{"last_updated":1683925522,"ttl":30,"version":"2.2","data":{"bikes":[{"bike_id":"07a23ae5-5ee6-4bb9-99c1-1f1829191cad","system_id":"levelo_inurba_marseille","lat":43.312239,"lon":5.368562,"is_reserved":false,"is_disabled":false,"rental_uris":{"android":"levelo://app?vid=07a23ae5-5ee6-4bb9-99c1-1f1829191cad","ios":"levelo://app?vid=07a23ae5-5ee6-4bb9-99c1-1f1829191cad"},"vehicle_type_id":"4","last_reported":1683925523,"current_range_meters":30000,"station_id":"ce4bgl92rcd13ifvqbq0","pricing_plan_id":"free"},{"bike_id":"8effeac1-6a9f-46ef-a143-5b533a65e915","system_id":"levelo_inurba_marseille","lat":43.312239,"lon":5.368562,"is_reserved":false,"is_disabled":false,"rental_uris":{"android":"levelo://app?vid=8effeac1-6a9f-46ef-a143-5b533a65e915","ios":"levelo://app?vid=8effeac1-6a9f-46ef-a143-5b533a65e915"},"vehicle_type_id":"4","last_reported":1683925523,"current_range_meters":30800,"station_id":"ce4bgl92rcd13ifvqbq0","pricing_plan_id":"free"},{"bike_id":"729baba6-a6e9-4734-92aa-28169f26775f","system_id":"levelo_inurba_marseille","lat":43.312239,"lon":5.368562,"is_reserved":false,"is_disabled":false,"rental_uris":{"android":"levelo://app?vid=729baba6-a6e9-4734-92aa-28169f26775f","ios":"levelo://app?vid=729baba6-a6e9-4734-92aa-28169f26775f"},"vehicle_type_id":"4","last_reported":1683925523,"current_range_meters":8000,"station_id":"ce4bgl92rcd13ifvqbq0","pricing_plan_id":"free"},{"bike_id":"e308132f-8625-414c-a52d-0b2cb9b5ed1a","system_id":"levelo_inurba_marseille","lat":43.314811,"lon":5.373103,"is_reserved":false,"is_disabled":false,"rental_uris":{"android":"levelo://app?vid=e308132f-8625-414c-a52d-0b2cb9b5ed1a","ios":"levelo://app?vid=e308132f-8625-414c-a52d-0b2cb9b5ed1a"},"vehicle_type_id":"4","last_reported":1683925523,"current_range_meters":6800,"station_id":"ce4bgt12rcd13ifvqcd0","pricing_plan_id":"free"},{"bike_id":"7eb75029-0d00-4447-8a2a-ac3185adaba3","system_id":"levelo_inurba_marseille","lat":43.314811,"lon":5.373103,"is_reserved":false,"is_disabled":false,"rental_uris":{"android":"levelo://app?vid=7eb75029-0d00-4447-8a2a-ac3185adaba3","ios":"levelo://app?vid=7eb75029-0d00-4447-8a2a-ac3185adaba3"},"vehicle_type_id":"4","last_reported":1683925523,"current_range_meters":29600,"station_id":"ce4bgt12rcd13ifvqcd0","pricing_plan_id":"free"},{"bike_id":"d9a538f6-aba6-48db-83b6-ca24e057bc71","system_id":"levelo_inurba_marseille","lat":43.30886,"lon":5.37189,"is_reserved":false,"is_disabled":false,"rental_uris":{"android":"levelo://app?vid=d9a538f6-aba6-48db-83b6-ca24e057bc71","ios":"levelo://app?vid=d9a538f6-aba6-48db-83b6-ca24e057bc71"},"vehicle_type_id":"4","last_reported":1683925523,"current_range_meters":24000,"station_id":"","pricing_plan_id":"free"},{"bike_id":"23e88bd3-5806-49cd-9b86-f080c887e495","system_id":"levelo_inurba_marseille","lat":43.308614,"lon":5.372098,"is_reserved":false,"is_disabled":false,"rental_uris":{"android":"levelo://app?vid=23e88bd3-5806-49cd-9b86-f080c887e495","ios":"levelo://app?vid=23e88bd3-5806-49cd-9b86-f080c887e495"},"vehicle_type_id":"4","last_reported":1683925523,"current_range_meters":12000,"station_id":"ce4bguh2rcd13ifvqckg","pricing_plan_id":"free"},{"bike_id":"2c345373-5d02-4ac1-8d35-8ae6da9510c2","system_id":"levelo_inurba_marseille","lat":43.305706,"lon":5.365654,"is_reserved":false,"is_disabled":false,"rental_uris":{"android":"levelo://app?vid=2c345373-5d02-4ac1-8d35-8ae6da9510c2","ios":"levelo://app?vid=2c345373-5d02-4ac1-8d35-8ae6da9510c2"},"vehicle_type_id":"4","last_reported":1683925523,"current_range_meters":10000,"station_id":"ce4bgs12rcd13ifvqcag","pricing_plan_id":"free"},{"bike_id":"360150ad-3d53-4795-bd14-d0d4ceceb2ac","system_id":"levelo_inurba_marseille","lat":43.305706,"lon":5.365654,"is_reserved":false,"is_disabled":false,"rental_uris":{"android":"levelo://app?vid=360150ad-3d53-4795-bd14-d0d4ceceb2ac","ios":"levelo://app?vid=360150ad-3d53-4795-bd14-d0d4ceceb2ac"},"vehicle_type_id":"4","last_reported":1683925523,"current_range_meters":4000,"station_id":"ce4bgs12rcd13ifvqcag","pricing_plan_id":"free"},{"bike_id":"151d50bc-3aee-48d5-9527-783274464e00","system_id":"levelo_inurba_marseille","lat":43.31181,"lon":5.37751,"is_reserved":false,"is_disabled":false,"rental_uris":{"android":"levelo://app?vid=151d50bc-3aee-48d5-9527-783274464e00","ios":"levelo://app?vid=151d50bc-3aee-48d5-9527-783274464e00"},"vehicle_type_id":"4","last_reported":1683925523,"current_range_meters":16000,"station_id":"","pricing_plan_id":"free"},{"bike_id":"8bca51a8-002d-4218-a015-52c6654c1164","system_id":"levelo_inurba_marseille","lat":43.31113,"lon":5.37763,"is_reserved":false,"is_disabled":false,"rental_uris":{"android":"levelo://app?vid=8bca51a8-002d-4218-a015-52c6654c1164","ios":"levelo://app?vid=8bca51a8-002d-4218-a015-52c6654c1164"},"vehicle_type_id":"4","last_reported":1683925523,"current_range_meters":5200,"station_id":"ce4bgt92rcd13ifvqcg0","pricing_plan_id":"free"},{"bike_id":"b8dfc61c-f582-4d79-a31b-7f318e3bbfb7","system_id":"levelo_inurba_marseille","lat":43.311131,"lon":5.377651,"is_reserved":false,"is_disabled":false,"rental_uris":{"android":"levelo://app?vid=b8dfc61c-f582-4d79-a31b-7f318e3bbfb7","ios":"levelo://app?vid=b8dfc61c-f582-4d79-a31b-7f318e3bbfb7"},"vehicle_type_id":"4","last_reported":1683925523,"current_range_meters":16400,"station_id":"ce4bgt92rcd13ifvqcg0","pricing_plan_id":"free"},{"bike_id":"229bf8a1-24f2-4d90-97fc-57ece1bf4f91","system_id":"levelo_inurba_marseille","lat":43.303046,"lon":5.368981,"is_reserved":false,"is_disabled":false,"rental_uris":{"android":"levelo://app?vid=229bf8a1-24f2-4d90-97fc-57ece1bf4f91","ios":"levelo://app?vid=229bf8a1-24f2-4d90-97fc-57ece1bf4f91"},"vehicle_type_id":"4","last_reported":1683925523,"current_range_meters":16000,"station_id":"ce4bgqh2rcd13ifvqc5g","pricing_plan_id":"free"},{"bike_id":"a9f7cdcf-06fc-4556-bb76-41c2892b0d8e","system_id":"levelo_inurba_marseille","lat":43.303046,"lon":5.368981,"is_reserved":false,"is_disabled":false,"rental_uris":{"android":"levelo://app?vid=a9f7cdcf-06fc-4556-bb76-41c2892b0d8e","ios":"levelo://app?vid=a9f7cdcf-06fc-4556-bb76-41c2892b0d8e"},"vehicle_type_id":"4","last_reported":1683925523,"current_range_meters":14400,"station_id":"ce4bgqh2rcd13ifvqc5g","pricing_plan_id":"free"},{"bike_id":"a40fea66-3497-45ec-9257-d38fedf40aa2","system_id":"levelo_inurba_marseille","lat":43.303046,"lon":5.368981,"is_reserved":false,"is_disabled":false,"rental_uris":{"android":"levelo://app?vid=a40fea66-3497-45ec-9257-d38fedf40aa2","ios":"levelo://app?vid=a40fea66-3497-45ec-9257-d38fedf40aa2"},"vehicle_type_id":"4","last_reported":1683925523,"current_range_meters":26000,"station_id":"ce4bgqh2rcd13ifvqc5g","pricing_plan_id":"free"},{"bike_id":"3adb8816-50b6-4e27-b81c-88cdfaaccd85","system_id":"levelo_inurba_marseille","lat":43.303046,"lon":5.368981,"is_reserved":false,"is_disabled":false,"rental_uris":{"android":"levelo://app?vid=3adb8816-50b6-4e27-b81c-88cdfaaccd85","ios":"levelo://app?vid=3adb8816-50b6-4e27-b81c-88cdfaaccd85"},"vehicle_type_id":"4","last_reported":1683925523,"current_range_meters":18000,"station_id":"ce4bgqh2rcd13ifvqc5g","pricing_plan_id":"free"},{"bike_id":"c8412fe7-2de9-4508-a3ce-7be580c37a76","system_id":"levelo_inurba_marseille","lat":43.315289,"lon":5.380349,"is_reserved":false,"is_disabled":false,"rental_uris":{"android":"levelo://app?vid=c8412fe7-2de9-4508-a3ce-7be580c37a76","ios":"levelo://app?vid=c8412fe7-2de9-4508-a3ce-7be580c37a76"},"vehicle_type_id":"4","last_reported":1683925523,"current_range_meters":12400,"station_id":"ce4bhsp2rcd13ifvqi50","pricing_plan_id":"free"},{"bike_id":"3e42df1c-915e-406a-93f3-dff9b914f1b6","system_id":"levelo_inurba_marseille","lat":43.315293,"lon":5.380349,"is_reserved":false,"is_disabled":false,"rental_uris":{"android":"levelo://app?vid=3e42df1c-915e-406a-93f3-dff9b914f1b6","ios":"levelo://app?vid=3e42df1c-915e-406a-93f3-dff9b914f1b6"},"vehicle_type_id":"4","last_reported":1683925523,"current_range_meters":30800,"station_id":"ce4bhsp2rcd13ifvqi50","pricing_plan_id":"free"},{"bike_id":"a2c655bc-0c3f-4fd2-b4ca-3ceb11091cce","system_id":"levelo_inurba_marseille","lat":43.315289,"lon":5.380349,"is_reserved":false,"is_disabled":false,"rental_uris":{"android":"levelo://app?vid=a2c655bc-0c3f-4fd2-b4ca-3ceb11091cce","ios":"levelo://app?vid=a2c655bc-0c3f-4fd2-b4ca-3ceb11091cce"},"vehicle_type_id":"4","last_reported":1683925523,"current_range_meters":22000,"station_id":"ce4bhsp2rcd13ifvqi50","pricing_plan_id":"free"},{"bike_id":"9b69f5c4-4157-4e2f-9468-5acf70b48b65","system_id":"levelo_inurba_marseille","lat":43.315293,"lon":5.380349,"is_reserved":false,"is_disabled":false,"rental_uris":{"android":"levelo://app?vid=9b69f5c4-4157-4e2f-9468-5acf70b48b65","ios":"levelo://app?vid=9b69f5c4-4157-4e2f-9468-5acf70b48b65"},"vehicle_type_id":"4","last_reported":1683925523,"current_range_meters":30400,"station_id":"ce4bhsp2rcd13ifvqi50","pricing_plan_id":"free"},{"bike_id":"df11b39e-8892-476e-b0b8-2adf105936a2","system_id":"levelo_inurba_marseille","lat":43.315293,"lon":5.380349,"is_reserved":false,"is_disabled":false,"rental_uris":{"android":"levelo://app?vid=df11b39e-8892-476e-b0b8-2adf105936a2","ios":"levelo://app?vid=df11b39e-8892-476e-b0b8-2adf105936a2"},"vehicle_type_id":"4","last_reported":1683925523,"current_range_meters":6800,"station_id":"ce4bhsp2rcd13ifvqi50","pricing_plan_id":"free"},{"bike_id":"1fea181e-90ff-4838-b6c3-f3aaa92d88ff","system_id":"levelo_inurba_marseille","lat":43.315293,"lon":5.380349,"is_reserved":false,"is_disabled":false,"rental_uris":{"android":"levelo://app?vid=1fea181e-90ff-4838-b6c3-f3aaa92d88ff","ios":"levelo://app?vid=1fea181e-90ff-4838-b6c3-f3aaa92d88ff"},"vehicle_type_id":"4","last_reported":1683925523,"current_range_meters":5600,"station_id":"ce4bhsp2rcd13ifvqi50","pricing_plan_id":"free"},{"bike_id":"09db0ad5-e4ff-4b06-b6ac-237c086328e7","system_id":"levelo_inurba_marseille","lat":43.315293,"lon":5.380349,"is_reserved":false,"is_disabled":false,"rental_uris":{"android":"levelo://app?vid=09db0ad5-e4ff-4b06-b6ac-237c086328e7","ios":"levelo://app?vid=09db0ad5-e4ff-4b06-b6ac-237c086328e7"},"vehicle_type_id":"4","last_reported":1683925523,"current_range_meters":5600,"station_id":"ce4bhsp2rcd13ifvqi50","pricing_plan_id":"free"},{"bike_id":"08d208cd-111d-4d98-9973-a830a817d59b","system_id":"levelo_inurba_marseille","lat":43.301939,"lon":5.366286,"is_reserved":false,"is_disabled":false,"rental_uris":{"android":"levelo://app?vid=08d208cd-111d-4d98-9973-a830a817d59b","ios":"levelo://app?vid=08d208cd-111d-4d98-9973-a830a817d59b"},"vehicle_type_id":"4","last_reported":1683925523,"current_range_meters":1600,"station_id":"ce4bgrh2rcd13ifvqc8g","pricing_plan_id":"free"},{"bike_id":"e194e281-b6fd-4364-9528-ceb129748b36","system_id":"levelo_inurba_marseille","lat":43.301939,"lon":5.366286,"is_reserved":false,"is_disabled":false,"rental_uris":{"android":"levelo://app?vid=e194e281-b6fd-4364-9528-ceb129748b36","ios":"levelo://app?vid=e194e281-b6fd-4364-9528-ceb129748b36"},"vehicle_type_id":"4","last_reported":1683925523,"current_range_meters":6000,"station_id":"ce4bgrh2rcd13ifvqc8g","pricing_plan_id":"free"},{"bike_id":"c99b2aa2-cab6-4148-991a-bd5a1ecf2159","system_id":"levelo_inurba_marseille","lat":43.304606,"lon":5.379026,"is_reserved":false,"is_disabled":false,"rental_uris":{"android":"levelo://app?vid=c99b2aa2-cab6-4148-991a-bd5a1ecf2159","ios":"levelo://app?vid=c99b2aa2-cab6-4148-991a-bd5a1ecf2159"},"vehicle_type_id":"4","last_reported":1683925523,"current_range_meters":3600,"station_id":"ce4bgup2rcd13ifvqcn0","pricing_plan_id":"free"},{"bike_id":"1059aa30-032a-4f51-bef7-d23f98f9b6ed","system_id":"levelo_inurba_marseille","lat":43.304606,"lon":5.379026,"is_reserved":false,"is_disabled":false,"rental_uris":{"android":"levelo://app?vid=1059aa30-032a-4f51-bef7-d23f98f9b6ed","ios":"levelo://app?vid=1059aa30-032a-4f51-bef7-d23f98f9b6ed"},"vehicle_type_id":"4","last_reported":1683925523,"current_range_meters":7200,"station_id":"ce4bgup2rcd13ifvqcn0","pricing_plan_id":"free"},{"bike_id":"0428d815-c940-4f2d-b543-78ea263f8b47","system_id":"levelo_inurba_marseille","lat":43.3046,"lon":5.37903,"is_reserved":false,"is_disabled":false,"rental_uris":{"android":"levelo://app?vid=0428d815-c940-4f2d-b543-78ea263f8b47","ios":"levelo://app?vid=0428d815-c940-4f2d-b543-78ea263f8b47"},"vehicle_type_id":"4","last_reported":1683925523,"current_range_meters":14000,"station_id":"ce4bgup2rcd13ifvqcn0","pricing_plan_id":"free"},{"bike_id":"909ec5a7-e85a-4f99-bd77-48e11751a58f","system_id":"levelo_inurba_marseille","lat":43.304606,"lon":5.379026,"is_reserved":false,"is_disabled":false,"rental_uris":{"android":"levelo://app?vid=909ec5a7-e85a-4f99-bd77-48e11751a58f","ios":"levelo://app?vid=909ec5a7-e85a-4f99-bd77-48e11751a58f"},"vehicle_type_id":"4","last_reported":1683925523,"current_range_meters":12800,"station_id":"ce4bgup2rcd13ifvqcn0","pricing_plan_id":"free"},{"bike_id":"189744e6-4d0e-4b29-a759-97405959634e","system_id":"levelo_inurba_marseille","lat":43.304606,"lon":5.379026,"is_reserved":false,"is_disabled":false,"rental_uris":{"android":"levelo://app?vid=189744e6-4d0e-4b29-a759-97405959634e","ios":"levelo://app?vid=189744e6-4d0e-4b29-a759-97405959634e"},"vehicle_type_id":"4","last_reported":1683925523,"current_range_meters":25200,"station_id":"ce4bgup2rcd13ifvqcn0","pricing_plan_id":"free"},{"bike_id":"1a0e24a8-4813-49d6-93a3-64ece64866b9","system_id":"levelo_inurba_marseille","lat":43.313571,"lon":5.384829,"is_reserved":false,"is_disabled":false,"rental_uris":{"android":"levelo://app?vid=1a0e24a8-4813-49d6-93a3-64ece64866b9","ios":"levelo://app?vid=1a0e24a8-4813-49d6-93a3-64ece64866b9"},"vehicle_type_id":"4","last_reported":1683925523,"current_range_meters":29600,"station_id":"ce4bgt92rcd13ifvqcf0","pricing_plan_id":"free"},{"bike_id":"7cb96f2b-4d7d-4999-8ea6-fb8af28e2677","system_id":"levelo_inurba_marseille","lat":43.313571,"lon":5.384829,"is_reserved":false,"is_disabled":false,"rental_uris":{"android":"levelo://app?vid=7cb96f2b-4d7d-4999-8ea6-fb8af28e2677","ios":"levelo://app?vid=7cb96f2b-4d7d-4999-8ea6-fb8af28e2677"},"vehicle_type_id":"4","last_reported":1683925523,"current_range_meters":800,"station_id":"ce4bgt92rcd13ifvqcf0","pricing_plan_id":"free"},{"bike_id":"5af57c49-44f4-498d-bd20-313b26fa2a68","system_id":"levelo_inurba_marseille","lat":43.313571,"lon":5.384829,"is_reserved":false,"is_disabled":false,"rental_uris":{"android":"levelo://app?vid=5af57c49-44f4-498d-bd20-313b26fa2a68","ios":"levelo://app?vid=5af57c49-44f4-498d-bd20-313b26fa2a68"},"vehicle_type_id":"4","last_reported":1683925523,"current_range_meters":15200,"station_id":"ce4bgt92rcd13ifvqcf0","pricing_plan_id":"free"},{"bike_id":"1346ce3e-2061-4ded-98f4-2cc2a2572cf5","system_id":"levelo_inurba_marseille","lat":43.31362,"lon":5.38499,"is_reserved":false,"is_disabled":false,"rental_uris":{"android":"levelo://app?vid=1346ce3e-2061-4ded-98f4-2cc2a2572cf5","ios":"levelo://app?vid=1346ce3e-2061-4ded-98f4-2cc2a2572cf5"},"vehicle_type_id":"4","last_reported":1683925523,"current_range_meters":31200,"station_id":"ce4bgt92rcd13ifvqcf0","pricing_plan_id":"free"},{"bike_id":"f2192669-b88f-4de1-8343-54919fc17577","system_id":"levelo_inurba_marseille","lat":43.313571,"lon":5.384829,"is_reserved":false,"is_disabled":false,"rental_uris":{"android":"levelo://app?vid=f2192669-b88f-4de1-8343-54919fc17577","ios":"levelo://app?vid=f2192669-b88f-4de1-8343-54919fc17577"},"vehicle_type_id":"4","last_reported":1683925523,"current_range_meters":6800,"station_id":"ce4bgt92rcd13ifvqcf0","pricing_plan_id":"free"},{"bike_id":"c8bb951c-0042-4c1f-a1a2-435a07907d5d","system_id":"levelo_inurba_marseille","lat":43.313571,"lon":5.384829,"is_reserved":false,"is_disabled":false,"rental_uris":{"android":"levelo://app?vid=c8bb951c-0042-4c1f-a1a2-435a07907d5d","ios":"levelo://app?vid=c8bb951c-0042-4c1f-a1a2-435a07907d5d"},"vehicle_type_id":"4","last_reported":1683925523,"current_range_meters":5600,"station_id":"ce4bgt92rcd13ifvqcf0","pricing_plan_id":"free"},{"bike_id":"7c4c197e-75fa-43f5-9aed-26c078ca667b","system_id":"levelo_inurba_marseille","lat":43.29941,"lon":5.36549,"is_reserved":false,"is_disabled":false,"rental_uris":{"android":"levelo://app?vid=7c4c197e-75fa-43f5-9aed-26c078ca667b","ios":"levelo://app?vid=7c4c197e-75fa-43f5-9aed-26c078ca667b"},"vehicle_type_id":"4","last_reported":1683925523,"current_range_meters":29600,"station_id":"ce4bgm92rcd13ifvqbr0","pricing_plan_id":"free"},{"bike_id":"02f53e3d-6eae-4d26-873d-ed902c566d70","system_id":"levelo_inurba_marseille","lat":43.299222,"lon":5.365554,"is_reserved":false,"is_disabled":false,"rental_uris":{"android":"levelo://app?vid=02f53e3d-6eae-4d26-873d-ed902c566d70","ios":"levelo://app?vid=02f53e3d-6eae-4d26-873d-ed902c566d70"},"vehicle_type_id":"4","last_reported":1683925523,"current_range_meters":29600,"station_id":"ce4bgm92rcd13ifvqbr0","pricing_plan_id":"free"},{"bike_id":"902ad065-7ebd-4ea8-b6f3-49a4e251bc0b","system_id":"levelo_inurba_marseille","lat":43.29855,"lon":5.36288,"is_reserved":false,"is_disabled":false,"rental_uris":{"android":"levelo://app?vid=902ad065-7ebd-4ea8-b6f3-49a4e251bc0b","ios":"levelo://app?vid=902ad065-7ebd-4ea8-b6f3-49a4e251bc0b"},"vehicle_type_id":"4","last_reported":1683925523,"current_range_meters":31200,"station_id":"ce4bgpp2rcd13ifvqc3g","pricing_plan_id":"free"},{"bike_id":"2b33f1e4-6a50-43a6-a8d2-ea89978209dc","system_id":"levelo_inurba_marseille","lat":43.298433,"lon":5.362774,"is_reserved":false,"is_disabled":false,"rental_uris":{"android":"levelo://app?vid=2b33f1e4-6a50-43a6-a8d2-ea89978209dc","ios":"levelo://app?vid=2b33f1e4-6a50-43a6-a8d2-ea89978209dc"},"vehicle_type_id":"4","last_reported":1683925523,"current_range_meters":800,"station_id":"ce4bgpp2rcd13ifvqc3g","pricing_plan_id":"free"},{"bike_id":"62d1748d-9690-4ff3-a489-598e54b70cdf","system_id":"levelo_inurba_marseille","lat":43.298433,"lon":5.362774,"is_reserved":false,"is_disabled":false,"rental_uris":{"android":"levelo://app?vid=62d1748d-9690-4ff3-a489-598e54b70cdf","ios":"levelo://app?vid=62d1748d-9690-4ff3-a489-598e54b70cdf"},"vehicle_type_id":"4","last_reported":1683925523,"current_range_meters":0,"station_id":"ce4bgpp2rcd13ifvqc3g","pricing_plan_id":"free"},{"bike_id":"ce1b2a64-a787-4cfc-80d4-29f9c2597d43","system_id":"levelo_inurba_marseille","lat":43.298433,"lon":5.362774,"is_reserved":false,"is_disabled":false,"rental_uris":{"android":"levelo://app?vid=ce1b2a64-a787-4cfc-80d4-29f9c2597d43","ios":"levelo://app?vid=ce1b2a64-a787-4cfc-80d4-29f9c2597d43"},"vehicle_type_id":"4","last_reported":1683925523,"current_range_meters":30000,"station_id":"ce4bgpp2rcd13ifvqc3g","pricing_plan_id":"free"},{"bike_id":"71b9661d-e700-4a50-9ecb-34024617fc27","system_id":"levelo_inurba_marseille","lat":43.299243,"lon":5.374807,"is_reserved":false,"is_disabled":false,"rental_uris":{"android":"levelo://app?vid=71b9661d-e700-4a50-9ecb-34024617fc27","ios":"levelo://app?vid=71b9661d-e700-4a50-9ecb-34024617fc27"},"vehicle_type_id":"4","last_reported":1683925523,"current_range_meters":31200,"station_id":"ce4bgjh2rcd13ifvqbg0","pricing_plan_id":"free"},{"bike_id":"401cea05-e15d-4a97-81c8-ee7d2a1f7f1a","system_id":"levelo_inurba_marseille","lat":43.298433,"lon":5.362774,"is_reserved":false,"is_disabled":false,"rental_uris":{"android":"levelo://app?vid=401cea05-e15d-4a97-81c8-ee7d2a1f7f1a","ios":"levelo://app?vid=401cea05-e15d-4a97-81c8-ee7d2a1f7f1a"},"vehicle_type_id":"4","last_reported":1683925523,"current_range_meters":15600,"station_id":"ce4bgpp2rcd13ifvqc3g","pricing_plan_id":"free"},{"bike_id":"8a0bd8ec-b703-46fe-9011-13408b53ae3a","system_id":"levelo_inurba_marseille","lat":43.299243,"lon":5.374807,"is_reserved":false,"is_disabled":false,"rental_uris":{"android":"levelo://app?vid=8a0bd8ec-b703-46fe-9011-13408b53ae3a","ios":"levelo://app?vid=8a0bd8ec-b703-46fe-9011-13408b53ae3a"},"vehicle_type_id":"4","last_reported":1683925523,"current_range_meters":31200,"station_id":"ce4bgjh2rcd13ifvqbg0","pricing_plan_id":"free"},{"bike_id":"442f6267-f7a7-42ec-8d86-b3d451613bb3","system_id":"levelo_inurba_marseille","lat":43.299243,"lon":5.374807,"is_reserved":false,"is_disabled":false,"rental_uris":{"android":"levelo://app?vid=442f6267-f7a7-42ec-8d86-b3d451613bb3","ios":"levelo://app?vid=442f6267-f7a7-42ec-8d86-b3d451613bb3"},"vehicle_type_id":"4","last_reported":1683925523,"current_range_meters":19600,"station_id":"ce4bgjh2rcd13ifvqbg0","pricing_plan_id":"free"},{"bike_id":"b07d9a57-b98e-4679-8b0d-cf8b8c648bc1","system_id":"levelo_inurba_marseille","lat":43.299208,"lon":5.374745,"is_reserved":false,"is_disabled":false,"rental_uris":{"android":"levelo://app?vid=b07d9a57-b98e-4679-8b0d-cf8b8c648bc1","ios":"levelo://app?vid=b07d9a57-b98e-4679-8b0d-cf8b8c648bc1"},"vehicle_type_id":"4","last_reported":1683925523,"current_range_meters":31200,"station_id":"ce4bgjh2rcd13ifvqbg0","pricing_plan_id":"free"},{"bike_id":"cc462b2c-ce31-4224-8ac8-89fc370a7907","system_id":"levelo_inurba_marseille","lat":43.299169,"lon":5.374748,"is_reserved":false,"is_disabled":false,"rental_uris":{"android":"levelo://app?vid=cc462b2c-ce31-4224-8ac8-89fc370a7907","ios":"levelo://app?vid=cc462b2c-ce31-4224-8ac8-89fc370a7907"},"vehicle_type_id":"4","last_reported":1683925523,"current_range_meters":31200,"station_id":"ce4bgjh2rcd13ifvqbg0","pricing_plan_id":"free"},{"bike_id":"ea5e9d4e-ebbb-46b9-b12c-5814c41ce0aa","system_id":"levelo_inurba_marseille","lat":43.29916,"lon":5.37477,"is_reserved":false,"is_disabled":false,"rental_uris":{"android":"levelo://app?vid=ea5e9d4e-ebbb-46b9-b12c-5814c41ce0aa","ios":"levelo://app?vid=ea5e9d4e-ebbb-46b9-b12c-5814c41ce0aa"},"vehicle_type_id":"4","last_reported":1683925523,"current_range_meters":31200,"station_id":"ce4bgjh2rcd13ifvqbg0","pricing_plan_id":"free"},{"bike_id":"8355a540-e313-4fe7-9953-f33194983833","system_id":"levelo_inurba_marseille","lat":43.311722,"lon":5.387247,"is_reserved":false,"is_disabled":false,"rental_uris":{"android":"levelo://app?vid=8355a540-e313-4fe7-9953-f33194983833","ios":"levelo://app?vid=8355a540-e313-4fe7-9953-f33194983833"},"vehicle_type_id":"4","last_reported":1683925523,"current_range_meters":18000,"station_id":"ce4bgv12rcd13ifvqcp0","pricing_plan_id":"free"},{"bike_id":"d50cb2aa-615b-465d-9c24-f89ac67d7967","system_id":"levelo_inurba_marseille","lat":43.31166,"lon":5.38726,"is_reserved":false,"is_disabled":false,"rental_uris":{"android":"levelo://app?vid=d50cb2aa-615b-465d-9c24-f89ac67d7967","ios":"levelo://app?vid=d50cb2aa-615b-465d-9c24-f89ac67d7967"},"vehicle_type_id":"4","last_reported":1683925523,"current_range_meters":4800,"station_id":"ce4bgv12rcd13ifvqcp0","pricing_plan_id":"free"},{"bike_id":"d66e1513-0869-4b91-8dd7-780f710f24c6","system_id":"levelo_inurba_marseille","lat":43.311722,"lon":5.387247,"is_reserved":false,"is_disabled":false,"rental_uris":{"android":"levelo://app?vid=d66e1513-0869-4b91-8dd7-780f710f24c6","ios":"levelo://app?vid=d66e1513-0869-4b91-8dd7-780f710f24c6"},"vehicle_type_id":"4","last_reported":1683925523,"current_range_meters":8400,"station_id":"ce4bgv12rcd13ifvqcp0","pricing_plan_id":"free"},{"bike_id":"2f96f4b7-d3f1-4b87-b98f-caf50ba6d13d","system_id":"levelo_inurba_marseille","lat":43.32769,"lon":5.36696,"is_reserved":false,"is_disabled":false,"rental_uris":{"android":"levelo://app?vid=2f96f4b7-d3f1-4b87-b98f-caf50ba6d13d","ios":"levelo://app?vid=2f96f4b7-d3f1-4b87-b98f-caf50ba6d13d"},"vehicle_type_id":"4","last_reported":1683925523,"current_range_meters":14800,"station_id":"","pricing_plan_id":"free"},{"bike_id":"61c0ef26-ecfd-48b1-9af1-0a365bf05de8","system_id":"levelo_inurba_marseille","lat":43.297794,"lon":5.370888,"is_reserved":false,"is_disabled":false,"rental_uris":{"android":"levelo://app?vid=61c0ef26-ecfd-48b1-9af1-0a365bf05de8","ios":"levelo://app?vid=61c0ef26-ecfd-48b1-9af1-0a365bf05de8"},"vehicle_type_id":"4","last_reported":1683925523,"current_range_meters":18000,"station_id":"ce4bgop2rcd13ifvqc1g","pricing_plan_id":"free"},{"bike_id":"039f1865-d48c-4b13-ae90-47c343bb104d","system_id":"levelo_inurba_marseille","lat":43.297794,"lon":5.370888,"is_reserved":false,"is_disabled":false,"rental_uris":{"android":"levelo://app?vid=039f1865-d48c-4b13-ae90-47c343bb104d","ios":"levelo://app?vid=039f1865-d48c-4b13-ae90-47c343bb104d"},"vehicle_type_id":"4","last_reported":1683925523,"current_range_meters":31200,"station_id":"ce4bgop2rcd13ifvqc1g","pricing_plan_id":"free"},{"bike_id":"8df4cdb4-aa7f-4ed6-a494-dcba227c189f","system_id":"levelo_inurba_marseille","lat":43.297774,"lon":5.370875,"is_reserved":false,"is_disabled":false,"rental_uris":{"android":"levelo://app?vid=8df4cdb4-aa7f-4ed6-a494-dcba227c189f","ios":"levelo://app?vid=8df4cdb4-aa7f-4ed6-a494-dcba227c189f"},"vehicle_type_id":"4","last_reported":1683925523,"current_range_meters":9200,"station_id":"ce4bgop2rcd13ifvqc1g","pricing_plan_id":"free"},{"bike_id":"c7034e41-23d5-4534-bc14-c716046c6963","system_id":"levelo_inurba_marseille","lat":43.297774,"lon":5.370875,"is_reserved":false,"is_disabled":false,"rental_uris":{"android":"levelo://app?vid=c7034e41-23d5-4534-bc14-c716046c6963","ios":"levelo://app?vid=c7034e41-23d5-4534-bc14-c716046c6963"},"vehicle_type_id":"4","last_reported":1683925523,"current_range_meters":20000,"station_id":"ce4bgop2rcd13ifvqc1g","pricing_plan_id":"free"},{"bike_id":"3124275c-f383-4b76-ad05-39c8ea84d4a1","system_id":"levelo_inurba_marseille","lat":43.297774,"lon":5.370875,"is_reserved":false,"is_disabled":false,"rental_uris":{"android":"levelo://app?vid=3124275c-f383-4b76-ad05-39c8ea84d4a1","ios":"levelo://app?vid=3124275c-f383-4b76-ad05-39c8ea84d4a1"},"vehicle_type_id":"4","last_reported":1683925523,"current_range_meters":18800,"station_id":"ce4bgop2rcd13ifvqc1g","pricing_plan_id":"free"},{"bike_id":"35c64b45-67cb-4db8-8dde-84eb3cae14a9","system_id":"levelo_inurba_marseille","lat":43.328371,"lon":5.366912,"is_reserved":false,"is_disabled":false,"rental_uris":{"android":"levelo://app?vid=35c64b45-67cb-4db8-8dde-84eb3cae14a9","ios":"levelo://app?vid=35c64b45-67cb-4db8-8dde-84eb3cae14a9"},"vehicle_type_id":"4","last_reported":1683925523,"current_range_meters":31200,"station_id":"ce4bhs92rcd13ifvqi0g","pricing_plan_id":"free"},{"bike_id":"173c35b5-642e-4cd5-9a42-cf3fc117f00c","system_id":"levelo_inurba_marseille","lat":43.328371,"lon":5.366912,"is_reserved":false,"is_disabled":false,"rental_uris":{"android":"levelo://app?vid=173c35b5-642e-4cd5-9a42-cf3fc117f00c","ios":"levelo://app?vid=173c35b5-642e-4cd5-9a42-cf3fc117f00c"},"vehicle_type_id":"4","last_reported":1683925523,"current_range_meters":20800,"station_id":"ce4bhs92rcd13ifvqi0g","pricing_plan_id":"free"},{"bike_id":"d2fd4a69-1781-4d10-b230-5796d7806c38","system_id":"levelo_inurba_marseille","lat":43.328371,"lon":5.366912,"is_reserved":false,"is_disabled":false,"rental_uris":{"android":"levelo://app?vid=d2fd4a69-1781-4d10-b230-5796d7806c38","ios":"levelo://app?vid=d2fd4a69-1781-4d10-b230-5796d7806c38"},"vehicle_type_id":"4","last_reported":1683925523,"current_range_meters":4800,"station_id":"ce4bhs92rcd13ifvqi0g","pricing_plan_id":"free"},{"bike_id":"2f534b25-3d76-4ad4-bcb9-91101064834c","system_id":"levelo_inurba_marseille","lat":43.328371,"lon":5.366912,"is_reserved":false,"is_disabled":false,"rental_uris":{"android":"levelo://app?vid=2f534b25-3d76-4ad4-bcb9-91101064834c","ios":"levelo://app?vid=2f534b25-3d76-4ad4-bcb9-91101064834c"},"vehicle_type_id":"4","last_reported":1683925523,"current_range_meters":20800,"station_id":"ce4bhs92rcd13ifvqi0g","pricing_plan_id":"free"},{"bike_id":"05dd3660-fb8d-4649-b95f-77a48f876534","system_id":"levelo_inurba_marseille","lat":43.32831,"lon":5.36677,"is_reserved":false,"is_disabled":false,"rental_uris":{"android":"levelo://app?vid=05dd3660-fb8d-4649-b95f-77a48f876534","ios":"levelo://app?vid=05dd3660-fb8d-4649-b95f-77a48f876534"},"vehicle_type_id":"4","last_reported":1683925523,"current_range_meters":5600,"station_id":"ce4bhs92rcd13ifvqi0g","pricing_plan_id":"free"},{"bike_id":"053fa0fe-d0b8-4b77-9e9a-95a5b916daf2","system_id":"levelo_inurba_marseille","lat":43.328371,"lon":5.366912,"is_reserved":false,"is_disabled":false,"rental_uris":{"android":"levelo://app?vid=053fa0fe-d0b8-4b77-9e9a-95a5b916daf2","ios":"levelo://app?vid=053fa0fe-d0b8-4b77-9e9a-95a5b916daf2"},"vehicle_type_id":"4","last_reported":1683925523,"current_range_meters":3200,"station_id":"ce4bhs92rcd13ifvqi0g","pricing_plan_id":"free"},{"bike_id":"333ef2f4-70f8-4d81-b7a6-da9ccf4351e0","system_id":"levelo_inurba_marseille","lat":43.29718,"lon":5.3661,"is_reserved":false,"is_disabled":false,"rental_uris":{"android":"levelo://app?vid=333ef2f4-70f8-4d81-b7a6-da9ccf4351e0","ios":"levelo://app?vid=333ef2f4-70f8-4d81-b7a6-da9ccf4351e0"},"vehicle_type_id":"4","last_reported":1683925523,"current_range_meters":6800,"station_id":"","pricing_plan_id":"free"},{"bike_id":"86719306-0ddc-4576-a656-570a4d550f46","system_id":"levelo_inurba_marseille","lat":43.328371,"lon":5.366912,"is_reserved":false,"is_disabled":false,"rental_uris":{"android":"levelo://app?vid=86719306-0ddc-4576-a656-570a4d550f46","ios":"levelo://app?vid=86719306-0ddc-4576-a656-570a4d550f46"},"vehicle_type_id":"4","last_reported":1683925523,"current_range_meters":31200,"station_id":"ce4bhs92rcd13ifvqi0g","pricing_plan_id":"free"},{"bike_id":"8ea15e6b-0302-4f6b-a369-2130aebae5f9","system_id":"levelo_inurba_marseille","lat":43.328371,"lon":5.366912,"is_reserved":false,"is_disabled":false,"rental_uris":{"android":"levelo://app?vid=8ea15e6b-0302-4f6b-a369-2130aebae5f9","ios":"levelo://app?vid=8ea15e6b-0302-4f6b-a369-2130aebae5f9"},"vehicle_type_id":"4","last_reported":1683925523,"current_range_meters":15600,"station_id":"ce4bhs92rcd13ifvqi0g","pricing_plan_id":"free"},{"bike_id":"2ede4aa6-cb68-4708-8adb-810b72dccf8e","system_id":"levelo_inurba_marseille","lat":43.328371,"lon":5.366912,"is_reserved":false,"is_disabled":false,"rental_uris":{"android":"levelo://app?vid=2ede4aa6-cb68-4708-8adb-810b72dccf8e","ios":"levelo://app?vid=2ede4aa6-cb68-4708-8adb-810b72dccf8e"},"vehicle_type_id":"4","last_reported":1683925523,"current_range_meters":8400,"station_id":"ce4bhs92rcd13ifvqi0g","pricing_plan_id":"free"},{"bike_id":"0a5c6e50-cd6f-4800-a0e5-993347926bc8","system_id":"levelo_inurba_marseille","lat":43.328371,"lon":5.366912,"is_reserved":false,"is_disabled":false,"rental_uris":{"android":"levelo://app?vid=0a5c6e50-cd6f-4800-a0e5-993347926bc8","ios":"levelo://app?vid=0a5c6e50-cd6f-4800-a0e5-993347926bc8"},"vehicle_type_id":"4","last_reported":1683925523,"current_range_meters":14800,"station_id":"ce4bhs92rcd13ifvqi0g","pricing_plan_id":"free"},{"bike_id":"913431a8-e34c-4ef3-9af0-c079a3c577f7","system_id":"levelo_inurba_marseille","lat":43.29711,"lon":5.36609,"is_reserved":false,"is_disabled":false,"rental_uris":{"android":"levelo://app?vid=913431a8-e34c-4ef3-9af0-c079a3c577f7","ios":"levelo://app?vid=913431a8-e34c-4ef3-9af0-c079a3c577f7"},"vehicle_type_id":"4","last_reported":1683925523,"current_range_meters":17200,"station_id":"","pricing_plan_id":"free"},{"bike_id":"4a096e15-5565-4671-b17d-f21825af3566","system_id":"levelo_inurba_marseille","lat":43.29701,"lon":5.36611,"is_reserved":false,"is_disabled":false,"rental_uris":{"android":"levelo://app?vid=4a096e15-5565-4671-b17d-f21825af3566","ios":"levelo://app?vid=4a096e15-5565-4671-b17d-f21825af3566"},"vehicle_type_id":"4","last_reported":1683925523,"current_range_meters":16400,"station_id":"","pricing_plan_id":"free"},{"bike_id":"6448c133-4cd4-412c-ab72-14f60d954e8f","system_id":"levelo_inurba_marseille","lat":43.31526,"lon":5.38916,"is_reserved":false,"is_disabled":false,"rental_uris":{"android":"levelo://app?vid=6448c133-4cd4-412c-ab72-14f60d954e8f","ios":"levelo://app?vid=6448c133-4cd4-412c-ab72-14f60d954e8f"},"vehicle_type_id":"4","last_reported":1683925523,"current_range_meters":29200,"station_id":"","pricing_plan_id":"free"},{"bike_id":"87d9db48-8f90-4623-afa9-94c060ccc844","system_id":"levelo_inurba_marseille","lat":43.296131,"lon":5.370791,"is_reserved":false,"is_disabled":false,"rental_uris":{"android":"levelo://app?vid=87d9db48-8f90-4623-afa9-94c060ccc844","ios":"levelo://app?vid=87d9db48-8f90-4623-afa9-94c060ccc844"},"vehicle_type_id":"4","last_reported":1683925523,"current_range_meters":31200,"station_id":"ce4bgnh2rcd13ifvqc0g","pricing_plan_id":"free"},{"bike_id":"69943245-a356-4d5c-b0a9-cd3bd6aa4169","system_id":"levelo_inurba_marseille","lat":43.296129,"lon":5.370777,"is_reserved":false,"is_disabled":false,"rental_uris":{"android":"levelo://app?vid=69943245-a356-4d5c-b0a9-cd3bd6aa4169","ios":"levelo://app?vid=69943245-a356-4d5c-b0a9-cd3bd6aa4169"},"vehicle_type_id":"4","last_reported":1683925523,"current_range_meters":18800,"station_id":"ce4bgnh2rcd13ifvqc0g","pricing_plan_id":"free"},{"bike_id":"ac8b4084-db61-4d89-b92e-6ca89b158f9a","system_id":"levelo_inurba_marseille","lat":43.296131,"lon":5.370791,"is_reserved":false,"is_disabled":false,"rental_uris":{"android":"levelo://app?vid=ac8b4084-db61-4d89-b92e-6ca89b158f9a","ios":"levelo://app?vid=ac8b4084-db61-4d89-b92e-6ca89b158f9a"},"vehicle_type_id":"4","last_reported":1683925523,"current_range_meters":24000,"station_id":"ce4bgnh2rcd13ifvqc0g","pricing_plan_id":"free"},{"bike_id":"ee3cf97d-faf9-43db-8b69-0126565b8d7f","system_id":"levelo_inurba_marseille","lat":43.296131,"lon":5.370791,"is_reserved":false,"is_disabled":false,"rental_uris":{"android":"levelo://app?vid=ee3cf97d-faf9-43db-8b69-0126565b8d7f","ios":"levelo://app?vid=ee3cf97d-faf9-43db-8b69-0126565b8d7f"},"vehicle_type_id":"4","last_reported":1683925523,"current_range_meters":28800,"station_id":"ce4bgnh2rcd13ifvqc0g","pricing_plan_id":"free"},{"bike_id":"50e67c30-2c3e-48cc-b035-37d7a4c4b5da","system_id":"levelo_inurba_marseille","lat":43.29573,"lon":5.367355,"is_reserved":false,"is_disabled":false,"rental_uris":{"android":"levelo://app?vid=50e67c30-2c3e-48cc-b035-37d7a4c4b5da","ios":"levelo://app?vid=50e67c30-2c3e-48cc-b035-37d7a4c4b5da"},"vehicle_type_id":"4","last_reported":1683925523,"current_range_meters":32000,"station_id":"ce4bgph2rcd13ifvqc2g","pricing_plan_id":"free"},{"bike_id":"bf650020-c948-4992-9a50-b18ee45d0e62","system_id":"levelo_inurba_marseille","lat":43.296131,"lon":5.370791,"is_reserved":false,"is_disabled":false,"rental_uris":{"android":"levelo://app?vid=bf650020-c948-4992-9a50-b18ee45d0e62","ios":"levelo://app?vid=bf650020-c948-4992-9a50-b18ee45d0e62"},"vehicle_type_id":"4","last_reported":1683925523,"current_range_meters":30400,"station_id":"ce4bgnh2rcd13ifvqc0g","pricing_plan_id":"free"},{"bike_id":"0cc340bf-6bf8-4934-ad7d-f67159853fb3","system_id":"levelo_inurba_marseille","lat":43.29573,"lon":5.367355,"is_reserved":false,"is_disabled":false,"rental_uris":{"android":"levelo://app?vid=0cc340bf-6bf8-4934-ad7d-f67159853fb3","ios":"levelo://app?vid=0cc340bf-6bf8-4934-ad7d-f67159853fb3"},"vehicle_type_id":"4","last_reported":1683925523,"current_range_meters":14000,"station_id":"ce4bgph2rcd13ifvqc2g","pricing_plan_id":"free"},{"bike_id":"6ed5384d-36cb-4489-ac8c-82ae15429743","system_id":"levelo_inurba_marseille","lat":43.29573,"lon":5.367355,"is_reserved":false,"is_disabled":false,"rental_uris":{"android":"levelo://app?vid=6ed5384d-36cb-4489-ac8c-82ae15429743","ios":"levelo://app?vid=6ed5384d-36cb-4489-ac8c-82ae15429743"},"vehicle_type_id":"4","last_reported":1683925523,"current_range_meters":27200,"station_id":"ce4bgph2rcd13ifvqc2g","pricing_plan_id":"free"},{"bike_id":"cdbd75e6-a30a-467e-9721-836a77f03d53","system_id":"levelo_inurba_marseille","lat":43.309589,"lon":5.390258,"is_reserved":false,"is_disabled":false,"rental_uris":{"android":"levelo://app?vid=cdbd75e6-a30a-467e-9721-836a77f03d53","ios":"levelo://app?vid=cdbd75e6-a30a-467e-9721-836a77f03d53"},"vehicle_type_id":"4","last_reported":1683925523,"current_range_meters":12000,"station_id":"ce4bgup2rcd13ifvqco0","pricing_plan_id":"free"},{"bike_id":"e62a4019-15e5-4aa8-ac87-39c5d1aaa8ba","system_id":"levelo_inurba_marseille","lat":43.30015,"lon":5.38272,"is_reserved":false,"is_disabled":false,"rental_uris":{"android":"levelo://app?vid=e62a4019-15e5-4aa8-ac87-39c5d1aaa8ba","ios":"levelo://app?vid=e62a4019-15e5-4aa8-ac87-39c5d1aaa8ba"},"vehicle_type_id":"4","last_reported":1683925523,"current_range_meters":2800,"station_id":"","pricing_plan_id":"free"},{"bike_id":"77afa20b-0fb6-4832-b3fe-2d7e2440dc9f","system_id":"levelo_inurba_marseille","lat":43.309589,"lon":5.390258,"is_reserved":false,"is_disabled":false,"rental_uris":{"android":"levelo://app?vid=77afa20b-0fb6-4832-b3fe-2d7e2440dc9f","ios":"levelo://app?vid=77afa20b-0fb6-4832-b3fe-2d7e2440dc9f"},"vehicle_type_id":"4","last_reported":1683925523,"current_range_meters":1600,"station_id":"ce4bgup2rcd13ifvqco0","pricing_plan_id":"free"},{"bike_id":"3c8b0e08-a85c-4cb9-a48c-f0166a60c00d","system_id":"levelo_inurba_marseille","lat":43.309589,"lon":5.390258,"is_reserved":false,"is_disabled":false,"rental_uris":{"android":"levelo://app?vid=3c8b0e08-a85c-4cb9-a48c-f0166a60c00d","ios":"levelo://app?vid=3c8b0e08-a85c-4cb9-a48c-f0166a60c00d"},"vehicle_type_id":"4","last_reported":1683925523,"current_range_meters":30400,"station_id":"ce4bgup2rcd13ifvqco0","pricing_plan_id":"free"},{"bike_id":"8d249c4e-5841-43df-a8c1-1ee71a14ff90","system_id":"levelo_inurba_marseille","lat":43.317557,"lon":5.390173,"is_reserved":false,"is_disabled":false,"rental_uris":{"android":"levelo://app?vid=8d249c4e-5841-43df-a8c1-1ee71a14ff90","ios":"levelo://app?vid=8d249c4e-5841-43df-a8c1-1ee71a14ff90"},"vehicle_type_id":"4","last_reported":1683925523,"current_range_meters":4000,"station_id":"ce4bhqp2rcd13ifvqhng","pricing_plan_id":"free"},{"bike_id":"1b8e8455-d974-44bb-9a4e-7e7867c76231","system_id":"levelo_inurba_marseille","lat":43.31749,"lon":5.39017,"is_reserved":false,"is_disabled":false,"rental_uris":{"android":"levelo://app?vid=1b8e8455-d974-44bb-9a4e-7e7867c76231","ios":"levelo://app?vid=1b8e8455-d974-44bb-9a4e-7e7867c76231"},"vehicle_type_id":"4","last_reported":1683925523,"current_range_meters":20000,"station_id":"ce4bhqp2rcd13ifvqhng","pricing_plan_id":"free"},{"bike_id":"f9bae41d-83c1-4233-8006-62c6122a51c1","system_id":"levelo_inurba_marseille","lat":43.31757,"lon":5.39014,"is_reserved":false,"is_disabled":false,"rental_uris":{"android":"levelo://app?vid=f9bae41d-83c1-4233-8006-62c6122a51c1","ios":"levelo://app?vid=f9bae41d-83c1-4233-8006-62c6122a51c1"},"vehicle_type_id":"4","last_reported":1683925523,"current_range_meters":21200,"station_id":"ce4bhqp2rcd13ifvqhng","pricing_plan_id":"free"},{"bike_id":"80b60f6f-28ee-4635-a30c-377c46bb9c86","system_id":"levelo_inurba_marseille","lat":43.317557,"lon":5.390173,"is_reserved":false,"is_disabled":false,"rental_uris":{"android":"levelo://app?vid=80b60f6f-28ee-4635-a30c-377c46bb9c86","ios":"levelo://app?vid=80b60f6f-28ee-4635-a30c-377c46bb9c86"},"vehicle_type_id":"4","last_reported":1683925523,"current_range_meters":19600,"station_id":"ce4bhqp2rcd13ifvqhng","pricing_plan_id":"free"},{"bike_id":"dd1c1a76-3fb2-4e01-9b5d-f3e6dd4c9e52","system_id":"levelo_inurba_marseille","lat":43.31758,"lon":5.39016,"is_reserved":false,"is_disabled":false,"rental_uris":{"android":"levelo://app?vid=dd1c1a76-3fb2-4e01-9b5d-f3e6dd4c9e52","ios":"levelo://app?vid=dd1c1a76-3fb2-4e01-9b5d-f3e6dd4c9e52"},"vehicle_type_id":"4","last_reported":1683925523,"current_range_meters":20400,"station_id":"ce4bhqp2rcd13ifvqhng","pricing_plan_id":"free"},{"bike_id":"d7247fae-7e22-4583-aa1c-14ab5ad419c9","system_id":"levelo_inurba_marseille","lat":43.317557,"lon":5.390173,"is_reserved":false,"is_disabled":false,"rental_uris":{"android":"levelo://app?vid=d7247fae-7e22-4583-aa1c-14ab5ad419c9","ios":"levelo://app?vid=d7247fae-7e22-4583-aa1c-14ab5ad419c9"},"vehicle_type_id":"4","last_reported":1683925523,"current_range_meters":14800,"station_id":"ce4bhqp2rcd13ifvqhng","pricing_plan_id":"free"},{"bike_id":"536c91de-508f-41d3-bf9e-c825307fadf9","system_id":"levelo_inurba_marseille","lat":43.31756,"lon":5.3902,"is_reserved":false,"is_disabled":false,"rental_uris":{"android":"levelo://app?vid=536c91de-508f-41d3-bf9e-c825307fadf9","ios":"levelo://app?vid=536c91de-508f-41d3-bf9e-c825307fadf9"},"vehicle_type_id":"4","last_reported":1683925523,"current_range_meters":0,"station_id":"ce4bhqp2rcd13ifvqhng","pricing_plan_id":"free"},{"bike_id":"ebb64d41-4b06-49bb-a55c-b83574a6111f","system_id":"levelo_inurba_marseille","lat":43.317557,"lon":5.390173,"is_reserved":false,"is_disabled":false,"rental_uris":{"android":"levelo://app?vid=ebb64d41-4b06-49bb-a55c-b83574a6111f","ios":"levelo://app?vid=ebb64d41-4b06-49bb-a55c-b83574a6111f"},"vehicle_type_id":"4","last_reported":1683925523,"current_range_meters":5200,"station_id":"ce4bhqp2rcd13ifvqhng","pricing_plan_id":"free"},{"bike_id":"01208a13-824a-4a94-be8d-2a48a5b6b683","system_id":"levelo_inurba_marseille","lat":43.31751,"lon":5.39026,"is_reserved":false,"is_disabled":false,"rental_uris":{"android":"levelo://app?vid=01208a13-824a-4a94-be8d-2a48a5b6b683","ios":"levelo://app?vid=01208a13-824a-4a94-be8d-2a48a5b6b683"},"vehicle_type_id":"4","last_reported":1683925523,"current_range_meters":12000,"station_id":"ce4bhqp2rcd13ifvqhng","pricing_plan_id":"free"},{"bike_id":"98fae344-d710-464e-b75f-b2f57dc0d869","system_id":"levelo_inurba_marseille","lat":43.295748,"lon":5.37522,"is_reserved":false,"is_disabled":false,"rental_uris":{"android":"levelo://app?vid=98fae344-d710-464e-b75f-b2f57dc0d869","ios":"levelo://app?vid=98fae344-d710-464e-b75f-b2f57dc0d869"},"vehicle_type_id":"4","last_reported":1683925523,"current_range_meters":8000,"station_id":"ce4bgh92rcd13ifvqb50","pricing_plan_id":"free"},{"bike_id":"0b035b0f-ceff-41a3-8a89-2406660988d1","system_id":"levelo_inurba_marseille","lat":43.295854,"lon":5.375182,"is_reserved":false,"is_disabled":false,"rental_uris":{"android":"levelo://app?vid=0b035b0f-ceff-41a3-8a89-2406660988d1","ios":"levelo://app?vid=0b035b0f-ceff-41a3-8a89-2406660988d1"},"vehicle_type_id":"4","last_reported":1683925523,"current_range_meters":0,"station_id":"","pricing_plan_id":"free"},{"bike_id":"d8e03ccc-c577-409a-ab52-271aaff71865","system_id":"levelo_inurba_marseille","lat":43.304274,"lon":5.388873,"is_reserved":false,"is_disabled":false,"rental_uris":{"android":"levelo://app?vid=d8e03ccc-c577-409a-ab52-271aaff71865","ios":"levelo://app?vid=d8e03ccc-c577-409a-ab52-271aaff71865"},"vehicle_type_id":"4","last_reported":1683925523,"current_range_meters":27200,"station_id":"ce4bgk12rcd13ifvqbi0","pricing_plan_id":"free"},{"bike_id":"d2757595-4170-4b4e-98a1-ccd07d7f602d","system_id":"levelo_inurba_marseille","lat":43.299717,"lon":5.384845,"is_reserved":false,"is_disabled":false,"rental_uris":{"android":"levelo://app?vid=d2757595-4170-4b4e-98a1-ccd07d7f602d","ios":"levelo://app?vid=d2757595-4170-4b4e-98a1-ccd07d7f602d"},"vehicle_type_id":"4","last_reported":1683925523,"current_range_meters":30800,"station_id":"ce4bgj92rcd13ifvqbd0","pricing_plan_id":"free"},{"bike_id":"b3f83b62-11a8-4551-9818-1a6989644c08","system_id":"levelo_inurba_marseille","lat":43.29972,"lon":5.38483,"is_reserved":false,"is_disabled":false,"rental_uris":{"android":"levelo://app?vid=b3f83b62-11a8-4551-9818-1a6989644c08","ios":"levelo://app?vid=b3f83b62-11a8-4551-9818-1a6989644c08"},"vehicle_type_id":"4","last_reported":1683925523,"current_range_meters":11600,"station_id":"ce4bgj92rcd13ifvqbd0","pricing_plan_id":"free"},{"bike_id":"f5f803b5-5a8d-4cd2-a358-3ea8247bbe29","system_id":"levelo_inurba_marseille","lat":43.299724,"lon":5.384848,"is_reserved":false,"is_disabled":false,"rental_uris":{"android":"levelo://app?vid=f5f803b5-5a8d-4cd2-a358-3ea8247bbe29","ios":"levelo://app?vid=f5f803b5-5a8d-4cd2-a358-3ea8247bbe29"},"vehicle_type_id":"4","last_reported":1683925523,"current_range_meters":800,"station_id":"ce4bgj92rcd13ifvqbd0","pricing_plan_id":"free"},{"bike_id":"6b0d9baa-69c1-4e99-a612-223bcccd77f4","system_id":"levelo_inurba_marseille","lat":43.295279,"lon":5.375048,"is_reserved":false,"is_disabled":false,"rental_uris":{"android":"levelo://app?vid=6b0d9baa-69c1-4e99-a612-223bcccd77f4","ios":"levelo://app?vid=6b0d9baa-69c1-4e99-a612-223bcccd77f4"},"vehicle_type_id":"4","last_reported":1683925523,"current_range_meters":26800,"station_id":"ce4bgkp2rcd13ifvqbmg","pricing_plan_id":"free"},{"bike_id":"24790df7-eac9-4553-9b94-e5b3811c6049","system_id":"levelo_inurba_marseille","lat":43.29966,"lon":5.38484,"is_reserved":false,"is_disabled":false,"rental_uris":{"android":"levelo://app?vid=24790df7-eac9-4553-9b94-e5b3811c6049","ios":"levelo://app?vid=24790df7-eac9-4553-9b94-e5b3811c6049"},"vehicle_type_id":"4","last_reported":1683925523,"current_range_meters":28400,"station_id":"ce4bgj92rcd13ifvqbd0","pricing_plan_id":"free"},{"bike_id":"5682418d-0db7-466b-bf05-01cc1e3d8c2f","system_id":"levelo_inurba_marseille","lat":43.299724,"lon":5.384848,"is_reserved":false,"is_disabled":false,"rental_uris":{"android":"levelo://app?vid=5682418d-0db7-466b-bf05-01cc1e3d8c2f","ios":"levelo://app?vid=5682418d-0db7-466b-bf05-01cc1e3d8c2f"},"vehicle_type_id":"4","last_reported":1683925523,"current_range_meters":26800,"station_id":"ce4bgj92rcd13ifvqbd0","pricing_plan_id":"free"},{"bike_id":"cd5219bd-8865-48e7-8d7c-558b837e44aa","system_id":"levelo_inurba_marseille","lat":43.299717,"lon":5.384845,"is_reserved":false,"is_disabled":false,"rental_uris":{"android":"levelo://app?vid=cd5219bd-8865-48e7-8d7c-558b837e44aa","ios":"levelo://app?vid=cd5219bd-8865-48e7-8d7c-558b837e44aa"},"vehicle_type_id":"4","last_reported":1683925523,"current_range_meters":15600,"station_id":"ce4bgj92rcd13ifvqbd0","pricing_plan_id":"free"},{"bike_id":"95e4700f-551b-4c0e-ace8-0a773af6fa43","system_id":"levelo_inurba_marseille","lat":43.29963,"lon":5.38496,"is_reserved":false,"is_disabled":false,"rental_uris":{"android":"levelo://app?vid=95e4700f-551b-4c0e-ace8-0a773af6fa43","ios":"levelo://app?vid=95e4700f-551b-4c0e-ace8-0a773af6fa43"},"vehicle_type_id":"4","last_reported":1683925523,"current_range_meters":31200,"station_id":"ce4bgj92rcd13ifvqbd0","pricing_plan_id":"free"},{"bike_id":"98d43089-ff1e-40ee-a123-f18e174ce1c4","system_id":"levelo_inurba_marseille","lat":43.3144,"lon":5.39279,"is_reserved":false,"is_disabled":false,"rental_uris":{"android":"levelo://app?vid=98d43089-ff1e-40ee-a123-f18e174ce1c4","ios":"levelo://app?vid=98d43089-ff1e-40ee-a123-f18e174ce1c4"},"vehicle_type_id":"4","last_reported":1683925523,"current_range_meters":6800,"station_id":"","pricing_plan_id":"free"},{"bike_id":"6f6b02ce-a50b-443a-a31d-aed834771e7b","system_id":"levelo_inurba_marseille","lat":43.31414,"lon":5.39375,"is_reserved":false,"is_disabled":false,"rental_uris":{"android":"levelo://app?vid=6f6b02ce-a50b-443a-a31d-aed834771e7b","ios":"levelo://app?vid=6f6b02ce-a50b-443a-a31d-aed834771e7b"},"vehicle_type_id":"4","last_reported":1683925523,"current_range_meters":8800,"station_id":"","pricing_plan_id":"free"},{"bike_id":"8a3beb32-44d2-412b-8210-9b6512aef0d0","system_id":"levelo_inurba_marseille","lat":43.29601,"lon":5.381084,"is_reserved":false,"is_disabled":false,"rental_uris":{"android":"levelo://app?vid=8a3beb32-44d2-412b-8210-9b6512aef0d0","ios":"levelo://app?vid=8a3beb32-44d2-412b-8210-9b6512aef0d0"},"vehicle_type_id":"4","last_reported":1683925523,"current_range_meters":21600,"station_id":"ce4bgl12rcd13ifvqbo0","pricing_plan_id":"free"},{"bike_id":"f1e7c479-6b9e-4ff1-be65-fba2909399c8","system_id":"levelo_inurba_marseille","lat":43.29601,"lon":5.381084,"is_reserved":false,"is_disabled":false,"rental_uris":{"android":"levelo://app?vid=f1e7c479-6b9e-4ff1-be65-fba2909399c8","ios":"levelo://app?vid=f1e7c479-6b9e-4ff1-be65-fba2909399c8"},"vehicle_type_id":"4","last_reported":1683925523,"current_range_meters":26400,"station_id":"ce4bgl12rcd13ifvqbo0","pricing_plan_id":"free"},{"bike_id":"ea5417d8-044f-4633-b586-652469865b4f","system_id":"levelo_inurba_marseille","lat":43.293009,"lon":5.374584,"is_reserved":false,"is_disabled":false,"rental_uris":{"android":"levelo://app?vid=ea5417d8-044f-4633-b586-652469865b4f","ios":"levelo://app?vid=ea5417d8-044f-4633-b586-652469865b4f"},"vehicle_type_id":"4","last_reported":1683925523,"current_range_meters":0,"station_id":"ce4bgi12rcd13ifvqb70","pricing_plan_id":"free"},{"bike_id":"598eb1a8-398e-4649-a8a9-99928de92343","system_id":"levelo_inurba_marseille","lat":43.302992,"lon":5.392136,"is_reserved":false,"is_disabled":false,"rental_uris":{"android":"levelo://app?vid=598eb1a8-398e-4649-a8a9-99928de92343","ios":"levelo://app?vid=598eb1a8-398e-4649-a8a9-99928de92343"},"vehicle_type_id":"4","last_reported":1683925523,"current_range_meters":31200,"station_id":"ce4bgkh2rcd13ifvqbk0","pricing_plan_id":"free"},{"bike_id":"8146540f-46b8-4d54-86d4-2f63a17df056","system_id":"levelo_inurba_marseille","lat":43.302992,"lon":5.392136,"is_reserved":false,"is_disabled":false,"rental_uris":{"android":"levelo://app?vid=8146540f-46b8-4d54-86d4-2f63a17df056","ios":"levelo://app?vid=8146540f-46b8-4d54-86d4-2f63a17df056"},"vehicle_type_id":"4","last_reported":1683925523,"current_range_meters":31200,"station_id":"ce4bgkh2rcd13ifvqbk0","pricing_plan_id":"free"},{"bike_id":"6f349426-5cd1-47b9-902f-ee999ffc4d5f","system_id":"levelo_inurba_marseille","lat":43.302992,"lon":5.392136,"is_reserved":false,"is_disabled":false,"rental_uris":{"android":"levelo://app?vid=6f349426-5cd1-47b9-902f-ee999ffc4d5f","ios":"levelo://app?vid=6f349426-5cd1-47b9-902f-ee999ffc4d5f"},"vehicle_type_id":"4","last_reported":1683925523,"current_range_meters":8800,"station_id":"ce4bgkh2rcd13ifvqbk0","pricing_plan_id":"free"},{"bike_id":"3e21f0e7-b896-4733-802b-501df27cb748","system_id":"levelo_inurba_marseille","lat":43.302992,"lon":5.392136,"is_reserved":false,"is_disabled":false,"rental_uris":{"android":"levelo://app?vid=3e21f0e7-b896-4733-802b-501df27cb748","ios":"levelo://app?vid=3e21f0e7-b896-4733-802b-501df27cb748"},"vehicle_type_id":"4","last_reported":1683925523,"current_range_meters":0,"station_id":"ce4bgkh2rcd13ifvqbk0","pricing_plan_id":"free"},{"bike_id":"ef606733-e10e-4131-b8ee-b39e306ed43e","system_id":"levelo_inurba_marseille","lat":43.302992,"lon":5.392136,"is_reserved":false,"is_disabled":false,"rental_uris":{"android":"levelo://app?vid=ef606733-e10e-4131-b8ee-b39e306ed43e","ios":"levelo://app?vid=ef606733-e10e-4131-b8ee-b39e306ed43e"},"vehicle_type_id":"4","last_reported":1683925523,"current_range_meters":31200,"station_id":"ce4bgkh2rcd13ifvqbk0","pricing_plan_id":"free"},{"bike_id":"31c73ec0-298b-4fd0-8fc6-bfe8f2b73419","system_id":"levelo_inurba_marseille","lat":43.302992,"lon":5.392136,"is_reserved":false,"is_disabled":false,"rental_uris":{"android":"levelo://app?vid=31c73ec0-298b-4fd0-8fc6-bfe8f2b73419","ios":"levelo://app?vid=31c73ec0-298b-4fd0-8fc6-bfe8f2b73419"},"vehicle_type_id":"4","last_reported":1683925523,"current_range_meters":21600,"station_id":"ce4bgkh2rcd13ifvqbk0","pricing_plan_id":"free"},{"bike_id":"f217b37b-ec8b-4a87-878e-d36fcf24d5b1","system_id":"levelo_inurba_marseille","lat":43.302992,"lon":5.392136,"is_reserved":false,"is_disabled":false,"rental_uris":{"android":"levelo://app?vid=f217b37b-ec8b-4a87-878e-d36fcf24d5b1","ios":"levelo://app?vid=f217b37b-ec8b-4a87-878e-d36fcf24d5b1"},"vehicle_type_id":"4","last_reported":1683925523,"current_range_meters":31200,"station_id":"ce4bgkh2rcd13ifvqbk0","pricing_plan_id":"free"},{"bike_id":"160a4a04-b6dd-4f0a-af5b-08d2dc734d6f","system_id":"levelo_inurba_marseille","lat":43.302992,"lon":5.392136,"is_reserved":false,"is_disabled":false,"rental_uris":{"android":"levelo://app?vid=160a4a04-b6dd-4f0a-af5b-08d2dc734d6f","ios":"levelo://app?vid=160a4a04-b6dd-4f0a-af5b-08d2dc734d6f"},"vehicle_type_id":"4","last_reported":1683925523,"current_range_meters":30800,"station_id":"ce4bgkh2rcd13ifvqbk0","pricing_plan_id":"free"},{"bike_id":"3fbc7f58-0136-4403-9252-400a35f0ff45","system_id":"levelo_inurba_marseille","lat":43.2936,"lon":5.37835,"is_reserved":false,"is_disabled":false,"rental_uris":{"android":"levelo://app?vid=3fbc7f58-0136-4403-9252-400a35f0ff45","ios":"levelo://app?vid=3fbc7f58-0136-4403-9252-400a35f0ff45"},"vehicle_type_id":"4","last_reported":1683925523,"current_range_meters":14000,"station_id":"ce4bgjh2rcd13ifvqbf0","pricing_plan_id":"free"},{"bike_id":"b6c4f114-6aab-4ef0-92be-2874c489af38","system_id":"levelo_inurba_marseille","lat":43.30085,"lon":5.390856,"is_reserved":false,"is_disabled":false,"rental_uris":{"android":"levelo://app?vid=b6c4f114-6aab-4ef0-92be-2874c489af38","ios":"levelo://app?vid=b6c4f114-6aab-4ef0-92be-2874c489af38"},"vehicle_type_id":"4","last_reported":1683925523,"current_range_meters":12800,"station_id":"ce4bh192rcd13ifvqdb0","pricing_plan_id":"free"},{"bike_id":"fb59be7c-2f30-4f52-9f3e-021fc21a348a","system_id":"levelo_inurba_marseille","lat":43.30085,"lon":5.390856,"is_reserved":false,"is_disabled":false,"rental_uris":{"android":"levelo://app?vid=fb59be7c-2f30-4f52-9f3e-021fc21a348a","ios":"levelo://app?vid=fb59be7c-2f30-4f52-9f3e-021fc21a348a"},"vehicle_type_id":"4","last_reported":1683925523,"current_range_meters":26800,"station_id":"ce4bh192rcd13ifvqdb0","pricing_plan_id":"free"},{"bike_id":"725b4fa4-b9f6-4699-bbc7-181c065f7a05","system_id":"levelo_inurba_marseille","lat":43.29257,"lon":5.3763,"is_reserved":false,"is_disabled":false,"rental_uris":{"android":"levelo://app?vid=725b4fa4-b9f6-4699-bbc7-181c065f7a05","ios":"levelo://app?vid=725b4fa4-b9f6-4699-bbc7-181c065f7a05"},"vehicle_type_id":"4","last_reported":1683925523,"current_range_meters":2400,"station_id":"ce4bgi12rcd13ifvqb80","pricing_plan_id":"free"},{"bike_id":"c8e3459c-2d39-4c0f-be45-c365b783da47","system_id":"levelo_inurba_marseille","lat":43.29869,"lon":5.38898,"is_reserved":false,"is_disabled":false,"rental_uris":{"android":"levelo://app?vid=c8e3459c-2d39-4c0f-be45-c365b783da47","ios":"levelo://app?vid=c8e3459c-2d39-4c0f-be45-c365b783da47"},"vehicle_type_id":"4","last_reported":1683925523,"current_range_meters":19600,"station_id":"ce4bh392rcd13ifvqdl0","pricing_plan_id":"free"},{"bike_id":"6fa9634f-5b2e-4be3-b154-ec5df04f313c","system_id":"levelo_inurba_marseille","lat":43.29877,"lon":5.38909,"is_reserved":false,"is_disabled":false,"rental_uris":{"android":"levelo://app?vid=6fa9634f-5b2e-4be3-b154-ec5df04f313c","ios":"levelo://app?vid=6fa9634f-5b2e-4be3-b154-ec5df04f313c"},"vehicle_type_id":"4","last_reported":1683925523,"current_range_meters":0,"station_id":"ce4bh392rcd13ifvqdl0","pricing_plan_id":"free"},{"bike_id":"76f10a52-bca6-41bf-90eb-0099625226bf","system_id":"levelo_inurba_marseille","lat":43.291671,"lon":5.371575,"is_reserved":false,"is_disabled":false,"rental_uris":{"android":"levelo://app?vid=76f10a52-bca6-41bf-90eb-0099625226bf","ios":"levelo://app?vid=76f10a52-bca6-41bf-90eb-0099625226bf"},"vehicle_type_id":"4","last_reported":1683925523,"current_range_meters":28800,"station_id":"ce4bha92rcd13ifvqeh0","pricing_plan_id":"free"},{"bike_id":"42dcb152-130b-492d-87aa-24db6eb9bfeb","system_id":"levelo_inurba_marseille","lat":43.298764,"lon":5.388973,"is_reserved":false,"is_disabled":false,"rental_uris":{"android":"levelo://app?vid=42dcb152-130b-492d-87aa-24db6eb9bfeb","ios":"levelo://app?vid=42dcb152-130b-492d-87aa-24db6eb9bfeb"},"vehicle_type_id":"4","last_reported":1683925523,"current_range_meters":3200,"station_id":"ce4bh392rcd13ifvqdl0","pricing_plan_id":"free"},{"bike_id":"19d571e9-c6db-4e8e-8c7e-e4fe63b9b257","system_id":"levelo_inurba_marseille","lat":43.289468,"lon":5.363719,"is_reserved":false,"is_disabled":false,"rental_uris":{"android":"levelo://app?vid=19d571e9-c6db-4e8e-8c7e-e4fe63b9b257","ios":"levelo://app?vid=19d571e9-c6db-4e8e-8c7e-e4fe63b9b257"},"vehicle_type_id":"4","last_reported":1683925523,"current_range_meters":28000,"station_id":"ce4bhc92rcd13ifvqetg","pricing_plan_id":"free"},{"bike_id":"94cfdd85-7708-4d18-8858-9edd985a492a","system_id":"levelo_inurba_marseille","lat":43.309038,"lon":5.396546,"is_reserved":false,"is_disabled":false,"rental_uris":{"android":"levelo://app?vid=94cfdd85-7708-4d18-8858-9edd985a492a","ios":"levelo://app?vid=94cfdd85-7708-4d18-8858-9edd985a492a"},"vehicle_type_id":"4","last_reported":1683925523,"current_range_meters":31200,"station_id":"ce4bh012rcd13ifvqcv0","pricing_plan_id":"free"},{"bike_id":"5e0fe48c-9999-435d-8555-0880eb5fe992","system_id":"levelo_inurba_marseille","lat":43.29193,"lon":5.35803,"is_reserved":false,"is_disabled":false,"rental_uris":{"android":"levelo://app?vid=5e0fe48c-9999-435d-8555-0880eb5fe992","ios":"levelo://app?vid=5e0fe48c-9999-435d-8555-0880eb5fe992"},"vehicle_type_id":"4","last_reported":1683925523,"current_range_meters":26800,"station_id":"","pricing_plan_id":"free"},{"bike_id":"b1dbe5d2-9911-4db5-b317-0332f405d3d1","system_id":"levelo_inurba_marseille","lat":43.29192,"lon":5.35803,"is_reserved":false,"is_disabled":false,"rental_uris":{"android":"levelo://app?vid=b1dbe5d2-9911-4db5-b317-0332f405d3d1","ios":"levelo://app?vid=b1dbe5d2-9911-4db5-b317-0332f405d3d1"},"vehicle_type_id":"4","last_reported":1683925523,"current_range_meters":8800,"station_id":"","pricing_plan_id":"free"},{"bike_id":"711756be-ada6-470c-a8d7-448221dede12","system_id":"levelo_inurba_marseille","lat":43.313291,"lon":5.396838,"is_reserved":false,"is_disabled":false,"rental_uris":{"android":"levelo://app?vid=711756be-ada6-470c-a8d7-448221dede12","ios":"levelo://app?vid=711756be-ada6-470c-a8d7-448221dede12"},"vehicle_type_id":"4","last_reported":1683925523,"current_range_meters":13200,"station_id":"ce4bgvp2rcd13ifvqcu0","pricing_plan_id":"free"},{"bike_id":"ed1a8307-4538-4b74-9a02-3d0f51f63145","system_id":"levelo_inurba_marseille","lat":43.3133,"lon":5.39693,"is_reserved":false,"is_disabled":false,"rental_uris":{"android":"levelo://app?vid=ed1a8307-4538-4b74-9a02-3d0f51f63145","ios":"levelo://app?vid=ed1a8307-4538-4b74-9a02-3d0f51f63145"},"vehicle_type_id":"4","last_reported":1683925523,"current_range_meters":6800,"station_id":"ce4bgvp2rcd13ifvqcu0","pricing_plan_id":"free"},{"bike_id":"1f08c3cb-ba17-4d1b-9c29-da16e9aaf7c4","system_id":"levelo_inurba_marseille","lat":43.30883,"lon":5.39646,"is_reserved":false,"is_disabled":false,"rental_uris":{"android":"levelo://app?vid=1f08c3cb-ba17-4d1b-9c29-da16e9aaf7c4","ios":"levelo://app?vid=1f08c3cb-ba17-4d1b-9c29-da16e9aaf7c4"},"vehicle_type_id":"4","last_reported":1683925523,"current_range_meters":17200,"station_id":"ce4bh012rcd13ifvqcv0","pricing_plan_id":"free"},{"bike_id":"ba6b0e93-d227-4d31-8d10-0cc43b66a609","system_id":"levelo_inurba_marseille","lat":43.29187,"lon":5.35806,"is_reserved":false,"is_disabled":false,"rental_uris":{"android":"levelo://app?vid=ba6b0e93-d227-4d31-8d10-0cc43b66a609","ios":"levelo://app?vid=ba6b0e93-d227-4d31-8d10-0cc43b66a609"},"vehicle_type_id":"4","last_reported":1683925523,"current_range_meters":7200,"station_id":"","pricing_plan_id":"free"},{"bike_id":"67f6a948-1165-4288-b069-dae7b06987c7","system_id":"levelo_inurba_marseille","lat":43.29187,"lon":5.35804,"is_reserved":false,"is_disabled":false,"rental_uris":{"android":"levelo://app?vid=67f6a948-1165-4288-b069-dae7b06987c7","ios":"levelo://app?vid=67f6a948-1165-4288-b069-dae7b06987c7"},"vehicle_type_id":"4","last_reported":1683925523,"current_range_meters":31200,"station_id":"","pricing_plan_id":"free"},{"bike_id":"866c8264-7832-4bc3-82e6-21629cb98865","system_id":"levelo_inurba_marseille","lat":43.313291,"lon":5.396838,"is_reserved":false,"is_disabled":false,"rental_uris":{"android":"levelo://app?vid=866c8264-7832-4bc3-82e6-21629cb98865","ios":"levelo://app?vid=866c8264-7832-4bc3-82e6-21629cb98865"},"vehicle_type_id":"4","last_reported":1683925523,"current_range_meters":29600,"station_id":"ce4bgvp2rcd13ifvqcu0","pricing_plan_id":"free"},{"bike_id":"43ea94fb-f0bc-48af-bd2d-c866d6def370","system_id":"levelo_inurba_marseille","lat":43.29184,"lon":5.35801,"is_reserved":false,"is_disabled":false,"rental_uris":{"android":"levelo://app?vid=43ea94fb-f0bc-48af-bd2d-c866d6def370","ios":"levelo://app?vid=43ea94fb-f0bc-48af-bd2d-c866d6def370"},"vehicle_type_id":"4","last_reported":1683925523,"current_range_meters":23200,"station_id":"","pricing_plan_id":"free"},{"bike_id":"560ea34e-feb5-4660-9bff-cf551c95db90","system_id":"levelo_inurba_marseille","lat":43.309038,"lon":5.396546,"is_reserved":false,"is_disabled":false,"rental_uris":{"android":"levelo://app?vid=560ea34e-feb5-4660-9bff-cf551c95db90","ios":"levelo://app?vid=560ea34e-feb5-4660-9bff-cf551c95db90"},"vehicle_type_id":"4","last_reported":1683925523,"current_range_meters":18400,"station_id":"ce4bh012rcd13ifvqcv0","pricing_plan_id":"free"},{"bike_id":"b9d11af0-3f4e-476f-9490-858ba5432b3a","system_id":"levelo_inurba_marseille","lat":43.309038,"lon":5.396546,"is_reserved":false,"is_disabled":false,"rental_uris":{"android":"levelo://app?vid=b9d11af0-3f4e-476f-9490-858ba5432b3a","ios":"levelo://app?vid=b9d11af0-3f4e-476f-9490-858ba5432b3a"},"vehicle_type_id":"4","last_reported":1683925523,"current_range_meters":0,"station_id":"ce4bh012rcd13ifvqcv0","pricing_plan_id":"free"},{"bike_id":"86d269dd-bd7f-480a-b4d2-aff2d2931cbb","system_id":"levelo_inurba_marseille","lat":43.29538,"lon":5.38536,"is_reserved":false,"is_disabled":false,"rental_uris":{"android":"levelo://app?vid=86d269dd-bd7f-480a-b4d2-aff2d2931cbb","ios":"levelo://app?vid=86d269dd-bd7f-480a-b4d2-aff2d2931cbb"},"vehicle_type_id":"4","last_reported":1683925523,"current_range_meters":0,"station_id":"ce4bgih2rcd13ifvqba0","pricing_plan_id":"free"},{"bike_id":"5f85fc8d-e357-41de-906a-02a8ac52c625","system_id":"levelo_inurba_marseille","lat":43.29529,"lon":5.385581,"is_reserved":false,"is_disabled":false,"rental_uris":{"android":"levelo://app?vid=5f85fc8d-e357-41de-906a-02a8ac52c625","ios":"levelo://app?vid=5f85fc8d-e357-41de-906a-02a8ac52c625"},"vehicle_type_id":"4","last_reported":1683925523,"current_range_meters":0,"station_id":"ce4bgih2rcd13ifvqba0","pricing_plan_id":"free"},{"bike_id":"aa6cddb7-1bdd-411d-8860-39ae787fdd30","system_id":"levelo_inurba_marseille","lat":43.29529,"lon":5.385581,"is_reserved":false,"is_disabled":false,"rental_uris":{"android":"levelo://app?vid=aa6cddb7-1bdd-411d-8860-39ae787fdd30","ios":"levelo://app?vid=aa6cddb7-1bdd-411d-8860-39ae787fdd30"},"vehicle_type_id":"4","last_reported":1683925523,"current_range_meters":1200,"station_id":"ce4bgih2rcd13ifvqba0","pricing_plan_id":"free"},{"bike_id":"c06f8920-3acc-4b2b-84b4-021f699ea273","system_id":"levelo_inurba_marseille","lat":43.29529,"lon":5.385581,"is_reserved":false,"is_disabled":false,"rental_uris":{"android":"levelo://app?vid=c06f8920-3acc-4b2b-84b4-021f699ea273","ios":"levelo://app?vid=c06f8920-3acc-4b2b-84b4-021f699ea273"},"vehicle_type_id":"4","last_reported":1683925523,"current_range_meters":6000,"station_id":"ce4bgih2rcd13ifvqba0","pricing_plan_id":"free"},{"bike_id":"3c4f244d-3876-4461-8e73-e919cce7ea53","system_id":"levelo_inurba_marseille","lat":43.29529,"lon":5.385581,"is_reserved":false,"is_disabled":false,"rental_uris":{"android":"levelo://app?vid=3c4f244d-3876-4461-8e73-e919cce7ea53","ios":"levelo://app?vid=3c4f244d-3876-4461-8e73-e919cce7ea53"},"vehicle_type_id":"4","last_reported":1683925523,"current_range_meters":24400,"station_id":"ce4bgih2rcd13ifvqba0","pricing_plan_id":"free"},{"bike_id":"4f4cef7c-0299-41ba-a220-7f4f2c377372","system_id":"levelo_inurba_marseille","lat":43.29529,"lon":5.385581,"is_reserved":false,"is_disabled":false,"rental_uris":{"android":"levelo://app?vid=4f4cef7c-0299-41ba-a220-7f4f2c377372","ios":"levelo://app?vid=4f4cef7c-0299-41ba-a220-7f4f2c377372"},"vehicle_type_id":"4","last_reported":1683925523,"current_range_meters":9200,"station_id":"ce4bgih2rcd13ifvqba0","pricing_plan_id":"free"},{"bike_id":"e9cd0b5d-d685-4187-9707-068234026100","system_id":"levelo_inurba_marseille","lat":43.29529,"lon":5.385581,"is_reserved":false,"is_disabled":false,"rental_uris":{"android":"levelo://app?vid=e9cd0b5d-d685-4187-9707-068234026100","ios":"levelo://app?vid=e9cd0b5d-d685-4187-9707-068234026100"},"vehicle_type_id":"4","last_reported":1683925523,"current_range_meters":0,"station_id":"ce4bgih2rcd13ifvqba0","pricing_plan_id":"free"},{"bike_id":"92b15da1-30b9-4bf7-9cc9-89a59445f960","system_id":"levelo_inurba_marseille","lat":43.29529,"lon":5.385581,"is_reserved":false,"is_disabled":false,"rental_uris":{"android":"levelo://app?vid=92b15da1-30b9-4bf7-9cc9-89a59445f960","ios":"levelo://app?vid=92b15da1-30b9-4bf7-9cc9-89a59445f960"},"vehicle_type_id":"4","last_reported":1683925523,"current_range_meters":26400,"station_id":"ce4bgih2rcd13ifvqba0","pricing_plan_id":"free"},{"bike_id":"25e4407c-ef2c-461c-a323-1d6af9bdbe86","system_id":"levelo_inurba_marseille","lat":43.29529,"lon":5.385581,"is_reserved":false,"is_disabled":false,"rental_uris":{"android":"levelo://app?vid=25e4407c-ef2c-461c-a323-1d6af9bdbe86","ios":"levelo://app?vid=25e4407c-ef2c-461c-a323-1d6af9bdbe86"},"vehicle_type_id":"4","last_reported":1683925523,"current_range_meters":20400,"station_id":"ce4bgih2rcd13ifvqba0","pricing_plan_id":"free"},{"bike_id":"e9ce4b42-6998-47f0-9955-252df080bc0e","system_id":"levelo_inurba_marseille","lat":43.29529,"lon":5.385581,"is_reserved":false,"is_disabled":false,"rental_uris":{"android":"levelo://app?vid=e9ce4b42-6998-47f0-9955-252df080bc0e","ios":"levelo://app?vid=e9ce4b42-6998-47f0-9955-252df080bc0e"},"vehicle_type_id":"4","last_reported":1683925523,"current_range_meters":14400,"station_id":"ce4bgih2rcd13ifvqba0","pricing_plan_id":"free"},{"bike_id":"ca8a867a-2e6a-4fa6-907c-1bf78ee8ba54","system_id":"levelo_inurba_marseille","lat":43.29529,"lon":5.385581,"is_reserved":false,"is_disabled":false,"rental_uris":{"android":"levelo://app?vid=ca8a867a-2e6a-4fa6-907c-1bf78ee8ba54","ios":"levelo://app?vid=ca8a867a-2e6a-4fa6-907c-1bf78ee8ba54"},"vehicle_type_id":"4","last_reported":1683925523,"current_range_meters":19200,"station_id":"ce4bgih2rcd13ifvqba0","pricing_plan_id":"free"},{"bike_id":"3c631836-6c91-4584-b1f3-66c00d57c13b","system_id":"levelo_inurba_marseille","lat":43.29529,"lon":5.385581,"is_reserved":false,"is_disabled":false,"rental_uris":{"android":"levelo://app?vid=3c631836-6c91-4584-b1f3-66c00d57c13b","ios":"levelo://app?vid=3c631836-6c91-4584-b1f3-66c00d57c13b"},"vehicle_type_id":"4","last_reported":1683925523,"current_range_meters":4000,"station_id":"ce4bgih2rcd13ifvqba0","pricing_plan_id":"free"},{"bike_id":"ed93eb33-e590-4da8-ab61-a5453b768d0d","system_id":"levelo_inurba_marseille","lat":43.29529,"lon":5.385581,"is_reserved":false,"is_disabled":false,"rental_uris":{"android":"levelo://app?vid=ed93eb33-e590-4da8-ab61-a5453b768d0d","ios":"levelo://app?vid=ed93eb33-e590-4da8-ab61-a5453b768d0d"},"vehicle_type_id":"4","last_reported":1683925523,"current_range_meters":0,"station_id":"ce4bgih2rcd13ifvqba0","pricing_plan_id":"free"},{"bike_id":"da913de5-226f-4ca7-9df3-50c29a8373f0","system_id":"levelo_inurba_marseille","lat":43.29529,"lon":5.385581,"is_reserved":false,"is_disabled":false,"rental_uris":{"android":"levelo://app?vid=da913de5-226f-4ca7-9df3-50c29a8373f0","ios":"levelo://app?vid=da913de5-226f-4ca7-9df3-50c29a8373f0"},"vehicle_type_id":"4","last_reported":1683925523,"current_range_meters":14800,"station_id":"ce4bgih2rcd13ifvqba0","pricing_plan_id":"free"},{"bike_id":"1e0c114d-4ab5-4a96-8bc2-cdcfa41c62d1","system_id":"levelo_inurba_marseille","lat":43.29529,"lon":5.385581,"is_reserved":false,"is_disabled":false,"rental_uris":{"android":"levelo://app?vid=1e0c114d-4ab5-4a96-8bc2-cdcfa41c62d1","ios":"levelo://app?vid=1e0c114d-4ab5-4a96-8bc2-cdcfa41c62d1"},"vehicle_type_id":"4","last_reported":1683925523,"current_range_meters":2800,"station_id":"ce4bgih2rcd13ifvqba0","pricing_plan_id":"free"},{"bike_id":"38f32948-8766-447e-83ad-3bc972a83cd8","system_id":"levelo_inurba_marseille","lat":43.302008,"lon":5.394694,"is_reserved":false,"is_disabled":false,"rental_uris":{"android":"levelo://app?vid=38f32948-8766-447e-83ad-3bc972a83cd8","ios":"levelo://app?vid=38f32948-8766-447e-83ad-3bc972a83cd8"},"vehicle_type_id":"4","last_reported":1683925523,"current_range_meters":3200,"station_id":"ce4bh0p2rcd13ifvqd70","pricing_plan_id":"free"},{"bike_id":"9164eebc-be89-4222-a7bb-5e1fdff08df3","system_id":"levelo_inurba_marseille","lat":43.30211,"lon":5.39464,"is_reserved":false,"is_disabled":false,"rental_uris":{"android":"levelo://app?vid=9164eebc-be89-4222-a7bb-5e1fdff08df3","ios":"levelo://app?vid=9164eebc-be89-4222-a7bb-5e1fdff08df3"},"vehicle_type_id":"4","last_reported":1683925523,"current_range_meters":6000,"station_id":"ce4bh0p2rcd13ifvqd70","pricing_plan_id":"free"},{"bike_id":"496c0d38-2936-4c74-8bde-329bd507fdc4","system_id":"levelo_inurba_marseille","lat":43.302008,"lon":5.394694,"is_reserved":false,"is_disabled":false,"rental_uris":{"android":"levelo://app?vid=496c0d38-2936-4c74-8bde-329bd507fdc4","ios":"levelo://app?vid=496c0d38-2936-4c74-8bde-329bd507fdc4"},"vehicle_type_id":"4","last_reported":1683925523,"current_range_meters":24400,"station_id":"ce4bh0p2rcd13ifvqd70","pricing_plan_id":"free"},{"bike_id":"0338d14e-32a5-4f19-8a60-ad73c38468c5","system_id":"levelo_inurba_marseille","lat":43.29529,"lon":5.385581,"is_reserved":false,"is_disabled":false,"rental_uris":{"android":"levelo://app?vid=0338d14e-32a5-4f19-8a60-ad73c38468c5","ios":"levelo://app?vid=0338d14e-32a5-4f19-8a60-ad73c38468c5"},"vehicle_type_id":"4","last_reported":1683925523,"current_range_meters":0,"station_id":"ce4bgih2rcd13ifvqba0","pricing_plan_id":"free"},{"bike_id":"28ef00ad-c1e7-40eb-8420-64c38d83fee4","system_id":"levelo_inurba_marseille","lat":43.290631,"lon":5.359244,"is_reserved":false,"is_disabled":false,"rental_uris":{"android":"levelo://app?vid=28ef00ad-c1e7-40eb-8420-64c38d83fee4","ios":"levelo://app?vid=28ef00ad-c1e7-40eb-8420-64c38d83fee4"},"vehicle_type_id":"4","last_reported":1683925523,"current_range_meters":10800,"station_id":"ce4bha92rcd13ifvqeg0","pricing_plan_id":"free"},{"bike_id":"a04a3a27-3d1b-4ff4-a496-74ca52991e0d","system_id":"levelo_inurba_marseille","lat":43.290631,"lon":5.359244,"is_reserved":false,"is_disabled":false,"rental_uris":{"android":"levelo://app?vid=a04a3a27-3d1b-4ff4-a496-74ca52991e0d","ios":"levelo://app?vid=a04a3a27-3d1b-4ff4-a496-74ca52991e0d"},"vehicle_type_id":"4","last_reported":1683925523,"current_range_meters":4400,"station_id":"ce4bha92rcd13ifvqeg0","pricing_plan_id":"free"},{"bike_id":"a73ff1c9-dc6b-4876-9e9e-79a6e1d45cf0","system_id":"levelo_inurba_marseille","lat":43.290631,"lon":5.359244,"is_reserved":false,"is_disabled":false,"rental_uris":{"android":"levelo://app?vid=a73ff1c9-dc6b-4876-9e9e-79a6e1d45cf0","ios":"levelo://app?vid=a73ff1c9-dc6b-4876-9e9e-79a6e1d45cf0"},"vehicle_type_id":"4","last_reported":1683925523,"current_range_meters":3600,"station_id":"ce4bha92rcd13ifvqeg0","pricing_plan_id":"free"},{"bike_id":"c7711b6f-c3e6-42e0-83bb-52097ffb2912","system_id":"levelo_inurba_marseille","lat":43.290631,"lon":5.359244,"is_reserved":false,"is_disabled":false,"rental_uris":{"android":"levelo://app?vid=c7711b6f-c3e6-42e0-83bb-52097ffb2912","ios":"levelo://app?vid=c7711b6f-c3e6-42e0-83bb-52097ffb2912"},"vehicle_type_id":"4","last_reported":1683925523,"current_range_meters":24800,"station_id":"ce4bha92rcd13ifvqeg0","pricing_plan_id":"free"},{"bike_id":"5cc9b815-d7ff-44ed-9360-c1cb69ca4ed4","system_id":"levelo_inurba_marseille","lat":43.290631,"lon":5.359244,"is_reserved":false,"is_disabled":false,"rental_uris":{"android":"levelo://app?vid=5cc9b815-d7ff-44ed-9360-c1cb69ca4ed4","ios":"levelo://app?vid=5cc9b815-d7ff-44ed-9360-c1cb69ca4ed4"},"vehicle_type_id":"4","last_reported":1683925523,"current_range_meters":31200,"station_id":"ce4bha92rcd13ifvqeg0","pricing_plan_id":"free"},{"bike_id":"68b061d5-218c-45bd-9f05-7e4e83192f59","system_id":"levelo_inurba_marseille","lat":43.294153,"lon":5.386305,"is_reserved":false,"is_disabled":false,"rental_uris":{"android":"levelo://app?vid=68b061d5-218c-45bd-9f05-7e4e83192f59","ios":"levelo://app?vid=68b061d5-218c-45bd-9f05-7e4e83192f59"},"vehicle_type_id":"4","last_reported":1683925523,"current_range_meters":1600,"station_id":"ce4bh2h2rcd13ifvqdh0","pricing_plan_id":"free"},{"bike_id":"96886c15-fd38-4789-9289-ad15dc3b29e6","system_id":"levelo_inurba_marseille","lat":43.294153,"lon":5.386305,"is_reserved":false,"is_disabled":false,"rental_uris":{"android":"levelo://app?vid=96886c15-fd38-4789-9289-ad15dc3b29e6","ios":"levelo://app?vid=96886c15-fd38-4789-9289-ad15dc3b29e6"},"vehicle_type_id":"4","last_reported":1683925523,"current_range_meters":30000,"station_id":"ce4bh2h2rcd13ifvqdh0","pricing_plan_id":"free"},{"bike_id":"e8026f5a-66b6-4c01-a282-a1cc88f9f3e3","system_id":"levelo_inurba_marseille","lat":43.294153,"lon":5.386305,"is_reserved":false,"is_disabled":false,"rental_uris":{"android":"levelo://app?vid=e8026f5a-66b6-4c01-a282-a1cc88f9f3e3","ios":"levelo://app?vid=e8026f5a-66b6-4c01-a282-a1cc88f9f3e3"},"vehicle_type_id":"4","last_reported":1683925523,"current_range_meters":23600,"station_id":"ce4bh2h2rcd13ifvqdh0","pricing_plan_id":"free"},{"bike_id":"9f129774-36e1-42f1-8229-a7c2be11d89e","system_id":"levelo_inurba_marseille","lat":43.30482,"lon":5.39702,"is_reserved":false,"is_disabled":false,"rental_uris":{"android":"levelo://app?vid=9f129774-36e1-42f1-8229-a7c2be11d89e","ios":"levelo://app?vid=9f129774-36e1-42f1-8229-a7c2be11d89e"},"vehicle_type_id":"4","last_reported":1683925523,"current_range_meters":22800,"station_id":"","pricing_plan_id":"free"},{"bike_id":"416bb656-b281-49d7-a818-28532e5d22e4","system_id":"levelo_inurba_marseille","lat":43.29415,"lon":5.38622,"is_reserved":false,"is_disabled":false,"rental_uris":{"android":"levelo://app?vid=416bb656-b281-49d7-a818-28532e5d22e4","ios":"levelo://app?vid=416bb656-b281-49d7-a818-28532e5d22e4"},"vehicle_type_id":"4","last_reported":1683925523,"current_range_meters":1200,"station_id":"ce4bh2h2rcd13ifvqdh0","pricing_plan_id":"free"},{"bike_id":"271d3efd-b8ee-40c6-b846-cb02adb4db40","system_id":"levelo_inurba_marseille","lat":43.290319,"lon":5.375732,"is_reserved":false,"is_disabled":false,"rental_uris":{"android":"levelo://app?vid=271d3efd-b8ee-40c6-b846-cb02adb4db40","ios":"levelo://app?vid=271d3efd-b8ee-40c6-b846-cb02adb4db40"},"vehicle_type_id":"4","last_reported":1683925523,"current_range_meters":0,"station_id":"ce4bh692rcd13ifvqe90","pricing_plan_id":"free"},{"bike_id":"abffe4a1-ad65-4ea3-88ce-7477c47dd910","system_id":"levelo_inurba_marseille","lat":43.294153,"lon":5.386305,"is_reserved":false,"is_disabled":false,"rental_uris":{"android":"levelo://app?vid=abffe4a1-ad65-4ea3-88ce-7477c47dd910","ios":"levelo://app?vid=abffe4a1-ad65-4ea3-88ce-7477c47dd910"},"vehicle_type_id":"4","last_reported":1683925523,"current_range_meters":12800,"station_id":"ce4bh2h2rcd13ifvqdh0","pricing_plan_id":"free"},{"bike_id":"bedee10e-5dfc-450e-8b51-ca83bf1109a6","system_id":"levelo_inurba_marseille","lat":43.30487,"lon":5.39708,"is_reserved":false,"is_disabled":false,"rental_uris":{"android":"levelo://app?vid=bedee10e-5dfc-450e-8b51-ca83bf1109a6","ios":"levelo://app?vid=bedee10e-5dfc-450e-8b51-ca83bf1109a6"},"vehicle_type_id":"4","last_reported":1683925523,"current_range_meters":5200,"station_id":"","pricing_plan_id":"free"},{"bike_id":"dce65655-3f01-4f27-a656-5e9ac42aeac7","system_id":"levelo_inurba_marseille","lat":43.294153,"lon":5.386305,"is_reserved":false,"is_disabled":false,"rental_uris":{"android":"levelo://app?vid=dce65655-3f01-4f27-a656-5e9ac42aeac7","ios":"levelo://app?vid=dce65655-3f01-4f27-a656-5e9ac42aeac7"},"vehicle_type_id":"4","last_reported":1683925523,"current_range_meters":26000,"station_id":"ce4bh2h2rcd13ifvqdh0","pricing_plan_id":"free"},{"bike_id":"dc6d3ba1-46b9-4585-a94b-e935a48215f1","system_id":"levelo_inurba_marseille","lat":43.294153,"lon":5.386305,"is_reserved":false,"is_disabled":false,"rental_uris":{"android":"levelo://app?vid=dc6d3ba1-46b9-4585-a94b-e935a48215f1","ios":"levelo://app?vid=dc6d3ba1-46b9-4585-a94b-e935a48215f1"},"vehicle_type_id":"4","last_reported":1683925523,"current_range_meters":4400,"station_id":"ce4bh2h2rcd13ifvqdh0","pricing_plan_id":"free"},{"bike_id":"591c8056-77e2-45a3-a0e5-d91474932450","system_id":"levelo_inurba_marseille","lat":43.289184,"lon":5.366408,"is_reserved":false,"is_disabled":false,"rental_uris":{"android":"levelo://app?vid=591c8056-77e2-45a3-a0e5-d91474932450","ios":"levelo://app?vid=591c8056-77e2-45a3-a0e5-d91474932450"},"vehicle_type_id":"4","last_reported":1683925523,"current_range_meters":4800,"station_id":"ce4bhap2rcd13ifvqek0","pricing_plan_id":"free"},{"bike_id":"c317b6f2-a371-459c-bc86-cda17837c8ee","system_id":"levelo_inurba_marseille","lat":43.2941,"lon":5.38629,"is_reserved":false,"is_disabled":false,"rental_uris":{"android":"levelo://app?vid=c317b6f2-a371-459c-bc86-cda17837c8ee","ios":"levelo://app?vid=c317b6f2-a371-459c-bc86-cda17837c8ee"},"vehicle_type_id":"4","last_reported":1683925523,"current_range_meters":5200,"station_id":"ce4bh2h2rcd13ifvqdh0","pricing_plan_id":"free"},{"bike_id":"3c3302b8-c094-4580-9eb9-04611603edb8","system_id":"levelo_inurba_marseille","lat":43.29404,"lon":5.38624,"is_reserved":false,"is_disabled":false,"rental_uris":{"android":"levelo://app?vid=3c3302b8-c094-4580-9eb9-04611603edb8","ios":"levelo://app?vid=3c3302b8-c094-4580-9eb9-04611603edb8"},"vehicle_type_id":"4","last_reported":1683925523,"current_range_meters":0,"station_id":"ce4bh2h2rcd13ifvqdh0","pricing_plan_id":"free"},{"bike_id":"817f0781-16e1-4382-ac82-c12e93865120","system_id":"levelo_inurba_marseille","lat":43.289468,"lon":5.363719,"is_reserved":false,"is_disabled":false,"rental_uris":{"android":"levelo://app?vid=817f0781-16e1-4382-ac82-c12e93865120","ios":"levelo://app?vid=817f0781-16e1-4382-ac82-c12e93865120"},"vehicle_type_id":"4","last_reported":1683925523,"current_range_meters":3200,"station_id":"ce4bhc92rcd13ifvqetg","pricing_plan_id":"free"},{"bike_id":"85bca329-fd16-4224-83d6-d684855802b3","system_id":"levelo_inurba_marseille","lat":43.304296,"lon":5.397513,"is_reserved":false,"is_disabled":false,"rental_uris":{"android":"levelo://app?vid=85bca329-fd16-4224-83d6-d684855802b3","ios":"levelo://app?vid=85bca329-fd16-4224-83d6-d684855802b3"},"vehicle_type_id":"4","last_reported":1683925523,"current_range_meters":10000,"station_id":"ce4bh092rcd13ifvqd20","pricing_plan_id":"free"},{"bike_id":"67e31d6a-3248-4035-9538-25e0d8d1bd81","system_id":"levelo_inurba_marseille","lat":43.304274,"lon":5.397513,"is_reserved":false,"is_disabled":false,"rental_uris":{"android":"levelo://app?vid=67e31d6a-3248-4035-9538-25e0d8d1bd81","ios":"levelo://app?vid=67e31d6a-3248-4035-9538-25e0d8d1bd81"},"vehicle_type_id":"4","last_reported":1683925523,"current_range_meters":15200,"station_id":"ce4bh092rcd13ifvqd20","pricing_plan_id":"free"},{"bike_id":"41516bba-1eb7-4ff7-a5ab-9dd296b23e8c","system_id":"levelo_inurba_marseille","lat":43.29257,"lon":5.38442,"is_reserved":false,"is_disabled":false,"rental_uris":{"android":"levelo://app?vid=41516bba-1eb7-4ff7-a5ab-9dd296b23e8c","ios":"levelo://app?vid=41516bba-1eb7-4ff7-a5ab-9dd296b23e8c"},"vehicle_type_id":"4","last_reported":1683925523,"current_range_meters":2000,"station_id":"ce4bh692rcd13ifvqea0","pricing_plan_id":"free"},{"bike_id":"450b1031-1dbe-413b-93b8-1d0ce8ce9629","system_id":"levelo_inurba_marseille","lat":43.30421,"lon":5.39755,"is_reserved":false,"is_disabled":false,"rental_uris":{"android":"levelo://app?vid=450b1031-1dbe-413b-93b8-1d0ce8ce9629","ios":"levelo://app?vid=450b1031-1dbe-413b-93b8-1d0ce8ce9629"},"vehicle_type_id":"4","last_reported":1683925523,"current_range_meters":3200,"station_id":"ce4bh092rcd13ifvqd20","pricing_plan_id":"free"},{"bike_id":"c281d5a7-80ac-419c-a260-7a2bb7fedf13","system_id":"levelo_inurba_marseille","lat":43.30419,"lon":5.39756,"is_reserved":false,"is_disabled":false,"rental_uris":{"android":"levelo://app?vid=c281d5a7-80ac-419c-a260-7a2bb7fedf13","ios":"levelo://app?vid=c281d5a7-80ac-419c-a260-7a2bb7fedf13"},"vehicle_type_id":"4","last_reported":1683925523,"current_range_meters":2800,"station_id":"ce4bh092rcd13ifvqd20","pricing_plan_id":"free"},{"bike_id":"058963ff-2f4c-4bb4-bb76-e3411e11f49a","system_id":"levelo_inurba_marseille","lat":43.290104,"lon":5.356111,"is_reserved":false,"is_disabled":false,"rental_uris":{"android":"levelo://app?vid=058963ff-2f4c-4bb4-bb76-e3411e11f49a","ios":"levelo://app?vid=058963ff-2f4c-4bb4-bb76-e3411e11f49a"},"vehicle_type_id":"4","last_reported":1683925523,"current_range_meters":4800,"station_id":"ce4bhb92rcd13ifvqen0","pricing_plan_id":"free"},{"bike_id":"4bd08121-01c0-44b3-b00a-2ecfcb89cc44","system_id":"levelo_inurba_marseille","lat":43.33037,"lon":5.38921,"is_reserved":false,"is_disabled":false,"rental_uris":{"android":"levelo://app?vid=4bd08121-01c0-44b3-b00a-2ecfcb89cc44","ios":"levelo://app?vid=4bd08121-01c0-44b3-b00a-2ecfcb89cc44"},"vehicle_type_id":"4","last_reported":1683925523,"current_range_meters":2000,"station_id":"ce4bhr92rcd13ifvqhrg","pricing_plan_id":"free"},{"bike_id":"f40ddee2-e470-4bc5-9719-b7583d73bdd7","system_id":"levelo_inurba_marseille","lat":43.3304,"lon":5.38917,"is_reserved":false,"is_disabled":false,"rental_uris":{"android":"levelo://app?vid=f40ddee2-e470-4bc5-9719-b7583d73bdd7","ios":"levelo://app?vid=f40ddee2-e470-4bc5-9719-b7583d73bdd7"},"vehicle_type_id":"4","last_reported":1683925523,"current_range_meters":31200,"station_id":"ce4bhr92rcd13ifvqhrg","pricing_plan_id":"free"},{"bike_id":"959c02e7-4eea-47e8-b18e-ffd112eafc6f","system_id":"levelo_inurba_marseille","lat":43.33044,"lon":5.38914,"is_reserved":false,"is_disabled":false,"rental_uris":{"android":"levelo://app?vid=959c02e7-4eea-47e8-b18e-ffd112eafc6f","ios":"levelo://app?vid=959c02e7-4eea-47e8-b18e-ffd112eafc6f"},"vehicle_type_id":"4","last_reported":1683925523,"current_range_meters":27200,"station_id":"ce4bhr92rcd13ifvqhrg","pricing_plan_id":"free"},{"bike_id":"2afd2fab-6586-408c-abcf-4d90717156ad","system_id":"levelo_inurba_marseille","lat":43.33041,"lon":5.38923,"is_reserved":false,"is_disabled":false,"rental_uris":{"android":"levelo://app?vid=2afd2fab-6586-408c-abcf-4d90717156ad","ios":"levelo://app?vid=2afd2fab-6586-408c-abcf-4d90717156ad"},"vehicle_type_id":"4","last_reported":1683925523,"current_range_meters":13600,"station_id":"ce4bhr92rcd13ifvqhrg","pricing_plan_id":"free"},{"bike_id":"754ef565-0150-4f0d-8c0d-a8a5d6927613","system_id":"levelo_inurba_marseille","lat":43.33045,"lon":5.38923,"is_reserved":false,"is_disabled":false,"rental_uris":{"android":"levelo://app?vid=754ef565-0150-4f0d-8c0d-a8a5d6927613","ios":"levelo://app?vid=754ef565-0150-4f0d-8c0d-a8a5d6927613"},"vehicle_type_id":"4","last_reported":1683925523,"current_range_meters":22000,"station_id":"ce4bhr92rcd13ifvqhrg","pricing_plan_id":"free"},{"bike_id":"ce772c16-2124-4559-a022-d13d4b96951c","system_id":"levelo_inurba_marseille","lat":43.29003,"lon":5.35615,"is_reserved":false,"is_disabled":false,"rental_uris":{"android":"levelo://app?vid=ce772c16-2124-4559-a022-d13d4b96951c","ios":"levelo://app?vid=ce772c16-2124-4559-a022-d13d4b96951c"},"vehicle_type_id":"4","last_reported":1683925523,"current_range_meters":25600,"station_id":"ce4bhb92rcd13ifvqen0","pricing_plan_id":"free"},{"bike_id":"9fc3bef4-2dcf-458e-853b-30144cd104bd","system_id":"levelo_inurba_marseille","lat":43.28999,"lon":5.35616,"is_reserved":false,"is_disabled":false,"rental_uris":{"android":"levelo://app?vid=9fc3bef4-2dcf-458e-853b-30144cd104bd","ios":"levelo://app?vid=9fc3bef4-2dcf-458e-853b-30144cd104bd"},"vehicle_type_id":"4","last_reported":1683925523,"current_range_meters":4000,"station_id":"ce4bhb92rcd13ifvqen0","pricing_plan_id":"free"},{"bike_id":"da8dd02d-b3bf-4bed-955b-dc45b3a1b0ff","system_id":"levelo_inurba_marseille","lat":43.291,"lon":5.3815,"is_reserved":false,"is_disabled":false,"rental_uris":{"android":"levelo://app?vid=da8dd02d-b3bf-4bed-955b-dc45b3a1b0ff","ios":"levelo://app?vid=da8dd02d-b3bf-4bed-955b-dc45b3a1b0ff"},"vehicle_type_id":"4","last_reported":1683925523,"current_range_meters":9200,"station_id":"ce4bh512rcd13ifvqe2g","pricing_plan_id":"free"},{"bike_id":"d24f4f97-7acc-417c-bdb0-54d37ea57f65","system_id":"levelo_inurba_marseille","lat":43.290995,"lon":5.381361,"is_reserved":false,"is_disabled":false,"rental_uris":{"android":"levelo://app?vid=d24f4f97-7acc-417c-bdb0-54d37ea57f65","ios":"levelo://app?vid=d24f4f97-7acc-417c-bdb0-54d37ea57f65"},"vehicle_type_id":"4","last_reported":1683925523,"current_range_meters":17600,"station_id":"ce4bh512rcd13ifvqe2g","pricing_plan_id":"free"},{"bike_id":"44ff13e0-2174-4a93-aacd-b61695f99af3","system_id":"levelo_inurba_marseille","lat":43.295169,"lon":5.390426,"is_reserved":false,"is_disabled":false,"rental_uris":{"android":"levelo://app?vid=44ff13e0-2174-4a93-aacd-b61695f99af3","ios":"levelo://app?vid=44ff13e0-2174-4a93-aacd-b61695f99af3"},"vehicle_type_id":"4","last_reported":1683925523,"current_range_meters":14400,"station_id":"ce4bh3p2rcd13ifvqdp0","pricing_plan_id":"free"},{"bike_id":"d29d44c4-c042-4a25-a1ff-8eb3d2680624","system_id":"levelo_inurba_marseille","lat":43.295169,"lon":5.390426,"is_reserved":false,"is_disabled":false,"rental_uris":{"android":"levelo://app?vid=d29d44c4-c042-4a25-a1ff-8eb3d2680624","ios":"levelo://app?vid=d29d44c4-c042-4a25-a1ff-8eb3d2680624"},"vehicle_type_id":"4","last_reported":1683925523,"current_range_meters":27200,"station_id":"ce4bh3p2rcd13ifvqdp0","pricing_plan_id":"free"},{"bike_id":"fc2417ef-e41e-4f24-92dd-4b372dbe338d","system_id":"levelo_inurba_marseille","lat":43.29525,"lon":5.3904,"is_reserved":false,"is_disabled":false,"rental_uris":{"android":"levelo://app?vid=fc2417ef-e41e-4f24-92dd-4b372dbe338d","ios":"levelo://app?vid=fc2417ef-e41e-4f24-92dd-4b372dbe338d"},"vehicle_type_id":"4","last_reported":1683925523,"current_range_meters":22000,"station_id":"ce4bh3p2rcd13ifvqdp0","pricing_plan_id":"free"},{"bike_id":"8712a191-6d7e-43ce-9cdf-2e3e45e78c3b","system_id":"levelo_inurba_marseille","lat":43.295169,"lon":5.390426,"is_reserved":false,"is_disabled":false,"rental_uris":{"android":"levelo://app?vid=8712a191-6d7e-43ce-9cdf-2e3e45e78c3b","ios":"levelo://app?vid=8712a191-6d7e-43ce-9cdf-2e3e45e78c3b"},"vehicle_type_id":"4","last_reported":1683925523,"current_range_meters":28400,"station_id":"ce4bh3p2rcd13ifvqdp0","pricing_plan_id":"free"},{"bike_id":"1bb1d7e0-4389-4660-aac6-b3cd8bfce7db","system_id":"levelo_inurba_marseille","lat":43.29377,"lon":5.38891,"is_reserved":false,"is_disabled":false,"rental_uris":{"android":"levelo://app?vid=1bb1d7e0-4389-4660-aac6-b3cd8bfce7db","ios":"levelo://app?vid=1bb1d7e0-4389-4660-aac6-b3cd8bfce7db"},"vehicle_type_id":"4","last_reported":1683925523,"current_range_meters":6400,"station_id":"","pricing_plan_id":"free"},{"bike_id":"7a6a82c2-695e-4b05-8cbb-869844c3e906","system_id":"levelo_inurba_marseille","lat":43.290094,"lon":5.381264,"is_reserved":false,"is_disabled":false,"rental_uris":{"android":"levelo://app?vid=7a6a82c2-695e-4b05-8cbb-869844c3e906","ios":"levelo://app?vid=7a6a82c2-695e-4b05-8cbb-869844c3e906"},"vehicle_type_id":"4","last_reported":1683925523,"current_range_meters":31200,"station_id":"ce4bh4p2rcd13ifvqe1g","pricing_plan_id":"free"},{"bike_id":"82ac814e-c1df-4608-8134-dbf68388ecaa","system_id":"levelo_inurba_marseille","lat":43.28856,"lon":5.358371,"is_reserved":false,"is_disabled":false,"rental_uris":{"android":"levelo://app?vid=82ac814e-c1df-4608-8134-dbf68388ecaa","ios":"levelo://app?vid=82ac814e-c1df-4608-8134-dbf68388ecaa"},"vehicle_type_id":"4","last_reported":1683925523,"current_range_meters":12400,"station_id":"ce4bhb12rcd13ifvqem0","pricing_plan_id":"free"},{"bike_id":"2b5eb913-b37c-4350-b44b-88ef7c0d8dca","system_id":"levelo_inurba_marseille","lat":43.28856,"lon":5.358371,"is_reserved":false,"is_disabled":false,"rental_uris":{"android":"levelo://app?vid=2b5eb913-b37c-4350-b44b-88ef7c0d8dca","ios":"levelo://app?vid=2b5eb913-b37c-4350-b44b-88ef7c0d8dca"},"vehicle_type_id":"4","last_reported":1683925523,"current_range_meters":27600,"station_id":"ce4bhb12rcd13ifvqem0","pricing_plan_id":"free"},{"bike_id":"0c2d2bb7-5401-4d5a-8a06-22375ff5ed7f","system_id":"levelo_inurba_marseille","lat":43.30642,"lon":5.401031,"is_reserved":false,"is_disabled":false,"rental_uris":{"android":"levelo://app?vid=0c2d2bb7-5401-4d5a-8a06-22375ff5ed7f","ios":"levelo://app?vid=0c2d2bb7-5401-4d5a-8a06-22375ff5ed7f"},"vehicle_type_id":"4","last_reported":1683925523,"current_range_meters":30800,"station_id":"ce4bh112rcd13ifvqda0","pricing_plan_id":"free"},{"bike_id":"c2f47a43-1a25-412e-bad2-1279deeebbba","system_id":"levelo_inurba_marseille","lat":43.30642,"lon":5.401031,"is_reserved":false,"is_disabled":false,"rental_uris":{"android":"levelo://app?vid=c2f47a43-1a25-412e-bad2-1279deeebbba","ios":"levelo://app?vid=c2f47a43-1a25-412e-bad2-1279deeebbba"},"vehicle_type_id":"4","last_reported":1683925523,"current_range_meters":11200,"station_id":"ce4bh112rcd13ifvqda0","pricing_plan_id":"free"},{"bike_id":"64c62719-fb1a-42d2-bc39-a910b9837715","system_id":"levelo_inurba_marseille","lat":43.30642,"lon":5.401031,"is_reserved":false,"is_disabled":false,"rental_uris":{"android":"levelo://app?vid=64c62719-fb1a-42d2-bc39-a910b9837715","ios":"levelo://app?vid=64c62719-fb1a-42d2-bc39-a910b9837715"},"vehicle_type_id":"4","last_reported":1683925523,"current_range_meters":12800,"station_id":"ce4bh112rcd13ifvqda0","pricing_plan_id":"free"},{"bike_id":"dcf0a8c7-0856-4697-b5f4-085b6e499fa5","system_id":"levelo_inurba_marseille","lat":43.30642,"lon":5.401031,"is_reserved":false,"is_disabled":false,"rental_uris":{"android":"levelo://app?vid=dcf0a8c7-0856-4697-b5f4-085b6e499fa5","ios":"levelo://app?vid=dcf0a8c7-0856-4697-b5f4-085b6e499fa5"},"vehicle_type_id":"4","last_reported":1683925523,"current_range_meters":2000,"station_id":"ce4bh112rcd13ifvqda0","pricing_plan_id":"free"},{"bike_id":"58c75385-e42e-4a55-9764-48cdd5e34239","system_id":"levelo_inurba_marseille","lat":43.30642,"lon":5.401031,"is_reserved":false,"is_disabled":false,"rental_uris":{"android":"levelo://app?vid=58c75385-e42e-4a55-9764-48cdd5e34239","ios":"levelo://app?vid=58c75385-e42e-4a55-9764-48cdd5e34239"},"vehicle_type_id":"4","last_reported":1683925523,"current_range_meters":18000,"station_id":"ce4bh112rcd13ifvqda0","pricing_plan_id":"free"},{"bike_id":"2aad4443-209d-44b2-8786-1dfb9e908f6c","system_id":"levelo_inurba_marseille","lat":43.301117,"lon":5.398795,"is_reserved":false,"is_disabled":false,"rental_uris":{"android":"levelo://app?vid=2aad4443-209d-44b2-8786-1dfb9e908f6c","ios":"levelo://app?vid=2aad4443-209d-44b2-8786-1dfb9e908f6c"},"vehicle_type_id":"4","last_reported":1683925523,"current_range_meters":17200,"station_id":"ce4bh0h2rcd13ifvqd40","pricing_plan_id":"free"},{"bike_id":"72b3c857-3e72-4896-a74b-688c0e304b45","system_id":"levelo_inurba_marseille","lat":43.301117,"lon":5.398795,"is_reserved":false,"is_disabled":false,"rental_uris":{"android":"levelo://app?vid=72b3c857-3e72-4896-a74b-688c0e304b45","ios":"levelo://app?vid=72b3c857-3e72-4896-a74b-688c0e304b45"},"vehicle_type_id":"4","last_reported":1683925523,"current_range_meters":23600,"station_id":"ce4bh0h2rcd13ifvqd40","pricing_plan_id":"free"},{"bike_id":"8bc305ae-216a-4d6d-81a3-9c194a97b1f5","system_id":"levelo_inurba_marseille","lat":43.301117,"lon":5.398795,"is_reserved":false,"is_disabled":false,"rental_uris":{"android":"levelo://app?vid=8bc305ae-216a-4d6d-81a3-9c194a97b1f5","ios":"levelo://app?vid=8bc305ae-216a-4d6d-81a3-9c194a97b1f5"},"vehicle_type_id":"4","last_reported":1683925523,"current_range_meters":7600,"station_id":"ce4bh0h2rcd13ifvqd40","pricing_plan_id":"free"},{"bike_id":"9567f7e5-fa16-4d08-975f-d2a50f33386f","system_id":"levelo_inurba_marseille","lat":43.301117,"lon":5.398795,"is_reserved":false,"is_disabled":false,"rental_uris":{"android":"levelo://app?vid=9567f7e5-fa16-4d08-975f-d2a50f33386f","ios":"levelo://app?vid=9567f7e5-fa16-4d08-975f-d2a50f33386f"},"vehicle_type_id":"4","last_reported":1683925523,"current_range_meters":18800,"station_id":"ce4bh0h2rcd13ifvqd40","pricing_plan_id":"free"},{"bike_id":"e1fb2dcf-1fe8-4414-b959-6bc6541dc848","system_id":"levelo_inurba_marseille","lat":43.301117,"lon":5.398795,"is_reserved":false,"is_disabled":false,"rental_uris":{"android":"levelo://app?vid=e1fb2dcf-1fe8-4414-b959-6bc6541dc848","ios":"levelo://app?vid=e1fb2dcf-1fe8-4414-b959-6bc6541dc848"},"vehicle_type_id":"4","last_reported":1683925523,"current_range_meters":0,"station_id":"ce4bh0h2rcd13ifvqd40","pricing_plan_id":"free"},{"bike_id":"0aa343cf-17b4-4972-876d-07b5da61f9ff","system_id":"levelo_inurba_marseille","lat":43.298681,"lon":5.397225,"is_reserved":false,"is_disabled":false,"rental_uris":{"android":"levelo://app?vid=0aa343cf-17b4-4972-876d-07b5da61f9ff","ios":"levelo://app?vid=0aa343cf-17b4-4972-876d-07b5da61f9ff"},"vehicle_type_id":"4","last_reported":1683925523,"current_range_meters":12400,"station_id":"ce4bh0h2rcd13ifvqd50","pricing_plan_id":"free"},{"bike_id":"8e852bb4-d6f4-4a26-8ab5-35c6194331cf","system_id":"levelo_inurba_marseille","lat":43.302759,"lon":5.400793,"is_reserved":false,"is_disabled":false,"rental_uris":{"android":"levelo://app?vid=8e852bb4-d6f4-4a26-8ab5-35c6194331cf","ios":"levelo://app?vid=8e852bb4-d6f4-4a26-8ab5-35c6194331cf"},"vehicle_type_id":"4","last_reported":1683925523,"current_range_meters":5600,"station_id":"ce4bgvh2rcd13ifvqcs0","pricing_plan_id":"free"},{"bike_id":"1a0fb973-ccc9-4a48-8dcf-a7841b3a81e1","system_id":"levelo_inurba_marseille","lat":43.290336,"lon":5.386425,"is_reserved":false,"is_disabled":false,"rental_uris":{"android":"levelo://app?vid=1a0fb973-ccc9-4a48-8dcf-a7841b3a81e1","ios":"levelo://app?vid=1a0fb973-ccc9-4a48-8dcf-a7841b3a81e1"},"vehicle_type_id":"4","last_reported":1683925523,"current_range_meters":24000,"station_id":"ce4bh4p2rcd13ifvqe0g","pricing_plan_id":"free"},{"bike_id":"032de973-5b17-49d5-a787-ba4e024ff79b","system_id":"levelo_inurba_marseille","lat":43.295194,"lon":5.39397,"is_reserved":false,"is_disabled":false,"rental_uris":{"android":"levelo://app?vid=032de973-5b17-49d5-a787-ba4e024ff79b","ios":"levelo://app?vid=032de973-5b17-49d5-a787-ba4e024ff79b"},"vehicle_type_id":"4","last_reported":1683925523,"current_range_meters":23600,"station_id":"ce4bh292rcd13ifvqdf0","pricing_plan_id":"free"},{"bike_id":"273dc88c-db2b-4069-817b-b9a6587d8a63","system_id":"levelo_inurba_marseille","lat":43.290336,"lon":5.386425,"is_reserved":false,"is_disabled":false,"rental_uris":{"android":"levelo://app?vid=273dc88c-db2b-4069-817b-b9a6587d8a63","ios":"levelo://app?vid=273dc88c-db2b-4069-817b-b9a6587d8a63"},"vehicle_type_id":"4","last_reported":1683925523,"current_range_meters":11200,"station_id":"ce4bh4p2rcd13ifvqe0g","pricing_plan_id":"free"},{"bike_id":"c52d965b-7396-4bac-82a6-5764f80ef83b","system_id":"levelo_inurba_marseille","lat":43.290336,"lon":5.386425,"is_reserved":false,"is_disabled":false,"rental_uris":{"android":"levelo://app?vid=c52d965b-7396-4bac-82a6-5764f80ef83b","ios":"levelo://app?vid=c52d965b-7396-4bac-82a6-5764f80ef83b"},"vehicle_type_id":"4","last_reported":1683925523,"current_range_meters":11200,"station_id":"ce4bh4p2rcd13ifvqe0g","pricing_plan_id":"free"},{"bike_id":"7044323e-3fa9-4068-a149-08dc57083a1b","system_id":"levelo_inurba_marseille","lat":43.302759,"lon":5.400793,"is_reserved":false,"is_disabled":false,"rental_uris":{"android":"levelo://app?vid=7044323e-3fa9-4068-a149-08dc57083a1b","ios":"levelo://app?vid=7044323e-3fa9-4068-a149-08dc57083a1b"},"vehicle_type_id":"4","last_reported":1683925523,"current_range_meters":21200,"station_id":"ce4bgvh2rcd13ifvqcs0","pricing_plan_id":"free"},{"bike_id":"c294f617-9acf-43ef-a5ab-0547bc9d2835","system_id":"levelo_inurba_marseille","lat":43.286039,"lon":5.370679,"is_reserved":false,"is_disabled":false,"rental_uris":{"android":"levelo://app?vid=c294f617-9acf-43ef-a5ab-0547bc9d2835","ios":"levelo://app?vid=c294f617-9acf-43ef-a5ab-0547bc9d2835"},"vehicle_type_id":"4","last_reported":1683925523,"current_range_meters":8000,"station_id":"ce4bht12rcd13ifvqi60","pricing_plan_id":"free"},{"bike_id":"24ffff6c-d29e-40f1-90dd-c01f5e708afb","system_id":"levelo_inurba_marseille","lat":43.287185,"lon":5.379373,"is_reserved":false,"is_disabled":false,"rental_uris":{"android":"levelo://app?vid=24ffff6c-d29e-40f1-90dd-c01f5e708afb","ios":"levelo://app?vid=24ffff6c-d29e-40f1-90dd-c01f5e708afb"},"vehicle_type_id":"4","last_reported":1683925523,"current_range_meters":400,"station_id":"ce4bh9p2rcd13ifvqec0","pricing_plan_id":"free"},{"bike_id":"2f707ee0-3e2a-4249-9b6c-bf76222e9be6","system_id":"levelo_inurba_marseille","lat":43.287184,"lon":5.37937,"is_reserved":false,"is_disabled":false,"rental_uris":{"android":"levelo://app?vid=2f707ee0-3e2a-4249-9b6c-bf76222e9be6","ios":"levelo://app?vid=2f707ee0-3e2a-4249-9b6c-bf76222e9be6"},"vehicle_type_id":"4","last_reported":1683925523,"current_range_meters":15200,"station_id":"ce4bh9p2rcd13ifvqec0","pricing_plan_id":"free"},{"bike_id":"7910bee7-258d-48bf-a7d4-4c5605c0f21a","system_id":"levelo_inurba_marseille","lat":43.287185,"lon":5.379373,"is_reserved":false,"is_disabled":false,"rental_uris":{"android":"levelo://app?vid=7910bee7-258d-48bf-a7d4-4c5605c0f21a","ios":"levelo://app?vid=7910bee7-258d-48bf-a7d4-4c5605c0f21a"},"vehicle_type_id":"4","last_reported":1683925523,"current_range_meters":8400,"station_id":"ce4bh9p2rcd13ifvqec0","pricing_plan_id":"free"},{"bike_id":"4d6f38cb-36de-4a32-9a0f-cc6e588a7e91","system_id":"levelo_inurba_marseille","lat":43.287185,"lon":5.379373,"is_reserved":false,"is_disabled":false,"rental_uris":{"android":"levelo://app?vid=4d6f38cb-36de-4a32-9a0f-cc6e588a7e91","ios":"levelo://app?vid=4d6f38cb-36de-4a32-9a0f-cc6e588a7e91"},"vehicle_type_id":"4","last_reported":1683925523,"current_range_meters":16800,"station_id":"ce4bh9p2rcd13ifvqec0","pricing_plan_id":"free"},{"bike_id":"3efa8b6e-5634-4eb2-a7c4-4a6121c66cf2","system_id":"levelo_inurba_marseille","lat":43.286039,"lon":5.370679,"is_reserved":false,"is_disabled":false,"rental_uris":{"android":"levelo://app?vid=3efa8b6e-5634-4eb2-a7c4-4a6121c66cf2","ios":"levelo://app?vid=3efa8b6e-5634-4eb2-a7c4-4a6121c66cf2"},"vehicle_type_id":"4","last_reported":1683925523,"current_range_meters":1600,"station_id":"ce4bht12rcd13ifvqi60","pricing_plan_id":"free"},{"bike_id":"1b16c7a2-3233-4cc8-a0ff-42e09e0c735e","system_id":"levelo_inurba_marseille","lat":43.291994,"lon":5.392907,"is_reserved":false,"is_disabled":false,"rental_uris":{"android":"levelo://app?vid=1b16c7a2-3233-4cc8-a0ff-42e09e0c735e","ios":"levelo://app?vid=1b16c7a2-3233-4cc8-a0ff-42e09e0c735e"},"vehicle_type_id":"4","last_reported":1683925523,"current_range_meters":12000,"station_id":"ce4bh192rcd13ifvqdd0","pricing_plan_id":"free"},{"bike_id":"53e096f5-844b-4c80-9f2b-804694ec42e5","system_id":"levelo_inurba_marseille","lat":43.291994,"lon":5.392907,"is_reserved":false,"is_disabled":false,"rental_uris":{"android":"levelo://app?vid=53e096f5-844b-4c80-9f2b-804694ec42e5","ios":"levelo://app?vid=53e096f5-844b-4c80-9f2b-804694ec42e5"},"vehicle_type_id":"4","last_reported":1683925523,"current_range_meters":15600,"station_id":"ce4bh192rcd13ifvqdd0","pricing_plan_id":"free"},{"bike_id":"d6d4d88b-d665-42f3-a8ec-a2283e741f7c","system_id":"levelo_inurba_marseille","lat":43.291994,"lon":5.392907,"is_reserved":false,"is_disabled":false,"rental_uris":{"android":"levelo://app?vid=d6d4d88b-d665-42f3-a8ec-a2283e741f7c","ios":"levelo://app?vid=d6d4d88b-d665-42f3-a8ec-a2283e741f7c"},"vehicle_type_id":"4","last_reported":1683925523,"current_range_meters":0,"station_id":"ce4bh192rcd13ifvqdd0","pricing_plan_id":"free"},{"bike_id":"1962d1d5-38f9-4b27-85f2-2c6c3f7907ee","system_id":"levelo_inurba_marseille","lat":43.284534,"lon":5.358662,"is_reserved":false,"is_disabled":false,"rental_uris":{"android":"levelo://app?vid=1962d1d5-38f9-4b27-85f2-2c6c3f7907ee","ios":"levelo://app?vid=1962d1d5-38f9-4b27-85f2-2c6c3f7907ee"},"vehicle_type_id":"4","last_reported":1683925523,"current_range_meters":13200,"station_id":"ce4bhah2rcd13ifvqei0","pricing_plan_id":"free"},{"bike_id":"d8962dca-2581-4e9e-acdb-70d96c61e474","system_id":"levelo_inurba_marseille","lat":43.284534,"lon":5.358662,"is_reserved":false,"is_disabled":false,"rental_uris":{"android":"levelo://app?vid=d8962dca-2581-4e9e-acdb-70d96c61e474","ios":"levelo://app?vid=d8962dca-2581-4e9e-acdb-70d96c61e474"},"vehicle_type_id":"4","last_reported":1683925523,"current_range_meters":23600,"station_id":"ce4bhah2rcd13ifvqei0","pricing_plan_id":"free"},