{"last_updated":1756375896,"ttl":60,"version":"2.2","data":{"bikes":[{"bike_id":"eeb42e78-373a-42a8-ad92-d1dc5831d4c3","system_id":"levelo_inurba_marseille","lat":43.24816,"lon":5.37461,"is_reserved":false,"is_disabled":true,"rental_uris":{"android":"levelo://app?vid=eeb42e78-373a-42a8-ad92-d1dc5831d4c3","ios":"levelo://app?vid=eeb42e78-373a-42a8-ad92-d1dc5831d4c3"},"vehicle_type_id":"4","last_reported":1756375896,"current_range_meters":2800,"station_id":"ce4bhgh2rcd13ifvqfb0","pricing_plan_id":"cebpf4jnsgd1na2vs0mg"},{"bike_id":"2732b203-8d34-41ae-80bd-b4f151d77aad","system_id":"levelo_inurba_marseille","lat":43.30261,"lon":5.4055,"is_reserved":false,"is_disabled":false,"rental_uris":{"android":"levelo://app?vid=2732b203-8d34-41ae-80bd-b4f151d77aad","ios":"levelo://app?vid=2732b203-8d34-41ae-80bd-b4f151d77aad"},"vehicle_type_id":"4","last_reported":1756375896,"current_range_meters":3200,"station_id":"","pricing_plan_id":"cebpf4jnsgd1na2vs0mg"},{"bike_id":"0d502687-08ef-4491-8893-8a03d8688be8","system_id":"levelo_inurba_marseille","lat":43.296359,"lon":5.361186,"is_reserved":false,"is_disabled":false,"rental_uris":{"android":"levelo://app?vid=0d502687-08ef-4491-8893-8a03d8688be8","ios":"levelo://app?vid=0d502687-08ef-4491-8893-8a03d8688be8"},"vehicle_type_id":"4","last_reported":1756375896,"current_range_meters":3600,"station_id":"","pricing_plan_id":"cebpf4jnsgd1na2vs0mg"},{"bike_id":"b7f5d4fc-8af5-442f-b471-e28f343fd67e","system_id":"levelo_inurba_marseille","lat":43.3376,"lon":5.3748,"is_reserved":false,"is_disabled":false,"rental_uris":{"android":"levelo://app?vid=b7f5d4fc-8af5-442f-b471-e28f343fd67e","ios":"levelo://app?vid=b7f5d4fc-8af5-442f-b471-e28f343fd67e"},"vehicle_type_id":"4","last_reported":1756375896,"current_range_meters":4000,"station_id":"","pricing_plan_id":"cebpf4jnsgd1na2vs0mg"},{"bike_id":"a75fac71-d359-4fdf-8ac9-f344d8d71b21","system_id":"levelo_inurba_marseille","lat":43.288553,"lon":5.358455,"is_reserved":false,"is_disabled":false,"rental_uris":{"android":"levelo://app?vid=a75fac71-d359-4fdf-8ac9-f344d8d71b21","ios":"levelo://app?vid=a75fac71-d359-4fdf-8ac9-f344d8d71b21"},"vehicle_type_id":"4","last_reported":1756375896,"current_range_meters":4400,"station_id":"","pricing_plan_id":"cebpf4jnsgd1na2vs0mg"},{"bike_id":"23038a23-8213-4d5b-a784-616373105311","system_id":"levelo_inurba_marseille","lat":43.29891,"lon":5.43668,"is_reserved":false,"is_disabled":false,"rental_uris":{"android":"levelo://app?vid=23038a23-8213-4d5b-a784-616373105311","ios":"levelo://app?vid=23038a23-8213-4d5b-a784-616373105311"},"vehicle_type_id":"4","last_reported":1756375896,"current_range_meters":4400,"station_id":"ce4bhpp2rcd13ifvqhfg","pricing_plan_id":"cebpf4jnsgd1na2vs0mg"},{"bike_id":"7986c926-0147-4bcc-bfa2-8c6d7c658996","system_id":"levelo_inurba_marseille","lat":43.29937,"lon":5.36542,"is_reserved":false,"is_disabled":false,"rental_uris":{"android":"levelo://app?vid=7986c926-0147-4bcc-bfa2-8c6d7c658996","ios":"levelo://app?vid=7986c926-0147-4bcc-bfa2-8c6d7c658996"},"vehicle_type_id":"4","last_reported":1756375896,"current_range_meters":4800,"station_id":"ce4bgm92rcd13ifvqbr0","pricing_plan_id":"cebpf4jnsgd1na2vs0mg"},{"bike_id":"51842e17-ef10-4624-a23e-c8a182427991","system_id":"levelo_inurba_marseille","lat":43.316305,"lon":5.381853,"is_reserved":false,"is_disabled":false,"rental_uris":{"android":"levelo://app?vid=51842e17-ef10-4624-a23e-c8a182427991","ios":"levelo://app?vid=51842e17-ef10-4624-a23e-c8a182427991"},"vehicle_type_id":"4","last_reported":1756375896,"current_range_meters":4800,"station_id":"","pricing_plan_id":"cebpf4jnsgd1na2vs0mg"},{"bike_id":"9ebbca0f-8b0f-49e0-bbc0-5934ebb0e846","system_id":"levelo_inurba_marseille","lat":43.21181,"lon":5.35097,"is_reserved":false,"is_disabled":false,"rental_uris":{"android":"levelo://app?vid=9ebbca0f-8b0f-49e0-bbc0-5934ebb0e846","ios":"levelo://app?vid=9ebbca0f-8b0f-49e0-bbc0-5934ebb0e846"},"vehicle_type_id":"4","last_reported":1756375896,"current_range_meters":5600,"station_id":"st_cvj6sg6p6f1abm77japg","pricing_plan_id":"cebpf4jnsgd1na2vs0mg"},{"bike_id":"69a01144-4cb0-4f43-b8a7-d8bba1210d75","system_id":"levelo_inurba_marseille","lat":43.31574,"lon":5.37453,"is_reserved":false,"is_disabled":false,"rental_uris":{"android":"levelo://app?vid=69a01144-4cb0-4f43-b8a7-d8bba1210d75","ios":"levelo://app?vid=69a01144-4cb0-4f43-b8a7-d8bba1210d75"},"vehicle_type_id":"4","last_reported":1756375896,"current_range_meters":5600,"station_id":"","pricing_plan_id":"cebpf4jnsgd1na2vs0mg"},{"bike_id":"8daa12db-9304-48ad-a45e-34317e520556","system_id":"levelo_inurba_marseille","lat":43.33768,"lon":5.37435,"is_reserved":false,"is_disabled":false,"rental_uris":{"android":"levelo://app?vid=8daa12db-9304-48ad-a45e-34317e520556","ios":"levelo://app?vid=8daa12db-9304-48ad-a45e-34317e520556"},"vehicle_type_id":"4","last_reported":1756375896,"current_range_meters":5600,"station_id":"","pricing_plan_id":"cebpf4jnsgd1na2vs0mg"},{"bike_id":"d0929797-eccc-45d1-a5f1-aea03c095a59","system_id":"levelo_inurba_marseille","lat":43.27996,"lon":5.41659,"is_reserved":false,"is_disabled":false,"rental_uris":{"android":"levelo://app?vid=d0929797-eccc-45d1-a5f1-aea03c095a59","ios":"levelo://app?vid=d0929797-eccc-45d1-a5f1-aea03c095a59"},"vehicle_type_id":"4","last_reported":1756375896,"current_range_meters":5600,"station_id":"ce4bho12rcd13ifvqh1g","pricing_plan_id":"cebpf4jnsgd1na2vs0mg"},{"bike_id":"8ff3ebc3-b8cc-483f-9232-7e0c6220b0be","system_id":"levelo_inurba_marseille","lat":43.29932,"lon":5.41309,"is_reserved":false,"is_disabled":false,"rental_uris":{"android":"levelo://app?vid=8ff3ebc3-b8cc-483f-9232-7e0c6220b0be","ios":"levelo://app?vid=8ff3ebc3-b8cc-483f-9232-7e0c6220b0be"},"vehicle_type_id":"4","last_reported":1756375896,"current_range_meters":6400,"station_id":"ce4bhp12rcd13ifvqh9g","pricing_plan_id":"cebpf4jnsgd1na2vs0mg"},{"bike_id":"c44447f7-27d4-44d1-a571-31358169dedc","system_id":"levelo_inurba_marseille","lat":43.31686,"lon":5.40473,"is_reserved":false,"is_disabled":false,"rental_uris":{"android":"levelo://app?vid=c44447f7-27d4-44d1-a571-31358169dedc","ios":"levelo://app?vid=c44447f7-27d4-44d1-a571-31358169dedc"},"vehicle_type_id":"4","last_reported":1756375896,"current_range_meters":6400,"station_id":"ce4bh012rcd13ifvqd00","pricing_plan_id":"cebpf4jnsgd1na2vs0mg"},{"bike_id":"8a82cea5-e5cc-4fe0-bea7-72325d321d3b","system_id":"levelo_inurba_marseille","lat":43.31709,"lon":5.43712,"is_reserved":false,"is_disabled":false,"rental_uris":{"android":"levelo://app?vid=8a82cea5-e5cc-4fe0-bea7-72325d321d3b","ios":"levelo://app?vid=8a82cea5-e5cc-4fe0-bea7-72325d321d3b"},"vehicle_type_id":"4","last_reported":1756375896,"current_range_meters":6400,"station_id":"ce4bhp92rcd13ifvqhcg","pricing_plan_id":"cebpf4jnsgd1na2vs0mg"},{"bike_id":"1212e143-341b-4e86-bbee-8bea719c202e","system_id":"levelo_inurba_marseille","lat":43.2909,"lon":5.38148,"is_reserved":false,"is_disabled":false,"rental_uris":{"android":"levelo://app?vid=1212e143-341b-4e86-bbee-8bea719c202e","ios":"levelo://app?vid=1212e143-341b-4e86-bbee-8bea719c202e"},"vehicle_type_id":"4","last_reported":1756375896,"current_range_meters":6400,"station_id":"ce4bh512rcd13ifvqe2g","pricing_plan_id":"cebpf4jnsgd1na2vs0mg"},{"bike_id":"2e29be9e-3f99-4985-913f-e3fc2b4b3402","system_id":"levelo_inurba_marseille","lat":43.31484,"lon":5.37293,"is_reserved":false,"is_disabled":false,"rental_uris":{"android":"levelo://app?vid=2e29be9e-3f99-4985-913f-e3fc2b4b3402","ios":"levelo://app?vid=2e29be9e-3f99-4985-913f-e3fc2b4b3402"},"vehicle_type_id":"4","last_reported":1756375896,"current_range_meters":6800,"station_id":"ce4bgt12rcd13ifvqcd0","pricing_plan_id":"cebpf4jnsgd1na2vs0mg"},{"bike_id":"7b231f8f-c3db-43e0-83db-b7da3200a209","system_id":"levelo_inurba_marseille","lat":43.31886,"lon":5.40732,"is_reserved":false,"is_disabled":false,"rental_uris":{"android":"levelo://app?vid=7b231f8f-c3db-43e0-83db-b7da3200a209","ios":"levelo://app?vid=7b231f8f-c3db-43e0-83db-b7da3200a209"},"vehicle_type_id":"4","last_reported":1756375896,"current_range_meters":7200,"station_id":"ce4bhq12rcd13ifvqhig","pricing_plan_id":"cebpf4jnsgd1na2vs0mg"},{"bike_id":"f140bace-fd27-4d28-9d07-c41234154354","system_id":"levelo_inurba_marseille","lat":43.32466,"lon":5.36564,"is_reserved":false,"is_disabled":false,"rental_uris":{"android":"levelo://app?vid=f140bace-fd27-4d28-9d07-c41234154354","ios":"levelo://app?vid=f140bace-fd27-4d28-9d07-c41234154354"},"vehicle_type_id":"4","last_reported":1756375896,"current_range_meters":8000,"station_id":"ce4bhs12rcd13ifvqhvg","pricing_plan_id":"cebpf4jnsgd1na2vs0mg"},{"bike_id":"5bce688b-fc81-4596-8277-b66f54be87c1","system_id":"levelo_inurba_marseille","lat":43.337645,"lon":5.374409,"is_reserved":false,"is_disabled":false,"rental_uris":{"android":"levelo://app?vid=5bce688b-fc81-4596-8277-b66f54be87c1","ios":"levelo://app?vid=5bce688b-fc81-4596-8277-b66f54be87c1"},"vehicle_type_id":"4","last_reported":1756375896,"current_range_meters":8000,"station_id":"","pricing_plan_id":"cebpf4jnsgd1na2vs0mg"},{"bike_id":"002cb9aa-4e77-4ebb-8df7-c5058298351c","system_id":"levelo_inurba_marseille","lat":43.28934,"lon":5.39622,"is_reserved":false,"is_disabled":false,"rental_uris":{"android":"levelo://app?vid=002cb9aa-4e77-4ebb-8df7-c5058298351c","ios":"levelo://app?vid=002cb9aa-4e77-4ebb-8df7-c5058298351c"},"vehicle_type_id":"4","last_reported":1756375896,"current_range_meters":8000,"station_id":"ce4bh3h2rcd13ifvqdn0","pricing_plan_id":"cebpf4jnsgd1na2vs0mg"},{"bike_id":"a7c879e6-fbdc-41cc-b936-a235aa17adb5","system_id":"levelo_inurba_marseille","lat":43.33131,"lon":5.38175,"is_reserved":false,"is_disabled":false,"rental_uris":{"android":"levelo://app?vid=a7c879e6-fbdc-41cc-b936-a235aa17adb5","ios":"levelo://app?vid=a7c879e6-fbdc-41cc-b936-a235aa17adb5"},"vehicle_type_id":"4","last_reported":1756375896,"current_range_meters":8400,"station_id":"","pricing_plan_id":"cebpf4jnsgd1na2vs0mg"},{"bike_id":"e5eabf25-4e1c-476e-b130-9f83cdcfc80c","system_id":"levelo_inurba_marseille","lat":43.29794,"lon":5.41709,"is_reserved":false,"is_disabled":false,"rental_uris":{"android":"levelo://app?vid=e5eabf25-4e1c-476e-b130-9f83cdcfc80c","ios":"levelo://app?vid=e5eabf25-4e1c-476e-b130-9f83cdcfc80c"},"vehicle_type_id":"4","last_reported":1756375896,"current_range_meters":8400,"station_id":"","pricing_plan_id":"cebpf4jnsgd1na2vs0mg"},{"bike_id":"20e5cb8a-fa77-48be-af9f-85f6ef0e3d59","system_id":"levelo_inurba_marseille","lat":43.301327,"lon":5.387762,"is_reserved":false,"is_disabled":false,"rental_uris":{"android":"levelo://app?vid=20e5cb8a-fa77-48be-af9f-85f6ef0e3d59","ios":"levelo://app?vid=20e5cb8a-fa77-48be-af9f-85f6ef0e3d59"},"vehicle_type_id":"4","last_reported":1756375896,"current_range_meters":8400,"station_id":"ce4bghh2rcd13ifvqb60","pricing_plan_id":"cebpf4jnsgd1na2vs0mg"},{"bike_id":"a6ef8657-5b8a-423b-993f-c3df43dec0a0","system_id":"levelo_inurba_marseille","lat":43.337595,"lon":5.374806,"is_reserved":false,"is_disabled":false,"rental_uris":{"android":"levelo://app?vid=a6ef8657-5b8a-423b-993f-c3df43dec0a0","ios":"levelo://app?vid=a6ef8657-5b8a-423b-993f-c3df43dec0a0"},"vehicle_type_id":"4","last_reported":1756375896,"current_range_meters":8800,"station_id":"","pricing_plan_id":"cebpf4jnsgd1na2vs0mg"},{"bike_id":"ac631280-124e-4e54-bf31-e8c590daca4d","system_id":"levelo_inurba_marseille","lat":43.298089,"lon":5.381118,"is_reserved":false,"is_disabled":false,"rental_uris":{"android":"levelo://app?vid=ac631280-124e-4e54-bf31-e8c590daca4d","ios":"levelo://app?vid=ac631280-124e-4e54-bf31-e8c590daca4d"},"vehicle_type_id":"4","last_reported":1756375896,"current_range_meters":9200,"station_id":"ce4bgip2rcd13ifvqbb0","pricing_plan_id":"cebpf4jnsgd1na2vs0mg"},{"bike_id":"452c64c1-c18e-429f-ac02-5f3cc7af3941","system_id":"levelo_inurba_marseille","lat":43.21746,"lon":5.34601,"is_reserved":false,"is_disabled":false,"rental_uris":{"android":"levelo://app?vid=452c64c1-c18e-429f-ac02-5f3cc7af3941","ios":"levelo://app?vid=452c64c1-c18e-429f-ac02-5f3cc7af3941"},"vehicle_type_id":"4","last_reported":1756375896,"current_range_meters":9200,"station_id":"st_cvj6r9ubvosntc0bgbag","pricing_plan_id":"cebpf4jnsgd1na2vs0mg"},{"bike_id":"aa375831-c987-4042-97d7-4bc96d6caa6a","system_id":"levelo_inurba_marseille","lat":43.26284,"lon":5.37412,"is_reserved":false,"is_disabled":true,"rental_uris":{"android":"levelo://app?vid=aa375831-c987-4042-97d7-4bc96d6caa6a","ios":"levelo://app?vid=aa375831-c987-4042-97d7-4bc96d6caa6a"},"vehicle_type_id":"4","last_reported":1756375896,"current_range_meters":9600,"station_id":"","pricing_plan_id":"cebpf4jnsgd1na2vs0mg"},{"bike_id":"8637e1aa-9c9a-41e1-a5d5-f0342a65118e","system_id":"levelo_inurba_marseille","lat":43.31715,"lon":5.43709,"is_reserved":false,"is_disabled":false,"rental_uris":{"android":"levelo://app?vid=8637e1aa-9c9a-41e1-a5d5-f0342a65118e","ios":"levelo://app?vid=8637e1aa-9c9a-41e1-a5d5-f0342a65118e"},"vehicle_type_id":"4","last_reported":1756375896,"current_range_meters":9600,"station_id":"ce4bhp92rcd13ifvqhcg","pricing_plan_id":"cebpf4jnsgd1na2vs0mg"},{"bike_id":"6bfbf7b1-a4a1-4287-abfb-a1fa867bee3a","system_id":"levelo_inurba_marseille","lat":43.2304,"lon":5.35532,"is_reserved":false,"is_disabled":false,"rental_uris":{"android":"levelo://app?vid=6bfbf7b1-a4a1-4287-abfb-a1fa867bee3a","ios":"levelo://app?vid=6bfbf7b1-a4a1-4287-abfb-a1fa867bee3a"},"vehicle_type_id":"4","last_reported":1756375896,"current_range_meters":10000,"station_id":"cpo3342slgdg3j2ifvpg","pricing_plan_id":"cebpf4jnsgd1na2vs0mg"},{"bike_id":"07f3c348-251f-475b-bdcc-b91dd94163be","system_id":"levelo_inurba_marseille","lat":43.21753,"lon":5.3461,"is_reserved":false,"is_disabled":true,"rental_uris":{"android":"levelo://app?vid=07f3c348-251f-475b-bdcc-b91dd94163be","ios":"levelo://app?vid=07f3c348-251f-475b-bdcc-b91dd94163be"},"vehicle_type_id":"4","last_reported":1756375896,"current_range_meters":10000,"station_id":"st_cvj6r9ubvosntc0bgbag","pricing_plan_id":"cebpf4jnsgd1na2vs0mg"},{"bike_id":"54a62bf4-c81e-4963-889f-42f7250b33ac","system_id":"levelo_inurba_marseille","lat":43.26198,"lon":5.37439,"is_reserved":false,"is_disabled":false,"rental_uris":{"android":"levelo://app?vid=54a62bf4-c81e-4963-889f-42f7250b33ac","ios":"levelo://app?vid=54a62bf4-c81e-4963-889f-42f7250b33ac"},"vehicle_type_id":"4","last_reported":1756375896,"current_range_meters":10000,"station_id":"ce4bhgp2rcd13ifvqfc0","pricing_plan_id":"cebpf4jnsgd1na2vs0mg"},{"bike_id":"f7c3c5c3-3f9d-4827-ae22-55044f8171f0","system_id":"levelo_inurba_marseille","lat":43.29099,"lon":5.38135,"is_reserved":false,"is_disabled":false,"rental_uris":{"android":"levelo://app?vid=f7c3c5c3-3f9d-4827-ae22-55044f8171f0","ios":"levelo://app?vid=f7c3c5c3-3f9d-4827-ae22-55044f8171f0"},"vehicle_type_id":"4","last_reported":1756375896,"current_range_meters":10800,"station_id":"","pricing_plan_id":"cebpf4jnsgd1na2vs0mg"},{"bike_id":"99a1f6e8-f9f4-47c7-aa48-e7c25f733bb1","system_id":"levelo_inurba_marseille","lat":43.246369,"lon":5.431561,"is_reserved":false,"is_disabled":false,"rental_uris":{"android":"levelo://app?vid=99a1f6e8-f9f4-47c7-aa48-e7c25f733bb1","ios":"levelo://app?vid=99a1f6e8-f9f4-47c7-aa48-e7c25f733bb1"},"vehicle_type_id":"4","last_reported":1756375896,"current_range_meters":10800,"station_id":"st_d2m6c4gdas8pm72e190g","pricing_plan_id":"cebpf4jnsgd1na2vs0mg"},{"bike_id":"f5ee2120-b8b8-472b-9bcc-efc824cd719b","system_id":"levelo_inurba_marseille","lat":43.29544,"lon":5.423,"is_reserved":false,"is_disabled":false,"rental_uris":{"android":"levelo://app?vid=f5ee2120-b8b8-472b-9bcc-efc824cd719b","ios":"levelo://app?vid=f5ee2120-b8b8-472b-9bcc-efc824cd719b"},"vehicle_type_id":"4","last_reported":1756375896,"current_range_meters":10800,"station_id":"ce4bhph2rcd13ifvqhdg","pricing_plan_id":"cebpf4jnsgd1na2vs0mg"},{"bike_id":"5c26a54e-1e97-4ad3-a16d-614ad930b130","system_id":"levelo_inurba_marseille","lat":43.32102,"lon":5.36765,"is_reserved":false,"is_disabled":false,"rental_uris":{"android":"levelo://app?vid=5c26a54e-1e97-4ad3-a16d-614ad930b130","ios":"levelo://app?vid=5c26a54e-1e97-4ad3-a16d-614ad930b130"},"vehicle_type_id":"4","last_reported":1756375896,"current_range_meters":11200,"station_id":"ce4bhrh2rcd13ifvqhug","pricing_plan_id":"cebpf4jnsgd1na2vs0mg"},{"bike_id":"c44bedcb-df6e-4aac-bc5a-92deddea45d5","system_id":"levelo_inurba_marseille","lat":43.29092,"lon":5.38138,"is_reserved":false,"is_disabled":false,"rental_uris":{"android":"levelo://app?vid=c44bedcb-df6e-4aac-bc5a-92deddea45d5","ios":"levelo://app?vid=c44bedcb-df6e-4aac-bc5a-92deddea45d5"},"vehicle_type_id":"4","last_reported":1756375896,"current_range_meters":11200,"station_id":"ce4bh512rcd13ifvqe2g","pricing_plan_id":"cebpf4jnsgd1na2vs0mg"},{"bike_id":"19eabc24-80d3-4327-b947-9ec7f85cd494","system_id":"levelo_inurba_marseille","lat":43.27318,"lon":5.39084,"is_reserved":false,"is_disabled":true,"rental_uris":{"android":"levelo://app?vid=19eabc24-80d3-4327-b947-9ec7f85cd494","ios":"levelo://app?vid=19eabc24-80d3-4327-b947-9ec7f85cd494"},"vehicle_type_id":"4","last_reported":1756375896,"current_range_meters":11200,"station_id":"ce4bhgp2rcd13ifvqfe0","pricing_plan_id":"cebpf4jnsgd1na2vs0mg"},{"bike_id":"c34a446c-94fa-4317-b7ad-6dc9b592cdd5","system_id":"levelo_inurba_marseille","lat":43.30376,"lon":5.42496,"is_reserved":false,"is_disabled":false,"rental_uris":{"android":"levelo://app?vid=c34a446c-94fa-4317-b7ad-6dc9b592cdd5","ios":"levelo://app?vid=c34a446c-94fa-4317-b7ad-6dc9b592cdd5"},"vehicle_type_id":"4","last_reported":1756375896,"current_range_meters":11200,"station_id":"ce4bhoh2rcd13ifvqh6g","pricing_plan_id":"cebpf4jnsgd1na2vs0mg"},{"bike_id":"06d7a368-7156-454c-a01c-b0a0ebbf9e53","system_id":"levelo_inurba_marseille","lat":43.27958,"lon":5.38711,"is_reserved":false,"is_disabled":false,"rental_uris":{"android":"levelo://app?vid=06d7a368-7156-454c-a01c-b0a0ebbf9e53","ios":"levelo://app?vid=06d7a368-7156-454c-a01c-b0a0ebbf9e53"},"vehicle_type_id":"4","last_reported":1756375896,"current_range_meters":11200,"station_id":"ce4bhg12rcd13ifvqf80","pricing_plan_id":"cebpf4jnsgd1na2vs0mg"},{"bike_id":"cea4f74c-749a-4d27-ba42-227f3aa848c5","system_id":"levelo_inurba_marseille","lat":43.30124,"lon":5.38111,"is_reserved":false,"is_disabled":false,"rental_uris":{"android":"levelo://app?vid=cea4f74c-749a-4d27-ba42-227f3aa848c5","ios":"levelo://app?vid=cea4f74c-749a-4d27-ba42-227f3aa848c5"},"vehicle_type_id":"4","last_reported":1756375896,"current_range_meters":11200,"station_id":"ce4bgjp2rcd13ifvqbh0","pricing_plan_id":"cebpf4jnsgd1na2vs0mg"},{"bike_id":"ac0ea835-99bd-43af-8946-31e8413cf1fb","system_id":"levelo_inurba_marseille","lat":43.32467,"lon":5.36579,"is_reserved":false,"is_disabled":false,"rental_uris":{"android":"levelo://app?vid=ac0ea835-99bd-43af-8946-31e8413cf1fb","ios":"levelo://app?vid=ac0ea835-99bd-43af-8946-31e8413cf1fb"},"vehicle_type_id":"4","last_reported":1756375896,"current_range_meters":11600,"station_id":"ce4bhs12rcd13ifvqhvg","pricing_plan_id":"cebpf4jnsgd1na2vs0mg"},{"bike_id":"224face6-d21c-4a64-8601-8cee01bd6994","system_id":"levelo_inurba_marseille","lat":43.26952,"lon":5.38632,"is_reserved":false,"is_disabled":false,"rental_uris":{"android":"levelo://app?vid=224face6-d21c-4a64-8601-8cee01bd6994","ios":"levelo://app?vid=224face6-d21c-4a64-8601-8cee01bd6994"},"vehicle_type_id":"4","last_reported":1756375896,"current_range_meters":11600,"station_id":"ce4bhh92rcd13ifvqfh0","pricing_plan_id":"cebpf4jnsgd1na2vs0mg"},{"bike_id":"758925e6-bd9a-4169-81c0-f7af7a29a755","system_id":"levelo_inurba_marseille","lat":43.26028,"lon":5.37552,"is_reserved":false,"is_disabled":false,"rental_uris":{"android":"levelo://app?vid=758925e6-bd9a-4169-81c0-f7af7a29a755","ios":"levelo://app?vid=758925e6-bd9a-4169-81c0-f7af7a29a755"},"vehicle_type_id":"4","last_reported":1756375896,"current_range_meters":11200,"station_id":"ce4bhgh2rcd13ifvqfa0","pricing_plan_id":"cebpf4jnsgd1na2vs0mg"},{"bike_id":"3d399bfe-7fbc-42b7-a070-a73b13325d3f","system_id":"levelo_inurba_marseille","lat":43.23095,"lon":5.3545,"is_reserved":false,"is_disabled":false,"rental_uris":{"android":"levelo://app?vid=3d399bfe-7fbc-42b7-a070-a73b13325d3f","ios":"levelo://app?vid=3d399bfe-7fbc-42b7-a070-a73b13325d3f"},"vehicle_type_id":"4","last_reported":1756375896,"current_range_meters":11600,"station_id":"","pricing_plan_id":"cebpf4jnsgd1na2vs0mg"},{"bike_id":"13a6fd6a-fc99-4722-93ac-19f39538f6ae","system_id":"levelo_inurba_marseille","lat":43.27295,"lon":5.36287,"is_reserved":false,"is_disabled":false,"rental_uris":{"android":"levelo://app?vid=13a6fd6a-fc99-4722-93ac-19f39538f6ae","ios":"levelo://app?vid=13a6fd6a-fc99-4722-93ac-19f39538f6ae"},"vehicle_type_id":"4","last_reported":1756375896,"current_range_meters":11600,"station_id":"","pricing_plan_id":"cebpf4jnsgd1na2vs0mg"},{"bike_id":"27182614-136e-4cf2-8c2f-c06ecb0f1a2c","system_id":"levelo_inurba_marseille","lat":43.29255,"lon":5.38441,"is_reserved":false,"is_disabled":false,"rental_uris":{"android":"levelo://app?vid=27182614-136e-4cf2-8c2f-c06ecb0f1a2c","ios":"levelo://app?vid=27182614-136e-4cf2-8c2f-c06ecb0f1a2c"},"vehicle_type_id":"4","last_reported":1756375896,"current_range_meters":12000,"station_id":"ce4bh692rcd13ifvqea0","pricing_plan_id":"cebpf4jnsgd1na2vs0mg"},{"bike_id":"3efe95b7-34a7-4c40-b2d9-872c916eea6c","system_id":"levelo_inurba_marseille","lat":43.28228,"lon":5.39043,"is_reserved":false,"is_disabled":false,"rental_uris":{"android":"levelo://app?vid=3efe95b7-34a7-4c40-b2d9-872c916eea6c","ios":"levelo://app?vid=3efe95b7-34a7-4c40-b2d9-872c916eea6c"},"vehicle_type_id":"4","last_reported":1756375896,"current_range_meters":12000,"station_id":"ce4bhn92rcd13ifvqgsg","pricing_plan_id":"cebpf4jnsgd1na2vs0mg"},{"bike_id":"c67682e4-ad86-4b65-b4ef-e774963b7e60","system_id":"levelo_inurba_marseille","lat":43.23201,"lon":5.35574,"is_reserved":false,"is_disabled":false,"rental_uris":{"android":"levelo://app?vid=c67682e4-ad86-4b65-b4ef-e774963b7e60","ios":"levelo://app?vid=c67682e4-ad86-4b65-b4ef-e774963b7e60"},"vehicle_type_id":"4","last_reported":1756375896,"current_range_meters":12400,"station_id":"ce4bhu92rcd13ifvqi70","pricing_plan_id":"cebpf4jnsgd1na2vs0mg"},{"bike_id":"d810acf0-5bd2-4bf1-848d-31cd30d105e6","system_id":"levelo_inurba_marseille","lat":43.269831,"lon":5.392782,"is_reserved":false,"is_disabled":false,"rental_uris":{"android":"levelo://app?vid=d810acf0-5bd2-4bf1-848d-31cd30d105e6","ios":"levelo://app?vid=d810acf0-5bd2-4bf1-848d-31cd30d105e6"},"vehicle_type_id":"4","last_reported":1756375896,"current_range_meters":12400,"station_id":"","pricing_plan_id":"cebpf4jnsgd1na2vs0mg"},{"bike_id":"292038bc-157a-4457-9bfb-31bfbacb63a8","system_id":"levelo_inurba_marseille","lat":43.29099,"lon":5.38137,"is_reserved":false,"is_disabled":false,"rental_uris":{"android":"levelo://app?vid=292038bc-157a-4457-9bfb-31bfbacb63a8","ios":"levelo://app?vid=292038bc-157a-4457-9bfb-31bfbacb63a8"},"vehicle_type_id":"4","last_reported":1756375896,"current_range_meters":12400,"station_id":"ce4bh512rcd13ifvqe2g","pricing_plan_id":"cebpf4jnsgd1na2vs0mg"},{"bike_id":"fef72450-0eef-489c-bb6f-1ce73cc2a174","system_id":"levelo_inurba_marseille","lat":43.26025,"lon":5.37543,"is_reserved":false,"is_disabled":true,"rental_uris":{"android":"levelo://app?vid=fef72450-0eef-489c-bb6f-1ce73cc2a174","ios":"levelo://app?vid=fef72450-0eef-489c-bb6f-1ce73cc2a174"},"vehicle_type_id":"4","last_reported":1756375896,"current_range_meters":12800,"station_id":"ce4bhgh2rcd13ifvqfa0","pricing_plan_id":"cebpf4jnsgd1na2vs0mg"},{"bike_id":"ffe6df59-3fc1-4d81-9326-f6f6418e7718","system_id":"levelo_inurba_marseille","lat":43.29801,"lon":5.37341,"is_reserved":false,"is_disabled":false,"rental_uris":{"android":"levelo://app?vid=ffe6df59-3fc1-4d81-9326-f6f6418e7718","ios":"levelo://app?vid=ffe6df59-3fc1-4d81-9326-f6f6418e7718"},"vehicle_type_id":"4","last_reported":1756375896,"current_range_meters":13600,"station_id":"","pricing_plan_id":"cebpf4jnsgd1na2vs0mg"},{"bike_id":"23ae6fed-deff-411b-8b6e-f95e32ccd4d0","system_id":"levelo_inurba_marseille","lat":43.32134,"lon":5.36771,"is_reserved":false,"is_disabled":false,"rental_uris":{"android":"levelo://app?vid=23ae6fed-deff-411b-8b6e-f95e32ccd4d0","ios":"levelo://app?vid=23ae6fed-deff-411b-8b6e-f95e32ccd4d0"},"vehicle_type_id":"4","last_reported":1756375896,"current_range_meters":13600,"station_id":"ce4bhrh2rcd13ifvqhug","pricing_plan_id":"cebpf4jnsgd1na2vs0mg"},{"bike_id":"9f03e1e2-4e9a-43c4-963b-4baf28706312","system_id":"levelo_inurba_marseille","lat":43.304686,"lon":5.367365,"is_reserved":false,"is_disabled":false,"rental_uris":{"android":"levelo://app?vid=9f03e1e2-4e9a-43c4-963b-4baf28706312","ios":"levelo://app?vid=9f03e1e2-4e9a-43c4-963b-4baf28706312"},"vehicle_type_id":"4","last_reported":1756375896,"current_range_meters":13600,"station_id":"ce4bgrp2rcd13ifvqc9g","pricing_plan_id":"cebpf4jnsgd1na2vs0mg"},{"bike_id":"6e107d30-a57d-4034-bfb2-e3b6eac33972","system_id":"levelo_inurba_marseille","lat":43.26209,"lon":5.37443,"is_reserved":false,"is_disabled":false,"rental_uris":{"android":"levelo://app?vid=6e107d30-a57d-4034-bfb2-e3b6eac33972","ios":"levelo://app?vid=6e107d30-a57d-4034-bfb2-e3b6eac33972"},"vehicle_type_id":"4","last_reported":1756375896,"current_range_meters":14000,"station_id":"ce4bhgp2rcd13ifvqfc0","pricing_plan_id":"cebpf4jnsgd1na2vs0mg"},{"bike_id":"6605fc1c-ad9a-4105-930a-c87dc2602b87","system_id":"levelo_inurba_marseille","lat":43.30458,"lon":5.3792,"is_reserved":false,"is_disabled":false,"rental_uris":{"android":"levelo://app?vid=6605fc1c-ad9a-4105-930a-c87dc2602b87","ios":"levelo://app?vid=6605fc1c-ad9a-4105-930a-c87dc2602b87"},"vehicle_type_id":"4","last_reported":1756375896,"current_range_meters":14000,"station_id":"ce4bgup2rcd13ifvqcn0","pricing_plan_id":"cebpf4jnsgd1na2vs0mg"},{"bike_id":"9c401436-7aa7-494a-9cc1-967079e60b6f","system_id":"levelo_inurba_marseille","lat":43.25932,"lon":5.40899,"is_reserved":false,"is_disabled":false,"rental_uris":{"android":"levelo://app?vid=9c401436-7aa7-494a-9cc1-967079e60b6f","ios":"levelo://app?vid=9c401436-7aa7-494a-9cc1-967079e60b6f"},"vehicle_type_id":"4","last_reported":1756375896,"current_range_meters":14000,"station_id":"ce4bhm92rcd13ifvqglg","pricing_plan_id":"cebpf4jnsgd1na2vs0mg"},{"bike_id":"6772850d-2dee-4ad5-893e-2335ed13d3ef","system_id":"levelo_inurba_marseille","lat":43.31364,"lon":5.36688,"is_reserved":false,"is_disabled":false,"rental_uris":{"android":"levelo://app?vid=6772850d-2dee-4ad5-893e-2335ed13d3ef","ios":"levelo://app?vid=6772850d-2dee-4ad5-893e-2335ed13d3ef"},"vehicle_type_id":"4","last_reported":1756375896,"current_range_meters":14000,"station_id":"ce4bgr92rcd13ifvqc6g","pricing_plan_id":"cebpf4jnsgd1na2vs0mg"},{"bike_id":"070848c5-3ae3-418d-ab2b-3c2af769def4","system_id":"levelo_inurba_marseille","lat":43.25923,"lon":5.40897,"is_reserved":false,"is_disabled":false,"rental_uris":{"android":"levelo://app?vid=070848c5-3ae3-418d-ab2b-3c2af769def4","ios":"levelo://app?vid=070848c5-3ae3-418d-ab2b-3c2af769def4"},"vehicle_type_id":"4","last_reported":1756375896,"current_range_meters":14000,"station_id":"ce4bhm92rcd13ifvqglg","pricing_plan_id":"cebpf4jnsgd1na2vs0mg"},{"bike_id":"1091f287-02ee-4a66-888b-59c35fd65791","system_id":"levelo_inurba_marseille","lat":43.23187,"lon":5.3555,"is_reserved":false,"is_disabled":false,"rental_uris":{"android":"levelo://app?vid=1091f287-02ee-4a66-888b-59c35fd65791","ios":"levelo://app?vid=1091f287-02ee-4a66-888b-59c35fd65791"},"vehicle_type_id":"4","last_reported":1756375896,"current_range_meters":14400,"station_id":"ce4bhu92rcd13ifvqi70","pricing_plan_id":"cebpf4jnsgd1na2vs0mg"},{"bike_id":"1d683e44-237d-4633-bc31-8f32e90eb14b","system_id":"levelo_inurba_marseille","lat":43.29164,"lon":5.37169,"is_reserved":false,"is_disabled":false,"rental_uris":{"android":"levelo://app?vid=1d683e44-237d-4633-bc31-8f32e90eb14b","ios":"levelo://app?vid=1d683e44-237d-4633-bc31-8f32e90eb14b"},"vehicle_type_id":"4","last_reported":1756375896,"current_range_meters":14800,"station_id":"","pricing_plan_id":"cebpf4jnsgd1na2vs0mg"},{"bike_id":"f81d9078-265a-4cc3-81fe-a4e37d459336","system_id":"levelo_inurba_marseille","lat":43.26702,"lon":5.38284,"is_reserved":false,"is_disabled":true,"rental_uris":{"android":"levelo://app?vid=f81d9078-265a-4cc3-81fe-a4e37d459336","ios":"levelo://app?vid=f81d9078-265a-4cc3-81fe-a4e37d459336"},"vehicle_type_id":"4","last_reported":1756375896,"current_range_meters":14800,"station_id":"ce4bhg92rcd13ifvqf90","pricing_plan_id":"cebpf4jnsgd1na2vs0mg"},{"bike_id":"ddb2a7db-6c38-4ce1-8aa4-1ef88f5f1394","system_id":"levelo_inurba_marseille","lat":43.304626,"lon":5.378963,"is_reserved":false,"is_disabled":false,"rental_uris":{"android":"levelo://app?vid=ddb2a7db-6c38-4ce1-8aa4-1ef88f5f1394","ios":"levelo://app?vid=ddb2a7db-6c38-4ce1-8aa4-1ef88f5f1394"},"vehicle_type_id":"4","last_reported":1756375896,"current_range_meters":14800,"station_id":"ce4bgup2rcd13ifvqcn0","pricing_plan_id":"cebpf4jnsgd1na2vs0mg"},{"bike_id":"e26e264a-ce3c-445c-ad42-2ecb68c24979","system_id":"levelo_inurba_marseille","lat":43.23151,"lon":5.43724,"is_reserved":false,"is_disabled":false,"rental_uris":{"android":"levelo://app?vid=e26e264a-ce3c-445c-ad42-2ecb68c24979","ios":"levelo://app?vid=e26e264a-ce3c-445c-ad42-2ecb68c24979"},"vehicle_type_id":"4","last_reported":1756375896,"current_range_meters":14800,"station_id":"ce4bhmp2rcd13ifvqgog","pricing_plan_id":"cebpf4jnsgd1na2vs0mg"},{"bike_id":"c2cd0eed-0660-43fa-9529-85eced50a498","system_id":"levelo_inurba_marseille","lat":43.29586,"lon":5.375227,"is_reserved":false,"is_disabled":false,"rental_uris":{"android":"levelo://app?vid=c2cd0eed-0660-43fa-9529-85eced50a498","ios":"levelo://app?vid=c2cd0eed-0660-43fa-9529-85eced50a498"},"vehicle_type_id":"4","last_reported":1756375896,"current_range_meters":15200,"station_id":"","pricing_plan_id":"cebpf4jnsgd1na2vs0mg"},{"bike_id":"615f9cb4-bc08-43f1-87ef-884359fe2e39","system_id":"levelo_inurba_marseille","lat":43.3235,"lon":5.36739,"is_reserved":false,"is_disabled":false,"rental_uris":{"android":"levelo://app?vid=615f9cb4-bc08-43f1-87ef-884359fe2e39","ios":"levelo://app?vid=615f9cb4-bc08-43f1-87ef-884359fe2e39"},"vehicle_type_id":"4","last_reported":1756375896,"current_range_meters":15200,"station_id":"ce4bhsh2rcd13ifvqi2g","pricing_plan_id":"cebpf4jnsgd1na2vs0mg"},{"bike_id":"ec0f9f0d-0796-42ac-9cf5-bb8596cdf342","system_id":"levelo_inurba_marseille","lat":43.211929,"lon":5.350772,"is_reserved":false,"is_disabled":false,"rental_uris":{"android":"levelo://app?vid=ec0f9f0d-0796-42ac-9cf5-bb8596cdf342","ios":"levelo://app?vid=ec0f9f0d-0796-42ac-9cf5-bb8596cdf342"},"vehicle_type_id":"4","last_reported":1756375896,"current_range_meters":15200,"station_id":"","pricing_plan_id":"cebpf4jnsgd1na2vs0mg"},{"bike_id":"07296681-3400-48d5-88e2-c863a00e5bf3","system_id":"levelo_inurba_marseille","lat":43.2292,"lon":5.35372,"is_reserved":false,"is_disabled":false,"rental_uris":{"android":"levelo://app?vid=07296681-3400-48d5-88e2-c863a00e5bf3","ios":"levelo://app?vid=07296681-3400-48d5-88e2-c863a00e5bf3"},"vehicle_type_id":"4","last_reported":1756375896,"current_range_meters":15200,"station_id":"cpo3532slgdg3j2ikp40","pricing_plan_id":"cebpf4jnsgd1na2vs0mg"},{"bike_id":"064304ed-982f-450e-a500-779b21a6663e","system_id":"levelo_inurba_marseille","lat":43.281097,"lon":5.378289,"is_reserved":false,"is_disabled":false,"rental_uris":{"android":"levelo://app?vid=064304ed-982f-450e-a500-779b21a6663e","ios":"levelo://app?vid=064304ed-982f-450e-a500-779b21a6663e"},"vehicle_type_id":"4","last_reported":1756375896,"current_range_meters":15200,"station_id":"ce4bha12rcd13ifvqee0","pricing_plan_id":"cebpf4jnsgd1na2vs0mg"},{"bike_id":"8df4d72a-2534-4225-b0d0-5b48bd4c7385","system_id":"levelo_inurba_marseille","lat":43.29439,"lon":5.39795,"is_reserved":false,"is_disabled":false,"rental_uris":{"android":"levelo://app?vid=8df4d72a-2534-4225-b0d0-5b48bd4c7385","ios":"levelo://app?vid=8df4d72a-2534-4225-b0d0-5b48bd4c7385"},"vehicle_type_id":"4","last_reported":1756375896,"current_range_meters":16000,"station_id":"ce4bh3h2rcd13ifvqdo0","pricing_plan_id":"cebpf4jnsgd1na2vs0mg"},{"bike_id":"ed53376a-8c9c-4ff8-9c32-c69f55f82243","system_id":"levelo_inurba_marseille","lat":43.30375,"lon":5.41871,"is_reserved":false,"is_disabled":true,"rental_uris":{"android":"levelo://app?vid=ed53376a-8c9c-4ff8-9c32-c69f55f82243","ios":"levelo://app?vid=ed53376a-8c9c-4ff8-9c32-c69f55f82243"},"vehicle_type_id":"4","last_reported":1756375896,"current_range_meters":16000,"station_id":"ce4bhop2rcd13ifvqh7g","pricing_plan_id":"cebpf4jnsgd1na2vs0mg"},{"bike_id":"82d9cb72-f6f8-4fda-b856-2f617fc890ac","system_id":"levelo_inurba_marseille","lat":43.24164,"lon":5.39688,"is_reserved":false,"is_disabled":false,"rental_uris":{"android":"levelo://app?vid=82d9cb72-f6f8-4fda-b856-2f617fc890ac","ios":"levelo://app?vid=82d9cb72-f6f8-4fda-b856-2f617fc890ac"},"vehicle_type_id":"4","last_reported":1756375896,"current_range_meters":16000,"station_id":"ce4bhn12rcd13ifvqgpg","pricing_plan_id":"cebpf4jnsgd1na2vs0mg"},{"bike_id":"f00a7149-e460-4463-95d2-2a9581d691e4","system_id":"levelo_inurba_marseille","lat":43.27924,"lon":5.4106,"is_reserved":false,"is_disabled":false,"rental_uris":{"android":"levelo://app?vid=f00a7149-e460-4463-95d2-2a9581d691e4","ios":"levelo://app?vid=f00a7149-e460-4463-95d2-2a9581d691e4"},"vehicle_type_id":"4","last_reported":1756375896,"current_range_meters":16000,"station_id":"ce4bhnp2rcd13ifvqh0g","pricing_plan_id":"cebpf4jnsgd1na2vs0mg"},{"bike_id":"6e51d5d9-9f08-4273-8911-21fb24c92111","system_id":"levelo_inurba_marseille","lat":43.31516,"lon":5.37299,"is_reserved":false,"is_disabled":false,"rental_uris":{"android":"levelo://app?vid=6e51d5d9-9f08-4273-8911-21fb24c92111","ios":"levelo://app?vid=6e51d5d9-9f08-4273-8911-21fb24c92111"},"vehicle_type_id":"4","last_reported":1756375896,"current_range_meters":16000,"station_id":"ce4bgt12rcd13ifvqcd0","pricing_plan_id":"cebpf4jnsgd1na2vs0mg"},{"bike_id":"17e913a4-9bad-45a2-a833-803e708ff009","system_id":"levelo_inurba_marseille","lat":43.279563,"lon":5.387164,"is_reserved":false,"is_disabled":true,"rental_uris":{"android":"levelo://app?vid=17e913a4-9bad-45a2-a833-803e708ff009","ios":"levelo://app?vid=17e913a4-9bad-45a2-a833-803e708ff009"},"vehicle_type_id":"4","last_reported":1756375896,"current_range_meters":16000,"station_id":"ce4bhg12rcd13ifvqf80","pricing_plan_id":"cebpf4jnsgd1na2vs0mg"},{"bike_id":"259905c0-0b2a-48d2-8997-dcb3931ef5bd","system_id":"levelo_inurba_marseille","lat":43.281025,"lon":5.37841,"is_reserved":false,"is_disabled":false,"rental_uris":{"android":"levelo://app?vid=259905c0-0b2a-48d2-8997-dcb3931ef5bd","ios":"levelo://app?vid=259905c0-0b2a-48d2-8997-dcb3931ef5bd"},"vehicle_type_id":"4","last_reported":1756375896,"current_range_meters":16000,"station_id":"ce4bha12rcd13ifvqee0","pricing_plan_id":"cebpf4jnsgd1na2vs0mg"},{"bike_id":"4bc6abe9-57d5-48aa-ba61-a991def222c1","system_id":"levelo_inurba_marseille","lat":43.27771,"lon":5.38798,"is_reserved":false,"is_disabled":false,"rental_uris":{"android":"levelo://app?vid=4bc6abe9-57d5-48aa-ba61-a991def222c1","ios":"levelo://app?vid=4bc6abe9-57d5-48aa-ba61-a991def222c1"},"vehicle_type_id":"4","last_reported":1756375896,"current_range_meters":16000,"station_id":"ce4bhi12rcd13ifvqfo0","pricing_plan_id":"cebpf4jnsgd1na2vs0mg"},{"bike_id":"1d984887-ab5d-4620-8748-2089f05ed04f","system_id":"levelo_inurba_marseille","lat":43.29036,"lon":5.40011,"is_reserved":false,"is_disabled":false,"rental_uris":{"android":"levelo://app?vid=1d984887-ab5d-4620-8748-2089f05ed04f","ios":"levelo://app?vid=1d984887-ab5d-4620-8748-2089f05ed04f"},"vehicle_type_id":"4","last_reported":1756375896,"current_range_meters":16000,"station_id":"ce4bh392rcd13ifvqdm0","pricing_plan_id":"cebpf4jnsgd1na2vs0mg"},{"bike_id":"08b9e890-3a41-40b2-a723-30f69b9b4ffb","system_id":"levelo_inurba_marseille","lat":43.3091,"lon":5.36851,"is_reserved":false,"is_disabled":false,"rental_uris":{"android":"levelo://app?vid=08b9e890-3a41-40b2-a723-30f69b9b4ffb","ios":"levelo://app?vid=08b9e890-3a41-40b2-a723-30f69b9b4ffb"},"vehicle_type_id":"4","last_reported":1756375896,"current_range_meters":16000,"station_id":"ce4bgn92rcd13ifvqbvg","pricing_plan_id":"cebpf4jnsgd1na2vs0mg"},{"bike_id":"b43d7a83-48eb-4bc3-814f-5aeaa6724e9a","system_id":"levelo_inurba_marseille","lat":43.31357,"lon":5.38503,"is_reserved":false,"is_disabled":false,"rental_uris":{"android":"levelo://app?vid=b43d7a83-48eb-4bc3-814f-5aeaa6724e9a","ios":"levelo://app?vid=b43d7a83-48eb-4bc3-814f-5aeaa6724e9a"},"vehicle_type_id":"4","last_reported":1756375896,"current_range_meters":16000,"station_id":"ce4bgt92rcd13ifvqcf0","pricing_plan_id":"cebpf4jnsgd1na2vs0mg"},{"bike_id":"29c55d68-58c5-4ef2-b442-72bb9c55ddb0","system_id":"levelo_inurba_marseille","lat":43.32366,"lon":5.36765,"is_reserved":false,"is_disabled":false,"rental_uris":{"android":"levelo://app?vid=29c55d68-58c5-4ef2-b442-72bb9c55ddb0","ios":"levelo://app?vid=29c55d68-58c5-4ef2-b442-72bb9c55ddb0"},"vehicle_type_id":"4","last_reported":1756375896,"current_range_meters":16000,"station_id":"ce4bhsh2rcd13ifvqi2g","pricing_plan_id":"cebpf4jnsgd1na2vs0mg"},{"bike_id":"d4411ce1-1269-4134-adda-1eb61c16980f","system_id":"levelo_inurba_marseille","lat":43.280985,"lon":5.378481,"is_reserved":false,"is_disabled":false,"rental_uris":{"android":"levelo://app?vid=d4411ce1-1269-4134-adda-1eb61c16980f","ios":"levelo://app?vid=d4411ce1-1269-4134-adda-1eb61c16980f"},"vehicle_type_id":"4","last_reported":1756375896,"current_range_meters":16400,"station_id":"ce4bha12rcd13ifvqee0","pricing_plan_id":"cebpf4jnsgd1na2vs0mg"},{"bike_id":"19d2f410-2f0b-4dd3-a85d-9407b7f6032e","system_id":"levelo_inurba_marseille","lat":43.25941,"lon":5.409,"is_reserved":false,"is_disabled":false,"rental_uris":{"android":"levelo://app?vid=19d2f410-2f0b-4dd3-a85d-9407b7f6032e","ios":"levelo://app?vid=19d2f410-2f0b-4dd3-a85d-9407b7f6032e"},"vehicle_type_id":"4","last_reported":1756375896,"current_range_meters":16400,"station_id":"ce4bhm92rcd13ifvqglg","pricing_plan_id":"cebpf4jnsgd1na2vs0mg"},{"bike_id":"5e776573-7fe8-4c6a-8df1-f882385cb88f","system_id":"levelo_inurba_marseille","lat":43.30136,"lon":5.38103,"is_reserved":false,"is_disabled":false,"rental_uris":{"android":"levelo://app?vid=5e776573-7fe8-4c6a-8df1-f882385cb88f","ios":"levelo://app?vid=5e776573-7fe8-4c6a-8df1-f882385cb88f"},"vehicle_type_id":"4","last_reported":1756375896,"current_range_meters":16400,"station_id":"ce4bgjp2rcd13ifvqbh0","pricing_plan_id":"cebpf4jnsgd1na2vs0mg"},{"bike_id":"00865bff-72de-47be-acda-9cf6ec16a836","system_id":"levelo_inurba_marseille","lat":43.32117,"lon":5.36773,"is_reserved":false,"is_disabled":false,"rental_uris":{"android":"levelo://app?vid=00865bff-72de-47be-acda-9cf6ec16a836","ios":"levelo://app?vid=00865bff-72de-47be-acda-9cf6ec16a836"},"vehicle_type_id":"4","last_reported":1756375896,"current_range_meters":16400,"station_id":"ce4bhrh2rcd13ifvqhug","pricing_plan_id":"cebpf4jnsgd1na2vs0mg"},{"bike_id":"650384a6-6561-4f6a-93d2-d169b7aafe80","system_id":"levelo_inurba_marseille","lat":43.309397,"lon":5.400542,"is_reserved":false,"is_disabled":false,"rental_uris":{"android":"levelo://app?vid=650384a6-6561-4f6a-93d2-d169b7aafe80","ios":"levelo://app?vid=650384a6-6561-4f6a-93d2-d169b7aafe80"},"vehicle_type_id":"4","last_reported":1756375896,"current_range_meters":16400,"station_id":"ce4bhq92rcd13ifvqhkg","pricing_plan_id":"cebpf4jnsgd1na2vs0mg"},{"bike_id":"8cd383a6-fbd9-4809-9873-430c643e5314","system_id":"levelo_inurba_marseille","lat":43.24384,"lon":5.37063,"is_reserved":false,"is_disabled":false,"rental_uris":{"android":"levelo://app?vid=8cd383a6-fbd9-4809-9873-430c643e5314","ios":"levelo://app?vid=8cd383a6-fbd9-4809-9873-430c643e5314"},"vehicle_type_id":"4","last_reported":1756375896,"current_range_meters":16400,"station_id":"ce4bhhh2rcd13ifvqfk0","pricing_plan_id":"cebpf4jnsgd1na2vs0mg"},{"bike_id":"76853953-4750-4c5e-a02d-c060c687f7f4","system_id":"levelo_inurba_marseille","lat":43.26556,"lon":5.3728,"is_reserved":false,"is_disabled":false,"rental_uris":{"android":"levelo://app?vid=76853953-4750-4c5e-a02d-c060c687f7f4","ios":"levelo://app?vid=76853953-4750-4c5e-a02d-c060c687f7f4"},"vehicle_type_id":"4","last_reported":1756375896,"current_range_meters":16800,"station_id":"ce4bhg12rcd13ifvqf70","pricing_plan_id":"cebpf4jnsgd1na2vs0mg"},{"bike_id":"731ff345-1377-45e9-acf9-0825f15b172a","system_id":"levelo_inurba_marseille","lat":43.229295,"lon":5.353755,"is_reserved":false,"is_disabled":false,"rental_uris":{"android":"levelo://app?vid=731ff345-1377-45e9-acf9-0825f15b172a","ios":"levelo://app?vid=731ff345-1377-45e9-acf9-0825f15b172a"},"vehicle_type_id":"4","last_reported":1756375896,"current_range_meters":16800,"station_id":"cpo3532slgdg3j2ikp40","pricing_plan_id":"cebpf4jnsgd1na2vs0mg"},{"bike_id":"1d6d2e3d-e6be-45f3-9550-08daca30c94e","system_id":"levelo_inurba_marseille","lat":43.23167,"lon":5.43693,"is_reserved":false,"is_disabled":false,"rental_uris":{"android":"levelo://app?vid=1d6d2e3d-e6be-45f3-9550-08daca30c94e","ios":"levelo://app?vid=1d6d2e3d-e6be-45f3-9550-08daca30c94e"},"vehicle_type_id":"4","last_reported":1756375896,"current_range_meters":16800,"station_id":"ce4bhmp2rcd13ifvqgog","pricing_plan_id":"cebpf4jnsgd1na2vs0mg"},{"bike_id":"db886a6e-1dd7-4ad6-80af-762275a5c8b0","system_id":"levelo_inurba_marseille","lat":43.27919,"lon":5.410505,"is_reserved":false,"is_disabled":false,"rental_uris":{"android":"levelo://app?vid=db886a6e-1dd7-4ad6-80af-762275a5c8b0","ios":"levelo://app?vid=db886a6e-1dd7-4ad6-80af-762275a5c8b0"},"vehicle_type_id":"4","last_reported":1756375896,"current_range_meters":16800,"station_id":"ce4bhnp2rcd13ifvqh0g","pricing_plan_id":"cebpf4jnsgd1na2vs0mg"},{"bike_id":"62a8c0bf-06af-44b2-acbd-3e96055782c5","system_id":"levelo_inurba_marseille","lat":43.230754,"lon":5.355085,"is_reserved":false,"is_disabled":false,"rental_uris":{"android":"levelo://app?vid=62a8c0bf-06af-44b2-acbd-3e96055782c5","ios":"levelo://app?vid=62a8c0bf-06af-44b2-acbd-3e96055782c5"},"vehicle_type_id":"4","last_reported":1756375896,"current_range_meters":16800,"station_id":"cpo3342slgdg3j2ifvpg","pricing_plan_id":"cebpf4jnsgd1na2vs0mg"},{"bike_id":"8e24f3c5-1f3c-44ab-ab45-c35070d5c97e","system_id":"levelo_inurba_marseille","lat":43.29005,"lon":5.35632,"is_reserved":false,"is_disabled":false,"rental_uris":{"android":"levelo://app?vid=8e24f3c5-1f3c-44ab-ab45-c35070d5c97e","ios":"levelo://app?vid=8e24f3c5-1f3c-44ab-ab45-c35070d5c97e"},"vehicle_type_id":"4","last_reported":1756375896,"current_range_meters":16400,"station_id":"ce4bhb92rcd13ifvqen0","pricing_plan_id":"cebpf4jnsgd1na2vs0mg"},{"bike_id":"d814951e-3bdc-4ccc-b235-2ded499ea4c1","system_id":"levelo_inurba_marseille","lat":43.26572,"lon":5.39064,"is_reserved":false,"is_disabled":false,"rental_uris":{"android":"levelo://app?vid=d814951e-3bdc-4ccc-b235-2ded499ea4c1","ios":"levelo://app?vid=d814951e-3bdc-4ccc-b235-2ded499ea4c1"},"vehicle_type_id":"4","last_reported":1756375896,"current_range_meters":17200,"station_id":"ce4bhe12rcd13ifvqf30","pricing_plan_id":"cebpf4jnsgd1na2vs0mg"},{"bike_id":"23d86b53-9a0f-4ce2-ba02-d400d3922931","system_id":"levelo_inurba_marseille","lat":43.27324,"lon":5.39185,"is_reserved":false,"is_disabled":false,"rental_uris":{"android":"levelo://app?vid=23d86b53-9a0f-4ce2-ba02-d400d3922931","ios":"levelo://app?vid=23d86b53-9a0f-4ce2-ba02-d400d3922931"},"vehicle_type_id":"4","last_reported":1756375896,"current_range_meters":17200,"station_id":"","pricing_plan_id":"cebpf4jnsgd1na2vs0mg"},{"bike_id":"d535bf59-462f-46ae-b9fb-52bfa64316d1","system_id":"levelo_inurba_marseille","lat":43.241781,"lon":5.397258,"is_reserved":false,"is_disabled":false,"rental_uris":{"android":"levelo://app?vid=d535bf59-462f-46ae-b9fb-52bfa64316d1","ios":"levelo://app?vid=d535bf59-462f-46ae-b9fb-52bfa64316d1"},"vehicle_type_id":"4","last_reported":1756375896,"current_range_meters":17200,"station_id":"ce4bhn12rcd13ifvqgpg","pricing_plan_id":"cebpf4jnsgd1na2vs0mg"},{"bike_id":"70a041f0-2913-4688-99f3-56fcf5f2413b","system_id":"levelo_inurba_marseille","lat":43.24178,"lon":5.39725,"is_reserved":false,"is_disabled":false,"rental_uris":{"android":"levelo://app?vid=70a041f0-2913-4688-99f3-56fcf5f2413b","ios":"levelo://app?vid=70a041f0-2913-4688-99f3-56fcf5f2413b"},"vehicle_type_id":"4","last_reported":1756375896,"current_range_meters":17200,"station_id":"ce4bhn12rcd13ifvqgpg","pricing_plan_id":"cebpf4jnsgd1na2vs0mg"},{"bike_id":"26db8c78-2270-423e-8c45-8f0ab883cb9b","system_id":"levelo_inurba_marseille","lat":43.24375,"lon":5.3703,"is_reserved":false,"is_disabled":false,"rental_uris":{"android":"levelo://app?vid=26db8c78-2270-423e-8c45-8f0ab883cb9b","ios":"levelo://app?vid=26db8c78-2270-423e-8c45-8f0ab883cb9b"},"vehicle_type_id":"4","last_reported":1756375896,"current_range_meters":17200,"station_id":"ce4bhhh2rcd13ifvqfk0","pricing_plan_id":"cebpf4jnsgd1na2vs0mg"},{"bike_id":"8a3d08a4-6e22-43fc-a3af-efea32020201","system_id":"levelo_inurba_marseille","lat":43.32361,"lon":5.36701,"is_reserved":false,"is_disabled":false,"rental_uris":{"android":"levelo://app?vid=8a3d08a4-6e22-43fc-a3af-efea32020201","ios":"levelo://app?vid=8a3d08a4-6e22-43fc-a3af-efea32020201"},"vehicle_type_id":"4","last_reported":1756375896,"current_range_meters":17200,"station_id":"","pricing_plan_id":"cebpf4jnsgd1na2vs0mg"},{"bike_id":"06669016-cd47-459f-9dbc-b8f7fe75d379","system_id":"levelo_inurba_marseille","lat":43.32285,"lon":5.38282,"is_reserved":false,"is_disabled":false,"rental_uris":{"android":"levelo://app?vid=06669016-cd47-459f-9dbc-b8f7fe75d379","ios":"levelo://app?vid=06669016-cd47-459f-9dbc-b8f7fe75d379"},"vehicle_type_id":"4","last_reported":1756375896,"current_range_meters":17200,"station_id":"ce4bhr12rcd13ifvqhqg","pricing_plan_id":"cebpf4jnsgd1na2vs0mg"},{"bike_id":"6657e840-2954-42e3-9db3-c578afd9e6a1","system_id":"levelo_inurba_marseille","lat":43.29916,"lon":5.38527,"is_reserved":false,"is_disabled":false,"rental_uris":{"android":"levelo://app?vid=6657e840-2954-42e3-9db3-c578afd9e6a1","ios":"levelo://app?vid=6657e840-2954-42e3-9db3-c578afd9e6a1"},"vehicle_type_id":"4","last_reported":1756375896,"current_range_meters":17200,"station_id":"","pricing_plan_id":"cebpf4jnsgd1na2vs0mg"},{"bike_id":"a105b77d-2efb-4159-9821-8cb9fb53320e","system_id":"levelo_inurba_marseille","lat":43.23194,"lon":5.39992,"is_reserved":false,"is_disabled":false,"rental_uris":{"android":"levelo://app?vid=a105b77d-2efb-4159-9821-8cb9fb53320e","ios":"levelo://app?vid=a105b77d-2efb-4159-9821-8cb9fb53320e"},"vehicle_type_id":"4","last_reported":1756375896,"current_range_meters":17200,"station_id":"ce4bhn12rcd13ifvqgqg","pricing_plan_id":"cebpf4jnsgd1na2vs0mg"},{"bike_id":"92594421-8cf0-4b8b-889c-a8296396cf9c","system_id":"levelo_inurba_marseille","lat":43.30145,"lon":5.38083,"is_reserved":false,"is_disabled":false,"rental_uris":{"android":"levelo://app?vid=92594421-8cf0-4b8b-889c-a8296396cf9c","ios":"levelo://app?vid=92594421-8cf0-4b8b-889c-a8296396cf9c"},"vehicle_type_id":"4","last_reported":1756375896,"current_range_meters":17200,"station_id":"ce4bgjp2rcd13ifvqbh0","pricing_plan_id":"cebpf4jnsgd1na2vs0mg"},{"bike_id":"c8ed8afa-4750-4d5e-b29e-7da3cd8f4dc7","system_id":"levelo_inurba_marseille","lat":43.32355,"lon":5.36729,"is_reserved":false,"is_disabled":false,"rental_uris":{"android":"levelo://app?vid=c8ed8afa-4750-4d5e-b29e-7da3cd8f4dc7","ios":"levelo://app?vid=c8ed8afa-4750-4d5e-b29e-7da3cd8f4dc7"},"vehicle_type_id":"4","last_reported":1756375896,"current_range_meters":17200,"station_id":"ce4bhsh2rcd13ifvqi2g","pricing_plan_id":"cebpf4jnsgd1na2vs0mg"},{"bike_id":"d0a92e61-7122-4ad6-a0d1-9d37d94ce062","system_id":"levelo_inurba_marseille","lat":43.29714,"lon":5.39072,"is_reserved":false,"is_disabled":false,"rental_uris":{"android":"levelo://app?vid=d0a92e61-7122-4ad6-a0d1-9d37d94ce062","ios":"levelo://app?vid=d0a92e61-7122-4ad6-a0d1-9d37d94ce062"},"vehicle_type_id":"4","last_reported":1756375896,"current_range_meters":17200,"station_id":"","pricing_plan_id":"cebpf4jnsgd1na2vs0mg"},{"bike_id":"42515969-df58-4bc3-81b4-d2c5b3092781","system_id":"levelo_inurba_marseille","lat":43.27725,"lon":5.42021,"is_reserved":false,"is_disabled":false,"rental_uris":{"android":"levelo://app?vid=42515969-df58-4bc3-81b4-d2c5b3092781","ios":"levelo://app?vid=42515969-df58-4bc3-81b4-d2c5b3092781"},"vehicle_type_id":"4","last_reported":1756375896,"current_range_meters":17600,"station_id":"","pricing_plan_id":"cebpf4jnsgd1na2vs0mg"},{"bike_id":"2592d48e-4f91-4661-a841-16b2ce57828c","system_id":"levelo_inurba_marseille","lat":43.24247,"lon":5.38718,"is_reserved":false,"is_disabled":false,"rental_uris":{"android":"levelo://app?vid=2592d48e-4f91-4661-a841-16b2ce57828c","ios":"levelo://app?vid=2592d48e-4f91-4661-a841-16b2ce57828c"},"vehicle_type_id":"4","last_reported":1756375896,"current_range_meters":17600,"station_id":"","pricing_plan_id":"cebpf4jnsgd1na2vs0mg"},{"bike_id":"c6994b4a-c94a-4b7f-a180-6c680fd45583","system_id":"levelo_inurba_marseille","lat":43.2439,"lon":5.37053,"is_reserved":false,"is_disabled":false,"rental_uris":{"android":"levelo://app?vid=c6994b4a-c94a-4b7f-a180-6c680fd45583","ios":"levelo://app?vid=c6994b4a-c94a-4b7f-a180-6c680fd45583"},"vehicle_type_id":"4","last_reported":1756375896,"current_range_meters":17600,"station_id":"ce4bhhh2rcd13ifvqfk0","pricing_plan_id":"cebpf4jnsgd1na2vs0mg"},{"bike_id":"3d5aa2e5-19b6-4546-9f2c-20c48df2b60d","system_id":"levelo_inurba_marseille","lat":43.25963,"lon":5.41373,"is_reserved":false,"is_disabled":false,"rental_uris":{"android":"levelo://app?vid=3d5aa2e5-19b6-4546-9f2c-20c48df2b60d","ios":"levelo://app?vid=3d5aa2e5-19b6-4546-9f2c-20c48df2b60d"},"vehicle_type_id":"4","last_reported":1756375896,"current_range_meters":18000,"station_id":"","pricing_plan_id":"cebpf4jnsgd1na2vs0mg"},{"bike_id":"f0384fbb-6485-4c18-9cc5-2fe16aa6e603","system_id":"levelo_inurba_marseille","lat":43.241608,"lon":5.363952,"is_reserved":false,"is_disabled":false,"rental_uris":{"android":"levelo://app?vid=f0384fbb-6485-4c18-9cc5-2fe16aa6e603","ios":"levelo://app?vid=f0384fbb-6485-4c18-9cc5-2fe16aa6e603"},"vehicle_type_id":"4","last_reported":1756375896,"current_range_meters":18000,"station_id":"cpo36qri1sfpv3e86is0","pricing_plan_id":"cebpf4jnsgd1na2vs0mg"},{"bike_id":"a3e4ee41-5175-47da-ad6e-4c5ae3eb42d9","system_id":"levelo_inurba_marseille","lat":43.21173,"lon":5.35113,"is_reserved":false,"is_disabled":false,"rental_uris":{"android":"levelo://app?vid=a3e4ee41-5175-47da-ad6e-4c5ae3eb42d9","ios":"levelo://app?vid=a3e4ee41-5175-47da-ad6e-4c5ae3eb42d9"},"vehicle_type_id":"4","last_reported":1756375896,"current_range_meters":18000,"station_id":"st_cvj6sg6p6f1abm77japg","pricing_plan_id":"cebpf4jnsgd1na2vs0mg"},{"bike_id":"17346dce-e9f3-48b8-9a6a-34dc001fc6e7","system_id":"levelo_inurba_marseille","lat":43.29108,"lon":5.38133,"is_reserved":false,"is_disabled":false,"rental_uris":{"android":"levelo://app?vid=17346dce-e9f3-48b8-9a6a-34dc001fc6e7","ios":"levelo://app?vid=17346dce-e9f3-48b8-9a6a-34dc001fc6e7"},"vehicle_type_id":"4","last_reported":1756375896,"current_range_meters":18000,"station_id":"ce4bh512rcd13ifvqe2g","pricing_plan_id":"cebpf4jnsgd1na2vs0mg"},{"bike_id":"79e5d83a-5499-4859-8015-bc4dba0951a1","system_id":"levelo_inurba_marseille","lat":43.30334,"lon":5.40423,"is_reserved":false,"is_disabled":false,"rental_uris":{"android":"levelo://app?vid=79e5d83a-5499-4859-8015-bc4dba0951a1","ios":"levelo://app?vid=79e5d83a-5499-4859-8015-bc4dba0951a1"},"vehicle_type_id":"4","last_reported":1756375896,"current_range_meters":17600,"station_id":"ce4bh012rcd13ifvqd10","pricing_plan_id":"cebpf4jnsgd1na2vs0mg"},{"bike_id":"82a882ce-d29e-4ffa-b47c-a2a765fb017d","system_id":"levelo_inurba_marseille","lat":43.29895,"lon":5.43674,"is_reserved":false,"is_disabled":false,"rental_uris":{"android":"levelo://app?vid=82a882ce-d29e-4ffa-b47c-a2a765fb017d","ios":"levelo://app?vid=82a882ce-d29e-4ffa-b47c-a2a765fb017d"},"vehicle_type_id":"4","last_reported":1756375896,"current_range_meters":18800,"station_id":"ce4bhpp2rcd13ifvqhfg","pricing_plan_id":"cebpf4jnsgd1na2vs0mg"},{"bike_id":"3a3545ec-2031-4f7e-b74f-451754af59a3","system_id":"levelo_inurba_marseille","lat":43.29785,"lon":5.3709,"is_reserved":false,"is_disabled":true,"rental_uris":{"android":"levelo://app?vid=3a3545ec-2031-4f7e-b74f-451754af59a3","ios":"levelo://app?vid=3a3545ec-2031-4f7e-b74f-451754af59a3"},"vehicle_type_id":"4","last_reported":1756375896,"current_range_meters":18800,"station_id":"","pricing_plan_id":"cebpf4jnsgd1na2vs0mg"},{"bike_id":"296a707b-384e-40bd-a12a-3da9b8e9df47","system_id":"levelo_inurba_marseille","lat":43.30126,"lon":5.38789,"is_reserved":false,"is_disabled":false,"rental_uris":{"android":"levelo://app?vid=296a707b-384e-40bd-a12a-3da9b8e9df47","ios":"levelo://app?vid=296a707b-384e-40bd-a12a-3da9b8e9df47"},"vehicle_type_id":"4","last_reported":1756375896,"current_range_meters":18800,"station_id":"ce4bghh2rcd13ifvqb60","pricing_plan_id":"cebpf4jnsgd1na2vs0mg"},{"bike_id":"7b1b67ce-ec3a-4306-99ef-9044c3533e21","system_id":"levelo_inurba_marseille","lat":43.23155,"lon":5.437034,"is_reserved":false,"is_disabled":false,"rental_uris":{"android":"levelo://app?vid=7b1b67ce-ec3a-4306-99ef-9044c3533e21","ios":"levelo://app?vid=7b1b67ce-ec3a-4306-99ef-9044c3533e21"},"vehicle_type_id":"4","last_reported":1756375896,"current_range_meters":18800,"station_id":"ce4bhmp2rcd13ifvqgog","pricing_plan_id":"cebpf4jnsgd1na2vs0mg"},{"bike_id":"f7cd213d-8b5c-44c2-9a2a-6c74fe359cab","system_id":"levelo_inurba_marseille","lat":43.26016,"lon":5.37539,"is_reserved":false,"is_disabled":false,"rental_uris":{"android":"levelo://app?vid=f7cd213d-8b5c-44c2-9a2a-6c74fe359cab","ios":"levelo://app?vid=f7cd213d-8b5c-44c2-9a2a-6c74fe359cab"},"vehicle_type_id":"4","last_reported":1756375896,"current_range_meters":19200,"station_id":"","pricing_plan_id":"cebpf4jnsgd1na2vs0mg"},{"bike_id":"e073b5ef-307a-4965-b48a-f0d1c18d1651","system_id":"levelo_inurba_marseille","lat":43.25928,"lon":5.40906,"is_reserved":false,"is_disabled":false,"rental_uris":{"android":"levelo://app?vid=e073b5ef-307a-4965-b48a-f0d1c18d1651","ios":"levelo://app?vid=e073b5ef-307a-4965-b48a-f0d1c18d1651"},"vehicle_type_id":"4","last_reported":1756375896,"current_range_meters":18800,"station_id":"ce4bhm92rcd13ifvqglg","pricing_plan_id":"cebpf4jnsgd1na2vs0mg"},{"bike_id":"dee5fc92-9d8d-42ec-97e1-996d8f5266a8","system_id":"levelo_inurba_marseille","lat":43.229329,"lon":5.354076,"is_reserved":false,"is_disabled":false,"rental_uris":{"android":"levelo://app?vid=dee5fc92-9d8d-42ec-97e1-996d8f5266a8","ios":"levelo://app?vid=dee5fc92-9d8d-42ec-97e1-996d8f5266a8"},"vehicle_type_id":"4","last_reported":1756375896,"current_range_meters":19200,"station_id":"cpo3532slgdg3j2ikp40","pricing_plan_id":"cebpf4jnsgd1na2vs0mg"},{"bike_id":"223a3dd0-7d97-4b7e-84db-058782e23987","system_id":"levelo_inurba_marseille","lat":43.29851,"lon":5.36281,"is_reserved":false,"is_disabled":false,"rental_uris":{"android":"levelo://app?vid=223a3dd0-7d97-4b7e-84db-058782e23987","ios":"levelo://app?vid=223a3dd0-7d97-4b7e-84db-058782e23987"},"vehicle_type_id":"4","last_reported":1756375896,"current_range_meters":19200,"station_id":"ce4bgpp2rcd13ifvqc3g","pricing_plan_id":"cebpf4jnsgd1na2vs0mg"},{"bike_id":"7d1165bf-9ce2-4be4-9315-66ed3025a9c8","system_id":"levelo_inurba_marseille","lat":43.29214,"lon":5.36054,"is_reserved":false,"is_disabled":false,"rental_uris":{"android":"levelo://app?vid=7d1165bf-9ce2-4be4-9315-66ed3025a9c8","ios":"levelo://app?vid=7d1165bf-9ce2-4be4-9315-66ed3025a9c8"},"vehicle_type_id":"4","last_reported":1756375896,"current_range_meters":19200,"station_id":"ce4bhbh2rcd13ifvqeqg","pricing_plan_id":"cebpf4jnsgd1na2vs0mg"},{"bike_id":"af0e337f-d4cf-4e28-9020-c2f2b620012b","system_id":"levelo_inurba_marseille","lat":43.22913,"lon":5.35417,"is_reserved":false,"is_disabled":false,"rental_uris":{"android":"levelo://app?vid=af0e337f-d4cf-4e28-9020-c2f2b620012b","ios":"levelo://app?vid=af0e337f-d4cf-4e28-9020-c2f2b620012b"},"vehicle_type_id":"4","last_reported":1756375896,"current_range_meters":19200,"station_id":"cpo3532slgdg3j2ikp40","pricing_plan_id":"cebpf4jnsgd1na2vs0mg"},{"bike_id":"60863403-b289-4c9c-b2d0-3d448abf417f","system_id":"levelo_inurba_marseille","lat":43.28268,"lon":5.35077,"is_reserved":false,"is_disabled":true,"rental_uris":{"android":"levelo://app?vid=60863403-b289-4c9c-b2d0-3d448abf417f","ios":"levelo://app?vid=60863403-b289-4c9c-b2d0-3d448abf417f"},"vehicle_type_id":"4","last_reported":1756375896,"current_range_meters":19200,"station_id":"ce4bhbp2rcd13ifvqerg","pricing_plan_id":"cebpf4jnsgd1na2vs0mg"},{"bike_id":"688af5fb-6252-4eed-9501-ed7d2b2be597","system_id":"levelo_inurba_marseille","lat":43.24165,"lon":5.36405,"is_reserved":false,"is_disabled":false,"rental_uris":{"android":"levelo://app?vid=688af5fb-6252-4eed-9501-ed7d2b2be597","ios":"levelo://app?vid=688af5fb-6252-4eed-9501-ed7d2b2be597"},"vehicle_type_id":"4","last_reported":1756375896,"current_range_meters":19200,"station_id":"cpo36qri1sfpv3e86is0","pricing_plan_id":"cebpf4jnsgd1na2vs0mg"},{"bike_id":"d1b1290c-bb4a-43b8-a1c6-41e14e9eb4de","system_id":"levelo_inurba_marseille","lat":43.25105,"lon":5.40339,"is_reserved":false,"is_disabled":false,"rental_uris":{"android":"levelo://app?vid=d1b1290c-bb4a-43b8-a1c6-41e14e9eb4de","ios":"levelo://app?vid=d1b1290c-bb4a-43b8-a1c6-41e14e9eb4de"},"vehicle_type_id":"4","last_reported":1756375896,"current_range_meters":19200,"station_id":"ce4bhlh2rcd13ifvqgig","pricing_plan_id":"cebpf4jnsgd1na2vs0mg"},{"bike_id":"daa67b3d-fc97-4380-8462-22d8b5674ead","system_id":"levelo_inurba_marseille","lat":43.29274,"lon":5.3686,"is_reserved":false,"is_disabled":false,"rental_uris":{"android":"levelo://app?vid=daa67b3d-fc97-4380-8462-22d8b5674ead","ios":"levelo://app?vid=daa67b3d-fc97-4380-8462-22d8b5674ead"},"vehicle_type_id":"4","last_reported":1756375896,"current_range_meters":19600,"station_id":"ce4bhbp2rcd13ifvqesg","pricing_plan_id":"cebpf4jnsgd1na2vs0mg"},{"bike_id":"6e3e79fe-60af-42b3-8b56-22f87b7a8786","system_id":"levelo_inurba_marseille","lat":43.29024,"lon":5.38134,"is_reserved":false,"is_disabled":true,"rental_uris":{"android":"levelo://app?vid=6e3e79fe-60af-42b3-8b56-22f87b7a8786","ios":"levelo://app?vid=6e3e79fe-60af-42b3-8b56-22f87b7a8786"},"vehicle_type_id":"4","last_reported":1756375896,"current_range_meters":19600,"station_id":"ce4bh4p2rcd13ifvqe1g","pricing_plan_id":"cebpf4jnsgd1na2vs0mg"},{"bike_id":"4403f61a-6198-42fa-a935-15514d762eb5","system_id":"levelo_inurba_marseille","lat":43.26795,"lon":5.39419,"is_reserved":false,"is_disabled":false,"rental_uris":{"android":"levelo://app?vid=4403f61a-6198-42fa-a935-15514d762eb5","ios":"levelo://app?vid=4403f61a-6198-42fa-a935-15514d762eb5"},"vehicle_type_id":"4","last_reported":1756375896,"current_range_meters":19200,"station_id":"ce4bhh12rcd13ifvqfg0","pricing_plan_id":"cebpf4jnsgd1na2vs0mg"},{"bike_id":"ab2b2968-2afc-4029-82d1-f9d7f0e7846c","system_id":"levelo_inurba_marseille","lat":43.292618,"lon":5.376212,"is_reserved":false,"is_disabled":false,"rental_uris":{"android":"levelo://app?vid=ab2b2968-2afc-4029-82d1-f9d7f0e7846c","ios":"levelo://app?vid=ab2b2968-2afc-4029-82d1-f9d7f0e7846c"},"vehicle_type_id":"4","last_reported":1756375896,"current_range_meters":19600,"station_id":"ce4bgi12rcd13ifvqb80","pricing_plan_id":"cebpf4jnsgd1na2vs0mg"},{"bike_id":"35442374-9115-43de-859d-4e82bae25c4d","system_id":"levelo_inurba_marseille","lat":43.28844,"lon":5.35855,"is_reserved":false,"is_disabled":false,"rental_uris":{"android":"levelo://app?vid=35442374-9115-43de-859d-4e82bae25c4d","ios":"levelo://app?vid=35442374-9115-43de-859d-4e82bae25c4d"},"vehicle_type_id":"4","last_reported":1756375896,"current_range_meters":19600,"station_id":"ce4bhb12rcd13ifvqem0","pricing_plan_id":"cebpf4jnsgd1na2vs0mg"},{"bike_id":"75bfbaf3-808c-4902-83fc-5daac8bc1a7e","system_id":"levelo_inurba_marseille","lat":43.27216,"lon":5.4098,"is_reserved":false,"is_disabled":false,"rental_uris":{"android":"levelo://app?vid=75bfbaf3-808c-4902-83fc-5daac8bc1a7e","ios":"levelo://app?vid=75bfbaf3-808c-4902-83fc-5daac8bc1a7e"},"vehicle_type_id":"4","last_reported":1756375896,"current_range_meters":19600,"station_id":"","pricing_plan_id":"cebpf4jnsgd1na2vs0mg"},{"bike_id":"07761c7f-90f3-44f4-a950-f91cbca976d7","system_id":"levelo_inurba_marseille","lat":43.26232,"lon":5.37436,"is_reserved":false,"is_disabled":false,"rental_uris":{"android":"levelo://app?vid=07761c7f-90f3-44f4-a950-f91cbca976d7","ios":"levelo://app?vid=07761c7f-90f3-44f4-a950-f91cbca976d7"},"vehicle_type_id":"4","last_reported":1756375896,"current_range_meters":19600,"station_id":"ce4bhgp2rcd13ifvqfc0","pricing_plan_id":"cebpf4jnsgd1na2vs0mg"},{"bike_id":"920f8f5e-91c4-40b3-9008-3cb9c1c1ffcc","system_id":"levelo_inurba_marseille","lat":43.25943,"lon":5.40905,"is_reserved":false,"is_disabled":false,"rental_uris":{"android":"levelo://app?vid=920f8f5e-91c4-40b3-9008-3cb9c1c1ffcc","ios":"levelo://app?vid=920f8f5e-91c4-40b3-9008-3cb9c1c1ffcc"},"vehicle_type_id":"4","last_reported":1756375896,"current_range_meters":19600,"station_id":"ce4bhm92rcd13ifvqglg","pricing_plan_id":"cebpf4jnsgd1na2vs0mg"},{"bike_id":"196169a4-3222-419a-be3c-e08cc270c692","system_id":"levelo_inurba_marseille","lat":43.29325,"lon":5.37307,"is_reserved":false,"is_disabled":false,"rental_uris":{"android":"levelo://app?vid=196169a4-3222-419a-be3c-e08cc270c692","ios":"levelo://app?vid=196169a4-3222-419a-be3c-e08cc270c692"},"vehicle_type_id":"4","last_reported":1756375896,"current_range_meters":19600,"station_id":"","pricing_plan_id":"cebpf4jnsgd1na2vs0mg"},{"bike_id":"239722dc-8548-47bb-85cb-de762ab886f0","system_id":"levelo_inurba_marseille","lat":43.2749,"lon":5.42467,"is_reserved":false,"is_disabled":false,"rental_uris":{"android":"levelo://app?vid=239722dc-8548-47bb-85cb-de762ab886f0","ios":"levelo://app?vid=239722dc-8548-47bb-85cb-de762ab886f0"},"vehicle_type_id":"4","last_reported":1756375896,"current_range_meters":19600,"station_id":"ce4bhn92rcd13ifvqgrg","pricing_plan_id":"cebpf4jnsgd1na2vs0mg"},{"bike_id":"8022b2eb-d44b-41bc-9f96-2c68d3cd359b","system_id":"levelo_inurba_marseille","lat":43.321211,"lon":5.367856,"is_reserved":false,"is_disabled":false,"rental_uris":{"android":"levelo://app?vid=8022b2eb-d44b-41bc-9f96-2c68d3cd359b","ios":"levelo://app?vid=8022b2eb-d44b-41bc-9f96-2c68d3cd359b"},"vehicle_type_id":"4","last_reported":1756375896,"current_range_meters":19600,"station_id":"ce4bhrh2rcd13ifvqhug","pricing_plan_id":"cebpf4jnsgd1na2vs0mg"},{"bike_id":"ed6a97a2-a6f5-443d-bb22-755089f92ab4","system_id":"levelo_inurba_marseille","lat":43.24177,"lon":5.39729,"is_reserved":false,"is_disabled":false,"rental_uris":{"android":"levelo://app?vid=ed6a97a2-a6f5-443d-bb22-755089f92ab4","ios":"levelo://app?vid=ed6a97a2-a6f5-443d-bb22-755089f92ab4"},"vehicle_type_id":"4","last_reported":1756375896,"current_range_meters":19600,"station_id":"ce4bhn12rcd13ifvqgpg","pricing_plan_id":"cebpf4jnsgd1na2vs0mg"},{"bike_id":"6c6d719e-a8c1-4e2f-9b89-6e8ef872bc6a","system_id":"levelo_inurba_marseille","lat":43.273434,"lon":5.37842,"is_reserved":false,"is_disabled":false,"rental_uris":{"android":"levelo://app?vid=6c6d719e-a8c1-4e2f-9b89-6e8ef872bc6a","ios":"levelo://app?vid=6c6d719e-a8c1-4e2f-9b89-6e8ef872bc6a"},"vehicle_type_id":"4","last_reported":1756375896,"current_range_meters":19600,"station_id":"","pricing_plan_id":"cebpf4jnsgd1na2vs0mg"},{"bike_id":"d1012ec4-1fc3-4e5f-a82c-9d7d73d65c20","system_id":"levelo_inurba_marseille","lat":43.2602,"lon":5.41735,"is_reserved":false,"is_disabled":false,"rental_uris":{"android":"levelo://app?vid=d1012ec4-1fc3-4e5f-a82c-9d7d73d65c20","ios":"levelo://app?vid=d1012ec4-1fc3-4e5f-a82c-9d7d73d65c20"},"vehicle_type_id":"4","last_reported":1756375896,"current_range_meters":19600,"station_id":"","pricing_plan_id":"cebpf4jnsgd1na2vs0mg"},{"bike_id":"2464d107-677a-44eb-803f-4ad525875d6f","system_id":"levelo_inurba_marseille","lat":43.30468,"lon":5.379,"is_reserved":false,"is_disabled":false,"rental_uris":{"android":"levelo://app?vid=2464d107-677a-44eb-803f-4ad525875d6f","ios":"levelo://app?vid=2464d107-677a-44eb-803f-4ad525875d6f"},"vehicle_type_id":"4","last_reported":1756375896,"current_range_meters":20000,"station_id":"ce4bgup2rcd13ifvqcn0","pricing_plan_id":"cebpf4jnsgd1na2vs0mg"},{"bike_id":"6166bfd1-2ee9-4ad1-b509-7e03fe6f760b","system_id":"levelo_inurba_marseille","lat":43.3111,"lon":5.37777,"is_reserved":false,"is_disabled":false,"rental_uris":{"android":"levelo://app?vid=6166bfd1-2ee9-4ad1-b509-7e03fe6f760b","ios":"levelo://app?vid=6166bfd1-2ee9-4ad1-b509-7e03fe6f760b"},"vehicle_type_id":"4","last_reported":1756375896,"current_range_meters":20000,"station_id":"ce4bgt92rcd13ifvqcg0","pricing_plan_id":"cebpf4jnsgd1na2vs0mg"},{"bike_id":"d6a76d0f-a9d1-4617-9b61-109898a0e698","system_id":"levelo_inurba_marseille","lat":43.24546,"lon":5.39542,"is_reserved":false,"is_disabled":false,"rental_uris":{"android":"levelo://app?vid=d6a76d0f-a9d1-4617-9b61-109898a0e698","ios":"levelo://app?vid=d6a76d0f-a9d1-4617-9b61-109898a0e698"},"vehicle_type_id":"4","last_reported":1756375896,"current_range_meters":19600,"station_id":"ce4bhlp2rcd13ifvqgjg","pricing_plan_id":"cebpf4jnsgd1na2vs0mg"},{"bike_id":"bd8a8096-85ea-4e22-9f9f-64bd89fbd1c5","system_id":"levelo_inurba_marseille","lat":43.29711,"lon":5.36619,"is_reserved":false,"is_disabled":false,"rental_uris":{"android":"levelo://app?vid=bd8a8096-85ea-4e22-9f9f-64bd89fbd1c5","ios":"levelo://app?vid=bd8a8096-85ea-4e22-9f9f-64bd89fbd1c5"},"vehicle_type_id":"4","last_reported":1756375896,"current_range_meters":20400,"station_id":"","pricing_plan_id":"cebpf4jnsgd1na2vs0mg"},{"bike_id":"9a5a85b8-3b9b-4543-b26c-341f6a715fbc","system_id":"levelo_inurba_marseille","lat":43.24173,"lon":5.39732,"is_reserved":false,"is_disabled":false,"rental_uris":{"android":"levelo://app?vid=9a5a85b8-3b9b-4543-b26c-341f6a715fbc","ios":"levelo://app?vid=9a5a85b8-3b9b-4543-b26c-341f6a715fbc"},"vehicle_type_id":"4","last_reported":1756375896,"current_range_meters":20400,"station_id":"ce4bhn12rcd13ifvqgpg","pricing_plan_id":"cebpf4jnsgd1na2vs0mg"},{"bike_id":"ff0ae3b5-a53a-44cd-9b82-d61a46532d12","system_id":"levelo_inurba_marseille","lat":43.3107,"lon":5.38359,"is_reserved":false,"is_disabled":false,"rental_uris":{"android":"levelo://app?vid=ff0ae3b5-a53a-44cd-9b82-d61a46532d12","ios":"levelo://app?vid=ff0ae3b5-a53a-44cd-9b82-d61a46532d12"},"vehicle_type_id":"4","last_reported":1756375896,"current_range_meters":20400,"station_id":"ce4bgv92rcd13ifvqcr0","pricing_plan_id":"cebpf4jnsgd1na2vs0mg"},{"bike_id":"3235a8e4-0285-41ed-a073-4267b3ce62ac","system_id":"levelo_inurba_marseille","lat":43.27083,"lon":5.42271,"is_reserved":false,"is_disabled":false,"rental_uris":{"android":"levelo://app?vid=3235a8e4-0285-41ed-a073-4267b3ce62ac","ios":"levelo://app?vid=3235a8e4-0285-41ed-a073-4267b3ce62ac"},"vehicle_type_id":"4","last_reported":1756375896,"current_range_meters":20400,"station_id":"ce4bhk92rcd13ifvqgb0","pricing_plan_id":"cebpf4jnsgd1na2vs0mg"},{"bike_id":"3dd23926-ae78-488e-8f33-e0fe0712154d","system_id":"levelo_inurba_marseille","lat":43.31195,"lon":5.37791,"is_reserved":false,"is_disabled":false,"rental_uris":{"android":"levelo://app?vid=3dd23926-ae78-488e-8f33-e0fe0712154d","ios":"levelo://app?vid=3dd23926-ae78-488e-8f33-e0fe0712154d"},"vehicle_type_id":"4","last_reported":1756375896,"current_range_meters":20400,"station_id":"","pricing_plan_id":"cebpf4jnsgd1na2vs0mg"},{"bike_id":"2f705b61-5428-4e70-90a0-bdd3ba54f0c5","system_id":"levelo_inurba_marseille","lat":43.31068,"lon":5.38342,"is_reserved":false,"is_disabled":false,"rental_uris":{"android":"levelo://app?vid=2f705b61-5428-4e70-90a0-bdd3ba54f0c5","ios":"levelo://app?vid=2f705b61-5428-4e70-90a0-bdd3ba54f0c5"},"vehicle_type_id":"4","last_reported":1756375896,"current_range_meters":20400,"station_id":"ce4bgv92rcd13ifvqcr0","pricing_plan_id":"cebpf4jnsgd1na2vs0mg"},{"bike_id":"06254881-c02e-4e4b-9efd-401582a02a2d","system_id":"levelo_inurba_marseille","lat":43.28856,"lon":5.39318,"is_reserved":false,"is_disabled":false,"rental_uris":{"android":"levelo://app?vid=06254881-c02e-4e4b-9efd-401582a02a2d","ios":"levelo://app?vid=06254881-c02e-4e4b-9efd-401582a02a2d"},"vehicle_type_id":"4","last_reported":1756375896,"current_range_meters":20800,"station_id":"ce4bh2p2rcd13ifvqdi0","pricing_plan_id":"cebpf4jnsgd1na2vs0mg"},{"bike_id":"22c98fd6-ef88-424f-b0be-d6c62665765f","system_id":"levelo_inurba_marseille","lat":43.24808,"lon":5.374596,"is_reserved":false,"is_disabled":true,"rental_uris":{"android":"levelo://app?vid=22c98fd6-ef88-424f-b0be-d6c62665765f","ios":"levelo://app?vid=22c98fd6-ef88-424f-b0be-d6c62665765f"},"vehicle_type_id":"4","last_reported":1756375896,"current_range_meters":20800,"station_id":"ce4bhgh2rcd13ifvqfb0","pricing_plan_id":"cebpf4jnsgd1na2vs0mg"},{"bike_id":"455c5dbc-2320-459c-b724-a7bb5efbfea7","system_id":"levelo_inurba_marseille","lat":43.297024,"lon":5.376953,"is_reserved":false,"is_disabled":true,"rental_uris":{"android":"levelo://app?vid=455c5dbc-2320-459c-b724-a7bb5efbfea7","ios":"levelo://app?vid=455c5dbc-2320-459c-b724-a7bb5efbfea7"},"vehicle_type_id":"4","last_reported":1756375896,"current_range_meters":20800,"station_id":"ce4bgkh2rcd13ifvqbl0","pricing_plan_id":"cebpf4jnsgd1na2vs0mg"},{"bike_id":"e66b3941-edc1-47d2-a508-6af05bed5109","system_id":"levelo_inurba_marseille","lat":43.22489,"lon":5.34792,"is_reserved":false,"is_disabled":false,"rental_uris":{"android":"levelo://app?vid=e66b3941-edc1-47d2-a508-6af05bed5109","ios":"levelo://app?vid=e66b3941-edc1-47d2-a508-6af05bed5109"},"vehicle_type_id":"4","last_reported":1756375896,"current_range_meters":20800,"station_id":"st_cvj5dfep6f1abm77gieg","pricing_plan_id":"cebpf4jnsgd1na2vs0mg"},{"bike_id":"9a3f96f6-81eb-4032-8ed0-b7359ee25fe2","system_id":"levelo_inurba_marseille","lat":43.25939,"lon":5.40901,"is_reserved":false,"is_disabled":false,"rental_uris":{"android":"levelo://app?vid=9a3f96f6-81eb-4032-8ed0-b7359ee25fe2","ios":"levelo://app?vid=9a3f96f6-81eb-4032-8ed0-b7359ee25fe2"},"vehicle_type_id":"4","last_reported":1756375896,"current_range_meters":21600,"station_id":"ce4bhm92rcd13ifvqglg","pricing_plan_id":"cebpf4jnsgd1na2vs0mg"},{"bike_id":"1ea36c88-f9d7-4a45-bfa9-679b3263a733","system_id":"levelo_inurba_marseille","lat":43.24062,"lon":5.37777,"is_reserved":false,"is_disabled":false,"rental_uris":{"android":"levelo://app?vid=1ea36c88-f9d7-4a45-bfa9-679b3263a733","ios":"levelo://app?vid=1ea36c88-f9d7-4a45-bfa9-679b3263a733"},"vehicle_type_id":"4","last_reported":1756375896,"current_range_meters":21600,"station_id":"ce4bhnp2rcd13ifvqgvg","pricing_plan_id":"cebpf4jnsgd1na2vs0mg"},{"bike_id":"84736ad0-39f1-4113-9b5c-f7765e1bea0d","system_id":"levelo_inurba_marseille","lat":43.29273,"lon":5.36857,"is_reserved":false,"is_disabled":false,"rental_uris":{"android":"levelo://app?vid=84736ad0-39f1-4113-9b5c-f7765e1bea0d","ios":"levelo://app?vid=84736ad0-39f1-4113-9b5c-f7765e1bea0d"},"vehicle_type_id":"4","last_reported":1756375896,"current_range_meters":21600,"station_id":"ce4bhbp2rcd13ifvqesg","pricing_plan_id":"cebpf4jnsgd1na2vs0mg"},{"bike_id":"48beb283-70d8-45c8-b0d3-a94e41a0daf0","system_id":"levelo_inurba_marseille","lat":43.243915,"lon":5.370856,"is_reserved":false,"is_disabled":false,"rental_uris":{"android":"levelo://app?vid=48beb283-70d8-45c8-b0d3-a94e41a0daf0","ios":"levelo://app?vid=48beb283-70d8-45c8-b0d3-a94e41a0daf0"},"vehicle_type_id":"4","last_reported":1756375896,"current_range_meters":21600,"station_id":"ce4bhhh2rcd13ifvqfk0","pricing_plan_id":"cebpf4jnsgd1na2vs0mg"},{"bike_id":"be56a579-3870-4545-85bd-dad43950a1f0","system_id":"levelo_inurba_marseille","lat":43.28138,"lon":5.42657,"is_reserved":false,"is_disabled":false,"rental_uris":{"android":"levelo://app?vid=be56a579-3870-4545-85bd-dad43950a1f0","ios":"levelo://app?vid=be56a579-3870-4545-85bd-dad43950a1f0"},"vehicle_type_id":"4","last_reported":1756375896,"current_range_meters":21600,"station_id":"ce4bhnh2rcd13ifvqgug","pricing_plan_id":"cebpf4jnsgd1na2vs0mg"},{"bike_id":"e1965710-0429-49c1-8593-cb449ec0d4e2","system_id":"levelo_inurba_marseille","lat":43.31757,"lon":5.39015,"is_reserved":false,"is_disabled":false,"rental_uris":{"android":"levelo://app?vid=e1965710-0429-49c1-8593-cb449ec0d4e2","ios":"levelo://app?vid=e1965710-0429-49c1-8593-cb449ec0d4e2"},"vehicle_type_id":"4","last_reported":1756375896,"current_range_meters":22000,"station_id":"ce4bhqp2rcd13ifvqhng","pricing_plan_id":"cebpf4jnsgd1na2vs0mg"},{"bike_id":"b9c6faf7-7a8d-432d-9456-0e2454eccdaa","system_id":"levelo_inurba_marseille","lat":43.299154,"lon":5.381492,"is_reserved":false,"is_disabled":false,"rental_uris":{"android":"levelo://app?vid=b9c6faf7-7a8d-432d-9456-0e2454eccdaa","ios":"levelo://app?vid=b9c6faf7-7a8d-432d-9456-0e2454eccdaa"},"vehicle_type_id":"4","last_reported":1756375896,"current_range_meters":21600,"station_id":"","pricing_plan_id":"cebpf4jnsgd1na2vs0mg"},{"bike_id":"f5f2ca21-5d95-4289-978c-eadf93ad3706","system_id":"levelo_inurba_marseille","lat":43.23159,"lon":5.43709,"is_reserved":false,"is_disabled":false,"rental_uris":{"android":"levelo://app?vid=f5f2ca21-5d95-4289-978c-eadf93ad3706","ios":"levelo://app?vid=f5f2ca21-5d95-4289-978c-eadf93ad3706"},"vehicle_type_id":"4","last_reported":1756375896,"current_range_meters":21600,"station_id":"ce4bhmp2rcd13ifvqgog","pricing_plan_id":"cebpf4jnsgd1na2vs0mg"},{"bike_id":"db48c5f4-a202-4021-bc28-0cad4c524910","system_id":"levelo_inurba_marseille","lat":43.24393,"lon":5.37057,"is_reserved":false,"is_disabled":false,"rental_uris":{"android":"levelo://app?vid=db48c5f4-a202-4021-bc28-0cad4c524910","ios":"levelo://app?vid=db48c5f4-a202-4021-bc28-0cad4c524910"},"vehicle_type_id":"4","last_reported":1756375896,"current_range_meters":22000,"station_id":"ce4bhhh2rcd13ifvqfk0","pricing_plan_id":"cebpf4jnsgd1na2vs0mg"},{"bike_id":"b717dbb4-ce63-4dcf-a79d-ed37be1de38b","system_id":"levelo_inurba_marseille","lat":43.24652,"lon":5.38918,"is_reserved":false,"is_disabled":false,"rental_uris":{"android":"levelo://app?vid=b717dbb4-ce63-4dcf-a79d-ed37be1de38b","ios":"levelo://app?vid=b717dbb4-ce63-4dcf-a79d-ed37be1de38b"},"vehicle_type_id":"4","last_reported":1756375896,"current_range_meters":22000,"station_id":"ce4bhg12rcd13ifvqf60","pricing_plan_id":"cebpf4jnsgd1na2vs0mg"},{"bike_id":"1bfacc70-094f-4669-99eb-6c0e9b6b8bc5","system_id":"levelo_inurba_marseille","lat":43.24172,"lon":5.39727,"is_reserved":false,"is_disabled":false,"rental_uris":{"android":"levelo://app?vid=1bfacc70-094f-4669-99eb-6c0e9b6b8bc5","ios":"levelo://app?vid=1bfacc70-094f-4669-99eb-6c0e9b6b8bc5"},"vehicle_type_id":"4","last_reported":1756375896,"current_range_meters":22000,"station_id":"ce4bhn12rcd13ifvqgpg","pricing_plan_id":"cebpf4jnsgd1na2vs0mg"},{"bike_id":"c4ff6e2e-7c46-4a14-90e0-391caea45a27","system_id":"levelo_inurba_marseille","lat":43.24648,"lon":5.38896,"is_reserved":false,"is_disabled":false,"rental_uris":{"android":"levelo://app?vid=c4ff6e2e-7c46-4a14-90e0-391caea45a27","ios":"levelo://app?vid=c4ff6e2e-7c46-4a14-90e0-391caea45a27"},"vehicle_type_id":"4","last_reported":1756375896,"current_range_meters":22400,"station_id":"ce4bhg12rcd13ifvqf60","pricing_plan_id":"cebpf4jnsgd1na2vs0mg"},{"bike_id":"12e60f05-dc31-4e29-ad6b-916a675604e2","system_id":"levelo_inurba_marseille","lat":43.3089,"lon":5.39661,"is_reserved":false,"is_disabled":false,"rental_uris":{"android":"levelo://app?vid=12e60f05-dc31-4e29-ad6b-916a675604e2","ios":"levelo://app?vid=12e60f05-dc31-4e29-ad6b-916a675604e2"},"vehicle_type_id":"4","last_reported":1756375896,"current_range_meters":22000,"station_id":"ce4bh012rcd13ifvqcv0","pricing_plan_id":"cebpf4jnsgd1na2vs0mg"},{"bike_id":"0e16483d-7c29-42d6-90d2-d9cb7ef31592","system_id":"levelo_inurba_marseille","lat":43.323587,"lon":5.367345,"is_reserved":false,"is_disabled":false,"rental_uris":{"android":"levelo://app?vid=0e16483d-7c29-42d6-90d2-d9cb7ef31592","ios":"levelo://app?vid=0e16483d-7c29-42d6-90d2-d9cb7ef31592"},"vehicle_type_id":"4","last_reported":1756375896,"current_range_meters":22400,"station_id":"ce4bhsh2rcd13ifvqi2g","pricing_plan_id":"cebpf4jnsgd1na2vs0mg"},{"bike_id":"594cdcfd-3fed-46fc-8d51-f23bab785ac1","system_id":"levelo_inurba_marseille","lat":43.291,"lon":5.38144,"is_reserved":false,"is_disabled":false,"rental_uris":{"android":"levelo://app?vid=594cdcfd-3fed-46fc-8d51-f23bab785ac1","ios":"levelo://app?vid=594cdcfd-3fed-46fc-8d51-f23bab785ac1"},"vehicle_type_id":"4","last_reported":1756375896,"current_range_meters":22800,"station_id":"ce4bh512rcd13ifvqe2g","pricing_plan_id":"cebpf4jnsgd1na2vs0mg"},{"bike_id":"7fa84784-2dda-4198-8e8b-5a7c7ec2289f","system_id":"levelo_inurba_marseille","lat":43.32381,"lon":5.36666,"is_reserved":false,"is_disabled":false,"rental_uris":{"android":"levelo://app?vid=7fa84784-2dda-4198-8e8b-5a7c7ec2289f","ios":"levelo://app?vid=7fa84784-2dda-4198-8e8b-5a7c7ec2289f"},"vehicle_type_id":"4","last_reported":1756375896,"current_range_meters":22800,"station_id":"ce4bhsh2rcd13ifvqi2g","pricing_plan_id":"cebpf4jnsgd1na2vs0mg"},{"bike_id":"c0881cb5-357f-468d-a3c1-b313679c3509","system_id":"levelo_inurba_marseille","lat":43.337579,"lon":5.37436,"is_reserved":false,"is_disabled":false,"rental_uris":{"android":"levelo://app?vid=c0881cb5-357f-468d-a3c1-b313679c3509","ios":"levelo://app?vid=c0881cb5-357f-468d-a3c1-b313679c3509"},"vehicle_type_id":"4","last_reported":1756375896,"current_range_meters":22800,"station_id":"","pricing_plan_id":"cebpf4jnsgd1na2vs0mg"},{"bike_id":"c3736018-2162-4cda-ac03-7fcd61ef6a85","system_id":"levelo_inurba_marseille","lat":43.31204,"lon":5.36853,"is_reserved":false,"is_disabled":false,"rental_uris":{"android":"levelo://app?vid=c3736018-2162-4cda-ac03-7fcd61ef6a85","ios":"levelo://app?vid=c3736018-2162-4cda-ac03-7fcd61ef6a85"},"vehicle_type_id":"4","last_reported":1756375896,"current_range_meters":22800,"station_id":"ce4bgl92rcd13ifvqbq0","pricing_plan_id":"cebpf4jnsgd1na2vs0mg"},{"bike_id":"94469496-96ae-450e-adaf-a7663bfd0e82","system_id":"levelo_inurba_marseille","lat":43.31585,"lon":5.37324,"is_reserved":false,"is_disabled":false,"rental_uris":{"android":"levelo://app?vid=94469496-96ae-450e-adaf-a7663bfd0e82","ios":"levelo://app?vid=94469496-96ae-450e-adaf-a7663bfd0e82"},"vehicle_type_id":"4","last_reported":1756375896,"current_range_meters":22800,"station_id":"","pricing_plan_id":"cebpf4jnsgd1na2vs0mg"},{"bike_id":"929a3ccd-e648-437b-9211-338d081abbb9","system_id":"levelo_inurba_marseille","lat":43.30153,"lon":5.38089,"is_reserved":false,"is_disabled":false,"rental_uris":{"android":"levelo://app?vid=929a3ccd-e648-437b-9211-338d081abbb9","ios":"levelo://app?vid=929a3ccd-e648-437b-9211-338d081abbb9"},"vehicle_type_id":"4","last_reported":1756375896,"current_range_meters":22800,"station_id":"ce4bgjp2rcd13ifvqbh0","pricing_plan_id":"cebpf4jnsgd1na2vs0mg"},{"bike_id":"9ee36fe0-e94f-44ac-9763-e92d7fec4766","system_id":"levelo_inurba_marseille","lat":43.27806,"lon":5.40741,"is_reserved":false,"is_disabled":true,"rental_uris":{"android":"levelo://app?vid=9ee36fe0-e94f-44ac-9763-e92d7fec4766","ios":"levelo://app?vid=9ee36fe0-e94f-44ac-9763-e92d7fec4766"},"vehicle_type_id":"4","last_reported":1756375896,"current_range_meters":22800,"station_id":"ce4bhnh2rcd13ifvqgtg","pricing_plan_id":"cebpf4jnsgd1na2vs0mg"},{"bike_id":"30ce1a9e-2c39-4892-a448-e637029559e9","system_id":"levelo_inurba_marseille","lat":43.29959,"lon":5.38499,"is_reserved":false,"is_disabled":false,"rental_uris":{"android":"levelo://app?vid=30ce1a9e-2c39-4892-a448-e637029559e9","ios":"levelo://app?vid=30ce1a9e-2c39-4892-a448-e637029559e9"},"vehicle_type_id":"4","last_reported":1756375896,"current_range_meters":22800,"station_id":"ce4bgj92rcd13ifvqbd0","pricing_plan_id":"cebpf4jnsgd1na2vs0mg"},{"bike_id":"93cc9d8e-bb0d-4aa9-89fd-5bba7c65a612","system_id":"levelo_inurba_marseille","lat":43.29261,"lon":5.38439,"is_reserved":false,"is_disabled":false,"rental_uris":{"android":"levelo://app?vid=93cc9d8e-bb0d-4aa9-89fd-5bba7c65a612","ios":"levelo://app?vid=93cc9d8e-bb0d-4aa9-89fd-5bba7c65a612"},"vehicle_type_id":"4","last_reported":1756375896,"current_range_meters":22400,"station_id":"ce4bh692rcd13ifvqea0","pricing_plan_id":"cebpf4jnsgd1na2vs0mg"},{"bike_id":"21b96a6b-0bfa-46ff-a992-8d1e6fb417a9","system_id":"levelo_inurba_marseille","lat":43.30523,"lon":5.36719,"is_reserved":false,"is_disabled":false,"rental_uris":{"android":"levelo://app?vid=21b96a6b-0bfa-46ff-a992-8d1e6fb417a9","ios":"levelo://app?vid=21b96a6b-0bfa-46ff-a992-8d1e6fb417a9"},"vehicle_type_id":"4","last_reported":1756375896,"current_range_meters":23200,"station_id":"ce4bgrp2rcd13ifvqc9g","pricing_plan_id":"cebpf4jnsgd1na2vs0mg"},{"bike_id":"c16427ab-5463-41a2-b502-f39d518f3316","system_id":"levelo_inurba_marseille","lat":43.281062,"lon":5.378749,"is_reserved":false,"is_disabled":false,"rental_uris":{"android":"levelo://app?vid=c16427ab-5463-41a2-b502-f39d518f3316","ios":"levelo://app?vid=c16427ab-5463-41a2-b502-f39d518f3316"},"vehicle_type_id":"4","last_reported":1756375896,"current_range_meters":23200,"station_id":"ce4bha12rcd13ifvqee0","pricing_plan_id":"cebpf4jnsgd1na2vs0mg"},{"bike_id":"e9cb6436-0428-41b2-925a-cf5b31128397","system_id":"levelo_inurba_marseille","lat":43.32975,"lon":5.39106,"is_reserved":false,"is_disabled":false,"rental_uris":{"android":"levelo://app?vid=e9cb6436-0428-41b2-925a-cf5b31128397","ios":"levelo://app?vid=e9cb6436-0428-41b2-925a-cf5b31128397"},"vehicle_type_id":"4","last_reported":1756375896,"current_range_meters":23200,"station_id":"","pricing_plan_id":"cebpf4jnsgd1na2vs0mg"},{"bike_id":"ac103f93-610e-47a8-af78-7983eca3904d","system_id":"levelo_inurba_marseille","lat":43.29098,"lon":5.38137,"is_reserved":false,"is_disabled":false,"rental_uris":{"android":"levelo://app?vid=ac103f93-610e-47a8-af78-7983eca3904d","ios":"levelo://app?vid=ac103f93-610e-47a8-af78-7983eca3904d"},"vehicle_type_id":"4","last_reported":1756375896,"current_range_meters":23200,"station_id":"ce4bh512rcd13ifvqe2g","pricing_plan_id":"cebpf4jnsgd1na2vs0mg"},{"bike_id":"af065a91-812c-42b2-aad6-7998be3e4350","system_id":"levelo_inurba_marseille","lat":43.2706,"lon":5.42284,"is_reserved":false,"is_disabled":false,"rental_uris":{"android":"levelo://app?vid=af065a91-812c-42b2-aad6-7998be3e4350","ios":"levelo://app?vid=af065a91-812c-42b2-aad6-7998be3e4350"},"vehicle_type_id":"4","last_reported":1756375896,"current_range_meters":23200,"station_id":"ce4bhk92rcd13ifvqgb0","pricing_plan_id":"cebpf4jnsgd1na2vs0mg"},{"bike_id":"fd0deb42-9cb5-475d-b29b-e7ec9427ab04","system_id":"levelo_inurba_marseille","lat":43.28854,"lon":5.35846,"is_reserved":false,"is_disabled":false,"rental_uris":{"android":"levelo://app?vid=fd0deb42-9cb5-475d-b29b-e7ec9427ab04","ios":"levelo://app?vid=fd0deb42-9cb5-475d-b29b-e7ec9427ab04"},"vehicle_type_id":"4","last_reported":1756375896,"current_range_meters":23200,"station_id":"ce4bhb12rcd13ifvqem0","pricing_plan_id":"cebpf4jnsgd1na2vs0mg"},{"bike_id":"d6dcee3c-4cc4-48ae-ae7d-53e26d45b701","system_id":"levelo_inurba_marseille","lat":43.31363,"lon":5.36704,"is_reserved":false,"is_disabled":false,"rental_uris":{"android":"levelo://app?vid=d6dcee3c-4cc4-48ae-ae7d-53e26d45b701","ios":"levelo://app?vid=d6dcee3c-4cc4-48ae-ae7d-53e26d45b701"},"vehicle_type_id":"4","last_reported":1756375896,"current_range_meters":23200,"station_id":"ce4bgr92rcd13ifvqc6g","pricing_plan_id":"cebpf4jnsgd1na2vs0mg"},{"bike_id":"e23fe185-5190-4610-b4e2-63078e6f0bce","system_id":"levelo_inurba_marseille","lat":43.31314,"lon":5.36932,"is_reserved":false,"is_disabled":false,"rental_uris":{"android":"levelo://app?vid=e23fe185-5190-4610-b4e2-63078e6f0bce","ios":"levelo://app?vid=e23fe185-5190-4610-b4e2-63078e6f0bce"},"vehicle_type_id":"4","last_reported":1756375896,"current_range_meters":23200,"station_id":"","pricing_plan_id":"cebpf4jnsgd1na2vs0mg"},{"bike_id":"4a5baae2-6b2c-49be-be29-55005354698e","system_id":"levelo_inurba_marseille","lat":43.31481,"lon":5.37307,"is_reserved":false,"is_disabled":false,"rental_uris":{"android":"levelo://app?vid=4a5baae2-6b2c-49be-be29-55005354698e","ios":"levelo://app?vid=4a5baae2-6b2c-49be-be29-55005354698e"},"vehicle_type_id":"4","last_reported":1756375896,"current_range_meters":23200,"station_id":"ce4bgt12rcd13ifvqcd0","pricing_plan_id":"cebpf4jnsgd1na2vs0mg"},{"bike_id":"6a3e5802-6548-4300-bdf5-0fedbdff8a76","system_id":"levelo_inurba_marseille","lat":43.32285,"lon":5.38273,"is_reserved":false,"is_disabled":false,"rental_uris":{"android":"levelo://app?vid=6a3e5802-6548-4300-bdf5-0fedbdff8a76","ios":"levelo://app?vid=6a3e5802-6548-4300-bdf5-0fedbdff8a76"},"vehicle_type_id":"4","last_reported":1756375896,"current_range_meters":23200,"station_id":"ce4bhr12rcd13ifvqhqg","pricing_plan_id":"cebpf4jnsgd1na2vs0mg"},{"bike_id":"af10f840-9282-4be6-8a32-dd834535ba59","system_id":"levelo_inurba_marseille","lat":43.258563,"lon":5.399185,"is_reserved":false,"is_disabled":false,"rental_uris":{"android":"levelo://app?vid=af10f840-9282-4be6-8a32-dd834535ba59","ios":"levelo://app?vid=af10f840-9282-4be6-8a32-dd834535ba59"},"vehicle_type_id":"4","last_reported":1756375896,"current_range_meters":24000,"station_id":"ce4bhl92rcd13ifvqghg","pricing_plan_id":"cebpf4jnsgd1na2vs0mg"},{"bike_id":"e6caca03-e4c1-40ce-9f4e-cc5046f7af92","system_id":"levelo_inurba_marseille","lat":43.31993,"lon":5.38148,"is_reserved":false,"is_disabled":false,"rental_uris":{"android":"levelo://app?vid=e6caca03-e4c1-40ce-9f4e-cc5046f7af92","ios":"levelo://app?vid=e6caca03-e4c1-40ce-9f4e-cc5046f7af92"},"vehicle_type_id":"4","last_reported":1756375896,"current_range_meters":24000,"station_id":"ce4bhr12rcd13ifvqhpg","pricing_plan_id":"cebpf4jnsgd1na2vs0mg"},{"bike_id":"ef986bf4-7c25-4fda-8edf-4cbad18c3dc8","system_id":"levelo_inurba_marseille","lat":43.27206,"lon":5.39181,"is_reserved":false,"is_disabled":false,"rental_uris":{"android":"levelo://app?vid=ef986bf4-7c25-4fda-8edf-4cbad18c3dc8","ios":"levelo://app?vid=ef986bf4-7c25-4fda-8edf-4cbad18c3dc8"},"vehicle_type_id":"4","last_reported":1756375896,"current_range_meters":24000,"station_id":"ce4bhhp2rcd13ifvqfm0","pricing_plan_id":"cebpf4jnsgd1na2vs0mg"},{"bike_id":"6c0e5302-b5f2-45cf-9502-0b402b1e6662","system_id":"levelo_inurba_marseille","lat":43.29843,"lon":5.36266,"is_reserved":false,"is_disabled":false,"rental_uris":{"android":"levelo://app?vid=6c0e5302-b5f2-45cf-9502-0b402b1e6662","ios":"levelo://app?vid=6c0e5302-b5f2-45cf-9502-0b402b1e6662"},"vehicle_type_id":"4","last_reported":1756375896,"current_range_meters":24000,"station_id":"ce4bgpp2rcd13ifvqc3g","pricing_plan_id":"cebpf4jnsgd1na2vs0mg"},{"bike_id":"f1626663-ad90-47c2-861b-eefffbdaca6a","system_id":"levelo_inurba_marseille","lat":43.28261,"lon":5.35097,"is_reserved":false,"is_disabled":true,"rental_uris":{"android":"levelo://app?vid=f1626663-ad90-47c2-861b-eefffbdaca6a","ios":"levelo://app?vid=f1626663-ad90-47c2-861b-eefffbdaca6a"},"vehicle_type_id":"4","last_reported":1756375896,"current_range_meters":24000,"station_id":"ce4bhbp2rcd13ifvqerg","pricing_plan_id":"cebpf4jnsgd1na2vs0mg"},{"bike_id":"f27c5ada-3a94-406d-b3fd-149cf4ac0ce4","system_id":"levelo_inurba_marseille","lat":43.32292,"lon":5.38287,"is_reserved":false,"is_disabled":false,"rental_uris":{"android":"levelo://app?vid=f27c5ada-3a94-406d-b3fd-149cf4ac0ce4","ios":"levelo://app?vid=f27c5ada-3a94-406d-b3fd-149cf4ac0ce4"},"vehicle_type_id":"4","last_reported":1756375896,"current_range_meters":24000,"station_id":"ce4bhr12rcd13ifvqhqg","pricing_plan_id":"cebpf4jnsgd1na2vs0mg"},{"bike_id":"1373fe92-85bb-41c5-90df-98d6f6118970","system_id":"levelo_inurba_marseille","lat":43.293073,"lon":5.371779,"is_reserved":false,"is_disabled":false,"rental_uris":{"android":"levelo://app?vid=1373fe92-85bb-41c5-90df-98d6f6118970","ios":"levelo://app?vid=1373fe92-85bb-41c5-90df-98d6f6118970"},"vehicle_type_id":"4","last_reported":1756375896,"current_range_meters":24000,"station_id":"ce4bgh92rcd13ifvqb40","pricing_plan_id":"cebpf4jnsgd1na2vs0mg"},{"bike_id":"24f5aa1f-2f94-4f26-8f26-0f5d3cb057f4","system_id":"levelo_inurba_marseille","lat":43.28894,"lon":5.43344,"is_reserved":false,"is_disabled":false,"rental_uris":{"android":"levelo://app?vid=24f5aa1f-2f94-4f26-8f26-0f5d3cb057f4","ios":"levelo://app?vid=24f5aa1f-2f94-4f26-8f26-0f5d3cb057f4"},"vehicle_type_id":"4","last_reported":1756375896,"current_range_meters":24000,"station_id":"","pricing_plan_id":"cebpf4jnsgd1na2vs0mg"},{"bike_id":"857f6989-3eec-4d38-b710-f95af1b889df","system_id":"levelo_inurba_marseille","lat":43.32364,"lon":5.36759,"is_reserved":false,"is_disabled":false,"rental_uris":{"android":"levelo://app?vid=857f6989-3eec-4d38-b710-f95af1b889df","ios":"levelo://app?vid=857f6989-3eec-4d38-b710-f95af1b889df"},"vehicle_type_id":"4","last_reported":1756375896,"current_range_meters":24000,"station_id":"ce4bhsh2rcd13ifvqi2g","pricing_plan_id":"cebpf4jnsgd1na2vs0mg"},{"bike_id":"71ff8ded-1168-4ad1-ba70-9dbd5c4d9327","system_id":"levelo_inurba_marseille","lat":43.29039,"lon":5.3593,"is_reserved":false,"is_disabled":false,"rental_uris":{"android":"levelo://app?vid=71ff8ded-1168-4ad1-ba70-9dbd5c4d9327","ios":"levelo://app?vid=71ff8ded-1168-4ad1-ba70-9dbd5c4d9327"},"vehicle_type_id":"4","last_reported":1756375896,"current_range_meters":24000,"station_id":"ce4bha92rcd13ifvqeg0","pricing_plan_id":"cebpf4jnsgd1na2vs0mg"},{"bike_id":"2b3b5a15-a382-44ac-98cd-7eb2831e6cbf","system_id":"levelo_inurba_marseille","lat":43.33222,"lon":5.39791,"is_reserved":false,"is_disabled":false,"rental_uris":{"android":"levelo://app?vid=2b3b5a15-a382-44ac-98cd-7eb2831e6cbf","ios":"levelo://app?vid=2b3b5a15-a382-44ac-98cd-7eb2831e6cbf"},"vehicle_type_id":"4","last_reported":1756375896,"current_range_meters":24000,"station_id":"","pricing_plan_id":"cebpf4jnsgd1na2vs0mg"},{"bike_id":"93c9b1a2-e0c7-4359-b6c1-7c13b432faac","system_id":"levelo_inurba_marseille","lat":43.29009,"lon":5.3562,"is_reserved":false,"is_disabled":false,"rental_uris":{"android":"levelo://app?vid=93c9b1a2-e0c7-4359-b6c1-7c13b432faac","ios":"levelo://app?vid=93c9b1a2-e0c7-4359-b6c1-7c13b432faac"},"vehicle_type_id":"4","last_reported":1756375896,"current_range_meters":24400,"station_id":"ce4bhb92rcd13ifvqen0","pricing_plan_id":"cebpf4jnsgd1na2vs0mg"},{"bike_id":"7d0a5566-6669-4d5b-8b8d-de97fb29100f","system_id":"levelo_inurba_marseille","lat":43.30765,"lon":5.37629,"is_reserved":false,"is_disabled":false,"rental_uris":{"android":"levelo://app?vid=7d0a5566-6669-4d5b-8b8d-de97fb29100f","ios":"levelo://app?vid=7d0a5566-6669-4d5b-8b8d-de97fb29100f"},"vehicle_type_id":"4","last_reported":1756375896,"current_range_meters":24400,"station_id":"ce4bgv92rcd13ifvqcq0","pricing_plan_id":"cebpf4jnsgd1na2vs0mg"},{"bike_id":"8435bb2b-2ad9-43a4-abd1-2def052f85e8","system_id":"levelo_inurba_marseille","lat":43.21751,"lon":5.34604,"is_reserved":false,"is_disabled":false,"rental_uris":{"android":"levelo://app?vid=8435bb2b-2ad9-43a4-abd1-2def052f85e8","ios":"levelo://app?vid=8435bb2b-2ad9-43a4-abd1-2def052f85e8"},"vehicle_type_id":"4","last_reported":1756375896,"current_range_meters":24400,"station_id":"st_cvj6r9ubvosntc0bgbag","pricing_plan_id":"cebpf4jnsgd1na2vs0mg"},{"bike_id":"d0080eb2-f3d5-4b14-9e67-efd66f26b562","system_id":"levelo_inurba_marseille","lat":43.24172,"lon":5.39709,"is_reserved":false,"is_disabled":false,"rental_uris":{"android":"levelo://app?vid=d0080eb2-f3d5-4b14-9e67-efd66f26b562","ios":"levelo://app?vid=d0080eb2-f3d5-4b14-9e67-efd66f26b562"},"vehicle_type_id":"4","last_reported":1756375896,"current_range_meters":24400,"station_id":"ce4bhn12rcd13ifvqgpg","pricing_plan_id":"cebpf4jnsgd1na2vs0mg"},{"bike_id":"86d557e5-a6a7-4560-9bb8-aadd8c484e13","system_id":"levelo_inurba_marseille","lat":43.28157,"lon":5.4264,"is_reserved":false,"is_disabled":false,"rental_uris":{"android":"levelo://app?vid=86d557e5-a6a7-4560-9bb8-aadd8c484e13","ios":"levelo://app?vid=86d557e5-a6a7-4560-9bb8-aadd8c484e13"},"vehicle_type_id":"4","last_reported":1756375896,"current_range_meters":24000,"station_id":"ce4bhnh2rcd13ifvqgug","pricing_plan_id":"cebpf4jnsgd1na2vs0mg"},{"bike_id":"6497cf93-2932-40d5-8e44-57c77b6f0048","system_id":"levelo_inurba_marseille","lat":43.28705,"lon":5.37964,"is_reserved":false,"is_disabled":false,"rental_uris":{"android":"levelo://app?vid=6497cf93-2932-40d5-8e44-57c77b6f0048","ios":"levelo://app?vid=6497cf93-2932-40d5-8e44-57c77b6f0048"},"vehicle_type_id":"4","last_reported":1756375896,"current_range_meters":24400,"station_id":"ce4bh9p2rcd13ifvqec0","pricing_plan_id":"cebpf4jnsgd1na2vs0mg"},{"bike_id":"05955278-86d9-47b6-8d3a-f6df9e3a30d4","system_id":"levelo_inurba_marseille","lat":43.3211,"lon":5.36779,"is_reserved":false,"is_disabled":false,"rental_uris":{"android":"levelo://app?vid=05955278-86d9-47b6-8d3a-f6df9e3a30d4","ios":"levelo://app?vid=05955278-86d9-47b6-8d3a-f6df9e3a30d4"},"vehicle_type_id":"4","last_reported":1756375896,"current_range_meters":24400,"station_id":"ce4bhrh2rcd13ifvqhug","pricing_plan_id":"cebpf4jnsgd1na2vs0mg"},{"bike_id":"ad342a57-16de-4802-917b-2c54902b8e93","system_id":"levelo_inurba_marseille","lat":43.33767,"lon":5.374384,"is_reserved":false,"is_disabled":false,"rental_uris":{"android":"levelo://app?vid=ad342a57-16de-4802-917b-2c54902b8e93","ios":"levelo://app?vid=ad342a57-16de-4802-917b-2c54902b8e93"},"vehicle_type_id":"4","last_reported":1756375896,"current_range_meters":24400,"station_id":"","pricing_plan_id":"cebpf4jnsgd1na2vs0mg"},{"bike_id":"176b726c-594d-4982-abbb-ef62d32b356c","system_id":"levelo_inurba_marseille","lat":43.2988,"lon":5.38125,"is_reserved":false,"is_disabled":false,"rental_uris":{"android":"levelo://app?vid=176b726c-594d-4982-abbb-ef62d32b356c","ios":"levelo://app?vid=176b726c-594d-4982-abbb-ef62d32b356c"},"vehicle_type_id":"4","last_reported":1756375896,"current_range_meters":24400,"station_id":"ce4bgj12rcd13ifvqbc0","pricing_plan_id":"cebpf4jnsgd1na2vs0mg"},{"bike_id":"04e6bb71-99d9-4e9f-b173-9ec2eff04f56","system_id":"levelo_inurba_marseille","lat":43.30306,"lon":5.40443,"is_reserved":false,"is_disabled":false,"rental_uris":{"android":"levelo://app?vid=04e6bb71-99d9-4e9f-b173-9ec2eff04f56","ios":"levelo://app?vid=04e6bb71-99d9-4e9f-b173-9ec2eff04f56"},"vehicle_type_id":"4","last_reported":1756375896,"current_range_meters":24400,"station_id":"ce4bh012rcd13ifvqd10","pricing_plan_id":"cebpf4jnsgd1na2vs0mg"},{"bike_id":"0a47b14c-343e-44d6-b37d-d707b46f1ec9","system_id":"levelo_inurba_marseille","lat":43.25941,"lon":5.40892,"is_reserved":false,"is_disabled":false,"rental_uris":{"android":"levelo://app?vid=0a47b14c-343e-44d6-b37d-d707b46f1ec9","ios":"levelo://app?vid=0a47b14c-343e-44d6-b37d-d707b46f1ec9"},"vehicle_type_id":"4","last_reported":1756375896,"current_range_meters":24400,"station_id":"ce4bhm92rcd13ifvqglg","pricing_plan_id":"cebpf4jnsgd1na2vs0mg"},{"bike_id":"72977883-49b3-4685-a298-11329ed76146","system_id":"levelo_inurba_marseille","lat":43.29971,"lon":5.38491,"is_reserved":false,"is_disabled":false,"rental_uris":{"android":"levelo://app?vid=72977883-49b3-4685-a298-11329ed76146","ios":"levelo://app?vid=72977883-49b3-4685-a298-11329ed76146"},"vehicle_type_id":"4","last_reported":1756375896,"current_range_meters":24400,"station_id":"ce4bgj92rcd13ifvqbd0","pricing_plan_id":"cebpf4jnsgd1na2vs0mg"},{"bike_id":"f9ae6c14-cd03-4c62-b600-9d6cc2d50a4c","system_id":"levelo_inurba_marseille","lat":43.28337,"lon":5.4081,"is_reserved":false,"is_disabled":false,"rental_uris":{"android":"levelo://app?vid=f9ae6c14-cd03-4c62-b600-9d6cc2d50a4c","ios":"levelo://app?vid=f9ae6c14-cd03-4c62-b600-9d6cc2d50a4c"},"vehicle_type_id":"4","last_reported":1756375896,"current_range_meters":24400,"station_id":"","pricing_plan_id":"cebpf4jnsgd1na2vs0mg"},{"bike_id":"711b579a-e492-442a-8a08-454e93550a0e","system_id":"levelo_inurba_marseille","lat":43.3211,"lon":5.36773,"is_reserved":false,"is_disabled":false,"rental_uris":{"android":"levelo://app?vid=711b579a-e492-442a-8a08-454e93550a0e","ios":"levelo://app?vid=711b579a-e492-442a-8a08-454e93550a0e"},"vehicle_type_id":"4","last_reported":1756375896,"current_range_meters":24800,"station_id":"ce4bhrh2rcd13ifvqhug","pricing_plan_id":"cebpf4jnsgd1na2vs0mg"},{"bike_id":"07b42f41-4d47-4b8a-ba9a-663fdada443e","system_id":"levelo_inurba_marseille","lat":43.280977,"lon":5.378453,"is_reserved":false,"is_disabled":false,"rental_uris":{"android":"levelo://app?vid=07b42f41-4d47-4b8a-ba9a-663fdada443e","ios":"levelo://app?vid=07b42f41-4d47-4b8a-ba9a-663fdada443e"},"vehicle_type_id":"4","last_reported":1756375896,"current_range_meters":24800,"station_id":"ce4bha12rcd13ifvqee0","pricing_plan_id":"cebpf4jnsgd1na2vs0mg"},{"bike_id":"ad099b50-926e-4ed9-8cec-f63a8b38466a","system_id":"levelo_inurba_marseille","lat":43.29039,"lon":5.39977,"is_reserved":false,"is_disabled":false,"rental_uris":{"android":"levelo://app?vid=ad099b50-926e-4ed9-8cec-f63a8b38466a","ios":"levelo://app?vid=ad099b50-926e-4ed9-8cec-f63a8b38466a"},"vehicle_type_id":"4","last_reported":1756375896,"current_range_meters":24800,"station_id":"ce4bh392rcd13ifvqdm0","pricing_plan_id":"cebpf4jnsgd1na2vs0mg"},{"bike_id":"08024f7e-e8d5-4a37-8aa0-2889fa2a04a0","system_id":"levelo_inurba_marseille","lat":43.30146,"lon":5.37374,"is_reserved":false,"is_disabled":false,"rental_uris":{"android":"levelo://app?vid=08024f7e-e8d5-4a37-8aa0-2889fa2a04a0","ios":"levelo://app?vid=08024f7e-e8d5-4a37-8aa0-2889fa2a04a0"},"vehicle_type_id":"4","last_reported":1756375896,"current_range_meters":24800,"station_id":"ce4bgs92rcd13ifvqcc0","pricing_plan_id":"cebpf4jnsgd1na2vs0mg"},{"bike_id":"cf0e76e6-c6b0-47af-8085-c7d5a90c64ce","system_id":"levelo_inurba_marseille","lat":43.28863,"lon":5.39335,"is_reserved":false,"is_disabled":false,"rental_uris":{"android":"levelo://app?vid=cf0e76e6-c6b0-47af-8085-c7d5a90c64ce","ios":"levelo://app?vid=cf0e76e6-c6b0-47af-8085-c7d5a90c64ce"},"vehicle_type_id":"4","last_reported":1756375896,"current_range_meters":24800,"station_id":"ce4bh2p2rcd13ifvqdi0","pricing_plan_id":"cebpf4jnsgd1na2vs0mg"},{"bike_id":"52445a9d-969d-4194-8338-3903c8755925","system_id":"levelo_inurba_marseille","lat":43.282736,"lon":5.390396,"is_reserved":false,"is_disabled":false,"rental_uris":{"android":"levelo://app?vid=52445a9d-969d-4194-8338-3903c8755925","ios":"levelo://app?vid=52445a9d-969d-4194-8338-3903c8755925"},"vehicle_type_id":"4","last_reported":1756375896,"current_range_meters":24800,"station_id":"","pricing_plan_id":"cebpf4jnsgd1na2vs0mg"},{"bike_id":"e0b4c03b-1691-4b36-9ebc-35fa149798e4","system_id":"levelo_inurba_marseille","lat":43.337628,"lon":5.374401,"is_reserved":false,"is_disabled":false,"rental_uris":{"android":"levelo://app?vid=e0b4c03b-1691-4b36-9ebc-35fa149798e4","ios":"levelo://app?vid=e0b4c03b-1691-4b36-9ebc-35fa149798e4"},"vehicle_type_id":"4","last_reported":1756375896,"current_range_meters":24800,"station_id":"","pricing_plan_id":"cebpf4jnsgd1na2vs0mg"},{"bike_id":"5f78c0d8-63e2-4ebe-b640-dde5e1638924","system_id":"levelo_inurba_marseille","lat":43.26791,"lon":5.394,"is_reserved":false,"is_disabled":false,"rental_uris":{"android":"levelo://app?vid=5f78c0d8-63e2-4ebe-b640-dde5e1638924","ios":"levelo://app?vid=5f78c0d8-63e2-4ebe-b640-dde5e1638924"},"vehicle_type_id":"4","last_reported":1756375896,"current_range_meters":24800,"station_id":"ce4bhh12rcd13ifvqfg0","pricing_plan_id":"cebpf4jnsgd1na2vs0mg"},{"bike_id":"d006301a-69b6-47d3-9977-22caa4973254","system_id":"levelo_inurba_marseille","lat":43.29293,"lon":5.37154,"is_reserved":false,"is_disabled":false,"rental_uris":{"android":"levelo://app?vid=d006301a-69b6-47d3-9977-22caa4973254","ios":"levelo://app?vid=d006301a-69b6-47d3-9977-22caa4973254"},"vehicle_type_id":"4","last_reported":1756375896,"current_range_meters":24800,"station_id":"ce4bgh92rcd13ifvqb40","pricing_plan_id":"cebpf4jnsgd1na2vs0mg"},{"bike_id":"0496713f-18c1-4e84-abcc-cf5136ffa7f0","system_id":"levelo_inurba_marseille","lat":43.30142,"lon":5.37368,"is_reserved":false,"is_disabled":false,"rental_uris":{"android":"levelo://app?vid=0496713f-18c1-4e84-abcc-cf5136ffa7f0","ios":"levelo://app?vid=0496713f-18c1-4e84-abcc-cf5136ffa7f0"},