{"last_updated":1747905094,"ttl":60,"version":"2.2","data":{"bikes":[{"bike_id":"c0b9fd4f-e181-46ce-b0bf-f5119973334f","system_id":"levelo_inurba_marseille","lat":43.33771,"lon":5.37424,"is_reserved":false,"is_disabled":true,"rental_uris":{"android":"levelo://app?vid=c0b9fd4f-e181-46ce-b0bf-f5119973334f","ios":"levelo://app?vid=c0b9fd4f-e181-46ce-b0bf-f5119973334f"},"vehicle_type_id":"4","last_reported":1747905095,"current_range_meters":0,"station_id":"","pricing_plan_id":"cebpf4jnsgd1na2vs0mg"},{"bike_id":"99f73d8c-ff21-451c-8082-80384eaeabfc","system_id":"levelo_inurba_marseille","lat":43.305591,"lon":5.401634,"is_reserved":false,"is_disabled":true,"rental_uris":{"android":"levelo://app?vid=99f73d8c-ff21-451c-8082-80384eaeabfc","ios":"levelo://app?vid=99f73d8c-ff21-451c-8082-80384eaeabfc"},"vehicle_type_id":"4","last_reported":1747905095,"current_range_meters":0,"station_id":"","pricing_plan_id":"cebpf4jnsgd1na2vs0mg"},{"bike_id":"c306fa7d-481e-4ae3-9585-ff4c1f5ddcb9","system_id":"levelo_inurba_marseille","lat":43.35005,"lon":5.37936,"is_reserved":false,"is_disabled":true,"rental_uris":{"android":"levelo://app?vid=c306fa7d-481e-4ae3-9585-ff4c1f5ddcb9","ios":"levelo://app?vid=c306fa7d-481e-4ae3-9585-ff4c1f5ddcb9"},"vehicle_type_id":"4","last_reported":1747905095,"current_range_meters":0,"station_id":"","pricing_plan_id":"cebpf4jnsgd1na2vs0mg"},{"bike_id":"fcdf101c-0271-4d0f-990e-d45c14c34a9b","system_id":"levelo_inurba_marseille","lat":43.28804,"lon":5.36669,"is_reserved":false,"is_disabled":true,"rental_uris":{"android":"levelo://app?vid=fcdf101c-0271-4d0f-990e-d45c14c34a9b","ios":"levelo://app?vid=fcdf101c-0271-4d0f-990e-d45c14c34a9b"},"vehicle_type_id":"4","last_reported":1747905095,"current_range_meters":0,"station_id":"","pricing_plan_id":"cebpf4jnsgd1na2vs0mg"},{"bike_id":"8f0f531d-6a65-4647-8a6f-baa3d982f42f","system_id":"levelo_inurba_marseille","lat":43.28113,"lon":5.42557,"is_reserved":false,"is_disabled":true,"rental_uris":{"android":"levelo://app?vid=8f0f531d-6a65-4647-8a6f-baa3d982f42f","ios":"levelo://app?vid=8f0f531d-6a65-4647-8a6f-baa3d982f42f"},"vehicle_type_id":"4","last_reported":1747905095,"current_range_meters":0,"station_id":"","pricing_plan_id":"cebpf4jnsgd1na2vs0mg"},{"bike_id":"e3cbe215-c566-4c05-8a2b-9292fd480fe5","system_id":"levelo_inurba_marseille","lat":43.27013,"lon":5.40113,"is_reserved":false,"is_disabled":true,"rental_uris":{"android":"levelo://app?vid=e3cbe215-c566-4c05-8a2b-9292fd480fe5","ios":"levelo://app?vid=e3cbe215-c566-4c05-8a2b-9292fd480fe5"},"vehicle_type_id":"4","last_reported":1747905095,"current_range_meters":0,"station_id":"","pricing_plan_id":"cebpf4jnsgd1na2vs0mg"},{"bike_id":"a5bcf3ab-5daa-4dec-898b-27b2e944e103","system_id":"levelo_inurba_marseille","lat":43.2732,"lon":5.40996,"is_reserved":false,"is_disabled":true,"rental_uris":{"android":"levelo://app?vid=a5bcf3ab-5daa-4dec-898b-27b2e944e103","ios":"levelo://app?vid=a5bcf3ab-5daa-4dec-898b-27b2e944e103"},"vehicle_type_id":"4","last_reported":1747905095,"current_range_meters":0,"station_id":"","pricing_plan_id":"cebpf4jnsgd1na2vs0mg"},{"bike_id":"16ffe584-b7f7-4219-bc22-e0a9d524c6cc","system_id":"levelo_inurba_marseille","lat":43.27285,"lon":5.39173,"is_reserved":false,"is_disabled":true,"rental_uris":{"android":"levelo://app?vid=16ffe584-b7f7-4219-bc22-e0a9d524c6cc","ios":"levelo://app?vid=16ffe584-b7f7-4219-bc22-e0a9d524c6cc"},"vehicle_type_id":"4","last_reported":1747905095,"current_range_meters":0,"station_id":"","pricing_plan_id":"cebpf4jnsgd1na2vs0mg"},{"bike_id":"9ebaf44d-66ef-4b85-9a85-1e799edf3ddf","system_id":"levelo_inurba_marseille","lat":43.2475,"lon":5.3898,"is_reserved":false,"is_disabled":true,"rental_uris":{"android":"levelo://app?vid=9ebaf44d-66ef-4b85-9a85-1e799edf3ddf","ios":"levelo://app?vid=9ebaf44d-66ef-4b85-9a85-1e799edf3ddf"},"vehicle_type_id":"4","last_reported":1747905095,"current_range_meters":0,"station_id":"","pricing_plan_id":"cebpf4jnsgd1na2vs0mg"},{"bike_id":"e9dd3aa4-b5e7-4480-926d-d7f537719bfa","system_id":"levelo_inurba_marseille","lat":43.230331,"lon":5.401847,"is_reserved":false,"is_disabled":true,"rental_uris":{"android":"levelo://app?vid=e9dd3aa4-b5e7-4480-926d-d7f537719bfa","ios":"levelo://app?vid=e9dd3aa4-b5e7-4480-926d-d7f537719bfa"},"vehicle_type_id":"4","last_reported":1747905095,"current_range_meters":0,"station_id":"","pricing_plan_id":"cebpf4jnsgd1na2vs0mg"},{"bike_id":"14603e41-b2dd-4757-a53c-2e366aa4f983","system_id":"levelo_inurba_marseille","lat":43.27017,"lon":5.42841,"is_reserved":false,"is_disabled":true,"rental_uris":{"android":"levelo://app?vid=14603e41-b2dd-4757-a53c-2e366aa4f983","ios":"levelo://app?vid=14603e41-b2dd-4757-a53c-2e366aa4f983"},"vehicle_type_id":"4","last_reported":1747905095,"current_range_meters":0,"station_id":"","pricing_plan_id":"cebpf4jnsgd1na2vs0mg"},{"bike_id":"e48480fe-9b2b-44ee-9c25-663e43de08e7","system_id":"levelo_inurba_marseille","lat":43.31501,"lon":5.37304,"is_reserved":false,"is_disabled":true,"rental_uris":{"android":"levelo://app?vid=e48480fe-9b2b-44ee-9c25-663e43de08e7","ios":"levelo://app?vid=e48480fe-9b2b-44ee-9c25-663e43de08e7"},"vehicle_type_id":"4","last_reported":1747905095,"current_range_meters":0,"station_id":"ce4bgt12rcd13ifvqcd0","pricing_plan_id":"cebpf4jnsgd1na2vs0mg"},{"bike_id":"1b839980-67f7-4678-826c-6f434959ebca","system_id":"levelo_inurba_marseille","lat":43.28478,"lon":5.38581,"is_reserved":false,"is_disabled":true,"rental_uris":{"android":"levelo://app?vid=1b839980-67f7-4678-826c-6f434959ebca","ios":"levelo://app?vid=1b839980-67f7-4678-826c-6f434959ebca"},"vehicle_type_id":"4","last_reported":1747905095,"current_range_meters":0,"station_id":"ce4bh8p2rcd13ifvqeb0","pricing_plan_id":"cebpf4jnsgd1na2vs0mg"},{"bike_id":"28f5641c-3b88-45e6-8a4e-c4db2aff452a","system_id":"levelo_inurba_marseille","lat":43.28039,"lon":5.36945,"is_reserved":false,"is_disabled":true,"rental_uris":{"android":"levelo://app?vid=28f5641c-3b88-45e6-8a4e-c4db2aff452a","ios":"levelo://app?vid=28f5641c-3b88-45e6-8a4e-c4db2aff452a"},"vehicle_type_id":"4","last_reported":1747905095,"current_range_meters":0,"station_id":"ce4bha12rcd13ifvqef0","pricing_plan_id":"cebpf4jnsgd1na2vs0mg"},{"bike_id":"398a49fa-45fd-4ba9-8722-0d3bd2011316","system_id":"levelo_inurba_marseille","lat":43.29259,"lon":5.36849,"is_reserved":false,"is_disabled":true,"rental_uris":{"android":"levelo://app?vid=398a49fa-45fd-4ba9-8722-0d3bd2011316","ios":"levelo://app?vid=398a49fa-45fd-4ba9-8722-0d3bd2011316"},"vehicle_type_id":"4","last_reported":1747905095,"current_range_meters":0,"station_id":"ce4bhbp2rcd13ifvqesg","pricing_plan_id":"cebpf4jnsgd1na2vs0mg"},{"bike_id":"459224c1-2dac-44e2-a70f-41c202d37cb3","system_id":"levelo_inurba_marseille","lat":43.27941,"lon":5.38703,"is_reserved":false,"is_disabled":true,"rental_uris":{"android":"levelo://app?vid=459224c1-2dac-44e2-a70f-41c202d37cb3","ios":"levelo://app?vid=459224c1-2dac-44e2-a70f-41c202d37cb3"},"vehicle_type_id":"4","last_reported":1747905095,"current_range_meters":0,"station_id":"ce4bhg12rcd13ifvqf80","pricing_plan_id":"cebpf4jnsgd1na2vs0mg"},{"bike_id":"4c451455-b081-43c2-b901-9d6314d820be","system_id":"levelo_inurba_marseille","lat":43.27953,"lon":5.38709,"is_reserved":false,"is_disabled":true,"rental_uris":{"android":"levelo://app?vid=4c451455-b081-43c2-b901-9d6314d820be","ios":"levelo://app?vid=4c451455-b081-43c2-b901-9d6314d820be"},"vehicle_type_id":"4","last_reported":1747905095,"current_range_meters":0,"station_id":"ce4bhg12rcd13ifvqf80","pricing_plan_id":"cebpf4jnsgd1na2vs0mg"},{"bike_id":"d1624019-07d7-41bc-a98e-77b36bc167b9","system_id":"levelo_inurba_marseille","lat":43.25873,"lon":5.39894,"is_reserved":false,"is_disabled":true,"rental_uris":{"android":"levelo://app?vid=d1624019-07d7-41bc-a98e-77b36bc167b9","ios":"levelo://app?vid=d1624019-07d7-41bc-a98e-77b36bc167b9"},"vehicle_type_id":"4","last_reported":1747905095,"current_range_meters":0,"station_id":"ce4bhl92rcd13ifvqghg","pricing_plan_id":"cebpf4jnsgd1na2vs0mg"},{"bike_id":"3dc9bdf1-c6a9-45a5-a068-39a7601ce50b","system_id":"levelo_inurba_marseille","lat":43.25905,"lon":5.39389,"is_reserved":false,"is_disabled":true,"rental_uris":{"android":"levelo://app?vid=3dc9bdf1-c6a9-45a5-a068-39a7601ce50b","ios":"levelo://app?vid=3dc9bdf1-c6a9-45a5-a068-39a7601ce50b"},"vehicle_type_id":"4","last_reported":1747905095,"current_range_meters":0,"station_id":"ce501612rcd8frsf0b60","pricing_plan_id":"cebpf4jnsgd1na2vs0mg"},{"bike_id":"85eaca89-9437-48d0-9bca-a254337b88db","system_id":"levelo_inurba_marseille","lat":43.27464,"lon":5.40956,"is_reserved":false,"is_disabled":true,"rental_uris":{"android":"levelo://app?vid=85eaca89-9437-48d0-9bca-a254337b88db","ios":"levelo://app?vid=85eaca89-9437-48d0-9bca-a254337b88db"},"vehicle_type_id":"4","last_reported":1747905095,"current_range_meters":400,"station_id":"","pricing_plan_id":"cebpf4jnsgd1na2vs0mg"},{"bike_id":"bf9a47c3-1332-47d3-9f10-1c6263f4cc25","system_id":"levelo_inurba_marseille","lat":43.30936,"lon":5.39013,"is_reserved":false,"is_disabled":true,"rental_uris":{"android":"levelo://app?vid=bf9a47c3-1332-47d3-9f10-1c6263f4cc25","ios":"levelo://app?vid=bf9a47c3-1332-47d3-9f10-1c6263f4cc25"},"vehicle_type_id":"4","last_reported":1747905095,"current_range_meters":400,"station_id":"ce4bgup2rcd13ifvqco0","pricing_plan_id":"cebpf4jnsgd1na2vs0mg"},{"bike_id":"332440ad-7b76-4805-b4b3-82951a26d8a0","system_id":"levelo_inurba_marseille","lat":43.2842,"lon":5.3498,"is_reserved":false,"is_disabled":true,"rental_uris":{"android":"levelo://app?vid=332440ad-7b76-4805-b4b3-82951a26d8a0","ios":"levelo://app?vid=332440ad-7b76-4805-b4b3-82951a26d8a0"},"vehicle_type_id":"4","last_reported":1747905095,"current_range_meters":400,"station_id":"ce4bhbh2rcd13ifvqepg","pricing_plan_id":"cebpf4jnsgd1na2vs0mg"},{"bike_id":"5c68561c-28de-40ad-a285-2f59f9116211","system_id":"levelo_inurba_marseille","lat":43.335938,"lon":5.410202,"is_reserved":false,"is_disabled":true,"rental_uris":{"android":"levelo://app?vid=5c68561c-28de-40ad-a285-2f59f9116211","ios":"levelo://app?vid=5c68561c-28de-40ad-a285-2f59f9116211"},"vehicle_type_id":"4","last_reported":1747905095,"current_range_meters":400,"station_id":"ce4bhqh2rcd13ifvqhmg","pricing_plan_id":"cebpf4jnsgd1na2vs0mg"},{"bike_id":"70c5c5ad-5e66-4a49-9450-c4d67d96b788","system_id":"levelo_inurba_marseille","lat":43.27097,"lon":5.42706,"is_reserved":false,"is_disabled":true,"rental_uris":{"android":"levelo://app?vid=70c5c5ad-5e66-4a49-9450-c4d67d96b788","ios":"levelo://app?vid=70c5c5ad-5e66-4a49-9450-c4d67d96b788"},"vehicle_type_id":"4","last_reported":1747905095,"current_range_meters":800,"station_id":"","pricing_plan_id":"cebpf4jnsgd1na2vs0mg"},{"bike_id":"0a1ea2a1-9ae3-4475-bb3e-5a64e86342d5","system_id":"levelo_inurba_marseille","lat":43.28269,"lon":5.35061,"is_reserved":false,"is_disabled":true,"rental_uris":{"android":"levelo://app?vid=0a1ea2a1-9ae3-4475-bb3e-5a64e86342d5","ios":"levelo://app?vid=0a1ea2a1-9ae3-4475-bb3e-5a64e86342d5"},"vehicle_type_id":"4","last_reported":1747905095,"current_range_meters":800,"station_id":"ce4bhbp2rcd13ifvqerg","pricing_plan_id":"cebpf4jnsgd1na2vs0mg"},{"bike_id":"9ae0f876-afec-4474-959c-a8ed39b16730","system_id":"levelo_inurba_marseille","lat":43.2742,"lon":5.39395,"is_reserved":false,"is_disabled":true,"rental_uris":{"android":"levelo://app?vid=9ae0f876-afec-4474-959c-a8ed39b16730","ios":"levelo://app?vid=9ae0f876-afec-4474-959c-a8ed39b16730"},"vehicle_type_id":"4","last_reported":1747905095,"current_range_meters":800,"station_id":"ce4bhdp2rcd13ifvqf20","pricing_plan_id":"cebpf4jnsgd1na2vs0mg"},{"bike_id":"8c49333a-4d73-42d6-866d-43001ed64431","system_id":"levelo_inurba_marseille","lat":43.21763,"lon":5.34599,"is_reserved":false,"is_disabled":true,"rental_uris":{"android":"levelo://app?vid=8c49333a-4d73-42d6-866d-43001ed64431","ios":"levelo://app?vid=8c49333a-4d73-42d6-866d-43001ed64431"},"vehicle_type_id":"4","last_reported":1747905095,"current_range_meters":800,"station_id":"st_cvj6r9ubvosntc0bgbag","pricing_plan_id":"cebpf4jnsgd1na2vs0mg"},{"bike_id":"89c41a85-6e5f-47f3-a5d5-4b9826b4d554","system_id":"levelo_inurba_marseille","lat":43.300942,"lon":5.39749,"is_reserved":false,"is_disabled":true,"rental_uris":{"android":"levelo://app?vid=89c41a85-6e5f-47f3-a5d5-4b9826b4d554","ios":"levelo://app?vid=89c41a85-6e5f-47f3-a5d5-4b9826b4d554"},"vehicle_type_id":"4","last_reported":1747905095,"current_range_meters":1200,"station_id":"ce4bh0h2rcd13ifvqd60","pricing_plan_id":"cebpf4jnsgd1na2vs0mg"},{"bike_id":"15dcdbbd-a41e-43eb-9ed6-26ec15ce7a50","system_id":"levelo_inurba_marseille","lat":43.21418,"lon":5.34113,"is_reserved":false,"is_disabled":true,"rental_uris":{"android":"levelo://app?vid=15dcdbbd-a41e-43eb-9ed6-26ec15ce7a50","ios":"levelo://app?vid=15dcdbbd-a41e-43eb-9ed6-26ec15ce7a50"},"vehicle_type_id":"4","last_reported":1747905095,"current_range_meters":1600,"station_id":"","pricing_plan_id":"cebpf4jnsgd1na2vs0mg"},{"bike_id":"a9e78756-0ba0-4549-a5fb-d93e0eb134cf","system_id":"levelo_inurba_marseille","lat":43.30885,"lon":5.39663,"is_reserved":false,"is_disabled":true,"rental_uris":{"android":"levelo://app?vid=a9e78756-0ba0-4549-a5fb-d93e0eb134cf","ios":"levelo://app?vid=a9e78756-0ba0-4549-a5fb-d93e0eb134cf"},"vehicle_type_id":"4","last_reported":1747905095,"current_range_meters":1600,"station_id":"ce4bh012rcd13ifvqcv0","pricing_plan_id":"cebpf4jnsgd1na2vs0mg"},{"bike_id":"b9874766-6903-4dcc-ab85-d483afda310b","system_id":"levelo_inurba_marseille","lat":43.2594,"lon":5.40902,"is_reserved":false,"is_disabled":true,"rental_uris":{"android":"levelo://app?vid=b9874766-6903-4dcc-ab85-d483afda310b","ios":"levelo://app?vid=b9874766-6903-4dcc-ab85-d483afda310b"},"vehicle_type_id":"4","last_reported":1747905095,"current_range_meters":1600,"station_id":"ce4bhm92rcd13ifvqglg","pricing_plan_id":"cebpf4jnsgd1na2vs0mg"},{"bike_id":"3d1e4e9a-c99a-4008-a77d-416895b1f654","system_id":"levelo_inurba_marseille","lat":43.31233,"lon":5.36858,"is_reserved":false,"is_disabled":true,"rental_uris":{"android":"levelo://app?vid=3d1e4e9a-c99a-4008-a77d-416895b1f654","ios":"levelo://app?vid=3d1e4e9a-c99a-4008-a77d-416895b1f654"},"vehicle_type_id":"4","last_reported":1747905095,"current_range_meters":2000,"station_id":"ce4bgl92rcd13ifvqbq0","pricing_plan_id":"cebpf4jnsgd1na2vs0mg"},{"bike_id":"3dc3478b-7366-4a3d-a716-3318b9d9bb80","system_id":"levelo_inurba_marseille","lat":43.30956,"lon":5.39039,"is_reserved":false,"is_disabled":true,"rental_uris":{"android":"levelo://app?vid=3dc3478b-7366-4a3d-a716-3318b9d9bb80","ios":"levelo://app?vid=3dc3478b-7366-4a3d-a716-3318b9d9bb80"},"vehicle_type_id":"4","last_reported":1747905095,"current_range_meters":2000,"station_id":"ce4bgup2rcd13ifvqco0","pricing_plan_id":"cebpf4jnsgd1na2vs0mg"},{"bike_id":"b2924af1-d015-43cd-bd52-950363edaf7a","system_id":"levelo_inurba_marseille","lat":43.290906,"lon":5.381245,"is_reserved":false,"is_disabled":true,"rental_uris":{"android":"levelo://app?vid=b2924af1-d015-43cd-bd52-950363edaf7a","ios":"levelo://app?vid=b2924af1-d015-43cd-bd52-950363edaf7a"},"vehicle_type_id":"4","last_reported":1747905095,"current_range_meters":2000,"station_id":"ce4bh512rcd13ifvqe2g","pricing_plan_id":"cebpf4jnsgd1na2vs0mg"},{"bike_id":"b39b5564-25b6-482c-a8ed-75595ba2f676","system_id":"levelo_inurba_marseille","lat":43.27072,"lon":5.42293,"is_reserved":false,"is_disabled":true,"rental_uris":{"android":"levelo://app?vid=b39b5564-25b6-482c-a8ed-75595ba2f676","ios":"levelo://app?vid=b39b5564-25b6-482c-a8ed-75595ba2f676"},"vehicle_type_id":"4","last_reported":1747905095,"current_range_meters":2000,"station_id":"ce4bhk92rcd13ifvqgb0","pricing_plan_id":"cebpf4jnsgd1na2vs0mg"},{"bike_id":"8ea6434c-dc18-4de8-9a6c-f543a6df71a8","system_id":"levelo_inurba_marseille","lat":43.23154,"lon":5.43711,"is_reserved":false,"is_disabled":true,"rental_uris":{"android":"levelo://app?vid=8ea6434c-dc18-4de8-9a6c-f543a6df71a8","ios":"levelo://app?vid=8ea6434c-dc18-4de8-9a6c-f543a6df71a8"},"vehicle_type_id":"4","last_reported":1747905095,"current_range_meters":2000,"station_id":"ce4bhmp2rcd13ifvqgog","pricing_plan_id":"cebpf4jnsgd1na2vs0mg"},{"bike_id":"6bbb3ae4-3edd-4b00-9ef1-2eee7e19ed9b","system_id":"levelo_inurba_marseille","lat":43.30418,"lon":5.36848,"is_reserved":false,"is_disabled":false,"rental_uris":{"android":"levelo://app?vid=6bbb3ae4-3edd-4b00-9ef1-2eee7e19ed9b","ios":"levelo://app?vid=6bbb3ae4-3edd-4b00-9ef1-2eee7e19ed9b"},"vehicle_type_id":"4","last_reported":1747905095,"current_range_meters":2800,"station_id":"","pricing_plan_id":"cebpf4jnsgd1na2vs0mg"},{"bike_id":"addacb63-eaa1-4b88-b2d5-f495030c26ce","system_id":"levelo_inurba_marseille","lat":43.23168,"lon":5.43718,"is_reserved":false,"is_disabled":false,"rental_uris":{"android":"levelo://app?vid=addacb63-eaa1-4b88-b2d5-f495030c26ce","ios":"levelo://app?vid=addacb63-eaa1-4b88-b2d5-f495030c26ce"},"vehicle_type_id":"4","last_reported":1747905095,"current_range_meters":2800,"station_id":"ce4bhmp2rcd13ifvqgog","pricing_plan_id":"cebpf4jnsgd1na2vs0mg"},{"bike_id":"5281ff50-15a3-4882-a775-51088d6a98cc","system_id":"levelo_inurba_marseille","lat":43.31502,"lon":5.37243,"is_reserved":false,"is_disabled":false,"rental_uris":{"android":"levelo://app?vid=5281ff50-15a3-4882-a775-51088d6a98cc","ios":"levelo://app?vid=5281ff50-15a3-4882-a775-51088d6a98cc"},"vehicle_type_id":"4","last_reported":1747905095,"current_range_meters":3200,"station_id":"","pricing_plan_id":"cebpf4jnsgd1na2vs0mg"},{"bike_id":"6bf1b2a1-4f49-4bd2-ad2d-888585ebe386","system_id":"levelo_inurba_marseille","lat":43.29488,"lon":5.37755,"is_reserved":false,"is_disabled":false,"rental_uris":{"android":"levelo://app?vid=6bf1b2a1-4f49-4bd2-ad2d-888585ebe386","ios":"levelo://app?vid=6bf1b2a1-4f49-4bd2-ad2d-888585ebe386"},"vehicle_type_id":"4","last_reported":1747905095,"current_range_meters":3200,"station_id":"","pricing_plan_id":"cebpf4jnsgd1na2vs0mg"},{"bike_id":"538b94d2-9a3e-4acc-9dbd-505954b85ed7","system_id":"levelo_inurba_marseille","lat":43.30951,"lon":5.39038,"is_reserved":false,"is_disabled":false,"rental_uris":{"android":"levelo://app?vid=538b94d2-9a3e-4acc-9dbd-505954b85ed7","ios":"levelo://app?vid=538b94d2-9a3e-4acc-9dbd-505954b85ed7"},"vehicle_type_id":"4","last_reported":1747905095,"current_range_meters":3200,"station_id":"ce4bgup2rcd13ifvqco0","pricing_plan_id":"cebpf4jnsgd1na2vs0mg"},{"bike_id":"571703b0-e125-49ea-9f0f-b0e7bb850179","system_id":"levelo_inurba_marseille","lat":43.29076,"lon":5.37178,"is_reserved":false,"is_disabled":false,"rental_uris":{"android":"levelo://app?vid=571703b0-e125-49ea-9f0f-b0e7bb850179","ios":"levelo://app?vid=571703b0-e125-49ea-9f0f-b0e7bb850179"},"vehicle_type_id":"4","last_reported":1747905095,"current_range_meters":3200,"station_id":"ce4bh5p2rcd13ifvqe4g","pricing_plan_id":"cebpf4jnsgd1na2vs0mg"},{"bike_id":"ca1ef42c-a88e-4a5c-bdc1-61570156b583","system_id":"levelo_inurba_marseille","lat":43.2316,"lon":5.43726,"is_reserved":false,"is_disabled":false,"rental_uris":{"android":"levelo://app?vid=ca1ef42c-a88e-4a5c-bdc1-61570156b583","ios":"levelo://app?vid=ca1ef42c-a88e-4a5c-bdc1-61570156b583"},"vehicle_type_id":"4","last_reported":1747905095,"current_range_meters":3200,"station_id":"ce4bhmp2rcd13ifvqgog","pricing_plan_id":"cebpf4jnsgd1na2vs0mg"},{"bike_id":"cce985cb-1983-4ff1-a8ea-0d8180cd2179","system_id":"levelo_inurba_marseille","lat":43.27498,"lon":5.42449,"is_reserved":false,"is_disabled":false,"rental_uris":{"android":"levelo://app?vid=cce985cb-1983-4ff1-a8ea-0d8180cd2179","ios":"levelo://app?vid=cce985cb-1983-4ff1-a8ea-0d8180cd2179"},"vehicle_type_id":"4","last_reported":1747905095,"current_range_meters":3200,"station_id":"ce4bhn92rcd13ifvqgrg","pricing_plan_id":"cebpf4jnsgd1na2vs0mg"},{"bike_id":"0c4b6638-f1ec-460e-8063-7863c3cfd732","system_id":"levelo_inurba_marseille","lat":43.21769,"lon":5.34594,"is_reserved":false,"is_disabled":false,"rental_uris":{"android":"levelo://app?vid=0c4b6638-f1ec-460e-8063-7863c3cfd732","ios":"levelo://app?vid=0c4b6638-f1ec-460e-8063-7863c3cfd732"},"vehicle_type_id":"4","last_reported":1747905095,"current_range_meters":3200,"station_id":"st_cvj6r9ubvosntc0bgbag","pricing_plan_id":"cebpf4jnsgd1na2vs0mg"},{"bike_id":"b8b511c7-6f48-45be-97af-1e0036b54cc5","system_id":"levelo_inurba_marseille","lat":43.27368,"lon":5.42419,"is_reserved":false,"is_disabled":false,"rental_uris":{"android":"levelo://app?vid=b8b511c7-6f48-45be-97af-1e0036b54cc5","ios":"levelo://app?vid=b8b511c7-6f48-45be-97af-1e0036b54cc5"},"vehicle_type_id":"4","last_reported":1747905095,"current_range_meters":4000,"station_id":"","pricing_plan_id":"cebpf4jnsgd1na2vs0mg"},{"bike_id":"2266ce5a-ca61-4dd4-8dac-cff9ad7888ee","system_id":"levelo_inurba_marseille","lat":43.29561,"lon":5.37498,"is_reserved":false,"is_disabled":false,"rental_uris":{"android":"levelo://app?vid=2266ce5a-ca61-4dd4-8dac-cff9ad7888ee","ios":"levelo://app?vid=2266ce5a-ca61-4dd4-8dac-cff9ad7888ee"},"vehicle_type_id":"4","last_reported":1747905095,"current_range_meters":4000,"station_id":"ce4bgh92rcd13ifvqb50","pricing_plan_id":"cebpf4jnsgd1na2vs0mg"},{"bike_id":"f7c3e8a6-eda6-4497-8d7b-a61625a3ad7f","system_id":"levelo_inurba_marseille","lat":43.30299,"lon":5.36906,"is_reserved":false,"is_disabled":false,"rental_uris":{"android":"levelo://app?vid=f7c3e8a6-eda6-4497-8d7b-a61625a3ad7f","ios":"levelo://app?vid=f7c3e8a6-eda6-4497-8d7b-a61625a3ad7f"},"vehicle_type_id":"4","last_reported":1747905095,"current_range_meters":4000,"station_id":"ce4bgqh2rcd13ifvqc5g","pricing_plan_id":"cebpf4jnsgd1na2vs0mg"},{"bike_id":"b8b09cf3-9f8f-4e78-ac86-9b60fd91cc49","system_id":"levelo_inurba_marseille","lat":43.26794,"lon":5.39409,"is_reserved":false,"is_disabled":false,"rental_uris":{"android":"levelo://app?vid=b8b09cf3-9f8f-4e78-ac86-9b60fd91cc49","ios":"levelo://app?vid=b8b09cf3-9f8f-4e78-ac86-9b60fd91cc49"},"vehicle_type_id":"4","last_reported":1747905095,"current_range_meters":4000,"station_id":"ce4bhh12rcd13ifvqfg0","pricing_plan_id":"cebpf4jnsgd1na2vs0mg"},{"bike_id":"df6a4b18-aa8f-4efd-94ab-a6d6f525e606","system_id":"levelo_inurba_marseille","lat":43.28151,"lon":5.42647,"is_reserved":false,"is_disabled":false,"rental_uris":{"android":"levelo://app?vid=df6a4b18-aa8f-4efd-94ab-a6d6f525e606","ios":"levelo://app?vid=df6a4b18-aa8f-4efd-94ab-a6d6f525e606"},"vehicle_type_id":"4","last_reported":1747905095,"current_range_meters":4000,"station_id":"ce4bhnh2rcd13ifvqgug","pricing_plan_id":"cebpf4jnsgd1na2vs0mg"},{"bike_id":"e8162579-a5ad-485f-ad83-fec8a2ebe7e1","system_id":"levelo_inurba_marseille","lat":43.26826,"lon":5.39099,"is_reserved":false,"is_disabled":false,"rental_uris":{"android":"levelo://app?vid=e8162579-a5ad-485f-ad83-fec8a2ebe7e1","ios":"levelo://app?vid=e8162579-a5ad-485f-ad83-fec8a2ebe7e1"},"vehicle_type_id":"4","last_reported":1747905095,"current_range_meters":4400,"station_id":"","pricing_plan_id":"cebpf4jnsgd1na2vs0mg"},{"bike_id":"3552fbf2-b43a-446f-93f5-d695fc251b73","system_id":"levelo_inurba_marseille","lat":43.25288,"lon":5.37485,"is_reserved":false,"is_disabled":false,"rental_uris":{"android":"levelo://app?vid=3552fbf2-b43a-446f-93f5-d695fc251b73","ios":"levelo://app?vid=3552fbf2-b43a-446f-93f5-d695fc251b73"},"vehicle_type_id":"4","last_reported":1747905095,"current_range_meters":4400,"station_id":"","pricing_plan_id":"cebpf4jnsgd1na2vs0mg"},{"bike_id":"f59358dd-8069-4dd4-b094-3ee016c20e17","system_id":"levelo_inurba_marseille","lat":43.30184,"lon":5.36626,"is_reserved":false,"is_disabled":false,"rental_uris":{"android":"levelo://app?vid=f59358dd-8069-4dd4-b094-3ee016c20e17","ios":"levelo://app?vid=f59358dd-8069-4dd4-b094-3ee016c20e17"},"vehicle_type_id":"4","last_reported":1747905095,"current_range_meters":4400,"station_id":"ce4bgrh2rcd13ifvqc8g","pricing_plan_id":"cebpf4jnsgd1na2vs0mg"},{"bike_id":"c3c90fb6-5c3a-454c-a087-a7f0d0df9e8d","system_id":"levelo_inurba_marseille","lat":43.308807,"lon":5.37197,"is_reserved":false,"is_disabled":false,"rental_uris":{"android":"levelo://app?vid=c3c90fb6-5c3a-454c-a087-a7f0d0df9e8d","ios":"levelo://app?vid=c3c90fb6-5c3a-454c-a087-a7f0d0df9e8d"},"vehicle_type_id":"4","last_reported":1747905095,"current_range_meters":4400,"station_id":"ce4bguh2rcd13ifvqckg","pricing_plan_id":"cebpf4jnsgd1na2vs0mg"},{"bike_id":"13852aa7-550e-4b6f-a110-e72aeae1d444","system_id":"levelo_inurba_marseille","lat":43.30949,"lon":5.39044,"is_reserved":false,"is_disabled":false,"rental_uris":{"android":"levelo://app?vid=13852aa7-550e-4b6f-a110-e72aeae1d444","ios":"levelo://app?vid=13852aa7-550e-4b6f-a110-e72aeae1d444"},"vehicle_type_id":"4","last_reported":1747905095,"current_range_meters":4400,"station_id":"ce4bgup2rcd13ifvqco0","pricing_plan_id":"cebpf4jnsgd1na2vs0mg"},{"bike_id":"1fc4cf35-3a3c-48e7-a180-a275962944a0","system_id":"levelo_inurba_marseille","lat":43.289397,"lon":5.366538,"is_reserved":false,"is_disabled":false,"rental_uris":{"android":"levelo://app?vid=1fc4cf35-3a3c-48e7-a180-a275962944a0","ios":"levelo://app?vid=1fc4cf35-3a3c-48e7-a180-a275962944a0"},"vehicle_type_id":"4","last_reported":1747905095,"current_range_meters":4400,"station_id":"ce4bhap2rcd13ifvqek0","pricing_plan_id":"cebpf4jnsgd1na2vs0mg"},{"bike_id":"7fac0dd4-4b22-4d4b-9faf-30b238872e06","system_id":"levelo_inurba_marseille","lat":43.25002,"lon":5.38931,"is_reserved":false,"is_disabled":false,"rental_uris":{"android":"levelo://app?vid=7fac0dd4-4b22-4d4b-9faf-30b238872e06","ios":"levelo://app?vid=7fac0dd4-4b22-4d4b-9faf-30b238872e06"},"vehicle_type_id":"4","last_reported":1747905095,"current_range_meters":4400,"station_id":"ce4bhgp2rcd13ifvqfd0","pricing_plan_id":"cebpf4jnsgd1na2vs0mg"},{"bike_id":"9f70a4fc-732e-48fb-832b-3e29e1e63196","system_id":"levelo_inurba_marseille","lat":43.25117,"lon":5.4032,"is_reserved":false,"is_disabled":false,"rental_uris":{"android":"levelo://app?vid=9f70a4fc-732e-48fb-832b-3e29e1e63196","ios":"levelo://app?vid=9f70a4fc-732e-48fb-832b-3e29e1e63196"},"vehicle_type_id":"4","last_reported":1747905095,"current_range_meters":4400,"station_id":"ce4bhlh2rcd13ifvqgig","pricing_plan_id":"cebpf4jnsgd1na2vs0mg"},{"bike_id":"8b2dd587-b602-4676-925a-6a835bc1f9e5","system_id":"levelo_inurba_marseille","lat":43.24085,"lon":5.37732,"is_reserved":false,"is_disabled":false,"rental_uris":{"android":"levelo://app?vid=8b2dd587-b602-4676-925a-6a835bc1f9e5","ios":"levelo://app?vid=8b2dd587-b602-4676-925a-6a835bc1f9e5"},"vehicle_type_id":"4","last_reported":1747905095,"current_range_meters":4400,"station_id":"ce4bhnp2rcd13ifvqgvg","pricing_plan_id":"cebpf4jnsgd1na2vs0mg"},{"bike_id":"56bd152b-94b5-4ae8-9b5d-3cfcf8cf4c1d","system_id":"levelo_inurba_marseille","lat":43.336,"lon":5.41027,"is_reserved":false,"is_disabled":false,"rental_uris":{"android":"levelo://app?vid=56bd152b-94b5-4ae8-9b5d-3cfcf8cf4c1d","ios":"levelo://app?vid=56bd152b-94b5-4ae8-9b5d-3cfcf8cf4c1d"},"vehicle_type_id":"4","last_reported":1747905095,"current_range_meters":4400,"station_id":"ce4bhqh2rcd13ifvqhmg","pricing_plan_id":"cebpf4jnsgd1na2vs0mg"},{"bike_id":"fad268c7-5ead-4090-b820-6567068ce0e0","system_id":"levelo_inurba_marseille","lat":43.314813,"lon":5.372958,"is_reserved":false,"is_disabled":false,"rental_uris":{"android":"levelo://app?vid=fad268c7-5ead-4090-b820-6567068ce0e0","ios":"levelo://app?vid=fad268c7-5ead-4090-b820-6567068ce0e0"},"vehicle_type_id":"4","last_reported":1747905095,"current_range_meters":4800,"station_id":"ce4bgt12rcd13ifvqcd0","pricing_plan_id":"cebpf4jnsgd1na2vs0mg"},{"bike_id":"1ff4dd87-bf56-4ab1-8365-aad71fcb827c","system_id":"levelo_inurba_marseille","lat":43.32629,"lon":5.4271,"is_reserved":false,"is_disabled":false,"rental_uris":{"android":"levelo://app?vid=1ff4dd87-bf56-4ab1-8365-aad71fcb827c","ios":"levelo://app?vid=1ff4dd87-bf56-4ab1-8365-aad71fcb827c"},"vehicle_type_id":"4","last_reported":1747905095,"current_range_meters":5600,"station_id":"","pricing_plan_id":"cebpf4jnsgd1na2vs0mg"},{"bike_id":"04547f1e-5efd-46ee-ab80-117d35f74f27","system_id":"levelo_inurba_marseille","lat":43.298096,"lon":5.380963,"is_reserved":false,"is_disabled":false,"rental_uris":{"android":"levelo://app?vid=04547f1e-5efd-46ee-ab80-117d35f74f27","ios":"levelo://app?vid=04547f1e-5efd-46ee-ab80-117d35f74f27"},"vehicle_type_id":"4","last_reported":1747905095,"current_range_meters":5600,"station_id":"ce4bgip2rcd13ifvqbb0","pricing_plan_id":"cebpf4jnsgd1na2vs0mg"},{"bike_id":"7b19ae3d-375f-484a-ac22-3d52f30e632f","system_id":"levelo_inurba_marseille","lat":43.23194,"lon":5.39991,"is_reserved":false,"is_disabled":false,"rental_uris":{"android":"levelo://app?vid=7b19ae3d-375f-484a-ac22-3d52f30e632f","ios":"levelo://app?vid=7b19ae3d-375f-484a-ac22-3d52f30e632f"},"vehicle_type_id":"4","last_reported":1747905095,"current_range_meters":5600,"station_id":"ce4bhn12rcd13ifvqgqg","pricing_plan_id":"cebpf4jnsgd1na2vs0mg"},{"bike_id":"ec6145b0-2589-455b-9b73-4aba44f3d671","system_id":"levelo_inurba_marseille","lat":43.32482,"lon":5.36577,"is_reserved":false,"is_disabled":false,"rental_uris":{"android":"levelo://app?vid=ec6145b0-2589-455b-9b73-4aba44f3d671","ios":"levelo://app?vid=ec6145b0-2589-455b-9b73-4aba44f3d671"},"vehicle_type_id":"4","last_reported":1747905095,"current_range_meters":5600,"station_id":"ce4bhs12rcd13ifvqhvg","pricing_plan_id":"cebpf4jnsgd1na2vs0mg"},{"bike_id":"5af9bae1-40be-495e-9138-c3f349fc3002","system_id":"levelo_inurba_marseille","lat":43.27492,"lon":5.42451,"is_reserved":false,"is_disabled":false,"rental_uris":{"android":"levelo://app?vid=5af9bae1-40be-495e-9138-c3f349fc3002","ios":"levelo://app?vid=5af9bae1-40be-495e-9138-c3f349fc3002"},"vehicle_type_id":"4","last_reported":1747905095,"current_range_meters":6000,"station_id":"ce4bhn92rcd13ifvqgrg","pricing_plan_id":"cebpf4jnsgd1na2vs0mg"},{"bike_id":"523c51a0-4f9e-4594-9a7b-b8d370f02cd8","system_id":"levelo_inurba_marseille","lat":43.24069,"lon":5.377701,"is_reserved":false,"is_disabled":false,"rental_uris":{"android":"levelo://app?vid=523c51a0-4f9e-4594-9a7b-b8d370f02cd8","ios":"levelo://app?vid=523c51a0-4f9e-4594-9a7b-b8d370f02cd8"},"vehicle_type_id":"4","last_reported":1747905095,"current_range_meters":6000,"station_id":"ce4bhnp2rcd13ifvqgvg","pricing_plan_id":"cebpf4jnsgd1na2vs0mg"},{"bike_id":"739411a1-d513-47ef-ae34-093ea78ce6a1","system_id":"levelo_inurba_marseille","lat":43.312296,"lon":5.368599,"is_reserved":false,"is_disabled":false,"rental_uris":{"android":"levelo://app?vid=739411a1-d513-47ef-ae34-093ea78ce6a1","ios":"levelo://app?vid=739411a1-d513-47ef-ae34-093ea78ce6a1"},"vehicle_type_id":"4","last_reported":1747905095,"current_range_meters":6400,"station_id":"ce4bgl92rcd13ifvqbq0","pricing_plan_id":"cebpf4jnsgd1na2vs0mg"},{"bike_id":"d23b91b8-41e5-43e7-9471-7d2f694613e8","system_id":"levelo_inurba_marseille","lat":43.31071,"lon":5.38368,"is_reserved":false,"is_disabled":false,"rental_uris":{"android":"levelo://app?vid=d23b91b8-41e5-43e7-9471-7d2f694613e8","ios":"levelo://app?vid=d23b91b8-41e5-43e7-9471-7d2f694613e8"},"vehicle_type_id":"4","last_reported":1747905095,"current_range_meters":6400,"station_id":"ce4bgv92rcd13ifvqcr0","pricing_plan_id":"cebpf4jnsgd1na2vs0mg"},{"bike_id":"82d9224e-c124-406b-bd49-1d2e39a4165e","system_id":"levelo_inurba_marseille","lat":43.23189,"lon":5.39978,"is_reserved":false,"is_disabled":false,"rental_uris":{"android":"levelo://app?vid=82d9224e-c124-406b-bd49-1d2e39a4165e","ios":"levelo://app?vid=82d9224e-c124-406b-bd49-1d2e39a4165e"},"vehicle_type_id":"4","last_reported":1747905095,"current_range_meters":6400,"station_id":"ce4bhn12rcd13ifvqgqg","pricing_plan_id":"cebpf4jnsgd1na2vs0mg"},{"bike_id":"47c68b3e-66f9-4e8c-9820-ab039038b62e","system_id":"levelo_inurba_marseille","lat":43.267807,"lon":5.3942,"is_reserved":false,"is_disabled":false,"rental_uris":{"android":"levelo://app?vid=47c68b3e-66f9-4e8c-9820-ab039038b62e","ios":"levelo://app?vid=47c68b3e-66f9-4e8c-9820-ab039038b62e"},"vehicle_type_id":"4","last_reported":1747905095,"current_range_meters":6800,"station_id":"","pricing_plan_id":"cebpf4jnsgd1na2vs0mg"},{"bike_id":"12773a56-2e25-4ae9-816e-7ce85aace02e","system_id":"levelo_inurba_marseille","lat":43.30306,"lon":5.3689,"is_reserved":false,"is_disabled":false,"rental_uris":{"android":"levelo://app?vid=12773a56-2e25-4ae9-816e-7ce85aace02e","ios":"levelo://app?vid=12773a56-2e25-4ae9-816e-7ce85aace02e"},"vehicle_type_id":"4","last_reported":1747905095,"current_range_meters":6800,"station_id":"ce4bgqh2rcd13ifvqc5g","pricing_plan_id":"cebpf4jnsgd1na2vs0mg"},{"bike_id":"3794907a-e963-4733-a7bc-f526881e79c4","system_id":"levelo_inurba_marseille","lat":43.28967,"lon":5.37837,"is_reserved":false,"is_disabled":false,"rental_uris":{"android":"levelo://app?vid=3794907a-e963-4733-a7bc-f526881e79c4","ios":"levelo://app?vid=3794907a-e963-4733-a7bc-f526881e79c4"},"vehicle_type_id":"4","last_reported":1747905095,"current_range_meters":6800,"station_id":"ce4bh9p2rcd13ifvqed0","pricing_plan_id":"cebpf4jnsgd1na2vs0mg"},{"bike_id":"87c37c14-8780-451e-bf3f-8825721121e6","system_id":"levelo_inurba_marseille","lat":43.26957,"lon":5.38633,"is_reserved":false,"is_disabled":false,"rental_uris":{"android":"levelo://app?vid=87c37c14-8780-451e-bf3f-8825721121e6","ios":"levelo://app?vid=87c37c14-8780-451e-bf3f-8825721121e6"},"vehicle_type_id":"4","last_reported":1747905095,"current_range_meters":6800,"station_id":"ce4bhh92rcd13ifvqfh0","pricing_plan_id":"cebpf4jnsgd1na2vs0mg"},{"bike_id":"df106770-a124-4ecf-95cd-288da587773b","system_id":"levelo_inurba_marseille","lat":43.28648,"lon":5.38289,"is_reserved":false,"is_disabled":false,"rental_uris":{"android":"levelo://app?vid=df106770-a124-4ecf-95cd-288da587773b","ios":"levelo://app?vid=df106770-a124-4ecf-95cd-288da587773b"},"vehicle_type_id":"4","last_reported":1747905095,"current_range_meters":7200,"station_id":"","pricing_plan_id":"cebpf4jnsgd1na2vs0mg"},{"bike_id":"0f94b375-b9c0-470f-bfe5-b7b55655b58e","system_id":"levelo_inurba_marseille","lat":43.30951,"lon":5.390466,"is_reserved":false,"is_disabled":false,"rental_uris":{"android":"levelo://app?vid=0f94b375-b9c0-470f-bfe5-b7b55655b58e","ios":"levelo://app?vid=0f94b375-b9c0-470f-bfe5-b7b55655b58e"},"vehicle_type_id":"4","last_reported":1747905095,"current_range_meters":7200,"station_id":"ce4bgup2rcd13ifvqco0","pricing_plan_id":"cebpf4jnsgd1na2vs0mg"},{"bike_id":"34b5c80b-d5dc-4fd6-96bf-d63a89905d1f","system_id":"levelo_inurba_marseille","lat":43.29012,"lon":5.38142,"is_reserved":false,"is_disabled":false,"rental_uris":{"android":"levelo://app?vid=34b5c80b-d5dc-4fd6-96bf-d63a89905d1f","ios":"levelo://app?vid=34b5c80b-d5dc-4fd6-96bf-d63a89905d1f"},"vehicle_type_id":"4","last_reported":1747905095,"current_range_meters":7200,"station_id":"ce4bh4p2rcd13ifvqe1g","pricing_plan_id":"cebpf4jnsgd1na2vs0mg"},{"bike_id":"a2cf77dd-d42f-4f4b-a0f2-dccc0717a3af","system_id":"levelo_inurba_marseille","lat":43.2482,"lon":5.37456,"is_reserved":false,"is_disabled":false,"rental_uris":{"android":"levelo://app?vid=a2cf77dd-d42f-4f4b-a0f2-dccc0717a3af","ios":"levelo://app?vid=a2cf77dd-d42f-4f4b-a0f2-dccc0717a3af"},"vehicle_type_id":"4","last_reported":1747905095,"current_range_meters":7200,"station_id":"ce4bhgh2rcd13ifvqfb0","pricing_plan_id":"cebpf4jnsgd1na2vs0mg"},{"bike_id":"c48345e1-43dd-4a08-bbd5-11142242a160","system_id":"levelo_inurba_marseille","lat":43.27995,"lon":5.40017,"is_reserved":false,"is_disabled":false,"rental_uris":{"android":"levelo://app?vid=c48345e1-43dd-4a08-bbd5-11142242a160","ios":"levelo://app?vid=c48345e1-43dd-4a08-bbd5-11142242a160"},"vehicle_type_id":"4","last_reported":1747905095,"current_range_meters":7200,"station_id":"ce4bho92rcd13ifvqh4g","pricing_plan_id":"cebpf4jnsgd1na2vs0mg"},{"bike_id":"dc53f8be-ab14-4142-9f04-5d373c92c9a5","system_id":"levelo_inurba_marseille","lat":43.21754,"lon":5.34601,"is_reserved":false,"is_disabled":false,"rental_uris":{"android":"levelo://app?vid=dc53f8be-ab14-4142-9f04-5d373c92c9a5","ios":"levelo://app?vid=dc53f8be-ab14-4142-9f04-5d373c92c9a5"},"vehicle_type_id":"4","last_reported":1747905095,"current_range_meters":7200,"station_id":"st_cvj6r9ubvosntc0bgbag","pricing_plan_id":"cebpf4jnsgd1na2vs0mg"},{"bike_id":"e41c9cf2-e1b5-4807-96e6-a9b03102f34e","system_id":"levelo_inurba_marseille","lat":43.28622,"lon":5.35099,"is_reserved":false,"is_disabled":false,"rental_uris":{"android":"levelo://app?vid=e41c9cf2-e1b5-4807-96e6-a9b03102f34e","ios":"levelo://app?vid=e41c9cf2-e1b5-4807-96e6-a9b03102f34e"},"vehicle_type_id":"4","last_reported":1747905095,"current_range_meters":8000,"station_id":"ce4bhch2rcd13ifvqeug","pricing_plan_id":"cebpf4jnsgd1na2vs0mg"},{"bike_id":"59345bae-86dc-416e-8965-cf92492d4e9f","system_id":"levelo_inurba_marseille","lat":43.272087,"lon":5.391816,"is_reserved":false,"is_disabled":false,"rental_uris":{"android":"levelo://app?vid=59345bae-86dc-416e-8965-cf92492d4e9f","ios":"levelo://app?vid=59345bae-86dc-416e-8965-cf92492d4e9f"},"vehicle_type_id":"4","last_reported":1747905095,"current_range_meters":8000,"station_id":"ce4bhhp2rcd13ifvqfm0","pricing_plan_id":"cebpf4jnsgd1na2vs0mg"},{"bike_id":"90871573-0091-4d09-b36a-3b7c677f7d35","system_id":"levelo_inurba_marseille","lat":43.270677,"lon":5.422803,"is_reserved":false,"is_disabled":false,"rental_uris":{"android":"levelo://app?vid=90871573-0091-4d09-b36a-3b7c677f7d35","ios":"levelo://app?vid=90871573-0091-4d09-b36a-3b7c677f7d35"},"vehicle_type_id":"4","last_reported":1747905095,"current_range_meters":8000,"station_id":"ce4bhk92rcd13ifvqgb0","pricing_plan_id":"cebpf4jnsgd1na2vs0mg"},{"bike_id":"8f55b03b-0e2f-42ce-8c8e-3a98af37a7d5","system_id":"levelo_inurba_marseille","lat":43.270714,"lon":5.422817,"is_reserved":false,"is_disabled":false,"rental_uris":{"android":"levelo://app?vid=8f55b03b-0e2f-42ce-8c8e-3a98af37a7d5","ios":"levelo://app?vid=8f55b03b-0e2f-42ce-8c8e-3a98af37a7d5"},"vehicle_type_id":"4","last_reported":1747905095,"current_range_meters":8000,"station_id":"ce4bhk92rcd13ifvqgb0","pricing_plan_id":"cebpf4jnsgd1na2vs0mg"},{"bike_id":"4801d8d8-a7d2-47b5-b5c3-542cdd34b3b5","system_id":"levelo_inurba_marseille","lat":43.27994,"lon":5.41665,"is_reserved":false,"is_disabled":false,"rental_uris":{"android":"levelo://app?vid=4801d8d8-a7d2-47b5-b5c3-542cdd34b3b5","ios":"levelo://app?vid=4801d8d8-a7d2-47b5-b5c3-542cdd34b3b5"},"vehicle_type_id":"4","last_reported":1747905095,"current_range_meters":8000,"station_id":"ce4bho12rcd13ifvqh1g","pricing_plan_id":"cebpf4jnsgd1na2vs0mg"},{"bike_id":"3fe3d6c4-138a-47df-b6b4-e6f19e8f7d46","system_id":"levelo_inurba_marseille","lat":43.21458,"lon":5.34127,"is_reserved":false,"is_disabled":false,"rental_uris":{"android":"levelo://app?vid=3fe3d6c4-138a-47df-b6b4-e6f19e8f7d46","ios":"levelo://app?vid=3fe3d6c4-138a-47df-b6b4-e6f19e8f7d46"},"vehicle_type_id":"4","last_reported":1747905095,"current_range_meters":8400,"station_id":"","pricing_plan_id":"cebpf4jnsgd1na2vs0mg"},{"bike_id":"6890fe3f-1499-47a2-b610-207cf3db612d","system_id":"levelo_inurba_marseille","lat":43.30903,"lon":5.36839,"is_reserved":false,"is_disabled":false,"rental_uris":{"android":"levelo://app?vid=6890fe3f-1499-47a2-b610-207cf3db612d","ios":"levelo://app?vid=6890fe3f-1499-47a2-b610-207cf3db612d"},"vehicle_type_id":"4","last_reported":1747905095,"current_range_meters":8400,"station_id":"ce4bgn92rcd13ifvqbvg","pricing_plan_id":"cebpf4jnsgd1na2vs0mg"},{"bike_id":"344175dd-5dc6-4953-83fd-002beb6da7ee","system_id":"levelo_inurba_marseille","lat":43.28269,"lon":5.35059,"is_reserved":false,"is_disabled":false,"rental_uris":{"android":"levelo://app?vid=344175dd-5dc6-4953-83fd-002beb6da7ee","ios":"levelo://app?vid=344175dd-5dc6-4953-83fd-002beb6da7ee"},"vehicle_type_id":"4","last_reported":1747905095,"current_range_meters":8400,"station_id":"ce4bhbp2rcd13ifvqerg","pricing_plan_id":"cebpf4jnsgd1na2vs0mg"},{"bike_id":"0abe70e2-9e4c-4a90-813a-16b0b5ef9087","system_id":"levelo_inurba_marseille","lat":43.24078,"lon":5.37753,"is_reserved":false,"is_disabled":false,"rental_uris":{"android":"levelo://app?vid=0abe70e2-9e4c-4a90-813a-16b0b5ef9087","ios":"levelo://app?vid=0abe70e2-9e4c-4a90-813a-16b0b5ef9087"},"vehicle_type_id":"4","last_reported":1747905095,"current_range_meters":8400,"station_id":"ce4bhnp2rcd13ifvqgvg","pricing_plan_id":"cebpf4jnsgd1na2vs0mg"},{"bike_id":"2f34c329-54fe-438b-a307-b47c6ac8481c","system_id":"levelo_inurba_marseille","lat":43.29896,"lon":5.4366,"is_reserved":false,"is_disabled":false,"rental_uris":{"android":"levelo://app?vid=2f34c329-54fe-438b-a307-b47c6ac8481c","ios":"levelo://app?vid=2f34c329-54fe-438b-a307-b47c6ac8481c"},"vehicle_type_id":"4","last_reported":1747905095,"current_range_meters":8400,"station_id":"ce4bhpp2rcd13ifvqhfg","pricing_plan_id":"cebpf4jnsgd1na2vs0mg"},{"bike_id":"b889c9ab-7ed6-48f5-9305-64aa9d701a8d","system_id":"levelo_inurba_marseille","lat":43.23192,"lon":5.35557,"is_reserved":false,"is_disabled":false,"rental_uris":{"android":"levelo://app?vid=b889c9ab-7ed6-48f5-9305-64aa9d701a8d","ios":"levelo://app?vid=b889c9ab-7ed6-48f5-9305-64aa9d701a8d"},"vehicle_type_id":"4","last_reported":1747905095,"current_range_meters":8400,"station_id":"ce4bhu92rcd13ifvqi70","pricing_plan_id":"cebpf4jnsgd1na2vs0mg"},{"bike_id":"f21508a3-2fe6-488c-b06c-b10e2d07dc31","system_id":"levelo_inurba_marseille","lat":43.2177,"lon":5.34579,"is_reserved":false,"is_disabled":false,"rental_uris":{"android":"levelo://app?vid=f21508a3-2fe6-488c-b06c-b10e2d07dc31","ios":"levelo://app?vid=f21508a3-2fe6-488c-b06c-b10e2d07dc31"},"vehicle_type_id":"4","last_reported":1747905095,"current_range_meters":8400,"station_id":"st_cvj6r9ubvosntc0bgbag","pricing_plan_id":"cebpf4jnsgd1na2vs0mg"},{"bike_id":"4b97e04c-bd21-4fad-949b-58c9d480b579","system_id":"levelo_inurba_marseille","lat":43.29578,"lon":5.37525,"is_reserved":false,"is_disabled":false,"rental_uris":{"android":"levelo://app?vid=4b97e04c-bd21-4fad-949b-58c9d480b579","ios":"levelo://app?vid=4b97e04c-bd21-4fad-949b-58c9d480b579"},"vehicle_type_id":"4","last_reported":1747905095,"current_range_meters":8800,"station_id":"ce4bgh92rcd13ifvqb50","pricing_plan_id":"cebpf4jnsgd1na2vs0mg"},{"bike_id":"d11b5bfe-1148-49b4-a86d-49c0bda6e61e","system_id":"levelo_inurba_marseille","lat":43.30165,"lon":5.38075,"is_reserved":false,"is_disabled":false,"rental_uris":{"android":"levelo://app?vid=d11b5bfe-1148-49b4-a86d-49c0bda6e61e","ios":"levelo://app?vid=d11b5bfe-1148-49b4-a86d-49c0bda6e61e"},"vehicle_type_id":"4","last_reported":1747905095,"current_range_meters":8800,"station_id":"ce4bgjp2rcd13ifvqbh0","pricing_plan_id":"cebpf4jnsgd1na2vs0mg"},{"bike_id":"094390ad-c784-4fd9-afa7-2c89ee0d9794","system_id":"levelo_inurba_marseille","lat":43.312159,"lon":5.368426,"is_reserved":false,"is_disabled":false,"rental_uris":{"android":"levelo://app?vid=094390ad-c784-4fd9-afa7-2c89ee0d9794","ios":"levelo://app?vid=094390ad-c784-4fd9-afa7-2c89ee0d9794"},"vehicle_type_id":"4","last_reported":1747905095,"current_range_meters":8800,"station_id":"ce4bgl92rcd13ifvqbq0","pricing_plan_id":"cebpf4jnsgd1na2vs0mg"},{"bike_id":"9029d97b-c500-451f-a29e-283780a4ea48","system_id":"levelo_inurba_marseille","lat":43.31328,"lon":5.36723,"is_reserved":false,"is_disabled":false,"rental_uris":{"android":"levelo://app?vid=9029d97b-c500-451f-a29e-283780a4ea48","ios":"levelo://app?vid=9029d97b-c500-451f-a29e-283780a4ea48"},"vehicle_type_id":"4","last_reported":1747905095,"current_range_meters":8800,"station_id":"ce4bgr92rcd13ifvqc6g","pricing_plan_id":"cebpf4jnsgd1na2vs0mg"},{"bike_id":"57f119c9-f74f-4f1c-96d5-e5625c0ecb47","system_id":"levelo_inurba_marseille","lat":43.30536,"lon":5.36542,"is_reserved":false,"is_disabled":false,"rental_uris":{"android":"levelo://app?vid=57f119c9-f74f-4f1c-96d5-e5625c0ecb47","ios":"levelo://app?vid=57f119c9-f74f-4f1c-96d5-e5625c0ecb47"},"vehicle_type_id":"4","last_reported":1747905095,"current_range_meters":8800,"station_id":"ce4bgs12rcd13ifvqcag","pricing_plan_id":"cebpf4jnsgd1na2vs0mg"},{"bike_id":"721ceef8-6cbb-4f60-9e3c-3ea93e726ef1","system_id":"levelo_inurba_marseille","lat":43.290278,"lon":5.386569,"is_reserved":false,"is_disabled":false,"rental_uris":{"android":"levelo://app?vid=721ceef8-6cbb-4f60-9e3c-3ea93e726ef1","ios":"levelo://app?vid=721ceef8-6cbb-4f60-9e3c-3ea93e726ef1"},"vehicle_type_id":"4","last_reported":1747905095,"current_range_meters":8800,"station_id":"ce4bh4p2rcd13ifvqe0g","pricing_plan_id":"cebpf4jnsgd1na2vs0mg"},{"bike_id":"1e2627a3-89c8-41aa-bd7e-6fccf3610f6b","system_id":"levelo_inurba_marseille","lat":43.272093,"lon":5.391938,"is_reserved":false,"is_disabled":false,"rental_uris":{"android":"levelo://app?vid=1e2627a3-89c8-41aa-bd7e-6fccf3610f6b","ios":"levelo://app?vid=1e2627a3-89c8-41aa-bd7e-6fccf3610f6b"},"vehicle_type_id":"4","last_reported":1747905095,"current_range_meters":8800,"station_id":"ce4bhhp2rcd13ifvqfm0","pricing_plan_id":"cebpf4jnsgd1na2vs0mg"},{"bike_id":"3f07b0fa-41ab-40eb-930e-62ccc37660d0","system_id":"levelo_inurba_marseille","lat":43.264957,"lon":5.39538,"is_reserved":false,"is_disabled":false,"rental_uris":{"android":"levelo://app?vid=3f07b0fa-41ab-40eb-930e-62ccc37660d0","ios":"levelo://app?vid=3f07b0fa-41ab-40eb-930e-62ccc37660d0"},"vehicle_type_id":"4","last_reported":1747905095,"current_range_meters":8800,"station_id":"ce4bhi12rcd13ifvqfq0","pricing_plan_id":"cebpf4jnsgd1na2vs0mg"},{"bike_id":"4d220435-47a8-4d82-80db-a1284cf3e4c5","system_id":"levelo_inurba_marseille","lat":43.28655,"lon":5.38752,"is_reserved":false,"is_disabled":false,"rental_uris":{"android":"levelo://app?vid=4d220435-47a8-4d82-80db-a1284cf3e4c5","ios":"levelo://app?vid=4d220435-47a8-4d82-80db-a1284cf3e4c5"},"vehicle_type_id":"4","last_reported":1747905095,"current_range_meters":9200,"station_id":"","pricing_plan_id":"cebpf4jnsgd1na2vs0mg"},{"bike_id":"6f1ec9b7-43ec-4d93-b69e-d78cefe3c0cf","system_id":"levelo_inurba_marseille","lat":43.25921,"lon":5.40875,"is_reserved":false,"is_disabled":false,"rental_uris":{"android":"levelo://app?vid=6f1ec9b7-43ec-4d93-b69e-d78cefe3c0cf","ios":"levelo://app?vid=6f1ec9b7-43ec-4d93-b69e-d78cefe3c0cf"},"vehicle_type_id":"4","last_reported":1747905095,"current_range_meters":9200,"station_id":"ce4bhm92rcd13ifvqglg","pricing_plan_id":"cebpf4jnsgd1na2vs0mg"},{"bike_id":"102accff-382b-42a7-8e25-14dcd6289725","system_id":"levelo_inurba_marseille","lat":43.2683,"lon":5.40328,"is_reserved":false,"is_disabled":false,"rental_uris":{"android":"levelo://app?vid=102accff-382b-42a7-8e25-14dcd6289725","ios":"levelo://app?vid=102accff-382b-42a7-8e25-14dcd6289725"},"vehicle_type_id":"4","last_reported":1747905095,"current_range_meters":9200,"station_id":"ce501612rcd8frsf0b60","pricing_plan_id":"cebpf4jnsgd1na2vs0mg"},{"bike_id":"1513ac45-9e49-4487-9c73-d12a990cf328","system_id":"levelo_inurba_marseille","lat":43.28361,"lon":5.38643,"is_reserved":false,"is_disabled":false,"rental_uris":{"android":"levelo://app?vid=1513ac45-9e49-4487-9c73-d12a990cf328","ios":"levelo://app?vid=1513ac45-9e49-4487-9c73-d12a990cf328"},"vehicle_type_id":"4","last_reported":1747905095,"current_range_meters":9600,"station_id":"ce4bh492rcd13ifvqdvg","pricing_plan_id":"cebpf4jnsgd1na2vs0mg"},{"bike_id":"9241d1a5-4bb6-4f35-afca-6efaa0076822","system_id":"levelo_inurba_marseille","lat":43.267907,"lon":5.394083,"is_reserved":false,"is_disabled":false,"rental_uris":{"android":"levelo://app?vid=9241d1a5-4bb6-4f35-afca-6efaa0076822","ios":"levelo://app?vid=9241d1a5-4bb6-4f35-afca-6efaa0076822"},"vehicle_type_id":"4","last_reported":1747905095,"current_range_meters":9600,"station_id":"ce4bhh12rcd13ifvqfg0","pricing_plan_id":"cebpf4jnsgd1na2vs0mg"},{"bike_id":"40082cca-a7a2-4d69-9727-bd72824c6c32","system_id":"levelo_inurba_marseille","lat":43.27178,"lon":5.40976,"is_reserved":false,"is_disabled":false,"rental_uris":{"android":"levelo://app?vid=40082cca-a7a2-4d69-9727-bd72824c6c32","ios":"levelo://app?vid=40082cca-a7a2-4d69-9727-bd72824c6c32"},"vehicle_type_id":"4","last_reported":1747905095,"current_range_meters":9600,"station_id":"ce4bhl12rcd13ifvqgf0","pricing_plan_id":"cebpf4jnsgd1na2vs0mg"},{"bike_id":"69bdbb0d-0a97-4511-abda-2f9fe90f4b78","system_id":"levelo_inurba_marseille","lat":43.2721,"lon":5.41,"is_reserved":false,"is_disabled":false,"rental_uris":{"android":"levelo://app?vid=69bdbb0d-0a97-4511-abda-2f9fe90f4b78","ios":"levelo://app?vid=69bdbb0d-0a97-4511-abda-2f9fe90f4b78"},"vehicle_type_id":"4","last_reported":1747905095,"current_range_meters":9600,"station_id":"ce4bhl12rcd13ifvqgf0","pricing_plan_id":"cebpf4jnsgd1na2vs0mg"},{"bike_id":"a43346de-38dd-4a23-a3ab-fd0057e32056","system_id":"levelo_inurba_marseille","lat":43.25866,"lon":5.39903,"is_reserved":false,"is_disabled":false,"rental_uris":{"android":"levelo://app?vid=a43346de-38dd-4a23-a3ab-fd0057e32056","ios":"levelo://app?vid=a43346de-38dd-4a23-a3ab-fd0057e32056"},"vehicle_type_id":"4","last_reported":1747905095,"current_range_meters":9600,"station_id":"ce4bhl92rcd13ifvqghg","pricing_plan_id":"cebpf4jnsgd1na2vs0mg"},{"bike_id":"d08c902e-f6f8-4ad9-b326-a640e0918ca7","system_id":"levelo_inurba_marseille","lat":43.24181,"lon":5.39734,"is_reserved":false,"is_disabled":false,"rental_uris":{"android":"levelo://app?vid=d08c902e-f6f8-4ad9-b326-a640e0918ca7","ios":"levelo://app?vid=d08c902e-f6f8-4ad9-b326-a640e0918ca7"},"vehicle_type_id":"4","last_reported":1747905095,"current_range_meters":9600,"station_id":"ce4bhn12rcd13ifvqgpg","pricing_plan_id":"cebpf4jnsgd1na2vs0mg"},{"bike_id":"14feda73-7baf-4b64-8ae9-79f4fe7d4a5f","system_id":"levelo_inurba_marseille","lat":43.323773,"lon":5.367787,"is_reserved":false,"is_disabled":false,"rental_uris":{"android":"levelo://app?vid=14feda73-7baf-4b64-8ae9-79f4fe7d4a5f","ios":"levelo://app?vid=14feda73-7baf-4b64-8ae9-79f4fe7d4a5f"},"vehicle_type_id":"4","last_reported":1747905095,"current_range_meters":9600,"station_id":"ce4bhsh2rcd13ifvqi2g","pricing_plan_id":"cebpf4jnsgd1na2vs0mg"},{"bike_id":"d3541e06-31b4-471c-92f6-02e333ed7599","system_id":"levelo_inurba_marseille","lat":43.31219,"lon":5.36852,"is_reserved":false,"is_disabled":false,"rental_uris":{"android":"levelo://app?vid=d3541e06-31b4-471c-92f6-02e333ed7599","ios":"levelo://app?vid=d3541e06-31b4-471c-92f6-02e333ed7599"},"vehicle_type_id":"4","last_reported":1747905095,"current_range_meters":10000,"station_id":"ce4bgl92rcd13ifvqbq0","pricing_plan_id":"cebpf4jnsgd1na2vs0mg"},{"bike_id":"2b05b8da-5313-4d4a-8fd0-13bf2499f318","system_id":"levelo_inurba_marseille","lat":43.3136,"lon":5.385,"is_reserved":false,"is_disabled":false,"rental_uris":{"android":"levelo://app?vid=2b05b8da-5313-4d4a-8fd0-13bf2499f318","ios":"levelo://app?vid=2b05b8da-5313-4d4a-8fd0-13bf2499f318"},"vehicle_type_id":"4","last_reported":1747905095,"current_range_meters":10000,"station_id":"ce4bgt92rcd13ifvqcf0","pricing_plan_id":"cebpf4jnsgd1na2vs0mg"},{"bike_id":"93eb60f5-8615-49e3-b96d-4c8865cf380f","system_id":"levelo_inurba_marseille","lat":43.27308,"lon":5.39081,"is_reserved":false,"is_disabled":false,"rental_uris":{"android":"levelo://app?vid=93eb60f5-8615-49e3-b96d-4c8865cf380f","ios":"levelo://app?vid=93eb60f5-8615-49e3-b96d-4c8865cf380f"},"vehicle_type_id":"4","last_reported":1747905095,"current_range_meters":10000,"station_id":"ce4bhgp2rcd13ifvqfe0","pricing_plan_id":"cebpf4jnsgd1na2vs0mg"},{"bike_id":"feaf7be4-fe23-45f7-8636-d4ccad002b89","system_id":"levelo_inurba_marseille","lat":43.240655,"lon":5.377641,"is_reserved":false,"is_disabled":false,"rental_uris":{"android":"levelo://app?vid=feaf7be4-fe23-45f7-8636-d4ccad002b89","ios":"levelo://app?vid=feaf7be4-fe23-45f7-8636-d4ccad002b89"},"vehicle_type_id":"4","last_reported":1747905095,"current_range_meters":10000,"station_id":"ce4bhnp2rcd13ifvqgvg","pricing_plan_id":"cebpf4jnsgd1na2vs0mg"},{"bike_id":"74a90f79-8a54-4a0b-8e34-c0e01bd7f17e","system_id":"levelo_inurba_marseille","lat":43.26802,"lon":5.40261,"is_reserved":false,"is_disabled":false,"rental_uris":{"android":"levelo://app?vid=74a90f79-8a54-4a0b-8e34-c0e01bd7f17e","ios":"levelo://app?vid=74a90f79-8a54-4a0b-8e34-c0e01bd7f17e"},"vehicle_type_id":"4","last_reported":1747905095,"current_range_meters":10000,"station_id":"ce501612rcd8frsf0b60","pricing_plan_id":"cebpf4jnsgd1na2vs0mg"},{"bike_id":"1aa405fb-5b9d-48c8-8bad-9ac8ce771daf","system_id":"levelo_inurba_marseille","lat":43.27861,"lon":5.40692,"is_reserved":false,"is_disabled":false,"rental_uris":{"android":"levelo://app?vid=1aa405fb-5b9d-48c8-8bad-9ac8ce771daf","ios":"levelo://app?vid=1aa405fb-5b9d-48c8-8bad-9ac8ce771daf"},"vehicle_type_id":"4","last_reported":1747905095,"current_range_meters":10800,"station_id":"","pricing_plan_id":"cebpf4jnsgd1na2vs0mg"},{"bike_id":"f9fb40c0-1fcd-48cb-8e26-3f2dc0fb2451","system_id":"levelo_inurba_marseille","lat":43.33751,"lon":5.37509,"is_reserved":false,"is_disabled":false,"rental_uris":{"android":"levelo://app?vid=f9fb40c0-1fcd-48cb-8e26-3f2dc0fb2451","ios":"levelo://app?vid=f9fb40c0-1fcd-48cb-8e26-3f2dc0fb2451"},"vehicle_type_id":"4","last_reported":1747905095,"current_range_meters":10800,"station_id":"","pricing_plan_id":"cebpf4jnsgd1na2vs0mg"},{"bike_id":"27653dcd-dec9-4f13-b172-8968c20c1725","system_id":"levelo_inurba_marseille","lat":43.2385,"lon":5.43104,"is_reserved":false,"is_disabled":false,"rental_uris":{"android":"levelo://app?vid=27653dcd-dec9-4f13-b172-8968c20c1725","ios":"levelo://app?vid=27653dcd-dec9-4f13-b172-8968c20c1725"},"vehicle_type_id":"4","last_reported":1747905095,"current_range_meters":10800,"station_id":"","pricing_plan_id":"cebpf4jnsgd1na2vs0mg"},{"bike_id":"778bd114-c745-4e03-b341-4260075aa885","system_id":"levelo_inurba_marseille","lat":43.29973,"lon":5.38486,"is_reserved":false,"is_disabled":false,"rental_uris":{"android":"levelo://app?vid=778bd114-c745-4e03-b341-4260075aa885","ios":"levelo://app?vid=778bd114-c745-4e03-b341-4260075aa885"},"vehicle_type_id":"4","last_reported":1747905095,"current_range_meters":10800,"station_id":"ce4bgj92rcd13ifvqbd0","pricing_plan_id":"cebpf4jnsgd1na2vs0mg"},{"bike_id":"8a0ab914-9906-4aa5-8d18-1dfa0f50ab30","system_id":"levelo_inurba_marseille","lat":43.31358,"lon":5.38493,"is_reserved":false,"is_disabled":false,"rental_uris":{"android":"levelo://app?vid=8a0ab914-9906-4aa5-8d18-1dfa0f50ab30","ios":"levelo://app?vid=8a0ab914-9906-4aa5-8d18-1dfa0f50ab30"},"vehicle_type_id":"4","last_reported":1747905095,"current_range_meters":10800,"station_id":"ce4bgt92rcd13ifvqcf0","pricing_plan_id":"cebpf4jnsgd1na2vs0mg"},{"bike_id":"1ccb170d-a0eb-4550-ba99-adc1eaef095a","system_id":"levelo_inurba_marseille","lat":43.30948,"lon":5.39047,"is_reserved":false,"is_disabled":false,"rental_uris":{"android":"levelo://app?vid=1ccb170d-a0eb-4550-ba99-adc1eaef095a","ios":"levelo://app?vid=1ccb170d-a0eb-4550-ba99-adc1eaef095a"},"vehicle_type_id":"4","last_reported":1747905095,"current_range_meters":10800,"station_id":"ce4bgup2rcd13ifvqco0","pricing_plan_id":"cebpf4jnsgd1na2vs0mg"},{"bike_id":"6f71ac47-7465-48a4-acaf-39d385ce6a26","system_id":"levelo_inurba_marseille","lat":43.26791,"lon":5.3941,"is_reserved":false,"is_disabled":false,"rental_uris":{"android":"levelo://app?vid=6f71ac47-7465-48a4-acaf-39d385ce6a26","ios":"levelo://app?vid=6f71ac47-7465-48a4-acaf-39d385ce6a26"},"vehicle_type_id":"4","last_reported":1747905095,"current_range_meters":10800,"station_id":"ce4bhh12rcd13ifvqfg0","pricing_plan_id":"cebpf4jnsgd1na2vs0mg"},{"bike_id":"045ad9e6-a6f9-4cc4-9310-e2402c5313a8","system_id":"levelo_inurba_marseille","lat":43.27208,"lon":5.391837,"is_reserved":false,"is_disabled":false,"rental_uris":{"android":"levelo://app?vid=045ad9e6-a6f9-4cc4-9310-e2402c5313a8","ios":"levelo://app?vid=045ad9e6-a6f9-4cc4-9310-e2402c5313a8"},"vehicle_type_id":"4","last_reported":1747905095,"current_range_meters":10800,"station_id":"ce4bhhp2rcd13ifvqfm0","pricing_plan_id":"cebpf4jnsgd1na2vs0mg"},{"bike_id":"4aca9e1b-cb0e-4df2-b158-cc27958ba86c","system_id":"levelo_inurba_marseille","lat":43.25574,"lon":5.3824,"is_reserved":false,"is_disabled":false,"rental_uris":{"android":"levelo://app?vid=4aca9e1b-cb0e-4df2-b158-cc27958ba86c","ios":"levelo://app?vid=4aca9e1b-cb0e-4df2-b158-cc27958ba86c"},"vehicle_type_id":"4","last_reported":1747905095,"current_range_meters":10800,"station_id":"ce4bhih2rcd13ifvqfs0","pricing_plan_id":"cebpf4jnsgd1na2vs0mg"},{"bike_id":"4574f5e4-ff6f-4daf-8951-f7c94d971ca9","system_id":"levelo_inurba_marseille","lat":43.26172,"lon":5.4043,"is_reserved":false,"is_disabled":false,"rental_uris":{"android":"levelo://app?vid=4574f5e4-ff6f-4daf-8951-f7c94d971ca9","ios":"levelo://app?vid=4574f5e4-ff6f-4daf-8951-f7c94d971ca9"},"vehicle_type_id":"4","last_reported":1747905095,"current_range_meters":10800,"station_id":"ce4bhmh2rcd13ifvqgmg","pricing_plan_id":"cebpf4jnsgd1na2vs0mg"},{"bike_id":"8132eb19-17ba-4103-8ae2-89937a2d2be2","system_id":"levelo_inurba_marseille","lat":43.33605,"lon":5.40968,"is_reserved":false,"is_disabled":false,"rental_uris":{"android":"levelo://app?vid=8132eb19-17ba-4103-8ae2-89937a2d2be2","ios":"levelo://app?vid=8132eb19-17ba-4103-8ae2-89937a2d2be2"},"vehicle_type_id":"4","last_reported":1747905095,"current_range_meters":11200,"station_id":"","pricing_plan_id":"cebpf4jnsgd1na2vs0mg"},{"bike_id":"86fce640-9d52-4a60-a1e9-895bee8d740b","system_id":"levelo_inurba_marseille","lat":43.24651,"lon":5.389,"is_reserved":false,"is_disabled":false,"rental_uris":{"android":"levelo://app?vid=86fce640-9d52-4a60-a1e9-895bee8d740b","ios":"levelo://app?vid=86fce640-9d52-4a60-a1e9-895bee8d740b"},"vehicle_type_id":"4","last_reported":1747905095,"current_range_meters":11200,"station_id":"ce4bhg12rcd13ifvqf60","pricing_plan_id":"cebpf4jnsgd1na2vs0mg"},{"bike_id":"4ad770ab-f129-4de2-889c-7fa4bb24a833","system_id":"levelo_inurba_marseille","lat":43.26962,"lon":5.3862,"is_reserved":false,"is_disabled":false,"rental_uris":{"android":"levelo://app?vid=4ad770ab-f129-4de2-889c-7fa4bb24a833","ios":"levelo://app?vid=4ad770ab-f129-4de2-889c-7fa4bb24a833"},"vehicle_type_id":"4","last_reported":1747905095,"current_range_meters":11200,"station_id":"ce4bhh92rcd13ifvqfh0","pricing_plan_id":"cebpf4jnsgd1na2vs0mg"},{"bike_id":"17880693-f0d5-464d-8b36-084e8c1d7cb9","system_id":"levelo_inurba_marseille","lat":43.2512,"lon":5.40324,"is_reserved":false,"is_disabled":false,"rental_uris":{"android":"levelo://app?vid=17880693-f0d5-464d-8b36-084e8c1d7cb9","ios":"levelo://app?vid=17880693-f0d5-464d-8b36-084e8c1d7cb9"},"vehicle_type_id":"4","last_reported":1747905095,"current_range_meters":11200,"station_id":"ce4bhlh2rcd13ifvqgig","pricing_plan_id":"cebpf4jnsgd1na2vs0mg"},{"bike_id":"7d108a74-0a8c-47b2-9af8-4ffd3a924609","system_id":"levelo_inurba_marseille","lat":43.26807,"lon":5.40264,"is_reserved":false,"is_disabled":false,"rental_uris":{"android":"levelo://app?vid=7d108a74-0a8c-47b2-9af8-4ffd3a924609","ios":"levelo://app?vid=7d108a74-0a8c-47b2-9af8-4ffd3a924609"},"vehicle_type_id":"4","last_reported":1747905095,"current_range_meters":11200,"station_id":"ce501612rcd8frsf0b60","pricing_plan_id":"cebpf4jnsgd1na2vs0mg"},{"bike_id":"7dfdfdc8-9c79-46b6-9a4b-924773b53f29","system_id":"levelo_inurba_marseille","lat":43.26879,"lon":5.39102,"is_reserved":false,"is_disabled":false,"rental_uris":{"android":"levelo://app?vid=7dfdfdc8-9c79-46b6-9a4b-924773b53f29","ios":"levelo://app?vid=7dfdfdc8-9c79-46b6-9a4b-924773b53f29"},"vehicle_type_id":"4","last_reported":1747905095,"current_range_meters":11600,"station_id":"","pricing_plan_id":"cebpf4jnsgd1na2vs0mg"},{"bike_id":"65e7fe39-5559-4fbd-9de4-f4f4670b5323","system_id":"levelo_inurba_marseille","lat":43.2959,"lon":5.36753,"is_reserved":false,"is_disabled":false,"rental_uris":{"android":"levelo://app?vid=65e7fe39-5559-4fbd-9de4-f4f4670b5323","ios":"levelo://app?vid=65e7fe39-5559-4fbd-9de4-f4f4670b5323"},"vehicle_type_id":"4","last_reported":1747905095,"current_range_meters":11600,"station_id":"ce4bgph2rcd13ifvqc2g","pricing_plan_id":"cebpf4jnsgd1na2vs0mg"},{"bike_id":"cd63ad4d-4212-4f04-aff4-86a911369597","system_id":"levelo_inurba_marseille","lat":43.25821,"lon":5.39436,"is_reserved":false,"is_disabled":false,"rental_uris":{"android":"levelo://app?vid=cd63ad4d-4212-4f04-aff4-86a911369597","ios":"levelo://app?vid=cd63ad4d-4212-4f04-aff4-86a911369597"},"vehicle_type_id":"4","last_reported":1747905095,"current_range_meters":11600,"station_id":"ce4bhip2rcd13ifvqft0","pricing_plan_id":"cebpf4jnsgd1na2vs0mg"},{"bike_id":"dc61c065-6ed1-487e-9ecf-5a93a8f61ca7","system_id":"levelo_inurba_marseille","lat":43.23197,"lon":5.39965,"is_reserved":false,"is_disabled":false,"rental_uris":{"android":"levelo://app?vid=dc61c065-6ed1-487e-9ecf-5a93a8f61ca7","ios":"levelo://app?vid=dc61c065-6ed1-487e-9ecf-5a93a8f61ca7"},"vehicle_type_id":"4","last_reported":1747905095,"current_range_meters":11600,"station_id":"ce4bhn12rcd13ifvqgqg","pricing_plan_id":"cebpf4jnsgd1na2vs0mg"},{"bike_id":"f1730787-fe39-473e-acdd-928bd4ad6e8f","system_id":"levelo_inurba_marseille","lat":43.32484,"lon":5.36569,"is_reserved":false,"is_disabled":false,"rental_uris":{"android":"levelo://app?vid=f1730787-fe39-473e-acdd-928bd4ad6e8f","ios":"levelo://app?vid=f1730787-fe39-473e-acdd-928bd4ad6e8f"},"vehicle_type_id":"4","last_reported":1747905095,"current_range_meters":11600,"station_id":"ce4bhs12rcd13ifvqhvg","pricing_plan_id":"cebpf4jnsgd1na2vs0mg"},{"bike_id":"87c4eccc-bb65-48f9-8b4c-4b27ebc9c1f5","system_id":"levelo_inurba_marseille","lat":43.21739,"lon":5.34619,"is_reserved":false,"is_disabled":false,"rental_uris":{"android":"levelo://app?vid=87c4eccc-bb65-48f9-8b4c-4b27ebc9c1f5","ios":"levelo://app?vid=87c4eccc-bb65-48f9-8b4c-4b27ebc9c1f5"},"vehicle_type_id":"4","last_reported":1747905095,"current_range_meters":11600,"station_id":"st_cvj6r9ubvosntc0bgbag","pricing_plan_id":"cebpf4jnsgd1na2vs0mg"},{"bike_id":"9415b23c-6344-4bc6-b354-4d25ce992eb5","system_id":"levelo_inurba_marseille","lat":43.27493,"lon":5.42452,"is_reserved":false,"is_disabled":false,"rental_uris":{"android":"levelo://app?vid=9415b23c-6344-4bc6-b354-4d25ce992eb5","ios":"levelo://app?vid=9415b23c-6344-4bc6-b354-4d25ce992eb5"},"vehicle_type_id":"4","last_reported":1747905095,"current_range_meters":12000,"station_id":"ce4bhn92rcd13ifvqgrg","pricing_plan_id":"cebpf4jnsgd1na2vs0mg"},{"bike_id":"e75389f6-919f-4165-ae31-bdd131757190","system_id":"levelo_inurba_marseille","lat":43.30739,"lon":5.42441,"is_reserved":false,"is_disabled":false,"rental_uris":{"android":"levelo://app?vid=e75389f6-919f-4165-ae31-bdd131757190","ios":"levelo://app?vid=e75389f6-919f-4165-ae31-bdd131757190"},"vehicle_type_id":"4","last_reported":1747905095,"current_range_meters":12000,"station_id":"st_cvj6ca6bvosntc0bfgr0","pricing_plan_id":"cebpf4jnsgd1na2vs0mg"},{"bike_id":"fcabf7fc-2b85-4a17-9194-f22cbd5b114e","system_id":"levelo_inurba_marseille","lat":43.29572,"lon":5.37522,"is_reserved":false,"is_disabled":false,"rental_uris":{"android":"levelo://app?vid=fcabf7fc-2b85-4a17-9194-f22cbd5b114e","ios":"levelo://app?vid=fcabf7fc-2b85-4a17-9194-f22cbd5b114e"},"vehicle_type_id":"4","last_reported":1747905095,"current_range_meters":12400,"station_id":"ce4bgh92rcd13ifvqb50","pricing_plan_id":"cebpf4jnsgd1na2vs0mg"},{"bike_id":"03ac39c5-b58f-41a6-8401-2b81411907c0","system_id":"levelo_inurba_marseille","lat":43.28701,"lon":5.3999,"is_reserved":false,"is_disabled":false,"rental_uris":{"android":"levelo://app?vid=03ac39c5-b58f-41a6-8401-2b81411907c0","ios":"levelo://app?vid=03ac39c5-b58f-41a6-8401-2b81411907c0"},"vehicle_type_id":"4","last_reported":1747905095,"current_range_meters":12400,"station_id":"ce4bho92rcd13ifvqh3g","pricing_plan_id":"cebpf4jnsgd1na2vs0mg"},{"bike_id":"37a40661-a730-4b3b-b0b5-15accd50b9e8","system_id":"levelo_inurba_marseille","lat":43.319923,"lon":5.381597,"is_reserved":false,"is_disabled":false,"rental_uris":{"android":"levelo://app?vid=37a40661-a730-4b3b-b0b5-15accd50b9e8","ios":"levelo://app?vid=37a40661-a730-4b3b-b0b5-15accd50b9e8"},"vehicle_type_id":"4","last_reported":1747905095,"current_range_meters":12400,"station_id":"ce4bhr12rcd13ifvqhpg","pricing_plan_id":"cebpf4jnsgd1na2vs0mg"},{"bike_id":"454fe956-8c5a-4a46-a4f6-74fe6bf33c90","system_id":"levelo_inurba_marseille","lat":43.26807,"lon":5.40244,"is_reserved":false,"is_disabled":false,"rental_uris":{"android":"levelo://app?vid=454fe956-8c5a-4a46-a4f6-74fe6bf33c90","ios":"levelo://app?vid=454fe956-8c5a-4a46-a4f6-74fe6bf33c90"},"vehicle_type_id":"4","last_reported":1747905095,"current_range_meters":12400,"station_id":"ce501612rcd8frsf0b60","pricing_plan_id":"cebpf4jnsgd1na2vs0mg"},{"bike_id":"8fb55fef-d970-4671-a667-a6de85f14491","system_id":"levelo_inurba_marseille","lat":43.28473,"lon":5.38414,"is_reserved":false,"is_disabled":false,"rental_uris":{"android":"levelo://app?vid=8fb55fef-d970-4671-a667-a6de85f14491","ios":"levelo://app?vid=8fb55fef-d970-4671-a667-a6de85f14491"},"vehicle_type_id":"4","last_reported":1747905095,"current_range_meters":12800,"station_id":"ce4bh512rcd13ifvqe3g","pricing_plan_id":"cebpf4jnsgd1na2vs0mg"},{"bike_id":"0dca6de3-57ba-443d-8da5-6f1412249b6a","system_id":"levelo_inurba_marseille","lat":43.25928,"lon":5.40884,"is_reserved":false,"is_disabled":false,"rental_uris":{"android":"levelo://app?vid=0dca6de3-57ba-443d-8da5-6f1412249b6a","ios":"levelo://app?vid=0dca6de3-57ba-443d-8da5-6f1412249b6a"},"vehicle_type_id":"4","last_reported":1747905095,"current_range_meters":12800,"station_id":"ce4bhm92rcd13ifvqglg","pricing_plan_id":"cebpf4jnsgd1na2vs0mg"},{"bike_id":"d8ef93ab-6594-4205-bec9-cbf07e2aa23e","system_id":"levelo_inurba_marseille","lat":43.2418,"lon":5.36391,"is_reserved":false,"is_disabled":false,"rental_uris":{"android":"levelo://app?vid=d8ef93ab-6594-4205-bec9-cbf07e2aa23e","ios":"levelo://app?vid=d8ef93ab-6594-4205-bec9-cbf07e2aa23e"},"vehicle_type_id":"4","last_reported":1747905095,"current_range_meters":12800,"station_id":"cpo36qri1sfpv3e86is0","pricing_plan_id":"cebpf4jnsgd1na2vs0mg"},{"bike_id":"05237bc4-93c8-4ea7-acad-5516c1235763","system_id":"levelo_inurba_marseille","lat":43.2996,"lon":5.38495,"is_reserved":false,"is_disabled":false,"rental_uris":{"android":"levelo://app?vid=05237bc4-93c8-4ea7-acad-5516c1235763","ios":"levelo://app?vid=05237bc4-93c8-4ea7-acad-5516c1235763"},"vehicle_type_id":"4","last_reported":1747905095,"current_range_meters":13600,"station_id":"ce4bgj92rcd13ifvqbd0","pricing_plan_id":"cebpf4jnsgd1na2vs0mg"},{"bike_id":"acf11393-d4d7-4d5d-9ab9-948237951d21","system_id":"levelo_inurba_marseille","lat":43.30962,"lon":5.39039,"is_reserved":false,"is_disabled":false,"rental_uris":{"android":"levelo://app?vid=acf11393-d4d7-4d5d-9ab9-948237951d21","ios":"levelo://app?vid=acf11393-d4d7-4d5d-9ab9-948237951d21"},"vehicle_type_id":"4","last_reported":1747905095,"current_range_meters":13600,"station_id":"ce4bgup2rcd13ifvqco0","pricing_plan_id":"cebpf4jnsgd1na2vs0mg"},{"bike_id":"e96594c2-3a51-4fd7-80fd-fa7778807678","system_id":"levelo_inurba_marseille","lat":43.324654,"lon":5.365526,"is_reserved":false,"is_disabled":false,"rental_uris":{"android":"levelo://app?vid=e96594c2-3a51-4fd7-80fd-fa7778807678","ios":"levelo://app?vid=e96594c2-3a51-4fd7-80fd-fa7778807678"},"vehicle_type_id":"4","last_reported":1747905095,"current_range_meters":13600,"station_id":"ce4bhs12rcd13ifvqhvg","pricing_plan_id":"cebpf4jnsgd1na2vs0mg"},{"bike_id":"0858c7c5-09f5-4a8c-97f6-3cd7929e8923","system_id":"levelo_inurba_marseille","lat":43.30959,"lon":5.39024,"is_reserved":false,"is_disabled":false,"rental_uris":{"android":"levelo://app?vid=0858c7c5-09f5-4a8c-97f6-3cd7929e8923","ios":"levelo://app?vid=0858c7c5-09f5-4a8c-97f6-3cd7929e8923"},"vehicle_type_id":"4","last_reported":1747905095,"current_range_meters":14000,"station_id":"ce4bgup2rcd13ifvqco0","pricing_plan_id":"cebpf4jnsgd1na2vs0mg"},{"bike_id":"730e0997-f1d5-4fd7-93d1-34bd545d4c3e","system_id":"levelo_inurba_marseille","lat":43.2418,"lon":5.39736,"is_reserved":false,"is_disabled":false,"rental_uris":{"android":"levelo://app?vid=730e0997-f1d5-4fd7-93d1-34bd545d4c3e","ios":"levelo://app?vid=730e0997-f1d5-4fd7-93d1-34bd545d4c3e"},"vehicle_type_id":"4","last_reported":1747905095,"current_range_meters":14000,"station_id":"ce4bhn12rcd13ifvqgpg","pricing_plan_id":"cebpf4jnsgd1na2vs0mg"},{"bike_id":"9091ab35-a768-48b5-b481-63734b573894","system_id":"levelo_inurba_marseille","lat":43.24072,"lon":5.37772,"is_reserved":false,"is_disabled":false,"rental_uris":{"android":"levelo://app?vid=9091ab35-a768-48b5-b481-63734b573894","ios":"levelo://app?vid=9091ab35-a768-48b5-b481-63734b573894"},"vehicle_type_id":"4","last_reported":1747905095,"current_range_meters":14000,"station_id":"ce4bhnp2rcd13ifvqgvg","pricing_plan_id":"cebpf4jnsgd1na2vs0mg"},{"bike_id":"b0e2bb50-4653-4867-9bc7-ff530f726a3a","system_id":"levelo_inurba_marseille","lat":43.33606,"lon":5.41033,"is_reserved":false,"is_disabled":false,"rental_uris":{"android":"levelo://app?vid=b0e2bb50-4653-4867-9bc7-ff530f726a3a","ios":"levelo://app?vid=b0e2bb50-4653-4867-9bc7-ff530f726a3a"},"vehicle_type_id":"4","last_reported":1747905095,"current_range_meters":14000,"station_id":"ce4bhqh2rcd13ifvqhmg","pricing_plan_id":"cebpf4jnsgd1na2vs0mg"},{"bike_id":"f9223343-51dd-4eb0-a255-7d7bd8e5d0ef","system_id":"levelo_inurba_marseille","lat":43.31193,"lon":5.40167,"is_reserved":false,"is_disabled":false,"rental_uris":{"android":"levelo://app?vid=f9223343-51dd-4eb0-a255-7d7bd8e5d0ef","ios":"levelo://app?vid=f9223343-51dd-4eb0-a255-7d7bd8e5d0ef"},"vehicle_type_id":"4","last_reported":1747905095,"current_range_meters":14400,"station_id":"","pricing_plan_id":"cebpf4jnsgd1na2vs0mg"},{"bike_id":"48ea8974-3fb9-4bda-b3eb-3f3919ec67a2","system_id":"levelo_inurba_marseille","lat":43.2682,"lon":5.40239,"is_reserved":false,"is_disabled":false,"rental_uris":{"android":"levelo://app?vid=48ea8974-3fb9-4bda-b3eb-3f3919ec67a2","ios":"levelo://app?vid=48ea8974-3fb9-4bda-b3eb-3f3919ec67a2"},"vehicle_type_id":"4","last_reported":1747905095,"current_range_meters":14400,"station_id":"ce501612rcd8frsf0b60","pricing_plan_id":"cebpf4jnsgd1na2vs0mg"},{"bike_id":"78b8a23c-af4a-423b-907d-71c2cfddf417","system_id":"levelo_inurba_marseille","lat":43.305387,"lon":5.365221,"is_reserved":false,"is_disabled":false,"rental_uris":{"android":"levelo://app?vid=78b8a23c-af4a-423b-907d-71c2cfddf417","ios":"levelo://app?vid=78b8a23c-af4a-423b-907d-71c2cfddf417"},"vehicle_type_id":"4","last_reported":1747905095,"current_range_meters":14800,"station_id":"ce4bgs12rcd13ifvqcag","pricing_plan_id":"cebpf4jnsgd1na2vs0mg"},{"bike_id":"b6fc00ba-b7db-4f2e-aa4d-743ced641434","system_id":"levelo_inurba_marseille","lat":43.29876,"lon":5.39743,"is_reserved":false,"is_disabled":false,"rental_uris":{"android":"levelo://app?vid=b6fc00ba-b7db-4f2e-aa4d-743ced641434","ios":"levelo://app?vid=b6fc00ba-b7db-4f2e-aa4d-743ced641434"},"vehicle_type_id":"4","last_reported":1747905095,"current_range_meters":14800,"station_id":"ce4bh0h2rcd13ifvqd50","pricing_plan_id":"cebpf4jnsgd1na2vs0mg"},{"bike_id":"1e7414f1-8abc-4d38-a4d5-392c90a72be7","system_id":"levelo_inurba_marseille","lat":43.257203,"lon":5.411145,"is_reserved":false,"is_disabled":false,"rental_uris":{"android":"levelo://app?vid=1e7414f1-8abc-4d38-a4d5-392c90a72be7","ios":"levelo://app?vid=1e7414f1-8abc-4d38-a4d5-392c90a72be7"},"vehicle_type_id":"4","last_reported":1747905095,"current_range_meters":14800,"station_id":"ce4bhkp2rcd13ifvqgd0","pricing_plan_id":"cebpf4jnsgd1na2vs0mg"},{"bike_id":"3c5b057d-5cb3-4998-a58a-448844050ea6","system_id":"levelo_inurba_marseille","lat":43.27507,"lon":5.424495,"is_reserved":false,"is_disabled":false,"rental_uris":{"android":"levelo://app?vid=3c5b057d-5cb3-4998-a58a-448844050ea6","ios":"levelo://app?vid=3c5b057d-5cb3-4998-a58a-448844050ea6"},"vehicle_type_id":"4","last_reported":1747905095,"current_range_meters":14800,"station_id":"ce4bhn92rcd13ifvqgrg","pricing_plan_id":"cebpf4jnsgd1na2vs0mg"},{"bike_id":"ba914de3-de5d-4f81-b9e9-8c92d3d3eaae","system_id":"levelo_inurba_marseille","lat":43.30806,"lon":5.38148,"is_reserved":false,"is_disabled":false,"rental_uris":{"android":"levelo://app?vid=ba914de3-de5d-4f81-b9e9-8c92d3d3eaae","ios":"levelo://app?vid=ba914de3-de5d-4f81-b9e9-8c92d3d3eaae"},"vehicle_type_id":"4","last_reported":1747905095,"current_range_meters":15200,"station_id":"ce4bgt12rcd13ifvqce0","pricing_plan_id":"cebpf4jnsgd1na2vs0mg"},{"bike_id":"01b607b0-67f9-49ea-b6f3-3774ee1c8af9","system_id":"levelo_inurba_marseille","lat":43.24066,"lon":5.37761,"is_reserved":false,"is_disabled":false,"rental_uris":{"android":"levelo://app?vid=01b607b0-67f9-49ea-b6f3-3774ee1c8af9","ios":"levelo://app?vid=01b607b0-67f9-49ea-b6f3-3774ee1c8af9"},"vehicle_type_id":"4","last_reported":1747905095,"current_range_meters":15200,"station_id":"ce4bhnp2rcd13ifvqgvg","pricing_plan_id":"cebpf4jnsgd1na2vs0mg"},{"bike_id":"84f00b51-2429-41be-8a43-83978d7764de","system_id":"levelo_inurba_marseille","lat":43.28,"lon":5.40014,"is_reserved":false,"is_disabled":false,"rental_uris":{"android":"levelo://app?vid=84f00b51-2429-41be-8a43-83978d7764de","ios":"levelo://app?vid=84f00b51-2429-41be-8a43-83978d7764de"},"vehicle_type_id":"4","last_reported":1747905095,"current_range_meters":15200,"station_id":"ce4bho92rcd13ifvqh4g","pricing_plan_id":"cebpf4jnsgd1na2vs0mg"},{"bike_id":"69b0ddea-e6bf-4e1e-aceb-85c67da32f69","system_id":"levelo_inurba_marseille","lat":43.29026,"lon":5.381272,"is_reserved":false,"is_disabled":false,"rental_uris":{"android":"levelo://app?vid=69b0ddea-e6bf-4e1e-aceb-85c67da32f69","ios":"levelo://app?vid=69b0ddea-e6bf-4e1e-aceb-85c67da32f69"},"vehicle_type_id":"4","last_reported":1747905095,"current_range_meters":16000,"station_id":"ce4bgop2rcd13ifvqc1g","pricing_plan_id":"cebpf4jnsgd1na2vs0mg"},{"bike_id":"97dbe0a3-a550-4280-97ae-b685c8af052d","system_id":"levelo_inurba_marseille","lat":43.29024,"lon":5.38175,"is_reserved":false,"is_disabled":false,"rental_uris":{"android":"levelo://app?vid=97dbe0a3-a550-4280-97ae-b685c8af052d","ios":"levelo://app?vid=97dbe0a3-a550-4280-97ae-b685c8af052d"},"vehicle_type_id":"4","last_reported":1747905095,"current_range_meters":16000,"station_id":"ce4bh4p2rcd13ifvqe1g","pricing_plan_id":"cebpf4jnsgd1na2vs0mg"},{"bike_id":"c96388aa-f14f-4d51-8224-65b76087755c","system_id":"levelo_inurba_marseille","lat":43.26212,"lon":5.37449,"is_reserved":false,"is_disabled":false,"rental_uris":{"android":"levelo://app?vid=c96388aa-f14f-4d51-8224-65b76087755c","ios":"levelo://app?vid=c96388aa-f14f-4d51-8224-65b76087755c"},"vehicle_type_id":"4","last_reported":1747905095,"current_range_meters":16000,"station_id":"ce4bhgp2rcd13ifvqfc0","pricing_plan_id":"cebpf4jnsgd1na2vs0mg"},{"bike_id":"e3e19b90-9823-4b53-b8a7-4c599b3176c2","system_id":"levelo_inurba_marseille","lat":43.25115,"lon":5.40333,"is_reserved":false,"is_disabled":false,"rental_uris":{"android":"levelo://app?vid=e3e19b90-9823-4b53-b8a7-4c599b3176c2","ios":"levelo://app?vid=e3e19b90-9823-4b53-b8a7-4c599b3176c2"},"vehicle_type_id":"4","last_reported":1747905095,"current_range_meters":16000,"station_id":"ce4bhlh2rcd13ifvqgig","pricing_plan_id":"cebpf4jnsgd1na2vs0mg"},{"bike_id":"46537b52-a5b6-4581-b7be-425c860a7d5c","system_id":"levelo_inurba_marseille","lat":43.24177,"lon":5.39713,"is_reserved":false,"is_disabled":false,"rental_uris":{"android":"levelo://app?vid=46537b52-a5b6-4581-b7be-425c860a7d5c","ios":"levelo://app?vid=46537b52-a5b6-4581-b7be-425c860a7d5c"},"vehicle_type_id":"4","last_reported":1747905095,"current_range_meters":16000,"station_id":"ce4bhn12rcd13ifvqgpg","pricing_plan_id":"cebpf4jnsgd1na2vs0mg"},{"bike_id":"64e8d141-7d8b-48cf-90b9-b154ac715691","system_id":"levelo_inurba_marseille","lat":43.29741,"lon":5.38126,"is_reserved":false,"is_disabled":false,"rental_uris":{"android":"levelo://app?vid=64e8d141-7d8b-48cf-90b9-b154ac715691","ios":"levelo://app?vid=64e8d141-7d8b-48cf-90b9-b154ac715691"},"vehicle_type_id":"4","last_reported":1747905095,"current_range_meters":16400,"station_id":"","pricing_plan_id":"cebpf4jnsgd1na2vs0mg"},{"bike_id":"a3530dbf-0651-4d96-bc88-c24caf496571","system_id":"levelo_inurba_marseille","lat":43.30141,"lon":5.38086,"is_reserved":false,"is_disabled":false,"rental_uris":{"android":"levelo://app?vid=a3530dbf-0651-4d96-bc88-c24caf496571","ios":"levelo://app?vid=a3530dbf-0651-4d96-bc88-c24caf496571"},"vehicle_type_id":"4","last_reported":1747905095,"current_range_meters":16400,"station_id":"ce4bgjp2rcd13ifvqbh0","pricing_plan_id":"cebpf4jnsgd1na2vs0mg"},{"bike_id":"fbc28b11-1d2d-416a-8cad-1b7566d12481","system_id":"levelo_inurba_marseille","lat":43.30533,"lon":5.36555,"is_reserved":false,"is_disabled":false,"rental_uris":{"android":"levelo://app?vid=fbc28b11-1d2d-416a-8cad-1b7566d12481","ios":"levelo://app?vid=fbc28b11-1d2d-416a-8cad-1b7566d12481"},"vehicle_type_id":"4","last_reported":1747905095,"current_range_meters":16400,"station_id":"ce4bgs12rcd13ifvqcag","pricing_plan_id":"cebpf4jnsgd1na2vs0mg"},{"bike_id":"6a970dc8-e377-45fb-a27d-19233b1ce6f9","system_id":"levelo_inurba_marseille","lat":43.24807,"lon":5.37458,"is_reserved":false,"is_disabled":false,"rental_uris":{"android":"levelo://app?vid=6a970dc8-e377-45fb-a27d-19233b1ce6f9","ios":"levelo://app?vid=6a970dc8-e377-45fb-a27d-19233b1ce6f9"},"vehicle_type_id":"4","last_reported":1747905095,"current_range_meters":16400,"station_id":"ce4bhgh2rcd13ifvqfb0","pricing_plan_id":"cebpf4jnsgd1na2vs0mg"},{"bike_id":"71ccf91f-328e-4c71-806e-a9725d19e70f","system_id":"levelo_inurba_marseille","lat":43.23149,"lon":5.43727,"is_reserved":false,"is_disabled":false,"rental_uris":{"android":"levelo://app?vid=71ccf91f-328e-4c71-806e-a9725d19e70f","ios":"levelo://app?vid=71ccf91f-328e-4c71-806e-a9725d19e70f"},"vehicle_type_id":"4","last_reported":1747905095,"current_range_meters":16400,"station_id":"ce4bhmp2rcd13ifvqgog","pricing_plan_id":"cebpf4jnsgd1na2vs0mg"},{"bike_id":"15ca0dc1-ba43-4c0b-8115-4fd83d8c003b","system_id":"levelo_inurba_marseille","lat":43.231787,"lon":5.399868,"is_reserved":false,"is_disabled":false,"rental_uris":{"android":"levelo://app?vid=15ca0dc1-ba43-4c0b-8115-4fd83d8c003b","ios":"levelo://app?vid=15ca0dc1-ba43-4c0b-8115-4fd83d8c003b"},"vehicle_type_id":"4","last_reported":1747905095,"current_range_meters":16400,"station_id":"ce4bhn12rcd13ifvqgqg","pricing_plan_id":"cebpf4jnsgd1na2vs0mg"},{"bike_id":"e307b94c-fa59-4182-91e2-cae2f896c5e1","system_id":"levelo_inurba_marseille","lat":43.321048,"lon":5.367787,"is_reserved":false,"is_disabled":false,"rental_uris":{"android":"levelo://app?vid=e307b94c-fa59-4182-91e2-cae2f896c5e1","ios":"levelo://app?vid=e307b94c-fa59-4182-91e2-cae2f896c5e1"},"vehicle_type_id":"4","last_reported":1747905095,"current_range_meters":16400,"station_id":"ce4bhrh2rcd13ifvqhug","pricing_plan_id":"cebpf4jnsgd1na2vs0mg"},{"bike_id":"41bef200-0210-46a9-afd1-c001d345c4b0","system_id":"levelo_inurba_marseille","lat":43.33654,"lon":5.37834,"is_reserved":false,"is_disabled":false,"rental_uris":{"android":"levelo://app?vid=41bef200-0210-46a9-afd1-c001d345c4b0","ios":"levelo://app?vid=41bef200-0210-46a9-afd1-c001d345c4b0"},"vehicle_type_id":"4","last_reported":1747905095,"current_range_meters":16800,"station_id":"","pricing_plan_id":"cebpf4jnsgd1na2vs0mg"},{"bike_id":"28de7704-a253-4915-94b2-9c027f990162","system_id":"levelo_inurba_marseille","lat":43.309482,"lon":5.39072,"is_reserved":false,"is_disabled":false,"rental_uris":{"android":"levelo://app?vid=28de7704-a253-4915-94b2-9c027f990162","ios":"levelo://app?vid=28de7704-a253-4915-94b2-9c027f990162"},"vehicle_type_id":"4","last_reported":1747905095,"current_range_meters":16800,"station_id":"ce4bgup2rcd13ifvqco0","pricing_plan_id":"cebpf4jnsgd1na2vs0mg"},{"bike_id":"504baffc-ad18-42f1-ba3c-e8815f65a9f8","system_id":"levelo_inurba_marseille","lat":43.26579,"lon":5.39014,"is_reserved":false,"is_disabled":false,"rental_uris":{"android":"levelo://app?vid=504baffc-ad18-42f1-ba3c-e8815f65a9f8","ios":"levelo://app?vid=504baffc-ad18-42f1-ba3c-e8815f65a9f8"},"vehicle_type_id":"4","last_reported":1747905095,"current_range_meters":16800,"station_id":"ce4bhe12rcd13ifvqf30","pricing_plan_id":"cebpf4jnsgd1na2vs0mg"},{"bike_id":"1fbabb97-62f0-4a93-b947-ece62f4d7180","system_id":"levelo_inurba_marseille","lat":43.26493,"lon":5.39551,"is_reserved":false,"is_disabled":false,"rental_uris":{"android":"levelo://app?vid=1fbabb97-62f0-4a93-b947-ece62f4d7180","ios":"levelo://app?vid=1fbabb97-62f0-4a93-b947-ece62f4d7180"},"vehicle_type_id":"4","last_reported":1747905095,"current_range_meters":16800,"station_id":"ce4bhi12rcd13ifvqfq0","pricing_plan_id":"cebpf4jnsgd1na2vs0mg"},{"bike_id":"93de0502-d353-47e0-9a51-14ee1e59465b","system_id":"levelo_inurba_marseille","lat":43.2315,"lon":5.43713,"is_reserved":false,"is_disabled":false,"rental_uris":{"android":"levelo://app?vid=93de0502-d353-47e0-9a51-14ee1e59465b","ios":"levelo://app?vid=93de0502-d353-47e0-9a51-14ee1e59465b"},"vehicle_type_id":"4","last_reported":1747905095,"current_range_meters":16800,"station_id":"ce4bhmp2rcd13ifvqgog","pricing_plan_id":"cebpf4jnsgd1na2vs0mg"},{"bike_id":"aeeedd9d-21b0-4b54-93e3-74a63297bbbf","system_id":"levelo_inurba_marseille","lat":43.24066,"lon":5.37715,"is_reserved":false,"is_disabled":false,"rental_uris":{"android":"levelo://app?vid=aeeedd9d-21b0-4b54-93e3-74a63297bbbf","ios":"levelo://app?vid=aeeedd9d-21b0-4b54-93e3-74a63297bbbf"},"vehicle_type_id":"4","last_reported":1747905095,"current_range_meters":16800,"station_id":"ce4bhnp2rcd13ifvqgvg","pricing_plan_id":"cebpf4jnsgd1na2vs0mg"},{"bike_id":"605be4bf-deee-4b33-a4cb-0294e9797557","system_id":"levelo_inurba_marseille","lat":43.23067,"lon":5.35477,"is_reserved":false,"is_disabled":false,"rental_uris":{"android":"levelo://app?vid=605be4bf-deee-4b33-a4cb-0294e9797557","ios":"levelo://app?vid=605be4bf-deee-4b33-a4cb-0294e9797557"},"vehicle_type_id":"4","last_reported":1747905095,"current_range_meters":16800,"station_id":"cpo3342slgdg3j2ifvpg","pricing_plan_id":"cebpf4jnsgd1na2vs0mg"},{"bike_id":"79976b99-3f33-4a14-84cb-61d1f3e4a514","system_id":"levelo_inurba_marseille","lat":43.299018,"lon":5.381591,"is_reserved":false,"is_disabled":false,"rental_uris":{"android":"levelo://app?vid=79976b99-3f33-4a14-84cb-61d1f3e4a514","ios":"levelo://app?vid=79976b99-3f33-4a14-84cb-61d1f3e4a514"},"vehicle_type_id":"4","last_reported":1747905095,"current_range_meters":17200,"station_id":"ce4bgj12rcd13ifvqbc0","pricing_plan_id":"cebpf4jnsgd1na2vs0mg"},{"bike_id":"cbc3aab2-fa9c-419c-9bb2-a94a9e94bd07","system_id":"levelo_inurba_marseille","lat":43.26676,"lon":5.38268,"is_reserved":false,"is_disabled":false,"rental_uris":{"android":"levelo://app?vid=cbc3aab2-fa9c-419c-9bb2-a94a9e94bd07","ios":"levelo://app?vid=cbc3aab2-fa9c-419c-9bb2-a94a9e94bd07"},"vehicle_type_id":"4","last_reported":1747905095,"current_range_meters":17200,"station_id":"ce4bhg92rcd13ifvqf90","pricing_plan_id":"cebpf4jnsgd1na2vs0mg"},{"bike_id":"9d009e49-50fd-44ce-a336-f3e45a754c39","system_id":"levelo_inurba_marseille","lat":43.24679,"lon":5.38156,"is_reserved":false,"is_disabled":false,"rental_uris":{"android":"levelo://app?vid=9d009e49-50fd-44ce-a336-f3e45a754c39","ios":"levelo://app?vid=9d009e49-50fd-44ce-a336-f3e45a754c39"},"vehicle_type_id":"4","last_reported":1747905095,"current_range_meters":17200,"station_id":"ce4bhih2rcd13ifvqfr0","pricing_plan_id":"cebpf4jnsgd1na2vs0mg"},{"bike_id":"e5e94367-a52e-4db2-9b83-8db365660e30","system_id":"levelo_inurba_marseille","lat":43.25943,"lon":5.40888,"is_reserved":false,"is_disabled":false,"rental_uris":{"android":"levelo://app?vid=e5e94367-a52e-4db2-9b83-8db365660e30","ios":"levelo://app?vid=e5e94367-a52e-4db2-9b83-8db365660e30"},"vehicle_type_id":"4","last_reported":1747905095,"current_range_meters":17200,"station_id":"ce4bhm92rcd13ifvqglg","pricing_plan_id":"cebpf4jnsgd1na2vs0mg"},{"bike_id":"ab8db0b0-a723-48e5-b9ae-751cc4a9f1af","system_id":"levelo_inurba_marseille","lat":43.287018,"lon":5.399883,"is_reserved":false,"is_disabled":false,"rental_uris":{"android":"levelo://app?vid=ab8db0b0-a723-48e5-b9ae-751cc4a9f1af","ios":"levelo://app?vid=ab8db0b0-a723-48e5-b9ae-751cc4a9f1af"},"vehicle_type_id":"4","last_reported":1747905095,"current_range_meters":17200,"station_id":"ce4bho92rcd13ifvqh3g","pricing_plan_id":"cebpf4jnsgd1na2vs0mg"},{"bike_id":"0bbbaff3-0dbe-42db-b1d6-4aa4f46e17fd","system_id":"levelo_inurba_marseille","lat":43.32504,"lon":5.36577,"is_reserved":false,"is_disabled":false,"rental_uris":{"android":"levelo://app?vid=0bbbaff3-0dbe-42db-b1d6-4aa4f46e17fd","ios":"levelo://app?vid=0bbbaff3-0dbe-42db-b1d6-4aa4f46e17fd"},"vehicle_type_id":"4","last_reported":1747905095,"current_range_meters":17200,"station_id":"ce4bhs12rcd13ifvqhvg","pricing_plan_id":"cebpf4jnsgd1na2vs0mg"},{"bike_id":"d1a3574b-47e6-4d48-aa1d-99b5ec3aed0d","system_id":"levelo_inurba_marseille","lat":43.29975,"lon":5.38504,"is_reserved":false,"is_disabled":false,"rental_uris":{"android":"levelo://app?vid=d1a3574b-47e6-4d48-aa1d-99b5ec3aed0d","ios":"levelo://app?vid=d1a3574b-47e6-4d48-aa1d-99b5ec3aed0d"},"vehicle_type_id":"4","last_reported":1747905095,"current_range_meters":17600,"station_id":"ce4bgj92rcd13ifvqbd0","pricing_plan_id":"cebpf4jnsgd1na2vs0mg"},{"bike_id":"c2285a02-ae83-49f4-a4d4-2f0f0bcd3c5b","system_id":"levelo_inurba_marseille","lat":43.29627,"lon":5.37159,"is_reserved":false,"is_disabled":false,"rental_uris":{"android":"levelo://app?vid=c2285a02-ae83-49f4-a4d4-2f0f0bcd3c5b","ios":"levelo://app?vid=c2285a02-ae83-49f4-a4d4-2f0f0bcd3c5b"},"vehicle_type_id":"4","last_reported":1747905095,"current_range_meters":17600,"station_id":"ce4bgnh2rcd13ifvqc0g","pricing_plan_id":"cebpf4jnsgd1na2vs0mg"},{"bike_id":"5c159cfc-03b1-4c79-883c-89448a2514c1","system_id":"levelo_inurba_marseille","lat":43.29853,"lon":5.36265,"is_reserved":false,"is_disabled":false,"rental_uris":{"android":"levelo://app?vid=5c159cfc-03b1-4c79-883c-89448a2514c1","ios":"levelo://app?vid=5c159cfc-03b1-4c79-883c-89448a2514c1"},"vehicle_type_id":"4","last_reported":1747905095,"current_range_meters":17600,"station_id":"ce4bgpp2rcd13ifvqc3g","pricing_plan_id":"cebpf4jnsgd1na2vs0mg"},{"bike_id":"aeb693c4-532a-417d-92a0-53c0678a4230","system_id":"levelo_inurba_marseille","lat":43.3095,"lon":5.39036,"is_reserved":false,"is_disabled":false,"rental_uris":{"android":"levelo://app?vid=aeb693c4-532a-417d-92a0-53c0678a4230","ios":"levelo://app?vid=aeb693c4-532a-417d-92a0-53c0678a4230"},"vehicle_type_id":"4","last_reported":1747905095,"current_range_meters":17600,"station_id":"ce4bgup2rcd13ifvqco0","pricing_plan_id":"cebpf4jnsgd1na2vs0mg"},{"bike_id":"94bc2147-98e6-4f05-a046-261e5df72191","system_id":"levelo_inurba_marseille","lat":43.2909,"lon":5.38151,"is_reserved":false,"is_disabled":false,"rental_uris":{"android":"levelo://app?vid=94bc2147-98e6-4f05-a046-261e5df72191","ios":"levelo://app?vid=94bc2147-98e6-4f05-a046-261e5df72191"},"vehicle_type_id":"4","last_reported":1747905095,"current_range_meters":17600,"station_id":"ce4bh512rcd13ifvqe2g","pricing_plan_id":"cebpf4jnsgd1na2vs0mg"},{"bike_id":"6dde22b3-be2c-4353-838d-05c85608e4d3","system_id":"levelo_inurba_marseille","lat":43.32363,"lon":5.36778,"is_reserved":false,"is_disabled":false,"rental_uris":{"android":"levelo://app?vid=6dde22b3-be2c-4353-838d-05c85608e4d3","ios":"levelo://app?vid=6dde22b3-be2c-4353-838d-05c85608e4d3"},"vehicle_type_id":"4","last_reported":1747905095,"current_range_meters":17600,"station_id":"ce4bhsh2rcd13ifvqi2g","pricing_plan_id":"cebpf4jnsgd1na2vs0mg"},{"bike_id":"c0a363d1-3bb5-4d7a-a4e8-50a1272c1a00","system_id":"levelo_inurba_marseille","lat":43.23192,"lon":5.35547,"is_reserved":false,"is_disabled":false,"rental_uris":{"android":"levelo://app?vid=c0a363d1-3bb5-4d7a-a4e8-50a1272c1a00","ios":"levelo://app?vid=c0a363d1-3bb5-4d7a-a4e8-50a1272c1a00"},"vehicle_type_id":"4","last_reported":1747905095,"current_range_meters":17600,"station_id":"ce4bhu92rcd13ifvqi70","pricing_plan_id":"cebpf4jnsgd1na2vs0mg"},{"bike_id":"37844bcf-e6b5-4f86-9cc0-88711b06431d","system_id":"levelo_inurba_marseille","lat":43.30294,"lon":5.3729,"is_reserved":false,"is_disabled":false,"rental_uris":{"android":"levelo://app?vid=37844bcf-e6b5-4f86-9cc0-88711b06431d","ios":"levelo://app?vid=37844bcf-e6b5-4f86-9cc0-88711b06431d"},"vehicle_type_id":"4","last_reported":1747905095,"current_range_meters":18000,"station_id":"","pricing_plan_id":"cebpf4jnsgd1na2vs0mg"},{"bike_id":"0e81d7d5-1d06-48e3-8278-e8b0ba786610","system_id":"levelo_inurba_marseille","lat":43.30543,"lon":5.36698,"is_reserved":false,"is_disabled":false,"rental_uris":{"android":"levelo://app?vid=0e81d7d5-1d06-48e3-8278-e8b0ba786610","ios":"levelo://app?vid=0e81d7d5-1d06-48e3-8278-e8b0ba786610"},"vehicle_type_id":"4","last_reported":1747905095,"current_range_meters":18000,"station_id":"ce4bgrp2rcd13ifvqc9g","pricing_plan_id":"cebpf4jnsgd1na2vs0mg"},{"bike_id":"80241dad-f490-4b2a-a415-72bda513d65a","system_id":"levelo_inurba_marseille","lat":43.29162,"lon":5.37148,"is_reserved":false,"is_disabled":false,"rental_uris":{"android":"levelo://app?vid=80241dad-f490-4b2a-a415-72bda513d65a","ios":"levelo://app?vid=80241dad-f490-4b2a-a415-72bda513d65a"},"vehicle_type_id":"4","last_reported":1747905095,"current_range_meters":18000,"station_id":"ce4bha92rcd13ifvqeh0","pricing_plan_id":"cebpf4jnsgd1na2vs0mg"},{"bike_id":"12312cb8-e991-4b6e-9e36-5053a5e49a80","system_id":"levelo_inurba_marseille","lat":43.266848,"lon":5.382762,"is_reserved":false,"is_disabled":false,"rental_uris":{"android":"levelo://app?vid=12312cb8-e991-4b6e-9e36-5053a5e49a80","ios":"levelo://app?vid=12312cb8-e991-4b6e-9e36-5053a5e49a80"},"vehicle_type_id":"4","last_reported":1747905095,"current_range_meters":18000,"station_id":"ce4bhg92rcd13ifvqf90","pricing_plan_id":"cebpf4jnsgd1na2vs0mg"},{"bike_id":"03c812a5-62e2-43ea-8462-7667c3c90999","system_id":"levelo_inurba_marseille","lat":43.26957,"lon":5.3863,"is_reserved":false,"is_disabled":false,"rental_uris":{"android":"levelo://app?vid=03c812a5-62e2-43ea-8462-7667c3c90999","ios":"levelo://app?vid=03c812a5-62e2-43ea-8462-7667c3c90999"},"vehicle_type_id":"4","last_reported":1747905095,"current_range_meters":18000,"station_id":"ce4bhh92rcd13ifvqfh0","pricing_plan_id":"cebpf4jnsgd1na2vs0mg"},{"bike_id":"9b4af3c1-9b57-4c48-a4c0-6037a1b4a081","system_id":"levelo_inurba_marseille","lat":43.32509,"lon":5.36576,"is_reserved":false,"is_disabled":false,"rental_uris":{"android":"levelo://app?vid=9b4af3c1-9b57-4c48-a4c0-6037a1b4a081","ios":"levelo://app?vid=9b4af3c1-9b57-4c48-a4c0-6037a1b4a081"},"vehicle_type_id":"4","last_reported":1747905095,"current_range_meters":18000,"station_id":"ce4bhs12rcd13ifvqhvg","pricing_plan_id":"cebpf4jnsgd1na2vs0mg"},{"bike_id":"1a340bac-8012-4c7c-b50a-247d19f083a9","system_id":"levelo_inurba_marseille","lat":43.2251,"lon":5.34779,"is_reserved":false,"is_disabled":false,"rental_uris":{"android":"levelo://app?vid=1a340bac-8012-4c7c-b50a-247d19f083a9","ios":"levelo://app?vid=1a340bac-8012-4c7c-b50a-247d19f083a9"},"vehicle_type_id":"4","last_reported":1747905095,"current_range_meters":18000,"station_id":"st_cvj5dfep6f1abm77gieg","pricing_plan_id":"cebpf4jnsgd1na2vs0mg"},{"bike_id":"beb93ece-8a2b-401d-b7e3-ad77b01ce941","system_id":"levelo_inurba_marseille","lat":43.2177,"lon":5.34582,"is_reserved":false,"is_disabled":false,"rental_uris":{"android":"levelo://app?vid=beb93ece-8a2b-401d-b7e3-ad77b01ce941","ios":"levelo://app?vid=beb93ece-8a2b-401d-b7e3-ad77b01ce941"},"vehicle_type_id":"4","last_reported":1747905095,"current_range_meters":18000,"station_id":"st_cvj6r9ubvosntc0bgbag","pricing_plan_id":"cebpf4jnsgd1na2vs0mg"},{"bike_id":"eb75f2c9-0584-4860-83bb-57d4e524078e","system_id":"levelo_inurba_marseille","lat":43.337467,"lon":5.373824,"is_reserved":false,"is_disabled":false,"rental_uris":{"android":"levelo://app?vid=eb75f2c9-0584-4860-83bb-57d4e524078e","ios":"levelo://app?vid=eb75f2c9-0584-4860-83bb-57d4e524078e"},"vehicle_type_id":"4","last_reported":1747905095,"current_range_meters":18800,"station_id":"","pricing_plan_id":"cebpf4jnsgd1na2vs0mg"},{"bike_id":"2ddb24cb-f872-44d4-bcc1-9e19c13c22a1","system_id":"levelo_inurba_marseille","lat":43.30902,"lon":5.36861,"is_reserved":false,"is_disabled":false,"rental_uris":{"android":"levelo://app?vid=2ddb24cb-f872-44d4-bcc1-9e19c13c22a1","ios":"levelo://app?vid=2ddb24cb-f872-44d4-bcc1-9e19c13c22a1"},"vehicle_type_id":"4","last_reported":1747905095,"current_range_meters":18800,"station_id":"ce4bgn92rcd13ifvqbvg","pricing_plan_id":"cebpf4jnsgd1na2vs0mg"},{"bike_id":"87bc77ba-13cc-462b-9ced-d8e87c878b23","system_id":"levelo_inurba_marseille","lat":43.30319,"lon":5.36891,"is_reserved":false,"is_disabled":false,"rental_uris":{"android":"levelo://app?vid=87bc77ba-13cc-462b-9ced-d8e87c878b23","ios":"levelo://app?vid=87bc77ba-13cc-462b-9ced-d8e87c878b23"},"vehicle_type_id":"4","last_reported":1747905095,"current_range_meters":18800,"station_id":"ce4bgqh2rcd13ifvqc5g","pricing_plan_id":"cebpf4jnsgd1na2vs0mg"},{"bike_id":"124ab8f5-c613-4e9a-a2f1-2092d5de6e85","system_id":"levelo_inurba_marseille","lat":43.30288,"lon":5.36938,"is_reserved":false,"is_disabled":false,"rental_uris":{"android":"levelo://app?vid=124ab8f5-c613-4e9a-a2f1-2092d5de6e85","ios":"levelo://app?vid=124ab8f5-c613-4e9a-a2f1-2092d5de6e85"},"vehicle_type_id":"4","last_reported":1747905095,"current_range_meters":18800,"station_id":"ce4bgqh2rcd13ifvqc5g","pricing_plan_id":"cebpf4jnsgd1na2vs0mg"},{"bike_id":"8facb1cb-4a30-47c0-93e6-35f9dd0b6f7c","system_id":"levelo_inurba_marseille","lat":43.25935,"lon":5.40899,"is_reserved":false,"is_disabled":false,"rental_uris":{"android":"levelo://app?vid=8facb1cb-4a30-47c0-93e6-35f9dd0b6f7c","ios":"levelo://app?vid=8facb1cb-4a30-47c0-93e6-35f9dd0b6f7c"},"vehicle_type_id":"4","last_reported":1747905095,"current_range_meters":18800,"station_id":"ce4bhm92rcd13ifvqglg","pricing_plan_id":"cebpf4jnsgd1na2vs0mg"},{"bike_id":"87e9996f-5f1d-44f5-8662-35bdaa1952f1","system_id":"levelo_inurba_marseille","lat":43.259339,"lon":5.408956,"is_reserved":false,"is_disabled":false,"rental_uris":{"android":"levelo://app?vid=87e9996f-5f1d-44f5-8662-35bdaa1952f1","ios":"levelo://app?vid=87e9996f-5f1d-44f5-8662-35bdaa1952f1"},"vehicle_type_id":"4","last_reported":1747905095,"current_range_meters":18800,"station_id":"ce4bhm92rcd13ifvqglg","pricing_plan_id":"cebpf4jnsgd1na2vs0mg"},{"bike_id":"64d3b7fb-648e-4546-9312-8a636ace5da2","system_id":"levelo_inurba_marseille","lat":43.28699,"lon":5.39989,"is_reserved":false,"is_disabled":false,"rental_uris":{"android":"levelo://app?vid=64d3b7fb-648e-4546-9312-8a636ace5da2","ios":"levelo://app?vid=64d3b7fb-648e-4546-9312-8a636ace5da2"},"vehicle_type_id":"4","last_reported":1747905095,"current_range_meters":18800,"station_id":"ce4bho92rcd13ifvqh3g","pricing_plan_id":"cebpf4jnsgd1na2vs0mg"},{"bike_id":"fb37c12e-72aa-4e9a-8b92-5c6606bf83ba","system_id":"levelo_inurba_marseille","lat":43.32556,"lon":5.4144,"is_reserved":false,"is_disabled":false,"rental_uris":{"android":"levelo://app?vid=fb37c12e-72aa-4e9a-8b92-5c6606bf83ba","ios":"levelo://app?vid=fb37c12e-72aa-4e9a-8b92-5c6606bf83ba"},"vehicle_type_id":"4","last_reported":1747905095,"current_range_meters":18800,"station_id":"ce4bhq12rcd13ifvqhhg","pricing_plan_id":"cebpf4jnsgd1na2vs0mg"},{"bike_id":"0e27a530-5aca-4bdb-bcfe-2711f03311f8","system_id":"levelo_inurba_marseille","lat":43.21737,"lon":5.34602,"is_reserved":false,"is_disabled":false,"rental_uris":{"android":"levelo://app?vid=0e27a530-5aca-4bdb-bcfe-2711f03311f8","ios":"levelo://app?vid=0e27a530-5aca-4bdb-bcfe-2711f03311f8"},"vehicle_type_id":"4","last_reported":1747905095,"current_range_meters":18800,"station_id":"st_cvj6r9ubvosntc0bgbag","pricing_plan_id":"cebpf4jnsgd1na2vs0mg"},{"bike_id":"0cfe66f0-965f-44d8-a817-e5d8c1799e12","system_id":"levelo_inurba_marseille","lat":43.27497,"lon":5.42456,"is_reserved":false,"is_disabled":false,"rental_uris":{"android":"levelo://app?vid=0cfe66f0-965f-44d8-a817-e5d8c1799e12","ios":"levelo://app?vid=0cfe66f0-965f-44d8-a817-e5d8c1799e12"},"vehicle_type_id":"4","last_reported":1747905095,"current_range_meters":19200,"station_id":"","pricing_plan_id":"cebpf4jnsgd1na2vs0mg"},{"bike_id":"c2c332d5-b60f-4d79-9a13-3d2f3a0aa909","system_id":"levelo_inurba_marseille","lat":43.29853,"lon":5.36287,"is_reserved":false,"is_disabled":false,"rental_uris":{"android":"levelo://app?vid=c2c332d5-b60f-4d79-9a13-3d2f3a0aa909","ios":"levelo://app?vid=c2c332d5-b60f-4d79-9a13-3d2f3a0aa909"},"vehicle_type_id":"4","last_reported":1747905095,"current_range_meters":19200,"station_id":"ce4bgpp2rcd13ifvqc3g","pricing_plan_id":"cebpf4jnsgd1na2vs0mg"},{"bike_id":"84f2ef45-8f8c-450d-9a56-9926e212404d","system_id":"levelo_inurba_marseille","lat":43.30526,"lon":5.36711,"is_reserved":false,"is_disabled":false,"rental_uris":{"android":"levelo://app?vid=84f2ef45-8f8c-450d-9a56-9926e212404d","ios":"levelo://app?vid=84f2ef45-8f8c-450d-9a56-9926e212404d"},"vehicle_type_id":"4","last_reported":1747905095,"current_range_meters":19200,"station_id":"ce4bgrp2rcd13ifvqc9g","pricing_plan_id":"cebpf4jnsgd1na2vs0mg"},{"bike_id":"49b3baec-fca5-4914-a130-324af10d186b","system_id":"levelo_inurba_marseille","lat":43.29036,"lon":5.37567,"is_reserved":false,"is_disabled":false,"rental_uris":{"android":"levelo://app?vid=49b3baec-fca5-4914-a130-324af10d186b","ios":"levelo://app?vid=49b3baec-fca5-4914-a130-324af10d186b"},"vehicle_type_id":"4","last_reported":1747905095,"current_range_meters":19200,"station_id":"ce4bh692rcd13ifvqe90","pricing_plan_id":"cebpf4jnsgd1na2vs0mg"},{"bike_id":"e3938353-cdc7-4649-ae91-1dd94b0253b5","system_id":"levelo_inurba_marseille","lat":43.26239,"lon":5.40449,"is_reserved":false,"is_disabled":false,"rental_uris":{"android":"levelo://app?vid=e3938353-cdc7-4649-ae91-1dd94b0253b5","ios":"levelo://app?vid=e3938353-cdc7-4649-ae91-1dd94b0253b5"},"vehicle_type_id":"4","last_reported":1747905095,"current_range_meters":19200,"station_id":"ce4bhmh2rcd13ifvqgmg","pricing_plan_id":"cebpf4jnsgd1na2vs0mg"},{"bike_id":"1ac1b0ee-ec0f-42ca-aba5-be99a51af258","system_id":"levelo_inurba_marseille","lat":43.27813,"lon":5.4072,"is_reserved":false,"is_disabled":false,"rental_uris":{"android":"levelo://app?vid=1ac1b0ee-ec0f-42ca-aba5-be99a51af258","ios":"levelo://app?vid=1ac1b0ee-ec0f-42ca-aba5-be99a51af258"},"vehicle_type_id":"4","last_reported":1747905095,"current_range_meters":19200,"station_id":"ce4bhnh2rcd13ifvqgtg","pricing_plan_id":"cebpf4jnsgd1na2vs0mg"},{"bike_id":"43a657ed-141d-4123-bdc0-b4f84e3b5df8","system_id":"levelo_inurba_marseille","lat":43.24069,"lon":5.37748,"is_reserved":false,"is_disabled":false,"rental_uris":{"android":"levelo://app?vid=43a657ed-141d-4123-bdc0-b4f84e3b5df8","ios":"levelo://app?vid=43a657ed-141d-4123-bdc0-b4f84e3b5df8"},"vehicle_type_id":"4","last_reported":1747905095,"current_range_meters":19200,"station_id":"ce4bhnp2rcd13ifvqgvg","pricing_plan_id":"cebpf4jnsgd1na2vs0mg"},{"bike_id":"c6bf2e46-fb2f-4485-b1e5-f93500b0678b","system_id":"levelo_inurba_marseille","lat":43.23079,"lon":5.35496,"is_reserved":false,"is_disabled":false,"rental_uris":{"android":"levelo://app?vid=c6bf2e46-fb2f-4485-b1e5-f93500b0678b","ios":"levelo://app?vid=c6bf2e46-fb2f-4485-b1e5-f93500b0678b"},"vehicle_type_id":"4","last_reported":1747905095,"current_range_meters":19200,"station_id":"cpo3342slgdg3j2ifvpg","pricing_plan_id":"cebpf4jnsgd1na2vs0mg"},{"bike_id":"5d5e5678-6c06-4b9c-83ef-1860659179ea","system_id":"levelo_inurba_marseille","lat":43.29507,"lon":5.37508,"is_reserved":false,"is_disabled":false,"rental_uris":{"android":"levelo://app?vid=5d5e5678-6c06-4b9c-83ef-1860659179ea","ios":"levelo://app?vid=5d5e5678-6c06-4b9c-83ef-1860659179ea"},"vehicle_type_id":"4","last_reported":1747905095,"current_range_meters":19600,"station_id":"ce4bgkp2rcd13ifvqbmg","pricing_plan_id":"cebpf4jnsgd1na2vs0mg"},{"bike_id":"be3ea1c4-eda6-4bc1-ba9f-317d5a3d440f","system_id":"levelo_inurba_marseille","lat":43.309147,"lon":5.368395,"is_reserved":false,"is_disabled":false,"rental_uris":{"android":"levelo://app?vid=be3ea1c4-eda6-4bc1-ba9f-317d5a3d440f","ios":"levelo://app?vid=be3ea1c4-eda6-4bc1-ba9f-317d5a3d440f"},"vehicle_type_id":"4","last_reported":1747905095,"current_range_meters":19600,"station_id":"ce4bgn92rcd13ifvqbvg","pricing_plan_id":"cebpf4jnsgd1na2vs0mg"},