{"last_updated":1718896140,"ttl":30,"version":"2.2","data":{"bikes":[{"bike_id":"dce32e09-2bc4-487d-afba-5a8369dd29fb","system_id":"levelo_inurba_marseille","lat":43.313524,"lon":5.367283,"is_reserved":false,"is_disabled":false,"rental_uris":{"android":"levelo://app?vid=dce32e09-2bc4-487d-afba-5a8369dd29fb","ios":"levelo://app?vid=dce32e09-2bc4-487d-afba-5a8369dd29fb"},"vehicle_type_id":"4","last_reported":1718896140,"current_range_meters":400,"station_id":"ce4bgr92rcd13ifvqc6g","pricing_plan_id":"cebpf4jnsgd1na2vs0mg"},{"bike_id":"2bb74573-5462-4421-8953-a6c4a4aa2ee4","system_id":"levelo_inurba_marseille","lat":43.31228,"lon":5.36858,"is_reserved":false,"is_disabled":false,"rental_uris":{"android":"levelo://app?vid=2bb74573-5462-4421-8953-a6c4a4aa2ee4","ios":"levelo://app?vid=2bb74573-5462-4421-8953-a6c4a4aa2ee4"},"vehicle_type_id":"4","last_reported":1718896140,"current_range_meters":0,"station_id":"ce4bgl92rcd13ifvqbq0","pricing_plan_id":"cebpf4jnsgd1na2vs0mg"},{"bike_id":"9bf8c8b3-1d9f-4ba1-9cbd-dd9129eadb97","system_id":"levelo_inurba_marseille","lat":43.312239,"lon":5.368562,"is_reserved":false,"is_disabled":false,"rental_uris":{"android":"levelo://app?vid=9bf8c8b3-1d9f-4ba1-9cbd-dd9129eadb97","ios":"levelo://app?vid=9bf8c8b3-1d9f-4ba1-9cbd-dd9129eadb97"},"vehicle_type_id":"4","last_reported":1718896140,"current_range_meters":30400,"station_id":"ce4bgl92rcd13ifvqbq0","pricing_plan_id":"cebpf4jnsgd1na2vs0mg"},{"bike_id":"01841d37-0923-4e85-8856-b65647daa745","system_id":"levelo_inurba_marseille","lat":43.30945,"lon":5.368585,"is_reserved":false,"is_disabled":false,"rental_uris":{"android":"levelo://app?vid=01841d37-0923-4e85-8856-b65647daa745","ios":"levelo://app?vid=01841d37-0923-4e85-8856-b65647daa745"},"vehicle_type_id":"4","last_reported":1718896140,"current_range_meters":16800,"station_id":"","pricing_plan_id":"cebpf4jnsgd1na2vs0mg"},{"bike_id":"3b1bf103-a265-4b2f-851a-20d00fdbbbfa","system_id":"levelo_inurba_marseille","lat":43.314811,"lon":5.373103,"is_reserved":false,"is_disabled":false,"rental_uris":{"android":"levelo://app?vid=3b1bf103-a265-4b2f-851a-20d00fdbbbfa","ios":"levelo://app?vid=3b1bf103-a265-4b2f-851a-20d00fdbbbfa"},"vehicle_type_id":"4","last_reported":1718896140,"current_range_meters":17200,"station_id":"ce4bgt12rcd13ifvqcd0","pricing_plan_id":"cebpf4jnsgd1na2vs0mg"},{"bike_id":"1c354d20-5eb3-434b-ace5-fe08833cc3fa","system_id":"levelo_inurba_marseille","lat":43.30902,"lon":5.37193,"is_reserved":false,"is_disabled":false,"rental_uris":{"android":"levelo://app?vid=1c354d20-5eb3-434b-ace5-fe08833cc3fa","ios":"levelo://app?vid=1c354d20-5eb3-434b-ace5-fe08833cc3fa"},"vehicle_type_id":"4","last_reported":1718896140,"current_range_meters":24000,"station_id":"ce4bguh2rcd13ifvqckg","pricing_plan_id":"cebpf4jnsgd1na2vs0mg"},{"bike_id":"e581c3a4-dd75-4599-ae9f-870dcc321650","system_id":"levelo_inurba_marseille","lat":43.308974,"lon":5.371876,"is_reserved":false,"is_disabled":false,"rental_uris":{"android":"levelo://app?vid=e581c3a4-dd75-4599-ae9f-870dcc321650","ios":"levelo://app?vid=e581c3a4-dd75-4599-ae9f-870dcc321650"},"vehicle_type_id":"4","last_reported":1718896140,"current_range_meters":20400,"station_id":"ce4bguh2rcd13ifvqckg","pricing_plan_id":"cebpf4jnsgd1na2vs0mg"},{"bike_id":"e2fb6472-f502-48e6-b0d8-8eab50841c19","system_id":"levelo_inurba_marseille","lat":43.30894,"lon":5.37185,"is_reserved":false,"is_disabled":false,"rental_uris":{"android":"levelo://app?vid=e2fb6472-f502-48e6-b0d8-8eab50841c19","ios":"levelo://app?vid=e2fb6472-f502-48e6-b0d8-8eab50841c19"},"vehicle_type_id":"4","last_reported":1718896140,"current_range_meters":26400,"station_id":"ce4bguh2rcd13ifvqckg","pricing_plan_id":"cebpf4jnsgd1na2vs0mg"},{"bike_id":"56b3a0d9-fdd1-407e-a77d-68ff50401bc3","system_id":"levelo_inurba_marseille","lat":43.308896,"lon":5.371936,"is_reserved":false,"is_disabled":false,"rental_uris":{"android":"levelo://app?vid=56b3a0d9-fdd1-407e-a77d-68ff50401bc3","ios":"levelo://app?vid=56b3a0d9-fdd1-407e-a77d-68ff50401bc3"},"vehicle_type_id":"4","last_reported":1718896140,"current_range_meters":19600,"station_id":"ce4bguh2rcd13ifvqckg","pricing_plan_id":"cebpf4jnsgd1na2vs0mg"},{"bike_id":"7377e360-94b6-42ce-ac8d-406d1d4965df","system_id":"levelo_inurba_marseille","lat":43.308874,"lon":5.371936,"is_reserved":false,"is_disabled":false,"rental_uris":{"android":"levelo://app?vid=7377e360-94b6-42ce-ac8d-406d1d4965df","ios":"levelo://app?vid=7377e360-94b6-42ce-ac8d-406d1d4965df"},"vehicle_type_id":"4","last_reported":1718896140,"current_range_meters":31200,"station_id":"ce4bguh2rcd13ifvqckg","pricing_plan_id":"cebpf4jnsgd1na2vs0mg"},{"bike_id":"f97aff80-c409-4a9e-ab7f-ef76505025aa","system_id":"levelo_inurba_marseille","lat":43.31456,"lon":5.37379,"is_reserved":false,"is_disabled":false,"rental_uris":{"android":"levelo://app?vid=f97aff80-c409-4a9e-ab7f-ef76505025aa","ios":"levelo://app?vid=f97aff80-c409-4a9e-ab7f-ef76505025aa"},"vehicle_type_id":"4","last_reported":1718896140,"current_range_meters":30800,"station_id":"","pricing_plan_id":"cebpf4jnsgd1na2vs0mg"},{"bike_id":"77471a18-b2ec-4b20-b030-dc04ce46d686","system_id":"levelo_inurba_marseille","lat":43.30892,"lon":5.37201,"is_reserved":false,"is_disabled":false,"rental_uris":{"android":"levelo://app?vid=77471a18-b2ec-4b20-b030-dc04ce46d686","ios":"levelo://app?vid=77471a18-b2ec-4b20-b030-dc04ce46d686"},"vehicle_type_id":"4","last_reported":1718896140,"current_range_meters":31200,"station_id":"ce4bguh2rcd13ifvqckg","pricing_plan_id":"cebpf4jnsgd1na2vs0mg"},{"bike_id":"b4c713a8-5be8-4f66-9319-62c10ea3583a","system_id":"levelo_inurba_marseille","lat":43.30885,"lon":5.37192,"is_reserved":false,"is_disabled":false,"rental_uris":{"android":"levelo://app?vid=b4c713a8-5be8-4f66-9319-62c10ea3583a","ios":"levelo://app?vid=b4c713a8-5be8-4f66-9319-62c10ea3583a"},"vehicle_type_id":"4","last_reported":1718896140,"current_range_meters":22400,"station_id":"ce4bguh2rcd13ifvqckg","pricing_plan_id":"cebpf4jnsgd1na2vs0mg"},{"bike_id":"c7991928-4e9f-4346-b500-5996bedc60f4","system_id":"levelo_inurba_marseille","lat":43.309034,"lon":5.371783,"is_reserved":false,"is_disabled":false,"rental_uris":{"android":"levelo://app?vid=c7991928-4e9f-4346-b500-5996bedc60f4","ios":"levelo://app?vid=c7991928-4e9f-4346-b500-5996bedc60f4"},"vehicle_type_id":"4","last_reported":1718896140,"current_range_meters":31200,"station_id":"ce4bguh2rcd13ifvqckg","pricing_plan_id":"cebpf4jnsgd1na2vs0mg"},{"bike_id":"9f343050-7df0-4de3-9996-a3657976266e","system_id":"levelo_inurba_marseille","lat":43.316906,"lon":5.372806,"is_reserved":false,"is_disabled":false,"rental_uris":{"android":"levelo://app?vid=9f343050-7df0-4de3-9996-a3657976266e","ios":"levelo://app?vid=9f343050-7df0-4de3-9996-a3657976266e"},"vehicle_type_id":"4","last_reported":1718896140,"current_range_meters":25600,"station_id":"","pricing_plan_id":"cebpf4jnsgd1na2vs0mg"},{"bike_id":"059a2d61-7719-4640-a8ca-83de8bd337e2","system_id":"levelo_inurba_marseille","lat":43.307945,"lon":5.376487,"is_reserved":false,"is_disabled":false,"rental_uris":{"android":"levelo://app?vid=059a2d61-7719-4640-a8ca-83de8bd337e2","ios":"levelo://app?vid=059a2d61-7719-4640-a8ca-83de8bd337e2"},"vehicle_type_id":"4","last_reported":1718896140,"current_range_meters":31600,"station_id":"ce4bgv92rcd13ifvqcq0","pricing_plan_id":"cebpf4jnsgd1na2vs0mg"},{"bike_id":"20f31c62-307b-4c16-93b6-6fcc5accd677","system_id":"levelo_inurba_marseille","lat":43.30546,"lon":5.36673,"is_reserved":false,"is_disabled":false,"rental_uris":{"android":"levelo://app?vid=20f31c62-307b-4c16-93b6-6fcc5accd677","ios":"levelo://app?vid=20f31c62-307b-4c16-93b6-6fcc5accd677"},"vehicle_type_id":"4","last_reported":1718896140,"current_range_meters":16400,"station_id":"","pricing_plan_id":"cebpf4jnsgd1na2vs0mg"},{"bike_id":"d95ed3f7-4f66-43a5-b342-64a5c6ad9c56","system_id":"levelo_inurba_marseille","lat":43.30543,"lon":5.36701,"is_reserved":false,"is_disabled":false,"rental_uris":{"android":"levelo://app?vid=d95ed3f7-4f66-43a5-b342-64a5c6ad9c56","ios":"levelo://app?vid=d95ed3f7-4f66-43a5-b342-64a5c6ad9c56"},"vehicle_type_id":"4","last_reported":1718896140,"current_range_meters":0,"station_id":"ce4bgrp2rcd13ifvqc9g","pricing_plan_id":"cebpf4jnsgd1na2vs0mg"},{"bike_id":"ca3145eb-0e76-458c-9fad-d6bcd1f70d6e","system_id":"levelo_inurba_marseille","lat":43.305401,"lon":5.366381,"is_reserved":false,"is_disabled":false,"rental_uris":{"android":"levelo://app?vid=ca3145eb-0e76-458c-9fad-d6bcd1f70d6e","ios":"levelo://app?vid=ca3145eb-0e76-458c-9fad-d6bcd1f70d6e"},"vehicle_type_id":"4","last_reported":1718896140,"current_range_meters":20800,"station_id":"","pricing_plan_id":"cebpf4jnsgd1na2vs0mg"},{"bike_id":"ca9c29c0-e102-4a29-9bb7-8512f78db64d","system_id":"levelo_inurba_marseille","lat":43.305706,"lon":5.365654,"is_reserved":false,"is_disabled":false,"rental_uris":{"android":"levelo://app?vid=ca9c29c0-e102-4a29-9bb7-8512f78db64d","ios":"levelo://app?vid=ca9c29c0-e102-4a29-9bb7-8512f78db64d"},"vehicle_type_id":"4","last_reported":1718896140,"current_range_meters":8400,"station_id":"ce4bgs12rcd13ifvqcag","pricing_plan_id":"cebpf4jnsgd1na2vs0mg"},{"bike_id":"84601b5b-8504-4e11-8a1e-31d938ad1a7a","system_id":"levelo_inurba_marseille","lat":43.305714,"lon":5.365633,"is_reserved":false,"is_disabled":false,"rental_uris":{"android":"levelo://app?vid=84601b5b-8504-4e11-8a1e-31d938ad1a7a","ios":"levelo://app?vid=84601b5b-8504-4e11-8a1e-31d938ad1a7a"},"vehicle_type_id":"4","last_reported":1718896140,"current_range_meters":26800,"station_id":"ce4bgs12rcd13ifvqcag","pricing_plan_id":"cebpf4jnsgd1na2vs0mg"},{"bike_id":"ad5a8874-7019-43f6-9b57-b59e4726aa11","system_id":"levelo_inurba_marseille","lat":43.289307,"lon":5.38406,"is_reserved":false,"is_disabled":false,"rental_uris":{"android":"levelo://app?vid=ad5a8874-7019-43f6-9b57-b59e4726aa11","ios":"levelo://app?vid=ad5a8874-7019-43f6-9b57-b59e4726aa11"},"vehicle_type_id":"4","last_reported":1718896140,"current_range_meters":20800,"station_id":"ce4bh612rcd13ifvqe6g","pricing_plan_id":"cebpf4jnsgd1na2vs0mg"},{"bike_id":"7aaa1cfc-793d-4cd6-b1a4-1332ff398aab","system_id":"levelo_inurba_marseille","lat":43.305989,"lon":5.37225,"is_reserved":false,"is_disabled":false,"rental_uris":{"android":"levelo://app?vid=7aaa1cfc-793d-4cd6-b1a4-1332ff398aab","ios":"levelo://app?vid=7aaa1cfc-793d-4cd6-b1a4-1332ff398aab"},"vehicle_type_id":"4","last_reported":1718896140,"current_range_meters":0,"station_id":"ce4bgqh2rcd13ifvqc4g","pricing_plan_id":"cebpf4jnsgd1na2vs0mg"},{"bike_id":"e49e6dc0-ce43-4c84-b5f2-6d918ef0cf1c","system_id":"levelo_inurba_marseille","lat":43.31121,"lon":5.377587,"is_reserved":false,"is_disabled":false,"rental_uris":{"android":"levelo://app?vid=e49e6dc0-ce43-4c84-b5f2-6d918ef0cf1c","ios":"levelo://app?vid=e49e6dc0-ce43-4c84-b5f2-6d918ef0cf1c"},"vehicle_type_id":"4","last_reported":1718896140,"current_range_meters":0,"station_id":"ce4bgt92rcd13ifvqcg0","pricing_plan_id":"cebpf4jnsgd1na2vs0mg"},{"bike_id":"bc511334-e7a4-4130-ad76-763874c20b6e","system_id":"levelo_inurba_marseille","lat":43.307945,"lon":5.376487,"is_reserved":false,"is_disabled":false,"rental_uris":{"android":"levelo://app?vid=bc511334-e7a4-4130-ad76-763874c20b6e","ios":"levelo://app?vid=bc511334-e7a4-4130-ad76-763874c20b6e"},"vehicle_type_id":"4","last_reported":1718896140,"current_range_meters":21200,"station_id":"ce4bgv92rcd13ifvqcq0","pricing_plan_id":"cebpf4jnsgd1na2vs0mg"},{"bike_id":"916c7b06-04d6-45b1-b955-69bcd01e5c80","system_id":"levelo_inurba_marseille","lat":43.311125,"lon":5.377624,"is_reserved":false,"is_disabled":false,"rental_uris":{"android":"levelo://app?vid=916c7b06-04d6-45b1-b955-69bcd01e5c80","ios":"levelo://app?vid=916c7b06-04d6-45b1-b955-69bcd01e5c80"},"vehicle_type_id":"4","last_reported":1718896140,"current_range_meters":31600,"station_id":"ce4bgt92rcd13ifvqcg0","pricing_plan_id":"cebpf4jnsgd1na2vs0mg"},{"bike_id":"4d2dfb26-9b86-4b08-820b-aeeb3d964ec3","system_id":"levelo_inurba_marseille","lat":43.311131,"lon":5.377651,"is_reserved":false,"is_disabled":false,"rental_uris":{"android":"levelo://app?vid=4d2dfb26-9b86-4b08-820b-aeeb3d964ec3","ios":"levelo://app?vid=4d2dfb26-9b86-4b08-820b-aeeb3d964ec3"},"vehicle_type_id":"4","last_reported":1718896140,"current_range_meters":9600,"station_id":"ce4bgt92rcd13ifvqcg0","pricing_plan_id":"cebpf4jnsgd1na2vs0mg"},{"bike_id":"c9e3554d-daef-456f-ab04-d27e88955bab","system_id":"levelo_inurba_marseille","lat":43.311131,"lon":5.377651,"is_reserved":false,"is_disabled":false,"rental_uris":{"android":"levelo://app?vid=c9e3554d-daef-456f-ab04-d27e88955bab","ios":"levelo://app?vid=c9e3554d-daef-456f-ab04-d27e88955bab"},"vehicle_type_id":"4","last_reported":1718896140,"current_range_meters":18000,"station_id":"ce4bgt92rcd13ifvqcg0","pricing_plan_id":"cebpf4jnsgd1na2vs0mg"},{"bike_id":"84270348-143d-45df-98c7-bd464cc88c86","system_id":"levelo_inurba_marseille","lat":43.311125,"lon":5.377624,"is_reserved":false,"is_disabled":false,"rental_uris":{"android":"levelo://app?vid=84270348-143d-45df-98c7-bd464cc88c86","ios":"levelo://app?vid=84270348-143d-45df-98c7-bd464cc88c86"},"vehicle_type_id":"4","last_reported":1718896140,"current_range_meters":4000,"station_id":"ce4bgt92rcd13ifvqcg0","pricing_plan_id":"cebpf4jnsgd1na2vs0mg"},{"bike_id":"5153de87-ea27-4b02-b76e-2aa57773a805","system_id":"levelo_inurba_marseille","lat":43.311125,"lon":5.377624,"is_reserved":false,"is_disabled":false,"rental_uris":{"android":"levelo://app?vid=5153de87-ea27-4b02-b76e-2aa57773a805","ios":"levelo://app?vid=5153de87-ea27-4b02-b76e-2aa57773a805"},"vehicle_type_id":"4","last_reported":1718896140,"current_range_meters":23200,"station_id":"ce4bgt92rcd13ifvqcg0","pricing_plan_id":"cebpf4jnsgd1na2vs0mg"},{"bike_id":"e9a5c00d-3888-4866-b8ea-f06a03737688","system_id":"levelo_inurba_marseille","lat":43.307945,"lon":5.376487,"is_reserved":false,"is_disabled":false,"rental_uris":{"android":"levelo://app?vid=e9a5c00d-3888-4866-b8ea-f06a03737688","ios":"levelo://app?vid=e9a5c00d-3888-4866-b8ea-f06a03737688"},"vehicle_type_id":"4","last_reported":1718896140,"current_range_meters":30800,"station_id":"ce4bgv92rcd13ifvqcq0","pricing_plan_id":"cebpf4jnsgd1na2vs0mg"},{"bike_id":"8aeef1f1-e965-45c0-9b26-ce4231d8c8dd","system_id":"levelo_inurba_marseille","lat":43.307945,"lon":5.376487,"is_reserved":false,"is_disabled":false,"rental_uris":{"android":"levelo://app?vid=8aeef1f1-e965-45c0-9b26-ce4231d8c8dd","ios":"levelo://app?vid=8aeef1f1-e965-45c0-9b26-ce4231d8c8dd"},"vehicle_type_id":"4","last_reported":1718896140,"current_range_meters":30000,"station_id":"ce4bgv92rcd13ifvqcq0","pricing_plan_id":"cebpf4jnsgd1na2vs0mg"},{"bike_id":"d577d00b-e347-4e53-9a34-87d66e424a79","system_id":"levelo_inurba_marseille","lat":43.307945,"lon":5.376487,"is_reserved":false,"is_disabled":false,"rental_uris":{"android":"levelo://app?vid=d577d00b-e347-4e53-9a34-87d66e424a79","ios":"levelo://app?vid=d577d00b-e347-4e53-9a34-87d66e424a79"},"vehicle_type_id":"4","last_reported":1718896140,"current_range_meters":31200,"station_id":"ce4bgv92rcd13ifvqcq0","pricing_plan_id":"cebpf4jnsgd1na2vs0mg"},{"bike_id":"61575746-c379-47de-bb90-3797788a7d6a","system_id":"levelo_inurba_marseille","lat":43.307945,"lon":5.376487,"is_reserved":false,"is_disabled":false,"rental_uris":{"android":"levelo://app?vid=61575746-c379-47de-bb90-3797788a7d6a","ios":"levelo://app?vid=61575746-c379-47de-bb90-3797788a7d6a"},"vehicle_type_id":"4","last_reported":1718896140,"current_range_meters":17200,"station_id":"ce4bgv92rcd13ifvqcq0","pricing_plan_id":"cebpf4jnsgd1na2vs0mg"},{"bike_id":"e861854d-0e1c-4aa9-8c29-e712a5fa61f3","system_id":"levelo_inurba_marseille","lat":43.307945,"lon":5.376487,"is_reserved":false,"is_disabled":false,"rental_uris":{"android":"levelo://app?vid=e861854d-0e1c-4aa9-8c29-e712a5fa61f3","ios":"levelo://app?vid=e861854d-0e1c-4aa9-8c29-e712a5fa61f3"},"vehicle_type_id":"4","last_reported":1718896140,"current_range_meters":31200,"station_id":"ce4bgv92rcd13ifvqcq0","pricing_plan_id":"cebpf4jnsgd1na2vs0mg"},{"bike_id":"ee8d9138-3309-4e3d-bef4-cff014311fbc","system_id":"levelo_inurba_marseille","lat":43.307945,"lon":5.376487,"is_reserved":false,"is_disabled":false,"rental_uris":{"android":"levelo://app?vid=ee8d9138-3309-4e3d-bef4-cff014311fbc","ios":"levelo://app?vid=ee8d9138-3309-4e3d-bef4-cff014311fbc"},"vehicle_type_id":"4","last_reported":1718896140,"current_range_meters":12400,"station_id":"ce4bgv92rcd13ifvqcq0","pricing_plan_id":"cebpf4jnsgd1na2vs0mg"},{"bike_id":"ae64c2a2-e139-43fe-b599-2a633652e611","system_id":"levelo_inurba_marseille","lat":43.307945,"lon":5.376487,"is_reserved":false,"is_disabled":false,"rental_uris":{"android":"levelo://app?vid=ae64c2a2-e139-43fe-b599-2a633652e611","ios":"levelo://app?vid=ae64c2a2-e139-43fe-b599-2a633652e611"},"vehicle_type_id":"4","last_reported":1718896140,"current_range_meters":28000,"station_id":"ce4bgv92rcd13ifvqcq0","pricing_plan_id":"cebpf4jnsgd1na2vs0mg"},{"bike_id":"ae968fbc-e5da-432e-ba0e-982e1724d864","system_id":"levelo_inurba_marseille","lat":43.317075,"lon":5.377367,"is_reserved":false,"is_disabled":false,"rental_uris":{"android":"levelo://app?vid=ae968fbc-e5da-432e-ba0e-982e1724d864","ios":"levelo://app?vid=ae968fbc-e5da-432e-ba0e-982e1724d864"},"vehicle_type_id":"4","last_reported":1718896140,"current_range_meters":15600,"station_id":"ce4bgth2rcd13ifvqch0","pricing_plan_id":"cebpf4jnsgd1na2vs0mg"},{"bike_id":"7d6f3434-5758-4df6-877f-cf72fba6038d","system_id":"levelo_inurba_marseille","lat":43.317075,"lon":5.377367,"is_reserved":false,"is_disabled":false,"rental_uris":{"android":"levelo://app?vid=7d6f3434-5758-4df6-877f-cf72fba6038d","ios":"levelo://app?vid=7d6f3434-5758-4df6-877f-cf72fba6038d"},"vehicle_type_id":"4","last_reported":1718896140,"current_range_meters":23200,"station_id":"ce4bgth2rcd13ifvqch0","pricing_plan_id":"cebpf4jnsgd1na2vs0mg"},{"bike_id":"4f715705-2254-49e2-9ea5-57999298b245","system_id":"levelo_inurba_marseille","lat":43.303046,"lon":5.368981,"is_reserved":false,"is_disabled":false,"rental_uris":{"android":"levelo://app?vid=4f715705-2254-49e2-9ea5-57999298b245","ios":"levelo://app?vid=4f715705-2254-49e2-9ea5-57999298b245"},"vehicle_type_id":"4","last_reported":1718896140,"current_range_meters":26400,"station_id":"ce4bgqh2rcd13ifvqc5g","pricing_plan_id":"cebpf4jnsgd1na2vs0mg"},{"bike_id":"d47b702c-0c72-4fd5-91be-fcbad7819215","system_id":"levelo_inurba_marseille","lat":43.315289,"lon":5.380349,"is_reserved":false,"is_disabled":false,"rental_uris":{"android":"levelo://app?vid=d47b702c-0c72-4fd5-91be-fcbad7819215","ios":"levelo://app?vid=d47b702c-0c72-4fd5-91be-fcbad7819215"},"vehicle_type_id":"4","last_reported":1718896140,"current_range_meters":28000,"station_id":"ce4bhsp2rcd13ifvqi50","pricing_plan_id":"cebpf4jnsgd1na2vs0mg"},{"bike_id":"b9b89cfa-a2cd-4bea-9fb4-f66960f60a13","system_id":"levelo_inurba_marseille","lat":43.31533,"lon":5.38029,"is_reserved":false,"is_disabled":false,"rental_uris":{"android":"levelo://app?vid=b9b89cfa-a2cd-4bea-9fb4-f66960f60a13","ios":"levelo://app?vid=b9b89cfa-a2cd-4bea-9fb4-f66960f60a13"},"vehicle_type_id":"4","last_reported":1718896140,"current_range_meters":800,"station_id":"ce4bhsp2rcd13ifvqi50","pricing_plan_id":"cebpf4jnsgd1na2vs0mg"},{"bike_id":"fd993be9-02f2-40c5-9b38-64f9d578fadd","system_id":"levelo_inurba_marseille","lat":43.315289,"lon":5.380349,"is_reserved":false,"is_disabled":false,"rental_uris":{"android":"levelo://app?vid=fd993be9-02f2-40c5-9b38-64f9d578fadd","ios":"levelo://app?vid=fd993be9-02f2-40c5-9b38-64f9d578fadd"},"vehicle_type_id":"4","last_reported":1718896140,"current_range_meters":26000,"station_id":"ce4bhsp2rcd13ifvqi50","pricing_plan_id":"cebpf4jnsgd1na2vs0mg"},{"bike_id":"15e62f3d-beaa-48c0-aeaf-6d70bf7d64a1","system_id":"levelo_inurba_marseille","lat":43.31531,"lon":5.38035,"is_reserved":false,"is_disabled":false,"rental_uris":{"android":"levelo://app?vid=15e62f3d-beaa-48c0-aeaf-6d70bf7d64a1","ios":"levelo://app?vid=15e62f3d-beaa-48c0-aeaf-6d70bf7d64a1"},"vehicle_type_id":"4","last_reported":1718896140,"current_range_meters":22400,"station_id":"ce4bhsp2rcd13ifvqi50","pricing_plan_id":"cebpf4jnsgd1na2vs0mg"},{"bike_id":"3109236f-f15a-43e9-b0eb-b35b106db01d","system_id":"levelo_inurba_marseille","lat":43.301939,"lon":5.366286,"is_reserved":false,"is_disabled":false,"rental_uris":{"android":"levelo://app?vid=3109236f-f15a-43e9-b0eb-b35b106db01d","ios":"levelo://app?vid=3109236f-f15a-43e9-b0eb-b35b106db01d"},"vehicle_type_id":"4","last_reported":1718896140,"current_range_meters":18400,"station_id":"ce4bgrh2rcd13ifvqc8g","pricing_plan_id":"cebpf4jnsgd1na2vs0mg"},{"bike_id":"14d055c3-af02-4572-8bc1-60f42fb4ea42","system_id":"levelo_inurba_marseille","lat":43.301939,"lon":5.366286,"is_reserved":false,"is_disabled":false,"rental_uris":{"android":"levelo://app?vid=14d055c3-af02-4572-8bc1-60f42fb4ea42","ios":"levelo://app?vid=14d055c3-af02-4572-8bc1-60f42fb4ea42"},"vehicle_type_id":"4","last_reported":1718896140,"current_range_meters":400,"station_id":"ce4bgrh2rcd13ifvqc8g","pricing_plan_id":"cebpf4jnsgd1na2vs0mg"},{"bike_id":"6b6c47c4-73ff-4171-bc10-4ed838e47b38","system_id":"levelo_inurba_marseille","lat":43.301939,"lon":5.366286,"is_reserved":false,"is_disabled":false,"rental_uris":{"android":"levelo://app?vid=6b6c47c4-73ff-4171-bc10-4ed838e47b38","ios":"levelo://app?vid=6b6c47c4-73ff-4171-bc10-4ed838e47b38"},"vehicle_type_id":"4","last_reported":1718896140,"current_range_meters":7600,"station_id":"ce4bgrh2rcd13ifvqc8g","pricing_plan_id":"cebpf4jnsgd1na2vs0mg"},{"bike_id":"fac73475-668b-4406-8a9b-a6c326bb14fc","system_id":"levelo_inurba_marseille","lat":43.304606,"lon":5.379026,"is_reserved":false,"is_disabled":false,"rental_uris":{"android":"levelo://app?vid=fac73475-668b-4406-8a9b-a6c326bb14fc","ios":"levelo://app?vid=fac73475-668b-4406-8a9b-a6c326bb14fc"},"vehicle_type_id":"4","last_reported":1718896140,"current_range_meters":800,"station_id":"ce4bgup2rcd13ifvqcn0","pricing_plan_id":"cebpf4jnsgd1na2vs0mg"},{"bike_id":"de212fbd-d272-4432-a141-475676b2c22e","system_id":"levelo_inurba_marseille","lat":43.324771,"lon":5.36557,"is_reserved":false,"is_disabled":false,"rental_uris":{"android":"levelo://app?vid=de212fbd-d272-4432-a141-475676b2c22e","ios":"levelo://app?vid=de212fbd-d272-4432-a141-475676b2c22e"},"vehicle_type_id":"4","last_reported":1718896140,"current_range_meters":25600,"station_id":"ce4bhs12rcd13ifvqhvg","pricing_plan_id":"cebpf4jnsgd1na2vs0mg"},{"bike_id":"c0dcf0b4-440e-4022-a259-1139d270e182","system_id":"levelo_inurba_marseille","lat":43.324771,"lon":5.36557,"is_reserved":false,"is_disabled":false,"rental_uris":{"android":"levelo://app?vid=c0dcf0b4-440e-4022-a259-1139d270e182","ios":"levelo://app?vid=c0dcf0b4-440e-4022-a259-1139d270e182"},"vehicle_type_id":"4","last_reported":1718896140,"current_range_meters":14000,"station_id":"ce4bhs12rcd13ifvqhvg","pricing_plan_id":"cebpf4jnsgd1na2vs0mg"},{"bike_id":"8e797e71-b375-4335-a181-1a804118d42d","system_id":"levelo_inurba_marseille","lat":43.324771,"lon":5.36557,"is_reserved":false,"is_disabled":false,"rental_uris":{"android":"levelo://app?vid=8e797e71-b375-4335-a181-1a804118d42d","ios":"levelo://app?vid=8e797e71-b375-4335-a181-1a804118d42d"},"vehicle_type_id":"4","last_reported":1718896140,"current_range_meters":24800,"station_id":"ce4bhs12rcd13ifvqhvg","pricing_plan_id":"cebpf4jnsgd1na2vs0mg"},{"bike_id":"cfaa6e1d-3fa1-4764-a63a-5202cd61cdcc","system_id":"levelo_inurba_marseille","lat":43.32494,"lon":5.36573,"is_reserved":false,"is_disabled":false,"rental_uris":{"android":"levelo://app?vid=cfaa6e1d-3fa1-4764-a63a-5202cd61cdcc","ios":"levelo://app?vid=cfaa6e1d-3fa1-4764-a63a-5202cd61cdcc"},"vehicle_type_id":"4","last_reported":1718896140,"current_range_meters":0,"station_id":"ce4bhs12rcd13ifvqhvg","pricing_plan_id":"cebpf4jnsgd1na2vs0mg"},{"bike_id":"da027dcb-1ed6-4c79-b825-c8506b2c9b48","system_id":"levelo_inurba_marseille","lat":43.2936,"lon":5.37835,"is_reserved":false,"is_disabled":false,"rental_uris":{"android":"levelo://app?vid=da027dcb-1ed6-4c79-b825-c8506b2c9b48","ios":"levelo://app?vid=da027dcb-1ed6-4c79-b825-c8506b2c9b48"},"vehicle_type_id":"4","last_reported":1718896140,"current_range_meters":16400,"station_id":"ce4bgjh2rcd13ifvqbf0","pricing_plan_id":"cebpf4jnsgd1na2vs0mg"},{"bike_id":"0cdb71d3-770b-4ae5-a999-83bc7e6335de","system_id":"levelo_inurba_marseille","lat":43.310804,"lon":5.38359,"is_reserved":false,"is_disabled":false,"rental_uris":{"android":"levelo://app?vid=0cdb71d3-770b-4ae5-a999-83bc7e6335de","ios":"levelo://app?vid=0cdb71d3-770b-4ae5-a999-83bc7e6335de"},"vehicle_type_id":"4","last_reported":1718896140,"current_range_meters":6400,"station_id":"ce4bgv92rcd13ifvqcr0","pricing_plan_id":"cebpf4jnsgd1na2vs0mg"},{"bike_id":"e23cf327-9e92-43b8-84d0-356814618e0e","system_id":"levelo_inurba_marseille","lat":43.310893,"lon":5.383723,"is_reserved":false,"is_disabled":false,"rental_uris":{"android":"levelo://app?vid=e23cf327-9e92-43b8-84d0-356814618e0e","ios":"levelo://app?vid=e23cf327-9e92-43b8-84d0-356814618e0e"},"vehicle_type_id":"4","last_reported":1718896140,"current_range_meters":24000,"station_id":"ce4bgv92rcd13ifvqcr0","pricing_plan_id":"cebpf4jnsgd1na2vs0mg"},{"bike_id":"1aac8fa6-967d-4981-a8f6-81cc83e30370","system_id":"levelo_inurba_marseille","lat":43.30143,"lon":5.37413,"is_reserved":false,"is_disabled":false,"rental_uris":{"android":"levelo://app?vid=1aac8fa6-967d-4981-a8f6-81cc83e30370","ios":"levelo://app?vid=1aac8fa6-967d-4981-a8f6-81cc83e30370"},"vehicle_type_id":"4","last_reported":1718896140,"current_range_meters":20400,"station_id":"ce4bgs92rcd13ifvqcc0","pricing_plan_id":"cebpf4jnsgd1na2vs0mg"},{"bike_id":"84e8ba11-5425-41b0-bea0-95500638f2ea","system_id":"levelo_inurba_marseille","lat":43.29988,"lon":5.37189,"is_reserved":false,"is_disabled":false,"rental_uris":{"android":"levelo://app?vid=84e8ba11-5425-41b0-bea0-95500638f2ea","ios":"levelo://app?vid=84e8ba11-5425-41b0-bea0-95500638f2ea"},"vehicle_type_id":"4","last_reported":1718896140,"current_range_meters":26000,"station_id":"ce4bgr92rcd13ifvqc7g","pricing_plan_id":"cebpf4jnsgd1na2vs0mg"},{"bike_id":"ac400fc7-ce53-450c-aca8-0137747764e9","system_id":"levelo_inurba_marseille","lat":43.299724,"lon":5.371829,"is_reserved":false,"is_disabled":false,"rental_uris":{"android":"levelo://app?vid=ac400fc7-ce53-450c-aca8-0137747764e9","ios":"levelo://app?vid=ac400fc7-ce53-450c-aca8-0137747764e9"},"vehicle_type_id":"4","last_reported":1718896140,"current_range_meters":28800,"station_id":"ce4bgr92rcd13ifvqc7g","pricing_plan_id":"cebpf4jnsgd1na2vs0mg"},{"bike_id":"7deb8889-365b-414f-8252-aee4bffa94ff","system_id":"levelo_inurba_marseille","lat":43.299724,"lon":5.371829,"is_reserved":false,"is_disabled":false,"rental_uris":{"android":"levelo://app?vid=7deb8889-365b-414f-8252-aee4bffa94ff","ios":"levelo://app?vid=7deb8889-365b-414f-8252-aee4bffa94ff"},"vehicle_type_id":"4","last_reported":1718896140,"current_range_meters":0,"station_id":"ce4bgr92rcd13ifvqc7g","pricing_plan_id":"cebpf4jnsgd1na2vs0mg"},{"bike_id":"ce1289ca-835f-4aec-8550-d26ca640000a","system_id":"levelo_inurba_marseille","lat":43.298433,"lon":5.362774,"is_reserved":false,"is_disabled":false,"rental_uris":{"android":"levelo://app?vid=ce1289ca-835f-4aec-8550-d26ca640000a","ios":"levelo://app?vid=ce1289ca-835f-4aec-8550-d26ca640000a"},"vehicle_type_id":"4","last_reported":1718896140,"current_range_meters":27600,"station_id":"ce4bgpp2rcd13ifvqc3g","pricing_plan_id":"cebpf4jnsgd1na2vs0mg"},{"bike_id":"572f2f86-77bb-4a07-ac94-5ed7cb99151c","system_id":"levelo_inurba_marseille","lat":43.305364,"lon":5.384119,"is_reserved":false,"is_disabled":false,"rental_uris":{"android":"levelo://app?vid=572f2f86-77bb-4a07-ac94-5ed7cb99151c","ios":"levelo://app?vid=572f2f86-77bb-4a07-ac94-5ed7cb99151c"},"vehicle_type_id":"4","last_reported":1718896140,"current_range_meters":29600,"station_id":"ce4bgg92rcd13ifvqb30","pricing_plan_id":"cebpf4jnsgd1na2vs0mg"},{"bike_id":"8c6f1dc0-06db-4bfc-b669-ef62d5f8e7d2","system_id":"levelo_inurba_marseille","lat":43.322872,"lon":5.382756,"is_reserved":false,"is_disabled":false,"rental_uris":{"android":"levelo://app?vid=8c6f1dc0-06db-4bfc-b669-ef62d5f8e7d2","ios":"levelo://app?vid=8c6f1dc0-06db-4bfc-b669-ef62d5f8e7d2"},"vehicle_type_id":"4","last_reported":1718896140,"current_range_meters":29200,"station_id":"ce4bhr12rcd13ifvqhqg","pricing_plan_id":"cebpf4jnsgd1na2vs0mg"},{"bike_id":"e679cd32-7272-4d7a-b69a-0f695910e2df","system_id":"levelo_inurba_marseille","lat":43.295713,"lon":5.399639,"is_reserved":false,"is_disabled":false,"rental_uris":{"android":"levelo://app?vid=e679cd32-7272-4d7a-b69a-0f695910e2df","ios":"levelo://app?vid=e679cd32-7272-4d7a-b69a-0f695910e2df"},"vehicle_type_id":"4","last_reported":1718896140,"current_range_meters":20000,"station_id":"ce4bh312rcd13ifvqdj0","pricing_plan_id":"cebpf4jnsgd1na2vs0mg"},{"bike_id":"12f9b4f3-5a18-4773-b911-592da9727f15","system_id":"levelo_inurba_marseille","lat":43.29685,"lon":5.372938,"is_reserved":false,"is_disabled":false,"rental_uris":{"android":"levelo://app?vid=12f9b4f3-5a18-4773-b911-592da9727f15","ios":"levelo://app?vid=12f9b4f3-5a18-4773-b911-592da9727f15"},"vehicle_type_id":"4","last_reported":1718896140,"current_range_meters":11200,"station_id":"ce4bgk12rcd13ifvqbj0","pricing_plan_id":"cebpf4jnsgd1na2vs0mg"},{"bike_id":"0ea3ffaa-b5a8-444e-88e8-06036634fd57","system_id":"levelo_inurba_marseille","lat":43.296131,"lon":5.370773,"is_reserved":false,"is_disabled":false,"rental_uris":{"android":"levelo://app?vid=0ea3ffaa-b5a8-444e-88e8-06036634fd57","ios":"levelo://app?vid=0ea3ffaa-b5a8-444e-88e8-06036634fd57"},"vehicle_type_id":"4","last_reported":1718896140,"current_range_meters":23200,"station_id":"ce4bgnh2rcd13ifvqc0g","pricing_plan_id":"cebpf4jnsgd1na2vs0mg"},{"bike_id":"61391de7-9bdb-49b8-8a8a-e57574730f72","system_id":"levelo_inurba_marseille","lat":43.29573,"lon":5.367355,"is_reserved":false,"is_disabled":false,"rental_uris":{"android":"levelo://app?vid=61391de7-9bdb-49b8-8a8a-e57574730f72","ios":"levelo://app?vid=61391de7-9bdb-49b8-8a8a-e57574730f72"},"vehicle_type_id":"4","last_reported":1718896140,"current_range_meters":12800,"station_id":"ce4bgph2rcd13ifvqc2g","pricing_plan_id":"cebpf4jnsgd1na2vs0mg"},{"bike_id":"0733e691-ef5d-4cb4-8b2d-50cb0c715b99","system_id":"levelo_inurba_marseille","lat":43.296921,"lon":5.376579,"is_reserved":false,"is_disabled":false,"rental_uris":{"android":"levelo://app?vid=0733e691-ef5d-4cb4-8b2d-50cb0c715b99","ios":"levelo://app?vid=0733e691-ef5d-4cb4-8b2d-50cb0c715b99"},"vehicle_type_id":"4","last_reported":1718896140,"current_range_meters":11200,"station_id":"ce4bgkh2rcd13ifvqbl0","pricing_plan_id":"cebpf4jnsgd1na2vs0mg"},{"bike_id":"c5194484-7da2-4bc1-ad35-f171ed147b5f","system_id":"levelo_inurba_marseille","lat":43.299028,"lon":5.381509,"is_reserved":false,"is_disabled":false,"rental_uris":{"android":"levelo://app?vid=c5194484-7da2-4bc1-ad35-f171ed147b5f","ios":"levelo://app?vid=c5194484-7da2-4bc1-ad35-f171ed147b5f"},"vehicle_type_id":"4","last_reported":1718896140,"current_range_meters":0,"station_id":"ce4bgj12rcd13ifvqbc0","pricing_plan_id":"cebpf4jnsgd1na2vs0mg"},{"bike_id":"b566dce8-8af5-48e8-9ed1-815cd5d22670","system_id":"levelo_inurba_marseille","lat":43.299028,"lon":5.381509,"is_reserved":false,"is_disabled":false,"rental_uris":{"android":"levelo://app?vid=b566dce8-8af5-48e8-9ed1-815cd5d22670","ios":"levelo://app?vid=b566dce8-8af5-48e8-9ed1-815cd5d22670"},"vehicle_type_id":"4","last_reported":1718896140,"current_range_meters":28400,"station_id":"ce4bgj12rcd13ifvqbc0","pricing_plan_id":"cebpf4jnsgd1na2vs0mg"},{"bike_id":"76542aae-f5f2-4272-8230-567b22f6364f","system_id":"levelo_inurba_marseille","lat":43.296935,"lon":5.376544,"is_reserved":false,"is_disabled":false,"rental_uris":{"android":"levelo://app?vid=76542aae-f5f2-4272-8230-567b22f6364f","ios":"levelo://app?vid=76542aae-f5f2-4272-8230-567b22f6364f"},"vehicle_type_id":"4","last_reported":1718896140,"current_range_meters":14000,"station_id":"ce4bgkh2rcd13ifvqbl0","pricing_plan_id":"cebpf4jnsgd1na2vs0mg"},{"bike_id":"663cc2df-3301-4d79-824d-09f78f3bdd0c","system_id":"levelo_inurba_marseille","lat":43.299028,"lon":5.381509,"is_reserved":false,"is_disabled":false,"rental_uris":{"android":"levelo://app?vid=663cc2df-3301-4d79-824d-09f78f3bdd0c","ios":"levelo://app?vid=663cc2df-3301-4d79-824d-09f78f3bdd0c"},"vehicle_type_id":"4","last_reported":1718896140,"current_range_meters":31200,"station_id":"ce4bgj12rcd13ifvqbc0","pricing_plan_id":"cebpf4jnsgd1na2vs0mg"},{"bike_id":"51915b70-f94f-48bf-8b32-7f0ca6300eb6","system_id":"levelo_inurba_marseille","lat":43.296935,"lon":5.376544,"is_reserved":false,"is_disabled":false,"rental_uris":{"android":"levelo://app?vid=51915b70-f94f-48bf-8b32-7f0ca6300eb6","ios":"levelo://app?vid=51915b70-f94f-48bf-8b32-7f0ca6300eb6"},"vehicle_type_id":"4","last_reported":1718896140,"current_range_meters":12800,"station_id":"ce4bgkh2rcd13ifvqbl0","pricing_plan_id":"cebpf4jnsgd1na2vs0mg"},{"bike_id":"4dc2f480-2581-4fca-8ca8-192c59491dc3","system_id":"levelo_inurba_marseille","lat":43.298953,"lon":5.38136,"is_reserved":false,"is_disabled":false,"rental_uris":{"android":"levelo://app?vid=4dc2f480-2581-4fca-8ca8-192c59491dc3","ios":"levelo://app?vid=4dc2f480-2581-4fca-8ca8-192c59491dc3"},"vehicle_type_id":"4","last_reported":1718896140,"current_range_meters":0,"station_id":"ce4bgj12rcd13ifvqbc0","pricing_plan_id":"cebpf4jnsgd1na2vs0mg"},{"bike_id":"338d4137-cbae-409c-9585-e5f63f1afc8d","system_id":"levelo_inurba_marseille","lat":43.317557,"lon":5.390173,"is_reserved":false,"is_disabled":false,"rental_uris":{"android":"levelo://app?vid=338d4137-cbae-409c-9585-e5f63f1afc8d","ios":"levelo://app?vid=338d4137-cbae-409c-9585-e5f63f1afc8d"},"vehicle_type_id":"4","last_reported":1718896140,"current_range_meters":22000,"station_id":"ce4bhqp2rcd13ifvqhng","pricing_plan_id":"cebpf4jnsgd1na2vs0mg"},{"bike_id":"750e3ee4-af5e-4f87-b213-c4068f2ccb70","system_id":"levelo_inurba_marseille","lat":43.317557,"lon":5.390173,"is_reserved":false,"is_disabled":false,"rental_uris":{"android":"levelo://app?vid=750e3ee4-af5e-4f87-b213-c4068f2ccb70","ios":"levelo://app?vid=750e3ee4-af5e-4f87-b213-c4068f2ccb70"},"vehicle_type_id":"4","last_reported":1718896140,"current_range_meters":20800,"station_id":"ce4bhqp2rcd13ifvqhng","pricing_plan_id":"cebpf4jnsgd1na2vs0mg"},{"bike_id":"b35838e6-8c89-4d49-b5c2-ad32cc2bac53","system_id":"levelo_inurba_marseille","lat":43.317557,"lon":5.390173,"is_reserved":false,"is_disabled":false,"rental_uris":{"android":"levelo://app?vid=b35838e6-8c89-4d49-b5c2-ad32cc2bac53","ios":"levelo://app?vid=b35838e6-8c89-4d49-b5c2-ad32cc2bac53"},"vehicle_type_id":"4","last_reported":1718896140,"current_range_meters":22000,"station_id":"ce4bhqp2rcd13ifvqhng","pricing_plan_id":"cebpf4jnsgd1na2vs0mg"},{"bike_id":"bb78fe8f-95c6-4f3b-b587-276e1943da33","system_id":"levelo_inurba_marseille","lat":43.29584,"lon":5.37516,"is_reserved":false,"is_disabled":false,"rental_uris":{"android":"levelo://app?vid=bb78fe8f-95c6-4f3b-b587-276e1943da33","ios":"levelo://app?vid=bb78fe8f-95c6-4f3b-b587-276e1943da33"},"vehicle_type_id":"4","last_reported":1718896140,"current_range_meters":4800,"station_id":"ce4bgh92rcd13ifvqb50","pricing_plan_id":"cebpf4jnsgd1na2vs0mg"},{"bike_id":"82d87920-95c6-4f4f-b6ac-a409725c08f8","system_id":"levelo_inurba_marseille","lat":43.304274,"lon":5.388873,"is_reserved":false,"is_disabled":false,"rental_uris":{"android":"levelo://app?vid=82d87920-95c6-4f4f-b6ac-a409725c08f8","ios":"levelo://app?vid=82d87920-95c6-4f4f-b6ac-a409725c08f8"},"vehicle_type_id":"4","last_reported":1718896140,"current_range_meters":800,"station_id":"ce4bgk12rcd13ifvqbi0","pricing_plan_id":"cebpf4jnsgd1na2vs0mg"},{"bike_id":"5da64a91-af04-4884-b6f2-1b631d157c1d","system_id":"levelo_inurba_marseille","lat":43.304274,"lon":5.388873,"is_reserved":false,"is_disabled":false,"rental_uris":{"android":"levelo://app?vid=5da64a91-af04-4884-b6f2-1b631d157c1d","ios":"levelo://app?vid=5da64a91-af04-4884-b6f2-1b631d157c1d"},"vehicle_type_id":"4","last_reported":1718896140,"current_range_meters":22000,"station_id":"ce4bgk12rcd13ifvqbi0","pricing_plan_id":"cebpf4jnsgd1na2vs0mg"},{"bike_id":"572ebda1-01aa-4499-ab75-05916fe207d9","system_id":"levelo_inurba_marseille","lat":43.304274,"lon":5.388873,"is_reserved":false,"is_disabled":false,"rental_uris":{"android":"levelo://app?vid=572ebda1-01aa-4499-ab75-05916fe207d9","ios":"levelo://app?vid=572ebda1-01aa-4499-ab75-05916fe207d9"},"vehicle_type_id":"4","last_reported":1718896140,"current_range_meters":22400,"station_id":"ce4bgk12rcd13ifvqbi0","pricing_plan_id":"cebpf4jnsgd1na2vs0mg"},{"bike_id":"acf257a1-1e33-48f5-83f7-e268b18e7aa9","system_id":"levelo_inurba_marseille","lat":43.29622,"lon":5.37696,"is_reserved":false,"is_disabled":false,"rental_uris":{"android":"levelo://app?vid=acf257a1-1e33-48f5-83f7-e268b18e7aa9","ios":"levelo://app?vid=acf257a1-1e33-48f5-83f7-e268b18e7aa9"},"vehicle_type_id":"4","last_reported":1718896140,"current_range_meters":11200,"station_id":"ce4bgi92rcd13ifvqb90","pricing_plan_id":"cebpf4jnsgd1na2vs0mg"},{"bike_id":"0c8c886f-b53b-4555-84be-c010bee7d7fe","system_id":"levelo_inurba_marseille","lat":43.296263,"lon":5.377094,"is_reserved":false,"is_disabled":false,"rental_uris":{"android":"levelo://app?vid=0c8c886f-b53b-4555-84be-c010bee7d7fe","ios":"levelo://app?vid=0c8c886f-b53b-4555-84be-c010bee7d7fe"},"vehicle_type_id":"4","last_reported":1718896140,"current_range_meters":23600,"station_id":"ce4bgi92rcd13ifvqb90","pricing_plan_id":"cebpf4jnsgd1na2vs0mg"},{"bike_id":"0cd65e8d-9976-4250-a79e-e5074f2599f3","system_id":"levelo_inurba_marseille","lat":43.296263,"lon":5.377094,"is_reserved":false,"is_disabled":false,"rental_uris":{"android":"levelo://app?vid=0cd65e8d-9976-4250-a79e-e5074f2599f3","ios":"levelo://app?vid=0cd65e8d-9976-4250-a79e-e5074f2599f3"},"vehicle_type_id":"4","last_reported":1718896140,"current_range_meters":31200,"station_id":"ce4bgi92rcd13ifvqb90","pricing_plan_id":"cebpf4jnsgd1na2vs0mg"},{"bike_id":"0bdd1d8d-3549-48c1-a745-775fb7864f83","system_id":"levelo_inurba_marseille","lat":43.304278,"lon":5.388868,"is_reserved":false,"is_disabled":false,"rental_uris":{"android":"levelo://app?vid=0bdd1d8d-3549-48c1-a745-775fb7864f83","ios":"levelo://app?vid=0bdd1d8d-3549-48c1-a745-775fb7864f83"},"vehicle_type_id":"4","last_reported":1718896140,"current_range_meters":28000,"station_id":"ce4bgk12rcd13ifvqbi0","pricing_plan_id":"cebpf4jnsgd1na2vs0mg"},{"bike_id":"ca5b80f1-f3f1-40f8-b3cf-21ff22d44149","system_id":"levelo_inurba_marseille","lat":43.296263,"lon":5.377094,"is_reserved":false,"is_disabled":false,"rental_uris":{"android":"levelo://app?vid=ca5b80f1-f3f1-40f8-b3cf-21ff22d44149","ios":"levelo://app?vid=ca5b80f1-f3f1-40f8-b3cf-21ff22d44149"},"vehicle_type_id":"4","last_reported":1718896140,"current_range_meters":29600,"station_id":"ce4bgi92rcd13ifvqb90","pricing_plan_id":"cebpf4jnsgd1na2vs0mg"},{"bike_id":"6736d72c-9698-422c-bcaf-110ef0fa8f23","system_id":"levelo_inurba_marseille","lat":43.296277,"lon":5.377108,"is_reserved":false,"is_disabled":false,"rental_uris":{"android":"levelo://app?vid=6736d72c-9698-422c-bcaf-110ef0fa8f23","ios":"levelo://app?vid=6736d72c-9698-422c-bcaf-110ef0fa8f23"},"vehicle_type_id":"4","last_reported":1718896140,"current_range_meters":31200,"station_id":"ce4bgi92rcd13ifvqb90","pricing_plan_id":"cebpf4jnsgd1na2vs0mg"},{"bike_id":"d44da934-d6e3-4b4c-80f2-a646feec0dda","system_id":"levelo_inurba_marseille","lat":43.2961,"lon":5.37704,"is_reserved":false,"is_disabled":false,"rental_uris":{"android":"levelo://app?vid=d44da934-d6e3-4b4c-80f2-a646feec0dda","ios":"levelo://app?vid=d44da934-d6e3-4b4c-80f2-a646feec0dda"},"vehicle_type_id":"4","last_reported":1718896140,"current_range_meters":31200,"station_id":"ce4bgi92rcd13ifvqb90","pricing_plan_id":"cebpf4jnsgd1na2vs0mg"},{"bike_id":"371d7934-b4db-4d9c-9524-ebf19be19627","system_id":"levelo_inurba_marseille","lat":43.296263,"lon":5.377094,"is_reserved":false,"is_disabled":false,"rental_uris":{"android":"levelo://app?vid=371d7934-b4db-4d9c-9524-ebf19be19627","ios":"levelo://app?vid=371d7934-b4db-4d9c-9524-ebf19be19627"},"vehicle_type_id":"4","last_reported":1718896140,"current_range_meters":27200,"station_id":"ce4bgi92rcd13ifvqb90","pricing_plan_id":"cebpf4jnsgd1na2vs0mg"},{"bike_id":"17477fdb-7606-42c8-8720-4a40389441ef","system_id":"levelo_inurba_marseille","lat":43.29799,"lon":5.38187,"is_reserved":false,"is_disabled":false,"rental_uris":{"android":"levelo://app?vid=17477fdb-7606-42c8-8720-4a40389441ef","ios":"levelo://app?vid=17477fdb-7606-42c8-8720-4a40389441ef"},"vehicle_type_id":"4","last_reported":1718896140,"current_range_meters":12400,"station_id":"","pricing_plan_id":"cebpf4jnsgd1na2vs0mg"},{"bike_id":"44693dc8-a768-4ace-906d-9fe3b70f3089","system_id":"levelo_inurba_marseille","lat":43.299707,"lon":5.384859,"is_reserved":false,"is_disabled":false,"rental_uris":{"android":"levelo://app?vid=44693dc8-a768-4ace-906d-9fe3b70f3089","ios":"levelo://app?vid=44693dc8-a768-4ace-906d-9fe3b70f3089"},"vehicle_type_id":"4","last_reported":1718896140,"current_range_meters":18000,"station_id":"ce4bgj92rcd13ifvqbd0","pricing_plan_id":"cebpf4jnsgd1na2vs0mg"},{"bike_id":"788c741c-8a59-4ab5-a153-32d16ef3c571","system_id":"levelo_inurba_marseille","lat":43.299717,"lon":5.384845,"is_reserved":false,"is_disabled":false,"rental_uris":{"android":"levelo://app?vid=788c741c-8a59-4ab5-a153-32d16ef3c571","ios":"levelo://app?vid=788c741c-8a59-4ab5-a153-32d16ef3c571"},"vehicle_type_id":"4","last_reported":1718896140,"current_range_meters":0,"station_id":"ce4bgj92rcd13ifvqbd0","pricing_plan_id":"cebpf4jnsgd1na2vs0mg"},{"bike_id":"7cdff64a-5a4d-4c44-b783-01d52516151e","system_id":"levelo_inurba_marseille","lat":43.299724,"lon":5.384848,"is_reserved":false,"is_disabled":false,"rental_uris":{"android":"levelo://app?vid=7cdff64a-5a4d-4c44-b783-01d52516151e","ios":"levelo://app?vid=7cdff64a-5a4d-4c44-b783-01d52516151e"},"vehicle_type_id":"4","last_reported":1718896140,"current_range_meters":5200,"station_id":"ce4bgj92rcd13ifvqbd0","pricing_plan_id":"cebpf4jnsgd1na2vs0mg"},{"bike_id":"97007f80-1fac-4683-b468-acfe57f87411","system_id":"levelo_inurba_marseille","lat":43.3216,"lon":5.3894,"is_reserved":false,"is_disabled":false,"rental_uris":{"android":"levelo://app?vid=97007f80-1fac-4683-b468-acfe57f87411","ios":"levelo://app?vid=97007f80-1fac-4683-b468-acfe57f87411"},"vehicle_type_id":"4","last_reported":1718896140,"current_range_meters":6400,"station_id":"","pricing_plan_id":"cebpf4jnsgd1na2vs0mg"},{"bike_id":"3e03ba63-9b41-4301-beda-cac37ef123af","system_id":"levelo_inurba_marseille","lat":43.32367,"lon":5.388836,"is_reserved":false,"is_disabled":false,"rental_uris":{"android":"levelo://app?vid=3e03ba63-9b41-4301-beda-cac37ef123af","ios":"levelo://app?vid=3e03ba63-9b41-4301-beda-cac37ef123af"},"vehicle_type_id":"4","last_reported":1718896140,"current_range_meters":26000,"station_id":"ce4bhqp2rcd13ifvqhog","pricing_plan_id":"cebpf4jnsgd1na2vs0mg"},{"bike_id":"0eea3d5b-e93f-4929-a4fe-3107866a3139","system_id":"levelo_inurba_marseille","lat":43.32367,"lon":5.388836,"is_reserved":false,"is_disabled":false,"rental_uris":{"android":"levelo://app?vid=0eea3d5b-e93f-4929-a4fe-3107866a3139","ios":"levelo://app?vid=0eea3d5b-e93f-4929-a4fe-3107866a3139"},"vehicle_type_id":"4","last_reported":1718896140,"current_range_meters":21200,"station_id":"ce4bhqp2rcd13ifvqhog","pricing_plan_id":"cebpf4jnsgd1na2vs0mg"},{"bike_id":"2bd7cb95-c8f5-4db7-bd45-42ca303ebb4e","system_id":"levelo_inurba_marseille","lat":43.290094,"lon":5.381264,"is_reserved":false,"is_disabled":false,"rental_uris":{"android":"levelo://app?vid=2bd7cb95-c8f5-4db7-bd45-42ca303ebb4e","ios":"levelo://app?vid=2bd7cb95-c8f5-4db7-bd45-42ca303ebb4e"},"vehicle_type_id":"4","last_reported":1718896140,"current_range_meters":0,"station_id":"ce4bh4p2rcd13ifvqe1g","pricing_plan_id":"cebpf4jnsgd1na2vs0mg"},{"bike_id":"3f2f2b65-5aa1-4f62-ad38-7566cc6d327a","system_id":"levelo_inurba_marseille","lat":43.2928,"lon":5.36853,"is_reserved":false,"is_disabled":false,"rental_uris":{"android":"levelo://app?vid=3f2f2b65-5aa1-4f62-ad38-7566cc6d327a","ios":"levelo://app?vid=3f2f2b65-5aa1-4f62-ad38-7566cc6d327a"},"vehicle_type_id":"4","last_reported":1718896140,"current_range_meters":20000,"station_id":"ce4bhbp2rcd13ifvqesg","pricing_plan_id":"cebpf4jnsgd1na2vs0mg"},{"bike_id":"53839349-d65d-447f-a766-d772d52469e9","system_id":"levelo_inurba_marseille","lat":43.292749,"lon":5.368402,"is_reserved":false,"is_disabled":false,"rental_uris":{"android":"levelo://app?vid=53839349-d65d-447f-a766-d772d52469e9","ios":"levelo://app?vid=53839349-d65d-447f-a766-d772d52469e9"},"vehicle_type_id":"4","last_reported":1718896140,"current_range_meters":9600,"station_id":"ce4bhbp2rcd13ifvqesg","pricing_plan_id":"cebpf4jnsgd1na2vs0mg"},{"bike_id":"312d0568-37c7-4a93-a1b7-32094f3364b6","system_id":"levelo_inurba_marseille","lat":43.293259,"lon":5.371586,"is_reserved":false,"is_disabled":false,"rental_uris":{"android":"levelo://app?vid=312d0568-37c7-4a93-a1b7-32094f3364b6","ios":"levelo://app?vid=312d0568-37c7-4a93-a1b7-32094f3364b6"},"vehicle_type_id":"4","last_reported":1718896140,"current_range_meters":4800,"station_id":"ce4bgh92rcd13ifvqb40","pricing_plan_id":"cebpf4jnsgd1na2vs0mg"},{"bike_id":"b90f841c-9f47-40c2-9233-4fb823626d15","system_id":"levelo_inurba_marseille","lat":43.292749,"lon":5.368402,"is_reserved":false,"is_disabled":false,"rental_uris":{"android":"levelo://app?vid=b90f841c-9f47-40c2-9233-4fb823626d15","ios":"levelo://app?vid=b90f841c-9f47-40c2-9233-4fb823626d15"},"vehicle_type_id":"4","last_reported":1718896140,"current_range_meters":14800,"station_id":"ce4bhbp2rcd13ifvqesg","pricing_plan_id":"cebpf4jnsgd1na2vs0mg"},{"bike_id":"fd0660ee-dd3e-46ed-9e3d-50b8e37be188","system_id":"levelo_inurba_marseille","lat":43.293009,"lon":5.374584,"is_reserved":false,"is_disabled":false,"rental_uris":{"android":"levelo://app?vid=fd0660ee-dd3e-46ed-9e3d-50b8e37be188","ios":"levelo://app?vid=fd0660ee-dd3e-46ed-9e3d-50b8e37be188"},"vehicle_type_id":"4","last_reported":1718896140,"current_range_meters":25600,"station_id":"ce4bgi12rcd13ifvqb70","pricing_plan_id":"cebpf4jnsgd1na2vs0mg"},{"bike_id":"28186e11-e7db-49b5-ac70-d0c9be4fb24a","system_id":"levelo_inurba_marseille","lat":43.30599,"lon":5.39365,"is_reserved":false,"is_disabled":false,"rental_uris":{"android":"levelo://app?vid=28186e11-e7db-49b5-ac70-d0c9be4fb24a","ios":"levelo://app?vid=28186e11-e7db-49b5-ac70-d0c9be4fb24a"},"vehicle_type_id":"4","last_reported":1718896140,"current_range_meters":0,"station_id":"ce4bh0p2rcd13ifvqd80","pricing_plan_id":"cebpf4jnsgd1na2vs0mg"},{"bike_id":"0b32953f-fafc-43a6-a77d-98a9304a7cb5","system_id":"levelo_inurba_marseille","lat":43.292311,"lon":5.360731,"is_reserved":false,"is_disabled":false,"rental_uris":{"android":"levelo://app?vid=0b32953f-fafc-43a6-a77d-98a9304a7cb5","ios":"levelo://app?vid=0b32953f-fafc-43a6-a77d-98a9304a7cb5"},"vehicle_type_id":"4","last_reported":1718896140,"current_range_meters":31200,"station_id":"ce4bhbh2rcd13ifvqeqg","pricing_plan_id":"cebpf4jnsgd1na2vs0mg"},{"bike_id":"f1d3648d-f16c-4250-bf03-8cb6a43b626c","system_id":"levelo_inurba_marseille","lat":43.2923,"lon":5.36078,"is_reserved":false,"is_disabled":false,"rental_uris":{"android":"levelo://app?vid=f1d3648d-f16c-4250-bf03-8cb6a43b626c","ios":"levelo://app?vid=f1d3648d-f16c-4250-bf03-8cb6a43b626c"},"vehicle_type_id":"4","last_reported":1718896140,"current_range_meters":0,"station_id":"ce4bhbh2rcd13ifvqeqg","pricing_plan_id":"cebpf4jnsgd1na2vs0mg"},{"bike_id":"6d56967e-4c02-44de-8b0a-022d901eb480","system_id":"levelo_inurba_marseille","lat":43.292311,"lon":5.360731,"is_reserved":false,"is_disabled":false,"rental_uris":{"android":"levelo://app?vid=6d56967e-4c02-44de-8b0a-022d901eb480","ios":"levelo://app?vid=6d56967e-4c02-44de-8b0a-022d901eb480"},"vehicle_type_id":"4","last_reported":1718896140,"current_range_meters":0,"station_id":"ce4bhbh2rcd13ifvqeqg","pricing_plan_id":"cebpf4jnsgd1na2vs0mg"},{"bike_id":"c216258f-d471-4b5a-813b-08f20880bd11","system_id":"levelo_inurba_marseille","lat":43.292311,"lon":5.360731,"is_reserved":false,"is_disabled":false,"rental_uris":{"android":"levelo://app?vid=c216258f-d471-4b5a-813b-08f20880bd11","ios":"levelo://app?vid=c216258f-d471-4b5a-813b-08f20880bd11"},"vehicle_type_id":"4","last_reported":1718896140,"current_range_meters":24400,"station_id":"ce4bhbh2rcd13ifvqeqg","pricing_plan_id":"cebpf4jnsgd1na2vs0mg"},{"bike_id":"11c39dd5-b7bd-46b8-9f6f-8a24c852acf0","system_id":"levelo_inurba_marseille","lat":43.292311,"lon":5.360731,"is_reserved":false,"is_disabled":false,"rental_uris":{"android":"levelo://app?vid=11c39dd5-b7bd-46b8-9f6f-8a24c852acf0","ios":"levelo://app?vid=11c39dd5-b7bd-46b8-9f6f-8a24c852acf0"},"vehicle_type_id":"4","last_reported":1718896140,"current_range_meters":14000,"station_id":"ce4bhbh2rcd13ifvqeqg","pricing_plan_id":"cebpf4jnsgd1na2vs0mg"},{"bike_id":"02355658-64da-4723-86dd-cb86a68e190d","system_id":"levelo_inurba_marseille","lat":43.317557,"lon":5.390173,"is_reserved":false,"is_disabled":false,"rental_uris":{"android":"levelo://app?vid=02355658-64da-4723-86dd-cb86a68e190d","ios":"levelo://app?vid=02355658-64da-4723-86dd-cb86a68e190d"},"vehicle_type_id":"4","last_reported":1718896140,"current_range_meters":10800,"station_id":"ce4bhqp2rcd13ifvqhng","pricing_plan_id":"cebpf4jnsgd1na2vs0mg"},{"bike_id":"a99d1251-1543-4f76-a362-9a878a350308","system_id":"levelo_inurba_marseille","lat":43.30085,"lon":5.390856,"is_reserved":false,"is_disabled":false,"rental_uris":{"android":"levelo://app?vid=a99d1251-1543-4f76-a362-9a878a350308","ios":"levelo://app?vid=a99d1251-1543-4f76-a362-9a878a350308"},"vehicle_type_id":"4","last_reported":1718896140,"current_range_meters":0,"station_id":"ce4bh192rcd13ifvqdb0","pricing_plan_id":"cebpf4jnsgd1na2vs0mg"},{"bike_id":"012c9682-ba07-406a-98fb-d09e32d8c69e","system_id":"levelo_inurba_marseille","lat":43.292005,"lon":5.357875,"is_reserved":false,"is_disabled":false,"rental_uris":{"android":"levelo://app?vid=012c9682-ba07-406a-98fb-d09e32d8c69e","ios":"levelo://app?vid=012c9682-ba07-406a-98fb-d09e32d8c69e"},"vehicle_type_id":"4","last_reported":1718896140,"current_range_meters":18800,"station_id":"ce4bhb12rcd13ifvqel0","pricing_plan_id":"cebpf4jnsgd1na2vs0mg"},{"bike_id":"6a9dbb3c-8fee-4f76-b1c7-630c12db6451","system_id":"levelo_inurba_marseille","lat":43.292005,"lon":5.357875,"is_reserved":false,"is_disabled":false,"rental_uris":{"android":"levelo://app?vid=6a9dbb3c-8fee-4f76-b1c7-630c12db6451","ios":"levelo://app?vid=6a9dbb3c-8fee-4f76-b1c7-630c12db6451"},"vehicle_type_id":"4","last_reported":1718896140,"current_range_meters":2400,"station_id":"ce4bhb12rcd13ifvqel0","pricing_plan_id":"cebpf4jnsgd1na2vs0mg"},{"bike_id":"b524c248-0132-4f17-a9c3-fe41a9d0fb2b","system_id":"levelo_inurba_marseille","lat":43.29202,"lon":5.35808,"is_reserved":false,"is_disabled":false,"rental_uris":{"android":"levelo://app?vid=b524c248-0132-4f17-a9c3-fe41a9d0fb2b","ios":"levelo://app?vid=b524c248-0132-4f17-a9c3-fe41a9d0fb2b"},"vehicle_type_id":"4","last_reported":1718896140,"current_range_meters":400,"station_id":"","pricing_plan_id":"cebpf4jnsgd1na2vs0mg"},{"bike_id":"5bb83235-4abb-42f4-a9b5-dd559b6e5602","system_id":"levelo_inurba_marseille","lat":43.292005,"lon":5.357875,"is_reserved":false,"is_disabled":false,"rental_uris":{"android":"levelo://app?vid=5bb83235-4abb-42f4-a9b5-dd559b6e5602","ios":"levelo://app?vid=5bb83235-4abb-42f4-a9b5-dd559b6e5602"},"vehicle_type_id":"4","last_reported":1718896140,"current_range_meters":0,"station_id":"ce4bhb12rcd13ifvqel0","pricing_plan_id":"cebpf4jnsgd1na2vs0mg"},{"bike_id":"fdbbaad0-f459-48ca-bd3c-e22bbe923d17","system_id":"levelo_inurba_marseille","lat":43.291994,"lon":5.357886,"is_reserved":false,"is_disabled":false,"rental_uris":{"android":"levelo://app?vid=fdbbaad0-f459-48ca-bd3c-e22bbe923d17","ios":"levelo://app?vid=fdbbaad0-f459-48ca-bd3c-e22bbe923d17"},"vehicle_type_id":"4","last_reported":1718896140,"current_range_meters":8400,"station_id":"ce4bhb12rcd13ifvqel0","pricing_plan_id":"cebpf4jnsgd1na2vs0mg"},{"bike_id":"82b3e4fe-1e28-415e-bf66-61e49f6fa018","system_id":"levelo_inurba_marseille","lat":43.309038,"lon":5.396546,"is_reserved":false,"is_disabled":false,"rental_uris":{"android":"levelo://app?vid=82b3e4fe-1e28-415e-bf66-61e49f6fa018","ios":"levelo://app?vid=82b3e4fe-1e28-415e-bf66-61e49f6fa018"},"vehicle_type_id":"4","last_reported":1718896140,"current_range_meters":30400,"station_id":"ce4bh012rcd13ifvqcv0","pricing_plan_id":"cebpf4jnsgd1na2vs0mg"},{"bike_id":"17d82921-fa7d-4aee-8c6f-86edea70a2c2","system_id":"levelo_inurba_marseille","lat":43.313291,"lon":5.396838,"is_reserved":false,"is_disabled":false,"rental_uris":{"android":"levelo://app?vid=17d82921-fa7d-4aee-8c6f-86edea70a2c2","ios":"levelo://app?vid=17d82921-fa7d-4aee-8c6f-86edea70a2c2"},"vehicle_type_id":"4","last_reported":1718896140,"current_range_meters":19200,"station_id":"ce4bgvp2rcd13ifvqcu0","pricing_plan_id":"cebpf4jnsgd1na2vs0mg"},{"bike_id":"e00c7ffe-ab0f-4990-abb3-4f62ab02c109","system_id":"levelo_inurba_marseille","lat":43.309038,"lon":5.396546,"is_reserved":false,"is_disabled":false,"rental_uris":{"android":"levelo://app?vid=e00c7ffe-ab0f-4990-abb3-4f62ab02c109","ios":"levelo://app?vid=e00c7ffe-ab0f-4990-abb3-4f62ab02c109"},"vehicle_type_id":"4","last_reported":1718896140,"current_range_meters":30000,"station_id":"ce4bh012rcd13ifvqcv0","pricing_plan_id":"cebpf4jnsgd1na2vs0mg"},{"bike_id":"4d063b08-445e-4cc6-9c28-c12514444266","system_id":"levelo_inurba_marseille","lat":43.313291,"lon":5.396838,"is_reserved":false,"is_disabled":false,"rental_uris":{"android":"levelo://app?vid=4d063b08-445e-4cc6-9c28-c12514444266","ios":"levelo://app?vid=4d063b08-445e-4cc6-9c28-c12514444266"},"vehicle_type_id":"4","last_reported":1718896140,"current_range_meters":31200,"station_id":"ce4bgvp2rcd13ifvqcu0","pricing_plan_id":"cebpf4jnsgd1na2vs0mg"},{"bike_id":"c92d6ca4-a228-469d-962f-6fc518b8cd7f","system_id":"levelo_inurba_marseille","lat":43.313291,"lon":5.396838,"is_reserved":false,"is_disabled":false,"rental_uris":{"android":"levelo://app?vid=c92d6ca4-a228-469d-962f-6fc518b8cd7f","ios":"levelo://app?vid=c92d6ca4-a228-469d-962f-6fc518b8cd7f"},"vehicle_type_id":"4","last_reported":1718896140,"current_range_meters":16800,"station_id":"ce4bgvp2rcd13ifvqcu0","pricing_plan_id":"cebpf4jnsgd1na2vs0mg"},{"bike_id":"813b85b2-ee58-48bb-a8d3-c5947f404fd7","system_id":"levelo_inurba_marseille","lat":43.31336,"lon":5.39692,"is_reserved":false,"is_disabled":false,"rental_uris":{"android":"levelo://app?vid=813b85b2-ee58-48bb-a8d3-c5947f404fd7","ios":"levelo://app?vid=813b85b2-ee58-48bb-a8d3-c5947f404fd7"},"vehicle_type_id":"4","last_reported":1718896140,"current_range_meters":23600,"station_id":"ce4bgvp2rcd13ifvqcu0","pricing_plan_id":"cebpf4jnsgd1na2vs0mg"},{"bike_id":"55713592-b9b6-4cee-9917-976a1d6c102e","system_id":"levelo_inurba_marseille","lat":43.309038,"lon":5.396546,"is_reserved":false,"is_disabled":false,"rental_uris":{"android":"levelo://app?vid=55713592-b9b6-4cee-9917-976a1d6c102e","ios":"levelo://app?vid=55713592-b9b6-4cee-9917-976a1d6c102e"},"vehicle_type_id":"4","last_reported":1718896140,"current_range_meters":19200,"station_id":"ce4bh012rcd13ifvqcv0","pricing_plan_id":"cebpf4jnsgd1na2vs0mg"},{"bike_id":"7171688e-9ebe-47b3-b26c-17bc5ee10c1d","system_id":"levelo_inurba_marseille","lat":43.309038,"lon":5.396546,"is_reserved":false,"is_disabled":false,"rental_uris":{"android":"levelo://app?vid=7171688e-9ebe-47b3-b26c-17bc5ee10c1d","ios":"levelo://app?vid=7171688e-9ebe-47b3-b26c-17bc5ee10c1d"},"vehicle_type_id":"4","last_reported":1718896140,"current_range_meters":15200,"station_id":"ce4bh012rcd13ifvqcv0","pricing_plan_id":"cebpf4jnsgd1na2vs0mg"},{"bike_id":"a1f8b10c-9b1c-42c5-a287-8c268daadb27","system_id":"levelo_inurba_marseille","lat":43.313291,"lon":5.396838,"is_reserved":false,"is_disabled":false,"rental_uris":{"android":"levelo://app?vid=a1f8b10c-9b1c-42c5-a287-8c268daadb27","ios":"levelo://app?vid=a1f8b10c-9b1c-42c5-a287-8c268daadb27"},"vehicle_type_id":"4","last_reported":1718896140,"current_range_meters":31200,"station_id":"ce4bgvp2rcd13ifvqcu0","pricing_plan_id":"cebpf4jnsgd1na2vs0mg"},{"bike_id":"1c75302c-7f11-4981-b979-12bd70bc977c","system_id":"levelo_inurba_marseille","lat":43.309038,"lon":5.396546,"is_reserved":false,"is_disabled":false,"rental_uris":{"android":"levelo://app?vid=1c75302c-7f11-4981-b979-12bd70bc977c","ios":"levelo://app?vid=1c75302c-7f11-4981-b979-12bd70bc977c"},"vehicle_type_id":"4","last_reported":1718896140,"current_range_meters":18000,"station_id":"ce4bh012rcd13ifvqcv0","pricing_plan_id":"cebpf4jnsgd1na2vs0mg"},{"bike_id":"8024b91f-579f-4f6c-84d9-a8225b4d45d9","system_id":"levelo_inurba_marseille","lat":43.30897,"lon":5.3965,"is_reserved":false,"is_disabled":false,"rental_uris":{"android":"levelo://app?vid=8024b91f-579f-4f6c-84d9-a8225b4d45d9","ios":"levelo://app?vid=8024b91f-579f-4f6c-84d9-a8225b4d45d9"},"vehicle_type_id":"4","last_reported":1718896140,"current_range_meters":18400,"station_id":"ce4bh012rcd13ifvqcv0","pricing_plan_id":"cebpf4jnsgd1na2vs0mg"},{"bike_id":"acfa956d-9e62-453d-9abc-dac8ece4d753","system_id":"levelo_inurba_marseille","lat":43.309038,"lon":5.396546,"is_reserved":false,"is_disabled":false,"rental_uris":{"android":"levelo://app?vid=acfa956d-9e62-453d-9abc-dac8ece4d753","ios":"levelo://app?vid=acfa956d-9e62-453d-9abc-dac8ece4d753"},"vehicle_type_id":"4","last_reported":1718896140,"current_range_meters":16400,"station_id":"ce4bh012rcd13ifvqcv0","pricing_plan_id":"cebpf4jnsgd1na2vs0mg"},{"bike_id":"a9356885-60d7-4bcc-a60c-8456d2ded744","system_id":"levelo_inurba_marseille","lat":43.309038,"lon":5.396546,"is_reserved":false,"is_disabled":false,"rental_uris":{"android":"levelo://app?vid=a9356885-60d7-4bcc-a60c-8456d2ded744","ios":"levelo://app?vid=a9356885-60d7-4bcc-a60c-8456d2ded744"},"vehicle_type_id":"4","last_reported":1718896140,"current_range_meters":13600,"station_id":"ce4bh012rcd13ifvqcv0","pricing_plan_id":"cebpf4jnsgd1na2vs0mg"},{"bike_id":"436defd1-790c-4d09-9071-7c1d008fdce0","system_id":"levelo_inurba_marseille","lat":43.309038,"lon":5.396546,"is_reserved":false,"is_disabled":false,"rental_uris":{"android":"levelo://app?vid=436defd1-790c-4d09-9071-7c1d008fdce0","ios":"levelo://app?vid=436defd1-790c-4d09-9071-7c1d008fdce0"},"vehicle_type_id":"4","last_reported":1718896140,"current_range_meters":30000,"station_id":"ce4bh012rcd13ifvqcv0","pricing_plan_id":"cebpf4jnsgd1na2vs0mg"},{"bike_id":"797226b6-2925-41c1-b928-b88caed9c4dd","system_id":"levelo_inurba_marseille","lat":43.309038,"lon":5.396546,"is_reserved":false,"is_disabled":false,"rental_uris":{"android":"levelo://app?vid=797226b6-2925-41c1-b928-b88caed9c4dd","ios":"levelo://app?vid=797226b6-2925-41c1-b928-b88caed9c4dd"},"vehicle_type_id":"4","last_reported":1718896140,"current_range_meters":0,"station_id":"ce4bh012rcd13ifvqcv0","pricing_plan_id":"cebpf4jnsgd1na2vs0mg"},{"bike_id":"b12e9885-f608-4656-b6f9-60d435f8dbe5","system_id":"levelo_inurba_marseille","lat":43.309038,"lon":5.396546,"is_reserved":false,"is_disabled":false,"rental_uris":{"android":"levelo://app?vid=b12e9885-f608-4656-b6f9-60d435f8dbe5","ios":"levelo://app?vid=b12e9885-f608-4656-b6f9-60d435f8dbe5"},"vehicle_type_id":"4","last_reported":1718896140,"current_range_meters":9200,"station_id":"ce4bh012rcd13ifvqcv0","pricing_plan_id":"cebpf4jnsgd1na2vs0mg"},{"bike_id":"cd35cd3b-fa1d-43e3-9d4e-9c1ef2ccbe18","system_id":"levelo_inurba_marseille","lat":43.309038,"lon":5.396546,"is_reserved":false,"is_disabled":false,"rental_uris":{"android":"levelo://app?vid=cd35cd3b-fa1d-43e3-9d4e-9c1ef2ccbe18","ios":"levelo://app?vid=cd35cd3b-fa1d-43e3-9d4e-9c1ef2ccbe18"},"vehicle_type_id":"4","last_reported":1718896140,"current_range_meters":5200,"station_id":"ce4bh012rcd13ifvqcv0","pricing_plan_id":"cebpf4jnsgd1na2vs0mg"},{"bike_id":"c9881796-4765-434e-9a7b-e73d579823a6","system_id":"levelo_inurba_marseille","lat":43.309038,"lon":5.396546,"is_reserved":false,"is_disabled":false,"rental_uris":{"android":"levelo://app?vid=c9881796-4765-434e-9a7b-e73d579823a6","ios":"levelo://app?vid=c9881796-4765-434e-9a7b-e73d579823a6"},"vehicle_type_id":"4","last_reported":1718896140,"current_range_meters":28000,"station_id":"ce4bh012rcd13ifvqcv0","pricing_plan_id":"cebpf4jnsgd1na2vs0mg"},{"bike_id":"5cc02af2-a082-4bb9-8c22-0d3478dcd7cf","system_id":"levelo_inurba_marseille","lat":43.290779,"lon":5.371482,"is_reserved":false,"is_disabled":false,"rental_uris":{"android":"levelo://app?vid=5cc02af2-a082-4bb9-8c22-0d3478dcd7cf","ios":"levelo://app?vid=5cc02af2-a082-4bb9-8c22-0d3478dcd7cf"},"vehicle_type_id":"4","last_reported":1718896140,"current_range_meters":14400,"station_id":"ce4bh5p2rcd13ifvqe4g","pricing_plan_id":"cebpf4jnsgd1na2vs0mg"},{"bike_id":"5cae7cc9-95a8-4e83-9c7a-0fc1c59945f8","system_id":"levelo_inurba_marseille","lat":43.302008,"lon":5.394694,"is_reserved":false,"is_disabled":false,"rental_uris":{"android":"levelo://app?vid=5cae7cc9-95a8-4e83-9c7a-0fc1c59945f8","ios":"levelo://app?vid=5cae7cc9-95a8-4e83-9c7a-0fc1c59945f8"},"vehicle_type_id":"4","last_reported":1718896140,"current_range_meters":800,"station_id":"ce4bh0p2rcd13ifvqd70","pricing_plan_id":"cebpf4jnsgd1na2vs0mg"},{"bike_id":"992072d7-8980-403d-b6ac-fe2457ea15bb","system_id":"levelo_inurba_marseille","lat":43.302008,"lon":5.394694,"is_reserved":false,"is_disabled":false,"rental_uris":{"android":"levelo://app?vid=992072d7-8980-403d-b6ac-fe2457ea15bb","ios":"levelo://app?vid=992072d7-8980-403d-b6ac-fe2457ea15bb"},"vehicle_type_id":"4","last_reported":1718896140,"current_range_meters":16400,"station_id":"ce4bh0p2rcd13ifvqd70","pricing_plan_id":"cebpf4jnsgd1na2vs0mg"},{"bike_id":"1c97fe10-5691-4a9f-84bc-043b2b683ce9","system_id":"levelo_inurba_marseille","lat":43.302008,"lon":5.394694,"is_reserved":false,"is_disabled":false,"rental_uris":{"android":"levelo://app?vid=1c97fe10-5691-4a9f-84bc-043b2b683ce9","ios":"levelo://app?vid=1c97fe10-5691-4a9f-84bc-043b2b683ce9"},"vehicle_type_id":"4","last_reported":1718896140,"current_range_meters":15200,"station_id":"ce4bh0p2rcd13ifvqd70","pricing_plan_id":"cebpf4jnsgd1na2vs0mg"},{"bike_id":"b33c2d53-0ca5-4cf8-baff-7c28afb496bf","system_id":"levelo_inurba_marseille","lat":43.302008,"lon":5.394694,"is_reserved":false,"is_disabled":false,"rental_uris":{"android":"levelo://app?vid=b33c2d53-0ca5-4cf8-baff-7c28afb496bf","ios":"levelo://app?vid=b33c2d53-0ca5-4cf8-baff-7c28afb496bf"},"vehicle_type_id":"4","last_reported":1718896140,"current_range_meters":23600,"station_id":"ce4bh0p2rcd13ifvqd70","pricing_plan_id":"cebpf4jnsgd1na2vs0mg"},{"bike_id":"05ab98ea-d9a4-4bdf-a33c-2bf7f80474c2","system_id":"levelo_inurba_marseille","lat":43.290631,"lon":5.359244,"is_reserved":false,"is_disabled":false,"rental_uris":{"android":"levelo://app?vid=05ab98ea-d9a4-4bdf-a33c-2bf7f80474c2","ios":"levelo://app?vid=05ab98ea-d9a4-4bdf-a33c-2bf7f80474c2"},"vehicle_type_id":"4","last_reported":1718896140,"current_range_meters":18800,"station_id":"ce4bha92rcd13ifvqeg0","pricing_plan_id":"cebpf4jnsgd1na2vs0mg"},{"bike_id":"4baaf207-c6ac-42cf-8ab9-42e6946bc148","system_id":"levelo_inurba_marseille","lat":43.290624,"lon":5.359245,"is_reserved":false,"is_disabled":false,"rental_uris":{"android":"levelo://app?vid=4baaf207-c6ac-42cf-8ab9-42e6946bc148","ios":"levelo://app?vid=4baaf207-c6ac-42cf-8ab9-42e6946bc148"},"vehicle_type_id":"4","last_reported":1718896140,"current_range_meters":12000,"station_id":"ce4bha92rcd13ifvqeg0","pricing_plan_id":"cebpf4jnsgd1na2vs0mg"},{"bike_id":"5942fc8d-dc89-4738-b17d-47d3e5a03b70","system_id":"levelo_inurba_marseille","lat":43.290631,"lon":5.359244,"is_reserved":false,"is_disabled":false,"rental_uris":{"android":"levelo://app?vid=5942fc8d-dc89-4738-b17d-47d3e5a03b70","ios":"levelo://app?vid=5942fc8d-dc89-4738-b17d-47d3e5a03b70"},"vehicle_type_id":"4","last_reported":1718896140,"current_range_meters":2000,"station_id":"ce4bha92rcd13ifvqeg0","pricing_plan_id":"cebpf4jnsgd1na2vs0mg"},{"bike_id":"02ccf13a-2db3-40f5-bcf1-e5e91128b84c","system_id":"levelo_inurba_marseille","lat":43.290327,"lon":5.375711,"is_reserved":false,"is_disabled":false,"rental_uris":{"android":"levelo://app?vid=02ccf13a-2db3-40f5-bcf1-e5e91128b84c","ios":"levelo://app?vid=02ccf13a-2db3-40f5-bcf1-e5e91128b84c"},"vehicle_type_id":"4","last_reported":1718896140,"current_range_meters":29200,"station_id":"ce4bh692rcd13ifvqe90","pricing_plan_id":"cebpf4jnsgd1na2vs0mg"},{"bike_id":"6532c21c-9ff7-4419-b73a-13be53aef112","system_id":"levelo_inurba_marseille","lat":43.290319,"lon":5.375732,"is_reserved":false,"is_disabled":false,"rental_uris":{"android":"levelo://app?vid=6532c21c-9ff7-4419-b73a-13be53aef112","ios":"levelo://app?vid=6532c21c-9ff7-4419-b73a-13be53aef112"},"vehicle_type_id":"4","last_reported":1718896140,"current_range_meters":4400,"station_id":"ce4bh692rcd13ifvqe90","pricing_plan_id":"cebpf4jnsgd1na2vs0mg"},{"bike_id":"d6c69a0b-f9a0-4f57-9c05-398eaaaf86f9","system_id":"levelo_inurba_marseille","lat":43.29422,"lon":5.3863,"is_reserved":false,"is_disabled":false,"rental_uris":{"android":"levelo://app?vid=d6c69a0b-f9a0-4f57-9c05-398eaaaf86f9","ios":"levelo://app?vid=d6c69a0b-f9a0-4f57-9c05-398eaaaf86f9"},"vehicle_type_id":"4","last_reported":1718896140,"current_range_meters":0,"station_id":"ce4bh2h2rcd13ifvqdh0","pricing_plan_id":"cebpf4jnsgd1na2vs0mg"},{"bike_id":"e2d22471-55dd-4bd8-95a7-e73391e04780","system_id":"levelo_inurba_marseille","lat":43.295169,"lon":5.390426,"is_reserved":false,"is_disabled":false,"rental_uris":{"android":"levelo://app?vid=e2d22471-55dd-4bd8-95a7-e73391e04780","ios":"levelo://app?vid=e2d22471-55dd-4bd8-95a7-e73391e04780"},"vehicle_type_id":"4","last_reported":1718896140,"current_range_meters":12400,"station_id":"ce4bh3p2rcd13ifvqdp0","pricing_plan_id":"cebpf4jnsgd1na2vs0mg"},{"bike_id":"da6bd3b8-6337-473a-afc6-42d5fa42934e","system_id":"levelo_inurba_marseille","lat":43.289184,"lon":5.366408,"is_reserved":false,"is_disabled":false,"rental_uris":{"android":"levelo://app?vid=da6bd3b8-6337-473a-afc6-42d5fa42934e","ios":"levelo://app?vid=da6bd3b8-6337-473a-afc6-42d5fa42934e"},"vehicle_type_id":"4","last_reported":1718896140,"current_range_meters":13200,"station_id":"ce4bhap2rcd13ifvqek0","pricing_plan_id":"cebpf4jnsgd1na2vs0mg"},{"bike_id":"09f4c177-c9c7-4072-924b-66ff96c067c9","system_id":"levelo_inurba_marseille","lat":43.292644,"lon":5.384257,"is_reserved":false,"is_disabled":false,"rental_uris":{"android":"levelo://app?vid=09f4c177-c9c7-4072-924b-66ff96c067c9","ios":"levelo://app?vid=09f4c177-c9c7-4072-924b-66ff96c067c9"},"vehicle_type_id":"4","last_reported":1718896140,"current_range_meters":30400,"station_id":"ce4bh692rcd13ifvqea0","pricing_plan_id":"cebpf4jnsgd1na2vs0mg"},{"bike_id":"bdbd8a30-a5e4-4682-a13f-c5158e292c72","system_id":"levelo_inurba_marseille","lat":43.292644,"lon":5.384257,"is_reserved":false,"is_disabled":false,"rental_uris":{"android":"levelo://app?vid=bdbd8a30-a5e4-4682-a13f-c5158e292c72","ios":"levelo://app?vid=bdbd8a30-a5e4-4682-a13f-c5158e292c72"},"vehicle_type_id":"4","last_reported":1718896140,"current_range_meters":16000,"station_id":"ce4bh692rcd13ifvqea0","pricing_plan_id":"cebpf4jnsgd1na2vs0mg"},{"bike_id":"27d6b094-a106-428b-bb64-43cf3e6f089d","system_id":"levelo_inurba_marseille","lat":43.292642,"lon":5.384254,"is_reserved":false,"is_disabled":false,"rental_uris":{"android":"levelo://app?vid=27d6b094-a106-428b-bb64-43cf3e6f089d","ios":"levelo://app?vid=27d6b094-a106-428b-bb64-43cf3e6f089d"},"vehicle_type_id":"4","last_reported":1718896140,"current_range_meters":23600,"station_id":"ce4bh692rcd13ifvqea0","pricing_plan_id":"cebpf4jnsgd1na2vs0mg"},{"bike_id":"cbd54a70-bfe1-436f-9047-4e1505d7bf0a","system_id":"levelo_inurba_marseille","lat":43.292745,"lon":5.38454,"is_reserved":false,"is_disabled":false,"rental_uris":{"android":"levelo://app?vid=cbd54a70-bfe1-436f-9047-4e1505d7bf0a","ios":"levelo://app?vid=cbd54a70-bfe1-436f-9047-4e1505d7bf0a"},"vehicle_type_id":"4","last_reported":1718896140,"current_range_meters":22800,"station_id":"ce4bh692rcd13ifvqea0","pricing_plan_id":"cebpf4jnsgd1na2vs0mg"},{"bike_id":"40ca243e-402f-4a44-86b2-8685e4f451a2","system_id":"levelo_inurba_marseille","lat":43.304296,"lon":5.397513,"is_reserved":false,"is_disabled":false,"rental_uris":{"android":"levelo://app?vid=40ca243e-402f-4a44-86b2-8685e4f451a2","ios":"levelo://app?vid=40ca243e-402f-4a44-86b2-8685e4f451a2"},"vehicle_type_id":"4","last_reported":1718896140,"current_range_meters":23600,"station_id":"ce4bh092rcd13ifvqd20","pricing_plan_id":"cebpf4jnsgd1na2vs0mg"},{"bike_id":"16b080d5-af5b-4b91-8057-52be01e7a562","system_id":"levelo_inurba_marseille","lat":43.292644,"lon":5.384257,"is_reserved":false,"is_disabled":false,"rental_uris":{"android":"levelo://app?vid=16b080d5-af5b-4b91-8057-52be01e7a562","ios":"levelo://app?vid=16b080d5-af5b-4b91-8057-52be01e7a562"},"vehicle_type_id":"4","last_reported":1718896140,"current_range_meters":26400,"station_id":"ce4bh692rcd13ifvqea0","pricing_plan_id":"cebpf4jnsgd1na2vs0mg"},{"bike_id":"a912436c-fe75-4fa7-896b-bd8806f19c2d","system_id":"levelo_inurba_marseille","lat":43.292642,"lon":5.384254,"is_reserved":false,"is_disabled":false,"rental_uris":{"android":"levelo://app?vid=a912436c-fe75-4fa7-896b-bd8806f19c2d","ios":"levelo://app?vid=a912436c-fe75-4fa7-896b-bd8806f19c2d"},"vehicle_type_id":"4","last_reported":1718896140,"current_range_meters":27200,"station_id":"ce4bh692rcd13ifvqea0","pricing_plan_id":"cebpf4jnsgd1na2vs0mg"},{"bike_id":"f4b0d315-0dda-4e19-9018-14d9c3ffa374","system_id":"levelo_inurba_marseille","lat":43.290104,"lon":5.356111,"is_reserved":false,"is_disabled":false,"rental_uris":{"android":"levelo://app?vid=f4b0d315-0dda-4e19-9018-14d9c3ffa374","ios":"levelo://app?vid=f4b0d315-0dda-4e19-9018-14d9c3ffa374"},"vehicle_type_id":"4","last_reported":1718896140,"current_range_meters":4400,"station_id":"ce4bhb92rcd13ifvqen0","pricing_plan_id":"cebpf4jnsgd1na2vs0mg"},{"bike_id":"268422f8-f4fc-4634-b437-b0b0cfed6e87","system_id":"levelo_inurba_marseille","lat":43.290104,"lon":5.356111,"is_reserved":false,"is_disabled":false,"rental_uris":{"android":"levelo://app?vid=268422f8-f4fc-4634-b437-b0b0cfed6e87","ios":"levelo://app?vid=268422f8-f4fc-4634-b437-b0b0cfed6e87"},"vehicle_type_id":"4","last_reported":1718896140,"current_range_meters":20400,"station_id":"ce4bhb92rcd13ifvqen0","pricing_plan_id":"cebpf4jnsgd1na2vs0mg"},{"bike_id":"b705acab-d485-49ed-b417-55e1120146ea","system_id":"levelo_inurba_marseille","lat":43.290103,"lon":5.356114,"is_reserved":false,"is_disabled":false,"rental_uris":{"android":"levelo://app?vid=b705acab-d485-49ed-b417-55e1120146ea","ios":"levelo://app?vid=b705acab-d485-49ed-b417-55e1120146ea"},"vehicle_type_id":"4","last_reported":1718896140,"current_range_meters":400,"station_id":"ce4bhb92rcd13ifvqen0","pricing_plan_id":"cebpf4jnsgd1na2vs0mg"},{"bike_id":"6dc09761-e2ae-4973-82ab-8040595c751c","system_id":"levelo_inurba_marseille","lat":43.28956,"lon":5.37578,"is_reserved":false,"is_disabled":false,"rental_uris":{"android":"levelo://app?vid=6dc09761-e2ae-4973-82ab-8040595c751c","ios":"levelo://app?vid=6dc09761-e2ae-4973-82ab-8040595c751c"},"vehicle_type_id":"4","last_reported":1718896140,"current_range_meters":14400,"station_id":"","pricing_plan_id":"cebpf4jnsgd1na2vs0mg"},{"bike_id":"6367fae8-a36f-4205-b4e1-68fcd71d7fe7","system_id":"levelo_inurba_marseille","lat":43.290995,"lon":5.381361,"is_reserved":false,"is_disabled":false,"rental_uris":{"android":"levelo://app?vid=6367fae8-a36f-4205-b4e1-68fcd71d7fe7","ios":"levelo://app?vid=6367fae8-a36f-4205-b4e1-68fcd71d7fe7"},"vehicle_type_id":"4","last_reported":1718896140,"current_range_meters":14400,"station_id":"ce4bh512rcd13ifvqe2g","pricing_plan_id":"cebpf4jnsgd1na2vs0mg"},{"bike_id":"74a12d4d-5cbb-450e-bfd4-b0629468a6f0","system_id":"levelo_inurba_marseille","lat":43.290995,"lon":5.381361,"is_reserved":false,"is_disabled":false,"rental_uris":{"android":"levelo://app?vid=74a12d4d-5cbb-450e-bfd4-b0629468a6f0","ios":"levelo://app?vid=74a12d4d-5cbb-450e-bfd4-b0629468a6f0"},"vehicle_type_id":"4","last_reported":1718896140,"current_range_meters":22400,"station_id":"ce4bh512rcd13ifvqe2g","pricing_plan_id":"cebpf4jnsgd1na2vs0mg"},{"bike_id":"8a41a777-a008-4aeb-bf0a-ebd0a588ee31","system_id":"levelo_inurba_marseille","lat":43.29798,"lon":5.39349,"is_reserved":false,"is_disabled":false,"rental_uris":{"android":"levelo://app?vid=8a41a777-a008-4aeb-bf0a-ebd0a588ee31","ios":"levelo://app?vid=8a41a777-a008-4aeb-bf0a-ebd0a588ee31"},"vehicle_type_id":"4","last_reported":1718896140,"current_range_meters":11200,"station_id":"chh1huq6cuj3fo74tm60","pricing_plan_id":"cebpf4jnsgd1na2vs0mg"},{"bike_id":"cdbf22d3-b5dd-4de1-aeda-68249ad0e50f","system_id":"levelo_inurba_marseille","lat":43.29781,"lon":5.39334,"is_reserved":false,"is_disabled":false,"rental_uris":{"android":"levelo://app?vid=cdbf22d3-b5dd-4de1-aeda-68249ad0e50f","ios":"levelo://app?vid=cdbf22d3-b5dd-4de1-aeda-68249ad0e50f"},"vehicle_type_id":"4","last_reported":1718896140,"current_range_meters":16000,"station_id":"chh1huq6cuj3fo74tm60","pricing_plan_id":"cebpf4jnsgd1na2vs0mg"},{"bike_id":"d444e31c-43aa-45e9-953a-d2bc8bd0e9b8","system_id":"levelo_inurba_marseille","lat":43.297815,"lon":5.393548,"is_reserved":false,"is_disabled":false,"rental_uris":{"android":"levelo://app?vid=d444e31c-43aa-45e9-953a-d2bc8bd0e9b8","ios":"levelo://app?vid=d444e31c-43aa-45e9-953a-d2bc8bd0e9b8"},"vehicle_type_id":"4","last_reported":1718896140,"current_range_meters":29200,"station_id":"chh1huq6cuj3fo74tm60","pricing_plan_id":"cebpf4jnsgd1na2vs0mg"},{"bike_id":"368975fc-f6a3-40bc-ac3b-84e5dfe35b5f","system_id":"levelo_inurba_marseille","lat":43.29788,"lon":5.39345,"is_reserved":false,"is_disabled":false,"rental_uris":{"android":"levelo://app?vid=368975fc-f6a3-40bc-ac3b-84e5dfe35b5f","ios":"levelo://app?vid=368975fc-f6a3-40bc-ac3b-84e5dfe35b5f"},"vehicle_type_id":"4","last_reported":1718896140,"current_range_meters":20800,"station_id":"chh1huq6cuj3fo74tm60","pricing_plan_id":"cebpf4jnsgd1na2vs0mg"},{"bike_id":"175142eb-6b22-4d15-9b0f-9a815e2151c5","system_id":"levelo_inurba_marseille","lat":43.295169,"lon":5.390426,"is_reserved":false,"is_disabled":false,"rental_uris":{"android":"levelo://app?vid=175142eb-6b22-4d15-9b0f-9a815e2151c5","ios":"levelo://app?vid=175142eb-6b22-4d15-9b0f-9a815e2151c5"},"vehicle_type_id":"4","last_reported":1718896140,"current_range_meters":26800,"station_id":"ce4bh3p2rcd13ifvqdp0","pricing_plan_id":"cebpf4jnsgd1na2vs0mg"},{"bike_id":"1d276812-e9c7-4f8f-b80c-7cbf627241d6","system_id":"levelo_inurba_marseille","lat":43.29788,"lon":5.39348,"is_reserved":false,"is_disabled":false,"rental_uris":{"android":"levelo://app?vid=1d276812-e9c7-4f8f-b80c-7cbf627241d6","ios":"levelo://app?vid=1d276812-e9c7-4f8f-b80c-7cbf627241d6"},"vehicle_type_id":"4","last_reported":1718896140,"current_range_meters":400,"station_id":"chh1huq6cuj3fo74tm60","pricing_plan_id":"cebpf4jnsgd1na2vs0mg"},{"bike_id":"a32a9a53-8de8-4e8a-8105-bf01bf24c2f9","system_id":"levelo_inurba_marseille","lat":43.297815,"lon":5.393548,"is_reserved":false,"is_disabled":false,"rental_uris":{"android":"levelo://app?vid=a32a9a53-8de8-4e8a-8105-bf01bf24c2f9","ios":"levelo://app?vid=a32a9a53-8de8-4e8a-8105-bf01bf24c2f9"},"vehicle_type_id":"4","last_reported":1718896140,"current_range_meters":18400,"station_id":"chh1huq6cuj3fo74tm60","pricing_plan_id":"cebpf4jnsgd1na2vs0mg"},{"bike_id":"067d9383-95ac-4409-9fff-2d7649bd5dee","system_id":"levelo_inurba_marseille","lat":43.295169,"lon":5.390426,"is_reserved":false,"is_disabled":false,"rental_uris":{"android":"levelo://app?vid=067d9383-95ac-4409-9fff-2d7649bd5dee","ios":"levelo://app?vid=067d9383-95ac-4409-9fff-2d7649bd5dee"},"vehicle_type_id":"4","last_reported":1718896140,"current_range_meters":21600,"station_id":"ce4bh3p2rcd13ifvqdp0","pricing_plan_id":"cebpf4jnsgd1na2vs0mg"},{"bike_id":"6684cd29-754e-45cf-8f66-83f58248833e","system_id":"levelo_inurba_marseille","lat":43.289741,"lon":5.378306,"is_reserved":false,"is_disabled":false,"rental_uris":{"android":"levelo://app?vid=6684cd29-754e-45cf-8f66-83f58248833e","ios":"levelo://app?vid=6684cd29-754e-45cf-8f66-83f58248833e"},"vehicle_type_id":"4","last_reported":1718896140,"current_range_meters":10000,"station_id":"ce4bh9p2rcd13ifvqed0","pricing_plan_id":"cebpf4jnsgd1na2vs0mg"},{"bike_id":"ba2deca7-175d-4af3-9313-a7a6afc35d77","system_id":"levelo_inurba_marseille","lat":43.295169,"lon":5.390426,"is_reserved":false,"is_disabled":false,"rental_uris":{"android":"levelo://app?vid=ba2deca7-175d-4af3-9313-a7a6afc35d77","ios":"levelo://app?vid=ba2deca7-175d-4af3-9313-a7a6afc35d77"},"vehicle_type_id":"4","last_reported":1718896140,"current_range_meters":14000,"station_id":"ce4bh3p2rcd13ifvqdp0","pricing_plan_id":"cebpf4jnsgd1na2vs0mg"},{"bike_id":"75a4c838-69ba-4a0c-a534-3af34686fd64","system_id":"levelo_inurba_marseille","lat":43.330442,"lon":5.389148,"is_reserved":false,"is_disabled":false,"rental_uris":{"android":"levelo://app?vid=75a4c838-69ba-4a0c-a534-3af34686fd64","ios":"levelo://app?vid=75a4c838-69ba-4a0c-a534-3af34686fd64"},"vehicle_type_id":"4","last_reported":1718896140,"current_range_meters":9600,"station_id":"ce4bhr92rcd13ifvqhrg","pricing_plan_id":"cebpf4jnsgd1na2vs0mg"},{"bike_id":"14275927-69ea-4138-8c87-2bcb763b24b0","system_id":"levelo_inurba_marseille","lat":43.295169,"lon":5.390426,"is_reserved":false,"is_disabled":false,"rental_uris":{"android":"levelo://app?vid=14275927-69ea-4138-8c87-2bcb763b24b0","ios":"levelo://app?vid=14275927-69ea-4138-8c87-2bcb763b24b0"},"vehicle_type_id":"4","last_reported":1718896140,"current_range_meters":4000,"station_id":"ce4bh3p2rcd13ifvqdp0","pricing_plan_id":"cebpf4jnsgd1na2vs0mg"},{"bike_id":"da1d9388-86ba-4bd0-a3c9-415745d063db","system_id":"levelo_inurba_marseille","lat":43.330442,"lon":5.389148,"is_reserved":false,"is_disabled":false,"rental_uris":{"android":"levelo://app?vid=da1d9388-86ba-4bd0-a3c9-415745d063db","ios":"levelo://app?vid=da1d9388-86ba-4bd0-a3c9-415745d063db"},"vehicle_type_id":"4","last_reported":1718896140,"current_range_meters":15200,"station_id":"ce4bhr92rcd13ifvqhrg","pricing_plan_id":"cebpf4jnsgd1na2vs0mg"},{"bike_id":"575b7e23-e0a5-4a7e-bb37-25144f80e944","system_id":"levelo_inurba_marseille","lat":43.295169,"lon":5.390426,"is_reserved":false,"is_disabled":false,"rental_uris":{"android":"levelo://app?vid=575b7e23-e0a5-4a7e-bb37-25144f80e944","ios":"levelo://app?vid=575b7e23-e0a5-4a7e-bb37-25144f80e944"},"vehicle_type_id":"4","last_reported":1718896140,"current_range_meters":5600,"station_id":"ce4bh3p2rcd13ifvqdp0","pricing_plan_id":"cebpf4jnsgd1na2vs0mg"},{"bike_id":"0995d7fc-6227-4fae-95fa-37a7c23e8d7a","system_id":"levelo_inurba_marseille","lat":43.29026,"lon":5.38136,"is_reserved":false,"is_disabled":false,"rental_uris":{"android":"levelo://app?vid=0995d7fc-6227-4fae-95fa-37a7c23e8d7a","ios":"levelo://app?vid=0995d7fc-6227-4fae-95fa-37a7c23e8d7a"},"vehicle_type_id":"4","last_reported":1718896140,"current_range_meters":10400,"station_id":"ce4bh4p2rcd13ifvqe1g","pricing_plan_id":"cebpf4jnsgd1na2vs0mg"},{"bike_id":"e8270703-6c41-4c87-ad5a-3bc404db9f6e","system_id":"levelo_inurba_marseille","lat":43.290345,"lon":5.38646,"is_reserved":false,"is_disabled":false,"rental_uris":{"android":"levelo://app?vid=e8270703-6c41-4c87-ad5a-3bc404db9f6e","ios":"levelo://app?vid=e8270703-6c41-4c87-ad5a-3bc404db9f6e"},"vehicle_type_id":"4","last_reported":1718896140,"current_range_meters":28000,"station_id":"ce4bh4p2rcd13ifvqe0g","pricing_plan_id":"cebpf4jnsgd1na2vs0mg"},{"bike_id":"917a2a40-dbe8-4adc-9e08-92602a137fff","system_id":"levelo_inurba_marseille","lat":43.3093,"lon":5.40141,"is_reserved":false,"is_disabled":false,"rental_uris":{"android":"levelo://app?vid=917a2a40-dbe8-4adc-9e08-92602a137fff","ios":"levelo://app?vid=917a2a40-dbe8-4adc-9e08-92602a137fff"},"vehicle_type_id":"4","last_reported":1718896140,"current_range_meters":6800,"station_id":"","pricing_plan_id":"cebpf4jnsgd1na2vs0mg"},{"bike_id":"167cc80b-61e4-428f-9d81-08c2dc10fbd6","system_id":"levelo_inurba_marseille","lat":43.309371,"lon":5.401449,"is_reserved":false,"is_disabled":false,"rental_uris":{"android":"levelo://app?vid=167cc80b-61e4-428f-9d81-08c2dc10fbd6","ios":"levelo://app?vid=167cc80b-61e4-428f-9d81-08c2dc10fbd6"},"vehicle_type_id":"4","last_reported":1718896140,"current_range_meters":14000,"station_id":"ce4bgvp2rcd13ifvqct0","pricing_plan_id":"cebpf4jnsgd1na2vs0mg"},{"bike_id":"3778a811-8048-474c-930d-eb370243fcc2","system_id":"levelo_inurba_marseille","lat":43.309371,"lon":5.401449,"is_reserved":false,"is_disabled":false,"rental_uris":{"android":"levelo://app?vid=3778a811-8048-474c-930d-eb370243fcc2","ios":"levelo://app?vid=3778a811-8048-474c-930d-eb370243fcc2"},"vehicle_type_id":"4","last_reported":1718896140,"current_range_meters":0,"station_id":"ce4bgvp2rcd13ifvqct0","pricing_plan_id":"cebpf4jnsgd1na2vs0mg"},{"bike_id":"c338f681-00b5-44a8-af61-64c06e93dc52","system_id":"levelo_inurba_marseille","lat":43.33766,"lon":5.37442,"is_reserved":false,"is_disabled":false,"rental_uris":{"android":"levelo://app?vid=c338f681-00b5-44a8-af61-64c06e93dc52","ios":"levelo://app?vid=c338f681-00b5-44a8-af61-64c06e93dc52"},"vehicle_type_id":"4","last_reported":1718896140,"current_range_meters":31200,"station_id":"","pricing_plan_id":"cebpf4jnsgd1na2vs0mg"},{"bike_id":"0fc2d043-e35e-4e24-95b8-18e1fe6245a2","system_id":"levelo_inurba_marseille","lat":43.309038,"lon":5.396546,"is_reserved":false,"is_disabled":false,"rental_uris":{"android":"levelo://app?vid=0fc2d043-e35e-4e24-95b8-18e1fe6245a2","ios":"levelo://app?vid=0fc2d043-e35e-4e24-95b8-18e1fe6245a2"},"vehicle_type_id":"4","last_reported":1718896140,"current_range_meters":14800,"station_id":"ce4bh012rcd13ifvqcv0","pricing_plan_id":"cebpf4jnsgd1na2vs0mg"},{"bike_id":"3cc2be7b-f2e8-4a26-87b1-2bd4c1ec2010","system_id":"levelo_inurba_marseille","lat":43.301117,"lon":5.398795,"is_reserved":false,"is_disabled":false,"rental_uris":{"android":"levelo://app?vid=3cc2be7b-f2e8-4a26-87b1-2bd4c1ec2010","ios":"levelo://app?vid=3cc2be7b-f2e8-4a26-87b1-2bd4c1ec2010"},"vehicle_type_id":"4","last_reported":1718896140,"current_range_meters":23200,"station_id":"ce4bh0h2rcd13ifvqd40","pricing_plan_id":"cebpf4jnsgd1na2vs0mg"},{"bike_id":"0d537d54-2ae1-4843-9024-075d32e80c67","system_id":"levelo_inurba_marseille","lat":43.30121,"lon":5.39849,"is_reserved":false,"is_disabled":false,"rental_uris":{"android":"levelo://app?vid=0d537d54-2ae1-4843-9024-075d32e80c67","ios":"levelo://app?vid=0d537d54-2ae1-4843-9024-075d32e80c67"},"vehicle_type_id":"4","last_reported":1718896140,"current_range_meters":23200,"station_id":"","pricing_plan_id":"cebpf4jnsgd1na2vs0mg"},{"bike_id":"ac2ed5f0-f001-45c1-8d41-0afdd123fc0e","system_id":"levelo_inurba_marseille","lat":43.301117,"lon":5.398795,"is_reserved":false,"is_disabled":false,"rental_uris":{"android":"levelo://app?vid=ac2ed5f0-f001-45c1-8d41-0afdd123fc0e","ios":"levelo://app?vid=ac2ed5f0-f001-45c1-8d41-0afdd123fc0e"},"vehicle_type_id":"4","last_reported":1718896140,"current_range_meters":25200,"station_id":"ce4bh0h2rcd13ifvqd40","pricing_plan_id":"cebpf4jnsgd1na2vs0mg"},{"bike_id":"9e4d058f-1916-4491-8ae8-ab0e721fbe7c","system_id":"levelo_inurba_marseille","lat":43.301117,"lon":5.398795,"is_reserved":false,"is_disabled":false,"rental_uris":{"android":"levelo://app?vid=9e4d058f-1916-4491-8ae8-ab0e721fbe7c","ios":"levelo://app?vid=9e4d058f-1916-4491-8ae8-ab0e721fbe7c"},"vehicle_type_id":"4","last_reported":1718896140,"current_range_meters":7200,"station_id":"ce4bh0h2rcd13ifvqd40","pricing_plan_id":"cebpf4jnsgd1na2vs0mg"},{"bike_id":"6b765c97-c9c7-4476-a6c4-6492ea54c276","system_id":"levelo_inurba_marseille","lat":43.301117,"lon":5.398795,"is_reserved":false,"is_disabled":false,"rental_uris":{"android":"levelo://app?vid=6b765c97-c9c7-4476-a6c4-6492ea54c276","ios":"levelo://app?vid=6b765c97-c9c7-4476-a6c4-6492ea54c276"},"vehicle_type_id":"4","last_reported":1718896140,"current_range_meters":0,"station_id":"ce4bh0h2rcd13ifvqd40","pricing_plan_id":"cebpf4jnsgd1na2vs0mg"},{"bike_id":"1ff47a86-5660-4e97-859c-4cdbe63c2cf8","system_id":"levelo_inurba_marseille","lat":43.33797,"lon":5.37438,"is_reserved":false,"is_disabled":false,"rental_uris":{"android":"levelo://app?vid=1ff47a86-5660-4e97-859c-4cdbe63c2cf8","ios":"levelo://app?vid=1ff47a86-5660-4e97-859c-4cdbe63c2cf8"},"vehicle_type_id":"4","last_reported":1718896140,"current_range_meters":30400,"station_id":"","pricing_plan_id":"cebpf4jnsgd1na2vs0mg"},{"bike_id":"c4275d43-bcab-401d-9f40-b04e139b7773","system_id":"levelo_inurba_marseille","lat":43.28726,"lon":5.36085,"is_reserved":false,"is_disabled":false,"rental_uris":{"android":"levelo://app?vid=c4275d43-bcab-401d-9f40-b04e139b7773","ios":"levelo://app?vid=c4275d43-bcab-401d-9f40-b04e139b7773"},"vehicle_type_id":"4","last_reported":1718896140,"current_range_meters":4400,"station_id":"cki0cbj6b192h4jlfktg","pricing_plan_id":"cebpf4jnsgd1na2vs0mg"},{"bike_id":"3b2d0359-f833-4aeb-8d42-bb45f9d6783f","system_id":"levelo_inurba_marseille","lat":43.28727,"lon":5.36078,"is_reserved":false,"is_disabled":false,"rental_uris":{"android":"levelo://app?vid=3b2d0359-f833-4aeb-8d42-bb45f9d6783f","ios":"levelo://app?vid=3b2d0359-f833-4aeb-8d42-bb45f9d6783f"},"vehicle_type_id":"4","last_reported":1718896140,"current_range_meters":27200,"station_id":"cki0cbj6b192h4jlfktg","pricing_plan_id":"cebpf4jnsgd1na2vs0mg"},{"bike_id":"72e2cbed-5996-4eea-abe1-aee31d520264","system_id":"levelo_inurba_marseille","lat":43.30081,"lon":5.39849,"is_reserved":false,"is_disabled":false,"rental_uris":{"android":"levelo://app?vid=72e2cbed-5996-4eea-abe1-aee31d520264","ios":"levelo://app?vid=72e2cbed-5996-4eea-abe1-aee31d520264"},"vehicle_type_id":"4","last_reported":1718896140,"current_range_meters":12800,"station_id":"ce4bh0h2rcd13ifvqd40","pricing_plan_id":"cebpf4jnsgd1na2vs0mg"},{"bike_id":"6a1c37f4-012d-4885-ac6b-93ca8c2266bc","system_id":"levelo_inurba_marseille","lat":43.298681,"lon":5.397225,"is_reserved":false,"is_disabled":false,"rental_uris":{"android":"levelo://app?vid=6a1c37f4-012d-4885-ac6b-93ca8c2266bc","ios":"levelo://app?vid=6a1c37f4-012d-4885-ac6b-93ca8c2266bc"},"vehicle_type_id":"4","last_reported":1718896140,"current_range_meters":1600,"station_id":"ce4bh0h2rcd13ifvqd50","pricing_plan_id":"cebpf4jnsgd1na2vs0mg"},{"bike_id":"63e45de2-5efe-4878-9f42-38c90b307536","system_id":"levelo_inurba_marseille","lat":43.286591,"lon":5.363346,"is_reserved":false,"is_disabled":false,"rental_uris":{"android":"levelo://app?vid=63e45de2-5efe-4878-9f42-38c90b307536","ios":"levelo://app?vid=63e45de2-5efe-4878-9f42-38c90b307536"},"vehicle_type_id":"4","last_reported":1718896140,"current_range_meters":22400,"station_id":"ce4bhah2rcd13ifvqej0","pricing_plan_id":"cebpf4jnsgd1na2vs0mg"},{"bike_id":"b459d16d-cb10-4dad-a27b-45253e4e24b4","system_id":"levelo_inurba_marseille","lat":43.286591,"lon":5.363346,"is_reserved":false,"is_disabled":false,"rental_uris":{"android":"levelo://app?vid=b459d16d-cb10-4dad-a27b-45253e4e24b4","ios":"levelo://app?vid=b459d16d-cb10-4dad-a27b-45253e4e24b4"},"vehicle_type_id":"4","last_reported":1718896140,"current_range_meters":23600,"station_id":"ce4bhah2rcd13ifvqej0","pricing_plan_id":"cebpf4jnsgd1na2vs0mg"},{"bike_id":"10125247-6d50-4718-9355-d49107112509","system_id":"levelo_inurba_marseille","lat":43.298681,"lon":5.397225,"is_reserved":false,"is_disabled":false,"rental_uris":{"android":"levelo://app?vid=10125247-6d50-4718-9355-d49107112509","ios":"levelo://app?vid=10125247-6d50-4718-9355-d49107112509"},"vehicle_type_id":"4","last_reported":1718896140,"current_range_meters":13600,"station_id":"ce4bh0h2rcd13ifvqd50","pricing_plan_id":"cebpf4jnsgd1na2vs0mg"},{"bike_id":"ae5ca61d-6ac2-478c-9e05-cd04eaa3ba39","system_id":"levelo_inurba_marseille","lat":43.298681,"lon":5.397225,"is_reserved":false,"is_disabled":false,"rental_uris":{"android":"levelo://app?vid=ae5ca61d-6ac2-478c-9e05-cd04eaa3ba39","ios":"levelo://app?vid=ae5ca61d-6ac2-478c-9e05-cd04eaa3ba39"},"vehicle_type_id":"4","last_reported":1718896140,"current_range_meters":10400,"station_id":"ce4bh0h2rcd13ifvqd50","pricing_plan_id":"cebpf4jnsgd1na2vs0mg"},{"bike_id":"3cadc995-8a1b-46c7-940c-8fa85753400d","system_id":"levelo_inurba_marseille","lat":43.286591,"lon":5.363346,"is_reserved":false,"is_disabled":false,"rental_uris":{"android":"levelo://app?vid=3cadc995-8a1b-46c7-940c-8fa85753400d","ios":"levelo://app?vid=3cadc995-8a1b-46c7-940c-8fa85753400d"},"vehicle_type_id":"4","last_reported":1718896140,"current_range_meters":18400,"station_id":"ce4bhah2rcd13ifvqej0","pricing_plan_id":"cebpf4jnsgd1na2vs0mg"},{"bike_id":"8a356502-1bda-4ccc-b23c-1469366ced87","system_id":"levelo_inurba_marseille","lat":43.298681,"lon":5.397225,"is_reserved":false,"is_disabled":false,"rental_uris":{"android":"levelo://app?vid=8a356502-1bda-4ccc-b23c-1469366ced87","ios":"levelo://app?vid=8a356502-1bda-4ccc-b23c-1469366ced87"},"vehicle_type_id":"4","last_reported":1718896140,"current_range_meters":29200,"station_id":"ce4bh0h2rcd13ifvqd50","pricing_plan_id":"cebpf4jnsgd1na2vs0mg"},{"bike_id":"c14f629b-431d-4d3b-94d1-627a8dab52fa","system_id":"levelo_inurba_marseille","lat":43.295194,"lon":5.39397,"is_reserved":false,"is_disabled":false,"rental_uris":{"android":"levelo://app?vid=c14f629b-431d-4d3b-94d1-627a8dab52fa","ios":"levelo://app?vid=c14f629b-431d-4d3b-94d1-627a8dab52fa"},"vehicle_type_id":"4","last_reported":1718896140,"current_range_meters":7200,"station_id":"ce4bh292rcd13ifvqdf0","pricing_plan_id":"cebpf4jnsgd1na2vs0mg"},{"bike_id":"c389abfc-ade9-4e2a-a4e7-d98db9f47cbc","system_id":"levelo_inurba_marseille","lat":43.295194,"lon":5.39397,"is_reserved":false,"is_disabled":false,"rental_uris":{"android":"levelo://app?vid=c389abfc-ade9-4e2a-a4e7-d98db9f47cbc","ios":"levelo://app?vid=c389abfc-ade9-4e2a-a4e7-d98db9f47cbc"},"vehicle_type_id":"4","last_reported":1718896140,"current_range_meters":4000,"station_id":"ce4bh292rcd13ifvqdf0","pricing_plan_id":"cebpf4jnsgd1na2vs0mg"},{"bike_id":"1e3b52cf-ae49-430a-bf52-f415ea577e41","system_id":"levelo_inurba_marseille","lat":43.29524,"lon":5.39402,"is_reserved":false,"is_disabled":false,"rental_uris":{"android":"levelo://app?vid=1e3b52cf-ae49-430a-bf52-f415ea577e41","ios":"levelo://app?vid=1e3b52cf-ae49-430a-bf52-f415ea577e41"},"vehicle_type_id":"4","last_reported":1718896140,"current_range_meters":6000,"station_id":"ce4bh292rcd13ifvqdf0","pricing_plan_id":"cebpf4jnsgd1na2vs0mg"},{"bike_id":"c674d000-3a1a-44b8-bb1e-97ec8fd09970","system_id":"levelo_inurba_marseille","lat":43.295194,"lon":5.39397,"is_reserved":false,"is_disabled":false,"rental_uris":{"android":"levelo://app?vid=c674d000-3a1a-44b8-bb1e-97ec8fd09970","ios":"levelo://app?vid=c674d000-3a1a-44b8-bb1e-97ec8fd09970"},"vehicle_type_id":"4","last_reported":1718896140,"current_range_meters":4800,"station_id":"ce4bh292rcd13ifvqdf0","pricing_plan_id":"cebpf4jnsgd1na2vs0mg"},{"bike_id":"87cf72b7-3ff3-4db4-aff5-f6b0572ea71d","system_id":"levelo_inurba_marseille","lat":43.295194,"lon":5.39397,"is_reserved":false,"is_disabled":false,"rental_uris":{"android":"levelo://app?vid=87cf72b7-3ff3-4db4-aff5-f6b0572ea71d","ios":"levelo://app?vid=87cf72b7-3ff3-4db4-aff5-f6b0572ea71d"},"vehicle_type_id":"4","last_reported":1718896140,"current_range_meters":14400,"station_id":"ce4bh292rcd13ifvqdf0","pricing_plan_id":"cebpf4jnsgd1na2vs0mg"},{"bike_id":"c5ebbd79-5caf-4540-8f47-6ad754fd5be4","system_id":"levelo_inurba_marseille","lat":43.2952,"lon":5.39415,"is_reserved":false,"is_disabled":false,"rental_uris":{"android":"levelo://app?vid=c5ebbd79-5caf-4540-8f47-6ad754fd5be4","ios":"levelo://app?vid=c5ebbd79-5caf-4540-8f47-6ad754fd5be4"},"vehicle_type_id":"4","last_reported":1718896140,"current_range_meters":8000,"station_id":"ce4bh292rcd13ifvqdf0","pricing_plan_id":"cebpf4jnsgd1na2vs0mg"},{"bike_id":"83556743-3167-4ccd-8b02-9aadf53987e4","system_id":"levelo_inurba_marseille","lat":43.290345,"lon":5.38646,"is_reserved":false,"is_disabled":false,"rental_uris":{"android":"levelo://app?vid=83556743-3167-4ccd-8b02-9aadf53987e4","ios":"levelo://app?vid=83556743-3167-4ccd-8b02-9aadf53987e4"},"vehicle_type_id":"4","last_reported":1718896140,"current_range_meters":22800,"station_id":"ce4bh4p2rcd13ifvqe0g","pricing_plan_id":"cebpf4jnsgd1na2vs0mg"},{"bike_id":"c844bb61-d4b1-4170-8182-a9da44c34eea","system_id":"levelo_inurba_marseille","lat":43.28928,"lon":5.38399,"is_reserved":false,"is_disabled":false,"rental_uris":{"android":"levelo://app?vid=c844bb61-d4b1-4170-8182-a9da44c34eea","ios":"levelo://app?vid=c844bb61-d4b1-4170-8182-a9da44c34eea"},"vehicle_type_id":"4","last_reported":1718896140,"current_range_meters":16400,"station_id":"ce4bh612rcd13ifvqe6g","pricing_plan_id":"cebpf4jnsgd1na2vs0mg"},{"bike_id":"209b02f6-5e46-4763-b25f-1111f718782d","system_id":"levelo_inurba_marseille","lat":43.33578,"lon":5.385098,"is_reserved":false,"is_disabled":false,"rental_uris":{"android":"levelo://app?vid=209b02f6-5e46-4763-b25f-1111f718782d","ios":"levelo://app?vid=209b02f6-5e46-4763-b25f-1111f718782d"},"vehicle_type_id":"4","last_reported":1718896140,"current_range_meters":8000,"station_id":"","pricing_plan_id":"cebpf4jnsgd1na2vs0mg"},{"bike_id":"c73d9284-9c2c-454b-b3b8-e76b14ca1e2e","system_id":"levelo_inurba_marseille","lat":43.289307,"lon":5.38406,"is_reserved":false,"is_disabled":false,"rental_uris":{"android":"levelo://app?vid=c73d9284-9c2c-454b-b3b8-e76b14ca1e2e","ios":"levelo://app?vid=c73d9284-9c2c-454b-b3b8-e76b14ca1e2e"},"vehicle_type_id":"4","last_reported":1718896140,"current_range_meters":29600,"station_id":"ce4bh612rcd13ifvqe6g","pricing_plan_id":"cebpf4jnsgd1na2vs0mg"},{"bike_id":"3484d9e5-c700-4fbd-aecf-7e36b1d3b167","system_id":"levelo_inurba_marseille","lat":43.287667,"lon":5.379263,"is_reserved":false,"is_disabled":false,"rental_uris":{"android":"levelo://app?vid=3484d9e5-c700-4fbd-aecf-7e36b1d3b167","ios":"levelo://app?vid=3484d9e5-c700-4fbd-aecf-7e36b1d3b167"},"vehicle_type_id":"4","last_reported":1718896140,"current_range_meters":0,"station_id":"ce4bh9p2rcd13ifvqec0","pricing_plan_id":"cebpf4jnsgd1na2vs0mg"},{"bike_id":"fb2b251f-6cb9-400e-97ca-63d61993a868","system_id":"levelo_inurba_marseille","lat":43.302759,"lon":5.400793,"is_reserved":false,"is_disabled":false,"rental_uris":{"android":"levelo://app?vid=fb2b251f-6cb9-400e-97ca-63d61993a868","ios":"levelo://app?vid=fb2b251f-6cb9-400e-97ca-63d61993a868"},"vehicle_type_id":"4","last_reported":1718896140,"current_range_meters":14000,"station_id":"ce4bgvh2rcd13ifvqcs0","pricing_plan_id":"cebpf4jnsgd1na2vs0mg"},{"bike_id":"c8a03901-5210-414f-a3c4-e43d8c3c21f3","system_id":"levelo_inurba_marseille","lat":43.286039,"lon":5.370679,"is_reserved":false,"is_disabled":false,"rental_uris":{"android":"levelo://app?vid=c8a03901-5210-414f-a3c4-e43d8c3c21f3","ios":"levelo://app?vid=c8a03901-5210-414f-a3c4-e43d8c3c21f3"},"vehicle_type_id":"4","last_reported":1718896140,"current_range_meters":0,"station_id":"ce4bht12rcd13ifvqi60","pricing_plan_id":"cebpf4jnsgd1na2vs0mg"},{"bike_id":"2135d1d7-fa47-402a-951d-3309118c9237","system_id":"levelo_inurba_marseille","lat":43.286039,"lon":5.370679,"is_reserved":false,"is_disabled":false,"rental_uris":{"android":"levelo://app?vid=2135d1d7-fa47-402a-951d-3309118c9237","ios":"levelo://app?vid=2135d1d7-fa47-402a-951d-3309118c9237"},"vehicle_type_id":"4","last_reported":1718896140,"current_range_meters":29600,"station_id":"ce4bht12rcd13ifvqi60","pricing_plan_id":"cebpf4jnsgd1na2vs0mg"},{"bike_id":"12e2dbc0-5ad9-44a3-9fac-3915d8bebab9","system_id":"levelo_inurba_marseille","lat":43.286039,"lon":5.370681,"is_reserved":false,"is_disabled":false,"rental_uris":{"android":"levelo://app?vid=12e2dbc0-5ad9-44a3-9fac-3915d8bebab9","ios":"levelo://app?vid=12e2dbc0-5ad9-44a3-9fac-3915d8bebab9"},"vehicle_type_id":"4","last_reported":1718896140,"current_range_meters":4000,"station_id":"ce4bht12rcd13ifvqi60","pricing_plan_id":"cebpf4jnsgd1na2vs0mg"},{"bike_id":"2baabc7a-ead7-4c46-a04e-2c6d8487b024","system_id":"levelo_inurba_marseille","lat":43.286039,"lon":5.370679,"is_reserved":false,"is_disabled":false,"rental_uris":{"android":"levelo://app?vid=2baabc7a-ead7-4c46-a04e-2c6d8487b024","ios":"levelo://app?vid=2baabc7a-ead7-4c46-a04e-2c6d8487b024"},"vehicle_type_id":"4","last_reported":1718896140,"current_range_meters":0,"station_id":"ce4bht12rcd13ifvqi60","pricing_plan_id":"cebpf4jnsgd1na2vs0mg"},{"bike_id":"05628b81-0986-4de6-8132-cdccc5dc5b6e","system_id":"levelo_inurba_marseille","lat":43.28722,"lon":5.37935,"is_reserved":false,"is_disabled":false,"rental_uris":{"android":"levelo://app?vid=05628b81-0986-4de6-8132-cdccc5dc5b6e","ios":"levelo://app?vid=05628b81-0986-4de6-8132-cdccc5dc5b6e"},"vehicle_type_id":"4","last_reported":1718896140,"current_range_meters":17200,"station_id":"ce4bh9p2rcd13ifvqec0","pricing_plan_id":"cebpf4jnsgd1na2vs0mg"},{"bike_id":"f49d36d9-f9a1-4ef4-a346-fd09ba072c11","system_id":"levelo_inurba_marseille","lat":43.294314,"lon":5.397498,"is_reserved":false,"is_disabled":false,"rental_uris":{"android":"levelo://app?vid=f49d36d9-f9a1-4ef4-a346-fd09ba072c11","ios":"levelo://app?vid=f49d36d9-f9a1-4ef4-a346-fd09ba072c11"},"vehicle_type_id":"4","last_reported":1718896140,"current_range_meters":21200,"station_id":"ce4bh3h2rcd13ifvqdo0","pricing_plan_id":"cebpf4jnsgd1na2vs0mg"},{"bike_id":"97e25126-207e-406d-b08c-011633f9687e","system_id":"levelo_inurba_marseille","lat":43.28467,"lon":5.35892,"is_reserved":false,"is_disabled":false,"rental_uris":{"android":"levelo://app?vid=97e25126-207e-406d-b08c-011633f9687e","ios":"levelo://app?vid=97e25126-207e-406d-b08c-011633f9687e"},"vehicle_type_id":"4","last_reported":1718896140,"current_range_meters":20400,"station_id":"ce4bhah2rcd13ifvqei0","pricing_plan_id":"cebpf4jnsgd1na2vs0mg"},{"bike_id":"369a5cb0-9bce-4fc5-8817-89f0244e0387","system_id":"levelo_inurba_marseille","lat":43.284538,"lon":5.358657,"is_reserved":false,"is_disabled":false,"rental_uris":{"android":"levelo://app?vid=369a5cb0-9bce-4fc5-8817-89f0244e0387","ios":"levelo://app?vid=369a5cb0-9bce-4fc5-8817-89f0244e0387"},"vehicle_type_id":"4","last_reported":1718896140,"current_range_meters":12800,"station_id":"ce4bhah2rcd13ifvqei0","pricing_plan_id":"cebpf4jnsgd1na2vs0mg"},{"bike_id":"0cca6703-6833-4e47-9a0c-83dc4807d6c9","system_id":"levelo_inurba_marseille","lat":43.294314,"lon":5.397498,"is_reserved":false,"is_disabled":false,"rental_uris":{"android":"levelo://app?vid=0cca6703-6833-4e47-9a0c-83dc4807d6c9","ios":"levelo://app?vid=0cca6703-6833-4e47-9a0c-83dc4807d6c9"},"vehicle_type_id":"4","last_reported":1718896140,"current_range_meters":18400,"station_id":"ce4bh3h2rcd13ifvqdo0","pricing_plan_id":"cebpf4jnsgd1na2vs0mg"},{"bike_id":"2e180130-1516-475c-9098-299c8854f5be","system_id":"levelo_inurba_marseille","lat":43.294314,"lon":5.397498,"is_reserved":false,"is_disabled":false,"rental_uris":{"android":"levelo://app?vid=2e180130-1516-475c-9098-299c8854f5be","ios":"levelo://app?vid=2e180130-1516-475c-9098-299c8854f5be"},"vehicle_type_id":"4","last_reported":1718896140,"current_range_meters":19600,"station_id":"ce4bh3h2rcd13ifvqdo0","pricing_plan_id":"cebpf4jnsgd1na2vs0mg"},{"bike_id":"b9de9f39-553d-4e7b-b550-931513c8f9f3","system_id":"levelo_inurba_marseille","lat":43.285856,"lon":5.350771,"is_reserved":false,"is_disabled":false,"rental_uris":{"android":"levelo://app?vid=b9de9f39-553d-4e7b-b550-931513c8f9f3","ios":"levelo://app?vid=b9de9f39-553d-4e7b-b550-931513c8f9f3"},"vehicle_type_id":"4","last_reported":1718896140,"current_range_meters":22000,"station_id":"ce4bhch2rcd13ifvqeug","pricing_plan_id":"cebpf4jnsgd1na2vs0mg"},{"bike_id":"e8aaf902-cc52-4e3c-92dc-933b8493858b","system_id":"levelo_inurba_marseille","lat":43.285856,"lon":5.350771,"is_reserved":false,"is_disabled":false,"rental_uris":{"android":"levelo://app?vid=e8aaf902-cc52-4e3c-92dc-933b8493858b","ios":"levelo://app?vid=e8aaf902-cc52-4e3c-92dc-933b8493858b"},