{"last_updated":1746346329,"ttl":60,"version":"2.2","data":{"bikes":[{"bike_id":"78647f6c-5b39-4fc3-8ddc-922db495866f","system_id":"levelo_inurba_marseille","lat":43.27815,"lon":5.4071,"is_reserved":false,"is_disabled":true,"rental_uris":{"android":"levelo://app?vid=78647f6c-5b39-4fc3-8ddc-922db495866f","ios":"levelo://app?vid=78647f6c-5b39-4fc3-8ddc-922db495866f"},"vehicle_type_id":"4","last_reported":1746346329,"current_range_meters":2800,"station_id":"ce4bhnh2rcd13ifvqgtg","pricing_plan_id":"cebpf4jnsgd1na2vs0mg"},{"bike_id":"5cb92efc-d8d4-484d-a43e-2a1cc351b386","system_id":"levelo_inurba_marseille","lat":43.24169,"lon":5.36394,"is_reserved":false,"is_disabled":false,"rental_uris":{"android":"levelo://app?vid=5cb92efc-d8d4-484d-a43e-2a1cc351b386","ios":"levelo://app?vid=5cb92efc-d8d4-484d-a43e-2a1cc351b386"},"vehicle_type_id":"4","last_reported":1746346329,"current_range_meters":2800,"station_id":"cpo36qri1sfpv3e86is0","pricing_plan_id":"cebpf4jnsgd1na2vs0mg"},{"bike_id":"8591ffe5-88f0-4559-bece-37ffa9b499eb","system_id":"levelo_inurba_marseille","lat":43.251166,"lon":5.403328,"is_reserved":false,"is_disabled":false,"rental_uris":{"android":"levelo://app?vid=8591ffe5-88f0-4559-bece-37ffa9b499eb","ios":"levelo://app?vid=8591ffe5-88f0-4559-bece-37ffa9b499eb"},"vehicle_type_id":"4","last_reported":1746346329,"current_range_meters":3200,"station_id":"ce4bhlh2rcd13ifvqgig","pricing_plan_id":"cebpf4jnsgd1na2vs0mg"},{"bike_id":"20a0161f-8c97-41c6-b725-2c48f8bc5d22","system_id":"levelo_inurba_marseille","lat":43.33059,"lon":5.39448,"is_reserved":false,"is_disabled":false,"rental_uris":{"android":"levelo://app?vid=20a0161f-8c97-41c6-b725-2c48f8bc5d22","ios":"levelo://app?vid=20a0161f-8c97-41c6-b725-2c48f8bc5d22"},"vehicle_type_id":"4","last_reported":1746346329,"current_range_meters":3200,"station_id":"","pricing_plan_id":"cebpf4jnsgd1na2vs0mg"},{"bike_id":"d11b7274-ad1d-4343-a0b8-143798db8be1","system_id":"levelo_inurba_marseille","lat":43.229209,"lon":5.353949,"is_reserved":false,"is_disabled":true,"rental_uris":{"android":"levelo://app?vid=d11b7274-ad1d-4343-a0b8-143798db8be1","ios":"levelo://app?vid=d11b7274-ad1d-4343-a0b8-143798db8be1"},"vehicle_type_id":"4","last_reported":1746346329,"current_range_meters":3600,"station_id":"cpo3532slgdg3j2ikp40","pricing_plan_id":"cebpf4jnsgd1na2vs0mg"},{"bike_id":"a2ad1045-b588-4bc1-a260-66d4d5be8334","system_id":"levelo_inurba_marseille","lat":43.272101,"lon":5.391784,"is_reserved":false,"is_disabled":false,"rental_uris":{"android":"levelo://app?vid=a2ad1045-b588-4bc1-a260-66d4d5be8334","ios":"levelo://app?vid=a2ad1045-b588-4bc1-a260-66d4d5be8334"},"vehicle_type_id":"4","last_reported":1746346329,"current_range_meters":3600,"station_id":"","pricing_plan_id":"cebpf4jnsgd1na2vs0mg"},{"bike_id":"c2ed84b5-f328-4415-aaf4-3a14f2be55f4","system_id":"levelo_inurba_marseille","lat":43.25114,"lon":5.4031,"is_reserved":false,"is_disabled":false,"rental_uris":{"android":"levelo://app?vid=c2ed84b5-f328-4415-aaf4-3a14f2be55f4","ios":"levelo://app?vid=c2ed84b5-f328-4415-aaf4-3a14f2be55f4"},"vehicle_type_id":"4","last_reported":1746346329,"current_range_meters":3600,"station_id":"ce4bhlh2rcd13ifvqgig","pricing_plan_id":"cebpf4jnsgd1na2vs0mg"},{"bike_id":"4341dfab-438e-4d1a-8a6a-87a65b8fed8c","system_id":"levelo_inurba_marseille","lat":43.29925,"lon":5.38135,"is_reserved":false,"is_disabled":true,"rental_uris":{"android":"levelo://app?vid=4341dfab-438e-4d1a-8a6a-87a65b8fed8c","ios":"levelo://app?vid=4341dfab-438e-4d1a-8a6a-87a65b8fed8c"},"vehicle_type_id":"4","last_reported":1746346329,"current_range_meters":3600,"station_id":"ce4bgj12rcd13ifvqbc0","pricing_plan_id":"cebpf4jnsgd1na2vs0mg"},{"bike_id":"20128e84-93ae-4d65-b261-8c473a3a46a7","system_id":"levelo_inurba_marseille","lat":43.315405,"lon":5.380244,"is_reserved":false,"is_disabled":false,"rental_uris":{"android":"levelo://app?vid=20128e84-93ae-4d65-b261-8c473a3a46a7","ios":"levelo://app?vid=20128e84-93ae-4d65-b261-8c473a3a46a7"},"vehicle_type_id":"4","last_reported":1746346329,"current_range_meters":3600,"station_id":"ce4bhsp2rcd13ifvqi50","pricing_plan_id":"cebpf4jnsgd1na2vs0mg"},{"bike_id":"b24e1c00-6f34-4818-ab0a-32914331665c","system_id":"levelo_inurba_marseille","lat":43.30787,"lon":5.37644,"is_reserved":false,"is_disabled":false,"rental_uris":{"android":"levelo://app?vid=b24e1c00-6f34-4818-ab0a-32914331665c","ios":"levelo://app?vid=b24e1c00-6f34-4818-ab0a-32914331665c"},"vehicle_type_id":"4","last_reported":1746346329,"current_range_meters":4000,"station_id":"ce4bgv92rcd13ifvqcq0","pricing_plan_id":"cebpf4jnsgd1na2vs0mg"},{"bike_id":"ea54a43f-bc03-4784-86c5-a6aba0a39cd2","system_id":"levelo_inurba_marseille","lat":43.307807,"lon":5.37665,"is_reserved":false,"is_disabled":false,"rental_uris":{"android":"levelo://app?vid=ea54a43f-bc03-4784-86c5-a6aba0a39cd2","ios":"levelo://app?vid=ea54a43f-bc03-4784-86c5-a6aba0a39cd2"},"vehicle_type_id":"4","last_reported":1746346329,"current_range_meters":4000,"station_id":"ce4bgv92rcd13ifvqcq0","pricing_plan_id":"cebpf4jnsgd1na2vs0mg"},{"bike_id":"9323e367-be22-469d-90c8-b50e4e8e7f9e","system_id":"levelo_inurba_marseille","lat":43.27835,"lon":5.39201,"is_reserved":false,"is_disabled":false,"rental_uris":{"android":"levelo://app?vid=9323e367-be22-469d-90c8-b50e4e8e7f9e","ios":"levelo://app?vid=9323e367-be22-469d-90c8-b50e4e8e7f9e"},"vehicle_type_id":"4","last_reported":1746346329,"current_range_meters":4000,"station_id":"ce4bhjp2rcd13ifvqga0","pricing_plan_id":"cebpf4jnsgd1na2vs0mg"},{"bike_id":"ee431cbb-877d-4c13-8c16-79999e3facb4","system_id":"levelo_inurba_marseille","lat":43.331801,"lon":5.431206,"is_reserved":false,"is_disabled":false,"rental_uris":{"android":"levelo://app?vid=ee431cbb-877d-4c13-8c16-79999e3facb4","ios":"levelo://app?vid=ee431cbb-877d-4c13-8c16-79999e3facb4"},"vehicle_type_id":"4","last_reported":1746346329,"current_range_meters":4400,"station_id":"","pricing_plan_id":"cebpf4jnsgd1na2vs0mg"},{"bike_id":"343558bc-7f35-44a3-aec0-03f28380f248","system_id":"levelo_inurba_marseille","lat":43.261934,"lon":5.37481,"is_reserved":false,"is_disabled":false,"rental_uris":{"android":"levelo://app?vid=343558bc-7f35-44a3-aec0-03f28380f248","ios":"levelo://app?vid=343558bc-7f35-44a3-aec0-03f28380f248"},"vehicle_type_id":"4","last_reported":1746346329,"current_range_meters":4400,"station_id":"ce4bhgp2rcd13ifvqfc0","pricing_plan_id":"cebpf4jnsgd1na2vs0mg"},{"bike_id":"8f0b01e3-6643-48d4-ae9f-d02e254ff004","system_id":"levelo_inurba_marseille","lat":43.31277,"lon":5.40177,"is_reserved":false,"is_disabled":false,"rental_uris":{"android":"levelo://app?vid=8f0b01e3-6643-48d4-ae9f-d02e254ff004","ios":"levelo://app?vid=8f0b01e3-6643-48d4-ae9f-d02e254ff004"},"vehicle_type_id":"4","last_reported":1746346329,"current_range_meters":4400,"station_id":"ce4bh092rcd13ifvqd30","pricing_plan_id":"cebpf4jnsgd1na2vs0mg"},{"bike_id":"dffe801c-54a4-4856-aa3d-e70caa285be4","system_id":"levelo_inurba_marseille","lat":43.29235,"lon":5.36153,"is_reserved":false,"is_disabled":true,"rental_uris":{"android":"levelo://app?vid=dffe801c-54a4-4856-aa3d-e70caa285be4","ios":"levelo://app?vid=dffe801c-54a4-4856-aa3d-e70caa285be4"},"vehicle_type_id":"4","last_reported":1746346329,"current_range_meters":4800,"station_id":"","pricing_plan_id":"cebpf4jnsgd1na2vs0mg"},{"bike_id":"208c1a96-c46f-4193-b924-3bf7033ea14e","system_id":"levelo_inurba_marseille","lat":43.23189,"lon":5.3555,"is_reserved":false,"is_disabled":false,"rental_uris":{"android":"levelo://app?vid=208c1a96-c46f-4193-b924-3bf7033ea14e","ios":"levelo://app?vid=208c1a96-c46f-4193-b924-3bf7033ea14e"},"vehicle_type_id":"4","last_reported":1746346329,"current_range_meters":4800,"station_id":"ce4bhu92rcd13ifvqi70","pricing_plan_id":"cebpf4jnsgd1na2vs0mg"},{"bike_id":"c7f43adf-abf8-45f7-a4fe-8e1cf7384f23","system_id":"levelo_inurba_marseille","lat":43.304073,"lon":5.412856,"is_reserved":false,"is_disabled":false,"rental_uris":{"android":"levelo://app?vid=c7f43adf-abf8-45f7-a4fe-8e1cf7384f23","ios":"levelo://app?vid=c7f43adf-abf8-45f7-a4fe-8e1cf7384f23"},"vehicle_type_id":"4","last_reported":1746346329,"current_range_meters":4800,"station_id":"ce4bhop2rcd13ifvqh8g","pricing_plan_id":"cebpf4jnsgd1na2vs0mg"},{"bike_id":"e341752c-8655-4500-bdaa-1fbfa4780079","system_id":"levelo_inurba_marseille","lat":43.29152,"lon":5.37094,"is_reserved":false,"is_disabled":true,"rental_uris":{"android":"levelo://app?vid=e341752c-8655-4500-bdaa-1fbfa4780079","ios":"levelo://app?vid=e341752c-8655-4500-bdaa-1fbfa4780079"},"vehicle_type_id":"4","last_reported":1746346329,"current_range_meters":5600,"station_id":"ce4bha92rcd13ifvqeh0","pricing_plan_id":"cebpf4jnsgd1na2vs0mg"},{"bike_id":"b9fac56e-fb84-4730-9d09-c8e94bf61e58","system_id":"levelo_inurba_marseille","lat":43.27199,"lon":5.4101,"is_reserved":false,"is_disabled":false,"rental_uris":{"android":"levelo://app?vid=b9fac56e-fb84-4730-9d09-c8e94bf61e58","ios":"levelo://app?vid=b9fac56e-fb84-4730-9d09-c8e94bf61e58"},"vehicle_type_id":"4","last_reported":1746346329,"current_range_meters":5600,"station_id":"ce4bhl12rcd13ifvqgf0","pricing_plan_id":"cebpf4jnsgd1na2vs0mg"},{"bike_id":"5bc4e19d-d60f-4bec-9362-08ce2beefef2","system_id":"levelo_inurba_marseille","lat":43.279093,"lon":5.395958,"is_reserved":false,"is_disabled":false,"rental_uris":{"android":"levelo://app?vid=5bc4e19d-d60f-4bec-9362-08ce2beefef2","ios":"levelo://app?vid=5bc4e19d-d60f-4bec-9362-08ce2beefef2"},"vehicle_type_id":"4","last_reported":1746346329,"current_range_meters":5600,"station_id":"ce4bhf92rcd13ifvqf40","pricing_plan_id":"cebpf4jnsgd1na2vs0mg"},{"bike_id":"570b486c-50df-4f1f-97df-caa86c0d419e","system_id":"levelo_inurba_marseille","lat":43.33711,"lon":5.35562,"is_reserved":false,"is_disabled":false,"rental_uris":{"android":"levelo://app?vid=570b486c-50df-4f1f-97df-caa86c0d419e","ios":"levelo://app?vid=570b486c-50df-4f1f-97df-caa86c0d419e"},"vehicle_type_id":"4","last_reported":1746346329,"current_range_meters":6000,"station_id":"","pricing_plan_id":"cebpf4jnsgd1na2vs0mg"},{"bike_id":"909825d5-7ad2-409e-b0de-cec7d5b4fa06","system_id":"levelo_inurba_marseille","lat":43.24215,"lon":5.36749,"is_reserved":false,"is_disabled":false,"rental_uris":{"android":"levelo://app?vid=909825d5-7ad2-409e-b0de-cec7d5b4fa06","ios":"levelo://app?vid=909825d5-7ad2-409e-b0de-cec7d5b4fa06"},"vehicle_type_id":"4","last_reported":1746346329,"current_range_meters":6000,"station_id":"","pricing_plan_id":"cebpf4jnsgd1na2vs0mg"},{"bike_id":"39d83911-e17e-4776-b8f2-6450602c8696","system_id":"levelo_inurba_marseille","lat":43.298907,"lon":5.436595,"is_reserved":false,"is_disabled":false,"rental_uris":{"android":"levelo://app?vid=39d83911-e17e-4776-b8f2-6450602c8696","ios":"levelo://app?vid=39d83911-e17e-4776-b8f2-6450602c8696"},"vehicle_type_id":"4","last_reported":1746346329,"current_range_meters":6400,"station_id":"ce4bhpp2rcd13ifvqhfg","pricing_plan_id":"cebpf4jnsgd1na2vs0mg"},{"bike_id":"e27ce41e-d31e-4411-a762-387f29d91877","system_id":"levelo_inurba_marseille","lat":43.29527,"lon":5.42212,"is_reserved":false,"is_disabled":false,"rental_uris":{"android":"levelo://app?vid=e27ce41e-d31e-4411-a762-387f29d91877","ios":"levelo://app?vid=e27ce41e-d31e-4411-a762-387f29d91877"},"vehicle_type_id":"4","last_reported":1746346329,"current_range_meters":6400,"station_id":"","pricing_plan_id":"cebpf4jnsgd1na2vs0mg"},{"bike_id":"c7e47698-0020-47cf-94a4-404079760935","system_id":"levelo_inurba_marseille","lat":43.28417,"lon":5.37517,"is_reserved":false,"is_disabled":true,"rental_uris":{"android":"levelo://app?vid=c7e47698-0020-47cf-94a4-404079760935","ios":"levelo://app?vid=c7e47698-0020-47cf-94a4-404079760935"},"vehicle_type_id":"4","last_reported":1746346329,"current_range_meters":6800,"station_id":"ce4bh412rcd13ifvqds0","pricing_plan_id":"cebpf4jnsgd1na2vs0mg"},{"bike_id":"db9be0c1-80d5-4315-9367-2a96fca91123","system_id":"levelo_inurba_marseille","lat":43.30638,"lon":5.40049,"is_reserved":false,"is_disabled":false,"rental_uris":{"android":"levelo://app?vid=db9be0c1-80d5-4315-9367-2a96fca91123","ios":"levelo://app?vid=db9be0c1-80d5-4315-9367-2a96fca91123"},"vehicle_type_id":"4","last_reported":1746346329,"current_range_meters":6800,"station_id":"ce4bh112rcd13ifvqda0","pricing_plan_id":"cebpf4jnsgd1na2vs0mg"},{"bike_id":"125ca05d-5a4c-4327-ae64-e200198cedf3","system_id":"levelo_inurba_marseille","lat":43.29562,"lon":5.42288,"is_reserved":false,"is_disabled":false,"rental_uris":{"android":"levelo://app?vid=125ca05d-5a4c-4327-ae64-e200198cedf3","ios":"levelo://app?vid=125ca05d-5a4c-4327-ae64-e200198cedf3"},"vehicle_type_id":"4","last_reported":1746346329,"current_range_meters":6800,"station_id":"ce4bhph2rcd13ifvqhdg","pricing_plan_id":"cebpf4jnsgd1na2vs0mg"},{"bike_id":"fefd08ec-5881-4aed-9781-2a8173dd5fb9","system_id":"levelo_inurba_marseille","lat":43.2943,"lon":5.38245,"is_reserved":false,"is_disabled":false,"rental_uris":{"android":"levelo://app?vid=fefd08ec-5881-4aed-9781-2a8173dd5fb9","ios":"levelo://app?vid=fefd08ec-5881-4aed-9781-2a8173dd5fb9"},"vehicle_type_id":"4","last_reported":1746346329,"current_range_meters":6800,"station_id":"","pricing_plan_id":"cebpf4jnsgd1na2vs0mg"},{"bike_id":"6012e73f-a97d-4080-8451-31be47c04cb3","system_id":"levelo_inurba_marseille","lat":43.241681,"lon":5.397326,"is_reserved":false,"is_disabled":false,"rental_uris":{"android":"levelo://app?vid=6012e73f-a97d-4080-8451-31be47c04cb3","ios":"levelo://app?vid=6012e73f-a97d-4080-8451-31be47c04cb3"},"vehicle_type_id":"4","last_reported":1746346329,"current_range_meters":6800,"station_id":"ce4bhn12rcd13ifvqgpg","pricing_plan_id":"cebpf4jnsgd1na2vs0mg"},{"bike_id":"33d984bb-57d7-4933-bc68-507510f5f8a6","system_id":"levelo_inurba_marseille","lat":43.24121,"lon":5.39694,"is_reserved":false,"is_disabled":false,"rental_uris":{"android":"levelo://app?vid=33d984bb-57d7-4933-bc68-507510f5f8a6","ios":"levelo://app?vid=33d984bb-57d7-4933-bc68-507510f5f8a6"},"vehicle_type_id":"4","last_reported":1746346329,"current_range_meters":6800,"station_id":"ce4bhn12rcd13ifvqgpg","pricing_plan_id":"cebpf4jnsgd1na2vs0mg"},{"bike_id":"ad1447d4-03b6-47a9-a233-d56094090f53","system_id":"levelo_inurba_marseille","lat":43.27506,"lon":5.42487,"is_reserved":false,"is_disabled":false,"rental_uris":{"android":"levelo://app?vid=ad1447d4-03b6-47a9-a233-d56094090f53","ios":"levelo://app?vid=ad1447d4-03b6-47a9-a233-d56094090f53"},"vehicle_type_id":"4","last_reported":1746346329,"current_range_meters":6800,"station_id":"ce4bhn92rcd13ifvqgrg","pricing_plan_id":"cebpf4jnsgd1na2vs0mg"},{"bike_id":"dfb3396e-96f5-457c-af11-f6f27dad33e9","system_id":"levelo_inurba_marseille","lat":43.27179,"lon":5.36597,"is_reserved":false,"is_disabled":false,"rental_uris":{"android":"levelo://app?vid=dfb3396e-96f5-457c-af11-f6f27dad33e9","ios":"levelo://app?vid=dfb3396e-96f5-457c-af11-f6f27dad33e9"},"vehicle_type_id":"4","last_reported":1746346329,"current_range_meters":7200,"station_id":"","pricing_plan_id":"cebpf4jnsgd1na2vs0mg"},{"bike_id":"0ca2aeff-c10c-4be3-8c0b-3162193c983e","system_id":"levelo_inurba_marseille","lat":43.307726,"lon":5.376563,"is_reserved":false,"is_disabled":true,"rental_uris":{"android":"levelo://app?vid=0ca2aeff-c10c-4be3-8c0b-3162193c983e","ios":"levelo://app?vid=0ca2aeff-c10c-4be3-8c0b-3162193c983e"},"vehicle_type_id":"4","last_reported":1746346329,"current_range_meters":7200,"station_id":"","pricing_plan_id":"cebpf4jnsgd1na2vs0mg"},{"bike_id":"702b6be1-19c8-40b8-9c1a-2ab0c019e557","system_id":"levelo_inurba_marseille","lat":43.29401,"lon":5.397571,"is_reserved":false,"is_disabled":false,"rental_uris":{"android":"levelo://app?vid=702b6be1-19c8-40b8-9c1a-2ab0c019e557","ios":"levelo://app?vid=702b6be1-19c8-40b8-9c1a-2ab0c019e557"},"vehicle_type_id":"4","last_reported":1746346329,"current_range_meters":7200,"station_id":"ce4bh3h2rcd13ifvqdo0","pricing_plan_id":"cebpf4jnsgd1na2vs0mg"},{"bike_id":"3759dc17-9bd7-4624-9465-388ec6cb2f0b","system_id":"levelo_inurba_marseille","lat":43.31267,"lon":5.40168,"is_reserved":false,"is_disabled":false,"rental_uris":{"android":"levelo://app?vid=3759dc17-9bd7-4624-9465-388ec6cb2f0b","ios":"levelo://app?vid=3759dc17-9bd7-4624-9465-388ec6cb2f0b"},"vehicle_type_id":"4","last_reported":1746346329,"current_range_meters":7200,"station_id":"ce4bh092rcd13ifvqd30","pricing_plan_id":"cebpf4jnsgd1na2vs0mg"},{"bike_id":"bb6a8814-f4b9-45df-b1e7-6258918b4fd4","system_id":"levelo_inurba_marseille","lat":43.27964,"lon":5.38744,"is_reserved":false,"is_disabled":false,"rental_uris":{"android":"levelo://app?vid=bb6a8814-f4b9-45df-b1e7-6258918b4fd4","ios":"levelo://app?vid=bb6a8814-f4b9-45df-b1e7-6258918b4fd4"},"vehicle_type_id":"4","last_reported":1746346329,"current_range_meters":8000,"station_id":"ce4bhg12rcd13ifvqf80","pricing_plan_id":"cebpf4jnsgd1na2vs0mg"},{"bike_id":"be9042c4-716a-416e-af52-c92d47776467","system_id":"levelo_inurba_marseille","lat":43.30921,"lon":5.40126,"is_reserved":false,"is_disabled":true,"rental_uris":{"android":"levelo://app?vid=be9042c4-716a-416e-af52-c92d47776467","ios":"levelo://app?vid=be9042c4-716a-416e-af52-c92d47776467"},"vehicle_type_id":"4","last_reported":1746346329,"current_range_meters":8000,"station_id":"ce4bgvp2rcd13ifvqct0","pricing_plan_id":"cebpf4jnsgd1na2vs0mg"},{"bike_id":"47e70338-14a6-494d-992e-fe0185af4406","system_id":"levelo_inurba_marseille","lat":43.26928,"lon":5.40249,"is_reserved":false,"is_disabled":false,"rental_uris":{"android":"levelo://app?vid=47e70338-14a6-494d-992e-fe0185af4406","ios":"levelo://app?vid=47e70338-14a6-494d-992e-fe0185af4406"},"vehicle_type_id":"4","last_reported":1746346329,"current_range_meters":8000,"station_id":"cjm6bp8fraef2m0cb0m0","pricing_plan_id":"cebpf4jnsgd1na2vs0mg"},{"bike_id":"eba8fdd7-16a4-4f7b-9cd7-34bec00575b4","system_id":"levelo_inurba_marseille","lat":43.24674,"lon":5.38159,"is_reserved":false,"is_disabled":false,"rental_uris":{"android":"levelo://app?vid=eba8fdd7-16a4-4f7b-9cd7-34bec00575b4","ios":"levelo://app?vid=eba8fdd7-16a4-4f7b-9cd7-34bec00575b4"},"vehicle_type_id":"4","last_reported":1746346329,"current_range_meters":8000,"station_id":"ce4bhih2rcd13ifvqfr0","pricing_plan_id":"cebpf4jnsgd1na2vs0mg"},{"bike_id":"721f19a3-6fc8-4aa3-b8d6-b74174066f05","system_id":"levelo_inurba_marseille","lat":43.31997,"lon":5.38136,"is_reserved":false,"is_disabled":false,"rental_uris":{"android":"levelo://app?vid=721f19a3-6fc8-4aa3-b8d6-b74174066f05","ios":"levelo://app?vid=721f19a3-6fc8-4aa3-b8d6-b74174066f05"},"vehicle_type_id":"4","last_reported":1746346329,"current_range_meters":8000,"station_id":"ce4bhr12rcd13ifvqhpg","pricing_plan_id":"cebpf4jnsgd1na2vs0mg"},{"bike_id":"d51bd1f8-5797-40a8-8b2d-1b322c3a66a4","system_id":"levelo_inurba_marseille","lat":43.3095,"lon":5.40122,"is_reserved":false,"is_disabled":false,"rental_uris":{"android":"levelo://app?vid=d51bd1f8-5797-40a8-8b2d-1b322c3a66a4","ios":"levelo://app?vid=d51bd1f8-5797-40a8-8b2d-1b322c3a66a4"},"vehicle_type_id":"4","last_reported":1746346329,"current_range_meters":8000,"station_id":"ce4bgvp2rcd13ifvqct0","pricing_plan_id":"cebpf4jnsgd1na2vs0mg"},{"bike_id":"68d50610-9efc-41a2-8a89-956e7c0c6b05","system_id":"levelo_inurba_marseille","lat":43.2901,"lon":5.356125,"is_reserved":false,"is_disabled":false,"rental_uris":{"android":"levelo://app?vid=68d50610-9efc-41a2-8a89-956e7c0c6b05","ios":"levelo://app?vid=68d50610-9efc-41a2-8a89-956e7c0c6b05"},"vehicle_type_id":"4","last_reported":1746346329,"current_range_meters":8000,"station_id":"ce4bhb92rcd13ifvqen0","pricing_plan_id":"cebpf4jnsgd1na2vs0mg"},{"bike_id":"efed8418-36b3-4a2f-8a3a-c844b0d0e3ad","system_id":"levelo_inurba_marseille","lat":43.3153,"lon":5.38035,"is_reserved":false,"is_disabled":false,"rental_uris":{"android":"levelo://app?vid=efed8418-36b3-4a2f-8a3a-c844b0d0e3ad","ios":"levelo://app?vid=efed8418-36b3-4a2f-8a3a-c844b0d0e3ad"},"vehicle_type_id":"4","last_reported":1746346329,"current_range_meters":8000,"station_id":"ce4bhsp2rcd13ifvqi50","pricing_plan_id":"cebpf4jnsgd1na2vs0mg"},{"bike_id":"f1ffd2b9-91e9-4bf5-a319-6e95940b0de6","system_id":"levelo_inurba_marseille","lat":43.29561,"lon":5.42278,"is_reserved":false,"is_disabled":false,"rental_uris":{"android":"levelo://app?vid=f1ffd2b9-91e9-4bf5-a319-6e95940b0de6","ios":"levelo://app?vid=f1ffd2b9-91e9-4bf5-a319-6e95940b0de6"},"vehicle_type_id":"4","last_reported":1746346329,"current_range_meters":8000,"station_id":"ce4bhph2rcd13ifvqhdg","pricing_plan_id":"cebpf4jnsgd1na2vs0mg"},{"bike_id":"d1b80fc2-f795-44b4-b467-b83495b681df","system_id":"levelo_inurba_marseille","lat":43.30412,"lon":5.4127,"is_reserved":false,"is_disabled":false,"rental_uris":{"android":"levelo://app?vid=d1b80fc2-f795-44b4-b467-b83495b681df","ios":"levelo://app?vid=d1b80fc2-f795-44b4-b467-b83495b681df"},"vehicle_type_id":"4","last_reported":1746346329,"current_range_meters":8000,"station_id":"ce4bhop2rcd13ifvqh8g","pricing_plan_id":"cebpf4jnsgd1na2vs0mg"},{"bike_id":"8df6e310-0880-40a9-a691-cd475dfa3928","system_id":"levelo_inurba_marseille","lat":43.285828,"lon":5.442651,"is_reserved":false,"is_disabled":false,"rental_uris":{"android":"levelo://app?vid=8df6e310-0880-40a9-a691-cd475dfa3928","ios":"levelo://app?vid=8df6e310-0880-40a9-a691-cd475dfa3928"},"vehicle_type_id":"4","last_reported":1746346329,"current_range_meters":8000,"station_id":"","pricing_plan_id":"cebpf4jnsgd1na2vs0mg"},{"bike_id":"ee6fc684-f760-429d-b603-077f5f37f4bb","system_id":"levelo_inurba_marseille","lat":43.24387,"lon":5.37064,"is_reserved":false,"is_disabled":false,"rental_uris":{"android":"levelo://app?vid=ee6fc684-f760-429d-b603-077f5f37f4bb","ios":"levelo://app?vid=ee6fc684-f760-429d-b603-077f5f37f4bb"},"vehicle_type_id":"4","last_reported":1746346329,"current_range_meters":8000,"station_id":"ce4bhhh2rcd13ifvqfk0","pricing_plan_id":"cebpf4jnsgd1na2vs0mg"},{"bike_id":"5d71720c-dac7-4453-855d-5e896cb97a51","system_id":"levelo_inurba_marseille","lat":43.29845,"lon":5.36283,"is_reserved":false,"is_disabled":false,"rental_uris":{"android":"levelo://app?vid=5d71720c-dac7-4453-855d-5e896cb97a51","ios":"levelo://app?vid=5d71720c-dac7-4453-855d-5e896cb97a51"},"vehicle_type_id":"4","last_reported":1746346329,"current_range_meters":8000,"station_id":"ce4bgpp2rcd13ifvqc3g","pricing_plan_id":"cebpf4jnsgd1na2vs0mg"},{"bike_id":"42b265ee-2f6e-42e6-be1a-7cd522f1be6f","system_id":"levelo_inurba_marseille","lat":43.278128,"lon":5.407131,"is_reserved":false,"is_disabled":false,"rental_uris":{"android":"levelo://app?vid=42b265ee-2f6e-42e6-be1a-7cd522f1be6f","ios":"levelo://app?vid=42b265ee-2f6e-42e6-be1a-7cd522f1be6f"},"vehicle_type_id":"4","last_reported":1746346329,"current_range_meters":8400,"station_id":"ce4bhnh2rcd13ifvqgtg","pricing_plan_id":"cebpf4jnsgd1na2vs0mg"},{"bike_id":"6ae9068b-8534-47e2-832a-cb0e5255371d","system_id":"levelo_inurba_marseille","lat":43.337444,"lon":5.374475,"is_reserved":false,"is_disabled":false,"rental_uris":{"android":"levelo://app?vid=6ae9068b-8534-47e2-832a-cb0e5255371d","ios":"levelo://app?vid=6ae9068b-8534-47e2-832a-cb0e5255371d"},"vehicle_type_id":"4","last_reported":1746346329,"current_range_meters":8400,"station_id":"ce4bgvp2rcd13ifvqct0","pricing_plan_id":"cebpf4jnsgd1na2vs0mg"},{"bike_id":"0e34a68a-1e7e-4217-99de-5fd03012d1b6","system_id":"levelo_inurba_marseille","lat":43.23959,"lon":5.36618,"is_reserved":false,"is_disabled":false,"rental_uris":{"android":"levelo://app?vid=0e34a68a-1e7e-4217-99de-5fd03012d1b6","ios":"levelo://app?vid=0e34a68a-1e7e-4217-99de-5fd03012d1b6"},"vehicle_type_id":"4","last_reported":1746346329,"current_range_meters":8400,"station_id":"ce4bhi12rcd13ifvqfp0","pricing_plan_id":"cebpf4jnsgd1na2vs0mg"},{"bike_id":"17cd42e0-f3d6-4b5d-a7a7-aae4daea5f81","system_id":"levelo_inurba_marseille","lat":43.211924,"lon":5.350733,"is_reserved":false,"is_disabled":false,"rental_uris":{"android":"levelo://app?vid=17cd42e0-f3d6-4b5d-a7a7-aae4daea5f81","ios":"levelo://app?vid=17cd42e0-f3d6-4b5d-a7a7-aae4daea5f81"},"vehicle_type_id":"4","last_reported":1746346329,"current_range_meters":8400,"station_id":"","pricing_plan_id":"cebpf4jnsgd1na2vs0mg"},{"bike_id":"f0259f55-382d-4317-a5a3-c63365a0d76b","system_id":"levelo_inurba_marseille","lat":43.25549,"lon":5.41756,"is_reserved":false,"is_disabled":false,"rental_uris":{"android":"levelo://app?vid=f0259f55-382d-4317-a5a3-c63365a0d76b","ios":"levelo://app?vid=f0259f55-382d-4317-a5a3-c63365a0d76b"},"vehicle_type_id":"4","last_reported":1746346329,"current_range_meters":8800,"station_id":"","pricing_plan_id":"cebpf4jnsgd1na2vs0mg"},{"bike_id":"5d9a54ab-8ca5-45ce-9e8d-1ecc587fe2f3","system_id":"levelo_inurba_marseille","lat":43.297481,"lon":5.406156,"is_reserved":false,"is_disabled":false,"rental_uris":{"android":"levelo://app?vid=5d9a54ab-8ca5-45ce-9e8d-1ecc587fe2f3","ios":"levelo://app?vid=5d9a54ab-8ca5-45ce-9e8d-1ecc587fe2f3"},"vehicle_type_id":"4","last_reported":1746346329,"current_range_meters":8800,"station_id":"","pricing_plan_id":"cebpf4jnsgd1na2vs0mg"},{"bike_id":"50badda3-bab4-4db6-9eeb-777b188a13ce","system_id":"levelo_inurba_marseille","lat":43.31493,"lon":5.37279,"is_reserved":false,"is_disabled":false,"rental_uris":{"android":"levelo://app?vid=50badda3-bab4-4db6-9eeb-777b188a13ce","ios":"levelo://app?vid=50badda3-bab4-4db6-9eeb-777b188a13ce"},"vehicle_type_id":"4","last_reported":1746346329,"current_range_meters":8800,"station_id":"ce4bgt12rcd13ifvqcd0","pricing_plan_id":"cebpf4jnsgd1na2vs0mg"},{"bike_id":"59c05668-9a78-4683-b670-a7794c85b3b0","system_id":"levelo_inurba_marseille","lat":43.2931,"lon":5.37879,"is_reserved":false,"is_disabled":true,"rental_uris":{"android":"levelo://app?vid=59c05668-9a78-4683-b670-a7794c85b3b0","ios":"levelo://app?vid=59c05668-9a78-4683-b670-a7794c85b3b0"},"vehicle_type_id":"4","last_reported":1746346329,"current_range_meters":8800,"station_id":"","pricing_plan_id":"cebpf4jnsgd1na2vs0mg"},{"bike_id":"f68e7be6-7c89-435c-ba3b-7590a9bf1414","system_id":"levelo_inurba_marseille","lat":43.229328,"lon":5.35389,"is_reserved":false,"is_disabled":false,"rental_uris":{"android":"levelo://app?vid=f68e7be6-7c89-435c-ba3b-7590a9bf1414","ios":"levelo://app?vid=f68e7be6-7c89-435c-ba3b-7590a9bf1414"},"vehicle_type_id":"4","last_reported":1746346329,"current_range_meters":8800,"station_id":"cpo3532slgdg3j2ikp40","pricing_plan_id":"cebpf4jnsgd1na2vs0mg"},{"bike_id":"e1fea8e4-ce01-48e8-9ccb-ed4b27d62a66","system_id":"levelo_inurba_marseille","lat":43.25585,"lon":5.38225,"is_reserved":false,"is_disabled":false,"rental_uris":{"android":"levelo://app?vid=e1fea8e4-ce01-48e8-9ccb-ed4b27d62a66","ios":"levelo://app?vid=e1fea8e4-ce01-48e8-9ccb-ed4b27d62a66"},"vehicle_type_id":"4","last_reported":1746346329,"current_range_meters":9200,"station_id":"ce4bhih2rcd13ifvqfs0","pricing_plan_id":"cebpf4jnsgd1na2vs0mg"},{"bike_id":"63bca580-20c6-4152-8680-c43918ee61bc","system_id":"levelo_inurba_marseille","lat":43.29898,"lon":5.38135,"is_reserved":false,"is_disabled":true,"rental_uris":{"android":"levelo://app?vid=63bca580-20c6-4152-8680-c43918ee61bc","ios":"levelo://app?vid=63bca580-20c6-4152-8680-c43918ee61bc"},"vehicle_type_id":"4","last_reported":1746346329,"current_range_meters":9200,"station_id":"ce4bgj12rcd13ifvqbc0","pricing_plan_id":"cebpf4jnsgd1na2vs0mg"},{"bike_id":"fb582505-15b6-40c6-97cc-2feebea7d568","system_id":"levelo_inurba_marseille","lat":43.30405,"lon":5.39769,"is_reserved":false,"is_disabled":true,"rental_uris":{"android":"levelo://app?vid=fb582505-15b6-40c6-97cc-2feebea7d568","ios":"levelo://app?vid=fb582505-15b6-40c6-97cc-2feebea7d568"},"vehicle_type_id":"4","last_reported":1746346329,"current_range_meters":9200,"station_id":"ce4bh092rcd13ifvqd20","pricing_plan_id":"cebpf4jnsgd1na2vs0mg"},{"bike_id":"75fa9943-cbe0-4940-a9be-f80f8dede2da","system_id":"levelo_inurba_marseille","lat":43.22495,"lon":5.34759,"is_reserved":false,"is_disabled":false,"rental_uris":{"android":"levelo://app?vid=75fa9943-cbe0-4940-a9be-f80f8dede2da","ios":"levelo://app?vid=75fa9943-cbe0-4940-a9be-f80f8dede2da"},"vehicle_type_id":"4","last_reported":1746346329,"current_range_meters":9200,"station_id":"st_cvj5dfep6f1abm77gieg","pricing_plan_id":"cebpf4jnsgd1na2vs0mg"},{"bike_id":"7417fde9-2253-44a3-b6b5-68219b7cd072","system_id":"levelo_inurba_marseille","lat":43.316863,"lon":5.40457,"is_reserved":false,"is_disabled":false,"rental_uris":{"android":"levelo://app?vid=7417fde9-2253-44a3-b6b5-68219b7cd072","ios":"levelo://app?vid=7417fde9-2253-44a3-b6b5-68219b7cd072"},"vehicle_type_id":"4","last_reported":1746346329,"current_range_meters":9200,"station_id":"ce4bh012rcd13ifvqd00","pricing_plan_id":"cebpf4jnsgd1na2vs0mg"},{"bike_id":"cbf5197d-17ca-455b-a336-e15368bfdcc4","system_id":"levelo_inurba_marseille","lat":43.28618,"lon":5.35106,"is_reserved":false,"is_disabled":false,"rental_uris":{"android":"levelo://app?vid=cbf5197d-17ca-455b-a336-e15368bfdcc4","ios":"levelo://app?vid=cbf5197d-17ca-455b-a336-e15368bfdcc4"},"vehicle_type_id":"4","last_reported":1746346329,"current_range_meters":9200,"station_id":"ce4bhch2rcd13ifvqeug","pricing_plan_id":"cebpf4jnsgd1na2vs0mg"},{"bike_id":"4d9c785a-6a14-4f60-8bcb-eb74d56c9262","system_id":"levelo_inurba_marseille","lat":43.27071,"lon":5.42282,"is_reserved":false,"is_disabled":false,"rental_uris":{"android":"levelo://app?vid=4d9c785a-6a14-4f60-8bcb-eb74d56c9262","ios":"levelo://app?vid=4d9c785a-6a14-4f60-8bcb-eb74d56c9262"},"vehicle_type_id":"4","last_reported":1746346329,"current_range_meters":9200,"station_id":"ce4bhk92rcd13ifvqgb0","pricing_plan_id":"cebpf4jnsgd1na2vs0mg"},{"bike_id":"e141d286-5a2c-470e-8ce3-fc63bfe9226f","system_id":"levelo_inurba_marseille","lat":43.33778,"lon":5.41876,"is_reserved":false,"is_disabled":false,"rental_uris":{"android":"levelo://app?vid=e141d286-5a2c-470e-8ce3-fc63bfe9226f","ios":"levelo://app?vid=e141d286-5a2c-470e-8ce3-fc63bfe9226f"},"vehicle_type_id":"4","last_reported":1746346329,"current_range_meters":9200,"station_id":"","pricing_plan_id":"cebpf4jnsgd1na2vs0mg"},{"bike_id":"b8028bbc-e0b2-47d7-951d-2ca751c3d28a","system_id":"levelo_inurba_marseille","lat":43.2781,"lon":5.40719,"is_reserved":false,"is_disabled":false,"rental_uris":{"android":"levelo://app?vid=b8028bbc-e0b2-47d7-951d-2ca751c3d28a","ios":"levelo://app?vid=b8028bbc-e0b2-47d7-951d-2ca751c3d28a"},"vehicle_type_id":"4","last_reported":1746346329,"current_range_meters":9200,"station_id":"ce4bhnh2rcd13ifvqgtg","pricing_plan_id":"cebpf4jnsgd1na2vs0mg"},{"bike_id":"1535a100-a5e3-470b-8112-05a549965b00","system_id":"levelo_inurba_marseille","lat":43.31325,"lon":5.39701,"is_reserved":false,"is_disabled":false,"rental_uris":{"android":"levelo://app?vid=1535a100-a5e3-470b-8112-05a549965b00","ios":"levelo://app?vid=1535a100-a5e3-470b-8112-05a549965b00"},"vehicle_type_id":"4","last_reported":1746346329,"current_range_meters":9200,"station_id":"ce4bgvp2rcd13ifvqcu0","pricing_plan_id":"cebpf4jnsgd1na2vs0mg"},{"bike_id":"4dd08eac-df5d-4142-8b38-1718a060526d","system_id":"levelo_inurba_marseille","lat":43.24552,"lon":5.3951,"is_reserved":false,"is_disabled":false,"rental_uris":{"android":"levelo://app?vid=4dd08eac-df5d-4142-8b38-1718a060526d","ios":"levelo://app?vid=4dd08eac-df5d-4142-8b38-1718a060526d"},"vehicle_type_id":"4","last_reported":1746346329,"current_range_meters":9200,"station_id":"ce4bhlp2rcd13ifvqgjg","pricing_plan_id":"cebpf4jnsgd1na2vs0mg"},{"bike_id":"31a93301-c3a1-4bc4-b2c4-6a455d015fd6","system_id":"levelo_inurba_marseille","lat":43.29751,"lon":5.37635,"is_reserved":false,"is_disabled":true,"rental_uris":{"android":"levelo://app?vid=31a93301-c3a1-4bc4-b2c4-6a455d015fd6","ios":"levelo://app?vid=31a93301-c3a1-4bc4-b2c4-6a455d015fd6"},"vehicle_type_id":"4","last_reported":1746346329,"current_range_meters":9200,"station_id":"","pricing_plan_id":"cebpf4jnsgd1na2vs0mg"},{"bike_id":"f068dde4-d214-41bb-af4c-23542d208ad2","system_id":"levelo_inurba_marseille","lat":43.24162,"lon":5.39711,"is_reserved":false,"is_disabled":false,"rental_uris":{"android":"levelo://app?vid=f068dde4-d214-41bb-af4c-23542d208ad2","ios":"levelo://app?vid=f068dde4-d214-41bb-af4c-23542d208ad2"},"vehicle_type_id":"4","last_reported":1746346329,"current_range_meters":9200,"station_id":"ce4bhn12rcd13ifvqgpg","pricing_plan_id":"cebpf4jnsgd1na2vs0mg"},{"bike_id":"b2bed98a-b840-49dc-9665-7e2b295b016b","system_id":"levelo_inurba_marseille","lat":43.29268,"lon":5.38442,"is_reserved":false,"is_disabled":true,"rental_uris":{"android":"levelo://app?vid=b2bed98a-b840-49dc-9665-7e2b295b016b","ios":"levelo://app?vid=b2bed98a-b840-49dc-9665-7e2b295b016b"},"vehicle_type_id":"4","last_reported":1746346329,"current_range_meters":9600,"station_id":"ce4bh692rcd13ifvqea0","pricing_plan_id":"cebpf4jnsgd1na2vs0mg"},{"bike_id":"2f2e2422-0ca9-4635-8561-f770e540dc91","system_id":"levelo_inurba_marseille","lat":43.2981,"lon":5.36961,"is_reserved":false,"is_disabled":false,"rental_uris":{"android":"levelo://app?vid=2f2e2422-0ca9-4635-8561-f770e540dc91","ios":"levelo://app?vid=2f2e2422-0ca9-4635-8561-f770e540dc91"},"vehicle_type_id":"4","last_reported":1746346329,"current_range_meters":9600,"station_id":"","pricing_plan_id":"cebpf4jnsgd1na2vs0mg"},{"bike_id":"ff85802d-0bcd-4a45-9f91-6d6fa0c2c4f0","system_id":"levelo_inurba_marseille","lat":43.30934,"lon":5.40132,"is_reserved":false,"is_disabled":false,"rental_uris":{"android":"levelo://app?vid=ff85802d-0bcd-4a45-9f91-6d6fa0c2c4f0","ios":"levelo://app?vid=ff85802d-0bcd-4a45-9f91-6d6fa0c2c4f0"},"vehicle_type_id":"4","last_reported":1746346329,"current_range_meters":9600,"station_id":"ce4bgvp2rcd13ifvqct0","pricing_plan_id":"cebpf4jnsgd1na2vs0mg"},{"bike_id":"d06cbf0c-a30d-4bb1-91c3-661c22c8ec38","system_id":"levelo_inurba_marseille","lat":43.24802,"lon":5.37457,"is_reserved":false,"is_disabled":false,"rental_uris":{"android":"levelo://app?vid=d06cbf0c-a30d-4bb1-91c3-661c22c8ec38","ios":"levelo://app?vid=d06cbf0c-a30d-4bb1-91c3-661c22c8ec38"},"vehicle_type_id":"4","last_reported":1746346329,"current_range_meters":9600,"station_id":"ce4bhgh2rcd13ifvqfb0","pricing_plan_id":"cebpf4jnsgd1na2vs0mg"},{"bike_id":"a37779e7-3d8a-4c82-9997-3090313b05d7","system_id":"levelo_inurba_marseille","lat":43.2293,"lon":5.35367,"is_reserved":false,"is_disabled":true,"rental_uris":{"android":"levelo://app?vid=a37779e7-3d8a-4c82-9997-3090313b05d7","ios":"levelo://app?vid=a37779e7-3d8a-4c82-9997-3090313b05d7"},"vehicle_type_id":"4","last_reported":1746346329,"current_range_meters":9600,"station_id":"cpo3532slgdg3j2ikp40","pricing_plan_id":"cebpf4jnsgd1na2vs0mg"},{"bike_id":"f32ca024-e3f7-4855-acbc-43ebe40dfcfa","system_id":"levelo_inurba_marseille","lat":43.31282,"lon":5.40157,"is_reserved":false,"is_disabled":false,"rental_uris":{"android":"levelo://app?vid=f32ca024-e3f7-4855-acbc-43ebe40dfcfa","ios":"levelo://app?vid=f32ca024-e3f7-4855-acbc-43ebe40dfcfa"},"vehicle_type_id":"4","last_reported":1746346329,"current_range_meters":9600,"station_id":"ce4bh092rcd13ifvqd30","pricing_plan_id":"cebpf4jnsgd1na2vs0mg"},{"bike_id":"dde313c9-2956-4963-9e10-a6ae4348ff85","system_id":"levelo_inurba_marseille","lat":43.31493,"lon":5.37261,"is_reserved":false,"is_disabled":false,"rental_uris":{"android":"levelo://app?vid=dde313c9-2956-4963-9e10-a6ae4348ff85","ios":"levelo://app?vid=dde313c9-2956-4963-9e10-a6ae4348ff85"},"vehicle_type_id":"4","last_reported":1746346329,"current_range_meters":9600,"station_id":"ce4bgt12rcd13ifvqcd0","pricing_plan_id":"cebpf4jnsgd1na2vs0mg"},{"bike_id":"c80197cf-3833-4f6c-9065-4ffbbef66e9d","system_id":"levelo_inurba_marseille","lat":43.30787,"lon":5.37654,"is_reserved":false,"is_disabled":false,"rental_uris":{"android":"levelo://app?vid=c80197cf-3833-4f6c-9065-4ffbbef66e9d","ios":"levelo://app?vid=c80197cf-3833-4f6c-9065-4ffbbef66e9d"},"vehicle_type_id":"4","last_reported":1746346329,"current_range_meters":9600,"station_id":"ce4bgv92rcd13ifvqcq0","pricing_plan_id":"cebpf4jnsgd1na2vs0mg"},{"bike_id":"e4856e11-0139-477e-a022-4b979369719b","system_id":"levelo_inurba_marseille","lat":43.23962,"lon":5.36623,"is_reserved":false,"is_disabled":false,"rental_uris":{"android":"levelo://app?vid=e4856e11-0139-477e-a022-4b979369719b","ios":"levelo://app?vid=e4856e11-0139-477e-a022-4b979369719b"},"vehicle_type_id":"4","last_reported":1746346329,"current_range_meters":10000,"station_id":"ce4bhi12rcd13ifvqfp0","pricing_plan_id":"cebpf4jnsgd1na2vs0mg"},{"bike_id":"4e82fe2d-788d-4c1e-aea2-2739d6e588df","system_id":"levelo_inurba_marseille","lat":43.28621,"lon":5.3513,"is_reserved":false,"is_disabled":false,"rental_uris":{"android":"levelo://app?vid=4e82fe2d-788d-4c1e-aea2-2739d6e588df","ios":"levelo://app?vid=4e82fe2d-788d-4c1e-aea2-2739d6e588df"},"vehicle_type_id":"4","last_reported":1746346329,"current_range_meters":10000,"station_id":"ce4bhch2rcd13ifvqeug","pricing_plan_id":"cebpf4jnsgd1na2vs0mg"},{"bike_id":"f7a277eb-d388-493b-a59b-09b010af0aee","system_id":"levelo_inurba_marseille","lat":43.28472,"lon":5.38441,"is_reserved":false,"is_disabled":true,"rental_uris":{"android":"levelo://app?vid=f7a277eb-d388-493b-a59b-09b010af0aee","ios":"levelo://app?vid=f7a277eb-d388-493b-a59b-09b010af0aee"},"vehicle_type_id":"4","last_reported":1746346329,"current_range_meters":10000,"station_id":"ce4bh512rcd13ifvqe3g","pricing_plan_id":"cebpf4jnsgd1na2vs0mg"},{"bike_id":"ca7a629c-6dce-47e8-8b04-8b57930ea53a","system_id":"levelo_inurba_marseille","lat":43.241689,"lon":5.39713,"is_reserved":false,"is_disabled":false,"rental_uris":{"android":"levelo://app?vid=ca7a629c-6dce-47e8-8b04-8b57930ea53a","ios":"levelo://app?vid=ca7a629c-6dce-47e8-8b04-8b57930ea53a"},"vehicle_type_id":"4","last_reported":1746346329,"current_range_meters":10000,"station_id":"ce4bhn12rcd13ifvqgpg","pricing_plan_id":"cebpf4jnsgd1na2vs0mg"},{"bike_id":"274ad913-cb5d-44ea-8484-26eae07424ea","system_id":"levelo_inurba_marseille","lat":43.25866,"lon":5.39969,"is_reserved":false,"is_disabled":true,"rental_uris":{"android":"levelo://app?vid=274ad913-cb5d-44ea-8484-26eae07424ea","ios":"levelo://app?vid=274ad913-cb5d-44ea-8484-26eae07424ea"},"vehicle_type_id":"4","last_reported":1746346329,"current_range_meters":10000,"station_id":"ce4bhl92rcd13ifvqghg","pricing_plan_id":"cebpf4jnsgd1na2vs0mg"},{"bike_id":"0ecfd02f-f853-4362-9dcd-e959b1ad8321","system_id":"levelo_inurba_marseille","lat":43.24165,"lon":5.39751,"is_reserved":false,"is_disabled":false,"rental_uris":{"android":"levelo://app?vid=0ecfd02f-f853-4362-9dcd-e959b1ad8321","ios":"levelo://app?vid=0ecfd02f-f853-4362-9dcd-e959b1ad8321"},"vehicle_type_id":"4","last_reported":1746346329,"current_range_meters":10000,"station_id":"ce4bhn12rcd13ifvqgpg","pricing_plan_id":"cebpf4jnsgd1na2vs0mg"},{"bike_id":"c2c5beff-ec8e-48ee-825a-e3cdf2e54b49","system_id":"levelo_inurba_marseille","lat":43.29222,"lon":5.39983,"is_reserved":false,"is_disabled":false,"rental_uris":{"android":"levelo://app?vid=c2c5beff-ec8e-48ee-825a-e3cdf2e54b49","ios":"levelo://app?vid=c2c5beff-ec8e-48ee-825a-e3cdf2e54b49"},"vehicle_type_id":"4","last_reported":1746346329,"current_range_meters":10000,"station_id":"","pricing_plan_id":"cebpf4jnsgd1na2vs0mg"},{"bike_id":"fd2c3c67-23a6-4380-b7ca-8f23c8f78921","system_id":"levelo_inurba_marseille","lat":43.32374,"lon":5.36713,"is_reserved":false,"is_disabled":false,"rental_uris":{"android":"levelo://app?vid=fd2c3c67-23a6-4380-b7ca-8f23c8f78921","ios":"levelo://app?vid=fd2c3c67-23a6-4380-b7ca-8f23c8f78921"},"vehicle_type_id":"4","last_reported":1746346329,"current_range_meters":10000,"station_id":"ce4bhsh2rcd13ifvqi2g","pricing_plan_id":"cebpf4jnsgd1na2vs0mg"},{"bike_id":"1f192409-3bd6-4ef0-ae18-1d604dedc99e","system_id":"levelo_inurba_marseille","lat":43.23312,"lon":5.357447,"is_reserved":false,"is_disabled":false,"rental_uris":{"android":"levelo://app?vid=1f192409-3bd6-4ef0-ae18-1d604dedc99e","ios":"levelo://app?vid=1f192409-3bd6-4ef0-ae18-1d604dedc99e"},"vehicle_type_id":"4","last_reported":1746346329,"current_range_meters":10000,"station_id":"ce4bhu92rcd13ifvqi70","pricing_plan_id":"cebpf4jnsgd1na2vs0mg"},{"bike_id":"6338e318-2f80-4349-ae11-615c887b4fb9","system_id":"levelo_inurba_marseille","lat":43.25923,"lon":5.40874,"is_reserved":false,"is_disabled":false,"rental_uris":{"android":"levelo://app?vid=6338e318-2f80-4349-ae11-615c887b4fb9","ios":"levelo://app?vid=6338e318-2f80-4349-ae11-615c887b4fb9"},"vehicle_type_id":"4","last_reported":1746346329,"current_range_meters":10000,"station_id":"ce4bhm92rcd13ifvqglg","pricing_plan_id":"cebpf4jnsgd1na2vs0mg"},{"bike_id":"94117f7b-43e0-4163-9bc8-140af4013e0f","system_id":"levelo_inurba_marseille","lat":43.27068,"lon":5.42281,"is_reserved":false,"is_disabled":false,"rental_uris":{"android":"levelo://app?vid=94117f7b-43e0-4163-9bc8-140af4013e0f","ios":"levelo://app?vid=94117f7b-43e0-4163-9bc8-140af4013e0f"},"vehicle_type_id":"4","last_reported":1746346329,"current_range_meters":10800,"station_id":"ce4bhk92rcd13ifvqgb0","pricing_plan_id":"cebpf4jnsgd1na2vs0mg"},{"bike_id":"aedf206f-89f3-4f30-9da6-56fb7ff8915b","system_id":"levelo_inurba_marseille","lat":43.28092,"lon":5.40366,"is_reserved":false,"is_disabled":false,"rental_uris":{"android":"levelo://app?vid=aedf206f-89f3-4f30-9da6-56fb7ff8915b","ios":"levelo://app?vid=aedf206f-89f3-4f30-9da6-56fb7ff8915b"},"vehicle_type_id":"4","last_reported":1746346329,"current_range_meters":10800,"station_id":"","pricing_plan_id":"cebpf4jnsgd1na2vs0mg"},{"bike_id":"bcd5575e-11b1-452e-98cf-1e0facae2b37","system_id":"levelo_inurba_marseille","lat":43.23148,"lon":5.43708,"is_reserved":false,"is_disabled":false,"rental_uris":{"android":"levelo://app?vid=bcd5575e-11b1-452e-98cf-1e0facae2b37","ios":"levelo://app?vid=bcd5575e-11b1-452e-98cf-1e0facae2b37"},"vehicle_type_id":"4","last_reported":1746346329,"current_range_meters":10800,"station_id":"ce4bhmp2rcd13ifvqgog","pricing_plan_id":"cebpf4jnsgd1na2vs0mg"},{"bike_id":"28b4bc83-5c8b-4e9d-aba4-7a153d3e0dfe","system_id":"levelo_inurba_marseille","lat":43.30332,"lon":5.40431,"is_reserved":false,"is_disabled":false,"rental_uris":{"android":"levelo://app?vid=28b4bc83-5c8b-4e9d-aba4-7a153d3e0dfe","ios":"levelo://app?vid=28b4bc83-5c8b-4e9d-aba4-7a153d3e0dfe"},"vehicle_type_id":"4","last_reported":1746346329,"current_range_meters":10800,"station_id":"ce4bh012rcd13ifvqd10","pricing_plan_id":"cebpf4jnsgd1na2vs0mg"},{"bike_id":"9386c0c7-d16d-4449-a186-2e4f1a5755ee","system_id":"levelo_inurba_marseille","lat":43.30808,"lon":5.3766,"is_reserved":false,"is_disabled":false,"rental_uris":{"android":"levelo://app?vid=9386c0c7-d16d-4449-a186-2e4f1a5755ee","ios":"levelo://app?vid=9386c0c7-d16d-4449-a186-2e4f1a5755ee"},"vehicle_type_id":"4","last_reported":1746346329,"current_range_meters":11200,"station_id":"ce4bgv92rcd13ifvqcq0","pricing_plan_id":"cebpf4jnsgd1na2vs0mg"},{"bike_id":"490f4dd2-526f-486e-be14-25a2ce708a63","system_id":"levelo_inurba_marseille","lat":43.284164,"lon":5.3857,"is_reserved":false,"is_disabled":false,"rental_uris":{"android":"levelo://app?vid=490f4dd2-526f-486e-be14-25a2ce708a63","ios":"levelo://app?vid=490f4dd2-526f-486e-be14-25a2ce708a63"},"vehicle_type_id":"4","last_reported":1746346329,"current_range_meters":11200,"station_id":"ce4bh492rcd13ifvqdvg","pricing_plan_id":"cebpf4jnsgd1na2vs0mg"},{"bike_id":"1d59b5c9-cca4-43f9-a7f4-1bb7ebcfb8ae","system_id":"levelo_inurba_marseille","lat":43.27373,"lon":5.362545,"is_reserved":false,"is_disabled":true,"rental_uris":{"android":"levelo://app?vid=1d59b5c9-cca4-43f9-a7f4-1bb7ebcfb8ae","ios":"levelo://app?vid=1d59b5c9-cca4-43f9-a7f4-1bb7ebcfb8ae"},"vehicle_type_id":"4","last_reported":1746346329,"current_range_meters":11200,"station_id":"","pricing_plan_id":"cebpf4jnsgd1na2vs0mg"},{"bike_id":"4cd32815-4894-41a0-9a3d-e6c837dcaeea","system_id":"levelo_inurba_marseille","lat":43.29966,"lon":5.38495,"is_reserved":false,"is_disabled":true,"rental_uris":{"android":"levelo://app?vid=4cd32815-4894-41a0-9a3d-e6c837dcaeea","ios":"levelo://app?vid=4cd32815-4894-41a0-9a3d-e6c837dcaeea"},"vehicle_type_id":"4","last_reported":1746346329,"current_range_meters":11200,"station_id":"ce4bgj92rcd13ifvqbd0","pricing_plan_id":"cebpf4jnsgd1na2vs0mg"},{"bike_id":"0397570e-b83d-4017-8742-c3d74b4e8593","system_id":"levelo_inurba_marseille","lat":43.288414,"lon":5.388338,"is_reserved":false,"is_disabled":true,"rental_uris":{"android":"levelo://app?vid=0397570e-b83d-4017-8742-c3d74b4e8593","ios":"levelo://app?vid=0397570e-b83d-4017-8742-c3d74b4e8593"},"vehicle_type_id":"4","last_reported":1746346329,"current_range_meters":11200,"station_id":"","pricing_plan_id":"cebpf4jnsgd1na2vs0mg"},{"bike_id":"e2b14260-8057-48c8-9cf5-1900e5ff23b3","system_id":"levelo_inurba_marseille","lat":43.303716,"lon":5.424903,"is_reserved":false,"is_disabled":false,"rental_uris":{"android":"levelo://app?vid=e2b14260-8057-48c8-9cf5-1900e5ff23b3","ios":"levelo://app?vid=e2b14260-8057-48c8-9cf5-1900e5ff23b3"},"vehicle_type_id":"4","last_reported":1746346329,"current_range_meters":11600,"station_id":"ce4bhoh2rcd13ifvqh6g","pricing_plan_id":"cebpf4jnsgd1na2vs0mg"},{"bike_id":"77e5fc0c-8247-4eae-976e-b65c5c479c47","system_id":"levelo_inurba_marseille","lat":43.24384,"lon":5.37043,"is_reserved":false,"is_disabled":false,"rental_uris":{"android":"levelo://app?vid=77e5fc0c-8247-4eae-976e-b65c5c479c47","ios":"levelo://app?vid=77e5fc0c-8247-4eae-976e-b65c5c479c47"},"vehicle_type_id":"4","last_reported":1746346329,"current_range_meters":12000,"station_id":"ce4bhhh2rcd13ifvqfk0","pricing_plan_id":"cebpf4jnsgd1na2vs0mg"},{"bike_id":"39513858-7b2e-4512-84f2-b1cf96ce588f","system_id":"levelo_inurba_marseille","lat":43.31269,"lon":5.40167,"is_reserved":false,"is_disabled":false,"rental_uris":{"android":"levelo://app?vid=39513858-7b2e-4512-84f2-b1cf96ce588f","ios":"levelo://app?vid=39513858-7b2e-4512-84f2-b1cf96ce588f"},"vehicle_type_id":"4","last_reported":1746346329,"current_range_meters":12400,"station_id":"ce4bh092rcd13ifvqd30","pricing_plan_id":"cebpf4jnsgd1na2vs0mg"},{"bike_id":"89661c15-def9-4711-90fd-17ec34ee0c83","system_id":"levelo_inurba_marseille","lat":43.29445,"lon":5.3973,"is_reserved":false,"is_disabled":false,"rental_uris":{"android":"levelo://app?vid=89661c15-def9-4711-90fd-17ec34ee0c83","ios":"levelo://app?vid=89661c15-def9-4711-90fd-17ec34ee0c83"},"vehicle_type_id":"4","last_reported":1746346329,"current_range_meters":12400,"station_id":"ce4bh3h2rcd13ifvqdo0","pricing_plan_id":"cebpf4jnsgd1na2vs0mg"},{"bike_id":"e14f0e0b-57ce-42d5-80f6-e3d891b564d1","system_id":"levelo_inurba_marseille","lat":43.27063,"lon":5.42269,"is_reserved":false,"is_disabled":false,"rental_uris":{"android":"levelo://app?vid=e14f0e0b-57ce-42d5-80f6-e3d891b564d1","ios":"levelo://app?vid=e14f0e0b-57ce-42d5-80f6-e3d891b564d1"},"vehicle_type_id":"4","last_reported":1746346329,"current_range_meters":12400,"station_id":"ce4bhk92rcd13ifvqgb0","pricing_plan_id":"cebpf4jnsgd1na2vs0mg"},{"bike_id":"1ec3fe58-c6ff-465c-ba55-56c2f916f76f","system_id":"levelo_inurba_marseille","lat":43.24072,"lon":5.37746,"is_reserved":false,"is_disabled":false,"rental_uris":{"android":"levelo://app?vid=1ec3fe58-c6ff-465c-ba55-56c2f916f76f","ios":"levelo://app?vid=1ec3fe58-c6ff-465c-ba55-56c2f916f76f"},"vehicle_type_id":"4","last_reported":1746346329,"current_range_meters":12400,"station_id":"ce4bhnp2rcd13ifvqgvg","pricing_plan_id":"cebpf4jnsgd1na2vs0mg"},{"bike_id":"b51e8583-0fb2-49ca-9c11-9dbce28dfa5d","system_id":"levelo_inurba_marseille","lat":43.23202,"lon":5.35531,"is_reserved":false,"is_disabled":false,"rental_uris":{"android":"levelo://app?vid=b51e8583-0fb2-49ca-9c11-9dbce28dfa5d","ios":"levelo://app?vid=b51e8583-0fb2-49ca-9c11-9dbce28dfa5d"},"vehicle_type_id":"4","last_reported":1746346329,"current_range_meters":12800,"station_id":"ce4bhu92rcd13ifvqi70","pricing_plan_id":"cebpf4jnsgd1na2vs0mg"},{"bike_id":"7f94af4d-81ec-4f11-8ad5-90fb2fdafca2","system_id":"levelo_inurba_marseille","lat":43.280289,"lon":5.369533,"is_reserved":false,"is_disabled":false,"rental_uris":{"android":"levelo://app?vid=7f94af4d-81ec-4f11-8ad5-90fb2fdafca2","ios":"levelo://app?vid=7f94af4d-81ec-4f11-8ad5-90fb2fdafca2"},"vehicle_type_id":"4","last_reported":1746346329,"current_range_meters":12800,"station_id":"ce4bha12rcd13ifvqef0","pricing_plan_id":"cebpf4jnsgd1na2vs0mg"},{"bike_id":"dffda755-2feb-41dd-8db8-12eafc41bdf7","system_id":"levelo_inurba_marseille","lat":43.31538,"lon":5.38056,"is_reserved":false,"is_disabled":false,"rental_uris":{"android":"levelo://app?vid=dffda755-2feb-41dd-8db8-12eafc41bdf7","ios":"levelo://app?vid=dffda755-2feb-41dd-8db8-12eafc41bdf7"},"vehicle_type_id":"4","last_reported":1746346329,"current_range_meters":12800,"station_id":"ce4bhsp2rcd13ifvqi50","pricing_plan_id":"cebpf4jnsgd1na2vs0mg"},{"bike_id":"57b577a6-05e4-403f-8e08-8a8bb593ff51","system_id":"levelo_inurba_marseille","lat":43.28941,"lon":5.36636,"is_reserved":false,"is_disabled":true,"rental_uris":{"android":"levelo://app?vid=57b577a6-05e4-403f-8e08-8a8bb593ff51","ios":"levelo://app?vid=57b577a6-05e4-403f-8e08-8a8bb593ff51"},"vehicle_type_id":"4","last_reported":1746346329,"current_range_meters":13600,"station_id":"ce4bhap2rcd13ifvqek0","pricing_plan_id":"cebpf4jnsgd1na2vs0mg"},{"bike_id":"45e8c728-e089-4ccb-a5d7-a3ec0fd9ff37","system_id":"levelo_inurba_marseille","lat":43.23192,"lon":5.35548,"is_reserved":false,"is_disabled":false,"rental_uris":{"android":"levelo://app?vid=45e8c728-e089-4ccb-a5d7-a3ec0fd9ff37","ios":"levelo://app?vid=45e8c728-e089-4ccb-a5d7-a3ec0fd9ff37"},"vehicle_type_id":"4","last_reported":1746346329,"current_range_meters":13600,"station_id":"ce4bhu92rcd13ifvqi70","pricing_plan_id":"cebpf4jnsgd1na2vs0mg"},{"bike_id":"4cc851da-e1ec-42ff-95e4-8b92ad8a1e2f","system_id":"levelo_inurba_marseille","lat":43.300282,"lon":5.401786,"is_reserved":false,"is_disabled":false,"rental_uris":{"android":"levelo://app?vid=4cc851da-e1ec-42ff-95e4-8b92ad8a1e2f","ios":"levelo://app?vid=4cc851da-e1ec-42ff-95e4-8b92ad8a1e2f"},"vehicle_type_id":"4","last_reported":1746346329,"current_range_meters":13600,"station_id":"","pricing_plan_id":"cebpf4jnsgd1na2vs0mg"},{"bike_id":"05fb8e53-690e-4c91-83ac-d946606b1d9d","system_id":"levelo_inurba_marseille","lat":43.31271,"lon":5.40167,"is_reserved":false,"is_disabled":false,"rental_uris":{"android":"levelo://app?vid=05fb8e53-690e-4c91-83ac-d946606b1d9d","ios":"levelo://app?vid=05fb8e53-690e-4c91-83ac-d946606b1d9d"},"vehicle_type_id":"4","last_reported":1746346329,"current_range_meters":14000,"station_id":"ce4bh092rcd13ifvqd30","pricing_plan_id":"cebpf4jnsgd1na2vs0mg"},{"bike_id":"9732b7e1-1614-4bf9-9ec9-f2c1bbf4aeb4","system_id":"levelo_inurba_marseille","lat":43.306533,"lon":5.400944,"is_reserved":false,"is_disabled":false,"rental_uris":{"android":"levelo://app?vid=9732b7e1-1614-4bf9-9ec9-f2c1bbf4aeb4","ios":"levelo://app?vid=9732b7e1-1614-4bf9-9ec9-f2c1bbf4aeb4"},"vehicle_type_id":"4","last_reported":1746346329,"current_range_meters":14400,"station_id":"ce4bh112rcd13ifvqda0","pricing_plan_id":"cebpf4jnsgd1na2vs0mg"},{"bike_id":"cebdafcb-65bd-42d1-aa43-4e8b777b1e60","system_id":"levelo_inurba_marseille","lat":43.29798,"lon":5.39036,"is_reserved":false,"is_disabled":false,"rental_uris":{"android":"levelo://app?vid=cebdafcb-65bd-42d1-aa43-4e8b777b1e60","ios":"levelo://app?vid=cebdafcb-65bd-42d1-aa43-4e8b777b1e60"},"vehicle_type_id":"4","last_reported":1746346329,"current_range_meters":14400,"station_id":"","pricing_plan_id":"cebpf4jnsgd1na2vs0mg"},{"bike_id":"12462135-9b53-446d-81f0-ed4b40031a03","system_id":"levelo_inurba_marseille","lat":43.27065,"lon":5.42271,"is_reserved":false,"is_disabled":false,"rental_uris":{"android":"levelo://app?vid=12462135-9b53-446d-81f0-ed4b40031a03","ios":"levelo://app?vid=12462135-9b53-446d-81f0-ed4b40031a03"},"vehicle_type_id":"4","last_reported":1746346329,"current_range_meters":14800,"station_id":"ce4bhk92rcd13ifvqgb0","pricing_plan_id":"cebpf4jnsgd1na2vs0mg"},{"bike_id":"d447b317-7fe8-4b25-a86f-02fbc65ddcfa","system_id":"levelo_inurba_marseille","lat":43.23183,"lon":5.43693,"is_reserved":false,"is_disabled":false,"rental_uris":{"android":"levelo://app?vid=d447b317-7fe8-4b25-a86f-02fbc65ddcfa","ios":"levelo://app?vid=d447b317-7fe8-4b25-a86f-02fbc65ddcfa"},"vehicle_type_id":"4","last_reported":1746346329,"current_range_meters":14800,"station_id":"ce4bhmp2rcd13ifvqgog","pricing_plan_id":"cebpf4jnsgd1na2vs0mg"},{"bike_id":"b33e4be9-f93d-474f-aff1-096ea9f405b4","system_id":"levelo_inurba_marseille","lat":43.25724,"lon":5.41107,"is_reserved":false,"is_disabled":false,"rental_uris":{"android":"levelo://app?vid=b33e4be9-f93d-474f-aff1-096ea9f405b4","ios":"levelo://app?vid=b33e4be9-f93d-474f-aff1-096ea9f405b4"},"vehicle_type_id":"4","last_reported":1746346329,"current_range_meters":14800,"station_id":"ce4bhkp2rcd13ifvqgd0","pricing_plan_id":"cebpf4jnsgd1na2vs0mg"},{"bike_id":"49b2feb9-e76c-45e6-8013-60053c7684dc","system_id":"levelo_inurba_marseille","lat":43.28431,"lon":5.39183,"is_reserved":false,"is_disabled":false,"rental_uris":{"android":"levelo://app?vid=49b2feb9-e76c-45e6-8013-60053c7684dc","ios":"levelo://app?vid=49b2feb9-e76c-45e6-8013-60053c7684dc"},"vehicle_type_id":"4","last_reported":1746346329,"current_range_meters":14800,"station_id":"ce4bhoh2rcd13ifvqh5g","pricing_plan_id":"cebpf4jnsgd1na2vs0mg"},{"bike_id":"52b2b11c-fa93-4c1e-a120-3fdc360b4a73","system_id":"levelo_inurba_marseille","lat":43.2803,"lon":5.36946,"is_reserved":false,"is_disabled":false,"rental_uris":{"android":"levelo://app?vid=52b2b11c-fa93-4c1e-a120-3fdc360b4a73","ios":"levelo://app?vid=52b2b11c-fa93-4c1e-a120-3fdc360b4a73"},"vehicle_type_id":"4","last_reported":1746346329,"current_range_meters":14800,"station_id":"ce4bha12rcd13ifvqef0","pricing_plan_id":"cebpf4jnsgd1na2vs0mg"},{"bike_id":"fb80c1da-d845-467b-9c3b-2f591f4d56ae","system_id":"levelo_inurba_marseille","lat":43.323406,"lon":5.37422,"is_reserved":false,"is_disabled":false,"rental_uris":{"android":"levelo://app?vid=fb80c1da-d845-467b-9c3b-2f591f4d56ae","ios":"levelo://app?vid=fb80c1da-d845-467b-9c3b-2f591f4d56ae"},"vehicle_type_id":"4","last_reported":1746346329,"current_range_meters":15200,"station_id":"","pricing_plan_id":"cebpf4jnsgd1na2vs0mg"},{"bike_id":"838bdfd1-c99f-4f63-99a5-549151987f4e","system_id":"levelo_inurba_marseille","lat":43.30804,"lon":5.43524,"is_reserved":false,"is_disabled":false,"rental_uris":{"android":"levelo://app?vid=838bdfd1-c99f-4f63-99a5-549151987f4e","ios":"levelo://app?vid=838bdfd1-c99f-4f63-99a5-549151987f4e"},"vehicle_type_id":"4","last_reported":1746346329,"current_range_meters":15200,"station_id":"ce4bhph2rcd13ifvqheg","pricing_plan_id":"cebpf4jnsgd1na2vs0mg"},{"bike_id":"696b71f0-972e-4fa6-831c-b2001014ab23","system_id":"levelo_inurba_marseille","lat":43.25111,"lon":5.4033,"is_reserved":false,"is_disabled":false,"rental_uris":{"android":"levelo://app?vid=696b71f0-972e-4fa6-831c-b2001014ab23","ios":"levelo://app?vid=696b71f0-972e-4fa6-831c-b2001014ab23"},"vehicle_type_id":"4","last_reported":1746346329,"current_range_meters":15200,"station_id":"ce4bhlh2rcd13ifvqgig","pricing_plan_id":"cebpf4jnsgd1na2vs0mg"},{"bike_id":"0c41295d-d4cf-4b68-8a28-df6c303fb9e9","system_id":"levelo_inurba_marseille","lat":43.28261,"lon":5.3506,"is_reserved":false,"is_disabled":false,"rental_uris":{"android":"levelo://app?vid=0c41295d-d4cf-4b68-8a28-df6c303fb9e9","ios":"levelo://app?vid=0c41295d-d4cf-4b68-8a28-df6c303fb9e9"},"vehicle_type_id":"4","last_reported":1746346329,"current_range_meters":16000,"station_id":"ce4bhbp2rcd13ifvqerg","pricing_plan_id":"cebpf4jnsgd1na2vs0mg"},{"bike_id":"b7204265-8614-4426-b737-6909eb2143cc","system_id":"levelo_inurba_marseille","lat":43.23152,"lon":5.4372,"is_reserved":false,"is_disabled":false,"rental_uris":{"android":"levelo://app?vid=b7204265-8614-4426-b737-6909eb2143cc","ios":"levelo://app?vid=b7204265-8614-4426-b737-6909eb2143cc"},"vehicle_type_id":"4","last_reported":1746346329,"current_range_meters":16000,"station_id":"ce4bhmp2rcd13ifvqgog","pricing_plan_id":"cebpf4jnsgd1na2vs0mg"},{"bike_id":"0c86f7c5-5a71-4b5a-a769-ceb3451e1da9","system_id":"levelo_inurba_marseille","lat":43.31687,"lon":5.4044,"is_reserved":false,"is_disabled":false,"rental_uris":{"android":"levelo://app?vid=0c86f7c5-5a71-4b5a-a769-ceb3451e1da9","ios":"levelo://app?vid=0c86f7c5-5a71-4b5a-a769-ceb3451e1da9"},"vehicle_type_id":"4","last_reported":1746346329,"current_range_meters":16000,"station_id":"ce4bh012rcd13ifvqd00","pricing_plan_id":"cebpf4jnsgd1na2vs0mg"},{"bike_id":"cc39cdc5-0417-4f88-b75a-a7a63ab3f1d6","system_id":"levelo_inurba_marseille","lat":43.3137,"lon":5.38255,"is_reserved":false,"is_disabled":false,"rental_uris":{"android":"levelo://app?vid=cc39cdc5-0417-4f88-b75a-a7a63ab3f1d6","ios":"levelo://app?vid=cc39cdc5-0417-4f88-b75a-a7a63ab3f1d6"},"vehicle_type_id":"4","last_reported":1746346329,"current_range_meters":16000,"station_id":"","pricing_plan_id":"cebpf4jnsgd1na2vs0mg"},{"bike_id":"e84eee43-7ebe-4b56-a08b-27d6e58561fd","system_id":"levelo_inurba_marseille","lat":43.241833,"lon":5.397353,"is_reserved":false,"is_disabled":false,"rental_uris":{"android":"levelo://app?vid=e84eee43-7ebe-4b56-a08b-27d6e58561fd","ios":"levelo://app?vid=e84eee43-7ebe-4b56-a08b-27d6e58561fd"},"vehicle_type_id":"4","last_reported":1746346329,"current_range_meters":16000,"station_id":"ce4bhn12rcd13ifvqgpg","pricing_plan_id":"cebpf4jnsgd1na2vs0mg"},{"bike_id":"ec53c786-ae1e-453d-9cd6-5e7171a2949e","system_id":"levelo_inurba_marseille","lat":43.308895,"lon":5.396485,"is_reserved":false,"is_disabled":false,"rental_uris":{"android":"levelo://app?vid=ec53c786-ae1e-453d-9cd6-5e7171a2949e","ios":"levelo://app?vid=ec53c786-ae1e-453d-9cd6-5e7171a2949e"},"vehicle_type_id":"4","last_reported":1746346329,"current_range_meters":16000,"station_id":"ce4bh012rcd13ifvqcv0","pricing_plan_id":"cebpf4jnsgd1na2vs0mg"},{"bike_id":"ce7e06eb-b040-4a1c-b1b9-b8a759460472","system_id":"levelo_inurba_marseille","lat":43.25104,"lon":5.40326,"is_reserved":false,"is_disabled":false,"rental_uris":{"android":"levelo://app?vid=ce7e06eb-b040-4a1c-b1b9-b8a759460472","ios":"levelo://app?vid=ce7e06eb-b040-4a1c-b1b9-b8a759460472"},"vehicle_type_id":"4","last_reported":1746346329,"current_range_meters":16000,"station_id":"ce4bhlh2rcd13ifvqgig","pricing_plan_id":"cebpf4jnsgd1na2vs0mg"},{"bike_id":"073ee896-7ffd-4eeb-ba0c-a255d4c8e537","system_id":"levelo_inurba_marseille","lat":43.25713,"lon":5.41105,"is_reserved":false,"is_disabled":false,"rental_uris":{"android":"levelo://app?vid=073ee896-7ffd-4eeb-ba0c-a255d4c8e537","ios":"levelo://app?vid=073ee896-7ffd-4eeb-ba0c-a255d4c8e537"},"vehicle_type_id":"4","last_reported":1746346329,"current_range_meters":16000,"station_id":"ce4bhkp2rcd13ifvqgd0","pricing_plan_id":"cebpf4jnsgd1na2vs0mg"},{"bike_id":"43f220ab-0408-46b3-abe5-60437ce3bc1e","system_id":"levelo_inurba_marseille","lat":43.231849,"lon":5.355621,"is_reserved":false,"is_disabled":false,"rental_uris":{"android":"levelo://app?vid=43f220ab-0408-46b3-abe5-60437ce3bc1e","ios":"levelo://app?vid=43f220ab-0408-46b3-abe5-60437ce3bc1e"},"vehicle_type_id":"4","last_reported":1746346329,"current_range_meters":16400,"station_id":"ce4bhu92rcd13ifvqi70","pricing_plan_id":"cebpf4jnsgd1na2vs0mg"},{"bike_id":"fdef9e55-be0f-41e0-8526-8e8fa7260880","system_id":"levelo_inurba_marseille","lat":43.312809,"lon":5.374118,"is_reserved":false,"is_disabled":false,"rental_uris":{"android":"levelo://app?vid=fdef9e55-be0f-41e0-8526-8e8fa7260880","ios":"levelo://app?vid=fdef9e55-be0f-41e0-8526-8e8fa7260880"},"vehicle_type_id":"4","last_reported":1746346329,"current_range_meters":16400,"station_id":"","pricing_plan_id":"cebpf4jnsgd1na2vs0mg"},{"bike_id":"8a1c92bd-6777-477a-9eaf-2b1631a1f0a6","system_id":"levelo_inurba_marseille","lat":43.309293,"lon":5.401521,"is_reserved":false,"is_disabled":false,"rental_uris":{"android":"levelo://app?vid=8a1c92bd-6777-477a-9eaf-2b1631a1f0a6","ios":"levelo://app?vid=8a1c92bd-6777-477a-9eaf-2b1631a1f0a6"},"vehicle_type_id":"4","last_reported":1746346329,"current_range_meters":16400,"station_id":"ce4bgvp2rcd13ifvqct0","pricing_plan_id":"cebpf4jnsgd1na2vs0mg"},{"bike_id":"ae97f59b-b48e-402b-9ac2-2eba71290cd1","system_id":"levelo_inurba_marseille","lat":43.30933,"lon":5.40158,"is_reserved":false,"is_disabled":false,"rental_uris":{"android":"levelo://app?vid=ae97f59b-b48e-402b-9ac2-2eba71290cd1","ios":"levelo://app?vid=ae97f59b-b48e-402b-9ac2-2eba71290cd1"},"vehicle_type_id":"4","last_reported":1746346329,"current_range_meters":16400,"station_id":"ce4bgvp2rcd13ifvqct0","pricing_plan_id":"cebpf4jnsgd1na2vs0mg"},{"bike_id":"7ebb70cc-fd03-475b-980f-aca77de5d23a","system_id":"levelo_inurba_marseille","lat":43.30922,"lon":5.40154,"is_reserved":false,"is_disabled":false,"rental_uris":{"android":"levelo://app?vid=7ebb70cc-fd03-475b-980f-aca77de5d23a","ios":"levelo://app?vid=7ebb70cc-fd03-475b-980f-aca77de5d23a"},"vehicle_type_id":"4","last_reported":1746346329,"current_range_meters":16400,"station_id":"ce4bgvp2rcd13ifvqct0","pricing_plan_id":"cebpf4jnsgd1na2vs0mg"},{"bike_id":"b3368c1a-cce1-4a9d-a9b1-06d57b7d2e63","system_id":"levelo_inurba_marseille","lat":43.33716,"lon":5.39173,"is_reserved":false,"is_disabled":false,"rental_uris":{"android":"levelo://app?vid=b3368c1a-cce1-4a9d-a9b1-06d57b7d2e63","ios":"levelo://app?vid=b3368c1a-cce1-4a9d-a9b1-06d57b7d2e63"},"vehicle_type_id":"4","last_reported":1746346329,"current_range_meters":16400,"station_id":"ce4bhr92rcd13ifvqhsg","pricing_plan_id":"cebpf4jnsgd1na2vs0mg"},{"bike_id":"eb5c43d6-7a09-4d7e-984e-ed251b0ebe27","system_id":"levelo_inurba_marseille","lat":43.2721,"lon":5.39166,"is_reserved":false,"is_disabled":false,"rental_uris":{"android":"levelo://app?vid=eb5c43d6-7a09-4d7e-984e-ed251b0ebe27","ios":"levelo://app?vid=eb5c43d6-7a09-4d7e-984e-ed251b0ebe27"},"vehicle_type_id":"4","last_reported":1746346329,"current_range_meters":16400,"station_id":"ce4bhhp2rcd13ifvqfm0","pricing_plan_id":"cebpf4jnsgd1na2vs0mg"},{"bike_id":"20e89858-6ad3-4614-90dd-b3c483147247","system_id":"levelo_inurba_marseille","lat":43.30641,"lon":5.40068,"is_reserved":false,"is_disabled":false,"rental_uris":{"android":"levelo://app?vid=20e89858-6ad3-4614-90dd-b3c483147247","ios":"levelo://app?vid=20e89858-6ad3-4614-90dd-b3c483147247"},"vehicle_type_id":"4","last_reported":1746346329,"current_range_meters":16400,"station_id":"ce4bh112rcd13ifvqda0","pricing_plan_id":"cebpf4jnsgd1na2vs0mg"},{"bike_id":"d94ace2f-a694-4d2b-9fa0-6d215239b455","system_id":"levelo_inurba_marseille","lat":43.243882,"lon":5.370638,"is_reserved":false,"is_disabled":false,"rental_uris":{"android":"levelo://app?vid=d94ace2f-a694-4d2b-9fa0-6d215239b455","ios":"levelo://app?vid=d94ace2f-a694-4d2b-9fa0-6d215239b455"},"vehicle_type_id":"4","last_reported":1746346329,"current_range_meters":16800,"station_id":"ce4bhhh2rcd13ifvqfk0","pricing_plan_id":"cebpf4jnsgd1na2vs0mg"},{"bike_id":"0999d447-5132-46af-b193-d645141efec2","system_id":"levelo_inurba_marseille","lat":43.3134,"lon":5.39678,"is_reserved":false,"is_disabled":false,"rental_uris":{"android":"levelo://app?vid=0999d447-5132-46af-b193-d645141efec2","ios":"levelo://app?vid=0999d447-5132-46af-b193-d645141efec2"},"vehicle_type_id":"4","last_reported":1746346329,"current_range_meters":16800,"station_id":"ce4bgvp2rcd13ifvqcu0","pricing_plan_id":"cebpf4jnsgd1na2vs0mg"},{"bike_id":"838953c0-5207-4dd4-a4c4-6cd84e5c58c8","system_id":"levelo_inurba_marseille","lat":43.28026,"lon":5.36955,"is_reserved":false,"is_disabled":false,"rental_uris":{"android":"levelo://app?vid=838953c0-5207-4dd4-a4c4-6cd84e5c58c8","ios":"levelo://app?vid=838953c0-5207-4dd4-a4c4-6cd84e5c58c8"},"vehicle_type_id":"4","last_reported":1746346329,"current_range_meters":17200,"station_id":"ce4bha12rcd13ifvqef0","pricing_plan_id":"cebpf4jnsgd1na2vs0mg"},{"bike_id":"44a4c1aa-e659-41ae-8ef4-e3bc1e502d2a","system_id":"levelo_inurba_marseille","lat":43.323562,"lon":5.367551,"is_reserved":false,"is_disabled":false,"rental_uris":{"android":"levelo://app?vid=44a4c1aa-e659-41ae-8ef4-e3bc1e502d2a","ios":"levelo://app?vid=44a4c1aa-e659-41ae-8ef4-e3bc1e502d2a"},"vehicle_type_id":"4","last_reported":1746346329,"current_range_meters":17200,"station_id":"ce4bhsh2rcd13ifvqi2g","pricing_plan_id":"cebpf4jnsgd1na2vs0mg"},{"bike_id":"4f86003a-4bda-480f-becc-b4f53e6e3826","system_id":"levelo_inurba_marseille","lat":43.24547,"lon":5.39527,"is_reserved":false,"is_disabled":false,"rental_uris":{"android":"levelo://app?vid=4f86003a-4bda-480f-becc-b4f53e6e3826","ios":"levelo://app?vid=4f86003a-4bda-480f-becc-b4f53e6e3826"},"vehicle_type_id":"4","last_reported":1746346329,"current_range_meters":17200,"station_id":"ce4bhlp2rcd13ifvqgjg","pricing_plan_id":"cebpf4jnsgd1na2vs0mg"},{"bike_id":"15639684-06e9-4773-81ae-ae812c7102e7","system_id":"levelo_inurba_marseille","lat":43.2903,"lon":5.37559,"is_reserved":false,"is_disabled":false,"rental_uris":{"android":"levelo://app?vid=15639684-06e9-4773-81ae-ae812c7102e7","ios":"levelo://app?vid=15639684-06e9-4773-81ae-ae812c7102e7"},"vehicle_type_id":"4","last_reported":1746346329,"current_range_meters":17600,"station_id":"ce4bh692rcd13ifvqe90","pricing_plan_id":"cebpf4jnsgd1na2vs0mg"},{"bike_id":"75647a9e-ebce-414b-915a-7e5c003f47da","system_id":"levelo_inurba_marseille","lat":43.3081,"lon":5.43531,"is_reserved":false,"is_disabled":false,"rental_uris":{"android":"levelo://app?vid=75647a9e-ebce-414b-915a-7e5c003f47da","ios":"levelo://app?vid=75647a9e-ebce-414b-915a-7e5c003f47da"},"vehicle_type_id":"4","last_reported":1746346329,"current_range_meters":17600,"station_id":"ce4bhph2rcd13ifvqheg","pricing_plan_id":"cebpf4jnsgd1na2vs0mg"},{"bike_id":"0abe7365-362a-4c2d-949a-e32faf9d4099","system_id":"levelo_inurba_marseille","lat":43.21191,"lon":5.35068,"is_reserved":false,"is_disabled":false,"rental_uris":{"android":"levelo://app?vid=0abe7365-362a-4c2d-949a-e32faf9d4099","ios":"levelo://app?vid=0abe7365-362a-4c2d-949a-e32faf9d4099"},"vehicle_type_id":"4","last_reported":1746346329,"current_range_meters":17600,"station_id":"st_cvj6sg6p6f1abm77japg","pricing_plan_id":"cebpf4jnsgd1na2vs0mg"},{"bike_id":"42472050-c7ca-43cb-9a34-b1d1636a2c78","system_id":"levelo_inurba_marseille","lat":43.31528,"lon":5.3802,"is_reserved":false,"is_disabled":false,"rental_uris":{"android":"levelo://app?vid=42472050-c7ca-43cb-9a34-b1d1636a2c78","ios":"levelo://app?vid=42472050-c7ca-43cb-9a34-b1d1636a2c78"},"vehicle_type_id":"4","last_reported":1746346329,"current_range_meters":17600,"station_id":"ce4bhsp2rcd13ifvqi50","pricing_plan_id":"cebpf4jnsgd1na2vs0mg"},{"bike_id":"c934a038-999c-4097-b244-e68883d621e3","system_id":"levelo_inurba_marseille","lat":43.30555,"lon":5.36553,"is_reserved":false,"is_disabled":true,"rental_uris":{"android":"levelo://app?vid=c934a038-999c-4097-b244-e68883d621e3","ios":"levelo://app?vid=c934a038-999c-4097-b244-e68883d621e3"},"vehicle_type_id":"4","last_reported":1746346329,"current_range_meters":17600,"station_id":"ce4bgs12rcd13ifvqcag","pricing_plan_id":"cebpf4jnsgd1na2vs0mg"},{"bike_id":"1e007f1b-64bd-4aac-9793-c26afa28e924","system_id":"levelo_inurba_marseille","lat":43.30592,"lon":5.39349,"is_reserved":false,"is_disabled":false,"rental_uris":{"android":"levelo://app?vid=1e007f1b-64bd-4aac-9793-c26afa28e924","ios":"levelo://app?vid=1e007f1b-64bd-4aac-9793-c26afa28e924"},"vehicle_type_id":"4","last_reported":1746346329,"current_range_meters":17600,"station_id":"ce4bh0p2rcd13ifvqd80","pricing_plan_id":"cebpf4jnsgd1na2vs0mg"},{"bike_id":"c9fc3045-45d2-4dca-a3ce-d5c86023e574","system_id":"levelo_inurba_marseille","lat":43.292255,"lon":5.36079,"is_reserved":false,"is_disabled":false,"rental_uris":{"android":"levelo://app?vid=c9fc3045-45d2-4dca-a3ce-d5c86023e574","ios":"levelo://app?vid=c9fc3045-45d2-4dca-a3ce-d5c86023e574"},"vehicle_type_id":"4","last_reported":1746346329,"current_range_meters":17600,"station_id":"ce4bhbh2rcd13ifvqeqg","pricing_plan_id":"cebpf4jnsgd1na2vs0mg"},{"bike_id":"19c0a13c-23fd-46c9-881b-28dbf58b70a1","system_id":"levelo_inurba_marseille","lat":43.31092,"lon":5.42468,"is_reserved":false,"is_disabled":false,"rental_uris":{"android":"levelo://app?vid=19c0a13c-23fd-46c9-881b-28dbf58b70a1","ios":"levelo://app?vid=19c0a13c-23fd-46c9-881b-28dbf58b70a1"},"vehicle_type_id":"4","last_reported":1746346329,"current_range_meters":17600,"station_id":"ce4bhp92rcd13ifvqhag","pricing_plan_id":"cebpf4jnsgd1na2vs0mg"},{"bike_id":"93e30fe4-328e-4f1f-b9cb-83d82682ca65","system_id":"levelo_inurba_marseille","lat":43.29099,"lon":5.38139,"is_reserved":false,"is_disabled":false,"rental_uris":{"android":"levelo://app?vid=93e30fe4-328e-4f1f-b9cb-83d82682ca65","ios":"levelo://app?vid=93e30fe4-328e-4f1f-b9cb-83d82682ca65"},"vehicle_type_id":"4","last_reported":1746346329,"current_range_meters":18000,"station_id":"ce4bh512rcd13ifvqe2g","pricing_plan_id":"cebpf4jnsgd1na2vs0mg"},{"bike_id":"c627b57c-a364-4991-bf18-9b2dfa26592e","system_id":"levelo_inurba_marseille","lat":43.23147,"lon":5.43713,"is_reserved":false,"is_disabled":false,"rental_uris":{"android":"levelo://app?vid=c627b57c-a364-4991-bf18-9b2dfa26592e","ios":"levelo://app?vid=c627b57c-a364-4991-bf18-9b2dfa26592e"},"vehicle_type_id":"4","last_reported":1746346329,"current_range_meters":18000,"station_id":"ce4bhmp2rcd13ifvqgog","pricing_plan_id":"cebpf4jnsgd1na2vs0mg"},{"bike_id":"e3f482b3-9af8-49d9-9427-68b636c1d9c9","system_id":"levelo_inurba_marseille","lat":43.22932,"lon":5.35396,"is_reserved":false,"is_disabled":false,"rental_uris":{"android":"levelo://app?vid=e3f482b3-9af8-49d9-9427-68b636c1d9c9","ios":"levelo://app?vid=e3f482b3-9af8-49d9-9427-68b636c1d9c9"},"vehicle_type_id":"4","last_reported":1746346329,"current_range_meters":18000,"station_id":"cpo3532slgdg3j2ikp40","pricing_plan_id":"cebpf4jnsgd1na2vs0mg"},{"bike_id":"3a1bdcaa-03b0-42c3-8f1a-1a14c5659707","system_id":"levelo_inurba_marseille","lat":43.29708,"lon":5.37699,"is_reserved":false,"is_disabled":false,"rental_uris":{"android":"levelo://app?vid=3a1bdcaa-03b0-42c3-8f1a-1a14c5659707","ios":"levelo://app?vid=3a1bdcaa-03b0-42c3-8f1a-1a14c5659707"},"vehicle_type_id":"4","last_reported":1746346329,"current_range_meters":18000,"station_id":"ce4bgkh2rcd13ifvqbl0","pricing_plan_id":"cebpf4jnsgd1na2vs0mg"},{"bike_id":"59a2dbcf-a44d-430e-976d-50f361684caf","system_id":"levelo_inurba_marseille","lat":43.2862,"lon":5.37071,"is_reserved":false,"is_disabled":false,"rental_uris":{"android":"levelo://app?vid=59a2dbcf-a44d-430e-976d-50f361684caf","ios":"levelo://app?vid=59a2dbcf-a44d-430e-976d-50f361684caf"},"vehicle_type_id":"4","last_reported":1746346329,"current_range_meters":18000,"station_id":"ce4bht12rcd13ifvqi60","pricing_plan_id":"cebpf4jnsgd1na2vs0mg"},{"bike_id":"f6c1dcb0-1295-4680-af32-4dc24d6ef29b","system_id":"levelo_inurba_marseille","lat":43.27207,"lon":5.39184,"is_reserved":false,"is_disabled":true,"rental_uris":{"android":"levelo://app?vid=f6c1dcb0-1295-4680-af32-4dc24d6ef29b","ios":"levelo://app?vid=f6c1dcb0-1295-4680-af32-4dc24d6ef29b"},"vehicle_type_id":"4","last_reported":1746346329,"current_range_meters":18000,"station_id":"ce4bhhp2rcd13ifvqfm0","pricing_plan_id":"cebpf4jnsgd1na2vs0mg"},{"bike_id":"d229679b-1d35-4afc-a031-49f898a4ffb0","system_id":"levelo_inurba_marseille","lat":43.30148,"lon":5.38085,"is_reserved":false,"is_disabled":false,"rental_uris":{"android":"levelo://app?vid=d229679b-1d35-4afc-a031-49f898a4ffb0","ios":"levelo://app?vid=d229679b-1d35-4afc-a031-49f898a4ffb0"},"vehicle_type_id":"4","last_reported":1746346329,"current_range_meters":18000,"station_id":"ce4bgjp2rcd13ifvqbh0","pricing_plan_id":"cebpf4jnsgd1na2vs0mg"},{"bike_id":"0a0ece37-539d-4aa3-b235-deb8a4daf593","system_id":"levelo_inurba_marseille","lat":43.33102,"lon":5.408,"is_reserved":false,"is_disabled":false,"rental_uris":{"android":"levelo://app?vid=0a0ece37-539d-4aa3-b235-deb8a4daf593","ios":"levelo://app?vid=0a0ece37-539d-4aa3-b235-deb8a4daf593"},"vehicle_type_id":"4","last_reported":1746346329,"current_range_meters":18000,"station_id":"","pricing_plan_id":"cebpf4jnsgd1na2vs0mg"},{"bike_id":"c3fdcf8f-8afb-4f69-b447-8291241309fd","system_id":"levelo_inurba_marseille","lat":43.29573,"lon":5.37514,"is_reserved":false,"is_disabled":false,"rental_uris":{"android":"levelo://app?vid=c3fdcf8f-8afb-4f69-b447-8291241309fd","ios":"levelo://app?vid=c3fdcf8f-8afb-4f69-b447-8291241309fd"},"vehicle_type_id":"4","last_reported":1746346329,"current_range_meters":18000,"station_id":"ce4bgh92rcd13ifvqb50","pricing_plan_id":"cebpf4jnsgd1na2vs0mg"},{"bike_id":"5df8f6ae-472c-4fee-adac-834ad90c168e","system_id":"levelo_inurba_marseille","lat":43.24388,"lon":5.37055,"is_reserved":false,"is_disabled":false,"rental_uris":{"android":"levelo://app?vid=5df8f6ae-472c-4fee-adac-834ad90c168e","ios":"levelo://app?vid=5df8f6ae-472c-4fee-adac-834ad90c168e"},"vehicle_type_id":"4","last_reported":1746346329,"current_range_meters":18000,"station_id":"ce4bhhh2rcd13ifvqfk0","pricing_plan_id":"cebpf4jnsgd1na2vs0mg"},{"bike_id":"1f698de6-af4f-4102-babe-b2183f017a15","system_id":"levelo_inurba_marseille","lat":43.29615,"lon":5.37151,"is_reserved":false,"is_disabled":false,"rental_uris":{"android":"levelo://app?vid=1f698de6-af4f-4102-babe-b2183f017a15","ios":"levelo://app?vid=1f698de6-af4f-4102-babe-b2183f017a15"},"vehicle_type_id":"4","last_reported":1746346329,"current_range_meters":18800,"station_id":"ce4bgnh2rcd13ifvqc0g","pricing_plan_id":"cebpf4jnsgd1na2vs0mg"},{"bike_id":"1885e4e4-787e-4399-a182-13afb5671e8f","system_id":"levelo_inurba_marseille","lat":43.31762,"lon":5.39008,"is_reserved":false,"is_disabled":false,"rental_uris":{"android":"levelo://app?vid=1885e4e4-787e-4399-a182-13afb5671e8f","ios":"levelo://app?vid=1885e4e4-787e-4399-a182-13afb5671e8f"},"vehicle_type_id":"4","last_reported":1746346329,"current_range_meters":18800,"station_id":"ce4bhqp2rcd13ifvqhng","pricing_plan_id":"cebpf4jnsgd1na2vs0mg"},{"bike_id":"1e4c8eca-44f1-4bf0-b96f-01b79f3e652f","system_id":"levelo_inurba_marseille","lat":43.2794,"lon":5.41005,"is_reserved":false,"is_disabled":false,"rental_uris":{"android":"levelo://app?vid=1e4c8eca-44f1-4bf0-b96f-01b79f3e652f","ios":"levelo://app?vid=1e4c8eca-44f1-4bf0-b96f-01b79f3e652f"},"vehicle_type_id":"4","last_reported":1746346329,"current_range_meters":18800,"station_id":"ce4bhnp2rcd13ifvqh0g","pricing_plan_id":"cebpf4jnsgd1na2vs0mg"},{"bike_id":"17679886-87b6-489c-8ef7-4e0c4af29895","system_id":"levelo_inurba_marseille","lat":43.24382,"lon":5.37061,"is_reserved":false,"is_disabled":false,"rental_uris":{"android":"levelo://app?vid=17679886-87b6-489c-8ef7-4e0c4af29895","ios":"levelo://app?vid=17679886-87b6-489c-8ef7-4e0c4af29895"},"vehicle_type_id":"4","last_reported":1746346329,"current_range_meters":18800,"station_id":"ce4bhhh2rcd13ifvqfk0","pricing_plan_id":"cebpf4jnsgd1na2vs0mg"},{"bike_id":"f861928d-54fe-4602-a72a-3e73aa56b797","system_id":"levelo_inurba_marseille","lat":43.27063,"lon":5.4227,"is_reserved":false,"is_disabled":false,"rental_uris":{"android":"levelo://app?vid=f861928d-54fe-4602-a72a-3e73aa56b797","ios":"levelo://app?vid=f861928d-54fe-4602-a72a-3e73aa56b797"},"vehicle_type_id":"4","last_reported":1746346329,"current_range_meters":18800,"station_id":"ce4bhk92rcd13ifvqgb0","pricing_plan_id":"cebpf4jnsgd1na2vs0mg"},{"bike_id":"8536704e-961e-4868-ad07-81df77fc76eb","system_id":"levelo_inurba_marseille","lat":43.289978,"lon":5.356151,"is_reserved":false,"is_disabled":true,"rental_uris":{"android":"levelo://app?vid=8536704e-961e-4868-ad07-81df77fc76eb","ios":"levelo://app?vid=8536704e-961e-4868-ad07-81df77fc76eb"},"vehicle_type_id":"4","last_reported":1746346329,"current_range_meters":19200,"station_id":"ce4bhb92rcd13ifvqen0","pricing_plan_id":"cebpf4jnsgd1na2vs0mg"},{"bike_id":"9e54a850-71b6-40f4-baed-b49b1f0321c4","system_id":"levelo_inurba_marseille","lat":43.28432,"lon":5.3923,"is_reserved":false,"is_disabled":false,"rental_uris":{"android":"levelo://app?vid=9e54a850-71b6-40f4-baed-b49b1f0321c4","ios":"levelo://app?vid=9e54a850-71b6-40f4-baed-b49b1f0321c4"},"vehicle_type_id":"4","last_reported":1746346329,"current_range_meters":19200,"station_id":"ce4bhoh2rcd13ifvqh5g","pricing_plan_id":"cebpf4jnsgd1na2vs0mg"},{"bike_id":"3ff1331f-d2b9-4db6-9af0-17b5a04341a5","system_id":"levelo_inurba_marseille","lat":43.24328,"lon":5.37982,"is_reserved":false,"is_disabled":false,"rental_uris":{"android":"levelo://app?vid=3ff1331f-d2b9-4db6-9af0-17b5a04341a5","ios":"levelo://app?vid=3ff1331f-d2b9-4db6-9af0-17b5a04341a5"},"vehicle_type_id":"4","last_reported":1746346329,"current_range_meters":19200,"station_id":"","pricing_plan_id":"cebpf4jnsgd1na2vs0mg"},{"bike_id":"8e69649f-d5a0-4ead-b212-c5b5612beda7","system_id":"levelo_inurba_marseille","lat":43.254894,"lon":5.376531,"is_reserved":false,"is_disabled":true,"rental_uris":{"android":"levelo://app?vid=8e69649f-d5a0-4ead-b212-c5b5612beda7","ios":"levelo://app?vid=8e69649f-d5a0-4ead-b212-c5b5612beda7"},"vehicle_type_id":"4","last_reported":1746346329,"current_range_meters":19200,"station_id":"ce4bhh12rcd13ifvqff0","pricing_plan_id":"cebpf4jnsgd1na2vs0mg"},{"bike_id":"2a83f628-6bc6-4805-bbb5-042e251d7a0f","system_id":"levelo_inurba_marseille","lat":43.31535,"lon":5.38032,"is_reserved":false,"is_disabled":false,"rental_uris":{"android":"levelo://app?vid=2a83f628-6bc6-4805-bbb5-042e251d7a0f","ios":"levelo://app?vid=2a83f628-6bc6-4805-bbb5-042e251d7a0f"},"vehicle_type_id":"4","last_reported":1746346329,"current_range_meters":19600,"station_id":"ce4bhsp2rcd13ifvqi50","pricing_plan_id":"cebpf4jnsgd1na2vs0mg"},{"bike_id":"5316087d-9192-48a3-9aab-79f7210a6e18","system_id":"levelo_inurba_marseille","lat":43.313278,"lon":5.396974,"is_reserved":false,"is_disabled":false,"rental_uris":{"android":"levelo://app?vid=5316087d-9192-48a3-9aab-79f7210a6e18","ios":"levelo://app?vid=5316087d-9192-48a3-9aab-79f7210a6e18"},"vehicle_type_id":"4","last_reported":1746346329,"current_range_meters":19600,"station_id":"ce4bgvp2rcd13ifvqcu0","pricing_plan_id":"cebpf4jnsgd1na2vs0mg"},{"bike_id":"7ad04c1b-fc26-4c94-a72f-89c6e3ca5c32","system_id":"levelo_inurba_marseille","lat":43.31194,"lon":5.40747,"is_reserved":false,"is_disabled":false,"rental_uris":{"android":"levelo://app?vid=7ad04c1b-fc26-4c94-a72f-89c6e3ca5c32","ios":"levelo://app?vid=7ad04c1b-fc26-4c94-a72f-89c6e3ca5c32"},"vehicle_type_id":"4","last_reported":1746346329,"current_range_meters":19600,"station_id":"","pricing_plan_id":"cebpf4jnsgd1na2vs0mg"},{"bike_id":"670b1b9b-ffeb-4a0c-b8dc-9ad9b67db084","system_id":"levelo_inurba_marseille","lat":43.29068,"lon":5.39942,"is_reserved":false,"is_disabled":false,"rental_uris":{"android":"levelo://app?vid=670b1b9b-ffeb-4a0c-b8dc-9ad9b67db084","ios":"levelo://app?vid=670b1b9b-ffeb-4a0c-b8dc-9ad9b67db084"},"vehicle_type_id":"4","last_reported":1746346329,"current_range_meters":19600,"station_id":"ce4bh392rcd13ifvqdm0","pricing_plan_id":"cebpf4jnsgd1na2vs0mg"},{"bike_id":"082ac56b-3d9f-4f13-bc0f-c2060386c881","system_id":"levelo_inurba_marseille","lat":43.29012,"lon":5.35598,"is_reserved":false,"is_disabled":true,"rental_uris":{"android":"levelo://app?vid=082ac56b-3d9f-4f13-bc0f-c2060386c881","ios":"levelo://app?vid=082ac56b-3d9f-4f13-bc0f-c2060386c881"},"vehicle_type_id":"4","last_reported":1746346329,"current_range_meters":19600,"station_id":"ce4bhb92rcd13ifvqen0","pricing_plan_id":"cebpf4jnsgd1na2vs0mg"},{"bike_id":"6db680b9-943c-48db-8381-9603059eb73a","system_id":"levelo_inurba_marseille","lat":43.31711,"lon":5.37744,"is_reserved":false,"is_disabled":false,"rental_uris":{"android":"levelo://app?vid=6db680b9-943c-48db-8381-9603059eb73a","ios":"levelo://app?vid=6db680b9-943c-48db-8381-9603059eb73a"},"vehicle_type_id":"4","last_reported":1746346329,"current_range_meters":19600,"station_id":"ce4bgth2rcd13ifvqch0","pricing_plan_id":"cebpf4jnsgd1na2vs0mg"},{"bike_id":"f589fc42-057a-43b9-81ad-55c2a575aecf","system_id":"levelo_inurba_marseille","lat":43.310712,"lon":5.383459,"is_reserved":false,"is_disabled":true,"rental_uris":{"android":"levelo://app?vid=f589fc42-057a-43b9-81ad-55c2a575aecf","ios":"levelo://app?vid=f589fc42-057a-43b9-81ad-55c2a575aecf"},"vehicle_type_id":"4","last_reported":1746346329,"current_range_meters":20000,"station_id":"ce4bgv92rcd13ifvqcr0","pricing_plan_id":"cebpf4jnsgd1na2vs0mg"},{"bike_id":"f00fd125-a520-476e-aa39-29958509acdd","system_id":"levelo_inurba_marseille","lat":43.28486,"lon":5.38416,"is_reserved":false,"is_disabled":false,"rental_uris":{"android":"levelo://app?vid=f00fd125-a520-476e-aa39-29958509acdd","ios":"levelo://app?vid=f00fd125-a520-476e-aa39-29958509acdd"},"vehicle_type_id":"4","last_reported":1746346329,"current_range_meters":20000,"station_id":"ce4bh512rcd13ifvqe3g","pricing_plan_id":"cebpf4jnsgd1na2vs0mg"},{"bike_id":"c43b1397-4c89-4556-9d3f-5e63a1b69a9b","system_id":"levelo_inurba_marseille","lat":43.29555,"lon":5.42292,"is_reserved":false,"is_disabled":false,"rental_uris":{"android":"levelo://app?vid=c43b1397-4c89-4556-9d3f-5e63a1b69a9b","ios":"levelo://app?vid=c43b1397-4c89-4556-9d3f-5e63a1b69a9b"},"vehicle_type_id":"4","last_reported":1746346329,"current_range_meters":20000,"station_id":"ce4bhph2rcd13ifvqhdg","pricing_plan_id":"cebpf4jnsgd1na2vs0mg"},{"bike_id":"4dfba4d6-02ee-439f-83a1-69bd884cdae0","system_id":"levelo_inurba_marseille","lat":43.303179,"lon":5.404424,"is_reserved":false,"is_disabled":false,"rental_uris":{"android":"levelo://app?vid=4dfba4d6-02ee-439f-83a1-69bd884cdae0","ios":"levelo://app?vid=4dfba4d6-02ee-439f-83a1-69bd884cdae0"},"vehicle_type_id":"4","last_reported":1746346329,"current_range_meters":20000,"station_id":"ce4bh012rcd13ifvqd10","pricing_plan_id":"cebpf4jnsgd1na2vs0mg"},{"bike_id":"0d373b2d-fd1b-4729-a35c-bcec97fbd05c","system_id":"levelo_inurba_marseille","lat":43.279545,"lon":5.410314,"is_reserved":false,"is_disabled":false,"rental_uris":{"android":"levelo://app?vid=0d373b2d-fd1b-4729-a35c-bcec97fbd05c","ios":"levelo://app?vid=0d373b2d-fd1b-4729-a35c-bcec97fbd05c"},"vehicle_type_id":"4","last_reported":1746346329,"current_range_meters":20000,"station_id":"ce4bhnp2rcd13ifvqh0g","pricing_plan_id":"cebpf4jnsgd1na2vs0mg"},{"bike_id":"a8a5d03d-9153-4179-835f-415d347401e8","system_id":"levelo_inurba_marseille","lat":43.29558,"lon":5.42283,"is_reserved":false,"is_disabled":false,"rental_uris":{"android":"levelo://app?vid=a8a5d03d-9153-4179-835f-415d347401e8","ios":"levelo://app?vid=a8a5d03d-9153-4179-835f-415d347401e8"},"vehicle_type_id":"4","last_reported":1746346329,"current_range_meters":20400,"station_id":"ce4bhph2rcd13ifvqhdg","pricing_plan_id":"cebpf4jnsgd1na2vs0mg"},{"bike_id":"d62eceed-23eb-4f3d-a6fe-a61cd2ad4365","system_id":"levelo_inurba_marseille","lat":43.28409,"lon":5.35618,"is_reserved":false,"is_disabled":false,"rental_uris":{"android":"levelo://app?vid=d62eceed-23eb-4f3d-a6fe-a61cd2ad4365","ios":"levelo://app?vid=d62eceed-23eb-4f3d-a6fe-a61cd2ad4365"},"vehicle_type_id":"4","last_reported":1746346329,"current_range_meters":20400,"station_id":"","pricing_plan_id":"cebpf4jnsgd1na2vs0mg"},{"bike_id":"bbba4a42-41f1-4d4c-a0ec-15062e1d6496","system_id":"levelo_inurba_marseille","lat":43.308059,"lon":5.435339,"is_reserved":false,"is_disabled":false,"rental_uris":{"android":"levelo://app?vid=bbba4a42-41f1-4d4c-a0ec-15062e1d6496","ios":"levelo://app?vid=bbba4a42-41f1-4d4c-a0ec-15062e1d6496"},"vehicle_type_id":"4","last_reported":1746346329,"current_range_meters":20800,"station_id":"ce4bhph2rcd13ifvqheg","pricing_plan_id":"cebpf4jnsgd1na2vs0mg"},{"bike_id":"725d8748-1f17-463a-879e-9f6908374adb","system_id":"levelo_inurba_marseille","lat":43.22761,"lon":5.3613,"is_reserved":false,"is_disabled":true,"rental_uris":{"android":"levelo://app?vid=725d8748-1f17-463a-879e-9f6908374adb","ios":"levelo://app?vid=725d8748-1f17-463a-879e-9f6908374adb"},"vehicle_type_id":"4","last_reported":1746346329,"current_range_meters":20800,"station_id":"","pricing_plan_id":"cebpf4jnsgd1na2vs0mg"},{"bike_id":"1e8fda63-f8ec-457f-81a9-785d2b827542","system_id":"levelo_inurba_marseille","lat":43.30882,"lon":5.39647,"is_reserved":false,"is_disabled":false,"rental_uris":{"android":"levelo://app?vid=1e8fda63-f8ec-457f-81a9-785d2b827542","ios":"levelo://app?vid=1e8fda63-f8ec-457f-81a9-785d2b827542"},"vehicle_type_id":"4","last_reported":1746346329,"current_range_meters":20800,"station_id":"ce4bh012rcd13ifvqcv0","pricing_plan_id":"cebpf4jnsgd1na2vs0mg"},{"bike_id":"1ce5faab-c057-44d0-b6f7-996b2962169c","system_id":"levelo_inurba_marseille","lat":43.32356,"lon":5.36763,"is_reserved":false,"is_disabled":false,"rental_uris":{"android":"levelo://app?vid=1ce5faab-c057-44d0-b6f7-996b2962169c","ios":"levelo://app?vid=1ce5faab-c057-44d0-b6f7-996b2962169c"},"vehicle_type_id":"4","last_reported":1746346329,"current_range_meters":21600,"station_id":"ce4bhsh2rcd13ifvqi2g","pricing_plan_id":"cebpf4jnsgd1na2vs0mg"},{"bike_id":"7a6f2a76-8579-4f8a-86cf-54985f1b9577","system_id":"levelo_inurba_marseille","lat":43.29247,"lon":5.40159,"is_reserved":false,"is_disabled":false,"rental_uris":{"android":"levelo://app?vid=7a6f2a76-8579-4f8a-86cf-54985f1b9577","ios":"levelo://app?vid=7a6f2a76-8579-4f8a-86cf-54985f1b9577"},"vehicle_type_id":"4","last_reported":1746346329,"current_range_meters":21600,"station_id":"ce4bh312rcd13ifvqdk0","pricing_plan_id":"cebpf4jnsgd1na2vs0mg"},{"bike_id":"d160aa21-19c1-4b8d-a398-e7f60fe915dd","system_id":"levelo_inurba_marseille","lat":43.306407,"lon":5.400795,"is_reserved":false,"is_disabled":false,"rental_uris":{"android":"levelo://app?vid=d160aa21-19c1-4b8d-a398-e7f60fe915dd","ios":"levelo://app?vid=d160aa21-19c1-4b8d-a398-e7f60fe915dd"},"vehicle_type_id":"4","last_reported":1746346329,"current_range_meters":21600,"station_id":"ce4bh112rcd13ifvqda0","pricing_plan_id":"cebpf4jnsgd1na2vs0mg"},{"bike_id":"f6a853a4-eaa9-41c0-b435-29c8c8038cd2","system_id":"levelo_inurba_marseille","lat":43.25713,"lon":5.41094,"is_reserved":false,"is_disabled":false,"rental_uris":{"android":"levelo://app?vid=f6a853a4-eaa9-41c0-b435-29c8c8038cd2","ios":"levelo://app?vid=f6a853a4-eaa9-41c0-b435-29c8c8038cd2"},"vehicle_type_id":"4","last_reported":1746346329,"current_range_meters":21600,"station_id":"ce4bhkp2rcd13ifvqgd0","pricing_plan_id":"cebpf4jnsgd1na2vs0mg"},{"bike_id":"51aff2cb-69e9-4734-b010-721eafdd94d7","system_id":"levelo_inurba_marseille","lat":43.279019,"lon":5.380016,"is_reserved":false,"is_disabled":false,"rental_uris":{"android":"levelo://app?vid=51aff2cb-69e9-4734-b010-721eafdd94d7","ios":"levelo://app?vid=51aff2cb-69e9-4734-b010-721eafdd94d7"},"vehicle_type_id":"4","last_reported":1746346329,"current_range_meters":21600,"station_id":"ce4bhf92rcd13ifvqf50","pricing_plan_id":"cebpf4jnsgd1na2vs0mg"},{"bike_id":"439a3662-1202-4699-a734-79dae19a1b23","system_id":"levelo_inurba_marseille","lat":43.30327,"lon":5.40438,"is_reserved":false,"is_disabled":false,"rental_uris":{"android":"levelo://app?vid=439a3662-1202-4699-a734-79dae19a1b23","ios":"levelo://app?vid=439a3662-1202-4699-a734-79dae19a1b23"},"vehicle_type_id":"4","last_reported":1746346329,"current_range_meters":21600,"station_id":"ce4bh012rcd13ifvqd10","pricing_plan_id":"cebpf4jnsgd1na2vs0mg"},{"bike_id":"a4c70265-1b99-4d26-ac80-334e8c86e1b2","system_id":"levelo_inurba_marseille","lat":43.25394,"lon":5.41865,"is_reserved":false,"is_disabled":false,"rental_uris":{"android":"levelo://app?vid=a4c70265-1b99-4d26-ac80-334e8c86e1b2","ios":"levelo://app?vid=a4c70265-1b99-4d26-ac80-334e8c86e1b2"},"vehicle_type_id":"4","last_reported":1746346329,"current_range_meters":21600,"station_id":"","pricing_plan_id":"cebpf4jnsgd1na2vs0mg"},{"bike_id":"87633127-eb2c-4adc-b692-8974d6d7a235","system_id":"levelo_inurba_marseille","lat":43.30716,"lon":5.37405,"is_reserved":false,"is_disabled":true,"rental_uris":{"android":"levelo://app?vid=87633127-eb2c-4adc-b692-8974d6d7a235","ios":"levelo://app?vid=87633127-eb2c-4adc-b692-8974d6d7a235"},"vehicle_type_id":"4","last_reported":1746346329,"current_range_meters":22000,"station_id":"","pricing_plan_id":"cebpf4jnsgd1na2vs0mg"},{"bike_id":"be08d0c5-8233-46ce-a16a-10ba0e6ee589","system_id":"levelo_inurba_marseille","lat":43.26945,"lon":5.38653,"is_reserved":false,"is_disabled":true,"rental_uris":{"android":"levelo://app?vid=be08d0c5-8233-46ce-a16a-10ba0e6ee589","ios":"levelo://app?vid=be08d0c5-8233-46ce-a16a-10ba0e6ee589"},"vehicle_type_id":"4","last_reported":1746346329,"current_range_meters":22000,"station_id":"ce4bhh92rcd13ifvqfh0","pricing_plan_id":"cebpf4jnsgd1na2vs0mg"},{"bike_id":"67228852-9364-4264-8911-ef9778c0a6b7","system_id":"levelo_inurba_marseille","lat":43.3172,"lon":5.40463,"is_reserved":false,"is_disabled":false,"rental_uris":{"android":"levelo://app?vid=67228852-9364-4264-8911-ef9778c0a6b7","ios":"levelo://app?vid=67228852-9364-4264-8911-ef9778c0a6b7"},"vehicle_type_id":"4","last_reported":1746346329,"current_range_meters":22000,"station_id":"ce4bh012rcd13ifvqd00","pricing_plan_id":"cebpf4jnsgd1na2vs0mg"},{"bike_id":"53365178-fafe-4641-abe2-1b6cdbb827d1","system_id":"levelo_inurba_marseille","lat":43.28152,"lon":5.42639,"is_reserved":false,"is_disabled":false,"rental_uris":{"android":"levelo://app?vid=53365178-fafe-4641-abe2-1b6cdbb827d1","ios":"levelo://app?vid=53365178-fafe-4641-abe2-1b6cdbb827d1"},"vehicle_type_id":"4","last_reported":1746346329,"current_range_meters":22000,"station_id":"ce4bhnh2rcd13ifvqgug","pricing_plan_id":"cebpf4jnsgd1na2vs0mg"},{"bike_id":"d8a9690c-7e5f-4cbe-adfc-64142340a696","system_id":"levelo_inurba_marseille","lat":43.31526,"lon":5.38047,"is_reserved":false,"is_disabled":false,"rental_uris":{"android":"levelo://app?vid=d8a9690c-7e5f-4cbe-adfc-64142340a696","ios":"levelo://app?vid=d8a9690c-7e5f-4cbe-adfc-64142340a696"},"vehicle_type_id":"4","last_reported":1746346329,"current_range_meters":22000,"station_id":"ce4bhsp2rcd13ifvqi50","pricing_plan_id":"cebpf4jnsgd1na2vs0mg"},{"bike_id":"4996d1cb-040a-4084-926c-712bf0d577b6","system_id":"levelo_inurba_marseille","lat":43.30745,"lon":5.37681,"is_reserved":false,"is_disabled":false,"rental_uris":{"android":"levelo://app?vid=4996d1cb-040a-4084-926c-712bf0d577b6","ios":"levelo://app?vid=4996d1cb-040a-4084-926c-712bf0d577b6"},"vehicle_type_id":"4","last_reported":1746346329,"current_range_meters":22000,"station_id":"","pricing_plan_id":"cebpf4jnsgd1na2vs0mg"},{"bike_id":"9ca67732-4442-49e8-9578-2f883bee7512","system_id":"levelo_inurba_marseille","lat":43.29095,"lon":5.37202,"is_reserved":false,"is_disabled":true,"rental_uris":{"android":"levelo://app?vid=9ca67732-4442-49e8-9578-2f883bee7512","ios":"levelo://app?vid=9ca67732-4442-49e8-9578-2f883bee7512"},"vehicle_type_id":"4","last_reported":1746346329,"current_range_meters":22000,"station_id":"ce4bh5p2rcd13ifvqe4g","pricing_plan_id":"cebpf4jnsgd1na2vs0mg"},{"bike_id":"b212db87-e197-43f7-9b5a-58b33a4d1cb9","system_id":"levelo_inurba_marseille","lat":43.31997,"lon":5.38143,"is_reserved":false,"is_disabled":true,"rental_uris":{"android":"levelo://app?vid=b212db87-e197-43f7-9b5a-58b33a4d1cb9","ios":"levelo://app?vid=b212db87-e197-43f7-9b5a-58b33a4d1cb9"},"vehicle_type_id":"4","last_reported":1746346329,"current_range_meters":22400,"station_id":"ce4bhr12rcd13ifvqhpg","pricing_plan_id":"cebpf4jnsgd1na2vs0mg"},{"bike_id":"4210a781-9922-4b8c-8449-7424b7d5d740","system_id":"levelo_inurba_marseille","lat":43.25718,"lon":5.41115,"is_reserved":false,"is_disabled":false,"rental_uris":{"android":"levelo://app?vid=4210a781-9922-4b8c-8449-7424b7d5d740","ios":"levelo://app?vid=4210a781-9922-4b8c-8449-7424b7d5d740"},"vehicle_type_id":"4","last_reported":1746346329,"current_range_meters":22400,"station_id":"ce4bhkp2rcd13ifvqgd0","pricing_plan_id":"cebpf4jnsgd1na2vs0mg"},{"bike_id":"b4d2fdc2-5140-4e14-b8a1-27b66fb70047","system_id":"levelo_inurba_marseille","lat":43.23067,"lon":5.35493,"is_reserved":false,"is_disabled":false,"rental_uris":{"android":"levelo://app?vid=b4d2fdc2-5140-4e14-b8a1-27b66fb70047","ios":"levelo://app?vid=b4d2fdc2-5140-4e14-b8a1-27b66fb70047"},"vehicle_type_id":"4","last_reported":1746346329,"current_range_meters":22400,"station_id":"cpo3342slgdg3j2ifvpg","pricing_plan_id":"cebpf4jnsgd1na2vs0mg"},{"bike_id":"6ace0f1a-c51b-49f5-8806-7ffd8c7e5fce","system_id":"levelo_inurba_marseille","lat":43.3169,"lon":5.40455,"is_reserved":false,"is_disabled":false,"rental_uris":{"android":"levelo://app?vid=6ace0f1a-c51b-49f5-8806-7ffd8c7e5fce","ios":"levelo://app?vid=6ace0f1a-c51b-49f5-8806-7ffd8c7e5fce"},"vehicle_type_id":"4","last_reported":1746346329,"current_range_meters":22400,"station_id":"ce4bh012rcd13ifvqd00","pricing_plan_id":"cebpf4jnsgd1na2vs0mg"},{"bike_id":"07e477ea-c00e-448b-ba9f-00905c5a9425","system_id":"levelo_inurba_marseille","lat":43.24389,"lon":5.37058,"is_reserved":false,"is_disabled":false,"rental_uris":{"android":"levelo://app?vid=07e477ea-c00e-448b-ba9f-00905c5a9425","ios":"levelo://app?vid=07e477ea-c00e-448b-ba9f-00905c5a9425"},"vehicle_type_id":"4","last_reported":1746346329,"current_range_meters":22400,"station_id":"ce4bhhh2rcd13ifvqfk0","pricing_plan_id":"cebpf4jnsgd1na2vs0mg"},{"bike_id":"b711a72e-fc28-4ebb-bd96-c55a87c9c4c6","system_id":"levelo_inurba_marseille","lat":43.24074,"lon":5.37764,"is_reserved":false,"is_disabled":false,"rental_uris":{"android":"levelo://app?vid=b711a72e-fc28-4ebb-bd96-c55a87c9c4c6","ios":"levelo://app?vid=b711a72e-fc28-4ebb-bd96-c55a87c9c4c6"},"vehicle_type_id":"4","last_reported":1746346329,"current_range_meters":22400,"station_id":"ce4bhnp2rcd13ifvqgvg","pricing_plan_id":"cebpf4jnsgd1na2vs0mg"},{"bike_id":"711897f0-d593-4c35-a76a-b71189a9ede8","system_id":"levelo_inurba_marseille","lat":43.26207,"lon":5.37433,"is_reserved":false,"is_disabled":false,"rental_uris":{"android":"levelo://app?vid=711897f0-d593-4c35-a76a-b71189a9ede8","ios":"levelo://app?vid=711897f0-d593-4c35-a76a-b71189a9ede8"},"vehicle_type_id":"4","last_reported":1746346329,"current_range_meters":22400,"station_id":"ce4bhgp2rcd13ifvqfc0","pricing_plan_id":"cebpf4jnsgd1na2vs0mg"},{"bike_id":"f233e3ef-1020-444a-8cb6-edee42da14af","system_id":"levelo_inurba_marseille","lat":43.292036,"lon":5.38421,"is_reserved":false,"is_disabled":false,"rental_uris":{"android":"levelo://app?vid=f233e3ef-1020-444a-8cb6-edee42da14af","ios":"levelo://app?vid=f233e3ef-1020-444a-8cb6-edee42da14af"},"vehicle_type_id":"4","last_reported":1746346329,"current_range_meters":22400,"station_id":"","pricing_plan_id":"cebpf4jnsgd1na2vs0mg"},{"bike_id":"2dce38cf-a8d4-49cd-9fcf-ef494d90a125","system_id":"levelo_inurba_marseille","lat":43.271361,"lon":5.363694,"is_reserved":false,"is_disabled":false,"rental_uris":{"android":"levelo://app?vid=2dce38cf-a8d4-49cd-9fcf-ef494d90a125","ios":"levelo://app?vid=2dce38cf-a8d4-49cd-9fcf-ef494d90a125"},"vehicle_type_id":"4","last_reported":1746346329,"current_range_meters":22400,"station_id":"","pricing_plan_id":"cebpf4jnsgd1na2vs0mg"},{"bike_id":"695aaa0a-ef83-4f24-80b9-c420a3a26664","system_id":"levelo_inurba_marseille","lat":43.2417,"lon":5.39717,"is_reserved":false,"is_disabled":false,"rental_uris":{"android":"levelo://app?vid=695aaa0a-ef83-4f24-80b9-c420a3a26664","ios":"levelo://app?vid=695aaa0a-ef83-4f24-80b9-c420a3a26664"},"vehicle_type_id":"4","last_reported":1746346329,"current_range_meters":22800,"station_id":"ce4bhn12rcd13ifvqgpg","pricing_plan_id":"cebpf4jnsgd1na2vs0mg"},{"bike_id":"82ec69a7-2f22-4293-90f8-48ac80482a40","system_id":"levelo_inurba_marseille","lat":43.25119,"lon":5.40322,"is_reserved":false,"is_disabled":false,"rental_uris":{"android":"levelo://app?vid=82ec69a7-2f22-4293-90f8-48ac80482a40","ios":"levelo://app?vid=82ec69a7-2f22-4293-90f8-48ac80482a40"},"vehicle_type_id":"4","last_reported":1746346329,"current_range_meters":22800,"station_id":"ce4bhlh2rcd13ifvqgig","pricing_plan_id":"cebpf4jnsgd1na2vs0mg"},{"bike_id":"e431bc4c-b540-4132-9751-b9ef49cb1cfb","system_id":"levelo_inurba_marseille","lat":43.29612,"lon":5.37721,"is_reserved":false,"is_disabled":false,"rental_uris":{"android":"levelo://app?vid=e431bc4c-b540-4132-9751-b9ef49cb1cfb","ios":"levelo://app?vid=e431bc4c-b540-4132-9751-b9ef49cb1cfb"},"vehicle_type_id":"4","last_reported":1746346329,"current_range_meters":22400,"station_id":"ce4bgi92rcd13ifvqb90","pricing_plan_id":"cebpf4jnsgd1na2vs0mg"},{"bike_id":"06efb46e-17cb-453a-b699-6985748a3e35","system_id":"levelo_inurba_marseille","lat":43.29866,"lon":5.3973,"is_reserved":false,"is_disabled":false,"rental_uris":{"android":"levelo://app?vid=06efb46e-17cb-453a-b699-6985748a3e35","ios":"levelo://app?vid=06efb46e-17cb-453a-b699-6985748a3e35"},"vehicle_type_id":"4","last_reported":1746346329,"current_range_meters":22800,"station_id":"ce4bh0h2rcd13ifvqd50","pricing_plan_id":"cebpf4jnsgd1na2vs0mg"},{"bike_id":"bc3ecd7e-46bf-4a4e-99f1-b0aefbe14811","system_id":"levelo_inurba_marseille","lat":43.28109,"lon":5.37821,"is_reserved":false,"is_disabled":false,"rental_uris":{"android":"levelo://app?vid=bc3ecd7e-46bf-4a4e-99f1-b0aefbe14811","ios":"levelo://app?vid=bc3ecd7e-46bf-4a4e-99f1-b0aefbe14811"},"vehicle_type_id":"4","last_reported":1746346329,"current_range_meters":22800,"station_id":"ce4bha12rcd13ifvqee0","pricing_plan_id":"cebpf4jnsgd1na2vs0mg"},{"bike_id":"d1ec814b-7128-4cb1-a05f-d59b2ec94248","system_id":"levelo_inurba_marseille","lat":43.22657,"lon":5.34805,"is_reserved":false,"is_disabled":false,"rental_uris":{"android":"levelo://app?vid=d1ec814b-7128-4cb1-a05f-d59b2ec94248","ios":"levelo://app?vid=d1ec814b-7128-4cb1-a05f-d59b2ec94248"},"vehicle_type_id":"4","last_reported":1746346329,"current_range_meters":22800,"station_id":"","pricing_plan_id":"cebpf4jnsgd1na2vs0mg"},{"bike_id":"334aa277-6251-4a4c-9736-202df0952759","system_id":"levelo_inurba_marseille","lat":43.27207,"lon":5.39176,"is_reserved":false,"is_disabled":false,"rental_uris":{"android":"levelo://app?vid=334aa277-6251-4a4c-9736-202df0952759","ios":"levelo://app?vid=334aa277-6251-4a4c-9736-202df0952759"},"vehicle_type_id":"4","last_reported":1746346329,"current_range_meters":22800,"station_id":"ce4bhhp2rcd13ifvqfm0","pricing_plan_id":"cebpf4jnsgd1na2vs0mg"},{"bike_id":"cb18f575-9c1e-4e54-ba38-fab988ce4b38","system_id":"levelo_inurba_marseille","lat":43.29261,"lon":5.40896,"is_reserved":false,"is_disabled":false,"rental_uris":{"android":"levelo://app?vid=cb18f575-9c1e-4e54-ba38-fab988ce4b38","ios":"levelo://app?vid=cb18f575-9c1e-4e54-ba38-fab988ce4b38"},"vehicle_type_id":"4","last_reported":1746346329,"current_range_meters":23200,"station_id":"ce4bh192rcd13ifvqdc0","pricing_plan_id":"cebpf4jnsgd1na2vs0mg"},{"bike_id":"55e2365c-b270-4dfe-a830-699a54b79cdb","system_id":"levelo_inurba_marseille","lat":43.255737,"lon":5.42103,"is_reserved":false,"is_disabled":false,"rental_uris":{"android":"levelo://app?vid=55e2365c-b270-4dfe-a830-699a54b79cdb","ios":"levelo://app?vid=55e2365c-b270-4dfe-a830-699a54b79cdb"},"vehicle_type_id":"4","last_reported":1746346329,"current_range_meters":23200,"station_id":"","pricing_plan_id":"cebpf4jnsgd1na2vs0mg"},{"bike_id":"9fc51f19-5971-4453-b750-7d33dc0b671e","system_id":"levelo_inurba_marseille","lat":43.31339,"lon":5.397093,"is_reserved":false,"is_disabled":false,"rental_uris":{"android":"levelo://app?vid=9fc51f19-5971-4453-b750-7d33dc0b671e","ios":"levelo://app?vid=9fc51f19-5971-4453-b750-7d33dc0b671e"},"vehicle_type_id":"4","last_reported":1746346329,"current_range_meters":23200,"station_id":"ce4bgvp2rcd13ifvqcu0","pricing_plan_id":"cebpf4jnsgd1na2vs0mg"},{"bike_id":"3f9fddb3-4d57-4ad0-8fd2-61341dad0fd3","system_id":"levelo_inurba_marseille","lat":43.296033,"lon":5.380857,"is_reserved":false,"is_disabled":true,"rental_uris":{"android":"levelo://app?vid=3f9fddb3-4d57-4ad0-8fd2-61341dad0fd3","ios":"levelo://app?vid=3f9fddb3-4d57-4ad0-8fd2-61341dad0fd3"},"vehicle_type_id":"4","last_reported":1746346329,"current_range_meters":23200,"station_id":"ce4bgl12rcd13ifvqbo0","pricing_plan_id":"cebpf4jnsgd1na2vs0mg"},{"bike_id":"229c9b2b-2ff8-4e3c-b92a-ed364722899c","system_id":"levelo_inurba_marseille","lat":43.29221,"lon":5.36072,"is_reserved":false,"is_disabled":false,"rental_uris":{"android":"levelo://app?vid=229c9b2b-2ff8-4e3c-b92a-ed364722899c","ios":"levelo://app?vid=229c9b2b-2ff8-4e3c-b92a-ed364722899c"},"vehicle_type_id":"4","last_reported":1746346329,"current_range_meters":23200,"station_id":"ce4bhbh2rcd13ifvqeqg","pricing_plan_id":"cebpf4jnsgd1na2vs0mg"},