{"last_updated":1738667282,"ttl":60,"version":"2.2","data":{"bikes":[{"bike_id":"a6accd57-54cf-4d44-87f9-766d1013e2f7","system_id":"levelo_inurba_marseille","lat":43.25993,"lon":5.37562,"is_reserved":false,"is_disabled":false,"rental_uris":{"android":"levelo://app?vid=a6accd57-54cf-4d44-87f9-766d1013e2f7","ios":"levelo://app?vid=a6accd57-54cf-4d44-87f9-766d1013e2f7"},"vehicle_type_id":"4","last_reported":1738667283,"current_range_meters":36800,"station_id":"ce4bhgh2rcd13ifvqfa0","pricing_plan_id":"cebpf4jnsgd1na2vs0mg"},{"bike_id":"49aed3b7-a69e-4cda-bb23-f5c244bb23cd","system_id":"levelo_inurba_marseille","lat":43.29974,"lon":5.37179,"is_reserved":false,"is_disabled":false,"rental_uris":{"android":"levelo://app?vid=49aed3b7-a69e-4cda-bb23-f5c244bb23cd","ios":"levelo://app?vid=49aed3b7-a69e-4cda-bb23-f5c244bb23cd"},"vehicle_type_id":"4","last_reported":1738667283,"current_range_meters":38800,"station_id":"ce4bgr92rcd13ifvqc7g","pricing_plan_id":"cebpf4jnsgd1na2vs0mg"},{"bike_id":"5de6f6e1-3eb6-4936-9461-f12693c42397","system_id":"levelo_inurba_marseille","lat":43.27374,"lon":5.36257,"is_reserved":false,"is_disabled":false,"rental_uris":{"android":"levelo://app?vid=5de6f6e1-3eb6-4936-9461-f12693c42397","ios":"levelo://app?vid=5de6f6e1-3eb6-4936-9461-f12693c42397"},"vehicle_type_id":"4","last_reported":1738667283,"current_range_meters":18000,"station_id":"ce4bhbh2rcd13ifvqeo0","pricing_plan_id":"cebpf4jnsgd1na2vs0mg"},{"bike_id":"41ab9220-c5cd-4360-8e13-84bb0d5ce82a","system_id":"levelo_inurba_marseille","lat":43.30114,"lon":5.39068,"is_reserved":false,"is_disabled":false,"rental_uris":{"android":"levelo://app?vid=41ab9220-c5cd-4360-8e13-84bb0d5ce82a","ios":"levelo://app?vid=41ab9220-c5cd-4360-8e13-84bb0d5ce82a"},"vehicle_type_id":"4","last_reported":1738667283,"current_range_meters":26000,"station_id":"ce4bh192rcd13ifvqdb0","pricing_plan_id":"cebpf4jnsgd1na2vs0mg"},{"bike_id":"5a431644-b628-4701-9097-3025566583f5","system_id":"levelo_inurba_marseille","lat":43.30437,"lon":5.38893,"is_reserved":false,"is_disabled":false,"rental_uris":{"android":"levelo://app?vid=5a431644-b628-4701-9097-3025566583f5","ios":"levelo://app?vid=5a431644-b628-4701-9097-3025566583f5"},"vehicle_type_id":"4","last_reported":1738667283,"current_range_meters":39200,"station_id":"ce4bgk12rcd13ifvqbi0","pricing_plan_id":"cebpf4jnsgd1na2vs0mg"},{"bike_id":"73c82ee0-c5c7-4d8f-bd4c-beb915a97a8c","system_id":"levelo_inurba_marseille","lat":43.29882,"lon":5.38908,"is_reserved":false,"is_disabled":false,"rental_uris":{"android":"levelo://app?vid=73c82ee0-c5c7-4d8f-bd4c-beb915a97a8c","ios":"levelo://app?vid=73c82ee0-c5c7-4d8f-bd4c-beb915a97a8c"},"vehicle_type_id":"4","last_reported":1738667283,"current_range_meters":15200,"station_id":"ce4bh392rcd13ifvqdl0","pricing_plan_id":"cebpf4jnsgd1na2vs0mg"},{"bike_id":"c3d081d5-4d92-46ae-b635-182bf30c7a9e","system_id":"levelo_inurba_marseille","lat":43.30534,"lon":5.36559,"is_reserved":false,"is_disabled":false,"rental_uris":{"android":"levelo://app?vid=c3d081d5-4d92-46ae-b635-182bf30c7a9e","ios":"levelo://app?vid=c3d081d5-4d92-46ae-b635-182bf30c7a9e"},"vehicle_type_id":"4","last_reported":1738667283,"current_range_meters":27200,"station_id":"ce4bgs12rcd13ifvqcag","pricing_plan_id":"cebpf4jnsgd1na2vs0mg"},{"bike_id":"d07674d7-e60e-4159-9a35-f652ed1ac5cd","system_id":"levelo_inurba_marseille","lat":43.29896,"lon":5.38141,"is_reserved":false,"is_disabled":false,"rental_uris":{"android":"levelo://app?vid=d07674d7-e60e-4159-9a35-f652ed1ac5cd","ios":"levelo://app?vid=d07674d7-e60e-4159-9a35-f652ed1ac5cd"},"vehicle_type_id":"4","last_reported":1738667283,"current_range_meters":28400,"station_id":"ce4bgj12rcd13ifvqbc0","pricing_plan_id":"cebpf4jnsgd1na2vs0mg"},{"bike_id":"218cf88c-674f-46a7-9455-3b01fdb97c07","system_id":"levelo_inurba_marseille","lat":43.23146,"lon":5.43724,"is_reserved":false,"is_disabled":false,"rental_uris":{"android":"levelo://app?vid=218cf88c-674f-46a7-9455-3b01fdb97c07","ios":"levelo://app?vid=218cf88c-674f-46a7-9455-3b01fdb97c07"},"vehicle_type_id":"4","last_reported":1738667283,"current_range_meters":2800,"station_id":"ce4bhmp2rcd13ifvqgog","pricing_plan_id":"cebpf4jnsgd1na2vs0mg"},{"bike_id":"4adc5aab-b210-4641-aba5-160a4e23aeb0","system_id":"levelo_inurba_marseille","lat":43.29624,"lon":5.37165,"is_reserved":false,"is_disabled":false,"rental_uris":{"android":"levelo://app?vid=4adc5aab-b210-4641-aba5-160a4e23aeb0","ios":"levelo://app?vid=4adc5aab-b210-4641-aba5-160a4e23aeb0"},"vehicle_type_id":"4","last_reported":1738667283,"current_range_meters":38800,"station_id":"ce4bgnh2rcd13ifvqc0g","pricing_plan_id":"cebpf4jnsgd1na2vs0mg"},{"bike_id":"03e56226-a4a2-447a-b0ef-d77b2ac074e2","system_id":"levelo_inurba_marseille","lat":43.24065,"lon":5.37722,"is_reserved":false,"is_disabled":false,"rental_uris":{"android":"levelo://app?vid=03e56226-a4a2-447a-b0ef-d77b2ac074e2","ios":"levelo://app?vid=03e56226-a4a2-447a-b0ef-d77b2ac074e2"},"vehicle_type_id":"4","last_reported":1738667283,"current_range_meters":27200,"station_id":"ce4bhnp2rcd13ifvqgvg","pricing_plan_id":"cebpf4jnsgd1na2vs0mg"},{"bike_id":"34189982-6632-44fa-a854-62f98624a855","system_id":"levelo_inurba_marseille","lat":43.2927,"lon":5.36852,"is_reserved":false,"is_disabled":false,"rental_uris":{"android":"levelo://app?vid=34189982-6632-44fa-a854-62f98624a855","ios":"levelo://app?vid=34189982-6632-44fa-a854-62f98624a855"},"vehicle_type_id":"4","last_reported":1738667283,"current_range_meters":30000,"station_id":"ce4bhbp2rcd13ifvqesg","pricing_plan_id":"cebpf4jnsgd1na2vs0mg"},{"bike_id":"d2d575a3-a0ab-4f2b-922f-3231c78af68a","system_id":"levelo_inurba_marseille","lat":43.26557,"lon":5.37288,"is_reserved":false,"is_disabled":false,"rental_uris":{"android":"levelo://app?vid=d2d575a3-a0ab-4f2b-922f-3231c78af68a","ios":"levelo://app?vid=d2d575a3-a0ab-4f2b-922f-3231c78af68a"},"vehicle_type_id":"4","last_reported":1738667283,"current_range_meters":17200,"station_id":"ce4bhg12rcd13ifvqf70","pricing_plan_id":"cebpf4jnsgd1na2vs0mg"},{"bike_id":"c83fec32-dcf8-45bb-9c13-a99bd785b12a","system_id":"levelo_inurba_marseille","lat":43.24053,"lon":5.37777,"is_reserved":false,"is_disabled":false,"rental_uris":{"android":"levelo://app?vid=c83fec32-dcf8-45bb-9c13-a99bd785b12a","ios":"levelo://app?vid=c83fec32-dcf8-45bb-9c13-a99bd785b12a"},"vehicle_type_id":"4","last_reported":1738667283,"current_range_meters":14400,"station_id":"ce4bhnp2rcd13ifvqgvg","pricing_plan_id":"cebpf4jnsgd1na2vs0mg"},{"bike_id":"2c120e09-ae8c-4d44-9b87-55fa323434ff","system_id":"levelo_inurba_marseille","lat":43.29621,"lon":5.37164,"is_reserved":false,"is_disabled":false,"rental_uris":{"android":"levelo://app?vid=2c120e09-ae8c-4d44-9b87-55fa323434ff","ios":"levelo://app?vid=2c120e09-ae8c-4d44-9b87-55fa323434ff"},"vehicle_type_id":"4","last_reported":1738667283,"current_range_meters":36800,"station_id":"ce4bgnh2rcd13ifvqc0g","pricing_plan_id":"cebpf4jnsgd1na2vs0mg"},{"bike_id":"81fc2b49-7d41-4bc4-9c6c-fc4ded896c4f","system_id":"levelo_inurba_marseille","lat":43.29941,"lon":5.37466,"is_reserved":false,"is_disabled":true,"rental_uris":{"android":"levelo://app?vid=81fc2b49-7d41-4bc4-9c6c-fc4ded896c4f","ios":"levelo://app?vid=81fc2b49-7d41-4bc4-9c6c-fc4ded896c4f"},"vehicle_type_id":"4","last_reported":1738667283,"current_range_meters":33200,"station_id":"ce4bgjh2rcd13ifvqbg0","pricing_plan_id":"cebpf4jnsgd1na2vs0mg"},{"bike_id":"c835a4f7-cc05-45bd-a5f6-1bed625cc89d","system_id":"levelo_inurba_marseille","lat":43.24072,"lon":5.37752,"is_reserved":false,"is_disabled":false,"rental_uris":{"android":"levelo://app?vid=c835a4f7-cc05-45bd-a5f6-1bed625cc89d","ios":"levelo://app?vid=c835a4f7-cc05-45bd-a5f6-1bed625cc89d"},"vehicle_type_id":"4","last_reported":1738667283,"current_range_meters":38800,"station_id":"ce4bhnp2rcd13ifvqgvg","pricing_plan_id":"cebpf4jnsgd1na2vs0mg"},{"bike_id":"5c8cd8e2-ab3d-4810-93cf-10ea9602273a","system_id":"levelo_inurba_marseille","lat":43.30927,"lon":5.40144,"is_reserved":false,"is_disabled":false,"rental_uris":{"android":"levelo://app?vid=5c8cd8e2-ab3d-4810-93cf-10ea9602273a","ios":"levelo://app?vid=5c8cd8e2-ab3d-4810-93cf-10ea9602273a"},"vehicle_type_id":"4","last_reported":1738667283,"current_range_meters":38000,"station_id":"ce4bgvp2rcd13ifvqct0","pricing_plan_id":"cebpf4jnsgd1na2vs0mg"},{"bike_id":"c5bc887f-937a-4827-8fcd-0e5d0dcc3dcb","system_id":"levelo_inurba_marseille","lat":43.30554,"lon":5.36517,"is_reserved":false,"is_disabled":false,"rental_uris":{"android":"levelo://app?vid=c5bc887f-937a-4827-8fcd-0e5d0dcc3dcb","ios":"levelo://app?vid=c5bc887f-937a-4827-8fcd-0e5d0dcc3dcb"},"vehicle_type_id":"4","last_reported":1738667283,"current_range_meters":34800,"station_id":"ce4bgs12rcd13ifvqcag","pricing_plan_id":"cebpf4jnsgd1na2vs0mg"},{"bike_id":"cbd18551-d678-4764-8cf7-949c364e95d9","system_id":"levelo_inurba_marseille","lat":43.2926,"lon":5.36846,"is_reserved":false,"is_disabled":false,"rental_uris":{"android":"levelo://app?vid=cbd18551-d678-4764-8cf7-949c364e95d9","ios":"levelo://app?vid=cbd18551-d678-4764-8cf7-949c364e95d9"},"vehicle_type_id":"4","last_reported":1738667283,"current_range_meters":8400,"station_id":"ce4bhbp2rcd13ifvqesg","pricing_plan_id":"cebpf4jnsgd1na2vs0mg"},{"bike_id":"b011ebf9-c847-456d-877a-df15c2d17a06","system_id":"levelo_inurba_marseille","lat":43.28071,"lon":5.39641,"is_reserved":false,"is_disabled":false,"rental_uris":{"android":"levelo://app?vid=b011ebf9-c847-456d-877a-df15c2d17a06","ios":"levelo://app?vid=b011ebf9-c847-456d-877a-df15c2d17a06"},"vehicle_type_id":"4","last_reported":1738667283,"current_range_meters":38000,"station_id":"ce4bho12rcd13ifvqh2g","pricing_plan_id":"cebpf4jnsgd1na2vs0mg"},{"bike_id":"886d8bf0-9a49-4c58-90ab-968c37645609","system_id":"levelo_inurba_marseille","lat":43.24646,"lon":5.38892,"is_reserved":false,"is_disabled":false,"rental_uris":{"android":"levelo://app?vid=886d8bf0-9a49-4c58-90ab-968c37645609","ios":"levelo://app?vid=886d8bf0-9a49-4c58-90ab-968c37645609"},"vehicle_type_id":"4","last_reported":1738667283,"current_range_meters":36400,"station_id":"ce4bhg12rcd13ifvqf60","pricing_plan_id":"cebpf4jnsgd1na2vs0mg"},{"bike_id":"820e8ef9-125b-498e-aafa-fafccb5e57f1","system_id":"levelo_inurba_marseille","lat":43.3055,"lon":5.36718,"is_reserved":false,"is_disabled":false,"rental_uris":{"android":"levelo://app?vid=820e8ef9-125b-498e-aafa-fafccb5e57f1","ios":"levelo://app?vid=820e8ef9-125b-498e-aafa-fafccb5e57f1"},"vehicle_type_id":"4","last_reported":1738667283,"current_range_meters":24400,"station_id":"ce4bgrp2rcd13ifvqc9g","pricing_plan_id":"cebpf4jnsgd1na2vs0mg"},{"bike_id":"7e953663-785f-4ca5-b64b-6c0ab0420a03","system_id":"levelo_inurba_marseille","lat":43.27477,"lon":5.42461,"is_reserved":false,"is_disabled":false,"rental_uris":{"android":"levelo://app?vid=7e953663-785f-4ca5-b64b-6c0ab0420a03","ios":"levelo://app?vid=7e953663-785f-4ca5-b64b-6c0ab0420a03"},"vehicle_type_id":"4","last_reported":1738667283,"current_range_meters":30800,"station_id":"","pricing_plan_id":"cebpf4jnsgd1na2vs0mg"},{"bike_id":"c92d27b3-011a-4b9b-85d3-c7a68cdf0054","system_id":"levelo_inurba_marseille","lat":43.324777,"lon":5.365669,"is_reserved":false,"is_disabled":true,"rental_uris":{"android":"levelo://app?vid=c92d27b3-011a-4b9b-85d3-c7a68cdf0054","ios":"levelo://app?vid=c92d27b3-011a-4b9b-85d3-c7a68cdf0054"},"vehicle_type_id":"4","last_reported":1738667283,"current_range_meters":17200,"station_id":"","pricing_plan_id":"cebpf4jnsgd1na2vs0mg"},{"bike_id":"3e574816-3754-460d-8072-f6ebe3757ea0","system_id":"levelo_inurba_marseille","lat":43.32362,"lon":5.36761,"is_reserved":false,"is_disabled":false,"rental_uris":{"android":"levelo://app?vid=3e574816-3754-460d-8072-f6ebe3757ea0","ios":"levelo://app?vid=3e574816-3754-460d-8072-f6ebe3757ea0"},"vehicle_type_id":"4","last_reported":1738667283,"current_range_meters":18000,"station_id":"ce4bhsh2rcd13ifvqi2g","pricing_plan_id":"cebpf4jnsgd1na2vs0mg"},{"bike_id":"c2713548-3811-4ac0-ba42-9180d830f676","system_id":"levelo_inurba_marseille","lat":43.3031,"lon":5.3689,"is_reserved":false,"is_disabled":false,"rental_uris":{"android":"levelo://app?vid=c2713548-3811-4ac0-ba42-9180d830f676","ios":"levelo://app?vid=c2713548-3811-4ac0-ba42-9180d830f676"},"vehicle_type_id":"4","last_reported":1738667283,"current_range_meters":27600,"station_id":"ce4bgqh2rcd13ifvqc5g","pricing_plan_id":"cebpf4jnsgd1na2vs0mg"},{"bike_id":"a1a7079b-68b5-45ca-9af8-b6bc9f7cd559","system_id":"levelo_inurba_marseille","lat":43.22932,"lon":5.35382,"is_reserved":false,"is_disabled":false,"rental_uris":{"android":"levelo://app?vid=a1a7079b-68b5-45ca-9af8-b6bc9f7cd559","ios":"levelo://app?vid=a1a7079b-68b5-45ca-9af8-b6bc9f7cd559"},"vehicle_type_id":"4","last_reported":1738667283,"current_range_meters":38800,"station_id":"cpo3532slgdg3j2ikp40","pricing_plan_id":"cebpf4jnsgd1na2vs0mg"},{"bike_id":"391156ab-23e6-4087-9fff-4d00554806c8","system_id":"levelo_inurba_marseille","lat":43.275666,"lon":5.384092,"is_reserved":false,"is_disabled":false,"rental_uris":{"android":"levelo://app?vid=391156ab-23e6-4087-9fff-4d00554806c8","ios":"levelo://app?vid=391156ab-23e6-4087-9fff-4d00554806c8"},"vehicle_type_id":"4","last_reported":1738667283,"current_range_meters":33200,"station_id":"ce4bhh92rcd13ifvqfi0","pricing_plan_id":"cebpf4jnsgd1na2vs0mg"},{"bike_id":"c5d244f0-0f80-49dd-80ea-357f59117f57","system_id":"levelo_inurba_marseille","lat":43.30454,"lon":5.36919,"is_reserved":false,"is_disabled":false,"rental_uris":{"android":"levelo://app?vid=c5d244f0-0f80-49dd-80ea-357f59117f57","ios":"levelo://app?vid=c5d244f0-0f80-49dd-80ea-357f59117f57"},"vehicle_type_id":"4","last_reported":1738667283,"current_range_meters":23200,"station_id":"","pricing_plan_id":"cebpf4jnsgd1na2vs0mg"},{"bike_id":"b2d6c992-6906-4ac2-819b-9f455d8a950d","system_id":"levelo_inurba_marseille","lat":43.30552,"lon":5.36547,"is_reserved":false,"is_disabled":false,"rental_uris":{"android":"levelo://app?vid=b2d6c992-6906-4ac2-819b-9f455d8a950d","ios":"levelo://app?vid=b2d6c992-6906-4ac2-819b-9f455d8a950d"},"vehicle_type_id":"4","last_reported":1738667283,"current_range_meters":30800,"station_id":"ce4bgs12rcd13ifvqcag","pricing_plan_id":"cebpf4jnsgd1na2vs0mg"},{"bike_id":"7a2d1c7c-697f-41e7-9a56-3b4fb1b139f2","system_id":"levelo_inurba_marseille","lat":43.23149,"lon":5.4373,"is_reserved":false,"is_disabled":false,"rental_uris":{"android":"levelo://app?vid=7a2d1c7c-697f-41e7-9a56-3b4fb1b139f2","ios":"levelo://app?vid=7a2d1c7c-697f-41e7-9a56-3b4fb1b139f2"},"vehicle_type_id":"4","last_reported":1738667283,"current_range_meters":9600,"station_id":"ce4bhmp2rcd13ifvqgog","pricing_plan_id":"cebpf4jnsgd1na2vs0mg"},{"bike_id":"dbf7072a-7876-4e1d-a586-d51c7ff2c81e","system_id":"levelo_inurba_marseille","lat":43.31338,"lon":5.396905,"is_reserved":false,"is_disabled":false,"rental_uris":{"android":"levelo://app?vid=dbf7072a-7876-4e1d-a586-d51c7ff2c81e","ios":"levelo://app?vid=dbf7072a-7876-4e1d-a586-d51c7ff2c81e"},"vehicle_type_id":"4","last_reported":1738667283,"current_range_meters":30400,"station_id":"ce4bgvp2rcd13ifvqcu0","pricing_plan_id":"cebpf4jnsgd1na2vs0mg"},{"bike_id":"8b7cdb48-c19b-44dd-8859-dc2aba3e48ea","system_id":"levelo_inurba_marseille","lat":43.25579,"lon":5.3824,"is_reserved":false,"is_disabled":false,"rental_uris":{"android":"levelo://app?vid=8b7cdb48-c19b-44dd-8859-dc2aba3e48ea","ios":"levelo://app?vid=8b7cdb48-c19b-44dd-8859-dc2aba3e48ea"},"vehicle_type_id":"4","last_reported":1738667283,"current_range_meters":8000,"station_id":"ce4bhih2rcd13ifvqfs0","pricing_plan_id":"cebpf4jnsgd1na2vs0mg"},{"bike_id":"1e80229c-3730-4f6a-ad92-db35f7d75e3d","system_id":"levelo_inurba_marseille","lat":43.2718,"lon":5.40999,"is_reserved":false,"is_disabled":false,"rental_uris":{"android":"levelo://app?vid=1e80229c-3730-4f6a-ad92-db35f7d75e3d","ios":"levelo://app?vid=1e80229c-3730-4f6a-ad92-db35f7d75e3d"},"vehicle_type_id":"4","last_reported":1738667283,"current_range_meters":38000,"station_id":"ce4bhl12rcd13ifvqgf0","pricing_plan_id":"cebpf4jnsgd1na2vs0mg"},{"bike_id":"b2a6436f-4c95-46dd-a3bd-6af91e9591d2","system_id":"levelo_inurba_marseille","lat":43.25573,"lon":5.38241,"is_reserved":false,"is_disabled":false,"rental_uris":{"android":"levelo://app?vid=b2a6436f-4c95-46dd-a3bd-6af91e9591d2","ios":"levelo://app?vid=b2a6436f-4c95-46dd-a3bd-6af91e9591d2"},"vehicle_type_id":"4","last_reported":1738667283,"current_range_meters":19200,"station_id":"ce4bhih2rcd13ifvqfs0","pricing_plan_id":"cebpf4jnsgd1na2vs0mg"},{"bike_id":"1fd40f05-16c1-4c09-ba1c-2551e5950967","system_id":"levelo_inurba_marseille","lat":43.30135,"lon":5.39854,"is_reserved":false,"is_disabled":false,"rental_uris":{"android":"levelo://app?vid=1fd40f05-16c1-4c09-ba1c-2551e5950967","ios":"levelo://app?vid=1fd40f05-16c1-4c09-ba1c-2551e5950967"},"vehicle_type_id":"4","last_reported":1738667283,"current_range_meters":26000,"station_id":"ce4bh0h2rcd13ifvqd40","pricing_plan_id":"cebpf4jnsgd1na2vs0mg"},{"bike_id":"3a9e538c-65c2-479b-b2d6-6e9e8856f5d8","system_id":"levelo_inurba_marseille","lat":43.25934,"lon":5.40899,"is_reserved":false,"is_disabled":false,"rental_uris":{"android":"levelo://app?vid=3a9e538c-65c2-479b-b2d6-6e9e8856f5d8","ios":"levelo://app?vid=3a9e538c-65c2-479b-b2d6-6e9e8856f5d8"},"vehicle_type_id":"4","last_reported":1738667283,"current_range_meters":26000,"station_id":"ce4bhm92rcd13ifvqglg","pricing_plan_id":"cebpf4jnsgd1na2vs0mg"},{"bike_id":"c86e8d31-7f1b-4b47-8104-02a7730632ab","system_id":"levelo_inurba_marseille","lat":43.29901,"lon":5.38148,"is_reserved":false,"is_disabled":false,"rental_uris":{"android":"levelo://app?vid=c86e8d31-7f1b-4b47-8104-02a7730632ab","ios":"levelo://app?vid=c86e8d31-7f1b-4b47-8104-02a7730632ab"},"vehicle_type_id":"4","last_reported":1738667283,"current_range_meters":28400,"station_id":"ce4bgj12rcd13ifvqbc0","pricing_plan_id":"cebpf4jnsgd1na2vs0mg"},{"bike_id":"f49399e3-6204-4840-b71d-d4fdec09f64b","system_id":"levelo_inurba_marseille","lat":43.25933,"lon":5.4095,"is_reserved":false,"is_disabled":false,"rental_uris":{"android":"levelo://app?vid=f49399e3-6204-4840-b71d-d4fdec09f64b","ios":"levelo://app?vid=f49399e3-6204-4840-b71d-d4fdec09f64b"},"vehicle_type_id":"4","last_reported":1738667283,"current_range_meters":28400,"station_id":"ce4bhm92rcd13ifvqglg","pricing_plan_id":"cebpf4jnsgd1na2vs0mg"},{"bike_id":"6a63ff52-6ed1-4940-b0b4-eb2a8bc83e74","system_id":"levelo_inurba_marseille","lat":43.29258,"lon":5.36852,"is_reserved":false,"is_disabled":false,"rental_uris":{"android":"levelo://app?vid=6a63ff52-6ed1-4940-b0b4-eb2a8bc83e74","ios":"levelo://app?vid=6a63ff52-6ed1-4940-b0b4-eb2a8bc83e74"},"vehicle_type_id":"4","last_reported":1738667283,"current_range_meters":26000,"station_id":"ce4bhbp2rcd13ifvqesg","pricing_plan_id":"cebpf4jnsgd1na2vs0mg"},{"bike_id":"bbb28c55-d532-46b2-a436-0efe3e2af418","system_id":"levelo_inurba_marseille","lat":43.31124,"lon":5.37782,"is_reserved":false,"is_disabled":false,"rental_uris":{"android":"levelo://app?vid=bbb28c55-d532-46b2-a436-0efe3e2af418","ios":"levelo://app?vid=bbb28c55-d532-46b2-a436-0efe3e2af418"},"vehicle_type_id":"4","last_reported":1738667283,"current_range_meters":27600,"station_id":"ce4bgt92rcd13ifvqcg0","pricing_plan_id":"cebpf4jnsgd1na2vs0mg"},{"bike_id":"1a794636-1de8-48ff-a1bf-f41557cb147d","system_id":"levelo_inurba_marseille","lat":43.3461,"lon":5.38097,"is_reserved":false,"is_disabled":false,"rental_uris":{"android":"levelo://app?vid=1a794636-1de8-48ff-a1bf-f41557cb147d","ios":"levelo://app?vid=1a794636-1de8-48ff-a1bf-f41557cb147d"},"vehicle_type_id":"4","last_reported":1738667283,"current_range_meters":14000,"station_id":"","pricing_plan_id":"cebpf4jnsgd1na2vs0mg"},{"bike_id":"3c8e5445-cf86-469e-9c11-4a5caaef9b7e","system_id":"levelo_inurba_marseille","lat":43.24652,"lon":5.38876,"is_reserved":false,"is_disabled":false,"rental_uris":{"android":"levelo://app?vid=3c8e5445-cf86-469e-9c11-4a5caaef9b7e","ios":"levelo://app?vid=3c8e5445-cf86-469e-9c11-4a5caaef9b7e"},"vehicle_type_id":"4","last_reported":1738667283,"current_range_meters":38400,"station_id":"ce4bhg12rcd13ifvqf60","pricing_plan_id":"cebpf4jnsgd1na2vs0mg"},{"bike_id":"e7870f81-4e30-4971-9058-3583c84b8e30","system_id":"levelo_inurba_marseille","lat":43.313641,"lon":5.384905,"is_reserved":false,"is_disabled":false,"rental_uris":{"android":"levelo://app?vid=e7870f81-4e30-4971-9058-3583c84b8e30","ios":"levelo://app?vid=e7870f81-4e30-4971-9058-3583c84b8e30"},"vehicle_type_id":"4","last_reported":1738667283,"current_range_meters":28800,"station_id":"ce4bgt92rcd13ifvqcf0","pricing_plan_id":"cebpf4jnsgd1na2vs0mg"},{"bike_id":"a88a3664-bd17-4ac8-923b-0cb2198871c4","system_id":"levelo_inurba_marseille","lat":43.28953,"lon":5.37847,"is_reserved":false,"is_disabled":false,"rental_uris":{"android":"levelo://app?vid=a88a3664-bd17-4ac8-923b-0cb2198871c4","ios":"levelo://app?vid=a88a3664-bd17-4ac8-923b-0cb2198871c4"},"vehicle_type_id":"4","last_reported":1738667283,"current_range_meters":38800,"station_id":"ce4bh9p2rcd13ifvqed0","pricing_plan_id":"cebpf4jnsgd1na2vs0mg"},{"bike_id":"ed6ec31a-7620-4f4e-86ad-56e4a27be307","system_id":"levelo_inurba_marseille","lat":43.3227,"lon":5.38298,"is_reserved":false,"is_disabled":false,"rental_uris":{"android":"levelo://app?vid=ed6ec31a-7620-4f4e-86ad-56e4a27be307","ios":"levelo://app?vid=ed6ec31a-7620-4f4e-86ad-56e4a27be307"},"vehicle_type_id":"4","last_reported":1738667283,"current_range_meters":38000,"station_id":"ce4bhr12rcd13ifvqhqg","pricing_plan_id":"cebpf4jnsgd1na2vs0mg"},{"bike_id":"0580b22c-e37b-43ae-9129-b4938c90022d","system_id":"levelo_inurba_marseille","lat":43.31497,"lon":5.37289,"is_reserved":false,"is_disabled":false,"rental_uris":{"android":"levelo://app?vid=0580b22c-e37b-43ae-9129-b4938c90022d","ios":"levelo://app?vid=0580b22c-e37b-43ae-9129-b4938c90022d"},"vehicle_type_id":"4","last_reported":1738667283,"current_range_meters":29600,"station_id":"ce4bgt12rcd13ifvqcd0","pricing_plan_id":"cebpf4jnsgd1na2vs0mg"},{"bike_id":"30d68ac6-7ba6-4749-8154-bf914e372a6a","system_id":"levelo_inurba_marseille","lat":43.32363,"lon":5.38887,"is_reserved":false,"is_disabled":false,"rental_uris":{"android":"levelo://app?vid=30d68ac6-7ba6-4749-8154-bf914e372a6a","ios":"levelo://app?vid=30d68ac6-7ba6-4749-8154-bf914e372a6a"},"vehicle_type_id":"4","last_reported":1738667283,"current_range_meters":37600,"station_id":"ce4bhqp2rcd13ifvqhog","pricing_plan_id":"cebpf4jnsgd1na2vs0mg"},{"bike_id":"70db77fa-5101-4cc3-b5ef-7ecd27e20697","system_id":"levelo_inurba_marseille","lat":43.23058,"lon":5.35487,"is_reserved":false,"is_disabled":false,"rental_uris":{"android":"levelo://app?vid=70db77fa-5101-4cc3-b5ef-7ecd27e20697","ios":"levelo://app?vid=70db77fa-5101-4cc3-b5ef-7ecd27e20697"},"vehicle_type_id":"4","last_reported":1738667283,"current_range_meters":24400,"station_id":"cpo3342slgdg3j2ifvpg","pricing_plan_id":"cebpf4jnsgd1na2vs0mg"},{"bike_id":"4532ce7e-45d0-4351-b1e9-caede4d6334c","system_id":"levelo_inurba_marseille","lat":43.29623,"lon":5.37745,"is_reserved":false,"is_disabled":false,"rental_uris":{"android":"levelo://app?vid=4532ce7e-45d0-4351-b1e9-caede4d6334c","ios":"levelo://app?vid=4532ce7e-45d0-4351-b1e9-caede4d6334c"},"vehicle_type_id":"4","last_reported":1738667283,"current_range_meters":4400,"station_id":"ce4bgi92rcd13ifvqb90","pricing_plan_id":"cebpf4jnsgd1na2vs0mg"},{"bike_id":"e33c097b-83d0-40ec-9fbf-364e5b0a9ef8","system_id":"levelo_inurba_marseille","lat":43.232,"lon":5.35555,"is_reserved":false,"is_disabled":false,"rental_uris":{"android":"levelo://app?vid=e33c097b-83d0-40ec-9fbf-364e5b0a9ef8","ios":"levelo://app?vid=e33c097b-83d0-40ec-9fbf-364e5b0a9ef8"},"vehicle_type_id":"4","last_reported":1738667283,"current_range_meters":39200,"station_id":"ce4bhu92rcd13ifvqi70","pricing_plan_id":"cebpf4jnsgd1na2vs0mg"},{"bike_id":"15a26f1c-8db6-4e23-b349-ee383d713225","system_id":"levelo_inurba_marseille","lat":43.2904,"lon":5.40005,"is_reserved":false,"is_disabled":true,"rental_uris":{"android":"levelo://app?vid=15a26f1c-8db6-4e23-b349-ee383d713225","ios":"levelo://app?vid=15a26f1c-8db6-4e23-b349-ee383d713225"},"vehicle_type_id":"4","last_reported":1738667283,"current_range_meters":22400,"station_id":"ce4bh392rcd13ifvqdm0","pricing_plan_id":"cebpf4jnsgd1na2vs0mg"},{"bike_id":"7f76e6d1-71a0-4bdd-9266-1917aedc655a","system_id":"levelo_inurba_marseille","lat":43.3016,"lon":5.38087,"is_reserved":false,"is_disabled":false,"rental_uris":{"android":"levelo://app?vid=7f76e6d1-71a0-4bdd-9266-1917aedc655a","ios":"levelo://app?vid=7f76e6d1-71a0-4bdd-9266-1917aedc655a"},"vehicle_type_id":"4","last_reported":1738667283,"current_range_meters":15200,"station_id":"ce4bgjp2rcd13ifvqbh0","pricing_plan_id":"cebpf4jnsgd1na2vs0mg"},{"bike_id":"dc7053bf-404a-4185-a924-64707a11b476","system_id":"levelo_inurba_marseille","lat":43.3029,"lon":5.37689,"is_reserved":false,"is_disabled":false,"rental_uris":{"android":"levelo://app?vid=dc7053bf-404a-4185-a924-64707a11b476","ios":"levelo://app?vid=dc7053bf-404a-4185-a924-64707a11b476"},"vehicle_type_id":"4","last_reported":1738667283,"current_range_meters":27600,"station_id":"ce4bguh2rcd13ifvqcj0","pricing_plan_id":"cebpf4jnsgd1na2vs0mg"},{"bike_id":"8c6b7a51-ddd8-424b-ae4e-3239e83554e1","system_id":"levelo_inurba_marseille","lat":43.304577,"lon":5.37902,"is_reserved":false,"is_disabled":false,"rental_uris":{"android":"levelo://app?vid=8c6b7a51-ddd8-424b-ae4e-3239e83554e1","ios":"levelo://app?vid=8c6b7a51-ddd8-424b-ae4e-3239e83554e1"},"vehicle_type_id":"4","last_reported":1738667283,"current_range_meters":27200,"station_id":"ce4bgup2rcd13ifvqcn0","pricing_plan_id":"cebpf4jnsgd1na2vs0mg"},{"bike_id":"0e775c38-7145-4e54-8c6f-1ded1dd2ad0f","system_id":"levelo_inurba_marseille","lat":43.26183,"lon":5.3744,"is_reserved":false,"is_disabled":false,"rental_uris":{"android":"levelo://app?vid=0e775c38-7145-4e54-8c6f-1ded1dd2ad0f","ios":"levelo://app?vid=0e775c38-7145-4e54-8c6f-1ded1dd2ad0f"},"vehicle_type_id":"4","last_reported":1738667283,"current_range_meters":28400,"station_id":"","pricing_plan_id":"cebpf4jnsgd1na2vs0mg"},{"bike_id":"89e0fb27-5f26-4cfe-9f61-e8651117733f","system_id":"levelo_inurba_marseille","lat":43.22926,"lon":5.35371,"is_reserved":false,"is_disabled":false,"rental_uris":{"android":"levelo://app?vid=89e0fb27-5f26-4cfe-9f61-e8651117733f","ios":"levelo://app?vid=89e0fb27-5f26-4cfe-9f61-e8651117733f"},"vehicle_type_id":"4","last_reported":1738667283,"current_range_meters":37600,"station_id":"cpo3532slgdg3j2ikp40","pricing_plan_id":"cebpf4jnsgd1na2vs0mg"},{"bike_id":"c99192c5-d228-4fa6-b582-8ef5a907c121","system_id":"levelo_inurba_marseille","lat":43.289495,"lon":5.378393,"is_reserved":false,"is_disabled":false,"rental_uris":{"android":"levelo://app?vid=c99192c5-d228-4fa6-b582-8ef5a907c121","ios":"levelo://app?vid=c99192c5-d228-4fa6-b582-8ef5a907c121"},"vehicle_type_id":"4","last_reported":1738667283,"current_range_meters":38800,"station_id":"ce4bh9p2rcd13ifvqed0","pricing_plan_id":"cebpf4jnsgd1na2vs0mg"},{"bike_id":"cfdf0950-ea3c-4b92-804b-57a6b13d3e7a","system_id":"levelo_inurba_marseille","lat":43.27487,"lon":5.42442,"is_reserved":false,"is_disabled":false,"rental_uris":{"android":"levelo://app?vid=cfdf0950-ea3c-4b92-804b-57a6b13d3e7a","ios":"levelo://app?vid=cfdf0950-ea3c-4b92-804b-57a6b13d3e7a"},"vehicle_type_id":"4","last_reported":1738667283,"current_range_meters":33600,"station_id":"ce4bhn92rcd13ifvqgrg","pricing_plan_id":"cebpf4jnsgd1na2vs0mg"},{"bike_id":"c548f53c-8626-4aa7-a88e-8260a0782630","system_id":"levelo_inurba_marseille","lat":43.2592,"lon":5.40861,"is_reserved":false,"is_disabled":false,"rental_uris":{"android":"levelo://app?vid=c548f53c-8626-4aa7-a88e-8260a0782630","ios":"levelo://app?vid=c548f53c-8626-4aa7-a88e-8260a0782630"},"vehicle_type_id":"4","last_reported":1738667283,"current_range_meters":4000,"station_id":"ce4bhm92rcd13ifvqglg","pricing_plan_id":"cebpf4jnsgd1na2vs0mg"},{"bike_id":"937e2379-ae23-49c0-b84b-a0ddcf142a84","system_id":"levelo_inurba_marseille","lat":43.30102,"lon":5.3908,"is_reserved":false,"is_disabled":false,"rental_uris":{"android":"levelo://app?vid=937e2379-ae23-49c0-b84b-a0ddcf142a84","ios":"levelo://app?vid=937e2379-ae23-49c0-b84b-a0ddcf142a84"},"vehicle_type_id":"4","last_reported":1738667283,"current_range_meters":28000,"station_id":"ce4bh192rcd13ifvqdb0","pricing_plan_id":"cebpf4jnsgd1na2vs0mg"},{"bike_id":"73ce5867-64af-413e-8de7-68ce3423aed3","system_id":"levelo_inurba_marseille","lat":43.24076,"lon":5.37755,"is_reserved":false,"is_disabled":false,"rental_uris":{"android":"levelo://app?vid=73ce5867-64af-413e-8de7-68ce3423aed3","ios":"levelo://app?vid=73ce5867-64af-413e-8de7-68ce3423aed3"},"vehicle_type_id":"4","last_reported":1738667283,"current_range_meters":25200,"station_id":"ce4bhnp2rcd13ifvqgvg","pricing_plan_id":"cebpf4jnsgd1na2vs0mg"},{"bike_id":"c9f0cee5-6578-4876-a83f-114f35fc1feb","system_id":"levelo_inurba_marseille","lat":43.24171,"lon":5.36391,"is_reserved":false,"is_disabled":false,"rental_uris":{"android":"levelo://app?vid=c9f0cee5-6578-4876-a83f-114f35fc1feb","ios":"levelo://app?vid=c9f0cee5-6578-4876-a83f-114f35fc1feb"},"vehicle_type_id":"4","last_reported":1738667283,"current_range_meters":36800,"station_id":"cpo36qri1sfpv3e86is0","pricing_plan_id":"cebpf4jnsgd1na2vs0mg"},{"bike_id":"61fb1657-1c82-4c6e-95f9-6cf0d8834dd4","system_id":"levelo_inurba_marseille","lat":43.29908,"lon":5.38144,"is_reserved":false,"is_disabled":false,"rental_uris":{"android":"levelo://app?vid=61fb1657-1c82-4c6e-95f9-6cf0d8834dd4","ios":"levelo://app?vid=61fb1657-1c82-4c6e-95f9-6cf0d8834dd4"},"vehicle_type_id":"4","last_reported":1738667283,"current_range_meters":32400,"station_id":"ce4bgj12rcd13ifvqbc0","pricing_plan_id":"cebpf4jnsgd1na2vs0mg"},{"bike_id":"1f9e5db3-5586-45dc-927b-4dbd227c3d33","system_id":"levelo_inurba_marseille","lat":43.31074,"lon":5.38372,"is_reserved":false,"is_disabled":false,"rental_uris":{"android":"levelo://app?vid=1f9e5db3-5586-45dc-927b-4dbd227c3d33","ios":"levelo://app?vid=1f9e5db3-5586-45dc-927b-4dbd227c3d33"},"vehicle_type_id":"4","last_reported":1738667283,"current_range_meters":38800,"station_id":"ce4bgv92rcd13ifvqcr0","pricing_plan_id":"cebpf4jnsgd1na2vs0mg"},{"bike_id":"9a246337-8b93-40ac-8041-a37c41945aaf","system_id":"levelo_inurba_marseille","lat":43.26919,"lon":5.4026,"is_reserved":false,"is_disabled":false,"rental_uris":{"android":"levelo://app?vid=9a246337-8b93-40ac-8041-a37c41945aaf","ios":"levelo://app?vid=9a246337-8b93-40ac-8041-a37c41945aaf"},"vehicle_type_id":"4","last_reported":1738667283,"current_range_meters":8800,"station_id":"cjm6bp8fraef2m0cb0m0","pricing_plan_id":"cebpf4jnsgd1na2vs0mg"},{"bike_id":"3bee43d5-e27e-4692-8630-5bfa4bfc3f39","system_id":"levelo_inurba_marseille","lat":43.32298,"lon":5.38281,"is_reserved":false,"is_disabled":false,"rental_uris":{"android":"levelo://app?vid=3bee43d5-e27e-4692-8630-5bfa4bfc3f39","ios":"levelo://app?vid=3bee43d5-e27e-4692-8630-5bfa4bfc3f39"},"vehicle_type_id":"4","last_reported":1738667283,"current_range_meters":25200,"station_id":"ce4bhr12rcd13ifvqhqg","pricing_plan_id":"cebpf4jnsgd1na2vs0mg"},{"bike_id":"278902b4-7b50-4f46-8ac1-6d0f29cc8638","system_id":"levelo_inurba_marseille","lat":43.24384,"lon":5.37045,"is_reserved":false,"is_disabled":false,"rental_uris":{"android":"levelo://app?vid=278902b4-7b50-4f46-8ac1-6d0f29cc8638","ios":"levelo://app?vid=278902b4-7b50-4f46-8ac1-6d0f29cc8638"},"vehicle_type_id":"4","last_reported":1738667283,"current_range_meters":37600,"station_id":"ce4bhhh2rcd13ifvqfk0","pricing_plan_id":"cebpf4jnsgd1na2vs0mg"},{"bike_id":"892d3765-5c4a-4b7c-80bb-37a8d91fb9fc","system_id":"levelo_inurba_marseille","lat":43.27314,"lon":5.39094,"is_reserved":false,"is_disabled":false,"rental_uris":{"android":"levelo://app?vid=892d3765-5c4a-4b7c-80bb-37a8d91fb9fc","ios":"levelo://app?vid=892d3765-5c4a-4b7c-80bb-37a8d91fb9fc"},"vehicle_type_id":"4","last_reported":1738667283,"current_range_meters":9200,"station_id":"ce4bhgp2rcd13ifvqfe0","pricing_plan_id":"cebpf4jnsgd1na2vs0mg"},{"bike_id":"3ab0ceb6-cd89-477f-8038-1be761eb4bda","system_id":"levelo_inurba_marseille","lat":43.29219,"lon":5.36056,"is_reserved":false,"is_disabled":false,"rental_uris":{"android":"levelo://app?vid=3ab0ceb6-cd89-477f-8038-1be761eb4bda","ios":"levelo://app?vid=3ab0ceb6-cd89-477f-8038-1be761eb4bda"},"vehicle_type_id":"4","last_reported":1738667283,"current_range_meters":14000,"station_id":"ce4bhbh2rcd13ifvqeqg","pricing_plan_id":"cebpf4jnsgd1na2vs0mg"},{"bike_id":"f876c5f4-d351-4f17-9695-ad6fce8ba38c","system_id":"levelo_inurba_marseille","lat":43.24077,"lon":5.37766,"is_reserved":false,"is_disabled":false,"rental_uris":{"android":"levelo://app?vid=f876c5f4-d351-4f17-9695-ad6fce8ba38c","ios":"levelo://app?vid=f876c5f4-d351-4f17-9695-ad6fce8ba38c"},"vehicle_type_id":"4","last_reported":1738667283,"current_range_meters":25600,"station_id":"ce4bhnp2rcd13ifvqgvg","pricing_plan_id":"cebpf4jnsgd1na2vs0mg"},{"bike_id":"e40f9edb-09d6-4f03-aa3e-db6a097a5060","system_id":"levelo_inurba_marseille","lat":43.23056,"lon":5.35491,"is_reserved":false,"is_disabled":false,"rental_uris":{"android":"levelo://app?vid=e40f9edb-09d6-4f03-aa3e-db6a097a5060","ios":"levelo://app?vid=e40f9edb-09d6-4f03-aa3e-db6a097a5060"},"vehicle_type_id":"4","last_reported":1738667283,"current_range_meters":26000,"station_id":"cpo3342slgdg3j2ifvpg","pricing_plan_id":"cebpf4jnsgd1na2vs0mg"},{"bike_id":"a7707bf1-29c6-4f48-976f-2880303742fc","system_id":"levelo_inurba_marseille","lat":43.29485,"lon":5.39006,"is_reserved":false,"is_disabled":true,"rental_uris":{"android":"levelo://app?vid=a7707bf1-29c6-4f48-976f-2880303742fc","ios":"levelo://app?vid=a7707bf1-29c6-4f48-976f-2880303742fc"},"vehicle_type_id":"4","last_reported":1738667283,"current_range_meters":14400,"station_id":"ce4bh3p2rcd13ifvqdp0","pricing_plan_id":"cebpf4jnsgd1na2vs0mg"},{"bike_id":"87b6bc82-efdc-4821-adfd-7e797dfdd749","system_id":"levelo_inurba_marseille","lat":43.29215,"lon":5.36066,"is_reserved":false,"is_disabled":false,"rental_uris":{"android":"levelo://app?vid=87b6bc82-efdc-4821-adfd-7e797dfdd749","ios":"levelo://app?vid=87b6bc82-efdc-4821-adfd-7e797dfdd749"},"vehicle_type_id":"4","last_reported":1738667283,"current_range_meters":33600,"station_id":"ce4bhbh2rcd13ifvqeqg","pricing_plan_id":"cebpf4jnsgd1na2vs0mg"},{"bike_id":"af21b367-4269-4594-b228-5a4aa2d7c730","system_id":"levelo_inurba_marseille","lat":43.2656,"lon":5.37281,"is_reserved":false,"is_disabled":false,"rental_uris":{"android":"levelo://app?vid=af21b367-4269-4594-b228-5a4aa2d7c730","ios":"levelo://app?vid=af21b367-4269-4594-b228-5a4aa2d7c730"},"vehicle_type_id":"4","last_reported":1738667283,"current_range_meters":38800,"station_id":"ce4bhg12rcd13ifvqf70","pricing_plan_id":"cebpf4jnsgd1na2vs0mg"},{"bike_id":"8af0b331-8042-4fb4-ad0c-c579fbbb63b7","system_id":"levelo_inurba_marseille","lat":43.33624,"lon":5.40976,"is_reserved":false,"is_disabled":false,"rental_uris":{"android":"levelo://app?vid=8af0b331-8042-4fb4-ad0c-c579fbbb63b7","ios":"levelo://app?vid=8af0b331-8042-4fb4-ad0c-c579fbbb63b7"},"vehicle_type_id":"4","last_reported":1738667283,"current_range_meters":38800,"station_id":"ce4bhqh2rcd13ifvqhmg","pricing_plan_id":"cebpf4jnsgd1na2vs0mg"},{"bike_id":"a91cdf06-8aaf-4398-8173-3fb2561d3057","system_id":"levelo_inurba_marseille","lat":43.25583,"lon":5.38221,"is_reserved":false,"is_disabled":false,"rental_uris":{"android":"levelo://app?vid=a91cdf06-8aaf-4398-8173-3fb2561d3057","ios":"levelo://app?vid=a91cdf06-8aaf-4398-8173-3fb2561d3057"},"vehicle_type_id":"4","last_reported":1738667283,"current_range_meters":35200,"station_id":"ce4bhih2rcd13ifvqfs0","pricing_plan_id":"cebpf4jnsgd1na2vs0mg"},{"bike_id":"f798d37b-0122-40f9-a9f6-7583d74adaab","system_id":"levelo_inurba_marseille","lat":43.26556,"lon":5.37284,"is_reserved":false,"is_disabled":false,"rental_uris":{"android":"levelo://app?vid=f798d37b-0122-40f9-a9f6-7583d74adaab","ios":"levelo://app?vid=f798d37b-0122-40f9-a9f6-7583d74adaab"},"vehicle_type_id":"4","last_reported":1738667283,"current_range_meters":27600,"station_id":"ce4bhg12rcd13ifvqf70","pricing_plan_id":"cebpf4jnsgd1na2vs0mg"},{"bike_id":"f99c2d6a-f6bd-43c9-9b5e-96aec13e4155","system_id":"levelo_inurba_marseille","lat":43.31351,"lon":5.36654,"is_reserved":false,"is_disabled":false,"rental_uris":{"android":"levelo://app?vid=f99c2d6a-f6bd-43c9-9b5e-96aec13e4155","ios":"levelo://app?vid=f99c2d6a-f6bd-43c9-9b5e-96aec13e4155"},"vehicle_type_id":"4","last_reported":1738667283,"current_range_meters":38800,"station_id":"ce4bgr92rcd13ifvqc6g","pricing_plan_id":"cebpf4jnsgd1na2vs0mg"},{"bike_id":"d732545f-c3e1-462d-ad3c-bff54d6ecd94","system_id":"levelo_inurba_marseille","lat":43.30152,"lon":5.38076,"is_reserved":false,"is_disabled":false,"rental_uris":{"android":"levelo://app?vid=d732545f-c3e1-462d-ad3c-bff54d6ecd94","ios":"levelo://app?vid=d732545f-c3e1-462d-ad3c-bff54d6ecd94"},"vehicle_type_id":"4","last_reported":1738667283,"current_range_meters":27600,"station_id":"ce4bgjp2rcd13ifvqbh0","pricing_plan_id":"cebpf4jnsgd1na2vs0mg"},{"bike_id":"6d2d1c50-a3ea-4c3a-a277-96f47403f17f","system_id":"levelo_inurba_marseille","lat":43.2584,"lon":5.39418,"is_reserved":false,"is_disabled":false,"rental_uris":{"android":"levelo://app?vid=6d2d1c50-a3ea-4c3a-a277-96f47403f17f","ios":"levelo://app?vid=6d2d1c50-a3ea-4c3a-a277-96f47403f17f"},"vehicle_type_id":"4","last_reported":1738667283,"current_range_meters":38000,"station_id":"ce4bhip2rcd13ifvqft0","pricing_plan_id":"cebpf4jnsgd1na2vs0mg"},{"bike_id":"be6740c1-29d2-46e2-a59b-444aba44351b","system_id":"levelo_inurba_marseille","lat":43.29875,"lon":5.39726,"is_reserved":false,"is_disabled":false,"rental_uris":{"android":"levelo://app?vid=be6740c1-29d2-46e2-a59b-444aba44351b","ios":"levelo://app?vid=be6740c1-29d2-46e2-a59b-444aba44351b"},"vehicle_type_id":"4","last_reported":1738667283,"current_range_meters":38800,"station_id":"ce4bh0h2rcd13ifvqd50","pricing_plan_id":"cebpf4jnsgd1na2vs0mg"},{"bike_id":"f7834a82-53cc-4861-ac94-89c1c72000c0","system_id":"levelo_inurba_marseille","lat":43.23963,"lon":5.36617,"is_reserved":false,"is_disabled":false,"rental_uris":{"android":"levelo://app?vid=f7834a82-53cc-4861-ac94-89c1c72000c0","ios":"levelo://app?vid=f7834a82-53cc-4861-ac94-89c1c72000c0"},"vehicle_type_id":"4","last_reported":1738667283,"current_range_meters":16800,"station_id":"ce4bhi12rcd13ifvqfp0","pricing_plan_id":"cebpf4jnsgd1na2vs0mg"},{"bike_id":"d956c0fa-8e81-4a5c-a819-66560ebeacd2","system_id":"levelo_inurba_marseille","lat":43.28157,"lon":5.42642,"is_reserved":false,"is_disabled":false,"rental_uris":{"android":"levelo://app?vid=d956c0fa-8e81-4a5c-a819-66560ebeacd2","ios":"levelo://app?vid=d956c0fa-8e81-4a5c-a819-66560ebeacd2"},"vehicle_type_id":"4","last_reported":1738667283,"current_range_meters":7200,"station_id":"ce4bhnh2rcd13ifvqgug","pricing_plan_id":"cebpf4jnsgd1na2vs0mg"},{"bike_id":"006fa12b-2a3e-4d9d-bfe9-21843846c60b","system_id":"levelo_inurba_marseille","lat":43.25113,"lon":5.40321,"is_reserved":false,"is_disabled":false,"rental_uris":{"android":"levelo://app?vid=006fa12b-2a3e-4d9d-bfe9-21843846c60b","ios":"levelo://app?vid=006fa12b-2a3e-4d9d-bfe9-21843846c60b"},"vehicle_type_id":"4","last_reported":1738667283,"current_range_meters":34800,"station_id":"ce4bhlh2rcd13ifvqgig","pricing_plan_id":"cebpf4jnsgd1na2vs0mg"},{"bike_id":"e270e9c9-c637-4eec-85ca-20047cef130b","system_id":"levelo_inurba_marseille","lat":43.23169,"lon":5.43724,"is_reserved":false,"is_disabled":true,"rental_uris":{"android":"levelo://app?vid=e270e9c9-c637-4eec-85ca-20047cef130b","ios":"levelo://app?vid=e270e9c9-c637-4eec-85ca-20047cef130b"},"vehicle_type_id":"4","last_reported":1738667283,"current_range_meters":800,"station_id":"ce4bhmp2rcd13ifvqgog","pricing_plan_id":"cebpf4jnsgd1na2vs0mg"},{"bike_id":"dfe4a7c7-0508-43ad-a0c0-ea841f1a5151","system_id":"levelo_inurba_marseille","lat":43.31287,"lon":5.36857,"is_reserved":false,"is_disabled":false,"rental_uris":{"android":"levelo://app?vid=dfe4a7c7-0508-43ad-a0c0-ea841f1a5151","ios":"levelo://app?vid=dfe4a7c7-0508-43ad-a0c0-ea841f1a5151"},"vehicle_type_id":"4","last_reported":1738667283,"current_range_meters":34800,"station_id":"","pricing_plan_id":"cebpf4jnsgd1na2vs0mg"},{"bike_id":"2596d18e-5a51-415d-81d9-dda15ef753ca","system_id":"levelo_inurba_marseille","lat":43.29644,"lon":5.37172,"is_reserved":false,"is_disabled":false,"rental_uris":{"android":"levelo://app?vid=2596d18e-5a51-415d-81d9-dda15ef753ca","ios":"levelo://app?vid=2596d18e-5a51-415d-81d9-dda15ef753ca"},"vehicle_type_id":"4","last_reported":1738667283,"current_range_meters":38800,"station_id":"ce4bgnh2rcd13ifvqc0g","pricing_plan_id":"cebpf4jnsgd1na2vs0mg"},{"bike_id":"0779427b-9373-4e00-a6df-90da704710dd","system_id":"levelo_inurba_marseille","lat":43.29305,"lon":5.37174,"is_reserved":false,"is_disabled":false,"rental_uris":{"android":"levelo://app?vid=0779427b-9373-4e00-a6df-90da704710dd","ios":"levelo://app?vid=0779427b-9373-4e00-a6df-90da704710dd"},"vehicle_type_id":"4","last_reported":1738667283,"current_range_meters":38800,"station_id":"ce4bgh92rcd13ifvqb40","pricing_plan_id":"cebpf4jnsgd1na2vs0mg"},{"bike_id":"b54a5bfd-0dcd-49a6-a5f7-a7d7b939b07e","system_id":"levelo_inurba_marseille","lat":43.266822,"lon":5.382685,"is_reserved":false,"is_disabled":false,"rental_uris":{"android":"levelo://app?vid=b54a5bfd-0dcd-49a6-a5f7-a7d7b939b07e","ios":"levelo://app?vid=b54a5bfd-0dcd-49a6-a5f7-a7d7b939b07e"},"vehicle_type_id":"4","last_reported":1738667283,"current_range_meters":32800,"station_id":"ce4bhhp2rcd13ifvqfm0","pricing_plan_id":"cebpf4jnsgd1na2vs0mg"},{"bike_id":"005249ad-a5ba-4e73-997c-32d7121f7635","system_id":"levelo_inurba_marseille","lat":43.279089,"lon":5.395784,"is_reserved":false,"is_disabled":false,"rental_uris":{"android":"levelo://app?vid=005249ad-a5ba-4e73-997c-32d7121f7635","ios":"levelo://app?vid=005249ad-a5ba-4e73-997c-32d7121f7635"},"vehicle_type_id":"4","last_reported":1738667283,"current_range_meters":30000,"station_id":"ce4bhf92rcd13ifvqf40","pricing_plan_id":"cebpf4jnsgd1na2vs0mg"},{"bike_id":"284984b1-0b04-4286-8de9-da966b43349a","system_id":"levelo_inurba_marseille","lat":43.24679,"lon":5.38162,"is_reserved":false,"is_disabled":false,"rental_uris":{"android":"levelo://app?vid=284984b1-0b04-4286-8de9-da966b43349a","ios":"levelo://app?vid=284984b1-0b04-4286-8de9-da966b43349a"},"vehicle_type_id":"4","last_reported":1738667283,"current_range_meters":33200,"station_id":"ce4bhih2rcd13ifvqfr0","pricing_plan_id":"cebpf4jnsgd1na2vs0mg"},{"bike_id":"c1ac1f60-a8dc-4824-a6ad-b9fcfc0f1194","system_id":"levelo_inurba_marseille","lat":43.29574,"lon":5.37506,"is_reserved":false,"is_disabled":false,"rental_uris":{"android":"levelo://app?vid=c1ac1f60-a8dc-4824-a6ad-b9fcfc0f1194","ios":"levelo://app?vid=c1ac1f60-a8dc-4824-a6ad-b9fcfc0f1194"},"vehicle_type_id":"4","last_reported":1738667283,"current_range_meters":34800,"station_id":"ce4bgkp2rcd13ifvqbmg","pricing_plan_id":"cebpf4jnsgd1na2vs0mg"},{"bike_id":"88f6ec14-1047-428a-bfc8-ed7564b679d3","system_id":"levelo_inurba_marseille","lat":43.24394,"lon":5.37065,"is_reserved":false,"is_disabled":false,"rental_uris":{"android":"levelo://app?vid=88f6ec14-1047-428a-bfc8-ed7564b679d3","ios":"levelo://app?vid=88f6ec14-1047-428a-bfc8-ed7564b679d3"},"vehicle_type_id":"4","last_reported":1738667283,"current_range_meters":38800,"station_id":"ce4bhhh2rcd13ifvqfk0","pricing_plan_id":"cebpf4jnsgd1na2vs0mg"},{"bike_id":"08c7b2dc-6f10-4fcb-92d7-f4662a1f51b9","system_id":"levelo_inurba_marseille","lat":43.29905,"lon":5.38175,"is_reserved":false,"is_disabled":false,"rental_uris":{"android":"levelo://app?vid=08c7b2dc-6f10-4fcb-92d7-f4662a1f51b9","ios":"levelo://app?vid=08c7b2dc-6f10-4fcb-92d7-f4662a1f51b9"},"vehicle_type_id":"4","last_reported":1738667283,"current_range_meters":35600,"station_id":"ce4bgj12rcd13ifvqbc0","pricing_plan_id":"cebpf4jnsgd1na2vs0mg"},{"bike_id":"352d595e-1fe6-4582-beb8-01e7d677d0ed","system_id":"levelo_inurba_marseille","lat":43.23958,"lon":5.36626,"is_reserved":false,"is_disabled":false,"rental_uris":{"android":"levelo://app?vid=352d595e-1fe6-4582-beb8-01e7d677d0ed","ios":"levelo://app?vid=352d595e-1fe6-4582-beb8-01e7d677d0ed"},"vehicle_type_id":"4","last_reported":1738667283,"current_range_meters":3600,"station_id":"ce4bhi12rcd13ifvqfp0","pricing_plan_id":"cebpf4jnsgd1na2vs0mg"},{"bike_id":"d236b23f-174d-4fff-af81-c971b0017636","system_id":"levelo_inurba_marseille","lat":43.28563,"lon":5.39496,"is_reserved":false,"is_disabled":false,"rental_uris":{"android":"levelo://app?vid=d236b23f-174d-4fff-af81-c971b0017636","ios":"levelo://app?vid=d236b23f-174d-4fff-af81-c971b0017636"},"vehicle_type_id":"4","last_reported":1738667283,"current_range_meters":27600,"station_id":"ce4bh292rcd13ifvqdg0","pricing_plan_id":"cebpf4jnsgd1na2vs0mg"},{"bike_id":"40040c8e-2685-4c87-9802-c71ca769ff08","system_id":"levelo_inurba_marseille","lat":43.31371,"lon":5.36707,"is_reserved":false,"is_disabled":false,"rental_uris":{"android":"levelo://app?vid=40040c8e-2685-4c87-9802-c71ca769ff08","ios":"levelo://app?vid=40040c8e-2685-4c87-9802-c71ca769ff08"},"vehicle_type_id":"4","last_reported":1738667283,"current_range_meters":24000,"station_id":"ce4bgr92rcd13ifvqc6g","pricing_plan_id":"cebpf4jnsgd1na2vs0mg"},{"bike_id":"03215b30-aa65-4b10-b451-ed50967ec88e","system_id":"levelo_inurba_marseille","lat":43.34441,"lon":5.35966,"is_reserved":false,"is_disabled":true,"rental_uris":{"android":"levelo://app?vid=03215b30-aa65-4b10-b451-ed50967ec88e","ios":"levelo://app?vid=03215b30-aa65-4b10-b451-ed50967ec88e"},"vehicle_type_id":"4","last_reported":1738667283,"current_range_meters":0,"station_id":"","pricing_plan_id":"cebpf4jnsgd1na2vs0mg"},{"bike_id":"97f761ee-ed28-4a21-82f2-5e7ab3058ff7","system_id":"levelo_inurba_marseille","lat":43.25725,"lon":5.41107,"is_reserved":false,"is_disabled":false,"rental_uris":{"android":"levelo://app?vid=97f761ee-ed28-4a21-82f2-5e7ab3058ff7","ios":"levelo://app?vid=97f761ee-ed28-4a21-82f2-5e7ab3058ff7"},"vehicle_type_id":"4","last_reported":1738667283,"current_range_meters":18800,"station_id":"ce4bhkp2rcd13ifvqgd0","pricing_plan_id":"cebpf4jnsgd1na2vs0mg"},{"bike_id":"362b8e1d-c9e1-490d-a4e0-861ce9907193","system_id":"levelo_inurba_marseille","lat":43.24788,"lon":5.37449,"is_reserved":false,"is_disabled":false,"rental_uris":{"android":"levelo://app?vid=362b8e1d-c9e1-490d-a4e0-861ce9907193","ios":"levelo://app?vid=362b8e1d-c9e1-490d-a4e0-861ce9907193"},"vehicle_type_id":"4","last_reported":1738667283,"current_range_meters":10000,"station_id":"","pricing_plan_id":"cebpf4jnsgd1na2vs0mg"},{"bike_id":"d1d51ec2-e1ab-4b92-9a4b-f935b04ef436","system_id":"levelo_inurba_marseille","lat":43.25014,"lon":5.38919,"is_reserved":false,"is_disabled":false,"rental_uris":{"android":"levelo://app?vid=d1d51ec2-e1ab-4b92-9a4b-f935b04ef436","ios":"levelo://app?vid=d1d51ec2-e1ab-4b92-9a4b-f935b04ef436"},"vehicle_type_id":"4","last_reported":1738667283,"current_range_meters":24800,"station_id":"ce4bhgp2rcd13ifvqfd0","pricing_plan_id":"cebpf4jnsgd1na2vs0mg"},{"bike_id":"7a2080c9-d44a-471c-9acd-526428e8e5dc","system_id":"levelo_inurba_marseille","lat":43.22928,"lon":5.35395,"is_reserved":false,"is_disabled":false,"rental_uris":{"android":"levelo://app?vid=7a2080c9-d44a-471c-9acd-526428e8e5dc","ios":"levelo://app?vid=7a2080c9-d44a-471c-9acd-526428e8e5dc"},"vehicle_type_id":"4","last_reported":1738667283,"current_range_meters":39200,"station_id":"cpo3532slgdg3j2ikp40","pricing_plan_id":"cebpf4jnsgd1na2vs0mg"},{"bike_id":"37eb5dea-9f1d-4d5f-bad1-2ed5b3c6db90","system_id":"levelo_inurba_marseille","lat":43.2318,"lon":5.39995,"is_reserved":false,"is_disabled":false,"rental_uris":{"android":"levelo://app?vid=37eb5dea-9f1d-4d5f-bad1-2ed5b3c6db90","ios":"levelo://app?vid=37eb5dea-9f1d-4d5f-bad1-2ed5b3c6db90"},"vehicle_type_id":"4","last_reported":1738667283,"current_range_meters":38000,"station_id":"ce4bhn12rcd13ifvqgqg","pricing_plan_id":"cebpf4jnsgd1na2vs0mg"},{"bike_id":"63048f82-d2f8-4892-b5b3-d703ed24ef1c","system_id":"levelo_inurba_marseille","lat":43.29006,"lon":5.35614,"is_reserved":false,"is_disabled":false,"rental_uris":{"android":"levelo://app?vid=63048f82-d2f8-4892-b5b3-d703ed24ef1c","ios":"levelo://app?vid=63048f82-d2f8-4892-b5b3-d703ed24ef1c"},"vehicle_type_id":"4","last_reported":1738667283,"current_range_meters":37600,"station_id":"ce4bhb92rcd13ifvqen0","pricing_plan_id":"cebpf4jnsgd1na2vs0mg"},{"bike_id":"e77d01ae-57a8-4fcc-af49-daac9102293c","system_id":"levelo_inurba_marseille","lat":43.29623,"lon":5.37712,"is_reserved":false,"is_disabled":false,"rental_uris":{"android":"levelo://app?vid=e77d01ae-57a8-4fcc-af49-daac9102293c","ios":"levelo://app?vid=e77d01ae-57a8-4fcc-af49-daac9102293c"},"vehicle_type_id":"4","last_reported":1738667283,"current_range_meters":39200,"station_id":"ce4bgi92rcd13ifvqb90","pricing_plan_id":"cebpf4jnsgd1na2vs0mg"},{"bike_id":"073c0e5e-b1a0-4c6f-80d1-ad484215ef14","system_id":"levelo_inurba_marseille","lat":43.29628,"lon":5.37743,"is_reserved":false,"is_disabled":false,"rental_uris":{"android":"levelo://app?vid=073c0e5e-b1a0-4c6f-80d1-ad484215ef14","ios":"levelo://app?vid=073c0e5e-b1a0-4c6f-80d1-ad484215ef14"},"vehicle_type_id":"4","last_reported":1738667283,"current_range_meters":28000,"station_id":"ce4bgi92rcd13ifvqb90","pricing_plan_id":"cebpf4jnsgd1na2vs0mg"},{"bike_id":"1bdf073d-c097-4150-87c6-187750a9dea9","system_id":"levelo_inurba_marseille","lat":43.26211,"lon":5.37443,"is_reserved":false,"is_disabled":false,"rental_uris":{"android":"levelo://app?vid=1bdf073d-c097-4150-87c6-187750a9dea9","ios":"levelo://app?vid=1bdf073d-c097-4150-87c6-187750a9dea9"},"vehicle_type_id":"4","last_reported":1738667283,"current_range_meters":38800,"station_id":"ce4bhgp2rcd13ifvqfc0","pricing_plan_id":"cebpf4jnsgd1na2vs0mg"},{"bike_id":"43d88c9c-d0eb-4b4f-b95e-e1d05d1ad7b8","system_id":"levelo_inurba_marseille","lat":43.29621,"lon":5.37166,"is_reserved":false,"is_disabled":false,"rental_uris":{"android":"levelo://app?vid=43d88c9c-d0eb-4b4f-b95e-e1d05d1ad7b8","ios":"levelo://app?vid=43d88c9c-d0eb-4b4f-b95e-e1d05d1ad7b8"},"vehicle_type_id":"4","last_reported":1738667283,"current_range_meters":30000,"station_id":"ce4bgnh2rcd13ifvqc0g","pricing_plan_id":"cebpf4jnsgd1na2vs0mg"},{"bike_id":"7fbea1ed-9953-4891-b9fe-ad84cdd12b3a","system_id":"levelo_inurba_marseille","lat":43.2895,"lon":5.38385,"is_reserved":false,"is_disabled":false,"rental_uris":{"android":"levelo://app?vid=7fbea1ed-9953-4891-b9fe-ad84cdd12b3a","ios":"levelo://app?vid=7fbea1ed-9953-4891-b9fe-ad84cdd12b3a"},"vehicle_type_id":"4","last_reported":1738667283,"current_range_meters":13600,"station_id":"ce4bh612rcd13ifvqe6g","pricing_plan_id":"cebpf4jnsgd1na2vs0mg"},{"bike_id":"beb39629-ac1f-4178-81c3-2665d4df0bc2","system_id":"levelo_inurba_marseille","lat":43.27903,"lon":5.38018,"is_reserved":false,"is_disabled":true,"rental_uris":{"android":"levelo://app?vid=beb39629-ac1f-4178-81c3-2665d4df0bc2","ios":"levelo://app?vid=beb39629-ac1f-4178-81c3-2665d4df0bc2"},"vehicle_type_id":"4","last_reported":1738667283,"current_range_meters":38400,"station_id":"ce4bhf92rcd13ifvqf50","pricing_plan_id":"cebpf4jnsgd1na2vs0mg"},{"bike_id":"0bb638d0-2838-47fa-8a2d-f175e9aec41a","system_id":"levelo_inurba_marseille","lat":43.2396,"lon":5.3663,"is_reserved":false,"is_disabled":false,"rental_uris":{"android":"levelo://app?vid=0bb638d0-2838-47fa-8a2d-f175e9aec41a","ios":"levelo://app?vid=0bb638d0-2838-47fa-8a2d-f175e9aec41a"},"vehicle_type_id":"4","last_reported":1738667283,"current_range_meters":15200,"station_id":"ce4bhi12rcd13ifvqfp0","pricing_plan_id":"cebpf4jnsgd1na2vs0mg"},{"bike_id":"527225ef-7ea1-4609-aded-699f77a699d2","system_id":"levelo_inurba_marseille","lat":43.30533,"lon":5.36692,"is_reserved":false,"is_disabled":false,"rental_uris":{"android":"levelo://app?vid=527225ef-7ea1-4609-aded-699f77a699d2","ios":"levelo://app?vid=527225ef-7ea1-4609-aded-699f77a699d2"},"vehicle_type_id":"4","last_reported":1738667283,"current_range_meters":28000,"station_id":"ce4bgrp2rcd13ifvqc9g","pricing_plan_id":"cebpf4jnsgd1na2vs0mg"},{"bike_id":"9be03674-7120-4176-aff8-82689c3366f6","system_id":"levelo_inurba_marseille","lat":43.25921,"lon":5.40923,"is_reserved":false,"is_disabled":false,"rental_uris":{"android":"levelo://app?vid=9be03674-7120-4176-aff8-82689c3366f6","ios":"levelo://app?vid=9be03674-7120-4176-aff8-82689c3366f6"},"vehicle_type_id":"4","last_reported":1738667283,"current_range_meters":14400,"station_id":"ce4bhm92rcd13ifvqglg","pricing_plan_id":"cebpf4jnsgd1na2vs0mg"},{"bike_id":"2fed9ba3-3909-423b-8e60-69abd9978d73","system_id":"levelo_inurba_marseille","lat":43.2681,"lon":5.40251,"is_reserved":false,"is_disabled":false,"rental_uris":{"android":"levelo://app?vid=2fed9ba3-3909-423b-8e60-69abd9978d73","ios":"levelo://app?vid=2fed9ba3-3909-423b-8e60-69abd9978d73"},"vehicle_type_id":"4","last_reported":1738667283,"current_range_meters":38800,"station_id":"ce501612rcd8frsf0b60","pricing_plan_id":"cebpf4jnsgd1na2vs0mg"},{"bike_id":"a2360890-da0d-437a-916b-04e787d9f58a","system_id":"levelo_inurba_marseille","lat":43.32498,"lon":5.36571,"is_reserved":false,"is_disabled":false,"rental_uris":{"android":"levelo://app?vid=a2360890-da0d-437a-916b-04e787d9f58a","ios":"levelo://app?vid=a2360890-da0d-437a-916b-04e787d9f58a"},"vehicle_type_id":"4","last_reported":1738667283,"current_range_meters":34800,"station_id":"ce4bhs12rcd13ifvqhvg","pricing_plan_id":"cebpf4jnsgd1na2vs0mg"},{"bike_id":"965aa94f-8efc-437f-9bb6-910ab1ca1cac","system_id":"levelo_inurba_marseille","lat":43.29318,"lon":5.37177,"is_reserved":false,"is_disabled":false,"rental_uris":{"android":"levelo://app?vid=965aa94f-8efc-437f-9bb6-910ab1ca1cac","ios":"levelo://app?vid=965aa94f-8efc-437f-9bb6-910ab1ca1cac"},"vehicle_type_id":"4","last_reported":1738667283,"current_range_meters":8400,"station_id":"ce4bgh92rcd13ifvqb40","pricing_plan_id":"cebpf4jnsgd1na2vs0mg"},{"bike_id":"6e7c1ac2-e791-43c7-8c36-9db37854d07d","system_id":"levelo_inurba_marseille","lat":43.28621,"lon":5.3509,"is_reserved":false,"is_disabled":true,"rental_uris":{"android":"levelo://app?vid=6e7c1ac2-e791-43c7-8c36-9db37854d07d","ios":"levelo://app?vid=6e7c1ac2-e791-43c7-8c36-9db37854d07d"},"vehicle_type_id":"4","last_reported":1738667283,"current_range_meters":26000,"station_id":"ce4bhch2rcd13ifvqeug","pricing_plan_id":"cebpf4jnsgd1na2vs0mg"},{"bike_id":"b6032f4b-edb6-4222-814c-aae3fb9ce67d","system_id":"levelo_inurba_marseille","lat":43.28148,"lon":5.42641,"is_reserved":false,"is_disabled":false,"rental_uris":{"android":"levelo://app?vid=b6032f4b-edb6-4222-814c-aae3fb9ce67d","ios":"levelo://app?vid=b6032f4b-edb6-4222-814c-aae3fb9ce67d"},"vehicle_type_id":"4","last_reported":1738667283,"current_range_meters":15200,"station_id":"ce4bhnh2rcd13ifvqgug","pricing_plan_id":"cebpf4jnsgd1na2vs0mg"},{"bike_id":"48ad2ada-c5f9-43ce-83c7-1d09232e6b48","system_id":"levelo_inurba_marseille","lat":43.26495,"lon":5.39569,"is_reserved":false,"is_disabled":false,"rental_uris":{"android":"levelo://app?vid=48ad2ada-c5f9-43ce-83c7-1d09232e6b48","ios":"levelo://app?vid=48ad2ada-c5f9-43ce-83c7-1d09232e6b48"},"vehicle_type_id":"4","last_reported":1738667283,"current_range_meters":24800,"station_id":"ce4bhi12rcd13ifvqfq0","pricing_plan_id":"cebpf4jnsgd1na2vs0mg"},{"bike_id":"c1965bd4-dc90-4199-9fc9-49f7e295bbe0","system_id":"levelo_inurba_marseille","lat":43.28571,"lon":5.39498,"is_reserved":false,"is_disabled":false,"rental_uris":{"android":"levelo://app?vid=c1965bd4-dc90-4199-9fc9-49f7e295bbe0","ios":"levelo://app?vid=c1965bd4-dc90-4199-9fc9-49f7e295bbe0"},"vehicle_type_id":"4","last_reported":1738667283,"current_range_meters":4000,"station_id":"ce4bh292rcd13ifvqdg0","pricing_plan_id":"cebpf4jnsgd1na2vs0mg"},{"bike_id":"fca820bd-58f6-4630-9980-88d378b9b148","system_id":"levelo_inurba_marseille","lat":43.29628,"lon":5.37752,"is_reserved":false,"is_disabled":false,"rental_uris":{"android":"levelo://app?vid=fca820bd-58f6-4630-9980-88d378b9b148","ios":"levelo://app?vid=fca820bd-58f6-4630-9980-88d378b9b148"},"vehicle_type_id":"4","last_reported":1738667283,"current_range_meters":38400,"station_id":"ce4bgi92rcd13ifvqb90","pricing_plan_id":"cebpf4jnsgd1na2vs0mg"},{"bike_id":"a2293492-f143-4690-be9e-769f9f84c6ee","system_id":"levelo_inurba_marseille","lat":43.29199,"lon":5.35807,"is_reserved":false,"is_disabled":false,"rental_uris":{"android":"levelo://app?vid=a2293492-f143-4690-be9e-769f9f84c6ee","ios":"levelo://app?vid=a2293492-f143-4690-be9e-769f9f84c6ee"},"vehicle_type_id":"4","last_reported":1738667283,"current_range_meters":38800,"station_id":"ce4bhb12rcd13ifvqel0","pricing_plan_id":"cebpf4jnsgd1na2vs0mg"},{"bike_id":"c7cd0fa0-a97c-41cd-a619-4dfd429de3aa","system_id":"levelo_inurba_marseille","lat":43.29734,"lon":5.3769,"is_reserved":false,"is_disabled":false,"rental_uris":{"android":"levelo://app?vid=c7cd0fa0-a97c-41cd-a619-4dfd429de3aa","ios":"levelo://app?vid=c7cd0fa0-a97c-41cd-a619-4dfd429de3aa"},"vehicle_type_id":"4","last_reported":1738667283,"current_range_meters":38800,"station_id":"ce4bgkh2rcd13ifvqbl0","pricing_plan_id":"cebpf4jnsgd1na2vs0mg"},{"bike_id":"3ca53271-0e58-4f09-a6c8-ace88698b7a9","system_id":"levelo_inurba_marseille","lat":43.24857,"lon":5.38865,"is_reserved":false,"is_disabled":false,"rental_uris":{"android":"levelo://app?vid=3ca53271-0e58-4f09-a6c8-ace88698b7a9","ios":"levelo://app?vid=3ca53271-0e58-4f09-a6c8-ace88698b7a9"},"vehicle_type_id":"4","last_reported":1738667283,"current_range_meters":38000,"station_id":"ce4bhgp2rcd13ifvqfd0","pricing_plan_id":"cebpf4jnsgd1na2vs0mg"},{"bike_id":"8cf86aea-68f2-4102-a684-9c437466dd34","system_id":"levelo_inurba_marseille","lat":43.25583,"lon":5.38234,"is_reserved":false,"is_disabled":false,"rental_uris":{"android":"levelo://app?vid=8cf86aea-68f2-4102-a684-9c437466dd34","ios":"levelo://app?vid=8cf86aea-68f2-4102-a684-9c437466dd34"},"vehicle_type_id":"4","last_reported":1738667283,"current_range_meters":10000,"station_id":"ce4bhih2rcd13ifvqfs0","pricing_plan_id":"cebpf4jnsgd1na2vs0mg"},{"bike_id":"49dfd201-9c9e-4c2d-9035-d7194487066e","system_id":"levelo_inurba_marseille","lat":43.30447,"lon":5.37898,"is_reserved":false,"is_disabled":false,"rental_uris":{"android":"levelo://app?vid=49dfd201-9c9e-4c2d-9035-d7194487066e","ios":"levelo://app?vid=49dfd201-9c9e-4c2d-9035-d7194487066e"},"vehicle_type_id":"4","last_reported":1738667283,"current_range_meters":38800,"station_id":"ce4bgup2rcd13ifvqcn0","pricing_plan_id":"cebpf4jnsgd1na2vs0mg"},{"bike_id":"8a24c8d9-2c91-4996-8e85-7adae68fd668","system_id":"levelo_inurba_marseille","lat":43.30564,"lon":5.3655,"is_reserved":false,"is_disabled":false,"rental_uris":{"android":"levelo://app?vid=8a24c8d9-2c91-4996-8e85-7adae68fd668","ios":"levelo://app?vid=8a24c8d9-2c91-4996-8e85-7adae68fd668"},"vehicle_type_id":"4","last_reported":1738667283,"current_range_meters":18000,"station_id":"ce4bgs12rcd13ifvqcag","pricing_plan_id":"cebpf4jnsgd1na2vs0mg"},{"bike_id":"ba9659b0-1bff-4bf9-aec7-272758d875e8","system_id":"levelo_inurba_marseille","lat":43.29628,"lon":5.37173,"is_reserved":false,"is_disabled":false,"rental_uris":{"android":"levelo://app?vid=ba9659b0-1bff-4bf9-aec7-272758d875e8","ios":"levelo://app?vid=ba9659b0-1bff-4bf9-aec7-272758d875e8"},"vehicle_type_id":"4","last_reported":1738667283,"current_range_meters":32800,"station_id":"ce4bgnh2rcd13ifvqc0g","pricing_plan_id":"cebpf4jnsgd1na2vs0mg"},{"bike_id":"cb061fec-f553-4bd1-932f-9baf0e43068e","system_id":"levelo_inurba_marseille","lat":43.29035,"lon":5.37971,"is_reserved":false,"is_disabled":false,"rental_uris":{"android":"levelo://app?vid=cb061fec-f553-4bd1-932f-9baf0e43068e","ios":"levelo://app?vid=cb061fec-f553-4bd1-932f-9baf0e43068e"},"vehicle_type_id":"4","last_reported":1738667283,"current_range_meters":25600,"station_id":"ce4bh512rcd13ifvqe2g","pricing_plan_id":"cebpf4jnsgd1na2vs0mg"},{"bike_id":"07f0f501-8b4c-456f-8436-4462371d84b7","system_id":"levelo_inurba_marseille","lat":43.25662,"lon":5.41137,"is_reserved":false,"is_disabled":false,"rental_uris":{"android":"levelo://app?vid=07f0f501-8b4c-456f-8436-4462371d84b7","ios":"levelo://app?vid=07f0f501-8b4c-456f-8436-4462371d84b7"},"vehicle_type_id":"4","last_reported":1738667283,"current_range_meters":20400,"station_id":"","pricing_plan_id":"cebpf4jnsgd1na2vs0mg"},{"bike_id":"48457462-e2e5-4b0c-9657-da77fe2191e8","system_id":"levelo_inurba_marseille","lat":43.30556,"lon":5.36511,"is_reserved":false,"is_disabled":false,"rental_uris":{"android":"levelo://app?vid=48457462-e2e5-4b0c-9657-da77fe2191e8","ios":"levelo://app?vid=48457462-e2e5-4b0c-9657-da77fe2191e8"},"vehicle_type_id":"4","last_reported":1738667283,"current_range_meters":24800,"station_id":"ce4bgs12rcd13ifvqcag","pricing_plan_id":"cebpf4jnsgd1na2vs0mg"},{"bike_id":"c31e34cb-81c0-4ad0-82fb-ef4f487ed713","system_id":"levelo_inurba_marseille","lat":43.27812,"lon":5.40709,"is_reserved":false,"is_disabled":false,"rental_uris":{"android":"levelo://app?vid=c31e34cb-81c0-4ad0-82fb-ef4f487ed713","ios":"levelo://app?vid=c31e34cb-81c0-4ad0-82fb-ef4f487ed713"},"vehicle_type_id":"4","last_reported":1738667283,"current_range_meters":38800,"station_id":"ce4bhnh2rcd13ifvqgtg","pricing_plan_id":"cebpf4jnsgd1na2vs0mg"},{"bike_id":"630dd466-e4dd-4ada-8a39-01e92abf0818","system_id":"levelo_inurba_marseille","lat":43.26201,"lon":5.37471,"is_reserved":false,"is_disabled":false,"rental_uris":{"android":"levelo://app?vid=630dd466-e4dd-4ada-8a39-01e92abf0818","ios":"levelo://app?vid=630dd466-e4dd-4ada-8a39-01e92abf0818"},"vehicle_type_id":"4","last_reported":1738667283,"current_range_meters":34000,"station_id":"ce4bhgp2rcd13ifvqfc0","pricing_plan_id":"cebpf4jnsgd1na2vs0mg"},{"bike_id":"5df9bf08-43fe-4acc-898a-9db2002f38bc","system_id":"levelo_inurba_marseille","lat":43.25861,"lon":5.3992,"is_reserved":false,"is_disabled":true,"rental_uris":{"android":"levelo://app?vid=5df9bf08-43fe-4acc-898a-9db2002f38bc","ios":"levelo://app?vid=5df9bf08-43fe-4acc-898a-9db2002f38bc"},"vehicle_type_id":"4","last_reported":1738667283,"current_range_meters":16400,"station_id":"ce4bhl92rcd13ifvqghg","pricing_plan_id":"cebpf4jnsgd1na2vs0mg"},{"bike_id":"3034d64e-f78e-468c-b4d6-2520a053438f","system_id":"levelo_inurba_marseille","lat":43.23188,"lon":5.39985,"is_reserved":false,"is_disabled":false,"rental_uris":{"android":"levelo://app?vid=3034d64e-f78e-468c-b4d6-2520a053438f","ios":"levelo://app?vid=3034d64e-f78e-468c-b4d6-2520a053438f"},"vehicle_type_id":"4","last_reported":1738667283,"current_range_meters":38800,"station_id":"ce4bhn12rcd13ifvqgqg","pricing_plan_id":"cebpf4jnsgd1na2vs0mg"},{"bike_id":"bd94a955-f21d-4ce0-a4f9-2a7dde31c75a","system_id":"levelo_inurba_marseille","lat":43.29282,"lon":5.36851,"is_reserved":false,"is_disabled":false,"rental_uris":{"android":"levelo://app?vid=bd94a955-f21d-4ce0-a4f9-2a7dde31c75a","ios":"levelo://app?vid=bd94a955-f21d-4ce0-a4f9-2a7dde31c75a"},"vehicle_type_id":"4","last_reported":1738667283,"current_range_meters":38000,"station_id":"ce4bhbp2rcd13ifvqesg","pricing_plan_id":"cebpf4jnsgd1na2vs0mg"},{"bike_id":"343ee9fa-65bc-44d7-b41c-f81f2cce2b1a","system_id":"levelo_inurba_marseille","lat":43.23152,"lon":5.43718,"is_reserved":false,"is_disabled":false,"rental_uris":{"android":"levelo://app?vid=343ee9fa-65bc-44d7-b41c-f81f2cce2b1a","ios":"levelo://app?vid=343ee9fa-65bc-44d7-b41c-f81f2cce2b1a"},"vehicle_type_id":"4","last_reported":1738667283,"current_range_meters":14000,"station_id":"ce4bhmp2rcd13ifvqgog","pricing_plan_id":"cebpf4jnsgd1na2vs0mg"},{"bike_id":"a853a0cd-b246-48c8-8e55-5b2baaa5ca83","system_id":"levelo_inurba_marseille","lat":43.29901,"lon":5.38149,"is_reserved":false,"is_disabled":false,"rental_uris":{"android":"levelo://app?vid=a853a0cd-b246-48c8-8e55-5b2baaa5ca83","ios":"levelo://app?vid=a853a0cd-b246-48c8-8e55-5b2baaa5ca83"},"vehicle_type_id":"4","last_reported":1738667283,"current_range_meters":32400,"station_id":"ce4bgj12rcd13ifvqbc0","pricing_plan_id":"cebpf4jnsgd1na2vs0mg"},{"bike_id":"7f87d5fc-9445-41df-bd3e-5287cb6adb70","system_id":"levelo_inurba_marseille","lat":43.26823,"lon":5.40243,"is_reserved":false,"is_disabled":false,"rental_uris":{"android":"levelo://app?vid=7f87d5fc-9445-41df-bd3e-5287cb6adb70","ios":"levelo://app?vid=7f87d5fc-9445-41df-bd3e-5287cb6adb70"},"vehicle_type_id":"4","last_reported":1738667283,"current_range_meters":10000,"station_id":"ce501612rcd8frsf0b60","pricing_plan_id":"cebpf4jnsgd1na2vs0mg"},{"bike_id":"9889f64f-961a-4fc8-9d44-bf6f4412f46f","system_id":"levelo_inurba_marseille","lat":43.25941,"lon":5.40912,"is_reserved":false,"is_disabled":false,"rental_uris":{"android":"levelo://app?vid=9889f64f-961a-4fc8-9d44-bf6f4412f46f","ios":"levelo://app?vid=9889f64f-961a-4fc8-9d44-bf6f4412f46f"},"vehicle_type_id":"4","last_reported":1738667283,"current_range_meters":9200,"station_id":"ce4bhm92rcd13ifvqglg","pricing_plan_id":"cebpf4jnsgd1na2vs0mg"},{"bike_id":"e214cb68-bd90-4283-80e9-951f93a1751c","system_id":"levelo_inurba_marseille","lat":43.32324,"lon":5.40613,"is_reserved":false,"is_disabled":false,"rental_uris":{"android":"levelo://app?vid=e214cb68-bd90-4283-80e9-951f93a1751c","ios":"levelo://app?vid=e214cb68-bd90-4283-80e9-951f93a1751c"},"vehicle_type_id":"4","last_reported":1738667283,"current_range_meters":24800,"station_id":"ce4bhq92rcd13ifvqhjg","pricing_plan_id":"cebpf4jnsgd1na2vs0mg"},{"bike_id":"649599e3-9252-4d00-ad77-a8ea70e06ee9","system_id":"levelo_inurba_marseille","lat":43.29206,"lon":5.36072,"is_reserved":false,"is_disabled":false,"rental_uris":{"android":"levelo://app?vid=649599e3-9252-4d00-ad77-a8ea70e06ee9","ios":"levelo://app?vid=649599e3-9252-4d00-ad77-a8ea70e06ee9"},"vehicle_type_id":"4","last_reported":1738667283,"current_range_meters":37600,"station_id":"ce4bhbh2rcd13ifvqeqg","pricing_plan_id":"cebpf4jnsgd1na2vs0mg"},{"bike_id":"a7dc0848-081a-4438-bce6-7e161a91f066","system_id":"levelo_inurba_marseille","lat":43.281617,"lon":5.426426,"is_reserved":false,"is_disabled":false,"rental_uris":{"android":"levelo://app?vid=a7dc0848-081a-4438-bce6-7e161a91f066","ios":"levelo://app?vid=a7dc0848-081a-4438-bce6-7e161a91f066"},"vehicle_type_id":"4","last_reported":1738667283,"current_range_meters":35200,"station_id":"ce4bhnh2rcd13ifvqgug","pricing_plan_id":"cebpf4jnsgd1na2vs0mg"},{"bike_id":"36dc3366-e52e-4f9e-a872-e2d020ed7b6b","system_id":"levelo_inurba_marseille","lat":43.30915,"lon":5.36913,"is_reserved":false,"is_disabled":false,"rental_uris":{"android":"levelo://app?vid=36dc3366-e52e-4f9e-a872-e2d020ed7b6b","ios":"levelo://app?vid=36dc3366-e52e-4f9e-a872-e2d020ed7b6b"},"vehicle_type_id":"4","last_reported":1738667283,"current_range_meters":38800,"station_id":"ce4bgn92rcd13ifvqbvg","pricing_plan_id":"cebpf4jnsgd1na2vs0mg"},{"bike_id":"7e316185-d40b-4435-bad3-7b9f1aa09493","system_id":"levelo_inurba_marseille","lat":43.27243,"lon":5.39163,"is_reserved":false,"is_disabled":false,"rental_uris":{"android":"levelo://app?vid=7e316185-d40b-4435-bad3-7b9f1aa09493","ios":"levelo://app?vid=7e316185-d40b-4435-bad3-7b9f1aa09493"},"vehicle_type_id":"4","last_reported":1738667283,"current_range_meters":38800,"station_id":"ce4bhhp2rcd13ifvqfm0","pricing_plan_id":"cebpf4jnsgd1na2vs0mg"},{"bike_id":"ae91554c-1631-4695-bd88-75a8a61351eb","system_id":"levelo_inurba_marseille","lat":43.28405,"lon":5.37517,"is_reserved":false,"is_disabled":false,"rental_uris":{"android":"levelo://app?vid=ae91554c-1631-4695-bd88-75a8a61351eb","ios":"levelo://app?vid=ae91554c-1631-4695-bd88-75a8a61351eb"},"vehicle_type_id":"4","last_reported":1738667283,"current_range_meters":14000,"station_id":"ce4bh412rcd13ifvqds0","pricing_plan_id":"cebpf4jnsgd1na2vs0mg"},{"bike_id":"2055a81d-8e5e-4bf5-b5e1-2fc40f396b7c","system_id":"levelo_inurba_marseille","lat":43.30549,"lon":5.38461,"is_reserved":false,"is_disabled":true,"rental_uris":{"android":"levelo://app?vid=2055a81d-8e5e-4bf5-b5e1-2fc40f396b7c","ios":"levelo://app?vid=2055a81d-8e5e-4bf5-b5e1-2fc40f396b7c"},"vehicle_type_id":"4","last_reported":1738667283,"current_range_meters":32800,"station_id":"ce4bgg92rcd13ifvqb30","pricing_plan_id":"cebpf4jnsgd1na2vs0mg"},{"bike_id":"c8bd1d84-2291-473f-ab82-361f165fe1db","system_id":"levelo_inurba_marseille","lat":43.241687,"lon":5.364053,"is_reserved":false,"is_disabled":false,"rental_uris":{"android":"levelo://app?vid=c8bd1d84-2291-473f-ab82-361f165fe1db","ios":"levelo://app?vid=c8bd1d84-2291-473f-ab82-361f165fe1db"},"vehicle_type_id":"4","last_reported":1738667283,"current_range_meters":38800,"station_id":"cpo36qri1sfpv3e86is0","pricing_plan_id":"cebpf4jnsgd1na2vs0mg"},{"bike_id":"da05f112-ffb2-4f41-a3cb-99544f3f7f0e","system_id":"levelo_inurba_marseille","lat":43.30477,"lon":5.36669,"is_reserved":false,"is_disabled":false,"rental_uris":{"android":"levelo://app?vid=da05f112-ffb2-4f41-a3cb-99544f3f7f0e","ios":"levelo://app?vid=da05f112-ffb2-4f41-a3cb-99544f3f7f0e"},"vehicle_type_id":"4","last_reported":1738667283,"current_range_meters":33600,"station_id":"ce4bgrp2rcd13ifvqc9g","pricing_plan_id":"cebpf4jnsgd1na2vs0mg"},{"bike_id":"b4e739e6-1e16-4e34-8d5d-7503a7298ee4","system_id":"levelo_inurba_marseille","lat":43.2595,"lon":5.40899,"is_reserved":false,"is_disabled":false,"rental_uris":{"android":"levelo://app?vid=b4e739e6-1e16-4e34-8d5d-7503a7298ee4","ios":"levelo://app?vid=b4e739e6-1e16-4e34-8d5d-7503a7298ee4"},"vehicle_type_id":"4","last_reported":1738667283,"current_range_meters":29600,"station_id":"ce4bhm92rcd13ifvqglg","pricing_plan_id":"cebpf4jnsgd1na2vs0mg"},{"bike_id":"bb846df9-2969-480a-aed6-edbcf9c326fb","system_id":"levelo_inurba_marseille","lat":43.248089,"lon":5.374589,"is_reserved":false,"is_disabled":false,"rental_uris":{"android":"levelo://app?vid=bb846df9-2969-480a-aed6-edbcf9c326fb","ios":"levelo://app?vid=bb846df9-2969-480a-aed6-edbcf9c326fb"},"vehicle_type_id":"4","last_reported":1738667283,"current_range_meters":25600,"station_id":"ce4bhgh2rcd13ifvqfb0","pricing_plan_id":"cebpf4jnsgd1na2vs0mg"},{"bike_id":"78b66fb5-e64b-44d6-bd05-2291d7092b06","system_id":"levelo_inurba_marseille","lat":43.29178,"lon":5.37165,"is_reserved":false,"is_disabled":false,"rental_uris":{"android":"levelo://app?vid=78b66fb5-e64b-44d6-bd05-2291d7092b06","ios":"levelo://app?vid=78b66fb5-e64b-44d6-bd05-2291d7092b06"},"vehicle_type_id":"4","last_reported":1738667283,"current_range_meters":12800,"station_id":"ce4bha92rcd13ifvqeh0","pricing_plan_id":"cebpf4jnsgd1na2vs0mg"},{"bike_id":"cd07e062-2af1-406e-bcb9-5f1ec4730937","system_id":"levelo_inurba_marseille","lat":43.23063,"lon":5.35496,"is_reserved":false,"is_disabled":false,"rental_uris":{"android":"levelo://app?vid=cd07e062-2af1-406e-bcb9-5f1ec4730937","ios":"levelo://app?vid=cd07e062-2af1-406e-bcb9-5f1ec4730937"},"vehicle_type_id":"4","last_reported":1738667283,"current_range_meters":9200,"station_id":"cpo3342slgdg3j2ifvpg","pricing_plan_id":"cebpf4jnsgd1na2vs0mg"},{"bike_id":"c1ee1dea-0fe8-4949-a2ac-9eb462c2eee3","system_id":"levelo_inurba_marseille","lat":43.27185,"lon":5.40999,"is_reserved":false,"is_disabled":false,"rental_uris":{"android":"levelo://app?vid=c1ee1dea-0fe8-4949-a2ac-9eb462c2eee3","ios":"levelo://app?vid=c1ee1dea-0fe8-4949-a2ac-9eb462c2eee3"},"vehicle_type_id":"4","last_reported":1738667283,"current_range_meters":37600,"station_id":"ce4bhl12rcd13ifvqgf0","pricing_plan_id":"cebpf4jnsgd1na2vs0mg"},{"bike_id":"6d93c457-3ddd-4cec-9816-ca38730af33b","system_id":"levelo_inurba_marseille","lat":43.27043,"lon":5.40324,"is_reserved":false,"is_disabled":false,"rental_uris":{"android":"levelo://app?vid=6d93c457-3ddd-4cec-9816-ca38730af33b","ios":"levelo://app?vid=6d93c457-3ddd-4cec-9816-ca38730af33b"},"vehicle_type_id":"4","last_reported":1738667283,"current_range_meters":38800,"station_id":"ce4bhk92rcd13ifvqgc0","pricing_plan_id":"cebpf4jnsgd1na2vs0mg"},{"bike_id":"516f2549-79cf-4297-a0ad-3d3f06a71f80","system_id":"levelo_inurba_marseille","lat":43.31712,"lon":5.42399,"is_reserved":false,"is_disabled":true,"rental_uris":{"android":"levelo://app?vid=516f2549-79cf-4297-a0ad-3d3f06a71f80","ios":"levelo://app?vid=516f2549-79cf-4297-a0ad-3d3f06a71f80"},"vehicle_type_id":"4","last_reported":1738667283,"current_range_meters":3200,"station_id":"ce4bhp92rcd13ifvqhbg","pricing_plan_id":"cebpf4jnsgd1na2vs0mg"},{"bike_id":"9e9e116b-0245-457e-81f0-41dec3dfcb36","system_id":"levelo_inurba_marseille","lat":43.27933,"lon":5.41047,"is_reserved":false,"is_disabled":false,"rental_uris":{"android":"levelo://app?vid=9e9e116b-0245-457e-81f0-41dec3dfcb36","ios":"levelo://app?vid=9e9e116b-0245-457e-81f0-41dec3dfcb36"},"vehicle_type_id":"4","last_reported":1738667283,"current_range_meters":36000,"station_id":"ce4bhnp2rcd13ifvqh0g","pricing_plan_id":"cebpf4jnsgd1na2vs0mg"},{"bike_id":"473dc738-2184-4c96-a388-d3c1ef9e6829","system_id":"levelo_inurba_marseille","lat":43.26195,"lon":5.37442,"is_reserved":false,"is_disabled":false,"rental_uris":{"android":"levelo://app?vid=473dc738-2184-4c96-a388-d3c1ef9e6829","ios":"levelo://app?vid=473dc738-2184-4c96-a388-d3c1ef9e6829"},"vehicle_type_id":"4","last_reported":1738667283,"current_range_meters":14800,"station_id":"","pricing_plan_id":"cebpf4jnsgd1na2vs0mg"},{"bike_id":"5da027ad-f468-40e1-aa79-47fe96c2b0be","system_id":"levelo_inurba_marseille","lat":43.30084,"lon":5.39081,"is_reserved":false,"is_disabled":false,"rental_uris":{"android":"levelo://app?vid=5da027ad-f468-40e1-aa79-47fe96c2b0be","ios":"levelo://app?vid=5da027ad-f468-40e1-aa79-47fe96c2b0be"},"vehicle_type_id":"4","last_reported":1738667283,"current_range_meters":38800,"station_id":"ce4bh192rcd13ifvqdb0","pricing_plan_id":"cebpf4jnsgd1na2vs0mg"},{"bike_id":"45a7daa2-2a2e-4454-90c3-1009aaecc5bd","system_id":"levelo_inurba_marseille","lat":43.23194,"lon":5.35553,"is_reserved":false,"is_disabled":false,"rental_uris":{"android":"levelo://app?vid=45a7daa2-2a2e-4454-90c3-1009aaecc5bd","ios":"levelo://app?vid=45a7daa2-2a2e-4454-90c3-1009aaecc5bd"},"vehicle_type_id":"4","last_reported":1738667283,"current_range_meters":9200,"station_id":"ce4bhu92rcd13ifvqi70","pricing_plan_id":"cebpf4jnsgd1na2vs0mg"},{"bike_id":"15b72a17-6480-4f6d-86fc-355e39e8992c","system_id":"levelo_inurba_marseille","lat":43.27056,"lon":5.40271,"is_reserved":false,"is_disabled":false,"rental_uris":{"android":"levelo://app?vid=15b72a17-6480-4f6d-86fc-355e39e8992c","ios":"levelo://app?vid=15b72a17-6480-4f6d-86fc-355e39e8992c"},"vehicle_type_id":"4","last_reported":1738667283,"current_range_meters":26800,"station_id":"ce4bhk92rcd13ifvqgc0","pricing_plan_id":"cebpf4jnsgd1na2vs0mg"},{"bike_id":"9b68fc2b-4da0-4d12-b12e-c45597b2afb4","system_id":"levelo_inurba_marseille","lat":43.24808,"lon":5.37459,"is_reserved":false,"is_disabled":false,"rental_uris":{"android":"levelo://app?vid=9b68fc2b-4da0-4d12-b12e-c45597b2afb4","ios":"levelo://app?vid=9b68fc2b-4da0-4d12-b12e-c45597b2afb4"},"vehicle_type_id":"4","last_reported":1738667283,"current_range_meters":36000,"station_id":"ce4bhgh2rcd13ifvqfb0","pricing_plan_id":"cebpf4jnsgd1na2vs0mg"},{"bike_id":"4aa6a979-835f-4210-a405-64607276413b","system_id":"levelo_inurba_marseille","lat":43.24056,"lon":5.37756,"is_reserved":false,"is_disabled":false,"rental_uris":{"android":"levelo://app?vid=4aa6a979-835f-4210-a405-64607276413b","ios":"levelo://app?vid=4aa6a979-835f-4210-a405-64607276413b"},"vehicle_type_id":"4","last_reported":1738667283,"current_range_meters":38400,"station_id":"ce4bhnp2rcd13ifvqgvg","pricing_plan_id":"cebpf4jnsgd1na2vs0mg"},{"bike_id":"cb360eae-9e0a-4706-ac77-865a26f70022","system_id":"levelo_inurba_marseille","lat":43.23147,"lon":5.4373,"is_reserved":false,"is_disabled":false,"rental_uris":{"android":"levelo://app?vid=cb360eae-9e0a-4706-ac77-865a26f70022","ios":"levelo://app?vid=cb360eae-9e0a-4706-ac77-865a26f70022"},"vehicle_type_id":"4","last_reported":1738667283,"current_range_meters":8400,"station_id":"ce4bhmp2rcd13ifvqgog","pricing_plan_id":"cebpf4jnsgd1na2vs0mg"},{"bike_id":"35798297-b936-47d1-8a98-bfdb50e14c75","system_id":"levelo_inurba_marseille","lat":43.320706,"lon":5.433123,"is_reserved":false,"is_disabled":true,"rental_uris":{"android":"levelo://app?vid=35798297-b936-47d1-8a98-bfdb50e14c75","ios":"levelo://app?vid=35798297-b936-47d1-8a98-bfdb50e14c75"},"vehicle_type_id":"4","last_reported":1738667283,"current_range_meters":37600,"station_id":"","pricing_plan_id":"cebpf4jnsgd1na2vs0mg"},{"bike_id":"c3066916-eed2-4635-b496-6709235f4164","system_id":"levelo_inurba_marseille","lat":43.249976,"lon":5.389299,"is_reserved":false,"is_disabled":false,"rental_uris":{"android":"levelo://app?vid=c3066916-eed2-4635-b496-6709235f4164","ios":"levelo://app?vid=c3066916-eed2-4635-b496-6709235f4164"},"vehicle_type_id":"4","last_reported":1738667283,"current_range_meters":38800,"station_id":"ce4bhgp2rcd13ifvqfd0","pricing_plan_id":"cebpf4jnsgd1na2vs0mg"},{"bike_id":"417b228d-71a2-4d40-9514-91dba2be9f7a","system_id":"levelo_inurba_marseille","lat":43.28464,"lon":5.38548,"is_reserved":false,"is_disabled":true,"rental_uris":{"android":"levelo://app?vid=417b228d-71a2-4d40-9514-91dba2be9f7a","ios":"levelo://app?vid=417b228d-71a2-4d40-9514-91dba2be9f7a"},"vehicle_type_id":"4","last_reported":1738667283,"current_range_meters":36800,"station_id":"ce4bh8p2rcd13ifvqeb0","pricing_plan_id":"cebpf4jnsgd1na2vs0mg"},{"bike_id":"e6dc612f-7f56-4634-8aac-2cfefb7b3910","system_id":"levelo_inurba_marseille","lat":43.28249,"lon":5.35068,"is_reserved":false,"is_disabled":true,"rental_uris":{"android":"levelo://app?vid=e6dc612f-7f56-4634-8aac-2cfefb7b3910","ios":"levelo://app?vid=e6dc612f-7f56-4634-8aac-2cfefb7b3910"},"vehicle_type_id":"4","last_reported":1738667283,"current_range_meters":32000,"station_id":"ce4bhbp2rcd13ifvqerg","pricing_plan_id":"cebpf4jnsgd1na2vs0mg"},{"bike_id":"2710783e-8635-443c-a464-ed1a81306c7c","system_id":"levelo_inurba_marseille","lat":43.30557,"lon":5.36557,"is_reserved":false,"is_disabled":false,"rental_uris":{"android":"levelo://app?vid=2710783e-8635-443c-a464-ed1a81306c7c","ios":"levelo://app?vid=2710783e-8635-443c-a464-ed1a81306c7c"},"vehicle_type_id":"4","last_reported":1738667283,"current_range_meters":12000,"station_id":"ce4bgs12rcd13ifvqcag","pricing_plan_id":"cebpf4jnsgd1na2vs0mg"},{"bike_id":"cd65a618-318e-432f-958e-701a50dd9da8","system_id":"levelo_inurba_marseille","lat":43.279207,"lon":5.395687,"is_reserved":false,"is_disabled":false,"rental_uris":{"android":"levelo://app?vid=cd65a618-318e-432f-958e-701a50dd9da8","ios":"levelo://app?vid=cd65a618-318e-432f-958e-701a50dd9da8"},"vehicle_type_id":"4","last_reported":1738667283,"current_range_meters":3200,"station_id":"ce4bhf92rcd13ifvqf40","pricing_plan_id":"cebpf4jnsgd1na2vs0mg"},{"bike_id":"7bbd1ca9-5cb4-4750-a3f0-60560373cbff","system_id":"levelo_inurba_marseille","lat":43.25488,"lon":5.37644,"is_reserved":false,"is_disabled":false,"rental_uris":{"android":"levelo://app?vid=7bbd1ca9-5cb4-4750-a3f0-60560373cbff","ios":"levelo://app?vid=7bbd1ca9-5cb4-4750-a3f0-60560373cbff"},"vehicle_type_id":"4","last_reported":1738667283,"current_range_meters":38800,"station_id":"ce4bhh12rcd13ifvqff0","pricing_plan_id":"cebpf4jnsgd1na2vs0mg"},{"bike_id":"e6fea6af-6cf5-4aff-b979-cbdf4a2c4429","system_id":"levelo_inurba_marseille","lat":43.27217,"lon":5.3918,"is_reserved":false,"is_disabled":true,"rental_uris":{"android":"levelo://app?vid=e6fea6af-6cf5-4aff-b979-cbdf4a2c4429","ios":"levelo://app?vid=e6fea6af-6cf5-4aff-b979-cbdf4a2c4429"},"vehicle_type_id":"4","last_reported":1738667283,"current_range_meters":0,"station_id":"ce4bhhp2rcd13ifvqfm0","pricing_plan_id":"cebpf4jnsgd1na2vs0mg"},{"bike_id":"b33a36d4-9a6c-4b95-8224-aed4770c4627","system_id":"levelo_inurba_marseille","lat":43.27488,"lon":5.42461,"is_reserved":false,"is_disabled":true,"rental_uris":{"android":"levelo://app?vid=b33a36d4-9a6c-4b95-8224-aed4770c4627","ios":"levelo://app?vid=b33a36d4-9a6c-4b95-8224-aed4770c4627"},"vehicle_type_id":"4","last_reported":1738667283,"current_range_meters":8400,"station_id":"ce4bhn92rcd13ifvqgrg","pricing_plan_id":"cebpf4jnsgd1na2vs0mg"},{"bike_id":"070f0b27-0b2f-4f16-aced-78655828d7b9","system_id":"levelo_inurba_marseille","lat":43.25592,"lon":5.3823,"is_reserved":false,"is_disabled":false,"rental_uris":{"android":"levelo://app?vid=070f0b27-0b2f-4f16-aced-78655828d7b9","ios":"levelo://app?vid=070f0b27-0b2f-4f16-aced-78655828d7b9"},"vehicle_type_id":"4","last_reported":1738667283,"current_range_meters":26800,"station_id":"","pricing_plan_id":"cebpf4jnsgd1na2vs0mg"},{"bike_id":"daccacb5-c4f7-4e8a-9a8e-534a72e1c224","system_id":"levelo_inurba_marseille","lat":43.29029,"lon":5.38152,"is_reserved":false,"is_disabled":false,"rental_uris":{"android":"levelo://app?vid=daccacb5-c4f7-4e8a-9a8e-534a72e1c224","ios":"levelo://app?vid=daccacb5-c4f7-4e8a-9a8e-534a72e1c224"},"vehicle_type_id":"4","last_reported":1738667283,"current_range_meters":38000,"station_id":"ce4bh4p2rcd13ifvqe1g","pricing_plan_id":"cebpf4jnsgd1na2vs0mg"},{"bike_id":"0c5c15e8-0295-4742-9ba3-07d5adfcbe05","system_id":"levelo_inurba_marseille","lat":43.25934,"lon":5.40899,"is_reserved":false,"is_disabled":false,"rental_uris":{"android":"levelo://app?vid=0c5c15e8-0295-4742-9ba3-07d5adfcbe05","ios":"levelo://app?vid=0c5c15e8-0295-4742-9ba3-07d5adfcbe05"},"vehicle_type_id":"4","last_reported":1738667283,"current_range_meters":30000,"station_id":"ce4bhm92rcd13ifvqglg","pricing_plan_id":"cebpf4jnsgd1na2vs0mg"},{"bike_id":"6bb18b6b-35db-4080-8375-2a2e83c6fc4b","system_id":"levelo_inurba_marseille","lat":43.23157,"lon":5.43715,"is_reserved":false,"is_disabled":true,"rental_uris":{"android":"levelo://app?vid=6bb18b6b-35db-4080-8375-2a2e83c6fc4b","ios":"levelo://app?vid=6bb18b6b-35db-4080-8375-2a2e83c6fc4b"},"vehicle_type_id":"4","last_reported":1738667283,"current_range_meters":39200,"station_id":"ce4bhmp2rcd13ifvqgog","pricing_plan_id":"cebpf4jnsgd1na2vs0mg"},{"bike_id":"787b7837-f258-4886-bbf5-841ee39c0166","system_id":"levelo_inurba_marseille","lat":43.28272,"lon":5.35083,"is_reserved":false,"is_disabled":true,"rental_uris":{"android":"levelo://app?vid=787b7837-f258-4886-bbf5-841ee39c0166","ios":"levelo://app?vid=787b7837-f258-4886-bbf5-841ee39c0166"},"vehicle_type_id":"4","last_reported":1738667283,"current_range_meters":37600,"station_id":"ce4bhbp2rcd13ifvqerg","pricing_plan_id":"cebpf4jnsgd1na2vs0mg"},{"bike_id":"35e9be92-813b-4a24-804a-34341a2b466d","system_id":"levelo_inurba_marseille","lat":43.264809,"lon":5.395513,"is_reserved":false,"is_disabled":false,"rental_uris":{"android":"levelo://app?vid=35e9be92-813b-4a24-804a-34341a2b466d","ios":"levelo://app?vid=35e9be92-813b-4a24-804a-34341a2b466d"},"vehicle_type_id":"4","last_reported":1738667283,"current_range_meters":38800,"station_id":"ce4bhi12rcd13ifvqfq0","pricing_plan_id":"cebpf4jnsgd1na2vs0mg"},{"bike_id":"2726d875-1d0b-4730-b675-cd20129246db","system_id":"levelo_inurba_marseille","lat":43.25935,"lon":5.40913,"is_reserved":false,"is_disabled":false,"rental_uris":{"android":"levelo://app?vid=2726d875-1d0b-4730-b675-cd20129246db","ios":"levelo://app?vid=2726d875-1d0b-4730-b675-cd20129246db"},"vehicle_type_id":"4","last_reported":1738667283,"current_range_meters":14800,"station_id":"ce4bhm92rcd13ifvqglg","pricing_plan_id":"cebpf4jnsgd1na2vs0mg"},{"bike_id":"e3c6399d-b2a8-46bb-92d8-89ae30f82186","system_id":"levelo_inurba_marseille","lat":43.25584,"lon":5.38232,"is_reserved":false,"is_disabled":true,"rental_uris":{"android":"levelo://app?vid=e3c6399d-b2a8-46bb-92d8-89ae30f82186","ios":"levelo://app?vid=e3c6399d-b2a8-46bb-92d8-89ae30f82186"},"vehicle_type_id":"4","last_reported":1738667283,"current_range_meters":0,"station_id":"ce4bhih2rcd13ifvqfs0","pricing_plan_id":"cebpf4jnsgd1na2vs0mg"},{"bike_id":"d42ab506-242e-49de-93ba-15e047f78824","system_id":"levelo_inurba_marseille","lat":43.298431,"lon":5.362665,"is_reserved":false,"is_disabled":false,"rental_uris":{"android":"levelo://app?vid=d42ab506-242e-49de-93ba-15e047f78824","ios":"levelo://app?vid=d42ab506-242e-49de-93ba-15e047f78824"},"vehicle_type_id":"4","last_reported":1738667283,"current_range_meters":38000,"station_id":"ce4bgpp2rcd13ifvqc3g","pricing_plan_id":"cebpf4jnsgd1na2vs0mg"},{"bike_id":"ec18b12a-8427-47cf-8e4a-de725000bb9a","system_id":"levelo_inurba_marseille","lat":43.30894,"lon":5.37207,"is_reserved":false,"is_disabled":false,"rental_uris":{"android":"levelo://app?vid=ec18b12a-8427-47cf-8e4a-de725000bb9a","ios":"levelo://app?vid=ec18b12a-8427-47cf-8e4a-de725000bb9a"},"vehicle_type_id":"4","last_reported":1738667283,"current_range_meters":32000,"station_id":"ce4bguh2rcd13ifvqckg","pricing_plan_id":"cebpf4jnsgd1na2vs0mg"},{"bike_id":"eac8e106-76e0-4f1b-81af-4eaefecd2501","system_id":"levelo_inurba_marseille","lat":43.25015,"lon":5.38937,"is_reserved":false,"is_disabled":false,"rental_uris":{"android":"levelo://app?vid=eac8e106-76e0-4f1b-81af-4eaefecd2501","ios":"levelo://app?vid=eac8e106-76e0-4f1b-81af-4eaefecd2501"},"vehicle_type_id":"4","last_reported":1738667283,"current_range_meters":16400,"station_id":"ce4bhgp2rcd13ifvqfd0","pricing_plan_id":"cebpf4jnsgd1na2vs0mg"},{"bike_id":"31fd5316-6699-4a20-a1ec-d33428eaf5e7","system_id":"levelo_inurba_marseille","lat":43.30538,"lon":5.36714,"is_reserved":false,"is_disabled":false,"rental_uris":{"android":"levelo://app?vid=31fd5316-6699-4a20-a1ec-d33428eaf5e7","ios":"levelo://app?vid=31fd5316-6699-4a20-a1ec-d33428eaf5e7"},"vehicle_type_id":"4","last_reported":1738667283,"current_range_meters":27200,"station_id":"ce4bgrp2rcd13ifvqc9g","pricing_plan_id":"cebpf4jnsgd1na2vs0mg"},{"bike_id":"25f2077a-d569-4e6a-93b0-8c971d939cf0","system_id":"levelo_inurba_marseille","lat":43.27052,"lon":5.4027,"is_reserved":false,"is_disabled":false,"rental_uris":{"android":"levelo://app?vid=25f2077a-d569-4e6a-93b0-8c971d939cf0","ios":"levelo://app?vid=25f2077a-d569-4e6a-93b0-8c971d939cf0"},"vehicle_type_id":"4","last_reported":1738667283,"current_range_meters":38800,"station_id":"ce4bhk92rcd13ifvqgc0","pricing_plan_id":"cebpf4jnsgd1na2vs0mg"},{"bike_id":"1254cb89-0555-44f1-b127-ddecabcc274e","system_id":"levelo_inurba_marseille","lat":43.2862,"lon":5.35097,"is_reserved":false,"is_disabled":false,"rental_uris":{"android":"levelo://app?vid=1254cb89-0555-44f1-b127-ddecabcc274e","ios":"levelo://app?vid=1254cb89-0555-44f1-b127-ddecabcc274e"},"vehicle_type_id":"4","last_reported":1738667283,"current_range_meters":38000,"station_id":"ce4bhch2rcd13ifvqeug","pricing_plan_id":"cebpf4jnsgd1na2vs0mg"},{"bike_id":"61ceb31b-03f6-4213-9b34-0374ee45b479","system_id":"levelo_inurba_marseille","lat":43.32113,"lon":5.3687,"is_reserved":false,"is_disabled":false,"rental_uris":{"android":"levelo://app?vid=61ceb31b-03f6-4213-9b34-0374ee45b479","ios":"levelo://app?vid=61ceb31b-03f6-4213-9b34-0374ee45b479"},"vehicle_type_id":"4","last_reported":1738667283,"current_range_meters":25200,"station_id":"","pricing_plan_id":"cebpf4jnsgd1na2vs0mg"},{"bike_id":"67e0b101-f1a3-4b4e-9684-12f90f2d31e6","system_id":"levelo_inurba_marseille","lat":43.30166,"lon":5.38087,"is_reserved":false,"is_disabled":false,"rental_uris":{"android":"levelo://app?vid=67e0b101-f1a3-4b4e-9684-12f90f2d31e6","ios":"levelo://app?vid=67e0b101-f1a3-4b4e-9684-12f90f2d31e6"},"vehicle_type_id":"4","last_reported":1738667283,"current_range_meters":38000,"station_id":"ce4bgjp2rcd13ifvqbh0","pricing_plan_id":"cebpf4jnsgd1na2vs0mg"},{"bike_id":"48e64539-c8f0-439b-bcf1-20ae8f537918","system_id":"levelo_inurba_marseille","lat":43.25931,"lon":5.40899,"is_reserved":false,"is_disabled":false,"rental_uris":{"android":"levelo://app?vid=48e64539-c8f0-439b-bcf1-20ae8f537918","ios":"levelo://app?vid=48e64539-c8f0-439b-bcf1-20ae8f537918"},"vehicle_type_id":"4","last_reported":1738667283,"current_range_meters":25200,"station_id":"ce4bhm92rcd13ifvqglg","pricing_plan_id":"cebpf4jnsgd1na2vs0mg"},{"bike_id":"5bc6287f-5ed6-4b7e-a064-4a574b583e66","system_id":"levelo_inurba_marseille","lat":43.302,"lon":5.37414,"is_reserved":false,"is_disabled":false,"rental_uris":{"android":"levelo://app?vid=5bc6287f-5ed6-4b7e-a064-4a574b583e66","ios":"levelo://app?vid=5bc6287f-5ed6-4b7e-a064-4a574b583e66"},"vehicle_type_id":"4","last_reported":1738667283,"current_range_meters":27200,"station_id":"","pricing_plan_id":"cebpf4jnsgd1na2vs0mg"},{"bike_id":"aca7f856-95b0-4e97-8a0a-cf9d567272bd","system_id":"levelo_inurba_marseille","lat":43.2307,"lon":5.35506,"is_reserved":false,"is_disabled":false,"rental_uris":{"android":"levelo://app?vid=aca7f856-95b0-4e97-8a0a-cf9d567272bd","ios":"levelo://app?vid=aca7f856-95b0-4e97-8a0a-cf9d567272bd"},"vehicle_type_id":"4","last_reported":1738667283,"current_range_meters":34000,"station_id":"cpo3342slgdg3j2ifvpg","pricing_plan_id":"cebpf4jnsgd1na2vs0mg"},{"bike_id":"9d9e6714-036c-4151-8a5d-515ad00cd54b","system_id":"levelo_inurba_marseille","lat":43.22933,"lon":5.3537,"is_reserved":false,"is_disabled":false,"rental_uris":{"android":"levelo://app?vid=9d9e6714-036c-4151-8a5d-515ad00cd54b","ios":"levelo://app?vid=9d9e6714-036c-4151-8a5d-515ad00cd54b"},"vehicle_type_id":"4","last_reported":1738667283,"current_range_meters":17200,"station_id":"cpo3532slgdg3j2ikp40","pricing_plan_id":"cebpf4jnsgd1na2vs0mg"},{"bike_id":"ccd879e3-fbb4-4bbd-9c01-d06277293c4b","system_id":"levelo_inurba_marseille","lat":43.26209,"lon":5.37955,"is_reserved":false,"is_disabled":true,"rental_uris":{"android":"levelo://app?vid=ccd879e3-fbb4-4bbd-9c01-d06277293c4b","ios":"levelo://app?vid=ccd879e3-fbb4-4bbd-9c01-d06277293c4b"},"vehicle_type_id":"4","last_reported":1738667283,"current_range_meters":29600,"station_id":"ce4bhjp2rcd13ifvqg90","pricing_plan_id":"cebpf4jnsgd1na2vs0mg"},{"bike_id":"e9843d50-0171-4537-a610-8b849363767d","system_id":"levelo_inurba_marseille","lat":43.28706,"lon":5.39992,"is_reserved":false,"is_disabled":false,"rental_uris":{"android":"levelo://app?vid=e9843d50-0171-4537-a610-8b849363767d","ios":"levelo://app?vid=e9843d50-0171-4537-a610-8b849363767d"},"vehicle_type_id":"4","last_reported":1738667283,"current_range_meters":8800,"station_id":"ce4bho92rcd13ifvqh3g","pricing_plan_id":"cebpf4jnsgd1na2vs0mg"},{"bike_id":"33920eb8-7e87-4194-aee3-5a18ae0dfe43","system_id":"levelo_inurba_marseille","lat":43.29223,"lon":5.36074,"is_reserved":false,"is_disabled":false,"rental_uris":{"android":"levelo://app?vid=33920eb8-7e87-4194-aee3-5a18ae0dfe43","ios":"levelo://app?vid=33920eb8-7e87-4194-aee3-5a18ae0dfe43"},"vehicle_type_id":"4","last_reported":1738667283,"current_range_meters":16800,"station_id":"ce4bhbh2rcd13ifvqeqg","pricing_plan_id":"cebpf4jnsgd1na2vs0mg"},{"bike_id":"40bdcfb2-751b-4558-b6d4-3ac74ace0aab","system_id":"levelo_inurba_marseille","lat":43.32107,"lon":5.36777,"is_reserved":false,"is_disabled":true,"rental_uris":{"android":"levelo://app?vid=40bdcfb2-751b-4558-b6d4-3ac74ace0aab","ios":"levelo://app?vid=40bdcfb2-751b-4558-b6d4-3ac74ace0aab"},"vehicle_type_id":"4","last_reported":1738667283,"current_range_meters":30400,"station_id":"","pricing_plan_id":"cebpf4jnsgd1na2vs0mg"},{"bike_id":"f22ab9c4-4472-465c-9846-9bcae534d3af","system_id":"levelo_inurba_marseille","lat":43.32356,"lon":5.36764,"is_reserved":false,"is_disabled":true,"rental_uris":{"android":"levelo://app?vid=f22ab9c4-4472-465c-9846-9bcae534d3af","ios":"levelo://app?vid=f22ab9c4-4472-465c-9846-9bcae534d3af"},"vehicle_type_id":"4","last_reported":1738667283,"current_range_meters":1600,"station_id":"ce4bhsh2rcd13ifvqi2g","pricing_plan_id":"cebpf4jnsgd1na2vs0mg"},{"bike_id":"202a1aee-a207-4448-9d29-0812266be761","system_id":"levelo_inurba_marseille","lat":43.29523,"lon":5.37495,"is_reserved":false,"is_disabled":false,"rental_uris":{"android":"levelo://app?vid=202a1aee-a207-4448-9d29-0812266be761","ios":"levelo://app?vid=202a1aee-a207-4448-9d29-0812266be761"},"vehicle_type_id":"4","last_reported":1738667283,"current_range_meters":36400,"station_id":"ce4bgkp2rcd13ifvqbmg","pricing_plan_id":"cebpf4jnsgd1na2vs0mg"},{"bike_id":"4f0d7afb-7919-4d92-a699-5b52ab930452","system_id":"levelo_inurba_marseille","lat":43.25831,"lon":5.39437,"is_reserved":false,"is_disabled":false,"rental_uris":{"android":"levelo://app?vid=4f0d7afb-7919-4d92-a699-5b52ab930452","ios":"levelo://app?vid=4f0d7afb-7919-4d92-a699-5b52ab930452"},"vehicle_type_id":"4","last_reported":1738667283,"current_range_meters":38000,"station_id":"ce4bhip2rcd13ifvqft0","pricing_plan_id":"cebpf4jnsgd1na2vs0mg"},{"bike_id":"720c7732-8d4b-4323-ad43-669addfa91a5","system_id":"levelo_inurba_marseille","lat":43.33022,"lon":5.39037,"is_reserved":false,"is_disabled":false,"rental_uris":{"android":"levelo://app?vid=720c7732-8d4b-4323-ad43-669addfa91a5","ios":"levelo://app?vid=720c7732-8d4b-4323-ad43-669addfa91a5"},"vehicle_type_id":"4","last_reported":1738667283,"current_range_meters":27200,"station_id":"ce4bhr92rcd13ifvqhrg","pricing_plan_id":"cebpf4jnsgd1na2vs0mg"},{"bike_id":"7b39ed00-86df-4303-bda1-bfc0fee1e7e2","system_id":"levelo_inurba_marseille","lat":43.324527,"lon":5.455497,"is_reserved":false,"is_disabled":false,"rental_uris":{"android":"levelo://app?vid=7b39ed00-86df-4303-bda1-bfc0fee1e7e2","ios":"levelo://app?vid=7b39ed00-86df-4303-bda1-bfc0fee1e7e2"},"vehicle_type_id":"4","last_reported":1738667283,"current_range_meters":24800,"station_id":"","pricing_plan_id":"cebpf4jnsgd1na2vs0mg"},{"bike_id":"507839ec-b177-4505-871b-2df72a361cdb","system_id":"levelo_inurba_marseille","lat":43.31373,"lon":5.3671,"is_reserved":false,"is_disabled":false,"rental_uris":{"android":"levelo://app?vid=507839ec-b177-4505-871b-2df72a361cdb","ios":"levelo://app?vid=507839ec-b177-4505-871b-2df72a361cdb"},"vehicle_type_id":"4","last_reported":1738667283,"current_range_meters":27600,"station_id":"ce4bgr92rcd13ifvqc6g","pricing_plan_id":"cebpf4jnsgd1na2vs0mg"},{"bike_id":"771e725a-d615-420e-82e0-db8d4144a910","system_id":"levelo_inurba_marseille","lat":43.32466,"lon":5.36545,"is_reserved":false,"is_disabled":false,"rental_uris":{"android":"levelo://app?vid=771e725a-d615-420e-82e0-db8d4144a910","ios":"levelo://app?vid=771e725a-d615-420e-82e0-db8d4144a910"},"vehicle_type_id":"4","last_reported":1738667283,"current_range_meters":24400,"station_id":"ce4bhs12rcd13ifvqhvg","pricing_plan_id":"cebpf4jnsgd1na2vs0mg"},{"bike_id":"1c534e1d-1955-4900-8745-6c38287da634","system_id":"levelo_inurba_marseille","lat":43.29972,"lon":5.37176,"is_reserved":false,"is_disabled":false,"rental_uris":{"android":"levelo://app?vid=1c534e1d-1955-4900-8745-6c38287da634","ios":"levelo://app?vid=1c534e1d-1955-4900-8745-6c38287da634"},"vehicle_type_id":"4","last_reported":1738667283,"current_range_meters":30800,"station_id":"ce4bgr92rcd13ifvqc7g","pricing_plan_id":"cebpf4jnsgd1na2vs0mg"},{"bike_id":"31534464-a915-4d39-b204-d521bb2268b2","system_id":"levelo_inurba_marseille","lat":43.266827,"lon":5.382737,"is_reserved":false,"is_disabled":false,"rental_uris":{"android":"levelo://app?vid=31534464-a915-4d39-b204-d521bb2268b2","ios":"levelo://app?vid=31534464-a915-4d39-b204-d521bb2268b2"},"vehicle_type_id":"4","last_reported":1738667283,"current_range_meters":3200,"station_id":"ce4bhg92rcd13ifvqf90","pricing_plan_id":"cebpf4jnsgd1na2vs0mg"},{"bike_id":"bad12b46-aa04-4c47-86f4-2aea6ce4230d","system_id":"levelo_inurba_marseille","lat":43.26063,"lon":5.39394,"is_reserved":false,"is_disabled":false,"rental_uris":{"android":"levelo://app?vid=bad12b46-aa04-4c47-86f4-2aea6ce4230d","ios":"levelo://app?vid=bad12b46-aa04-4c47-86f4-2aea6ce4230d"},"vehicle_type_id":"4","last_reported":1738667283,"current_range_meters":38800,"station_id":"ce4bhh92rcd13ifvqfj0","pricing_plan_id":"cebpf4jnsgd1na2vs0mg"},{"bike_id":"c7efea0b-41ab-47c4-93f0-43a53000a63b","system_id":"levelo_inurba_marseille","lat":43.23069,"lon":5.35504,"is_reserved":false,"is_disabled":false,"rental_uris":{"android":"levelo://app?vid=c7efea0b-41ab-47c4-93f0-43a53000a63b","ios":"levelo://app?vid=c7efea0b-41ab-47c4-93f0-43a53000a63b"},"vehicle_type_id":"4","last_reported":1738667283,"current_range_meters":36000,"station_id":"cpo3342slgdg3j2ifvpg","pricing_plan_id":"cebpf4jnsgd1na2vs0mg"},{"bike_id":"46c3cd7a-f6ae-4a97-ab1c-f193dcf9017e","system_id":"levelo_inurba_marseille","lat":43.26547,"lon":5.37285,"is_reserved":false,"is_disabled":false,"rental_uris":{"android":"levelo://app?vid=46c3cd7a-f6ae-4a97-ab1c-f193dcf9017e","ios":"levelo://app?vid=46c3cd7a-f6ae-4a97-ab1c-f193dcf9017e"},"vehicle_type_id":"4","last_reported":1738667283,"current_range_meters":38800,"station_id":"ce4bhg12rcd13ifvqf70","pricing_plan_id":"cebpf4jnsgd1na2vs0mg"},{"bike_id":"b31cd24f-c975-4777-8280-7c6c0f248857","system_id":"levelo_inurba_marseille","lat":43.23135,"lon":5.43711,"is_reserved":false,"is_disabled":false,"rental_uris":{"android":"levelo://app?vid=b31cd24f-c975-4777-8280-7c6c0f248857","ios":"levelo://app?vid=b31cd24f-c975-4777-8280-7c6c0f248857"},"vehicle_type_id":"4","last_reported":1738667283,"current_range_meters":39200,"station_id":"ce4bhmp2rcd13ifvqgog","pricing_plan_id":"cebpf4jnsgd1na2vs0mg"},{"bike_id":"ac3727c3-ade4-4055-b399-6cfe8071692e","system_id":"levelo_inurba_marseille","lat":43.24382,"lon":5.37055,"is_reserved":false,"is_disabled":false,"rental_uris":{"android":"levelo://app?vid=ac3727c3-ade4-4055-b399-6cfe8071692e","ios":"levelo://app?vid=ac3727c3-ade4-4055-b399-6cfe8071692e"},"vehicle_type_id":"4","last_reported":1738667283,"current_range_meters":37600,"station_id":"ce4bhhh2rcd13ifvqfk0","pricing_plan_id":"cebpf4jnsgd1na2vs0mg"},{"bike_id":"0c57a44d-b1d9-4f9f-a4a3-2d8e4e8d781c","system_id":"levelo_inurba_marseille","lat":43.309,"lon":5.36867,"is_reserved":false,"is_disabled":false,"rental_uris":{"android":"levelo://app?vid=0c57a44d-b1d9-4f9f-a4a3-2d8e4e8d781c","ios":"levelo://app?vid=0c57a44d-b1d9-4f9f-a4a3-2d8e4e8d781c"},"vehicle_type_id":"4","last_reported":1738667283,"current_range_meters":22400,"station_id":"ce4bgn92rcd13ifvqbvg","pricing_plan_id":"cebpf4jnsgd1na2vs0mg"},{"bike_id":"31dd42c1-54df-46d7-bd4e-6b996a7c9c79","system_id":"levelo_inurba_marseille","lat":43.24072,"lon":5.37767,"is_reserved":false,"is_disabled":false,"rental_uris":{"android":"levelo://app?vid=31dd42c1-54df-46d7-bd4e-6b996a7c9c79","ios":"levelo://app?vid=31dd42c1-54df-46d7-bd4e-6b996a7c9c79"},"vehicle_type_id":"4","last_reported":1738667283,"current_range_meters":14000,"station_id":"ce4bhnp2rcd13ifvqgvg","pricing_plan_id":"cebpf4jnsgd1na2vs0mg"},{"bike_id":"a542093b-9a90-4044-9a2f-c04c765fe7cc","system_id":"levelo_inurba_marseille","lat":43.25914,"lon":5.40921,"is_reserved":false,"is_disabled":false,"rental_uris":{"android":"levelo://app?vid=a542093b-9a90-4044-9a2f-c04c765fe7cc","ios":"levelo://app?vid=a542093b-9a90-4044-9a2f-c04c765fe7cc"},"vehicle_type_id":"4","last_reported":1738667283,"current_range_meters":18800,"station_id":"ce4bhm92rcd13ifvqglg","pricing_plan_id":"cebpf4jnsgd1na2vs0mg"},{"bike_id":"4f1417c0-b684-4c46-8a8d-c64bcdf76d89","system_id":"levelo_inurba_marseille","lat":43.3055,"lon":5.38434,"is_reserved":false,"is_disabled":false,"rental_uris":{"android":"levelo://app?vid=4f1417c0-b684-4c46-8a8d-c64bcdf76d89","ios":"levelo://app?vid=4f1417c0-b684-4c46-8a8d-c64bcdf76d89"},"vehicle_type_id":"4","last_reported":1738667283,"current_range_meters":36800,"station_id":"ce4bgg92rcd13ifvqb30","pricing_plan_id":"cebpf4jnsgd1na2vs0mg"},{"bike_id":"3b11ed72-b559-44df-b0a4-77c895112d40","system_id":"levelo_inurba_marseille","lat":43.23963,"lon":5.3663,"is_reserved":false,"is_disabled":false,"rental_uris":{"android":"levelo://app?vid=3b11ed72-b559-44df-b0a4-77c895112d40","ios":"levelo://app?vid=3b11ed72-b559-44df-b0a4-77c895112d40"},"vehicle_type_id":"4","last_reported":1738667283,"current_range_meters":22000,"station_id":"ce4bhi12rcd13ifvqfp0","pricing_plan_id":"cebpf4jnsgd1na2vs0mg"},{"bike_id":"0a00fa9d-ff98-4de7-bd23-771090becd57","system_id":"levelo_inurba_marseille","lat":43.2417,"lon":5.39721,"is_reserved":false,"is_disabled":false,"rental_uris":{"android":"levelo://app?vid=0a00fa9d-ff98-4de7-bd23-771090becd57","ios":"levelo://app?vid=0a00fa9d-ff98-4de7-bd23-771090becd57"},"vehicle_type_id":"4","last_reported":1738667283,"current_range_meters":22000,"station_id":"ce4bhn12rcd13ifvqgpg","pricing_plan_id":"cebpf4jnsgd1na2vs0mg"},