{"last_updated":1740071284,"ttl":60,"version":"2.2","data":{"bikes":[{"bike_id":"ce4b1a64-d073-4d8f-9478-51e538912092","system_id":"levelo_inurba_marseille","lat":43.254945,"lon":5.376543,"is_reserved":false,"is_disabled":false,"rental_uris":{"android":"levelo://app?vid=ce4b1a64-d073-4d8f-9478-51e538912092","ios":"levelo://app?vid=ce4b1a64-d073-4d8f-9478-51e538912092"},"vehicle_type_id":"4","last_reported":1740071284,"current_range_meters":2800,"station_id":"ce4bhh12rcd13ifvqff0","pricing_plan_id":"cebpf4jnsgd1na2vs0mg"},{"bike_id":"eca277bd-aa0e-4a61-8590-cd87de0a2b98","system_id":"levelo_inurba_marseille","lat":43.27573,"lon":5.38425,"is_reserved":false,"is_disabled":false,"rental_uris":{"android":"levelo://app?vid=eca277bd-aa0e-4a61-8590-cd87de0a2b98","ios":"levelo://app?vid=eca277bd-aa0e-4a61-8590-cd87de0a2b98"},"vehicle_type_id":"4","last_reported":1740071284,"current_range_meters":2800,"station_id":"ce4bhh92rcd13ifvqfi0","pricing_plan_id":"cebpf4jnsgd1na2vs0mg"},{"bike_id":"0c26b1a4-eeee-4ad3-95b2-f5745b32f339","system_id":"levelo_inurba_marseille","lat":43.29856,"lon":5.39734,"is_reserved":false,"is_disabled":false,"rental_uris":{"android":"levelo://app?vid=0c26b1a4-eeee-4ad3-95b2-f5745b32f339","ios":"levelo://app?vid=0c26b1a4-eeee-4ad3-95b2-f5745b32f339"},"vehicle_type_id":"4","last_reported":1740071284,"current_range_meters":4000,"station_id":"ce4bh0h2rcd13ifvqd50","pricing_plan_id":"cebpf4jnsgd1na2vs0mg"},{"bike_id":"274aebbb-5e88-4d73-8f1b-4b74f5ae11e6","system_id":"levelo_inurba_marseille","lat":43.30213,"lon":5.39469,"is_reserved":false,"is_disabled":false,"rental_uris":{"android":"levelo://app?vid=274aebbb-5e88-4d73-8f1b-4b74f5ae11e6","ios":"levelo://app?vid=274aebbb-5e88-4d73-8f1b-4b74f5ae11e6"},"vehicle_type_id":"4","last_reported":1740071284,"current_range_meters":3200,"station_id":"ce4bh0p2rcd13ifvqd70","pricing_plan_id":"cebpf4jnsgd1na2vs0mg"},{"bike_id":"adb3d6df-7149-4295-84c9-8f4cb47f9c0e","system_id":"levelo_inurba_marseille","lat":43.2729,"lon":5.40673,"is_reserved":false,"is_disabled":true,"rental_uris":{"android":"levelo://app?vid=adb3d6df-7149-4295-84c9-8f4cb47f9c0e","ios":"levelo://app?vid=adb3d6df-7149-4295-84c9-8f4cb47f9c0e"},"vehicle_type_id":"4","last_reported":1740071284,"current_range_meters":3600,"station_id":"","pricing_plan_id":"cebpf4jnsgd1na2vs0mg"},{"bike_id":"9b13518b-a2c4-4105-832d-6eb5f3bad6b0","system_id":"levelo_inurba_marseille","lat":43.30139,"lon":5.38769,"is_reserved":false,"is_disabled":false,"rental_uris":{"android":"levelo://app?vid=9b13518b-a2c4-4105-832d-6eb5f3bad6b0","ios":"levelo://app?vid=9b13518b-a2c4-4105-832d-6eb5f3bad6b0"},"vehicle_type_id":"4","last_reported":1740071284,"current_range_meters":3600,"station_id":"ce4bghh2rcd13ifvqb60","pricing_plan_id":"cebpf4jnsgd1na2vs0mg"},{"bike_id":"ec2a2a80-692c-4e61-b758-ee418e5968e4","system_id":"levelo_inurba_marseille","lat":43.23968,"lon":5.36626,"is_reserved":false,"is_disabled":false,"rental_uris":{"android":"levelo://app?vid=ec2a2a80-692c-4e61-b758-ee418e5968e4","ios":"levelo://app?vid=ec2a2a80-692c-4e61-b758-ee418e5968e4"},"vehicle_type_id":"4","last_reported":1740071284,"current_range_meters":4400,"station_id":"ce4bhi12rcd13ifvqfp0","pricing_plan_id":"cebpf4jnsgd1na2vs0mg"},{"bike_id":"06500fd7-684d-4b95-87cf-63a52b60b37b","system_id":"levelo_inurba_marseille","lat":43.28676,"lon":5.38665,"is_reserved":false,"is_disabled":false,"rental_uris":{"android":"levelo://app?vid=06500fd7-684d-4b95-87cf-63a52b60b37b","ios":"levelo://app?vid=06500fd7-684d-4b95-87cf-63a52b60b37b"},"vehicle_type_id":"4","last_reported":1740071284,"current_range_meters":4800,"station_id":"ce4bh492rcd13ifvqdug","pricing_plan_id":"cebpf4jnsgd1na2vs0mg"},{"bike_id":"59e3f9a4-d6c7-4af9-9227-c0ac081873b4","system_id":"levelo_inurba_marseille","lat":43.289311,"lon":5.396163,"is_reserved":false,"is_disabled":false,"rental_uris":{"android":"levelo://app?vid=59e3f9a4-d6c7-4af9-9227-c0ac081873b4","ios":"levelo://app?vid=59e3f9a4-d6c7-4af9-9227-c0ac081873b4"},"vehicle_type_id":"4","last_reported":1740071284,"current_range_meters":4800,"station_id":"ce4bh3h2rcd13ifvqdn0","pricing_plan_id":"cebpf4jnsgd1na2vs0mg"},{"bike_id":"9198c6ef-bd5b-45d9-bd7b-e058d791d44b","system_id":"levelo_inurba_marseille","lat":43.24817,"lon":5.37461,"is_reserved":false,"is_disabled":true,"rental_uris":{"android":"levelo://app?vid=9198c6ef-bd5b-45d9-bd7b-e058d791d44b","ios":"levelo://app?vid=9198c6ef-bd5b-45d9-bd7b-e058d791d44b"},"vehicle_type_id":"4","last_reported":1740071284,"current_range_meters":4800,"station_id":"","pricing_plan_id":"cebpf4jnsgd1na2vs0mg"},{"bike_id":"efdc2a32-b4d1-4a7d-8218-910d61b4af4c","system_id":"levelo_inurba_marseille","lat":43.27918,"lon":5.39579,"is_reserved":false,"is_disabled":false,"rental_uris":{"android":"levelo://app?vid=efdc2a32-b4d1-4a7d-8218-910d61b4af4c","ios":"levelo://app?vid=efdc2a32-b4d1-4a7d-8218-910d61b4af4c"},"vehicle_type_id":"4","last_reported":1740071284,"current_range_meters":5600,"station_id":"ce4bhf92rcd13ifvqf40","pricing_plan_id":"cebpf4jnsgd1na2vs0mg"},{"bike_id":"1821cf5a-24bc-4763-9753-11df4acc4f4c","system_id":"levelo_inurba_marseille","lat":43.24164,"lon":5.36386,"is_reserved":false,"is_disabled":false,"rental_uris":{"android":"levelo://app?vid=1821cf5a-24bc-4763-9753-11df4acc4f4c","ios":"levelo://app?vid=1821cf5a-24bc-4763-9753-11df4acc4f4c"},"vehicle_type_id":"4","last_reported":1740071284,"current_range_meters":5600,"station_id":"cpo36qri1sfpv3e86is0","pricing_plan_id":"cebpf4jnsgd1na2vs0mg"},{"bike_id":"33da85fe-027b-4cbe-9039-732be23d7f91","system_id":"levelo_inurba_marseille","lat":43.26954,"lon":5.38634,"is_reserved":false,"is_disabled":false,"rental_uris":{"android":"levelo://app?vid=33da85fe-027b-4cbe-9039-732be23d7f91","ios":"levelo://app?vid=33da85fe-027b-4cbe-9039-732be23d7f91"},"vehicle_type_id":"4","last_reported":1740071284,"current_range_meters":1600,"station_id":"ce4bhh92rcd13ifvqfh0","pricing_plan_id":"cebpf4jnsgd1na2vs0mg"},{"bike_id":"ed56012a-438d-47c3-91d0-6b59e479a8f0","system_id":"levelo_inurba_marseille","lat":43.25089,"lon":5.39522,"is_reserved":false,"is_disabled":false,"rental_uris":{"android":"levelo://app?vid=ed56012a-438d-47c3-91d0-6b59e479a8f0","ios":"levelo://app?vid=ed56012a-438d-47c3-91d0-6b59e479a8f0"},"vehicle_type_id":"4","last_reported":1740071284,"current_range_meters":6000,"station_id":"ce4bhm12rcd13ifvqgkg","pricing_plan_id":"cebpf4jnsgd1na2vs0mg"},{"bike_id":"bfbd1fa1-b05d-4392-9a68-e917be305fab","system_id":"levelo_inurba_marseille","lat":43.293574,"lon":5.40178,"is_reserved":false,"is_disabled":false,"rental_uris":{"android":"levelo://app?vid=bfbd1fa1-b05d-4392-9a68-e917be305fab","ios":"levelo://app?vid=bfbd1fa1-b05d-4392-9a68-e917be305fab"},"vehicle_type_id":"4","last_reported":1740071284,"current_range_meters":6000,"station_id":"","pricing_plan_id":"cebpf4jnsgd1na2vs0mg"},{"bike_id":"d90448d0-ec8e-4614-9302-a8184ad50b9a","system_id":"levelo_inurba_marseille","lat":43.28171,"lon":5.42666,"is_reserved":false,"is_disabled":false,"rental_uris":{"android":"levelo://app?vid=d90448d0-ec8e-4614-9302-a8184ad50b9a","ios":"levelo://app?vid=d90448d0-ec8e-4614-9302-a8184ad50b9a"},"vehicle_type_id":"4","last_reported":1740071284,"current_range_meters":6000,"station_id":"ce4bhnh2rcd13ifvqgug","pricing_plan_id":"cebpf4jnsgd1na2vs0mg"},{"bike_id":"06f69ade-d19f-42de-ae97-6351fe20d3eb","system_id":"levelo_inurba_marseille","lat":43.29612,"lon":5.37159,"is_reserved":false,"is_disabled":false,"rental_uris":{"android":"levelo://app?vid=06f69ade-d19f-42de-ae97-6351fe20d3eb","ios":"levelo://app?vid=06f69ade-d19f-42de-ae97-6351fe20d3eb"},"vehicle_type_id":"4","last_reported":1740071284,"current_range_meters":6000,"station_id":"ce4bgnh2rcd13ifvqc0g","pricing_plan_id":"cebpf4jnsgd1na2vs0mg"},{"bike_id":"9f6da0a2-18ad-49bd-8cb6-3eb72d21e627","system_id":"levelo_inurba_marseille","lat":43.24076,"lon":5.37758,"is_reserved":false,"is_disabled":false,"rental_uris":{"android":"levelo://app?vid=9f6da0a2-18ad-49bd-8cb6-3eb72d21e627","ios":"levelo://app?vid=9f6da0a2-18ad-49bd-8cb6-3eb72d21e627"},"vehicle_type_id":"4","last_reported":1740071284,"current_range_meters":3200,"station_id":"ce4bhnp2rcd13ifvqgvg","pricing_plan_id":"cebpf4jnsgd1na2vs0mg"},{"bike_id":"39644f4c-7452-4653-8df7-9c7cef84e13d","system_id":"levelo_inurba_marseille","lat":43.25644,"lon":5.39402,"is_reserved":false,"is_disabled":true,"rental_uris":{"android":"levelo://app?vid=39644f4c-7452-4653-8df7-9c7cef84e13d","ios":"levelo://app?vid=39644f4c-7452-4653-8df7-9c7cef84e13d"},"vehicle_type_id":"4","last_reported":1740071284,"current_range_meters":6400,"station_id":"ce4bhh92rcd13ifvqfj0","pricing_plan_id":"cebpf4jnsgd1na2vs0mg"},{"bike_id":"4a808a73-93a5-430e-af77-2d4dd396417c","system_id":"levelo_inurba_marseille","lat":43.29596,"lon":5.38106,"is_reserved":false,"is_disabled":false,"rental_uris":{"android":"levelo://app?vid=4a808a73-93a5-430e-af77-2d4dd396417c","ios":"levelo://app?vid=4a808a73-93a5-430e-af77-2d4dd396417c"},"vehicle_type_id":"4","last_reported":1740071284,"current_range_meters":6800,"station_id":"ce4bgl12rcd13ifvqbo0","pricing_plan_id":"cebpf4jnsgd1na2vs0mg"},{"bike_id":"866d76c8-7b49-427f-8f16-f8a9e821347a","system_id":"levelo_inurba_marseille","lat":43.28154,"lon":5.42635,"is_reserved":false,"is_disabled":false,"rental_uris":{"android":"levelo://app?vid=866d76c8-7b49-427f-8f16-f8a9e821347a","ios":"levelo://app?vid=866d76c8-7b49-427f-8f16-f8a9e821347a"},"vehicle_type_id":"4","last_reported":1740071284,"current_range_meters":6800,"station_id":"ce4bhnh2rcd13ifvqgug","pricing_plan_id":"cebpf4jnsgd1na2vs0mg"},{"bike_id":"ab84dbbf-6c53-481f-8523-7f2e10cec44b","system_id":"levelo_inurba_marseille","lat":43.2952,"lon":5.39041,"is_reserved":false,"is_disabled":false,"rental_uris":{"android":"levelo://app?vid=ab84dbbf-6c53-481f-8523-7f2e10cec44b","ios":"levelo://app?vid=ab84dbbf-6c53-481f-8523-7f2e10cec44b"},"vehicle_type_id":"4","last_reported":1740071284,"current_range_meters":6800,"station_id":"ce4bh3p2rcd13ifvqdp0","pricing_plan_id":"cebpf4jnsgd1na2vs0mg"},{"bike_id":"093d36c4-f304-46a9-8792-5d9e19e468fc","system_id":"levelo_inurba_marseille","lat":43.29892,"lon":5.43646,"is_reserved":false,"is_disabled":false,"rental_uris":{"android":"levelo://app?vid=093d36c4-f304-46a9-8792-5d9e19e468fc","ios":"levelo://app?vid=093d36c4-f304-46a9-8792-5d9e19e468fc"},"vehicle_type_id":"4","last_reported":1740071284,"current_range_meters":7200,"station_id":"ce4bhpp2rcd13ifvqhfg","pricing_plan_id":"cebpf4jnsgd1na2vs0mg"},{"bike_id":"f027fe38-3f5d-42fa-b16a-68ca60104c09","system_id":"levelo_inurba_marseille","lat":43.24164,"lon":5.36409,"is_reserved":false,"is_disabled":false,"rental_uris":{"android":"levelo://app?vid=f027fe38-3f5d-42fa-b16a-68ca60104c09","ios":"levelo://app?vid=f027fe38-3f5d-42fa-b16a-68ca60104c09"},"vehicle_type_id":"4","last_reported":1740071284,"current_range_meters":7200,"station_id":"","pricing_plan_id":"cebpf4jnsgd1na2vs0mg"},{"bike_id":"7c61f358-2986-4345-a12c-6d76f6405e6f","system_id":"levelo_inurba_marseille","lat":43.2657,"lon":5.39006,"is_reserved":false,"is_disabled":false,"rental_uris":{"android":"levelo://app?vid=7c61f358-2986-4345-a12c-6d76f6405e6f","ios":"levelo://app?vid=7c61f358-2986-4345-a12c-6d76f6405e6f"},"vehicle_type_id":"4","last_reported":1740071284,"current_range_meters":7200,"station_id":"ce4bhe12rcd13ifvqf30","pricing_plan_id":"cebpf4jnsgd1na2vs0mg"},{"bike_id":"816e3e7b-b107-4001-b79f-e380ada67102","system_id":"levelo_inurba_marseille","lat":43.24166,"lon":5.36395,"is_reserved":false,"is_disabled":false,"rental_uris":{"android":"levelo://app?vid=816e3e7b-b107-4001-b79f-e380ada67102","ios":"levelo://app?vid=816e3e7b-b107-4001-b79f-e380ada67102"},"vehicle_type_id":"4","last_reported":1740071284,"current_range_meters":7200,"station_id":"cpo36qri1sfpv3e86is0","pricing_plan_id":"cebpf4jnsgd1na2vs0mg"},{"bike_id":"3633587c-dafb-4b6e-b4ae-308eb791df81","system_id":"levelo_inurba_marseille","lat":43.270516,"lon":5.402615,"is_reserved":false,"is_disabled":false,"rental_uris":{"android":"levelo://app?vid=3633587c-dafb-4b6e-b4ae-308eb791df81","ios":"levelo://app?vid=3633587c-dafb-4b6e-b4ae-308eb791df81"},"vehicle_type_id":"4","last_reported":1740071284,"current_range_meters":7200,"station_id":"","pricing_plan_id":"cebpf4jnsgd1na2vs0mg"},{"bike_id":"f8a1eefe-5190-4327-95c3-8138f343fe57","system_id":"levelo_inurba_marseille","lat":43.31179,"lon":5.39344,"is_reserved":false,"is_disabled":false,"rental_uris":{"android":"levelo://app?vid=f8a1eefe-5190-4327-95c3-8138f343fe57","ios":"levelo://app?vid=f8a1eefe-5190-4327-95c3-8138f343fe57"},"vehicle_type_id":"4","last_reported":1740071284,"current_range_meters":7200,"station_id":"ce4bgqh2rcd13ifvqc4g","pricing_plan_id":"cebpf4jnsgd1na2vs0mg"},{"bike_id":"4768c0a7-f84b-48a0-9b7d-4b82d915559f","system_id":"levelo_inurba_marseille","lat":43.24662,"lon":5.38172,"is_reserved":false,"is_disabled":false,"rental_uris":{"android":"levelo://app?vid=4768c0a7-f84b-48a0-9b7d-4b82d915559f","ios":"levelo://app?vid=4768c0a7-f84b-48a0-9b7d-4b82d915559f"},"vehicle_type_id":"4","last_reported":1740071284,"current_range_meters":7200,"station_id":"","pricing_plan_id":"cebpf4jnsgd1na2vs0mg"},{"bike_id":"1fc91a4d-91d4-4e49-bdd1-c24348e811e8","system_id":"levelo_inurba_marseille","lat":43.27074,"lon":5.4226,"is_reserved":false,"is_disabled":false,"rental_uris":{"android":"levelo://app?vid=1fc91a4d-91d4-4e49-bdd1-c24348e811e8","ios":"levelo://app?vid=1fc91a4d-91d4-4e49-bdd1-c24348e811e8"},"vehicle_type_id":"4","last_reported":1740071284,"current_range_meters":7200,"station_id":"ce4bhk92rcd13ifvqgb0","pricing_plan_id":"cebpf4jnsgd1na2vs0mg"},{"bike_id":"cec9431c-060a-43e3-a6ae-f2d51ee12324","system_id":"levelo_inurba_marseille","lat":43.29846,"lon":5.36274,"is_reserved":false,"is_disabled":false,"rental_uris":{"android":"levelo://app?vid=cec9431c-060a-43e3-a6ae-f2d51ee12324","ios":"levelo://app?vid=cec9431c-060a-43e3-a6ae-f2d51ee12324"},"vehicle_type_id":"4","last_reported":1740071284,"current_range_meters":8000,"station_id":"ce4bgpp2rcd13ifvqc3g","pricing_plan_id":"cebpf4jnsgd1na2vs0mg"},{"bike_id":"72108fed-3215-41fb-b9c1-3e03b1835c07","system_id":"levelo_inurba_marseille","lat":43.29926,"lon":5.4363,"is_reserved":false,"is_disabled":false,"rental_uris":{"android":"levelo://app?vid=72108fed-3215-41fb-b9c1-3e03b1835c07","ios":"levelo://app?vid=72108fed-3215-41fb-b9c1-3e03b1835c07"},"vehicle_type_id":"4","last_reported":1740071284,"current_range_meters":8000,"station_id":"ce4bhpp2rcd13ifvqhfg","pricing_plan_id":"cebpf4jnsgd1na2vs0mg"},{"bike_id":"d5173bbe-86f4-4afc-a8e0-76d62e3a8b83","system_id":"levelo_inurba_marseille","lat":43.23969,"lon":5.36624,"is_reserved":false,"is_disabled":false,"rental_uris":{"android":"levelo://app?vid=d5173bbe-86f4-4afc-a8e0-76d62e3a8b83","ios":"levelo://app?vid=d5173bbe-86f4-4afc-a8e0-76d62e3a8b83"},"vehicle_type_id":"4","last_reported":1740071284,"current_range_meters":8000,"station_id":"ce4bhi12rcd13ifvqfp0","pricing_plan_id":"cebpf4jnsgd1na2vs0mg"},{"bike_id":"3fa131c8-d3bf-4fb9-b400-1daf371dcaa7","system_id":"levelo_inurba_marseille","lat":43.2718,"lon":5.41012,"is_reserved":false,"is_disabled":false,"rental_uris":{"android":"levelo://app?vid=3fa131c8-d3bf-4fb9-b400-1daf371dcaa7","ios":"levelo://app?vid=3fa131c8-d3bf-4fb9-b400-1daf371dcaa7"},"vehicle_type_id":"4","last_reported":1740071284,"current_range_meters":8000,"station_id":"ce4bhl12rcd13ifvqgf0","pricing_plan_id":"cebpf4jnsgd1na2vs0mg"},{"bike_id":"63c4cf47-dbff-4d5e-a88a-080b99df99de","system_id":"levelo_inurba_marseille","lat":43.29518,"lon":5.38909,"is_reserved":false,"is_disabled":true,"rental_uris":{"android":"levelo://app?vid=63c4cf47-dbff-4d5e-a88a-080b99df99de","ios":"levelo://app?vid=63c4cf47-dbff-4d5e-a88a-080b99df99de"},"vehicle_type_id":"4","last_reported":1740071284,"current_range_meters":8000,"station_id":"","pricing_plan_id":"cebpf4jnsgd1na2vs0mg"},{"bike_id":"34d14ec0-9a1d-4d07-8158-52ff5d0c0371","system_id":"levelo_inurba_marseille","lat":43.29437,"lon":5.38042,"is_reserved":false,"is_disabled":false,"rental_uris":{"android":"levelo://app?vid=34d14ec0-9a1d-4d07-8158-52ff5d0c0371","ios":"levelo://app?vid=34d14ec0-9a1d-4d07-8158-52ff5d0c0371"},"vehicle_type_id":"4","last_reported":1740071284,"current_range_meters":8000,"station_id":"","pricing_plan_id":"cebpf4jnsgd1na2vs0mg"},{"bike_id":"5af37b11-87cf-4dac-95f6-5bab9f2591ca","system_id":"levelo_inurba_marseille","lat":43.28616,"lon":5.35105,"is_reserved":false,"is_disabled":false,"rental_uris":{"android":"levelo://app?vid=5af37b11-87cf-4dac-95f6-5bab9f2591ca","ios":"levelo://app?vid=5af37b11-87cf-4dac-95f6-5bab9f2591ca"},"vehicle_type_id":"4","last_reported":1740071284,"current_range_meters":8000,"station_id":"ce4bhch2rcd13ifvqeug","pricing_plan_id":"cebpf4jnsgd1na2vs0mg"},{"bike_id":"395359fd-a191-45fe-9bb4-bf96908dd0a6","system_id":"levelo_inurba_marseille","lat":43.30812,"lon":5.3884,"is_reserved":false,"is_disabled":false,"rental_uris":{"android":"levelo://app?vid=395359fd-a191-45fe-9bb4-bf96908dd0a6","ios":"levelo://app?vid=395359fd-a191-45fe-9bb4-bf96908dd0a6"},"vehicle_type_id":"4","last_reported":1740071284,"current_range_meters":8000,"station_id":"ce4bgup2rcd13ifvqco0","pricing_plan_id":"cebpf4jnsgd1na2vs0mg"},{"bike_id":"b64778c2-2434-4409-b125-e965a1fd469a","system_id":"levelo_inurba_marseille","lat":43.30283,"lon":5.36696,"is_reserved":false,"is_disabled":false,"rental_uris":{"android":"levelo://app?vid=b64778c2-2434-4409-b125-e965a1fd469a","ios":"levelo://app?vid=b64778c2-2434-4409-b125-e965a1fd469a"},"vehicle_type_id":"4","last_reported":1740071284,"current_range_meters":8000,"station_id":"ce4bgs12rcd13ifvqcag","pricing_plan_id":"cebpf4jnsgd1na2vs0mg"},{"bike_id":"5180f318-4948-4085-aaf1-5f3160b57dbe","system_id":"levelo_inurba_marseille","lat":43.276179,"lon":5.361058,"is_reserved":false,"is_disabled":false,"rental_uris":{"android":"levelo://app?vid=5180f318-4948-4085-aaf1-5f3160b57dbe","ios":"levelo://app?vid=5180f318-4948-4085-aaf1-5f3160b57dbe"},"vehicle_type_id":"4","last_reported":1740071284,"current_range_meters":8000,"station_id":"","pricing_plan_id":"cebpf4jnsgd1na2vs0mg"},{"bike_id":"8491ca76-5718-4b87-a5b5-6cdce096d0dc","system_id":"levelo_inurba_marseille","lat":43.24809,"lon":5.37458,"is_reserved":false,"is_disabled":false,"rental_uris":{"android":"levelo://app?vid=8491ca76-5718-4b87-a5b5-6cdce096d0dc","ios":"levelo://app?vid=8491ca76-5718-4b87-a5b5-6cdce096d0dc"},"vehicle_type_id":"4","last_reported":1740071284,"current_range_meters":8400,"station_id":"","pricing_plan_id":"cebpf4jnsgd1na2vs0mg"},{"bike_id":"4243ad73-8a04-440c-bea2-fed1020e6dd6","system_id":"levelo_inurba_marseille","lat":43.27975,"lon":5.38733,"is_reserved":false,"is_disabled":false,"rental_uris":{"android":"levelo://app?vid=4243ad73-8a04-440c-bea2-fed1020e6dd6","ios":"levelo://app?vid=4243ad73-8a04-440c-bea2-fed1020e6dd6"},"vehicle_type_id":"4","last_reported":1740071284,"current_range_meters":8000,"station_id":"ce4bhg12rcd13ifvqf80","pricing_plan_id":"cebpf4jnsgd1na2vs0mg"},{"bike_id":"a00fb5cd-e0d2-4f96-befb-5275c0df0c87","system_id":"levelo_inurba_marseille","lat":43.28013,"lon":5.41655,"is_reserved":false,"is_disabled":false,"rental_uris":{"android":"levelo://app?vid=a00fb5cd-e0d2-4f96-befb-5275c0df0c87","ios":"levelo://app?vid=a00fb5cd-e0d2-4f96-befb-5275c0df0c87"},"vehicle_type_id":"4","last_reported":1740071284,"current_range_meters":8400,"station_id":"ce4bho12rcd13ifvqh1g","pricing_plan_id":"cebpf4jnsgd1na2vs0mg"},{"bike_id":"06586a7b-ea90-4526-ba42-2a43b3e2cedd","system_id":"levelo_inurba_marseille","lat":43.25121,"lon":5.40316,"is_reserved":false,"is_disabled":false,"rental_uris":{"android":"levelo://app?vid=06586a7b-ea90-4526-ba42-2a43b3e2cedd","ios":"levelo://app?vid=06586a7b-ea90-4526-ba42-2a43b3e2cedd"},"vehicle_type_id":"4","last_reported":1740071284,"current_range_meters":8400,"station_id":"ce4bhlh2rcd13ifvqgig","pricing_plan_id":"cebpf4jnsgd1na2vs0mg"},{"bike_id":"9c89e956-4fce-4dcc-b1fe-489c2104a1b9","system_id":"levelo_inurba_marseille","lat":43.30632,"lon":5.40087,"is_reserved":false,"is_disabled":false,"rental_uris":{"android":"levelo://app?vid=9c89e956-4fce-4dcc-b1fe-489c2104a1b9","ios":"levelo://app?vid=9c89e956-4fce-4dcc-b1fe-489c2104a1b9"},"vehicle_type_id":"4","last_reported":1740071284,"current_range_meters":8000,"station_id":"ce4bh112rcd13ifvqda0","pricing_plan_id":"cebpf4jnsgd1na2vs0mg"},{"bike_id":"fcc19da7-8d24-4a0a-8a18-e3f38b7410d7","system_id":"levelo_inurba_marseille","lat":43.28367,"lon":5.38637,"is_reserved":false,"is_disabled":false,"rental_uris":{"android":"levelo://app?vid=fcc19da7-8d24-4a0a-8a18-e3f38b7410d7","ios":"levelo://app?vid=fcc19da7-8d24-4a0a-8a18-e3f38b7410d7"},"vehicle_type_id":"4","last_reported":1740071284,"current_range_meters":8800,"station_id":"ce4bh492rcd13ifvqdvg","pricing_plan_id":"cebpf4jnsgd1na2vs0mg"},{"bike_id":"fc971b16-bef3-4b6d-813c-ffc8ffa48842","system_id":"levelo_inurba_marseille","lat":43.2841,"lon":5.34986,"is_reserved":false,"is_disabled":true,"rental_uris":{"android":"levelo://app?vid=fc971b16-bef3-4b6d-813c-ffc8ffa48842","ios":"levelo://app?vid=fc971b16-bef3-4b6d-813c-ffc8ffa48842"},"vehicle_type_id":"4","last_reported":1740071284,"current_range_meters":8400,"station_id":"","pricing_plan_id":"cebpf4jnsgd1na2vs0mg"},{"bike_id":"104b15c6-bf74-407c-9a34-de8a1be58e4f","system_id":"levelo_inurba_marseille","lat":43.29208,"lon":5.37319,"is_reserved":false,"is_disabled":false,"rental_uris":{"android":"levelo://app?vid=104b15c6-bf74-407c-9a34-de8a1be58e4f","ios":"levelo://app?vid=104b15c6-bf74-407c-9a34-de8a1be58e4f"},"vehicle_type_id":"4","last_reported":1740071284,"current_range_meters":8400,"station_id":"","pricing_plan_id":"cebpf4jnsgd1na2vs0mg"},{"bike_id":"c000902f-c5f9-4784-8f8c-254f920ace9e","system_id":"levelo_inurba_marseille","lat":43.33733,"lon":5.3916,"is_reserved":false,"is_disabled":false,"rental_uris":{"android":"levelo://app?vid=c000902f-c5f9-4784-8f8c-254f920ace9e","ios":"levelo://app?vid=c000902f-c5f9-4784-8f8c-254f920ace9e"},"vehicle_type_id":"4","last_reported":1740071284,"current_range_meters":8400,"station_id":"ce4bhr92rcd13ifvqhsg","pricing_plan_id":"cebpf4jnsgd1na2vs0mg"},{"bike_id":"4f1ee591-32fa-4c64-8ff7-e76e1c499a91","system_id":"levelo_inurba_marseille","lat":43.32113,"lon":5.36773,"is_reserved":false,"is_disabled":false,"rental_uris":{"android":"levelo://app?vid=4f1ee591-32fa-4c64-8ff7-e76e1c499a91","ios":"levelo://app?vid=4f1ee591-32fa-4c64-8ff7-e76e1c499a91"},"vehicle_type_id":"4","last_reported":1740071284,"current_range_meters":8800,"station_id":"ce4bhrh2rcd13ifvqhug","pricing_plan_id":"cebpf4jnsgd1na2vs0mg"},{"bike_id":"23c7f17d-4517-4dd4-a3a7-dfe044723d32","system_id":"levelo_inurba_marseille","lat":43.30537,"lon":5.38426,"is_reserved":false,"is_disabled":true,"rental_uris":{"android":"levelo://app?vid=23c7f17d-4517-4dd4-a3a7-dfe044723d32","ios":"levelo://app?vid=23c7f17d-4517-4dd4-a3a7-dfe044723d32"},"vehicle_type_id":"4","last_reported":1740071284,"current_range_meters":8800,"station_id":"ce4bgg92rcd13ifvqb30","pricing_plan_id":"cebpf4jnsgd1na2vs0mg"},{"bike_id":"26779595-c177-40e8-a988-d5570ab1009d","system_id":"levelo_inurba_marseille","lat":43.29186,"lon":5.39768,"is_reserved":false,"is_disabled":false,"rental_uris":{"android":"levelo://app?vid=26779595-c177-40e8-a988-d5570ab1009d","ios":"levelo://app?vid=26779595-c177-40e8-a988-d5570ab1009d"},"vehicle_type_id":"4","last_reported":1740071284,"current_range_meters":8800,"station_id":"","pricing_plan_id":"cebpf4jnsgd1na2vs0mg"},{"bike_id":"0686e433-82b6-4ced-b364-39b66b6a0983","system_id":"levelo_inurba_marseille","lat":43.255799,"lon":5.382359,"is_reserved":false,"is_disabled":false,"rental_uris":{"android":"levelo://app?vid=0686e433-82b6-4ced-b364-39b66b6a0983","ios":"levelo://app?vid=0686e433-82b6-4ced-b364-39b66b6a0983"},"vehicle_type_id":"4","last_reported":1740071284,"current_range_meters":8800,"station_id":"ce4bhih2rcd13ifvqfs0","pricing_plan_id":"cebpf4jnsgd1na2vs0mg"},{"bike_id":"c344789d-c362-498c-aa9b-aa2e440bfbf0","system_id":"levelo_inurba_marseille","lat":43.32366,"lon":5.36755,"is_reserved":false,"is_disabled":false,"rental_uris":{"android":"levelo://app?vid=c344789d-c362-498c-aa9b-aa2e440bfbf0","ios":"levelo://app?vid=c344789d-c362-498c-aa9b-aa2e440bfbf0"},"vehicle_type_id":"4","last_reported":1740071284,"current_range_meters":8800,"station_id":"ce4bhsh2rcd13ifvqi2g","pricing_plan_id":"cebpf4jnsgd1na2vs0mg"},{"bike_id":"cd667917-3c7a-4d7b-b8c5-924e5f27e6de","system_id":"levelo_inurba_marseille","lat":43.31685,"lon":5.40475,"is_reserved":false,"is_disabled":false,"rental_uris":{"android":"levelo://app?vid=cd667917-3c7a-4d7b-b8c5-924e5f27e6de","ios":"levelo://app?vid=cd667917-3c7a-4d7b-b8c5-924e5f27e6de"},"vehicle_type_id":"4","last_reported":1740071284,"current_range_meters":8800,"station_id":"ce4bh012rcd13ifvqd00","pricing_plan_id":"cebpf4jnsgd1na2vs0mg"},{"bike_id":"5f9ede52-c720-4107-a864-980fb2608395","system_id":"levelo_inurba_marseille","lat":43.24104,"lon":5.38673,"is_reserved":false,"is_disabled":false,"rental_uris":{"android":"levelo://app?vid=5f9ede52-c720-4107-a864-980fb2608395","ios":"levelo://app?vid=5f9ede52-c720-4107-a864-980fb2608395"},"vehicle_type_id":"4","last_reported":1740071284,"current_range_meters":9200,"station_id":"ce4bhb92rcd13ifvqen0","pricing_plan_id":"cebpf4jnsgd1na2vs0mg"},{"bike_id":"af92c7a1-438e-4c41-b844-898e5c248038","system_id":"levelo_inurba_marseille","lat":43.28845,"lon":5.39309,"is_reserved":false,"is_disabled":false,"rental_uris":{"android":"levelo://app?vid=af92c7a1-438e-4c41-b844-898e5c248038","ios":"levelo://app?vid=af92c7a1-438e-4c41-b844-898e5c248038"},"vehicle_type_id":"4","last_reported":1740071284,"current_range_meters":8800,"station_id":"ce4bh2p2rcd13ifvqdi0","pricing_plan_id":"cebpf4jnsgd1na2vs0mg"},{"bike_id":"59fb335b-c540-4293-b5b0-9097f572241c","system_id":"levelo_inurba_marseille","lat":43.28155,"lon":5.42652,"is_reserved":false,"is_disabled":false,"rental_uris":{"android":"levelo://app?vid=59fb335b-c540-4293-b5b0-9097f572241c","ios":"levelo://app?vid=59fb335b-c540-4293-b5b0-9097f572241c"},"vehicle_type_id":"4","last_reported":1740071284,"current_range_meters":9200,"station_id":"ce4bgs12rcd13ifvqcag","pricing_plan_id":"cebpf4jnsgd1na2vs0mg"},{"bike_id":"098a8cc1-df03-48c2-a6cf-f41fb8dca8dc","system_id":"levelo_inurba_marseille","lat":43.30797,"lon":5.43521,"is_reserved":false,"is_disabled":false,"rental_uris":{"android":"levelo://app?vid=098a8cc1-df03-48c2-a6cf-f41fb8dca8dc","ios":"levelo://app?vid=098a8cc1-df03-48c2-a6cf-f41fb8dca8dc"},"vehicle_type_id":"4","last_reported":1740071284,"current_range_meters":9200,"station_id":"ce4bhph2rcd13ifvqheg","pricing_plan_id":"cebpf4jnsgd1na2vs0mg"},{"bike_id":"d078d9e7-1854-4ad6-a4cc-af7788d393db","system_id":"levelo_inurba_marseille","lat":43.27049,"lon":5.40276,"is_reserved":false,"is_disabled":false,"rental_uris":{"android":"levelo://app?vid=d078d9e7-1854-4ad6-a4cc-af7788d393db","ios":"levelo://app?vid=d078d9e7-1854-4ad6-a4cc-af7788d393db"},"vehicle_type_id":"4","last_reported":1740071284,"current_range_meters":9200,"station_id":"ce4bhk92rcd13ifvqgc0","pricing_plan_id":"cebpf4jnsgd1na2vs0mg"},{"bike_id":"058213af-b61b-486b-8e0a-0a8fd78595de","system_id":"levelo_inurba_marseille","lat":43.25067,"lon":5.39594,"is_reserved":false,"is_disabled":false,"rental_uris":{"android":"levelo://app?vid=058213af-b61b-486b-8e0a-0a8fd78595de","ios":"levelo://app?vid=058213af-b61b-486b-8e0a-0a8fd78595de"},"vehicle_type_id":"4","last_reported":1740071284,"current_range_meters":9200,"station_id":"ce4bhm12rcd13ifvqgkg","pricing_plan_id":"cebpf4jnsgd1na2vs0mg"},{"bike_id":"74e6da63-9e1b-404f-a46b-98a157cf25b3","system_id":"levelo_inurba_marseille","lat":43.27494,"lon":5.42458,"is_reserved":false,"is_disabled":false,"rental_uris":{"android":"levelo://app?vid=74e6da63-9e1b-404f-a46b-98a157cf25b3","ios":"levelo://app?vid=74e6da63-9e1b-404f-a46b-98a157cf25b3"},"vehicle_type_id":"4","last_reported":1740071284,"current_range_meters":9200,"station_id":"ce4bhn92rcd13ifvqgrg","pricing_plan_id":"cebpf4jnsgd1na2vs0mg"},{"bike_id":"6d3a1bc9-0168-46a0-8d06-2b755db45b0a","system_id":"levelo_inurba_marseille","lat":43.23062,"lon":5.35495,"is_reserved":false,"is_disabled":false,"rental_uris":{"android":"levelo://app?vid=6d3a1bc9-0168-46a0-8d06-2b755db45b0a","ios":"levelo://app?vid=6d3a1bc9-0168-46a0-8d06-2b755db45b0a"},"vehicle_type_id":"4","last_reported":1740071284,"current_range_meters":9600,"station_id":"cpo3342slgdg3j2ifvpg","pricing_plan_id":"cebpf4jnsgd1na2vs0mg"},{"bike_id":"0d34eb8c-c749-410b-a515-4800435ee933","system_id":"levelo_inurba_marseille","lat":43.24159,"lon":5.36395,"is_reserved":false,"is_disabled":false,"rental_uris":{"android":"levelo://app?vid=0d34eb8c-c749-410b-a515-4800435ee933","ios":"levelo://app?vid=0d34eb8c-c749-410b-a515-4800435ee933"},"vehicle_type_id":"4","last_reported":1740071284,"current_range_meters":9600,"station_id":"cpo36qri1sfpv3e86is0","pricing_plan_id":"cebpf4jnsgd1na2vs0mg"},{"bike_id":"f95a5649-643a-48c0-a1cd-8a1ae7759c5b","system_id":"levelo_inurba_marseille","lat":43.30642,"lon":5.4009,"is_reserved":false,"is_disabled":false,"rental_uris":{"android":"levelo://app?vid=f95a5649-643a-48c0-a1cd-8a1ae7759c5b","ios":"levelo://app?vid=f95a5649-643a-48c0-a1cd-8a1ae7759c5b"},"vehicle_type_id":"4","last_reported":1740071284,"current_range_meters":9600,"station_id":"ce4bh112rcd13ifvqda0","pricing_plan_id":"cebpf4jnsgd1na2vs0mg"},{"bike_id":"ed90c0c3-e601-4aad-880a-b7b932eeb6a4","system_id":"levelo_inurba_marseille","lat":43.28936,"lon":5.36625,"is_reserved":false,"is_disabled":false,"rental_uris":{"android":"levelo://app?vid=ed90c0c3-e601-4aad-880a-b7b932eeb6a4","ios":"levelo://app?vid=ed90c0c3-e601-4aad-880a-b7b932eeb6a4"},"vehicle_type_id":"4","last_reported":1740071284,"current_range_meters":9600,"station_id":"ce4bhap2rcd13ifvqek0","pricing_plan_id":"cebpf4jnsgd1na2vs0mg"},{"bike_id":"7451432c-7673-4f4f-8892-66c53925e0cc","system_id":"levelo_inurba_marseille","lat":43.26808,"lon":5.40271,"is_reserved":false,"is_disabled":false,"rental_uris":{"android":"levelo://app?vid=7451432c-7673-4f4f-8892-66c53925e0cc","ios":"levelo://app?vid=7451432c-7673-4f4f-8892-66c53925e0cc"},"vehicle_type_id":"4","last_reported":1740071284,"current_range_meters":9600,"station_id":"ce501612rcd8frsf0b60","pricing_plan_id":"cebpf4jnsgd1na2vs0mg"},{"bike_id":"a6aff9e7-7bad-40d2-8aeb-932b6cf43b17","system_id":"levelo_inurba_marseille","lat":43.30596,"lon":5.39355,"is_reserved":false,"is_disabled":false,"rental_uris":{"android":"levelo://app?vid=a6aff9e7-7bad-40d2-8aeb-932b6cf43b17","ios":"levelo://app?vid=a6aff9e7-7bad-40d2-8aeb-932b6cf43b17"},"vehicle_type_id":"4","last_reported":1740071284,"current_range_meters":9600,"station_id":"ce4bh0p2rcd13ifvqd80","pricing_plan_id":"cebpf4jnsgd1na2vs0mg"},{"bike_id":"ff083d96-1fe8-4388-b1fb-a058bee43b2d","system_id":"levelo_inurba_marseille","lat":43.27173,"lon":5.40998,"is_reserved":false,"is_disabled":false,"rental_uris":{"android":"levelo://app?vid=ff083d96-1fe8-4388-b1fb-a058bee43b2d","ios":"levelo://app?vid=ff083d96-1fe8-4388-b1fb-a058bee43b2d"},"vehicle_type_id":"4","last_reported":1740071284,"current_range_meters":9600,"station_id":"ce4bhl12rcd13ifvqgf0","pricing_plan_id":"cebpf4jnsgd1na2vs0mg"},{"bike_id":"77ac049b-6848-4db1-94df-a16d6879e316","system_id":"levelo_inurba_marseille","lat":43.23195,"lon":5.35541,"is_reserved":false,"is_disabled":false,"rental_uris":{"android":"levelo://app?vid=77ac049b-6848-4db1-94df-a16d6879e316","ios":"levelo://app?vid=77ac049b-6848-4db1-94df-a16d6879e316"},"vehicle_type_id":"4","last_reported":1740071284,"current_range_meters":10000,"station_id":"","pricing_plan_id":"cebpf4jnsgd1na2vs0mg"},{"bike_id":"8a223f79-d748-49c1-83c9-c4e90435c3fb","system_id":"levelo_inurba_marseille","lat":43.28002,"lon":5.40002,"is_reserved":false,"is_disabled":false,"rental_uris":{"android":"levelo://app?vid=8a223f79-d748-49c1-83c9-c4e90435c3fb","ios":"levelo://app?vid=8a223f79-d748-49c1-83c9-c4e90435c3fb"},"vehicle_type_id":"4","last_reported":1740071284,"current_range_meters":10000,"station_id":"","pricing_plan_id":"cebpf4jnsgd1na2vs0mg"},{"bike_id":"67ca0f9d-7456-4462-af7a-37311caa4525","system_id":"levelo_inurba_marseille","lat":43.250085,"lon":5.402909,"is_reserved":false,"is_disabled":false,"rental_uris":{"android":"levelo://app?vid=67ca0f9d-7456-4462-af7a-37311caa4525","ios":"levelo://app?vid=67ca0f9d-7456-4462-af7a-37311caa4525"},"vehicle_type_id":"4","last_reported":1740071284,"current_range_meters":9600,"station_id":"ce4bhnp2rcd13ifvqgvg","pricing_plan_id":"cebpf4jnsgd1na2vs0mg"},{"bike_id":"41f9e6ae-b93f-4b89-9909-07115b36f474","system_id":"levelo_inurba_marseille","lat":43.32546,"lon":5.41426,"is_reserved":false,"is_disabled":false,"rental_uris":{"android":"levelo://app?vid=41f9e6ae-b93f-4b89-9909-07115b36f474","ios":"levelo://app?vid=41f9e6ae-b93f-4b89-9909-07115b36f474"},"vehicle_type_id":"4","last_reported":1740071284,"current_range_meters":9600,"station_id":"ce4bhq12rcd13ifvqhhg","pricing_plan_id":"cebpf4jnsgd1na2vs0mg"},{"bike_id":"341bae22-75f3-4766-8fd7-413e8c4a7fee","system_id":"levelo_inurba_marseille","lat":43.26798,"lon":5.40262,"is_reserved":false,"is_disabled":false,"rental_uris":{"android":"levelo://app?vid=341bae22-75f3-4766-8fd7-413e8c4a7fee","ios":"levelo://app?vid=341bae22-75f3-4766-8fd7-413e8c4a7fee"},"vehicle_type_id":"4","last_reported":1740071284,"current_range_meters":10000,"station_id":"ce501612rcd8frsf0b60","pricing_plan_id":"cebpf4jnsgd1na2vs0mg"},{"bike_id":"c5feccd7-b23d-4c0f-a061-31164c693819","system_id":"levelo_inurba_marseille","lat":43.30148,"lon":5.38079,"is_reserved":false,"is_disabled":false,"rental_uris":{"android":"levelo://app?vid=c5feccd7-b23d-4c0f-a061-31164c693819","ios":"levelo://app?vid=c5feccd7-b23d-4c0f-a061-31164c693819"},"vehicle_type_id":"4","last_reported":1740071284,"current_range_meters":9600,"station_id":"ce4bgjp2rcd13ifvqbh0","pricing_plan_id":"cebpf4jnsgd1na2vs0mg"},{"bike_id":"7b19744e-f24f-4b7d-94e9-2a8fd4a78d0d","system_id":"levelo_inurba_marseille","lat":43.23198,"lon":5.35571,"is_reserved":false,"is_disabled":false,"rental_uris":{"android":"levelo://app?vid=7b19744e-f24f-4b7d-94e9-2a8fd4a78d0d","ios":"levelo://app?vid=7b19744e-f24f-4b7d-94e9-2a8fd4a78d0d"},"vehicle_type_id":"4","last_reported":1740071284,"current_range_meters":10000,"station_id":"","pricing_plan_id":"cebpf4jnsgd1na2vs0mg"},{"bike_id":"b646a716-85c8-4002-9b9b-0c437cdfb448","system_id":"levelo_inurba_marseille","lat":43.26032,"lon":5.37558,"is_reserved":false,"is_disabled":false,"rental_uris":{"android":"levelo://app?vid=b646a716-85c8-4002-9b9b-0c437cdfb448","ios":"levelo://app?vid=b646a716-85c8-4002-9b9b-0c437cdfb448"},"vehicle_type_id":"4","last_reported":1740071284,"current_range_meters":10000,"station_id":"ce4bhgh2rcd13ifvqfa0","pricing_plan_id":"cebpf4jnsgd1na2vs0mg"},{"bike_id":"eac4dcc6-bc6f-4c49-a0a2-750cbdf15d62","system_id":"levelo_inurba_marseille","lat":43.29239,"lon":5.38756,"is_reserved":false,"is_disabled":false,"rental_uris":{"android":"levelo://app?vid=eac4dcc6-bc6f-4c49-a0a2-750cbdf15d62","ios":"levelo://app?vid=eac4dcc6-bc6f-4c49-a0a2-750cbdf15d62"},"vehicle_type_id":"4","last_reported":1740071284,"current_range_meters":10000,"station_id":"ce4bh4p2rcd13ifvqe0g","pricing_plan_id":"cebpf4jnsgd1na2vs0mg"},{"bike_id":"1e793e10-fe22-47f1-bfea-207683d57725","system_id":"levelo_inurba_marseille","lat":43.28107,"lon":5.37839,"is_reserved":false,"is_disabled":false,"rental_uris":{"android":"levelo://app?vid=1e793e10-fe22-47f1-bfea-207683d57725","ios":"levelo://app?vid=1e793e10-fe22-47f1-bfea-207683d57725"},"vehicle_type_id":"4","last_reported":1740071284,"current_range_meters":10800,"station_id":"ce4bha12rcd13ifvqee0","pricing_plan_id":"cebpf4jnsgd1na2vs0mg"},{"bike_id":"a924690f-5eaa-41b4-9d8f-51fce574fc50","system_id":"levelo_inurba_marseille","lat":43.27506,"lon":5.42445,"is_reserved":false,"is_disabled":false,"rental_uris":{"android":"levelo://app?vid=a924690f-5eaa-41b4-9d8f-51fce574fc50","ios":"levelo://app?vid=a924690f-5eaa-41b4-9d8f-51fce574fc50"},"vehicle_type_id":"4","last_reported":1740071284,"current_range_meters":10800,"station_id":"ce4bhn92rcd13ifvqgrg","pricing_plan_id":"cebpf4jnsgd1na2vs0mg"},{"bike_id":"933a9f62-3f01-4876-b9bf-cda361fe4933","system_id":"levelo_inurba_marseille","lat":43.28474,"lon":5.38427,"is_reserved":false,"is_disabled":false,"rental_uris":{"android":"levelo://app?vid=933a9f62-3f01-4876-b9bf-cda361fe4933","ios":"levelo://app?vid=933a9f62-3f01-4876-b9bf-cda361fe4933"},"vehicle_type_id":"4","last_reported":1740071284,"current_range_meters":13600,"station_id":"ce4bh512rcd13ifvqe3g","pricing_plan_id":"cebpf4jnsgd1na2vs0mg"},{"bike_id":"473b17b1-142d-4d27-b91c-3781d2e4f5c4","system_id":"levelo_inurba_marseille","lat":43.28568,"lon":5.39508,"is_reserved":false,"is_disabled":false,"rental_uris":{"android":"levelo://app?vid=473b17b1-142d-4d27-b91c-3781d2e4f5c4","ios":"levelo://app?vid=473b17b1-142d-4d27-b91c-3781d2e4f5c4"},"vehicle_type_id":"4","last_reported":1740071284,"current_range_meters":10800,"station_id":"ce4bh292rcd13ifvqdg0","pricing_plan_id":"cebpf4jnsgd1na2vs0mg"},{"bike_id":"fc4644e7-1bdb-4d8d-8938-61bf673ce984","system_id":"levelo_inurba_marseille","lat":43.30531,"lon":5.36537,"is_reserved":false,"is_disabled":false,"rental_uris":{"android":"levelo://app?vid=fc4644e7-1bdb-4d8d-8938-61bf673ce984","ios":"levelo://app?vid=fc4644e7-1bdb-4d8d-8938-61bf673ce984"},"vehicle_type_id":"4","last_reported":1740071284,"current_range_meters":12400,"station_id":"ce4bgs12rcd13ifvqcag","pricing_plan_id":"cebpf4jnsgd1na2vs0mg"},{"bike_id":"2c642cf3-a2f0-4593-b1c2-d4719498916b","system_id":"levelo_inurba_marseille","lat":43.25127,"lon":5.403,"is_reserved":false,"is_disabled":false,"rental_uris":{"android":"levelo://app?vid=2c642cf3-a2f0-4593-b1c2-d4719498916b","ios":"levelo://app?vid=2c642cf3-a2f0-4593-b1c2-d4719498916b"},"vehicle_type_id":"4","last_reported":1740071284,"current_range_meters":10800,"station_id":"","pricing_plan_id":"cebpf4jnsgd1na2vs0mg"},{"bike_id":"635050f9-a2c9-4910-8267-ff5a32e2982d","system_id":"levelo_inurba_marseille","lat":43.24811,"lon":5.37465,"is_reserved":false,"is_disabled":true,"rental_uris":{"android":"levelo://app?vid=635050f9-a2c9-4910-8267-ff5a32e2982d","ios":"levelo://app?vid=635050f9-a2c9-4910-8267-ff5a32e2982d"},"vehicle_type_id":"4","last_reported":1740071284,"current_range_meters":11200,"station_id":"","pricing_plan_id":"cebpf4jnsgd1na2vs0mg"},{"bike_id":"d8d63958-88be-4764-b128-a5789ef937b8","system_id":"levelo_inurba_marseille","lat":43.32481,"lon":5.36547,"is_reserved":false,"is_disabled":false,"rental_uris":{"android":"levelo://app?vid=d8d63958-88be-4764-b128-a5789ef937b8","ios":"levelo://app?vid=d8d63958-88be-4764-b128-a5789ef937b8"},"vehicle_type_id":"4","last_reported":1740071284,"current_range_meters":11600,"station_id":"ce4bhs12rcd13ifvqhvg","pricing_plan_id":"cebpf4jnsgd1na2vs0mg"},{"bike_id":"fefab444-ebbc-4dfd-b128-cad8d771e3cb","system_id":"levelo_inurba_marseille","lat":43.28929,"lon":5.38403,"is_reserved":false,"is_disabled":false,"rental_uris":{"android":"levelo://app?vid=fefab444-ebbc-4dfd-b128-cad8d771e3cb","ios":"levelo://app?vid=fefab444-ebbc-4dfd-b128-cad8d771e3cb"},"vehicle_type_id":"4","last_reported":1740071284,"current_range_meters":11200,"station_id":"ce4bh612rcd13ifvqe6g","pricing_plan_id":"cebpf4jnsgd1na2vs0mg"},{"bike_id":"e47a9735-405a-46bf-8b7b-37ea70b50090","system_id":"levelo_inurba_marseille","lat":43.2656,"lon":5.39016,"is_reserved":false,"is_disabled":false,"rental_uris":{"android":"levelo://app?vid=e47a9735-405a-46bf-8b7b-37ea70b50090","ios":"levelo://app?vid=e47a9735-405a-46bf-8b7b-37ea70b50090"},"vehicle_type_id":"4","last_reported":1740071284,"current_range_meters":11600,"station_id":"ce4bhe12rcd13ifvqf30","pricing_plan_id":"cebpf4jnsgd1na2vs0mg"},{"bike_id":"d8dc2332-214f-488b-8389-0e429277c9f8","system_id":"levelo_inurba_marseille","lat":43.26227,"lon":5.37435,"is_reserved":false,"is_disabled":false,"rental_uris":{"android":"levelo://app?vid=d8dc2332-214f-488b-8389-0e429277c9f8","ios":"levelo://app?vid=d8dc2332-214f-488b-8389-0e429277c9f8"},"vehicle_type_id":"4","last_reported":1740071284,"current_range_meters":11600,"station_id":"ce4bhgp2rcd13ifvqfc0","pricing_plan_id":"cebpf4jnsgd1na2vs0mg"},{"bike_id":"f9aac61a-f5a8-40c8-a416-50a7a88baadc","system_id":"levelo_inurba_marseille","lat":43.3043,"lon":5.38892,"is_reserved":false,"is_disabled":false,"rental_uris":{"android":"levelo://app?vid=f9aac61a-f5a8-40c8-a416-50a7a88baadc","ios":"levelo://app?vid=f9aac61a-f5a8-40c8-a416-50a7a88baadc"},"vehicle_type_id":"4","last_reported":1740071284,"current_range_meters":11200,"station_id":"ce4bgk12rcd13ifvqbi0","pricing_plan_id":"cebpf4jnsgd1na2vs0mg"},{"bike_id":"a70af82e-abb1-4052-a908-3f6d7385acd1","system_id":"levelo_inurba_marseille","lat":43.28605,"lon":5.37075,"is_reserved":false,"is_disabled":false,"rental_uris":{"android":"levelo://app?vid=a70af82e-abb1-4052-a908-3f6d7385acd1","ios":"levelo://app?vid=a70af82e-abb1-4052-a908-3f6d7385acd1"},"vehicle_type_id":"4","last_reported":1740071284,"current_range_meters":11600,"station_id":"ce4bht12rcd13ifvqi60","pricing_plan_id":"cebpf4jnsgd1na2vs0mg"},{"bike_id":"bfa1afdd-6221-4a91-82bd-d18819a67e02","system_id":"levelo_inurba_marseille","lat":43.244238,"lon":5.370237,"is_reserved":false,"is_disabled":false,"rental_uris":{"android":"levelo://app?vid=bfa1afdd-6221-4a91-82bd-d18819a67e02","ios":"levelo://app?vid=bfa1afdd-6221-4a91-82bd-d18819a67e02"},"vehicle_type_id":"4","last_reported":1740071284,"current_range_meters":12000,"station_id":"ce4bhnp2rcd13ifvqgvg","pricing_plan_id":"cebpf4jnsgd1na2vs0mg"},{"bike_id":"29e3d43b-22b2-491c-955b-36246cdb8c10","system_id":"levelo_inurba_marseille","lat":43.32336,"lon":5.40622,"is_reserved":false,"is_disabled":false,"rental_uris":{"android":"levelo://app?vid=29e3d43b-22b2-491c-955b-36246cdb8c10","ios":"levelo://app?vid=29e3d43b-22b2-491c-955b-36246cdb8c10"},"vehicle_type_id":"4","last_reported":1740071284,"current_range_meters":12000,"station_id":"ce4bhq92rcd13ifvqhjg","pricing_plan_id":"cebpf4jnsgd1na2vs0mg"},{"bike_id":"601afe4a-25bf-4b56-a5ec-02075de1ee82","system_id":"levelo_inurba_marseille","lat":43.23061,"lon":5.35498,"is_reserved":false,"is_disabled":false,"rental_uris":{"android":"levelo://app?vid=601afe4a-25bf-4b56-a5ec-02075de1ee82","ios":"levelo://app?vid=601afe4a-25bf-4b56-a5ec-02075de1ee82"},"vehicle_type_id":"4","last_reported":1740071284,"current_range_meters":12000,"station_id":"cpo3342slgdg3j2ifvpg","pricing_plan_id":"cebpf4jnsgd1na2vs0mg"},{"bike_id":"ad47c7e9-f91e-4c76-a821-e7d2287689bf","system_id":"levelo_inurba_marseille","lat":43.27954,"lon":5.41046,"is_reserved":false,"is_disabled":false,"rental_uris":{"android":"levelo://app?vid=ad47c7e9-f91e-4c76-a821-e7d2287689bf","ios":"levelo://app?vid=ad47c7e9-f91e-4c76-a821-e7d2287689bf"},"vehicle_type_id":"4","last_reported":1740071284,"current_range_meters":12000,"station_id":"ce4bhnp2rcd13ifvqh0g","pricing_plan_id":"cebpf4jnsgd1na2vs0mg"},{"bike_id":"9aef2b50-02ae-4a6d-aa26-821348658263","system_id":"levelo_inurba_marseille","lat":43.28178,"lon":5.42628,"is_reserved":false,"is_disabled":false,"rental_uris":{"android":"levelo://app?vid=9aef2b50-02ae-4a6d-aa26-821348658263","ios":"levelo://app?vid=9aef2b50-02ae-4a6d-aa26-821348658263"},"vehicle_type_id":"4","last_reported":1740071284,"current_range_meters":12400,"station_id":"ce4bhnh2rcd13ifvqgug","pricing_plan_id":"cebpf4jnsgd1na2vs0mg"},{"bike_id":"75263313-0c5f-47a7-ac5a-7c3610a2bebf","system_id":"levelo_inurba_marseille","lat":43.29253,"lon":5.40908,"is_reserved":false,"is_disabled":false,"rental_uris":{"android":"levelo://app?vid=75263313-0c5f-47a7-ac5a-7c3610a2bebf","ios":"levelo://app?vid=75263313-0c5f-47a7-ac5a-7c3610a2bebf"},"vehicle_type_id":"4","last_reported":1740071284,"current_range_meters":12400,"station_id":"ce4bh192rcd13ifvqdc0","pricing_plan_id":"cebpf4jnsgd1na2vs0mg"},{"bike_id":"8becd64c-893d-4a08-8876-b1598e031c70","system_id":"levelo_inurba_marseille","lat":43.27963,"lon":5.38691,"is_reserved":false,"is_disabled":true,"rental_uris":{"android":"levelo://app?vid=8becd64c-893d-4a08-8876-b1598e031c70","ios":"levelo://app?vid=8becd64c-893d-4a08-8876-b1598e031c70"},"vehicle_type_id":"4","last_reported":1740071284,"current_range_meters":12400,"station_id":"","pricing_plan_id":"cebpf4jnsgd1na2vs0mg"},{"bike_id":"e72439bb-8b6d-4bd3-a9c4-c984d973de2a","system_id":"levelo_inurba_marseille","lat":43.29879,"lon":5.38913,"is_reserved":false,"is_disabled":false,"rental_uris":{"android":"levelo://app?vid=e72439bb-8b6d-4bd3-a9c4-c984d973de2a","ios":"levelo://app?vid=e72439bb-8b6d-4bd3-a9c4-c984d973de2a"},"vehicle_type_id":"4","last_reported":1740071284,"current_range_meters":12400,"station_id":"ce4bh392rcd13ifvqdl0","pricing_plan_id":"cebpf4jnsgd1na2vs0mg"},{"bike_id":"59b59c12-db6e-4917-8115-03bf8cf627f6","system_id":"levelo_inurba_marseille","lat":43.27999,"lon":5.41662,"is_reserved":false,"is_disabled":false,"rental_uris":{"android":"levelo://app?vid=59b59c12-db6e-4917-8115-03bf8cf627f6","ios":"levelo://app?vid=59b59c12-db6e-4917-8115-03bf8cf627f6"},"vehicle_type_id":"4","last_reported":1740071284,"current_range_meters":12400,"station_id":"ce4bho12rcd13ifvqh1g","pricing_plan_id":"cebpf4jnsgd1na2vs0mg"},{"bike_id":"8cdcd55c-bd13-4e35-9e67-7c1f90a91e72","system_id":"levelo_inurba_marseille","lat":43.30535,"lon":5.36534,"is_reserved":false,"is_disabled":false,"rental_uris":{"android":"levelo://app?vid=8cdcd55c-bd13-4e35-9e67-7c1f90a91e72","ios":"levelo://app?vid=8cdcd55c-bd13-4e35-9e67-7c1f90a91e72"},"vehicle_type_id":"4","last_reported":1740071284,"current_range_meters":12400,"station_id":"ce4bgs12rcd13ifvqcag","pricing_plan_id":"cebpf4jnsgd1na2vs0mg"},{"bike_id":"2ef0fbee-8aef-4ab3-a8a9-99c13c10bac6","system_id":"levelo_inurba_marseille","lat":43.28597,"lon":5.35137,"is_reserved":false,"is_disabled":false,"rental_uris":{"android":"levelo://app?vid=2ef0fbee-8aef-4ab3-a8a9-99c13c10bac6","ios":"levelo://app?vid=2ef0fbee-8aef-4ab3-a8a9-99c13c10bac6"},"vehicle_type_id":"4","last_reported":1740071284,"current_range_meters":12800,"station_id":"ce4bhch2rcd13ifvqeug","pricing_plan_id":"cebpf4jnsgd1na2vs0mg"},{"bike_id":"be040377-d2eb-4ee4-96ba-14685fefa7c8","system_id":"levelo_inurba_marseille","lat":43.267889,"lon":5.39411,"is_reserved":false,"is_disabled":false,"rental_uris":{"android":"levelo://app?vid=be040377-d2eb-4ee4-96ba-14685fefa7c8","ios":"levelo://app?vid=be040377-d2eb-4ee4-96ba-14685fefa7c8"},"vehicle_type_id":"4","last_reported":1740071284,"current_range_meters":12800,"station_id":"ce4bhh12rcd13ifvqfg0","pricing_plan_id":"cebpf4jnsgd1na2vs0mg"},{"bike_id":"94595656-7875-4d35-a761-a67d55761aa8","system_id":"levelo_inurba_marseille","lat":43.28483,"lon":5.3842,"is_reserved":false,"is_disabled":false,"rental_uris":{"android":"levelo://app?vid=94595656-7875-4d35-a761-a67d55761aa8","ios":"levelo://app?vid=94595656-7875-4d35-a761-a67d55761aa8"},"vehicle_type_id":"4","last_reported":1740071284,"current_range_meters":17200,"station_id":"ce4bh512rcd13ifvqe3g","pricing_plan_id":"cebpf4jnsgd1na2vs0mg"},{"bike_id":"2248a686-da6b-4ef8-880e-8db6a1c23aab","system_id":"levelo_inurba_marseille","lat":43.27384,"lon":5.36255,"is_reserved":false,"is_disabled":false,"rental_uris":{"android":"levelo://app?vid=2248a686-da6b-4ef8-880e-8db6a1c23aab","ios":"levelo://app?vid=2248a686-da6b-4ef8-880e-8db6a1c23aab"},"vehicle_type_id":"4","last_reported":1740071284,"current_range_meters":13600,"station_id":"","pricing_plan_id":"cebpf4jnsgd1na2vs0mg"},{"bike_id":"aa4eae64-3578-4557-bf5b-c1d619b5968e","system_id":"levelo_inurba_marseille","lat":43.28555,"lon":5.39511,"is_reserved":false,"is_disabled":false,"rental_uris":{"android":"levelo://app?vid=aa4eae64-3578-4557-bf5b-c1d619b5968e","ios":"levelo://app?vid=aa4eae64-3578-4557-bf5b-c1d619b5968e"},"vehicle_type_id":"4","last_reported":1740071284,"current_range_meters":13600,"station_id":"ce4bh292rcd13ifvqdg0","pricing_plan_id":"cebpf4jnsgd1na2vs0mg"},{"bike_id":"05edb635-cc4e-416e-9072-2523ac534e0a","system_id":"levelo_inurba_marseille","lat":43.27812,"lon":5.40711,"is_reserved":false,"is_disabled":false,"rental_uris":{"android":"levelo://app?vid=05edb635-cc4e-416e-9072-2523ac534e0a","ios":"levelo://app?vid=05edb635-cc4e-416e-9072-2523ac534e0a"},"vehicle_type_id":"4","last_reported":1740071284,"current_range_meters":13600,"station_id":"","pricing_plan_id":"cebpf4jnsgd1na2vs0mg"},{"bike_id":"99dbdd3a-6928-40bb-be36-acc5fa11135a","system_id":"levelo_inurba_marseille","lat":43.28615,"lon":5.35109,"is_reserved":false,"is_disabled":false,"rental_uris":{"android":"levelo://app?vid=99dbdd3a-6928-40bb-be36-acc5fa11135a","ios":"levelo://app?vid=99dbdd3a-6928-40bb-be36-acc5fa11135a"},"vehicle_type_id":"4","last_reported":1740071284,"current_range_meters":14000,"station_id":"ce4bhch2rcd13ifvqeug","pricing_plan_id":"cebpf4jnsgd1na2vs0mg"},{"bike_id":"9d6a497a-cd28-476a-8b33-d37f03cf08d3","system_id":"levelo_inurba_marseille","lat":43.22935,"lon":5.35378,"is_reserved":false,"is_disabled":false,"rental_uris":{"android":"levelo://app?vid=9d6a497a-cd28-476a-8b33-d37f03cf08d3","ios":"levelo://app?vid=9d6a497a-cd28-476a-8b33-d37f03cf08d3"},"vehicle_type_id":"4","last_reported":1740071284,"current_range_meters":14000,"station_id":"cpo3532slgdg3j2ikp40","pricing_plan_id":"cebpf4jnsgd1na2vs0mg"},{"bike_id":"afc5bd15-6b03-47f5-9134-c90cd08b5570","system_id":"levelo_inurba_marseille","lat":43.29034,"lon":5.39968,"is_reserved":false,"is_disabled":false,"rental_uris":{"android":"levelo://app?vid=afc5bd15-6b03-47f5-9134-c90cd08b5570","ios":"levelo://app?vid=afc5bd15-6b03-47f5-9134-c90cd08b5570"},"vehicle_type_id":"4","last_reported":1740071284,"current_range_meters":12000,"station_id":"ce4bh392rcd13ifvqdm0","pricing_plan_id":"cebpf4jnsgd1na2vs0mg"},{"bike_id":"afc720be-a2b8-4fa4-8341-51fff912bcaf","system_id":"levelo_inurba_marseille","lat":43.30256,"lon":5.40076,"is_reserved":false,"is_disabled":false,"rental_uris":{"android":"levelo://app?vid=afc720be-a2b8-4fa4-8341-51fff912bcaf","ios":"levelo://app?vid=afc720be-a2b8-4fa4-8341-51fff912bcaf"},"vehicle_type_id":"4","last_reported":1740071284,"current_range_meters":14000,"station_id":"ce4bgvh2rcd13ifvqcs0","pricing_plan_id":"cebpf4jnsgd1na2vs0mg"},{"bike_id":"149d8985-eade-45fb-8852-dcf993418135","system_id":"levelo_inurba_marseille","lat":43.29558,"lon":5.42274,"is_reserved":false,"is_disabled":false,"rental_uris":{"android":"levelo://app?vid=149d8985-eade-45fb-8852-dcf993418135","ios":"levelo://app?vid=149d8985-eade-45fb-8852-dcf993418135"},"vehicle_type_id":"4","last_reported":1740071284,"current_range_meters":14000,"station_id":"","pricing_plan_id":"cebpf4jnsgd1na2vs0mg"},{"bike_id":"e53b91c8-67fd-4f40-acea-7f7adf31cf25","system_id":"levelo_inurba_marseille","lat":43.29756,"lon":5.3812,"is_reserved":false,"is_disabled":false,"rental_uris":{"android":"levelo://app?vid=e53b91c8-67fd-4f40-acea-7f7adf31cf25","ios":"levelo://app?vid=e53b91c8-67fd-4f40-acea-7f7adf31cf25"},"vehicle_type_id":"4","last_reported":1740071284,"current_range_meters":14000,"station_id":"","pricing_plan_id":"cebpf4jnsgd1na2vs0mg"},{"bike_id":"b7e342d5-b8f5-455e-bbc2-81fd94c6ffdb","system_id":"levelo_inurba_marseille","lat":43.30325,"lon":5.40427,"is_reserved":false,"is_disabled":false,"rental_uris":{"android":"levelo://app?vid=b7e342d5-b8f5-455e-bbc2-81fd94c6ffdb","ios":"levelo://app?vid=b7e342d5-b8f5-455e-bbc2-81fd94c6ffdb"},"vehicle_type_id":"4","last_reported":1740071284,"current_range_meters":14000,"station_id":"ce4bh012rcd13ifvqd10","pricing_plan_id":"cebpf4jnsgd1na2vs0mg"},{"bike_id":"05e57666-efd9-4238-b420-de209546a796","system_id":"levelo_inurba_marseille","lat":43.27067,"lon":5.42278,"is_reserved":false,"is_disabled":false,"rental_uris":{"android":"levelo://app?vid=05e57666-efd9-4238-b420-de209546a796","ios":"levelo://app?vid=05e57666-efd9-4238-b420-de209546a796"},"vehicle_type_id":"4","last_reported":1740071284,"current_range_meters":14400,"station_id":"ce4bhk92rcd13ifvqgb0","pricing_plan_id":"cebpf4jnsgd1na2vs0mg"},{"bike_id":"fa22da5f-d2dd-4fc5-b21b-c20db88aa16c","system_id":"levelo_inurba_marseille","lat":43.28696,"lon":5.37382,"is_reserved":false,"is_disabled":false,"rental_uris":{"android":"levelo://app?vid=fa22da5f-d2dd-4fc5-b21b-c20db88aa16c","ios":"levelo://app?vid=fa22da5f-d2dd-4fc5-b21b-c20db88aa16c"},"vehicle_type_id":"4","last_reported":1740071284,"current_range_meters":14000,"station_id":"ce4bh3p2rcd13ifvqdq0","pricing_plan_id":"cebpf4jnsgd1na2vs0mg"},{"bike_id":"4806791b-ee1b-41f0-b51b-acd58bdd592e","system_id":"levelo_inurba_marseille","lat":43.28153,"lon":5.42653,"is_reserved":false,"is_disabled":false,"rental_uris":{"android":"levelo://app?vid=4806791b-ee1b-41f0-b51b-acd58bdd592e","ios":"levelo://app?vid=4806791b-ee1b-41f0-b51b-acd58bdd592e"},"vehicle_type_id":"4","last_reported":1740071284,"current_range_meters":14400,"station_id":"ce4bhnh2rcd13ifvqgug","pricing_plan_id":"cebpf4jnsgd1na2vs0mg"},{"bike_id":"6196792d-82db-4934-ba61-94d3b0241b32","system_id":"levelo_inurba_marseille","lat":43.284545,"lon":5.39213,"is_reserved":false,"is_disabled":false,"rental_uris":{"android":"levelo://app?vid=6196792d-82db-4934-ba61-94d3b0241b32","ios":"levelo://app?vid=6196792d-82db-4934-ba61-94d3b0241b32"},"vehicle_type_id":"4","last_reported":1740071284,"current_range_meters":9200,"station_id":"ce4bhoh2rcd13ifvqh5g","pricing_plan_id":"cebpf4jnsgd1na2vs0mg"},{"bike_id":"3447e7b6-f8ed-4872-a45f-cf3cd80ed8ad","system_id":"levelo_inurba_marseille","lat":43.29737,"lon":5.37915,"is_reserved":false,"is_disabled":false,"rental_uris":{"android":"levelo://app?vid=3447e7b6-f8ed-4872-a45f-cf3cd80ed8ad","ios":"levelo://app?vid=3447e7b6-f8ed-4872-a45f-cf3cd80ed8ad"},"vehicle_type_id":"4","last_reported":1740071284,"current_range_meters":14400,"station_id":"ce4bguh2rcd13ifvqckg","pricing_plan_id":"cebpf4jnsgd1na2vs0mg"},{"bike_id":"c4a4877d-b3ce-45a0-b5ab-0eaf20456376","system_id":"levelo_inurba_marseille","lat":43.33024,"lon":5.39038,"is_reserved":false,"is_disabled":false,"rental_uris":{"android":"levelo://app?vid=c4a4877d-b3ce-45a0-b5ab-0eaf20456376","ios":"levelo://app?vid=c4a4877d-b3ce-45a0-b5ab-0eaf20456376"},"vehicle_type_id":"4","last_reported":1740071284,"current_range_meters":14400,"station_id":"ce4bhr92rcd13ifvqhsg","pricing_plan_id":"cebpf4jnsgd1na2vs0mg"},{"bike_id":"de837ae6-6b2a-40bc-9a9d-29dd6f6e54cb","system_id":"levelo_inurba_marseille","lat":43.23956,"lon":5.36642,"is_reserved":false,"is_disabled":false,"rental_uris":{"android":"levelo://app?vid=de837ae6-6b2a-40bc-9a9d-29dd6f6e54cb","ios":"levelo://app?vid=de837ae6-6b2a-40bc-9a9d-29dd6f6e54cb"},"vehicle_type_id":"4","last_reported":1740071284,"current_range_meters":14400,"station_id":"ce4bhi12rcd13ifvqfp0","pricing_plan_id":"cebpf4jnsgd1na2vs0mg"},{"bike_id":"0a56f9d1-0a16-443d-8e0e-b767591ef2e6","system_id":"levelo_inurba_marseille","lat":43.26819,"lon":5.40222,"is_reserved":false,"is_disabled":false,"rental_uris":{"android":"levelo://app?vid=0a56f9d1-0a16-443d-8e0e-b767591ef2e6","ios":"levelo://app?vid=0a56f9d1-0a16-443d-8e0e-b767591ef2e6"},"vehicle_type_id":"4","last_reported":1740071284,"current_range_meters":14800,"station_id":"ce501612rcd8frsf0b60","pricing_plan_id":"cebpf4jnsgd1na2vs0mg"},{"bike_id":"ce0caea6-6d1c-48ef-b0eb-fae6199eb4e1","system_id":"levelo_inurba_marseille","lat":43.23066,"lon":5.35508,"is_reserved":false,"is_disabled":false,"rental_uris":{"android":"levelo://app?vid=ce0caea6-6d1c-48ef-b0eb-fae6199eb4e1","ios":"levelo://app?vid=ce0caea6-6d1c-48ef-b0eb-fae6199eb4e1"},"vehicle_type_id":"4","last_reported":1740071284,"current_range_meters":14800,"station_id":"cpo3342slgdg3j2ifvpg","pricing_plan_id":"cebpf4jnsgd1na2vs0mg"},{"bike_id":"7fd6ae63-e7b3-4553-8ba2-57f135372ad7","system_id":"levelo_inurba_marseille","lat":43.250898,"lon":5.39512,"is_reserved":false,"is_disabled":false,"rental_uris":{"android":"levelo://app?vid=7fd6ae63-e7b3-4553-8ba2-57f135372ad7","ios":"levelo://app?vid=7fd6ae63-e7b3-4553-8ba2-57f135372ad7"},"vehicle_type_id":"4","last_reported":1740071284,"current_range_meters":15200,"station_id":"ce4bhm12rcd13ifvqgkg","pricing_plan_id":"cebpf4jnsgd1na2vs0mg"},{"bike_id":"258c0b6d-c025-4336-ae91-69e82b72025b","system_id":"levelo_inurba_marseille","lat":43.31711,"lon":5.43703,"is_reserved":false,"is_disabled":false,"rental_uris":{"android":"levelo://app?vid=258c0b6d-c025-4336-ae91-69e82b72025b","ios":"levelo://app?vid=258c0b6d-c025-4336-ae91-69e82b72025b"},"vehicle_type_id":"4","last_reported":1740071284,"current_range_meters":15200,"station_id":"ce4bhp92rcd13ifvqhcg","pricing_plan_id":"cebpf4jnsgd1na2vs0mg"},{"bike_id":"f7ea75b6-b6c3-4cd4-bdd1-db6e549e6c30","system_id":"levelo_inurba_marseille","lat":43.32111,"lon":5.36766,"is_reserved":false,"is_disabled":false,"rental_uris":{"android":"levelo://app?vid=f7ea75b6-b6c3-4cd4-bdd1-db6e549e6c30","ios":"levelo://app?vid=f7ea75b6-b6c3-4cd4-bdd1-db6e549e6c30"},"vehicle_type_id":"4","last_reported":1740071284,"current_range_meters":15200,"station_id":"ce4bhrh2rcd13ifvqhug","pricing_plan_id":"cebpf4jnsgd1na2vs0mg"},{"bike_id":"b2b8bb44-4c5b-4d3d-9e10-f9bd4bb74b1e","system_id":"levelo_inurba_marseille","lat":43.25868,"lon":5.39887,"is_reserved":false,"is_disabled":false,"rental_uris":{"android":"levelo://app?vid=b2b8bb44-4c5b-4d3d-9e10-f9bd4bb74b1e","ios":"levelo://app?vid=b2b8bb44-4c5b-4d3d-9e10-f9bd4bb74b1e"},"vehicle_type_id":"4","last_reported":1740071284,"current_range_meters":15200,"station_id":"ce4bhl92rcd13ifvqghg","pricing_plan_id":"cebpf4jnsgd1na2vs0mg"},{"bike_id":"fc761709-dc29-4ec9-98e0-a86b20395421","system_id":"levelo_inurba_marseille","lat":43.29191,"lon":5.39307,"is_reserved":false,"is_disabled":false,"rental_uris":{"android":"levelo://app?vid=fc761709-dc29-4ec9-98e0-a86b20395421","ios":"levelo://app?vid=fc761709-dc29-4ec9-98e0-a86b20395421"},"vehicle_type_id":"4","last_reported":1740071284,"current_range_meters":15200,"station_id":"ce4bh192rcd13ifvqdd0","pricing_plan_id":"cebpf4jnsgd1na2vs0mg"},{"bike_id":"6106393f-3645-48aa-b132-3d2def6b4674","system_id":"levelo_inurba_marseille","lat":43.30455,"lon":5.38105,"is_reserved":false,"is_disabled":false,"rental_uris":{"android":"levelo://app?vid=6106393f-3645-48aa-b132-3d2def6b4674","ios":"levelo://app?vid=6106393f-3645-48aa-b132-3d2def6b4674"},"vehicle_type_id":"4","last_reported":1740071284,"current_range_meters":15200,"station_id":"ce4bgv92rcd13ifvqcq0","pricing_plan_id":"cebpf4jnsgd1na2vs0mg"},{"bike_id":"6cca4b43-1ffe-40f6-ad0d-5818f97d8149","system_id":"levelo_inurba_marseille","lat":43.28719,"lon":5.36088,"is_reserved":false,"is_disabled":false,"rental_uris":{"android":"levelo://app?vid=6cca4b43-1ffe-40f6-ad0d-5818f97d8149","ios":"levelo://app?vid=6cca4b43-1ffe-40f6-ad0d-5818f97d8149"},"vehicle_type_id":"4","last_reported":1740071284,"current_range_meters":16000,"station_id":"cki0cbj6b192h4jlfktg","pricing_plan_id":"cebpf4jnsgd1na2vs0mg"},{"bike_id":"bc3a7f3b-35d3-4795-aca4-f6007f1f50a5","system_id":"levelo_inurba_marseille","lat":43.29601,"lon":5.38093,"is_reserved":false,"is_disabled":false,"rental_uris":{"android":"levelo://app?vid=bc3a7f3b-35d3-4795-aca4-f6007f1f50a5","ios":"levelo://app?vid=bc3a7f3b-35d3-4795-aca4-f6007f1f50a5"},"vehicle_type_id":"4","last_reported":1740071284,"current_range_meters":16000,"station_id":"ce4bgl12rcd13ifvqbo0","pricing_plan_id":"cebpf4jnsgd1na2vs0mg"},{"bike_id":"f930b33f-4121-4f0c-9bf9-6a2ae5ef135b","system_id":"levelo_inurba_marseille","lat":43.27905,"lon":5.39583,"is_reserved":false,"is_disabled":false,"rental_uris":{"android":"levelo://app?vid=f930b33f-4121-4f0c-9bf9-6a2ae5ef135b","ios":"levelo://app?vid=f930b33f-4121-4f0c-9bf9-6a2ae5ef135b"},"vehicle_type_id":"4","last_reported":1740071284,"current_range_meters":16000,"station_id":"ce4bhf92rcd13ifvqf40","pricing_plan_id":"cebpf4jnsgd1na2vs0mg"},{"bike_id":"de838e9f-a7d5-4318-9612-b43c54b7646d","system_id":"levelo_inurba_marseille","lat":43.30865,"lon":5.39648,"is_reserved":false,"is_disabled":false,"rental_uris":{"android":"levelo://app?vid=de838e9f-a7d5-4318-9612-b43c54b7646d","ios":"levelo://app?vid=de838e9f-a7d5-4318-9612-b43c54b7646d"},"vehicle_type_id":"4","last_reported":1740071284,"current_range_meters":16000,"station_id":"ce4bh012rcd13ifvqcv0","pricing_plan_id":"cebpf4jnsgd1na2vs0mg"},{"bike_id":"78770267-4d60-4343-a4f7-0b50a7ff0e4e","system_id":"levelo_inurba_marseille","lat":43.26559,"lon":5.39026,"is_reserved":false,"is_disabled":false,"rental_uris":{"android":"levelo://app?vid=78770267-4d60-4343-a4f7-0b50a7ff0e4e","ios":"levelo://app?vid=78770267-4d60-4343-a4f7-0b50a7ff0e4e"},"vehicle_type_id":"4","last_reported":1740071284,"current_range_meters":16000,"station_id":"ce4bhe12rcd13ifvqf30","pricing_plan_id":"cebpf4jnsgd1na2vs0mg"},{"bike_id":"494a298f-2640-4f44-879e-9380ead6b3b1","system_id":"levelo_inurba_marseille","lat":43.32334,"lon":5.40622,"is_reserved":false,"is_disabled":false,"rental_uris":{"android":"levelo://app?vid=494a298f-2640-4f44-879e-9380ead6b3b1","ios":"levelo://app?vid=494a298f-2640-4f44-879e-9380ead6b3b1"},"vehicle_type_id":"4","last_reported":1740071284,"current_range_meters":14800,"station_id":"ce4bhq92rcd13ifvqhjg","pricing_plan_id":"cebpf4jnsgd1na2vs0mg"},{"bike_id":"19b817e1-b268-47e2-953e-34b4241c6f49","system_id":"levelo_inurba_marseille","lat":43.2926,"lon":5.38466,"is_reserved":false,"is_disabled":false,"rental_uris":{"android":"levelo://app?vid=19b817e1-b268-47e2-953e-34b4241c6f49","ios":"levelo://app?vid=19b817e1-b268-47e2-953e-34b4241c6f49"},"vehicle_type_id":"4","last_reported":1740071284,"current_range_meters":16000,"station_id":"ce4bh692rcd13ifvqea0","pricing_plan_id":"cebpf4jnsgd1na2vs0mg"},{"bike_id":"6f27079e-7019-4009-b14a-8ec88448f4c6","system_id":"levelo_inurba_marseille","lat":43.28693,"lon":5.37394,"is_reserved":false,"is_disabled":false,"rental_uris":{"android":"levelo://app?vid=6f27079e-7019-4009-b14a-8ec88448f4c6","ios":"levelo://app?vid=6f27079e-7019-4009-b14a-8ec88448f4c6"},"vehicle_type_id":"4","last_reported":1740071284,"current_range_meters":16000,"station_id":"ce4bh3p2rcd13ifvqdq0","pricing_plan_id":"cebpf4jnsgd1na2vs0mg"},{"bike_id":"76a1d742-84f2-439e-8b87-72eb73bf6cb6","system_id":"levelo_inurba_marseille","lat":43.26203,"lon":5.3744,"is_reserved":false,"is_disabled":false,"rental_uris":{"android":"levelo://app?vid=76a1d742-84f2-439e-8b87-72eb73bf6cb6","ios":"levelo://app?vid=76a1d742-84f2-439e-8b87-72eb73bf6cb6"},"vehicle_type_id":"4","last_reported":1740071284,"current_range_meters":16000,"station_id":"ce4bhgp2rcd13ifvqfc0","pricing_plan_id":"cebpf4jnsgd1na2vs0mg"},{"bike_id":"b253065d-1074-4a51-bc2b-4e15dba86004","system_id":"levelo_inurba_marseille","lat":43.23066,"lon":5.35494,"is_reserved":false,"is_disabled":false,"rental_uris":{"android":"levelo://app?vid=b253065d-1074-4a51-bc2b-4e15dba86004","ios":"levelo://app?vid=b253065d-1074-4a51-bc2b-4e15dba86004"},"vehicle_type_id":"4","last_reported":1740071284,"current_range_meters":16000,"station_id":"cpo3342slgdg3j2ifvpg","pricing_plan_id":"cebpf4jnsgd1na2vs0mg"},{"bike_id":"0b5c649f-827a-477c-aad5-99ee92fd2222","system_id":"levelo_inurba_marseille","lat":43.28351,"lon":5.38109,"is_reserved":false,"is_disabled":false,"rental_uris":{"android":"levelo://app?vid=0b5c649f-827a-477c-aad5-99ee92fd2222","ios":"levelo://app?vid=0b5c649f-827a-477c-aad5-99ee92fd2222"},"vehicle_type_id":"4","last_reported":1740071284,"current_range_meters":16000,"station_id":"ce4bh412rcd13ifvqdr0","pricing_plan_id":"cebpf4jnsgd1na2vs0mg"},{"bike_id":"227057db-dc30-41d9-94f6-d38935d8fec8","system_id":"levelo_inurba_marseille","lat":43.23968,"lon":5.36635,"is_reserved":false,"is_disabled":false,"rental_uris":{"android":"levelo://app?vid=227057db-dc30-41d9-94f6-d38935d8fec8","ios":"levelo://app?vid=227057db-dc30-41d9-94f6-d38935d8fec8"},"vehicle_type_id":"4","last_reported":1740071284,"current_range_meters":16400,"station_id":"ce4bhi12rcd13ifvqfp0","pricing_plan_id":"cebpf4jnsgd1na2vs0mg"},{"bike_id":"b057d0fa-33b6-477d-bbb3-30b06e8791c4","system_id":"levelo_inurba_marseille","lat":43.28427,"lon":5.37538,"is_reserved":false,"is_disabled":false,"rental_uris":{"android":"levelo://app?vid=b057d0fa-33b6-477d-bbb3-30b06e8791c4","ios":"levelo://app?vid=b057d0fa-33b6-477d-bbb3-30b06e8791c4"},"vehicle_type_id":"4","last_reported":1740071284,"current_range_meters":16400,"station_id":"ce4bh412rcd13ifvqds0","pricing_plan_id":"cebpf4jnsgd1na2vs0mg"},{"bike_id":"cc6f2e87-35b3-47bb-8103-9bd75abaf1e9","system_id":"levelo_inurba_marseille","lat":43.24662,"lon":5.38152,"is_reserved":false,"is_disabled":false,"rental_uris":{"android":"levelo://app?vid=cc6f2e87-35b3-47bb-8103-9bd75abaf1e9","ios":"levelo://app?vid=cc6f2e87-35b3-47bb-8103-9bd75abaf1e9"},"vehicle_type_id":"4","last_reported":1740071284,"current_range_meters":16400,"station_id":"ce4bhih2rcd13ifvqfr0","pricing_plan_id":"cebpf4jnsgd1na2vs0mg"},{"bike_id":"1736bdf7-065e-458a-8be8-137efe82e48a","system_id":"levelo_inurba_marseille","lat":43.33097,"lon":5.39055,"is_reserved":false,"is_disabled":false,"rental_uris":{"android":"levelo://app?vid=1736bdf7-065e-458a-8be8-137efe82e48a","ios":"levelo://app?vid=1736bdf7-065e-458a-8be8-137efe82e48a"},"vehicle_type_id":"4","last_reported":1740071284,"current_range_meters":16400,"station_id":"ce4bhqp2rcd13ifvqhog","pricing_plan_id":"cebpf4jnsgd1na2vs0mg"},{"bike_id":"f10ca6dc-ac5e-4b09-a000-a4457af3ded7","system_id":"levelo_inurba_marseille","lat":43.27375,"lon":5.36255,"is_reserved":false,"is_disabled":false,"rental_uris":{"android":"levelo://app?vid=f10ca6dc-ac5e-4b09-a000-a4457af3ded7","ios":"levelo://app?vid=f10ca6dc-ac5e-4b09-a000-a4457af3ded7"},"vehicle_type_id":"4","last_reported":1740071284,"current_range_meters":16400,"station_id":"ce4bhbh2rcd13ifvqeo0","pricing_plan_id":"cebpf4jnsgd1na2vs0mg"},{"bike_id":"790b0ff7-55c5-4c35-9f2a-78c4076d7d17","system_id":"levelo_inurba_marseille","lat":43.27954,"lon":5.385,"is_reserved":false,"is_disabled":false,"rental_uris":{"android":"levelo://app?vid=790b0ff7-55c5-4c35-9f2a-78c4076d7d17","ios":"levelo://app?vid=790b0ff7-55c5-4c35-9f2a-78c4076d7d17"},"vehicle_type_id":"4","last_reported":1740071284,"current_range_meters":16400,"station_id":"","pricing_plan_id":"cebpf4jnsgd1na2vs0mg"},{"bike_id":"5c979825-5eb1-42ff-ac54-c61e39783a0e","system_id":"levelo_inurba_marseille","lat":43.29808,"lon":5.38104,"is_reserved":false,"is_disabled":false,"rental_uris":{"android":"levelo://app?vid=5c979825-5eb1-42ff-ac54-c61e39783a0e","ios":"levelo://app?vid=5c979825-5eb1-42ff-ac54-c61e39783a0e"},"vehicle_type_id":"4","last_reported":1740071284,"current_range_meters":16400,"station_id":"ce4bgip2rcd13ifvqbb0","pricing_plan_id":"cebpf4jnsgd1na2vs0mg"},{"bike_id":"19ca7681-5d1a-4daf-9b8e-121a1e9b4230","system_id":"levelo_inurba_marseille","lat":43.28458,"lon":5.35883,"is_reserved":false,"is_disabled":false,"rental_uris":{"android":"levelo://app?vid=19ca7681-5d1a-4daf-9b8e-121a1e9b4230","ios":"levelo://app?vid=19ca7681-5d1a-4daf-9b8e-121a1e9b4230"},"vehicle_type_id":"4","last_reported":1740071284,"current_range_meters":16400,"station_id":"ce4bhah2rcd13ifvqei0","pricing_plan_id":"cebpf4jnsgd1na2vs0mg"},{"bike_id":"7441f324-4bcb-4b12-8af1-2a7609498984","system_id":"levelo_inurba_marseille","lat":43.29967,"lon":5.38493,"is_reserved":false,"is_disabled":false,"rental_uris":{"android":"levelo://app?vid=7441f324-4bcb-4b12-8af1-2a7609498984","ios":"levelo://app?vid=7441f324-4bcb-4b12-8af1-2a7609498984"},"vehicle_type_id":"4","last_reported":1740071284,"current_range_meters":16400,"station_id":"ce4bgj92rcd13ifvqbd0","pricing_plan_id":"cebpf4jnsgd1na2vs0mg"},{"bike_id":"817164db-7ebd-4899-bcab-6c98501f7677","system_id":"levelo_inurba_marseille","lat":43.27618,"lon":5.36123,"is_reserved":false,"is_disabled":false,"rental_uris":{"android":"levelo://app?vid=817164db-7ebd-4899-bcab-6c98501f7677","ios":"levelo://app?vid=817164db-7ebd-4899-bcab-6c98501f7677"},"vehicle_type_id":"4","last_reported":1740071284,"current_range_meters":16400,"station_id":"ce4bgj92rcd13ifvqbe0","pricing_plan_id":"cebpf4jnsgd1na2vs0mg"},{"bike_id":"0c6dfc2a-5d46-4b56-a56c-62302e24179b","system_id":"levelo_inurba_marseille","lat":43.29847,"lon":5.36269,"is_reserved":false,"is_disabled":false,"rental_uris":{"android":"levelo://app?vid=0c6dfc2a-5d46-4b56-a56c-62302e24179b","ios":"levelo://app?vid=0c6dfc2a-5d46-4b56-a56c-62302e24179b"},"vehicle_type_id":"4","last_reported":1740071284,"current_range_meters":16800,"station_id":"ce4bgpp2rcd13ifvqc3g","pricing_plan_id":"cebpf4jnsgd1na2vs0mg"},{"bike_id":"2c6621b6-bd4f-459c-862c-00c024792fa7","system_id":"levelo_inurba_marseille","lat":43.28618,"lon":5.35107,"is_reserved":false,"is_disabled":false,"rental_uris":{"android":"levelo://app?vid=2c6621b6-bd4f-459c-862c-00c024792fa7","ios":"levelo://app?vid=2c6621b6-bd4f-459c-862c-00c024792fa7"},"vehicle_type_id":"4","last_reported":1740071284,"current_range_meters":16800,"station_id":"ce4bhch2rcd13ifvqeug","pricing_plan_id":"cebpf4jnsgd1na2vs0mg"},{"bike_id":"d617bb64-f374-4a8e-8c90-77086ccb97f9","system_id":"levelo_inurba_marseille","lat":43.28157,"lon":5.42644,"is_reserved":false,"is_disabled":false,"rental_uris":{"android":"levelo://app?vid=d617bb64-f374-4a8e-8c90-77086ccb97f9","ios":"levelo://app?vid=d617bb64-f374-4a8e-8c90-77086ccb97f9"},"vehicle_type_id":"4","last_reported":1740071284,"current_range_meters":16800,"station_id":"ce4bhnh2rcd13ifvqgug","pricing_plan_id":"cebpf4jnsgd1na2vs0mg"},{"bike_id":"4f503a5c-8d18-43da-ae58-0cc1aae00b44","system_id":"levelo_inurba_marseille","lat":43.26558,"lon":5.37283,"is_reserved":false,"is_disabled":false,"rental_uris":{"android":"levelo://app?vid=4f503a5c-8d18-43da-ae58-0cc1aae00b44","ios":"levelo://app?vid=4f503a5c-8d18-43da-ae58-0cc1aae00b44"},"vehicle_type_id":"4","last_reported":1740071284,"current_range_meters":16800,"station_id":"ce4bhg12rcd13ifvqf70","pricing_plan_id":"cebpf4jnsgd1na2vs0mg"},{"bike_id":"0f9b09d5-96c5-46f8-a357-5f2b259626e5","system_id":"levelo_inurba_marseille","lat":43.2973,"lon":5.3768,"is_reserved":false,"is_disabled":false,"rental_uris":{"android":"levelo://app?vid=0f9b09d5-96c5-46f8-a357-5f2b259626e5","ios":"levelo://app?vid=0f9b09d5-96c5-46f8-a357-5f2b259626e5"},"vehicle_type_id":"4","last_reported":1740071284,"current_range_meters":16800,"station_id":"","pricing_plan_id":"cebpf4jnsgd1na2vs0mg"},{"bike_id":"87891dce-3352-4418-9015-a26c990ecd6e","system_id":"levelo_inurba_marseille","lat":43.23065,"lon":5.35496,"is_reserved":false,"is_disabled":false,"rental_uris":{"android":"levelo://app?vid=87891dce-3352-4418-9015-a26c990ecd6e","ios":"levelo://app?vid=87891dce-3352-4418-9015-a26c990ecd6e"},"vehicle_type_id":"4","last_reported":1740071284,"current_range_meters":16800,"station_id":"cpo3342slgdg3j2ifvpg","pricing_plan_id":"cebpf4jnsgd1na2vs0mg"},{"bike_id":"869b0bee-3ae9-40a5-8b90-97e99d7da129","system_id":"levelo_inurba_marseille","lat":43.29566,"lon":5.38693,"is_reserved":false,"is_disabled":false,"rental_uris":{"android":"levelo://app?vid=869b0bee-3ae9-40a5-8b90-97e99d7da129","ios":"levelo://app?vid=869b0bee-3ae9-40a5-8b90-97e99d7da129"},"vehicle_type_id":"4","last_reported":1740071284,"current_range_meters":17200,"station_id":"","pricing_plan_id":"cebpf4jnsgd1na2vs0mg"},{"bike_id":"4347ac42-d6bd-4898-bb54-db9da5fa21c6","system_id":"levelo_inurba_marseille","lat":43.26822,"lon":5.40247,"is_reserved":false,"is_disabled":false,"rental_uris":{"android":"levelo://app?vid=4347ac42-d6bd-4898-bb54-db9da5fa21c6","ios":"levelo://app?vid=4347ac42-d6bd-4898-bb54-db9da5fa21c6"},"vehicle_type_id":"4","last_reported":1740071284,"current_range_meters":16800,"station_id":"ce501612rcd8frsf0b60","pricing_plan_id":"cebpf4jnsgd1na2vs0mg"},{"bike_id":"4e11b30d-0226-4b04-813f-4404772688cd","system_id":"levelo_inurba_marseille","lat":43.290126,"lon":5.371471,"is_reserved":false,"is_disabled":false,"rental_uris":{"android":"levelo://app?vid=4e11b30d-0226-4b04-813f-4404772688cd","ios":"levelo://app?vid=4e11b30d-0226-4b04-813f-4404772688cd"},"vehicle_type_id":"4","last_reported":1740071284,"current_range_meters":16800,"station_id":"","pricing_plan_id":"cebpf4jnsgd1na2vs0mg"},{"bike_id":"1b96ba7f-c758-49cb-a961-4c08348c5e24","system_id":"levelo_inurba_marseille","lat":43.279863,"lon":5.400141,"is_reserved":false,"is_disabled":false,"rental_uris":{"android":"levelo://app?vid=1b96ba7f-c758-49cb-a961-4c08348c5e24","ios":"levelo://app?vid=1b96ba7f-c758-49cb-a961-4c08348c5e24"},"vehicle_type_id":"4","last_reported":1740071284,"current_range_meters":16800,"station_id":"","pricing_plan_id":"cebpf4jnsgd1na2vs0mg"},{"bike_id":"6e7bc9e4-4f1a-4318-93da-1bc3ecd960b8","system_id":"levelo_inurba_marseille","lat":43.26986,"lon":5.40199,"is_reserved":false,"is_disabled":false,"rental_uris":{"android":"levelo://app?vid=6e7bc9e4-4f1a-4318-93da-1bc3ecd960b8","ios":"levelo://app?vid=6e7bc9e4-4f1a-4318-93da-1bc3ecd960b8"},"vehicle_type_id":"4","last_reported":1740071284,"current_range_meters":17200,"station_id":"cjm6bp8fraef2m0cb0m0","pricing_plan_id":"cebpf4jnsgd1na2vs0mg"},{"bike_id":"cc63eb62-9489-4527-a815-ddeda37f2bbb","system_id":"levelo_inurba_marseille","lat":43.31761,"lon":5.39022,"is_reserved":false,"is_disabled":false,"rental_uris":{"android":"levelo://app?vid=cc63eb62-9489-4527-a815-ddeda37f2bbb","ios":"levelo://app?vid=cc63eb62-9489-4527-a815-ddeda37f2bbb"},"vehicle_type_id":"4","last_reported":1740071284,"current_range_meters":17200,"station_id":"ce4bhqp2rcd13ifvqhng","pricing_plan_id":"cebpf4jnsgd1na2vs0mg"},{"bike_id":"f800bf4a-a88e-43ea-b4b8-11875d2f53c7","system_id":"levelo_inurba_marseille","lat":43.2481,"lon":5.37459,"is_reserved":false,"is_disabled":true,"rental_uris":{"android":"levelo://app?vid=f800bf4a-a88e-43ea-b4b8-11875d2f53c7","ios":"levelo://app?vid=f800bf4a-a88e-43ea-b4b8-11875d2f53c7"},"vehicle_type_id":"4","last_reported":1740071284,"current_range_meters":17200,"station_id":"","pricing_plan_id":"cebpf4jnsgd1na2vs0mg"},{"bike_id":"3a18a060-43b3-487c-bb23-8493264d5ba4","system_id":"levelo_inurba_marseille","lat":43.2418,"lon":5.36407,"is_reserved":false,"is_disabled":true,"rental_uris":{"android":"levelo://app?vid=3a18a060-43b3-487c-bb23-8493264d5ba4","ios":"levelo://app?vid=3a18a060-43b3-487c-bb23-8493264d5ba4"},"vehicle_type_id":"4","last_reported":1740071284,"current_range_meters":17200,"station_id":"","pricing_plan_id":"cebpf4jnsgd1na2vs0mg"},{"bike_id":"6a41d4d5-6ce6-4940-8b60-f1b1f72587c0","system_id":"levelo_inurba_marseille","lat":43.23064,"lon":5.35489,"is_reserved":false,"is_disabled":false,"rental_uris":{"android":"levelo://app?vid=6a41d4d5-6ce6-4940-8b60-f1b1f72587c0","ios":"levelo://app?vid=6a41d4d5-6ce6-4940-8b60-f1b1f72587c0"},"vehicle_type_id":"4","last_reported":1740071284,"current_range_meters":17200,"station_id":"cpo3342slgdg3j2ifvpg","pricing_plan_id":"cebpf4jnsgd1na2vs0mg"},{"bike_id":"da0d8a57-dc35-4cad-a584-68768284fc4a","system_id":"levelo_inurba_marseille","lat":43.29581,"lon":5.37505,"is_reserved":false,"is_disabled":false,"rental_uris":{"android":"levelo://app?vid=da0d8a57-dc35-4cad-a584-68768284fc4a","ios":"levelo://app?vid=da0d8a57-dc35-4cad-a584-68768284fc4a"},"vehicle_type_id":"4","last_reported":1740071284,"current_range_meters":17600,"station_id":"","pricing_plan_id":"cebpf4jnsgd1na2vs0mg"},{"bike_id":"5a1126fe-6df9-4762-99a1-5fbfb1b1bf31","system_id":"levelo_inurba_marseille","lat":43.23176,"lon":5.39991,"is_reserved":false,"is_disabled":false,"rental_uris":{"android":"levelo://app?vid=5a1126fe-6df9-4762-99a1-5fbfb1b1bf31","ios":"levelo://app?vid=5a1126fe-6df9-4762-99a1-5fbfb1b1bf31"},"vehicle_type_id":"4","last_reported":1740071284,"current_range_meters":17600,"station_id":"ce4bhn12rcd13ifvqgqg","pricing_plan_id":"cebpf4jnsgd1na2vs0mg"},{"bike_id":"44e45a0d-80e4-4777-b789-c9ff84761c0c","system_id":"levelo_inurba_marseille","lat":43.29275,"lon":5.39432,"is_reserved":false,"is_disabled":false,"rental_uris":{"android":"levelo://app?vid=44e45a0d-80e4-4777-b789-c9ff84761c0c","ios":"levelo://app?vid=44e45a0d-80e4-4777-b789-c9ff84761c0c"},"vehicle_type_id":"4","last_reported":1740071284,"current_range_meters":17600,"station_id":"","pricing_plan_id":"cebpf4jnsgd1na2vs0mg"},{"bike_id":"39911775-b352-437f-a831-cbaa657f922a","system_id":"levelo_inurba_marseille","lat":43.28697,"lon":5.37391,"is_reserved":false,"is_disabled":false,"rental_uris":{"android":"levelo://app?vid=39911775-b352-437f-a831-cbaa657f922a","ios":"levelo://app?vid=39911775-b352-437f-a831-cbaa657f922a"},"vehicle_type_id":"4","last_reported":1740071284,"current_range_meters":17600,"station_id":"ce4bh3p2rcd13ifvqdq0","pricing_plan_id":"cebpf4jnsgd1na2vs0mg"},{"bike_id":"02fad79e-d65c-4951-a69a-82da62317bed","system_id":"levelo_inurba_marseille","lat":43.30912,"lon":5.37211,"is_reserved":false,"is_disabled":false,"rental_uris":{"android":"levelo://app?vid=02fad79e-d65c-4951-a69a-82da62317bed","ios":"levelo://app?vid=02fad79e-d65c-4951-a69a-82da62317bed"},"vehicle_type_id":"4","last_reported":1740071284,"current_range_meters":18000,"station_id":"ce4bguh2rcd13ifvqckg","pricing_plan_id":"cebpf4jnsgd1na2vs0mg"},{"bike_id":"c3cd1bef-97c7-4b60-ab47-c671257ecf82","system_id":"levelo_inurba_marseille","lat":43.27993,"lon":5.40018,"is_reserved":false,"is_disabled":false,"rental_uris":{"android":"levelo://app?vid=c3cd1bef-97c7-4b60-ab47-c671257ecf82","ios":"levelo://app?vid=c3cd1bef-97c7-4b60-ab47-c671257ecf82"},"vehicle_type_id":"4","last_reported":1740071284,"current_range_meters":18000,"station_id":"ce4bho92rcd13ifvqh4g","pricing_plan_id":"cebpf4jnsgd1na2vs0mg"},{"bike_id":"be88c30d-4812-4960-ba0c-4b891328ead6","system_id":"levelo_inurba_marseille","lat":43.30153,"lon":5.38093,"is_reserved":false,"is_disabled":false,"rental_uris":{"android":"levelo://app?vid=be88c30d-4812-4960-ba0c-4b891328ead6","ios":"levelo://app?vid=be88c30d-4812-4960-ba0c-4b891328ead6"},"vehicle_type_id":"4","last_reported":1740071284,"current_range_meters":16800,"station_id":"ce4bgjp2rcd13ifvqbh0","pricing_plan_id":"cebpf4jnsgd1na2vs0mg"},{"bike_id":"89fb68ec-1aa9-4c97-8b89-632e005ea687","system_id":"levelo_inurba_marseille","lat":43.337444,"lon":5.374475,"is_reserved":false,"is_disabled":true,"rental_uris":{"android":"levelo://app?vid=89fb68ec-1aa9-4c97-8b89-632e005ea687","ios":"levelo://app?vid=89fb68ec-1aa9-4c97-8b89-632e005ea687"},"vehicle_type_id":"4","last_reported":1740071284,"current_range_meters":18000,"station_id":"","pricing_plan_id":"cebpf4jnsgd1na2vs0mg"},{"bike_id":"99fa4e79-fd08-42e1-ba35-0c0a4c8e2bad","system_id":"levelo_inurba_marseille","lat":43.29307,"lon":5.37168,"is_reserved":false,"is_disabled":false,"rental_uris":{"android":"levelo://app?vid=99fa4e79-fd08-42e1-ba35-0c0a4c8e2bad","ios":"levelo://app?vid=99fa4e79-fd08-42e1-ba35-0c0a4c8e2bad"},"vehicle_type_id":"4","last_reported":1740071284,"current_range_meters":18800,"station_id":"ce4bhah2rcd13ifvqei0","pricing_plan_id":"cebpf4jnsgd1na2vs0mg"},{"bike_id":"e652cc8f-4f97-4ef9-b889-e884c38c1ebb","system_id":"levelo_inurba_marseille","lat":43.27071,"lon":5.42275,"is_reserved":false,"is_disabled":false,"rental_uris":{"android":"levelo://app?vid=e652cc8f-4f97-4ef9-b889-e884c38c1ebb","ios":"levelo://app?vid=e652cc8f-4f97-4ef9-b889-e884c38c1ebb"},"vehicle_type_id":"4","last_reported":1740071284,"current_range_meters":18800,"station_id":"ce4bhk92rcd13ifvqgb0","pricing_plan_id":"cebpf4jnsgd1na2vs0mg"},{"bike_id":"b23948c4-9ed9-4085-8c97-ebb4a0a0ee9f","system_id":"levelo_inurba_marseille","lat":43.29909,"lon":5.38143,"is_reserved":false,"is_disabled":false,"rental_uris":{"android":"levelo://app?vid=b23948c4-9ed9-4085-8c97-ebb4a0a0ee9f","ios":"levelo://app?vid=b23948c4-9ed9-4085-8c97-ebb4a0a0ee9f"},"vehicle_type_id":"4","last_reported":1740071284,"current_range_meters":18800,"station_id":"ce4bgj12rcd13ifvqbc0","pricing_plan_id":"cebpf4jnsgd1na2vs0mg"},{"bike_id":"6a6be621-8d80-4e4e-92dc-6b1bf1433232","system_id":"levelo_inurba_marseille","lat":43.26941,"lon":5.38928,"is_reserved":false,"is_disabled":false,"rental_uris":{"android":"levelo://app?vid=6a6be621-8d80-4e4e-92dc-6b1bf1433232","ios":"levelo://app?vid=6a6be621-8d80-4e4e-92dc-6b1bf1433232"},"vehicle_type_id":"4","last_reported":1740071284,"current_range_meters":18800,"station_id":"ce4bhhh2rcd13ifvqfl0","pricing_plan_id":"cebpf4jnsgd1na2vs0mg"},{"bike_id":"4425d015-adec-4c1e-bd9b-0894e4035698","system_id":"levelo_inurba_marseille","lat":43.25004,"lon":5.38929,"is_reserved":false,"is_disabled":false,"rental_uris":{"android":"levelo://app?vid=4425d015-adec-4c1e-bd9b-0894e4035698","ios":"levelo://app?vid=4425d015-adec-4c1e-bd9b-0894e4035698"},"vehicle_type_id":"4","last_reported":1740071284,"current_range_meters":18800,"station_id":"ce4bhgp2rcd13ifvqfd0","pricing_plan_id":"cebpf4jnsgd1na2vs0mg"},{"bike_id":"24654f33-b883-4d99-a740-4ee5c46f53c9","system_id":"levelo_inurba_marseille","lat":43.30256,"lon":5.40072,"is_reserved":false,"is_disabled":false,"rental_uris":{"android":"levelo://app?vid=24654f33-b883-4d99-a740-4ee5c46f53c9","ios":"levelo://app?vid=24654f33-b883-4d99-a740-4ee5c46f53c9"},"vehicle_type_id":"4","last_reported":1740071284,"current_range_meters":18800,"station_id":"ce4bgvh2rcd13ifvqcs0","pricing_plan_id":"cebpf4jnsgd1na2vs0mg"},{"bike_id":"c4b83dd8-017e-4619-9702-635df994bb88","system_id":"levelo_inurba_marseille","lat":43.28854,"lon":5.35868,"is_reserved":false,"is_disabled":false,"rental_uris":{"android":"levelo://app?vid=c4b83dd8-017e-4619-9702-635df994bb88","ios":"levelo://app?vid=c4b83dd8-017e-4619-9702-635df994bb88"},"vehicle_type_id":"4","last_reported":1740071284,"current_range_meters":18000,"station_id":"ce4bhb12rcd13ifvqem0","pricing_plan_id":"cebpf4jnsgd1na2vs0mg"},{"bike_id":"6a462a2e-2c60-4037-a393-4a40e27fc42a","system_id":"levelo_inurba_marseille","lat":43.29566,"lon":5.37532,"is_reserved":false,"is_disabled":false,"rental_uris":{"android":"levelo://app?vid=6a462a2e-2c60-4037-a393-4a40e27fc42a","ios":"levelo://app?vid=6a462a2e-2c60-4037-a393-4a40e27fc42a"},"vehicle_type_id":"4","last_reported":1740071284,"current_range_meters":18800,"station_id":"ce4bgh92rcd13ifvqb50","pricing_plan_id":"cebpf4jnsgd1na2vs0mg"},{"bike_id":"75b5f4fb-0c49-422f-9831-059225f51683","system_id":"levelo_inurba_marseille","lat":43.29597,"lon":5.37745,"is_reserved":false,"is_disabled":false,"rental_uris":{"android":"levelo://app?vid=75b5f4fb-0c49-422f-9831-059225f51683","ios":"levelo://app?vid=75b5f4fb-0c49-422f-9831-059225f51683"},"vehicle_type_id":"4","last_reported":1740071284,"current_range_meters":18800,"station_id":"","pricing_plan_id":"cebpf4jnsgd1na2vs0mg"},{"bike_id":"fbb92cb6-a3ec-4556-9ebb-7bbb40910c3f","system_id":"levelo_inurba_marseille","lat":43.29726,"lon":5.37694,"is_reserved":false,"is_disabled":false,"rental_uris":{"android":"levelo://app?vid=fbb92cb6-a3ec-4556-9ebb-7bbb40910c3f","ios":"levelo://app?vid=fbb92cb6-a3ec-4556-9ebb-7bbb40910c3f"},"vehicle_type_id":"4","last_reported":1740071284,"current_range_meters":18800,"station_id":"","pricing_plan_id":"cebpf4jnsgd1na2vs0mg"},{"bike_id":"ebe8f273-5739-4753-ba61-e13e57e5e3ea","system_id":"levelo_inurba_marseille","lat":43.265747,"lon":5.390208,"is_reserved":false,"is_disabled":true,"rental_uris":{"android":"levelo://app?vid=ebe8f273-5739-4753-ba61-e13e57e5e3ea","ios":"levelo://app?vid=ebe8f273-5739-4753-ba61-e13e57e5e3ea"},"vehicle_type_id":"4","last_reported":1740071284,"current_range_meters":19200,"station_id":"","pricing_plan_id":"cebpf4jnsgd1na2vs0mg"},{"bike_id":"e6ec2fad-ee3e-4b80-bdc2-bd3cc04d0ed7","system_id":"levelo_inurba_marseille","lat":43.24386,"lon":5.3706,"is_reserved":false,"is_disabled":false,"rental_uris":{"android":"levelo://app?vid=e6ec2fad-ee3e-4b80-bdc2-bd3cc04d0ed7","ios":"levelo://app?vid=e6ec2fad-ee3e-4b80-bdc2-bd3cc04d0ed7"},"vehicle_type_id":"4","last_reported":1740071284,"current_range_meters":19200,"station_id":"ce4bhhh2rcd13ifvqfk0","pricing_plan_id":"cebpf4jnsgd1na2vs0mg"},{"bike_id":"958fae96-519b-4f7e-80d0-1d9be06fbb3a","system_id":"levelo_inurba_marseille","lat":43.23957,"lon":5.36639,"is_reserved":false,"is_disabled":false,"rental_uris":{"android":"levelo://app?vid=958fae96-519b-4f7e-80d0-1d9be06fbb3a","ios":"levelo://app?vid=958fae96-519b-4f7e-80d0-1d9be06fbb3a"},"vehicle_type_id":"4","last_reported":1740071284,"current_range_meters":19200,"station_id":"ce4bhi12rcd13ifvqfp0","pricing_plan_id":"cebpf4jnsgd1na2vs0mg"},{"bike_id":"6e7e43ed-a5d3-42e4-95ff-eae1110c839f","system_id":"levelo_inurba_marseille","lat":43.27074,"lon":5.40247,"is_reserved":false,"is_disabled":false,"rental_uris":{"android":"levelo://app?vid=6e7e43ed-a5d3-42e4-95ff-eae1110c839f","ios":"levelo://app?vid=6e7e43ed-a5d3-42e4-95ff-eae1110c839f"},"vehicle_type_id":"4","last_reported":1740071284,"current_range_meters":19200,"station_id":"ce4bhk92rcd13ifvqgc0","pricing_plan_id":"cebpf4jnsgd1na2vs0mg"},{"bike_id":"0b8967d5-064c-49d4-9afd-1134055880cc","system_id":"levelo_inurba_marseille","lat":43.27966,"lon":5.38739,"is_reserved":false,"is_disabled":false,"rental_uris":{"android":"levelo://app?vid=0b8967d5-064c-49d4-9afd-1134055880cc","ios":"levelo://app?vid=0b8967d5-064c-49d4-9afd-1134055880cc"},"vehicle_type_id":"4","last_reported":1740071284,"current_range_meters":18800,"station_id":"ce4bhg12rcd13ifvqf80","pricing_plan_id":"cebpf4jnsgd1na2vs0mg"},{"bike_id":"bd5f8a85-a515-4efd-921f-9416fb59e27b","system_id":"levelo_inurba_marseille","lat":43.27502,"lon":5.4245,"is_reserved":false,"is_disabled":false,"rental_uris":{"android":"levelo://app?vid=bd5f8a85-a515-4efd-921f-9416fb59e27b","ios":"levelo://app?vid=bd5f8a85-a515-4efd-921f-9416fb59e27b"},"vehicle_type_id":"4","last_reported":1740071284,"current_range_meters":19200,"station_id":"ce4bhn92rcd13ifvqgrg","pricing_plan_id":"cebpf4jnsgd1na2vs0mg"},{"bike_id":"f8dc06e9-9627-49fa-8554-b95357819920","system_id":"levelo_inurba_marseille","lat":43.29031,"lon":5.38641,"is_reserved":false,"is_disabled":false,"rental_uris":{"android":"levelo://app?vid=f8dc06e9-9627-49fa-8554-b95357819920","ios":"levelo://app?vid=f8dc06e9-9627-49fa-8554-b95357819920"},"vehicle_type_id":"4","last_reported":1740071284,"current_range_meters":19200,"station_id":"ce4bh4p2rcd13ifvqe0g","pricing_plan_id":"cebpf4jnsgd1na2vs0mg"},{"bike_id":"15645e3d-5dd6-4bfa-9b38-2475ddfc1093","system_id":"levelo_inurba_marseille","lat":43.27805,"lon":5.40719,"is_reserved":false,"is_disabled":false,"rental_uris":{"android":"levelo://app?vid=15645e3d-5dd6-4bfa-9b38-2475ddfc1093","ios":"levelo://app?vid=15645e3d-5dd6-4bfa-9b38-2475ddfc1093"},"vehicle_type_id":"4","last_reported":1740071284,"current_range_meters":19600,"station_id":"ce4bhnh2rcd13ifvqgtg","pricing_plan_id":"cebpf4jnsgd1na2vs0mg"},{"bike_id":"3e850a9d-d96a-4c25-b976-6cddcd525c44","system_id":"levelo_inurba_marseille","lat":43.231819,"lon":5.399836,"is_reserved":false,"is_disabled":false,"rental_uris":{"android":"levelo://app?vid=3e850a9d-d96a-4c25-b976-6cddcd525c44","ios":"levelo://app?vid=3e850a9d-d96a-4c25-b976-6cddcd525c44"},"vehicle_type_id":"4","last_reported":1740071284,"current_range_meters":19600,"station_id":"ce4bhn12rcd13ifvqgqg","pricing_plan_id":"cebpf4jnsgd1na2vs0mg"},{"bike_id":"4a9d6746-4ed1-4c98-bbb7-bf2bf484de45","system_id":"levelo_inurba_marseille","lat":43.29801,"lon":5.40406,"is_reserved":false,"is_disabled":false,"rental_uris":{"android":"levelo://app?vid=4a9d6746-4ed1-4c98-bbb7-bf2bf484de45","ios":"levelo://app?vid=4a9d6746-4ed1-4c98-bbb7-bf2bf484de45"},"vehicle_type_id":"4","last_reported":1740071284,"current_range_meters":19600,"station_id":"ce4bh112rcd13ifvqd90","pricing_plan_id":"cebpf4jnsgd1na2vs0mg"},{"bike_id":"da35e427-426d-41ca-859b-7c63f22da96e","system_id":"levelo_inurba_marseille","lat":43.27988,"lon":5.41658,"is_reserved":false,"is_disabled":false,"rental_uris":{"android":"levelo://app?vid=da35e427-426d-41ca-859b-7c63f22da96e","ios":"levelo://app?vid=da35e427-426d-41ca-859b-7c63f22da96e"},"vehicle_type_id":"4","last_reported":1740071284,"current_range_meters":19600,"station_id":"ce4bho12rcd13ifvqh1g","pricing_plan_id":"cebpf4jnsgd1na2vs0mg"},{"bike_id":"3daa770b-5216-455c-9dda-7849b1581511","system_id":"levelo_inurba_marseille","lat":43.28419,"lon":5.34985,"is_reserved":false,"is_disabled":false,"rental_uris":{"android":"levelo://app?vid=3daa770b-5216-455c-9dda-7849b1581511","ios":"levelo://app?vid=3daa770b-5216-455c-9dda-7849b1581511"},"vehicle_type_id":"4","last_reported":1740071284,"current_range_meters":19600,"station_id":"ce4bhbh2rcd13ifvqepg","pricing_plan_id":"cebpf4jnsgd1na2vs0mg"},{"bike_id":"6b102228-3559-4fe3-9dc0-68a9b79bfb12","system_id":"levelo_inurba_marseille","lat":43.30299,"lon":5.3922,"is_reserved":false,"is_disabled":false,"rental_uris":{"android":"levelo://app?vid=6b102228-3559-4fe3-9dc0-68a9b79bfb12","ios":"levelo://app?vid=6b102228-3559-4fe3-9dc0-68a9b79bfb12"},"vehicle_type_id":"4","last_reported":1740071284,"current_range_meters":19600,"station_id":"ce4bgkh2rcd13ifvqbk0","pricing_plan_id":"cebpf4jnsgd1na2vs0mg"},{"bike_id":"17d49994-81fd-4ba3-903c-e4c7abd2aea3","system_id":"levelo_inurba_marseille","lat":43.27077,"lon":5.42299,"is_reserved":false,"is_disabled":false,"rental_uris":{"android":"levelo://app?vid=17d49994-81fd-4ba3-903c-e4c7abd2aea3","ios":"levelo://app?vid=17d49994-81fd-4ba3-903c-e4c7abd2aea3"},"vehicle_type_id":"4","last_reported":1740071284,"current_range_meters":20000,"station_id":"ce4bhk92rcd13ifvqgb0","pricing_plan_id":"cebpf4jnsgd1na2vs0mg"},{"bike_id":"9a2f7508-67b3-4a79-bfcb-9b2361ab84e5","system_id":"levelo_inurba_marseille","lat":43.32136,"lon":5.36782,"is_reserved":false,"is_disabled":false,"rental_uris":{"android":"levelo://app?vid=9a2f7508-67b3-4a79-bfcb-9b2361ab84e5","ios":"levelo://app?vid=9a2f7508-67b3-4a79-bfcb-9b2361ab84e5"},"vehicle_type_id":"4","last_reported":1740071284,"current_range_meters":20000,"station_id":"ce4bhrh2rcd13ifvqhug","pricing_plan_id":"cebpf4jnsgd1na2vs0mg"},{"bike_id":"77024faa-8ac7-4283-9d8a-bc2b53f359d4","system_id":"levelo_inurba_marseille","lat":43.31535,"lon":5.38037,"is_reserved":false,"is_disabled":false,"rental_uris":{"android":"levelo://app?vid=77024faa-8ac7-4283-9d8a-bc2b53f359d4","ios":"levelo://app?vid=77024faa-8ac7-4283-9d8a-bc2b53f359d4"},"vehicle_type_id":"4","last_reported":1740071284,"current_range_meters":20000,"station_id":"ce4bhsp2rcd13ifvqi50","pricing_plan_id":"cebpf4jnsgd1na2vs0mg"},{"bike_id":"4156c3f4-1c00-4687-a78e-ff2dbdb866e0","system_id":"levelo_inurba_marseille","lat":43.27381,"lon":5.36249,"is_reserved":false,"is_disabled":false,"rental_uris":{"android":"levelo://app?vid=4156c3f4-1c00-4687-a78e-ff2dbdb866e0","ios":"levelo://app?vid=4156c3f4-1c00-4687-a78e-ff2dbdb866e0"},"vehicle_type_id":"4","last_reported":1740071284,"current_range_meters":20000,"station_id":"","pricing_plan_id":"cebpf4jnsgd1na2vs0mg"},{"bike_id":"c62faafb-5ec8-4ebd-a3d9-569880fbe329","system_id":"levelo_inurba_marseille","lat":43.31127,"lon":5.37769,"is_reserved":false,"is_disabled":false,"rental_uris":{"android":"levelo://app?vid=c62faafb-5ec8-4ebd-a3d9-569880fbe329","ios":"levelo://app?vid=c62faafb-5ec8-4ebd-a3d9-569880fbe329"},"vehicle_type_id":"4","last_reported":1740071284,"current_range_meters":20000,"station_id":"ce4bgt92rcd13ifvqcg0","pricing_plan_id":"cebpf4jnsgd1na2vs0mg"},{"bike_id":"85c2f6ba-46a7-4ec8-bcff-671dd92739f1","system_id":"levelo_inurba_marseille","lat":43.299134,"lon":5.381399,"is_reserved":false,"is_disabled":true,"rental_uris":{"android":"levelo://app?vid=85c2f6ba-46a7-4ec8-bcff-671dd92739f1","ios":"levelo://app?vid=85c2f6ba-46a7-4ec8-bcff-671dd92739f1"},"vehicle_type_id":"4","last_reported":1740071284,"current_range_meters":20000,"station_id":"","pricing_plan_id":"cebpf4jnsgd1na2vs0mg"},{"bike_id":"fbaea280-58d1-483f-a26d-c689f30c49fb","system_id":"levelo_inurba_marseille","lat":43.33734,"lon":5.39193,"is_reserved":false,"is_disabled":false,"rental_uris":{"android":"levelo://app?vid=fbaea280-58d1-483f-a26d-c689f30c49fb","ios":"levelo://app?vid=fbaea280-58d1-483f-a26d-c689f30c49fb"},"vehicle_type_id":"4","last_reported":1740071284,"current_range_meters":20400,"station_id":"ce4bhr92rcd13ifvqhsg","pricing_plan_id":"cebpf4jnsgd1na2vs0mg"},{"bike_id":"8c93c514-9e5b-43ad-a89f-188581e85d76","system_id":"levelo_inurba_marseille","lat":43.32656,"lon":5.40991,"is_reserved":false,"is_disabled":false,"rental_uris":{"android":"levelo://app?vid=8c93c514-9e5b-43ad-a89f-188581e85d76","ios":"levelo://app?vid=8c93c514-9e5b-43ad-a89f-188581e85d76"},"vehicle_type_id":"4","last_reported":1740071284,"current_range_meters":22800,"station_id":"ce4bhpp2rcd13ifvqhgg","pricing_plan_id":"cebpf4jnsgd1na2vs0mg"},{"bike_id":"8eddd9df-e46d-47d1-b574-9432d72867ba","system_id":"levelo_inurba_marseille","lat":43.23179,"lon":5.39987,"is_reserved":false,"is_disabled":false,"rental_uris":{"android":"levelo://app?vid=8eddd9df-e46d-47d1-b574-9432d72867ba","ios":"levelo://app?vid=8eddd9df-e46d-47d1-b574-9432d72867ba"},"vehicle_type_id":"4","last_reported":1740071284,"current_range_meters":20000,"station_id":"ce4bhn12rcd13ifvqgqg","pricing_plan_id":"cebpf4jnsgd1na2vs0mg"},{"bike_id":"61cbf75d-b6f0-4f49-b80c-dc01f7b58b81","system_id":"levelo_inurba_marseille","lat":43.2603,"lon":5.37548,"is_reserved":false,"is_disabled":false,"rental_uris":{"android":"levelo://app?vid=61cbf75d-b6f0-4f49-b80c-dc01f7b58b81","ios":"levelo://app?vid=61cbf75d-b6f0-4f49-b80c-dc01f7b58b81"},"vehicle_type_id":"4","last_reported":1740071284,"current_range_meters":20000,"station_id":"ce4bhgh2rcd13ifvqfa0","pricing_plan_id":"cebpf4jnsgd1na2vs0mg"},{"bike_id":"f274f312-68ca-45d0-8230-632bc1110b1a","system_id":"levelo_inurba_marseille","lat":43.29246,"lon":5.38234,"is_reserved":false,"is_disabled":false,"rental_uris":{"android":"levelo://app?vid=f274f312-68ca-45d0-8230-632bc1110b1a","ios":"levelo://app?vid=f274f312-68ca-45d0-8230-632bc1110b1a"},"vehicle_type_id":"4","last_reported":1740071284,"current_range_meters":20400,"station_id":"","pricing_plan_id":"cebpf4jnsgd1na2vs0mg"},{"bike_id":"20e04296-cbac-4a14-a5d5-b85fa9fde9b4","system_id":"levelo_inurba_marseille","lat":43.29534,"lon":5.38536,"is_reserved":false,"is_disabled":false,"rental_uris":{"android":"levelo://app?vid=20e04296-cbac-4a14-a5d5-b85fa9fde9b4","ios":"levelo://app?vid=20e04296-cbac-4a14-a5d5-b85fa9fde9b4"},"vehicle_type_id":"4","last_reported":1740071284,"current_range_meters":20400,"station_id":"ce4bgih2rcd13ifvqba0","pricing_plan_id":"cebpf4jnsgd1na2vs0mg"},{"bike_id":"256d3e09-c4c4-457f-ba3a-14d53f42b16e","system_id":"levelo_inurba_marseille","lat":43.27217,"lon":5.39188,"is_reserved":false,"is_disabled":false,"rental_uris":{"android":"levelo://app?vid=256d3e09-c4c4-457f-ba3a-14d53f42b16e","ios":"levelo://app?vid=256d3e09-c4c4-457f-ba3a-14d53f42b16e"},"vehicle_type_id":"4","last_reported":1740071284,"current_range_meters":20400,"station_id":"ce4bhhp2rcd13ifvqfm0","pricing_plan_id":"cebpf4jnsgd1na2vs0mg"},{"bike_id":"b690e4c4-7b78-4d9d-ae0f-2d0d22d59f70","system_id":"levelo_inurba_marseille","lat":43.29965,"lon":5.38497,"is_reserved":false,"is_disabled":false,"rental_uris":{"android":"levelo://app?vid=b690e4c4-7b78-4d9d-ae0f-2d0d22d59f70","ios":"levelo://app?vid=b690e4c4-7b78-4d9d-ae0f-2d0d22d59f70"},"vehicle_type_id":"4","last_reported":1740071284,"current_range_meters":21600,"station_id":"ce4bgj92rcd13ifvqbd0","pricing_plan_id":"cebpf4jnsgd1na2vs0mg"},{"bike_id":"fdc508a5-b651-406f-917b-e45d91f3ecd1","system_id":"levelo_inurba_marseille","lat":43.28356,"lon":5.38638,"is_reserved":false,"is_disabled":false,"rental_uris":{"android":"levelo://app?vid=fdc508a5-b651-406f-917b-e45d91f3ecd1","ios":"levelo://app?vid=fdc508a5-b651-406f-917b-e45d91f3ecd1"},"vehicle_type_id":"4","last_reported":1740071284,"current_range_meters":20400,"station_id":"ce4bh492rcd13ifvqdvg","pricing_plan_id":"cebpf4jnsgd1na2vs0mg"},{"bike_id":"e9d81077-6983-4af3-8975-a55e052b27e4","system_id":"levelo_inurba_marseille","lat":43.28667,"lon":5.36354,"is_reserved":false,"is_disabled":false,"rental_uris":{"android":"levelo://app?vid=e9d81077-6983-4af3-8975-a55e052b27e4","ios":"levelo://app?vid=e9d81077-6983-4af3-8975-a55e052b27e4"},"vehicle_type_id":"4","last_reported":1740071284,"current_range_meters":20000,"station_id":"ce4bhah2rcd13ifvqej0","pricing_plan_id":"cebpf4jnsgd1na2vs0mg"},{"bike_id":"cbb113a4-e65c-4e17-ab58-a588abdb8493","system_id":"levelo_inurba_marseille","lat":43.24812,"lon":5.37459,"is_reserved":false,"is_disabled":false,"rental_uris":{"android":"levelo://app?vid=cbb113a4-e65c-4e17-ab58-a588abdb8493","ios":"levelo://app?vid=cbb113a4-e65c-4e17-ab58-a588abdb8493"},"vehicle_type_id":"4","last_reported":1740071284,"current_range_meters":20400,"station_id":"","pricing_plan_id":"cebpf4jnsgd1na2vs0mg"},{"bike_id":"dc3a5189-6e87-41ea-b7d0-f852c0c72248","system_id":"levelo_inurba_marseille","lat":43.29265,"lon":5.38437,"is_reserved":false,"is_disabled":false,"rental_uris":{"android":"levelo://app?vid=dc3a5189-6e87-41ea-b7d0-f852c0c72248","ios":"levelo://app?vid=dc3a5189-6e87-41ea-b7d0-f852c0c72248"},"vehicle_type_id":"4","last_reported":1740071284,"current_range_meters":20400,"station_id":"ce4bh692rcd13ifvqea0","pricing_plan_id":"cebpf4jnsgd1na2vs0mg"},{"bike_id":"d9a65716-32bf-413d-82eb-1e213a4dc4bb","system_id":"levelo_inurba_marseille","lat":43.30102,"lon":5.37799,"is_reserved":false,"is_disabled":false,"rental_uris":{"android":"levelo://app?vid=d9a65716-32bf-413d-82eb-1e213a4dc4bb","ios":"levelo://app?vid=d9a65716-32bf-413d-82eb-1e213a4dc4bb"},"vehicle_type_id":"4","last_reported":1740071284,"current_range_meters":20400,"station_id":"","pricing_plan_id":"cebpf4jnsgd1na2vs0mg"},{"bike_id":"03f46f50-71c4-4873-84ae-2db917248ba6","system_id":"levelo_inurba_marseille","lat":43.297859,"lon":5.371041,"is_reserved":false,"is_disabled":false,"rental_uris":{"android":"levelo://app?vid=03f46f50-71c4-4873-84ae-2db917248ba6","ios":"levelo://app?vid=03f46f50-71c4-4873-84ae-2db917248ba6"},"vehicle_type_id":"4","last_reported":1740071284,"current_range_meters":20400,"station_id":"ce4bh4p2rcd13ifvqe0g","pricing_plan_id":"cebpf4jnsgd1na2vs0mg"},{"bike_id":"7c37ec2d-75ac-4c58-8f36-c5469ac5681c","system_id":"levelo_inurba_marseille","lat":43.2396,"lon":5.36627,"is_reserved":false,"is_disabled":false,"rental_uris":{"android":"levelo://app?vid=7c37ec2d-75ac-4c58-8f36-c5469ac5681c","ios":"levelo://app?vid=7c37ec2d-75ac-4c58-8f36-c5469ac5681c"},"vehicle_type_id":"4","last_reported":1740071284,"current_range_meters":20800,"station_id":"ce4bhi12rcd13ifvqfp0","pricing_plan_id":"cebpf4jnsgd1na2vs0mg"},{"bike_id":"dc4f9ed3-072a-4037-b42c-1a6f0ebc4b83","system_id":"levelo_inurba_marseille","lat":43.29583,"lon":5.36739,"is_reserved":false,"is_disabled":false,"rental_uris":{"android":"levelo://app?vid=dc4f9ed3-072a-4037-b42c-1a6f0ebc4b83","ios":"levelo://app?vid=dc4f9ed3-072a-4037-b42c-1a6f0ebc4b83"},"vehicle_type_id":"4","last_reported":1740071284,"current_range_meters":20800,"station_id":"ce4bgph2rcd13ifvqc2g","pricing_plan_id":"cebpf4jnsgd1na2vs0mg"},{"bike_id":"c79a4e65-6db2-488d-91eb-94eb3e08005d","system_id":"levelo_inurba_marseille","lat":43.24387,"lon":5.37061,"is_reserved":false,"is_disabled":false,"rental_uris":{"android":"levelo://app?vid=c79a4e65-6db2-488d-91eb-94eb3e08005d","ios":"levelo://app?vid=c79a4e65-6db2-488d-91eb-94eb3e08005d"},"vehicle_type_id":"4","last_reported":1740071284,"current_range_meters":20800,"station_id":"ce4bhhh2rcd13ifvqfk0","pricing_plan_id":"cebpf4jnsgd1na2vs0mg"},{"bike_id":"8ee5e55c-2baf-4a39-a70b-8b3deb0763a8","system_id":"levelo_inurba_marseille","lat":43.29577,"lon":5.36728,"is_reserved":false,"is_disabled":false,"rental_uris":{"android":"levelo://app?vid=8ee5e55c-2baf-4a39-a70b-8b3deb0763a8","ios":"levelo://app?vid=8ee5e55c-2baf-4a39-a70b-8b3deb0763a8"},"vehicle_type_id":"4","last_reported":1740071284,"current_range_meters":20800,"station_id":"ce4bgph2rcd13ifvqc2g","pricing_plan_id":"cebpf4jnsgd1na2vs0mg"},