{"last_updated":1770839371,"ttl":60,"version":"2.2","data":{"bikes":[{"bike_id":"efd9d7ca-4b84-4ff5-876b-900e16175b1d","system_id":"levelo_inurba_marseille","lat":43.262,"lon":5.37441,"is_reserved":false,"is_disabled":false,"rental_uris":{"android":"levelo://app?vid=efd9d7ca-4b84-4ff5-876b-900e16175b1d","ios":"levelo://app?vid=efd9d7ca-4b84-4ff5-876b-900e16175b1d"},"vehicle_type_id":"4","last_reported":1770839372,"current_range_meters":2800,"station_id":"ce4bhgp2rcd13ifvqfc0","pricing_plan_id":"cebpf4jnsgd1na2vs0mg"},{"bike_id":"e0450db0-c8b3-4403-bc43-ed5a007877b8","system_id":"levelo_inurba_marseille","lat":43.24634,"lon":5.43119,"is_reserved":false,"is_disabled":false,"rental_uris":{"android":"levelo://app?vid=e0450db0-c8b3-4403-bc43-ed5a007877b8","ios":"levelo://app?vid=e0450db0-c8b3-4403-bc43-ed5a007877b8"},"vehicle_type_id":"4","last_reported":1770839372,"current_range_meters":2800,"station_id":"st_d2m6c4gdas8pm72e190g","pricing_plan_id":"cebpf4jnsgd1na2vs0mg"},{"bike_id":"652029fd-7389-40d5-a0bd-e85f7aa43d7c","system_id":"levelo_inurba_marseille","lat":43.22563,"lon":5.41632,"is_reserved":false,"is_disabled":false,"rental_uris":{"android":"levelo://app?vid=652029fd-7389-40d5-a0bd-e85f7aa43d7c","ios":"levelo://app?vid=652029fd-7389-40d5-a0bd-e85f7aa43d7c"},"vehicle_type_id":"4","last_reported":1770839372,"current_range_meters":2800,"station_id":"st_d2o4gvlbi1j2169b742g","pricing_plan_id":"cebpf4jnsgd1na2vs0mg"},{"bike_id":"ee213b40-802c-442b-9390-5e22834db5df","system_id":"levelo_inurba_marseille","lat":43.24168,"lon":5.363884,"is_reserved":false,"is_disabled":false,"rental_uris":{"android":"levelo://app?vid=ee213b40-802c-442b-9390-5e22834db5df","ios":"levelo://app?vid=ee213b40-802c-442b-9390-5e22834db5df"},"vehicle_type_id":"4","last_reported":1770839372,"current_range_meters":2800,"station_id":"cpo36qri1sfpv3e86is0","pricing_plan_id":"cebpf4jnsgd1na2vs0mg"},{"bike_id":"475fae78-75f9-4675-8012-304224f10313","system_id":"levelo_inurba_marseille","lat":43.33555,"lon":5.37467,"is_reserved":false,"is_disabled":false,"rental_uris":{"android":"levelo://app?vid=475fae78-75f9-4675-8012-304224f10313","ios":"levelo://app?vid=475fae78-75f9-4675-8012-304224f10313"},"vehicle_type_id":"4","last_reported":1770839372,"current_range_meters":2800,"station_id":"st_d46tts09ee8s73dlu43g","pricing_plan_id":"cebpf4jnsgd1na2vs0mg"},{"bike_id":"7c6ed3de-0bb2-4065-8253-1bc56d52b23f","system_id":"levelo_inurba_marseille","lat":43.31163,"lon":5.38721,"is_reserved":false,"is_disabled":false,"rental_uris":{"android":"levelo://app?vid=7c6ed3de-0bb2-4065-8253-1bc56d52b23f","ios":"levelo://app?vid=7c6ed3de-0bb2-4065-8253-1bc56d52b23f"},"vehicle_type_id":"4","last_reported":1770839372,"current_range_meters":2800,"station_id":"ce4bgv12rcd13ifvqcp0","pricing_plan_id":"cebpf4jnsgd1na2vs0mg"},{"bike_id":"9fd591d0-2348-4aee-a8e7-84023c5aa352","system_id":"levelo_inurba_marseille","lat":43.28399,"lon":5.37504,"is_reserved":false,"is_disabled":true,"rental_uris":{"android":"levelo://app?vid=9fd591d0-2348-4aee-a8e7-84023c5aa352","ios":"levelo://app?vid=9fd591d0-2348-4aee-a8e7-84023c5aa352"},"vehicle_type_id":"4","last_reported":1770839372,"current_range_meters":2800,"station_id":"ce4bh412rcd13ifvqds0","pricing_plan_id":"cebpf4jnsgd1na2vs0mg"},{"bike_id":"44d17b9a-a696-4502-89c1-4d2b9276205f","system_id":"levelo_inurba_marseille","lat":43.250116,"lon":5.389117,"is_reserved":false,"is_disabled":false,"rental_uris":{"android":"levelo://app?vid=44d17b9a-a696-4502-89c1-4d2b9276205f","ios":"levelo://app?vid=44d17b9a-a696-4502-89c1-4d2b9276205f"},"vehicle_type_id":"4","last_reported":1770839372,"current_range_meters":2800,"station_id":"ce4bhgp2rcd13ifvqfd0","pricing_plan_id":"cebpf4jnsgd1na2vs0mg"},{"bike_id":"dc065e2a-14c9-42be-a127-cc609d0686ee","system_id":"levelo_inurba_marseille","lat":43.28598,"lon":5.3996,"is_reserved":false,"is_disabled":false,"rental_uris":{"android":"levelo://app?vid=dc065e2a-14c9-42be-a127-cc609d0686ee","ios":"levelo://app?vid=dc065e2a-14c9-42be-a127-cc609d0686ee"},"vehicle_type_id":"4","last_reported":1770839372,"current_range_meters":3200,"station_id":"st_d4a7ka997mjs738ck50g","pricing_plan_id":"cebpf4jnsgd1na2vs0mg"},{"bike_id":"3c513f3f-708a-4492-94e9-aa081a413bba","system_id":"levelo_inurba_marseille","lat":43.31502,"lon":5.37253,"is_reserved":false,"is_disabled":false,"rental_uris":{"android":"levelo://app?vid=3c513f3f-708a-4492-94e9-aa081a413bba","ios":"levelo://app?vid=3c513f3f-708a-4492-94e9-aa081a413bba"},"vehicle_type_id":"4","last_reported":1770839372,"current_range_meters":3200,"station_id":"ce4bgt12rcd13ifvqcd0","pricing_plan_id":"cebpf4jnsgd1na2vs0mg"},{"bike_id":"7e3ab4cc-f1d0-40c5-93c0-f0b43c67658b","system_id":"levelo_inurba_marseille","lat":43.253319,"lon":5.421569,"is_reserved":false,"is_disabled":false,"rental_uris":{"android":"levelo://app?vid=7e3ab4cc-f1d0-40c5-93c0-f0b43c67658b","ios":"levelo://app?vid=7e3ab4cc-f1d0-40c5-93c0-f0b43c67658b"},"vehicle_type_id":"4","last_reported":1770839372,"current_range_meters":3200,"station_id":"st_d2m65c5bi1j21697t3ng","pricing_plan_id":"cebpf4jnsgd1na2vs0mg"},{"bike_id":"fe6f8294-65ba-45f1-a4f6-c1ee0f12ef18","system_id":"levelo_inurba_marseille","lat":43.22558,"lon":5.41637,"is_reserved":false,"is_disabled":false,"rental_uris":{"android":"levelo://app?vid=fe6f8294-65ba-45f1-a4f6-c1ee0f12ef18","ios":"levelo://app?vid=fe6f8294-65ba-45f1-a4f6-c1ee0f12ef18"},"vehicle_type_id":"4","last_reported":1770839372,"current_range_meters":3200,"station_id":"st_d2o4gvlbi1j2169b742g","pricing_plan_id":"cebpf4jnsgd1na2vs0mg"},{"bike_id":"7a764ea1-3db9-42d3-bcb4-96b88fa6fb42","system_id":"levelo_inurba_marseille","lat":43.28459,"lon":5.3877,"is_reserved":false,"is_disabled":false,"rental_uris":{"android":"levelo://app?vid=7a764ea1-3db9-42d3-bcb4-96b88fa6fb42","ios":"levelo://app?vid=7a764ea1-3db9-42d3-bcb4-96b88fa6fb42"},"vehicle_type_id":"4","last_reported":1770839372,"current_range_meters":3200,"station_id":"ce4bh492rcd13ifvqdvg","pricing_plan_id":"cebpf4jnsgd1na2vs0mg"},{"bike_id":"5f7df976-2770-4b0d-bd16-1a5d3e4bd86a","system_id":"levelo_inurba_marseille","lat":43.26071,"lon":5.37507,"is_reserved":false,"is_disabled":false,"rental_uris":{"android":"levelo://app?vid=5f7df976-2770-4b0d-bd16-1a5d3e4bd86a","ios":"levelo://app?vid=5f7df976-2770-4b0d-bd16-1a5d3e4bd86a"},"vehicle_type_id":"4","last_reported":1770839372,"current_range_meters":3200,"station_id":"","pricing_plan_id":"cebpf4jnsgd1na2vs0mg"},{"bike_id":"46b69bcd-f35a-433e-b9f1-16ab03d0ac0e","system_id":"levelo_inurba_marseille","lat":43.258661,"lon":5.398843,"is_reserved":false,"is_disabled":false,"rental_uris":{"android":"levelo://app?vid=46b69bcd-f35a-433e-b9f1-16ab03d0ac0e","ios":"levelo://app?vid=46b69bcd-f35a-433e-b9f1-16ab03d0ac0e"},"vehicle_type_id":"4","last_reported":1770839372,"current_range_meters":3200,"station_id":"ce4bhl92rcd13ifvqghg","pricing_plan_id":"cebpf4jnsgd1na2vs0mg"},{"bike_id":"bddb0f54-1743-4201-a1d2-cfc54e22300b","system_id":"levelo_inurba_marseille","lat":43.28458,"lon":5.35895,"is_reserved":false,"is_disabled":false,"rental_uris":{"android":"levelo://app?vid=bddb0f54-1743-4201-a1d2-cfc54e22300b","ios":"levelo://app?vid=bddb0f54-1743-4201-a1d2-cfc54e22300b"},"vehicle_type_id":"4","last_reported":1770839372,"current_range_meters":3200,"station_id":"ce4bhah2rcd13ifvqei0","pricing_plan_id":"cebpf4jnsgd1na2vs0mg"},{"bike_id":"b1429378-b93e-4184-b373-85f0415c9919","system_id":"levelo_inurba_marseille","lat":43.24611,"lon":5.43193,"is_reserved":false,"is_disabled":false,"rental_uris":{"android":"levelo://app?vid=b1429378-b93e-4184-b373-85f0415c9919","ios":"levelo://app?vid=b1429378-b93e-4184-b373-85f0415c9919"},"vehicle_type_id":"4","last_reported":1770839372,"current_range_meters":3200,"station_id":"st_d2m6c4gdas8pm72e190g","pricing_plan_id":"cebpf4jnsgd1na2vs0mg"},{"bike_id":"e1972e28-c5f7-4898-9f3a-cff0aa5fe0de","system_id":"levelo_inurba_marseille","lat":43.24187,"lon":5.39726,"is_reserved":false,"is_disabled":false,"rental_uris":{"android":"levelo://app?vid=e1972e28-c5f7-4898-9f3a-cff0aa5fe0de","ios":"levelo://app?vid=e1972e28-c5f7-4898-9f3a-cff0aa5fe0de"},"vehicle_type_id":"4","last_reported":1770839372,"current_range_meters":3200,"station_id":"ce4bhn12rcd13ifvqgpg","pricing_plan_id":"cebpf4jnsgd1na2vs0mg"},{"bike_id":"caccad09-152b-4b21-bf14-777d6bbec63b","system_id":"levelo_inurba_marseille","lat":43.29524,"lon":5.39402,"is_reserved":false,"is_disabled":false,"rental_uris":{"android":"levelo://app?vid=caccad09-152b-4b21-bf14-777d6bbec63b","ios":"levelo://app?vid=caccad09-152b-4b21-bf14-777d6bbec63b"},"vehicle_type_id":"4","last_reported":1770839372,"current_range_meters":3200,"station_id":"ce4bh292rcd13ifvqdf0","pricing_plan_id":"cebpf4jnsgd1na2vs0mg"},{"bike_id":"e81c96d2-7add-4738-8c23-21c0f3d879ae","system_id":"levelo_inurba_marseille","lat":43.28985,"lon":5.35604,"is_reserved":false,"is_disabled":false,"rental_uris":{"android":"levelo://app?vid=e81c96d2-7add-4738-8c23-21c0f3d879ae","ios":"levelo://app?vid=e81c96d2-7add-4738-8c23-21c0f3d879ae"},"vehicle_type_id":"4","last_reported":1770839372,"current_range_meters":3200,"station_id":"ce4bhb92rcd13ifvqen0","pricing_plan_id":"cebpf4jnsgd1na2vs0mg"},{"bike_id":"a851407b-2dd1-4aad-a65d-6c540b7caa44","system_id":"levelo_inurba_marseille","lat":43.292608,"lon":5.409042,"is_reserved":false,"is_disabled":false,"rental_uris":{"android":"levelo://app?vid=a851407b-2dd1-4aad-a65d-6c540b7caa44","ios":"levelo://app?vid=a851407b-2dd1-4aad-a65d-6c540b7caa44"},"vehicle_type_id":"4","last_reported":1770839372,"current_range_meters":3200,"station_id":"ce4bh192rcd13ifvqdc0","pricing_plan_id":"cebpf4jnsgd1na2vs0mg"},{"bike_id":"32b27b47-6c8b-49c6-8b48-fbeace627871","system_id":"levelo_inurba_marseille","lat":43.312223,"lon":5.368436,"is_reserved":false,"is_disabled":false,"rental_uris":{"android":"levelo://app?vid=32b27b47-6c8b-49c6-8b48-fbeace627871","ios":"levelo://app?vid=32b27b47-6c8b-49c6-8b48-fbeace627871"},"vehicle_type_id":"4","last_reported":1770839372,"current_range_meters":3600,"station_id":"ce4bgl92rcd13ifvqbq0","pricing_plan_id":"cebpf4jnsgd1na2vs0mg"},{"bike_id":"fefa9d33-2b99-4c0b-9890-359dd9ed4dcf","system_id":"levelo_inurba_marseille","lat":43.3064,"lon":5.40071,"is_reserved":false,"is_disabled":false,"rental_uris":{"android":"levelo://app?vid=fefa9d33-2b99-4c0b-9890-359dd9ed4dcf","ios":"levelo://app?vid=fefa9d33-2b99-4c0b-9890-359dd9ed4dcf"},"vehicle_type_id":"4","last_reported":1770839372,"current_range_meters":3600,"station_id":"ce4bh112rcd13ifvqda0","pricing_plan_id":"cebpf4jnsgd1na2vs0mg"},{"bike_id":"890f56d4-596e-400c-b85e-06636da41b20","system_id":"levelo_inurba_marseille","lat":43.24987,"lon":5.38922,"is_reserved":false,"is_disabled":false,"rental_uris":{"android":"levelo://app?vid=890f56d4-596e-400c-b85e-06636da41b20","ios":"levelo://app?vid=890f56d4-596e-400c-b85e-06636da41b20"},"vehicle_type_id":"4","last_reported":1770839372,"current_range_meters":3600,"station_id":"ce4bhgp2rcd13ifvqfd0","pricing_plan_id":"cebpf4jnsgd1na2vs0mg"},{"bike_id":"5e35ff8d-6502-4575-8da4-888ae86322e5","system_id":"levelo_inurba_marseille","lat":43.28402,"lon":5.35008,"is_reserved":false,"is_disabled":false,"rental_uris":{"android":"levelo://app?vid=5e35ff8d-6502-4575-8da4-888ae86322e5","ios":"levelo://app?vid=5e35ff8d-6502-4575-8da4-888ae86322e5"},"vehicle_type_id":"4","last_reported":1770839372,"current_range_meters":3600,"station_id":"ce4bhbh2rcd13ifvqepg","pricing_plan_id":"cebpf4jnsgd1na2vs0mg"},{"bike_id":"ed5f093d-1aa3-4ff9-ab82-20bb031f1bc6","system_id":"levelo_inurba_marseille","lat":43.28534,"lon":5.44092,"is_reserved":false,"is_disabled":true,"rental_uris":{"android":"levelo://app?vid=ed5f093d-1aa3-4ff9-ab82-20bb031f1bc6","ios":"levelo://app?vid=ed5f093d-1aa3-4ff9-ab82-20bb031f1bc6"},"vehicle_type_id":"4","last_reported":1770839372,"current_range_meters":3600,"station_id":"","pricing_plan_id":"cebpf4jnsgd1na2vs0mg"},{"bike_id":"854df501-d52b-4d3a-bae5-4979639c29cf","system_id":"levelo_inurba_marseille","lat":43.30592,"lon":5.37228,"is_reserved":false,"is_disabled":true,"rental_uris":{"android":"levelo://app?vid=854df501-d52b-4d3a-bae5-4979639c29cf","ios":"levelo://app?vid=854df501-d52b-4d3a-bae5-4979639c29cf"},"vehicle_type_id":"4","last_reported":1770839372,"current_range_meters":3600,"station_id":"ce4bgqh2rcd13ifvqc4g","pricing_plan_id":"cebpf4jnsgd1na2vs0mg"},{"bike_id":"44c6aa93-1f46-4cbd-a298-6cd74e811e92","system_id":"levelo_inurba_marseille","lat":43.217497,"lon":5.346003,"is_reserved":false,"is_disabled":false,"rental_uris":{"android":"levelo://app?vid=44c6aa93-1f46-4cbd-a298-6cd74e811e92","ios":"levelo://app?vid=44c6aa93-1f46-4cbd-a298-6cd74e811e92"},"vehicle_type_id":"4","last_reported":1770839372,"current_range_meters":3600,"station_id":"","pricing_plan_id":"cebpf4jnsgd1na2vs0mg"},{"bike_id":"238a84ac-2ecd-45cd-94d0-fe91201be9fc","system_id":"levelo_inurba_marseille","lat":43.308848,"lon":5.396504,"is_reserved":false,"is_disabled":false,"rental_uris":{"android":"levelo://app?vid=238a84ac-2ecd-45cd-94d0-fe91201be9fc","ios":"levelo://app?vid=238a84ac-2ecd-45cd-94d0-fe91201be9fc"},"vehicle_type_id":"4","last_reported":1770839372,"current_range_meters":3600,"station_id":"ce4bh012rcd13ifvqcv0","pricing_plan_id":"cebpf4jnsgd1na2vs0mg"},{"bike_id":"a6943d09-3de1-473f-8504-0e6aa6ee9f3a","system_id":"levelo_inurba_marseille","lat":43.2446,"lon":5.42538,"is_reserved":false,"is_disabled":false,"rental_uris":{"android":"levelo://app?vid=a6943d09-3de1-473f-8504-0e6aa6ee9f3a","ios":"levelo://app?vid=a6943d09-3de1-473f-8504-0e6aa6ee9f3a"},"vehicle_type_id":"4","last_reported":1770839372,"current_range_meters":3600,"station_id":"st_d4a3vfp97mjs738cd8kg","pricing_plan_id":"cebpf4jnsgd1na2vs0mg"},{"bike_id":"eb54f403-f5f5-4152-9cd4-d31f05df5ad8","system_id":"levelo_inurba_marseille","lat":43.26186,"lon":5.40507,"is_reserved":false,"is_disabled":false,"rental_uris":{"android":"levelo://app?vid=eb54f403-f5f5-4152-9cd4-d31f05df5ad8","ios":"levelo://app?vid=eb54f403-f5f5-4152-9cd4-d31f05df5ad8"},"vehicle_type_id":"4","last_reported":1770839372,"current_range_meters":3600,"station_id":"","pricing_plan_id":"cebpf4jnsgd1na2vs0mg"},{"bike_id":"b0577ca1-afa8-48fa-be5c-f4673c1a2294","system_id":"levelo_inurba_marseille","lat":43.28007,"lon":5.41294,"is_reserved":false,"is_disabled":false,"rental_uris":{"android":"levelo://app?vid=b0577ca1-afa8-48fa-be5c-f4673c1a2294","ios":"levelo://app?vid=b0577ca1-afa8-48fa-be5c-f4673c1a2294"},"vehicle_type_id":"4","last_reported":1770839372,"current_range_meters":3600,"station_id":"","pricing_plan_id":"cebpf4jnsgd1na2vs0mg"},{"bike_id":"e2bab02f-134a-4a03-b820-db1146050e9c","system_id":"levelo_inurba_marseille","lat":43.2315,"lon":5.43721,"is_reserved":false,"is_disabled":false,"rental_uris":{"android":"levelo://app?vid=e2bab02f-134a-4a03-b820-db1146050e9c","ios":"levelo://app?vid=e2bab02f-134a-4a03-b820-db1146050e9c"},"vehicle_type_id":"4","last_reported":1770839372,"current_range_meters":3600,"station_id":"ce4bhmp2rcd13ifvqgog","pricing_plan_id":"cebpf4jnsgd1na2vs0mg"},{"bike_id":"ecb39c78-a132-4b24-a1ed-3bbd4e6e80ca","system_id":"levelo_inurba_marseille","lat":43.28104,"lon":5.37832,"is_reserved":false,"is_disabled":false,"rental_uris":{"android":"levelo://app?vid=ecb39c78-a132-4b24-a1ed-3bbd4e6e80ca","ios":"levelo://app?vid=ecb39c78-a132-4b24-a1ed-3bbd4e6e80ca"},"vehicle_type_id":"4","last_reported":1770839372,"current_range_meters":4000,"station_id":"ce4bha12rcd13ifvqee0","pricing_plan_id":"cebpf4jnsgd1na2vs0mg"},{"bike_id":"54bd52e6-912c-41e4-90a6-85e5c05a7d3d","system_id":"levelo_inurba_marseille","lat":43.22561,"lon":5.41627,"is_reserved":false,"is_disabled":false,"rental_uris":{"android":"levelo://app?vid=54bd52e6-912c-41e4-90a6-85e5c05a7d3d","ios":"levelo://app?vid=54bd52e6-912c-41e4-90a6-85e5c05a7d3d"},"vehicle_type_id":"4","last_reported":1770839372,"current_range_meters":4000,"station_id":"st_d2o4gvlbi1j2169b742g","pricing_plan_id":"cebpf4jnsgd1na2vs0mg"},{"bike_id":"d01f5ba5-555f-4fd5-bda1-8012d30858b6","system_id":"levelo_inurba_marseille","lat":43.28506,"lon":5.48399,"is_reserved":false,"is_disabled":false,"rental_uris":{"android":"levelo://app?vid=d01f5ba5-555f-4fd5-bda1-8012d30858b6","ios":"levelo://app?vid=d01f5ba5-555f-4fd5-bda1-8012d30858b6"},"vehicle_type_id":"4","last_reported":1770839372,"current_range_meters":4000,"station_id":"st_d3svhcjqgbts73a3dn0g","pricing_plan_id":"cebpf4jnsgd1na2vs0mg"},{"bike_id":"a0bebe35-677e-4de2-8a0f-50384dfdd1d0","system_id":"levelo_inurba_marseille","lat":43.2407,"lon":5.37754,"is_reserved":false,"is_disabled":false,"rental_uris":{"android":"levelo://app?vid=a0bebe35-677e-4de2-8a0f-50384dfdd1d0","ios":"levelo://app?vid=a0bebe35-677e-4de2-8a0f-50384dfdd1d0"},"vehicle_type_id":"4","last_reported":1770839372,"current_range_meters":4000,"station_id":"ce4bhnp2rcd13ifvqgvg","pricing_plan_id":"cebpf4jnsgd1na2vs0mg"},{"bike_id":"69e6eab5-1080-46fd-8258-a0ebd0f481b4","system_id":"levelo_inurba_marseille","lat":43.26934,"lon":5.40279,"is_reserved":false,"is_disabled":false,"rental_uris":{"android":"levelo://app?vid=69e6eab5-1080-46fd-8258-a0ebd0f481b4","ios":"levelo://app?vid=69e6eab5-1080-46fd-8258-a0ebd0f481b4"},"vehicle_type_id":"4","last_reported":1770839372,"current_range_meters":4000,"station_id":"cjm6bp8fraef2m0cb0m0","pricing_plan_id":"cebpf4jnsgd1na2vs0mg"},{"bike_id":"d1a208dc-b079-4f67-83b0-5bab6732b044","system_id":"levelo_inurba_marseille","lat":43.26234,"lon":5.3743,"is_reserved":false,"is_disabled":false,"rental_uris":{"android":"levelo://app?vid=d1a208dc-b079-4f67-83b0-5bab6732b044","ios":"levelo://app?vid=d1a208dc-b079-4f67-83b0-5bab6732b044"},"vehicle_type_id":"4","last_reported":1770839372,"current_range_meters":4000,"station_id":"","pricing_plan_id":"cebpf4jnsgd1na2vs0mg"},{"bike_id":"0a87e4d7-925e-474f-8c3b-ba0d3fcb0f33","system_id":"levelo_inurba_marseille","lat":43.22567,"lon":5.41631,"is_reserved":false,"is_disabled":false,"rental_uris":{"android":"levelo://app?vid=0a87e4d7-925e-474f-8c3b-ba0d3fcb0f33","ios":"levelo://app?vid=0a87e4d7-925e-474f-8c3b-ba0d3fcb0f33"},"vehicle_type_id":"4","last_reported":1770839372,"current_range_meters":4000,"station_id":"st_d2o4gvlbi1j2169b742g","pricing_plan_id":"cebpf4jnsgd1na2vs0mg"},{"bike_id":"d99d8fe4-b2b7-4ecd-b5db-4cee32291c21","system_id":"levelo_inurba_marseille","lat":43.239648,"lon":5.366319,"is_reserved":false,"is_disabled":false,"rental_uris":{"android":"levelo://app?vid=d99d8fe4-b2b7-4ecd-b5db-4cee32291c21","ios":"levelo://app?vid=d99d8fe4-b2b7-4ecd-b5db-4cee32291c21"},"vehicle_type_id":"4","last_reported":1770839372,"current_range_meters":4000,"station_id":"ce4bhi12rcd13ifvqfp0","pricing_plan_id":"cebpf4jnsgd1na2vs0mg"},{"bike_id":"8e42c512-3503-435d-b0c5-cffc37ed1402","system_id":"levelo_inurba_marseille","lat":43.29536,"lon":5.3904,"is_reserved":false,"is_disabled":false,"rental_uris":{"android":"levelo://app?vid=8e42c512-3503-435d-b0c5-cffc37ed1402","ios":"levelo://app?vid=8e42c512-3503-435d-b0c5-cffc37ed1402"},"vehicle_type_id":"4","last_reported":1770839372,"current_range_meters":4000,"station_id":"ce4bh3p2rcd13ifvqdp0","pricing_plan_id":"cebpf4jnsgd1na2vs0mg"},{"bike_id":"8686069b-4208-416e-bfac-5ee07eb3fa47","system_id":"levelo_inurba_marseille","lat":43.26581,"lon":5.3904,"is_reserved":false,"is_disabled":false,"rental_uris":{"android":"levelo://app?vid=8686069b-4208-416e-bfac-5ee07eb3fa47","ios":"levelo://app?vid=8686069b-4208-416e-bfac-5ee07eb3fa47"},"vehicle_type_id":"4","last_reported":1770839372,"current_range_meters":4000,"station_id":"ce4bhe12rcd13ifvqf30","pricing_plan_id":"cebpf4jnsgd1na2vs0mg"},{"bike_id":"806224ec-ac48-404a-b315-5cadceb607e4","system_id":"levelo_inurba_marseille","lat":43.30781,"lon":5.37643,"is_reserved":false,"is_disabled":false,"rental_uris":{"android":"levelo://app?vid=806224ec-ac48-404a-b315-5cadceb607e4","ios":"levelo://app?vid=806224ec-ac48-404a-b315-5cadceb607e4"},"vehicle_type_id":"4","last_reported":1770839372,"current_range_meters":4000,"station_id":"ce4bgv92rcd13ifvqcq0","pricing_plan_id":"cebpf4jnsgd1na2vs0mg"},{"bike_id":"54763c8a-9d23-4068-8ed2-933197bed48d","system_id":"levelo_inurba_marseille","lat":43.25571,"lon":5.38236,"is_reserved":false,"is_disabled":false,"rental_uris":{"android":"levelo://app?vid=54763c8a-9d23-4068-8ed2-933197bed48d","ios":"levelo://app?vid=54763c8a-9d23-4068-8ed2-933197bed48d"},"vehicle_type_id":"4","last_reported":1770839372,"current_range_meters":4000,"station_id":"ce4bhih2rcd13ifvqfs0","pricing_plan_id":"cebpf4jnsgd1na2vs0mg"},{"bike_id":"890d666c-9da6-4153-bd7e-60e53c0ee9bf","system_id":"levelo_inurba_marseille","lat":43.33769,"lon":5.37487,"is_reserved":false,"is_disabled":true,"rental_uris":{"android":"levelo://app?vid=890d666c-9da6-4153-bd7e-60e53c0ee9bf","ios":"levelo://app?vid=890d666c-9da6-4153-bd7e-60e53c0ee9bf"},"vehicle_type_id":"4","last_reported":1770839372,"current_range_meters":4400,"station_id":"","pricing_plan_id":"cebpf4jnsgd1na2vs0mg"},{"bike_id":"6f6a04ad-dd00-4f4a-bdfd-a835cfa0cc11","system_id":"levelo_inurba_marseille","lat":43.27067,"lon":5.3829,"is_reserved":false,"is_disabled":false,"rental_uris":{"android":"levelo://app?vid=6f6a04ad-dd00-4f4a-bdfd-a835cfa0cc11","ios":"levelo://app?vid=6f6a04ad-dd00-4f4a-bdfd-a835cfa0cc11"},"vehicle_type_id":"4","last_reported":1770839372,"current_range_meters":4400,"station_id":"st_d3n2fo6cfp8s73cte1j0","pricing_plan_id":"cebpf4jnsgd1na2vs0mg"},{"bike_id":"8fadd539-4297-4d2a-8099-d8a6abb3494e","system_id":"levelo_inurba_marseille","lat":43.27548,"lon":5.38437,"is_reserved":false,"is_disabled":false,"rental_uris":{"android":"levelo://app?vid=8fadd539-4297-4d2a-8099-d8a6abb3494e","ios":"levelo://app?vid=8fadd539-4297-4d2a-8099-d8a6abb3494e"},"vehicle_type_id":"4","last_reported":1770839372,"current_range_meters":4400,"station_id":"ce4bhh92rcd13ifvqfi0","pricing_plan_id":"cebpf4jnsgd1na2vs0mg"},{"bike_id":"e2a8d83c-1fb9-47f7-bd26-d9f7a7aaa2fc","system_id":"levelo_inurba_marseille","lat":43.2978,"lon":5.37074,"is_reserved":false,"is_disabled":false,"rental_uris":{"android":"levelo://app?vid=e2a8d83c-1fb9-47f7-bd26-d9f7a7aaa2fc","ios":"levelo://app?vid=e2a8d83c-1fb9-47f7-bd26-d9f7a7aaa2fc"},"vehicle_type_id":"4","last_reported":1770839372,"current_range_meters":4400,"station_id":"ce4bgop2rcd13ifvqc1g","pricing_plan_id":"cebpf4jnsgd1na2vs0mg"},{"bike_id":"02a473d7-8a6f-4ca1-8af8-2dff2e543990","system_id":"levelo_inurba_marseille","lat":43.29283,"lon":5.40128,"is_reserved":false,"is_disabled":false,"rental_uris":{"android":"levelo://app?vid=02a473d7-8a6f-4ca1-8af8-2dff2e543990","ios":"levelo://app?vid=02a473d7-8a6f-4ca1-8af8-2dff2e543990"},"vehicle_type_id":"4","last_reported":1770839372,"current_range_meters":4400,"station_id":"ce4bh312rcd13ifvqdk0","pricing_plan_id":"cebpf4jnsgd1na2vs0mg"},{"bike_id":"3cf4412f-4eab-4fb4-bd6a-b9dfe83e38cc","system_id":"levelo_inurba_marseille","lat":43.24176,"lon":5.39741,"is_reserved":false,"is_disabled":false,"rental_uris":{"android":"levelo://app?vid=3cf4412f-4eab-4fb4-bd6a-b9dfe83e38cc","ios":"levelo://app?vid=3cf4412f-4eab-4fb4-bd6a-b9dfe83e38cc"},"vehicle_type_id":"4","last_reported":1770839372,"current_range_meters":4400,"station_id":"ce4bhn12rcd13ifvqgpg","pricing_plan_id":"cebpf4jnsgd1na2vs0mg"},{"bike_id":"42a0c368-d66d-4380-8564-5bb9b2681cca","system_id":"levelo_inurba_marseille","lat":43.30468,"lon":5.36563,"is_reserved":false,"is_disabled":false,"rental_uris":{"android":"levelo://app?vid=42a0c368-d66d-4380-8564-5bb9b2681cca","ios":"levelo://app?vid=42a0c368-d66d-4380-8564-5bb9b2681cca"},"vehicle_type_id":"4","last_reported":1770839372,"current_range_meters":4400,"station_id":"","pricing_plan_id":"cebpf4jnsgd1na2vs0mg"},{"bike_id":"aadc1405-47c9-40f9-b954-b39d95d47069","system_id":"levelo_inurba_marseille","lat":43.2984,"lon":5.36267,"is_reserved":false,"is_disabled":false,"rental_uris":{"android":"levelo://app?vid=aadc1405-47c9-40f9-b954-b39d95d47069","ios":"levelo://app?vid=aadc1405-47c9-40f9-b954-b39d95d47069"},"vehicle_type_id":"4","last_reported":1770839372,"current_range_meters":4400,"station_id":"","pricing_plan_id":"cebpf4jnsgd1na2vs0mg"},{"bike_id":"7080df34-f09d-47d5-be55-0d618d1ddb54","system_id":"levelo_inurba_marseille","lat":43.275661,"lon":5.384422,"is_reserved":false,"is_disabled":false,"rental_uris":{"android":"levelo://app?vid=7080df34-f09d-47d5-be55-0d618d1ddb54","ios":"levelo://app?vid=7080df34-f09d-47d5-be55-0d618d1ddb54"},"vehicle_type_id":"4","last_reported":1770839372,"current_range_meters":4400,"station_id":"ce4bhh92rcd13ifvqfi0","pricing_plan_id":"cebpf4jnsgd1na2vs0mg"},{"bike_id":"1dcf3562-4dbd-4c4f-b48a-ff6e94dcbfdd","system_id":"levelo_inurba_marseille","lat":43.246577,"lon":5.381481,"is_reserved":false,"is_disabled":false,"rental_uris":{"android":"levelo://app?vid=1dcf3562-4dbd-4c4f-b48a-ff6e94dcbfdd","ios":"levelo://app?vid=1dcf3562-4dbd-4c4f-b48a-ff6e94dcbfdd"},"vehicle_type_id":"4","last_reported":1770839372,"current_range_meters":4400,"station_id":"ce4bhih2rcd13ifvqfr0","pricing_plan_id":"cebpf4jnsgd1na2vs0mg"},{"bike_id":"41bcef22-b6a6-4f57-8bbd-a7269672eadd","system_id":"levelo_inurba_marseille","lat":43.28917,"lon":5.36652,"is_reserved":false,"is_disabled":true,"rental_uris":{"android":"levelo://app?vid=41bcef22-b6a6-4f57-8bbd-a7269672eadd","ios":"levelo://app?vid=41bcef22-b6a6-4f57-8bbd-a7269672eadd"},"vehicle_type_id":"4","last_reported":1770839372,"current_range_meters":4400,"station_id":"ce4bhap2rcd13ifvqek0","pricing_plan_id":"cebpf4jnsgd1na2vs0mg"},{"bike_id":"0885fb26-6048-4401-abf1-9d51fe416cad","system_id":"levelo_inurba_marseille","lat":43.28928,"lon":5.36622,"is_reserved":false,"is_disabled":false,"rental_uris":{"android":"levelo://app?vid=0885fb26-6048-4401-abf1-9d51fe416cad","ios":"levelo://app?vid=0885fb26-6048-4401-abf1-9d51fe416cad"},"vehicle_type_id":"4","last_reported":1770839372,"current_range_meters":4400,"station_id":"ce4bhap2rcd13ifvqek0","pricing_plan_id":"cebpf4jnsgd1na2vs0mg"},{"bike_id":"1b235f65-6fab-4b85-aaae-0cb96a11fac9","system_id":"levelo_inurba_marseille","lat":43.29965,"lon":5.38505,"is_reserved":false,"is_disabled":false,"rental_uris":{"android":"levelo://app?vid=1b235f65-6fab-4b85-aaae-0cb96a11fac9","ios":"levelo://app?vid=1b235f65-6fab-4b85-aaae-0cb96a11fac9"},"vehicle_type_id":"4","last_reported":1770839372,"current_range_meters":4800,"station_id":"ce4bgj92rcd13ifvqbd0","pricing_plan_id":"cebpf4jnsgd1na2vs0mg"},{"bike_id":"57b7d66a-91e4-46cd-b602-ca883fca1e11","system_id":"levelo_inurba_marseille","lat":43.29804,"lon":5.40418,"is_reserved":false,"is_disabled":false,"rental_uris":{"android":"levelo://app?vid=57b7d66a-91e4-46cd-b602-ca883fca1e11","ios":"levelo://app?vid=57b7d66a-91e4-46cd-b602-ca883fca1e11"},"vehicle_type_id":"4","last_reported":1770839372,"current_range_meters":4800,"station_id":"ce4bh112rcd13ifvqd90","pricing_plan_id":"cebpf4jnsgd1na2vs0mg"},{"bike_id":"021e05cb-d562-422d-83c5-2ce813c660cc","system_id":"levelo_inurba_marseille","lat":43.28148,"lon":5.42649,"is_reserved":false,"is_disabled":false,"rental_uris":{"android":"levelo://app?vid=021e05cb-d562-422d-83c5-2ce813c660cc","ios":"levelo://app?vid=021e05cb-d562-422d-83c5-2ce813c660cc"},"vehicle_type_id":"4","last_reported":1770839372,"current_range_meters":4800,"station_id":"ce4bhnh2rcd13ifvqgug","pricing_plan_id":"cebpf4jnsgd1na2vs0mg"},{"bike_id":"ab7260d3-0b60-4920-bd6e-553838fbba97","system_id":"levelo_inurba_marseille","lat":43.30456,"lon":5.4017,"is_reserved":false,"is_disabled":false,"rental_uris":{"android":"levelo://app?vid=ab7260d3-0b60-4920-bd6e-553838fbba97","ios":"levelo://app?vid=ab7260d3-0b60-4920-bd6e-553838fbba97"},"vehicle_type_id":"4","last_reported":1770839372,"current_range_meters":4800,"station_id":"","pricing_plan_id":"cebpf4jnsgd1na2vs0mg"},{"bike_id":"0791f832-532b-4a81-8501-1d24505211ed","system_id":"levelo_inurba_marseille","lat":43.29186,"lon":5.35808,"is_reserved":false,"is_disabled":false,"rental_uris":{"android":"levelo://app?vid=0791f832-532b-4a81-8501-1d24505211ed","ios":"levelo://app?vid=0791f832-532b-4a81-8501-1d24505211ed"},"vehicle_type_id":"4","last_reported":1770839372,"current_range_meters":4800,"station_id":"ce4bhb12rcd13ifvqel0","pricing_plan_id":"cebpf4jnsgd1na2vs0mg"},{"bike_id":"181777f8-f2e9-4556-8faf-fa3e8dce1295","system_id":"levelo_inurba_marseille","lat":43.29085,"lon":5.3798,"is_reserved":false,"is_disabled":false,"rental_uris":{"android":"levelo://app?vid=181777f8-f2e9-4556-8faf-fa3e8dce1295","ios":"levelo://app?vid=181777f8-f2e9-4556-8faf-fa3e8dce1295"},"vehicle_type_id":"4","last_reported":1770839372,"current_range_meters":4800,"station_id":"","pricing_plan_id":"cebpf4jnsgd1na2vs0mg"},{"bike_id":"a8aba78b-d9c8-4303-9656-7199da85692a","system_id":"levelo_inurba_marseille","lat":43.28933,"lon":5.38355,"is_reserved":false,"is_disabled":false,"rental_uris":{"android":"levelo://app?vid=a8aba78b-d9c8-4303-9656-7199da85692a","ios":"levelo://app?vid=a8aba78b-d9c8-4303-9656-7199da85692a"},"vehicle_type_id":"4","last_reported":1770839372,"current_range_meters":4800,"station_id":"ce4bh612rcd13ifvqe6g","pricing_plan_id":"cebpf4jnsgd1na2vs0mg"},{"bike_id":"8fd54c49-2a43-4c11-9493-aa4c3d91f774","system_id":"levelo_inurba_marseille","lat":43.29261,"lon":5.38436,"is_reserved":false,"is_disabled":false,"rental_uris":{"android":"levelo://app?vid=8fd54c49-2a43-4c11-9493-aa4c3d91f774","ios":"levelo://app?vid=8fd54c49-2a43-4c11-9493-aa4c3d91f774"},"vehicle_type_id":"4","last_reported":1770839372,"current_range_meters":4800,"station_id":"ce4bh692rcd13ifvqea0","pricing_plan_id":"cebpf4jnsgd1na2vs0mg"},{"bike_id":"e86df8bb-0858-482f-b0e7-72c2f4e79ebb","system_id":"levelo_inurba_marseille","lat":43.29965,"lon":5.38511,"is_reserved":false,"is_disabled":false,"rental_uris":{"android":"levelo://app?vid=e86df8bb-0858-482f-b0e7-72c2f4e79ebb","ios":"levelo://app?vid=e86df8bb-0858-482f-b0e7-72c2f4e79ebb"},"vehicle_type_id":"4","last_reported":1770839372,"current_range_meters":4800,"station_id":"ce4bgj92rcd13ifvqbd0","pricing_plan_id":"cebpf4jnsgd1na2vs0mg"},{"bike_id":"c5905c63-82ea-4157-aaa6-22b59855d28f","system_id":"levelo_inurba_marseille","lat":43.2318,"lon":5.40003,"is_reserved":false,"is_disabled":false,"rental_uris":{"android":"levelo://app?vid=c5905c63-82ea-4157-aaa6-22b59855d28f","ios":"levelo://app?vid=c5905c63-82ea-4157-aaa6-22b59855d28f"},"vehicle_type_id":"4","last_reported":1770839372,"current_range_meters":4800,"station_id":"ce4bhn12rcd13ifvqgqg","pricing_plan_id":"cebpf4jnsgd1na2vs0mg"},{"bike_id":"cd02131c-c8e4-4beb-8d04-f49065a62ebc","system_id":"levelo_inurba_marseille","lat":43.29258,"lon":5.40907,"is_reserved":false,"is_disabled":false,"rental_uris":{"android":"levelo://app?vid=cd02131c-c8e4-4beb-8d04-f49065a62ebc","ios":"levelo://app?vid=cd02131c-c8e4-4beb-8d04-f49065a62ebc"},"vehicle_type_id":"4","last_reported":1770839372,"current_range_meters":4800,"station_id":"ce4bh192rcd13ifvqdc0","pricing_plan_id":"cebpf4jnsgd1na2vs0mg"},{"bike_id":"cb746bf2-c6a8-4dab-a64d-02007d5a1877","system_id":"levelo_inurba_marseille","lat":43.248158,"lon":5.374512,"is_reserved":false,"is_disabled":false,"rental_uris":{"android":"levelo://app?vid=cb746bf2-c6a8-4dab-a64d-02007d5a1877","ios":"levelo://app?vid=cb746bf2-c6a8-4dab-a64d-02007d5a1877"},"vehicle_type_id":"4","last_reported":1770839372,"current_range_meters":5600,"station_id":"ce4bhgh2rcd13ifvqfb0","pricing_plan_id":"cebpf4jnsgd1na2vs0mg"},{"bike_id":"c6176d61-506f-4755-a0d6-6ccb9566f89a","system_id":"levelo_inurba_marseille","lat":43.25651,"lon":5.4113,"is_reserved":false,"is_disabled":false,"rental_uris":{"android":"levelo://app?vid=c6176d61-506f-4755-a0d6-6ccb9566f89a","ios":"levelo://app?vid=c6176d61-506f-4755-a0d6-6ccb9566f89a"},"vehicle_type_id":"4","last_reported":1770839372,"current_range_meters":5600,"station_id":"","pricing_plan_id":"cebpf4jnsgd1na2vs0mg"},{"bike_id":"1c120683-67bc-428a-aa0f-bec572dfb863","system_id":"levelo_inurba_marseille","lat":43.25574,"lon":5.3825,"is_reserved":false,"is_disabled":false,"rental_uris":{"android":"levelo://app?vid=1c120683-67bc-428a-aa0f-bec572dfb863","ios":"levelo://app?vid=1c120683-67bc-428a-aa0f-bec572dfb863"},"vehicle_type_id":"4","last_reported":1770839372,"current_range_meters":5600,"station_id":"ce4bhih2rcd13ifvqfs0","pricing_plan_id":"cebpf4jnsgd1na2vs0mg"},{"bike_id":"4659f5f2-43a6-4213-b84f-184d5dec64b3","system_id":"levelo_inurba_marseille","lat":43.33552,"lon":5.37436,"is_reserved":false,"is_disabled":false,"rental_uris":{"android":"levelo://app?vid=4659f5f2-43a6-4213-b84f-184d5dec64b3","ios":"levelo://app?vid=4659f5f2-43a6-4213-b84f-184d5dec64b3"},"vehicle_type_id":"4","last_reported":1770839372,"current_range_meters":5600,"station_id":"st_d46tts09ee8s73dlu43g","pricing_plan_id":"cebpf4jnsgd1na2vs0mg"},{"bike_id":"68436fc7-aad0-465d-a1eb-d153a2c2801a","system_id":"levelo_inurba_marseille","lat":43.33153,"lon":5.37704,"is_reserved":false,"is_disabled":false,"rental_uris":{"android":"levelo://app?vid=68436fc7-aad0-465d-a1eb-d153a2c2801a","ios":"levelo://app?vid=68436fc7-aad0-465d-a1eb-d153a2c2801a"},"vehicle_type_id":"4","last_reported":1770839372,"current_range_meters":5600,"station_id":"st_d46cu089ee8s73dldbu0","pricing_plan_id":"cebpf4jnsgd1na2vs0mg"},{"bike_id":"8a086d1d-5ee9-4602-bc53-25876ff7f196","system_id":"levelo_inurba_marseille","lat":43.31096,"lon":5.37142,"is_reserved":false,"is_disabled":false,"rental_uris":{"android":"levelo://app?vid=8a086d1d-5ee9-4602-bc53-25876ff7f196","ios":"levelo://app?vid=8a086d1d-5ee9-4602-bc53-25876ff7f196"},"vehicle_type_id":"4","last_reported":1770839372,"current_range_meters":5600,"station_id":"st_d4kl2rp97mjs73e7tdfg","pricing_plan_id":"cebpf4jnsgd1na2vs0mg"},{"bike_id":"291aecf8-1e1e-4d33-b3a2-b755abf562c6","system_id":"levelo_inurba_marseille","lat":43.28074,"lon":5.39662,"is_reserved":false,"is_disabled":false,"rental_uris":{"android":"levelo://app?vid=291aecf8-1e1e-4d33-b3a2-b755abf562c6","ios":"levelo://app?vid=291aecf8-1e1e-4d33-b3a2-b755abf562c6"},"vehicle_type_id":"4","last_reported":1770839372,"current_range_meters":5600,"station_id":"ce4bho12rcd13ifvqh2g","pricing_plan_id":"cebpf4jnsgd1na2vs0mg"},{"bike_id":"caca33be-e15c-4bfb-b63a-d99631bdec75","system_id":"levelo_inurba_marseille","lat":43.26555,"lon":5.39039,"is_reserved":false,"is_disabled":false,"rental_uris":{"android":"levelo://app?vid=caca33be-e15c-4bfb-b63a-d99631bdec75","ios":"levelo://app?vid=caca33be-e15c-4bfb-b63a-d99631bdec75"},"vehicle_type_id":"4","last_reported":1770839372,"current_range_meters":5600,"station_id":"ce4bhe12rcd13ifvqf30","pricing_plan_id":"cebpf4jnsgd1na2vs0mg"},{"bike_id":"e13545cb-5018-40ae-86e9-072ab47206c3","system_id":"levelo_inurba_marseille","lat":43.31269,"lon":5.40158,"is_reserved":false,"is_disabled":false,"rental_uris":{"android":"levelo://app?vid=e13545cb-5018-40ae-86e9-072ab47206c3","ios":"levelo://app?vid=e13545cb-5018-40ae-86e9-072ab47206c3"},"vehicle_type_id":"4","last_reported":1770839372,"current_range_meters":5600,"station_id":"ce4bh092rcd13ifvqd30","pricing_plan_id":"cebpf4jnsgd1na2vs0mg"},{"bike_id":"e254a5d7-a9f7-4c4c-99e4-4fe4ae8a6566","system_id":"levelo_inurba_marseille","lat":43.27315,"lon":5.39074,"is_reserved":false,"is_disabled":false,"rental_uris":{"android":"levelo://app?vid=e254a5d7-a9f7-4c4c-99e4-4fe4ae8a6566","ios":"levelo://app?vid=e254a5d7-a9f7-4c4c-99e4-4fe4ae8a6566"},"vehicle_type_id":"4","last_reported":1770839372,"current_range_meters":5600,"station_id":"ce4bhgp2rcd13ifvqfe0","pricing_plan_id":"cebpf4jnsgd1na2vs0mg"},{"bike_id":"eb6aca81-ad88-40dd-938e-913f6202e10b","system_id":"levelo_inurba_marseille","lat":43.3063,"lon":5.40098,"is_reserved":false,"is_disabled":false,"rental_uris":{"android":"levelo://app?vid=eb6aca81-ad88-40dd-938e-913f6202e10b","ios":"levelo://app?vid=eb6aca81-ad88-40dd-938e-913f6202e10b"},"vehicle_type_id":"4","last_reported":1770839372,"current_range_meters":5600,"station_id":"ce4bh112rcd13ifvqda0","pricing_plan_id":"cebpf4jnsgd1na2vs0mg"},{"bike_id":"ab69fa90-05c6-4a13-8660-165242beaed7","system_id":"levelo_inurba_marseille","lat":43.30321,"lon":5.40423,"is_reserved":false,"is_disabled":false,"rental_uris":{"android":"levelo://app?vid=ab69fa90-05c6-4a13-8660-165242beaed7","ios":"levelo://app?vid=ab69fa90-05c6-4a13-8660-165242beaed7"},"vehicle_type_id":"4","last_reported":1770839372,"current_range_meters":5600,"station_id":"ce4bh012rcd13ifvqd10","pricing_plan_id":"cebpf4jnsgd1na2vs0mg"},{"bike_id":"a93958e3-e363-4f99-babf-ee2d9d0a3c55","system_id":"levelo_inurba_marseille","lat":43.29787,"lon":5.39343,"is_reserved":false,"is_disabled":false,"rental_uris":{"android":"levelo://app?vid=a93958e3-e363-4f99-babf-ee2d9d0a3c55","ios":"levelo://app?vid=a93958e3-e363-4f99-babf-ee2d9d0a3c55"},"vehicle_type_id":"4","last_reported":1770839372,"current_range_meters":5600,"station_id":"chh1huq6cuj3fo74tm60","pricing_plan_id":"cebpf4jnsgd1na2vs0mg"},{"bike_id":"1575819e-1691-454c-a527-d36087e3e272","system_id":"levelo_inurba_marseille","lat":43.28408,"lon":5.37523,"is_reserved":false,"is_disabled":false,"rental_uris":{"android":"levelo://app?vid=1575819e-1691-454c-a527-d36087e3e272","ios":"levelo://app?vid=1575819e-1691-454c-a527-d36087e3e272"},"vehicle_type_id":"4","last_reported":1770839372,"current_range_meters":5600,"station_id":"ce4bh412rcd13ifvqds0","pricing_plan_id":"cebpf4jnsgd1na2vs0mg"},{"bike_id":"4e0f9367-7bac-4416-a504-19f0c84a5aa3","system_id":"levelo_inurba_marseille","lat":43.28154,"lon":5.42639,"is_reserved":false,"is_disabled":false,"rental_uris":{"android":"levelo://app?vid=4e0f9367-7bac-4416-a504-19f0c84a5aa3","ios":"levelo://app?vid=4e0f9367-7bac-4416-a504-19f0c84a5aa3"},"vehicle_type_id":"4","last_reported":1770839372,"current_range_meters":6000,"station_id":"ce4bhnh2rcd13ifvqgug","pricing_plan_id":"cebpf4jnsgd1na2vs0mg"},{"bike_id":"bc58a61e-5dee-4f48-b37b-2d8085ac5b73","system_id":"levelo_inurba_marseille","lat":43.249583,"lon":5.40492,"is_reserved":false,"is_disabled":false,"rental_uris":{"android":"levelo://app?vid=bc58a61e-5dee-4f48-b37b-2d8085ac5b73","ios":"levelo://app?vid=bc58a61e-5dee-4f48-b37b-2d8085ac5b73"},"vehicle_type_id":"4","last_reported":1770839372,"current_range_meters":6000,"station_id":"st_d2ngiaodas8pm72gd1h0","pricing_plan_id":"cebpf4jnsgd1na2vs0mg"},{"bike_id":"1fed4add-aae6-45dc-a8f1-a0c848be9f5d","system_id":"levelo_inurba_marseille","lat":43.26198,"lon":5.37936,"is_reserved":false,"is_disabled":false,"rental_uris":{"android":"levelo://app?vid=1fed4add-aae6-45dc-a8f1-a0c848be9f5d","ios":"levelo://app?vid=1fed4add-aae6-45dc-a8f1-a0c848be9f5d"},"vehicle_type_id":"4","last_reported":1770839372,"current_range_meters":6000,"station_id":"ce4bhjp2rcd13ifvqg90","pricing_plan_id":"cebpf4jnsgd1na2vs0mg"},{"bike_id":"156d8054-12bc-48fd-9e6d-ad7b9e07d22f","system_id":"levelo_inurba_marseille","lat":43.29215,"lon":5.36054,"is_reserved":false,"is_disabled":false,"rental_uris":{"android":"levelo://app?vid=156d8054-12bc-48fd-9e6d-ad7b9e07d22f","ios":"levelo://app?vid=156d8054-12bc-48fd-9e6d-ad7b9e07d22f"},"vehicle_type_id":"4","last_reported":1770839372,"current_range_meters":6000,"station_id":"ce4bhbh2rcd13ifvqeqg","pricing_plan_id":"cebpf4jnsgd1na2vs0mg"},{"bike_id":"1b132ddd-213c-4bff-a2db-5c87b826dc0c","system_id":"levelo_inurba_marseille","lat":43.27053,"lon":5.4026,"is_reserved":false,"is_disabled":false,"rental_uris":{"android":"levelo://app?vid=1b132ddd-213c-4bff-a2db-5c87b826dc0c","ios":"levelo://app?vid=1b132ddd-213c-4bff-a2db-5c87b826dc0c"},"vehicle_type_id":"4","last_reported":1770839372,"current_range_meters":6000,"station_id":"ce4bhk92rcd13ifvqgc0","pricing_plan_id":"cebpf4jnsgd1na2vs0mg"},{"bike_id":"1ed8df10-ce20-4add-b277-742083c9b7f5","system_id":"levelo_inurba_marseille","lat":43.2717,"lon":5.409895,"is_reserved":false,"is_disabled":false,"rental_uris":{"android":"levelo://app?vid=1ed8df10-ce20-4add-b277-742083c9b7f5","ios":"levelo://app?vid=1ed8df10-ce20-4add-b277-742083c9b7f5"},"vehicle_type_id":"4","last_reported":1770839372,"current_range_meters":6000,"station_id":"ce4bhl12rcd13ifvqgf0","pricing_plan_id":"cebpf4jnsgd1na2vs0mg"},{"bike_id":"bdde70ef-70ce-4d41-a03b-1cac73853d63","system_id":"levelo_inurba_marseille","lat":43.24175,"lon":5.36359,"is_reserved":false,"is_disabled":false,"rental_uris":{"android":"levelo://app?vid=bdde70ef-70ce-4d41-a03b-1cac73853d63","ios":"levelo://app?vid=bdde70ef-70ce-4d41-a03b-1cac73853d63"},"vehicle_type_id":"4","last_reported":1770839372,"current_range_meters":6000,"station_id":"cpo36qri1sfpv3e86is0","pricing_plan_id":"cebpf4jnsgd1na2vs0mg"},{"bike_id":"d6b9d7ff-4ec2-4ca9-ba28-5a5dad54cfd3","system_id":"levelo_inurba_marseille","lat":43.28476,"lon":5.4839,"is_reserved":false,"is_disabled":false,"rental_uris":{"android":"levelo://app?vid=d6b9d7ff-4ec2-4ca9-ba28-5a5dad54cfd3","ios":"levelo://app?vid=d6b9d7ff-4ec2-4ca9-ba28-5a5dad54cfd3"},"vehicle_type_id":"4","last_reported":1770839372,"current_range_meters":6000,"station_id":"","pricing_plan_id":"cebpf4jnsgd1na2vs0mg"},{"bike_id":"aa5643aa-8a63-4d4f-b21f-c58dc8124a62","system_id":"levelo_inurba_marseille","lat":43.24393,"lon":5.37034,"is_reserved":false,"is_disabled":false,"rental_uris":{"android":"levelo://app?vid=aa5643aa-8a63-4d4f-b21f-c58dc8124a62","ios":"levelo://app?vid=aa5643aa-8a63-4d4f-b21f-c58dc8124a62"},"vehicle_type_id":"4","last_reported":1770839372,"current_range_meters":6000,"station_id":"ce4bhhh2rcd13ifvqfk0","pricing_plan_id":"cebpf4jnsgd1na2vs0mg"},{"bike_id":"26c58297-f4b1-45e3-ad9b-de8767b87ae2","system_id":"levelo_inurba_marseille","lat":43.30914,"lon":5.40167,"is_reserved":false,"is_disabled":true,"rental_uris":{"android":"levelo://app?vid=26c58297-f4b1-45e3-ad9b-de8767b87ae2","ios":"levelo://app?vid=26c58297-f4b1-45e3-ad9b-de8767b87ae2"},"vehicle_type_id":"4","last_reported":1770839372,"current_range_meters":6000,"station_id":"ce4bgvp2rcd13ifvqct0","pricing_plan_id":"cebpf4jnsgd1na2vs0mg"},{"bike_id":"1ee4abda-7b84-4885-9a96-34f7fb9e355a","system_id":"levelo_inurba_marseille","lat":43.29522,"lon":5.39405,"is_reserved":false,"is_disabled":false,"rental_uris":{"android":"levelo://app?vid=1ee4abda-7b84-4885-9a96-34f7fb9e355a","ios":"levelo://app?vid=1ee4abda-7b84-4885-9a96-34f7fb9e355a"},"vehicle_type_id":"4","last_reported":1770839372,"current_range_meters":6000,"station_id":"ce4bh292rcd13ifvqdf0","pricing_plan_id":"cebpf4jnsgd1na2vs0mg"},{"bike_id":"070e6942-f4e8-46ac-9fa8-9860b9182619","system_id":"levelo_inurba_marseille","lat":43.28551,"lon":5.39424,"is_reserved":false,"is_disabled":false,"rental_uris":{"android":"levelo://app?vid=070e6942-f4e8-46ac-9fa8-9860b9182619","ios":"levelo://app?vid=070e6942-f4e8-46ac-9fa8-9860b9182619"},"vehicle_type_id":"4","last_reported":1770839372,"current_range_meters":6000,"station_id":"","pricing_plan_id":"cebpf4jnsgd1na2vs0mg"},{"bike_id":"a4933106-3088-48d5-b62e-5e3809209992","system_id":"levelo_inurba_marseille","lat":43.28715,"lon":5.36085,"is_reserved":false,"is_disabled":false,"rental_uris":{"android":"levelo://app?vid=a4933106-3088-48d5-b62e-5e3809209992","ios":"levelo://app?vid=a4933106-3088-48d5-b62e-5e3809209992"},"vehicle_type_id":"4","last_reported":1770839372,"current_range_meters":6000,"station_id":"cki0cbj6b192h4jlfktg","pricing_plan_id":"cebpf4jnsgd1na2vs0mg"},{"bike_id":"69cb53c0-4939-4da6-a53e-35e4cb2de7f7","system_id":"levelo_inurba_marseille","lat":43.22553,"lon":5.41633,"is_reserved":false,"is_disabled":false,"rental_uris":{"android":"levelo://app?vid=69cb53c0-4939-4da6-a53e-35e4cb2de7f7","ios":"levelo://app?vid=69cb53c0-4939-4da6-a53e-35e4cb2de7f7"},"vehicle_type_id":"4","last_reported":1770839372,"current_range_meters":6000,"station_id":"st_d2o4gvlbi1j2169b742g","pricing_plan_id":"cebpf4jnsgd1na2vs0mg"},{"bike_id":"238249fa-46de-416c-b2d1-b229a6220ad5","system_id":"levelo_inurba_marseille","lat":43.26581,"lon":5.39001,"is_reserved":false,"is_disabled":false,"rental_uris":{"android":"levelo://app?vid=238249fa-46de-416c-b2d1-b229a6220ad5","ios":"levelo://app?vid=238249fa-46de-416c-b2d1-b229a6220ad5"},"vehicle_type_id":"4","last_reported":1770839372,"current_range_meters":6000,"station_id":"ce4bhe12rcd13ifvqf30","pricing_plan_id":"cebpf4jnsgd1na2vs0mg"},{"bike_id":"46b0ad31-3bc1-4916-b611-e12bc5cb5275","system_id":"levelo_inurba_marseille","lat":43.3104,"lon":5.37191,"is_reserved":false,"is_disabled":false,"rental_uris":{"android":"levelo://app?vid=46b0ad31-3bc1-4916-b611-e12bc5cb5275","ios":"levelo://app?vid=46b0ad31-3bc1-4916-b611-e12bc5cb5275"},"vehicle_type_id":"4","last_reported":1770839372,"current_range_meters":6000,"station_id":"st_d4kl2rp97mjs73e7tdfg","pricing_plan_id":"cebpf4jnsgd1na2vs0mg"},{"bike_id":"ef11e5ed-810d-4aa9-9e1f-1f501699d78d","system_id":"levelo_inurba_marseille","lat":43.25861,"lon":5.39907,"is_reserved":false,"is_disabled":false,"rental_uris":{"android":"levelo://app?vid=ef11e5ed-810d-4aa9-9e1f-1f501699d78d","ios":"levelo://app?vid=ef11e5ed-810d-4aa9-9e1f-1f501699d78d"},"vehicle_type_id":"4","last_reported":1770839372,"current_range_meters":6400,"station_id":"ce4bhl92rcd13ifvqghg","pricing_plan_id":"cebpf4jnsgd1na2vs0mg"},{"bike_id":"705379f0-9f22-461e-8900-3556f13ec82c","system_id":"levelo_inurba_marseille","lat":43.3172,"lon":5.37805,"is_reserved":false,"is_disabled":false,"rental_uris":{"android":"levelo://app?vid=705379f0-9f22-461e-8900-3556f13ec82c","ios":"levelo://app?vid=705379f0-9f22-461e-8900-3556f13ec82c"},"vehicle_type_id":"4","last_reported":1770839372,"current_range_meters":6400,"station_id":"","pricing_plan_id":"cebpf4jnsgd1na2vs0mg"},{"bike_id":"126e21f0-2935-462c-9913-e80d09691243","system_id":"levelo_inurba_marseille","lat":43.29161,"lon":5.37159,"is_reserved":false,"is_disabled":false,"rental_uris":{"android":"levelo://app?vid=126e21f0-2935-462c-9913-e80d09691243","ios":"levelo://app?vid=126e21f0-2935-462c-9913-e80d09691243"},"vehicle_type_id":"4","last_reported":1770839372,"current_range_meters":6400,"station_id":"ce4bha92rcd13ifvqeh0","pricing_plan_id":"cebpf4jnsgd1na2vs0mg"},{"bike_id":"cb757f0d-9c7a-491d-bd37-8f151a926c0d","system_id":"levelo_inurba_marseille","lat":43.25574,"lon":5.38242,"is_reserved":false,"is_disabled":false,"rental_uris":{"android":"levelo://app?vid=cb757f0d-9c7a-491d-bd37-8f151a926c0d","ios":"levelo://app?vid=cb757f0d-9c7a-491d-bd37-8f151a926c0d"},"vehicle_type_id":"4","last_reported":1770839372,"current_range_meters":6400,"station_id":"ce4bhih2rcd13ifvqfs0","pricing_plan_id":"cebpf4jnsgd1na2vs0mg"},{"bike_id":"f014daa9-2e02-4b72-b34d-afaef4744f24","system_id":"levelo_inurba_marseille","lat":43.30421,"lon":5.41314,"is_reserved":false,"is_disabled":false,"rental_uris":{"android":"levelo://app?vid=f014daa9-2e02-4b72-b34d-afaef4744f24","ios":"levelo://app?vid=f014daa9-2e02-4b72-b34d-afaef4744f24"},"vehicle_type_id":"4","last_reported":1770839372,"current_range_meters":6400,"station_id":"ce4bhop2rcd13ifvqh8g","pricing_plan_id":"cebpf4jnsgd1na2vs0mg"},{"bike_id":"cc8657f3-cee0-4726-8427-1495a502b0dc","system_id":"levelo_inurba_marseille","lat":43.297645,"lon":5.427834,"is_reserved":false,"is_disabled":false,"rental_uris":{"android":"levelo://app?vid=cc8657f3-cee0-4726-8427-1495a502b0dc","ios":"levelo://app?vid=cc8657f3-cee0-4726-8427-1495a502b0dc"},"vehicle_type_id":"4","last_reported":1770839372,"current_range_meters":6400,"station_id":"st_d3md5207bmas73dh9klg","pricing_plan_id":"cebpf4jnsgd1na2vs0mg"},{"bike_id":"93b00136-09fe-4a17-8fb6-8d647dc37c64","system_id":"levelo_inurba_marseille","lat":43.262075,"lon":5.379241,"is_reserved":false,"is_disabled":false,"rental_uris":{"android":"levelo://app?vid=93b00136-09fe-4a17-8fb6-8d647dc37c64","ios":"levelo://app?vid=93b00136-09fe-4a17-8fb6-8d647dc37c64"},"vehicle_type_id":"4","last_reported":1770839372,"current_range_meters":6400,"station_id":"ce4bhjp2rcd13ifvqg90","pricing_plan_id":"cebpf4jnsgd1na2vs0mg"},{"bike_id":"70fbccf0-1d8a-434a-b15f-78beac201af2","system_id":"levelo_inurba_marseille","lat":43.2656,"lon":5.39022,"is_reserved":false,"is_disabled":false,"rental_uris":{"android":"levelo://app?vid=70fbccf0-1d8a-434a-b15f-78beac201af2","ios":"levelo://app?vid=70fbccf0-1d8a-434a-b15f-78beac201af2"},"vehicle_type_id":"4","last_reported":1770839372,"current_range_meters":6400,"station_id":"ce4bhe12rcd13ifvqf30","pricing_plan_id":"cebpf4jnsgd1na2vs0mg"},{"bike_id":"f9ed33b9-c22f-4224-8fce-2fa3490b2166","system_id":"levelo_inurba_marseille","lat":43.24953,"lon":5.40503,"is_reserved":false,"is_disabled":false,"rental_uris":{"android":"levelo://app?vid=f9ed33b9-c22f-4224-8fce-2fa3490b2166","ios":"levelo://app?vid=f9ed33b9-c22f-4224-8fce-2fa3490b2166"},"vehicle_type_id":"4","last_reported":1770839372,"current_range_meters":6400,"station_id":"st_d2ngiaodas8pm72gd1h0","pricing_plan_id":"cebpf4jnsgd1na2vs0mg"},{"bike_id":"f7d8dc11-c4e5-487b-974b-49c7ef38cbe3","system_id":"levelo_inurba_marseille","lat":43.26935,"lon":5.3866,"is_reserved":false,"is_disabled":false,"rental_uris":{"android":"levelo://app?vid=f7d8dc11-c4e5-487b-974b-49c7ef38cbe3","ios":"levelo://app?vid=f7d8dc11-c4e5-487b-974b-49c7ef38cbe3"},"vehicle_type_id":"4","last_reported":1770839372,"current_range_meters":6400,"station_id":"ce4bhh92rcd13ifvqfh0","pricing_plan_id":"cebpf4jnsgd1na2vs0mg"},{"bike_id":"4dd60373-8ff7-40c1-a2c0-fc9a7c935991","system_id":"levelo_inurba_marseille","lat":43.28977,"lon":5.39865,"is_reserved":false,"is_disabled":false,"rental_uris":{"android":"levelo://app?vid=4dd60373-8ff7-40c1-a2c0-fc9a7c935991","ios":"levelo://app?vid=4dd60373-8ff7-40c1-a2c0-fc9a7c935991"},"vehicle_type_id":"4","last_reported":1770839372,"current_range_meters":6400,"station_id":"","pricing_plan_id":"cebpf4jnsgd1na2vs0mg"},{"bike_id":"28ba5f80-b380-4f87-ab54-07bffd0c90be","system_id":"levelo_inurba_marseille","lat":43.29029,"lon":5.3865,"is_reserved":false,"is_disabled":false,"rental_uris":{"android":"levelo://app?vid=28ba5f80-b380-4f87-ab54-07bffd0c90be","ios":"levelo://app?vid=28ba5f80-b380-4f87-ab54-07bffd0c90be"},"vehicle_type_id":"4","last_reported":1770839372,"current_range_meters":6400,"station_id":"ce4bh4p2rcd13ifvqe0g","pricing_plan_id":"cebpf4jnsgd1na2vs0mg"},{"bike_id":"3f2807ac-4d7f-46c6-ab24-254f0a7d011e","system_id":"levelo_inurba_marseille","lat":43.29249,"lon":5.40954,"is_reserved":false,"is_disabled":false,"rental_uris":{"android":"levelo://app?vid=3f2807ac-4d7f-46c6-ab24-254f0a7d011e","ios":"levelo://app?vid=3f2807ac-4d7f-46c6-ab24-254f0a7d011e"},"vehicle_type_id":"4","last_reported":1770839372,"current_range_meters":6400,"station_id":"ce4bh192rcd13ifvqdc0","pricing_plan_id":"cebpf4jnsgd1na2vs0mg"},{"bike_id":"8f6b4977-c372-461d-bafb-b1e5cde75c02","system_id":"levelo_inurba_marseille","lat":43.27494,"lon":5.42451,"is_reserved":false,"is_disabled":false,"rental_uris":{"android":"levelo://app?vid=8f6b4977-c372-461d-bafb-b1e5cde75c02","ios":"levelo://app?vid=8f6b4977-c372-461d-bafb-b1e5cde75c02"},"vehicle_type_id":"4","last_reported":1770839372,"current_range_meters":6400,"station_id":"ce4bhn92rcd13ifvqgrg","pricing_plan_id":"cebpf4jnsgd1na2vs0mg"},{"bike_id":"73b862d2-74cf-4817-a068-7b67ae2b63e4","system_id":"levelo_inurba_marseille","lat":43.29273,"lon":5.38452,"is_reserved":false,"is_disabled":false,"rental_uris":{"android":"levelo://app?vid=73b862d2-74cf-4817-a068-7b67ae2b63e4","ios":"levelo://app?vid=73b862d2-74cf-4817-a068-7b67ae2b63e4"},"vehicle_type_id":"4","last_reported":1770839372,"current_range_meters":6400,"station_id":"ce4bh692rcd13ifvqea0","pricing_plan_id":"cebpf4jnsgd1na2vs0mg"},{"bike_id":"b38f5eb0-9de6-4560-815c-48624f894b11","system_id":"levelo_inurba_marseille","lat":43.29272,"lon":5.40124,"is_reserved":false,"is_disabled":false,"rental_uris":{"android":"levelo://app?vid=b38f5eb0-9de6-4560-815c-48624f894b11","ios":"levelo://app?vid=b38f5eb0-9de6-4560-815c-48624f894b11"},"vehicle_type_id":"4","last_reported":1770839372,"current_range_meters":6400,"station_id":"ce4bh312rcd13ifvqdk0","pricing_plan_id":"cebpf4jnsgd1na2vs0mg"},{"bike_id":"fe86c9ba-789d-48cb-b139-57215407552e","system_id":"levelo_inurba_marseille","lat":43.337606,"lon":5.374496,"is_reserved":false,"is_disabled":false,"rental_uris":{"android":"levelo://app?vid=fe86c9ba-789d-48cb-b139-57215407552e","ios":"levelo://app?vid=fe86c9ba-789d-48cb-b139-57215407552e"},"vehicle_type_id":"4","last_reported":1770839372,"current_range_meters":6800,"station_id":"","pricing_plan_id":"cebpf4jnsgd1na2vs0mg"},{"bike_id":"d4ca1552-174d-4ef7-a9fa-51001d780ed8","system_id":"levelo_inurba_marseille","lat":43.31704,"lon":5.43709,"is_reserved":false,"is_disabled":false,"rental_uris":{"android":"levelo://app?vid=d4ca1552-174d-4ef7-a9fa-51001d780ed8","ios":"levelo://app?vid=d4ca1552-174d-4ef7-a9fa-51001d780ed8"},"vehicle_type_id":"4","last_reported":1770839372,"current_range_meters":6800,"station_id":"ce4bhp92rcd13ifvqhcg","pricing_plan_id":"cebpf4jnsgd1na2vs0mg"},{"bike_id":"a8033c18-bf59-458a-9eb0-147256918905","system_id":"levelo_inurba_marseille","lat":43.31048,"lon":5.37179,"is_reserved":false,"is_disabled":false,"rental_uris":{"android":"levelo://app?vid=a8033c18-bf59-458a-9eb0-147256918905","ios":"levelo://app?vid=a8033c18-bf59-458a-9eb0-147256918905"},"vehicle_type_id":"4","last_reported":1770839372,"current_range_meters":6800,"station_id":"st_d4kl2rp97mjs73e7tdfg","pricing_plan_id":"cebpf4jnsgd1na2vs0mg"},{"bike_id":"263478df-a393-409e-bccf-ed070c90a418","system_id":"levelo_inurba_marseille","lat":43.295972,"lon":5.380965,"is_reserved":false,"is_disabled":false,"rental_uris":{"android":"levelo://app?vid=263478df-a393-409e-bccf-ed070c90a418","ios":"levelo://app?vid=263478df-a393-409e-bccf-ed070c90a418"},"vehicle_type_id":"4","last_reported":1770839372,"current_range_meters":6800,"station_id":"ce4bgkh2rcd13ifvqbl0","pricing_plan_id":"cebpf4jnsgd1na2vs0mg"},{"bike_id":"ae861497-9a22-4231-afa9-8238d5c5713c","system_id":"levelo_inurba_marseille","lat":43.24164,"lon":5.36399,"is_reserved":false,"is_disabled":false,"rental_uris":{"android":"levelo://app?vid=ae861497-9a22-4231-afa9-8238d5c5713c","ios":"levelo://app?vid=ae861497-9a22-4231-afa9-8238d5c5713c"},"vehicle_type_id":"4","last_reported":1770839372,"current_range_meters":6800,"station_id":"cpo36qri1sfpv3e86is0","pricing_plan_id":"cebpf4jnsgd1na2vs0mg"},{"bike_id":"83b1ccff-bf30-4513-9198-679ab1a3ddf4","system_id":"levelo_inurba_marseille","lat":43.29527,"lon":5.39056,"is_reserved":false,"is_disabled":false,"rental_uris":{"android":"levelo://app?vid=83b1ccff-bf30-4513-9198-679ab1a3ddf4","ios":"levelo://app?vid=83b1ccff-bf30-4513-9198-679ab1a3ddf4"},"vehicle_type_id":"4","last_reported":1770839372,"current_range_meters":6800,"station_id":"ce4bh3p2rcd13ifvqdp0","pricing_plan_id":"cebpf4jnsgd1na2vs0mg"},{"bike_id":"ef6f6f9a-1e7f-4b02-9005-88ce28fde55b","system_id":"levelo_inurba_marseille","lat":43.29542,"lon":5.38536,"is_reserved":false,"is_disabled":false,"rental_uris":{"android":"levelo://app?vid=ef6f6f9a-1e7f-4b02-9005-88ce28fde55b","ios":"levelo://app?vid=ef6f6f9a-1e7f-4b02-9005-88ce28fde55b"},"vehicle_type_id":"4","last_reported":1770839372,"current_range_meters":6800,"station_id":"ce4bgih2rcd13ifvqba0","pricing_plan_id":"cebpf4jnsgd1na2vs0mg"},{"bike_id":"db7b3935-f773-48e0-9df5-d4a6524636a4","system_id":"levelo_inurba_marseille","lat":43.29525,"lon":5.39031,"is_reserved":false,"is_disabled":false,"rental_uris":{"android":"levelo://app?vid=db7b3935-f773-48e0-9df5-d4a6524636a4","ios":"levelo://app?vid=db7b3935-f773-48e0-9df5-d4a6524636a4"},"vehicle_type_id":"4","last_reported":1770839372,"current_range_meters":6800,"station_id":"ce4bh3p2rcd13ifvqdp0","pricing_plan_id":"cebpf4jnsgd1na2vs0mg"},{"bike_id":"3dfbd036-8d53-46d8-a99b-d0b35b271141","system_id":"levelo_inurba_marseille","lat":43.28574,"lon":5.39515,"is_reserved":false,"is_disabled":false,"rental_uris":{"android":"levelo://app?vid=3dfbd036-8d53-46d8-a99b-d0b35b271141","ios":"levelo://app?vid=3dfbd036-8d53-46d8-a99b-d0b35b271141"},"vehicle_type_id":"4","last_reported":1770839372,"current_range_meters":6800,"station_id":"ce4bh292rcd13ifvqdg0","pricing_plan_id":"cebpf4jnsgd1na2vs0mg"},{"bike_id":"6efe5f0a-6c4f-403e-907f-5428484845d2","system_id":"levelo_inurba_marseille","lat":43.31718,"lon":5.40371,"is_reserved":false,"is_disabled":false,"rental_uris":{"android":"levelo://app?vid=6efe5f0a-6c4f-403e-907f-5428484845d2","ios":"levelo://app?vid=6efe5f0a-6c4f-403e-907f-5428484845d2"},"vehicle_type_id":"4","last_reported":1770839372,"current_range_meters":6800,"station_id":"","pricing_plan_id":"cebpf4jnsgd1na2vs0mg"},{"bike_id":"33352d89-c7bd-4d2f-8796-2f3b2fb0783e","system_id":"levelo_inurba_marseille","lat":43.28146,"lon":5.42705,"is_reserved":false,"is_disabled":false,"rental_uris":{"android":"levelo://app?vid=33352d89-c7bd-4d2f-8796-2f3b2fb0783e","ios":"levelo://app?vid=33352d89-c7bd-4d2f-8796-2f3b2fb0783e"},"vehicle_type_id":"4","last_reported":1770839372,"current_range_meters":6800,"station_id":"","pricing_plan_id":"cebpf4jnsgd1na2vs0mg"},{"bike_id":"96c9a90c-a381-40d6-bce4-40c128e5cf5e","system_id":"levelo_inurba_marseille","lat":43.31711,"lon":5.43706,"is_reserved":false,"is_disabled":false,"rental_uris":{"android":"levelo://app?vid=96c9a90c-a381-40d6-bce4-40c128e5cf5e","ios":"levelo://app?vid=96c9a90c-a381-40d6-bce4-40c128e5cf5e"},"vehicle_type_id":"4","last_reported":1770839372,"current_range_meters":6800,"station_id":"ce4bhp92rcd13ifvqhcg","pricing_plan_id":"cebpf4jnsgd1na2vs0mg"},{"bike_id":"fe40c924-878a-4340-af86-8e80c7c0206b","system_id":"levelo_inurba_marseille","lat":43.23962,"lon":5.3663,"is_reserved":false,"is_disabled":false,"rental_uris":{"android":"levelo://app?vid=fe40c924-878a-4340-af86-8e80c7c0206b","ios":"levelo://app?vid=fe40c924-878a-4340-af86-8e80c7c0206b"},"vehicle_type_id":"4","last_reported":1770839372,"current_range_meters":6800,"station_id":"ce4bhi12rcd13ifvqfp0","pricing_plan_id":"cebpf4jnsgd1na2vs0mg"},{"bike_id":"ea1c6171-5afb-4c13-9162-abe8d2806df9","system_id":"levelo_inurba_marseille","lat":43.27055,"lon":5.38299,"is_reserved":false,"is_disabled":false,"rental_uris":{"android":"levelo://app?vid=ea1c6171-5afb-4c13-9162-abe8d2806df9","ios":"levelo://app?vid=ea1c6171-5afb-4c13-9162-abe8d2806df9"},"vehicle_type_id":"4","last_reported":1770839372,"current_range_meters":6800,"station_id":"st_d3n2fo6cfp8s73cte1j0","pricing_plan_id":"cebpf4jnsgd1na2vs0mg"},{"bike_id":"348e3575-7610-4f7d-a82f-a78a3482be7e","system_id":"levelo_inurba_marseille","lat":43.31359,"lon":5.38487,"is_reserved":false,"is_disabled":false,"rental_uris":{"android":"levelo://app?vid=348e3575-7610-4f7d-a82f-a78a3482be7e","ios":"levelo://app?vid=348e3575-7610-4f7d-a82f-a78a3482be7e"},"vehicle_type_id":"4","last_reported":1770839372,"current_range_meters":6800,"station_id":"ce4bgt92rcd13ifvqcf0","pricing_plan_id":"cebpf4jnsgd1na2vs0mg"},{"bike_id":"b26f7bc8-3e05-415f-a7f6-6fe56a75bb5c","system_id":"levelo_inurba_marseille","lat":43.26056,"lon":5.39394,"is_reserved":false,"is_disabled":false,"rental_uris":{"android":"levelo://app?vid=b26f7bc8-3e05-415f-a7f6-6fe56a75bb5c","ios":"levelo://app?vid=b26f7bc8-3e05-415f-a7f6-6fe56a75bb5c"},"vehicle_type_id":"4","last_reported":1770839372,"current_range_meters":6800,"station_id":"ce4bhh92rcd13ifvqfj0","pricing_plan_id":"cebpf4jnsgd1na2vs0mg"},{"bike_id":"0d60f49b-2168-485f-9c8c-8bf326d0ba55","system_id":"levelo_inurba_marseille","lat":43.24505,"lon":5.42446,"is_reserved":false,"is_disabled":false,"rental_uris":{"android":"levelo://app?vid=0d60f49b-2168-485f-9c8c-8bf326d0ba55","ios":"levelo://app?vid=0d60f49b-2168-485f-9c8c-8bf326d0ba55"},"vehicle_type_id":"4","last_reported":1770839372,"current_range_meters":7200,"station_id":"","pricing_plan_id":"cebpf4jnsgd1na2vs0mg"},{"bike_id":"1a0d99f0-ee74-4956-bad4-992b0789ccc7","system_id":"levelo_inurba_marseille","lat":43.21192,"lon":5.35074,"is_reserved":false,"is_disabled":false,"rental_uris":{"android":"levelo://app?vid=1a0d99f0-ee74-4956-bad4-992b0789ccc7","ios":"levelo://app?vid=1a0d99f0-ee74-4956-bad4-992b0789ccc7"},"vehicle_type_id":"4","last_reported":1770839372,"current_range_meters":7200,"station_id":"st_cvj6sg6p6f1abm77japg","pricing_plan_id":"cebpf4jnsgd1na2vs0mg"},{"bike_id":"e44df137-3a9f-4865-a2d3-769a6f5bfc14","system_id":"levelo_inurba_marseille","lat":43.309,"lon":5.36901,"is_reserved":false,"is_disabled":false,"rental_uris":{"android":"levelo://app?vid=e44df137-3a9f-4865-a2d3-769a6f5bfc14","ios":"levelo://app?vid=e44df137-3a9f-4865-a2d3-769a6f5bfc14"},"vehicle_type_id":"4","last_reported":1770839372,"current_range_meters":7200,"station_id":"ce4bgn92rcd13ifvqbvg","pricing_plan_id":"cebpf4jnsgd1na2vs0mg"},{"bike_id":"f8639601-1139-4514-95e9-6e0370e570c7","system_id":"levelo_inurba_marseille","lat":43.30326,"lon":5.40487,"is_reserved":false,"is_disabled":false,"rental_uris":{"android":"levelo://app?vid=f8639601-1139-4514-95e9-6e0370e570c7","ios":"levelo://app?vid=f8639601-1139-4514-95e9-6e0370e570c7"},"vehicle_type_id":"4","last_reported":1770839372,"current_range_meters":7200,"station_id":"ce4bh012rcd13ifvqd10","pricing_plan_id":"cebpf4jnsgd1na2vs0mg"},{"bike_id":"8ff4a9fa-0d2e-4f7f-8193-e7a8dba5ca9a","system_id":"levelo_inurba_marseille","lat":43.25337,"lon":5.42165,"is_reserved":false,"is_disabled":false,"rental_uris":{"android":"levelo://app?vid=8ff4a9fa-0d2e-4f7f-8193-e7a8dba5ca9a","ios":"levelo://app?vid=8ff4a9fa-0d2e-4f7f-8193-e7a8dba5ca9a"},"vehicle_type_id":"4","last_reported":1770839372,"current_range_meters":7200,"station_id":"st_d2m65c5bi1j21697t3ng","pricing_plan_id":"cebpf4jnsgd1na2vs0mg"},{"bike_id":"02febe8a-0022-4a04-b6e1-5bbdbef701dc","system_id":"levelo_inurba_marseille","lat":43.28392,"lon":5.37583,"is_reserved":false,"is_disabled":false,"rental_uris":{"android":"levelo://app?vid=02febe8a-0022-4a04-b6e1-5bbdbef701dc","ios":"levelo://app?vid=02febe8a-0022-4a04-b6e1-5bbdbef701dc"},"vehicle_type_id":"4","last_reported":1770839372,"current_range_meters":7200,"station_id":"","pricing_plan_id":"cebpf4jnsgd1na2vs0mg"},{"bike_id":"5d05f812-be88-40ea-994a-3a0fd6eb88ed","system_id":"levelo_inurba_marseille","lat":43.28653,"lon":5.36352,"is_reserved":false,"is_disabled":false,"rental_uris":{"android":"levelo://app?vid=5d05f812-be88-40ea-994a-3a0fd6eb88ed","ios":"levelo://app?vid=5d05f812-be88-40ea-994a-3a0fd6eb88ed"},"vehicle_type_id":"4","last_reported":1770839372,"current_range_meters":7200,"station_id":"ce4bhah2rcd13ifvqej0","pricing_plan_id":"cebpf4jnsgd1na2vs0mg"},{"bike_id":"7b92e220-9d47-4ab3-998f-d8a4cc588b3b","system_id":"levelo_inurba_marseille","lat":43.24939,"lon":5.40484,"is_reserved":false,"is_disabled":false,"rental_uris":{"android":"levelo://app?vid=7b92e220-9d47-4ab3-998f-d8a4cc588b3b","ios":"levelo://app?vid=7b92e220-9d47-4ab3-998f-d8a4cc588b3b"},"vehicle_type_id":"4","last_reported":1770839372,"current_range_meters":7200,"station_id":"st_d2ngiaodas8pm72gd1h0","pricing_plan_id":"cebpf4jnsgd1na2vs0mg"},{"bike_id":"73adc959-6ab7-428b-b7d2-aaafd84c0048","system_id":"levelo_inurba_marseille","lat":43.28844,"lon":5.35855,"is_reserved":false,"is_disabled":false,"rental_uris":{"android":"levelo://app?vid=73adc959-6ab7-428b-b7d2-aaafd84c0048","ios":"levelo://app?vid=73adc959-6ab7-428b-b7d2-aaafd84c0048"},"vehicle_type_id":"4","last_reported":1770839372,"current_range_meters":7200,"station_id":"ce4bhb12rcd13ifvqem0","pricing_plan_id":"cebpf4jnsgd1na2vs0mg"},{"bike_id":"2a63844a-84ce-42ba-a570-71001293621e","system_id":"levelo_inurba_marseille","lat":43.30839,"lon":5.43487,"is_reserved":false,"is_disabled":false,"rental_uris":{"android":"levelo://app?vid=2a63844a-84ce-42ba-a570-71001293621e","ios":"levelo://app?vid=2a63844a-84ce-42ba-a570-71001293621e"},"vehicle_type_id":"4","last_reported":1770839372,"current_range_meters":7200,"station_id":"","pricing_plan_id":"cebpf4jnsgd1na2vs0mg"},{"bike_id":"80402ecf-b8d7-4b37-a51b-bc25571b17fe","system_id":"levelo_inurba_marseille","lat":43.26233,"lon":5.40462,"is_reserved":false,"is_disabled":true,"rental_uris":{"android":"levelo://app?vid=80402ecf-b8d7-4b37-a51b-bc25571b17fe","ios":"levelo://app?vid=80402ecf-b8d7-4b37-a51b-bc25571b17fe"},"vehicle_type_id":"4","last_reported":1770839372,"current_range_meters":7200,"station_id":"ce4bhmh2rcd13ifvqgmg","pricing_plan_id":"cebpf4jnsgd1na2vs0mg"},{"bike_id":"1cf7a3f0-701f-4fb4-b5cf-3f9ecbf53dee","system_id":"levelo_inurba_marseille","lat":43.32174,"lon":5.40612,"is_reserved":false,"is_disabled":false,"rental_uris":{"android":"levelo://app?vid=1cf7a3f0-701f-4fb4-b5cf-3f9ecbf53dee","ios":"levelo://app?vid=1cf7a3f0-701f-4fb4-b5cf-3f9ecbf53dee"},"vehicle_type_id":"4","last_reported":1770839372,"current_range_meters":7200,"station_id":"","pricing_plan_id":"cebpf4jnsgd1na2vs0mg"},{"bike_id":"d2723975-27a6-431c-93f1-ed8a01503b9a","system_id":"levelo_inurba_marseille","lat":43.2921,"lon":5.39316,"is_reserved":false,"is_disabled":false,"rental_uris":{"android":"levelo://app?vid=d2723975-27a6-431c-93f1-ed8a01503b9a","ios":"levelo://app?vid=d2723975-27a6-431c-93f1-ed8a01503b9a"},"vehicle_type_id":"4","last_reported":1770839372,"current_range_meters":7200,"station_id":"ce4bh192rcd13ifvqdd0","pricing_plan_id":"cebpf4jnsgd1na2vs0mg"},{"bike_id":"b4618117-7084-4992-a916-2dc59b69f7fb","system_id":"levelo_inurba_marseille","lat":43.29529,"lon":5.3853,"is_reserved":false,"is_disabled":false,"rental_uris":{"android":"levelo://app?vid=b4618117-7084-4992-a916-2dc59b69f7fb","ios":"levelo://app?vid=b4618117-7084-4992-a916-2dc59b69f7fb"},"vehicle_type_id":"4","last_reported":1770839372,"current_range_meters":7200,"station_id":"ce4bgih2rcd13ifvqba0","pricing_plan_id":"cebpf4jnsgd1na2vs0mg"},{"bike_id":"cc43a2a6-4df1-46ee-89a5-e5908a5338ed","system_id":"levelo_inurba_marseille","lat":43.28499,"lon":5.48379,"is_reserved":false,"is_disabled":false,"rental_uris":{"android":"levelo://app?vid=cc43a2a6-4df1-46ee-89a5-e5908a5338ed","ios":"levelo://app?vid=cc43a2a6-4df1-46ee-89a5-e5908a5338ed"},"vehicle_type_id":"4","last_reported":1770839372,"current_range_meters":7200,"station_id":"st_d3svhcjqgbts73a3dn0g","pricing_plan_id":"cebpf4jnsgd1na2vs0mg"},{"bike_id":"647a1652-6fe3-4f62-84e0-345c49e7ef27","system_id":"levelo_inurba_marseille","lat":43.30929,"lon":5.38497,"is_reserved":false,"is_disabled":false,"rental_uris":{"android":"levelo://app?vid=647a1652-6fe3-4f62-84e0-345c49e7ef27","ios":"levelo://app?vid=647a1652-6fe3-4f62-84e0-345c49e7ef27"},"vehicle_type_id":"4","last_reported":1770839372,"current_range_meters":7200,"station_id":"","pricing_plan_id":"cebpf4jnsgd1na2vs0mg"},{"bike_id":"9c4fa197-e784-47a1-9a3e-1e64aa186f14","system_id":"levelo_inurba_marseille","lat":43.25946,"lon":5.40895,"is_reserved":false,"is_disabled":false,"rental_uris":{"android":"levelo://app?vid=9c4fa197-e784-47a1-9a3e-1e64aa186f14","ios":"levelo://app?vid=9c4fa197-e784-47a1-9a3e-1e64aa186f14"},"vehicle_type_id":"4","last_reported":1770839372,"current_range_meters":8000,"station_id":"ce4bhm92rcd13ifvqglg","pricing_plan_id":"cebpf4jnsgd1na2vs0mg"},{"bike_id":"4878db2c-1746-4e84-a2dc-9ef31135b542","system_id":"levelo_inurba_marseille","lat":43.258646,"lon":5.39903,"is_reserved":false,"is_disabled":false,"rental_uris":{"android":"levelo://app?vid=4878db2c-1746-4e84-a2dc-9ef31135b542","ios":"levelo://app?vid=4878db2c-1746-4e84-a2dc-9ef31135b542"},"vehicle_type_id":"4","last_reported":1770839372,"current_range_meters":8000,"station_id":"ce4bhl92rcd13ifvqghg","pricing_plan_id":"cebpf4jnsgd1na2vs0mg"},{"bike_id":"1755c41b-624a-4341-8c8a-e71f6739edbb","system_id":"levelo_inurba_marseille","lat":43.27622,"lon":5.36136,"is_reserved":false,"is_disabled":false,"rental_uris":{"android":"levelo://app?vid=1755c41b-624a-4341-8c8a-e71f6739edbb","ios":"levelo://app?vid=1755c41b-624a-4341-8c8a-e71f6739edbb"},"vehicle_type_id":"4","last_reported":1770839372,"current_range_meters":8000,"station_id":"ce4bgj92rcd13ifvqbe0","pricing_plan_id":"cebpf4jnsgd1na2vs0mg"},{"bike_id":"fdcca747-1f0c-4265-9d25-6a349973ec5d","system_id":"levelo_inurba_marseille","lat":43.33154,"lon":5.37715,"is_reserved":false,"is_disabled":false,"rental_uris":{"android":"levelo://app?vid=fdcca747-1f0c-4265-9d25-6a349973ec5d","ios":"levelo://app?vid=fdcca747-1f0c-4265-9d25-6a349973ec5d"},"vehicle_type_id":"4","last_reported":1770839372,"current_range_meters":8000,"station_id":"st_d46cu089ee8s73dldbu0","pricing_plan_id":"cebpf4jnsgd1na2vs0mg"},{"bike_id":"c0bf6b51-8534-4485-8010-d8536b85eb11","system_id":"levelo_inurba_marseille","lat":43.29252,"lon":5.40904,"is_reserved":false,"is_disabled":false,"rental_uris":{"android":"levelo://app?vid=c0bf6b51-8534-4485-8010-d8536b85eb11","ios":"levelo://app?vid=c0bf6b51-8534-4485-8010-d8536b85eb11"},"vehicle_type_id":"4","last_reported":1770839372,"current_range_meters":8000,"station_id":"ce4bh192rcd13ifvqdc0","pricing_plan_id":"cebpf4jnsgd1na2vs0mg"},{"bike_id":"4eee11f5-12b6-4753-95f9-b786f990c350","system_id":"levelo_inurba_marseille","lat":43.30137,"lon":5.3987,"is_reserved":false,"is_disabled":false,"rental_uris":{"android":"levelo://app?vid=4eee11f5-12b6-4753-95f9-b786f990c350","ios":"levelo://app?vid=4eee11f5-12b6-4753-95f9-b786f990c350"},"vehicle_type_id":"4","last_reported":1770839372,"current_range_meters":8000,"station_id":"ce4bh0h2rcd13ifvqd40","pricing_plan_id":"cebpf4jnsgd1na2vs0mg"},{"bike_id":"5fda65b6-7f98-4bf6-b2de-a2c95ed917cc","system_id":"levelo_inurba_marseille","lat":43.25454,"lon":5.38445,"is_reserved":false,"is_disabled":false,"rental_uris":{"android":"levelo://app?vid=5fda65b6-7f98-4bf6-b2de-a2c95ed917cc","ios":"levelo://app?vid=5fda65b6-7f98-4bf6-b2de-a2c95ed917cc"},"vehicle_type_id":"4","last_reported":1770839372,"current_range_meters":8000,"station_id":"","pricing_plan_id":"cebpf4jnsgd1na2vs0mg"},{"bike_id":"7d97ed05-c464-4c13-9759-f3c3ec0d98b0","system_id":"levelo_inurba_marseille","lat":43.27985,"lon":5.40028,"is_reserved":false,"is_disabled":false,"rental_uris":{"android":"levelo://app?vid=7d97ed05-c464-4c13-9759-f3c3ec0d98b0","ios":"levelo://app?vid=7d97ed05-c464-4c13-9759-f3c3ec0d98b0"},"vehicle_type_id":"4","last_reported":1770839372,"current_range_meters":8000,"station_id":"ce4bho92rcd13ifvqh4g","pricing_plan_id":"cebpf4jnsgd1na2vs0mg"},{"bike_id":"ac9a885a-fe7d-4871-905c-95e91acf3aa8","system_id":"levelo_inurba_marseille","lat":43.22561,"lon":5.41629,"is_reserved":false,"is_disabled":false,"rental_uris":{"android":"levelo://app?vid=ac9a885a-fe7d-4871-905c-95e91acf3aa8","ios":"levelo://app?vid=ac9a885a-fe7d-4871-905c-95e91acf3aa8"},"vehicle_type_id":"4","last_reported":1770839372,"current_range_meters":8000,"station_id":"st_d2o4gvlbi1j2169b742g","pricing_plan_id":"cebpf4jnsgd1na2vs0mg"},{"bike_id":"1c8ad576-b604-4822-b51b-92bbf6fee65c","system_id":"levelo_inurba_marseille","lat":43.26532,"lon":5.39035,"is_reserved":false,"is_disabled":false,"rental_uris":{"android":"levelo://app?vid=1c8ad576-b604-4822-b51b-92bbf6fee65c","ios":"levelo://app?vid=1c8ad576-b604-4822-b51b-92bbf6fee65c"},"vehicle_type_id":"4","last_reported":1770839372,"current_range_meters":8000,"station_id":"ce4bhe12rcd13ifvqf30","pricing_plan_id":"cebpf4jnsgd1na2vs0mg"},{"bike_id":"1ef2e3fb-a11e-4cc4-96b5-ecbfbbb8d188","system_id":"levelo_inurba_marseille","lat":43.31493,"lon":5.372907,"is_reserved":false,"is_disabled":false,"rental_uris":{"android":"levelo://app?vid=1ef2e3fb-a11e-4cc4-96b5-ecbfbbb8d188","ios":"levelo://app?vid=1ef2e3fb-a11e-4cc4-96b5-ecbfbbb8d188"},"vehicle_type_id":"4","last_reported":1770839372,"current_range_meters":8000,"station_id":"ce4bgt12rcd13ifvqcd0","pricing_plan_id":"cebpf4jnsgd1na2vs0mg"},{"bike_id":"60144355-c5a2-4b27-9517-15dba4ba79a0","system_id":"levelo_inurba_marseille","lat":43.25577,"lon":5.38232,"is_reserved":false,"is_disabled":true,"rental_uris":{"android":"levelo://app?vid=60144355-c5a2-4b27-9517-15dba4ba79a0","ios":"levelo://app?vid=60144355-c5a2-4b27-9517-15dba4ba79a0"},"vehicle_type_id":"4","last_reported":1770839372,"current_range_meters":8000,"station_id":"ce4bhih2rcd13ifvqfs0","pricing_plan_id":"cebpf4jnsgd1na2vs0mg"},{"bike_id":"b1642be7-2b23-43a1-9a1c-eb29e27772a9","system_id":"levelo_inurba_marseille","lat":43.30909,"lon":5.36868,"is_reserved":false,"is_disabled":false,"rental_uris":{"android":"levelo://app?vid=b1642be7-2b23-43a1-9a1c-eb29e27772a9","ios":"levelo://app?vid=b1642be7-2b23-43a1-9a1c-eb29e27772a9"},"vehicle_type_id":"4","last_reported":1770839372,"current_range_meters":8000,"station_id":"ce4bgn92rcd13ifvqbvg","pricing_plan_id":"cebpf4jnsgd1na2vs0mg"},{"bike_id":"a1db546c-a97e-4591-aafd-91b5e1930b56","system_id":"levelo_inurba_marseille","lat":43.30734,"lon":5.42444,"is_reserved":false,"is_disabled":false,"rental_uris":{"android":"levelo://app?vid=a1db546c-a97e-4591-aafd-91b5e1930b56","ios":"levelo://app?vid=a1db546c-a97e-4591-aafd-91b5e1930b56"},"vehicle_type_id":"4","last_reported":1770839372,"current_range_meters":8000,"station_id":"st_cvj6ca6bvosntc0bfgr0","pricing_plan_id":"cebpf4jnsgd1na2vs0mg"},{"bike_id":"babdcd4a-655b-4e95-88f5-77a8529739da","system_id":"levelo_inurba_marseille","lat":43.2257,"lon":5.41631,"is_reserved":false,"is_disabled":false,"rental_uris":{"android":"levelo://app?vid=babdcd4a-655b-4e95-88f5-77a8529739da","ios":"levelo://app?vid=babdcd4a-655b-4e95-88f5-77a8529739da"},"vehicle_type_id":"4","last_reported":1770839372,"current_range_meters":8000,"station_id":"st_d2o4gvlbi1j2169b742g","pricing_plan_id":"cebpf4jnsgd1na2vs0mg"},{"bike_id":"043aba2c-fb62-4eb0-9337-00c530e98780","system_id":"levelo_inurba_marseille","lat":43.31037,"lon":5.37176,"is_reserved":false,"is_disabled":false,"rental_uris":{"android":"levelo://app?vid=043aba2c-fb62-4eb0-9337-00c530e98780","ios":"levelo://app?vid=043aba2c-fb62-4eb0-9337-00c530e98780"},"vehicle_type_id":"4","last_reported":1770839372,"current_range_meters":8000,"station_id":"st_d4kl2rp97mjs73e7tdfg","pricing_plan_id":"cebpf4jnsgd1na2vs0mg"},{"bike_id":"e5f6fbc0-79bf-4a02-84c6-e4620cc9aeec","system_id":"levelo_inurba_marseille","lat":43.290403,"lon":5.386727,"is_reserved":false,"is_disabled":false,"rental_uris":{"android":"levelo://app?vid=e5f6fbc0-79bf-4a02-84c6-e4620cc9aeec","ios":"levelo://app?vid=e5f6fbc0-79bf-4a02-84c6-e4620cc9aeec"},"vehicle_type_id":"4","last_reported":1770839372,"current_range_meters":8400,"station_id":"ce4bh4p2rcd13ifvqe0g","pricing_plan_id":"cebpf4jnsgd1na2vs0mg"},{"bike_id":"fe85a283-164e-4135-8ab7-7e2210250f6e","system_id":"levelo_inurba_marseille","lat":43.26074,"lon":5.39396,"is_reserved":false,"is_disabled":false,"rental_uris":{"android":"levelo://app?vid=fe85a283-164e-4135-8ab7-7e2210250f6e","ios":"levelo://app?vid=fe85a283-164e-4135-8ab7-7e2210250f6e"},"vehicle_type_id":"4","last_reported":1770839372,"current_range_meters":8400,"station_id":"ce4bhh92rcd13ifvqfj0","pricing_plan_id":"cebpf4jnsgd1na2vs0mg"},{"bike_id":"c1d994da-b33c-4a64-a196-28f0ec7412ca","system_id":"levelo_inurba_marseille","lat":43.31715,"lon":5.436994,"is_reserved":false,"is_disabled":false,"rental_uris":{"android":"levelo://app?vid=c1d994da-b33c-4a64-a196-28f0ec7412ca","ios":"levelo://app?vid=c1d994da-b33c-4a64-a196-28f0ec7412ca"},"vehicle_type_id":"4","last_reported":1770839372,"current_range_meters":8400,"station_id":"ce4bhp92rcd13ifvqhcg","pricing_plan_id":"cebpf4jnsgd1na2vs0mg"},{"bike_id":"834da72d-2e32-479e-bc3f-592da1e51209","system_id":"levelo_inurba_marseille","lat":43.27073,"lon":5.42265,"is_reserved":false,"is_disabled":false,"rental_uris":{"android":"levelo://app?vid=834da72d-2e32-479e-bc3f-592da1e51209","ios":"levelo://app?vid=834da72d-2e32-479e-bc3f-592da1e51209"},"vehicle_type_id":"4","last_reported":1770839372,"current_range_meters":8400,"station_id":"ce4bhk92rcd13ifvqgb0","pricing_plan_id":"cebpf4jnsgd1na2vs0mg"},{"bike_id":"c19acd5e-349f-4c94-ba60-c9653d5aeea0","system_id":"levelo_inurba_marseille","lat":43.29626,"lon":5.37168,"is_reserved":false,"is_disabled":false,"rental_uris":{"android":"levelo://app?vid=c19acd5e-349f-4c94-ba60-c9653d5aeea0","ios":"levelo://app?vid=c19acd5e-349f-4c94-ba60-c9653d5aeea0"},"vehicle_type_id":"4","last_reported":1770839372,"current_range_meters":8400,"station_id":"ce4bgnh2rcd13ifvqc0g","pricing_plan_id":"cebpf4jnsgd1na2vs0mg"},{"bike_id":"7fcd8d2e-93ac-4708-ad15-86f6213f74fd","system_id":"levelo_inurba_marseille","lat":43.2407,"lon":5.37761,"is_reserved":false,"is_disabled":false,"rental_uris":{"android":"levelo://app?vid=7fcd8d2e-93ac-4708-ad15-86f6213f74fd","ios":"levelo://app?vid=7fcd8d2e-93ac-4708-ad15-86f6213f74fd"},"vehicle_type_id":"4","last_reported":1770839372,"current_range_meters":8400,"station_id":"ce4bhnp2rcd13ifvqgvg","pricing_plan_id":"cebpf4jnsgd1na2vs0mg"},{"bike_id":"d997c6b7-acb1-4efa-ae35-2d8c161e2e69","system_id":"levelo_inurba_marseille","lat":43.23188,"lon":5.35547,"is_reserved":false,"is_disabled":false,"rental_uris":{"android":"levelo://app?vid=d997c6b7-acb1-4efa-ae35-2d8c161e2e69","ios":"levelo://app?vid=d997c6b7-acb1-4efa-ae35-2d8c161e2e69"},"vehicle_type_id":"4","last_reported":1770839372,"current_range_meters":8400,"station_id":"ce4bhu92rcd13ifvqi70","pricing_plan_id":"cebpf4jnsgd1na2vs0mg"},{"bike_id":"9e3bc487-b0e5-43b2-98b8-caa6f87f206e","system_id":"levelo_inurba_marseille","lat":43.31722,"lon":5.37767,"is_reserved":false,"is_disabled":false,"rental_uris":{"android":"levelo://app?vid=9e3bc487-b0e5-43b2-98b8-caa6f87f206e","ios":"levelo://app?vid=9e3bc487-b0e5-43b2-98b8-caa6f87f206e"},"vehicle_type_id":"4","last_reported":1770839372,"current_range_meters":8400,"station_id":"ce4bgth2rcd13ifvqch0","pricing_plan_id":"cebpf4jnsgd1na2vs0mg"},{"bike_id":"d6ac2655-5d13-492c-96b2-0753705b3ccf","system_id":"levelo_inurba_marseille","lat":43.30146,"lon":5.37408,"is_reserved":false,"is_disabled":false,"rental_uris":{"android":"levelo://app?vid=d6ac2655-5d13-492c-96b2-0753705b3ccf","ios":"levelo://app?vid=d6ac2655-5d13-492c-96b2-0753705b3ccf"},"vehicle_type_id":"4","last_reported":1770839372,"current_range_meters":8400,"station_id":"ce4bgs92rcd13ifvqcc0","pricing_plan_id":"cebpf4jnsgd1na2vs0mg"},{"bike_id":"602b1aa7-ae78-4f99-bdeb-c1fa3809495e","system_id":"levelo_inurba_marseille","lat":43.24397,"lon":5.37061,"is_reserved":false,"is_disabled":false,"rental_uris":{"android":"levelo://app?vid=602b1aa7-ae78-4f99-bdeb-c1fa3809495e","ios":"levelo://app?vid=602b1aa7-ae78-4f99-bdeb-c1fa3809495e"},"vehicle_type_id":"4","last_reported":1770839372,"current_range_meters":8400,"station_id":"ce4bhhh2rcd13ifvqfk0","pricing_plan_id":"cebpf4jnsgd1na2vs0mg"},{"bike_id":"4fd8eece-b22e-43bb-8f4c-03ab303ec417","system_id":"levelo_inurba_marseille","lat":43.3112,"lon":5.37766,"is_reserved":false,"is_disabled":false,"rental_uris":{"android":"levelo://app?vid=4fd8eece-b22e-43bb-8f4c-03ab303ec417","ios":"levelo://app?vid=4fd8eece-b22e-43bb-8f4c-03ab303ec417"},"vehicle_type_id":"4","last_reported":1770839372,"current_range_meters":8400,"station_id":"ce4bgt92rcd13ifvqcg0","pricing_plan_id":"cebpf4jnsgd1na2vs0mg"},{"bike_id":"9b586055-3525-4e43-ae53-8d6c2fff45ed","system_id":"levelo_inurba_marseille","lat":43.24174,"lon":5.36396,"is_reserved":false,"is_disabled":false,"rental_uris":{"android":"levelo://app?vid=9b586055-3525-4e43-ae53-8d6c2fff45ed","ios":"levelo://app?vid=9b586055-3525-4e43-ae53-8d6c2fff45ed"},"vehicle_type_id":"4","last_reported":1770839372,"current_range_meters":8400,"station_id":"cpo36qri1sfpv3e86is0","pricing_plan_id":"cebpf4jnsgd1na2vs0mg"},{"bike_id":"984cee98-af16-42cf-8e4d-eb2b3c2af590","system_id":"levelo_inurba_marseille","lat":43.29531,"lon":5.38541,"is_reserved":false,"is_disabled":false,"rental_uris":{"android":"levelo://app?vid=984cee98-af16-42cf-8e4d-eb2b3c2af590","ios":"levelo://app?vid=984cee98-af16-42cf-8e4d-eb2b3c2af590"},"vehicle_type_id":"4","last_reported":1770839372,"current_range_meters":8400,"station_id":"ce4bgih2rcd13ifvqba0","pricing_plan_id":"cebpf4jnsgd1na2vs0mg"},{"bike_id":"fe4ee05c-ad4b-4888-9cc1-3bef96c9edd8","system_id":"levelo_inurba_marseille","lat":43.24456,"lon":5.42535,"is_reserved":false,"is_disabled":false,"rental_uris":{"android":"levelo://app?vid=fe4ee05c-ad4b-4888-9cc1-3bef96c9edd8","ios":"levelo://app?vid=fe4ee05c-ad4b-4888-9cc1-3bef96c9edd8"},"vehicle_type_id":"4","last_reported":1770839372,"current_range_meters":8400,"station_id":"st_d4a3vfp97mjs738cd8kg","pricing_plan_id":"cebpf4jnsgd1na2vs0mg"},{"bike_id":"2078f022-81f2-476d-9478-f1faba0023cf","system_id":"levelo_inurba_marseille","lat":43.29266,"lon":5.38433,"is_reserved":false,"is_disabled":false,"rental_uris":{"android":"levelo://app?vid=2078f022-81f2-476d-9478-f1faba0023cf","ios":"levelo://app?vid=2078f022-81f2-476d-9478-f1faba0023cf"},"vehicle_type_id":"4","last_reported":1770839372,"current_range_meters":8400,"station_id":"ce4bh692rcd13ifvqea0","pricing_plan_id":"cebpf4jnsgd1na2vs0mg"},{"bike_id":"8b4b38ac-f6cb-48ed-90a4-30149ea67fd7","system_id":"levelo_inurba_marseille","lat":43.292,"lon":5.39639,"is_reserved":false,"is_disabled":false,"rental_uris":{"android":"levelo://app?vid=8b4b38ac-f6cb-48ed-90a4-30149ea67fd7","ios":"levelo://app?vid=8b4b38ac-f6cb-48ed-90a4-30149ea67fd7"},"vehicle_type_id":"4","last_reported":1770839372,"current_range_meters":8400,"station_id":"","pricing_plan_id":"cebpf4jnsgd1na2vs0mg"},{"bike_id":"78852feb-ceb9-4ce1-b821-60976fab0ee6","system_id":"levelo_inurba_marseille","lat":43.2885,"lon":5.35847,"is_reserved":false,"is_disabled":false,"rental_uris":{"android":"levelo://app?vid=78852feb-ceb9-4ce1-b821-60976fab0ee6","ios":"levelo://app?vid=78852feb-ceb9-4ce1-b821-60976fab0ee6"},"vehicle_type_id":"4","last_reported":1770839372,"current_range_meters":8400,"station_id":"ce4bhb12rcd13ifvqem0","pricing_plan_id":"cebpf4jnsgd1na2vs0mg"},{"bike_id":"a122ae0f-edd5-44b0-89a9-641c809f245a","system_id":"levelo_inurba_marseille","lat":43.24547,"lon":5.3952,"is_reserved":false,"is_disabled":false,"rental_uris":{"android":"levelo://app?vid=a122ae0f-edd5-44b0-89a9-641c809f245a","ios":"levelo://app?vid=a122ae0f-edd5-44b0-89a9-641c809f245a"},"vehicle_type_id":"4","last_reported":1770839372,"current_range_meters":8800,"station_id":"ce4bhlp2rcd13ifvqgjg","pricing_plan_id":"cebpf4jnsgd1na2vs0mg"},{"bike_id":"56432d33-50e9-4ab9-bae5-451da41b5044","system_id":"levelo_inurba_marseille","lat":43.31209,"lon":5.36868,"is_reserved":false,"is_disabled":false,"rental_uris":{"android":"levelo://app?vid=56432d33-50e9-4ab9-bae5-451da41b5044","ios":"levelo://app?vid=56432d33-50e9-4ab9-bae5-451da41b5044"},"vehicle_type_id":"4","last_reported":1770839372,"current_range_meters":8800,"station_id":"ce4bgl92rcd13ifvqbq0","pricing_plan_id":"cebpf4jnsgd1na2vs0mg"},{"bike_id":"8e298756-702e-457c-bb9c-74d840066687","system_id":"levelo_inurba_marseille","lat":43.29007,"lon":5.35608,"is_reserved":false,"is_disabled":false,"rental_uris":{"android":"levelo://app?vid=8e298756-702e-457c-bb9c-74d840066687","ios":"levelo://app?vid=8e298756-702e-457c-bb9c-74d840066687"},"vehicle_type_id":"4","last_reported":1770839372,"current_range_meters":8800,"station_id":"ce4bhb92rcd13ifvqen0","pricing_plan_id":"cebpf4jnsgd1na2vs0mg"},{"bike_id":"f80528f9-6bb1-4b22-a63c-5e57ad403fb2","system_id":"levelo_inurba_marseille","lat":43.24641,"lon":5.38126,"is_reserved":false,"is_disabled":false,"rental_uris":{"android":"levelo://app?vid=f80528f9-6bb1-4b22-a63c-5e57ad403fb2","ios":"levelo://app?vid=f80528f9-6bb1-4b22-a63c-5e57ad403fb2"},"vehicle_type_id":"4","last_reported":1770839372,"current_range_meters":8800,"station_id":"ce4bhih2rcd13ifvqfr0","pricing_plan_id":"cebpf4jnsgd1na2vs0mg"},{"bike_id":"406b8143-680c-411e-8da6-8818c609b259","system_id":"levelo_inurba_marseille","lat":43.22929,"lon":5.3538,"is_reserved":false,"is_disabled":false,"rental_uris":{"android":"levelo://app?vid=406b8143-680c-411e-8da6-8818c609b259","ios":"levelo://app?vid=406b8143-680c-411e-8da6-8818c609b259"},"vehicle_type_id":"4","last_reported":1770839372,"current_range_meters":8800,"station_id":"cpo3532slgdg3j2ikp40","pricing_plan_id":"cebpf4jnsgd1na2vs0mg"},{"bike_id":"abb916b3-74af-4c17-94d0-fe9eafd044ff","system_id":"levelo_inurba_marseille","lat":43.29572,"lon":5.37428,"is_reserved":false,"is_disabled":false,"rental_uris":{"android":"levelo://app?vid=abb916b3-74af-4c17-94d0-fe9eafd044ff","ios":"levelo://app?vid=abb916b3-74af-4c17-94d0-fe9eafd044ff"},"vehicle_type_id":"4","last_reported":1770839372,"current_range_meters":8800,"station_id":"","pricing_plan_id":"cebpf4jnsgd1na2vs0mg"},{"bike_id":"ac8d4e76-78f4-4161-bbf6-db35ff2f9ca7","system_id":"levelo_inurba_marseille","lat":43.3068,"lon":5.41023,"is_reserved":false,"is_disabled":false,"rental_uris":{"android":"levelo://app?vid=ac8d4e76-78f4-4161-bbf6-db35ff2f9ca7","ios":"levelo://app?vid=ac8d4e76-78f4-4161-bbf6-db35ff2f9ca7"},"vehicle_type_id":"4","last_reported":1770839372,"current_range_meters":8800,"station_id":"","pricing_plan_id":"cebpf4jnsgd1na2vs0mg"},{"bike_id":"b69e5408-6dc1-445c-bb4e-7a7d0505db53","system_id":"levelo_inurba_marseille","lat":43.29524,"lon":5.38548,"is_reserved":false,"is_disabled":false,"rental_uris":{"android":"levelo://app?vid=b69e5408-6dc1-445c-bb4e-7a7d0505db53","ios":"levelo://app?vid=b69e5408-6dc1-445c-bb4e-7a7d0505db53"},"vehicle_type_id":"4","last_reported":1770839372,"current_range_meters":8800,"station_id":"ce4bgih2rcd13ifvqba0","pricing_plan_id":"cebpf4jnsgd1na2vs0mg"},{"bike_id":"e6191106-931c-4b85-a4d8-214c1c34ad15","system_id":"levelo_inurba_marseille","lat":43.30136,"lon":5.39853,"is_reserved":false,"is_disabled":false,"rental_uris":{"android":"levelo://app?vid=e6191106-931c-4b85-a4d8-214c1c34ad15","ios":"levelo://app?vid=e6191106-931c-4b85-a4d8-214c1c34ad15"},"vehicle_type_id":"4","last_reported":1770839372,"current_range_meters":8800,"station_id":"ce4bh0h2rcd13ifvqd40","pricing_plan_id":"cebpf4jnsgd1na2vs0mg"},{"bike_id":"e7d96f11-e4c7-4d54-a091-6ac519acb6a5","system_id":"levelo_inurba_marseille","lat":43.286116,"lon":5.398709,"is_reserved":false,"is_disabled":false,"rental_uris":{"android":"levelo://app?vid=e7d96f11-e4c7-4d54-a091-6ac519acb6a5","ios":"levelo://app?vid=e7d96f11-e4c7-4d54-a091-6ac519acb6a5"},"vehicle_type_id":"4","last_reported":1770839372,"current_range_meters":8800,"station_id":"st_d4a7ka997mjs738ck50g","pricing_plan_id":"cebpf4jnsgd1na2vs0mg"},{"bike_id":"d5ce2d53-4786-4ce7-9d0e-1108c678ee82","system_id":"levelo_inurba_marseille","lat":43.27933,"lon":5.41032,"is_reserved":false,"is_disabled":false,"rental_uris":{"android":"levelo://app?vid=d5ce2d53-4786-4ce7-9d0e-1108c678ee82","ios":"levelo://app?vid=d5ce2d53-4786-4ce7-9d0e-1108c678ee82"},"vehicle_type_id":"4","last_reported":1770839372,"current_range_meters":8800,"station_id":"ce4bhnp2rcd13ifvqh0g","pricing_plan_id":"cebpf4jnsgd1na2vs0mg"},{"bike_id":"9117d2f3-4cc3-430a-aecf-7acf5f3d13b6","system_id":"levelo_inurba_marseille","lat":43.27807,"lon":5.40717,"is_reserved":false,"is_disabled":false,"rental_uris":{"android":"levelo://app?vid=9117d2f3-4cc3-430a-aecf-7acf5f3d13b6","ios":"levelo://app?vid=9117d2f3-4cc3-430a-aecf-7acf5f3d13b6"},"vehicle_type_id":"4","last_reported":1770839372,"current_range_meters":8800,"station_id":"ce4bhnh2rcd13ifvqgtg","pricing_plan_id":"cebpf4jnsgd1na2vs0mg"},{"bike_id":"d1109767-4122-4f61-a692-6b01149ccd28","system_id":"levelo_inurba_marseille","lat":43.29204,"lon":5.39318,"is_reserved":false,"is_disabled":false,"rental_uris":{"android":"levelo://app?vid=d1109767-4122-4f61-a692-6b01149ccd28","ios":"levelo://app?vid=d1109767-4122-4f61-a692-6b01149ccd28"},"vehicle_type_id":"4","last_reported":1770839372,"current_range_meters":8800,"station_id":"ce4bh192rcd13ifvqdd0","pricing_plan_id":"cebpf4jnsgd1na2vs0mg"},{"bike_id":"aea7ffa9-5d9c-4a75-880e-27bee2d5605d","system_id":"levelo_inurba_marseille","lat":43.28944,"lon":5.36788,"is_reserved":false,"is_disabled":false,"rental_uris":{"android":"levelo://app?vid=aea7ffa9-5d9c-4a75-880e-27bee2d5605d","ios":"levelo://app?vid=aea7ffa9-5d9c-4a75-880e-27bee2d5605d"},"vehicle_type_id":"4","last_reported":1770839372,"current_range_meters":8800,"station_id":"","pricing_plan_id":"cebpf4jnsgd1na2vs0mg"},{"bike_id":"48e51c2c-d55f-4098-8ec5-eb37bd86ae9a","system_id":"levelo_inurba_marseille","lat":43.283944,"lon":5.389386,"is_reserved":false,"is_disabled":false,"rental_uris":{"android":"levelo://app?vid=48e51c2c-d55f-4098-8ec5-eb37bd86ae9a","ios":"levelo://app?vid=48e51c2c-d55f-4098-8ec5-eb37bd86ae9a"},"vehicle_type_id":"4","last_reported":1770839372,"current_range_meters":8800,"station_id":"","pricing_plan_id":"cebpf4jnsgd1na2vs0mg"},{"bike_id":"9f033575-6369-46b2-8ded-c3ba921253f1","system_id":"levelo_inurba_marseille","lat":43.28686,"lon":5.37405,"is_reserved":false,"is_disabled":false,"rental_uris":{"android":"levelo://app?vid=9f033575-6369-46b2-8ded-c3ba921253f1","ios":"levelo://app?vid=9f033575-6369-46b2-8ded-c3ba921253f1"},"vehicle_type_id":"4","last_reported":1770839372,"current_range_meters":8800,"station_id":"ce4bh3p2rcd13ifvqdq0","pricing_plan_id":"cebpf4jnsgd1na2vs0mg"},{"bike_id":"88da3095-abab-4585-a7d3-bf96228bdf94","system_id":"levelo_inurba_marseille","lat":43.29012,"lon":5.38616,"is_reserved":false,"is_disabled":false,"rental_uris":{"android":"levelo://app?vid=88da3095-abab-4585-a7d3-bf96228bdf94","ios":"levelo://app?vid=88da3095-abab-4585-a7d3-bf96228bdf94"},"vehicle_type_id":"4","last_reported":1770839372,"current_range_meters":8800,"station_id":"ce4bh4p2rcd13ifvqe0g","pricing_plan_id":"cebpf4jnsgd1na2vs0mg"},{"bike_id":"274ea62a-e153-4e2c-bdee-a88aa40b9a8e","system_id":"levelo_inurba_marseille","lat":43.248112,"lon":5.3747,"is_reserved":false,"is_disabled":false,"rental_uris":{"android":"levelo://app?vid=274ea62a-e153-4e2c-bdee-a88aa40b9a8e","ios":"levelo://app?vid=274ea62a-e153-4e2c-bdee-a88aa40b9a8e"},"vehicle_type_id":"4","last_reported":1770839372,"current_range_meters":8800,"station_id":"ce4bhgh2rcd13ifvqfb0","pricing_plan_id":"cebpf4jnsgd1na2vs0mg"},{"bike_id":"9cc69006-ea52-4b81-9572-ad30fd871300","system_id":"levelo_inurba_marseille","lat":43.29267,"lon":5.36849,"is_reserved":false,"is_disabled":false,"rental_uris":{"android":"levelo://app?vid=9cc69006-ea52-4b81-9572-ad30fd871300","ios":"levelo://app?vid=9cc69006-ea52-4b81-9572-ad30fd871300"},"vehicle_type_id":"4","last_reported":1770839372,"current_range_meters":8800,"station_id":"ce4bhbp2rcd13ifvqesg","pricing_plan_id":"cebpf4jnsgd1na2vs0mg"},{"bike_id":"eb153995-5d33-4b1d-a5c0-ee8cc4302ea8","system_id":"levelo_inurba_marseille","lat":43.26566,"lon":5.39103,"is_reserved":false,"is_disabled":false,"rental_uris":{"android":"levelo://app?vid=eb153995-5d33-4b1d-a5c0-ee8cc4302ea8","ios":"levelo://app?vid=eb153995-5d33-4b1d-a5c0-ee8cc4302ea8"},"vehicle_type_id":"4","last_reported":1770839372,"current_range_meters":9200,"station_id":"","pricing_plan_id":"cebpf4jnsgd1na2vs0mg"},{"bike_id":"adedccca-d77d-4967-91ed-2661b5b510ba","system_id":"levelo_inurba_marseille","lat":43.225624,"lon":5.416247,"is_reserved":false,"is_disabled":false,"rental_uris":{"android":"levelo://app?vid=adedccca-d77d-4967-91ed-2661b5b510ba","ios":"levelo://app?vid=adedccca-d77d-4967-91ed-2661b5b510ba"},"vehicle_type_id":"4","last_reported":1770839372,"current_range_meters":9200,"station_id":"st_d2o4gvlbi1j2169b742g","pricing_plan_id":"cebpf4jnsgd1na2vs0mg"},{"bike_id":"062188ea-bb7c-4305-9db6-8d3c62c894c4","system_id":"levelo_inurba_marseille","lat":43.30261,"lon":5.40075,"is_reserved":false,"is_disabled":false,"rental_uris":{"android":"levelo://app?vid=062188ea-bb7c-4305-9db6-8d3c62c894c4","ios":"levelo://app?vid=062188ea-bb7c-4305-9db6-8d3c62c894c4"},"vehicle_type_id":"4","last_reported":1770839372,"current_range_meters":9200,"station_id":"ce4bgvh2rcd13ifvqcs0","pricing_plan_id":"cebpf4jnsgd1na2vs0mg"},{"bike_id":"661c1ad9-8e78-490b-aa77-0dd317a910f6","system_id":"levelo_inurba_marseille","lat":43.27211,"lon":5.39233,"is_reserved":false,"is_disabled":true,"rental_uris":{"android":"levelo://app?vid=661c1ad9-8e78-490b-aa77-0dd317a910f6","ios":"levelo://app?vid=661c1ad9-8e78-490b-aa77-0dd317a910f6"},"vehicle_type_id":"4","last_reported":1770839372,"current_range_meters":9200,"station_id":"ce4bhhp2rcd13ifvqfm0","pricing_plan_id":"cebpf4jnsgd1na2vs0mg"},{"bike_id":"14f61e44-8496-49e1-8819-a0328677c7db","system_id":"levelo_inurba_marseille","lat":43.24971,"lon":5.40485,"is_reserved":false,"is_disabled":false,"rental_uris":{"android":"levelo://app?vid=14f61e44-8496-49e1-8819-a0328677c7db","ios":"levelo://app?vid=14f61e44-8496-49e1-8819-a0328677c7db"},"vehicle_type_id":"4","last_reported":1770839372,"current_range_meters":9200,"station_id":"st_d2ngiaodas8pm72gd1h0","pricing_plan_id":"cebpf4jnsgd1na2vs0mg"},{"bike_id":"14bf843d-8092-4baf-b7f7-417fdf2903e5","system_id":"levelo_inurba_marseille","lat":43.31508,"lon":5.37285,"is_reserved":false,"is_disabled":false,"rental_uris":{"android":"levelo://app?vid=14bf843d-8092-4baf-b7f7-417fdf2903e5","ios":"levelo://app?vid=14bf843d-8092-4baf-b7f7-417fdf2903e5"},"vehicle_type_id":"4","last_reported":1770839372,"current_range_meters":9200,"station_id":"ce4bgt12rcd13ifvqcd0","pricing_plan_id":"cebpf4jnsgd1na2vs0mg"},{"bike_id":"048b85e1-5a53-4c85-9711-e9625c85da14","system_id":"levelo_inurba_marseille","lat":43.296179,"lon":5.377155,"is_reserved":false,"is_disabled":false,"rental_uris":{"android":"levelo://app?vid=048b85e1-5a53-4c85-9711-e9625c85da14","ios":"levelo://app?vid=048b85e1-5a53-4c85-9711-e9625c85da14"},"vehicle_type_id":"4","last_reported":1770839372,"current_range_meters":9200,"station_id":"ce4bgi92rcd13ifvqb90","pricing_plan_id":"cebpf4jnsgd1na2vs0mg"},{"bike_id":"4692ff75-7165-4382-b660-22aef2fcbc23","system_id":"levelo_inurba_marseille","lat":43.28004,"lon":5.39994,"is_reserved":false,"is_disabled":false,"rental_uris":{"android":"levelo://app?vid=4692ff75-7165-4382-b660-22aef2fcbc23","ios":"levelo://app?vid=4692ff75-7165-4382-b660-22aef2fcbc23"},"vehicle_type_id":"4","last_reported":1770839372,"current_range_meters":9200,"station_id":"ce4bho92rcd13ifvqh4g","pricing_plan_id":"cebpf4jnsgd1na2vs0mg"},{"bike_id":"7373e048-0697-42be-9a17-d478c47616d8","system_id":"levelo_inurba_marseille","lat":43.29163,"lon":5.38621,"is_reserved":false,"is_disabled":false,"rental_uris":{"android":"levelo://app?vid=7373e048-0697-42be-9a17-d478c47616d8","ios":"levelo://app?vid=7373e048-0697-42be-9a17-d478c47616d8"},"vehicle_type_id":"4","last_reported":1770839372,"current_range_meters":9200,"station_id":"ce4bh4p2rcd13ifvqe0g","pricing_plan_id":"cebpf4jnsgd1na2vs0mg"},{"bike_id":"cb9be5fc-0f8f-4012-b222-62b158765b42","system_id":"levelo_inurba_marseille","lat":43.22944,"lon":5.35402,"is_reserved":false,"is_disabled":false,"rental_uris":{"android":"levelo://app?vid=cb9be5fc-0f8f-4012-b222-62b158765b42","ios":"levelo://app?vid=cb9be5fc-0f8f-4012-b222-62b158765b42"},"vehicle_type_id":"4","last_reported":1770839372,"current_range_meters":9200,"station_id":"cpo3532slgdg3j2ikp40","pricing_plan_id":"cebpf4jnsgd1na2vs0mg"},{"bike_id":"31a7a706-1ff4-486d-b0ea-aa0afb881a3f","system_id":"levelo_inurba_marseille","lat":43.3107,"lon":5.38502,"is_reserved":false,"is_disabled":false,"rental_uris":{"android":"levelo://app?vid=31a7a706-1ff4-486d-b0ea-aa0afb881a3f","ios":"levelo://app?vid=31a7a706-1ff4-486d-b0ea-aa0afb881a3f"},"vehicle_type_id":"4","last_reported":1770839372,"current_range_meters":9200,"station_id":"","pricing_plan_id":"cebpf4jnsgd1na2vs0mg"},{"bike_id":"523c39cb-502a-4314-85ce-e95dca698dff","system_id":"levelo_inurba_marseille","lat":43.31163,"lon":5.38721,"is_reserved":false,"is_disabled":false,"rental_uris":{"android":"levelo://app?vid=523c39cb-502a-4314-85ce-e95dca698dff","ios":"levelo://app?vid=523c39cb-502a-4314-85ce-e95dca698dff"},"vehicle_type_id":"4","last_reported":1770839372,"current_range_meters":9200,"station_id":"ce4bgv12rcd13ifvqcp0","pricing_plan_id":"cebpf4jnsgd1na2vs0mg"},{"bike_id":"7ccdf326-cd4e-48c0-8020-1db6c652707d","system_id":"levelo_inurba_marseille","lat":43.29595,"lon":5.37759,"is_reserved":false,"is_disabled":false,"rental_uris":{"android":"levelo://app?vid=7ccdf326-cd4e-48c0-8020-1db6c652707d","ios":"levelo://app?vid=7ccdf326-cd4e-48c0-8020-1db6c652707d"},"vehicle_type_id":"4","last_reported":1770839372,"current_range_meters":9200,"station_id":"","pricing_plan_id":"cebpf4jnsgd1na2vs0mg"},{"bike_id":"1252d6c4-48f5-4ec3-baaa-93c64d60e1af","system_id":"levelo_inurba_marseille","lat":43.29276,"lon":5.36843,"is_reserved":false,"is_disabled":false,"rental_uris":{"android":"levelo://app?vid=1252d6c4-48f5-4ec3-baaa-93c64d60e1af","ios":"levelo://app?vid=1252d6c4-48f5-4ec3-baaa-93c64d60e1af"},"vehicle_type_id":"4","last_reported":1770839372,"current_range_meters":9200,"station_id":"ce4bhbp2rcd13ifvqesg","pricing_plan_id":"cebpf4jnsgd1na2vs0mg"},{"bike_id":"5b205909-4999-466a-90af-b61b9679169d","system_id":"levelo_inurba_marseille","lat":43.29784,"lon":5.3935,"is_reserved":false,"is_disabled":false,"rental_uris":{"android":"levelo://app?vid=5b205909-4999-466a-90af-b61b9679169d","ios":"levelo://app?vid=5b205909-4999-466a-90af-b61b9679169d"},"vehicle_type_id":"4","last_reported":1770839372,"current_range_meters":9200,"station_id":"chh1huq6cuj3fo74tm60","pricing_plan_id":"cebpf4jnsgd1na2vs0mg"},{"bike_id":"ff1842e4-09b0-4bc8-b576-095e598b5eac","system_id":"levelo_inurba_marseille","lat":43.28681,"lon":5.387,"is_reserved":false,"is_disabled":false,"rental_uris":{"android":"levelo://app?vid=ff1842e4-09b0-4bc8-b576-095e598b5eac","ios":"levelo://app?vid=ff1842e4-09b0-4bc8-b576-095e598b5eac"},"vehicle_type_id":"4","last_reported":1770839372,"current_range_meters":9600,"station_id":"ce4bh492rcd13ifvqdug","pricing_plan_id":"cebpf4jnsgd1na2vs0mg"},{"bike_id":"1666b265-643d-41e7-bcc3-6167a6d49f91","system_id":"levelo_inurba_marseille","lat":43.225459,"lon":5.348228,"is_reserved":false,"is_disabled":false,"rental_uris":{"android":"levelo://app?vid=1666b265-643d-41e7-bcc3-6167a6d49f91","ios":"levelo://app?vid=1666b265-643d-41e7-bcc3-6167a6d49f91"},"vehicle_type_id":"4","last_reported":1770839372,"current_range_meters":9600,"station_id":"","pricing_plan_id":"cebpf4jnsgd1na2vs0mg"},{"bike_id":"c89497d0-d5cb-4ea9-9535-9c5a6ff205ce","system_id":"levelo_inurba_marseille","lat":43.29264,"lon":5.40897,"is_reserved":false,"is_disabled":false,"rental_uris":{"android":"levelo://app?vid=c89497d0-d5cb-4ea9-9535-9c5a6ff205ce","ios":"levelo://app?vid=c89497d0-d5cb-4ea9-9535-9c5a6ff205ce"},"vehicle_type_id":"4","last_reported":1770839372,"current_range_meters":9600,"station_id":"ce4bh192rcd13ifvqdc0","pricing_plan_id":"cebpf4jnsgd1na2vs0mg"},{"bike_id":"12cce741-5fab-46c0-a218-68e99b5a1f9e","system_id":"levelo_inurba_marseille","lat":43.31209,"lon":5.36859,"is_reserved":false,"is_disabled":false,"rental_uris":{"android":"levelo://app?vid=12cce741-5fab-46c0-a218-68e99b5a1f9e","ios":"levelo://app?vid=12cce741-5fab-46c0-a218-68e99b5a1f9e"},"vehicle_type_id":"4","last_reported":1770839372,"current_range_meters":9600,"station_id":"ce4bgl92rcd13ifvqbq0","pricing_plan_id":"cebpf4jnsgd1na2vs0mg"},{"bike_id":"5506dc42-0e12-4a29-ac20-ee5355f98e9e","system_id":"levelo_inurba_marseille","lat":43.287013,"lon":5.373803,"is_reserved":false,"is_disabled":false,"rental_uris":{"android":"levelo://app?vid=5506dc42-0e12-4a29-ac20-ee5355f98e9e","ios":"levelo://app?vid=5506dc42-0e12-4a29-ac20-ee5355f98e9e"},"vehicle_type_id":"4","last_reported":1770839372,"current_range_meters":9600,"station_id":"ce4bh3p2rcd13ifvqdq0","pricing_plan_id":"cebpf4jnsgd1na2vs0mg"},{"bike_id":"d8235bb3-ced0-4538-8779-5c4cfba20209","system_id":"levelo_inurba_marseille","lat":43.29533,"lon":5.3854,"is_reserved":false,"is_disabled":false,"rental_uris":{"android":"levelo://app?vid=d8235bb3-ced0-4538-8779-5c4cfba20209","ios":"levelo://app?vid=d8235bb3-ced0-4538-8779-5c4cfba20209"},"vehicle_type_id":"4","last_reported":1770839372,"current_range_meters":9600,"station_id":"ce4bgih2rcd13ifvqba0","pricing_plan_id":"cebpf4jnsgd1na2vs0mg"},{"bike_id":"a48f35fb-00c9-4d62-a56d-cc9d86bcfa41","system_id":"levelo_inurba_marseille","lat":43.31894,"lon":5.40734,"is_reserved":false,"is_disabled":false,"rental_uris":{"android":"levelo://app?vid=a48f35fb-00c9-4d62-a56d-cc9d86bcfa41","ios":"levelo://app?vid=a48f35fb-00c9-4d62-a56d-cc9d86bcfa41"},"vehicle_type_id":"4","last_reported":1770839372,"current_range_meters":9600,"station_id":"ce4bhq12rcd13ifvqhig","pricing_plan_id":"cebpf4jnsgd1na2vs0mg"},