{"last_updated":1784293428,"ttl":60,"version":"2.2","data":{"bikes":[{"bike_id":"ba0c28b1-8732-48e2-8079-f25b2b3fbc3c","system_id":"levelo_inurba_marseille","lat":43.337444,"lon":5.374475,"is_reserved":false,"is_disabled":false,"rental_uris":{"android":"levelo://app?vid=ba0c28b1-8732-48e2-8079-f25b2b3fbc3c","ios":"levelo://app?vid=ba0c28b1-8732-48e2-8079-f25b2b3fbc3c"},"vehicle_type_id":"4","last_reported":1784293429,"current_range_meters":0,"station_id":"","pricing_plan_id":"cebpf4jnsgd1na2vs0mg"},{"bike_id":"c3dc1f36-124b-43b3-bbd8-29c118b5de98","system_id":"levelo_inurba_marseille","lat":43.29494,"lon":5.43297,"is_reserved":false,"is_disabled":false,"rental_uris":{"android":"levelo://app?vid=c3dc1f36-124b-43b3-bbd8-29c118b5de98","ios":"levelo://app?vid=c3dc1f36-124b-43b3-bbd8-29c118b5de98"},"vehicle_type_id":"4","last_reported":1784293429,"current_range_meters":35200,"station_id":"st_d3j5ugp08ojc73fj9d10","pricing_plan_id":"cebpf4jnsgd1na2vs0mg"},{"bike_id":"b5620c67-74c3-4a06-9951-d7c10df6bfcb","system_id":"levelo_inurba_marseille","lat":43.25114,"lon":5.4032,"is_reserved":false,"is_disabled":false,"rental_uris":{"android":"levelo://app?vid=b5620c67-74c3-4a06-9951-d7c10df6bfcb","ios":"levelo://app?vid=b5620c67-74c3-4a06-9951-d7c10df6bfcb"},"vehicle_type_id":"4","last_reported":1784293429,"current_range_meters":26800,"station_id":"ce4bhlh2rcd13ifvqgig","pricing_plan_id":"cebpf4jnsgd1na2vs0mg"},{"bike_id":"63dc20ac-90f4-4eae-ac6c-d24ae13a7929","system_id":"levelo_inurba_marseille","lat":43.25324,"lon":5.42161,"is_reserved":false,"is_disabled":false,"rental_uris":{"android":"levelo://app?vid=63dc20ac-90f4-4eae-ac6c-d24ae13a7929","ios":"levelo://app?vid=63dc20ac-90f4-4eae-ac6c-d24ae13a7929"},"vehicle_type_id":"4","last_reported":1784293429,"current_range_meters":36400,"station_id":"st_d2m65c5bi1j21697t3ng","pricing_plan_id":"cebpf4jnsgd1na2vs0mg"},{"bike_id":"e648e2a2-5326-48b6-ba40-1e3856de6d9c","system_id":"levelo_inurba_marseille","lat":43.21198,"lon":5.35067,"is_reserved":false,"is_disabled":false,"rental_uris":{"android":"levelo://app?vid=e648e2a2-5326-48b6-ba40-1e3856de6d9c","ios":"levelo://app?vid=e648e2a2-5326-48b6-ba40-1e3856de6d9c"},"vehicle_type_id":"4","last_reported":1784293429,"current_range_meters":27600,"station_id":"st_cvj6sg6p6f1abm77japg","pricing_plan_id":"cebpf4jnsgd1na2vs0mg"},{"bike_id":"76b63993-96f7-484a-8343-5ea3ca2d69bf","system_id":"levelo_inurba_marseille","lat":43.27452,"lon":5.36133,"is_reserved":false,"is_disabled":false,"rental_uris":{"android":"levelo://app?vid=76b63993-96f7-484a-8343-5ea3ca2d69bf","ios":"levelo://app?vid=76b63993-96f7-484a-8343-5ea3ca2d69bf"},"vehicle_type_id":"4","last_reported":1784293429,"current_range_meters":29600,"station_id":"","pricing_plan_id":"cebpf4jnsgd1na2vs0mg"},{"bike_id":"382bb15b-49be-4b4d-a782-042762a0883b","system_id":"levelo_inurba_marseille","lat":43.26385,"lon":5.41063,"is_reserved":false,"is_disabled":false,"rental_uris":{"android":"levelo://app?vid=382bb15b-49be-4b4d-a782-042762a0883b","ios":"levelo://app?vid=382bb15b-49be-4b4d-a782-042762a0883b"},"vehicle_type_id":"4","last_reported":1784293429,"current_range_meters":8000,"station_id":"st_d4e5ca6na9uc73bfl5fg","pricing_plan_id":"cebpf4jnsgd1na2vs0mg"},{"bike_id":"737ba765-0bd7-4007-8ceb-55b9c4c3ce92","system_id":"levelo_inurba_marseille","lat":43.290311,"lon":5.375592,"is_reserved":false,"is_disabled":false,"rental_uris":{"android":"levelo://app?vid=737ba765-0bd7-4007-8ceb-55b9c4c3ce92","ios":"levelo://app?vid=737ba765-0bd7-4007-8ceb-55b9c4c3ce92"},"vehicle_type_id":"4","last_reported":1784293429,"current_range_meters":22000,"station_id":"ce4bh692rcd13ifvqe90","pricing_plan_id":"cebpf4jnsgd1na2vs0mg"},{"bike_id":"35370057-9216-435a-96bd-22ce1e62b8df","system_id":"levelo_inurba_marseille","lat":43.32479,"lon":5.36587,"is_reserved":false,"is_disabled":false,"rental_uris":{"android":"levelo://app?vid=35370057-9216-435a-96bd-22ce1e62b8df","ios":"levelo://app?vid=35370057-9216-435a-96bd-22ce1e62b8df"},"vehicle_type_id":"4","last_reported":1784293429,"current_range_meters":11200,"station_id":"ce4bhs12rcd13ifvqhvg","pricing_plan_id":"cebpf4jnsgd1na2vs0mg"},{"bike_id":"c280c2e8-e90a-4cb2-ba33-ff355328b51f","system_id":"levelo_inurba_marseille","lat":43.23192,"lon":5.39988,"is_reserved":false,"is_disabled":false,"rental_uris":{"android":"levelo://app?vid=c280c2e8-e90a-4cb2-ba33-ff355328b51f","ios":"levelo://app?vid=c280c2e8-e90a-4cb2-ba33-ff355328b51f"},"vehicle_type_id":"4","last_reported":1784293429,"current_range_meters":17200,"station_id":"ce4bhn12rcd13ifvqgqg","pricing_plan_id":"cebpf4jnsgd1na2vs0mg"},{"bike_id":"efd3b0db-a47f-4cbd-be93-174f0b8e3872","system_id":"levelo_inurba_marseille","lat":43.31221,"lon":5.36864,"is_reserved":false,"is_disabled":false,"rental_uris":{"android":"levelo://app?vid=efd3b0db-a47f-4cbd-be93-174f0b8e3872","ios":"levelo://app?vid=efd3b0db-a47f-4cbd-be93-174f0b8e3872"},"vehicle_type_id":"4","last_reported":1784293429,"current_range_meters":20000,"station_id":"ce4bgl92rcd13ifvqbq0","pricing_plan_id":"cebpf4jnsgd1na2vs0mg"},{"bike_id":"db8bd5d3-bb99-4688-8de3-0b156a227ffe","system_id":"levelo_inurba_marseille","lat":43.29896,"lon":5.37477,"is_reserved":false,"is_disabled":true,"rental_uris":{"android":"levelo://app?vid=db8bd5d3-bb99-4688-8de3-0b156a227ffe","ios":"levelo://app?vid=db8bd5d3-bb99-4688-8de3-0b156a227ffe"},"vehicle_type_id":"4","last_reported":1784293429,"current_range_meters":10800,"station_id":"ce4bgjh2rcd13ifvqbg0","pricing_plan_id":"cebpf4jnsgd1na2vs0mg"},{"bike_id":"d749523d-f93c-49d0-8009-b305dd6d3874","system_id":"levelo_inurba_marseille","lat":43.25088,"lon":5.39498,"is_reserved":false,"is_disabled":false,"rental_uris":{"android":"levelo://app?vid=d749523d-f93c-49d0-8009-b305dd6d3874","ios":"levelo://app?vid=d749523d-f93c-49d0-8009-b305dd6d3874"},"vehicle_type_id":"4","last_reported":1784293429,"current_range_meters":22000,"station_id":"ce4bhm12rcd13ifvqgkg","pricing_plan_id":"cebpf4jnsgd1na2vs0mg"},{"bike_id":"96849611-00d5-4884-b0dc-e03df79fa9c3","system_id":"levelo_inurba_marseille","lat":43.24394,"lon":5.37067,"is_reserved":false,"is_disabled":false,"rental_uris":{"android":"levelo://app?vid=96849611-00d5-4884-b0dc-e03df79fa9c3","ios":"levelo://app?vid=96849611-00d5-4884-b0dc-e03df79fa9c3"},"vehicle_type_id":"4","last_reported":1784293429,"current_range_meters":14400,"station_id":"ce4bhhh2rcd13ifvqfk0","pricing_plan_id":"cebpf4jnsgd1na2vs0mg"},{"bike_id":"cf1bec2f-8c6b-4a4e-8bca-07a1fd68d9b8","system_id":"levelo_inurba_marseille","lat":43.29312,"lon":5.37148,"is_reserved":false,"is_disabled":false,"rental_uris":{"android":"levelo://app?vid=cf1bec2f-8c6b-4a4e-8bca-07a1fd68d9b8","ios":"levelo://app?vid=cf1bec2f-8c6b-4a4e-8bca-07a1fd68d9b8"},"vehicle_type_id":"4","last_reported":1784293429,"current_range_meters":39200,"station_id":"ce4bgh92rcd13ifvqb40","pricing_plan_id":"cebpf4jnsgd1na2vs0mg"},{"bike_id":"e71494cd-d4a8-436a-a5c6-260a2924500e","system_id":"levelo_inurba_marseille","lat":43.26228,"lon":5.38766,"is_reserved":false,"is_disabled":true,"rental_uris":{"android":"levelo://app?vid=e71494cd-d4a8-436a-a5c6-260a2924500e","ios":"levelo://app?vid=e71494cd-d4a8-436a-a5c6-260a2924500e"},"vehicle_type_id":"4","last_reported":1784293429,"current_range_meters":30800,"station_id":"st_d8gjfg747rts73coq3b0","pricing_plan_id":"cebpf4jnsgd1na2vs0mg"},{"bike_id":"4dd83e35-73dd-44b8-9d3c-9c21e3418d4e","system_id":"levelo_inurba_marseille","lat":43.27485,"lon":5.42552,"is_reserved":false,"is_disabled":false,"rental_uris":{"android":"levelo://app?vid=4dd83e35-73dd-44b8-9d3c-9c21e3418d4e","ios":"levelo://app?vid=4dd83e35-73dd-44b8-9d3c-9c21e3418d4e"},"vehicle_type_id":"4","last_reported":1784293429,"current_range_meters":16000,"station_id":"st_d8t4bh7nbrqs73arha60","pricing_plan_id":"cebpf4jnsgd1na2vs0mg"},{"bike_id":"6666b766-2ccd-467a-ad53-5ec31fb4dec4","system_id":"levelo_inurba_marseille","lat":43.24796,"lon":5.37471,"is_reserved":false,"is_disabled":false,"rental_uris":{"android":"levelo://app?vid=6666b766-2ccd-467a-ad53-5ec31fb4dec4","ios":"levelo://app?vid=6666b766-2ccd-467a-ad53-5ec31fb4dec4"},"vehicle_type_id":"4","last_reported":1784293429,"current_range_meters":38400,"station_id":"ce4bhgh2rcd13ifvqfb0","pricing_plan_id":"cebpf4jnsgd1na2vs0mg"},{"bike_id":"5369b032-dcc5-484a-9b18-671fceb20e9f","system_id":"levelo_inurba_marseille","lat":43.25001,"lon":5.38923,"is_reserved":false,"is_disabled":false,"rental_uris":{"android":"levelo://app?vid=5369b032-dcc5-484a-9b18-671fceb20e9f","ios":"levelo://app?vid=5369b032-dcc5-484a-9b18-671fceb20e9f"},"vehicle_type_id":"4","last_reported":1784293429,"current_range_meters":21600,"station_id":"ce4bhgp2rcd13ifvqfd0","pricing_plan_id":"cebpf4jnsgd1na2vs0mg"},{"bike_id":"7d2a4660-8779-4be0-8361-0a9a9f09983e","system_id":"levelo_inurba_marseille","lat":43.28728,"lon":5.36078,"is_reserved":false,"is_disabled":false,"rental_uris":{"android":"levelo://app?vid=7d2a4660-8779-4be0-8361-0a9a9f09983e","ios":"levelo://app?vid=7d2a4660-8779-4be0-8361-0a9a9f09983e"},"vehicle_type_id":"4","last_reported":1784293429,"current_range_meters":14800,"station_id":"cki0cbj6b192h4jlfktg","pricing_plan_id":"cebpf4jnsgd1na2vs0mg"},{"bike_id":"daf11da9-09e4-45d4-814b-e16971bc59a4","system_id":"levelo_inurba_marseille","lat":43.27958,"lon":5.38692,"is_reserved":false,"is_disabled":true,"rental_uris":{"android":"levelo://app?vid=daf11da9-09e4-45d4-814b-e16971bc59a4","ios":"levelo://app?vid=daf11da9-09e4-45d4-814b-e16971bc59a4"},"vehicle_type_id":"4","last_reported":1784293429,"current_range_meters":24800,"station_id":"ce4bhg12rcd13ifvqf80","pricing_plan_id":"cebpf4jnsgd1na2vs0mg"},{"bike_id":"208641bb-2077-49cc-b121-1fafc8038876","system_id":"levelo_inurba_marseille","lat":43.30538,"lon":5.36573,"is_reserved":false,"is_disabled":false,"rental_uris":{"android":"levelo://app?vid=208641bb-2077-49cc-b121-1fafc8038876","ios":"levelo://app?vid=208641bb-2077-49cc-b121-1fafc8038876"},"vehicle_type_id":"4","last_reported":1784293429,"current_range_meters":36000,"station_id":"ce4bgs12rcd13ifvqcag","pricing_plan_id":"cebpf4jnsgd1na2vs0mg"},{"bike_id":"6f681dcb-ee4c-458d-aac3-7caa1c6605da","system_id":"levelo_inurba_marseille","lat":43.26486,"lon":5.39558,"is_reserved":false,"is_disabled":false,"rental_uris":{"android":"levelo://app?vid=6f681dcb-ee4c-458d-aac3-7caa1c6605da","ios":"levelo://app?vid=6f681dcb-ee4c-458d-aac3-7caa1c6605da"},"vehicle_type_id":"4","last_reported":1784293429,"current_range_meters":39200,"station_id":"ce4bhi12rcd13ifvqfq0","pricing_plan_id":"cebpf4jnsgd1na2vs0mg"},{"bike_id":"872ebcb0-b331-4ce1-9570-6b29f9d66328","system_id":"levelo_inurba_marseille","lat":43.27068,"lon":5.40253,"is_reserved":false,"is_disabled":true,"rental_uris":{"android":"levelo://app?vid=872ebcb0-b331-4ce1-9570-6b29f9d66328","ios":"levelo://app?vid=872ebcb0-b331-4ce1-9570-6b29f9d66328"},"vehicle_type_id":"4","last_reported":1784293429,"current_range_meters":2000,"station_id":"ce4bhk92rcd13ifvqgc0","pricing_plan_id":"cebpf4jnsgd1na2vs0mg"},{"bike_id":"c201d3df-a631-49ab-a54b-68c45f2b08cc","system_id":"levelo_inurba_marseille","lat":43.30486,"lon":5.36697,"is_reserved":false,"is_disabled":false,"rental_uris":{"android":"levelo://app?vid=c201d3df-a631-49ab-a54b-68c45f2b08cc","ios":"levelo://app?vid=c201d3df-a631-49ab-a54b-68c45f2b08cc"},"vehicle_type_id":"4","last_reported":1784293429,"current_range_meters":33200,"station_id":"ce4bgrp2rcd13ifvqc9g","pricing_plan_id":"cebpf4jnsgd1na2vs0mg"},{"bike_id":"162b4b4c-7fa8-4a40-a3be-82376713afd4","system_id":"levelo_inurba_marseille","lat":43.28355,"lon":5.381,"is_reserved":false,"is_disabled":false,"rental_uris":{"android":"levelo://app?vid=162b4b4c-7fa8-4a40-a3be-82376713afd4","ios":"levelo://app?vid=162b4b4c-7fa8-4a40-a3be-82376713afd4"},"vehicle_type_id":"4","last_reported":1784293429,"current_range_meters":36800,"station_id":"ce4bh412rcd13ifvqdr0","pricing_plan_id":"cebpf4jnsgd1na2vs0mg"},{"bike_id":"2ec223e4-5a78-4b1b-8190-dcf63324151d","system_id":"levelo_inurba_marseille","lat":43.27052,"lon":5.40266,"is_reserved":false,"is_disabled":false,"rental_uris":{"android":"levelo://app?vid=2ec223e4-5a78-4b1b-8190-dcf63324151d","ios":"levelo://app?vid=2ec223e4-5a78-4b1b-8190-dcf63324151d"},"vehicle_type_id":"4","last_reported":1784293429,"current_range_meters":17600,"station_id":"ce4bhk92rcd13ifvqgc0","pricing_plan_id":"cebpf4jnsgd1na2vs0mg"},{"bike_id":"3190d3f7-9c93-4c6e-b207-4e3139ed0ccc","system_id":"levelo_inurba_marseille","lat":43.21748,"lon":5.34609,"is_reserved":false,"is_disabled":false,"rental_uris":{"android":"levelo://app?vid=3190d3f7-9c93-4c6e-b207-4e3139ed0ccc","ios":"levelo://app?vid=3190d3f7-9c93-4c6e-b207-4e3139ed0ccc"},"vehicle_type_id":"4","last_reported":1784293429,"current_range_meters":12400,"station_id":"st_cvj6r9ubvosntc0bgbag","pricing_plan_id":"cebpf4jnsgd1na2vs0mg"},{"bike_id":"e4064152-b01a-460a-934b-4b0ab157c51c","system_id":"levelo_inurba_marseille","lat":43.23083,"lon":5.35508,"is_reserved":false,"is_disabled":false,"rental_uris":{"android":"levelo://app?vid=e4064152-b01a-460a-934b-4b0ab157c51c","ios":"levelo://app?vid=e4064152-b01a-460a-934b-4b0ab157c51c"},"vehicle_type_id":"4","last_reported":1784293429,"current_range_meters":9200,"station_id":"cpo3342slgdg3j2ifvpg","pricing_plan_id":"cebpf4jnsgd1na2vs0mg"},{"bike_id":"4d103531-dc76-4632-9ed6-3b8eae789ecc","system_id":"levelo_inurba_marseille","lat":43.32103,"lon":5.36785,"is_reserved":false,"is_disabled":false,"rental_uris":{"android":"levelo://app?vid=4d103531-dc76-4632-9ed6-3b8eae789ecc","ios":"levelo://app?vid=4d103531-dc76-4632-9ed6-3b8eae789ecc"},"vehicle_type_id":"4","last_reported":1784293429,"current_range_meters":12000,"station_id":"ce4bhrh2rcd13ifvqhug","pricing_plan_id":"cebpf4jnsgd1na2vs0mg"},{"bike_id":"c8deb52c-da43-4c3d-9650-bff66058ccf7","system_id":"levelo_inurba_marseille","lat":43.28233,"lon":5.39064,"is_reserved":false,"is_disabled":false,"rental_uris":{"android":"levelo://app?vid=c8deb52c-da43-4c3d-9650-bff66058ccf7","ios":"levelo://app?vid=c8deb52c-da43-4c3d-9650-bff66058ccf7"},"vehicle_type_id":"4","last_reported":1784293429,"current_range_meters":8800,"station_id":"ce4bhn92rcd13ifvqgsg","pricing_plan_id":"cebpf4jnsgd1na2vs0mg"},{"bike_id":"ef6880d0-6944-4f6a-8f40-6662368b8f75","system_id":"levelo_inurba_marseille","lat":43.31458,"lon":5.454,"is_reserved":false,"is_disabled":false,"rental_uris":{"android":"levelo://app?vid=ef6880d0-6944-4f6a-8f40-6662368b8f75","ios":"levelo://app?vid=ef6880d0-6944-4f6a-8f40-6662368b8f75"},"vehicle_type_id":"4","last_reported":1784293429,"current_range_meters":14800,"station_id":"","pricing_plan_id":"cebpf4jnsgd1na2vs0mg"},{"bike_id":"28e3be97-6bba-4719-a027-28408d8d3feb","system_id":"levelo_inurba_marseille","lat":43.24178,"lon":5.39721,"is_reserved":false,"is_disabled":false,"rental_uris":{"android":"levelo://app?vid=28e3be97-6bba-4719-a027-28408d8d3feb","ios":"levelo://app?vid=28e3be97-6bba-4719-a027-28408d8d3feb"},"vehicle_type_id":"4","last_reported":1784293429,"current_range_meters":21600,"station_id":"ce4bhn12rcd13ifvqgpg","pricing_plan_id":"cebpf4jnsgd1na2vs0mg"},{"bike_id":"ac73781c-7964-453a-82c7-5e417be13435","system_id":"levelo_inurba_marseille","lat":43.28606,"lon":5.37059,"is_reserved":false,"is_disabled":false,"rental_uris":{"android":"levelo://app?vid=ac73781c-7964-453a-82c7-5e417be13435","ios":"levelo://app?vid=ac73781c-7964-453a-82c7-5e417be13435"},"vehicle_type_id":"4","last_reported":1784293429,"current_range_meters":38000,"station_id":"ce4bht12rcd13ifvqi60","pricing_plan_id":"cebpf4jnsgd1na2vs0mg"},{"bike_id":"12b0917b-4dff-4461-b662-182e711b4e49","system_id":"levelo_inurba_marseille","lat":43.28405,"lon":5.37505,"is_reserved":false,"is_disabled":true,"rental_uris":{"android":"levelo://app?vid=12b0917b-4dff-4461-b662-182e711b4e49","ios":"levelo://app?vid=12b0917b-4dff-4461-b662-182e711b4e49"},"vehicle_type_id":"4","last_reported":1784293429,"current_range_meters":800,"station_id":"ce4bh412rcd13ifvqds0","pricing_plan_id":"cebpf4jnsgd1na2vs0mg"},{"bike_id":"864a38e5-18ed-497d-8a1d-3e425de9f388","system_id":"levelo_inurba_marseille","lat":43.31311,"lon":5.36863,"is_reserved":false,"is_disabled":false,"rental_uris":{"android":"levelo://app?vid=864a38e5-18ed-497d-8a1d-3e425de9f388","ios":"levelo://app?vid=864a38e5-18ed-497d-8a1d-3e425de9f388"},"vehicle_type_id":"4","last_reported":1784293429,"current_range_meters":38000,"station_id":"","pricing_plan_id":"cebpf4jnsgd1na2vs0mg"},{"bike_id":"d3ac7d0d-a905-4d3c-8152-c0dc3828127a","system_id":"levelo_inurba_marseille","lat":43.29788,"lon":5.37105,"is_reserved":false,"is_disabled":false,"rental_uris":{"android":"levelo://app?vid=d3ac7d0d-a905-4d3c-8152-c0dc3828127a","ios":"levelo://app?vid=d3ac7d0d-a905-4d3c-8152-c0dc3828127a"},"vehicle_type_id":"4","last_reported":1784293429,"current_range_meters":9200,"station_id":"ce4bgop2rcd13ifvqc1g","pricing_plan_id":"cebpf4jnsgd1na2vs0mg"},{"bike_id":"d183c213-4177-4bf2-b9e0-24872be8a9c8","system_id":"levelo_inurba_marseille","lat":43.28483,"lon":5.4839,"is_reserved":false,"is_disabled":false,"rental_uris":{"android":"levelo://app?vid=d183c213-4177-4bf2-b9e0-24872be8a9c8","ios":"levelo://app?vid=d183c213-4177-4bf2-b9e0-24872be8a9c8"},"vehicle_type_id":"4","last_reported":1784293429,"current_range_meters":20000,"station_id":"st_d3svhcjqgbts73a3dn0g","pricing_plan_id":"cebpf4jnsgd1na2vs0mg"},{"bike_id":"4a9dc560-9f7e-4b5e-a61c-920a63c5a8c5","system_id":"levelo_inurba_marseille","lat":43.28281,"lon":5.35084,"is_reserved":false,"is_disabled":false,"rental_uris":{"android":"levelo://app?vid=4a9dc560-9f7e-4b5e-a61c-920a63c5a8c5","ios":"levelo://app?vid=4a9dc560-9f7e-4b5e-a61c-920a63c5a8c5"},"vehicle_type_id":"4","last_reported":1784293429,"current_range_meters":26800,"station_id":"ce4bhbp2rcd13ifvqerg","pricing_plan_id":"cebpf4jnsgd1na2vs0mg"},{"bike_id":"2cf1277f-3ca9-4d60-bfca-3be887851f47","system_id":"levelo_inurba_marseille","lat":43.26367,"lon":5.41088,"is_reserved":false,"is_disabled":false,"rental_uris":{"android":"levelo://app?vid=2cf1277f-3ca9-4d60-bfca-3be887851f47","ios":"levelo://app?vid=2cf1277f-3ca9-4d60-bfca-3be887851f47"},"vehicle_type_id":"4","last_reported":1784293429,"current_range_meters":9600,"station_id":"st_d4e5ca6na9uc73bfl5fg","pricing_plan_id":"cebpf4jnsgd1na2vs0mg"},{"bike_id":"930a26e6-38b4-4fff-a16a-2d1b93308d5b","system_id":"levelo_inurba_marseille","lat":43.28677,"lon":5.37417,"is_reserved":false,"is_disabled":true,"rental_uris":{"android":"levelo://app?vid=930a26e6-38b4-4fff-a16a-2d1b93308d5b","ios":"levelo://app?vid=930a26e6-38b4-4fff-a16a-2d1b93308d5b"},"vehicle_type_id":"4","last_reported":1784293429,"current_range_meters":7200,"station_id":"ce4bh3p2rcd13ifvqdq0","pricing_plan_id":"cebpf4jnsgd1na2vs0mg"},{"bike_id":"3b469e47-a0dc-4885-be59-8678ad7c2d94","system_id":"levelo_inurba_marseille","lat":43.29268,"lon":5.40136,"is_reserved":false,"is_disabled":false,"rental_uris":{"android":"levelo://app?vid=3b469e47-a0dc-4885-be59-8678ad7c2d94","ios":"levelo://app?vid=3b469e47-a0dc-4885-be59-8678ad7c2d94"},"vehicle_type_id":"4","last_reported":1784293429,"current_range_meters":24000,"station_id":"ce4bh312rcd13ifvqdk0","pricing_plan_id":"cebpf4jnsgd1na2vs0mg"},{"bike_id":"e4e2da61-31a3-435a-b1ec-9bb834559f2e","system_id":"levelo_inurba_marseille","lat":43.25013,"lon":5.38935,"is_reserved":false,"is_disabled":false,"rental_uris":{"android":"levelo://app?vid=e4e2da61-31a3-435a-b1ec-9bb834559f2e","ios":"levelo://app?vid=e4e2da61-31a3-435a-b1ec-9bb834559f2e"},"vehicle_type_id":"4","last_reported":1784293429,"current_range_meters":30800,"station_id":"ce4bhgp2rcd13ifvqfd0","pricing_plan_id":"cebpf4jnsgd1na2vs0mg"},{"bike_id":"2cc76e28-e89c-499c-abf0-925b570c439c","system_id":"levelo_inurba_marseille","lat":43.30883,"lon":5.37195,"is_reserved":false,"is_disabled":false,"rental_uris":{"android":"levelo://app?vid=2cc76e28-e89c-499c-abf0-925b570c439c","ios":"levelo://app?vid=2cc76e28-e89c-499c-abf0-925b570c439c"},"vehicle_type_id":"4","last_reported":1784293429,"current_range_meters":26000,"station_id":"ce4bguh2rcd13ifvqckg","pricing_plan_id":"cebpf4jnsgd1na2vs0mg"},{"bike_id":"87932bdc-5e35-4e62-8b81-4961770ea33b","system_id":"levelo_inurba_marseille","lat":43.21745,"lon":5.34606,"is_reserved":false,"is_disabled":false,"rental_uris":{"android":"levelo://app?vid=87932bdc-5e35-4e62-8b81-4961770ea33b","ios":"levelo://app?vid=87932bdc-5e35-4e62-8b81-4961770ea33b"},"vehicle_type_id":"4","last_reported":1784293429,"current_range_meters":20400,"station_id":"st_cvj6r9ubvosntc0bgbag","pricing_plan_id":"cebpf4jnsgd1na2vs0mg"},{"bike_id":"e0c7065e-7f74-4b06-ae7b-f933c635df87","system_id":"levelo_inurba_marseille","lat":43.29551,"lon":5.42275,"is_reserved":false,"is_disabled":false,"rental_uris":{"android":"levelo://app?vid=e0c7065e-7f74-4b06-ae7b-f933c635df87","ios":"levelo://app?vid=e0c7065e-7f74-4b06-ae7b-f933c635df87"},"vehicle_type_id":"4","last_reported":1784293429,"current_range_meters":39200,"station_id":"ce4bhph2rcd13ifvqhdg","pricing_plan_id":"cebpf4jnsgd1na2vs0mg"},{"bike_id":"3d9d15ce-5804-4209-b92a-723f598d0341","system_id":"levelo_inurba_marseille","lat":43.21176,"lon":5.351,"is_reserved":false,"is_disabled":false,"rental_uris":{"android":"levelo://app?vid=3d9d15ce-5804-4209-b92a-723f598d0341","ios":"levelo://app?vid=3d9d15ce-5804-4209-b92a-723f598d0341"},"vehicle_type_id":"4","last_reported":1784293429,"current_range_meters":12400,"station_id":"st_cvj6sg6p6f1abm77japg","pricing_plan_id":"cebpf4jnsgd1na2vs0mg"},{"bike_id":"92f9377a-62ba-495b-8de9-1750140cdb94","system_id":"levelo_inurba_marseille","lat":43.29622,"lon":5.37175,"is_reserved":false,"is_disabled":true,"rental_uris":{"android":"levelo://app?vid=92f9377a-62ba-495b-8de9-1750140cdb94","ios":"levelo://app?vid=92f9377a-62ba-495b-8de9-1750140cdb94"},"vehicle_type_id":"4","last_reported":1784293429,"current_range_meters":8800,"station_id":"","pricing_plan_id":"cebpf4jnsgd1na2vs0mg"},{"bike_id":"e1bb6861-ee59-438c-aa2a-2a553b2d6f43","system_id":"levelo_inurba_marseille","lat":43.27214,"lon":5.40976,"is_reserved":false,"is_disabled":true,"rental_uris":{"android":"levelo://app?vid=e1bb6861-ee59-438c-aa2a-2a553b2d6f43","ios":"levelo://app?vid=e1bb6861-ee59-438c-aa2a-2a553b2d6f43"},"vehicle_type_id":"4","last_reported":1784293429,"current_range_meters":34000,"station_id":"ce4bhl12rcd13ifvqgf0","pricing_plan_id":"cebpf4jnsgd1na2vs0mg"},{"bike_id":"d61f5f42-3266-4ab9-bc4e-5a83331a7ece","system_id":"levelo_inurba_marseille","lat":43.25596,"lon":5.3824,"is_reserved":false,"is_disabled":true,"rental_uris":{"android":"levelo://app?vid=d61f5f42-3266-4ab9-bc4e-5a83331a7ece","ios":"levelo://app?vid=d61f5f42-3266-4ab9-bc4e-5a83331a7ece"},"vehicle_type_id":"4","last_reported":1784293429,"current_range_meters":35600,"station_id":"ce4bhih2rcd13ifvqfs0","pricing_plan_id":"cebpf4jnsgd1na2vs0mg"},{"bike_id":"c2e7fe27-d2b0-440e-b62d-ead50feed951","system_id":"levelo_inurba_marseille","lat":43.29494,"lon":5.43302,"is_reserved":false,"is_disabled":false,"rental_uris":{"android":"levelo://app?vid=c2e7fe27-d2b0-440e-b62d-ead50feed951","ios":"levelo://app?vid=c2e7fe27-d2b0-440e-b62d-ead50feed951"},"vehicle_type_id":"4","last_reported":1784293429,"current_range_meters":11600,"station_id":"st_d3j5ugp08ojc73fj9d10","pricing_plan_id":"cebpf4jnsgd1na2vs0mg"},{"bike_id":"448ab149-1e23-45d2-8d41-536c144b6b21","system_id":"levelo_inurba_marseille","lat":43.31738,"lon":5.3902,"is_reserved":false,"is_disabled":false,"rental_uris":{"android":"levelo://app?vid=448ab149-1e23-45d2-8d41-536c144b6b21","ios":"levelo://app?vid=448ab149-1e23-45d2-8d41-536c144b6b21"},"vehicle_type_id":"4","last_reported":1784293429,"current_range_meters":15200,"station_id":"ce4bhqp2rcd13ifvqhng","pricing_plan_id":"cebpf4jnsgd1na2vs0mg"},{"bike_id":"2623e023-e953-40ac-8068-15d2169ca99d","system_id":"levelo_inurba_marseille","lat":43.28706,"lon":5.46687,"is_reserved":false,"is_disabled":false,"rental_uris":{"android":"levelo://app?vid=2623e023-e953-40ac-8068-15d2169ca99d","ios":"levelo://app?vid=2623e023-e953-40ac-8068-15d2169ca99d"},"vehicle_type_id":"4","last_reported":1784293429,"current_range_meters":6000,"station_id":"st_d6tc3vkotcvc738tfjhg","pricing_plan_id":"cebpf4jnsgd1na2vs0mg"},{"bike_id":"323978cb-199d-47c6-b438-2a6e5465a9e3","system_id":"levelo_inurba_marseille","lat":43.30571,"lon":5.39357,"is_reserved":false,"is_disabled":false,"rental_uris":{"android":"levelo://app?vid=323978cb-199d-47c6-b438-2a6e5465a9e3","ios":"levelo://app?vid=323978cb-199d-47c6-b438-2a6e5465a9e3"},"vehicle_type_id":"4","last_reported":1784293429,"current_range_meters":27200,"station_id":"ce4bh0p2rcd13ifvqd80","pricing_plan_id":"cebpf4jnsgd1na2vs0mg"},{"bike_id":"92a89bcd-05b9-408a-b610-e4c8c58d3549","system_id":"levelo_inurba_marseille","lat":43.26668,"lon":5.38284,"is_reserved":false,"is_disabled":false,"rental_uris":{"android":"levelo://app?vid=92a89bcd-05b9-408a-b610-e4c8c58d3549","ios":"levelo://app?vid=92a89bcd-05b9-408a-b610-e4c8c58d3549"},"vehicle_type_id":"4","last_reported":1784293429,"current_range_meters":38400,"station_id":"ce4bhg92rcd13ifvqf90","pricing_plan_id":"cebpf4jnsgd1na2vs0mg"},{"bike_id":"ebc9b3c7-9a3f-47fe-86c0-8ccdcb2b70ca","system_id":"levelo_inurba_marseille","lat":43.302,"lon":5.38102,"is_reserved":false,"is_disabled":false,"rental_uris":{"android":"levelo://app?vid=ebc9b3c7-9a3f-47fe-86c0-8ccdcb2b70ca","ios":"levelo://app?vid=ebc9b3c7-9a3f-47fe-86c0-8ccdcb2b70ca"},"vehicle_type_id":"4","last_reported":1784293429,"current_range_meters":19600,"station_id":"","pricing_plan_id":"cebpf4jnsgd1na2vs0mg"},{"bike_id":"530d5b81-1545-4b49-8624-2c00cc3d9834","system_id":"levelo_inurba_marseille","lat":43.2534,"lon":5.42181,"is_reserved":false,"is_disabled":false,"rental_uris":{"android":"levelo://app?vid=530d5b81-1545-4b49-8624-2c00cc3d9834","ios":"levelo://app?vid=530d5b81-1545-4b49-8624-2c00cc3d9834"},"vehicle_type_id":"4","last_reported":1784293429,"current_range_meters":16800,"station_id":"st_d2m65c5bi1j21697t3ng","pricing_plan_id":"cebpf4jnsgd1na2vs0mg"},{"bike_id":"863d0357-9100-4091-8be6-61d932e4e898","system_id":"levelo_inurba_marseille","lat":43.3374,"lon":5.37464,"is_reserved":false,"is_disabled":false,"rental_uris":{"android":"levelo://app?vid=863d0357-9100-4091-8be6-61d932e4e898","ios":"levelo://app?vid=863d0357-9100-4091-8be6-61d932e4e898"},"vehicle_type_id":"4","last_reported":1784293429,"current_range_meters":39200,"station_id":"","pricing_plan_id":"cebpf4jnsgd1na2vs0mg"},{"bike_id":"f44d0928-8ad6-4308-b10f-ade40ce37ee2","system_id":"levelo_inurba_marseille","lat":43.28008,"lon":5.38272,"is_reserved":false,"is_disabled":false,"rental_uris":{"android":"levelo://app?vid=f44d0928-8ad6-4308-b10f-ade40ce37ee2","ios":"levelo://app?vid=f44d0928-8ad6-4308-b10f-ade40ce37ee2"},"vehicle_type_id":"4","last_reported":1784293429,"current_range_meters":27200,"station_id":"","pricing_plan_id":"cebpf4jnsgd1na2vs0mg"},{"bike_id":"476582e1-be21-4bc4-8542-d86de0e420c6","system_id":"levelo_inurba_marseille","lat":43.24541,"lon":5.39529,"is_reserved":false,"is_disabled":false,"rental_uris":{"android":"levelo://app?vid=476582e1-be21-4bc4-8542-d86de0e420c6","ios":"levelo://app?vid=476582e1-be21-4bc4-8542-d86de0e420c6"},"vehicle_type_id":"4","last_reported":1784293429,"current_range_meters":39200,"station_id":"ce4bhlp2rcd13ifvqgjg","pricing_plan_id":"cebpf4jnsgd1na2vs0mg"},{"bike_id":"87982f0d-6988-4043-a941-42ff831cd8b3","system_id":"levelo_inurba_marseille","lat":43.28619,"lon":5.3511,"is_reserved":false,"is_disabled":false,"rental_uris":{"android":"levelo://app?vid=87982f0d-6988-4043-a941-42ff831cd8b3","ios":"levelo://app?vid=87982f0d-6988-4043-a941-42ff831cd8b3"},"vehicle_type_id":"4","last_reported":1784293429,"current_range_meters":39200,"station_id":"ce4bhch2rcd13ifvqeug","pricing_plan_id":"cebpf4jnsgd1na2vs0mg"},{"bike_id":"10ef5bd0-f130-4452-b7f2-391aef329ae1","system_id":"levelo_inurba_marseille","lat":43.28134,"lon":5.42641,"is_reserved":false,"is_disabled":false,"rental_uris":{"android":"levelo://app?vid=10ef5bd0-f130-4452-b7f2-391aef329ae1","ios":"levelo://app?vid=10ef5bd0-f130-4452-b7f2-391aef329ae1"},"vehicle_type_id":"4","last_reported":1784293429,"current_range_meters":32000,"station_id":"ce4bhnh2rcd13ifvqgug","pricing_plan_id":"cebpf4jnsgd1na2vs0mg"},{"bike_id":"ccbc8778-9fb1-4697-a4f1-aa5a01a4daf2","system_id":"levelo_inurba_marseille","lat":43.31505,"lon":5.36647,"is_reserved":false,"is_disabled":false,"rental_uris":{"android":"levelo://app?vid=ccbc8778-9fb1-4697-a4f1-aa5a01a4daf2","ios":"levelo://app?vid=ccbc8778-9fb1-4697-a4f1-aa5a01a4daf2"},"vehicle_type_id":"4","last_reported":1784293429,"current_range_meters":37600,"station_id":"","pricing_plan_id":"cebpf4jnsgd1na2vs0mg"},{"bike_id":"8ba7f2d6-52d3-4c56-b19a-19a142e62779","system_id":"levelo_inurba_marseille","lat":43.24073,"lon":5.37749,"is_reserved":false,"is_disabled":false,"rental_uris":{"android":"levelo://app?vid=8ba7f2d6-52d3-4c56-b19a-19a142e62779","ios":"levelo://app?vid=8ba7f2d6-52d3-4c56-b19a-19a142e62779"},"vehicle_type_id":"4","last_reported":1784293429,"current_range_meters":16800,"station_id":"ce4bhnp2rcd13ifvqgvg","pricing_plan_id":"cebpf4jnsgd1na2vs0mg"},{"bike_id":"3df7b3ee-3083-4a49-a1f1-8ec2f9d7ba3b","system_id":"levelo_inurba_marseille","lat":43.26071,"lon":5.394,"is_reserved":false,"is_disabled":false,"rental_uris":{"android":"levelo://app?vid=3df7b3ee-3083-4a49-a1f1-8ec2f9d7ba3b","ios":"levelo://app?vid=3df7b3ee-3083-4a49-a1f1-8ec2f9d7ba3b"},"vehicle_type_id":"4","last_reported":1784293429,"current_range_meters":28400,"station_id":"ce4bhh92rcd13ifvqfj0","pricing_plan_id":"cebpf4jnsgd1na2vs0mg"},{"bike_id":"9dec8167-a7dd-4d56-ab06-15c751420023","system_id":"levelo_inurba_marseille","lat":43.28048,"lon":5.3501,"is_reserved":false,"is_disabled":false,"rental_uris":{"android":"levelo://app?vid=9dec8167-a7dd-4d56-ab06-15c751420023","ios":"levelo://app?vid=9dec8167-a7dd-4d56-ab06-15c751420023"},"vehicle_type_id":"4","last_reported":1784293429,"current_range_meters":34000,"station_id":"","pricing_plan_id":"cebpf4jnsgd1na2vs0mg"},{"bike_id":"eeaaed66-36f9-477d-98fb-d53a7ffce760","system_id":"levelo_inurba_marseille","lat":43.265422,"lon":5.372916,"is_reserved":false,"is_disabled":true,"rental_uris":{"android":"levelo://app?vid=eeaaed66-36f9-477d-98fb-d53a7ffce760","ios":"levelo://app?vid=eeaaed66-36f9-477d-98fb-d53a7ffce760"},"vehicle_type_id":"4","last_reported":1784293429,"current_range_meters":34800,"station_id":"ce4bhg12rcd13ifvqf70","pricing_plan_id":"cebpf4jnsgd1na2vs0mg"},{"bike_id":"4fb3f049-924f-4c9c-9f9d-de641cc8ae83","system_id":"levelo_inurba_marseille","lat":43.30137,"lon":5.38111,"is_reserved":false,"is_disabled":false,"rental_uris":{"android":"levelo://app?vid=4fb3f049-924f-4c9c-9f9d-de641cc8ae83","ios":"levelo://app?vid=4fb3f049-924f-4c9c-9f9d-de641cc8ae83"},"vehicle_type_id":"4","last_reported":1784293429,"current_range_meters":38000,"station_id":"ce4bgjp2rcd13ifvqbh0","pricing_plan_id":"cebpf4jnsgd1na2vs0mg"},{"bike_id":"1e83d8be-5733-48f1-ae39-38a135622227","system_id":"levelo_inurba_marseille","lat":43.22538,"lon":5.41645,"is_reserved":false,"is_disabled":false,"rental_uris":{"android":"levelo://app?vid=1e83d8be-5733-48f1-ae39-38a135622227","ios":"levelo://app?vid=1e83d8be-5733-48f1-ae39-38a135622227"},"vehicle_type_id":"4","last_reported":1784293429,"current_range_meters":29600,"station_id":"st_d2o4gvlbi1j2169b742g","pricing_plan_id":"cebpf4jnsgd1na2vs0mg"},{"bike_id":"3881a700-b2f5-47cf-af67-157f64684ce7","system_id":"levelo_inurba_marseille","lat":43.27246,"lon":5.38938,"is_reserved":false,"is_disabled":true,"rental_uris":{"android":"levelo://app?vid=3881a700-b2f5-47cf-af67-157f64684ce7","ios":"levelo://app?vid=3881a700-b2f5-47cf-af67-157f64684ce7"},"vehicle_type_id":"4","last_reported":1784293429,"current_range_meters":0,"station_id":"","pricing_plan_id":"cebpf4jnsgd1na2vs0mg"},{"bike_id":"e9700518-bfab-4e19-9c8e-e3cb6414cf72","system_id":"levelo_inurba_marseille","lat":43.29208,"lon":5.35779,"is_reserved":false,"is_disabled":true,"rental_uris":{"android":"levelo://app?vid=e9700518-bfab-4e19-9c8e-e3cb6414cf72","ios":"levelo://app?vid=e9700518-bfab-4e19-9c8e-e3cb6414cf72"},"vehicle_type_id":"4","last_reported":1784293429,"current_range_meters":11600,"station_id":"ce4bhb12rcd13ifvqel0","pricing_plan_id":"cebpf4jnsgd1na2vs0mg"},{"bike_id":"6e2fa25e-c4e4-473c-b5d3-3e0f51dcc142","system_id":"levelo_inurba_marseille","lat":43.29812,"lon":5.38104,"is_reserved":false,"is_disabled":true,"rental_uris":{"android":"levelo://app?vid=6e2fa25e-c4e4-473c-b5d3-3e0f51dcc142","ios":"levelo://app?vid=6e2fa25e-c4e4-473c-b5d3-3e0f51dcc142"},"vehicle_type_id":"4","last_reported":1784293429,"current_range_meters":36400,"station_id":"ce4bgip2rcd13ifvqbb0","pricing_plan_id":"cebpf4jnsgd1na2vs0mg"},{"bike_id":"e8372de4-55c4-4403-a00b-3f3fecde3bdf","system_id":"levelo_inurba_marseille","lat":43.28612,"lon":5.3511,"is_reserved":false,"is_disabled":false,"rental_uris":{"android":"levelo://app?vid=e8372de4-55c4-4403-a00b-3f3fecde3bdf","ios":"levelo://app?vid=e8372de4-55c4-4403-a00b-3f3fecde3bdf"},"vehicle_type_id":"4","last_reported":1784293429,"current_range_meters":39200,"station_id":"ce4bhch2rcd13ifvqeug","pricing_plan_id":"cebpf4jnsgd1na2vs0mg"},{"bike_id":"40133888-0505-4ab7-bf98-89cc8c9f1fbd","system_id":"levelo_inurba_marseille","lat":43.31243,"lon":5.38123,"is_reserved":false,"is_disabled":false,"rental_uris":{"android":"levelo://app?vid=40133888-0505-4ab7-bf98-89cc8c9f1fbd","ios":"levelo://app?vid=40133888-0505-4ab7-bf98-89cc8c9f1fbd"},"vehicle_type_id":"4","last_reported":1784293429,"current_range_meters":18000,"station_id":"","pricing_plan_id":"cebpf4jnsgd1na2vs0mg"},{"bike_id":"21e71573-8bf0-4106-b8c8-1a9a53e8a6b4","system_id":"levelo_inurba_marseille","lat":43.28428,"lon":5.34969,"is_reserved":false,"is_disabled":false,"rental_uris":{"android":"levelo://app?vid=21e71573-8bf0-4106-b8c8-1a9a53e8a6b4","ios":"levelo://app?vid=21e71573-8bf0-4106-b8c8-1a9a53e8a6b4"},"vehicle_type_id":"4","last_reported":1784293429,"current_range_meters":25600,"station_id":"ce4bhbh2rcd13ifvqepg","pricing_plan_id":"cebpf4jnsgd1na2vs0mg"},{"bike_id":"b95b0a0e-30e2-48bd-afc1-3e200e4b2358","system_id":"levelo_inurba_marseille","lat":43.28733,"lon":5.36086,"is_reserved":false,"is_disabled":false,"rental_uris":{"android":"levelo://app?vid=b95b0a0e-30e2-48bd-afc1-3e200e4b2358","ios":"levelo://app?vid=b95b0a0e-30e2-48bd-afc1-3e200e4b2358"},"vehicle_type_id":"4","last_reported":1784293429,"current_range_meters":6400,"station_id":"cki0cbj6b192h4jlfktg","pricing_plan_id":"cebpf4jnsgd1na2vs0mg"},{"bike_id":"814e9ab2-d56b-49c9-ad29-9360fefd91dd","system_id":"levelo_inurba_marseille","lat":43.24955,"lon":5.40486,"is_reserved":false,"is_disabled":false,"rental_uris":{"android":"levelo://app?vid=814e9ab2-d56b-49c9-ad29-9360fefd91dd","ios":"levelo://app?vid=814e9ab2-d56b-49c9-ad29-9360fefd91dd"},"vehicle_type_id":"4","last_reported":1784293429,"current_range_meters":35600,"station_id":"st_d2ngiaodas8pm72gd1h0","pricing_plan_id":"cebpf4jnsgd1na2vs0mg"},{"bike_id":"34b4978e-492d-4d36-a2d7-7a18159a1fee","system_id":"levelo_inurba_marseille","lat":43.24658,"lon":5.38161,"is_reserved":false,"is_disabled":false,"rental_uris":{"android":"levelo://app?vid=34b4978e-492d-4d36-a2d7-7a18159a1fee","ios":"levelo://app?vid=34b4978e-492d-4d36-a2d7-7a18159a1fee"},"vehicle_type_id":"4","last_reported":1784293429,"current_range_meters":20400,"station_id":"ce4bhih2rcd13ifvqfr0","pricing_plan_id":"cebpf4jnsgd1na2vs0mg"},{"bike_id":"583175d7-0c17-4a47-b3d1-50fc3c4eab71","system_id":"levelo_inurba_marseille","lat":43.2119,"lon":5.35077,"is_reserved":false,"is_disabled":false,"rental_uris":{"android":"levelo://app?vid=583175d7-0c17-4a47-b3d1-50fc3c4eab71","ios":"levelo://app?vid=583175d7-0c17-4a47-b3d1-50fc3c4eab71"},"vehicle_type_id":"4","last_reported":1784293429,"current_range_meters":16400,"station_id":"st_cvj6sg6p6f1abm77japg","pricing_plan_id":"cebpf4jnsgd1na2vs0mg"},{"bike_id":"944e3d82-f303-4d6c-a543-b7f5b08cae1f","system_id":"levelo_inurba_marseille","lat":43.32115,"lon":5.36766,"is_reserved":false,"is_disabled":false,"rental_uris":{"android":"levelo://app?vid=944e3d82-f303-4d6c-a543-b7f5b08cae1f","ios":"levelo://app?vid=944e3d82-f303-4d6c-a543-b7f5b08cae1f"},"vehicle_type_id":"4","last_reported":1784293429,"current_range_meters":11200,"station_id":"ce4bhrh2rcd13ifvqhug","pricing_plan_id":"cebpf4jnsgd1na2vs0mg"},{"bike_id":"4c127758-d8a2-4e39-b263-1d9a63ee1e29","system_id":"levelo_inurba_marseille","lat":43.24102,"lon":5.37729,"is_reserved":false,"is_disabled":false,"rental_uris":{"android":"levelo://app?vid=4c127758-d8a2-4e39-b263-1d9a63ee1e29","ios":"levelo://app?vid=4c127758-d8a2-4e39-b263-1d9a63ee1e29"},"vehicle_type_id":"4","last_reported":1784293429,"current_range_meters":39200,"station_id":"ce4bhnp2rcd13ifvqgvg","pricing_plan_id":"cebpf4jnsgd1na2vs0mg"},{"bike_id":"60398ba9-4620-475b-b989-0e443703fac8","system_id":"levelo_inurba_marseille","lat":43.29031,"lon":5.37158,"is_reserved":false,"is_disabled":false,"rental_uris":{"android":"levelo://app?vid=60398ba9-4620-475b-b989-0e443703fac8","ios":"levelo://app?vid=60398ba9-4620-475b-b989-0e443703fac8"},"vehicle_type_id":"4","last_reported":1784293429,"current_range_meters":25600,"station_id":"ce4bh5p2rcd13ifvqe4g","pricing_plan_id":"cebpf4jnsgd1na2vs0mg"},{"bike_id":"865639b8-b1fe-40cb-8f37-368b97d6caca","system_id":"levelo_inurba_marseille","lat":43.27986,"lon":5.40013,"is_reserved":false,"is_disabled":false,"rental_uris":{"android":"levelo://app?vid=865639b8-b1fe-40cb-8f37-368b97d6caca","ios":"levelo://app?vid=865639b8-b1fe-40cb-8f37-368b97d6caca"},"vehicle_type_id":"4","last_reported":1784293429,"current_range_meters":38000,"station_id":"ce4bho92rcd13ifvqh4g","pricing_plan_id":"cebpf4jnsgd1na2vs0mg"},{"bike_id":"e69687d6-fcf2-4df7-88fb-f89e17dd91d8","system_id":"levelo_inurba_marseille","lat":43.30868,"lon":5.37195,"is_reserved":false,"is_disabled":true,"rental_uris":{"android":"levelo://app?vid=e69687d6-fcf2-4df7-88fb-f89e17dd91d8","ios":"levelo://app?vid=e69687d6-fcf2-4df7-88fb-f89e17dd91d8"},"vehicle_type_id":"4","last_reported":1784293429,"current_range_meters":16400,"station_id":"ce4bguh2rcd13ifvqckg","pricing_plan_id":"cebpf4jnsgd1na2vs0mg"},{"bike_id":"28907abe-3c52-4bf0-bb4d-1b51c1fde577","system_id":"levelo_inurba_marseille","lat":43.21795,"lon":5.34584,"is_reserved":false,"is_disabled":false,"rental_uris":{"android":"levelo://app?vid=28907abe-3c52-4bf0-bb4d-1b51c1fde577","ios":"levelo://app?vid=28907abe-3c52-4bf0-bb4d-1b51c1fde577"},"vehicle_type_id":"4","last_reported":1784293429,"current_range_meters":28800,"station_id":"","pricing_plan_id":"cebpf4jnsgd1na2vs0mg"},{"bike_id":"81587832-75ed-49cd-91c3-f57f9b8cec45","system_id":"levelo_inurba_marseille","lat":43.29021,"lon":5.35915,"is_reserved":false,"is_disabled":true,"rental_uris":{"android":"levelo://app?vid=81587832-75ed-49cd-91c3-f57f9b8cec45","ios":"levelo://app?vid=81587832-75ed-49cd-91c3-f57f9b8cec45"},"vehicle_type_id":"4","last_reported":1784293429,"current_range_meters":10800,"station_id":"ce4bha92rcd13ifvqeg0","pricing_plan_id":"cebpf4jnsgd1na2vs0mg"},{"bike_id":"88a90354-2b9b-4b2e-bb0d-4b40ea497f98","system_id":"levelo_inurba_marseille","lat":43.29621,"lon":5.37167,"is_reserved":false,"is_disabled":false,"rental_uris":{"android":"levelo://app?vid=88a90354-2b9b-4b2e-bb0d-4b40ea497f98","ios":"levelo://app?vid=88a90354-2b9b-4b2e-bb0d-4b40ea497f98"},"vehicle_type_id":"4","last_reported":1784293429,"current_range_meters":38400,"station_id":"","pricing_plan_id":"cebpf4jnsgd1na2vs0mg"},{"bike_id":"8a2ed306-8405-4822-b70f-abc1f81e1070","system_id":"levelo_inurba_marseille","lat":43.24551,"lon":5.39532,"is_reserved":false,"is_disabled":false,"rental_uris":{"android":"levelo://app?vid=8a2ed306-8405-4822-b70f-abc1f81e1070","ios":"levelo://app?vid=8a2ed306-8405-4822-b70f-abc1f81e1070"},"vehicle_type_id":"4","last_reported":1784293429,"current_range_meters":25600,"station_id":"ce4bhlp2rcd13ifvqgjg","pricing_plan_id":"cebpf4jnsgd1na2vs0mg"},{"bike_id":"5135e02a-3058-46d2-97a9-0addc8d53752","system_id":"levelo_inurba_marseille","lat":43.31335,"lon":5.36719,"is_reserved":false,"is_disabled":false,"rental_uris":{"android":"levelo://app?vid=5135e02a-3058-46d2-97a9-0addc8d53752","ios":"levelo://app?vid=5135e02a-3058-46d2-97a9-0addc8d53752"},"vehicle_type_id":"4","last_reported":1784293429,"current_range_meters":33200,"station_id":"ce4bgr92rcd13ifvqc6g","pricing_plan_id":"cebpf4jnsgd1na2vs0mg"},{"bike_id":"87b5fd0d-c2e6-4f25-a8d4-4d84cc539f73","system_id":"levelo_inurba_marseille","lat":43.29083,"lon":5.3813,"is_reserved":false,"is_disabled":false,"rental_uris":{"android":"levelo://app?vid=87b5fd0d-c2e6-4f25-a8d4-4d84cc539f73","ios":"levelo://app?vid=87b5fd0d-c2e6-4f25-a8d4-4d84cc539f73"},"vehicle_type_id":"4","last_reported":1784293429,"current_range_meters":29600,"station_id":"ce4bh512rcd13ifvqe2g","pricing_plan_id":"cebpf4jnsgd1na2vs0mg"},{"bike_id":"4d634871-e327-4d07-a170-25f13e307238","system_id":"levelo_inurba_marseille","lat":43.26194,"lon":5.374477,"is_reserved":false,"is_disabled":false,"rental_uris":{"android":"levelo://app?vid=4d634871-e327-4d07-a170-25f13e307238","ios":"levelo://app?vid=4d634871-e327-4d07-a170-25f13e307238"},"vehicle_type_id":"4","last_reported":1784293429,"current_range_meters":25600,"station_id":"ce4bhgp2rcd13ifvqfc0","pricing_plan_id":"cebpf4jnsgd1na2vs0mg"},{"bike_id":"5dc61c06-bebd-4da3-baac-3c58ca456e4c","system_id":"levelo_inurba_marseille","lat":43.25708,"lon":5.41118,"is_reserved":false,"is_disabled":false,"rental_uris":{"android":"levelo://app?vid=5dc61c06-bebd-4da3-baac-3c58ca456e4c","ios":"levelo://app?vid=5dc61c06-bebd-4da3-baac-3c58ca456e4c"},"vehicle_type_id":"4","last_reported":1784293429,"current_range_meters":16000,"station_id":"ce4bhkp2rcd13ifvqgd0","pricing_plan_id":"cebpf4jnsgd1na2vs0mg"},{"bike_id":"e363b584-92a2-4c61-adfd-371a2577000d","system_id":"levelo_inurba_marseille","lat":43.29895,"lon":5.43658,"is_reserved":false,"is_disabled":false,"rental_uris":{"android":"levelo://app?vid=e363b584-92a2-4c61-adfd-371a2577000d","ios":"levelo://app?vid=e363b584-92a2-4c61-adfd-371a2577000d"},"vehicle_type_id":"4","last_reported":1784293429,"current_range_meters":38800,"station_id":"ce4bhpp2rcd13ifvqhfg","pricing_plan_id":"cebpf4jnsgd1na2vs0mg"},{"bike_id":"06c8057b-fe44-4576-9188-4ed641cdff79","system_id":"levelo_inurba_marseille","lat":43.24673,"lon":5.3813,"is_reserved":false,"is_disabled":false,"rental_uris":{"android":"levelo://app?vid=06c8057b-fe44-4576-9188-4ed641cdff79","ios":"levelo://app?vid=06c8057b-fe44-4576-9188-4ed641cdff79"},"vehicle_type_id":"4","last_reported":1784293429,"current_range_meters":30400,"station_id":"ce4bhih2rcd13ifvqfr0","pricing_plan_id":"cebpf4jnsgd1na2vs0mg"},{"bike_id":"5ebdc902-7281-4b89-a54b-21ee517329fb","system_id":"levelo_inurba_marseille","lat":43.24813,"lon":5.37466,"is_reserved":false,"is_disabled":true,"rental_uris":{"android":"levelo://app?vid=5ebdc902-7281-4b89-a54b-21ee517329fb","ios":"levelo://app?vid=5ebdc902-7281-4b89-a54b-21ee517329fb"},"vehicle_type_id":"4","last_reported":1784293429,"current_range_meters":39200,"station_id":"ce4bhgh2rcd13ifvqfb0","pricing_plan_id":"cebpf4jnsgd1na2vs0mg"},{"bike_id":"26adac01-a48b-4b11-ab5f-b41497993b97","system_id":"levelo_inurba_marseille","lat":43.25338,"lon":5.42164,"is_reserved":false,"is_disabled":false,"rental_uris":{"android":"levelo://app?vid=26adac01-a48b-4b11-ab5f-b41497993b97","ios":"levelo://app?vid=26adac01-a48b-4b11-ab5f-b41497993b97"},"vehicle_type_id":"4","last_reported":1784293429,"current_range_meters":8400,"station_id":"st_d2m65c5bi1j21697t3ng","pricing_plan_id":"cebpf4jnsgd1na2vs0mg"},{"bike_id":"2322d216-5245-4f2d-b498-05459a3de200","system_id":"levelo_inurba_marseille","lat":43.25503,"lon":5.37651,"is_reserved":false,"is_disabled":false,"rental_uris":{"android":"levelo://app?vid=2322d216-5245-4f2d-b498-05459a3de200","ios":"levelo://app?vid=2322d216-5245-4f2d-b498-05459a3de200"},"vehicle_type_id":"4","last_reported":1784293429,"current_range_meters":20800,"station_id":"ce4bhh12rcd13ifvqff0","pricing_plan_id":"cebpf4jnsgd1na2vs0mg"},{"bike_id":"7ff8118f-6c81-4cdf-8a1d-4753d954065d","system_id":"levelo_inurba_marseille","lat":43.29602,"lon":5.37977,"is_reserved":false,"is_disabled":false,"rental_uris":{"android":"levelo://app?vid=7ff8118f-6c81-4cdf-8a1d-4753d954065d","ios":"levelo://app?vid=7ff8118f-6c81-4cdf-8a1d-4753d954065d"},"vehicle_type_id":"4","last_reported":1784293429,"current_range_meters":10000,"station_id":"","pricing_plan_id":"cebpf4jnsgd1na2vs0mg"},{"bike_id":"3da6bd28-86e6-4bb5-9156-89be9ed06d84","system_id":"levelo_inurba_marseille","lat":43.28335,"lon":5.38885,"is_reserved":false,"is_disabled":false,"rental_uris":{"android":"levelo://app?vid=3da6bd28-86e6-4bb5-9156-89be9ed06d84","ios":"levelo://app?vid=3da6bd28-86e6-4bb5-9156-89be9ed06d84"},"vehicle_type_id":"4","last_reported":1784293429,"current_range_meters":27600,"station_id":"","pricing_plan_id":"cebpf4jnsgd1na2vs0mg"},{"bike_id":"c843a350-33b5-4b0c-8ef6-69f557e162e9","system_id":"levelo_inurba_marseille","lat":43.24995,"lon":5.38939,"is_reserved":false,"is_disabled":false,"rental_uris":{"android":"levelo://app?vid=c843a350-33b5-4b0c-8ef6-69f557e162e9","ios":"levelo://app?vid=c843a350-33b5-4b0c-8ef6-69f557e162e9"},"vehicle_type_id":"4","last_reported":1784293429,"current_range_meters":30800,"station_id":"ce4bhgp2rcd13ifvqfd0","pricing_plan_id":"cebpf4jnsgd1na2vs0mg"},{"bike_id":"e27a52eb-8952-4054-bc03-dbcf3fcbd616","system_id":"levelo_inurba_marseille","lat":43.33779,"lon":5.37431,"is_reserved":false,"is_disabled":false,"rental_uris":{"android":"levelo://app?vid=e27a52eb-8952-4054-bc03-dbcf3fcbd616","ios":"levelo://app?vid=e27a52eb-8952-4054-bc03-dbcf3fcbd616"},"vehicle_type_id":"4","last_reported":1784293429,"current_range_meters":34000,"station_id":"","pricing_plan_id":"cebpf4jnsgd1na2vs0mg"},{"bike_id":"c8f178a8-b62f-4b4a-88c4-426ea928fae0","system_id":"levelo_inurba_marseille","lat":43.30546,"lon":5.36539,"is_reserved":false,"is_disabled":false,"rental_uris":{"android":"levelo://app?vid=c8f178a8-b62f-4b4a-88c4-426ea928fae0","ios":"levelo://app?vid=c8f178a8-b62f-4b4a-88c4-426ea928fae0"},"vehicle_type_id":"4","last_reported":1784293429,"current_range_meters":26000,"station_id":"ce4bgs12rcd13ifvqcag","pricing_plan_id":"cebpf4jnsgd1na2vs0mg"},{"bike_id":"0b0941d5-5dd6-40be-857e-11c3df9a2cfd","system_id":"levelo_inurba_marseille","lat":43.30192,"lon":5.36622,"is_reserved":false,"is_disabled":false,"rental_uris":{"android":"levelo://app?vid=0b0941d5-5dd6-40be-857e-11c3df9a2cfd","ios":"levelo://app?vid=0b0941d5-5dd6-40be-857e-11c3df9a2cfd"},"vehicle_type_id":"4","last_reported":1784293429,"current_range_meters":16800,"station_id":"ce4bgrh2rcd13ifvqc8g","pricing_plan_id":"cebpf4jnsgd1na2vs0mg"},{"bike_id":"d7c11974-bca2-402d-a8ff-28eaf16f0c66","system_id":"levelo_inurba_marseille","lat":43.32481,"lon":5.36561,"is_reserved":false,"is_disabled":false,"rental_uris":{"android":"levelo://app?vid=d7c11974-bca2-402d-a8ff-28eaf16f0c66","ios":"levelo://app?vid=d7c11974-bca2-402d-a8ff-28eaf16f0c66"},"vehicle_type_id":"4","last_reported":1784293429,"current_range_meters":38800,"station_id":"ce4bhs12rcd13ifvqhvg","pricing_plan_id":"cebpf4jnsgd1na2vs0mg"},{"bike_id":"1de5753c-f77d-4a34-b134-58bee8bc010c","system_id":"levelo_inurba_marseille","lat":43.26502,"lon":5.37263,"is_reserved":false,"is_disabled":true,"rental_uris":{"android":"levelo://app?vid=1de5753c-f77d-4a34-b134-58bee8bc010c","ios":"levelo://app?vid=1de5753c-f77d-4a34-b134-58bee8bc010c"},"vehicle_type_id":"4","last_reported":1784293429,"current_range_meters":24400,"station_id":"ce4bhg12rcd13ifvqf70","pricing_plan_id":"cebpf4jnsgd1na2vs0mg"},{"bike_id":"1bc7136f-e9c1-4d3a-be65-bd6daeca9658","system_id":"levelo_inurba_marseille","lat":43.31504,"lon":5.37273,"is_reserved":false,"is_disabled":false,"rental_uris":{"android":"levelo://app?vid=1bc7136f-e9c1-4d3a-be65-bd6daeca9658","ios":"levelo://app?vid=1bc7136f-e9c1-4d3a-be65-bd6daeca9658"},"vehicle_type_id":"4","last_reported":1784293429,"current_range_meters":39200,"station_id":"ce4bgt12rcd13ifvqcd0","pricing_plan_id":"cebpf4jnsgd1na2vs0mg"},{"bike_id":"6b7bc794-a8b6-4b15-bdfb-b2fb240ae758","system_id":"levelo_inurba_marseille","lat":43.28431,"lon":5.34996,"is_reserved":false,"is_disabled":true,"rental_uris":{"android":"levelo://app?vid=6b7bc794-a8b6-4b15-bdfb-b2fb240ae758","ios":"levelo://app?vid=6b7bc794-a8b6-4b15-bdfb-b2fb240ae758"},"vehicle_type_id":"4","last_reported":1784293429,"current_range_meters":39200,"station_id":"ce4bhbh2rcd13ifvqepg","pricing_plan_id":"cebpf4jnsgd1na2vs0mg"},{"bike_id":"2c97cb4e-20a1-4793-b697-b13771f94f1b","system_id":"levelo_inurba_marseille","lat":43.29971,"lon":5.38494,"is_reserved":false,"is_disabled":false,"rental_uris":{"android":"levelo://app?vid=2c97cb4e-20a1-4793-b697-b13771f94f1b","ios":"levelo://app?vid=2c97cb4e-20a1-4793-b697-b13771f94f1b"},"vehicle_type_id":"4","last_reported":1784293429,"current_range_meters":16800,"station_id":"ce4bgj92rcd13ifvqbd0","pricing_plan_id":"cebpf4jnsgd1na2vs0mg"},{"bike_id":"b757706d-1d17-4285-9a90-30a7e24d51ef","system_id":"levelo_inurba_marseille","lat":43.28443,"lon":5.38442,"is_reserved":false,"is_disabled":false,"rental_uris":{"android":"levelo://app?vid=b757706d-1d17-4285-9a90-30a7e24d51ef","ios":"levelo://app?vid=b757706d-1d17-4285-9a90-30a7e24d51ef"},"vehicle_type_id":"4","last_reported":1784293429,"current_range_meters":38800,"station_id":"ce4bh512rcd13ifvqe3g","pricing_plan_id":"cebpf4jnsgd1na2vs0mg"},{"bike_id":"70b4266b-6f2a-4bb7-934f-a2a2bf37b44f","system_id":"levelo_inurba_marseille","lat":43.25125,"lon":5.40361,"is_reserved":false,"is_disabled":true,"rental_uris":{"android":"levelo://app?vid=70b4266b-6f2a-4bb7-934f-a2a2bf37b44f","ios":"levelo://app?vid=70b4266b-6f2a-4bb7-934f-a2a2bf37b44f"},"vehicle_type_id":"4","last_reported":1784293429,"current_range_meters":0,"station_id":"ce4bhlh2rcd13ifvqgig","pricing_plan_id":"cebpf4jnsgd1na2vs0mg"},{"bike_id":"184617d7-9563-435e-96a9-4f0200d2dec5","system_id":"levelo_inurba_marseille","lat":43.2737,"lon":5.36222,"is_reserved":false,"is_disabled":false,"rental_uris":{"android":"levelo://app?vid=184617d7-9563-435e-96a9-4f0200d2dec5","ios":"levelo://app?vid=184617d7-9563-435e-96a9-4f0200d2dec5"},"vehicle_type_id":"4","last_reported":1784293429,"current_range_meters":27600,"station_id":"ce4bhbh2rcd13ifvqeo0","pricing_plan_id":"cebpf4jnsgd1na2vs0mg"},{"bike_id":"5366d360-d7dc-4e04-831f-62f49098b2c0","system_id":"levelo_inurba_marseille","lat":43.26214,"lon":5.39334,"is_reserved":false,"is_disabled":false,"rental_uris":{"android":"levelo://app?vid=5366d360-d7dc-4e04-831f-62f49098b2c0","ios":"levelo://app?vid=5366d360-d7dc-4e04-831f-62f49098b2c0"},"vehicle_type_id":"4","last_reported":1784293429,"current_range_meters":38000,"station_id":"","pricing_plan_id":"cebpf4jnsgd1na2vs0mg"},{"bike_id":"ba1031fe-940a-4977-baac-8cb8365e1fca","system_id":"levelo_inurba_marseille","lat":43.31311,"lon":5.3672,"is_reserved":false,"is_disabled":false,"rental_uris":{"android":"levelo://app?vid=ba1031fe-940a-4977-baac-8cb8365e1fca","ios":"levelo://app?vid=ba1031fe-940a-4977-baac-8cb8365e1fca"},"vehicle_type_id":"4","last_reported":1784293429,"current_range_meters":33200,"station_id":"ce4bgr92rcd13ifvqc6g","pricing_plan_id":"cebpf4jnsgd1na2vs0mg"},{"bike_id":"17ef7521-be57-48c8-a115-ded8df7df309","system_id":"levelo_inurba_marseille","lat":43.262,"lon":5.37452,"is_reserved":false,"is_disabled":false,"rental_uris":{"android":"levelo://app?vid=17ef7521-be57-48c8-a115-ded8df7df309","ios":"levelo://app?vid=17ef7521-be57-48c8-a115-ded8df7df309"},"vehicle_type_id":"4","last_reported":1784293429,"current_range_meters":38400,"station_id":"ce4bhgp2rcd13ifvqfc0","pricing_plan_id":"cebpf4jnsgd1na2vs0mg"},{"bike_id":"0f6ff1da-c9e3-42e7-a8d3-8280d1c0addc","system_id":"levelo_inurba_marseille","lat":43.33734,"lon":5.37464,"is_reserved":false,"is_disabled":false,"rental_uris":{"android":"levelo://app?vid=0f6ff1da-c9e3-42e7-a8d3-8280d1c0addc","ios":"levelo://app?vid=0f6ff1da-c9e3-42e7-a8d3-8280d1c0addc"},"vehicle_type_id":"4","last_reported":1784293429,"current_range_meters":32400,"station_id":"","pricing_plan_id":"cebpf4jnsgd1na2vs0mg"},{"bike_id":"dba95777-cb14-4e1b-8f71-08f792d0dd48","system_id":"levelo_inurba_marseille","lat":43.33605,"lon":5.41019,"is_reserved":false,"is_disabled":false,"rental_uris":{"android":"levelo://app?vid=dba95777-cb14-4e1b-8f71-08f792d0dd48","ios":"levelo://app?vid=dba95777-cb14-4e1b-8f71-08f792d0dd48"},"vehicle_type_id":"4","last_reported":1784293429,"current_range_meters":39200,"station_id":"ce4bhqh2rcd13ifvqhmg","pricing_plan_id":"cebpf4jnsgd1na2vs0mg"},{"bike_id":"961e4f27-c59a-4265-bdd0-9d3e69b727e9","system_id":"levelo_inurba_marseille","lat":43.27053,"lon":5.4026,"is_reserved":false,"is_disabled":false,"rental_uris":{"android":"levelo://app?vid=961e4f27-c59a-4265-bdd0-9d3e69b727e9","ios":"levelo://app?vid=961e4f27-c59a-4265-bdd0-9d3e69b727e9"},"vehicle_type_id":"4","last_reported":1784293429,"current_range_meters":38000,"station_id":"ce4bhk92rcd13ifvqgc0","pricing_plan_id":"cebpf4jnsgd1na2vs0mg"},{"bike_id":"aa288d2a-61f7-461c-8f19-1d622847bbc4","system_id":"levelo_inurba_marseille","lat":43.29,"lon":5.35591,"is_reserved":false,"is_disabled":false,"rental_uris":{"android":"levelo://app?vid=aa288d2a-61f7-461c-8f19-1d622847bbc4","ios":"levelo://app?vid=aa288d2a-61f7-461c-8f19-1d622847bbc4"},"vehicle_type_id":"4","last_reported":1784293429,"current_range_meters":38000,"station_id":"ce4bhb92rcd13ifvqen0","pricing_plan_id":"cebpf4jnsgd1na2vs0mg"},{"bike_id":"832a74fa-6640-4f4e-a94c-86b76477eb6c","system_id":"levelo_inurba_marseille","lat":43.29267,"lon":5.36837,"is_reserved":false,"is_disabled":false,"rental_uris":{"android":"levelo://app?vid=832a74fa-6640-4f4e-a94c-86b76477eb6c","ios":"levelo://app?vid=832a74fa-6640-4f4e-a94c-86b76477eb6c"},"vehicle_type_id":"4","last_reported":1784293429,"current_range_meters":16400,"station_id":"","pricing_plan_id":"cebpf4jnsgd1na2vs0mg"},{"bike_id":"e1a284f9-5e4e-407c-a907-36602c41246a","system_id":"levelo_inurba_marseille","lat":43.24175,"lon":5.39687,"is_reserved":false,"is_disabled":false,"rental_uris":{"android":"levelo://app?vid=e1a284f9-5e4e-407c-a907-36602c41246a","ios":"levelo://app?vid=e1a284f9-5e4e-407c-a907-36602c41246a"},"vehicle_type_id":"4","last_reported":1784293429,"current_range_meters":39200,"station_id":"ce4bhn12rcd13ifvqgpg","pricing_plan_id":"cebpf4jnsgd1na2vs0mg"},{"bike_id":"4b8df33d-fa91-4a10-8ca6-286b0bf69ef5","system_id":"levelo_inurba_marseille","lat":43.29621,"lon":5.37723,"is_reserved":false,"is_disabled":false,"rental_uris":{"android":"levelo://app?vid=4b8df33d-fa91-4a10-8ca6-286b0bf69ef5","ios":"levelo://app?vid=4b8df33d-fa91-4a10-8ca6-286b0bf69ef5"},"vehicle_type_id":"4","last_reported":1784293429,"current_range_meters":12400,"station_id":"ce4bgi92rcd13ifvqb90","pricing_plan_id":"cebpf4jnsgd1na2vs0mg"},{"bike_id":"a9f12f72-4ef8-4985-9bad-1949cda70459","system_id":"levelo_inurba_marseille","lat":43.29499,"lon":5.37532,"is_reserved":false,"is_disabled":false,"rental_uris":{"android":"levelo://app?vid=a9f12f72-4ef8-4985-9bad-1949cda70459","ios":"levelo://app?vid=a9f12f72-4ef8-4985-9bad-1949cda70459"},"vehicle_type_id":"4","last_reported":1784293429,"current_range_meters":14400,"station_id":"ce4bgkp2rcd13ifvqbmg","pricing_plan_id":"cebpf4jnsgd1na2vs0mg"},{"bike_id":"c514913b-9f3c-4ce6-ae01-1bea0d576978","system_id":"levelo_inurba_marseille","lat":43.29032,"lon":5.37568,"is_reserved":false,"is_disabled":false,"rental_uris":{"android":"levelo://app?vid=c514913b-9f3c-4ce6-ae01-1bea0d576978","ios":"levelo://app?vid=c514913b-9f3c-4ce6-ae01-1bea0d576978"},"vehicle_type_id":"4","last_reported":1784293429,"current_range_meters":30400,"station_id":"ce4bh692rcd13ifvqe90","pricing_plan_id":"cebpf4jnsgd1na2vs0mg"},{"bike_id":"942148f9-90f2-4171-8f05-98ba0ca85bcb","system_id":"levelo_inurba_marseille","lat":43.28475,"lon":5.48396,"is_reserved":false,"is_disabled":true,"rental_uris":{"android":"levelo://app?vid=942148f9-90f2-4171-8f05-98ba0ca85bcb","ios":"levelo://app?vid=942148f9-90f2-4171-8f05-98ba0ca85bcb"},"vehicle_type_id":"4","last_reported":1784293429,"current_range_meters":9600,"station_id":"st_d3svhcjqgbts73a3dn0g","pricing_plan_id":"cebpf4jnsgd1na2vs0mg"},{"bike_id":"2cd21150-d2b7-4b36-880f-cb5e3af2b424","system_id":"levelo_inurba_marseille","lat":43.24168,"lon":5.39721,"is_reserved":false,"is_disabled":false,"rental_uris":{"android":"levelo://app?vid=2cd21150-d2b7-4b36-880f-cb5e3af2b424","ios":"levelo://app?vid=2cd21150-d2b7-4b36-880f-cb5e3af2b424"},"vehicle_type_id":"4","last_reported":1784293429,"current_range_meters":39200,"station_id":"ce4bhn12rcd13ifvqgpg","pricing_plan_id":"cebpf4jnsgd1na2vs0mg"},{"bike_id":"b2b194ed-86a5-4dc8-b828-5b80e1681197","system_id":"levelo_inurba_marseille","lat":43.28532,"lon":5.44115,"is_reserved":false,"is_disabled":false,"rental_uris":{"android":"levelo://app?vid=b2b194ed-86a5-4dc8-b828-5b80e1681197","ios":"levelo://app?vid=b2b194ed-86a5-4dc8-b828-5b80e1681197"},"vehicle_type_id":"4","last_reported":1784293429,"current_range_meters":39200,"station_id":"st_d3j3df2ikq2c7380ej80","pricing_plan_id":"cebpf4jnsgd1na2vs0mg"},{"bike_id":"22af084b-faec-475a-a5ed-b6fa98023e28","system_id":"levelo_inurba_marseille","lat":43.2826,"lon":5.35102,"is_reserved":false,"is_disabled":false,"rental_uris":{"android":"levelo://app?vid=22af084b-faec-475a-a5ed-b6fa98023e28","ios":"levelo://app?vid=22af084b-faec-475a-a5ed-b6fa98023e28"},"vehicle_type_id":"4","last_reported":1784293429,"current_range_meters":24800,"station_id":"ce4bhbp2rcd13ifvqerg","pricing_plan_id":"cebpf4jnsgd1na2vs0mg"},{"bike_id":"2a93def1-9840-4751-b465-b53bb0ce6123","system_id":"levelo_inurba_marseille","lat":43.22553,"lon":5.41643,"is_reserved":false,"is_disabled":false,"rental_uris":{"android":"levelo://app?vid=2a93def1-9840-4751-b465-b53bb0ce6123","ios":"levelo://app?vid=2a93def1-9840-4751-b465-b53bb0ce6123"},"vehicle_type_id":"4","last_reported":1784293429,"current_range_meters":16800,"station_id":"st_d2o4gvlbi1j2169b742g","pricing_plan_id":"cebpf4jnsgd1na2vs0mg"},{"bike_id":"ff8cbcca-37d3-49dd-af4b-126722b555ff","system_id":"levelo_inurba_marseille","lat":43.24085,"lon":5.37748,"is_reserved":false,"is_disabled":false,"rental_uris":{"android":"levelo://app?vid=ff8cbcca-37d3-49dd-af4b-126722b555ff","ios":"levelo://app?vid=ff8cbcca-37d3-49dd-af4b-126722b555ff"},"vehicle_type_id":"4","last_reported":1784293429,"current_range_meters":36400,"station_id":"ce4bhnp2rcd13ifvqgvg","pricing_plan_id":"cebpf4jnsgd1na2vs0mg"},{"bike_id":"c5300617-66e6-4074-9160-d6283c101daf","system_id":"levelo_inurba_marseille","lat":43.28127,"lon":5.42653,"is_reserved":false,"is_disabled":false,"rental_uris":{"android":"levelo://app?vid=c5300617-66e6-4074-9160-d6283c101daf","ios":"levelo://app?vid=c5300617-66e6-4074-9160-d6283c101daf"},"vehicle_type_id":"4","last_reported":1784293429,"current_range_meters":35600,"station_id":"ce4bhnh2rcd13ifvqgug","pricing_plan_id":"cebpf4jnsgd1na2vs0mg"},{"bike_id":"12fd2021-f055-4326-9b23-e4cd6a9f6d09","system_id":"levelo_inurba_marseille","lat":43.3095,"lon":5.39023,"is_reserved":false,"is_disabled":false,"rental_uris":{"android":"levelo://app?vid=12fd2021-f055-4326-9b23-e4cd6a9f6d09","ios":"levelo://app?vid=12fd2021-f055-4326-9b23-e4cd6a9f6d09"},"vehicle_type_id":"4","last_reported":1784293429,"current_range_meters":8400,"station_id":"ce4bgup2rcd13ifvqco0","pricing_plan_id":"cebpf4jnsgd1na2vs0mg"},{"bike_id":"b617c35b-7c51-4687-9948-30e5ef21086e","system_id":"levelo_inurba_marseille","lat":43.28704,"lon":5.46694,"is_reserved":false,"is_disabled":false,"rental_uris":{"android":"levelo://app?vid=b617c35b-7c51-4687-9948-30e5ef21086e","ios":"levelo://app?vid=b617c35b-7c51-4687-9948-30e5ef21086e"},"vehicle_type_id":"4","last_reported":1784293429,"current_range_meters":12800,"station_id":"st_d6tc3vkotcvc738tfjhg","pricing_plan_id":"cebpf4jnsgd1na2vs0mg"},{"bike_id":"83741070-3a1f-46c3-b431-07eff2814aa4","system_id":"levelo_inurba_marseille","lat":43.27448,"lon":5.36101,"is_reserved":false,"is_disabled":true,"rental_uris":{"android":"levelo://app?vid=83741070-3a1f-46c3-b431-07eff2814aa4","ios":"levelo://app?vid=83741070-3a1f-46c3-b431-07eff2814aa4"},"vehicle_type_id":"4","last_reported":1784293429,"current_range_meters":0,"station_id":"","pricing_plan_id":"cebpf4jnsgd1na2vs0mg"},{"bike_id":"e97d923d-d560-461e-94e7-6b746b3d8d92","system_id":"levelo_inurba_marseille","lat":43.32098,"lon":5.36813,"is_reserved":false,"is_disabled":false,"rental_uris":{"android":"levelo://app?vid=e97d923d-d560-461e-94e7-6b746b3d8d92","ios":"levelo://app?vid=e97d923d-d560-461e-94e7-6b746b3d8d92"},"vehicle_type_id":"4","last_reported":1784293429,"current_range_meters":28800,"station_id":"ce4bhrh2rcd13ifvqhug","pricing_plan_id":"cebpf4jnsgd1na2vs0mg"},{"bike_id":"ed742eca-6f01-42aa-8690-c704a6c8088f","system_id":"levelo_inurba_marseille","lat":43.30909,"lon":5.3719,"is_reserved":false,"is_disabled":false,"rental_uris":{"android":"levelo://app?vid=ed742eca-6f01-42aa-8690-c704a6c8088f","ios":"levelo://app?vid=ed742eca-6f01-42aa-8690-c704a6c8088f"},"vehicle_type_id":"4","last_reported":1784293429,"current_range_meters":38400,"station_id":"ce4bguh2rcd13ifvqckg","pricing_plan_id":"cebpf4jnsgd1na2vs0mg"},{"bike_id":"651171ef-5155-4ea7-a09a-94eb326dae6a","system_id":"levelo_inurba_marseille","lat":43.27502,"lon":5.41576,"is_reserved":false,"is_disabled":false,"rental_uris":{"android":"levelo://app?vid=651171ef-5155-4ea7-a09a-94eb326dae6a","ios":"levelo://app?vid=651171ef-5155-4ea7-a09a-94eb326dae6a"},"vehicle_type_id":"4","last_reported":1784293429,"current_range_meters":24400,"station_id":"st_d6im8g6chgec73a5pndg","pricing_plan_id":"cebpf4jnsgd1na2vs0mg"},{"bike_id":"246f78a2-abe6-4912-8290-5f58c0fb2a61","system_id":"levelo_inurba_marseille","lat":43.28733,"lon":5.35195,"is_reserved":false,"is_disabled":false,"rental_uris":{"android":"levelo://app?vid=246f78a2-abe6-4912-8290-5f58c0fb2a61","ios":"levelo://app?vid=246f78a2-abe6-4912-8290-5f58c0fb2a61"},"vehicle_type_id":"4","last_reported":1784293429,"current_range_meters":24000,"station_id":"","pricing_plan_id":"cebpf4jnsgd1na2vs0mg"},{"bike_id":"1fa0fa4b-cff2-4dee-9dae-d7dec1739b50","system_id":"levelo_inurba_marseille","lat":43.27354,"lon":5.36229,"is_reserved":false,"is_disabled":false,"rental_uris":{"android":"levelo://app?vid=1fa0fa4b-cff2-4dee-9dae-d7dec1739b50","ios":"levelo://app?vid=1fa0fa4b-cff2-4dee-9dae-d7dec1739b50"},"vehicle_type_id":"4","last_reported":1784293429,"current_range_meters":13600,"station_id":"ce4bhbh2rcd13ifvqeo0","pricing_plan_id":"cebpf4jnsgd1na2vs0mg"},{"bike_id":"5dcd30ca-cf51-4a1d-b79a-c73dfa10ebc1","system_id":"levelo_inurba_marseille","lat":43.21757,"lon":5.34602,"is_reserved":false,"is_disabled":false,"rental_uris":{"android":"levelo://app?vid=5dcd30ca-cf51-4a1d-b79a-c73dfa10ebc1","ios":"levelo://app?vid=5dcd30ca-cf51-4a1d-b79a-c73dfa10ebc1"},"vehicle_type_id":"4","last_reported":1784293429,"current_range_meters":14800,"station_id":"st_cvj6r9ubvosntc0bgbag","pricing_plan_id":"cebpf4jnsgd1na2vs0mg"},{"bike_id":"b5306203-c67d-425d-bcd1-9b3c52e4bccc","system_id":"levelo_inurba_marseille","lat":43.23962,"lon":5.36638,"is_reserved":false,"is_disabled":false,"rental_uris":{"android":"levelo://app?vid=b5306203-c67d-425d-bcd1-9b3c52e4bccc","ios":"levelo://app?vid=b5306203-c67d-425d-bcd1-9b3c52e4bccc"},"vehicle_type_id":"4","last_reported":1784293429,"current_range_meters":22400,"station_id":"ce4bhi12rcd13ifvqfp0","pricing_plan_id":"cebpf4jnsgd1na2vs0mg"},{"bike_id":"57889d2e-37dd-4f8f-b3ab-1bc0a62b2215","system_id":"levelo_inurba_marseille","lat":43.3046,"lon":5.37895,"is_reserved":false,"is_disabled":true,"rental_uris":{"android":"levelo://app?vid=57889d2e-37dd-4f8f-b3ab-1bc0a62b2215","ios":"levelo://app?vid=57889d2e-37dd-4f8f-b3ab-1bc0a62b2215"},"vehicle_type_id":"4","last_reported":1784293429,"current_range_meters":26000,"station_id":"ce4bgup2rcd13ifvqcn0","pricing_plan_id":"cebpf4jnsgd1na2vs0mg"},{"bike_id":"009344f6-efa1-4020-b65e-c475fcc0f9a5","system_id":"levelo_inurba_marseille","lat":43.28723,"lon":5.36078,"is_reserved":false,"is_disabled":false,"rental_uris":{"android":"levelo://app?vid=009344f6-efa1-4020-b65e-c475fcc0f9a5","ios":"levelo://app?vid=009344f6-efa1-4020-b65e-c475fcc0f9a5"},"vehicle_type_id":"4","last_reported":1784293429,"current_range_meters":8000,"station_id":"cki0cbj6b192h4jlfktg","pricing_plan_id":"cebpf4jnsgd1na2vs0mg"},{"bike_id":"8946fedd-2e32-49ed-b51d-8d2209da3742","system_id":"levelo_inurba_marseille","lat":43.2942,"lon":5.38135,"is_reserved":false,"is_disabled":false,"rental_uris":{"android":"levelo://app?vid=8946fedd-2e32-49ed-b51d-8d2209da3742","ios":"levelo://app?vid=8946fedd-2e32-49ed-b51d-8d2209da3742"},"vehicle_type_id":"4","last_reported":1784293429,"current_range_meters":8400,"station_id":"","pricing_plan_id":"cebpf4jnsgd1na2vs0mg"},{"bike_id":"168b110b-5244-4cdb-b2ce-e5f2cc65a7ff","system_id":"levelo_inurba_marseille","lat":43.26934,"lon":5.38908,"is_reserved":false,"is_disabled":false,"rental_uris":{"android":"levelo://app?vid=168b110b-5244-4cdb-b2ce-e5f2cc65a7ff","ios":"levelo://app?vid=168b110b-5244-4cdb-b2ce-e5f2cc65a7ff"},"vehicle_type_id":"4","last_reported":1784293429,"current_range_meters":38400,"station_id":"ce4bhhh2rcd13ifvqfl0","pricing_plan_id":"cebpf4jnsgd1na2vs0mg"},{"bike_id":"51905566-557d-413c-97fd-b84daf11e827","system_id":"levelo_inurba_marseille","lat":43.27926,"lon":5.39596,"is_reserved":false,"is_disabled":true,"rental_uris":{"android":"levelo://app?vid=51905566-557d-413c-97fd-b84daf11e827","ios":"levelo://app?vid=51905566-557d-413c-97fd-b84daf11e827"},"vehicle_type_id":"4","last_reported":1784293429,"current_range_meters":30000,"station_id":"ce4bhf92rcd13ifvqf40","pricing_plan_id":"cebpf4jnsgd1na2vs0mg"},{"bike_id":"1fd3872c-1cbb-4e5b-97bc-1f5e2bf1ca78","system_id":"levelo_inurba_marseille","lat":43.231527,"lon":5.437046,"is_reserved":false,"is_disabled":false,"rental_uris":{"android":"levelo://app?vid=1fd3872c-1cbb-4e5b-97bc-1f5e2bf1ca78","ios":"levelo://app?vid=1fd3872c-1cbb-4e5b-97bc-1f5e2bf1ca78"},"vehicle_type_id":"4","last_reported":1784293429,"current_range_meters":36000,"station_id":"ce4bhmp2rcd13ifvqgog","pricing_plan_id":"cebpf4jnsgd1na2vs0mg"},{"bike_id":"04f79851-52e6-4303-9105-2ba3a3dca261","system_id":"levelo_inurba_marseille","lat":43.24402,"lon":5.37049,"is_reserved":false,"is_disabled":false,"rental_uris":{"android":"levelo://app?vid=04f79851-52e6-4303-9105-2ba3a3dca261","ios":"levelo://app?vid=04f79851-52e6-4303-9105-2ba3a3dca261"},"vehicle_type_id":"4","last_reported":1784293429,"current_range_meters":39200,"station_id":"ce4bhhh2rcd13ifvqfk0","pricing_plan_id":"cebpf4jnsgd1na2vs0mg"},{"bike_id":"78b472ae-7ca1-438d-a65f-f93d06645001","system_id":"levelo_inurba_marseille","lat":43.29199,"lon":5.36031,"is_reserved":false,"is_disabled":true,"rental_uris":{"android":"levelo://app?vid=78b472ae-7ca1-438d-a65f-f93d06645001","ios":"levelo://app?vid=78b472ae-7ca1-438d-a65f-f93d06645001"},"vehicle_type_id":"4","last_reported":1784293429,"current_range_meters":6800,"station_id":"","pricing_plan_id":"cebpf4jnsgd1na2vs0mg"},{"bike_id":"aea11bbc-2d6f-4be0-b121-dbc2d33dd165","system_id":"levelo_inurba_marseille","lat":43.32125,"lon":5.41541,"is_reserved":false,"is_disabled":false,"rental_uris":{"android":"levelo://app?vid=aea11bbc-2d6f-4be0-b121-dbc2d33dd165","ios":"levelo://app?vid=aea11bbc-2d6f-4be0-b121-dbc2d33dd165"},"vehicle_type_id":"4","last_reported":1784293429,"current_range_meters":39200,"station_id":"","pricing_plan_id":"cebpf4jnsgd1na2vs0mg"},{"bike_id":"b4946daf-69c3-40cd-9846-e8dc3a52f4e3","system_id":"levelo_inurba_marseille","lat":43.28469,"lon":5.34995,"is_reserved":false,"is_disabled":false,"rental_uris":{"android":"levelo://app?vid=b4946daf-69c3-40cd-9846-e8dc3a52f4e3","ios":"levelo://app?vid=b4946daf-69c3-40cd-9846-e8dc3a52f4e3"},"vehicle_type_id":"4","last_reported":1784293429,"current_range_meters":37600,"station_id":"","pricing_plan_id":"cebpf4jnsgd1na2vs0mg"},{"bike_id":"ae9de1dc-4445-46f8-bb38-30842b21df5d","system_id":"levelo_inurba_marseille","lat":43.28461,"lon":5.35894,"is_reserved":false,"is_disabled":false,"rental_uris":{"android":"levelo://app?vid=ae9de1dc-4445-46f8-bb38-30842b21df5d","ios":"levelo://app?vid=ae9de1dc-4445-46f8-bb38-30842b21df5d"},"vehicle_type_id":"4","last_reported":1784293429,"current_range_meters":35200,"station_id":"ce4bhah2rcd13ifvqei0","pricing_plan_id":"cebpf4jnsgd1na2vs0mg"},{"bike_id":"96825e0c-14e6-44a1-9638-22706c4a0540","system_id":"levelo_inurba_marseille","lat":43.272077,"lon":5.391823,"is_reserved":false,"is_disabled":true,"rental_uris":{"android":"levelo://app?vid=96825e0c-14e6-44a1-9638-22706c4a0540","ios":"levelo://app?vid=96825e0c-14e6-44a1-9638-22706c4a0540"},"vehicle_type_id":"4","last_reported":1784293429,"current_range_meters":0,"station_id":"ce4bhhp2rcd13ifvqfm0","pricing_plan_id":"cebpf4jnsgd1na2vs0mg"},{"bike_id":"1fc72b78-c13c-4224-8573-caf0fb54f204","system_id":"levelo_inurba_marseille","lat":43.31483,"lon":5.37306,"is_reserved":false,"is_disabled":false,"rental_uris":{"android":"levelo://app?vid=1fc72b78-c13c-4224-8573-caf0fb54f204","ios":"levelo://app?vid=1fc72b78-c13c-4224-8573-caf0fb54f204"},"vehicle_type_id":"4","last_reported":1784293429,"current_range_meters":10800,"station_id":"ce4bgt12rcd13ifvqcd0","pricing_plan_id":"cebpf4jnsgd1na2vs0mg"},{"bike_id":"96cc5a5b-e0e9-4243-aa54-b5b446a3f18c","system_id":"levelo_inurba_marseille","lat":43.231898,"lon":5.399844,"is_reserved":false,"is_disabled":false,"rental_uris":{"android":"levelo://app?vid=96cc5a5b-e0e9-4243-aa54-b5b446a3f18c","ios":"levelo://app?vid=96cc5a5b-e0e9-4243-aa54-b5b446a3f18c"},"vehicle_type_id":"4","last_reported":1784293429,"current_range_meters":4000,"station_id":"ce4bhn12rcd13ifvqgqg","pricing_plan_id":"cebpf4jnsgd1na2vs0mg"},{"bike_id":"49336744-f847-4735-b223-cecf4946723e","system_id":"levelo_inurba_marseille","lat":43.26748,"lon":5.38258,"is_reserved":false,"is_disabled":false,"rental_uris":{"android":"levelo://app?vid=49336744-f847-4735-b223-cecf4946723e","ios":"levelo://app?vid=49336744-f847-4735-b223-cecf4946723e"},"vehicle_type_id":"4","last_reported":1784293429,"current_range_meters":34000,"station_id":"ce4bhg92rcd13ifvqf90","pricing_plan_id":"cebpf4jnsgd1na2vs0mg"},{"bike_id":"ebeb86f7-4534-4bb1-aa48-061858d8a660","system_id":"levelo_inurba_marseille","lat":43.2594,"lon":5.40888,"is_reserved":false,"is_disabled":false,"rental_uris":{"android":"levelo://app?vid=ebeb86f7-4534-4bb1-aa48-061858d8a660","ios":"levelo://app?vid=ebeb86f7-4534-4bb1-aa48-061858d8a660"},"vehicle_type_id":"4","last_reported":1784293429,"current_range_meters":15200,"station_id":"ce4bhm92rcd13ifvqglg","pricing_plan_id":"cebpf4jnsgd1na2vs0mg"},{"bike_id":"a40c1f61-68f5-4478-b6bb-de20c7899e21","system_id":"levelo_inurba_marseille","lat":43.26551,"lon":5.39022,"is_reserved":false,"is_disabled":false,"rental_uris":{"android":"levelo://app?vid=a40c1f61-68f5-4478-b6bb-de20c7899e21","ios":"levelo://app?vid=a40c1f61-68f5-4478-b6bb-de20c7899e21"},"vehicle_type_id":"4","last_reported":1784293429,"current_range_meters":20800,"station_id":"ce4bhe12rcd13ifvqf30","pricing_plan_id":"cebpf4jnsgd1na2vs0mg"},{"bike_id":"cbf57bb6-373a-442c-9860-92cf9215a1bb","system_id":"levelo_inurba_marseille","lat":43.30556,"lon":5.36557,"is_reserved":false,"is_disabled":true,"rental_uris":{"android":"levelo://app?vid=cbf57bb6-373a-442c-9860-92cf9215a1bb","ios":"levelo://app?vid=cbf57bb6-373a-442c-9860-92cf9215a1bb"},"vehicle_type_id":"4","last_reported":1784293429,"current_range_meters":28000,"station_id":"ce4bgs12rcd13ifvqcag","pricing_plan_id":"cebpf4jnsgd1na2vs0mg"},{"bike_id":"ca553299-8d31-49bd-a6b4-332c888225b5","system_id":"levelo_inurba_marseille","lat":43.25719,"lon":5.41117,"is_reserved":false,"is_disabled":false,"rental_uris":{"android":"levelo://app?vid=ca553299-8d31-49bd-a6b4-332c888225b5","ios":"levelo://app?vid=ca553299-8d31-49bd-a6b4-332c888225b5"},"vehicle_type_id":"4","last_reported":1784293429,"current_range_meters":34800,"station_id":"ce4bhkp2rcd13ifvqgd0","pricing_plan_id":"cebpf4jnsgd1na2vs0mg"},{"bike_id":"30bf9422-091f-41f1-a069-27627865ae23","system_id":"levelo_inurba_marseille","lat":43.21751,"lon":5.34602,"is_reserved":false,"is_disabled":false,"rental_uris":{"android":"levelo://app?vid=30bf9422-091f-41f1-a069-27627865ae23","ios":"levelo://app?vid=30bf9422-091f-41f1-a069-27627865ae23"},"vehicle_type_id":"4","last_reported":1784293429,"current_range_meters":36800,"station_id":"st_cvj6r9ubvosntc0bgbag","pricing_plan_id":"cebpf4jnsgd1na2vs0mg"},{"bike_id":"e8b2132e-2e2f-4678-bd27-ce3f9f11f158","system_id":"levelo_inurba_marseille","lat":43.30438,"lon":5.37911,"is_reserved":false,"is_disabled":true,"rental_uris":{"android":"levelo://app?vid=e8b2132e-2e2f-4678-bd27-ce3f9f11f158","ios":"levelo://app?vid=e8b2132e-2e2f-4678-bd27-ce3f9f11f158"},"vehicle_type_id":"4","last_reported":1784293429,"current_range_meters":19200,"station_id":"ce4bgup2rcd13ifvqcn0","pricing_plan_id":"cebpf4jnsgd1na2vs0mg"},{"bike_id":"17f00b12-f8d0-413a-b992-98dadbd11261","system_id":"levelo_inurba_marseille","lat":43.24998,"lon":5.38923,"is_reserved":false,"is_disabled":false,"rental_uris":{"android":"levelo://app?vid=17f00b12-f8d0-413a-b992-98dadbd11261","ios":"levelo://app?vid=17f00b12-f8d0-413a-b992-98dadbd11261"},"vehicle_type_id":"4","last_reported":1784293429,"current_range_meters":35600,"station_id":"ce4bhgp2rcd13ifvqfd0","pricing_plan_id":"cebpf4jnsgd1na2vs0mg"},{"bike_id":"f3ccdad0-a914-4d26-aee7-b5fb3cad59de","system_id":"levelo_inurba_marseille","lat":43.31335,"lon":5.36717,"is_reserved":false,"is_disabled":false,"rental_uris":{"android":"levelo://app?vid=f3ccdad0-a914-4d26-aee7-b5fb3cad59de","ios":"levelo://app?vid=f3ccdad0-a914-4d26-aee7-b5fb3cad59de"},"vehicle_type_id":"4","last_reported":1784293429,"current_range_meters":8800,"station_id":"ce4bgr92rcd13ifvqc6g","pricing_plan_id":"cebpf4jnsgd1na2vs0mg"},{"bike_id":"f96974ba-e6ad-4805-b9fc-bca3bdc6359f","system_id":"levelo_inurba_marseille","lat":43.24402,"lon":5.37044,"is_reserved":false,"is_disabled":false,"rental_uris":{"android":"levelo://app?vid=f96974ba-e6ad-4805-b9fc-bca3bdc6359f","ios":"levelo://app?vid=f96974ba-e6ad-4805-b9fc-bca3bdc6359f"},"vehicle_type_id":"4","last_reported":1784293429,"current_range_meters":25600,"station_id":"ce4bhhh2rcd13ifvqfk0","pricing_plan_id":"cebpf4jnsgd1na2vs0mg"},{"bike_id":"4f54c651-15d1-492f-8d09-70f1f809ad4f","system_id":"levelo_inurba_marseille","lat":43.27493,"lon":5.42547,"is_reserved":false,"is_disabled":false,"rental_uris":{"android":"levelo://app?vid=4f54c651-15d1-492f-8d09-70f1f809ad4f","ios":"levelo://app?vid=4f54c651-15d1-492f-8d09-70f1f809ad4f"},"vehicle_type_id":"4","last_reported":1784293429,"current_range_meters":29600,"station_id":"st_d8t4bh7nbrqs73arha60","pricing_plan_id":"cebpf4jnsgd1na2vs0mg"},{"bike_id":"e1102441-6b3f-49e5-87d2-8b10eca1a676","system_id":"levelo_inurba_marseille","lat":43.26198,"lon":5.37432,"is_reserved":false,"is_disabled":false,"rental_uris":{"android":"levelo://app?vid=e1102441-6b3f-49e5-87d2-8b10eca1a676","ios":"levelo://app?vid=e1102441-6b3f-49e5-87d2-8b10eca1a676"},"vehicle_type_id":"4","last_reported":1784293429,"current_range_meters":26800,"station_id":"ce4bhgp2rcd13ifvqfc0","pricing_plan_id":"cebpf4jnsgd1na2vs0mg"},{"bike_id":"4c3bc6ab-4050-437f-88fc-b705e8310160","system_id":"levelo_inurba_marseille","lat":43.31204,"lon":5.36891,"is_reserved":false,"is_disabled":false,"rental_uris":{"android":"levelo://app?vid=4c3bc6ab-4050-437f-88fc-b705e8310160","ios":"levelo://app?vid=4c3bc6ab-4050-437f-88fc-b705e8310160"},"vehicle_type_id":"4","last_reported":1784293429,"current_range_meters":35200,"station_id":"ce4bgl92rcd13ifvqbq0","pricing_plan_id":"cebpf4jnsgd1na2vs0mg"},{"bike_id":"c1324c9c-25ff-4be4-83c6-dc541ed3ad18","system_id":"levelo_inurba_marseille","lat":43.28403,"lon":5.34987,"is_reserved":false,"is_disabled":false,"rental_uris":{"android":"levelo://app?vid=c1324c9c-25ff-4be4-83c6-dc541ed3ad18","ios":"levelo://app?vid=c1324c9c-25ff-4be4-83c6-dc541ed3ad18"},"vehicle_type_id":"4","last_reported":1784293429,"current_range_meters":26000,"station_id":"ce4bhbh2rcd13ifvqepg","pricing_plan_id":"cebpf4jnsgd1na2vs0mg"},{"bike_id":"e35b3037-ccf2-48a7-b6f2-14a77143bba4","system_id":"levelo_inurba_marseille","lat":43.32354,"lon":5.36743,"is_reserved":false,"is_disabled":false,"rental_uris":{"android":"levelo://app?vid=e35b3037-ccf2-48a7-b6f2-14a77143bba4","ios":"levelo://app?vid=e35b3037-ccf2-48a7-b6f2-14a77143bba4"},"vehicle_type_id":"4","last_reported":1784293429,"current_range_meters":34800,"station_id":"ce4bhsh2rcd13ifvqi2g","pricing_plan_id":"cebpf4jnsgd1na2vs0mg"},{"bike_id":"0cc9064c-9e67-4dd7-b11e-84260d626c23","system_id":"levelo_inurba_marseille","lat":43.29905,"lon":5.38136,"is_reserved":false,"is_disabled":true,"rental_uris":{"android":"levelo://app?vid=0cc9064c-9e67-4dd7-b11e-84260d626c23","ios":"levelo://app?vid=0cc9064c-9e67-4dd7-b11e-84260d626c23"},"vehicle_type_id":"4","last_reported":1784293429,"current_range_meters":34000,"station_id":"ce4bgj12rcd13ifvqbc0","pricing_plan_id":"cebpf4jnsgd1na2vs0mg"},{"bike_id":"7a42978c-e1f0-4cac-a7eb-046de05ccaea","system_id":"levelo_inurba_marseille","lat":43.31249,"lon":5.36813,"is_reserved":false,"is_disabled":false,"rental_uris":{"android":"levelo://app?vid=7a42978c-e1f0-4cac-a7eb-046de05ccaea","ios":"levelo://app?vid=7a42978c-e1f0-4cac-a7eb-046de05ccaea"},"vehicle_type_id":"4","last_reported":1784293429,"current_range_meters":35200,"station_id":"ce4bgl92rcd13ifvqbq0","pricing_plan_id":"cebpf4jnsgd1na2vs0mg"},{"bike_id":"fdc37cb7-c1cb-43ee-960e-e9764c5b3a2c","system_id":"levelo_inurba_marseille","lat":43.27613,"lon":5.36116,"is_reserved":false,"is_disabled":false,"rental_uris":{"android":"levelo://app?vid=fdc37cb7-c1cb-43ee-960e-e9764c5b3a2c","ios":"levelo://app?vid=fdc37cb7-c1cb-43ee-960e-e9764c5b3a2c"},"vehicle_type_id":"4","last_reported":1784293429,"current_range_meters":3600,"station_id":"ce4bgj92rcd13ifvqbe0","pricing_plan_id":"cebpf4jnsgd1na2vs0mg"},{"bike_id":"56bb8f9a-e3bb-4f2c-9e33-e7915938f7e9","system_id":"levelo_inurba_marseille","lat":43.25725,"lon":5.41112,"is_reserved":false,"is_disabled":false,"rental_uris":{"android":"levelo://app?vid=56bb8f9a-e3bb-4f2c-9e33-e7915938f7e9","ios":"levelo://app?vid=56bb8f9a-e3bb-4f2c-9e33-e7915938f7e9"},"vehicle_type_id":"4","last_reported":1784293429,"current_range_meters":10000,"station_id":"ce4bhkp2rcd13ifvqgd0","pricing_plan_id":"cebpf4jnsgd1na2vs0mg"},{"bike_id":"366820f2-084f-4e6b-ba43-b1f63c9a2f11","system_id":"levelo_inurba_marseille","lat":43.28289,"lon":5.35084,"is_reserved":false,"is_disabled":false,"rental_uris":{"android":"levelo://app?vid=366820f2-084f-4e6b-ba43-b1f63c9a2f11","ios":"levelo://app?vid=366820f2-084f-4e6b-ba43-b1f63c9a2f11"},"vehicle_type_id":"4","last_reported":1784293429,"current_range_meters":22000,"station_id":"ce4bhbp2rcd13ifvqerg","pricing_plan_id":"cebpf4jnsgd1na2vs0mg"},{"bike_id":"d45333fb-8568-4470-852b-a80a11353993","system_id":"levelo_inurba_marseille","lat":43.25573,"lon":5.38242,"is_reserved":false,"is_disabled":false,"rental_uris":{"android":"levelo://app?vid=d45333fb-8568-4470-852b-a80a11353993","ios":"levelo://app?vid=d45333fb-8568-4470-852b-a80a11353993"},"vehicle_type_id":"4","last_reported":1784293429,"current_range_meters":20800,"station_id":"ce4bhih2rcd13ifvqfs0","pricing_plan_id":"cebpf4jnsgd1na2vs0mg"},{"bike_id":"fa1de817-f707-4c24-84db-ae345a294baf","system_id":"levelo_inurba_marseille","lat":43.30963,"lon":5.39044,"is_reserved":false,"is_disabled":false,"rental_uris":{"android":"levelo://app?vid=fa1de817-f707-4c24-84db-ae345a294baf","ios":"levelo://app?vid=fa1de817-f707-4c24-84db-ae345a294baf"},"vehicle_type_id":"4","last_reported":1784293429,"current_range_meters":36000,"station_id":"ce4bgup2rcd13ifvqco0","pricing_plan_id":"cebpf4jnsgd1na2vs0mg"},{"bike_id":"202f9ad0-42a8-41b4-9ba7-c7ec0280e620","system_id":"levelo_inurba_marseille","lat":43.23207,"lon":5.35565,"is_reserved":false,"is_disabled":false,"rental_uris":{"android":"levelo://app?vid=202f9ad0-42a8-41b4-9ba7-c7ec0280e620","ios":"levelo://app?vid=202f9ad0-42a8-41b4-9ba7-c7ec0280e620"},"vehicle_type_id":"4","last_reported":1784293429,"current_range_meters":38400,"station_id":"ce4bhu92rcd13ifvqi70","pricing_plan_id":"cebpf4jnsgd1na2vs0mg"},{"bike_id":"c1ee1d48-1ffa-40ca-a1df-8f0989c3a89e","system_id":"levelo_inurba_marseille","lat":43.3014,"lon":5.38097,"is_reserved":false,"is_disabled":false,"rental_uris":{"android":"levelo://app?vid=c1ee1d48-1ffa-40ca-a1df-8f0989c3a89e","ios":"levelo://app?vid=c1ee1d48-1ffa-40ca-a1df-8f0989c3a89e"},"vehicle_type_id":"4","last_reported":1784293429,"current_range_meters":28800,"station_id":"ce4bgjp2rcd13ifvqbh0","pricing_plan_id":"cebpf4jnsgd1na2vs0mg"},{"bike_id":"ce919813-724a-4d97-82ad-b1af9c37dc6d","system_id":"levelo_inurba_marseille","lat":43.24177,"lon":5.39726,"is_reserved":false,"is_disabled":false,"rental_uris":{"android":"levelo://app?vid=ce919813-724a-4d97-82ad-b1af9c37dc6d","ios":"levelo://app?vid=ce919813-724a-4d97-82ad-b1af9c37dc6d"},"vehicle_type_id":"4","last_reported":1784293429,"current_range_meters":39200,"station_id":"ce4bhn12rcd13ifvqgpg","pricing_plan_id":"cebpf4jnsgd1na2vs0mg"},{"bike_id":"f3955824-bc9b-40e3-bb4b-91c4e41aa833","system_id":"levelo_inurba_marseille","lat":43.30139,"lon":5.37414,"is_reserved":false,"is_disabled":true,"rental_uris":{"android":"levelo://app?vid=f3955824-bc9b-40e3-bb4b-91c4e41aa833","ios":"levelo://app?vid=f3955824-bc9b-40e3-bb4b-91c4e41aa833"},"vehicle_type_id":"4","last_reported":1784293429,"current_range_meters":16000,"station_id":"ce4bgs92rcd13ifvqcc0","pricing_plan_id":"cebpf4jnsgd1na2vs0mg"},{"bike_id":"26744c56-4822-43be-97b2-90ab757b9542","system_id":"levelo_inurba_marseille","lat":43.269454,"lon":5.402541,"is_reserved":false,"is_disabled":true,"rental_uris":{"android":"levelo://app?vid=26744c56-4822-43be-97b2-90ab757b9542","ios":"levelo://app?vid=26744c56-4822-43be-97b2-90ab757b9542"},"vehicle_type_id":"4","last_reported":1784293429,"current_range_meters":2000,"station_id":"cjm6bp8fraef2m0cb0m0","pricing_plan_id":"cebpf4jnsgd1na2vs0mg"},{"bike_id":"d3080228-6b70-492b-8795-04183ba0ffbf","system_id":"levelo_inurba_marseille","lat":43.26182,"lon":5.3874,"is_reserved":false,"is_disabled":false,"rental_uris":{"android":"levelo://app?vid=d3080228-6b70-492b-8795-04183ba0ffbf","ios":"levelo://app?vid=d3080228-6b70-492b-8795-04183ba0ffbf"},"vehicle_type_id":"4","last_reported":1784293429,"current_range_meters":38400,"station_id":"st_d8gjfg747rts73coq3b0","pricing_plan_id":"cebpf4jnsgd1na2vs0mg"},{"bike_id":"7610bc60-7731-4c65-befa-01880e1ef2b9","system_id":"levelo_inurba_marseille","lat":43.23167,"lon":5.43728,"is_reserved":false,"is_disabled":false,"rental_uris":{"android":"levelo://app?vid=7610bc60-7731-4c65-befa-01880e1ef2b9","ios":"levelo://app?vid=7610bc60-7731-4c65-befa-01880e1ef2b9"},"vehicle_type_id":"4","last_reported":1784293429,"current_range_meters":5600,"station_id":"ce4bhmp2rcd13ifvqgog","pricing_plan_id":"cebpf4jnsgd1na2vs0mg"},{"bike_id":"9fcc6580-5140-4641-a4b3-0e132312453f","system_id":"levelo_inurba_marseille","lat":43.286951,"lon":5.399864,"is_reserved":false,"is_disabled":false,"rental_uris":{"android":"levelo://app?vid=9fcc6580-5140-4641-a4b3-0e132312453f","ios":"levelo://app?vid=9fcc6580-5140-4641-a4b3-0e132312453f"},"vehicle_type_id":"4","last_reported":1784293429,"current_range_meters":30000,"station_id":"ce4bh392rcd13ifvqdm0","pricing_plan_id":"cebpf4jnsgd1na2vs0mg"},{"bike_id":"553fb599-9d9c-42b5-ab18-96881079f4d4","system_id":"levelo_inurba_marseille","lat":43.27358,"lon":5.36243,"is_reserved":false,"is_disabled":false,"rental_uris":{"android":"levelo://app?vid=553fb599-9d9c-42b5-ab18-96881079f4d4","ios":"levelo://app?vid=553fb599-9d9c-42b5-ab18-96881079f4d4"},"vehicle_type_id":"4","last_reported":1784293429,"current_range_meters":22000,"station_id":"ce4bhbh2rcd13ifvqeo0","pricing_plan_id":"cebpf4jnsgd1na2vs0mg"},{"bike_id":"0d3e100f-48fe-47e1-bef7-0a1dcfcc4955","system_id":"levelo_inurba_marseille","lat":43.33724,"lon":5.39214,"is_reserved":false,"is_disabled":false,"rental_uris":{"android":"levelo://app?vid=0d3e100f-48fe-47e1-bef7-0a1dcfcc4955","ios":"levelo://app?vid=0d3e100f-48fe-47e1-bef7-0a1dcfcc4955"},"vehicle_type_id":"4","last_reported":1784293429,"current_range_meters":30000,"station_id":"ce4bhr92rcd13ifvqhsg","pricing_plan_id":"cebpf4jnsgd1na2vs0mg"},{"bike_id":"8109b825-2eb6-467e-b313-e806da3e20b4","system_id":"levelo_inurba_marseille","lat":43.28146,"lon":5.42665,"is_reserved":false,"is_disabled":false,"rental_uris":{"android":"levelo://app?vid=8109b825-2eb6-467e-b313-e806da3e20b4","ios":"levelo://app?vid=8109b825-2eb6-467e-b313-e806da3e20b4"},"vehicle_type_id":"4","last_reported":1784293429,"current_range_meters":6800,"station_id":"ce4bhnh2rcd13ifvqgug","pricing_plan_id":"cebpf4jnsgd1na2vs0mg"},{"bike_id":"287adad5-5e66-4962-bf27-f75e78a46f79","system_id":"levelo_inurba_marseille","lat":43.297793,"lon":5.371108,"is_reserved":false,"is_disabled":false,"rental_uris":{"android":"levelo://app?vid=287adad5-5e66-4962-bf27-f75e78a46f79","ios":"levelo://app?vid=287adad5-5e66-4962-bf27-f75e78a46f79"},"vehicle_type_id":"4","last_reported":1784293429,"current_range_meters":38400,"station_id":"ce4bgop2rcd13ifvqc1g","pricing_plan_id":"cebpf4jnsgd1na2vs0mg"},{"bike_id":"ddbfbc6e-9ea5-4164-b0a2-7cc31ec7c025","system_id":"levelo_inurba_marseille","lat":43.32128,"lon":5.3678,"is_reserved":false,"is_disabled":false,"rental_uris":{"android":"levelo://app?vid=ddbfbc6e-9ea5-4164-b0a2-7cc31ec7c025","ios":"levelo://app?vid=ddbfbc6e-9ea5-4164-b0a2-7cc31ec7c025"},"vehicle_type_id":"4","last_reported":1784293429,"current_range_meters":18800,"station_id":"ce4bhrh2rcd13ifvqhug","pricing_plan_id":"cebpf4jnsgd1na2vs0mg"},{"bike_id":"a2bc6424-8ef1-4dd7-96d0-56e7a6c0df45","system_id":"levelo_inurba_marseille","lat":43.29192,"lon":5.35809,"is_reserved":false,"is_disabled":false,"rental_uris":{"android":"levelo://app?vid=a2bc6424-8ef1-4dd7-96d0-56e7a6c0df45","ios":"levelo://app?vid=a2bc6424-8ef1-4dd7-96d0-56e7a6c0df45"},"vehicle_type_id":"4","last_reported":1784293429,"current_range_meters":21600,"station_id":"ce4bhb12rcd13ifvqel0","pricing_plan_id":"cebpf4jnsgd1na2vs0mg"},{"bike_id":"b31f3439-8d64-49dd-9c96-ebe0e325aa03","system_id":"levelo_inurba_marseille","lat":43.30543,"lon":5.36538,"is_reserved":false,"is_disabled":false,"rental_uris":{"android":"levelo://app?vid=b31f3439-8d64-49dd-9c96-ebe0e325aa03","ios":"levelo://app?vid=b31f3439-8d64-49dd-9c96-ebe0e325aa03"},"vehicle_type_id":"4","last_reported":1784293429,"current_range_meters":7200,"station_id":"ce4bgs12rcd13ifvqcag","pricing_plan_id":"cebpf4jnsgd1na2vs0mg"},{"bike_id":"d2c6dc5b-50c1-41c0-8297-153e4140dd35","system_id":"levelo_inurba_marseille","lat":43.30543,"lon":5.36706,"is_reserved":false,"is_disabled":false,"rental_uris":{"android":"levelo://app?vid=d2c6dc5b-50c1-41c0-8297-153e4140dd35","ios":"levelo://app?vid=d2c6dc5b-50c1-41c0-8297-153e4140dd35"},"vehicle_type_id":"4","last_reported":1784293429,"current_range_meters":38400,"station_id":"ce4bgrp2rcd13ifvqc9g","pricing_plan_id":"cebpf4jnsgd1na2vs0mg"},{"bike_id":"82023b68-46df-41b5-9d8b-ec4c67021220","system_id":"levelo_inurba_marseille","lat":43.30233,"lon":5.40046,"is_reserved":false,"is_disabled":true,"rental_uris":{"android":"levelo://app?vid=82023b68-46df-41b5-9d8b-ec4c67021220","ios":"levelo://app?vid=82023b68-46df-41b5-9d8b-ec4c67021220"},"vehicle_type_id":"4","last_reported":1784293429,"current_range_meters":35600,"station_id":"ce4bgvh2rcd13ifvqcs0","pricing_plan_id":"cebpf4jnsgd1na2vs0mg"},{"bike_id":"ed52919d-93b3-4291-a04f-8f6270205c6e","system_id":"levelo_inurba_marseille","lat":43.23862,"lon":5.364998,"is_reserved":false,"is_disabled":false,"rental_uris":{"android":"levelo://app?vid=ed52919d-93b3-4291-a04f-8f6270205c6e","ios":"levelo://app?vid=ed52919d-93b3-4291-a04f-8f6270205c6e"},"vehicle_type_id":"4","last_reported":1784293429,"current_range_meters":12000,"station_id":"ce4bhi12rcd13ifvqfp0","pricing_plan_id":"cebpf4jnsgd1na2vs0mg"},{"bike_id":"9add7d9b-214a-40dc-a324-5a0e81d35b67","system_id":"levelo_inurba_marseille","lat":43.26563,"lon":5.40321,"is_reserved":false,"is_disabled":true,"rental_uris":{"android":"levelo://app?vid=9add7d9b-214a-40dc-a324-5a0e81d35b67","ios":"levelo://app?vid=9add7d9b-214a-40dc-a324-5a0e81d35b67"},"vehicle_type_id":"4","last_reported":1784293429,"current_range_meters":17200,"station_id":"ce4bhmp2rcd13ifvqgng","pricing_plan_id":"cebpf4jnsgd1na2vs0mg"},{"bike_id":"7d609cd8-5555-4970-a8e9-2081ad744fa5","system_id":"levelo_inurba_marseille","lat":43.25743,"lon":5.41097,"is_reserved":false,"is_disabled":false,"rental_uris":{"android":"levelo://app?vid=7d609cd8-5555-4970-a8e9-2081ad744fa5","ios":"levelo://app?vid=7d609cd8-5555-4970-a8e9-2081ad744fa5"},"vehicle_type_id":"4","last_reported":1784293429,"current_range_meters":40000,"station_id":"ce4bhkp2rcd13ifvqgd0","pricing_plan_id":"cebpf4jnsgd1na2vs0mg"},{"bike_id":"6ee73e46-4924-4e22-b765-feccd10ba2e7","system_id":"levelo_inurba_marseille","lat":43.24656,"lon":5.38879,"is_reserved":false,"is_disabled":false,"rental_uris":{"android":"levelo://app?vid=6ee73e46-4924-4e22-b765-feccd10ba2e7","ios":"levelo://app?vid=6ee73e46-4924-4e22-b765-feccd10ba2e7"},"vehicle_type_id":"4","last_reported":1784293429,"current_range_meters":8800,"station_id":"ce4bhg12rcd13ifvqf60","pricing_plan_id":"cebpf4jnsgd1na2vs0mg"},{"bike_id":"e35a471f-4162-47db-b945-02d55802c4cc","system_id":"levelo_inurba_marseille","lat":43.2853,"lon":5.44104,"is_reserved":false,"is_disabled":false,"rental_uris":{"android":"levelo://app?vid=e35a471f-4162-47db-b945-02d55802c4cc","ios":"levelo://app?vid=e35a471f-4162-47db-b945-02d55802c4cc"},"vehicle_type_id":"4","last_reported":1784293429,"current_range_meters":37600,"station_id":"st_d3j3df2ikq2c7380ej80","pricing_plan_id":"cebpf4jnsgd1na2vs0mg"},{"bike_id":"de33586d-1ad6-43fb-abac-eff95af90a64","system_id":"levelo_inurba_marseille","lat":43.26017,"lon":5.3754,"is_reserved":false,"is_disabled":false,"rental_uris":{"android":"levelo://app?vid=de33586d-1ad6-43fb-abac-eff95af90a64","ios":"levelo://app?vid=de33586d-1ad6-43fb-abac-eff95af90a64"},"vehicle_type_id":"4","last_reported":1784293429,"current_range_meters":23200,"station_id":"ce4bhgh2rcd13ifvqfa0","pricing_plan_id":"cebpf4jnsgd1na2vs0mg"},{"bike_id":"61804fc0-72a7-449f-ad34-2d4f7c8e20d0","system_id":"levelo_inurba_marseille","lat":43.27237,"lon":5.40852,"is_reserved":false,"is_disabled":false,"rental_uris":{"android":"levelo://app?vid=61804fc0-72a7-449f-ad34-2d4f7c8e20d0","ios":"levelo://app?vid=61804fc0-72a7-449f-ad34-2d4f7c8e20d0"},"vehicle_type_id":"4","last_reported":1784293429,"current_range_meters":25200,"station_id":"","pricing_plan_id":"cebpf4jnsgd1na2vs0mg"},{"bike_id":"19b0b2f8-4abf-4b95-87ff-e85edb44e6c4","system_id":"levelo_inurba_marseille","lat":43.27305,"lon":5.39107,"is_reserved":false,"is_disabled":false,"rental_uris":{"android":"levelo://app?vid=19b0b2f8-4abf-4b95-87ff-e85edb44e6c4","ios":"levelo://app?vid=19b0b2f8-4abf-4b95-87ff-e85edb44e6c4"},"vehicle_type_id":"4","last_reported":1784293429,"current_range_meters":36800,"station_id":"ce4bhgp2rcd13ifvqfe0","pricing_plan_id":"cebpf4jnsgd1na2vs0mg"},{"bike_id":"e97b200c-6383-439f-92b2-c588130c7681","system_id":"levelo_inurba_marseille","lat":43.269268,"lon":5.389179,"is_reserved":false,"is_disabled":false,"rental_uris":{"android":"levelo://app?vid=e97b200c-6383-439f-92b2-c588130c7681","ios":"levelo://app?vid=e97b200c-6383-439f-92b2-c588130c7681"},"vehicle_type_id":"4","last_reported":1784293429,"current_range_meters":29600,"station_id":"ce4bhhh2rcd13ifvqfl0","pricing_plan_id":"cebpf4jnsgd1na2vs0mg"},{"bike_id":"44a2d414-1ac1-4189-b47c-dc4459103bc9","system_id":"levelo_inurba_marseille","lat":43.33769,"lon":5.3744,"is_reserved":false,"is_disabled":false,"rental_uris":{"android":"levelo://app?vid=44a2d414-1ac1-4189-b47c-dc4459103bc9","ios":"levelo://app?vid=44a2d414-1ac1-4189-b47c-dc4459103bc9"},"vehicle_type_id":"4","last_reported":1784293429,"current_range_meters":39200,"station_id":"","pricing_plan_id":"cebpf4jnsgd1na2vs0mg"},{"bike_id":"b92582d7-69d4-493e-a0fe-c4cf66ff53e1","system_id":"levelo_inurba_marseille","lat":43.2439,"lon":5.37062,"is_reserved":false,"is_disabled":false,"rental_uris":{"android":"levelo://app?vid=b92582d7-69d4-493e-a0fe-c4cf66ff53e1","ios":"levelo://app?vid=b92582d7-69d4-493e-a0fe-c4cf66ff53e1"},"vehicle_type_id":"4","last_reported":1784293429,"current_range_meters":39200,"station_id":"ce4bhhh2rcd13ifvqfk0","pricing_plan_id":"cebpf4jnsgd1na2vs0mg"},{"bike_id":"5934dfff-666b-4536-966e-3a9ad6955bb0","system_id":"levelo_inurba_marseille","lat":43.29224,"lon":5.39985,"is_reserved":false,"is_disabled":false,"rental_uris":{"android":"levelo://app?vid=5934dfff-666b-4536-966e-3a9ad6955bb0","ios":"levelo://app?vid=5934dfff-666b-4536-966e-3a9ad6955bb0"},"vehicle_type_id":"4","last_reported":1784293429,"current_range_meters":8800,"station_id":"","pricing_plan_id":"cebpf4jnsgd1na2vs0mg"},{"bike_id":"eadbf5e7-6bfc-4e3a-b0e9-0f3c75f13d91","system_id":"levelo_inurba_marseille","lat":43.28085,"lon":5.37849,"is_reserved":false,"is_disabled":false,"rental_uris":{"android":"levelo://app?vid=eadbf5e7-6bfc-4e3a-b0e9-0f3c75f13d91","ios":"levelo://app?vid=eadbf5e7-6bfc-4e3a-b0e9-0f3c75f13d91"},"vehicle_type_id":"4","last_reported":1784293429,"current_range_meters":37600,"station_id":"ce4bha12rcd13ifvqee0","pricing_plan_id":"cebpf4jnsgd1na2vs0mg"},{"bike_id":"aa899d6f-0408-4a23-8d3b-ffb1059b430c","system_id":"levelo_inurba_marseille","lat":43.23967,"lon":5.36628,"is_reserved":false,"is_disabled":false,"rental_uris":{"android":"levelo://app?vid=aa899d6f-0408-4a23-8d3b-ffb1059b430c","ios":"levelo://app?vid=aa899d6f-0408-4a23-8d3b-ffb1059b430c"},"vehicle_type_id":"4","last_reported":1784293429,"current_range_meters":12000,"station_id":"ce4bhi12rcd13ifvqfp0","pricing_plan_id":"cebpf4jnsgd1na2vs0mg"},{"bike_id":"9dcfdf96-578b-46e7-b429-1767b2ea8f00","system_id":"levelo_inurba_marseille","lat":43.24667,"lon":5.38157,"is_reserved":false,"is_disabled":false,"rental_uris":{"android":"levelo://app?vid=9dcfdf96-578b-46e7-b429-1767b2ea8f00","ios":"levelo://app?vid=9dcfdf96-578b-46e7-b429-1767b2ea8f00"},"vehicle_type_id":"4","last_reported":1784293429,"current_range_meters":39200,"station_id":"ce4bhih2rcd13ifvqfr0","pricing_plan_id":"cebpf4jnsgd1na2vs0mg"},{"bike_id":"188163cf-083d-4db4-ad88-62be7d50188a","system_id":"levelo_inurba_marseille","lat":43.30311,"lon":5.36906,"is_reserved":false,"is_disabled":false,"rental_uris":{"android":"levelo://app?vid=188163cf-083d-4db4-ad88-62be7d50188a","ios":"levelo://app?vid=188163cf-083d-4db4-ad88-62be7d50188a"},"vehicle_type_id":"4","last_reported":1784293429,"current_range_meters":37600,"station_id":"ce4bgqh2rcd13ifvqc5g","pricing_plan_id":"cebpf4jnsgd1na2vs0mg"},{"bike_id":"f097acbb-94f0-4d20-a2f5-d173a4770543","system_id":"levelo_inurba_marseille","lat":43.24808,"lon":5.37454,"is_reserved":false,"is_disabled":false,"rental_uris":{"android":"levelo://app?vid=f097acbb-94f0-4d20-a2f5-d173a4770543","ios":"levelo://app?vid=f097acbb-94f0-4d20-a2f5-d173a4770543"},"vehicle_type_id":"4","last_reported":1784293429,"current_range_meters":34000,"station_id":"ce4bhgh2rcd13ifvqfb0","pricing_plan_id":"cebpf4jnsgd1na2vs0mg"},{"bike_id":"7604574c-06cb-407e-9e16-b7858411e1bc","system_id":"levelo_inurba_marseille","lat":43.27811,"lon":5.40726,"is_reserved":false,"is_disabled":true,"rental_uris":{"android":"levelo://app?vid=7604574c-06cb-407e-9e16-b7858411e1bc","ios":"levelo://app?vid=7604574c-06cb-407e-9e16-b7858411e1bc"},"vehicle_type_id":"4","last_reported":1784293429,"current_range_meters":22000,"station_id":"ce4bhnh2rcd13ifvqgtg","pricing_plan_id":"cebpf4jnsgd1na2vs0mg"},{"bike_id":"600d3649-4b6d-473c-a715-d27921e00684","system_id":"levelo_inurba_marseille","lat":43.23192,"lon":5.35562,"is_reserved":false,"is_disabled":false,"rental_uris":{"android":"levelo://app?vid=600d3649-4b6d-473c-a715-d27921e00684","ios":"levelo://app?vid=600d3649-4b6d-473c-a715-d27921e00684"},"vehicle_type_id":"4","last_reported":1784293429,"current_range_meters":25200,"station_id":"ce4bhu92rcd13ifvqi70","pricing_plan_id":"cebpf4jnsgd1na2vs0mg"},{"bike_id":"8f8a8912-ff73-435e-86be-51cd20511674","system_id":"levelo_inurba_marseille","lat":43.30962,"lon":5.39034,"is_reserved":false,"is_disabled":false,"rental_uris":{"android":"levelo://app?vid=8f8a8912-ff73-435e-86be-51cd20511674","ios":"levelo://app?vid=8f8a8912-ff73-435e-86be-51cd20511674"},"vehicle_type_id":"4","last_reported":1784293429,"current_range_meters":22400,"station_id":"ce4bgup2rcd13ifvqco0","pricing_plan_id":"cebpf4jnsgd1na2vs0mg"},{"bike_id":"352a99c8-a3bc-4fc7-8b10-2bb88aef4758","system_id":"levelo_inurba_marseille","lat":43.254993,"lon":5.376487,"is_reserved":false,"is_disabled":false,"rental_uris":{"android":"levelo://app?vid=352a99c8-a3bc-4fc7-8b10-2bb88aef4758","ios":"levelo://app?vid=352a99c8-a3bc-4fc7-8b10-2bb88aef4758"},"vehicle_type_id":"4","last_reported":1784293429,"current_range_meters":30000,"station_id":"ce4bhh12rcd13ifvqff0","pricing_plan_id":"cebpf4jnsgd1na2vs0mg"},{"bike_id":"3af4b440-6bf2-45da-ac21-ddaa96da1e8c","system_id":"levelo_inurba_marseille","lat":43.30373,"lon":5.41887,"is_reserved":false,"is_disabled":true,"rental_uris":{"android":"levelo://app?vid=3af4b440-6bf2-45da-ac21-ddaa96da1e8c","ios":"levelo://app?vid=3af4b440-6bf2-45da-ac21-ddaa96da1e8c"},"vehicle_type_id":"4","last_reported":1784293429,"current_range_meters":0,"station_id":"ce4bhop2rcd13ifvqh7g","pricing_plan_id":"cebpf4jnsgd1na2vs0mg"},{"bike_id":"ce02960d-7ee2-43c7-8c96-e65220fd09aa","system_id":"levelo_inurba_marseille","lat":43.29042,"lon":5.37562,"is_reserved":false,"is_disabled":false,"rental_uris":{"android":"levelo://app?vid=ce02960d-7ee2-43c7-8c96-e65220fd09aa","ios":"levelo://app?vid=ce02960d-7ee2-43c7-8c96-e65220fd09aa"},"vehicle_type_id":"4","last_reported":1784293429,"current_range_meters":4400,"station_id":"ce4bh692rcd13ifvqe90","pricing_plan_id":"cebpf4jnsgd1na2vs0mg"},{"bike_id":"61f91879-6716-4daa-b1d6-e53cb45051b5","system_id":"levelo_inurba_marseille","lat":43.27368,"lon":5.36236,"is_reserved":false,"is_disabled":false,"rental_uris":{"android":"levelo://app?vid=61f91879-6716-4daa-b1d6-e53cb45051b5","ios":"levelo://app?vid=61f91879-6716-4daa-b1d6-e53cb45051b5"},"vehicle_type_id":"4","last_reported":1784293429,"current_range_meters":7200,"station_id":"ce4bhbh2rcd13ifvqeo0","pricing_plan_id":"cebpf4jnsgd1na2vs0mg"},{"bike_id":"d1210815-3b6f-46d9-8562-5a9f90c2f696","system_id":"levelo_inurba_marseille","lat":43.29182,"lon":5.35792,"is_reserved":false,"is_disabled":true,"rental_uris":{"android":"levelo://app?vid=d1210815-3b6f-46d9-8562-5a9f90c2f696","ios":"levelo://app?vid=d1210815-3b6f-46d9-8562-5a9f90c2f696"},"vehicle_type_id":"4","last_reported":1784293429,"current_range_meters":10000,"station_id":"ce4bhb12rcd13ifvqel0","pricing_plan_id":"cebpf4jnsgd1na2vs0mg"},{"bike_id":"13e10cff-300f-47f7-be54-f61c4654fa80","system_id":"levelo_inurba_marseille","lat":43.27237,"lon":5.39151,"is_reserved":false,"is_disabled":false,"rental_uris":{"android":"levelo://app?vid=13e10cff-300f-47f7-be54-f61c4654fa80","ios":"levelo://app?vid=13e10cff-300f-47f7-be54-f61c4654fa80"},"vehicle_type_id":"4","last_reported":1784293429,"current_range_meters":4800,"station_id":"ce4bhhp2rcd13ifvqfm0","pricing_plan_id":"cebpf4jnsgd1na2vs0mg"},{"bike_id":"5dbb8e1b-cf12-4bdf-9b52-d9d2406d0321","system_id":"levelo_inurba_marseille","lat":43.28252,"lon":5.35079,"is_reserved":false,"is_disabled":false,"rental_uris":{"android":"levelo://app?vid=5dbb8e1b-cf12-4bdf-9b52-d9d2406d0321","ios":"levelo://app?vid=5dbb8e1b-cf12-4bdf-9b52-d9d2406d0321"},