{"last_updated":1729599490,"ttl":60,"version":"2.2","data":{"bikes":[{"bike_id":"1a9a0ffb-359e-4c3f-92bf-3e7aae804896","system_id":"levelo_inurba_marseille","lat":43.30934,"lon":5.40144,"is_reserved":false,"is_disabled":false,"rental_uris":{"android":"levelo://app?vid=1a9a0ffb-359e-4c3f-92bf-3e7aae804896","ios":"levelo://app?vid=1a9a0ffb-359e-4c3f-92bf-3e7aae804896"},"vehicle_type_id":"4","last_reported":1729599490,"current_range_meters":39200,"station_id":"ce4bgvp2rcd13ifvqct0","pricing_plan_id":"cebpf4jnsgd1na2vs0mg"},{"bike_id":"a29beb72-507c-4343-9f6b-7c76f5d39608","system_id":"levelo_inurba_marseille","lat":43.3361,"lon":5.41029,"is_reserved":false,"is_disabled":false,"rental_uris":{"android":"levelo://app?vid=a29beb72-507c-4343-9f6b-7c76f5d39608","ios":"levelo://app?vid=a29beb72-507c-4343-9f6b-7c76f5d39608"},"vehicle_type_id":"4","last_reported":1729599490,"current_range_meters":38800,"station_id":"ce4bhqh2rcd13ifvqhmg","pricing_plan_id":"cebpf4jnsgd1na2vs0mg"},{"bike_id":"a44f597d-12fd-40da-8896-20732a2deab9","system_id":"levelo_inurba_marseille","lat":43.284865,"lon":5.349998,"is_reserved":false,"is_disabled":false,"rental_uris":{"android":"levelo://app?vid=a44f597d-12fd-40da-8896-20732a2deab9","ios":"levelo://app?vid=a44f597d-12fd-40da-8896-20732a2deab9"},"vehicle_type_id":"4","last_reported":1729599490,"current_range_meters":28400,"station_id":"ce4bhbh2rcd13ifvqepg","pricing_plan_id":"cebpf4jnsgd1na2vs0mg"},{"bike_id":"cffef2ba-3853-49e9-b877-451ac3f6e219","system_id":"levelo_inurba_marseille","lat":43.25502,"lon":5.37647,"is_reserved":false,"is_disabled":false,"rental_uris":{"android":"levelo://app?vid=cffef2ba-3853-49e9-b877-451ac3f6e219","ios":"levelo://app?vid=cffef2ba-3853-49e9-b877-451ac3f6e219"},"vehicle_type_id":"4","last_reported":1729599490,"current_range_meters":5600,"station_id":"ce4bhh12rcd13ifvqff0","pricing_plan_id":"cebpf4jnsgd1na2vs0mg"},{"bike_id":"33e50f14-2846-4de4-b431-67af00fc6825","system_id":"levelo_inurba_marseille","lat":43.27908,"lon":5.38007,"is_reserved":false,"is_disabled":false,"rental_uris":{"android":"levelo://app?vid=33e50f14-2846-4de4-b431-67af00fc6825","ios":"levelo://app?vid=33e50f14-2846-4de4-b431-67af00fc6825"},"vehicle_type_id":"4","last_reported":1729599490,"current_range_meters":8800,"station_id":"ce4bhf92rcd13ifvqf50","pricing_plan_id":"cebpf4jnsgd1na2vs0mg"},{"bike_id":"f9446e24-66c0-49b0-b40b-67b75d44c9d2","system_id":"levelo_inurba_marseille","lat":43.27073,"lon":5.42281,"is_reserved":false,"is_disabled":false,"rental_uris":{"android":"levelo://app?vid=f9446e24-66c0-49b0-b40b-67b75d44c9d2","ios":"levelo://app?vid=f9446e24-66c0-49b0-b40b-67b75d44c9d2"},"vehicle_type_id":"4","last_reported":1729599490,"current_range_meters":38400,"station_id":"ce4bhk92rcd13ifvqgb0","pricing_plan_id":"cebpf4jnsgd1na2vs0mg"},{"bike_id":"2584cf3d-89d5-4195-9d04-86f9c5e39395","system_id":"levelo_inurba_marseille","lat":43.27376,"lon":5.36256,"is_reserved":false,"is_disabled":false,"rental_uris":{"android":"levelo://app?vid=2584cf3d-89d5-4195-9d04-86f9c5e39395","ios":"levelo://app?vid=2584cf3d-89d5-4195-9d04-86f9c5e39395"},"vehicle_type_id":"4","last_reported":1729599490,"current_range_meters":11200,"station_id":"ce4bhbh2rcd13ifvqeo0","pricing_plan_id":"cebpf4jnsgd1na2vs0mg"},{"bike_id":"96514785-d870-47b5-b81e-b009c40258ef","system_id":"levelo_inurba_marseille","lat":43.2439,"lon":5.37054,"is_reserved":false,"is_disabled":false,"rental_uris":{"android":"levelo://app?vid=96514785-d870-47b5-b81e-b009c40258ef","ios":"levelo://app?vid=96514785-d870-47b5-b81e-b009c40258ef"},"vehicle_type_id":"4","last_reported":1729599490,"current_range_meters":39200,"station_id":"ce4bhhh2rcd13ifvqfk0","pricing_plan_id":"cebpf4jnsgd1na2vs0mg"},{"bike_id":"056124ee-b6f9-468d-94ef-5fa46e18bd36","system_id":"levelo_inurba_marseille","lat":43.3361,"lon":5.41031,"is_reserved":false,"is_disabled":false,"rental_uris":{"android":"levelo://app?vid=056124ee-b6f9-468d-94ef-5fa46e18bd36","ios":"levelo://app?vid=056124ee-b6f9-468d-94ef-5fa46e18bd36"},"vehicle_type_id":"4","last_reported":1729599490,"current_range_meters":38800,"station_id":"ce4bhqh2rcd13ifvqhmg","pricing_plan_id":"cebpf4jnsgd1na2vs0mg"},{"bike_id":"5605a2d7-54b5-4c0a-9be6-c605de4b1bc0","system_id":"levelo_inurba_marseille","lat":43.337444,"lon":5.374475,"is_reserved":false,"is_disabled":false,"rental_uris":{"android":"levelo://app?vid=5605a2d7-54b5-4c0a-9be6-c605de4b1bc0","ios":"levelo://app?vid=5605a2d7-54b5-4c0a-9be6-c605de4b1bc0"},"vehicle_type_id":"4","last_reported":1729599490,"current_range_meters":30400,"station_id":"ce4bh0h2rcd13ifvqd60","pricing_plan_id":"cebpf4jnsgd1na2vs0mg"},{"bike_id":"c863ab3d-1edc-4863-a6c7-73e4e0932069","system_id":"levelo_inurba_marseille","lat":43.33604,"lon":5.41023,"is_reserved":false,"is_disabled":false,"rental_uris":{"android":"levelo://app?vid=c863ab3d-1edc-4863-a6c7-73e4e0932069","ios":"levelo://app?vid=c863ab3d-1edc-4863-a6c7-73e4e0932069"},"vehicle_type_id":"4","last_reported":1729599490,"current_range_meters":38800,"station_id":"ce4bhqh2rcd13ifvqhmg","pricing_plan_id":"cebpf4jnsgd1na2vs0mg"},{"bike_id":"d26720d8-0182-4601-851b-347232e3b2b6","system_id":"levelo_inurba_marseille","lat":43.27369,"lon":5.36256,"is_reserved":false,"is_disabled":false,"rental_uris":{"android":"levelo://app?vid=d26720d8-0182-4601-851b-347232e3b2b6","ios":"levelo://app?vid=d26720d8-0182-4601-851b-347232e3b2b6"},"vehicle_type_id":"4","last_reported":1729599490,"current_range_meters":26800,"station_id":"ce4bhbh2rcd13ifvqeo0","pricing_plan_id":"cebpf4jnsgd1na2vs0mg"},{"bike_id":"92bae46b-3cd6-4be8-aed3-27789b861965","system_id":"levelo_inurba_marseille","lat":43.29571,"lon":5.37515,"is_reserved":false,"is_disabled":false,"rental_uris":{"android":"levelo://app?vid=92bae46b-3cd6-4be8-aed3-27789b861965","ios":"levelo://app?vid=92bae46b-3cd6-4be8-aed3-27789b861965"},"vehicle_type_id":"4","last_reported":1729599490,"current_range_meters":32000,"station_id":"ce4bgh92rcd13ifvqb50","pricing_plan_id":"cebpf4jnsgd1na2vs0mg"},{"bike_id":"d99475f1-bfd0-4eb2-bb6f-0b0a169da311","system_id":"levelo_inurba_marseille","lat":43.25582,"lon":5.38228,"is_reserved":false,"is_disabled":false,"rental_uris":{"android":"levelo://app?vid=d99475f1-bfd0-4eb2-bb6f-0b0a169da311","ios":"levelo://app?vid=d99475f1-bfd0-4eb2-bb6f-0b0a169da311"},"vehicle_type_id":"4","last_reported":1729599490,"current_range_meters":10000,"station_id":"ce4bhih2rcd13ifvqfs0","pricing_plan_id":"cebpf4jnsgd1na2vs0mg"},{"bike_id":"bb516939-e453-4814-bb7e-a213fc325f2a","system_id":"levelo_inurba_marseille","lat":43.2497,"lon":5.40473,"is_reserved":false,"is_disabled":false,"rental_uris":{"android":"levelo://app?vid=bb516939-e453-4814-bb7e-a213fc325f2a","ios":"levelo://app?vid=bb516939-e453-4814-bb7e-a213fc325f2a"},"vehicle_type_id":"4","last_reported":1729599490,"current_range_meters":19200,"station_id":"","pricing_plan_id":"cebpf4jnsgd1na2vs0mg"},{"bike_id":"5c449356-4ac4-4d08-a405-c433fbe21a80","system_id":"levelo_inurba_marseille","lat":43.33761,"lon":5.3744,"is_reserved":false,"is_disabled":false,"rental_uris":{"android":"levelo://app?vid=5c449356-4ac4-4d08-a405-c433fbe21a80","ios":"levelo://app?vid=5c449356-4ac4-4d08-a405-c433fbe21a80"},"vehicle_type_id":"4","last_reported":1729599490,"current_range_meters":34000,"station_id":"","pricing_plan_id":"cebpf4jnsgd1na2vs0mg"},{"bike_id":"c32831a9-e064-4d70-bbdd-66063ddbadde","system_id":"levelo_inurba_marseille","lat":43.25938,"lon":5.40897,"is_reserved":false,"is_disabled":false,"rental_uris":{"android":"levelo://app?vid=c32831a9-e064-4d70-bbdd-66063ddbadde","ios":"levelo://app?vid=c32831a9-e064-4d70-bbdd-66063ddbadde"},"vehicle_type_id":"4","last_reported":1729599490,"current_range_meters":30800,"station_id":"ce4bhm92rcd13ifvqglg","pricing_plan_id":"cebpf4jnsgd1na2vs0mg"},{"bike_id":"347df4d0-3de0-4495-9fa3-4c4b56227a67","system_id":"levelo_inurba_marseille","lat":43.2407,"lon":5.37763,"is_reserved":false,"is_disabled":false,"rental_uris":{"android":"levelo://app?vid=347df4d0-3de0-4495-9fa3-4c4b56227a67","ios":"levelo://app?vid=347df4d0-3de0-4495-9fa3-4c4b56227a67"},"vehicle_type_id":"4","last_reported":1729599490,"current_range_meters":26000,"station_id":"ce4bhnp2rcd13ifvqgvg","pricing_plan_id":"cebpf4jnsgd1na2vs0mg"},{"bike_id":"19e1c8d1-0d94-48fb-9396-866b40a4d73d","system_id":"levelo_inurba_marseille","lat":43.24388,"lon":5.37057,"is_reserved":false,"is_disabled":false,"rental_uris":{"android":"levelo://app?vid=19e1c8d1-0d94-48fb-9396-866b40a4d73d","ios":"levelo://app?vid=19e1c8d1-0d94-48fb-9396-866b40a4d73d"},"vehicle_type_id":"4","last_reported":1729599490,"current_range_meters":29600,"station_id":"ce4bhhh2rcd13ifvqfk0","pricing_plan_id":"cebpf4jnsgd1na2vs0mg"},{"bike_id":"e6582e63-7e5d-493a-9170-f5faf28b017c","system_id":"levelo_inurba_marseille","lat":43.23975,"lon":5.36626,"is_reserved":false,"is_disabled":false,"rental_uris":{"android":"levelo://app?vid=e6582e63-7e5d-493a-9170-f5faf28b017c","ios":"levelo://app?vid=e6582e63-7e5d-493a-9170-f5faf28b017c"},"vehicle_type_id":"4","last_reported":1729599490,"current_range_meters":33600,"station_id":"ce4bhi12rcd13ifvqfp0","pricing_plan_id":"cebpf4jnsgd1na2vs0mg"},{"bike_id":"fe228314-5cc0-4207-9abb-800a21f4916a","system_id":"levelo_inurba_marseille","lat":43.26785,"lon":5.39446,"is_reserved":false,"is_disabled":false,"rental_uris":{"android":"levelo://app?vid=fe228314-5cc0-4207-9abb-800a21f4916a","ios":"levelo://app?vid=fe228314-5cc0-4207-9abb-800a21f4916a"},"vehicle_type_id":"4","last_reported":1729599490,"current_range_meters":9600,"station_id":"ce4bhh12rcd13ifvqfg0","pricing_plan_id":"cebpf4jnsgd1na2vs0mg"},{"bike_id":"fb4bb54f-669c-49ce-bdb4-d5a2296c6a0f","system_id":"levelo_inurba_marseille","lat":43.25825,"lon":5.39433,"is_reserved":false,"is_disabled":false,"rental_uris":{"android":"levelo://app?vid=fb4bb54f-669c-49ce-bdb4-d5a2296c6a0f","ios":"levelo://app?vid=fb4bb54f-669c-49ce-bdb4-d5a2296c6a0f"},"vehicle_type_id":"4","last_reported":1729599490,"current_range_meters":14400,"station_id":"ce4bhip2rcd13ifvqft0","pricing_plan_id":"cebpf4jnsgd1na2vs0mg"},{"bike_id":"196105d8-5dd7-4ba7-94b6-e0279001e933","system_id":"levelo_inurba_marseille","lat":43.23178,"lon":5.3998,"is_reserved":false,"is_disabled":false,"rental_uris":{"android":"levelo://app?vid=196105d8-5dd7-4ba7-94b6-e0279001e933","ios":"levelo://app?vid=196105d8-5dd7-4ba7-94b6-e0279001e933"},"vehicle_type_id":"4","last_reported":1729599490,"current_range_meters":18000,"station_id":"ce4bhn12rcd13ifvqgqg","pricing_plan_id":"cebpf4jnsgd1na2vs0mg"},{"bike_id":"6d53c141-c25a-4c03-bc57-5a71488e82a8","system_id":"levelo_inurba_marseille","lat":43.29905,"lon":5.37449,"is_reserved":false,"is_disabled":false,"rental_uris":{"android":"levelo://app?vid=6d53c141-c25a-4c03-bc57-5a71488e82a8","ios":"levelo://app?vid=6d53c141-c25a-4c03-bc57-5a71488e82a8"},"vehicle_type_id":"4","last_reported":1729599490,"current_range_meters":25600,"station_id":"ce4bgjh2rcd13ifvqbg0","pricing_plan_id":"cebpf4jnsgd1na2vs0mg"},{"bike_id":"079957d9-760c-47bf-ae79-16e2d1ebf037","system_id":"levelo_inurba_marseille","lat":43.32485,"lon":5.36556,"is_reserved":false,"is_disabled":false,"rental_uris":{"android":"levelo://app?vid=079957d9-760c-47bf-ae79-16e2d1ebf037","ios":"levelo://app?vid=079957d9-760c-47bf-ae79-16e2d1ebf037"},"vehicle_type_id":"4","last_reported":1729599490,"current_range_meters":38800,"station_id":"ce4bhs12rcd13ifvqhvg","pricing_plan_id":"cebpf4jnsgd1na2vs0mg"},{"bike_id":"6cb4fa0d-1f5f-4874-ad72-935b3d39b3ee","system_id":"levelo_inurba_marseille","lat":43.30887,"lon":5.37193,"is_reserved":false,"is_disabled":false,"rental_uris":{"android":"levelo://app?vid=6cb4fa0d-1f5f-4874-ad72-935b3d39b3ee","ios":"levelo://app?vid=6cb4fa0d-1f5f-4874-ad72-935b3d39b3ee"},"vehicle_type_id":"4","last_reported":1729599490,"current_range_meters":8800,"station_id":"ce4bguh2rcd13ifvqckg","pricing_plan_id":"cebpf4jnsgd1na2vs0mg"},{"bike_id":"a5d75ee9-6a2b-4d07-9f45-a4c08fa6e166","system_id":"levelo_inurba_marseille","lat":43.24071,"lon":5.37753,"is_reserved":false,"is_disabled":false,"rental_uris":{"android":"levelo://app?vid=a5d75ee9-6a2b-4d07-9f45-a4c08fa6e166","ios":"levelo://app?vid=a5d75ee9-6a2b-4d07-9f45-a4c08fa6e166"},"vehicle_type_id":"4","last_reported":1729599490,"current_range_meters":38800,"station_id":"ce4bhnp2rcd13ifvqgvg","pricing_plan_id":"cebpf4jnsgd1na2vs0mg"},{"bike_id":"f34a041a-5d75-4aae-be15-8fb6a6c68356","system_id":"levelo_inurba_marseille","lat":43.28618,"lon":5.35103,"is_reserved":false,"is_disabled":false,"rental_uris":{"android":"levelo://app?vid=f34a041a-5d75-4aae-be15-8fb6a6c68356","ios":"levelo://app?vid=f34a041a-5d75-4aae-be15-8fb6a6c68356"},"vehicle_type_id":"4","last_reported":1729599490,"current_range_meters":31200,"station_id":"ce4bhch2rcd13ifvqeug","pricing_plan_id":"cebpf4jnsgd1na2vs0mg"},{"bike_id":"62428d2a-360e-4277-b92a-9683ed817bf4","system_id":"levelo_inurba_marseille","lat":43.29881,"lon":5.38915,"is_reserved":false,"is_disabled":false,"rental_uris":{"android":"levelo://app?vid=62428d2a-360e-4277-b92a-9683ed817bf4","ios":"levelo://app?vid=62428d2a-360e-4277-b92a-9683ed817bf4"},"vehicle_type_id":"4","last_reported":1729599490,"current_range_meters":29600,"station_id":"ce4bh392rcd13ifvqdl0","pricing_plan_id":"cebpf4jnsgd1na2vs0mg"},{"bike_id":"408cbf17-c781-4424-ab3f-02b6b88382fd","system_id":"levelo_inurba_marseille","lat":43.25724,"lon":5.41107,"is_reserved":false,"is_disabled":false,"rental_uris":{"android":"levelo://app?vid=408cbf17-c781-4424-ab3f-02b6b88382fd","ios":"levelo://app?vid=408cbf17-c781-4424-ab3f-02b6b88382fd"},"vehicle_type_id":"4","last_reported":1729599490,"current_range_meters":38800,"station_id":"ce4bhkp2rcd13ifvqgd0","pricing_plan_id":"cebpf4jnsgd1na2vs0mg"},{"bike_id":"4618cc2c-fba6-4556-b7a3-f469bfff64e6","system_id":"levelo_inurba_marseille","lat":43.28411,"lon":5.34973,"is_reserved":false,"is_disabled":false,"rental_uris":{"android":"levelo://app?vid=4618cc2c-fba6-4556-b7a3-f469bfff64e6","ios":"levelo://app?vid=4618cc2c-fba6-4556-b7a3-f469bfff64e6"},"vehicle_type_id":"4","last_reported":1729599490,"current_range_meters":32800,"station_id":"ce4bhbh2rcd13ifvqepg","pricing_plan_id":"cebpf4jnsgd1na2vs0mg"},{"bike_id":"f7d7e980-5c84-4432-b54b-9d2a213d76b4","system_id":"levelo_inurba_marseille","lat":43.30911,"lon":5.36861,"is_reserved":false,"is_disabled":false,"rental_uris":{"android":"levelo://app?vid=f7d7e980-5c84-4432-b54b-9d2a213d76b4","ios":"levelo://app?vid=f7d7e980-5c84-4432-b54b-9d2a213d76b4"},"vehicle_type_id":"4","last_reported":1729599490,"current_range_meters":38800,"station_id":"ce4bgn92rcd13ifvqbvg","pricing_plan_id":"cebpf4jnsgd1na2vs0mg"},{"bike_id":"abe658d4-12a8-41db-b6b3-738fdbd608a2","system_id":"levelo_inurba_marseille","lat":43.23198,"lon":5.35554,"is_reserved":false,"is_disabled":false,"rental_uris":{"android":"levelo://app?vid=abe658d4-12a8-41db-b6b3-738fdbd608a2","ios":"levelo://app?vid=abe658d4-12a8-41db-b6b3-738fdbd608a2"},"vehicle_type_id":"4","last_reported":1729599490,"current_range_meters":36400,"station_id":"ce4bhu92rcd13ifvqi70","pricing_plan_id":"cebpf4jnsgd1na2vs0mg"},{"bike_id":"ecf5aaf1-3072-45c8-bc85-9209f1480bbf","system_id":"levelo_inurba_marseille","lat":43.23155,"lon":5.43698,"is_reserved":false,"is_disabled":false,"rental_uris":{"android":"levelo://app?vid=ecf5aaf1-3072-45c8-bc85-9209f1480bbf","ios":"levelo://app?vid=ecf5aaf1-3072-45c8-bc85-9209f1480bbf"},"vehicle_type_id":"4","last_reported":1729599490,"current_range_meters":23200,"station_id":"ce4bhmp2rcd13ifvqgog","pricing_plan_id":"cebpf4jnsgd1na2vs0mg"},{"bike_id":"11d62dc1-bb5b-4277-a735-a030d9efbc12","system_id":"levelo_inurba_marseille","lat":43.28472,"lon":5.38413,"is_reserved":false,"is_disabled":false,"rental_uris":{"android":"levelo://app?vid=11d62dc1-bb5b-4277-a735-a030d9efbc12","ios":"levelo://app?vid=11d62dc1-bb5b-4277-a735-a030d9efbc12"},"vehicle_type_id":"4","last_reported":1729599490,"current_range_meters":9600,"station_id":"ce4bh512rcd13ifvqe3g","pricing_plan_id":"cebpf4jnsgd1na2vs0mg"},{"bike_id":"7f10cbf0-a70a-4801-964b-6dc35d82da73","system_id":"levelo_inurba_marseille","lat":43.30143,"lon":5.37425,"is_reserved":false,"is_disabled":false,"rental_uris":{"android":"levelo://app?vid=7f10cbf0-a70a-4801-964b-6dc35d82da73","ios":"levelo://app?vid=7f10cbf0-a70a-4801-964b-6dc35d82da73"},"vehicle_type_id":"4","last_reported":1729599490,"current_range_meters":32000,"station_id":"ce4bgs92rcd13ifvqcc0","pricing_plan_id":"cebpf4jnsgd1na2vs0mg"},{"bike_id":"2c378b5e-cf63-40d7-8dd0-2f19b0b23948","system_id":"levelo_inurba_marseille","lat":43.32109,"lon":5.36769,"is_reserved":false,"is_disabled":false,"rental_uris":{"android":"levelo://app?vid=2c378b5e-cf63-40d7-8dd0-2f19b0b23948","ios":"levelo://app?vid=2c378b5e-cf63-40d7-8dd0-2f19b0b23948"},"vehicle_type_id":"4","last_reported":1729599490,"current_range_meters":33200,"station_id":"ce4bhrh2rcd13ifvqhug","pricing_plan_id":"cebpf4jnsgd1na2vs0mg"},{"bike_id":"b2e1c869-a3ab-499c-b5c6-de9c9df8d37c","system_id":"levelo_inurba_marseille","lat":43.3375,"lon":5.37485,"is_reserved":false,"is_disabled":false,"rental_uris":{"android":"levelo://app?vid=b2e1c869-a3ab-499c-b5c6-de9c9df8d37c","ios":"levelo://app?vid=b2e1c869-a3ab-499c-b5c6-de9c9df8d37c"},"vehicle_type_id":"4","last_reported":1729599490,"current_range_meters":38800,"station_id":"","pricing_plan_id":"cebpf4jnsgd1na2vs0mg"},{"bike_id":"60717735-8180-439d-aa16-1261afe15895","system_id":"levelo_inurba_marseille","lat":43.24177,"lon":5.39717,"is_reserved":false,"is_disabled":false,"rental_uris":{"android":"levelo://app?vid=60717735-8180-439d-aa16-1261afe15895","ios":"levelo://app?vid=60717735-8180-439d-aa16-1261afe15895"},"vehicle_type_id":"4","last_reported":1729599490,"current_range_meters":32800,"station_id":"ce4bhn12rcd13ifvqgpg","pricing_plan_id":"cebpf4jnsgd1na2vs0mg"},{"bike_id":"a8c440cd-deaf-4264-856e-72d146adb779","system_id":"levelo_inurba_marseille","lat":43.25874,"lon":5.39891,"is_reserved":false,"is_disabled":false,"rental_uris":{"android":"levelo://app?vid=a8c440cd-deaf-4264-856e-72d146adb779","ios":"levelo://app?vid=a8c440cd-deaf-4264-856e-72d146adb779"},"vehicle_type_id":"4","last_reported":1729599490,"current_range_meters":38800,"station_id":"ce4bhl92rcd13ifvqghg","pricing_plan_id":"cebpf4jnsgd1na2vs0mg"},{"bike_id":"309bb1c3-85e0-469d-b068-2e24a723c6dc","system_id":"levelo_inurba_marseille","lat":43.25934,"lon":5.40906,"is_reserved":false,"is_disabled":false,"rental_uris":{"android":"levelo://app?vid=309bb1c3-85e0-469d-b068-2e24a723c6dc","ios":"levelo://app?vid=309bb1c3-85e0-469d-b068-2e24a723c6dc"},"vehicle_type_id":"4","last_reported":1729599490,"current_range_meters":16000,"station_id":"ce4bhm92rcd13ifvqglg","pricing_plan_id":"cebpf4jnsgd1na2vs0mg"},{"bike_id":"3c2e9290-6792-4e2d-b00d-712b965be0bd","system_id":"levelo_inurba_marseille","lat":43.2558,"lon":5.38238,"is_reserved":false,"is_disabled":false,"rental_uris":{"android":"levelo://app?vid=3c2e9290-6792-4e2d-b00d-712b965be0bd","ios":"levelo://app?vid=3c2e9290-6792-4e2d-b00d-712b965be0bd"},"vehicle_type_id":"4","last_reported":1729599490,"current_range_meters":20400,"station_id":"ce4bhih2rcd13ifvqfs0","pricing_plan_id":"cebpf4jnsgd1na2vs0mg"},{"bike_id":"945fbd52-f6d5-41d3-aa72-2ac64cbc7aaa","system_id":"levelo_inurba_marseille","lat":43.2996,"lon":5.41318,"is_reserved":false,"is_disabled":false,"rental_uris":{"android":"levelo://app?vid=945fbd52-f6d5-41d3-aa72-2ac64cbc7aaa","ios":"levelo://app?vid=945fbd52-f6d5-41d3-aa72-2ac64cbc7aaa"},"vehicle_type_id":"4","last_reported":1729599490,"current_range_meters":38800,"station_id":"ce4bhp12rcd13ifvqh9g","pricing_plan_id":"cebpf4jnsgd1na2vs0mg"},{"bike_id":"d4ddd7e6-edd5-496f-8618-21a0383e2f40","system_id":"levelo_inurba_marseille","lat":43.28152,"lon":5.42649,"is_reserved":false,"is_disabled":false,"rental_uris":{"android":"levelo://app?vid=d4ddd7e6-edd5-496f-8618-21a0383e2f40","ios":"levelo://app?vid=d4ddd7e6-edd5-496f-8618-21a0383e2f40"},"vehicle_type_id":"4","last_reported":1729599490,"current_range_meters":32800,"station_id":"ce4bhnh2rcd13ifvqgug","pricing_plan_id":"cebpf4jnsgd1na2vs0mg"},{"bike_id":"ff1d3bac-e9bc-4002-960d-ae206533bfb0","system_id":"levelo_inurba_marseille","lat":43.32286,"lon":5.38273,"is_reserved":false,"is_disabled":false,"rental_uris":{"android":"levelo://app?vid=ff1d3bac-e9bc-4002-960d-ae206533bfb0","ios":"levelo://app?vid=ff1d3bac-e9bc-4002-960d-ae206533bfb0"},"vehicle_type_id":"4","last_reported":1729599490,"current_range_meters":25200,"station_id":"ce4bhr12rcd13ifvqhqg","pricing_plan_id":"cebpf4jnsgd1na2vs0mg"},{"bike_id":"5f85583f-7575-4731-acb0-3ad25a9d8a5a","system_id":"levelo_inurba_marseille","lat":43.28622,"lon":5.35101,"is_reserved":false,"is_disabled":false,"rental_uris":{"android":"levelo://app?vid=5f85583f-7575-4731-acb0-3ad25a9d8a5a","ios":"levelo://app?vid=5f85583f-7575-4731-acb0-3ad25a9d8a5a"},"vehicle_type_id":"4","last_reported":1729599490,"current_range_meters":36400,"station_id":"ce4bhch2rcd13ifvqeug","pricing_plan_id":"cebpf4jnsgd1na2vs0mg"},{"bike_id":"566ef3cd-3e87-4087-a6aa-32a145c590e2","system_id":"levelo_inurba_marseille","lat":43.25579,"lon":5.38234,"is_reserved":false,"is_disabled":false,"rental_uris":{"android":"levelo://app?vid=566ef3cd-3e87-4087-a6aa-32a145c590e2","ios":"levelo://app?vid=566ef3cd-3e87-4087-a6aa-32a145c590e2"},"vehicle_type_id":"4","last_reported":1729599490,"current_range_meters":12000,"station_id":"ce4bhih2rcd13ifvqfs0","pricing_plan_id":"cebpf4jnsgd1na2vs0mg"},{"bike_id":"e73397ec-41ef-401f-966f-7b0b12ace5aa","system_id":"levelo_inurba_marseille","lat":43.23202,"lon":5.35553,"is_reserved":false,"is_disabled":false,"rental_uris":{"android":"levelo://app?vid=e73397ec-41ef-401f-966f-7b0b12ace5aa","ios":"levelo://app?vid=e73397ec-41ef-401f-966f-7b0b12ace5aa"},"vehicle_type_id":"4","last_reported":1729599490,"current_range_meters":38800,"station_id":"ce4bhu92rcd13ifvqi70","pricing_plan_id":"cebpf4jnsgd1na2vs0mg"},{"bike_id":"2e834380-0591-4a5f-a7c6-ec896c58b9ae","system_id":"levelo_inurba_marseille","lat":43.31541,"lon":5.40364,"is_reserved":false,"is_disabled":false,"rental_uris":{"android":"levelo://app?vid=2e834380-0591-4a5f-a7c6-ec896c58b9ae","ios":"levelo://app?vid=2e834380-0591-4a5f-a7c6-ec896c58b9ae"},"vehicle_type_id":"4","last_reported":1729599490,"current_range_meters":27600,"station_id":"","pricing_plan_id":"cebpf4jnsgd1na2vs0mg"},{"bike_id":"9f35c55b-b874-4259-a892-a750cb503a48","system_id":"levelo_inurba_marseille","lat":43.28413,"lon":5.37505,"is_reserved":false,"is_disabled":false,"rental_uris":{"android":"levelo://app?vid=9f35c55b-b874-4259-a892-a750cb503a48","ios":"levelo://app?vid=9f35c55b-b874-4259-a892-a750cb503a48"},"vehicle_type_id":"4","last_reported":1729599490,"current_range_meters":30000,"station_id":"ce4bh412rcd13ifvqds0","pricing_plan_id":"cebpf4jnsgd1na2vs0mg"},{"bike_id":"a46224bf-1e23-44ee-9665-6762e802956f","system_id":"levelo_inurba_marseille","lat":43.25928,"lon":5.40905,"is_reserved":false,"is_disabled":false,"rental_uris":{"android":"levelo://app?vid=a46224bf-1e23-44ee-9665-6762e802956f","ios":"levelo://app?vid=a46224bf-1e23-44ee-9665-6762e802956f"},"vehicle_type_id":"4","last_reported":1729599490,"current_range_meters":34000,"station_id":"ce4bhm92rcd13ifvqglg","pricing_plan_id":"cebpf4jnsgd1na2vs0mg"},{"bike_id":"4db5f57a-1837-492d-ba97-4e606b1a8f25","system_id":"levelo_inurba_marseille","lat":43.24175,"lon":5.39725,"is_reserved":false,"is_disabled":false,"rental_uris":{"android":"levelo://app?vid=4db5f57a-1837-492d-ba97-4e606b1a8f25","ios":"levelo://app?vid=4db5f57a-1837-492d-ba97-4e606b1a8f25"},"vehicle_type_id":"4","last_reported":1729599490,"current_range_meters":37600,"station_id":"ce4bhn12rcd13ifvqgpg","pricing_plan_id":"cebpf4jnsgd1na2vs0mg"},{"bike_id":"a4bec522-c4e8-47bb-983c-2f5c3143ecc9","system_id":"levelo_inurba_marseille","lat":43.23147,"lon":5.43711,"is_reserved":false,"is_disabled":false,"rental_uris":{"android":"levelo://app?vid=a4bec522-c4e8-47bb-983c-2f5c3143ecc9","ios":"levelo://app?vid=a4bec522-c4e8-47bb-983c-2f5c3143ecc9"},"vehicle_type_id":"4","last_reported":1729599490,"current_range_meters":6800,"station_id":"ce4bhmp2rcd13ifvqgog","pricing_plan_id":"cebpf4jnsgd1na2vs0mg"},{"bike_id":"0542018d-404c-4931-92ac-7d497686214b","system_id":"levelo_inurba_marseille","lat":43.29556,"lon":5.42288,"is_reserved":false,"is_disabled":false,"rental_uris":{"android":"levelo://app?vid=0542018d-404c-4931-92ac-7d497686214b","ios":"levelo://app?vid=0542018d-404c-4931-92ac-7d497686214b"},"vehicle_type_id":"4","last_reported":1729599490,"current_range_meters":38400,"station_id":"ce4bhph2rcd13ifvqhdg","pricing_plan_id":"cebpf4jnsgd1na2vs0mg"},{"bike_id":"163ede73-88a2-4cca-b353-6a3929c4f05d","system_id":"levelo_inurba_marseille","lat":43.30137,"lon":5.38773,"is_reserved":false,"is_disabled":false,"rental_uris":{"android":"levelo://app?vid=163ede73-88a2-4cca-b353-6a3929c4f05d","ios":"levelo://app?vid=163ede73-88a2-4cca-b353-6a3929c4f05d"},"vehicle_type_id":"4","last_reported":1729599490,"current_range_meters":28800,"station_id":"ce4bghh2rcd13ifvqb60","pricing_plan_id":"cebpf4jnsgd1na2vs0mg"},{"bike_id":"18e129a9-8bc3-4a68-bc79-472894fdfcad","system_id":"levelo_inurba_marseille","lat":43.28413,"lon":5.34986,"is_reserved":false,"is_disabled":false,"rental_uris":{"android":"levelo://app?vid=18e129a9-8bc3-4a68-bc79-472894fdfcad","ios":"levelo://app?vid=18e129a9-8bc3-4a68-bc79-472894fdfcad"},"vehicle_type_id":"4","last_reported":1729599490,"current_range_meters":38800,"station_id":"ce4bhbh2rcd13ifvqepg","pricing_plan_id":"cebpf4jnsgd1na2vs0mg"},{"bike_id":"3e2af4df-ecc4-4737-b97b-a28a6c61f69c","system_id":"levelo_inurba_marseille","lat":43.30126,"lon":5.38757,"is_reserved":false,"is_disabled":false,"rental_uris":{"android":"levelo://app?vid=3e2af4df-ecc4-4737-b97b-a28a6c61f69c","ios":"levelo://app?vid=3e2af4df-ecc4-4737-b97b-a28a6c61f69c"},"vehicle_type_id":"4","last_reported":1729599490,"current_range_meters":11600,"station_id":"ce4bghh2rcd13ifvqb60","pricing_plan_id":"cebpf4jnsgd1na2vs0mg"},{"bike_id":"67349b8d-80b3-4749-832d-07f7e424b34c","system_id":"levelo_inurba_marseille","lat":43.26678,"lon":5.38265,"is_reserved":false,"is_disabled":false,"rental_uris":{"android":"levelo://app?vid=67349b8d-80b3-4749-832d-07f7e424b34c","ios":"levelo://app?vid=67349b8d-80b3-4749-832d-07f7e424b34c"},"vehicle_type_id":"4","last_reported":1729599490,"current_range_meters":38800,"station_id":"ce4bhg92rcd13ifvqf90","pricing_plan_id":"cebpf4jnsgd1na2vs0mg"},{"bike_id":"2f8adabc-5094-4e41-833e-591be121963d","system_id":"levelo_inurba_marseille","lat":43.29577,"lon":5.36738,"is_reserved":false,"is_disabled":false,"rental_uris":{"android":"levelo://app?vid=2f8adabc-5094-4e41-833e-591be121963d","ios":"levelo://app?vid=2f8adabc-5094-4e41-833e-591be121963d"},"vehicle_type_id":"4","last_reported":1729599490,"current_range_meters":24800,"station_id":"ce4bgph2rcd13ifvqc2g","pricing_plan_id":"cebpf4jnsgd1na2vs0mg"},{"bike_id":"435e7538-a878-4ef7-8587-4a1c9e01de76","system_id":"levelo_inurba_marseille","lat":43.27176,"lon":5.40994,"is_reserved":false,"is_disabled":false,"rental_uris":{"android":"levelo://app?vid=435e7538-a878-4ef7-8587-4a1c9e01de76","ios":"levelo://app?vid=435e7538-a878-4ef7-8587-4a1c9e01de76"},"vehicle_type_id":"4","last_reported":1729599490,"current_range_meters":36800,"station_id":"ce4bhl12rcd13ifvqgf0","pricing_plan_id":"cebpf4jnsgd1na2vs0mg"},{"bike_id":"cafb3b37-d6f2-4602-b556-77ade3996a77","system_id":"levelo_inurba_marseille","lat":43.2849,"lon":5.37183,"is_reserved":false,"is_disabled":false,"rental_uris":{"android":"levelo://app?vid=cafb3b37-d6f2-4602-b556-77ade3996a77","ios":"levelo://app?vid=cafb3b37-d6f2-4602-b556-77ade3996a77"},"vehicle_type_id":"4","last_reported":1729599490,"current_range_meters":6400,"station_id":"","pricing_plan_id":"cebpf4jnsgd1na2vs0mg"},{"bike_id":"329e34a1-a00f-4e18-bdf0-6a4c260693f9","system_id":"levelo_inurba_marseille","lat":43.29981,"lon":5.37179,"is_reserved":false,"is_disabled":false,"rental_uris":{"android":"levelo://app?vid=329e34a1-a00f-4e18-bdf0-6a4c260693f9","ios":"levelo://app?vid=329e34a1-a00f-4e18-bdf0-6a4c260693f9"},"vehicle_type_id":"4","last_reported":1729599490,"current_range_meters":9600,"station_id":"ce4bgr92rcd13ifvqc7g","pricing_plan_id":"cebpf4jnsgd1na2vs0mg"},{"bike_id":"af99bbf6-6362-4f23-9762-0d2c0f85538f","system_id":"levelo_inurba_marseille","lat":43.31345,"lon":5.3672,"is_reserved":false,"is_disabled":false,"rental_uris":{"android":"levelo://app?vid=af99bbf6-6362-4f23-9762-0d2c0f85538f","ios":"levelo://app?vid=af99bbf6-6362-4f23-9762-0d2c0f85538f"},"vehicle_type_id":"4","last_reported":1729599490,"current_range_meters":36000,"station_id":"ce4bgr92rcd13ifvqc6g","pricing_plan_id":"cebpf4jnsgd1na2vs0mg"},{"bike_id":"4c72ed75-c17d-47e2-8bb4-e2449803bf90","system_id":"levelo_inurba_marseille","lat":43.29957,"lon":5.41323,"is_reserved":false,"is_disabled":false,"rental_uris":{"android":"levelo://app?vid=4c72ed75-c17d-47e2-8bb4-e2449803bf90","ios":"levelo://app?vid=4c72ed75-c17d-47e2-8bb4-e2449803bf90"},"vehicle_type_id":"4","last_reported":1729599490,"current_range_meters":38800,"station_id":"ce4bhp12rcd13ifvqh9g","pricing_plan_id":"cebpf4jnsgd1na2vs0mg"},{"bike_id":"804fb848-57f6-4944-985c-c6acefd10248","system_id":"levelo_inurba_marseille","lat":43.28152,"lon":5.42647,"is_reserved":false,"is_disabled":false,"rental_uris":{"android":"levelo://app?vid=804fb848-57f6-4944-985c-c6acefd10248","ios":"levelo://app?vid=804fb848-57f6-4944-985c-c6acefd10248"},"vehicle_type_id":"4","last_reported":1729599490,"current_range_meters":38800,"station_id":"ce4bhnh2rcd13ifvqgug","pricing_plan_id":"cebpf4jnsgd1na2vs0mg"},{"bike_id":"15a1206b-e1d3-478c-a77a-5d3b2979f233","system_id":"levelo_inurba_marseille","lat":43.27325,"lon":5.3907,"is_reserved":false,"is_disabled":false,"rental_uris":{"android":"levelo://app?vid=15a1206b-e1d3-478c-a77a-5d3b2979f233","ios":"levelo://app?vid=15a1206b-e1d3-478c-a77a-5d3b2979f233"},"vehicle_type_id":"4","last_reported":1729599490,"current_range_meters":23200,"station_id":"ce4bhgp2rcd13ifvqfe0","pricing_plan_id":"cebpf4jnsgd1na2vs0mg"},{"bike_id":"28ff1258-a8c8-4c48-9d84-229b8dc091b8","system_id":"levelo_inurba_marseille","lat":43.29585,"lon":5.3674,"is_reserved":false,"is_disabled":false,"rental_uris":{"android":"levelo://app?vid=28ff1258-a8c8-4c48-9d84-229b8dc091b8","ios":"levelo://app?vid=28ff1258-a8c8-4c48-9d84-229b8dc091b8"},"vehicle_type_id":"4","last_reported":1729599490,"current_range_meters":34000,"station_id":"ce4bgph2rcd13ifvqc2g","pricing_plan_id":"cebpf4jnsgd1na2vs0mg"},{"bike_id":"89c84006-607f-420d-94d1-949a4cab507e","system_id":"levelo_inurba_marseille","lat":43.30942,"lon":5.40149,"is_reserved":false,"is_disabled":false,"rental_uris":{"android":"levelo://app?vid=89c84006-607f-420d-94d1-949a4cab507e","ios":"levelo://app?vid=89c84006-607f-420d-94d1-949a4cab507e"},"vehicle_type_id":"4","last_reported":1729599490,"current_range_meters":36800,"station_id":"ce4bgvp2rcd13ifvqct0","pricing_plan_id":"cebpf4jnsgd1na2vs0mg"},{"bike_id":"9fe99e90-9f96-4760-984f-54643ba8205f","system_id":"levelo_inurba_marseille","lat":43.33612,"lon":5.41025,"is_reserved":false,"is_disabled":false,"rental_uris":{"android":"levelo://app?vid=9fe99e90-9f96-4760-984f-54643ba8205f","ios":"levelo://app?vid=9fe99e90-9f96-4760-984f-54643ba8205f"},"vehicle_type_id":"4","last_reported":1729599490,"current_range_meters":25600,"station_id":"ce4bhqh2rcd13ifvqhmg","pricing_plan_id":"cebpf4jnsgd1na2vs0mg"},{"bike_id":"0f075d40-fcf9-47c6-9718-536382077367","system_id":"levelo_inurba_marseille","lat":43.31067,"lon":5.40085,"is_reserved":false,"is_disabled":false,"rental_uris":{"android":"levelo://app?vid=0f075d40-fcf9-47c6-9718-536382077367","ios":"levelo://app?vid=0f075d40-fcf9-47c6-9718-536382077367"},"vehicle_type_id":"4","last_reported":1729599490,"current_range_meters":22400,"station_id":"","pricing_plan_id":"cebpf4jnsgd1na2vs0mg"},{"bike_id":"d67659aa-1879-49ff-9e21-343007f69c6c","system_id":"levelo_inurba_marseille","lat":43.30807,"lon":5.43525,"is_reserved":false,"is_disabled":false,"rental_uris":{"android":"levelo://app?vid=d67659aa-1879-49ff-9e21-343007f69c6c","ios":"levelo://app?vid=d67659aa-1879-49ff-9e21-343007f69c6c"},"vehicle_type_id":"4","last_reported":1729599490,"current_range_meters":38800,"station_id":"ce4bhph2rcd13ifvqheg","pricing_plan_id":"cebpf4jnsgd1na2vs0mg"},{"bike_id":"7a030e3c-23e0-4ae3-af5b-9d3c83efe74c","system_id":"levelo_inurba_marseille","lat":43.24394,"lon":5.37063,"is_reserved":false,"is_disabled":false,"rental_uris":{"android":"levelo://app?vid=7a030e3c-23e0-4ae3-af5b-9d3c83efe74c","ios":"levelo://app?vid=7a030e3c-23e0-4ae3-af5b-9d3c83efe74c"},"vehicle_type_id":"4","last_reported":1729599490,"current_range_meters":29600,"station_id":"ce4bhhh2rcd13ifvqfk0","pricing_plan_id":"cebpf4jnsgd1na2vs0mg"},{"bike_id":"880f7942-b7ef-4c3e-a937-c9106002a87e","system_id":"levelo_inurba_marseille","lat":43.32488,"lon":5.36575,"is_reserved":false,"is_disabled":false,"rental_uris":{"android":"levelo://app?vid=880f7942-b7ef-4c3e-a937-c9106002a87e","ios":"levelo://app?vid=880f7942-b7ef-4c3e-a937-c9106002a87e"},"vehicle_type_id":"4","last_reported":1729599490,"current_range_meters":25200,"station_id":"ce4bhs12rcd13ifvqhvg","pricing_plan_id":"cebpf4jnsgd1na2vs0mg"},{"bike_id":"1d1f509b-9264-4c16-8384-91bdd501e241","system_id":"levelo_inurba_marseille","lat":43.34141,"lon":5.40898,"is_reserved":false,"is_disabled":false,"rental_uris":{"android":"levelo://app?vid=1d1f509b-9264-4c16-8384-91bdd501e241","ios":"levelo://app?vid=1d1f509b-9264-4c16-8384-91bdd501e241"},"vehicle_type_id":"4","last_reported":1729599490,"current_range_meters":19200,"station_id":"ce4bhqh2rcd13ifvqhlg","pricing_plan_id":"cebpf4jnsgd1na2vs0mg"},{"bike_id":"93265824-278a-4a34-a661-306661f2c63b","system_id":"levelo_inurba_marseille","lat":43.291077,"lon":5.399764,"is_reserved":false,"is_disabled":false,"rental_uris":{"android":"levelo://app?vid=93265824-278a-4a34-a661-306661f2c63b","ios":"levelo://app?vid=93265824-278a-4a34-a661-306661f2c63b"},"vehicle_type_id":"4","last_reported":1729599490,"current_range_meters":8800,"station_id":"ce4bhh92rcd13ifvqfj0","pricing_plan_id":"cebpf4jnsgd1na2vs0mg"},{"bike_id":"e2e76edf-9e3e-4b3b-a34c-17e88b5a6776","system_id":"levelo_inurba_marseille","lat":43.29713,"lon":5.37702,"is_reserved":false,"is_disabled":false,"rental_uris":{"android":"levelo://app?vid=e2e76edf-9e3e-4b3b-a34c-17e88b5a6776","ios":"levelo://app?vid=e2e76edf-9e3e-4b3b-a34c-17e88b5a6776"},"vehicle_type_id":"4","last_reported":1729599490,"current_range_meters":38800,"station_id":"ce4bgkh2rcd13ifvqbl0","pricing_plan_id":"cebpf4jnsgd1na2vs0mg"},{"bike_id":"e71f336f-8cff-42c5-b46c-e4608e489f94","system_id":"levelo_inurba_marseille","lat":43.24076,"lon":5.37754,"is_reserved":false,"is_disabled":false,"rental_uris":{"android":"levelo://app?vid=e71f336f-8cff-42c5-b46c-e4608e489f94","ios":"levelo://app?vid=e71f336f-8cff-42c5-b46c-e4608e489f94"},"vehicle_type_id":"4","last_reported":1729599490,"current_range_meters":16800,"station_id":"ce4bhnp2rcd13ifvqgvg","pricing_plan_id":"cebpf4jnsgd1na2vs0mg"},{"bike_id":"a9d99a07-01a7-458e-972d-4ceef2e04eda","system_id":"levelo_inurba_marseille","lat":43.32489,"lon":5.36579,"is_reserved":false,"is_disabled":false,"rental_uris":{"android":"levelo://app?vid=a9d99a07-01a7-458e-972d-4ceef2e04eda","ios":"levelo://app?vid=a9d99a07-01a7-458e-972d-4ceef2e04eda"},"vehicle_type_id":"4","last_reported":1729599490,"current_range_meters":19200,"station_id":"ce4bhs12rcd13ifvqhvg","pricing_plan_id":"cebpf4jnsgd1na2vs0mg"},{"bike_id":"26b6d52d-0566-4908-b015-a804d21f4df3","system_id":"levelo_inurba_marseille","lat":43.24082,"lon":5.37743,"is_reserved":false,"is_disabled":false,"rental_uris":{"android":"levelo://app?vid=26b6d52d-0566-4908-b015-a804d21f4df3","ios":"levelo://app?vid=26b6d52d-0566-4908-b015-a804d21f4df3"},"vehicle_type_id":"4","last_reported":1729599490,"current_range_meters":36800,"station_id":"ce4bhnp2rcd13ifvqgvg","pricing_plan_id":"cebpf4jnsgd1na2vs0mg"},{"bike_id":"864575c1-85b8-4008-92ba-391073d4ed51","system_id":"levelo_inurba_marseille","lat":43.23189,"lon":5.35543,"is_reserved":false,"is_disabled":false,"rental_uris":{"android":"levelo://app?vid=864575c1-85b8-4008-92ba-391073d4ed51","ios":"levelo://app?vid=864575c1-85b8-4008-92ba-391073d4ed51"},"vehicle_type_id":"4","last_reported":1729599490,"current_range_meters":24800,"station_id":"ce4bhu92rcd13ifvqi70","pricing_plan_id":"cebpf4jnsgd1na2vs0mg"},{"bike_id":"571aa0d6-ef94-472e-9213-7a6435026915","system_id":"levelo_inurba_marseille","lat":43.28676,"lon":5.35164,"is_reserved":false,"is_disabled":false,"rental_uris":{"android":"levelo://app?vid=571aa0d6-ef94-472e-9213-7a6435026915","ios":"levelo://app?vid=571aa0d6-ef94-472e-9213-7a6435026915"},"vehicle_type_id":"4","last_reported":1729599490,"current_range_meters":3600,"station_id":"ce4bgj92rcd13ifvqbe0","pricing_plan_id":"cebpf4jnsgd1na2vs0mg"},{"bike_id":"4133b611-cc38-421e-b075-b22a2cb0af87","system_id":"levelo_inurba_marseille","lat":43.29224,"lon":5.36077,"is_reserved":false,"is_disabled":false,"rental_uris":{"android":"levelo://app?vid=4133b611-cc38-421e-b075-b22a2cb0af87","ios":"levelo://app?vid=4133b611-cc38-421e-b075-b22a2cb0af87"},"vehicle_type_id":"4","last_reported":1729599490,"current_range_meters":38400,"station_id":"ce4bhbh2rcd13ifvqeqg","pricing_plan_id":"cebpf4jnsgd1na2vs0mg"},{"bike_id":"fe9d12ef-2076-4385-9d89-9205ef8092c6","system_id":"levelo_inurba_marseille","lat":43.28405,"lon":5.34987,"is_reserved":false,"is_disabled":false,"rental_uris":{"android":"levelo://app?vid=fe9d12ef-2076-4385-9d89-9205ef8092c6","ios":"levelo://app?vid=fe9d12ef-2076-4385-9d89-9205ef8092c6"},"vehicle_type_id":"4","last_reported":1729599490,"current_range_meters":17200,"station_id":"ce4bhbh2rcd13ifvqepg","pricing_plan_id":"cebpf4jnsgd1na2vs0mg"},{"bike_id":"b1d05446-4fa0-441f-a751-26814a106f17","system_id":"levelo_inurba_marseille","lat":43.30551,"lon":5.3654,"is_reserved":false,"is_disabled":false,"rental_uris":{"android":"levelo://app?vid=b1d05446-4fa0-441f-a751-26814a106f17","ios":"levelo://app?vid=b1d05446-4fa0-441f-a751-26814a106f17"},"vehicle_type_id":"4","last_reported":1729599490,"current_range_meters":38800,"station_id":"ce4bgs12rcd13ifvqcag","pricing_plan_id":"cebpf4jnsgd1na2vs0mg"},{"bike_id":"0728974d-1ad5-4181-91f2-6035aab7157d","system_id":"levelo_inurba_marseille","lat":43.23196,"lon":5.35548,"is_reserved":false,"is_disabled":false,"rental_uris":{"android":"levelo://app?vid=0728974d-1ad5-4181-91f2-6035aab7157d","ios":"levelo://app?vid=0728974d-1ad5-4181-91f2-6035aab7157d"},"vehicle_type_id":"4","last_reported":1729599490,"current_range_meters":38800,"station_id":"ce4bhu92rcd13ifvqi70","pricing_plan_id":"cebpf4jnsgd1na2vs0mg"},{"bike_id":"daa87e2b-89c2-4c8f-8935-631baca4941b","system_id":"levelo_inurba_marseille","lat":43.24167,"lon":5.36398,"is_reserved":false,"is_disabled":false,"rental_uris":{"android":"levelo://app?vid=daa87e2b-89c2-4c8f-8935-631baca4941b","ios":"levelo://app?vid=daa87e2b-89c2-4c8f-8935-631baca4941b"},"vehicle_type_id":"4","last_reported":1729599490,"current_range_meters":17200,"station_id":"cpo36qri1sfpv3e86is0","pricing_plan_id":"cebpf4jnsgd1na2vs0mg"},{"bike_id":"c594f0bd-1238-4647-b774-19298d13964d","system_id":"levelo_inurba_marseille","lat":43.23959,"lon":5.36624,"is_reserved":false,"is_disabled":false,"rental_uris":{"android":"levelo://app?vid=c594f0bd-1238-4647-b774-19298d13964d","ios":"levelo://app?vid=c594f0bd-1238-4647-b774-19298d13964d"},"vehicle_type_id":"4","last_reported":1729599490,"current_range_meters":6400,"station_id":"ce4bhi12rcd13ifvqfp0","pricing_plan_id":"cebpf4jnsgd1na2vs0mg"},{"bike_id":"4fbc9bcd-f983-47d0-a432-134af039f6c8","system_id":"levelo_inurba_marseille","lat":43.23149,"lon":5.43717,"is_reserved":false,"is_disabled":false,"rental_uris":{"android":"levelo://app?vid=4fbc9bcd-f983-47d0-a432-134af039f6c8","ios":"levelo://app?vid=4fbc9bcd-f983-47d0-a432-134af039f6c8"},"vehicle_type_id":"4","last_reported":1729599490,"current_range_meters":16000,"station_id":"ce4bhmp2rcd13ifvqgog","pricing_plan_id":"cebpf4jnsgd1na2vs0mg"},{"bike_id":"e9f12530-4c17-4ae7-8291-262ad3d8f552","system_id":"levelo_inurba_marseille","lat":43.2679,"lon":5.39416,"is_reserved":false,"is_disabled":false,"rental_uris":{"android":"levelo://app?vid=e9f12530-4c17-4ae7-8291-262ad3d8f552","ios":"levelo://app?vid=e9f12530-4c17-4ae7-8291-262ad3d8f552"},"vehicle_type_id":"4","last_reported":1729599490,"current_range_meters":4400,"station_id":"ce4bhh12rcd13ifvqfg0","pricing_plan_id":"cebpf4jnsgd1na2vs0mg"},{"bike_id":"52bc770e-caa3-429e-90b1-eae6fc5536d3","system_id":"levelo_inurba_marseille","lat":43.24171,"lon":5.36401,"is_reserved":false,"is_disabled":false,"rental_uris":{"android":"levelo://app?vid=52bc770e-caa3-429e-90b1-eae6fc5536d3","ios":"levelo://app?vid=52bc770e-caa3-429e-90b1-eae6fc5536d3"},"vehicle_type_id":"4","last_reported":1729599490,"current_range_meters":14400,"station_id":"cpo36qri1sfpv3e86is0","pricing_plan_id":"cebpf4jnsgd1na2vs0mg"},{"bike_id":"34411301-8865-4b9b-b8f4-f9c430c9a797","system_id":"levelo_inurba_marseille","lat":43.27371,"lon":5.36243,"is_reserved":false,"is_disabled":false,"rental_uris":{"android":"levelo://app?vid=34411301-8865-4b9b-b8f4-f9c430c9a797","ios":"levelo://app?vid=34411301-8865-4b9b-b8f4-f9c430c9a797"},"vehicle_type_id":"4","last_reported":1729599490,"current_range_meters":3200,"station_id":"ce4bhbh2rcd13ifvqeo0","pricing_plan_id":"cebpf4jnsgd1na2vs0mg"},{"bike_id":"b80433ac-4b37-4869-84e8-91999a3765ef","system_id":"levelo_inurba_marseille","lat":43.33599,"lon":5.41019,"is_reserved":false,"is_disabled":false,"rental_uris":{"android":"levelo://app?vid=b80433ac-4b37-4869-84e8-91999a3765ef","ios":"levelo://app?vid=b80433ac-4b37-4869-84e8-91999a3765ef"},"vehicle_type_id":"4","last_reported":1729599490,"current_range_meters":26800,"station_id":"ce4bhqh2rcd13ifvqhmg","pricing_plan_id":"cebpf4jnsgd1na2vs0mg"},{"bike_id":"79a1e020-318b-42a1-a8c0-a424b1daf69e","system_id":"levelo_inurba_marseille","lat":43.296,"lon":5.36142,"is_reserved":false,"is_disabled":false,"rental_uris":{"android":"levelo://app?vid=79a1e020-318b-42a1-a8c0-a424b1daf69e","ios":"levelo://app?vid=79a1e020-318b-42a1-a8c0-a424b1daf69e"},"vehicle_type_id":"4","last_reported":1729599490,"current_range_meters":6000,"station_id":"","pricing_plan_id":"cebpf4jnsgd1na2vs0mg"},{"bike_id":"3e2c12b4-9b33-420b-a7d3-dfba53152df0","system_id":"levelo_inurba_marseille","lat":43.259314,"lon":5.39412,"is_reserved":false,"is_disabled":false,"rental_uris":{"android":"levelo://app?vid=3e2c12b4-9b33-420b-a7d3-dfba53152df0","ios":"levelo://app?vid=3e2c12b4-9b33-420b-a7d3-dfba53152df0"},"vehicle_type_id":"4","last_reported":1729599490,"current_range_meters":27200,"station_id":"ce4bhip2rcd13ifvqft0","pricing_plan_id":"cebpf4jnsgd1na2vs0mg"},{"bike_id":"cf10572f-6867-497c-bb83-43542424188c","system_id":"levelo_inurba_marseille","lat":43.29024,"lon":5.38125,"is_reserved":false,"is_disabled":false,"rental_uris":{"android":"levelo://app?vid=cf10572f-6867-497c-bb83-43542424188c","ios":"levelo://app?vid=cf10572f-6867-497c-bb83-43542424188c"},"vehicle_type_id":"4","last_reported":1729599490,"current_range_meters":33600,"station_id":"","pricing_plan_id":"cebpf4jnsgd1na2vs0mg"},{"bike_id":"6eced96a-b021-41b9-89bf-72379aa39c97","system_id":"levelo_inurba_marseille","lat":43.25924,"lon":5.40896,"is_reserved":false,"is_disabled":false,"rental_uris":{"android":"levelo://app?vid=6eced96a-b021-41b9-89bf-72379aa39c97","ios":"levelo://app?vid=6eced96a-b021-41b9-89bf-72379aa39c97"},"vehicle_type_id":"4","last_reported":1729599490,"current_range_meters":32400,"station_id":"ce4bhm92rcd13ifvqglg","pricing_plan_id":"cebpf4jnsgd1na2vs0mg"},{"bike_id":"df5cdff5-7cfb-4989-b9b6-4ce65a2f4fdb","system_id":"levelo_inurba_marseille","lat":43.29193,"lon":5.35812,"is_reserved":false,"is_disabled":false,"rental_uris":{"android":"levelo://app?vid=df5cdff5-7cfb-4989-b9b6-4ce65a2f4fdb","ios":"levelo://app?vid=df5cdff5-7cfb-4989-b9b6-4ce65a2f4fdb"},"vehicle_type_id":"4","last_reported":1729599490,"current_range_meters":16000,"station_id":"ce4bhb12rcd13ifvqel0","pricing_plan_id":"cebpf4jnsgd1na2vs0mg"},{"bike_id":"03add1c1-b997-4af0-8675-b43c8e7e3407","system_id":"levelo_inurba_marseille","lat":43.25502,"lon":5.37647,"is_reserved":false,"is_disabled":false,"rental_uris":{"android":"levelo://app?vid=03add1c1-b997-4af0-8675-b43c8e7e3407","ios":"levelo://app?vid=03add1c1-b997-4af0-8675-b43c8e7e3407"},"vehicle_type_id":"4","last_reported":1729599490,"current_range_meters":25600,"station_id":"ce4bhh12rcd13ifvqff0","pricing_plan_id":"cebpf4jnsgd1na2vs0mg"},{"bike_id":"2024b07b-e95a-46a6-8a70-400d4e43d242","system_id":"levelo_inurba_marseille","lat":43.26791,"lon":5.39407,"is_reserved":false,"is_disabled":false,"rental_uris":{"android":"levelo://app?vid=2024b07b-e95a-46a6-8a70-400d4e43d242","ios":"levelo://app?vid=2024b07b-e95a-46a6-8a70-400d4e43d242"},"vehicle_type_id":"4","last_reported":1729599490,"current_range_meters":8800,"station_id":"ce4bhh12rcd13ifvqfg0","pricing_plan_id":"cebpf4jnsgd1na2vs0mg"},{"bike_id":"b4b10b1c-d552-426e-bf84-da407775415c","system_id":"levelo_inurba_marseille","lat":43.290039,"lon":5.356156,"is_reserved":false,"is_disabled":false,"rental_uris":{"android":"levelo://app?vid=b4b10b1c-d552-426e-bf84-da407775415c","ios":"levelo://app?vid=b4b10b1c-d552-426e-bf84-da407775415c"},"vehicle_type_id":"4","last_reported":1729599490,"current_range_meters":16800,"station_id":"ce4bhb92rcd13ifvqen0","pricing_plan_id":"cebpf4jnsgd1na2vs0mg"},{"bike_id":"7adf842b-4b8c-4356-a23f-1be0cbaf4d21","system_id":"levelo_inurba_marseille","lat":43.23194,"lon":5.35544,"is_reserved":false,"is_disabled":false,"rental_uris":{"android":"levelo://app?vid=7adf842b-4b8c-4356-a23f-1be0cbaf4d21","ios":"levelo://app?vid=7adf842b-4b8c-4356-a23f-1be0cbaf4d21"},"vehicle_type_id":"4","last_reported":1729599490,"current_range_meters":9600,"station_id":"ce4bhu92rcd13ifvqi70","pricing_plan_id":"cebpf4jnsgd1na2vs0mg"},{"bike_id":"45495d78-6579-4baf-98bd-1b602f954d3e","system_id":"levelo_inurba_marseille","lat":43.32037,"lon":5.41576,"is_reserved":false,"is_disabled":false,"rental_uris":{"android":"levelo://app?vid=45495d78-6579-4baf-98bd-1b602f954d3e","ios":"levelo://app?vid=45495d78-6579-4baf-98bd-1b602f954d3e"},"vehicle_type_id":"4","last_reported":1729599490,"current_range_meters":22400,"station_id":"ce4bhq92rcd13ifvqhkg","pricing_plan_id":"cebpf4jnsgd1na2vs0mg"},{"bike_id":"3fbb21dc-457c-4028-8cc7-8a7ddebb915c","system_id":"levelo_inurba_marseille","lat":43.23197,"lon":5.35547,"is_reserved":false,"is_disabled":false,"rental_uris":{"android":"levelo://app?vid=3fbb21dc-457c-4028-8cc7-8a7ddebb915c","ios":"levelo://app?vid=3fbb21dc-457c-4028-8cc7-8a7ddebb915c"},"vehicle_type_id":"4","last_reported":1729599490,"current_range_meters":36400,"station_id":"ce4bhu92rcd13ifvqi70","pricing_plan_id":"cebpf4jnsgd1na2vs0mg"},{"bike_id":"8d66234d-ed10-4a56-b9bf-7024ed1a6c9c","system_id":"levelo_inurba_marseille","lat":43.32718,"lon":5.37937,"is_reserved":false,"is_disabled":false,"rental_uris":{"android":"levelo://app?vid=8d66234d-ed10-4a56-b9bf-7024ed1a6c9c","ios":"levelo://app?vid=8d66234d-ed10-4a56-b9bf-7024ed1a6c9c"},"vehicle_type_id":"4","last_reported":1729599490,"current_range_meters":6800,"station_id":"","pricing_plan_id":"cebpf4jnsgd1na2vs0mg"},{"bike_id":"72189515-16c7-48b8-ae0f-9bcc6ec065b6","system_id":"levelo_inurba_marseille","lat":43.2694,"lon":5.40243,"is_reserved":false,"is_disabled":false,"rental_uris":{"android":"levelo://app?vid=72189515-16c7-48b8-ae0f-9bcc6ec065b6","ios":"levelo://app?vid=72189515-16c7-48b8-ae0f-9bcc6ec065b6"},"vehicle_type_id":"4","last_reported":1729599490,"current_range_meters":18800,"station_id":"cjm6bp8fraef2m0cb0m0","pricing_plan_id":"cebpf4jnsgd1na2vs0mg"},{"bike_id":"2d6e63bd-2281-4194-88a2-9044b903a567","system_id":"levelo_inurba_marseille","lat":43.258633,"lon":5.398998,"is_reserved":false,"is_disabled":false,"rental_uris":{"android":"levelo://app?vid=2d6e63bd-2281-4194-88a2-9044b903a567","ios":"levelo://app?vid=2d6e63bd-2281-4194-88a2-9044b903a567"},"vehicle_type_id":"4","last_reported":1729599490,"current_range_meters":21600,"station_id":"ce4bhl92rcd13ifvqghg","pricing_plan_id":"cebpf4jnsgd1na2vs0mg"},{"bike_id":"f31324ed-9980-4ef2-b66e-6c1fb78515f9","system_id":"levelo_inurba_marseille","lat":43.29226,"lon":5.36069,"is_reserved":false,"is_disabled":false,"rental_uris":{"android":"levelo://app?vid=f31324ed-9980-4ef2-b66e-6c1fb78515f9","ios":"levelo://app?vid=f31324ed-9980-4ef2-b66e-6c1fb78515f9"},"vehicle_type_id":"4","last_reported":1729599490,"current_range_meters":24000,"station_id":"ce4bhbh2rcd13ifvqeqg","pricing_plan_id":"cebpf4jnsgd1na2vs0mg"},{"bike_id":"79ee31b4-e8ca-4b6e-9f74-30309a0e65d7","system_id":"levelo_inurba_marseille","lat":43.28611,"lon":5.37059,"is_reserved":false,"is_disabled":false,"rental_uris":{"android":"levelo://app?vid=79ee31b4-e8ca-4b6e-9f74-30309a0e65d7","ios":"levelo://app?vid=79ee31b4-e8ca-4b6e-9f74-30309a0e65d7"},"vehicle_type_id":"4","last_reported":1729599490,"current_range_meters":33200,"station_id":"ce4bht12rcd13ifvqi60","pricing_plan_id":"cebpf4jnsgd1na2vs0mg"},{"bike_id":"381240ae-0a2b-4391-9a6a-8aae2a77183c","system_id":"levelo_inurba_marseille","lat":43.25502,"lon":5.37645,"is_reserved":false,"is_disabled":false,"rental_uris":{"android":"levelo://app?vid=381240ae-0a2b-4391-9a6a-8aae2a77183c","ios":"levelo://app?vid=381240ae-0a2b-4391-9a6a-8aae2a77183c"},"vehicle_type_id":"4","last_reported":1729599490,"current_range_meters":36800,"station_id":"ce4bhh12rcd13ifvqff0","pricing_plan_id":"cebpf4jnsgd1na2vs0mg"},{"bike_id":"1d043a7e-e4a0-4b52-a511-dae1798912e1","system_id":"levelo_inurba_marseille","lat":43.28152,"lon":5.42628,"is_reserved":false,"is_disabled":false,"rental_uris":{"android":"levelo://app?vid=1d043a7e-e4a0-4b52-a511-dae1798912e1","ios":"levelo://app?vid=1d043a7e-e4a0-4b52-a511-dae1798912e1"},"vehicle_type_id":"4","last_reported":1729599490,"current_range_meters":36800,"station_id":"ce4bhnh2rcd13ifvqgug","pricing_plan_id":"cebpf4jnsgd1na2vs0mg"},{"bike_id":"4ceaa64e-8daf-456e-b4d7-9f8ff307ddf1","system_id":"levelo_inurba_marseille","lat":43.279972,"lon":5.387464,"is_reserved":false,"is_disabled":false,"rental_uris":{"android":"levelo://app?vid=4ceaa64e-8daf-456e-b4d7-9f8ff307ddf1","ios":"levelo://app?vid=4ceaa64e-8daf-456e-b4d7-9f8ff307ddf1"},"vehicle_type_id":"4","last_reported":1729599490,"current_range_meters":6800,"station_id":"ce4bhg12rcd13ifvqf80","pricing_plan_id":"cebpf4jnsgd1na2vs0mg"},{"bike_id":"00efb7ea-4935-4991-8e09-7c91b5acc755","system_id":"levelo_inurba_marseille","lat":43.29841,"lon":5.36257,"is_reserved":false,"is_disabled":false,"rental_uris":{"android":"levelo://app?vid=00efb7ea-4935-4991-8e09-7c91b5acc755","ios":"levelo://app?vid=00efb7ea-4935-4991-8e09-7c91b5acc755"},"vehicle_type_id":"4","last_reported":1729599490,"current_range_meters":22000,"station_id":"ce4bgpp2rcd13ifvqc3g","pricing_plan_id":"cebpf4jnsgd1na2vs0mg"},{"bike_id":"4c9cd873-b86d-45ed-8195-b76cbcf6fe83","system_id":"levelo_inurba_marseille","lat":43.25933,"lon":5.4091,"is_reserved":false,"is_disabled":false,"rental_uris":{"android":"levelo://app?vid=4c9cd873-b86d-45ed-8195-b76cbcf6fe83","ios":"levelo://app?vid=4c9cd873-b86d-45ed-8195-b76cbcf6fe83"},"vehicle_type_id":"4","last_reported":1729599490,"current_range_meters":32800,"station_id":"ce4bhm92rcd13ifvqglg","pricing_plan_id":"cebpf4jnsgd1na2vs0mg"},{"bike_id":"6cd915b7-8862-4c87-b58a-50cab51e10ad","system_id":"levelo_inurba_marseille","lat":43.29549,"lon":5.42278,"is_reserved":false,"is_disabled":false,"rental_uris":{"android":"levelo://app?vid=6cd915b7-8862-4c87-b58a-50cab51e10ad","ios":"levelo://app?vid=6cd915b7-8862-4c87-b58a-50cab51e10ad"},"vehicle_type_id":"4","last_reported":1729599490,"current_range_meters":20400,"station_id":"ce4bhph2rcd13ifvqhdg","pricing_plan_id":"cebpf4jnsgd1na2vs0mg"},{"bike_id":"b588381e-402d-4ab9-96b0-0e7756bdb50f","system_id":"levelo_inurba_marseille","lat":43.27063,"lon":5.40256,"is_reserved":false,"is_disabled":false,"rental_uris":{"android":"levelo://app?vid=b588381e-402d-4ab9-96b0-0e7756bdb50f","ios":"levelo://app?vid=b588381e-402d-4ab9-96b0-0e7756bdb50f"},"vehicle_type_id":"4","last_reported":1729599490,"current_range_meters":35600,"station_id":"ce4bhk92rcd13ifvqgc0","pricing_plan_id":"cebpf4jnsgd1na2vs0mg"},{"bike_id":"f48b9292-5b23-4c1d-b443-99520d182fe9","system_id":"levelo_inurba_marseille","lat":43.31706,"lon":5.37777,"is_reserved":false,"is_disabled":false,"rental_uris":{"android":"levelo://app?vid=f48b9292-5b23-4c1d-b443-99520d182fe9","ios":"levelo://app?vid=f48b9292-5b23-4c1d-b443-99520d182fe9"},"vehicle_type_id":"4","last_reported":1729599490,"current_range_meters":23200,"station_id":"ce4bgth2rcd13ifvqch0","pricing_plan_id":"cebpf4jnsgd1na2vs0mg"},{"bike_id":"985cb3b3-c8d0-422f-adbb-564783d99b93","system_id":"levelo_inurba_marseille","lat":43.28276,"lon":5.35068,"is_reserved":false,"is_disabled":false,"rental_uris":{"android":"levelo://app?vid=985cb3b3-c8d0-422f-adbb-564783d99b93","ios":"levelo://app?vid=985cb3b3-c8d0-422f-adbb-564783d99b93"},"vehicle_type_id":"4","last_reported":1729599490,"current_range_meters":38800,"station_id":"ce4bhbp2rcd13ifvqerg","pricing_plan_id":"cebpf4jnsgd1na2vs0mg"},{"bike_id":"fc25705f-5163-4173-a66b-86be426575c4","system_id":"levelo_inurba_marseille","lat":43.24392,"lon":5.37056,"is_reserved":false,"is_disabled":false,"rental_uris":{"android":"levelo://app?vid=fc25705f-5163-4173-a66b-86be426575c4","ios":"levelo://app?vid=fc25705f-5163-4173-a66b-86be426575c4"},"vehicle_type_id":"4","last_reported":1729599490,"current_range_meters":14400,"station_id":"ce4bhhh2rcd13ifvqfk0","pricing_plan_id":"cebpf4jnsgd1na2vs0mg"},{"bike_id":"155517ef-0a83-4c87-b2da-fb3d8d259bc7","system_id":"levelo_inurba_marseille","lat":43.25584,"lon":5.38233,"is_reserved":false,"is_disabled":false,"rental_uris":{"android":"levelo://app?vid=155517ef-0a83-4c87-b2da-fb3d8d259bc7","ios":"levelo://app?vid=155517ef-0a83-4c87-b2da-fb3d8d259bc7"},"vehicle_type_id":"4","last_reported":1729599490,"current_range_meters":36800,"station_id":"ce4bhih2rcd13ifvqfs0","pricing_plan_id":"cebpf4jnsgd1na2vs0mg"},{"bike_id":"db3a2b4c-3b74-441f-ac70-efb5c5f67d72","system_id":"levelo_inurba_marseille","lat":43.26685,"lon":5.38268,"is_reserved":false,"is_disabled":false,"rental_uris":{"android":"levelo://app?vid=db3a2b4c-3b74-441f-ac70-efb5c5f67d72","ios":"levelo://app?vid=db3a2b4c-3b74-441f-ac70-efb5c5f67d72"},"vehicle_type_id":"4","last_reported":1729599490,"current_range_meters":26000,"station_id":"ce4bhg92rcd13ifvqf90","pricing_plan_id":"cebpf4jnsgd1na2vs0mg"},{"bike_id":"ba40ace0-5c83-4f77-822c-2bfbcd8221ef","system_id":"levelo_inurba_marseille","lat":43.29957,"lon":5.41319,"is_reserved":false,"is_disabled":false,"rental_uris":{"android":"levelo://app?vid=ba40ace0-5c83-4f77-822c-2bfbcd8221ef","ios":"levelo://app?vid=ba40ace0-5c83-4f77-822c-2bfbcd8221ef"},"vehicle_type_id":"4","last_reported":1729599490,"current_range_meters":19200,"station_id":"ce4bhp12rcd13ifvqh9g","pricing_plan_id":"cebpf4jnsgd1na2vs0mg"},{"bike_id":"d35aead5-74d9-4a00-baad-d7d1ed435177","system_id":"levelo_inurba_marseille","lat":43.2407,"lon":5.37761,"is_reserved":false,"is_disabled":false,"rental_uris":{"android":"levelo://app?vid=d35aead5-74d9-4a00-baad-d7d1ed435177","ios":"levelo://app?vid=d35aead5-74d9-4a00-baad-d7d1ed435177"},"vehicle_type_id":"4","last_reported":1729599490,"current_range_meters":35600,"station_id":"ce4bhnp2rcd13ifvqgvg","pricing_plan_id":"cebpf4jnsgd1na2vs0mg"},{"bike_id":"eb069ff4-526d-4138-8dd4-50fa8aebb37a","system_id":"levelo_inurba_marseille","lat":43.28418,"lon":5.34973,"is_reserved":false,"is_disabled":false,"rental_uris":{"android":"levelo://app?vid=eb069ff4-526d-4138-8dd4-50fa8aebb37a","ios":"levelo://app?vid=eb069ff4-526d-4138-8dd4-50fa8aebb37a"},"vehicle_type_id":"4","last_reported":1729599490,"current_range_meters":37600,"station_id":"ce4bhbh2rcd13ifvqepg","pricing_plan_id":"cebpf4jnsgd1na2vs0mg"},{"bike_id":"6b63d172-a2c8-46da-9750-2226af7381c0","system_id":"levelo_inurba_marseille","lat":43.23969,"lon":5.36632,"is_reserved":false,"is_disabled":false,"rental_uris":{"android":"levelo://app?vid=6b63d172-a2c8-46da-9750-2226af7381c0","ios":"levelo://app?vid=6b63d172-a2c8-46da-9750-2226af7381c0"},"vehicle_type_id":"4","last_reported":1729599490,"current_range_meters":38000,"station_id":"ce4bhi12rcd13ifvqfp0","pricing_plan_id":"cebpf4jnsgd1na2vs0mg"},{"bike_id":"f11ee47d-564e-49f9-b81d-0219a7bb755a","system_id":"levelo_inurba_marseille","lat":43.27993,"lon":5.40028,"is_reserved":false,"is_disabled":false,"rental_uris":{"android":"levelo://app?vid=f11ee47d-564e-49f9-b81d-0219a7bb755a","ios":"levelo://app?vid=f11ee47d-564e-49f9-b81d-0219a7bb755a"},"vehicle_type_id":"4","last_reported":1729599490,"current_range_meters":16400,"station_id":"ce4bho92rcd13ifvqh4g","pricing_plan_id":"cebpf4jnsgd1na2vs0mg"},{"bike_id":"d9e37939-a588-4efe-8580-1a5d5825e0e9","system_id":"levelo_inurba_marseille","lat":43.25506,"lon":5.3765,"is_reserved":false,"is_disabled":false,"rental_uris":{"android":"levelo://app?vid=d9e37939-a588-4efe-8580-1a5d5825e0e9","ios":"levelo://app?vid=d9e37939-a588-4efe-8580-1a5d5825e0e9"},"vehicle_type_id":"4","last_reported":1729599490,"current_range_meters":30400,"station_id":"ce4bhh12rcd13ifvqff0","pricing_plan_id":"cebpf4jnsgd1na2vs0mg"},{"bike_id":"16756fb5-71dd-4ee8-8511-65763d7e962d","system_id":"levelo_inurba_marseille","lat":43.28266,"lon":5.35056,"is_reserved":false,"is_disabled":false,"rental_uris":{"android":"levelo://app?vid=16756fb5-71dd-4ee8-8511-65763d7e962d","ios":"levelo://app?vid=16756fb5-71dd-4ee8-8511-65763d7e962d"},"vehicle_type_id":"4","last_reported":1729599490,"current_range_meters":19200,"station_id":"ce4bhbp2rcd13ifvqerg","pricing_plan_id":"cebpf4jnsgd1na2vs0mg"},{"bike_id":"262d6295-809d-45c9-9768-b3b5a2cf90b7","system_id":"levelo_inurba_marseille","lat":43.31352,"lon":5.36723,"is_reserved":false,"is_disabled":false,"rental_uris":{"android":"levelo://app?vid=262d6295-809d-45c9-9768-b3b5a2cf90b7","ios":"levelo://app?vid=262d6295-809d-45c9-9768-b3b5a2cf90b7"},"vehicle_type_id":"4","last_reported":1729599490,"current_range_meters":27200,"station_id":"ce4bgr92rcd13ifvqc6g","pricing_plan_id":"cebpf4jnsgd1na2vs0mg"},{"bike_id":"c3945b60-e38d-4106-8f18-92c7f436cc4f","system_id":"levelo_inurba_marseille","lat":43.33757,"lon":5.37448,"is_reserved":false,"is_disabled":false,"rental_uris":{"android":"levelo://app?vid=c3945b60-e38d-4106-8f18-92c7f436cc4f","ios":"levelo://app?vid=c3945b60-e38d-4106-8f18-92c7f436cc4f"},"vehicle_type_id":"4","last_reported":1729599490,"current_range_meters":32000,"station_id":"","pricing_plan_id":"cebpf4jnsgd1na2vs0mg"},{"bike_id":"6039ddec-9a32-4ee3-8033-3883988be36a","system_id":"levelo_inurba_marseille","lat":43.262,"lon":5.37933,"is_reserved":false,"is_disabled":false,"rental_uris":{"android":"levelo://app?vid=6039ddec-9a32-4ee3-8033-3883988be36a","ios":"levelo://app?vid=6039ddec-9a32-4ee3-8033-3883988be36a"},"vehicle_type_id":"4","last_reported":1729599490,"current_range_meters":28400,"station_id":"ce4bhjp2rcd13ifvqg90","pricing_plan_id":"cebpf4jnsgd1na2vs0mg"},{"bike_id":"04a0a347-1204-43c5-960f-b7ca34008eb2","system_id":"levelo_inurba_marseille","lat":43.28418,"lon":5.34991,"is_reserved":false,"is_disabled":false,"rental_uris":{"android":"levelo://app?vid=04a0a347-1204-43c5-960f-b7ca34008eb2","ios":"levelo://app?vid=04a0a347-1204-43c5-960f-b7ca34008eb2"},"vehicle_type_id":"4","last_reported":1729599490,"current_range_meters":36800,"station_id":"ce4bhbh2rcd13ifvqepg","pricing_plan_id":"cebpf4jnsgd1na2vs0mg"},{"bike_id":"9d4c86c7-e78f-4fd8-a1a9-94bba99cbe7e","system_id":"levelo_inurba_marseille","lat":43.296,"lon":5.38099,"is_reserved":false,"is_disabled":false,"rental_uris":{"android":"levelo://app?vid=9d4c86c7-e78f-4fd8-a1a9-94bba99cbe7e","ios":"levelo://app?vid=9d4c86c7-e78f-4fd8-a1a9-94bba99cbe7e"},"vehicle_type_id":"4","last_reported":1729599490,"current_range_meters":24000,"station_id":"ce4bgl12rcd13ifvqbo0","pricing_plan_id":"cebpf4jnsgd1na2vs0mg"},{"bike_id":"df27a9f5-0a7d-4745-817d-802b59ea3bc0","system_id":"levelo_inurba_marseille","lat":43.29276,"lon":5.36845,"is_reserved":false,"is_disabled":false,"rental_uris":{"android":"levelo://app?vid=df27a9f5-0a7d-4745-817d-802b59ea3bc0","ios":"levelo://app?vid=df27a9f5-0a7d-4745-817d-802b59ea3bc0"},"vehicle_type_id":"4","last_reported":1729599490,"current_range_meters":36800,"station_id":"ce4bhbp2rcd13ifvqesg","pricing_plan_id":"cebpf4jnsgd1na2vs0mg"},{"bike_id":"9819146e-6e38-4bfb-8718-b0a15928bc96","system_id":"levelo_inurba_marseille","lat":43.31339,"lon":5.36714,"is_reserved":false,"is_disabled":false,"rental_uris":{"android":"levelo://app?vid=9819146e-6e38-4bfb-8718-b0a15928bc96","ios":"levelo://app?vid=9819146e-6e38-4bfb-8718-b0a15928bc96"},"vehicle_type_id":"4","last_reported":1729599490,"current_range_meters":28000,"station_id":"ce4bgr92rcd13ifvqc6g","pricing_plan_id":"cebpf4jnsgd1na2vs0mg"},{"bike_id":"f4ac5c82-788d-4548-90eb-28d1189903af","system_id":"levelo_inurba_marseille","lat":43.31483,"lon":5.37308,"is_reserved":false,"is_disabled":false,"rental_uris":{"android":"levelo://app?vid=f4ac5c82-788d-4548-90eb-28d1189903af","ios":"levelo://app?vid=f4ac5c82-788d-4548-90eb-28d1189903af"},"vehicle_type_id":"4","last_reported":1729599490,"current_range_meters":36400,"station_id":"ce4bgt12rcd13ifvqcd0","pricing_plan_id":"cebpf4jnsgd1na2vs0mg"},{"bike_id":"1cc8c524-3a72-465f-8ebe-e4c35d504abb","system_id":"levelo_inurba_marseille","lat":43.24068,"lon":5.37765,"is_reserved":false,"is_disabled":false,"rental_uris":{"android":"levelo://app?vid=1cc8c524-3a72-465f-8ebe-e4c35d504abb","ios":"levelo://app?vid=1cc8c524-3a72-465f-8ebe-e4c35d504abb"},"vehicle_type_id":"4","last_reported":1729599490,"current_range_meters":16000,"station_id":"ce4bhnp2rcd13ifvqgvg","pricing_plan_id":"cebpf4jnsgd1na2vs0mg"},{"bike_id":"997b048d-d8c5-4627-b97a-c194fdecbd4e","system_id":"levelo_inurba_marseille","lat":43.28438,"lon":5.39187,"is_reserved":false,"is_disabled":false,"rental_uris":{"android":"levelo://app?vid=997b048d-d8c5-4627-b97a-c194fdecbd4e","ios":"levelo://app?vid=997b048d-d8c5-4627-b97a-c194fdecbd4e"},"vehicle_type_id":"4","last_reported":1729599490,"current_range_meters":38800,"station_id":"ce4bhoh2rcd13ifvqh5g","pricing_plan_id":"cebpf4jnsgd1na2vs0mg"},{"bike_id":"c497a204-d102-4fb8-8c4f-4d71a1f981d8","system_id":"levelo_inurba_marseille","lat":43.33611,"lon":5.41015,"is_reserved":false,"is_disabled":false,"rental_uris":{"android":"levelo://app?vid=c497a204-d102-4fb8-8c4f-4d71a1f981d8","ios":"levelo://app?vid=c497a204-d102-4fb8-8c4f-4d71a1f981d8"},"vehicle_type_id":"4","last_reported":1729599490,"current_range_meters":18000,"station_id":"ce4bhqh2rcd13ifvqhmg","pricing_plan_id":"cebpf4jnsgd1na2vs0mg"},{"bike_id":"2a90785b-3bd9-406e-99f0-462963b30889","system_id":"levelo_inurba_marseille","lat":43.245487,"lon":5.395216,"is_reserved":false,"is_disabled":false,"rental_uris":{"android":"levelo://app?vid=2a90785b-3bd9-406e-99f0-462963b30889","ios":"levelo://app?vid=2a90785b-3bd9-406e-99f0-462963b30889"},"vehicle_type_id":"4","last_reported":1729599490,"current_range_meters":16000,"station_id":"ce4bhn12rcd13ifvqgqg","pricing_plan_id":"cebpf4jnsgd1na2vs0mg"},{"bike_id":"6ba1088e-f6d7-458a-a335-f0b3c3746983","system_id":"levelo_inurba_marseille","lat":43.241763,"lon":5.397184,"is_reserved":false,"is_disabled":false,"rental_uris":{"android":"levelo://app?vid=6ba1088e-f6d7-458a-a335-f0b3c3746983","ios":"levelo://app?vid=6ba1088e-f6d7-458a-a335-f0b3c3746983"},"vehicle_type_id":"4","last_reported":1729599490,"current_range_meters":37600,"station_id":"ce4bhn12rcd13ifvqgpg","pricing_plan_id":"cebpf4jnsgd1na2vs0mg"},{"bike_id":"6a606450-0244-4420-a512-c69c644c2c13","system_id":"levelo_inurba_marseille","lat":43.25498,"lon":5.37644,"is_reserved":false,"is_disabled":false,"rental_uris":{"android":"levelo://app?vid=6a606450-0244-4420-a512-c69c644c2c13","ios":"levelo://app?vid=6a606450-0244-4420-a512-c69c644c2c13"},"vehicle_type_id":"4","last_reported":1729599490,"current_range_meters":39200,"station_id":"ce4bhh12rcd13ifvqff0","pricing_plan_id":"cebpf4jnsgd1na2vs0mg"},{"bike_id":"a9af3203-8803-40ae-b913-0df349d4ce23","system_id":"levelo_inurba_marseille","lat":43.30552,"lon":5.36532,"is_reserved":false,"is_disabled":false,"rental_uris":{"android":"levelo://app?vid=a9af3203-8803-40ae-b913-0df349d4ce23","ios":"levelo://app?vid=a9af3203-8803-40ae-b913-0df349d4ce23"},"vehicle_type_id":"4","last_reported":1729599490,"current_range_meters":33200,"station_id":"ce4bgs12rcd13ifvqcag","pricing_plan_id":"cebpf4jnsgd1na2vs0mg"},{"bike_id":"96618146-b21d-45eb-98ee-5aa5a7832d9e","system_id":"levelo_inurba_marseille","lat":43.27619,"lon":5.3611,"is_reserved":false,"is_disabled":false,"rental_uris":{"android":"levelo://app?vid=96618146-b21d-45eb-98ee-5aa5a7832d9e","ios":"levelo://app?vid=96618146-b21d-45eb-98ee-5aa5a7832d9e"},"vehicle_type_id":"4","last_reported":1729599490,"current_range_meters":24000,"station_id":"ce4bgj92rcd13ifvqbe0","pricing_plan_id":"cebpf4jnsgd1na2vs0mg"},{"bike_id":"fed181f1-bf63-44a2-8176-df50744f2b5a","system_id":"levelo_inurba_marseille","lat":43.33602,"lon":5.41029,"is_reserved":false,"is_disabled":false,"rental_uris":{"android":"levelo://app?vid=fed181f1-bf63-44a2-8176-df50744f2b5a","ios":"levelo://app?vid=fed181f1-bf63-44a2-8176-df50744f2b5a"},"vehicle_type_id":"4","last_reported":1729599490,"current_range_meters":18000,"station_id":"ce4bhqh2rcd13ifvqhmg","pricing_plan_id":"cebpf4jnsgd1na2vs0mg"},{"bike_id":"2b502a15-caf3-41e2-bd08-1b0f91c7e988","system_id":"levelo_inurba_marseille","lat":43.23155,"lon":5.43698,"is_reserved":false,"is_disabled":false,"rental_uris":{"android":"levelo://app?vid=2b502a15-caf3-41e2-bd08-1b0f91c7e988","ios":"levelo://app?vid=2b502a15-caf3-41e2-bd08-1b0f91c7e988"},"vehicle_type_id":"4","last_reported":1729599490,"current_range_meters":4800,"station_id":"ce4bhmp2rcd13ifvqgog","pricing_plan_id":"cebpf4jnsgd1na2vs0mg"},{"bike_id":"6690eb7f-4563-400d-88e0-a5f2d4c13782","system_id":"levelo_inurba_marseille","lat":43.27564,"lon":5.3841,"is_reserved":false,"is_disabled":false,"rental_uris":{"android":"levelo://app?vid=6690eb7f-4563-400d-88e0-a5f2d4c13782","ios":"levelo://app?vid=6690eb7f-4563-400d-88e0-a5f2d4c13782"},"vehicle_type_id":"4","last_reported":1729599490,"current_range_meters":39200,"station_id":"ce4bhh92rcd13ifvqfi0","pricing_plan_id":"cebpf4jnsgd1na2vs0mg"},{"bike_id":"382f8b74-5cc0-4ecc-aac3-cb7428397d32","system_id":"levelo_inurba_marseille","lat":43.31345,"lon":5.36701,"is_reserved":false,"is_disabled":false,"rental_uris":{"android":"levelo://app?vid=382f8b74-5cc0-4ecc-aac3-cb7428397d32","ios":"levelo://app?vid=382f8b74-5cc0-4ecc-aac3-cb7428397d32"},"vehicle_type_id":"4","last_reported":1729599490,"current_range_meters":22800,"station_id":"ce4bgr92rcd13ifvqc6g","pricing_plan_id":"cebpf4jnsgd1na2vs0mg"},{"bike_id":"10cd1eab-b7c4-4809-b16d-4cf4afc0b3c1","system_id":"levelo_inurba_marseille","lat":43.23147,"lon":5.43722,"is_reserved":false,"is_disabled":false,"rental_uris":{"android":"levelo://app?vid=10cd1eab-b7c4-4809-b16d-4cf4afc0b3c1","ios":"levelo://app?vid=10cd1eab-b7c4-4809-b16d-4cf4afc0b3c1"},"vehicle_type_id":"4","last_reported":1729599490,"current_range_meters":38800,"station_id":"ce4bhmp2rcd13ifvqgog","pricing_plan_id":"cebpf4jnsgd1na2vs0mg"},{"bike_id":"ec125df5-44cc-49b7-81e0-c522bd2ca48c","system_id":"levelo_inurba_marseille","lat":43.23152,"lon":5.43705,"is_reserved":false,"is_disabled":false,"rental_uris":{"android":"levelo://app?vid=ec125df5-44cc-49b7-81e0-c522bd2ca48c","ios":"levelo://app?vid=ec125df5-44cc-49b7-81e0-c522bd2ca48c"},"vehicle_type_id":"4","last_reported":1729599490,"current_range_meters":38800,"station_id":"ce4bhmp2rcd13ifvqgog","pricing_plan_id":"cebpf4jnsgd1na2vs0mg"},{"bike_id":"73026883-cbf0-40cf-8ffc-18820ab4ba5c","system_id":"levelo_inurba_marseille","lat":43.2593,"lon":5.40918,"is_reserved":false,"is_disabled":false,"rental_uris":{"android":"levelo://app?vid=73026883-cbf0-40cf-8ffc-18820ab4ba5c","ios":"levelo://app?vid=73026883-cbf0-40cf-8ffc-18820ab4ba5c"},"vehicle_type_id":"4","last_reported":1729599490,"current_range_meters":20000,"station_id":"ce4bhm92rcd13ifvqglg","pricing_plan_id":"cebpf4jnsgd1na2vs0mg"},{"bike_id":"d8d30b00-c51f-42c1-a4bc-5be916aaba37","system_id":"levelo_inurba_marseille","lat":43.2959,"lon":5.37369,"is_reserved":false,"is_disabled":false,"rental_uris":{"android":"levelo://app?vid=d8d30b00-c51f-42c1-a4bc-5be916aaba37","ios":"levelo://app?vid=d8d30b00-c51f-42c1-a4bc-5be916aaba37"},"vehicle_type_id":"4","last_reported":1729599490,"current_range_meters":29600,"station_id":"","pricing_plan_id":"cebpf4jnsgd1na2vs0mg"},{"bike_id":"93494289-6aaa-46f1-9808-40293e880fab","system_id":"levelo_inurba_marseille","lat":43.26063,"lon":5.39393,"is_reserved":false,"is_disabled":false,"rental_uris":{"android":"levelo://app?vid=93494289-6aaa-46f1-9808-40293e880fab","ios":"levelo://app?vid=93494289-6aaa-46f1-9808-40293e880fab"},"vehicle_type_id":"4","last_reported":1729599490,"current_range_meters":30400,"station_id":"ce4bhh92rcd13ifvqfj0","pricing_plan_id":"cebpf4jnsgd1na2vs0mg"},{"bike_id":"f5e7b89d-e871-4da2-9801-15e210469b63","system_id":"levelo_inurba_marseille","lat":43.292012,"lon":5.357978,"is_reserved":false,"is_disabled":false,"rental_uris":{"android":"levelo://app?vid=f5e7b89d-e871-4da2-9801-15e210469b63","ios":"levelo://app?vid=f5e7b89d-e871-4da2-9801-15e210469b63"},"vehicle_type_id":"4","last_reported":1729599490,"current_range_meters":9600,"station_id":"ce4bhu92rcd13ifvqi70","pricing_plan_id":"cebpf4jnsgd1na2vs0mg"},{"bike_id":"4894353a-4876-4906-8051-b221d36df3ed","system_id":"levelo_inurba_marseille","lat":43.31324,"lon":5.39688,"is_reserved":false,"is_disabled":false,"rental_uris":{"android":"levelo://app?vid=4894353a-4876-4906-8051-b221d36df3ed","ios":"levelo://app?vid=4894353a-4876-4906-8051-b221d36df3ed"},"vehicle_type_id":"4","last_reported":1729599490,"current_range_meters":33200,"station_id":"ce4bgvp2rcd13ifvqcu0","pricing_plan_id":"cebpf4jnsgd1na2vs0mg"},{"bike_id":"3e862d78-8b4a-4b3d-a4f1-340af20e88b2","system_id":"levelo_inurba_marseille","lat":43.29005,"lon":5.35605,"is_reserved":false,"is_disabled":false,"rental_uris":{"android":"levelo://app?vid=3e862d78-8b4a-4b3d-a4f1-340af20e88b2","ios":"levelo://app?vid=3e862d78-8b4a-4b3d-a4f1-340af20e88b2"},"vehicle_type_id":"4","last_reported":1729599490,"current_range_meters":30800,"station_id":"ce4bhb92rcd13ifvqen0","pricing_plan_id":"cebpf4jnsgd1na2vs0mg"},{"bike_id":"f0cc0dcb-c63c-4503-8a09-6c0d61c7bcdf","system_id":"levelo_inurba_marseille","lat":43.25501,"lon":5.37648,"is_reserved":false,"is_disabled":false,"rental_uris":{"android":"levelo://app?vid=f0cc0dcb-c63c-4503-8a09-6c0d61c7bcdf","ios":"levelo://app?vid=f0cc0dcb-c63c-4503-8a09-6c0d61c7bcdf"},"vehicle_type_id":"4","last_reported":1729599490,"current_range_meters":23200,"station_id":"ce4bhh12rcd13ifvqff0","pricing_plan_id":"cebpf4jnsgd1na2vs0mg"},{"bike_id":"3841b5bc-5a87-42fd-9a18-56100061c74e","system_id":"levelo_inurba_marseille","lat":43.295288,"lon":5.394066,"is_reserved":false,"is_disabled":false,"rental_uris":{"android":"levelo://app?vid=3841b5bc-5a87-42fd-9a18-56100061c74e","ios":"levelo://app?vid=3841b5bc-5a87-42fd-9a18-56100061c74e"},"vehicle_type_id":"4","last_reported":1729599490,"current_range_meters":28800,"station_id":"ce4bh612rcd13ifvqe6g","pricing_plan_id":"cebpf4jnsgd1na2vs0mg"},{"bike_id":"4d5c0c1d-ad62-4242-9ad9-41da1a27f7fe","system_id":"levelo_inurba_marseille","lat":43.29219,"lon":5.36075,"is_reserved":false,"is_disabled":false,"rental_uris":{"android":"levelo://app?vid=4d5c0c1d-ad62-4242-9ad9-41da1a27f7fe","ios":"levelo://app?vid=4d5c0c1d-ad62-4242-9ad9-41da1a27f7fe"},"vehicle_type_id":"4","last_reported":1729599490,"current_range_meters":24400,"station_id":"ce4bhbh2rcd13ifvqeqg","pricing_plan_id":"cebpf4jnsgd1na2vs0mg"},{"bike_id":"0588f660-603d-4d83-82a9-48599d58b2de","system_id":"levelo_inurba_marseille","lat":43.28618,"lon":5.351,"is_reserved":false,"is_disabled":false,"rental_uris":{"android":"levelo://app?vid=0588f660-603d-4d83-82a9-48599d58b2de","ios":"levelo://app?vid=0588f660-603d-4d83-82a9-48599d58b2de"},"vehicle_type_id":"4","last_reported":1729599490,"current_range_meters":30800,"station_id":"ce4bhch2rcd13ifvqeug","pricing_plan_id":"cebpf4jnsgd1na2vs0mg"},{"bike_id":"815dd284-1bd2-4bb9-992a-b2116e2485bc","system_id":"levelo_inurba_marseille","lat":43.32789,"lon":5.36148,"is_reserved":false,"is_disabled":false,"rental_uris":{"android":"levelo://app?vid=815dd284-1bd2-4bb9-992a-b2116e2485bc","ios":"levelo://app?vid=815dd284-1bd2-4bb9-992a-b2116e2485bc"},"vehicle_type_id":"4","last_reported":1729599490,"current_range_meters":33600,"station_id":"","pricing_plan_id":"cebpf4jnsgd1na2vs0mg"},{"bike_id":"a6becff1-00d3-47fa-8898-3ba6d7221fbe","system_id":"levelo_inurba_marseille","lat":43.23191,"lon":5.3555,"is_reserved":false,"is_disabled":false,"rental_uris":{"android":"levelo://app?vid=a6becff1-00d3-47fa-8898-3ba6d7221fbe","ios":"levelo://app?vid=a6becff1-00d3-47fa-8898-3ba6d7221fbe"},"vehicle_type_id":"4","last_reported":1729599490,"current_range_meters":36800,"station_id":"ce4bhu92rcd13ifvqi70","pricing_plan_id":"cebpf4jnsgd1na2vs0mg"},{"bike_id":"be5d828b-df90-4ad2-b59d-ba3093879b03","system_id":"levelo_inurba_marseille","lat":43.27369,"lon":5.3626,"is_reserved":false,"is_disabled":false,"rental_uris":{"android":"levelo://app?vid=be5d828b-df90-4ad2-b59d-ba3093879b03","ios":"levelo://app?vid=be5d828b-df90-4ad2-b59d-ba3093879b03"},"vehicle_type_id":"4","last_reported":1729599490,"current_range_meters":14000,"station_id":"ce4bhbh2rcd13ifvqeo0","pricing_plan_id":"cebpf4jnsgd1na2vs0mg"},{"bike_id":"641273a1-6b42-4200-b2a3-5de7c2861a99","system_id":"levelo_inurba_marseille","lat":43.26795,"lon":5.39548,"is_reserved":false,"is_disabled":false,"rental_uris":{"android":"levelo://app?vid=641273a1-6b42-4200-b2a3-5de7c2861a99","ios":"levelo://app?vid=641273a1-6b42-4200-b2a3-5de7c2861a99"},"vehicle_type_id":"4","last_reported":1729599490,"current_range_meters":36000,"station_id":"ce4bhh12rcd13ifvqfg0","pricing_plan_id":"cebpf4jnsgd1na2vs0mg"},{"bike_id":"8fd5e621-75d1-49a9-a03e-d757e46c848c","system_id":"levelo_inurba_marseille","lat":43.33608,"lon":5.41022,"is_reserved":false,"is_disabled":false,"rental_uris":{"android":"levelo://app?vid=8fd5e621-75d1-49a9-a03e-d757e46c848c","ios":"levelo://app?vid=8fd5e621-75d1-49a9-a03e-d757e46c848c"},"vehicle_type_id":"4","last_reported":1729599490,"current_range_meters":31200,"station_id":"ce4bhqh2rcd13ifvqhmg","pricing_plan_id":"cebpf4jnsgd1na2vs0mg"},{"bike_id":"5a67c892-a602-4b40-977c-c1acd665d17e","system_id":"levelo_inurba_marseille","lat":43.25931,"lon":5.40902,"is_reserved":false,"is_disabled":false,"rental_uris":{"android":"levelo://app?vid=5a67c892-a602-4b40-977c-c1acd665d17e","ios":"levelo://app?vid=5a67c892-a602-4b40-977c-c1acd665d17e"},"vehicle_type_id":"4","last_reported":1729599490,"current_range_meters":22400,"station_id":"ce4bhm92rcd13ifvqglg","pricing_plan_id":"cebpf4jnsgd1na2vs0mg"},{"bike_id":"9c707792-8e01-4cab-b4af-8bba517cd583","system_id":"levelo_inurba_marseille","lat":43.25504,"lon":5.3765,"is_reserved":false,"is_disabled":false,"rental_uris":{"android":"levelo://app?vid=9c707792-8e01-4cab-b4af-8bba517cd583","ios":"levelo://app?vid=9c707792-8e01-4cab-b4af-8bba517cd583"},"vehicle_type_id":"4","last_reported":1729599490,"current_range_meters":38800,"station_id":"ce4bhh12rcd13ifvqff0","pricing_plan_id":"cebpf4jnsgd1na2vs0mg"},{"bike_id":"1f52981c-7bb8-4af1-af37-b4a098cafcb2","system_id":"levelo_inurba_marseille","lat":43.28154,"lon":5.42647,"is_reserved":false,"is_disabled":false,"rental_uris":{"android":"levelo://app?vid=1f52981c-7bb8-4af1-af37-b4a098cafcb2","ios":"levelo://app?vid=1f52981c-7bb8-4af1-af37-b4a098cafcb2"},"vehicle_type_id":"4","last_reported":1729599490,"current_range_meters":38800,"station_id":"ce4bhnh2rcd13ifvqgug","pricing_plan_id":"cebpf4jnsgd1na2vs0mg"},{"bike_id":"9f9c67b5-e835-4867-a1ab-761db639107f","system_id":"levelo_inurba_marseille","lat":43.27569,"lon":5.38979,"is_reserved":false,"is_disabled":false,"rental_uris":{"android":"levelo://app?vid=9f9c67b5-e835-4867-a1ab-761db639107f","ios":"levelo://app?vid=9f9c67b5-e835-4867-a1ab-761db639107f"},"vehicle_type_id":"4","last_reported":1729599490,"current_range_meters":18800,"station_id":"ce4bhi12rcd13ifvqfo0","pricing_plan_id":"cebpf4jnsgd1na2vs0mg"},{"bike_id":"1e592945-b5ad-45f6-824e-0a9e26b71d6b","system_id":"levelo_inurba_marseille","lat":43.31109,"lon":5.37787,"is_reserved":false,"is_disabled":false,"rental_uris":{"android":"levelo://app?vid=1e592945-b5ad-45f6-824e-0a9e26b71d6b","ios":"levelo://app?vid=1e592945-b5ad-45f6-824e-0a9e26b71d6b"},"vehicle_type_id":"4","last_reported":1729599490,"current_range_meters":38000,"station_id":"ce4bgt92rcd13ifvqcg0","pricing_plan_id":"cebpf4jnsgd1na2vs0mg"},{"bike_id":"bf8d0617-6bef-47ca-8c84-936cfebcc97c","system_id":"levelo_inurba_marseille","lat":43.32112,"lon":5.36783,"is_reserved":false,"is_disabled":false,"rental_uris":{"android":"levelo://app?vid=bf8d0617-6bef-47ca-8c84-936cfebcc97c","ios":"levelo://app?vid=bf8d0617-6bef-47ca-8c84-936cfebcc97c"},"vehicle_type_id":"4","last_reported":1729599490,"current_range_meters":16800,"station_id":"ce4bhrh2rcd13ifvqhug","pricing_plan_id":"cebpf4jnsgd1na2vs0mg"},{"bike_id":"2d11905d-ce3d-4a7c-9040-ddb86e95b210","system_id":"levelo_inurba_marseille","lat":43.28341,"lon":5.39889,"is_reserved":false,"is_disabled":false,"rental_uris":{"android":"levelo://app?vid=2d11905d-ce3d-4a7c-9040-ddb86e95b210","ios":"levelo://app?vid=2d11905d-ce3d-4a7c-9040-ddb86e95b210"},"vehicle_type_id":"4","last_reported":1729599490,"current_range_meters":6400,"station_id":"ce4bho92rcd13ifvqh4g","pricing_plan_id":"cebpf4jnsgd1na2vs0mg"},{"bike_id":"77f63812-ff7c-4af9-bfc2-2ee64ad0fefb","system_id":"levelo_inurba_marseille","lat":43.31687,"lon":5.40465,"is_reserved":false,"is_disabled":false,"rental_uris":{"android":"levelo://app?vid=77f63812-ff7c-4af9-bfc2-2ee64ad0fefb","ios":"levelo://app?vid=77f63812-ff7c-4af9-bfc2-2ee64ad0fefb"},"vehicle_type_id":"4","last_reported":1729599490,"current_range_meters":17600,"station_id":"ce4bh012rcd13ifvqd00","pricing_plan_id":"cebpf4jnsgd1na2vs0mg"},{"bike_id":"777f162a-6468-48c6-8a3b-aa0db9da603a","system_id":"levelo_inurba_marseille","lat":43.27563,"lon":5.38427,"is_reserved":false,"is_disabled":false,"rental_uris":{"android":"levelo://app?vid=777f162a-6468-48c6-8a3b-aa0db9da603a","ios":"levelo://app?vid=777f162a-6468-48c6-8a3b-aa0db9da603a"},"vehicle_type_id":"4","last_reported":1729599490,"current_range_meters":30000,"station_id":"ce4bhh92rcd13ifvqfi0","pricing_plan_id":"cebpf4jnsgd1na2vs0mg"},{"bike_id":"5ee2a809-6067-4e7e-bf77-993d2ceab946","system_id":"levelo_inurba_marseille","lat":43.25504,"lon":5.37646,"is_reserved":false,"is_disabled":false,"rental_uris":{"android":"levelo://app?vid=5ee2a809-6067-4e7e-bf77-993d2ceab946","ios":"levelo://app?vid=5ee2a809-6067-4e7e-bf77-993d2ceab946"},"vehicle_type_id":"4","last_reported":1729599490,"current_range_meters":38800,"station_id":"ce4bhh12rcd13ifvqff0","pricing_plan_id":"cebpf4jnsgd1na2vs0mg"},{"bike_id":"7e3cb010-b5b3-478f-8b4d-4185ab46a9f4","system_id":"levelo_inurba_marseille","lat":43.3135,"lon":5.36732,"is_reserved":false,"is_disabled":false,"rental_uris":{"android":"levelo://app?vid=7e3cb010-b5b3-478f-8b4d-4185ab46a9f4","ios":"levelo://app?vid=7e3cb010-b5b3-478f-8b4d-4185ab46a9f4"},"vehicle_type_id":"4","last_reported":1729599490,"current_range_meters":34800,"station_id":"ce4bgr92rcd13ifvqc6g","pricing_plan_id":"cebpf4jnsgd1na2vs0mg"},{"bike_id":"6306bed3-0d2b-49da-95c5-973170dba4a6","system_id":"levelo_inurba_marseille","lat":43.2315,"lon":5.4372,"is_reserved":false,"is_disabled":false,"rental_uris":{"android":"levelo://app?vid=6306bed3-0d2b-49da-95c5-973170dba4a6","ios":"levelo://app?vid=6306bed3-0d2b-49da-95c5-973170dba4a6"},"vehicle_type_id":"4","last_reported":1729599490,"current_range_meters":33600,"station_id":"ce4bhmp2rcd13ifvqgog","pricing_plan_id":"cebpf4jnsgd1na2vs0mg"},{"bike_id":"459be405-e75b-486f-8cd8-3562bd42ae62","system_id":"levelo_inurba_marseille","lat":43.2857,"lon":5.39491,"is_reserved":false,"is_disabled":false,"rental_uris":{"android":"levelo://app?vid=459be405-e75b-486f-8cd8-3562bd42ae62","ios":"levelo://app?vid=459be405-e75b-486f-8cd8-3562bd42ae62"},"vehicle_type_id":"4","last_reported":1729599490,"current_range_meters":30000,"station_id":"ce4bh292rcd13ifvqdg0","pricing_plan_id":"cebpf4jnsgd1na2vs0mg"},{"bike_id":"ee458820-4b5f-4880-a810-7e29f4e09d82","system_id":"levelo_inurba_marseille","lat":43.31338,"lon":5.36721,"is_reserved":false,"is_disabled":false,"rental_uris":{"android":"levelo://app?vid=ee458820-4b5f-4880-a810-7e29f4e09d82","ios":"levelo://app?vid=ee458820-4b5f-4880-a810-7e29f4e09d82"},"vehicle_type_id":"4","last_reported":1729599490,"current_range_meters":12000,"station_id":"ce4bgr92rcd13ifvqc6g","pricing_plan_id":"cebpf4jnsgd1na2vs0mg"},{"bike_id":"e50bcd45-55ad-4134-aba1-dcea1a2c5f28","system_id":"levelo_inurba_marseille","lat":43.2846,"lon":5.35889,"is_reserved":false,"is_disabled":false,"rental_uris":{"android":"levelo://app?vid=e50bcd45-55ad-4134-aba1-dcea1a2c5f28","ios":"levelo://app?vid=e50bcd45-55ad-4134-aba1-dcea1a2c5f28"},"vehicle_type_id":"4","last_reported":1729599490,"current_range_meters":9600,"station_id":"ce4bhah2rcd13ifvqei0","pricing_plan_id":"cebpf4jnsgd1na2vs0mg"},{"bike_id":"143f21e1-e24b-44a3-aee8-5aeb9d83a7f4","system_id":"levelo_inurba_marseille","lat":43.23965,"lon":5.36642,"is_reserved":false,"is_disabled":false,"rental_uris":{"android":"levelo://app?vid=143f21e1-e24b-44a3-aee8-5aeb9d83a7f4","ios":"levelo://app?vid=143f21e1-e24b-44a3-aee8-5aeb9d83a7f4"},"vehicle_type_id":"4","last_reported":1729599490,"current_range_meters":12400,"station_id":"ce4bhi12rcd13ifvqfp0","pricing_plan_id":"cebpf4jnsgd1na2vs0mg"},{"bike_id":"2b57c05b-9078-4e33-8295-38345c6355b3","system_id":"levelo_inurba_marseille","lat":43.31757,"lon":5.39012,"is_reserved":false,"is_disabled":false,"rental_uris":{"android":"levelo://app?vid=2b57c05b-9078-4e33-8295-38345c6355b3","ios":"levelo://app?vid=2b57c05b-9078-4e33-8295-38345c6355b3"},"vehicle_type_id":"4","last_reported":1729599490,"current_range_meters":32000,"station_id":"ce4bhqp2rcd13ifvqhng","pricing_plan_id":"cebpf4jnsgd1na2vs0mg"},{"bike_id":"ae3fcb04-be9a-4eda-86cc-c69683243e47","system_id":"levelo_inurba_marseille","lat":43.23963,"lon":5.36622,"is_reserved":false,"is_disabled":false,"rental_uris":{"android":"levelo://app?vid=ae3fcb04-be9a-4eda-86cc-c69683243e47","ios":"levelo://app?vid=ae3fcb04-be9a-4eda-86cc-c69683243e47"},"vehicle_type_id":"4","last_reported":1729599490,"current_range_meters":38000,"station_id":"ce4bhi12rcd13ifvqfp0","pricing_plan_id":"cebpf4jnsgd1na2vs0mg"},{"bike_id":"bbda465a-4f53-4701-b489-23d27f8a6439","system_id":"levelo_inurba_marseille","lat":43.29043,"lon":5.35912,"is_reserved":false,"is_disabled":false,"rental_uris":{"android":"levelo://app?vid=bbda465a-4f53-4701-b489-23d27f8a6439","ios":"levelo://app?vid=bbda465a-4f53-4701-b489-23d27f8a6439"},"vehicle_type_id":"4","last_reported":1729599490,"current_range_meters":6400,"station_id":"ce4bha92rcd13ifvqeg0","pricing_plan_id":"cebpf4jnsgd1na2vs0mg"},{"bike_id":"9f11f62d-91c8-4001-b6ff-c3e296d3071c","system_id":"levelo_inurba_marseille","lat":43.27151,"lon":5.40461,"is_reserved":false,"is_disabled":false,"rental_uris":{"android":"levelo://app?vid=9f11f62d-91c8-4001-b6ff-c3e296d3071c","ios":"levelo://app?vid=9f11f62d-91c8-4001-b6ff-c3e296d3071c"},"vehicle_type_id":"4","last_reported":1729599490,"current_range_meters":10000,"station_id":"ce4bhnh2rcd13ifvqgtg","pricing_plan_id":"cebpf4jnsgd1na2vs0mg"},{"bike_id":"35fe1cb4-d3d4-400f-9405-96bf2a9f7049","system_id":"levelo_inurba_marseille","lat":43.31889,"lon":5.40725,"is_reserved":false,"is_disabled":false,"rental_uris":{"android":"levelo://app?vid=35fe1cb4-d3d4-400f-9405-96bf2a9f7049","ios":"levelo://app?vid=35fe1cb4-d3d4-400f-9405-96bf2a9f7049"},"vehicle_type_id":"4","last_reported":1729599490,"current_range_meters":16400,"station_id":"ce4bhq12rcd13ifvqhig","pricing_plan_id":"cebpf4jnsgd1na2vs0mg"},{"bike_id":"7ee1dd12-512e-42ec-8a60-db6bb32f65de","system_id":"levelo_inurba_marseille","lat":43.23962,"lon":5.36635,"is_reserved":false,"is_disabled":false,"rental_uris":{"android":"levelo://app?vid=7ee1dd12-512e-42ec-8a60-db6bb32f65de","ios":"levelo://app?vid=7ee1dd12-512e-42ec-8a60-db6bb32f65de"},"vehicle_type_id":"4","last_reported":1729599490,"current_range_meters":17200,"station_id":"ce4bhi12rcd13ifvqfp0","pricing_plan_id":"cebpf4jnsgd1na2vs0mg"},{"bike_id":"d84f61b7-92f1-4e5b-a2e5-4a1dc51f19f6","system_id":"levelo_inurba_marseille","lat":43.313566,"lon":5.367126,"is_reserved":false,"is_disabled":false,"rental_uris":{"android":"levelo://app?vid=d84f61b7-92f1-4e5b-a2e5-4a1dc51f19f6","ios":"levelo://app?vid=d84f61b7-92f1-4e5b-a2e5-4a1dc51f19f6"},"vehicle_type_id":"4","last_reported":1729599490,"current_range_meters":27200,"station_id":"ce4bgr92rcd13ifvqc6g","pricing_plan_id":"cebpf4jnsgd1na2vs0mg"},{"bike_id":"d95feef8-d444-48c4-9728-6cc0879aa438","system_id":"levelo_inurba_marseille","lat":43.29812,"lon":5.382972,"is_reserved":false,"is_disabled":false,"rental_uris":{"android":"levelo://app?vid=d95feef8-d444-48c4-9728-6cc0879aa438","ios":"levelo://app?vid=d95feef8-d444-48c4-9728-6cc0879aa438"},"vehicle_type_id":"4","last_reported":1729599490,"current_range_meters":20800,"station_id":"ce4bh692rcd13ifvqe90","pricing_plan_id":"cebpf4jnsgd1na2vs0mg"},{"bike_id":"c6e4d7dc-6368-4311-8b36-474982fe0e4c","system_id":"levelo_inurba_marseille","lat":43.28416,"lon":5.34988,"is_reserved":false,"is_disabled":false,"rental_uris":{"android":"levelo://app?vid=c6e4d7dc-6368-4311-8b36-474982fe0e4c","ios":"levelo://app?vid=c6e4d7dc-6368-4311-8b36-474982fe0e4c"},"vehicle_type_id":"4","last_reported":1729599490,"current_range_meters":11600,"station_id":"ce4bhbh2rcd13ifvqepg","pricing_plan_id":"cebpf4jnsgd1na2vs0mg"},{"bike_id":"70e8c28a-d56c-446c-ac60-bd5ef6da66dc","system_id":"levelo_inurba_marseille","lat":43.3414,"lon":5.40907,"is_reserved":false,"is_disabled":false,"rental_uris":{"android":"levelo://app?vid=70e8c28a-d56c-446c-ac60-bd5ef6da66dc","ios":"levelo://app?vid=70e8c28a-d56c-446c-ac60-bd5ef6da66dc"},"vehicle_type_id":"4","last_reported":1729599490,"current_range_meters":28400,"station_id":"ce4bhqh2rcd13ifvqhlg","pricing_plan_id":"cebpf4jnsgd1na2vs0mg"},{"bike_id":"df5483a4-2233-432f-a449-eb879cf985c0","system_id":"levelo_inurba_marseille","lat":43.28414,"lon":5.34988,"is_reserved":false,"is_disabled":false,"rental_uris":{"android":"levelo://app?vid=df5483a4-2233-432f-a449-eb879cf985c0","ios":"levelo://app?vid=df5483a4-2233-432f-a449-eb879cf985c0"},"vehicle_type_id":"4","last_reported":1729599490,"current_range_meters":34000,"station_id":"ce4bhbh2rcd13ifvqepg","pricing_plan_id":"cebpf4jnsgd1na2vs0mg"},{"bike_id":"1a311283-f1f4-444b-9100-f9585766a2fb","system_id":"levelo_inurba_marseille","lat":43.26938,"lon":5.40257,"is_reserved":false,"is_disabled":false,"rental_uris":{"android":"levelo://app?vid=1a311283-f1f4-444b-9100-f9585766a2fb","ios":"levelo://app?vid=1a311283-f1f4-444b-9100-f9585766a2fb"},"vehicle_type_id":"4","last_reported":1729599490,"current_range_meters":38000,"station_id":"cjm6bp8fraef2m0cb0m0","pricing_plan_id":"cebpf4jnsgd1na2vs0mg"},{"bike_id":"f801a972-c648-424a-a7e1-9d8a4bf001b1","system_id":"levelo_inurba_marseille","lat":43.28053,"lon":5.36943,"is_reserved":false,"is_disabled":false,"rental_uris":{"android":"levelo://app?vid=f801a972-c648-424a-a7e1-9d8a4bf001b1","ios":"levelo://app?vid=f801a972-c648-424a-a7e1-9d8a4bf001b1"},"vehicle_type_id":"4","last_reported":1729599490,"current_range_meters":38800,"station_id":"ce4bha12rcd13ifvqef0","pricing_plan_id":"cebpf4jnsgd1na2vs0mg"},{"bike_id":"751d3382-d8f0-4f0a-a67e-10d700e93754","system_id":"levelo_inurba_marseille","lat":43.25936,"lon":5.40905,"is_reserved":false,"is_disabled":false,"rental_uris":{"android":"levelo://app?vid=751d3382-d8f0-4f0a-a67e-10d700e93754","ios":"levelo://app?vid=751d3382-d8f0-4f0a-a67e-10d700e93754"},"vehicle_type_id":"4","last_reported":1729599490,"current_range_meters":35600,"station_id":"ce4bhm92rcd13ifvqglg","pricing_plan_id":"cebpf4jnsgd1na2vs0mg"},{"bike_id":"c9479e6e-804d-43b2-b4ed-a95213591548","system_id":"levelo_inurba_marseille","lat":43.2707,"lon":5.42279,"is_reserved":false,"is_disabled":false,"rental_uris":{"android":"levelo://app?vid=c9479e6e-804d-43b2-b4ed-a95213591548","ios":"levelo://app?vid=c9479e6e-804d-43b2-b4ed-a95213591548"},"vehicle_type_id":"4","last_reported":1729599490,"current_range_meters":3600,"station_id":"ce4bhk92rcd13ifvqgb0","pricing_plan_id":"cebpf4jnsgd1na2vs0mg"},{"bike_id":"f9275779-8159-45c8-9d6f-75cf25195292","system_id":"levelo_inurba_marseille","lat":43.298403,"lon":5.362633,"is_reserved":false,"is_disabled":false,"rental_uris":{"android":"levelo://app?vid=f9275779-8159-45c8-9d6f-75cf25195292","ios":"levelo://app?vid=f9275779-8159-45c8-9d6f-75cf25195292"},"vehicle_type_id":"4","last_reported":1729599490,"current_range_meters":38800,"station_id":"ce4bgpp2rcd13ifvqc3g","pricing_plan_id":"cebpf4jnsgd1na2vs0mg"},{"bike_id":"10b19fbc-8a77-42fa-a9e8-f4f593c23ea4","system_id":"levelo_inurba_marseille","lat":43.29055,"lon":5.35919,"is_reserved":false,"is_disabled":false,"rental_uris":{"android":"levelo://app?vid=10b19fbc-8a77-42fa-a9e8-f4f593c23ea4","ios":"levelo://app?vid=10b19fbc-8a77-42fa-a9e8-f4f593c23ea4"},"vehicle_type_id":"4","last_reported":1729599490,"current_range_meters":26000,"station_id":"ce4bha92rcd13ifvqeg0","pricing_plan_id":"cebpf4jnsgd1na2vs0mg"},{"bike_id":"b9c31a81-9503-4340-85c3-be4dff24968a","system_id":"levelo_inurba_marseille","lat":43.26938,"lon":5.40261,"is_reserved":false,"is_disabled":false,"rental_uris":{"android":"levelo://app?vid=b9c31a81-9503-4340-85c3-be4dff24968a","ios":"levelo://app?vid=b9c31a81-9503-4340-85c3-be4dff24968a"},"vehicle_type_id":"4","last_reported":1729599490,"current_range_meters":38800,"station_id":"cjm6bp8fraef2m0cb0m0","pricing_plan_id":"cebpf4jnsgd1na2vs0mg"},{"bike_id":"b6514299-eec4-4895-89f1-d6a2c5bf4d8f","system_id":"levelo_inurba_marseille","lat":43.22929,"lon":5.35376,"is_reserved":false,"is_disabled":false,"rental_uris":{"android":"levelo://app?vid=b6514299-eec4-4895-89f1-d6a2c5bf4d8f","ios":"levelo://app?vid=b6514299-eec4-4895-89f1-d6a2c5bf4d8f"},"vehicle_type_id":"4","last_reported":1729599490,"current_range_meters":8400,"station_id":"cpo3532slgdg3j2ikp40","pricing_plan_id":"cebpf4jnsgd1na2vs0mg"},{"bike_id":"dab8f161-fc70-4cc3-9b85-d685b7bb8925","system_id":"levelo_inurba_marseille","lat":43.24073,"lon":5.37758,"is_reserved":false,"is_disabled":false,"rental_uris":{"android":"levelo://app?vid=dab8f161-fc70-4cc3-9b85-d685b7bb8925","ios":"levelo://app?vid=dab8f161-fc70-4cc3-9b85-d685b7bb8925"},"vehicle_type_id":"4","last_reported":1729599490,"current_range_meters":38800,"station_id":"ce4bhnp2rcd13ifvqgvg","pricing_plan_id":"cebpf4jnsgd1na2vs0mg"},{"bike_id":"94bf876f-db2f-4206-8944-c80cfa3e0c54","system_id":"levelo_inurba_marseille","lat":43.25714,"lon":5.41118,"is_reserved":false,"is_disabled":false,"rental_uris":{"android":"levelo://app?vid=94bf876f-db2f-4206-8944-c80cfa3e0c54","ios":"levelo://app?vid=94bf876f-db2f-4206-8944-c80cfa3e0c54"},"vehicle_type_id":"4","last_reported":1729599490,"current_range_meters":38800,"station_id":"ce4bhkp2rcd13ifvqgd0","pricing_plan_id":"cebpf4jnsgd1na2vs0mg"},{"bike_id":"b5794623-a604-44e5-a70c-9f9cc57bfc2f","system_id":"levelo_inurba_marseille","lat":43.28615,"lon":5.35102,"is_reserved":false,"is_disabled":false,"rental_uris":{"android":"levelo://app?vid=b5794623-a604-44e5-a70c-9f9cc57bfc2f","ios":"levelo://app?vid=b5794623-a604-44e5-a70c-9f9cc57bfc2f"},"vehicle_type_id":"4","last_reported":1729599490,"current_range_meters":17600,"station_id":"ce4bhch2rcd13ifvqeug","pricing_plan_id":"cebpf4jnsgd1na2vs0mg"},{"bike_id":"cb7371ca-13e4-41fd-a98f-53d8fde8b1e2","system_id":"levelo_inurba_marseille","lat":43.30136,"lon":5.39857,"is_reserved":false,"is_disabled":false,"rental_uris":{"android":"levelo://app?vid=cb7371ca-13e4-41fd-a98f-53d8fde8b1e2","ios":"levelo://app?vid=cb7371ca-13e4-41fd-a98f-53d8fde8b1e2"},"vehicle_type_id":"4","last_reported":1729599490,"current_range_meters":32400,"station_id":"ce4bh0h2rcd13ifvqd40","pricing_plan_id":"cebpf4jnsgd1na2vs0mg"},{"bike_id":"78f2e5d9-8d7f-40e5-87bd-9ec1736bd6fb","system_id":"levelo_inurba_marseille","lat":43.2897,"lon":5.37827,"is_reserved":false,"is_disabled":false,"rental_uris":{"android":"levelo://app?vid=78f2e5d9-8d7f-40e5-87bd-9ec1736bd6fb","ios":"levelo://app?vid=78f2e5d9-8d7f-40e5-87bd-9ec1736bd6fb"},"vehicle_type_id":"4","last_reported":1729599490,"current_range_meters":26000,"station_id":"ce4bh9p2rcd13ifvqed0","pricing_plan_id":"cebpf4jnsgd1na2vs0mg"},{"bike_id":"81e4488d-b9df-4764-b508-9fca2a6674ff","system_id":"levelo_inurba_marseille","lat":43.23187,"lon":5.35539,"is_reserved":false,"is_disabled":false,"rental_uris":{"android":"levelo://app?vid=81e4488d-b9df-4764-b508-9fca2a6674ff","ios":"levelo://app?vid=81e4488d-b9df-4764-b508-9fca2a6674ff"},"vehicle_type_id":"4","last_reported":1729599490,"current_range_meters":37600,"station_id":"ce4bhu92rcd13ifvqi70","pricing_plan_id":"cebpf4jnsgd1na2vs0mg"},{"bike_id":"44550e6e-2644-4242-b698-239c03743e5c","system_id":"levelo_inurba_marseille","lat":43.23153,"lon":5.43704,"is_reserved":false,"is_disabled":false,"rental_uris":{"android":"levelo://app?vid=44550e6e-2644-4242-b698-239c03743e5c","ios":"levelo://app?vid=44550e6e-2644-4242-b698-239c03743e5c"},"vehicle_type_id":"4","last_reported":1729599490,"current_range_meters":19600,"station_id":"ce4bhmp2rcd13ifvqgog","pricing_plan_id":"cebpf4jnsgd1na2vs0mg"},{"bike_id":"23e6ca2f-6508-428f-91df-505ca4e33c4f","system_id":"levelo_inurba_marseille","lat":43.33597,"lon":5.41029,"is_reserved":false,"is_disabled":false,"rental_uris":{"android":"levelo://app?vid=23e6ca2f-6508-428f-91df-505ca4e33c4f","ios":"levelo://app?vid=23e6ca2f-6508-428f-91df-505ca4e33c4f"},"vehicle_type_id":"4","last_reported":1729599490,"current_range_meters":24000,"station_id":"ce4bhqh2rcd13ifvqhmg","pricing_plan_id":"cebpf4jnsgd1na2vs0mg"},{"bike_id":"cc7ba531-eadc-4a76-b88a-eac33527a1c8","system_id":"levelo_inurba_marseille","lat":43.31895,"lon":5.40742,"is_reserved":false,"is_disabled":false,"rental_uris":{"android":"levelo://app?vid=cc7ba531-eadc-4a76-b88a-eac33527a1c8","ios":"levelo://app?vid=cc7ba531-eadc-4a76-b88a-eac33527a1c8"},"vehicle_type_id":"4","last_reported":1729599490,"current_range_meters":10000,"station_id":"ce4bhq12rcd13ifvqhig","pricing_plan_id":"cebpf4jnsgd1na2vs0mg"},{"bike_id":"322c577e-0aa3-48ca-aaae-ffd0f613abc0","system_id":"levelo_inurba_marseille","lat":43.27994,"lon":5.40016,"is_reserved":false,"is_disabled":false,"rental_uris":{"android":"levelo://app?vid=322c577e-0aa3-48ca-aaae-ffd0f613abc0","ios":"levelo://app?vid=322c577e-0aa3-48ca-aaae-ffd0f613abc0"},"vehicle_type_id":"4","last_reported":1729599490,"current_range_meters":38800,"station_id":"ce4bho92rcd13ifvqh4g","pricing_plan_id":"cebpf4jnsgd1na2vs0mg"},{"bike_id":"11c162fc-fc9c-43e8-ad40-dd7490deec90","system_id":"levelo_inurba_marseille","lat":43.29166,"lon":5.3715,"is_reserved":false,"is_disabled":false,"rental_uris":{"android":"levelo://app?vid=11c162fc-fc9c-43e8-ad40-dd7490deec90","ios":"levelo://app?vid=11c162fc-fc9c-43e8-ad40-dd7490deec90"},"vehicle_type_id":"4","last_reported":1729599490,"current_range_meters":17600,"station_id":"ce4bha92rcd13ifvqeh0","pricing_plan_id":"cebpf4jnsgd1na2vs0mg"},{"bike_id":"7eb5897b-a43f-4664-ae1d-f6d5ccf879e4","system_id":"levelo_inurba_marseille","lat":43.306,"lon":5.37217,"is_reserved":false,"is_disabled":false,"rental_uris":{"android":"levelo://app?vid=7eb5897b-a43f-4664-ae1d-f6d5ccf879e4","ios":"levelo://app?vid=7eb5897b-a43f-4664-ae1d-f6d5ccf879e4"},"vehicle_type_id":"4","last_reported":1729599490,"current_range_meters":37600,"station_id":"ce4bgqh2rcd13ifvqc4g","pricing_plan_id":"cebpf4jnsgd1na2vs0mg"},{"bike_id":"087a7bf8-4bdf-408b-a60c-b4b0ac6d7a5a","system_id":"levelo_inurba_marseille","lat":43.32481,"lon":5.36564,"is_reserved":false,"is_disabled":false,"rental_uris":{"android":"levelo://app?vid=087a7bf8-4bdf-408b-a60c-b4b0ac6d7a5a","ios":"levelo://app?vid=087a7bf8-4bdf-408b-a60c-b4b0ac6d7a5a"},"vehicle_type_id":"4","last_reported":1729599490,"current_range_meters":38800,"station_id":"ce4bhs12rcd13ifvqhvg","pricing_plan_id":"cebpf4jnsgd1na2vs0mg"},{"bike_id":"cf9cef09-fa96-4f4d-a4c3-e5dca4c180f2","system_id":"levelo_inurba_marseille","lat":43.23149,"lon":5.43717,"is_reserved":false,"is_disabled":false,"rental_uris":{"android":"levelo://app?vid=cf9cef09-fa96-4f4d-a4c3-e5dca4c180f2","ios":"levelo://app?vid=cf9cef09-fa96-4f4d-a4c3-e5dca4c180f2"},"vehicle_type_id":"4","last_reported":1729599490,"current_range_meters":16800,"station_id":"ce4bhmp2rcd13ifvqgog","pricing_plan_id":"cebpf4jnsgd1na2vs0mg"},{"bike_id":"397b3eaa-8808-436c-b8e2-3e3c7bc36b2a","system_id":"levelo_inurba_marseille","lat":43.27994,"lon":5.40984,"is_reserved":false,"is_disabled":false,"rental_uris":{"android":"levelo://app?vid=397b3eaa-8808-436c-b8e2-3e3c7bc36b2a","ios":"levelo://app?vid=397b3eaa-8808-436c-b8e2-3e3c7bc36b2a"},"vehicle_type_id":"4","last_reported":1729599490,"current_range_meters":20400,"station_id":"ce4bho12rcd13ifvqh1g","pricing_plan_id":"cebpf4jnsgd1na2vs0mg"},{"bike_id":"c1202558-5912-4252-85d0-5ea44a1dd5e3","system_id":"levelo_inurba_marseille","lat":43.32487,"lon":5.3656,"is_reserved":false,"is_disabled":false,"rental_uris":{"android":"levelo://app?vid=c1202558-5912-4252-85d0-5ea44a1dd5e3","ios":"levelo://app?vid=c1202558-5912-4252-85d0-5ea44a1dd5e3"},"vehicle_type_id":"4","last_reported":1729599490,"current_range_meters":38800,"station_id":"ce4bhs12rcd13ifvqhvg","pricing_plan_id":"cebpf4jnsgd1na2vs0mg"},{"bike_id":"2ffcc6a3-4fc2-4849-a2ae-d9b0cdb51aa6","system_id":"levelo_inurba_marseille","lat":43.25582,"lon":5.3824,"is_reserved":false,"is_disabled":false,"rental_uris":{"android":"levelo://app?vid=2ffcc6a3-4fc2-4849-a2ae-d9b0cdb51aa6","ios":"levelo://app?vid=2ffcc6a3-4fc2-4849-a2ae-d9b0cdb51aa6"},"vehicle_type_id":"4","last_reported":1729599490,"current_range_meters":22400,"station_id":"ce4bhih2rcd13ifvqfs0","pricing_plan_id":"cebpf4jnsgd1na2vs0mg"},{"bike_id":"fe766750-523b-4665-8f38-55b780a6c187","system_id":"levelo_inurba_marseille","lat":43.2679,"lon":5.39417,"is_reserved":false,"is_disabled":false,"rental_uris":{"android":"levelo://app?vid=fe766750-523b-4665-8f38-55b780a6c187","ios":"levelo://app?vid=fe766750-523b-4665-8f38-55b780a6c187"},"vehicle_type_id":"4","last_reported":1729599490,"current_range_meters":39200,"station_id":"ce4bhh12rcd13ifvqfg0","pricing_plan_id":"cebpf4jnsgd1na2vs0mg"},{"bike_id":"fd0de0f9-7f71-4f3b-972a-54dabc3e8190","system_id":"levelo_inurba_marseille","lat":43.25729,"lon":5.41107,"is_reserved":false,"is_disabled":false,"rental_uris":{"android":"levelo://app?vid=fd0de0f9-7f71-4f3b-972a-54dabc3e8190","ios":"levelo://app?vid=fd0de0f9-7f71-4f3b-972a-54dabc3e8190"},"vehicle_type_id":"4","last_reported":1729599490,"current_range_meters":36800,"station_id":"ce4bhkp2rcd13ifvqgd0","pricing_plan_id":"cebpf4jnsgd1na2vs0mg"},{"bike_id":"3f98541e-8be6-4aaf-802d-83d6f4479ef7","system_id":"levelo_inurba_marseille","lat":43.23173,"lon":5.437,"is_reserved":false,"is_disabled":false,"rental_uris":{"android":"levelo://app?vid=3f98541e-8be6-4aaf-802d-83d6f4479ef7","ios":"levelo://app?vid=3f98541e-8be6-4aaf-802d-83d6f4479ef7"},"vehicle_type_id":"4","last_reported":1729599490,"current_range_meters":27600,"station_id":"ce4bhmp2rcd13ifvqgog","pricing_plan_id":"cebpf4jnsgd1na2vs0mg"},