{"last_updated":1774134904,"ttl":60,"version":"2.2","data":{"bikes":[{"bike_id":"53f48266-4564-420b-96ab-d243233055dc","system_id":"levelo_inurba_marseille","lat":43.2848,"lon":5.48403,"is_reserved":false,"is_disabled":false,"rental_uris":{"android":"levelo://app?vid=53f48266-4564-420b-96ab-d243233055dc","ios":"levelo://app?vid=53f48266-4564-420b-96ab-d243233055dc"},"vehicle_type_id":"4","last_reported":1774134905,"current_range_meters":2800,"station_id":"","pricing_plan_id":"cebpf4jnsgd1na2vs0mg"},{"bike_id":"a775511c-9985-4a58-8c4c-775aad7f3e36","system_id":"levelo_inurba_marseille","lat":43.29893,"lon":5.4367,"is_reserved":false,"is_disabled":false,"rental_uris":{"android":"levelo://app?vid=a775511c-9985-4a58-8c4c-775aad7f3e36","ios":"levelo://app?vid=a775511c-9985-4a58-8c4c-775aad7f3e36"},"vehicle_type_id":"4","last_reported":1774134905,"current_range_meters":2800,"station_id":"ce4bhpp2rcd13ifvqhfg","pricing_plan_id":"cebpf4jnsgd1na2vs0mg"},{"bike_id":"248539f1-1dbd-4678-b58c-e7849287fdd5","system_id":"levelo_inurba_marseille","lat":43.26388,"lon":5.41081,"is_reserved":false,"is_disabled":false,"rental_uris":{"android":"levelo://app?vid=248539f1-1dbd-4678-b58c-e7849287fdd5","ios":"levelo://app?vid=248539f1-1dbd-4678-b58c-e7849287fdd5"},"vehicle_type_id":"4","last_reported":1774134905,"current_range_meters":2800,"station_id":"st_d4e5ca6na9uc73bfl5fg","pricing_plan_id":"cebpf4jnsgd1na2vs0mg"},{"bike_id":"c300e010-5eb9-4d7b-9e14-3cedf980c2f1","system_id":"levelo_inurba_marseille","lat":43.26219,"lon":5.37443,"is_reserved":false,"is_disabled":false,"rental_uris":{"android":"levelo://app?vid=c300e010-5eb9-4d7b-9e14-3cedf980c2f1","ios":"levelo://app?vid=c300e010-5eb9-4d7b-9e14-3cedf980c2f1"},"vehicle_type_id":"4","last_reported":1774134905,"current_range_meters":2800,"station_id":"ce4bhgp2rcd13ifvqfc0","pricing_plan_id":"cebpf4jnsgd1na2vs0mg"},{"bike_id":"e2420c11-4646-4145-aa2e-baedb91a43dc","system_id":"levelo_inurba_marseille","lat":43.32356,"lon":5.3675,"is_reserved":false,"is_disabled":false,"rental_uris":{"android":"levelo://app?vid=e2420c11-4646-4145-aa2e-baedb91a43dc","ios":"levelo://app?vid=e2420c11-4646-4145-aa2e-baedb91a43dc"},"vehicle_type_id":"4","last_reported":1774134905,"current_range_meters":2800,"station_id":"ce4bhsh2rcd13ifvqi2g","pricing_plan_id":"cebpf4jnsgd1na2vs0mg"},{"bike_id":"03a74229-5ede-4cd5-9ad9-d142ed50c73e","system_id":"levelo_inurba_marseille","lat":43.24471,"lon":5.42533,"is_reserved":false,"is_disabled":false,"rental_uris":{"android":"levelo://app?vid=03a74229-5ede-4cd5-9ad9-d142ed50c73e","ios":"levelo://app?vid=03a74229-5ede-4cd5-9ad9-d142ed50c73e"},"vehicle_type_id":"4","last_reported":1774134905,"current_range_meters":2800,"station_id":"st_d4a3vfp97mjs738cd8kg","pricing_plan_id":"cebpf4jnsgd1na2vs0mg"},{"bike_id":"25711bef-13f9-48fd-8f33-592148b8dc65","system_id":"levelo_inurba_marseille","lat":43.25339,"lon":5.42157,"is_reserved":false,"is_disabled":false,"rental_uris":{"android":"levelo://app?vid=25711bef-13f9-48fd-8f33-592148b8dc65","ios":"levelo://app?vid=25711bef-13f9-48fd-8f33-592148b8dc65"},"vehicle_type_id":"4","last_reported":1774134905,"current_range_meters":2800,"station_id":"st_d2m65c5bi1j21697t3ng","pricing_plan_id":"cebpf4jnsgd1na2vs0mg"},{"bike_id":"a96bed03-4bc3-412a-9ef2-84e473f7d464","system_id":"levelo_inurba_marseille","lat":43.27183,"lon":5.40996,"is_reserved":false,"is_disabled":false,"rental_uris":{"android":"levelo://app?vid=a96bed03-4bc3-412a-9ef2-84e473f7d464","ios":"levelo://app?vid=a96bed03-4bc3-412a-9ef2-84e473f7d464"},"vehicle_type_id":"4","last_reported":1774134905,"current_range_meters":2800,"station_id":"ce4bhl12rcd13ifvqgf0","pricing_plan_id":"cebpf4jnsgd1na2vs0mg"},{"bike_id":"c1746655-55ef-42eb-af42-797a35d5f041","system_id":"levelo_inurba_marseille","lat":43.3189,"lon":5.36805,"is_reserved":false,"is_disabled":false,"rental_uris":{"android":"levelo://app?vid=c1746655-55ef-42eb-af42-797a35d5f041","ios":"levelo://app?vid=c1746655-55ef-42eb-af42-797a35d5f041"},"vehicle_type_id":"4","last_reported":1774134905,"current_range_meters":2800,"station_id":"","pricing_plan_id":"cebpf4jnsgd1na2vs0mg"},{"bike_id":"77f8a8b1-2bdb-42b0-adbe-1a8ec0f6e7dc","system_id":"levelo_inurba_marseille","lat":43.29799,"lon":5.44085,"is_reserved":false,"is_disabled":false,"rental_uris":{"android":"levelo://app?vid=77f8a8b1-2bdb-42b0-adbe-1a8ec0f6e7dc","ios":"levelo://app?vid=77f8a8b1-2bdb-42b0-adbe-1a8ec0f6e7dc"},"vehicle_type_id":"4","last_reported":1774134905,"current_range_meters":3200,"station_id":"st_d3jp68qikq2c7381ktn0","pricing_plan_id":"cebpf4jnsgd1na2vs0mg"},{"bike_id":"f15bd2d3-5b76-4516-83cf-607c5d5c7457","system_id":"levelo_inurba_marseille","lat":43.30796,"lon":5.38153,"is_reserved":false,"is_disabled":false,"rental_uris":{"android":"levelo://app?vid=f15bd2d3-5b76-4516-83cf-607c5d5c7457","ios":"levelo://app?vid=f15bd2d3-5b76-4516-83cf-607c5d5c7457"},"vehicle_type_id":"4","last_reported":1774134905,"current_range_meters":3200,"station_id":"ce4bgt12rcd13ifvqce0","pricing_plan_id":"cebpf4jnsgd1na2vs0mg"},{"bike_id":"0f699794-8202-4161-a052-1d39a341c5fa","system_id":"levelo_inurba_marseille","lat":43.31184,"lon":5.38712,"is_reserved":false,"is_disabled":true,"rental_uris":{"android":"levelo://app?vid=0f699794-8202-4161-a052-1d39a341c5fa","ios":"levelo://app?vid=0f699794-8202-4161-a052-1d39a341c5fa"},"vehicle_type_id":"4","last_reported":1774134905,"current_range_meters":3200,"station_id":"ce4bgv12rcd13ifvqcp0","pricing_plan_id":"cebpf4jnsgd1na2vs0mg"},{"bike_id":"55a490e7-39b0-4c94-89cf-24ae199cda35","system_id":"levelo_inurba_marseille","lat":43.26209,"lon":5.37433,"is_reserved":false,"is_disabled":false,"rental_uris":{"android":"levelo://app?vid=55a490e7-39b0-4c94-89cf-24ae199cda35","ios":"levelo://app?vid=55a490e7-39b0-4c94-89cf-24ae199cda35"},"vehicle_type_id":"4","last_reported":1774134905,"current_range_meters":3200,"station_id":"ce4bhgp2rcd13ifvqfc0","pricing_plan_id":"cebpf4jnsgd1na2vs0mg"},{"bike_id":"b309780c-f18f-4fe1-a296-4db0116af156","system_id":"levelo_inurba_marseille","lat":43.28632,"lon":5.35104,"is_reserved":false,"is_disabled":false,"rental_uris":{"android":"levelo://app?vid=b309780c-f18f-4fe1-a296-4db0116af156","ios":"levelo://app?vid=b309780c-f18f-4fe1-a296-4db0116af156"},"vehicle_type_id":"4","last_reported":1774134905,"current_range_meters":3200,"station_id":"ce4bhch2rcd13ifvqeug","pricing_plan_id":"cebpf4jnsgd1na2vs0mg"},{"bike_id":"5887fa80-e29b-4d51-b5ac-9b9cb10de9fc","system_id":"levelo_inurba_marseille","lat":43.31163,"lon":5.38724,"is_reserved":false,"is_disabled":false,"rental_uris":{"android":"levelo://app?vid=5887fa80-e29b-4d51-b5ac-9b9cb10de9fc","ios":"levelo://app?vid=5887fa80-e29b-4d51-b5ac-9b9cb10de9fc"},"vehicle_type_id":"4","last_reported":1774134905,"current_range_meters":3200,"station_id":"ce4bgv12rcd13ifvqcp0","pricing_plan_id":"cebpf4jnsgd1na2vs0mg"},{"bike_id":"be78ca0c-c7b6-4a78-bd34-4dfd5d353808","system_id":"levelo_inurba_marseille","lat":43.29818,"lon":5.39314,"is_reserved":false,"is_disabled":true,"rental_uris":{"android":"levelo://app?vid=be78ca0c-c7b6-4a78-bd34-4dfd5d353808","ios":"levelo://app?vid=be78ca0c-c7b6-4a78-bd34-4dfd5d353808"},"vehicle_type_id":"4","last_reported":1774134905,"current_range_meters":3200,"station_id":"chh1huq6cuj3fo74tm60","pricing_plan_id":"cebpf4jnsgd1na2vs0mg"},{"bike_id":"9bedb971-6887-4d43-88c8-1762430f453d","system_id":"levelo_inurba_marseille","lat":43.2466,"lon":5.38164,"is_reserved":false,"is_disabled":true,"rental_uris":{"android":"levelo://app?vid=9bedb971-6887-4d43-88c8-1762430f453d","ios":"levelo://app?vid=9bedb971-6887-4d43-88c8-1762430f453d"},"vehicle_type_id":"4","last_reported":1774134905,"current_range_meters":3200,"station_id":"ce4bhih2rcd13ifvqfr0","pricing_plan_id":"cebpf4jnsgd1na2vs0mg"},{"bike_id":"227eba85-8211-4d0d-bd09-d4a734cfd50d","system_id":"levelo_inurba_marseille","lat":43.29539,"lon":5.3854,"is_reserved":false,"is_disabled":false,"rental_uris":{"android":"levelo://app?vid=227eba85-8211-4d0d-bd09-d4a734cfd50d","ios":"levelo://app?vid=227eba85-8211-4d0d-bd09-d4a734cfd50d"},"vehicle_type_id":"4","last_reported":1774134905,"current_range_meters":3200,"station_id":"ce4bgih2rcd13ifvqba0","pricing_plan_id":"cebpf4jnsgd1na2vs0mg"},{"bike_id":"7fa64d84-cd92-4f02-a79d-c348b129b15f","system_id":"levelo_inurba_marseille","lat":43.24176,"lon":5.36393,"is_reserved":false,"is_disabled":false,"rental_uris":{"android":"levelo://app?vid=7fa64d84-cd92-4f02-a79d-c348b129b15f","ios":"levelo://app?vid=7fa64d84-cd92-4f02-a79d-c348b129b15f"},"vehicle_type_id":"4","last_reported":1774134905,"current_range_meters":3200,"station_id":"cpo36qri1sfpv3e86is0","pricing_plan_id":"cebpf4jnsgd1na2vs0mg"},{"bike_id":"3b386a5b-d9d1-4269-939f-ca988926aec5","system_id":"levelo_inurba_marseille","lat":43.30323,"lon":5.40431,"is_reserved":false,"is_disabled":false,"rental_uris":{"android":"levelo://app?vid=3b386a5b-d9d1-4269-939f-ca988926aec5","ios":"levelo://app?vid=3b386a5b-d9d1-4269-939f-ca988926aec5"},"vehicle_type_id":"4","last_reported":1774134905,"current_range_meters":3200,"station_id":"ce4bh012rcd13ifvqd10","pricing_plan_id":"cebpf4jnsgd1na2vs0mg"},{"bike_id":"8c35357a-245e-4d94-8531-9cb51fc7584e","system_id":"levelo_inurba_marseille","lat":43.28338,"lon":5.38086,"is_reserved":false,"is_disabled":false,"rental_uris":{"android":"levelo://app?vid=8c35357a-245e-4d94-8531-9cb51fc7584e","ios":"levelo://app?vid=8c35357a-245e-4d94-8531-9cb51fc7584e"},"vehicle_type_id":"4","last_reported":1774134905,"current_range_meters":3200,"station_id":"ce4bh412rcd13ifvqdr0","pricing_plan_id":"cebpf4jnsgd1na2vs0mg"},{"bike_id":"0a0ec1cc-f31b-41fc-ac36-3ed72d383277","system_id":"levelo_inurba_marseille","lat":43.28981,"lon":5.37842,"is_reserved":false,"is_disabled":false,"rental_uris":{"android":"levelo://app?vid=0a0ec1cc-f31b-41fc-ac36-3ed72d383277","ios":"levelo://app?vid=0a0ec1cc-f31b-41fc-ac36-3ed72d383277"},"vehicle_type_id":"4","last_reported":1774134905,"current_range_meters":3200,"station_id":"ce4bh9p2rcd13ifvqed0","pricing_plan_id":"cebpf4jnsgd1na2vs0mg"},{"bike_id":"76e3a855-6bf4-460f-ac74-ec562db94e69","system_id":"levelo_inurba_marseille","lat":43.30807,"lon":5.39999,"is_reserved":false,"is_disabled":false,"rental_uris":{"android":"levelo://app?vid=76e3a855-6bf4-460f-ac74-ec562db94e69","ios":"levelo://app?vid=76e3a855-6bf4-460f-ac74-ec562db94e69"},"vehicle_type_id":"4","last_reported":1774134905,"current_range_meters":3200,"station_id":"","pricing_plan_id":"cebpf4jnsgd1na2vs0mg"},{"bike_id":"ad47e9bb-b18d-4893-874f-8071046fb9b4","system_id":"levelo_inurba_marseille","lat":43.2999,"lon":5.38495,"is_reserved":false,"is_disabled":false,"rental_uris":{"android":"levelo://app?vid=ad47e9bb-b18d-4893-874f-8071046fb9b4","ios":"levelo://app?vid=ad47e9bb-b18d-4893-874f-8071046fb9b4"},"vehicle_type_id":"4","last_reported":1774134905,"current_range_meters":3200,"station_id":"ce4bgj92rcd13ifvqbd0","pricing_plan_id":"cebpf4jnsgd1na2vs0mg"},{"bike_id":"8a4ee7b7-fcbb-4e7a-a2d1-3d56548ff53c","system_id":"levelo_inurba_marseille","lat":43.29103,"lon":5.38171,"is_reserved":false,"is_disabled":false,"rental_uris":{"android":"levelo://app?vid=8a4ee7b7-fcbb-4e7a-a2d1-3d56548ff53c","ios":"levelo://app?vid=8a4ee7b7-fcbb-4e7a-a2d1-3d56548ff53c"},"vehicle_type_id":"4","last_reported":1774134905,"current_range_meters":3600,"station_id":"ce4bh512rcd13ifvqe2g","pricing_plan_id":"cebpf4jnsgd1na2vs0mg"},{"bike_id":"98247e24-3bc2-4a40-85bf-746c8cabf834","system_id":"levelo_inurba_marseille","lat":43.26213,"lon":5.37439,"is_reserved":false,"is_disabled":false,"rental_uris":{"android":"levelo://app?vid=98247e24-3bc2-4a40-85bf-746c8cabf834","ios":"levelo://app?vid=98247e24-3bc2-4a40-85bf-746c8cabf834"},"vehicle_type_id":"4","last_reported":1774134905,"current_range_meters":3600,"station_id":"ce4bhgp2rcd13ifvqfc0","pricing_plan_id":"cebpf4jnsgd1na2vs0mg"},{"bike_id":"8aeb1ffc-b432-4235-8304-c0a4c58e7fe3","system_id":"levelo_inurba_marseille","lat":43.29755,"lon":5.38379,"is_reserved":false,"is_disabled":false,"rental_uris":{"android":"levelo://app?vid=8aeb1ffc-b432-4235-8304-c0a4c58e7fe3","ios":"levelo://app?vid=8aeb1ffc-b432-4235-8304-c0a4c58e7fe3"},"vehicle_type_id":"4","last_reported":1774134905,"current_range_meters":3600,"station_id":"","pricing_plan_id":"cebpf4jnsgd1na2vs0mg"},{"bike_id":"a35b38af-9978-4959-b06c-51cebe2fd083","system_id":"levelo_inurba_marseille","lat":43.29583,"lon":5.3874,"is_reserved":false,"is_disabled":false,"rental_uris":{"android":"levelo://app?vid=a35b38af-9978-4959-b06c-51cebe2fd083","ios":"levelo://app?vid=a35b38af-9978-4959-b06c-51cebe2fd083"},"vehicle_type_id":"4","last_reported":1774134905,"current_range_meters":3600,"station_id":"","pricing_plan_id":"cebpf4jnsgd1na2vs0mg"},{"bike_id":"f8a3b231-4dcf-4051-ae11-76620efbb058","system_id":"levelo_inurba_marseille","lat":43.292,"lon":5.39301,"is_reserved":false,"is_disabled":false,"rental_uris":{"android":"levelo://app?vid=f8a3b231-4dcf-4051-ae11-76620efbb058","ios":"levelo://app?vid=f8a3b231-4dcf-4051-ae11-76620efbb058"},"vehicle_type_id":"4","last_reported":1774134905,"current_range_meters":3600,"station_id":"ce4bh192rcd13ifvqdd0","pricing_plan_id":"cebpf4jnsgd1na2vs0mg"},{"bike_id":"ecc641f1-72e5-4eec-8cc2-a5f8c7c8bdfc","system_id":"levelo_inurba_marseille","lat":43.30208,"lon":5.39454,"is_reserved":false,"is_disabled":false,"rental_uris":{"android":"levelo://app?vid=ecc641f1-72e5-4eec-8cc2-a5f8c7c8bdfc","ios":"levelo://app?vid=ecc641f1-72e5-4eec-8cc2-a5f8c7c8bdfc"},"vehicle_type_id":"4","last_reported":1774134905,"current_range_meters":3600,"station_id":"ce4bh0p2rcd13ifvqd70","pricing_plan_id":"cebpf4jnsgd1na2vs0mg"},{"bike_id":"2986b60a-3bbe-4212-8e67-594d4f9f2b39","system_id":"levelo_inurba_marseille","lat":43.278168,"lon":5.407221,"is_reserved":false,"is_disabled":false,"rental_uris":{"android":"levelo://app?vid=2986b60a-3bbe-4212-8e67-594d4f9f2b39","ios":"levelo://app?vid=2986b60a-3bbe-4212-8e67-594d4f9f2b39"},"vehicle_type_id":"4","last_reported":1774134905,"current_range_meters":3600,"station_id":"ce4bhnh2rcd13ifvqgtg","pricing_plan_id":"cebpf4jnsgd1na2vs0mg"},{"bike_id":"16fe25c4-6472-47d6-882b-5ff94101fa7d","system_id":"levelo_inurba_marseille","lat":43.2118,"lon":5.35103,"is_reserved":false,"is_disabled":false,"rental_uris":{"android":"levelo://app?vid=16fe25c4-6472-47d6-882b-5ff94101fa7d","ios":"levelo://app?vid=16fe25c4-6472-47d6-882b-5ff94101fa7d"},"vehicle_type_id":"4","last_reported":1774134905,"current_range_meters":3600,"station_id":"st_cvj6sg6p6f1abm77japg","pricing_plan_id":"cebpf4jnsgd1na2vs0mg"},{"bike_id":"751ef627-02fd-4d51-952c-1fc9b24a865e","system_id":"levelo_inurba_marseille","lat":43.29609,"lon":5.37725,"is_reserved":false,"is_disabled":false,"rental_uris":{"android":"levelo://app?vid=751ef627-02fd-4d51-952c-1fc9b24a865e","ios":"levelo://app?vid=751ef627-02fd-4d51-952c-1fc9b24a865e"},"vehicle_type_id":"4","last_reported":1774134905,"current_range_meters":3600,"station_id":"ce4bgi92rcd13ifvqb90","pricing_plan_id":"cebpf4jnsgd1na2vs0mg"},{"bike_id":"dcb7fa85-9576-461b-9db4-bfb93259aa75","system_id":"levelo_inurba_marseille","lat":43.25517,"lon":5.37694,"is_reserved":false,"is_disabled":true,"rental_uris":{"android":"levelo://app?vid=dcb7fa85-9576-461b-9db4-bfb93259aa75","ios":"levelo://app?vid=dcb7fa85-9576-461b-9db4-bfb93259aa75"},"vehicle_type_id":"4","last_reported":1774134905,"current_range_meters":3600,"station_id":"ce4bhh12rcd13ifvqff0","pricing_plan_id":"cebpf4jnsgd1na2vs0mg"},{"bike_id":"468a5932-e47d-4ce1-8687-fa5662a3dd04","system_id":"levelo_inurba_marseille","lat":43.28433,"lon":5.39194,"is_reserved":false,"is_disabled":false,"rental_uris":{"android":"levelo://app?vid=468a5932-e47d-4ce1-8687-fa5662a3dd04","ios":"levelo://app?vid=468a5932-e47d-4ce1-8687-fa5662a3dd04"},"vehicle_type_id":"4","last_reported":1774134905,"current_range_meters":3600,"station_id":"ce4bhoh2rcd13ifvqh5g","pricing_plan_id":"cebpf4jnsgd1na2vs0mg"},{"bike_id":"9b91f71d-6123-4003-9c0b-5c859ade40e3","system_id":"levelo_inurba_marseille","lat":43.28002,"lon":5.39998,"is_reserved":false,"is_disabled":false,"rental_uris":{"android":"levelo://app?vid=9b91f71d-6123-4003-9c0b-5c859ade40e3","ios":"levelo://app?vid=9b91f71d-6123-4003-9c0b-5c859ade40e3"},"vehicle_type_id":"4","last_reported":1774134905,"current_range_meters":3600,"station_id":"ce4bho92rcd13ifvqh4g","pricing_plan_id":"cebpf4jnsgd1na2vs0mg"},{"bike_id":"7ba80008-60b8-4bf7-9180-542631266876","system_id":"levelo_inurba_marseille","lat":43.33533,"lon":5.37443,"is_reserved":false,"is_disabled":false,"rental_uris":{"android":"levelo://app?vid=7ba80008-60b8-4bf7-9180-542631266876","ios":"levelo://app?vid=7ba80008-60b8-4bf7-9180-542631266876"},"vehicle_type_id":"4","last_reported":1774134905,"current_range_meters":3600,"station_id":"st_d46tts09ee8s73dlu43g","pricing_plan_id":"cebpf4jnsgd1na2vs0mg"},{"bike_id":"ad0918dd-198c-4cbb-ab94-e0fdeab67f2b","system_id":"levelo_inurba_marseille","lat":43.23191,"lon":5.35558,"is_reserved":false,"is_disabled":false,"rental_uris":{"android":"levelo://app?vid=ad0918dd-198c-4cbb-ab94-e0fdeab67f2b","ios":"levelo://app?vid=ad0918dd-198c-4cbb-ab94-e0fdeab67f2b"},"vehicle_type_id":"4","last_reported":1774134905,"current_range_meters":3600,"station_id":"ce4bhu92rcd13ifvqi70","pricing_plan_id":"cebpf4jnsgd1na2vs0mg"},{"bike_id":"dfa608d8-9ea3-493c-9119-e51f33dbd3dd","system_id":"levelo_inurba_marseille","lat":43.31172,"lon":5.38703,"is_reserved":false,"is_disabled":false,"rental_uris":{"android":"levelo://app?vid=dfa608d8-9ea3-493c-9119-e51f33dbd3dd","ios":"levelo://app?vid=dfa608d8-9ea3-493c-9119-e51f33dbd3dd"},"vehicle_type_id":"4","last_reported":1774134905,"current_range_meters":3600,"station_id":"ce4bgv12rcd13ifvqcp0","pricing_plan_id":"cebpf4jnsgd1na2vs0mg"},{"bike_id":"894d0cad-555f-4065-a812-2928f8abe91e","system_id":"levelo_inurba_marseille","lat":43.31354,"lon":5.36709,"is_reserved":false,"is_disabled":false,"rental_uris":{"android":"levelo://app?vid=894d0cad-555f-4065-a812-2928f8abe91e","ios":"levelo://app?vid=894d0cad-555f-4065-a812-2928f8abe91e"},"vehicle_type_id":"4","last_reported":1774134905,"current_range_meters":3600,"station_id":"ce4bgr92rcd13ifvqc6g","pricing_plan_id":"cebpf4jnsgd1na2vs0mg"},{"bike_id":"9752e825-6131-42f3-9b18-a4fd785727cd","system_id":"levelo_inurba_marseille","lat":43.29822,"lon":5.38071,"is_reserved":false,"is_disabled":false,"rental_uris":{"android":"levelo://app?vid=9752e825-6131-42f3-9b18-a4fd785727cd","ios":"levelo://app?vid=9752e825-6131-42f3-9b18-a4fd785727cd"},"vehicle_type_id":"4","last_reported":1774134905,"current_range_meters":3600,"station_id":"ce4bgip2rcd13ifvqbb0","pricing_plan_id":"cebpf4jnsgd1na2vs0mg"},{"bike_id":"26c4064a-9e58-408b-a63d-ddc74ff75dc1","system_id":"levelo_inurba_marseille","lat":43.28356,"lon":5.38621,"is_reserved":false,"is_disabled":false,"rental_uris":{"android":"levelo://app?vid=26c4064a-9e58-408b-a63d-ddc74ff75dc1","ios":"levelo://app?vid=26c4064a-9e58-408b-a63d-ddc74ff75dc1"},"vehicle_type_id":"4","last_reported":1774134905,"current_range_meters":3600,"station_id":"ce4bh492rcd13ifvqdvg","pricing_plan_id":"cebpf4jnsgd1na2vs0mg"},{"bike_id":"fdc655d4-8c99-4d97-9c1e-46ec98ef8979","system_id":"levelo_inurba_marseille","lat":43.2863,"lon":5.35089,"is_reserved":false,"is_disabled":true,"rental_uris":{"android":"levelo://app?vid=fdc655d4-8c99-4d97-9c1e-46ec98ef8979","ios":"levelo://app?vid=fdc655d4-8c99-4d97-9c1e-46ec98ef8979"},"vehicle_type_id":"4","last_reported":1774134905,"current_range_meters":4000,"station_id":"ce4bhch2rcd13ifvqeug","pricing_plan_id":"cebpf4jnsgd1na2vs0mg"},{"bike_id":"f7980c2b-e862-49a2-ac35-df8e5d5ffd4e","system_id":"levelo_inurba_marseille","lat":43.30801,"lon":5.38152,"is_reserved":false,"is_disabled":false,"rental_uris":{"android":"levelo://app?vid=f7980c2b-e862-49a2-ac35-df8e5d5ffd4e","ios":"levelo://app?vid=f7980c2b-e862-49a2-ac35-df8e5d5ffd4e"},"vehicle_type_id":"4","last_reported":1774134905,"current_range_meters":4000,"station_id":"ce4bgt12rcd13ifvqce0","pricing_plan_id":"cebpf4jnsgd1na2vs0mg"},{"bike_id":"5c2aeccc-baa6-4b75-8ec1-e382dd8ba246","system_id":"levelo_inurba_marseille","lat":43.29746,"lon":5.42797,"is_reserved":false,"is_disabled":true,"rental_uris":{"android":"levelo://app?vid=5c2aeccc-baa6-4b75-8ec1-e382dd8ba246","ios":"levelo://app?vid=5c2aeccc-baa6-4b75-8ec1-e382dd8ba246"},"vehicle_type_id":"4","last_reported":1774134905,"current_range_meters":4000,"station_id":"st_d3md5207bmas73dh9klg","pricing_plan_id":"cebpf4jnsgd1na2vs0mg"},{"bike_id":"286fba00-1c70-49c5-9491-0b3044de24cb","system_id":"levelo_inurba_marseille","lat":43.26221,"lon":5.40447,"is_reserved":false,"is_disabled":true,"rental_uris":{"android":"levelo://app?vid=286fba00-1c70-49c5-9491-0b3044de24cb","ios":"levelo://app?vid=286fba00-1c70-49c5-9491-0b3044de24cb"},"vehicle_type_id":"4","last_reported":1774134905,"current_range_meters":4000,"station_id":"ce4bhmh2rcd13ifvqgmg","pricing_plan_id":"cebpf4jnsgd1na2vs0mg"},{"bike_id":"f3414e99-2d7c-4b03-96db-df8c1c6d3f2b","system_id":"levelo_inurba_marseille","lat":43.28482,"lon":5.48407,"is_reserved":false,"is_disabled":false,"rental_uris":{"android":"levelo://app?vid=f3414e99-2d7c-4b03-96db-df8c1c6d3f2b","ios":"levelo://app?vid=f3414e99-2d7c-4b03-96db-df8c1c6d3f2b"},"vehicle_type_id":"4","last_reported":1774134905,"current_range_meters":4000,"station_id":"","pricing_plan_id":"cebpf4jnsgd1na2vs0mg"},{"bike_id":"a8c8307b-e1e9-4950-a785-578e1a82f805","system_id":"levelo_inurba_marseille","lat":43.31284,"lon":5.37816,"is_reserved":false,"is_disabled":false,"rental_uris":{"android":"levelo://app?vid=a8c8307b-e1e9-4950-a785-578e1a82f805","ios":"levelo://app?vid=a8c8307b-e1e9-4950-a785-578e1a82f805"},"vehicle_type_id":"4","last_reported":1774134905,"current_range_meters":4000,"station_id":"","pricing_plan_id":"cebpf4jnsgd1na2vs0mg"},{"bike_id":"962e3e51-db50-4f61-a079-9b1c6a103eb5","system_id":"levelo_inurba_marseille","lat":43.30963,"lon":5.36814,"is_reserved":false,"is_disabled":false,"rental_uris":{"android":"levelo://app?vid=962e3e51-db50-4f61-a079-9b1c6a103eb5","ios":"levelo://app?vid=962e3e51-db50-4f61-a079-9b1c6a103eb5"},"vehicle_type_id":"4","last_reported":1774134905,"current_range_meters":4000,"station_id":"","pricing_plan_id":"cebpf4jnsgd1na2vs0mg"},{"bike_id":"73206cd7-297d-41e6-ad5c-9899f25346cd","system_id":"levelo_inurba_marseille","lat":43.27791,"lon":5.40747,"is_reserved":false,"is_disabled":false,"rental_uris":{"android":"levelo://app?vid=73206cd7-297d-41e6-ad5c-9899f25346cd","ios":"levelo://app?vid=73206cd7-297d-41e6-ad5c-9899f25346cd"},"vehicle_type_id":"4","last_reported":1774134905,"current_range_meters":4000,"station_id":"ce4bhnh2rcd13ifvqgtg","pricing_plan_id":"cebpf4jnsgd1na2vs0mg"},{"bike_id":"b318198a-c881-4588-be58-b90b922e4b36","system_id":"levelo_inurba_marseille","lat":43.26578,"lon":5.39012,"is_reserved":false,"is_disabled":false,"rental_uris":{"android":"levelo://app?vid=b318198a-c881-4588-be58-b90b922e4b36","ios":"levelo://app?vid=b318198a-c881-4588-be58-b90b922e4b36"},"vehicle_type_id":"4","last_reported":1774134905,"current_range_meters":4000,"station_id":"ce4bhe12rcd13ifvqf30","pricing_plan_id":"cebpf4jnsgd1na2vs0mg"},{"bike_id":"22831b9b-08b6-4dcd-a609-7178e23d367a","system_id":"levelo_inurba_marseille","lat":43.29038,"lon":5.38152,"is_reserved":false,"is_disabled":false,"rental_uris":{"android":"levelo://app?vid=22831b9b-08b6-4dcd-a609-7178e23d367a","ios":"levelo://app?vid=22831b9b-08b6-4dcd-a609-7178e23d367a"},"vehicle_type_id":"4","last_reported":1774134905,"current_range_meters":4000,"station_id":"ce4bh4p2rcd13ifvqe1g","pricing_plan_id":"cebpf4jnsgd1na2vs0mg"},{"bike_id":"8c69132c-2984-4cc6-9bef-dfc23fde7db7","system_id":"levelo_inurba_marseille","lat":43.29874,"lon":5.38907,"is_reserved":false,"is_disabled":false,"rental_uris":{"android":"levelo://app?vid=8c69132c-2984-4cc6-9bef-dfc23fde7db7","ios":"levelo://app?vid=8c69132c-2984-4cc6-9bef-dfc23fde7db7"},"vehicle_type_id":"4","last_reported":1774134905,"current_range_meters":4000,"station_id":"ce4bh392rcd13ifvqdl0","pricing_plan_id":"cebpf4jnsgd1na2vs0mg"},{"bike_id":"8aae69ee-1386-423b-94ef-ac35e377a153","system_id":"levelo_inurba_marseille","lat":43.31263,"lon":5.37178,"is_reserved":false,"is_disabled":false,"rental_uris":{"android":"levelo://app?vid=8aae69ee-1386-423b-94ef-ac35e377a153","ios":"levelo://app?vid=8aae69ee-1386-423b-94ef-ac35e377a153"},"vehicle_type_id":"4","last_reported":1774134905,"current_range_meters":4000,"station_id":"","pricing_plan_id":"cebpf4jnsgd1na2vs0mg"},{"bike_id":"adc5ac07-5147-43c6-b3e9-46b364b058d3","system_id":"levelo_inurba_marseille","lat":43.21754,"lon":5.3462,"is_reserved":false,"is_disabled":true,"rental_uris":{"android":"levelo://app?vid=adc5ac07-5147-43c6-b3e9-46b364b058d3","ios":"levelo://app?vid=adc5ac07-5147-43c6-b3e9-46b364b058d3"},"vehicle_type_id":"4","last_reported":1774134905,"current_range_meters":4000,"station_id":"st_cvj6r9ubvosntc0bgbag","pricing_plan_id":"cebpf4jnsgd1na2vs0mg"},{"bike_id":"f08e64d2-f5e2-4812-8be4-646d36635e41","system_id":"levelo_inurba_marseille","lat":43.29109,"lon":5.38145,"is_reserved":false,"is_disabled":false,"rental_uris":{"android":"levelo://app?vid=f08e64d2-f5e2-4812-8be4-646d36635e41","ios":"levelo://app?vid=f08e64d2-f5e2-4812-8be4-646d36635e41"},"vehicle_type_id":"4","last_reported":1774134905,"current_range_meters":4000,"station_id":"ce4bh512rcd13ifvqe2g","pricing_plan_id":"cebpf4jnsgd1na2vs0mg"},{"bike_id":"0a911f55-da6c-4dfc-ac97-442c44a38ceb","system_id":"levelo_inurba_marseille","lat":43.26797,"lon":5.40256,"is_reserved":false,"is_disabled":false,"rental_uris":{"android":"levelo://app?vid=0a911f55-da6c-4dfc-ac97-442c44a38ceb","ios":"levelo://app?vid=0a911f55-da6c-4dfc-ac97-442c44a38ceb"},"vehicle_type_id":"4","last_reported":1774134905,"current_range_meters":4000,"station_id":"ce501612rcd8frsf0b60","pricing_plan_id":"cebpf4jnsgd1na2vs0mg"},{"bike_id":"5672f140-f178-4766-bb60-5301b26a0e4e","system_id":"levelo_inurba_marseille","lat":43.2848,"lon":5.48386,"is_reserved":false,"is_disabled":false,"rental_uris":{"android":"levelo://app?vid=5672f140-f178-4766-bb60-5301b26a0e4e","ios":"levelo://app?vid=5672f140-f178-4766-bb60-5301b26a0e4e"},"vehicle_type_id":"4","last_reported":1774134905,"current_range_meters":4400,"station_id":"","pricing_plan_id":"cebpf4jnsgd1na2vs0mg"},{"bike_id":"53663f10-c972-4dad-83a0-96ec19d2a37e","system_id":"levelo_inurba_marseille","lat":43.25009,"lon":5.38911,"is_reserved":false,"is_disabled":true,"rental_uris":{"android":"levelo://app?vid=53663f10-c972-4dad-83a0-96ec19d2a37e","ios":"levelo://app?vid=53663f10-c972-4dad-83a0-96ec19d2a37e"},"vehicle_type_id":"4","last_reported":1774134905,"current_range_meters":4400,"station_id":"ce4bhgp2rcd13ifvqfd0","pricing_plan_id":"cebpf4jnsgd1na2vs0mg"},{"bike_id":"92f32112-8a58-4a2d-8380-c50aa46da344","system_id":"levelo_inurba_marseille","lat":43.24071,"lon":5.3637,"is_reserved":false,"is_disabled":false,"rental_uris":{"android":"levelo://app?vid=92f32112-8a58-4a2d-8380-c50aa46da344","ios":"levelo://app?vid=92f32112-8a58-4a2d-8380-c50aa46da344"},"vehicle_type_id":"4","last_reported":1774134905,"current_range_meters":4400,"station_id":"","pricing_plan_id":"cebpf4jnsgd1na2vs0mg"},{"bike_id":"67a0db2c-ee8f-450c-bad4-b22547a84daf","system_id":"levelo_inurba_marseille","lat":43.29791,"lon":5.38089,"is_reserved":false,"is_disabled":false,"rental_uris":{"android":"levelo://app?vid=67a0db2c-ee8f-450c-bad4-b22547a84daf","ios":"levelo://app?vid=67a0db2c-ee8f-450c-bad4-b22547a84daf"},"vehicle_type_id":"4","last_reported":1774134905,"current_range_meters":4400,"station_id":"ce4bgip2rcd13ifvqbb0","pricing_plan_id":"cebpf4jnsgd1na2vs0mg"},{"bike_id":"8648ff3d-a49d-4491-be6c-bab3f9812603","system_id":"levelo_inurba_marseille","lat":43.283,"lon":5.43877,"is_reserved":false,"is_disabled":false,"rental_uris":{"android":"levelo://app?vid=8648ff3d-a49d-4491-be6c-bab3f9812603","ios":"levelo://app?vid=8648ff3d-a49d-4491-be6c-bab3f9812603"},"vehicle_type_id":"4","last_reported":1774134905,"current_range_meters":4400,"station_id":"","pricing_plan_id":"cebpf4jnsgd1na2vs0mg"},{"bike_id":"aca02e18-5940-4457-bade-a83a3729d2e4","system_id":"levelo_inurba_marseille","lat":43.29486,"lon":5.43299,"is_reserved":false,"is_disabled":false,"rental_uris":{"android":"levelo://app?vid=aca02e18-5940-4457-bade-a83a3729d2e4","ios":"levelo://app?vid=aca02e18-5940-4457-bade-a83a3729d2e4"},"vehicle_type_id":"4","last_reported":1774134905,"current_range_meters":4400,"station_id":"st_d3j5ugp08ojc73fj9d10","pricing_plan_id":"cebpf4jnsgd1na2vs0mg"},{"bike_id":"9c9bee09-6ca5-4a6d-b709-1e84348fa4fc","system_id":"levelo_inurba_marseille","lat":43.29696,"lon":5.36614,"is_reserved":false,"is_disabled":false,"rental_uris":{"android":"levelo://app?vid=9c9bee09-6ca5-4a6d-b709-1e84348fa4fc","ios":"levelo://app?vid=9c9bee09-6ca5-4a6d-b709-1e84348fa4fc"},"vehicle_type_id":"4","last_reported":1774134905,"current_range_meters":4400,"station_id":"ce4bgn12rcd13ifvqbt0","pricing_plan_id":"cebpf4jnsgd1na2vs0mg"},{"bike_id":"a52ba6dc-1b15-4a85-8d00-b41ad0623a75","system_id":"levelo_inurba_marseille","lat":43.32329,"lon":5.36728,"is_reserved":false,"is_disabled":false,"rental_uris":{"android":"levelo://app?vid=a52ba6dc-1b15-4a85-8d00-b41ad0623a75","ios":"levelo://app?vid=a52ba6dc-1b15-4a85-8d00-b41ad0623a75"},"vehicle_type_id":"4","last_reported":1774134905,"current_range_meters":4400,"station_id":"ce4bhsh2rcd13ifvqi2g","pricing_plan_id":"cebpf4jnsgd1na2vs0mg"},{"bike_id":"cf75480d-42e9-4384-9424-a37ca221171d","system_id":"levelo_inurba_marseille","lat":43.28946,"lon":5.39632,"is_reserved":false,"is_disabled":false,"rental_uris":{"android":"levelo://app?vid=cf75480d-42e9-4384-9424-a37ca221171d","ios":"levelo://app?vid=cf75480d-42e9-4384-9424-a37ca221171d"},"vehicle_type_id":"4","last_reported":1774134905,"current_range_meters":4400,"station_id":"ce4bh3h2rcd13ifvqdn0","pricing_plan_id":"cebpf4jnsgd1na2vs0mg"},{"bike_id":"2d0906ff-aeed-419b-83b6-fd2861496b8f","system_id":"levelo_inurba_marseille","lat":43.26242,"lon":5.40459,"is_reserved":false,"is_disabled":false,"rental_uris":{"android":"levelo://app?vid=2d0906ff-aeed-419b-83b6-fd2861496b8f","ios":"levelo://app?vid=2d0906ff-aeed-419b-83b6-fd2861496b8f"},"vehicle_type_id":"4","last_reported":1774134905,"current_range_meters":4400,"station_id":"ce4bhmh2rcd13ifvqgmg","pricing_plan_id":"cebpf4jnsgd1na2vs0mg"},{"bike_id":"21dcff95-3114-402a-9713-10e340a8f8dd","system_id":"levelo_inurba_marseille","lat":43.29293,"lon":5.37158,"is_reserved":false,"is_disabled":false,"rental_uris":{"android":"levelo://app?vid=21dcff95-3114-402a-9713-10e340a8f8dd","ios":"levelo://app?vid=21dcff95-3114-402a-9713-10e340a8f8dd"},"vehicle_type_id":"4","last_reported":1774134905,"current_range_meters":4400,"station_id":"ce4bgh92rcd13ifvqb40","pricing_plan_id":"cebpf4jnsgd1na2vs0mg"},{"bike_id":"53fe7d20-a0f2-42d5-9475-d517256919e4","system_id":"levelo_inurba_marseille","lat":43.29028,"lon":5.38644,"is_reserved":false,"is_disabled":false,"rental_uris":{"android":"levelo://app?vid=53fe7d20-a0f2-42d5-9475-d517256919e4","ios":"levelo://app?vid=53fe7d20-a0f2-42d5-9475-d517256919e4"},"vehicle_type_id":"4","last_reported":1774134905,"current_range_meters":4400,"station_id":"ce4bh4p2rcd13ifvqe0g","pricing_plan_id":"cebpf4jnsgd1na2vs0mg"},{"bike_id":"57c6062f-8249-4e22-873a-9e5831c9b605","system_id":"levelo_inurba_marseille","lat":43.31233,"lon":5.38496,"is_reserved":false,"is_disabled":false,"rental_uris":{"android":"levelo://app?vid=57c6062f-8249-4e22-873a-9e5831c9b605","ios":"levelo://app?vid=57c6062f-8249-4e22-873a-9e5831c9b605"},"vehicle_type_id":"4","last_reported":1774134905,"current_range_meters":4400,"station_id":"","pricing_plan_id":"cebpf4jnsgd1na2vs0mg"},{"bike_id":"06fbf2c7-d11a-4a69-a09e-8af0ab9e3f19","system_id":"levelo_inurba_marseille","lat":43.3131,"lon":5.36733,"is_reserved":false,"is_disabled":false,"rental_uris":{"android":"levelo://app?vid=06fbf2c7-d11a-4a69-a09e-8af0ab9e3f19","ios":"levelo://app?vid=06fbf2c7-d11a-4a69-a09e-8af0ab9e3f19"},"vehicle_type_id":"4","last_reported":1774134905,"current_range_meters":4800,"station_id":"ce4bgr92rcd13ifvqc6g","pricing_plan_id":"cebpf4jnsgd1na2vs0mg"},{"bike_id":"a54d6773-8410-4eb2-9ebb-7bc82f57f6d1","system_id":"levelo_inurba_marseille","lat":43.29439,"lon":5.39762,"is_reserved":false,"is_disabled":false,"rental_uris":{"android":"levelo://app?vid=a54d6773-8410-4eb2-9ebb-7bc82f57f6d1","ios":"levelo://app?vid=a54d6773-8410-4eb2-9ebb-7bc82f57f6d1"},"vehicle_type_id":"4","last_reported":1774134905,"current_range_meters":4800,"station_id":"ce4bh3h2rcd13ifvqdo0","pricing_plan_id":"cebpf4jnsgd1na2vs0mg"},{"bike_id":"a4f838e5-c68f-4237-8d0e-a3cdd8fb2afc","system_id":"levelo_inurba_marseille","lat":43.30143,"lon":5.37422,"is_reserved":false,"is_disabled":false,"rental_uris":{"android":"levelo://app?vid=a4f838e5-c68f-4237-8d0e-a3cdd8fb2afc","ios":"levelo://app?vid=a4f838e5-c68f-4237-8d0e-a3cdd8fb2afc"},"vehicle_type_id":"4","last_reported":1774134905,"current_range_meters":4800,"station_id":"ce4bgs92rcd13ifvqcc0","pricing_plan_id":"cebpf4jnsgd1na2vs0mg"},{"bike_id":"278f7054-f255-42b7-b87e-903ee568e65a","system_id":"levelo_inurba_marseille","lat":43.28476,"lon":5.38432,"is_reserved":false,"is_disabled":true,"rental_uris":{"android":"levelo://app?vid=278f7054-f255-42b7-b87e-903ee568e65a","ios":"levelo://app?vid=278f7054-f255-42b7-b87e-903ee568e65a"},"vehicle_type_id":"4","last_reported":1774134905,"current_range_meters":4800,"station_id":"ce4bh512rcd13ifvqe3g","pricing_plan_id":"cebpf4jnsgd1na2vs0mg"},{"bike_id":"d86f8d0d-62d2-4104-ab84-dbb85bf910e4","system_id":"levelo_inurba_marseille","lat":43.29188,"lon":5.39314,"is_reserved":false,"is_disabled":false,"rental_uris":{"android":"levelo://app?vid=d86f8d0d-62d2-4104-ab84-dbb85bf910e4","ios":"levelo://app?vid=d86f8d0d-62d2-4104-ab84-dbb85bf910e4"},"vehicle_type_id":"4","last_reported":1774134905,"current_range_meters":4800,"station_id":"ce4bh192rcd13ifvqdd0","pricing_plan_id":"cebpf4jnsgd1na2vs0mg"},{"bike_id":"bfa999de-7a32-454a-b31e-f99ace51a3fc","system_id":"levelo_inurba_marseille","lat":43.2848,"lon":5.4839,"is_reserved":false,"is_disabled":false,"rental_uris":{"android":"levelo://app?vid=bfa999de-7a32-454a-b31e-f99ace51a3fc","ios":"levelo://app?vid=bfa999de-7a32-454a-b31e-f99ace51a3fc"},"vehicle_type_id":"4","last_reported":1774134905,"current_range_meters":4800,"station_id":"","pricing_plan_id":"cebpf4jnsgd1na2vs0mg"},{"bike_id":"138d1b51-ecf8-4142-8bb4-5ce2285fb5c1","system_id":"levelo_inurba_marseille","lat":43.2862,"lon":5.35107,"is_reserved":false,"is_disabled":false,"rental_uris":{"android":"levelo://app?vid=138d1b51-ecf8-4142-8bb4-5ce2285fb5c1","ios":"levelo://app?vid=138d1b51-ecf8-4142-8bb4-5ce2285fb5c1"},"vehicle_type_id":"4","last_reported":1774134905,"current_range_meters":4800,"station_id":"ce4bhch2rcd13ifvqeug","pricing_plan_id":"cebpf4jnsgd1na2vs0mg"},{"bike_id":"abd6ba07-52c7-4e40-b166-c980d77f4377","system_id":"levelo_inurba_marseille","lat":43.27175,"lon":5.40991,"is_reserved":false,"is_disabled":false,"rental_uris":{"android":"levelo://app?vid=abd6ba07-52c7-4e40-b166-c980d77f4377","ios":"levelo://app?vid=abd6ba07-52c7-4e40-b166-c980d77f4377"},"vehicle_type_id":"4","last_reported":1774134905,"current_range_meters":4800,"station_id":"ce4bhl12rcd13ifvqgf0","pricing_plan_id":"cebpf4jnsgd1na2vs0mg"},{"bike_id":"6d6fb5d1-1c4e-466f-a2b5-9f607fc335e1","system_id":"levelo_inurba_marseille","lat":43.31201,"lon":5.36851,"is_reserved":false,"is_disabled":false,"rental_uris":{"android":"levelo://app?vid=6d6fb5d1-1c4e-466f-a2b5-9f607fc335e1","ios":"levelo://app?vid=6d6fb5d1-1c4e-466f-a2b5-9f607fc335e1"},"vehicle_type_id":"4","last_reported":1774134905,"current_range_meters":4800,"station_id":"ce4bgl92rcd13ifvqbq0","pricing_plan_id":"cebpf4jnsgd1na2vs0mg"},{"bike_id":"7abf73b3-4e64-4719-bb71-2190dc491b91","system_id":"levelo_inurba_marseille","lat":43.28855,"lon":5.39305,"is_reserved":false,"is_disabled":false,"rental_uris":{"android":"levelo://app?vid=7abf73b3-4e64-4719-bb71-2190dc491b91","ios":"levelo://app?vid=7abf73b3-4e64-4719-bb71-2190dc491b91"},"vehicle_type_id":"4","last_reported":1774134905,"current_range_meters":4800,"station_id":"ce4bh2p2rcd13ifvqdi0","pricing_plan_id":"cebpf4jnsgd1na2vs0mg"},{"bike_id":"a5ca29e3-e606-471d-9d45-c2a31ad50193","system_id":"levelo_inurba_marseille","lat":43.31348,"lon":5.36716,"is_reserved":false,"is_disabled":false,"rental_uris":{"android":"levelo://app?vid=a5ca29e3-e606-471d-9d45-c2a31ad50193","ios":"levelo://app?vid=a5ca29e3-e606-471d-9d45-c2a31ad50193"},"vehicle_type_id":"4","last_reported":1774134905,"current_range_meters":4800,"station_id":"ce4bgr92rcd13ifvqc6g","pricing_plan_id":"cebpf4jnsgd1na2vs0mg"},{"bike_id":"3727d6e3-4577-49ea-959e-93a5e09450a3","system_id":"levelo_inurba_marseille","lat":43.31439,"lon":5.40059,"is_reserved":false,"is_disabled":false,"rental_uris":{"android":"levelo://app?vid=3727d6e3-4577-49ea-959e-93a5e09450a3","ios":"levelo://app?vid=3727d6e3-4577-49ea-959e-93a5e09450a3"},"vehicle_type_id":"4","last_reported":1774134905,"current_range_meters":4800,"station_id":"","pricing_plan_id":"cebpf4jnsgd1na2vs0mg"},{"bike_id":"7c75b769-e8a9-49a3-b8cd-5824d8280cfd","system_id":"levelo_inurba_marseille","lat":43.31249,"lon":5.38483,"is_reserved":false,"is_disabled":false,"rental_uris":{"android":"levelo://app?vid=7c75b769-e8a9-49a3-b8cd-5824d8280cfd","ios":"levelo://app?vid=7c75b769-e8a9-49a3-b8cd-5824d8280cfd"},"vehicle_type_id":"4","last_reported":1774134905,"current_range_meters":4800,"station_id":"","pricing_plan_id":"cebpf4jnsgd1na2vs0mg"},{"bike_id":"5b3ab888-a03f-47e0-af67-d510fcfced62","system_id":"levelo_inurba_marseille","lat":43.2794,"lon":5.41045,"is_reserved":false,"is_disabled":false,"rental_uris":{"android":"levelo://app?vid=5b3ab888-a03f-47e0-af67-d510fcfced62","ios":"levelo://app?vid=5b3ab888-a03f-47e0-af67-d510fcfced62"},"vehicle_type_id":"4","last_reported":1774134905,"current_range_meters":4800,"station_id":"ce4bhnp2rcd13ifvqh0g","pricing_plan_id":"cebpf4jnsgd1na2vs0mg"},{"bike_id":"47efb401-c51b-46fd-bc6f-b874c731d32b","system_id":"levelo_inurba_marseille","lat":43.29588,"lon":5.36752,"is_reserved":false,"is_disabled":true,"rental_uris":{"android":"levelo://app?vid=47efb401-c51b-46fd-bc6f-b874c731d32b","ios":"levelo://app?vid=47efb401-c51b-46fd-bc6f-b874c731d32b"},"vehicle_type_id":"4","last_reported":1774134905,"current_range_meters":4800,"station_id":"ce4bgph2rcd13ifvqc2g","pricing_plan_id":"cebpf4jnsgd1na2vs0mg"},{"bike_id":"2abf44ad-58c9-4900-b801-f2ad007a5f6c","system_id":"levelo_inurba_marseille","lat":43.2905,"lon":5.39982,"is_reserved":false,"is_disabled":false,"rental_uris":{"android":"levelo://app?vid=2abf44ad-58c9-4900-b801-f2ad007a5f6c","ios":"levelo://app?vid=2abf44ad-58c9-4900-b801-f2ad007a5f6c"},"vehicle_type_id":"4","last_reported":1774134905,"current_range_meters":4800,"station_id":"ce4bh392rcd13ifvqdm0","pricing_plan_id":"cebpf4jnsgd1na2vs0mg"},{"bike_id":"34e58aa9-898e-4f2a-a0d3-cd7852da2d04","system_id":"levelo_inurba_marseille","lat":43.2781,"lon":5.40712,"is_reserved":false,"is_disabled":false,"rental_uris":{"android":"levelo://app?vid=34e58aa9-898e-4f2a-a0d3-cd7852da2d04","ios":"levelo://app?vid=34e58aa9-898e-4f2a-a0d3-cd7852da2d04"},"vehicle_type_id":"4","last_reported":1774134905,"current_range_meters":5600,"station_id":"ce4bhnh2rcd13ifvqgtg","pricing_plan_id":"cebpf4jnsgd1na2vs0mg"},{"bike_id":"e73f6fdf-6584-4ab6-9767-0800b1d18a0c","system_id":"levelo_inurba_marseille","lat":43.29888,"lon":5.38906,"is_reserved":false,"is_disabled":false,"rental_uris":{"android":"levelo://app?vid=e73f6fdf-6584-4ab6-9767-0800b1d18a0c","ios":"levelo://app?vid=e73f6fdf-6584-4ab6-9767-0800b1d18a0c"},"vehicle_type_id":"4","last_reported":1774134905,"current_range_meters":5600,"station_id":"ce4bh392rcd13ifvqdl0","pricing_plan_id":"cebpf4jnsgd1na2vs0mg"},{"bike_id":"e9f4da87-4ef0-4991-8f59-285ae87cdf27","system_id":"levelo_inurba_marseille","lat":43.26733,"lon":5.39451,"is_reserved":false,"is_disabled":false,"rental_uris":{"android":"levelo://app?vid=e9f4da87-4ef0-4991-8f59-285ae87cdf27","ios":"levelo://app?vid=e9f4da87-4ef0-4991-8f59-285ae87cdf27"},"vehicle_type_id":"4","last_reported":1774134905,"current_range_meters":5600,"station_id":"","pricing_plan_id":"cebpf4jnsgd1na2vs0mg"},{"bike_id":"71389fc3-a4c3-46c5-a0f9-4330fcbb165b","system_id":"levelo_inurba_marseille","lat":43.27941,"lon":5.41059,"is_reserved":false,"is_disabled":true,"rental_uris":{"android":"levelo://app?vid=71389fc3-a4c3-46c5-a0f9-4330fcbb165b","ios":"levelo://app?vid=71389fc3-a4c3-46c5-a0f9-4330fcbb165b"},"vehicle_type_id":"4","last_reported":1774134905,"current_range_meters":5600,"station_id":"ce4bhnp2rcd13ifvqh0g","pricing_plan_id":"cebpf4jnsgd1na2vs0mg"},{"bike_id":"e5889c18-6483-46e2-8e97-7aa7bb200275","system_id":"levelo_inurba_marseille","lat":43.24473,"lon":5.42533,"is_reserved":false,"is_disabled":false,"rental_uris":{"android":"levelo://app?vid=e5889c18-6483-46e2-8e97-7aa7bb200275","ios":"levelo://app?vid=e5889c18-6483-46e2-8e97-7aa7bb200275"},"vehicle_type_id":"4","last_reported":1774134905,"current_range_meters":5600,"station_id":"st_d4a3vfp97mjs738cd8kg","pricing_plan_id":"cebpf4jnsgd1na2vs0mg"},{"bike_id":"64dc53b9-439a-4355-ad28-e5f40e99fa84","system_id":"levelo_inurba_marseille","lat":43.32054,"lon":5.40921,"is_reserved":false,"is_disabled":false,"rental_uris":{"android":"levelo://app?vid=64dc53b9-439a-4355-ad28-e5f40e99fa84","ios":"levelo://app?vid=64dc53b9-439a-4355-ad28-e5f40e99fa84"},"vehicle_type_id":"4","last_reported":1774134905,"current_range_meters":5600,"station_id":"","pricing_plan_id":"cebpf4jnsgd1na2vs0mg"},{"bike_id":"1a46da28-301a-44b9-970e-12b591c0665f","system_id":"levelo_inurba_marseille","lat":43.2791,"lon":5.41057,"is_reserved":false,"is_disabled":false,"rental_uris":{"android":"levelo://app?vid=1a46da28-301a-44b9-970e-12b591c0665f","ios":"levelo://app?vid=1a46da28-301a-44b9-970e-12b591c0665f"},"vehicle_type_id":"4","last_reported":1774134905,"current_range_meters":5600,"station_id":"ce4bhnp2rcd13ifvqh0g","pricing_plan_id":"cebpf4jnsgd1na2vs0mg"},{"bike_id":"08ee6db8-d944-4484-8024-9b2fcf432b9c","system_id":"levelo_inurba_marseille","lat":43.29579,"lon":5.38095,"is_reserved":false,"is_disabled":false,"rental_uris":{"android":"levelo://app?vid=08ee6db8-d944-4484-8024-9b2fcf432b9c","ios":"levelo://app?vid=08ee6db8-d944-4484-8024-9b2fcf432b9c"},"vehicle_type_id":"4","last_reported":1774134905,"current_range_meters":5600,"station_id":"ce4bgl12rcd13ifvqbo0","pricing_plan_id":"cebpf4jnsgd1na2vs0mg"},{"bike_id":"799e5206-e569-46be-93f3-cb56e5726e56","system_id":"levelo_inurba_marseille","lat":43.26374,"lon":5.4107,"is_reserved":false,"is_disabled":false,"rental_uris":{"android":"levelo://app?vid=799e5206-e569-46be-93f3-cb56e5726e56","ios":"levelo://app?vid=799e5206-e569-46be-93f3-cb56e5726e56"},"vehicle_type_id":"4","last_reported":1774134905,"current_range_meters":5600,"station_id":"st_d4e5ca6na9uc73bfl5fg","pricing_plan_id":"cebpf4jnsgd1na2vs0mg"},{"bike_id":"1ef365fb-488e-4c1c-85b8-5a9107b69030","system_id":"levelo_inurba_marseille","lat":43.31317,"lon":5.39704,"is_reserved":false,"is_disabled":false,"rental_uris":{"android":"levelo://app?vid=1ef365fb-488e-4c1c-85b8-5a9107b69030","ios":"levelo://app?vid=1ef365fb-488e-4c1c-85b8-5a9107b69030"},"vehicle_type_id":"4","last_reported":1774134905,"current_range_meters":5600,"station_id":"ce4bgvp2rcd13ifvqcu0","pricing_plan_id":"cebpf4jnsgd1na2vs0mg"},{"bike_id":"4b11e079-bb00-4636-9cda-72c733e64f87","system_id":"levelo_inurba_marseille","lat":43.30924,"lon":5.36851,"is_reserved":false,"is_disabled":false,"rental_uris":{"android":"levelo://app?vid=4b11e079-bb00-4636-9cda-72c733e64f87","ios":"levelo://app?vid=4b11e079-bb00-4636-9cda-72c733e64f87"},"vehicle_type_id":"4","last_reported":1774134905,"current_range_meters":5600,"station_id":"ce4bgn92rcd13ifvqbvg","pricing_plan_id":"cebpf4jnsgd1na2vs0mg"},{"bike_id":"9def76a1-4c40-486d-8148-2ec12e56e3b3","system_id":"levelo_inurba_marseille","lat":43.29602,"lon":5.381,"is_reserved":false,"is_disabled":false,"rental_uris":{"android":"levelo://app?vid=9def76a1-4c40-486d-8148-2ec12e56e3b3","ios":"levelo://app?vid=9def76a1-4c40-486d-8148-2ec12e56e3b3"},"vehicle_type_id":"4","last_reported":1774134905,"current_range_meters":5600,"station_id":"ce4bgl12rcd13ifvqbo0","pricing_plan_id":"cebpf4jnsgd1na2vs0mg"},{"bike_id":"9562cb1b-3eaf-4a03-a5e3-1337d62db9d4","system_id":"levelo_inurba_marseille","lat":43.28927,"lon":5.36405,"is_reserved":false,"is_disabled":false,"rental_uris":{"android":"levelo://app?vid=9562cb1b-3eaf-4a03-a5e3-1337d62db9d4","ios":"levelo://app?vid=9562cb1b-3eaf-4a03-a5e3-1337d62db9d4"},"vehicle_type_id":"4","last_reported":1774134905,"current_range_meters":6000,"station_id":"ce4bhc92rcd13ifvqetg","pricing_plan_id":"cebpf4jnsgd1na2vs0mg"},{"bike_id":"0112bef2-2ecc-46ce-961c-e922940a9456","system_id":"levelo_inurba_marseille","lat":43.29186,"lon":5.39311,"is_reserved":false,"is_disabled":false,"rental_uris":{"android":"levelo://app?vid=0112bef2-2ecc-46ce-961c-e922940a9456","ios":"levelo://app?vid=0112bef2-2ecc-46ce-961c-e922940a9456"},"vehicle_type_id":"4","last_reported":1774134905,"current_range_meters":6000,"station_id":"ce4bh192rcd13ifvqdd0","pricing_plan_id":"cebpf4jnsgd1na2vs0mg"},{"bike_id":"4559a18d-470c-42d3-a0fe-77ed9d175f5b","system_id":"levelo_inurba_marseille","lat":43.29983,"lon":5.38494,"is_reserved":false,"is_disabled":false,"rental_uris":{"android":"levelo://app?vid=4559a18d-470c-42d3-a0fe-77ed9d175f5b","ios":"levelo://app?vid=4559a18d-470c-42d3-a0fe-77ed9d175f5b"},"vehicle_type_id":"4","last_reported":1774134905,"current_range_meters":6000,"station_id":"ce4bgj92rcd13ifvqbd0","pricing_plan_id":"cebpf4jnsgd1na2vs0mg"},{"bike_id":"ac656c46-4691-458f-95ae-06026bff305e","system_id":"levelo_inurba_marseille","lat":43.2815,"lon":5.42648,"is_reserved":false,"is_disabled":false,"rental_uris":{"android":"levelo://app?vid=ac656c46-4691-458f-95ae-06026bff305e","ios":"levelo://app?vid=ac656c46-4691-458f-95ae-06026bff305e"},"vehicle_type_id":"4","last_reported":1774134905,"current_range_meters":6000,"station_id":"ce4bhnh2rcd13ifvqgug","pricing_plan_id":"cebpf4jnsgd1na2vs0mg"},{"bike_id":"afab17fe-5945-4eab-9129-fe150d6e725c","system_id":"levelo_inurba_marseille","lat":43.31064,"lon":5.37153,"is_reserved":false,"is_disabled":false,"rental_uris":{"android":"levelo://app?vid=afab17fe-5945-4eab-9129-fe150d6e725c","ios":"levelo://app?vid=afab17fe-5945-4eab-9129-fe150d6e725c"},"vehicle_type_id":"4","last_reported":1774134905,"current_range_meters":6000,"station_id":"st_d4kl2rp97mjs73e7tdfg","pricing_plan_id":"cebpf4jnsgd1na2vs0mg"},{"bike_id":"b91ced7c-dda5-4bfb-83ee-3d1cd2be6919","system_id":"levelo_inurba_marseille","lat":43.2866,"lon":5.38675,"is_reserved":false,"is_disabled":false,"rental_uris":{"android":"levelo://app?vid=b91ced7c-dda5-4bfb-83ee-3d1cd2be6919","ios":"levelo://app?vid=b91ced7c-dda5-4bfb-83ee-3d1cd2be6919"},"vehicle_type_id":"4","last_reported":1774134905,"current_range_meters":6000,"station_id":"ce4bh492rcd13ifvqdug","pricing_plan_id":"cebpf4jnsgd1na2vs0mg"},{"bike_id":"3a0ad876-a805-4ba2-9d10-5e80144adc86","system_id":"levelo_inurba_marseille","lat":43.29868,"lon":5.39732,"is_reserved":false,"is_disabled":false,"rental_uris":{"android":"levelo://app?vid=3a0ad876-a805-4ba2-9d10-5e80144adc86","ios":"levelo://app?vid=3a0ad876-a805-4ba2-9d10-5e80144adc86"},"vehicle_type_id":"4","last_reported":1774134905,"current_range_meters":6000,"station_id":"ce4bh0h2rcd13ifvqd50","pricing_plan_id":"cebpf4jnsgd1na2vs0mg"},{"bike_id":"c8ab23dd-318b-4557-8b9c-4ea9da3548a7","system_id":"levelo_inurba_marseille","lat":43.29173,"lon":5.37148,"is_reserved":false,"is_disabled":false,"rental_uris":{"android":"levelo://app?vid=c8ab23dd-318b-4557-8b9c-4ea9da3548a7","ios":"levelo://app?vid=c8ab23dd-318b-4557-8b9c-4ea9da3548a7"},"vehicle_type_id":"4","last_reported":1774134905,"current_range_meters":6000,"station_id":"ce4bha92rcd13ifvqeh0","pricing_plan_id":"cebpf4jnsgd1na2vs0mg"},{"bike_id":"37fd8b91-bebb-483f-9ede-850904204da2","system_id":"levelo_inurba_marseille","lat":43.33424,"lon":5.35695,"is_reserved":false,"is_disabled":false,"rental_uris":{"android":"levelo://app?vid=37fd8b91-bebb-483f-9ede-850904204da2","ios":"levelo://app?vid=37fd8b91-bebb-483f-9ede-850904204da2"},"vehicle_type_id":"4","last_reported":1774134905,"current_range_meters":6000,"station_id":"","pricing_plan_id":"cebpf4jnsgd1na2vs0mg"},{"bike_id":"7735375d-1041-4f99-b2b7-719b8a41cb75","system_id":"levelo_inurba_marseille","lat":43.28152,"lon":5.42632,"is_reserved":false,"is_disabled":true,"rental_uris":{"android":"levelo://app?vid=7735375d-1041-4f99-b2b7-719b8a41cb75","ios":"levelo://app?vid=7735375d-1041-4f99-b2b7-719b8a41cb75"},"vehicle_type_id":"4","last_reported":1774134905,"current_range_meters":6000,"station_id":"ce4bhnh2rcd13ifvqgug","pricing_plan_id":"cebpf4jnsgd1na2vs0mg"},{"bike_id":"b49441a6-165f-42c1-9fa4-8cc8bd41d01b","system_id":"levelo_inurba_marseille","lat":43.3016,"lon":5.37407,"is_reserved":false,"is_disabled":false,"rental_uris":{"android":"levelo://app?vid=b49441a6-165f-42c1-9fa4-8cc8bd41d01b","ios":"levelo://app?vid=b49441a6-165f-42c1-9fa4-8cc8bd41d01b"},"vehicle_type_id":"4","last_reported":1774134905,"current_range_meters":6000,"station_id":"ce4bgs92rcd13ifvqcc0","pricing_plan_id":"cebpf4jnsgd1na2vs0mg"},{"bike_id":"4f272940-9e78-4014-83bf-6eb9cf9f10fc","system_id":"levelo_inurba_marseille","lat":43.2902,"lon":5.38617,"is_reserved":false,"is_disabled":false,"rental_uris":{"android":"levelo://app?vid=4f272940-9e78-4014-83bf-6eb9cf9f10fc","ios":"levelo://app?vid=4f272940-9e78-4014-83bf-6eb9cf9f10fc"},"vehicle_type_id":"4","last_reported":1774134905,"current_range_meters":6000,"station_id":"ce4bh4p2rcd13ifvqe0g","pricing_plan_id":"cebpf4jnsgd1na2vs0mg"},{"bike_id":"50b73569-dd21-4519-9c81-2b58d4cff72d","system_id":"levelo_inurba_marseille","lat":43.2975,"lon":5.37106,"is_reserved":false,"is_disabled":false,"rental_uris":{"android":"levelo://app?vid=50b73569-dd21-4519-9c81-2b58d4cff72d","ios":"levelo://app?vid=50b73569-dd21-4519-9c81-2b58d4cff72d"},"vehicle_type_id":"4","last_reported":1774134905,"current_range_meters":6000,"station_id":"ce4bgop2rcd13ifvqc1g","pricing_plan_id":"cebpf4jnsgd1na2vs0mg"},{"bike_id":"c0b70058-a123-4360-9a42-a44a22962f7a","system_id":"levelo_inurba_marseille","lat":43.28034,"lon":5.36951,"is_reserved":false,"is_disabled":false,"rental_uris":{"android":"levelo://app?vid=c0b70058-a123-4360-9a42-a44a22962f7a","ios":"levelo://app?vid=c0b70058-a123-4360-9a42-a44a22962f7a"},"vehicle_type_id":"4","last_reported":1774134905,"current_range_meters":6000,"station_id":"ce4bha12rcd13ifvqef0","pricing_plan_id":"cebpf4jnsgd1na2vs0mg"},{"bike_id":"72ef860b-28ea-4c9d-b9c2-39aaeee84b0f","system_id":"levelo_inurba_marseille","lat":43.29055,"lon":5.3591,"is_reserved":false,"is_disabled":false,"rental_uris":{"android":"levelo://app?vid=72ef860b-28ea-4c9d-b9c2-39aaeee84b0f","ios":"levelo://app?vid=72ef860b-28ea-4c9d-b9c2-39aaeee84b0f"},"vehicle_type_id":"4","last_reported":1774134905,"current_range_meters":6000,"station_id":"ce4bha92rcd13ifvqeg0","pricing_plan_id":"cebpf4jnsgd1na2vs0mg"},{"bike_id":"b87d7938-28e4-46e7-994e-fdebd5392225","system_id":"levelo_inurba_marseille","lat":43.32112,"lon":5.36773,"is_reserved":false,"is_disabled":false,"rental_uris":{"android":"levelo://app?vid=b87d7938-28e4-46e7-994e-fdebd5392225","ios":"levelo://app?vid=b87d7938-28e4-46e7-994e-fdebd5392225"},"vehicle_type_id":"4","last_reported":1774134905,"current_range_meters":6000,"station_id":"ce4bhrh2rcd13ifvqhug","pricing_plan_id":"cebpf4jnsgd1na2vs0mg"},{"bike_id":"0ff04b3c-71df-4b5b-b8cf-f7bfc6236bfe","system_id":"levelo_inurba_marseille","lat":43.30078,"lon":5.3868,"is_reserved":false,"is_disabled":false,"rental_uris":{"android":"levelo://app?vid=0ff04b3c-71df-4b5b-b8cf-f7bfc6236bfe","ios":"levelo://app?vid=0ff04b3c-71df-4b5b-b8cf-f7bfc6236bfe"},"vehicle_type_id":"4","last_reported":1774134905,"current_range_meters":6000,"station_id":"","pricing_plan_id":"cebpf4jnsgd1na2vs0mg"},{"bike_id":"c1132910-04b4-46e1-a0d5-c4ac5cbe805d","system_id":"levelo_inurba_marseille","lat":43.26955,"lon":5.40314,"is_reserved":false,"is_disabled":false,"rental_uris":{"android":"levelo://app?vid=c1132910-04b4-46e1-a0d5-c4ac5cbe805d","ios":"levelo://app?vid=c1132910-04b4-46e1-a0d5-c4ac5cbe805d"},"vehicle_type_id":"4","last_reported":1774134905,"current_range_meters":6400,"station_id":"cjm6bp8fraef2m0cb0m0","pricing_plan_id":"cebpf4jnsgd1na2vs0mg"},{"bike_id":"42ab0379-da99-4e4d-86ad-a3df2009332a","system_id":"levelo_inurba_marseille","lat":43.29598,"lon":5.38092,"is_reserved":false,"is_disabled":false,"rental_uris":{"android":"levelo://app?vid=42ab0379-da99-4e4d-86ad-a3df2009332a","ios":"levelo://app?vid=42ab0379-da99-4e4d-86ad-a3df2009332a"},"vehicle_type_id":"4","last_reported":1774134905,"current_range_meters":6400,"station_id":"ce4bgl12rcd13ifvqbo0","pricing_plan_id":"cebpf4jnsgd1na2vs0mg"},{"bike_id":"07096b73-6daa-4014-a4a1-36b27abef312","system_id":"levelo_inurba_marseille","lat":43.29031,"lon":5.39971,"is_reserved":false,"is_disabled":false,"rental_uris":{"android":"levelo://app?vid=07096b73-6daa-4014-a4a1-36b27abef312","ios":"levelo://app?vid=07096b73-6daa-4014-a4a1-36b27abef312"},"vehicle_type_id":"4","last_reported":1774134905,"current_range_meters":6400,"station_id":"ce4bh392rcd13ifvqdm0","pricing_plan_id":"cebpf4jnsgd1na2vs0mg"},{"bike_id":"922b18cd-37dd-4d90-8953-8a50f6296f4b","system_id":"levelo_inurba_marseille","lat":43.24468,"lon":5.42541,"is_reserved":false,"is_disabled":false,"rental_uris":{"android":"levelo://app?vid=922b18cd-37dd-4d90-8953-8a50f6296f4b","ios":"levelo://app?vid=922b18cd-37dd-4d90-8953-8a50f6296f4b"},"vehicle_type_id":"4","last_reported":1774134905,"current_range_meters":6400,"station_id":"","pricing_plan_id":"cebpf4jnsgd1na2vs0mg"},{"bike_id":"f1b3310c-f30c-441e-b5fb-d9f98b6504b2","system_id":"levelo_inurba_marseille","lat":43.29528,"lon":5.39041,"is_reserved":false,"is_disabled":false,"rental_uris":{"android":"levelo://app?vid=f1b3310c-f30c-441e-b5fb-d9f98b6504b2","ios":"levelo://app?vid=f1b3310c-f30c-441e-b5fb-d9f98b6504b2"},"vehicle_type_id":"4","last_reported":1774134905,"current_range_meters":6400,"station_id":"ce4bh3p2rcd13ifvqdp0","pricing_plan_id":"cebpf4jnsgd1na2vs0mg"},{"bike_id":"8e70251c-8f02-4240-8304-f6a3026eaebe","system_id":"levelo_inurba_marseille","lat":43.30916,"lon":5.36848,"is_reserved":false,"is_disabled":false,"rental_uris":{"android":"levelo://app?vid=8e70251c-8f02-4240-8304-f6a3026eaebe","ios":"levelo://app?vid=8e70251c-8f02-4240-8304-f6a3026eaebe"},"vehicle_type_id":"4","last_reported":1774134905,"current_range_meters":6400,"station_id":"ce4bgn92rcd13ifvqbvg","pricing_plan_id":"cebpf4jnsgd1na2vs0mg"},{"bike_id":"37752f22-4e24-4242-a38c-e44293abad6b","system_id":"levelo_inurba_marseille","lat":43.2798,"lon":5.38737,"is_reserved":false,"is_disabled":true,"rental_uris":{"android":"levelo://app?vid=37752f22-4e24-4242-a38c-e44293abad6b","ios":"levelo://app?vid=37752f22-4e24-4242-a38c-e44293abad6b"},"vehicle_type_id":"4","last_reported":1774134905,"current_range_meters":6400,"station_id":"ce4bhg12rcd13ifvqf80","pricing_plan_id":"cebpf4jnsgd1na2vs0mg"},{"bike_id":"9895479c-7522-4c8b-996f-5f3e1c1b4f33","system_id":"levelo_inurba_marseille","lat":43.23793,"lon":5.36623,"is_reserved":false,"is_disabled":false,"rental_uris":{"android":"levelo://app?vid=9895479c-7522-4c8b-996f-5f3e1c1b4f33","ios":"levelo://app?vid=9895479c-7522-4c8b-996f-5f3e1c1b4f33"},"vehicle_type_id":"4","last_reported":1774134905,"current_range_meters":6400,"station_id":"st_d3nk18o9ro0c73en2l3g","pricing_plan_id":"cebpf4jnsgd1na2vs0mg"},{"bike_id":"9797d609-f85a-4421-a74c-bd0d1e6bc286","system_id":"levelo_inurba_marseille","lat":43.25499,"lon":5.37638,"is_reserved":false,"is_disabled":false,"rental_uris":{"android":"levelo://app?vid=9797d609-f85a-4421-a74c-bd0d1e6bc286","ios":"levelo://app?vid=9797d609-f85a-4421-a74c-bd0d1e6bc286"},"vehicle_type_id":"4","last_reported":1774134905,"current_range_meters":6400,"station_id":"ce4bhh12rcd13ifvqff0","pricing_plan_id":"cebpf4jnsgd1na2vs0mg"},{"bike_id":"36450020-bd88-4c9a-a04d-1f2ccd4cfaaf","system_id":"levelo_inurba_marseille","lat":43.29524,"lon":5.38558,"is_reserved":false,"is_disabled":false,"rental_uris":{"android":"levelo://app?vid=36450020-bd88-4c9a-a04d-1f2ccd4cfaaf","ios":"levelo://app?vid=36450020-bd88-4c9a-a04d-1f2ccd4cfaaf"},"vehicle_type_id":"4","last_reported":1774134905,"current_range_meters":6400,"station_id":"ce4bgih2rcd13ifvqba0","pricing_plan_id":"cebpf4jnsgd1na2vs0mg"},{"bike_id":"d9a2340f-4dc0-456b-89f0-454af4d93a65","system_id":"levelo_inurba_marseille","lat":43.28509,"lon":5.35133,"is_reserved":false,"is_disabled":false,"rental_uris":{"android":"levelo://app?vid=d9a2340f-4dc0-456b-89f0-454af4d93a65","ios":"levelo://app?vid=d9a2340f-4dc0-456b-89f0-454af4d93a65"},"vehicle_type_id":"4","last_reported":1774134905,"current_range_meters":6400,"station_id":"","pricing_plan_id":"cebpf4jnsgd1na2vs0mg"},{"bike_id":"aee989d4-a74f-4753-ac06-19b38a5bd89a","system_id":"levelo_inurba_marseille","lat":43.30804,"lon":5.38167,"is_reserved":false,"is_disabled":false,"rental_uris":{"android":"levelo://app?vid=aee989d4-a74f-4753-ac06-19b38a5bd89a","ios":"levelo://app?vid=aee989d4-a74f-4753-ac06-19b38a5bd89a"},"vehicle_type_id":"4","last_reported":1774134905,"current_range_meters":6400,"station_id":"ce4bgt12rcd13ifvqce0","pricing_plan_id":"cebpf4jnsgd1na2vs0mg"},{"bike_id":"c539391c-6f10-4a3b-8a64-b0c3fd52e6a4","system_id":"levelo_inurba_marseille","lat":43.29524,"lon":5.3854,"is_reserved":false,"is_disabled":false,"rental_uris":{"android":"levelo://app?vid=c539391c-6f10-4a3b-8a64-b0c3fd52e6a4","ios":"levelo://app?vid=c539391c-6f10-4a3b-8a64-b0c3fd52e6a4"},"vehicle_type_id":"4","last_reported":1774134905,"current_range_meters":6400,"station_id":"ce4bgih2rcd13ifvqba0","pricing_plan_id":"cebpf4jnsgd1na2vs0mg"},{"bike_id":"610295e2-f3a8-4795-968f-232d34cacd12","system_id":"levelo_inurba_marseille","lat":43.29844,"lon":5.3628,"is_reserved":false,"is_disabled":false,"rental_uris":{"android":"levelo://app?vid=610295e2-f3a8-4795-968f-232d34cacd12","ios":"levelo://app?vid=610295e2-f3a8-4795-968f-232d34cacd12"},"vehicle_type_id":"4","last_reported":1774134905,"current_range_meters":6400,"station_id":"ce4bgpp2rcd13ifvqc3g","pricing_plan_id":"cebpf4jnsgd1na2vs0mg"},{"bike_id":"d081ea94-b8bf-4fe0-904b-f5698433a2f5","system_id":"levelo_inurba_marseille","lat":43.29607,"lon":5.38103,"is_reserved":false,"is_disabled":false,"rental_uris":{"android":"levelo://app?vid=d081ea94-b8bf-4fe0-904b-f5698433a2f5","ios":"levelo://app?vid=d081ea94-b8bf-4fe0-904b-f5698433a2f5"},"vehicle_type_id":"4","last_reported":1774134905,"current_range_meters":6400,"station_id":"ce4bgl12rcd13ifvqbo0","pricing_plan_id":"cebpf4jnsgd1na2vs0mg"},{"bike_id":"55667fff-9f39-4a68-88d2-83ae74f2feb0","system_id":"levelo_inurba_marseille","lat":43.28722,"lon":5.36079,"is_reserved":false,"is_disabled":false,"rental_uris":{"android":"levelo://app?vid=55667fff-9f39-4a68-88d2-83ae74f2feb0","ios":"levelo://app?vid=55667fff-9f39-4a68-88d2-83ae74f2feb0"},"vehicle_type_id":"4","last_reported":1774134905,"current_range_meters":6400,"station_id":"cki0cbj6b192h4jlfktg","pricing_plan_id":"cebpf4jnsgd1na2vs0mg"},{"bike_id":"ee8c0786-704b-4515-a31a-2e24ac80a01b","system_id":"levelo_inurba_marseille","lat":43.33557,"lon":5.37468,"is_reserved":false,"is_disabled":false,"rental_uris":{"android":"levelo://app?vid=ee8c0786-704b-4515-a31a-2e24ac80a01b","ios":"levelo://app?vid=ee8c0786-704b-4515-a31a-2e24ac80a01b"},"vehicle_type_id":"4","last_reported":1774134905,"current_range_meters":6800,"station_id":"st_d46tts09ee8s73dlu43g","pricing_plan_id":"cebpf4jnsgd1na2vs0mg"},{"bike_id":"d01f55c5-7e4e-4e8d-8ef0-e660ea4c6972","system_id":"levelo_inurba_marseille","lat":43.29117,"lon":5.38128,"is_reserved":false,"is_disabled":false,"rental_uris":{"android":"levelo://app?vid=d01f55c5-7e4e-4e8d-8ef0-e660ea4c6972","ios":"levelo://app?vid=d01f55c5-7e4e-4e8d-8ef0-e660ea4c6972"},"vehicle_type_id":"4","last_reported":1774134905,"current_range_meters":6800,"station_id":"ce4bh512rcd13ifvqe2g","pricing_plan_id":"cebpf4jnsgd1na2vs0mg"},{"bike_id":"f1f374c7-7df8-4ad3-87c0-64cf3efed19a","system_id":"levelo_inurba_marseille","lat":43.30784,"lon":5.37657,"is_reserved":false,"is_disabled":false,"rental_uris":{"android":"levelo://app?vid=f1f374c7-7df8-4ad3-87c0-64cf3efed19a","ios":"levelo://app?vid=f1f374c7-7df8-4ad3-87c0-64cf3efed19a"},"vehicle_type_id":"4","last_reported":1774134905,"current_range_meters":6800,"station_id":"ce4bgv92rcd13ifvqcq0","pricing_plan_id":"cebpf4jnsgd1na2vs0mg"},{"bike_id":"a3154853-e0ff-433a-8bfc-314d0600d979","system_id":"levelo_inurba_marseille","lat":43.30099,"lon":5.39076,"is_reserved":false,"is_disabled":false,"rental_uris":{"android":"levelo://app?vid=a3154853-e0ff-433a-8bfc-314d0600d979","ios":"levelo://app?vid=a3154853-e0ff-433a-8bfc-314d0600d979"},"vehicle_type_id":"4","last_reported":1774134905,"current_range_meters":6800,"station_id":"ce4bh192rcd13ifvqdb0","pricing_plan_id":"cebpf4jnsgd1na2vs0mg"},{"bike_id":"c7cc5081-8a90-4664-8378-0ac0db8d74fb","system_id":"levelo_inurba_marseille","lat":43.29838,"lon":5.36677,"is_reserved":false,"is_disabled":false,"rental_uris":{"android":"levelo://app?vid=c7cc5081-8a90-4664-8378-0ac0db8d74fb","ios":"levelo://app?vid=c7cc5081-8a90-4664-8378-0ac0db8d74fb"},"vehicle_type_id":"4","last_reported":1774134905,"current_range_meters":6800,"station_id":"","pricing_plan_id":"cebpf4jnsgd1na2vs0mg"},{"bike_id":"077ba1f4-9955-44ea-8995-8df9c4ed43ac","system_id":"levelo_inurba_marseille","lat":43.31065,"lon":5.37174,"is_reserved":false,"is_disabled":false,"rental_uris":{"android":"levelo://app?vid=077ba1f4-9955-44ea-8995-8df9c4ed43ac","ios":"levelo://app?vid=077ba1f4-9955-44ea-8995-8df9c4ed43ac"},"vehicle_type_id":"4","last_reported":1774134905,"current_range_meters":6800,"station_id":"st_d4kl2rp97mjs73e7tdfg","pricing_plan_id":"cebpf4jnsgd1na2vs0mg"},{"bike_id":"0e1fdb5e-1222-475a-bc36-d4f7c9618892","system_id":"levelo_inurba_marseille","lat":43.29764,"lon":5.37677,"is_reserved":false,"is_disabled":false,"rental_uris":{"android":"levelo://app?vid=0e1fdb5e-1222-475a-bc36-d4f7c9618892","ios":"levelo://app?vid=0e1fdb5e-1222-475a-bc36-d4f7c9618892"},"vehicle_type_id":"4","last_reported":1774134905,"current_range_meters":6800,"station_id":"","pricing_plan_id":"cebpf4jnsgd1na2vs0mg"},{"bike_id":"df5ad533-8354-43dd-b4db-d4118becde63","system_id":"levelo_inurba_marseille","lat":43.28511,"lon":5.48326,"is_reserved":false,"is_disabled":false,"rental_uris":{"android":"levelo://app?vid=df5ad533-8354-43dd-b4db-d4118becde63","ios":"levelo://app?vid=df5ad533-8354-43dd-b4db-d4118becde63"},"vehicle_type_id":"4","last_reported":1774134905,"current_range_meters":6800,"station_id":"","pricing_plan_id":"cebpf4jnsgd1na2vs0mg"},{"bike_id":"ef97c70d-e41d-4e36-b46b-24aba54e0d2b","system_id":"levelo_inurba_marseille","lat":43.2954,"lon":5.38531,"is_reserved":false,"is_disabled":false,"rental_uris":{"android":"levelo://app?vid=ef97c70d-e41d-4e36-b46b-24aba54e0d2b","ios":"levelo://app?vid=ef97c70d-e41d-4e36-b46b-24aba54e0d2b"},"vehicle_type_id":"4","last_reported":1774134905,"current_range_meters":6800,"station_id":"ce4bgih2rcd13ifvqba0","pricing_plan_id":"cebpf4jnsgd1na2vs0mg"},{"bike_id":"aea6d33a-b59a-4510-b75a-6add5d47ec12","system_id":"levelo_inurba_marseille","lat":43.31337,"lon":5.39679,"is_reserved":false,"is_disabled":false,"rental_uris":{"android":"levelo://app?vid=aea6d33a-b59a-4510-b75a-6add5d47ec12","ios":"levelo://app?vid=aea6d33a-b59a-4510-b75a-6add5d47ec12"},"vehicle_type_id":"4","last_reported":1774134905,"current_range_meters":6800,"station_id":"ce4bgvp2rcd13ifvqcu0","pricing_plan_id":"cebpf4jnsgd1na2vs0mg"},{"bike_id":"5206b1c0-ea28-4288-9fb7-15de647e09fa","system_id":"levelo_inurba_marseille","lat":43.33544,"lon":5.37479,"is_reserved":false,"is_disabled":false,"rental_uris":{"android":"levelo://app?vid=5206b1c0-ea28-4288-9fb7-15de647e09fa","ios":"levelo://app?vid=5206b1c0-ea28-4288-9fb7-15de647e09fa"},"vehicle_type_id":"4","last_reported":1774134905,"current_range_meters":6800,"station_id":"st_d46tts09ee8s73dlu43g","pricing_plan_id":"cebpf4jnsgd1na2vs0mg"},{"bike_id":"84dc3d68-1c59-4a3a-a8d1-cca6c5afc7c9","system_id":"levelo_inurba_marseille","lat":43.28031,"lon":5.36949,"is_reserved":false,"is_disabled":false,"rental_uris":{"android":"levelo://app?vid=84dc3d68-1c59-4a3a-a8d1-cca6c5afc7c9","ios":"levelo://app?vid=84dc3d68-1c59-4a3a-a8d1-cca6c5afc7c9"},"vehicle_type_id":"4","last_reported":1774134905,"current_range_meters":6800,"station_id":"ce4bha12rcd13ifvqef0","pricing_plan_id":"cebpf4jnsgd1na2vs0mg"},{"bike_id":"7ee32ac5-72d3-4f5e-9855-98ad57db7d28","system_id":"levelo_inurba_marseille","lat":43.29607,"lon":5.38106,"is_reserved":false,"is_disabled":false,"rental_uris":{"android":"levelo://app?vid=7ee32ac5-72d3-4f5e-9855-98ad57db7d28","ios":"levelo://app?vid=7ee32ac5-72d3-4f5e-9855-98ad57db7d28"},"vehicle_type_id":"4","last_reported":1774134905,"current_range_meters":6800,"station_id":"ce4bgl12rcd13ifvqbo0","pricing_plan_id":"cebpf4jnsgd1na2vs0mg"},{"bike_id":"618a8ce1-d8a1-408b-895a-336a9fe0c14b","system_id":"levelo_inurba_marseille","lat":43.31358,"lon":5.38501,"is_reserved":false,"is_disabled":false,"rental_uris":{"android":"levelo://app?vid=618a8ce1-d8a1-408b-895a-336a9fe0c14b","ios":"levelo://app?vid=618a8ce1-d8a1-408b-895a-336a9fe0c14b"},"vehicle_type_id":"4","last_reported":1774134905,"current_range_meters":6800,"station_id":"ce4bgt92rcd13ifvqcf0","pricing_plan_id":"cebpf4jnsgd1na2vs0mg"},{"bike_id":"91835384-6537-4626-9579-23e38e6a4a9b","system_id":"levelo_inurba_marseille","lat":43.28373,"lon":5.38621,"is_reserved":false,"is_disabled":false,"rental_uris":{"android":"levelo://app?vid=91835384-6537-4626-9579-23e38e6a4a9b","ios":"levelo://app?vid=91835384-6537-4626-9579-23e38e6a4a9b"},"vehicle_type_id":"4","last_reported":1774134905,"current_range_meters":6800,"station_id":"ce4bh492rcd13ifvqdvg","pricing_plan_id":"cebpf4jnsgd1na2vs0mg"},{"bike_id":"eec1e70a-7a70-4f35-82df-f3727eb58f06","system_id":"levelo_inurba_marseille","lat":43.29643,"lon":5.40168,"is_reserved":false,"is_disabled":false,"rental_uris":{"android":"levelo://app?vid=eec1e70a-7a70-4f35-82df-f3727eb58f06","ios":"levelo://app?vid=eec1e70a-7a70-4f35-82df-f3727eb58f06"},"vehicle_type_id":"4","last_reported":1774134905,"current_range_meters":6800,"station_id":"","pricing_plan_id":"cebpf4jnsgd1na2vs0mg"},{"bike_id":"e6475c08-c2b5-4384-9f5a-f76a9e6ed419","system_id":"levelo_inurba_marseille","lat":43.30123,"lon":5.3988,"is_reserved":false,"is_disabled":true,"rental_uris":{"android":"levelo://app?vid=e6475c08-c2b5-4384-9f5a-f76a9e6ed419","ios":"levelo://app?vid=e6475c08-c2b5-4384-9f5a-f76a9e6ed419"},"vehicle_type_id":"4","last_reported":1774134905,"current_range_meters":6800,"station_id":"ce4bh0h2rcd13ifvqd40","pricing_plan_id":"cebpf4jnsgd1na2vs0mg"},{"bike_id":"1cfda841-7ab8-4646-b1f6-441eefce8103","system_id":"levelo_inurba_marseille","lat":43.30159,"lon":5.38752,"is_reserved":false,"is_disabled":false,"rental_uris":{"android":"levelo://app?vid=1cfda841-7ab8-4646-b1f6-441eefce8103","ios":"levelo://app?vid=1cfda841-7ab8-4646-b1f6-441eefce8103"},"vehicle_type_id":"4","last_reported":1774134905,"current_range_meters":6800,"station_id":"ce4bghh2rcd13ifvqb60","pricing_plan_id":"cebpf4jnsgd1na2vs0mg"},{"bike_id":"bb64248e-0e5d-4ee1-9d8f-d48a0dd77d66","system_id":"levelo_inurba_marseille","lat":43.21623,"lon":5.34477,"is_reserved":false,"is_disabled":false,"rental_uris":{"android":"levelo://app?vid=bb64248e-0e5d-4ee1-9d8f-d48a0dd77d66","ios":"levelo://app?vid=bb64248e-0e5d-4ee1-9d8f-d48a0dd77d66"},"vehicle_type_id":"4","last_reported":1774134905,"current_range_meters":6800,"station_id":"","pricing_plan_id":"cebpf4jnsgd1na2vs0mg"},{"bike_id":"703efbe1-feef-417d-a9e3-0fca1a7eab74","system_id":"levelo_inurba_marseille","lat":43.34945,"lon":5.3792,"is_reserved":false,"is_disabled":false,"rental_uris":{"android":"levelo://app?vid=703efbe1-feef-417d-a9e3-0fca1a7eab74","ios":"levelo://app?vid=703efbe1-feef-417d-a9e3-0fca1a7eab74"},"vehicle_type_id":"4","last_reported":1774134905,"current_range_meters":6800,"station_id":"","pricing_plan_id":"cebpf4jnsgd1na2vs0mg"},{"bike_id":"c65d291c-fa3e-434a-9f02-9184fcf8a288","system_id":"levelo_inurba_marseille","lat":43.29787,"lon":5.38066,"is_reserved":false,"is_disabled":false,"rental_uris":{"android":"levelo://app?vid=c65d291c-fa3e-434a-9f02-9184fcf8a288","ios":"levelo://app?vid=c65d291c-fa3e-434a-9f02-9184fcf8a288"},"vehicle_type_id":"4","last_reported":1774134905,"current_range_meters":6800,"station_id":"ce4bgip2rcd13ifvqbb0","pricing_plan_id":"cebpf4jnsgd1na2vs0mg"},{"bike_id":"d78ac144-f8fa-4310-9fa2-c0e8179e3814","system_id":"levelo_inurba_marseille","lat":43.30333,"lon":5.40434,"is_reserved":false,"is_disabled":false,"rental_uris":{"android":"levelo://app?vid=d78ac144-f8fa-4310-9fa2-c0e8179e3814","ios":"levelo://app?vid=d78ac144-f8fa-4310-9fa2-c0e8179e3814"},"vehicle_type_id":"4","last_reported":1774134905,"current_range_meters":6800,"station_id":"ce4bh012rcd13ifvqd10","pricing_plan_id":"cebpf4jnsgd1na2vs0mg"},{"bike_id":"9c19229f-7481-4ad2-b2e4-553f3f471b69","system_id":"levelo_inurba_marseille","lat":43.31166,"lon":5.38721,"is_reserved":false,"is_disabled":false,"rental_uris":{"android":"levelo://app?vid=9c19229f-7481-4ad2-b2e4-553f3f471b69","ios":"levelo://app?vid=9c19229f-7481-4ad2-b2e4-553f3f471b69"},"vehicle_type_id":"4","last_reported":1774134905,"current_range_meters":6800,"station_id":"ce4bgv12rcd13ifvqcp0","pricing_plan_id":"cebpf4jnsgd1na2vs0mg"},{"bike_id":"19af3a19-e811-409b-a69b-1dac427623cd","system_id":"levelo_inurba_marseille","lat":43.30301,"lon":5.39152,"is_reserved":false,"is_disabled":false,"rental_uris":{"android":"levelo://app?vid=19af3a19-e811-409b-a69b-1dac427623cd","ios":"levelo://app?vid=19af3a19-e811-409b-a69b-1dac427623cd"},"vehicle_type_id":"4","last_reported":1774134905,"current_range_meters":6800,"station_id":"ce4bgkh2rcd13ifvqbk0","pricing_plan_id":"cebpf4jnsgd1na2vs0mg"},{"bike_id":"83f26f0c-76a5-412b-b3a4-76d2e6d84a47","system_id":"levelo_inurba_marseille","lat":43.29541,"lon":5.3855,"is_reserved":false,"is_disabled":false,"rental_uris":{"android":"levelo://app?vid=83f26f0c-76a5-412b-b3a4-76d2e6d84a47","ios":"levelo://app?vid=83f26f0c-76a5-412b-b3a4-76d2e6d84a47"},"vehicle_type_id":"4","last_reported":1774134905,"current_range_meters":6800,"station_id":"ce4bgih2rcd13ifvqba0","pricing_plan_id":"cebpf4jnsgd1na2vs0mg"},{"bike_id":"ddc789ee-b314-4ab5-9696-915f4c777452","system_id":"levelo_inurba_marseille","lat":43.30934,"lon":5.39075,"is_reserved":false,"is_disabled":false,"rental_uris":{"android":"levelo://app?vid=ddc789ee-b314-4ab5-9696-915f4c777452","ios":"levelo://app?vid=ddc789ee-b314-4ab5-9696-915f4c777452"},"vehicle_type_id":"4","last_reported":1774134905,"current_range_meters":7200,"station_id":"ce4bgup2rcd13ifvqco0","pricing_plan_id":"cebpf4jnsgd1na2vs0mg"},{"bike_id":"58930592-65f7-4192-ac2f-be7392b8805a","system_id":"levelo_inurba_marseille","lat":43.26227,"lon":5.4046,"is_reserved":false,"is_disabled":false,"rental_uris":{"android":"levelo://app?vid=58930592-65f7-4192-ac2f-be7392b8805a","ios":"levelo://app?vid=58930592-65f7-4192-ac2f-be7392b8805a"},"vehicle_type_id":"4","last_reported":1774134905,"current_range_meters":7200,"station_id":"ce4bhmh2rcd13ifvqgmg","pricing_plan_id":"cebpf4jnsgd1na2vs0mg"},{"bike_id":"0d652583-c214-472f-9f7f-aee2fc78fbd5","system_id":"levelo_inurba_marseille","lat":43.29522,"lon":5.39049,"is_reserved":false,"is_disabled":false,"rental_uris":{"android":"levelo://app?vid=0d652583-c214-472f-9f7f-aee2fc78fbd5","ios":"levelo://app?vid=0d652583-c214-472f-9f7f-aee2fc78fbd5"},"vehicle_type_id":"4","last_reported":1774134905,"current_range_meters":7200,"station_id":"ce4bh3p2rcd13ifvqdp0","pricing_plan_id":"cebpf4jnsgd1na2vs0mg"},{"bike_id":"853b60f9-9203-48d1-83d9-1955c5adb34b","system_id":"levelo_inurba_marseille","lat":43.31324,"lon":5.39705,"is_reserved":false,"is_disabled":false,"rental_uris":{"android":"levelo://app?vid=853b60f9-9203-48d1-83d9-1955c5adb34b","ios":"levelo://app?vid=853b60f9-9203-48d1-83d9-1955c5adb34b"},"vehicle_type_id":"4","last_reported":1774134905,"current_range_meters":7200,"station_id":"ce4bgvp2rcd13ifvqcu0","pricing_plan_id":"cebpf4jnsgd1na2vs0mg"},{"bike_id":"66f56402-7386-48e6-be67-acd970d62d91","system_id":"levelo_inurba_marseille","lat":43.29276,"lon":5.36836,"is_reserved":false,"is_disabled":false,"rental_uris":{"android":"levelo://app?vid=66f56402-7386-48e6-be67-acd970d62d91","ios":"levelo://app?vid=66f56402-7386-48e6-be67-acd970d62d91"},"vehicle_type_id":"4","last_reported":1774134905,"current_range_meters":7200,"station_id":"ce4bhbp2rcd13ifvqesg","pricing_plan_id":"cebpf4jnsgd1na2vs0mg"},{"bike_id":"59f675c7-3300-4b5c-9b6c-736612a162ac","system_id":"levelo_inurba_marseille","lat":43.31331,"lon":5.39686,"is_reserved":false,"is_disabled":false,"rental_uris":{"android":"levelo://app?vid=59f675c7-3300-4b5c-9b6c-736612a162ac","ios":"levelo://app?vid=59f675c7-3300-4b5c-9b6c-736612a162ac"},"vehicle_type_id":"4","last_reported":1774134905,"current_range_meters":7200,"station_id":"ce4bgvp2rcd13ifvqcu0","pricing_plan_id":"cebpf4jnsgd1na2vs0mg"},{"bike_id":"d65bd890-bd76-40b1-a464-add252f480e6","system_id":"levelo_inurba_marseille","lat":43.31736,"lon":5.38999,"is_reserved":false,"is_disabled":false,"rental_uris":{"android":"levelo://app?vid=d65bd890-bd76-40b1-a464-add252f480e6","ios":"levelo://app?vid=d65bd890-bd76-40b1-a464-add252f480e6"},"vehicle_type_id":"4","last_reported":1774134905,"current_range_meters":7200,"station_id":"ce4bhqp2rcd13ifvqhng","pricing_plan_id":"cebpf4jnsgd1na2vs0mg"},{"bike_id":"4e9bd9cc-f54e-444b-bb70-3684f0858f13","system_id":"levelo_inurba_marseille","lat":43.29053,"lon":5.37178,"is_reserved":false,"is_disabled":false,"rental_uris":{"android":"levelo://app?vid=4e9bd9cc-f54e-444b-bb70-3684f0858f13","ios":"levelo://app?vid=4e9bd9cc-f54e-444b-bb70-3684f0858f13"},"vehicle_type_id":"4","last_reported":1774134905,"current_range_meters":7200,"station_id":"ce4bh5p2rcd13ifvqe4g","pricing_plan_id":"cebpf4jnsgd1na2vs0mg"},{"bike_id":"0e8182cb-e700-4d11-8f0c-f71006c7b2ed","system_id":"levelo_inurba_marseille","lat":43.28569,"lon":5.35993,"is_reserved":false,"is_disabled":false,"rental_uris":{"android":"levelo://app?vid=0e8182cb-e700-4d11-8f0c-f71006c7b2ed","ios":"levelo://app?vid=0e8182cb-e700-4d11-8f0c-f71006c7b2ed"},"vehicle_type_id":"4","last_reported":1774134905,"current_range_meters":7200,"station_id":"","pricing_plan_id":"cebpf4jnsgd1na2vs0mg"},{"bike_id":"b34b727c-8b77-4550-abf0-5aeaa189f090","system_id":"levelo_inurba_marseille","lat":43.29536,"lon":5.38543,"is_reserved":false,"is_disabled":false,"rental_uris":{"android":"levelo://app?vid=b34b727c-8b77-4550-abf0-5aeaa189f090","ios":"levelo://app?vid=b34b727c-8b77-4550-abf0-5aeaa189f090"},"vehicle_type_id":"4","last_reported":1774134905,"current_range_meters":7200,"station_id":"ce4bgih2rcd13ifvqba0","pricing_plan_id":"cebpf4jnsgd1na2vs0mg"},{"bike_id":"ae8902c8-fccd-4707-ae02-61086c43e039","system_id":"levelo_inurba_marseille","lat":43.29539,"lon":5.38541,"is_reserved":false,"is_disabled":false,"rental_uris":{"android":"levelo://app?vid=ae8902c8-fccd-4707-ae02-61086c43e039","ios":"levelo://app?vid=ae8902c8-fccd-4707-ae02-61086c43e039"},"vehicle_type_id":"4","last_reported":1774134905,"current_range_meters":7200,"station_id":"ce4bgih2rcd13ifvqba0","pricing_plan_id":"cebpf4jnsgd1na2vs0mg"},{"bike_id":"9aab9186-cdfc-419e-b877-691d5aca870a","system_id":"levelo_inurba_marseille","lat":43.282257,"lon":5.390459,"is_reserved":false,"is_disabled":false,"rental_uris":{"android":"levelo://app?vid=9aab9186-cdfc-419e-b877-691d5aca870a","ios":"levelo://app?vid=9aab9186-cdfc-419e-b877-691d5aca870a"},"vehicle_type_id":"4","last_reported":1774134905,"current_range_meters":7200,"station_id":"ce4bhn92rcd13ifvqgsg","pricing_plan_id":"cebpf4jnsgd1na2vs0mg"},{"bike_id":"881552ad-57ca-4484-9a05-f159c58f50d9","system_id":"levelo_inurba_marseille","lat":43.31696,"lon":5.38695,"is_reserved":false,"is_disabled":false,"rental_uris":{"android":"levelo://app?vid=881552ad-57ca-4484-9a05-f159c58f50d9","ios":"levelo://app?vid=881552ad-57ca-4484-9a05-f159c58f50d9"},"vehicle_type_id":"4","last_reported":1774134905,"current_range_meters":7200,"station_id":"","pricing_plan_id":"cebpf4jnsgd1na2vs0mg"},{"bike_id":"7391d843-4a97-42eb-a165-04dc1106d10b","system_id":"levelo_inurba_marseille","lat":43.30594,"lon":5.37205,"is_reserved":false,"is_disabled":false,"rental_uris":{"android":"levelo://app?vid=7391d843-4a97-42eb-a165-04dc1106d10b","ios":"levelo://app?vid=7391d843-4a97-42eb-a165-04dc1106d10b"},"vehicle_type_id":"4","last_reported":1774134905,"current_range_meters":7200,"station_id":"ce4bgqh2rcd13ifvqc4g","pricing_plan_id":"cebpf4jnsgd1na2vs0mg"},{"bike_id":"c9d5c436-b99b-4824-af4f-cf596f4f856d","system_id":"levelo_inurba_marseille","lat":43.27996,"lon":5.41666,"is_reserved":false,"is_disabled":false,"rental_uris":{"android":"levelo://app?vid=c9d5c436-b99b-4824-af4f-cf596f4f856d","ios":"levelo://app?vid=c9d5c436-b99b-4824-af4f-cf596f4f856d"},"vehicle_type_id":"4","last_reported":1774134905,"current_range_meters":7200,"station_id":"ce4bho12rcd13ifvqh1g","pricing_plan_id":"cebpf4jnsgd1na2vs0mg"},{"bike_id":"2cd11bbe-ed2d-4401-ac74-aa88c1ac5db6","system_id":"levelo_inurba_marseille","lat":43.29438,"lon":5.39752,"is_reserved":false,"is_disabled":false,"rental_uris":{"android":"levelo://app?vid=2cd11bbe-ed2d-4401-ac74-aa88c1ac5db6","ios":"levelo://app?vid=2cd11bbe-ed2d-4401-ac74-aa88c1ac5db6"},"vehicle_type_id":"4","last_reported":1774134905,"current_range_meters":7200,"station_id":"ce4bh3h2rcd13ifvqdo0","pricing_plan_id":"cebpf4jnsgd1na2vs0mg"},{"bike_id":"99a4c351-f049-4890-82a1-6ee5250a4da7","system_id":"levelo_inurba_marseille","lat":43.29081,"lon":5.38131,"is_reserved":false,"is_disabled":false,"rental_uris":{"android":"levelo://app?vid=99a4c351-f049-4890-82a1-6ee5250a4da7","ios":"levelo://app?vid=99a4c351-f049-4890-82a1-6ee5250a4da7"},"vehicle_type_id":"4","last_reported":1774134905,"current_range_meters":7200,"station_id":"ce4bh512rcd13ifvqe2g","pricing_plan_id":"cebpf4jnsgd1na2vs0mg"},{"bike_id":"24892758-e1c8-4866-9ace-f6379bc81fdc","system_id":"levelo_inurba_marseille","lat":43.26369,"lon":5.41082,"is_reserved":false,"is_disabled":false,"rental_uris":{"android":"levelo://app?vid=24892758-e1c8-4866-9ace-f6379bc81fdc","ios":"levelo://app?vid=24892758-e1c8-4866-9ace-f6379bc81fdc"},"vehicle_type_id":"4","last_reported":1774134905,"current_range_meters":7200,"station_id":"st_d4e5ca6na9uc73bfl5fg","pricing_plan_id":"cebpf4jnsgd1na2vs0mg"},{"bike_id":"7168a28a-80ec-4226-972e-efc575aeae3e","system_id":"levelo_inurba_marseille","lat":43.27569,"lon":5.38427,"is_reserved":false,"is_disabled":false,"rental_uris":{"android":"levelo://app?vid=7168a28a-80ec-4226-972e-efc575aeae3e","ios":"levelo://app?vid=7168a28a-80ec-4226-972e-efc575aeae3e"},"vehicle_type_id":"4","last_reported":1774134905,"current_range_meters":7200,"station_id":"ce4bhh92rcd13ifvqfi0","pricing_plan_id":"cebpf4jnsgd1na2vs0mg"},{"bike_id":"9428c957-f603-4346-9e68-4f9e4a780b24","system_id":"levelo_inurba_marseille","lat":43.21751,"lon":5.34597,"is_reserved":false,"is_disabled":true,"rental_uris":{"android":"levelo://app?vid=9428c957-f603-4346-9e68-4f9e4a780b24","ios":"levelo://app?vid=9428c957-f603-4346-9e68-4f9e4a780b24"},"vehicle_type_id":"4","last_reported":1774134905,"current_range_meters":8000,"station_id":"st_cvj6r9ubvosntc0bgbag","pricing_plan_id":"cebpf4jnsgd1na2vs0mg"},{"bike_id":"684715c6-945f-4949-9133-64dec7838b4e","system_id":"levelo_inurba_marseille","lat":43.272,"lon":5.39201,"is_reserved":false,"is_disabled":true,"rental_uris":{"android":"levelo://app?vid=684715c6-945f-4949-9133-64dec7838b4e","ios":"levelo://app?vid=684715c6-945f-4949-9133-64dec7838b4e"},"vehicle_type_id":"4","last_reported":1774134905,"current_range_meters":8000,"station_id":"ce4bhhp2rcd13ifvqfm0","pricing_plan_id":"cebpf4jnsgd1na2vs0mg"},{"bike_id":"589e256a-566c-48aa-ba2e-bb8bec131139","system_id":"levelo_inurba_marseille","lat":43.27378,"lon":5.3625,"is_reserved":false,"is_disabled":true,"rental_uris":{"android":"levelo://app?vid=589e256a-566c-48aa-ba2e-bb8bec131139","ios":"levelo://app?vid=589e256a-566c-48aa-ba2e-bb8bec131139"},"vehicle_type_id":"4","last_reported":1774134905,"current_range_meters":8000,"station_id":"ce4bhbh2rcd13ifvqeo0","pricing_plan_id":"cebpf4jnsgd1na2vs0mg"},{"bike_id":"b6fffe2f-9423-41b9-a53f-4ddbccd10965","system_id":"levelo_inurba_marseille","lat":43.33527,"lon":5.37467,"is_reserved":false,"is_disabled":false,"rental_uris":{"android":"levelo://app?vid=b6fffe2f-9423-41b9-a53f-4ddbccd10965","ios":"levelo://app?vid=b6fffe2f-9423-41b9-a53f-4ddbccd10965"},"vehicle_type_id":"4","last_reported":1774134905,"current_range_meters":8000,"station_id":"st_d46tts09ee8s73dlu43g","pricing_plan_id":"cebpf4jnsgd1na2vs0mg"},{"bike_id":"183fd90c-0052-4b2b-a72d-89bd5fb0a1bb","system_id":"levelo_inurba_marseille","lat":43.30975,"lon":5.43875,"is_reserved":false,"is_disabled":false,"rental_uris":{"android":"levelo://app?vid=183fd90c-0052-4b2b-a72d-89bd5fb0a1bb","ios":"levelo://app?vid=183fd90c-0052-4b2b-a72d-89bd5fb0a1bb"},"vehicle_type_id":"4","last_reported":1774134905,"current_range_meters":8000,"station_id":"","pricing_plan_id":"cebpf4jnsgd1na2vs0mg"},{"bike_id":"f72d76b5-18e1-454b-afe7-6526fb898042","system_id":"levelo_inurba_marseille","lat":43.28037,"lon":5.36949,"is_reserved":false,"is_disabled":false,"rental_uris":{"android":"levelo://app?vid=f72d76b5-18e1-454b-afe7-6526fb898042","ios":"levelo://app?vid=f72d76b5-18e1-454b-afe7-6526fb898042"},"vehicle_type_id":"4","last_reported":1774134905,"current_range_meters":8000,"station_id":"ce4bha12rcd13ifvqef0","pricing_plan_id":"cebpf4jnsgd1na2vs0mg"},{"bike_id":"037af263-c94a-46ee-b673-7aa7948320d5","system_id":"levelo_inurba_marseille","lat":43.29244,"lon":5.38437,"is_reserved":false,"is_disabled":true,"rental_uris":{"android":"levelo://app?vid=037af263-c94a-46ee-b673-7aa7948320d5","ios":"levelo://app?vid=037af263-c94a-46ee-b673-7aa7948320d5"},"vehicle_type_id":"4","last_reported":1774134905,"current_range_meters":8000,"station_id":"ce4bh692rcd13ifvqea0","pricing_plan_id":"cebpf4jnsgd1na2vs0mg"},{"bike_id":"f1ea484c-47aa-4ccf-bf0c-7108f05ab375","system_id":"levelo_inurba_marseille","lat":43.30304,"lon":5.36883,"is_reserved":false,"is_disabled":false,"rental_uris":{"android":"levelo://app?vid=f1ea484c-47aa-4ccf-bf0c-7108f05ab375","ios":"levelo://app?vid=f1ea484c-47aa-4ccf-bf0c-7108f05ab375"},"vehicle_type_id":"4","last_reported":1774134905,"current_range_meters":8000,"station_id":"ce4bgqh2rcd13ifvqc5g","pricing_plan_id":"cebpf4jnsgd1na2vs0mg"},{"bike_id":"f6f3abcd-ef9f-43cd-8672-32ea53a97c73","system_id":"levelo_inurba_marseille","lat":43.31363,"lon":5.36727,"is_reserved":false,"is_disabled":false,"rental_uris":{"android":"levelo://app?vid=f6f3abcd-ef9f-43cd-8672-32ea53a97c73","ios":"levelo://app?vid=f6f3abcd-ef9f-43cd-8672-32ea53a97c73"},"vehicle_type_id":"4","last_reported":1774134905,"current_range_meters":8000,"station_id":"ce4bgr92rcd13ifvqc6g","pricing_plan_id":"cebpf4jnsgd1na2vs0mg"},{"bike_id":"042634bc-3563-4c6c-b30b-7c88c33b368a","system_id":"levelo_inurba_marseille","lat":43.28485,"lon":5.484,"is_reserved":false,"is_disabled":false,"rental_uris":{"android":"levelo://app?vid=042634bc-3563-4c6c-b30b-7c88c33b368a","ios":"levelo://app?vid=042634bc-3563-4c6c-b30b-7c88c33b368a"},"vehicle_type_id":"4","last_reported":1774134905,"current_range_meters":8000,"station_id":"","pricing_plan_id":"cebpf4jnsgd1na2vs0mg"},{"bike_id":"280578b9-60d3-4d63-bb0d-4693a52f0b6d","system_id":"levelo_inurba_marseille","lat":43.28999,"lon":5.38111,"is_reserved":false,"is_disabled":true,"rental_uris":{"android":"levelo://app?vid=280578b9-60d3-4d63-bb0d-4693a52f0b6d","ios":"levelo://app?vid=280578b9-60d3-4d63-bb0d-4693a52f0b6d"},"vehicle_type_id":"4","last_reported":1774134905,"current_range_meters":8000,"station_id":"ce4bh4p2rcd13ifvqe1g","pricing_plan_id":"cebpf4jnsgd1na2vs0mg"},{"bike_id":"76a336d1-8392-4163-aad9-de020a1129ea","system_id":"levelo_inurba_marseille","lat":43.29595,"lon":5.38069,"is_reserved":false,"is_disabled":false,"rental_uris":{"android":"levelo://app?vid=76a336d1-8392-4163-aad9-de020a1129ea","ios":"levelo://app?vid=76a336d1-8392-4163-aad9-de020a1129ea"},"vehicle_type_id":"4","last_reported":1774134905,"current_range_meters":8000,"station_id":"ce4bgl12rcd13ifvqbo0","pricing_plan_id":"cebpf4jnsgd1na2vs0mg"},{"bike_id":"f84df946-1fe9-4d68-b54f-3a23cc20fde7","system_id":"levelo_inurba_marseille","lat":43.2987,"lon":5.4211,"is_reserved":false,"is_disabled":false,"rental_uris":{"android":"levelo://app?vid=f84df946-1fe9-4d68-b54f-3a23cc20fde7","ios":"levelo://app?vid=f84df946-1fe9-4d68-b54f-3a23cc20fde7"},"vehicle_type_id":"4","last_reported":1774134905,"current_range_meters":8000,"station_id":"st_d6tc004otcvc738tfe70","pricing_plan_id":"cebpf4jnsgd1na2vs0mg"},{"bike_id":"e80e3045-8283-4d1d-b48f-693d799b5a5c","system_id":"levelo_inurba_marseille","lat":43.29487,"lon":5.43303,"is_reserved":false,"is_disabled":false,"rental_uris":{"android":"levelo://app?vid=e80e3045-8283-4d1d-b48f-693d799b5a5c","ios":"levelo://app?vid=e80e3045-8283-4d1d-b48f-693d799b5a5c"},"vehicle_type_id":"4","last_reported":1774134905,"current_range_meters":8000,"station_id":"st_d3j5ugp08ojc73fj9d10","pricing_plan_id":"cebpf4jnsgd1na2vs0mg"},{"bike_id":"3c9ec287-5840-43e9-841e-079c32285e84","system_id":"levelo_inurba_marseille","lat":43.33145,"lon":5.37703,"is_reserved":false,"is_disabled":false,"rental_uris":{"android":"levelo://app?vid=3c9ec287-5840-43e9-841e-079c32285e84","ios":"levelo://app?vid=3c9ec287-5840-43e9-841e-079c32285e84"},"vehicle_type_id":"4","last_reported":1774134905,"current_range_meters":8000,"station_id":"st_d46cu089ee8s73dldbu0","pricing_plan_id":"cebpf4jnsgd1na2vs0mg"},{"bike_id":"b19a626a-93cd-41bf-8d4f-8b63d7aeec08","system_id":"levelo_inurba_marseille","lat":43.30131,"lon":5.43904,"is_reserved":false,"is_disabled":false,"rental_uris":{"android":"levelo://app?vid=b19a626a-93cd-41bf-8d4f-8b63d7aeec08","ios":"levelo://app?vid=b19a626a-93cd-41bf-8d4f-8b63d7aeec08"},"vehicle_type_id":"4","last_reported":1774134905,"current_range_meters":8000,"station_id":"","pricing_plan_id":"cebpf4jnsgd1na2vs0mg"},{"bike_id":"afaf009b-854b-4a4a-9a19-fdc9f27a88ec","system_id":"levelo_inurba_marseille","lat":43.29045,"lon":5.38651,"is_reserved":false,"is_disabled":true,"rental_uris":{"android":"levelo://app?vid=afaf009b-854b-4a4a-9a19-fdc9f27a88ec","ios":"levelo://app?vid=afaf009b-854b-4a4a-9a19-fdc9f27a88ec"},"vehicle_type_id":"4","last_reported":1774134905,"current_range_meters":8000,"station_id":"ce4bh4p2rcd13ifvqe0g","pricing_plan_id":"cebpf4jnsgd1na2vs0mg"},{"bike_id":"5369d941-756a-4a39-ae59-10b7c47d2be3","system_id":"levelo_inurba_marseille","lat":43.31087,"lon":5.37166,"is_reserved":false,"is_disabled":false,"rental_uris":{"android":"levelo://app?vid=5369d941-756a-4a39-ae59-10b7c47d2be3","ios":"levelo://app?vid=5369d941-756a-4a39-ae59-10b7c47d2be3"},"vehicle_type_id":"4","last_reported":1774134905,"current_range_meters":8000,"station_id":"st_d4kl2rp97mjs73e7tdfg","pricing_plan_id":"cebpf4jnsgd1na2vs0mg"},{"bike_id":"d3165751-186a-400c-8045-546da55910f7","system_id":"levelo_inurba_marseille","lat":43.2954,"lon":5.3853,"is_reserved":false,"is_disabled":false,"rental_uris":{"android":"levelo://app?vid=d3165751-186a-400c-8045-546da55910f7","ios":"levelo://app?vid=d3165751-186a-400c-8045-546da55910f7"},"vehicle_type_id":"4","last_reported":1774134905,"current_range_meters":8000,"station_id":"ce4bgih2rcd13ifvqba0","pricing_plan_id":"cebpf4jnsgd1na2vs0mg"},{"bike_id":"0281e1b5-7440-4b16-a709-800e6c0b1f3d","system_id":"levelo_inurba_marseille","lat":43.29696,"lon":5.36618,"is_reserved":false,"is_disabled":false,"rental_uris":{"android":"levelo://app?vid=0281e1b5-7440-4b16-a709-800e6c0b1f3d","ios":"levelo://app?vid=0281e1b5-7440-4b16-a709-800e6c0b1f3d"},"vehicle_type_id":"4","last_reported":1774134905,"current_range_meters":8000,"station_id":"ce4bgn12rcd13ifvqbt0","pricing_plan_id":"cebpf4jnsgd1na2vs0mg"},{"bike_id":"70ed81f0-cc7f-4a8f-b6f0-251d42df73b9","system_id":"levelo_inurba_marseille","lat":43.29277,"lon":5.3685,"is_reserved":false,"is_disabled":false,"rental_uris":{"android":"levelo://app?vid=70ed81f0-cc7f-4a8f-b6f0-251d42df73b9","ios":"levelo://app?vid=70ed81f0-cc7f-4a8f-b6f0-251d42df73b9"},"vehicle_type_id":"4","last_reported":1774134905,"current_range_meters":8400,"station_id":"ce4bhbp2rcd13ifvqesg","pricing_plan_id":"cebpf4jnsgd1na2vs0mg"},{"bike_id":"62ccf4a8-0426-42c8-92c7-60b92e2221c9","system_id":"levelo_inurba_marseille","lat":43.28482,"lon":5.48395,"is_reserved":false,"is_disabled":false,"rental_uris":{"android":"levelo://app?vid=62ccf4a8-0426-42c8-92c7-60b92e2221c9","ios":"levelo://app?vid=62ccf4a8-0426-42c8-92c7-60b92e2221c9"},"vehicle_type_id":"4","last_reported":1774134905,"current_range_meters":8400,"station_id":"","pricing_plan_id":"cebpf4jnsgd1na2vs0mg"},{"bike_id":"34c091fc-8184-4773-bd2e-dd88d75d3a2c","system_id":"levelo_inurba_marseille","lat":43.25753,"lon":5.37647,"is_reserved":false,"is_disabled":false,"rental_uris":{"android":"levelo://app?vid=34c091fc-8184-4773-bd2e-dd88d75d3a2c","ios":"levelo://app?vid=34c091fc-8184-4773-bd2e-dd88d75d3a2c"},"vehicle_type_id":"4","last_reported":1774134905,"current_range_meters":8400,"station_id":"","pricing_plan_id":"cebpf4jnsgd1na2vs0mg"},{"bike_id":"3f12e940-de87-4cda-8d19-b5ddb45a8f36","system_id":"levelo_inurba_marseille","lat":43.23187,"lon":5.35567,"is_reserved":false,"is_disabled":false,"rental_uris":{"android":"levelo://app?vid=3f12e940-de87-4cda-8d19-b5ddb45a8f36","ios":"levelo://app?vid=3f12e940-de87-4cda-8d19-b5ddb45a8f36"},"vehicle_type_id":"4","last_reported":1774134905,"current_range_meters":8400,"station_id":"ce4bhu92rcd13ifvqi70","pricing_plan_id":"cebpf4jnsgd1na2vs0mg"},{"bike_id":"29eebf9a-f92b-42ee-b44b-45d23b0c0a90","system_id":"levelo_inurba_marseille","lat":43.29077,"lon":5.37188,"is_reserved":false,"is_disabled":false,"rental_uris":{"android":"levelo://app?vid=29eebf9a-f92b-42ee-b44b-45d23b0c0a90","ios":"levelo://app?vid=29eebf9a-f92b-42ee-b44b-45d23b0c0a90"},"vehicle_type_id":"4","last_reported":1774134905,"current_range_meters":8400,"station_id":"ce4bh5p2rcd13ifvqe4g","pricing_plan_id":"cebpf4jnsgd1na2vs0mg"},{"bike_id":"f8cc83d7-8cfc-43c5-a95c-950d60be7ca1","system_id":"levelo_inurba_marseille","lat":43.22923,"lon":5.35388,"is_reserved":false,"is_disabled":false,"rental_uris":{"android":"levelo://app?vid=f8cc83d7-8cfc-43c5-a95c-950d60be7ca1","ios":"levelo://app?vid=f8cc83d7-8cfc-43c5-a95c-950d60be7ca1"},"vehicle_type_id":"4","last_reported":1774134905,"current_range_meters":8400,"station_id":"cpo3532slgdg3j2ikp40","pricing_plan_id":"cebpf4jnsgd1na2vs0mg"},{"bike_id":"73a3b26e-3a6d-4e68-b7f8-014d26b23e9a","system_id":"levelo_inurba_marseille","lat":43.31049,"lon":5.37883,"is_reserved":false,"is_disabled":false,"rental_uris":{"android":"levelo://app?vid=73a3b26e-3a6d-4e68-b7f8-014d26b23e9a","ios":"levelo://app?vid=73a3b26e-3a6d-4e68-b7f8-014d26b23e9a"},"vehicle_type_id":"4","last_reported":1774134905,"current_range_meters":8400,"station_id":"","pricing_plan_id":"cebpf4jnsgd1na2vs0mg"},{"bike_id":"a056b44c-3f74-478b-9324-c2fb58ef1ed2","system_id":"levelo_inurba_marseille","lat":43.30266,"lon":5.37372,"is_reserved":false,"is_disabled":false,"rental_uris":{"android":"levelo://app?vid=a056b44c-3f74-478b-9324-c2fb58ef1ed2","ios":"levelo://app?vid=a056b44c-3f74-478b-9324-c2fb58ef1ed2"},"vehicle_type_id":"4","last_reported":1774134905,"current_range_meters":8400,"station_id":"","pricing_plan_id":"cebpf4jnsgd1na2vs0mg"},{"bike_id":"f7eb4427-69b4-4ba2-b725-4c793d1cf289","system_id":"levelo_inurba_marseille","lat":43.30797,"lon":5.38153,"is_reserved":false,"is_disabled":false,"rental_uris":{"android":"levelo://app?vid=f7eb4427-69b4-4ba2-b725-4c793d1cf289","ios":"levelo://app?vid=f7eb4427-69b4-4ba2-b725-4c793d1cf289"},"vehicle_type_id":"4","last_reported":1774134905,"current_range_meters":8400,"station_id":"ce4bgt12rcd13ifvqce0","pricing_plan_id":"cebpf4jnsgd1na2vs0mg"},{"bike_id":"727a7cec-c0a4-42ee-b13e-1092ce84e6ac","system_id":"levelo_inurba_marseille","lat":43.25497,"lon":5.37641,"is_reserved":false,"is_disabled":true,"rental_uris":{"android":"levelo://app?vid=727a7cec-c0a4-42ee-b13e-1092ce84e6ac","ios":"levelo://app?vid=727a7cec-c0a4-42ee-b13e-1092ce84e6ac"},"vehicle_type_id":"4","last_reported":1774134905,"current_range_meters":8400,"station_id":"ce4bhh12rcd13ifvqff0","pricing_plan_id":"cebpf4jnsgd1na2vs0mg"},{"bike_id":"f0d9f2af-de26-4d1e-be2c-0316566a7e6b","system_id":"levelo_inurba_marseille","lat":43.2903,"lon":5.37557,"is_reserved":false,"is_disabled":false,"rental_uris":{"android":"levelo://app?vid=f0d9f2af-de26-4d1e-be2c-0316566a7e6b","ios":"levelo://app?vid=f0d9f2af-de26-4d1e-be2c-0316566a7e6b"},"vehicle_type_id":"4","last_reported":1774134905,"current_range_meters":8400,"station_id":"ce4bh692rcd13ifvqe90","pricing_plan_id":"cebpf4jnsgd1na2vs0mg"},{"bike_id":"4c3f08d4-34c7-4e1b-9255-baed674c1087","system_id":"levelo_inurba_marseille","lat":43.23978,"lon":5.3664,"is_reserved":false,"is_disabled":false,"rental_uris":{"android":"levelo://app?vid=4c3f08d4-34c7-4e1b-9255-baed674c1087","ios":"levelo://app?vid=4c3f08d4-34c7-4e1b-9255-baed674c1087"},"vehicle_type_id":"4","last_reported":1774134905,"current_range_meters":8400,"station_id":"","pricing_plan_id":"cebpf4jnsgd1na2vs0mg"},{"bike_id":"bb2bb087-057b-42f3-9513-f048d27083cc","system_id":"levelo_inurba_marseille","lat":43.28174,"lon":5.42808,"is_reserved":false,"is_disabled":false,"rental_uris":{"android":"levelo://app?vid=bb2bb087-057b-42f3-9513-f048d27083cc","ios":"levelo://app?vid=bb2bb087-057b-42f3-9513-f048d27083cc"},"vehicle_type_id":"4","last_reported":1774134905,"current_range_meters":8400,"station_id":"","pricing_plan_id":"cebpf4jnsgd1na2vs0mg"},{"bike_id":"059ca959-37ed-4fb7-a8b9-715e55b5cc3a","system_id":"levelo_inurba_marseille","lat":43.30592,"lon":5.37213,"is_reserved":false,"is_disabled":false,"rental_uris":{"android":"levelo://app?vid=059ca959-37ed-4fb7-a8b9-715e55b5cc3a","ios":"levelo://app?vid=059ca959-37ed-4fb7-a8b9-715e55b5cc3a"},"vehicle_type_id":"4","last_reported":1774134905,"current_range_meters":8400,"station_id":"ce4bgqh2rcd13ifvqc4g","pricing_plan_id":"cebpf4jnsgd1na2vs0mg"},{"bike_id":"e280ef74-0c6f-43c6-9c8a-99f768a1c848","system_id":"levelo_inurba_marseille","lat":43.28706,"lon":5.39983,"is_reserved":false,"is_disabled":false,"rental_uris":{"android":"levelo://app?vid=e280ef74-0c6f-43c6-9c8a-99f768a1c848","ios":"levelo://app?vid=e280ef74-0c6f-43c6-9c8a-99f768a1c848"},"vehicle_type_id":"4","last_reported":1774134905,"current_range_meters":8400,"station_id":"ce4bho92rcd13ifvqh3g","pricing_plan_id":"cebpf4jnsgd1na2vs0mg"},{"bike_id":"8827da7c-4553-4e45-8b96-33f6c2699a52","system_id":"levelo_inurba_marseille","lat":43.21742,"lon":5.34603,"is_reserved":false,"is_disabled":true,"rental_uris":{"android":"levelo://app?vid=8827da7c-4553-4e45-8b96-33f6c2699a52","ios":"levelo://app?vid=8827da7c-4553-4e45-8b96-33f6c2699a52"},"vehicle_type_id":"4","last_reported":1774134905,"current_range_meters":8400,"station_id":"st_cvj6r9ubvosntc0bgbag","pricing_plan_id":"cebpf4jnsgd1na2vs0mg"},{"bike_id":"c6d54013-6e54-45c6-ad87-22dcf9460c7d","system_id":"levelo_inurba_marseille","lat":43.27946,"lon":5.41045,"is_reserved":false,"is_disabled":false,"rental_uris":{"android":"levelo://app?vid=c6d54013-6e54-45c6-ad87-22dcf9460c7d","ios":"levelo://app?vid=c6d54013-6e54-45c6-ad87-22dcf9460c7d"},"vehicle_type_id":"4","last_reported":1774134905,"current_range_meters":8400,"station_id":"ce4bhnp2rcd13ifvqh0g","pricing_plan_id":"cebpf4jnsgd1na2vs0mg"},{"bike_id":"c740e20c-eca7-406c-92dd-2b448718a645","system_id":"levelo_inurba_marseille","lat":43.28485,"lon":5.48396,"is_reserved":false,"is_disabled":false,"rental_uris":{"android":"levelo://app?vid=c740e20c-eca7-406c-92dd-2b448718a645","ios":"levelo://app?vid=c740e20c-eca7-406c-92dd-2b448718a645"},"vehicle_type_id":"4","last_reported":1774134905,"current_range_meters":8400,"station_id":"st_d3svhcjqgbts73a3dn0g","pricing_plan_id":"cebpf4jnsgd1na2vs0mg"},{"bike_id":"2198dd5a-8a9c-43a1-8743-28b676f91ab1","system_id":"levelo_inurba_marseille","lat":43.28998,"lon":5.36635,"is_reserved":false,"is_disabled":false,"rental_uris":{"android":"levelo://app?vid=2198dd5a-8a9c-43a1-8743-28b676f91ab1","ios":"levelo://app?vid=2198dd5a-8a9c-43a1-8743-28b676f91ab1"},"vehicle_type_id":"4","last_reported":1774134905,"current_range_meters":8400,"station_id":"","pricing_plan_id":"cebpf4jnsgd1na2vs0mg"},{"bike_id":"af4b274c-9e96-4cc5-9187-ba0183c188c4","system_id":"levelo_inurba_marseille","lat":43.29018,"lon":5.38649,"is_reserved":false,"is_disabled":false,"rental_uris":{"android":"levelo://app?vid=af4b274c-9e96-4cc5-9187-ba0183c188c4","ios":"levelo://app?vid=af4b274c-9e96-4cc5-9187-ba0183c188c4"},"vehicle_type_id":"4","last_reported":1774134905,"current_range_meters":8400,"station_id":"ce4bh4p2rcd13ifvqe0g","pricing_plan_id":"cebpf4jnsgd1na2vs0mg"},{"bike_id":"35939b35-432f-4730-9a4d-bca4477a51c8","system_id":"levelo_inurba_marseille","lat":43.32128,"lon":5.36775,"is_reserved":false,"is_disabled":false,"rental_uris":{"android":"levelo://app?vid=35939b35-432f-4730-9a4d-bca4477a51c8","ios":"levelo://app?vid=35939b35-432f-4730-9a4d-bca4477a51c8"},"vehicle_type_id":"4","last_reported":1774134905,"current_range_meters":8400,"station_id":"ce4bhrh2rcd13ifvqhug","pricing_plan_id":"cebpf4jnsgd1na2vs0mg"},{"bike_id":"6c1ac590-511b-4ef3-b19a-055f363bbc14","system_id":"levelo_inurba_marseille","lat":43.299,"lon":5.43671,"is_reserved":false,"is_disabled":false,"rental_uris":{"android":"levelo://app?vid=6c1ac590-511b-4ef3-b19a-055f363bbc14","ios":"levelo://app?vid=6c1ac590-511b-4ef3-b19a-055f363bbc14"},"vehicle_type_id":"4","last_reported":1774134905,"current_range_meters":8400,"station_id":"ce4bhpp2rcd13ifvqhfg","pricing_plan_id":"cebpf4jnsgd1na2vs0mg"},{"bike_id":"427da2c9-40d7-42b8-97cd-37971ae1ffdb","system_id":"levelo_inurba_marseille","lat":43.31479,"lon":5.37277,"is_reserved":false,"is_disabled":false,"rental_uris":{"android":"levelo://app?vid=427da2c9-40d7-42b8-97cd-37971ae1ffdb","ios":"levelo://app?vid=427da2c9-40d7-42b8-97cd-37971ae1ffdb"},"vehicle_type_id":"4","last_reported":1774134905,"current_range_meters":8400,"station_id":"ce4bgt12rcd13ifvqcd0","pricing_plan_id":"cebpf4jnsgd1na2vs0mg"},{"bike_id":"ef8cd562-295e-4308-aa28-51ee95bd4f8d","system_id":"levelo_inurba_marseille","lat":43.28159,"lon":5.42627,"is_reserved":false,"is_disabled":false,"rental_uris":{"android":"levelo://app?vid=ef8cd562-295e-4308-aa28-51ee95bd4f8d","ios":"levelo://app?vid=ef8cd562-295e-4308-aa28-51ee95bd4f8d"},"vehicle_type_id":"4","last_reported":1774134905,"current_range_meters":8800,"station_id":"ce4bhnh2rcd13ifvqgug","pricing_plan_id":"cebpf4jnsgd1na2vs0mg"},{"bike_id":"348b028b-7113-4df9-8c29-432c15b7b280","system_id":"levelo_inurba_marseille","lat":43.23962,"lon":5.36637,"is_reserved":false,"is_disabled":true,"rental_uris":{"android":"levelo://app?vid=348b028b-7113-4df9-8c29-432c15b7b280","ios":"levelo://app?vid=348b028b-7113-4df9-8c29-432c15b7b280"},"vehicle_type_id":"4","last_reported":1774134905,"current_range_meters":8800,"station_id":"ce4bhi12rcd13ifvqfp0","pricing_plan_id":"cebpf4jnsgd1na2vs0mg"},{"bike_id":"54493c86-a4ae-4109-bfc7-0b88e6e19cc7","system_id":"levelo_inurba_marseille","lat":43.27386,"lon":5.36265,"is_reserved":false,"is_disabled":true,"rental_uris":{"android":"levelo://app?vid=54493c86-a4ae-4109-bfc7-0b88e6e19cc7","ios":"levelo://app?vid=54493c86-a4ae-4109-bfc7-0b88e6e19cc7"},