{"last_updated":1727273301,"ttl":60,"version":"2.2","data":{"bikes":[{"bike_id":"d073cf82-5275-4db9-a04c-3a6a0c3448c2","system_id":"levelo_inurba_marseille","lat":43.28572,"lon":5.39495,"is_reserved":false,"is_disabled":false,"rental_uris":{"android":"levelo://app?vid=d073cf82-5275-4db9-a04c-3a6a0c3448c2","ios":"levelo://app?vid=d073cf82-5275-4db9-a04c-3a6a0c3448c2"},"vehicle_type_id":"4","last_reported":1727273302,"current_range_meters":24400,"station_id":"ce4bh292rcd13ifvqdg0","pricing_plan_id":"cebpf4jnsgd1na2vs0mg"},{"bike_id":"6109ada7-505d-440e-a420-8d4d66c41f19","system_id":"levelo_inurba_marseille","lat":43.27438,"lon":5.42467,"is_reserved":false,"is_disabled":false,"rental_uris":{"android":"levelo://app?vid=6109ada7-505d-440e-a420-8d4d66c41f19","ios":"levelo://app?vid=6109ada7-505d-440e-a420-8d4d66c41f19"},"vehicle_type_id":"4","last_reported":1727273302,"current_range_meters":24800,"station_id":"","pricing_plan_id":"cebpf4jnsgd1na2vs0mg"},{"bike_id":"c239385e-4372-4b3e-9eee-712685526382","system_id":"levelo_inurba_marseille","lat":43.2469,"lon":5.38145,"is_reserved":false,"is_disabled":false,"rental_uris":{"android":"levelo://app?vid=c239385e-4372-4b3e-9eee-712685526382","ios":"levelo://app?vid=c239385e-4372-4b3e-9eee-712685526382"},"vehicle_type_id":"4","last_reported":1727273302,"current_range_meters":38800,"station_id":"ce4bhih2rcd13ifvqfr0","pricing_plan_id":"cebpf4jnsgd1na2vs0mg"},{"bike_id":"347df51f-3ada-413a-8aca-85c91c7f4fbf","system_id":"levelo_inurba_marseille","lat":43.24667,"lon":5.38145,"is_reserved":false,"is_disabled":false,"rental_uris":{"android":"levelo://app?vid=347df51f-3ada-413a-8aca-85c91c7f4fbf","ios":"levelo://app?vid=347df51f-3ada-413a-8aca-85c91c7f4fbf"},"vehicle_type_id":"4","last_reported":1727273302,"current_range_meters":28800,"station_id":"ce4bhih2rcd13ifvqfr0","pricing_plan_id":"cebpf4jnsgd1na2vs0mg"},{"bike_id":"ef783995-369e-4e3d-86dd-db5168584640","system_id":"levelo_inurba_marseille","lat":43.30913,"lon":5.36837,"is_reserved":false,"is_disabled":false,"rental_uris":{"android":"levelo://app?vid=ef783995-369e-4e3d-86dd-db5168584640","ios":"levelo://app?vid=ef783995-369e-4e3d-86dd-db5168584640"},"vehicle_type_id":"4","last_reported":1727273302,"current_range_meters":14800,"station_id":"ce4bgn92rcd13ifvqbvg","pricing_plan_id":"cebpf4jnsgd1na2vs0mg"},{"bike_id":"f7a338af-1395-4aab-9a8f-5f637cc6b9d3","system_id":"levelo_inurba_marseille","lat":43.30921,"lon":5.36845,"is_reserved":false,"is_disabled":false,"rental_uris":{"android":"levelo://app?vid=f7a338af-1395-4aab-9a8f-5f637cc6b9d3","ios":"levelo://app?vid=f7a338af-1395-4aab-9a8f-5f637cc6b9d3"},"vehicle_type_id":"4","last_reported":1727273302,"current_range_meters":22000,"station_id":"ce4bgn92rcd13ifvqbvg","pricing_plan_id":"cebpf4jnsgd1na2vs0mg"},{"bike_id":"fe038e5d-4d50-44ab-a849-f4d894e91e10","system_id":"levelo_inurba_marseille","lat":43.320574,"lon":5.415636,"is_reserved":false,"is_disabled":false,"rental_uris":{"android":"levelo://app?vid=fe038e5d-4d50-44ab-a849-f4d894e91e10","ios":"levelo://app?vid=fe038e5d-4d50-44ab-a849-f4d894e91e10"},"vehicle_type_id":"4","last_reported":1727273302,"current_range_meters":8800,"station_id":"ce4bhq92rcd13ifvqhkg","pricing_plan_id":"cebpf4jnsgd1na2vs0mg"},{"bike_id":"b3b4ffea-4a69-495a-b61a-866742dfd2d7","system_id":"levelo_inurba_marseille","lat":43.29961,"lon":5.41315,"is_reserved":false,"is_disabled":false,"rental_uris":{"android":"levelo://app?vid=b3b4ffea-4a69-495a-b61a-866742dfd2d7","ios":"levelo://app?vid=b3b4ffea-4a69-495a-b61a-866742dfd2d7"},"vehicle_type_id":"4","last_reported":1727273302,"current_range_meters":38000,"station_id":"ce4bhp12rcd13ifvqh9g","pricing_plan_id":"cebpf4jnsgd1na2vs0mg"},{"bike_id":"beda49ed-70e4-4d27-bc43-dda36f3a89cb","system_id":"levelo_inurba_marseille","lat":43.32663,"lon":5.40987,"is_reserved":false,"is_disabled":false,"rental_uris":{"android":"levelo://app?vid=beda49ed-70e4-4d27-bc43-dda36f3a89cb","ios":"levelo://app?vid=beda49ed-70e4-4d27-bc43-dda36f3a89cb"},"vehicle_type_id":"4","last_reported":1727273302,"current_range_meters":37600,"station_id":"ce4bhpp2rcd13ifvqhgg","pricing_plan_id":"cebpf4jnsgd1na2vs0mg"},{"bike_id":"147c3cdc-315a-4b0c-96ef-00c42b370227","system_id":"levelo_inurba_marseille","lat":43.288361,"lon":5.392985,"is_reserved":false,"is_disabled":false,"rental_uris":{"android":"levelo://app?vid=147c3cdc-315a-4b0c-96ef-00c42b370227","ios":"levelo://app?vid=147c3cdc-315a-4b0c-96ef-00c42b370227"},"vehicle_type_id":"4","last_reported":1727273302,"current_range_meters":35200,"station_id":"ce4bh2p2rcd13ifvqdi0","pricing_plan_id":"cebpf4jnsgd1na2vs0mg"},{"bike_id":"9926f8d4-52ff-41d7-995b-39e4b6d4cdc0","system_id":"levelo_inurba_marseille","lat":43.32482,"lon":5.36569,"is_reserved":false,"is_disabled":false,"rental_uris":{"android":"levelo://app?vid=9926f8d4-52ff-41d7-995b-39e4b6d4cdc0","ios":"levelo://app?vid=9926f8d4-52ff-41d7-995b-39e4b6d4cdc0"},"vehicle_type_id":"4","last_reported":1727273302,"current_range_meters":39200,"station_id":"ce4bhs12rcd13ifvqhvg","pricing_plan_id":"cebpf4jnsgd1na2vs0mg"},{"bike_id":"5f3ee6d1-9072-4c19-8b68-f6eba55f0554","system_id":"levelo_inurba_marseille","lat":43.25581,"lon":5.38228,"is_reserved":false,"is_disabled":false,"rental_uris":{"android":"levelo://app?vid=5f3ee6d1-9072-4c19-8b68-f6eba55f0554","ios":"levelo://app?vid=5f3ee6d1-9072-4c19-8b68-f6eba55f0554"},"vehicle_type_id":"4","last_reported":1727273302,"current_range_meters":6800,"station_id":"ce4bhih2rcd13ifvqfs0","pricing_plan_id":"cebpf4jnsgd1na2vs0mg"},{"bike_id":"1f900b9a-466d-467e-8f2d-cdab00917291","system_id":"levelo_inurba_marseille","lat":43.2917,"lon":5.37157,"is_reserved":false,"is_disabled":false,"rental_uris":{"android":"levelo://app?vid=1f900b9a-466d-467e-8f2d-cdab00917291","ios":"levelo://app?vid=1f900b9a-466d-467e-8f2d-cdab00917291"},"vehicle_type_id":"4","last_reported":1727273302,"current_range_meters":6800,"station_id":"ce4bha92rcd13ifvqeh0","pricing_plan_id":"cebpf4jnsgd1na2vs0mg"},{"bike_id":"841dca2e-39c3-4404-86c6-1d45d2683a36","system_id":"levelo_inurba_marseille","lat":43.29902,"lon":5.4367,"is_reserved":false,"is_disabled":false,"rental_uris":{"android":"levelo://app?vid=841dca2e-39c3-4404-86c6-1d45d2683a36","ios":"levelo://app?vid=841dca2e-39c3-4404-86c6-1d45d2683a36"},"vehicle_type_id":"4","last_reported":1727273302,"current_range_meters":10000,"station_id":"ce4bhpp2rcd13ifvqhfg","pricing_plan_id":"cebpf4jnsgd1na2vs0mg"},{"bike_id":"bf6f7dba-868f-4083-aed8-62335faaa471","system_id":"levelo_inurba_marseille","lat":43.24181,"lon":5.39728,"is_reserved":false,"is_disabled":false,"rental_uris":{"android":"levelo://app?vid=bf6f7dba-868f-4083-aed8-62335faaa471","ios":"levelo://app?vid=bf6f7dba-868f-4083-aed8-62335faaa471"},"vehicle_type_id":"4","last_reported":1727273302,"current_range_meters":36000,"station_id":"ce4bhn12rcd13ifvqgpg","pricing_plan_id":"cebpf4jnsgd1na2vs0mg"},{"bike_id":"4be3b470-6f88-4e5a-b940-57740fa3bd76","system_id":"levelo_inurba_marseille","lat":43.30609,"lon":5.37221,"is_reserved":false,"is_disabled":false,"rental_uris":{"android":"levelo://app?vid=4be3b470-6f88-4e5a-b940-57740fa3bd76","ios":"levelo://app?vid=4be3b470-6f88-4e5a-b940-57740fa3bd76"},"vehicle_type_id":"4","last_reported":1727273302,"current_range_meters":38800,"station_id":"ce4bgqh2rcd13ifvqc4g","pricing_plan_id":"cebpf4jnsgd1na2vs0mg"},{"bike_id":"4a40bf79-ca35-4b89-b69d-a1099f4f93c5","system_id":"levelo_inurba_marseille","lat":43.28665,"lon":5.36354,"is_reserved":false,"is_disabled":false,"rental_uris":{"android":"levelo://app?vid=4a40bf79-ca35-4b89-b69d-a1099f4f93c5","ios":"levelo://app?vid=4a40bf79-ca35-4b89-b69d-a1099f4f93c5"},"vehicle_type_id":"4","last_reported":1727273302,"current_range_meters":33200,"station_id":"ce4bhah2rcd13ifvqej0","pricing_plan_id":"cebpf4jnsgd1na2vs0mg"},{"bike_id":"7244d22d-1960-4d2d-aa10-22420bb6ebc3","system_id":"levelo_inurba_marseille","lat":43.29624,"lon":5.37152,"is_reserved":false,"is_disabled":false,"rental_uris":{"android":"levelo://app?vid=7244d22d-1960-4d2d-aa10-22420bb6ebc3","ios":"levelo://app?vid=7244d22d-1960-4d2d-aa10-22420bb6ebc3"},"vehicle_type_id":"4","last_reported":1727273302,"current_range_meters":3600,"station_id":"ce4bgnh2rcd13ifvqc0g","pricing_plan_id":"cebpf4jnsgd1na2vs0mg"},{"bike_id":"a5900370-aea9-4d3d-b2c7-1a3f27ac12db","system_id":"levelo_inurba_marseille","lat":43.28416,"lon":5.34979,"is_reserved":false,"is_disabled":false,"rental_uris":{"android":"levelo://app?vid=a5900370-aea9-4d3d-b2c7-1a3f27ac12db","ios":"levelo://app?vid=a5900370-aea9-4d3d-b2c7-1a3f27ac12db"},"vehicle_type_id":"4","last_reported":1727273302,"current_range_meters":32800,"station_id":"ce4bhbh2rcd13ifvqepg","pricing_plan_id":"cebpf4jnsgd1na2vs0mg"},{"bike_id":"7737b815-6daf-41f0-8354-4b28ba75917f","system_id":"levelo_inurba_marseille","lat":43.30198,"lon":5.3982,"is_reserved":false,"is_disabled":false,"rental_uris":{"android":"levelo://app?vid=7737b815-6daf-41f0-8354-4b28ba75917f","ios":"levelo://app?vid=7737b815-6daf-41f0-8354-4b28ba75917f"},"vehicle_type_id":"4","last_reported":1727273302,"current_range_meters":17200,"station_id":"ce4bgvp2rcd13ifvqct0","pricing_plan_id":"cebpf4jnsgd1na2vs0mg"},{"bike_id":"8f6d03ff-ab41-4c13-ba3f-23a3149d651a","system_id":"levelo_inurba_marseille","lat":43.30096,"lon":5.39077,"is_reserved":false,"is_disabled":false,"rental_uris":{"android":"levelo://app?vid=8f6d03ff-ab41-4c13-ba3f-23a3149d651a","ios":"levelo://app?vid=8f6d03ff-ab41-4c13-ba3f-23a3149d651a"},"vehicle_type_id":"4","last_reported":1727273302,"current_range_meters":9600,"station_id":"ce4bh192rcd13ifvqdb0","pricing_plan_id":"cebpf4jnsgd1na2vs0mg"},{"bike_id":"de145ba5-3c72-49b6-ad69-cbf57da96ec1","system_id":"levelo_inurba_marseille","lat":43.29375,"lon":5.37857,"is_reserved":false,"is_disabled":false,"rental_uris":{"android":"levelo://app?vid=de145ba5-3c72-49b6-ad69-cbf57da96ec1","ios":"levelo://app?vid=de145ba5-3c72-49b6-ad69-cbf57da96ec1"},"vehicle_type_id":"4","last_reported":1727273302,"current_range_meters":8000,"station_id":"ce4bgjh2rcd13ifvqbf0","pricing_plan_id":"cebpf4jnsgd1na2vs0mg"},{"bike_id":"47821239-d9ae-4abc-bc2d-399ab118a186","system_id":"levelo_inurba_marseille","lat":43.28904,"lon":5.36208,"is_reserved":false,"is_disabled":false,"rental_uris":{"android":"levelo://app?vid=47821239-d9ae-4abc-bc2d-399ab118a186","ios":"levelo://app?vid=47821239-d9ae-4abc-bc2d-399ab118a186"},"vehicle_type_id":"4","last_reported":1727273302,"current_range_meters":9600,"station_id":"ce4bhap2rcd13ifvqek0","pricing_plan_id":"cebpf4jnsgd1na2vs0mg"},{"bike_id":"1a12c837-f89e-4ed8-8674-d39ae475ada8","system_id":"levelo_inurba_marseille","lat":43.26033,"lon":5.37548,"is_reserved":false,"is_disabled":false,"rental_uris":{"android":"levelo://app?vid=1a12c837-f89e-4ed8-8674-d39ae475ada8","ios":"levelo://app?vid=1a12c837-f89e-4ed8-8674-d39ae475ada8"},"vehicle_type_id":"4","last_reported":1727273302,"current_range_meters":36800,"station_id":"ce4bhgh2rcd13ifvqfa0","pricing_plan_id":"cebpf4jnsgd1na2vs0mg"},{"bike_id":"cd8d1575-5192-49fb-a59d-7af5e19a0b43","system_id":"levelo_inurba_marseille","lat":43.310699,"lon":5.383599,"is_reserved":false,"is_disabled":false,"rental_uris":{"android":"levelo://app?vid=cd8d1575-5192-49fb-a59d-7af5e19a0b43","ios":"levelo://app?vid=cd8d1575-5192-49fb-a59d-7af5e19a0b43"},"vehicle_type_id":"4","last_reported":1727273302,"current_range_meters":24000,"station_id":"ce4bgv92rcd13ifvqcr0","pricing_plan_id":"cebpf4jnsgd1na2vs0mg"},{"bike_id":"f57f9a2b-463a-495e-b929-b7d110fc5488","system_id":"levelo_inurba_marseille","lat":43.2984,"lon":5.36265,"is_reserved":false,"is_disabled":false,"rental_uris":{"android":"levelo://app?vid=f57f9a2b-463a-495e-b929-b7d110fc5488","ios":"levelo://app?vid=f57f9a2b-463a-495e-b929-b7d110fc5488"},"vehicle_type_id":"4","last_reported":1727273302,"current_range_meters":11200,"station_id":"ce4bgpp2rcd13ifvqc3g","pricing_plan_id":"cebpf4jnsgd1na2vs0mg"},{"bike_id":"e9e079ca-42fb-48ba-a6e1-682b20d310ce","system_id":"levelo_inurba_marseille","lat":43.23188,"lon":5.35537,"is_reserved":false,"is_disabled":false,"rental_uris":{"android":"levelo://app?vid=e9e079ca-42fb-48ba-a6e1-682b20d310ce","ios":"levelo://app?vid=e9e079ca-42fb-48ba-a6e1-682b20d310ce"},"vehicle_type_id":"4","last_reported":1727273302,"current_range_meters":27600,"station_id":"ce4bhu92rcd13ifvqi70","pricing_plan_id":"cebpf4jnsgd1na2vs0mg"},{"bike_id":"6fa76e07-a091-4474-a846-fa516108cb8a","system_id":"levelo_inurba_marseille","lat":43.28075,"lon":5.3966,"is_reserved":false,"is_disabled":false,"rental_uris":{"android":"levelo://app?vid=6fa76e07-a091-4474-a846-fa516108cb8a","ios":"levelo://app?vid=6fa76e07-a091-4474-a846-fa516108cb8a"},"vehicle_type_id":"4","last_reported":1727273302,"current_range_meters":2000,"station_id":"ce4bho12rcd13ifvqh2g","pricing_plan_id":"cebpf4jnsgd1na2vs0mg"},{"bike_id":"7a8458d5-44ac-4f2e-abef-3f01eb31f7ca","system_id":"levelo_inurba_marseille","lat":43.337444,"lon":5.374475,"is_reserved":false,"is_disabled":false,"rental_uris":{"android":"levelo://app?vid=7a8458d5-44ac-4f2e-abef-3f01eb31f7ca","ios":"levelo://app?vid=7a8458d5-44ac-4f2e-abef-3f01eb31f7ca"},"vehicle_type_id":"4","last_reported":1727273302,"current_range_meters":25200,"station_id":"","pricing_plan_id":"cebpf4jnsgd1na2vs0mg"},{"bike_id":"06265587-1a02-47da-a0c9-68c60f0f3326","system_id":"levelo_inurba_marseille","lat":43.29849,"lon":5.36269,"is_reserved":false,"is_disabled":false,"rental_uris":{"android":"levelo://app?vid=06265587-1a02-47da-a0c9-68c60f0f3326","ios":"levelo://app?vid=06265587-1a02-47da-a0c9-68c60f0f3326"},"vehicle_type_id":"4","last_reported":1727273302,"current_range_meters":38000,"station_id":"ce4bgpp2rcd13ifvqc3g","pricing_plan_id":"cebpf4jnsgd1na2vs0mg"},{"bike_id":"ee1d871d-0b23-404d-9266-e2063bb7c5bf","system_id":"levelo_inurba_marseille","lat":43.29966,"lon":5.38487,"is_reserved":false,"is_disabled":false,"rental_uris":{"android":"levelo://app?vid=ee1d871d-0b23-404d-9266-e2063bb7c5bf","ios":"levelo://app?vid=ee1d871d-0b23-404d-9266-e2063bb7c5bf"},"vehicle_type_id":"4","last_reported":1727273302,"current_range_meters":38400,"station_id":"ce4bgj92rcd13ifvqbd0","pricing_plan_id":"cebpf4jnsgd1na2vs0mg"},{"bike_id":"300c6076-c425-4213-a44c-2ca78507b12e","system_id":"levelo_inurba_marseille","lat":43.22932,"lon":5.35373,"is_reserved":false,"is_disabled":false,"rental_uris":{"android":"levelo://app?vid=300c6076-c425-4213-a44c-2ca78507b12e","ios":"levelo://app?vid=300c6076-c425-4213-a44c-2ca78507b12e"},"vehicle_type_id":"4","last_reported":1727273302,"current_range_meters":13600,"station_id":"cpo3532slgdg3j2ikp40","pricing_plan_id":"cebpf4jnsgd1na2vs0mg"},{"bike_id":"5b80f534-31aa-493e-a7af-c5c257fa4e9e","system_id":"levelo_inurba_marseille","lat":43.296816,"lon":5.372941,"is_reserved":false,"is_disabled":false,"rental_uris":{"android":"levelo://app?vid=5b80f534-31aa-493e-a7af-c5c257fa4e9e","ios":"levelo://app?vid=5b80f534-31aa-493e-a7af-c5c257fa4e9e"},"vehicle_type_id":"4","last_reported":1727273302,"current_range_meters":38800,"station_id":"ce4bgk12rcd13ifvqbj0","pricing_plan_id":"cebpf4jnsgd1na2vs0mg"},{"bike_id":"d7a97f3c-6e0b-4fde-a38e-99382f924cb4","system_id":"levelo_inurba_marseille","lat":43.27429,"lon":5.3942,"is_reserved":false,"is_disabled":false,"rental_uris":{"android":"levelo://app?vid=d7a97f3c-6e0b-4fde-a38e-99382f924cb4","ios":"levelo://app?vid=d7a97f3c-6e0b-4fde-a38e-99382f924cb4"},"vehicle_type_id":"4","last_reported":1727273302,"current_range_meters":20400,"station_id":"ce4bhdp2rcd13ifvqf20","pricing_plan_id":"cebpf4jnsgd1na2vs0mg"},{"bike_id":"dbba8902-8c2c-4a6a-aba3-754556a0bf8d","system_id":"levelo_inurba_marseille","lat":43.337444,"lon":5.374475,"is_reserved":false,"is_disabled":false,"rental_uris":{"android":"levelo://app?vid=dbba8902-8c2c-4a6a-aba3-754556a0bf8d","ios":"levelo://app?vid=dbba8902-8c2c-4a6a-aba3-754556a0bf8d"},"vehicle_type_id":"4","last_reported":1727273302,"current_range_meters":5600,"station_id":"ce4bgk12rcd13ifvqbi0","pricing_plan_id":"cebpf4jnsgd1na2vs0mg"},{"bike_id":"040148fc-23db-4506-ba2a-d93ecf8be19b","system_id":"levelo_inurba_marseille","lat":43.26214,"lon":5.3744,"is_reserved":false,"is_disabled":false,"rental_uris":{"android":"levelo://app?vid=040148fc-23db-4506-ba2a-d93ecf8be19b","ios":"levelo://app?vid=040148fc-23db-4506-ba2a-d93ecf8be19b"},"vehicle_type_id":"4","last_reported":1727273302,"current_range_meters":8800,"station_id":"ce4bhgp2rcd13ifvqfc0","pricing_plan_id":"cebpf4jnsgd1na2vs0mg"},{"bike_id":"c9caa42e-e8a7-4b6e-b172-795704959513","system_id":"levelo_inurba_marseille","lat":43.30916,"lon":5.36848,"is_reserved":false,"is_disabled":false,"rental_uris":{"android":"levelo://app?vid=c9caa42e-e8a7-4b6e-b172-795704959513","ios":"levelo://app?vid=c9caa42e-e8a7-4b6e-b172-795704959513"},"vehicle_type_id":"4","last_reported":1727273302,"current_range_meters":30800,"station_id":"ce4bgn92rcd13ifvqbvg","pricing_plan_id":"cebpf4jnsgd1na2vs0mg"},{"bike_id":"0fd5c4c8-b24a-41e2-a223-148bf1b65784","system_id":"levelo_inurba_marseille","lat":43.29275,"lon":5.36845,"is_reserved":false,"is_disabled":false,"rental_uris":{"android":"levelo://app?vid=0fd5c4c8-b24a-41e2-a223-148bf1b65784","ios":"levelo://app?vid=0fd5c4c8-b24a-41e2-a223-148bf1b65784"},"vehicle_type_id":"4","last_reported":1727273302,"current_range_meters":38800,"station_id":"ce4bhbp2rcd13ifvqesg","pricing_plan_id":"cebpf4jnsgd1na2vs0mg"},{"bike_id":"f99e5b75-b016-4508-8e64-04e3bae8651e","system_id":"levelo_inurba_marseille","lat":43.24652,"lon":5.38899,"is_reserved":false,"is_disabled":false,"rental_uris":{"android":"levelo://app?vid=f99e5b75-b016-4508-8e64-04e3bae8651e","ios":"levelo://app?vid=f99e5b75-b016-4508-8e64-04e3bae8651e"},"vehicle_type_id":"4","last_reported":1727273302,"current_range_meters":11600,"station_id":"ce4bhg12rcd13ifvqf60","pricing_plan_id":"cebpf4jnsgd1na2vs0mg"},{"bike_id":"15b5b568-c2d0-4fad-8c64-2f26cb94ebec","system_id":"levelo_inurba_marseille","lat":43.29416,"lon":5.38628,"is_reserved":false,"is_disabled":false,"rental_uris":{"android":"levelo://app?vid=15b5b568-c2d0-4fad-8c64-2f26cb94ebec","ios":"levelo://app?vid=15b5b568-c2d0-4fad-8c64-2f26cb94ebec"},"vehicle_type_id":"4","last_reported":1727273302,"current_range_meters":22000,"station_id":"ce4bh2h2rcd13ifvqdh0","pricing_plan_id":"cebpf4jnsgd1na2vs0mg"},{"bike_id":"44944327-804d-4efd-957d-c88684856ece","system_id":"levelo_inurba_marseille","lat":43.29965,"lon":5.41325,"is_reserved":false,"is_disabled":false,"rental_uris":{"android":"levelo://app?vid=44944327-804d-4efd-957d-c88684856ece","ios":"levelo://app?vid=44944327-804d-4efd-957d-c88684856ece"},"vehicle_type_id":"4","last_reported":1727273302,"current_range_meters":37600,"station_id":"ce4bhp12rcd13ifvqh9g","pricing_plan_id":"cebpf4jnsgd1na2vs0mg"},{"bike_id":"0649697a-2963-4a7e-85c7-f6152db232f5","system_id":"levelo_inurba_marseille","lat":43.30146,"lon":5.37424,"is_reserved":false,"is_disabled":false,"rental_uris":{"android":"levelo://app?vid=0649697a-2963-4a7e-85c7-f6152db232f5","ios":"levelo://app?vid=0649697a-2963-4a7e-85c7-f6152db232f5"},"vehicle_type_id":"4","last_reported":1727273302,"current_range_meters":22800,"station_id":"ce4bgs92rcd13ifvqcc0","pricing_plan_id":"cebpf4jnsgd1na2vs0mg"},{"bike_id":"11f88091-15b5-46ee-a7dc-252de020b772","system_id":"levelo_inurba_marseille","lat":43.23194,"lon":5.35549,"is_reserved":false,"is_disabled":false,"rental_uris":{"android":"levelo://app?vid=11f88091-15b5-46ee-a7dc-252de020b772","ios":"levelo://app?vid=11f88091-15b5-46ee-a7dc-252de020b772"},"vehicle_type_id":"4","last_reported":1727273302,"current_range_meters":8000,"station_id":"ce4bhu92rcd13ifvqi70","pricing_plan_id":"cebpf4jnsgd1na2vs0mg"},{"bike_id":"79a05bb1-ccec-47f0-8ebd-1f95854549f8","system_id":"levelo_inurba_marseille","lat":43.31285,"lon":5.38042,"is_reserved":false,"is_disabled":false,"rental_uris":{"android":"levelo://app?vid=79a05bb1-ccec-47f0-8ebd-1f95854549f8","ios":"levelo://app?vid=79a05bb1-ccec-47f0-8ebd-1f95854549f8"},"vehicle_type_id":"4","last_reported":1727273302,"current_range_meters":10800,"station_id":"","pricing_plan_id":"cebpf4jnsgd1na2vs0mg"},{"bike_id":"82a46f4c-338e-4f2c-bb15-b73bebda5189","system_id":"levelo_inurba_marseille","lat":43.23148,"lon":5.43708,"is_reserved":false,"is_disabled":false,"rental_uris":{"android":"levelo://app?vid=82a46f4c-338e-4f2c-bb15-b73bebda5189","ios":"levelo://app?vid=82a46f4c-338e-4f2c-bb15-b73bebda5189"},"vehicle_type_id":"4","last_reported":1727273302,"current_range_meters":36800,"station_id":"ce4bhmp2rcd13ifvqgog","pricing_plan_id":"cebpf4jnsgd1na2vs0mg"},{"bike_id":"603e327a-04fd-4f38-944f-fe3694fd2a65","system_id":"levelo_inurba_marseille","lat":43.29928,"lon":5.38157,"is_reserved":false,"is_disabled":false,"rental_uris":{"android":"levelo://app?vid=603e327a-04fd-4f38-944f-fe3694fd2a65","ios":"levelo://app?vid=603e327a-04fd-4f38-944f-fe3694fd2a65"},"vehicle_type_id":"4","last_reported":1727273302,"current_range_meters":38800,"station_id":"ce4bgj12rcd13ifvqbc0","pricing_plan_id":"cebpf4jnsgd1na2vs0mg"},{"bike_id":"1943dde4-8a6f-4087-b8d7-ecd2138705c8","system_id":"levelo_inurba_marseille","lat":43.29414,"lon":5.38624,"is_reserved":false,"is_disabled":false,"rental_uris":{"android":"levelo://app?vid=1943dde4-8a6f-4087-b8d7-ecd2138705c8","ios":"levelo://app?vid=1943dde4-8a6f-4087-b8d7-ecd2138705c8"},"vehicle_type_id":"4","last_reported":1727273302,"current_range_meters":0,"station_id":"ce4bh2h2rcd13ifvqdh0","pricing_plan_id":"cebpf4jnsgd1na2vs0mg"},{"bike_id":"4c0e3136-2474-4668-bd49-a9967a230a53","system_id":"levelo_inurba_marseille","lat":43.26496,"lon":5.39534,"is_reserved":false,"is_disabled":false,"rental_uris":{"android":"levelo://app?vid=4c0e3136-2474-4668-bd49-a9967a230a53","ios":"levelo://app?vid=4c0e3136-2474-4668-bd49-a9967a230a53"},"vehicle_type_id":"4","last_reported":1727273302,"current_range_meters":17600,"station_id":"ce4bhi12rcd13ifvqfq0","pricing_plan_id":"cebpf4jnsgd1na2vs0mg"},{"bike_id":"f3f91b79-3341-40d9-b3e6-becde268cf81","system_id":"levelo_inurba_marseille","lat":43.28422,"lon":5.34991,"is_reserved":false,"is_disabled":false,"rental_uris":{"android":"levelo://app?vid=f3f91b79-3341-40d9-b3e6-becde268cf81","ios":"levelo://app?vid=f3f91b79-3341-40d9-b3e6-becde268cf81"},"vehicle_type_id":"4","last_reported":1727273302,"current_range_meters":10000,"station_id":"ce4bhbh2rcd13ifvqepg","pricing_plan_id":"cebpf4jnsgd1na2vs0mg"},{"bike_id":"f97ba308-62f2-45e6-b928-755fc3107561","system_id":"levelo_inurba_marseille","lat":43.23192,"lon":5.39988,"is_reserved":false,"is_disabled":false,"rental_uris":{"android":"levelo://app?vid=f97ba308-62f2-45e6-b928-755fc3107561","ios":"levelo://app?vid=f97ba308-62f2-45e6-b928-755fc3107561"},"vehicle_type_id":"4","last_reported":1727273302,"current_range_meters":38800,"station_id":"ce4bhn12rcd13ifvqgqg","pricing_plan_id":"cebpf4jnsgd1na2vs0mg"},{"bike_id":"791546f5-8d75-44c1-81af-be33dfdb6aea","system_id":"levelo_inurba_marseille","lat":43.30151,"lon":5.38081,"is_reserved":false,"is_disabled":false,"rental_uris":{"android":"levelo://app?vid=791546f5-8d75-44c1-81af-be33dfdb6aea","ios":"levelo://app?vid=791546f5-8d75-44c1-81af-be33dfdb6aea"},"vehicle_type_id":"4","last_reported":1727273302,"current_range_meters":33200,"station_id":"ce4bgjp2rcd13ifvqbh0","pricing_plan_id":"cebpf4jnsgd1na2vs0mg"},{"bike_id":"3fb94ac6-1872-4a49-be5f-fc77bf5b3901","system_id":"levelo_inurba_marseille","lat":43.3091,"lon":5.36847,"is_reserved":false,"is_disabled":false,"rental_uris":{"android":"levelo://app?vid=3fb94ac6-1872-4a49-be5f-fc77bf5b3901","ios":"levelo://app?vid=3fb94ac6-1872-4a49-be5f-fc77bf5b3901"},"vehicle_type_id":"4","last_reported":1727273302,"current_range_meters":36400,"station_id":"ce4bgn92rcd13ifvqbvg","pricing_plan_id":"cebpf4jnsgd1na2vs0mg"},{"bike_id":"42802390-580c-4a01-b49c-36eb45b1e56c","system_id":"levelo_inurba_marseille","lat":43.286627,"lon":5.386756,"is_reserved":false,"is_disabled":false,"rental_uris":{"android":"levelo://app?vid=42802390-580c-4a01-b49c-36eb45b1e56c","ios":"levelo://app?vid=42802390-580c-4a01-b49c-36eb45b1e56c"},"vehicle_type_id":"4","last_reported":1727273302,"current_range_meters":3200,"station_id":"ce4bh492rcd13ifvqdug","pricing_plan_id":"cebpf4jnsgd1na2vs0mg"},{"bike_id":"ecb70881-b110-48a8-b751-24b4690d4031","system_id":"levelo_inurba_marseille","lat":43.23191,"lon":5.39971,"is_reserved":false,"is_disabled":false,"rental_uris":{"android":"levelo://app?vid=ecb70881-b110-48a8-b751-24b4690d4031","ios":"levelo://app?vid=ecb70881-b110-48a8-b751-24b4690d4031"},"vehicle_type_id":"4","last_reported":1727273302,"current_range_meters":37600,"station_id":"ce4bhn12rcd13ifvqgqg","pricing_plan_id":"cebpf4jnsgd1na2vs0mg"},{"bike_id":"89bd8025-e0a7-4bd8-a26c-267f520c798f","system_id":"levelo_inurba_marseille","lat":43.3033,"lon":5.40428,"is_reserved":false,"is_disabled":false,"rental_uris":{"android":"levelo://app?vid=89bd8025-e0a7-4bd8-a26c-267f520c798f","ios":"levelo://app?vid=89bd8025-e0a7-4bd8-a26c-267f520c798f"},"vehicle_type_id":"4","last_reported":1727273302,"current_range_meters":32000,"station_id":"ce4bh012rcd13ifvqd10","pricing_plan_id":"cebpf4jnsgd1na2vs0mg"},{"bike_id":"25bd7405-be80-4a77-a761-8a1efed52652","system_id":"levelo_inurba_marseille","lat":43.29896,"lon":5.43657,"is_reserved":false,"is_disabled":false,"rental_uris":{"android":"levelo://app?vid=25bd7405-be80-4a77-a761-8a1efed52652","ios":"levelo://app?vid=25bd7405-be80-4a77-a761-8a1efed52652"},"vehicle_type_id":"4","last_reported":1727273302,"current_range_meters":38800,"station_id":"ce4bhpp2rcd13ifvqhfg","pricing_plan_id":"cebpf4jnsgd1na2vs0mg"},{"bike_id":"bbd31db5-c137-4320-95f9-7cb19235dc07","system_id":"levelo_inurba_marseille","lat":43.30805,"lon":5.43521,"is_reserved":false,"is_disabled":false,"rental_uris":{"android":"levelo://app?vid=bbd31db5-c137-4320-95f9-7cb19235dc07","ios":"levelo://app?vid=bbd31db5-c137-4320-95f9-7cb19235dc07"},"vehicle_type_id":"4","last_reported":1727273302,"current_range_meters":39200,"station_id":"ce4bhph2rcd13ifvqheg","pricing_plan_id":"cebpf4jnsgd1na2vs0mg"},{"bike_id":"8ab885fd-70a2-43ee-9896-159857b52f7e","system_id":"levelo_inurba_marseille","lat":43.25495,"lon":5.37653,"is_reserved":false,"is_disabled":false,"rental_uris":{"android":"levelo://app?vid=8ab885fd-70a2-43ee-9896-159857b52f7e","ios":"levelo://app?vid=8ab885fd-70a2-43ee-9896-159857b52f7e"},"vehicle_type_id":"4","last_reported":1727273302,"current_range_meters":38800,"station_id":"ce4bhh12rcd13ifvqff0","pricing_plan_id":"cebpf4jnsgd1na2vs0mg"},{"bike_id":"124ed7b5-473e-4a00-a600-343137f4cef9","system_id":"levelo_inurba_marseille","lat":43.3372,"lon":5.39183,"is_reserved":false,"is_disabled":false,"rental_uris":{"android":"levelo://app?vid=124ed7b5-473e-4a00-a600-343137f4cef9","ios":"levelo://app?vid=124ed7b5-473e-4a00-a600-343137f4cef9"},"vehicle_type_id":"4","last_reported":1727273302,"current_range_meters":38000,"station_id":"ce4bhr92rcd13ifvqhsg","pricing_plan_id":"cebpf4jnsgd1na2vs0mg"},{"bike_id":"7308ee73-d401-4cd9-99de-1fa0dc62eb00","system_id":"levelo_inurba_marseille","lat":43.27619,"lon":5.36115,"is_reserved":false,"is_disabled":false,"rental_uris":{"android":"levelo://app?vid=7308ee73-d401-4cd9-99de-1fa0dc62eb00","ios":"levelo://app?vid=7308ee73-d401-4cd9-99de-1fa0dc62eb00"},"vehicle_type_id":"4","last_reported":1727273302,"current_range_meters":12800,"station_id":"ce4bgj92rcd13ifvqbe0","pricing_plan_id":"cebpf4jnsgd1na2vs0mg"},{"bike_id":"0c0efd08-962c-4bd1-b8b8-711fd1bac218","system_id":"levelo_inurba_marseille","lat":43.25,"lon":5.38929,"is_reserved":false,"is_disabled":false,"rental_uris":{"android":"levelo://app?vid=0c0efd08-962c-4bd1-b8b8-711fd1bac218","ios":"levelo://app?vid=0c0efd08-962c-4bd1-b8b8-711fd1bac218"},"vehicle_type_id":"4","last_reported":1727273302,"current_range_meters":36400,"station_id":"ce4bhgp2rcd13ifvqfd0","pricing_plan_id":"cebpf4jnsgd1na2vs0mg"},{"bike_id":"a6f45b54-1d39-4cd6-9cb6-27ff9bae9731","system_id":"levelo_inurba_marseille","lat":43.29624,"lon":5.37156,"is_reserved":false,"is_disabled":false,"rental_uris":{"android":"levelo://app?vid=a6f45b54-1d39-4cd6-9cb6-27ff9bae9731","ios":"levelo://app?vid=a6f45b54-1d39-4cd6-9cb6-27ff9bae9731"},"vehicle_type_id":"4","last_reported":1727273302,"current_range_meters":20000,"station_id":"ce4bgnh2rcd13ifvqc0g","pricing_plan_id":"cebpf4jnsgd1na2vs0mg"},{"bike_id":"89975d60-8372-4251-89a9-0f10b23a0d15","system_id":"levelo_inurba_marseille","lat":43.29704,"lon":5.36593,"is_reserved":false,"is_disabled":false,"rental_uris":{"android":"levelo://app?vid=89975d60-8372-4251-89a9-0f10b23a0d15","ios":"levelo://app?vid=89975d60-8372-4251-89a9-0f10b23a0d15"},"vehicle_type_id":"4","last_reported":1727273302,"current_range_meters":3200,"station_id":"ce4bgn12rcd13ifvqbt0","pricing_plan_id":"cebpf4jnsgd1na2vs0mg"},{"bike_id":"919b6e53-1f25-473a-b7dd-4079591fb838","system_id":"levelo_inurba_marseille","lat":43.2558,"lon":5.38229,"is_reserved":false,"is_disabled":false,"rental_uris":{"android":"levelo://app?vid=919b6e53-1f25-473a-b7dd-4079591fb838","ios":"levelo://app?vid=919b6e53-1f25-473a-b7dd-4079591fb838"},"vehicle_type_id":"4","last_reported":1727273302,"current_range_meters":3200,"station_id":"ce4bhih2rcd13ifvqfs0","pricing_plan_id":"cebpf4jnsgd1na2vs0mg"},{"bike_id":"17bbb4cd-6ef0-45bd-a599-b8b653deb2f6","system_id":"levelo_inurba_marseille","lat":43.32368,"lon":5.38886,"is_reserved":false,"is_disabled":false,"rental_uris":{"android":"levelo://app?vid=17bbb4cd-6ef0-45bd-a599-b8b653deb2f6","ios":"levelo://app?vid=17bbb4cd-6ef0-45bd-a599-b8b653deb2f6"},"vehicle_type_id":"4","last_reported":1727273302,"current_range_meters":3600,"station_id":"ce4bhqp2rcd13ifvqhog","pricing_plan_id":"cebpf4jnsgd1na2vs0mg"},{"bike_id":"bba2e79d-1ba6-45dc-9e47-865322237c8d","system_id":"levelo_inurba_marseille","lat":43.278687,"lon":5.38817,"is_reserved":false,"is_disabled":false,"rental_uris":{"android":"levelo://app?vid=bba2e79d-1ba6-45dc-9e47-865322237c8d","ios":"levelo://app?vid=bba2e79d-1ba6-45dc-9e47-865322237c8d"},"vehicle_type_id":"4","last_reported":1727273302,"current_range_meters":12400,"station_id":"ce4bh012rcd13ifvqcv0","pricing_plan_id":"cebpf4jnsgd1na2vs0mg"},{"bike_id":"7adb4a03-cf7f-43af-9536-3717f4af0552","system_id":"levelo_inurba_marseille","lat":43.28855,"lon":5.35859,"is_reserved":false,"is_disabled":false,"rental_uris":{"android":"levelo://app?vid=7adb4a03-cf7f-43af-9536-3717f4af0552","ios":"levelo://app?vid=7adb4a03-cf7f-43af-9536-3717f4af0552"},"vehicle_type_id":"4","last_reported":1727273302,"current_range_meters":23200,"station_id":"ce4bhb12rcd13ifvqem0","pricing_plan_id":"cebpf4jnsgd1na2vs0mg"},{"bike_id":"dd242317-41e5-44f2-bc98-6bc74d7c5925","system_id":"levelo_inurba_marseille","lat":43.2315,"lon":5.437,"is_reserved":false,"is_disabled":false,"rental_uris":{"android":"levelo://app?vid=dd242317-41e5-44f2-bc98-6bc74d7c5925","ios":"levelo://app?vid=dd242317-41e5-44f2-bc98-6bc74d7c5925"},"vehicle_type_id":"4","last_reported":1727273302,"current_range_meters":22000,"station_id":"ce4bhmp2rcd13ifvqgog","pricing_plan_id":"cebpf4jnsgd1na2vs0mg"},{"bike_id":"7d1c5f24-b2c4-4b39-a45e-5cd31c748af9","system_id":"levelo_inurba_marseille","lat":43.32482,"lon":5.36565,"is_reserved":false,"is_disabled":false,"rental_uris":{"android":"levelo://app?vid=7d1c5f24-b2c4-4b39-a45e-5cd31c748af9","ios":"levelo://app?vid=7d1c5f24-b2c4-4b39-a45e-5cd31c748af9"},"vehicle_type_id":"4","last_reported":1727273302,"current_range_meters":33200,"station_id":"ce4bhs12rcd13ifvqhvg","pricing_plan_id":"cebpf4jnsgd1na2vs0mg"},{"bike_id":"873052f7-9bc5-4a04-9907-f5412dc2735a","system_id":"levelo_inurba_marseille","lat":43.33755,"lon":5.37439,"is_reserved":false,"is_disabled":false,"rental_uris":{"android":"levelo://app?vid=873052f7-9bc5-4a04-9907-f5412dc2735a","ios":"levelo://app?vid=873052f7-9bc5-4a04-9907-f5412dc2735a"},"vehicle_type_id":"4","last_reported":1727273302,"current_range_meters":24000,"station_id":"","pricing_plan_id":"cebpf4jnsgd1na2vs0mg"},{"bike_id":"b225a5e2-eed1-4a2b-a7fc-ab772f288eaa","system_id":"levelo_inurba_marseille","lat":43.30438,"lon":5.38892,"is_reserved":false,"is_disabled":false,"rental_uris":{"android":"levelo://app?vid=b225a5e2-eed1-4a2b-a7fc-ab772f288eaa","ios":"levelo://app?vid=b225a5e2-eed1-4a2b-a7fc-ab772f288eaa"},"vehicle_type_id":"4","last_reported":1727273302,"current_range_meters":16400,"station_id":"ce4bgk12rcd13ifvqbi0","pricing_plan_id":"cebpf4jnsgd1na2vs0mg"},{"bike_id":"af4bd883-ba6d-45c4-bfa5-9b040e8d0a92","system_id":"levelo_inurba_marseille","lat":43.28418,"lon":5.34983,"is_reserved":false,"is_disabled":false,"rental_uris":{"android":"levelo://app?vid=af4bd883-ba6d-45c4-bfa5-9b040e8d0a92","ios":"levelo://app?vid=af4bd883-ba6d-45c4-bfa5-9b040e8d0a92"},"vehicle_type_id":"4","last_reported":1727273302,"current_range_meters":16000,"station_id":"ce4bhbh2rcd13ifvqepg","pricing_plan_id":"cebpf4jnsgd1na2vs0mg"},{"bike_id":"e35ab449-7ef3-4cc5-8c52-a80a98c9ea11","system_id":"levelo_inurba_marseille","lat":43.26199,"lon":5.37921,"is_reserved":false,"is_disabled":false,"rental_uris":{"android":"levelo://app?vid=e35ab449-7ef3-4cc5-8c52-a80a98c9ea11","ios":"levelo://app?vid=e35ab449-7ef3-4cc5-8c52-a80a98c9ea11"},"vehicle_type_id":"4","last_reported":1727273302,"current_range_meters":16400,"station_id":"ce4bhjp2rcd13ifvqg90","pricing_plan_id":"cebpf4jnsgd1na2vs0mg"},{"bike_id":"2fca7c62-7de6-4233-9ade-7c6d20cb8e3d","system_id":"levelo_inurba_marseille","lat":43.2842,"lon":5.34988,"is_reserved":false,"is_disabled":false,"rental_uris":{"android":"levelo://app?vid=2fca7c62-7de6-4233-9ade-7c6d20cb8e3d","ios":"levelo://app?vid=2fca7c62-7de6-4233-9ade-7c6d20cb8e3d"},"vehicle_type_id":"4","last_reported":1727273302,"current_range_meters":2000,"station_id":"ce4bhbh2rcd13ifvqepg","pricing_plan_id":"cebpf4jnsgd1na2vs0mg"},{"bike_id":"9a49e071-e994-4421-a8da-dc05ac5e5069","system_id":"levelo_inurba_marseille","lat":43.3234,"lon":5.40624,"is_reserved":false,"is_disabled":false,"rental_uris":{"android":"levelo://app?vid=9a49e071-e994-4421-a8da-dc05ac5e5069","ios":"levelo://app?vid=9a49e071-e994-4421-a8da-dc05ac5e5069"},"vehicle_type_id":"4","last_reported":1727273302,"current_range_meters":8800,"station_id":"ce4bhq92rcd13ifvqhjg","pricing_plan_id":"cebpf4jnsgd1na2vs0mg"},{"bike_id":"a75d11e4-5000-41f8-9ff2-fbd2a76366d5","system_id":"levelo_inurba_marseille","lat":43.33958,"lon":5.42065,"is_reserved":false,"is_disabled":false,"rental_uris":{"android":"levelo://app?vid=a75d11e4-5000-41f8-9ff2-fbd2a76366d5","ios":"levelo://app?vid=a75d11e4-5000-41f8-9ff2-fbd2a76366d5"},"vehicle_type_id":"4","last_reported":1727273302,"current_range_meters":20400,"station_id":"","pricing_plan_id":"cebpf4jnsgd1na2vs0mg"},{"bike_id":"cbba5396-600c-4e32-8734-b1818e89e22f","system_id":"levelo_inurba_marseille","lat":43.23157,"lon":5.43711,"is_reserved":false,"is_disabled":false,"rental_uris":{"android":"levelo://app?vid=cbba5396-600c-4e32-8734-b1818e89e22f","ios":"levelo://app?vid=cbba5396-600c-4e32-8734-b1818e89e22f"},"vehicle_type_id":"4","last_reported":1727273302,"current_range_meters":20000,"station_id":"ce4bhmp2rcd13ifvqgog","pricing_plan_id":"cebpf4jnsgd1na2vs0mg"},{"bike_id":"f108aa14-f00d-47e6-9b9d-f507cf87a8c1","system_id":"levelo_inurba_marseille","lat":43.29523,"lon":5.38537,"is_reserved":false,"is_disabled":false,"rental_uris":{"android":"levelo://app?vid=f108aa14-f00d-47e6-9b9d-f507cf87a8c1","ios":"levelo://app?vid=f108aa14-f00d-47e6-9b9d-f507cf87a8c1"},"vehicle_type_id":"4","last_reported":1727273302,"current_range_meters":24400,"station_id":"ce4bgih2rcd13ifvqba0","pricing_plan_id":"cebpf4jnsgd1na2vs0mg"},{"bike_id":"9d515c9c-1e9e-4d57-89be-eeda9b237b17","system_id":"levelo_inurba_marseille","lat":43.29964,"lon":5.38494,"is_reserved":false,"is_disabled":false,"rental_uris":{"android":"levelo://app?vid=9d515c9c-1e9e-4d57-89be-eeda9b237b17","ios":"levelo://app?vid=9d515c9c-1e9e-4d57-89be-eeda9b237b17"},"vehicle_type_id":"4","last_reported":1727273302,"current_range_meters":19200,"station_id":"ce4bgj92rcd13ifvqbd0","pricing_plan_id":"cebpf4jnsgd1na2vs0mg"},{"bike_id":"5b987909-fb7c-46ae-8c35-c0f1f91eb9d2","system_id":"levelo_inurba_marseille","lat":43.27996,"lon":5.41657,"is_reserved":false,"is_disabled":false,"rental_uris":{"android":"levelo://app?vid=5b987909-fb7c-46ae-8c35-c0f1f91eb9d2","ios":"levelo://app?vid=5b987909-fb7c-46ae-8c35-c0f1f91eb9d2"},"vehicle_type_id":"4","last_reported":1727273302,"current_range_meters":38800,"station_id":"ce4bho12rcd13ifvqh1g","pricing_plan_id":"cebpf4jnsgd1na2vs0mg"},{"bike_id":"6987cf1f-fe07-4b2c-9f96-65822627e11f","system_id":"levelo_inurba_marseille","lat":43.28266,"lon":5.35072,"is_reserved":false,"is_disabled":false,"rental_uris":{"android":"levelo://app?vid=6987cf1f-fe07-4b2c-9f96-65822627e11f","ios":"levelo://app?vid=6987cf1f-fe07-4b2c-9f96-65822627e11f"},"vehicle_type_id":"4","last_reported":1727273302,"current_range_meters":38800,"station_id":"ce4bhbp2rcd13ifvqerg","pricing_plan_id":"cebpf4jnsgd1na2vs0mg"},{"bike_id":"779c683a-d965-440d-bbfe-0a1bca8a5929","system_id":"levelo_inurba_marseille","lat":43.30321,"lon":5.40428,"is_reserved":false,"is_disabled":false,"rental_uris":{"android":"levelo://app?vid=779c683a-d965-440d-bbfe-0a1bca8a5929","ios":"levelo://app?vid=779c683a-d965-440d-bbfe-0a1bca8a5929"},"vehicle_type_id":"4","last_reported":1727273302,"current_range_meters":30800,"station_id":"ce4bh012rcd13ifvqd10","pricing_plan_id":"cebpf4jnsgd1na2vs0mg"},{"bike_id":"0e9b8561-fe65-475c-bb2a-b03392fb2639","system_id":"levelo_inurba_marseille","lat":43.310857,"lon":5.383633,"is_reserved":false,"is_disabled":false,"rental_uris":{"android":"levelo://app?vid=0e9b8561-fe65-475c-bb2a-b03392fb2639","ios":"levelo://app?vid=0e9b8561-fe65-475c-bb2a-b03392fb2639"},"vehicle_type_id":"4","last_reported":1727273302,"current_range_meters":9200,"station_id":"ce4bgv92rcd13ifvqcr0","pricing_plan_id":"cebpf4jnsgd1na2vs0mg"},{"bike_id":"d21bdb11-6fee-4953-a089-49a3527f64f7","system_id":"levelo_inurba_marseille","lat":43.29966,"lon":5.36565,"is_reserved":false,"is_disabled":false,"rental_uris":{"android":"levelo://app?vid=d21bdb11-6fee-4953-a089-49a3527f64f7","ios":"levelo://app?vid=d21bdb11-6fee-4953-a089-49a3527f64f7"},"vehicle_type_id":"4","last_reported":1727273302,"current_range_meters":38400,"station_id":"ce4bgm92rcd13ifvqbr0","pricing_plan_id":"cebpf4jnsgd1na2vs0mg"},{"bike_id":"ee80e71b-ad4a-4c17-a839-9aaef681f2ad","system_id":"levelo_inurba_marseille","lat":43.31757,"lon":5.39014,"is_reserved":false,"is_disabled":false,"rental_uris":{"android":"levelo://app?vid=ee80e71b-ad4a-4c17-a839-9aaef681f2ad","ios":"levelo://app?vid=ee80e71b-ad4a-4c17-a839-9aaef681f2ad"},"vehicle_type_id":"4","last_reported":1727273302,"current_range_meters":9600,"station_id":"ce4bhqp2rcd13ifvqhng","pricing_plan_id":"cebpf4jnsgd1na2vs0mg"},{"bike_id":"dff5b480-2f0f-4235-8970-6a378b475319","system_id":"levelo_inurba_marseille","lat":43.29897,"lon":5.43669,"is_reserved":false,"is_disabled":false,"rental_uris":{"android":"levelo://app?vid=dff5b480-2f0f-4235-8970-6a378b475319","ios":"levelo://app?vid=dff5b480-2f0f-4235-8970-6a378b475319"},"vehicle_type_id":"4","last_reported":1727273302,"current_range_meters":23200,"station_id":"ce4bhpp2rcd13ifvqhfg","pricing_plan_id":"cebpf4jnsgd1na2vs0mg"},{"bike_id":"da39e700-e33f-4572-a741-bcecee36c86f","system_id":"levelo_inurba_marseille","lat":43.29619,"lon":5.37153,"is_reserved":false,"is_disabled":false,"rental_uris":{"android":"levelo://app?vid=da39e700-e33f-4572-a741-bcecee36c86f","ios":"levelo://app?vid=da39e700-e33f-4572-a741-bcecee36c86f"},"vehicle_type_id":"4","last_reported":1727273302,"current_range_meters":22400,"station_id":"ce4bgnh2rcd13ifvqc0g","pricing_plan_id":"cebpf4jnsgd1na2vs0mg"},{"bike_id":"b1850d75-df5e-4c22-993a-8780a30016ec","system_id":"levelo_inurba_marseille","lat":43.2989,"lon":5.388935,"is_reserved":false,"is_disabled":false,"rental_uris":{"android":"levelo://app?vid=b1850d75-df5e-4c22-993a-8780a30016ec","ios":"levelo://app?vid=b1850d75-df5e-4c22-993a-8780a30016ec"},"vehicle_type_id":"4","last_reported":1727273302,"current_range_meters":19200,"station_id":"ce4bh392rcd13ifvqdl0","pricing_plan_id":"cebpf4jnsgd1na2vs0mg"},{"bike_id":"8cdea49e-8a5f-4139-b551-5b4342e31a07","system_id":"levelo_inurba_marseille","lat":43.28933,"lon":5.36642,"is_reserved":false,"is_disabled":false,"rental_uris":{"android":"levelo://app?vid=8cdea49e-8a5f-4139-b551-5b4342e31a07","ios":"levelo://app?vid=8cdea49e-8a5f-4139-b551-5b4342e31a07"},"vehicle_type_id":"4","last_reported":1727273302,"current_range_meters":38400,"station_id":"ce4bhap2rcd13ifvqek0","pricing_plan_id":"cebpf4jnsgd1na2vs0mg"},{"bike_id":"0ddb6c10-d308-497c-b9c6-41270f91b628","system_id":"levelo_inurba_marseille","lat":43.29579,"lon":5.36734,"is_reserved":false,"is_disabled":false,"rental_uris":{"android":"levelo://app?vid=0ddb6c10-d308-497c-b9c6-41270f91b628","ios":"levelo://app?vid=0ddb6c10-d308-497c-b9c6-41270f91b628"},"vehicle_type_id":"4","last_reported":1727273302,"current_range_meters":19200,"station_id":"ce4bgph2rcd13ifvqc2g","pricing_plan_id":"cebpf4jnsgd1na2vs0mg"},{"bike_id":"ff9adab5-11dc-4dbf-b036-4eba3f9180b9","system_id":"levelo_inurba_marseille","lat":43.30883,"lon":5.38066,"is_reserved":false,"is_disabled":false,"rental_uris":{"android":"levelo://app?vid=ff9adab5-11dc-4dbf-b036-4eba3f9180b9","ios":"levelo://app?vid=ff9adab5-11dc-4dbf-b036-4eba3f9180b9"},"vehicle_type_id":"4","last_reported":1727273302,"current_range_meters":33200,"station_id":"","pricing_plan_id":"cebpf4jnsgd1na2vs0mg"},{"bike_id":"5cc62c22-338d-4636-aea7-9b4e90cf0bd9","system_id":"levelo_inurba_marseille","lat":43.27432,"lon":5.39415,"is_reserved":false,"is_disabled":false,"rental_uris":{"android":"levelo://app?vid=5cc62c22-338d-4636-aea7-9b4e90cf0bd9","ios":"levelo://app?vid=5cc62c22-338d-4636-aea7-9b4e90cf0bd9"},"vehicle_type_id":"4","last_reported":1727273302,"current_range_meters":16000,"station_id":"ce4bhdp2rcd13ifvqf20","pricing_plan_id":"cebpf4jnsgd1na2vs0mg"},{"bike_id":"5c022b66-6dfe-4a9a-b954-459d65b18b1a","system_id":"levelo_inurba_marseille","lat":43.29905,"lon":5.38134,"is_reserved":false,"is_disabled":false,"rental_uris":{"android":"levelo://app?vid=5c022b66-6dfe-4a9a-b954-459d65b18b1a","ios":"levelo://app?vid=5c022b66-6dfe-4a9a-b954-459d65b18b1a"},"vehicle_type_id":"4","last_reported":1727273302,"current_range_meters":24400,"station_id":"ce4bgj12rcd13ifvqbc0","pricing_plan_id":"cebpf4jnsgd1na2vs0mg"},{"bike_id":"f5fcec5f-2fc7-4f06-8d2a-150464f00c52","system_id":"levelo_inurba_marseille","lat":43.31358,"lon":5.38494,"is_reserved":false,"is_disabled":false,"rental_uris":{"android":"levelo://app?vid=f5fcec5f-2fc7-4f06-8d2a-150464f00c52","ios":"levelo://app?vid=f5fcec5f-2fc7-4f06-8d2a-150464f00c52"},"vehicle_type_id":"4","last_reported":1727273302,"current_range_meters":15200,"station_id":"ce4bgt92rcd13ifvqcf0","pricing_plan_id":"cebpf4jnsgd1na2vs0mg"},{"bike_id":"c8e0d6da-bd83-4195-9183-0f0cfb17777a","system_id":"levelo_inurba_marseille","lat":43.28396,"lon":5.34984,"is_reserved":false,"is_disabled":false,"rental_uris":{"android":"levelo://app?vid=c8e0d6da-bd83-4195-9183-0f0cfb17777a","ios":"levelo://app?vid=c8e0d6da-bd83-4195-9183-0f0cfb17777a"},"vehicle_type_id":"4","last_reported":1727273302,"current_range_meters":32000,"station_id":"ce4bhbh2rcd13ifvqepg","pricing_plan_id":"cebpf4jnsgd1na2vs0mg"},{"bike_id":"f4b33b4c-7c6b-4c27-9c31-a2746b1e213c","system_id":"levelo_inurba_marseille","lat":43.29846,"lon":5.36275,"is_reserved":false,"is_disabled":false,"rental_uris":{"android":"levelo://app?vid=f4b33b4c-7c6b-4c27-9c31-a2746b1e213c","ios":"levelo://app?vid=f4b33b4c-7c6b-4c27-9c31-a2746b1e213c"},"vehicle_type_id":"4","last_reported":1727273302,"current_range_meters":11200,"station_id":"ce4bgpp2rcd13ifvqc3g","pricing_plan_id":"cebpf4jnsgd1na2vs0mg"},{"bike_id":"c5538d52-e12b-49cb-8d91-384c910971e1","system_id":"levelo_inurba_marseille","lat":43.29965,"lon":5.38496,"is_reserved":false,"is_disabled":false,"rental_uris":{"android":"levelo://app?vid=c5538d52-e12b-49cb-8d91-384c910971e1","ios":"levelo://app?vid=c5538d52-e12b-49cb-8d91-384c910971e1"},"vehicle_type_id":"4","last_reported":1727273302,"current_range_meters":25200,"station_id":"","pricing_plan_id":"cebpf4jnsgd1na2vs0mg"},{"bike_id":"fe9f343e-7a95-4e85-bb42-7a0554aaefbd","system_id":"levelo_inurba_marseille","lat":43.3249,"lon":5.36568,"is_reserved":false,"is_disabled":false,"rental_uris":{"android":"levelo://app?vid=fe9f343e-7a95-4e85-bb42-7a0554aaefbd","ios":"levelo://app?vid=fe9f343e-7a95-4e85-bb42-7a0554aaefbd"},"vehicle_type_id":"4","last_reported":1727273302,"current_range_meters":16400,"station_id":"ce4bhs12rcd13ifvqhvg","pricing_plan_id":"cebpf4jnsgd1na2vs0mg"},{"bike_id":"869edbd5-06fc-4504-8c1d-44500000511b","system_id":"levelo_inurba_marseille","lat":43.24651,"lon":5.38891,"is_reserved":false,"is_disabled":false,"rental_uris":{"android":"levelo://app?vid=869edbd5-06fc-4504-8c1d-44500000511b","ios":"levelo://app?vid=869edbd5-06fc-4504-8c1d-44500000511b"},"vehicle_type_id":"4","last_reported":1727273302,"current_range_meters":11200,"station_id":"ce4bhg12rcd13ifvqf60","pricing_plan_id":"cebpf4jnsgd1na2vs0mg"},{"bike_id":"df5b38d2-64cb-4df0-856f-ea9bd22c082c","system_id":"levelo_inurba_marseille","lat":43.23189,"lon":5.35562,"is_reserved":false,"is_disabled":false,"rental_uris":{"android":"levelo://app?vid=df5b38d2-64cb-4df0-856f-ea9bd22c082c","ios":"levelo://app?vid=df5b38d2-64cb-4df0-856f-ea9bd22c082c"},"vehicle_type_id":"4","last_reported":1727273302,"current_range_meters":7200,"station_id":"ce4bhu92rcd13ifvqi70","pricing_plan_id":"cebpf4jnsgd1na2vs0mg"},{"bike_id":"891137de-5805-4e25-8c63-e02660ead314","system_id":"levelo_inurba_marseille","lat":43.25866,"lon":5.39902,"is_reserved":false,"is_disabled":false,"rental_uris":{"android":"levelo://app?vid=891137de-5805-4e25-8c63-e02660ead314","ios":"levelo://app?vid=891137de-5805-4e25-8c63-e02660ead314"},"vehicle_type_id":"4","last_reported":1727273302,"current_range_meters":32000,"station_id":"ce4bhl92rcd13ifvqghg","pricing_plan_id":"cebpf4jnsgd1na2vs0mg"},{"bike_id":"1d19d43a-746f-4ec6-a6a3-c574899f679a","system_id":"levelo_inurba_marseille","lat":43.25004,"lon":5.38923,"is_reserved":false,"is_disabled":false,"rental_uris":{"android":"levelo://app?vid=1d19d43a-746f-4ec6-a6a3-c574899f679a","ios":"levelo://app?vid=1d19d43a-746f-4ec6-a6a3-c574899f679a"},"vehicle_type_id":"4","last_reported":1727273302,"current_range_meters":19200,"station_id":"ce4bhgp2rcd13ifvqfd0","pricing_plan_id":"cebpf4jnsgd1na2vs0mg"},{"bike_id":"16572a4e-842d-44fc-9dea-41399ddd68bf","system_id":"levelo_inurba_marseille","lat":43.268,"lon":5.40258,"is_reserved":false,"is_disabled":false,"rental_uris":{"android":"levelo://app?vid=16572a4e-842d-44fc-9dea-41399ddd68bf","ios":"levelo://app?vid=16572a4e-842d-44fc-9dea-41399ddd68bf"},"vehicle_type_id":"4","last_reported":1727273302,"current_range_meters":28000,"station_id":"ce501612rcd8frsf0b60","pricing_plan_id":"cebpf4jnsgd1na2vs0mg"},{"bike_id":"e6581c86-ea5b-4865-89e9-2d08bc65b701","system_id":"levelo_inurba_marseille","lat":43.27178,"lon":5.40983,"is_reserved":false,"is_disabled":false,"rental_uris":{"android":"levelo://app?vid=e6581c86-ea5b-4865-89e9-2d08bc65b701","ios":"levelo://app?vid=e6581c86-ea5b-4865-89e9-2d08bc65b701"},"vehicle_type_id":"4","last_reported":1727273302,"current_range_meters":37600,"station_id":"ce4bhl12rcd13ifvqgf0","pricing_plan_id":"cebpf4jnsgd1na2vs0mg"},{"bike_id":"e4f2e211-eda3-4b12-a154-86ad69b63343","system_id":"levelo_inurba_marseille","lat":43.2707,"lon":5.36322,"is_reserved":false,"is_disabled":false,"rental_uris":{"android":"levelo://app?vid=e4f2e211-eda3-4b12-a154-86ad69b63343","ios":"levelo://app?vid=e4f2e211-eda3-4b12-a154-86ad69b63343"},"vehicle_type_id":"4","last_reported":1727273302,"current_range_meters":12400,"station_id":"ce4bhbh2rcd13ifvqeo0","pricing_plan_id":"cebpf4jnsgd1na2vs0mg"},{"bike_id":"e24326c2-87e1-4db2-8524-b558570cf159","system_id":"levelo_inurba_marseille","lat":43.3048,"lon":5.36511,"is_reserved":false,"is_disabled":false,"rental_uris":{"android":"levelo://app?vid=e24326c2-87e1-4db2-8524-b558570cf159","ios":"levelo://app?vid=e24326c2-87e1-4db2-8524-b558570cf159"},"vehicle_type_id":"4","last_reported":1727273302,"current_range_meters":38800,"station_id":"ce4bgs12rcd13ifvqcag","pricing_plan_id":"cebpf4jnsgd1na2vs0mg"},{"bike_id":"048ed2fd-702a-4338-964e-6509425d1f00","system_id":"levelo_inurba_marseille","lat":43.273739,"lon":5.36259,"is_reserved":false,"is_disabled":false,"rental_uris":{"android":"levelo://app?vid=048ed2fd-702a-4338-964e-6509425d1f00","ios":"levelo://app?vid=048ed2fd-702a-4338-964e-6509425d1f00"},"vehicle_type_id":"4","last_reported":1727273302,"current_range_meters":9200,"station_id":"ce4bhbh2rcd13ifvqeo0","pricing_plan_id":"cebpf4jnsgd1na2vs0mg"},{"bike_id":"27431c98-bcee-4fbc-9005-ef4fd6a106b8","system_id":"levelo_inurba_marseille","lat":43.23192,"lon":5.39976,"is_reserved":false,"is_disabled":false,"rental_uris":{"android":"levelo://app?vid=27431c98-bcee-4fbc-9005-ef4fd6a106b8","ios":"levelo://app?vid=27431c98-bcee-4fbc-9005-ef4fd6a106b8"},"vehicle_type_id":"4","last_reported":1727273302,"current_range_meters":10800,"station_id":"ce4bhn12rcd13ifvqgqg","pricing_plan_id":"cebpf4jnsgd1na2vs0mg"},{"bike_id":"00b89244-44c9-4cdf-9a77-43a1428ef3ef","system_id":"levelo_inurba_marseille","lat":43.27427,"lon":5.39412,"is_reserved":false,"is_disabled":false,"rental_uris":{"android":"levelo://app?vid=00b89244-44c9-4cdf-9a77-43a1428ef3ef","ios":"levelo://app?vid=00b89244-44c9-4cdf-9a77-43a1428ef3ef"},"vehicle_type_id":"4","last_reported":1727273302,"current_range_meters":22400,"station_id":"ce4bhdp2rcd13ifvqf20","pricing_plan_id":"cebpf4jnsgd1na2vs0mg"},{"bike_id":"420fe219-da45-4972-95f8-5b318c876267","system_id":"levelo_inurba_marseille","lat":43.289154,"lon":5.354569,"is_reserved":false,"is_disabled":false,"rental_uris":{"android":"levelo://app?vid=420fe219-da45-4972-95f8-5b318c876267","ios":"levelo://app?vid=420fe219-da45-4972-95f8-5b318c876267"},"vehicle_type_id":"4","last_reported":1727273302,"current_range_meters":26000,"station_id":"","pricing_plan_id":"cebpf4jnsgd1na2vs0mg"},{"bike_id":"482c8703-06f7-4923-b0b6-ab11ee345ff4","system_id":"levelo_inurba_marseille","lat":43.26495,"lon":5.39542,"is_reserved":false,"is_disabled":false,"rental_uris":{"android":"levelo://app?vid=482c8703-06f7-4923-b0b6-ab11ee345ff4","ios":"levelo://app?vid=482c8703-06f7-4923-b0b6-ab11ee345ff4"},"vehicle_type_id":"4","last_reported":1727273302,"current_range_meters":35200,"station_id":"ce4bhi12rcd13ifvqfq0","pricing_plan_id":"cebpf4jnsgd1na2vs0mg"},{"bike_id":"1f658908-6ce5-4bb3-b6be-b1e46cd9a152","system_id":"levelo_inurba_marseille","lat":43.31084,"lon":5.42428,"is_reserved":false,"is_disabled":false,"rental_uris":{"android":"levelo://app?vid=1f658908-6ce5-4bb3-b6be-b1e46cd9a152","ios":"levelo://app?vid=1f658908-6ce5-4bb3-b6be-b1e46cd9a152"},"vehicle_type_id":"4","last_reported":1727273302,"current_range_meters":17600,"station_id":"ce4bhp92rcd13ifvqhag","pricing_plan_id":"cebpf4jnsgd1na2vs0mg"},{"bike_id":"39b06149-eee0-4274-81df-0a4999a398c1","system_id":"levelo_inurba_marseille","lat":43.29951,"lon":5.38474,"is_reserved":false,"is_disabled":false,"rental_uris":{"android":"levelo://app?vid=39b06149-eee0-4274-81df-0a4999a398c1","ios":"levelo://app?vid=39b06149-eee0-4274-81df-0a4999a398c1"},"vehicle_type_id":"4","last_reported":1727273302,"current_range_meters":24800,"station_id":"ce4bgj92rcd13ifvqbd0","pricing_plan_id":"cebpf4jnsgd1na2vs0mg"},{"bike_id":"10d325bf-f59c-4aa9-ba7c-beba67bd889c","system_id":"levelo_inurba_marseille","lat":43.33027,"lon":5.39035,"is_reserved":false,"is_disabled":false,"rental_uris":{"android":"levelo://app?vid=10d325bf-f59c-4aa9-ba7c-beba67bd889c","ios":"levelo://app?vid=10d325bf-f59c-4aa9-ba7c-beba67bd889c"},"vehicle_type_id":"4","last_reported":1727273302,"current_range_meters":33600,"station_id":"ce4bhr92rcd13ifvqhrg","pricing_plan_id":"cebpf4jnsgd1na2vs0mg"},{"bike_id":"5464bd4b-5c6d-4472-9105-7bc381bf630a","system_id":"levelo_inurba_marseille","lat":43.29979,"lon":5.37176,"is_reserved":false,"is_disabled":false,"rental_uris":{"android":"levelo://app?vid=5464bd4b-5c6d-4472-9105-7bc381bf630a","ios":"levelo://app?vid=5464bd4b-5c6d-4472-9105-7bc381bf630a"},"vehicle_type_id":"4","last_reported":1727273302,"current_range_meters":39200,"station_id":"ce4bgr92rcd13ifvqc7g","pricing_plan_id":"cebpf4jnsgd1na2vs0mg"},{"bike_id":"c2929dfe-5db6-4e8c-9187-c59c4c2907d3","system_id":"levelo_inurba_marseille","lat":43.3375,"lon":5.37446,"is_reserved":false,"is_disabled":false,"rental_uris":{"android":"levelo://app?vid=c2929dfe-5db6-4e8c-9187-c59c4c2907d3","ios":"levelo://app?vid=c2929dfe-5db6-4e8c-9187-c59c4c2907d3"},"vehicle_type_id":"4","last_reported":1727273302,"current_range_meters":26800,"station_id":"","pricing_plan_id":"cebpf4jnsgd1na2vs0mg"},{"bike_id":"50a7fcdc-a7ea-4fa4-8d14-fa81d39361e4","system_id":"levelo_inurba_marseille","lat":43.30894,"lon":5.37181,"is_reserved":false,"is_disabled":false,"rental_uris":{"android":"levelo://app?vid=50a7fcdc-a7ea-4fa4-8d14-fa81d39361e4","ios":"levelo://app?vid=50a7fcdc-a7ea-4fa4-8d14-fa81d39361e4"},"vehicle_type_id":"4","last_reported":1727273302,"current_range_meters":12400,"station_id":"ce4bguh2rcd13ifvqckg","pricing_plan_id":"cebpf4jnsgd1na2vs0mg"},{"bike_id":"68b672bb-4a17-4533-8d5c-6bcdd72d37d7","system_id":"levelo_inurba_marseille","lat":43.2319,"lon":5.39982,"is_reserved":false,"is_disabled":false,"rental_uris":{"android":"levelo://app?vid=68b672bb-4a17-4533-8d5c-6bcdd72d37d7","ios":"levelo://app?vid=68b672bb-4a17-4533-8d5c-6bcdd72d37d7"},"vehicle_type_id":"4","last_reported":1727273302,"current_range_meters":14400,"station_id":"ce4bhn12rcd13ifvqgqg","pricing_plan_id":"cebpf4jnsgd1na2vs0mg"},{"bike_id":"564dab4c-45b1-4108-bb24-c8ef1359448f","system_id":"levelo_inurba_marseille","lat":43.32489,"lon":5.36565,"is_reserved":false,"is_disabled":false,"rental_uris":{"android":"levelo://app?vid=564dab4c-45b1-4108-bb24-c8ef1359448f","ios":"levelo://app?vid=564dab4c-45b1-4108-bb24-c8ef1359448f"},"vehicle_type_id":"4","last_reported":1727273302,"current_range_meters":7200,"station_id":"ce4bhs12rcd13ifvqhvg","pricing_plan_id":"cebpf4jnsgd1na2vs0mg"},{"bike_id":"23f757ca-8f20-498e-b1dd-3ce01ce8a039","system_id":"levelo_inurba_marseille","lat":43.29844,"lon":5.36274,"is_reserved":false,"is_disabled":false,"rental_uris":{"android":"levelo://app?vid=23f757ca-8f20-498e-b1dd-3ce01ce8a039","ios":"levelo://app?vid=23f757ca-8f20-498e-b1dd-3ce01ce8a039"},"vehicle_type_id":"4","last_reported":1727273302,"current_range_meters":12400,"station_id":"ce4bgpp2rcd13ifvqc3g","pricing_plan_id":"cebpf4jnsgd1na2vs0mg"},{"bike_id":"60c7f33b-65fe-428d-ad8d-5f226e5af9d9","system_id":"levelo_inurba_marseille","lat":43.27623,"lon":5.36112,"is_reserved":false,"is_disabled":false,"rental_uris":{"android":"levelo://app?vid=60c7f33b-65fe-428d-ad8d-5f226e5af9d9","ios":"levelo://app?vid=60c7f33b-65fe-428d-ad8d-5f226e5af9d9"},"vehicle_type_id":"4","last_reported":1727273302,"current_range_meters":18800,"station_id":"ce4bgj92rcd13ifvqbe0","pricing_plan_id":"cebpf4jnsgd1na2vs0mg"},{"bike_id":"bf79a698-54ef-4d6d-b29e-9e7d10ad6095","system_id":"levelo_inurba_marseille","lat":43.30478,"lon":5.37906,"is_reserved":false,"is_disabled":false,"rental_uris":{"android":"levelo://app?vid=bf79a698-54ef-4d6d-b29e-9e7d10ad6095","ios":"levelo://app?vid=bf79a698-54ef-4d6d-b29e-9e7d10ad6095"},"vehicle_type_id":"4","last_reported":1727273302,"current_range_meters":24000,"station_id":"ce4bgup2rcd13ifvqcn0","pricing_plan_id":"cebpf4jnsgd1na2vs0mg"},{"bike_id":"da38a479-b89b-4586-88ae-cea2aa4bcdcd","system_id":"levelo_inurba_marseille","lat":43.29944,"lon":5.36547,"is_reserved":false,"is_disabled":false,"rental_uris":{"android":"levelo://app?vid=da38a479-b89b-4586-88ae-cea2aa4bcdcd","ios":"levelo://app?vid=da38a479-b89b-4586-88ae-cea2aa4bcdcd"},"vehicle_type_id":"4","last_reported":1727273302,"current_range_meters":37600,"station_id":"ce4bgm92rcd13ifvqbr0","pricing_plan_id":"cebpf4jnsgd1na2vs0mg"},{"bike_id":"8b03db6d-4d42-4941-8b36-2e7a4d685270","system_id":"levelo_inurba_marseille","lat":43.30879,"lon":5.37189,"is_reserved":false,"is_disabled":false,"rental_uris":{"android":"levelo://app?vid=8b03db6d-4d42-4941-8b36-2e7a4d685270","ios":"levelo://app?vid=8b03db6d-4d42-4941-8b36-2e7a4d685270"},"vehicle_type_id":"4","last_reported":1727273302,"current_range_meters":38000,"station_id":"ce4bguh2rcd13ifvqckg","pricing_plan_id":"cebpf4jnsgd1na2vs0mg"},{"bike_id":"e0d50eb1-af71-45de-b0f5-5b1a98d5bafa","system_id":"levelo_inurba_marseille","lat":43.24172,"lon":5.36396,"is_reserved":false,"is_disabled":false,"rental_uris":{"android":"levelo://app?vid=e0d50eb1-af71-45de-b0f5-5b1a98d5bafa","ios":"levelo://app?vid=e0d50eb1-af71-45de-b0f5-5b1a98d5bafa"},"vehicle_type_id":"4","last_reported":1727273302,"current_range_meters":35600,"station_id":"cpo36qri1sfpv3e86is0","pricing_plan_id":"cebpf4jnsgd1na2vs0mg"},{"bike_id":"99014105-177e-4234-b629-d44afde8884a","system_id":"levelo_inurba_marseille","lat":43.29847,"lon":5.36275,"is_reserved":false,"is_disabled":false,"rental_uris":{"android":"levelo://app?vid=99014105-177e-4234-b629-d44afde8884a","ios":"levelo://app?vid=99014105-177e-4234-b629-d44afde8884a"},"vehicle_type_id":"4","last_reported":1727273302,"current_range_meters":38800,"station_id":"ce4bgpp2rcd13ifvqc3g","pricing_plan_id":"cebpf4jnsgd1na2vs0mg"},{"bike_id":"a1101fda-42cd-4135-bb2d-4e3f5fb0cec3","system_id":"levelo_inurba_marseille","lat":43.2991,"lon":5.37478,"is_reserved":false,"is_disabled":false,"rental_uris":{"android":"levelo://app?vid=a1101fda-42cd-4135-bb2d-4e3f5fb0cec3","ios":"levelo://app?vid=a1101fda-42cd-4135-bb2d-4e3f5fb0cec3"},"vehicle_type_id":"4","last_reported":1727273302,"current_range_meters":12000,"station_id":"ce4bgjh2rcd13ifvqbg0","pricing_plan_id":"cebpf4jnsgd1na2vs0mg"},{"bike_id":"6908cca3-59e8-4677-a549-1f527d56de5d","system_id":"levelo_inurba_marseille","lat":43.2558,"lon":5.3823,"is_reserved":false,"is_disabled":false,"rental_uris":{"android":"levelo://app?vid=6908cca3-59e8-4677-a549-1f527d56de5d","ios":"levelo://app?vid=6908cca3-59e8-4677-a549-1f527d56de5d"},"vehicle_type_id":"4","last_reported":1727273302,"current_range_meters":23200,"station_id":"ce4bhih2rcd13ifvqfs0","pricing_plan_id":"cebpf4jnsgd1na2vs0mg"},{"bike_id":"ebe6d5d8-1764-4052-b690-5085b7cc5560","system_id":"levelo_inurba_marseille","lat":43.31331,"lon":5.39693,"is_reserved":false,"is_disabled":false,"rental_uris":{"android":"levelo://app?vid=ebe6d5d8-1764-4052-b690-5085b7cc5560","ios":"levelo://app?vid=ebe6d5d8-1764-4052-b690-5085b7cc5560"},"vehicle_type_id":"4","last_reported":1727273302,"current_range_meters":6000,"station_id":"ce4bgvp2rcd13ifvqcu0","pricing_plan_id":"cebpf4jnsgd1na2vs0mg"},{"bike_id":"89d04554-da69-4948-a3eb-90243451dd00","system_id":"levelo_inurba_marseille","lat":43.33024,"lon":5.39039,"is_reserved":false,"is_disabled":false,"rental_uris":{"android":"levelo://app?vid=89d04554-da69-4948-a3eb-90243451dd00","ios":"levelo://app?vid=89d04554-da69-4948-a3eb-90243451dd00"},"vehicle_type_id":"4","last_reported":1727273302,"current_range_meters":12400,"station_id":"ce4bhr92rcd13ifvqhrg","pricing_plan_id":"cebpf4jnsgd1na2vs0mg"},{"bike_id":"f189d732-80c4-4372-a8e4-b55475c34196","system_id":"levelo_inurba_marseille","lat":43.290343,"lon":5.366928,"is_reserved":false,"is_disabled":false,"rental_uris":{"android":"levelo://app?vid=f189d732-80c4-4372-a8e4-b55475c34196","ios":"levelo://app?vid=f189d732-80c4-4372-a8e4-b55475c34196"},"vehicle_type_id":"4","last_reported":1727273302,"current_range_meters":35600,"station_id":"ce4bhc92rcd13ifvqetg","pricing_plan_id":"cebpf4jnsgd1na2vs0mg"},{"bike_id":"74d0fcba-1c7a-4f26-ac7c-330b0875b104","system_id":"levelo_inurba_marseille","lat":43.29004,"lon":5.35611,"is_reserved":false,"is_disabled":false,"rental_uris":{"android":"levelo://app?vid=74d0fcba-1c7a-4f26-ac7c-330b0875b104","ios":"levelo://app?vid=74d0fcba-1c7a-4f26-ac7c-330b0875b104"},"vehicle_type_id":"4","last_reported":1727273302,"current_range_meters":38000,"station_id":"ce4bhb92rcd13ifvqen0","pricing_plan_id":"cebpf4jnsgd1na2vs0mg"},{"bike_id":"4621332a-4cb0-4bd1-84c3-ce1d48af2b8c","system_id":"levelo_inurba_marseille","lat":43.308043,"lon":5.435311,"is_reserved":false,"is_disabled":false,"rental_uris":{"android":"levelo://app?vid=4621332a-4cb0-4bd1-84c3-ce1d48af2b8c","ios":"levelo://app?vid=4621332a-4cb0-4bd1-84c3-ce1d48af2b8c"},"vehicle_type_id":"4","last_reported":1727273302,"current_range_meters":9600,"station_id":"ce4bhph2rcd13ifvqheg","pricing_plan_id":"cebpf4jnsgd1na2vs0mg"},{"bike_id":"6e2cf795-12e2-44ed-a98b-53c04fccf69c","system_id":"levelo_inurba_marseille","lat":43.292595,"lon":5.409056,"is_reserved":false,"is_disabled":false,"rental_uris":{"android":"levelo://app?vid=6e2cf795-12e2-44ed-a98b-53c04fccf69c","ios":"levelo://app?vid=6e2cf795-12e2-44ed-a98b-53c04fccf69c"},"vehicle_type_id":"4","last_reported":1727273302,"current_range_meters":18800,"station_id":"ce4bh192rcd13ifvqdc0","pricing_plan_id":"cebpf4jnsgd1na2vs0mg"},{"bike_id":"4a628aad-dbb6-4829-91e1-dc8c5867129f","system_id":"levelo_inurba_marseille","lat":43.25083,"lon":5.39504,"is_reserved":false,"is_disabled":false,"rental_uris":{"android":"levelo://app?vid=4a628aad-dbb6-4829-91e1-dc8c5867129f","ios":"levelo://app?vid=4a628aad-dbb6-4829-91e1-dc8c5867129f"},"vehicle_type_id":"4","last_reported":1727273302,"current_range_meters":19200,"station_id":"ce4bhm12rcd13ifvqgkg","pricing_plan_id":"cebpf4jnsgd1na2vs0mg"},{"bike_id":"f0a3e56b-8fee-4237-95a8-84abb7e8b999","system_id":"levelo_inurba_marseille","lat":43.29979,"lon":5.38478,"is_reserved":false,"is_disabled":false,"rental_uris":{"android":"levelo://app?vid=f0a3e56b-8fee-4237-95a8-84abb7e8b999","ios":"levelo://app?vid=f0a3e56b-8fee-4237-95a8-84abb7e8b999"},"vehicle_type_id":"4","last_reported":1727273302,"current_range_meters":38800,"station_id":"ce4bgj92rcd13ifvqbd0","pricing_plan_id":"cebpf4jnsgd1na2vs0mg"},{"bike_id":"163360ac-ff70-402c-98af-5b16a49a6663","system_id":"levelo_inurba_marseille","lat":43.25719,"lon":5.41112,"is_reserved":false,"is_disabled":false,"rental_uris":{"android":"levelo://app?vid=163360ac-ff70-402c-98af-5b16a49a6663","ios":"levelo://app?vid=163360ac-ff70-402c-98af-5b16a49a6663"},"vehicle_type_id":"4","last_reported":1727273302,"current_range_meters":20400,"station_id":"ce4bhkp2rcd13ifvqgd0","pricing_plan_id":"cebpf4jnsgd1na2vs0mg"},{"bike_id":"4377664b-48b7-49a7-9e78-2190f5b12bc9","system_id":"levelo_inurba_marseille","lat":43.29964,"lon":5.38486,"is_reserved":false,"is_disabled":false,"rental_uris":{"android":"levelo://app?vid=4377664b-48b7-49a7-9e78-2190f5b12bc9","ios":"levelo://app?vid=4377664b-48b7-49a7-9e78-2190f5b12bc9"},"vehicle_type_id":"4","last_reported":1727273302,"current_range_meters":34000,"station_id":"ce4bgj92rcd13ifvqbd0","pricing_plan_id":"cebpf4jnsgd1na2vs0mg"},{"bike_id":"4c43b43f-be17-43d2-95e0-fab0c099fe37","system_id":"levelo_inurba_marseille","lat":43.23152,"lon":5.43701,"is_reserved":false,"is_disabled":false,"rental_uris":{"android":"levelo://app?vid=4c43b43f-be17-43d2-95e0-fab0c099fe37","ios":"levelo://app?vid=4c43b43f-be17-43d2-95e0-fab0c099fe37"},"vehicle_type_id":"4","last_reported":1727273302,"current_range_meters":36800,"station_id":"ce4bhmp2rcd13ifvqgog","pricing_plan_id":"cebpf4jnsgd1na2vs0mg"},{"bike_id":"dc473676-824d-41ad-aeb7-667c159f885c","system_id":"levelo_inurba_marseille","lat":43.23197,"lon":5.35544,"is_reserved":false,"is_disabled":false,"rental_uris":{"android":"levelo://app?vid=dc473676-824d-41ad-aeb7-667c159f885c","ios":"levelo://app?vid=dc473676-824d-41ad-aeb7-667c159f885c"},"vehicle_type_id":"4","last_reported":1727273302,"current_range_meters":27600,"station_id":"ce4bhu92rcd13ifvqi70","pricing_plan_id":"cebpf4jnsgd1na2vs0mg"},{"bike_id":"b44fe68c-0573-4b7d-ad16-ba1b0c496159","system_id":"levelo_inurba_marseille","lat":43.25728,"lon":5.41107,"is_reserved":false,"is_disabled":false,"rental_uris":{"android":"levelo://app?vid=b44fe68c-0573-4b7d-ad16-ba1b0c496159","ios":"levelo://app?vid=b44fe68c-0573-4b7d-ad16-ba1b0c496159"},"vehicle_type_id":"4","last_reported":1727273302,"current_range_meters":36800,"station_id":"ce4bhkp2rcd13ifvqgd0","pricing_plan_id":"cebpf4jnsgd1na2vs0mg"},{"bike_id":"47133ebc-7785-44d3-b595-8cdaa0a772ea","system_id":"levelo_inurba_marseille","lat":43.2706,"lon":5.40256,"is_reserved":false,"is_disabled":false,"rental_uris":{"android":"levelo://app?vid=47133ebc-7785-44d3-b595-8cdaa0a772ea","ios":"levelo://app?vid=47133ebc-7785-44d3-b595-8cdaa0a772ea"},"vehicle_type_id":"4","last_reported":1727273302,"current_range_meters":17600,"station_id":"ce4bhk92rcd13ifvqgc0","pricing_plan_id":"cebpf4jnsgd1na2vs0mg"},{"bike_id":"a7bca3df-0344-4204-86d7-b742d4769839","system_id":"levelo_inurba_marseille","lat":43.30863,"lon":5.3685,"is_reserved":false,"is_disabled":false,"rental_uris":{"android":"levelo://app?vid=a7bca3df-0344-4204-86d7-b742d4769839","ios":"levelo://app?vid=a7bca3df-0344-4204-86d7-b742d4769839"},"vehicle_type_id":"4","last_reported":1727273302,"current_range_meters":27600,"station_id":"ce4bgn92rcd13ifvqbvg","pricing_plan_id":"cebpf4jnsgd1na2vs0mg"},{"bike_id":"ab0faafe-0bf9-4852-8699-491c90c00adc","system_id":"levelo_inurba_marseille","lat":43.28934,"lon":5.36123,"is_reserved":false,"is_disabled":false,"rental_uris":{"android":"levelo://app?vid=ab0faafe-0bf9-4852-8699-491c90c00adc","ios":"levelo://app?vid=ab0faafe-0bf9-4852-8699-491c90c00adc"},"vehicle_type_id":"4","last_reported":1727273302,"current_range_meters":18800,"station_id":"ce4bhc92rcd13ifvqetg","pricing_plan_id":"cebpf4jnsgd1na2vs0mg"},{"bike_id":"22a93696-29c8-4204-b668-5cf26c040a0d","system_id":"levelo_inurba_marseille","lat":43.32367,"lon":5.38882,"is_reserved":false,"is_disabled":false,"rental_uris":{"android":"levelo://app?vid=22a93696-29c8-4204-b668-5cf26c040a0d","ios":"levelo://app?vid=22a93696-29c8-4204-b668-5cf26c040a0d"},"vehicle_type_id":"4","last_reported":1727273302,"current_range_meters":27600,"station_id":"ce4bhqp2rcd13ifvqhog","pricing_plan_id":"cebpf4jnsgd1na2vs0mg"},{"bike_id":"004e23b7-a5f2-4886-a4b4-f375ae32d195","system_id":"levelo_inurba_marseille","lat":43.29968,"lon":5.38489,"is_reserved":false,"is_disabled":false,"rental_uris":{"android":"levelo://app?vid=004e23b7-a5f2-4886-a4b4-f375ae32d195","ios":"levelo://app?vid=004e23b7-a5f2-4886-a4b4-f375ae32d195"},"vehicle_type_id":"4","last_reported":1727273302,"current_range_meters":8400,"station_id":"ce4bgj92rcd13ifvqbd0","pricing_plan_id":"cebpf4jnsgd1na2vs0mg"},{"bike_id":"7827170f-fe53-4f76-acc5-1f9d10e67145","system_id":"levelo_inurba_marseille","lat":43.22932,"lon":5.35375,"is_reserved":false,"is_disabled":false,"rental_uris":{"android":"levelo://app?vid=7827170f-fe53-4f76-acc5-1f9d10e67145","ios":"levelo://app?vid=7827170f-fe53-4f76-acc5-1f9d10e67145"},"vehicle_type_id":"4","last_reported":1727273302,"current_range_meters":38000,"station_id":"cpo3532slgdg3j2ikp40","pricing_plan_id":"cebpf4jnsgd1na2vs0mg"},{"bike_id":"433b4274-217e-4edf-ac8c-a452e1f45876","system_id":"levelo_inurba_marseille","lat":43.29589,"lon":5.36736,"is_reserved":false,"is_disabled":false,"rental_uris":{"android":"levelo://app?vid=433b4274-217e-4edf-ac8c-a452e1f45876","ios":"levelo://app?vid=433b4274-217e-4edf-ac8c-a452e1f45876"},"vehicle_type_id":"4","last_reported":1727273302,"current_range_meters":38800,"station_id":"ce4bgph2rcd13ifvqc2g","pricing_plan_id":"cebpf4jnsgd1na2vs0mg"},{"bike_id":"d831a0c8-0bcd-4449-91a5-836df1a52d4b","system_id":"levelo_inurba_marseille","lat":43.307183,"lon":5.37276,"is_reserved":false,"is_disabled":false,"rental_uris":{"android":"levelo://app?vid=d831a0c8-0bcd-4449-91a5-836df1a52d4b","ios":"levelo://app?vid=d831a0c8-0bcd-4449-91a5-836df1a52d4b"},"vehicle_type_id":"4","last_reported":1727273302,"current_range_meters":10000,"station_id":"","pricing_plan_id":"cebpf4jnsgd1na2vs0mg"},{"bike_id":"b41fc8d1-aaa6-48b8-85ea-0782e9dda81a","system_id":"levelo_inurba_marseille","lat":43.29584,"lon":5.3674,"is_reserved":false,"is_disabled":false,"rental_uris":{"android":"levelo://app?vid=b41fc8d1-aaa6-48b8-85ea-0782e9dda81a","ios":"levelo://app?vid=b41fc8d1-aaa6-48b8-85ea-0782e9dda81a"},"vehicle_type_id":"4","last_reported":1727273302,"current_range_meters":38800,"station_id":"ce4bgph2rcd13ifvqc2g","pricing_plan_id":"cebpf4jnsgd1na2vs0mg"},{"bike_id":"010b0358-055b-4eed-b526-ef60f453144c","system_id":"levelo_inurba_marseille","lat":43.33718,"lon":5.39178,"is_reserved":false,"is_disabled":false,"rental_uris":{"android":"levelo://app?vid=010b0358-055b-4eed-b526-ef60f453144c","ios":"levelo://app?vid=010b0358-055b-4eed-b526-ef60f453144c"},"vehicle_type_id":"4","last_reported":1727273302,"current_range_meters":37600,"station_id":"ce4bhr92rcd13ifvqhsg","pricing_plan_id":"cebpf4jnsgd1na2vs0mg"},{"bike_id":"ae7b6368-06f4-4703-9c8e-62223b4e65ed","system_id":"levelo_inurba_marseille","lat":43.267952,"lon":5.393613,"is_reserved":false,"is_disabled":false,"rental_uris":{"android":"levelo://app?vid=ae7b6368-06f4-4703-9c8e-62223b4e65ed","ios":"levelo://app?vid=ae7b6368-06f4-4703-9c8e-62223b4e65ed"},"vehicle_type_id":"4","last_reported":1727273302,"current_range_meters":10000,"station_id":"ce4bhh12rcd13ifvqfg0","pricing_plan_id":"cebpf4jnsgd1na2vs0mg"},{"bike_id":"7c6de589-de8e-4170-b5ab-45ddab218420","system_id":"levelo_inurba_marseille","lat":43.29966,"lon":5.38495,"is_reserved":false,"is_disabled":false,"rental_uris":{"android":"levelo://app?vid=7c6de589-de8e-4170-b5ab-45ddab218420","ios":"levelo://app?vid=7c6de589-de8e-4170-b5ab-45ddab218420"},"vehicle_type_id":"4","last_reported":1727273302,"current_range_meters":23200,"station_id":"ce4bgj92rcd13ifvqbd0","pricing_plan_id":"cebpf4jnsgd1na2vs0mg"},{"bike_id":"7d13bfe6-cac1-417a-a866-11f3f6431dbc","system_id":"levelo_inurba_marseille","lat":43.29023,"lon":5.37603,"is_reserved":false,"is_disabled":false,"rental_uris":{"android":"levelo://app?vid=7d13bfe6-cac1-417a-a866-11f3f6431dbc","ios":"levelo://app?vid=7d13bfe6-cac1-417a-a866-11f3f6431dbc"},"vehicle_type_id":"4","last_reported":1727273302,"current_range_meters":25600,"station_id":"ce4bh692rcd13ifvqe90","pricing_plan_id":"cebpf4jnsgd1na2vs0mg"},{"bike_id":"4a4bfd88-bdfc-4802-b3a8-e798e4274727","system_id":"levelo_inurba_marseille","lat":43.32289,"lon":5.38263,"is_reserved":false,"is_disabled":false,"rental_uris":{"android":"levelo://app?vid=4a4bfd88-bdfc-4802-b3a8-e798e4274727","ios":"levelo://app?vid=4a4bfd88-bdfc-4802-b3a8-e798e4274727"},"vehicle_type_id":"4","last_reported":1727273302,"current_range_meters":28000,"station_id":"ce4bhr12rcd13ifvqhqg","pricing_plan_id":"cebpf4jnsgd1na2vs0mg"},{"bike_id":"55510e67-f2d9-4cd2-86a1-c10296679920","system_id":"levelo_inurba_marseille","lat":43.28426,"lon":5.34984,"is_reserved":false,"is_disabled":false,"rental_uris":{"android":"levelo://app?vid=55510e67-f2d9-4cd2-86a1-c10296679920","ios":"levelo://app?vid=55510e67-f2d9-4cd2-86a1-c10296679920"},"vehicle_type_id":"4","last_reported":1727273302,"current_range_meters":30800,"station_id":"ce4bhbh2rcd13ifvqepg","pricing_plan_id":"cebpf4jnsgd1na2vs0mg"},{"bike_id":"6d96f985-9c01-48a6-84cc-38d4437fa126","system_id":"levelo_inurba_marseille","lat":43.23155,"lon":5.43706,"is_reserved":false,"is_disabled":false,"rental_uris":{"android":"levelo://app?vid=6d96f985-9c01-48a6-84cc-38d4437fa126","ios":"levelo://app?vid=6d96f985-9c01-48a6-84cc-38d4437fa126"},"vehicle_type_id":"4","last_reported":1727273302,"current_range_meters":12400,"station_id":"ce4bhmp2rcd13ifvqgog","pricing_plan_id":"cebpf4jnsgd1na2vs0mg"},{"bike_id":"e6fc0af7-fc31-4576-9f4f-48bdb1ded9a2","system_id":"levelo_inurba_marseille","lat":43.2558,"lon":5.38223,"is_reserved":false,"is_disabled":false,"rental_uris":{"android":"levelo://app?vid=e6fc0af7-fc31-4576-9f4f-48bdb1ded9a2","ios":"levelo://app?vid=e6fc0af7-fc31-4576-9f4f-48bdb1ded9a2"},"vehicle_type_id":"4","last_reported":1727273302,"current_range_meters":27600,"station_id":"ce4bhih2rcd13ifvqfs0","pricing_plan_id":"cebpf4jnsgd1na2vs0mg"},{"bike_id":"ddca53db-d45f-4b02-a5db-81880ffad283","system_id":"levelo_inurba_marseille","lat":43.33024,"lon":5.39042,"is_reserved":false,"is_disabled":false,"rental_uris":{"android":"levelo://app?vid=ddca53db-d45f-4b02-a5db-81880ffad283","ios":"levelo://app?vid=ddca53db-d45f-4b02-a5db-81880ffad283"},"vehicle_type_id":"4","last_reported":1727273302,"current_range_meters":38800,"station_id":"ce4bhr92rcd13ifvqhrg","pricing_plan_id":"cebpf4jnsgd1na2vs0mg"},{"bike_id":"c77a5431-c567-4b4c-a7a1-35e15b0d0e72","system_id":"levelo_inurba_marseille","lat":43.29895,"lon":5.43656,"is_reserved":false,"is_disabled":false,"rental_uris":{"android":"levelo://app?vid=c77a5431-c567-4b4c-a7a1-35e15b0d0e72","ios":"levelo://app?vid=c77a5431-c567-4b4c-a7a1-35e15b0d0e72"},"vehicle_type_id":"4","last_reported":1727273302,"current_range_meters":19600,"station_id":"ce4bhpp2rcd13ifvqhfg","pricing_plan_id":"cebpf4jnsgd1na2vs0mg"},{"bike_id":"1ac5bad7-a8fc-4000-a19e-ab73856fa5db","system_id":"levelo_inurba_marseille","lat":43.28714,"lon":5.37947,"is_reserved":false,"is_disabled":false,"rental_uris":{"android":"levelo://app?vid=1ac5bad7-a8fc-4000-a19e-ab73856fa5db","ios":"levelo://app?vid=1ac5bad7-a8fc-4000-a19e-ab73856fa5db"},"vehicle_type_id":"4","last_reported":1727273302,"current_range_meters":38800,"station_id":"ce4bh9p2rcd13ifvqec0","pricing_plan_id":"cebpf4jnsgd1na2vs0mg"},{"bike_id":"36f93968-edc9-4c7f-afc4-d5f69f0d80f7","system_id":"levelo_inurba_marseille","lat":43.30888,"lon":5.37189,"is_reserved":false,"is_disabled":false,"rental_uris":{"android":"levelo://app?vid=36f93968-edc9-4c7f-afc4-d5f69f0d80f7","ios":"levelo://app?vid=36f93968-edc9-4c7f-afc4-d5f69f0d80f7"},"vehicle_type_id":"4","last_reported":1727273302,"current_range_meters":8400,"station_id":"ce4bguh2rcd13ifvqckg","pricing_plan_id":"cebpf4jnsgd1na2vs0mg"},{"bike_id":"5e787303-50e2-4b6f-ac85-c0e6d3015235","system_id":"levelo_inurba_marseille","lat":43.29896,"lon":5.43656,"is_reserved":false,"is_disabled":false,"rental_uris":{"android":"levelo://app?vid=5e787303-50e2-4b6f-ac85-c0e6d3015235","ios":"levelo://app?vid=5e787303-50e2-4b6f-ac85-c0e6d3015235"},"vehicle_type_id":"4","last_reported":1727273302,"current_range_meters":37600,"station_id":"ce4bhpp2rcd13ifvqhfg","pricing_plan_id":"cebpf4jnsgd1na2vs0mg"},{"bike_id":"c6c83e13-3f99-4f3d-bb76-43f1f3e8331d","system_id":"levelo_inurba_marseille","lat":43.31359,"lon":5.36706,"is_reserved":false,"is_disabled":false,"rental_uris":{"android":"levelo://app?vid=c6c83e13-3f99-4f3d-bb76-43f1f3e8331d","ios":"levelo://app?vid=c6c83e13-3f99-4f3d-bb76-43f1f3e8331d"},"vehicle_type_id":"4","last_reported":1727273302,"current_range_meters":38000,"station_id":"ce4bgr92rcd13ifvqc6g","pricing_plan_id":"cebpf4jnsgd1na2vs0mg"},{"bike_id":"ede37da0-431f-462e-af97-45c71435ab2a","system_id":"levelo_inurba_marseille","lat":43.2418,"lon":5.39708,"is_reserved":false,"is_disabled":false,"rental_uris":{"android":"levelo://app?vid=ede37da0-431f-462e-af97-45c71435ab2a","ios":"levelo://app?vid=ede37da0-431f-462e-af97-45c71435ab2a"},"vehicle_type_id":"4","last_reported":1727273302,"current_range_meters":19600,"station_id":"ce4bhn12rcd13ifvqgpg","pricing_plan_id":"cebpf4jnsgd1na2vs0mg"},{"bike_id":"7fb0d0fb-dd7a-4ace-98da-9e3c8b1d73b0","system_id":"levelo_inurba_marseille","lat":43.22931,"lon":5.35372,"is_reserved":false,"is_disabled":false,"rental_uris":{"android":"levelo://app?vid=7fb0d0fb-dd7a-4ace-98da-9e3c8b1d73b0","ios":"levelo://app?vid=7fb0d0fb-dd7a-4ace-98da-9e3c8b1d73b0"},"vehicle_type_id":"4","last_reported":1727273302,"current_range_meters":26000,"station_id":"cpo3532slgdg3j2ikp40","pricing_plan_id":"cebpf4jnsgd1na2vs0mg"},{"bike_id":"fd588f05-ae1d-4f1b-82a6-43889fbce25e","system_id":"levelo_inurba_marseille","lat":43.24389,"lon":5.37053,"is_reserved":false,"is_disabled":false,"rental_uris":{"android":"levelo://app?vid=fd588f05-ae1d-4f1b-82a6-43889fbce25e","ios":"levelo://app?vid=fd588f05-ae1d-4f1b-82a6-43889fbce25e"},"vehicle_type_id":"4","last_reported":1727273302,"current_range_meters":10800,"station_id":"ce4bhhh2rcd13ifvqfk0","pricing_plan_id":"cebpf4jnsgd1na2vs0mg"},{"bike_id":"74e15401-9568-417a-a2c4-2f2843b813e1","system_id":"levelo_inurba_marseille","lat":43.27963,"lon":5.38744,"is_reserved":false,"is_disabled":false,"rental_uris":{"android":"levelo://app?vid=74e15401-9568-417a-a2c4-2f2843b813e1","ios":"levelo://app?vid=74e15401-9568-417a-a2c4-2f2843b813e1"},"vehicle_type_id":"4","last_reported":1727273302,"current_range_meters":38000,"station_id":"ce4bhg12rcd13ifvqf80","pricing_plan_id":"cebpf4jnsgd1na2vs0mg"},{"bike_id":"7d273bdf-39b2-45f8-b708-579514f5305e","system_id":"levelo_inurba_marseille","lat":43.29846,"lon":5.3627,"is_reserved":false,"is_disabled":false,"rental_uris":{"android":"levelo://app?vid=7d273bdf-39b2-45f8-b708-579514f5305e","ios":"levelo://app?vid=7d273bdf-39b2-45f8-b708-579514f5305e"},"vehicle_type_id":"4","last_reported":1727273302,"current_range_meters":38800,"station_id":"ce4bgpp2rcd13ifvqc3g","pricing_plan_id":"cebpf4jnsgd1na2vs0mg"},{"bike_id":"58bc62ce-20a7-4c81-b739-3f9c79474960","system_id":"levelo_inurba_marseille","lat":43.2848,"lon":5.38413,"is_reserved":false,"is_disabled":false,"rental_uris":{"android":"levelo://app?vid=58bc62ce-20a7-4c81-b739-3f9c79474960","ios":"levelo://app?vid=58bc62ce-20a7-4c81-b739-3f9c79474960"},"vehicle_type_id":"4","last_reported":1727273302,"current_range_meters":28400,"station_id":"ce4bh512rcd13ifvqe3g","pricing_plan_id":"cebpf4jnsgd1na2vs0mg"},{"bike_id":"b41cabb9-80b4-406b-bd58-abeaa3909770","system_id":"levelo_inurba_marseille","lat":43.28464,"lon":5.35878,"is_reserved":false,"is_disabled":false,"rental_uris":{"android":"levelo://app?vid=b41cabb9-80b4-406b-bd58-abeaa3909770","ios":"levelo://app?vid=b41cabb9-80b4-406b-bd58-abeaa3909770"},"vehicle_type_id":"4","last_reported":1727273302,"current_range_meters":34800,"station_id":"ce4bhah2rcd13ifvqei0","pricing_plan_id":"cebpf4jnsgd1na2vs0mg"},{"bike_id":"5b2e78cd-87ee-466f-93fe-8142df522c8c","system_id":"levelo_inurba_marseille","lat":43.25719,"lon":5.41107,"is_reserved":false,"is_disabled":false,"rental_uris":{"android":"levelo://app?vid=5b2e78cd-87ee-466f-93fe-8142df522c8c","ios":"levelo://app?vid=5b2e78cd-87ee-466f-93fe-8142df522c8c"},"vehicle_type_id":"4","last_reported":1727273302,"current_range_meters":19200,"station_id":"ce4bhkp2rcd13ifvqgd0","pricing_plan_id":"cebpf4jnsgd1na2vs0mg"},{"bike_id":"77a0b52d-381d-4877-835b-b29e7f9e7339","system_id":"levelo_inurba_marseille","lat":43.27184,"lon":5.40992,"is_reserved":false,"is_disabled":false,"rental_uris":{"android":"levelo://app?vid=77a0b52d-381d-4877-835b-b29e7f9e7339","ios":"levelo://app?vid=77a0b52d-381d-4877-835b-b29e7f9e7339"},"vehicle_type_id":"4","last_reported":1727273302,"current_range_meters":36800,"station_id":"ce4bhl12rcd13ifvqgf0","pricing_plan_id":"cebpf4jnsgd1na2vs0mg"},{"bike_id":"76f6f229-8e95-4985-b69a-c044993a1689","system_id":"levelo_inurba_marseille","lat":43.306488,"lon":5.400836,"is_reserved":false,"is_disabled":false,"rental_uris":{"android":"levelo://app?vid=76f6f229-8e95-4985-b69a-c044993a1689","ios":"levelo://app?vid=76f6f229-8e95-4985-b69a-c044993a1689"},"vehicle_type_id":"4","last_reported":1727273302,"current_range_meters":35600,"station_id":"ce4bh112rcd13ifvqda0","pricing_plan_id":"cebpf4jnsgd1na2vs0mg"},{"bike_id":"f3a77ff9-cb3a-4c2a-8e87-56d0e80bd9ed","system_id":"levelo_inurba_marseille","lat":43.30099,"lon":5.39075,"is_reserved":false,"is_disabled":false,"rental_uris":{"android":"levelo://app?vid=f3a77ff9-cb3a-4c2a-8e87-56d0e80bd9ed","ios":"levelo://app?vid=f3a77ff9-cb3a-4c2a-8e87-56d0e80bd9ed"},"vehicle_type_id":"4","last_reported":1727273302,"current_range_meters":27200,"station_id":"ce4bh192rcd13ifvqdb0","pricing_plan_id":"cebpf4jnsgd1na2vs0mg"},{"bike_id":"24fd7b0d-511e-403d-87ba-cd0f9c8771c8","system_id":"levelo_inurba_marseille","lat":43.33724,"lon":5.39176,"is_reserved":false,"is_disabled":false,"rental_uris":{"android":"levelo://app?vid=24fd7b0d-511e-403d-87ba-cd0f9c8771c8","ios":"levelo://app?vid=24fd7b0d-511e-403d-87ba-cd0f9c8771c8"},"vehicle_type_id":"4","last_reported":1727273302,"current_range_meters":25200,"station_id":"ce4bhr92rcd13ifvqhsg","pricing_plan_id":"cebpf4jnsgd1na2vs0mg"},{"bike_id":"3d160dae-6782-4e53-81e7-e40908ad46c5","system_id":"levelo_inurba_marseille","lat":43.31876,"lon":5.37428,"is_reserved":false,"is_disabled":false,"rental_uris":{"android":"levelo://app?vid=3d160dae-6782-4e53-81e7-e40908ad46c5","ios":"levelo://app?vid=3d160dae-6782-4e53-81e7-e40908ad46c5"},"vehicle_type_id":"4","last_reported":1727273302,"current_range_meters":35600,"station_id":"","pricing_plan_id":"cebpf4jnsgd1na2vs0mg"},{"bike_id":"38e9fe5d-afdd-4276-afa7-ab734e96b585","system_id":"levelo_inurba_marseille","lat":43.23196,"lon":5.35557,"is_reserved":false,"is_disabled":false,"rental_uris":{"android":"levelo://app?vid=38e9fe5d-afdd-4276-afa7-ab734e96b585","ios":"levelo://app?vid=38e9fe5d-afdd-4276-afa7-ab734e96b585"},"vehicle_type_id":"4","last_reported":1727273302,"current_range_meters":22000,"station_id":"ce4bhu92rcd13ifvqi70","pricing_plan_id":"cebpf4jnsgd1na2vs0mg"},{"bike_id":"2c947711-9a76-4185-b8b7-562ab19f1c5c","system_id":"levelo_inurba_marseille","lat":43.28268,"lon":5.35067,"is_reserved":false,"is_disabled":false,"rental_uris":{"android":"levelo://app?vid=2c947711-9a76-4185-b8b7-562ab19f1c5c","ios":"levelo://app?vid=2c947711-9a76-4185-b8b7-562ab19f1c5c"},"vehicle_type_id":"4","last_reported":1727273302,"current_range_meters":7200,"station_id":"ce4bhbp2rcd13ifvqerg","pricing_plan_id":"cebpf4jnsgd1na2vs0mg"},{"bike_id":"1627410f-e907-40a7-aa54-867376a84b51","system_id":"levelo_inurba_marseille","lat":43.30301,"lon":5.39207,"is_reserved":false,"is_disabled":false,"rental_uris":{"android":"levelo://app?vid=1627410f-e907-40a7-aa54-867376a84b51","ios":"levelo://app?vid=1627410f-e907-40a7-aa54-867376a84b51"},"vehicle_type_id":"4","last_reported":1727273302,"current_range_meters":36000,"station_id":"ce4bgkh2rcd13ifvqbk0","pricing_plan_id":"cebpf4jnsgd1na2vs0mg"},{"bike_id":"d0da2fb6-2155-4c4d-8d53-9c4d82ef5520","system_id":"levelo_inurba_marseille","lat":43.30532,"lon":5.36531,"is_reserved":false,"is_disabled":false,"rental_uris":{"android":"levelo://app?vid=d0da2fb6-2155-4c4d-8d53-9c4d82ef5520","ios":"levelo://app?vid=d0da2fb6-2155-4c4d-8d53-9c4d82ef5520"},"vehicle_type_id":"4","last_reported":1727273302,"current_range_meters":36800,"station_id":"ce4bgs12rcd13ifvqcag","pricing_plan_id":"cebpf4jnsgd1na2vs0mg"},{"bike_id":"3cdb199b-bacd-44b6-8eed-476c74758fbd","system_id":"levelo_inurba_marseille","lat":43.32107,"lon":5.36764,"is_reserved":false,"is_disabled":false,"rental_uris":{"android":"levelo://app?vid=3cdb199b-bacd-44b6-8eed-476c74758fbd","ios":"levelo://app?vid=3cdb199b-bacd-44b6-8eed-476c74758fbd"},"vehicle_type_id":"4","last_reported":1727273302,"current_range_meters":25200,"station_id":"ce4bhrh2rcd13ifvqhug","pricing_plan_id":"cebpf4jnsgd1na2vs0mg"},{"bike_id":"33430b0a-ef2e-45dc-853c-19e2a52996ef","system_id":"levelo_inurba_marseille","lat":43.32485,"lon":5.3657,"is_reserved":false,"is_disabled":false,"rental_uris":{"android":"levelo://app?vid=33430b0a-ef2e-45dc-853c-19e2a52996ef","ios":"levelo://app?vid=33430b0a-ef2e-45dc-853c-19e2a52996ef"},"vehicle_type_id":"4","last_reported":1727273302,"current_range_meters":38400,"station_id":"ce4bhs12rcd13ifvqhvg","pricing_plan_id":"cebpf4jnsgd1na2vs0mg"},{"bike_id":"9b46c8e1-1d59-4e52-9fb3-d2ba2008741c","system_id":"levelo_inurba_marseille","lat":43.27372,"lon":5.36256,"is_reserved":false,"is_disabled":false,"rental_uris":{"android":"levelo://app?vid=9b46c8e1-1d59-4e52-9fb3-d2ba2008741c","ios":"levelo://app?vid=9b46c8e1-1d59-4e52-9fb3-d2ba2008741c"},"vehicle_type_id":"4","last_reported":1727273302,"current_range_meters":17600,"station_id":"ce4bhbh2rcd13ifvqeo0","pricing_plan_id":"cebpf4jnsgd1na2vs0mg"},{"bike_id":"f64cfc42-4898-4a12-8d0e-26f37f3eaf0e","system_id":"levelo_inurba_marseille","lat":43.28407,"lon":5.34977,"is_reserved":false,"is_disabled":false,"rental_uris":{"android":"levelo://app?vid=f64cfc42-4898-4a12-8d0e-26f37f3eaf0e","ios":"levelo://app?vid=f64cfc42-4898-4a12-8d0e-26f37f3eaf0e"},"vehicle_type_id":"4","last_reported":1727273302,"current_range_meters":38000,"station_id":"ce4bhbh2rcd13ifvqepg","pricing_plan_id":"cebpf4jnsgd1na2vs0mg"},{"bike_id":"3d1e9039-9af3-4183-a5cb-29f6e4d1642b","system_id":"levelo_inurba_marseille","lat":43.31126,"lon":5.37766,"is_reserved":false,"is_disabled":false,"rental_uris":{"android":"levelo://app?vid=3d1e9039-9af3-4183-a5cb-29f6e4d1642b","ios":"levelo://app?vid=3d1e9039-9af3-4183-a5cb-29f6e4d1642b"},"vehicle_type_id":"4","last_reported":1727273302,"current_range_meters":14800,"station_id":"ce4bgt92rcd13ifvqcg0","pricing_plan_id":"cebpf4jnsgd1na2vs0mg"},{"bike_id":"1fcfe975-3f30-42e4-97c5-cc8d4ac712cc","system_id":"levelo_inurba_marseille","lat":43.2804,"lon":5.36941,"is_reserved":false,"is_disabled":false,"rental_uris":{"android":"levelo://app?vid=1fcfe975-3f30-42e4-97c5-cc8d4ac712cc","ios":"levelo://app?vid=1fcfe975-3f30-42e4-97c5-cc8d4ac712cc"},"vehicle_type_id":"4","last_reported":1727273302,"current_range_meters":2000,"station_id":"ce4bha12rcd13ifvqef0","pricing_plan_id":"cebpf4jnsgd1na2vs0mg"},{"bike_id":"18500de2-2bc6-412d-a12e-38684cb7b088","system_id":"levelo_inurba_marseille","lat":43.30804,"lon":5.38147,"is_reserved":false,"is_disabled":false,"rental_uris":{"android":"levelo://app?vid=18500de2-2bc6-412d-a12e-38684cb7b088","ios":"levelo://app?vid=18500de2-2bc6-412d-a12e-38684cb7b088"},"vehicle_type_id":"4","last_reported":1727273302,"current_range_meters":33200,"station_id":"ce4bgt12rcd13ifvqce0","pricing_plan_id":"cebpf4jnsgd1na2vs0mg"},{"bike_id":"aad22dc7-5b58-4c6e-b09a-11e1f606976b","system_id":"levelo_inurba_marseille","lat":43.26805,"lon":5.40252,"is_reserved":false,"is_disabled":false,"rental_uris":{"android":"levelo://app?vid=aad22dc7-5b58-4c6e-b09a-11e1f606976b","ios":"levelo://app?vid=aad22dc7-5b58-4c6e-b09a-11e1f606976b"},"vehicle_type_id":"4","last_reported":1727273302,"current_range_meters":38800,"station_id":"ce501612rcd8frsf0b60","pricing_plan_id":"cebpf4jnsgd1na2vs0mg"},{"bike_id":"edd1d204-5dde-4bf0-9825-2e8233ccafb0","system_id":"levelo_inurba_marseille","lat":43.24188,"lon":5.39721,"is_reserved":false,"is_disabled":false,"rental_uris":{"android":"levelo://app?vid=edd1d204-5dde-4bf0-9825-2e8233ccafb0","ios":"levelo://app?vid=edd1d204-5dde-4bf0-9825-2e8233ccafb0"},"vehicle_type_id":"4","last_reported":1727273302,"current_range_meters":37600,"station_id":"ce4bhn12rcd13ifvqgpg","pricing_plan_id":"cebpf4jnsgd1na2vs0mg"},{"bike_id":"0fff1f7b-a35f-4644-894f-e3de0b68efc1","system_id":"levelo_inurba_marseille","lat":43.299065,"lon":5.381442,"is_reserved":false,"is_disabled":false,"rental_uris":{"android":"levelo://app?vid=0fff1f7b-a35f-4644-894f-e3de0b68efc1","ios":"levelo://app?vid=0fff1f7b-a35f-4644-894f-e3de0b68efc1"},"vehicle_type_id":"4","last_reported":1727273302,"current_range_meters":2800,"station_id":"ce4bhb92rcd13ifvqen0","pricing_plan_id":"cebpf4jnsgd1na2vs0mg"},{"bike_id":"8616fd40-2522-4f17-b323-f816696d2b33","system_id":"levelo_inurba_marseille","lat":43.29782,"lon":5.37093,"is_reserved":false,"is_disabled":false,"rental_uris":{"android":"levelo://app?vid=8616fd40-2522-4f17-b323-f816696d2b33","ios":"levelo://app?vid=8616fd40-2522-4f17-b323-f816696d2b33"},"vehicle_type_id":"4","last_reported":1727273302,"current_range_meters":29600,"station_id":"ce4bgop2rcd13ifvqc1g","pricing_plan_id":"cebpf4jnsgd1na2vs0mg"},{"bike_id":"d3a61b6a-71e8-4c6c-8c6c-30262b2b9bc2","system_id":"levelo_inurba_marseille","lat":43.337444,"lon":5.374475,"is_reserved":false,"is_disabled":false,"rental_uris":{"android":"levelo://app?vid=d3a61b6a-71e8-4c6c-8c6c-30262b2b9bc2","ios":"levelo://app?vid=d3a61b6a-71e8-4c6c-8c6c-30262b2b9bc2"},"vehicle_type_id":"4","last_reported":1727273302,"current_range_meters":36000,"station_id":"","pricing_plan_id":"cebpf4jnsgd1na2vs0mg"},{"bike_id":"64c80b1e-388c-4852-9ea0-ea079b02ec62","system_id":"levelo_inurba_marseille","lat":43.29936,"lon":5.36534,"is_reserved":false,"is_disabled":false,"rental_uris":{"android":"levelo://app?vid=64c80b1e-388c-4852-9ea0-ea079b02ec62","ios":"levelo://app?vid=64c80b1e-388c-4852-9ea0-ea079b02ec62"},"vehicle_type_id":"4","last_reported":1727273302,"current_range_meters":36800,"station_id":"ce4bgm92rcd13ifvqbr0","pricing_plan_id":"cebpf4jnsgd1na2vs0mg"},{"bike_id":"8972bacc-c7d1-4ea0-b86f-0434eda79627","system_id":"levelo_inurba_marseille","lat":43.29978,"lon":5.37176,"is_reserved":false,"is_disabled":false,"rental_uris":{"android":"levelo://app?vid=8972bacc-c7d1-4ea0-b86f-0434eda79627","ios":"levelo://app?vid=8972bacc-c7d1-4ea0-b86f-0434eda79627"},"vehicle_type_id":"4","last_reported":1727273302,"current_range_meters":19200,"station_id":"ce4bgr92rcd13ifvqc7g","pricing_plan_id":"cebpf4jnsgd1na2vs0mg"},{"bike_id":"d5f002d0-01dd-4c94-baa5-68812e7e3163","system_id":"levelo_inurba_marseille","lat":43.2707,"lon":5.42273,"is_reserved":false,"is_disabled":false,"rental_uris":{"android":"levelo://app?vid=d5f002d0-01dd-4c94-baa5-68812e7e3163","ios":"levelo://app?vid=d5f002d0-01dd-4c94-baa5-68812e7e3163"},"vehicle_type_id":"4","last_reported":1727273302,"current_range_meters":38000,"station_id":"ce4bhk92rcd13ifvqgb0","pricing_plan_id":"cebpf4jnsgd1na2vs0mg"},{"bike_id":"01324ddd-a8ba-40c3-88b1-fb68e0e51185","system_id":"levelo_inurba_marseille","lat":43.32489,"lon":5.36575,"is_reserved":false,"is_disabled":false,"rental_uris":{"android":"levelo://app?vid=01324ddd-a8ba-40c3-88b1-fb68e0e51185","ios":"levelo://app?vid=01324ddd-a8ba-40c3-88b1-fb68e0e51185"},"vehicle_type_id":"4","last_reported":1727273302,"current_range_meters":36000,"station_id":"ce4bhs12rcd13ifvqhvg","pricing_plan_id":"cebpf4jnsgd1na2vs0mg"},{"bike_id":"1b97aaa9-dfa9-4f18-be7c-20231e6ba9b8","system_id":"levelo_inurba_marseille","lat":43.28669,"lon":5.36345,"is_reserved":false,"is_disabled":false,"rental_uris":{"android":"levelo://app?vid=1b97aaa9-dfa9-4f18-be7c-20231e6ba9b8","ios":"levelo://app?vid=1b97aaa9-dfa9-4f18-be7c-20231e6ba9b8"},"vehicle_type_id":"4","last_reported":1727273302,"current_range_meters":38800,"station_id":"ce4bhah2rcd13ifvqej0","pricing_plan_id":"cebpf4jnsgd1na2vs0mg"},{"bike_id":"a6b6da6d-633f-4a02-b57b-75db82dc9702","system_id":"levelo_inurba_marseille","lat":43.30886,"lon":5.39636,"is_reserved":false,"is_disabled":false,"rental_uris":{"android":"levelo://app?vid=a6b6da6d-633f-4a02-b57b-75db82dc9702","ios":"levelo://app?vid=a6b6da6d-633f-4a02-b57b-75db82dc9702"},"vehicle_type_id":"4","last_reported":1727273302,"current_range_meters":30800,"station_id":"ce4bh012rcd13ifvqcv0","pricing_plan_id":"cebpf4jnsgd1na2vs0mg"},{"bike_id":"9050d0c4-f22d-4c94-803f-48072f0e0adc","system_id":"levelo_inurba_marseille","lat":43.324895,"lon":5.365605,"is_reserved":false,"is_disabled":false,"rental_uris":{"android":"levelo://app?vid=9050d0c4-f22d-4c94-803f-48072f0e0adc","ios":"levelo://app?vid=9050d0c4-f22d-4c94-803f-48072f0e0adc"},"vehicle_type_id":"4","last_reported":1727273302,"current_range_meters":28800,"station_id":"ce4bhs12rcd13ifvqhvg","pricing_plan_id":"cebpf4jnsgd1na2vs0mg"},{"bike_id":"4c3c8a3e-2181-4783-9617-fdbf00ca3794","system_id":"levelo_inurba_marseille","lat":43.29725,"lon":5.37695,"is_reserved":false,"is_disabled":false,"rental_uris":{"android":"levelo://app?vid=4c3c8a3e-2181-4783-9617-fdbf00ca3794","ios":"levelo://app?vid=4c3c8a3e-2181-4783-9617-fdbf00ca3794"},"vehicle_type_id":"4","last_reported":1727273302,"current_range_meters":30400,"station_id":"ce4bgkh2rcd13ifvqbl0","pricing_plan_id":"cebpf4jnsgd1na2vs0mg"},{"bike_id":"f073078a-aa3b-44d8-9f1c-b082348f6656","system_id":"levelo_inurba_marseille","lat":43.27372,"lon":5.36246,"is_reserved":false,"is_disabled":false,"rental_uris":{"android":"levelo://app?vid=f073078a-aa3b-44d8-9f1c-b082348f6656","ios":"levelo://app?vid=f073078a-aa3b-44d8-9f1c-b082348f6656"},"vehicle_type_id":"4","last_reported":1727273302,"current_range_meters":18800,"station_id":"ce4bhbh2rcd13ifvqeo0","pricing_plan_id":"cebpf4jnsgd1na2vs0mg"},{"bike_id":"b1883dbd-b94e-4da6-8fe8-967e9e438a9f","system_id":"levelo_inurba_marseille","lat":43.27844,"lon":5.39204,"is_reserved":false,"is_disabled":false,"rental_uris":{"android":"levelo://app?vid=b1883dbd-b94e-4da6-8fe8-967e9e438a9f","ios":"levelo://app?vid=b1883dbd-b94e-4da6-8fe8-967e9e438a9f"},"vehicle_type_id":"4","last_reported":1727273302,"current_range_meters":37600,"station_id":"ce4bhjp2rcd13ifvqga0","pricing_plan_id":"cebpf4jnsgd1na2vs0mg"},{"bike_id":"b758bb5f-adae-4881-83e7-0e917c4e39a1","system_id":"levelo_inurba_marseille","lat":43.31996,"lon":5.38144,"is_reserved":false,"is_disabled":false,"rental_uris":{"android":"levelo://app?vid=b758bb5f-adae-4881-83e7-0e917c4e39a1","ios":"levelo://app?vid=b758bb5f-adae-4881-83e7-0e917c4e39a1"},"vehicle_type_id":"4","last_reported":1727273302,"current_range_meters":6400,"station_id":"ce4bhr12rcd13ifvqhpg","pricing_plan_id":"cebpf4jnsgd1na2vs0mg"},{"bike_id":"93386c75-3739-402c-944d-c47e2985c15d","system_id":"levelo_inurba_marseille","lat":43.282593,"lon":5.350527,"is_reserved":false,"is_disabled":false,"rental_uris":{"android":"levelo://app?vid=93386c75-3739-402c-944d-c47e2985c15d","ios":"levelo://app?vid=93386c75-3739-402c-944d-c47e2985c15d"},"vehicle_type_id":"4","last_reported":1727273302,"current_range_meters":29600,"station_id":"ce4bhbp2rcd13ifvqerg","pricing_plan_id":"cebpf4jnsgd1na2vs0mg"},{"bike_id":"e570a691-13bb-4e05-b897-179e74c2d6b6","system_id":"levelo_inurba_marseille","lat":43.30535,"lon":5.36566,"is_reserved":false,"is_disabled":false,"rental_uris":{"android":"levelo://app?vid=e570a691-13bb-4e05-b897-179e74c2d6b6","ios":"levelo://app?vid=e570a691-13bb-4e05-b897-179e74c2d6b6"},"vehicle_type_id":"4","last_reported":1727273302,"current_range_meters":18000,"station_id":"ce4bgs12rcd13ifvqcag","pricing_plan_id":"cebpf4jnsgd1na2vs0mg"},{"bike_id":"723d1fb7-5a59-417a-bb8f-f27692d07b63","system_id":"levelo_inurba_marseille","lat":43.29963,"lon":5.41315,"is_reserved":false,"is_disabled":false,"rental_uris":{"android":"levelo://app?vid=723d1fb7-5a59-417a-bb8f-f27692d07b63","ios":"levelo://app?vid=723d1fb7-5a59-417a-bb8f-f27692d07b63"},"vehicle_type_id":"4","last_reported":1727273302,"current_range_meters":24800,"station_id":"ce4bhp12rcd13ifvqh9g","pricing_plan_id":"cebpf4jnsgd1na2vs0mg"},{"bike_id":"50aea91e-b562-4df2-9f22-596abeddca5c","system_id":"levelo_inurba_marseille","lat":43.28263,"lon":5.35059,"is_reserved":false,"is_disabled":false,"rental_uris":{"android":"levelo://app?vid=50aea91e-b562-4df2-9f22-596abeddca5c","ios":"levelo://app?vid=50aea91e-b562-4df2-9f22-596abeddca5c"},"vehicle_type_id":"4","last_reported":1727273302,"current_range_meters":22000,"station_id":"ce4bhbp2rcd13ifvqerg","pricing_plan_id":"cebpf4jnsgd1na2vs0mg"},{"bike_id":"c068a557-6c3b-4503-9ddb-56098ba50984","system_id":"levelo_inurba_marseille","lat":43.29295,"lon":5.37461,"is_reserved":false,"is_disabled":false,"rental_uris":{"android":"levelo://app?vid=c068a557-6c3b-4503-9ddb-56098ba50984","ios":"levelo://app?vid=c068a557-6c3b-4503-9ddb-56098ba50984"},"vehicle_type_id":"4","last_reported":1727273302,"current_range_meters":21600,"station_id":"ce4bgi12rcd13ifvqb70","pricing_plan_id":"cebpf4jnsgd1na2vs0mg"},{"bike_id":"a8a545cd-2fbb-4a60-b405-2cfec2831cb6","system_id":"levelo_inurba_marseille","lat":43.31763,"lon":5.39013,"is_reserved":false,"is_disabled":false,"rental_uris":{"android":"levelo://app?vid=a8a545cd-2fbb-4a60-b405-2cfec2831cb6","ios":"levelo://app?vid=a8a545cd-2fbb-4a60-b405-2cfec2831cb6"},"vehicle_type_id":"4","last_reported":1727273302,"current_range_meters":11200,"station_id":"ce4bhqp2rcd13ifvqhng","pricing_plan_id":"cebpf4jnsgd1na2vs0mg"},{"bike_id":"f5cc56a8-3745-4eda-bf75-2e9b8adba38b","system_id":"levelo_inurba_marseille","lat":43.2655,"lon":5.37284,"is_reserved":false,"is_disabled":false,"rental_uris":{"android":"levelo://app?vid=f5cc56a8-3745-4eda-bf75-2e9b8adba38b","ios":"levelo://app?vid=f5cc56a8-3745-4eda-bf75-2e9b8adba38b"},"vehicle_type_id":"4","last_reported":1727273302,"current_range_meters":37600,"station_id":"ce4bhg12rcd13ifvqf70","pricing_plan_id":"cebpf4jnsgd1na2vs0mg"},{"bike_id":"e59eb30b-bd64-4614-a66f-89bc11c23d8f","system_id":"levelo_inurba_marseille","lat":43.28462,"lon":5.35889,"is_reserved":false,"is_disabled":false,"rental_uris":{"android":"levelo://app?vid=e59eb30b-bd64-4614-a66f-89bc11c23d8f","ios":"levelo://app?vid=e59eb30b-bd64-4614-a66f-89bc11c23d8f"},"vehicle_type_id":"4","last_reported":1727273302,"current_range_meters":24800,"station_id":"ce4bhah2rcd13ifvqei0","pricing_plan_id":"cebpf4jnsgd1na2vs0mg"},{"bike_id":"f17dbafc-151f-485c-a428-c0c83c10c6c9","system_id":"levelo_inurba_marseille","lat":43.29157,"lon":5.43973,"is_reserved":false,"is_disabled":false,"rental_uris":{"android":"levelo://app?vid=f17dbafc-151f-485c-a428-c0c83c10c6c9","ios":"levelo://app?vid=f17dbafc-151f-485c-a428-c0c83c10c6c9"},"vehicle_type_id":"4","last_reported":1727273302,"current_range_meters":28400,"station_id":"","pricing_plan_id":"cebpf4jnsgd1na2vs0mg"},{"bike_id":"1b5fc457-69fa-4bed-8011-dbe17d2c1d1e","system_id":"levelo_inurba_marseille","lat":43.24172,"lon":5.36395,"is_reserved":false,"is_disabled":false,"rental_uris":{"android":"levelo://app?vid=1b5fc457-69fa-4bed-8011-dbe17d2c1d1e","ios":"levelo://app?vid=1b5fc457-69fa-4bed-8011-dbe17d2c1d1e"},"vehicle_type_id":"4","last_reported":1727273302,"current_range_meters":8400,"station_id":"cpo36qri1sfpv3e86is0","pricing_plan_id":"cebpf4jnsgd1na2vs0mg"},{"bike_id":"f5dfe190-8fbb-4517-a061-a48402bdbd5c","system_id":"levelo_inurba_marseille","lat":43.25726,"lon":5.41106,"is_reserved":false,"is_disabled":false,"rental_uris":{"android":"levelo://app?vid=f5dfe190-8fbb-4517-a061-a48402bdbd5c","ios":"levelo://app?vid=f5dfe190-8fbb-4517-a061-a48402bdbd5c"},"vehicle_type_id":"4","last_reported":1727273302,"current_range_meters":38800,"station_id":"ce4bhkp2rcd13ifvqgd0","pricing_plan_id":"cebpf4jnsgd1na2vs0mg"},{"bike_id":"34f55419-f57d-4a77-ba30-81b0b7ae568b","system_id":"levelo_inurba_marseille","lat":43.29964,"lon":5.38497,"is_reserved":false,"is_disabled":false,"rental_uris":{"android":"levelo://app?vid=34f55419-f57d-4a77-ba30-81b0b7ae568b","ios":"levelo://app?vid=34f55419-f57d-4a77-ba30-81b0b7ae568b"},"vehicle_type_id":"4","last_reported":1727273302,"current_range_meters":33600,"station_id":"ce4bgj92rcd13ifvqbd0","pricing_plan_id":"cebpf4jnsgd1na2vs0mg"},{"bike_id":"9af09c8f-9d28-4c70-a1ae-83456c6cb854","system_id":"levelo_inurba_marseille","lat":43.30541,"lon":5.3672,"is_reserved":false,"is_disabled":false,"rental_uris":{"android":"levelo://app?vid=9af09c8f-9d28-4c70-a1ae-83456c6cb854","ios":"levelo://app?vid=9af09c8f-9d28-4c70-a1ae-83456c6cb854"},"vehicle_type_id":"4","last_reported":1727273302,"current_range_meters":7200,"station_id":"ce4bgrp2rcd13ifvqc9g","pricing_plan_id":"cebpf4jnsgd1na2vs0mg"},{"bike_id":"728bc6c7-715f-464b-a2ca-3d8e1592637b","system_id":"levelo_inurba_marseille","lat":43.25722,"lon":5.41103,"is_reserved":false,"is_disabled":false,"rental_uris":{"android":"levelo://app?vid=728bc6c7-715f-464b-a2ca-3d8e1592637b","ios":"levelo://app?vid=728bc6c7-715f-464b-a2ca-3d8e1592637b"},"vehicle_type_id":"4","last_reported":1727273302,"current_range_meters":31200,"station_id":"ce4bhkp2rcd13ifvqgd0","pricing_plan_id":"cebpf4jnsgd1na2vs0mg"},{"bike_id":"981b2066-5468-4372-bee3-2504e9156c03","system_id":"levelo_inurba_marseille","lat":43.30534,"lon":5.36701,"is_reserved":false,"is_disabled":false,"rental_uris":{"android":"levelo://app?vid=981b2066-5468-4372-bee3-2504e9156c03","ios":"levelo://app?vid=981b2066-5468-4372-bee3-2504e9156c03"},"vehicle_type_id":"4","last_reported":1727273302,"current_range_meters":38000,"station_id":"ce4bgrp2rcd13ifvqc9g","pricing_plan_id":"cebpf4jnsgd1na2vs0mg"},