{"last_updated":1732399699,"ttl":60,"version":"2.2","data":{"bikes":[{"bike_id":"daaf9d74-d398-4648-b669-1b899abe8b01","system_id":"levelo_inurba_marseille","lat":43.2927,"lon":5.38456,"is_reserved":false,"is_disabled":false,"rental_uris":{"android":"levelo://app?vid=daaf9d74-d398-4648-b669-1b899abe8b01","ios":"levelo://app?vid=daaf9d74-d398-4648-b669-1b899abe8b01"},"vehicle_type_id":"4","last_reported":1732399699,"current_range_meters":37600,"station_id":"ce4bh692rcd13ifvqea0","pricing_plan_id":"cebpf4jnsgd1na2vs0mg"},{"bike_id":"9a592002-11fb-4de6-a5a9-2040f17876bf","system_id":"levelo_inurba_marseille","lat":43.32539,"lon":5.41449,"is_reserved":false,"is_disabled":false,"rental_uris":{"android":"levelo://app?vid=9a592002-11fb-4de6-a5a9-2040f17876bf","ios":"levelo://app?vid=9a592002-11fb-4de6-a5a9-2040f17876bf"},"vehicle_type_id":"4","last_reported":1732399699,"current_range_meters":38800,"station_id":"ce4bhq12rcd13ifvqhhg","pricing_plan_id":"cebpf4jnsgd1na2vs0mg"},{"bike_id":"c6237f15-38b6-4fed-b626-6173aa5470f2","system_id":"levelo_inurba_marseille","lat":43.29042,"lon":5.39958,"is_reserved":false,"is_disabled":false,"rental_uris":{"android":"levelo://app?vid=c6237f15-38b6-4fed-b626-6173aa5470f2","ios":"levelo://app?vid=c6237f15-38b6-4fed-b626-6173aa5470f2"},"vehicle_type_id":"4","last_reported":1732399699,"current_range_meters":38400,"station_id":"ce4bh392rcd13ifvqdm0","pricing_plan_id":"cebpf4jnsgd1na2vs0mg"},{"bike_id":"7fdd3474-9bf6-4148-979e-5c8270968ce3","system_id":"levelo_inurba_marseille","lat":43.24071,"lon":5.37765,"is_reserved":false,"is_disabled":false,"rental_uris":{"android":"levelo://app?vid=7fdd3474-9bf6-4148-979e-5c8270968ce3","ios":"levelo://app?vid=7fdd3474-9bf6-4148-979e-5c8270968ce3"},"vehicle_type_id":"4","last_reported":1732399699,"current_range_meters":35200,"station_id":"ce4bhnp2rcd13ifvqgvg","pricing_plan_id":"cebpf4jnsgd1na2vs0mg"},{"bike_id":"9bd1354e-51da-4fa9-a96c-36b52a5aa34b","system_id":"levelo_inurba_marseille","lat":43.27375,"lon":5.3626,"is_reserved":false,"is_disabled":false,"rental_uris":{"android":"levelo://app?vid=9bd1354e-51da-4fa9-a96c-36b52a5aa34b","ios":"levelo://app?vid=9bd1354e-51da-4fa9-a96c-36b52a5aa34b"},"vehicle_type_id":"4","last_reported":1732399699,"current_range_meters":20800,"station_id":"ce4bhbh2rcd13ifvqeo0","pricing_plan_id":"cebpf4jnsgd1na2vs0mg"},{"bike_id":"fe7dea4e-d632-4642-aee0-92c00a764691","system_id":"levelo_inurba_marseille","lat":43.30135,"lon":5.38799,"is_reserved":false,"is_disabled":true,"rental_uris":{"android":"levelo://app?vid=fe7dea4e-d632-4642-aee0-92c00a764691","ios":"levelo://app?vid=fe7dea4e-d632-4642-aee0-92c00a764691"},"vehicle_type_id":"4","last_reported":1732399699,"current_range_meters":37600,"station_id":"ce4bghh2rcd13ifvqb60","pricing_plan_id":"cebpf4jnsgd1na2vs0mg"},{"bike_id":"665c76b9-31c3-4a91-bff7-a38d582abeb6","system_id":"levelo_inurba_marseille","lat":43.2927,"lon":5.38447,"is_reserved":false,"is_disabled":false,"rental_uris":{"android":"levelo://app?vid=665c76b9-31c3-4a91-bff7-a38d582abeb6","ios":"levelo://app?vid=665c76b9-31c3-4a91-bff7-a38d582abeb6"},"vehicle_type_id":"4","last_reported":1732399699,"current_range_meters":38400,"station_id":"ce4bh692rcd13ifvqea0","pricing_plan_id":"cebpf4jnsgd1na2vs0mg"},{"bike_id":"21ce5489-a75f-40fe-b51e-8d0e86778609","system_id":"levelo_inurba_marseille","lat":43.266787,"lon":5.382788,"is_reserved":false,"is_disabled":false,"rental_uris":{"android":"levelo://app?vid=21ce5489-a75f-40fe-b51e-8d0e86778609","ios":"levelo://app?vid=21ce5489-a75f-40fe-b51e-8d0e86778609"},"vehicle_type_id":"4","last_reported":1732399699,"current_range_meters":16400,"station_id":"ce4bhg92rcd13ifvqf90","pricing_plan_id":"cebpf4jnsgd1na2vs0mg"},{"bike_id":"819705ac-445c-490e-b0a2-e8b996a35892","system_id":"levelo_inurba_marseille","lat":43.26687,"lon":5.38273,"is_reserved":false,"is_disabled":false,"rental_uris":{"android":"levelo://app?vid=819705ac-445c-490e-b0a2-e8b996a35892","ios":"levelo://app?vid=819705ac-445c-490e-b0a2-e8b996a35892"},"vehicle_type_id":"4","last_reported":1732399699,"current_range_meters":38800,"station_id":"ce4bhg92rcd13ifvqf90","pricing_plan_id":"cebpf4jnsgd1na2vs0mg"},{"bike_id":"d7298dcf-45ad-4a95-8b86-1bc15c7ec2a0","system_id":"levelo_inurba_marseille","lat":43.29262,"lon":5.38447,"is_reserved":false,"is_disabled":false,"rental_uris":{"android":"levelo://app?vid=d7298dcf-45ad-4a95-8b86-1bc15c7ec2a0","ios":"levelo://app?vid=d7298dcf-45ad-4a95-8b86-1bc15c7ec2a0"},"vehicle_type_id":"4","last_reported":1732399699,"current_range_meters":18000,"station_id":"ce4bh692rcd13ifvqea0","pricing_plan_id":"cebpf4jnsgd1na2vs0mg"},{"bike_id":"f956308a-2ffd-40f1-ae1b-6704e2671bec","system_id":"levelo_inurba_marseille","lat":43.23597,"lon":5.37919,"is_reserved":false,"is_disabled":false,"rental_uris":{"android":"levelo://app?vid=f956308a-2ffd-40f1-ae1b-6704e2671bec","ios":"levelo://app?vid=f956308a-2ffd-40f1-ae1b-6704e2671bec"},"vehicle_type_id":"4","last_reported":1732399699,"current_range_meters":23200,"station_id":"","pricing_plan_id":"cebpf4jnsgd1na2vs0mg"},{"bike_id":"17644c5c-c445-46df-82b1-1c8c814775c8","system_id":"levelo_inurba_marseille","lat":43.29186,"lon":5.38421,"is_reserved":false,"is_disabled":false,"rental_uris":{"android":"levelo://app?vid=17644c5c-c445-46df-82b1-1c8c814775c8","ios":"levelo://app?vid=17644c5c-c445-46df-82b1-1c8c814775c8"},"vehicle_type_id":"4","last_reported":1732399699,"current_range_meters":6000,"station_id":"","pricing_plan_id":"cebpf4jnsgd1na2vs0mg"},{"bike_id":"15baa10c-94da-4025-b0e4-4e5ada3bfa66","system_id":"levelo_inurba_marseille","lat":43.26784,"lon":5.3942,"is_reserved":false,"is_disabled":false,"rental_uris":{"android":"levelo://app?vid=15baa10c-94da-4025-b0e4-4e5ada3bfa66","ios":"levelo://app?vid=15baa10c-94da-4025-b0e4-4e5ada3bfa66"},"vehicle_type_id":"4","last_reported":1732399699,"current_range_meters":38800,"station_id":"ce4bhh12rcd13ifvqfg0","pricing_plan_id":"cebpf4jnsgd1na2vs0mg"},{"bike_id":"1d480d76-bb73-4781-930a-16c68fdce680","system_id":"levelo_inurba_marseille","lat":43.25577,"lon":5.38235,"is_reserved":false,"is_disabled":false,"rental_uris":{"android":"levelo://app?vid=1d480d76-bb73-4781-930a-16c68fdce680","ios":"levelo://app?vid=1d480d76-bb73-4781-930a-16c68fdce680"},"vehicle_type_id":"4","last_reported":1732399699,"current_range_meters":38800,"station_id":"ce4bhih2rcd13ifvqfs0","pricing_plan_id":"cebpf4jnsgd1na2vs0mg"},{"bike_id":"a721a59b-c6c0-46b8-84e5-19ba74a48bdb","system_id":"levelo_inurba_marseille","lat":43.28045,"lon":5.36955,"is_reserved":false,"is_disabled":false,"rental_uris":{"android":"levelo://app?vid=a721a59b-c6c0-46b8-84e5-19ba74a48bdb","ios":"levelo://app?vid=a721a59b-c6c0-46b8-84e5-19ba74a48bdb"},"vehicle_type_id":"4","last_reported":1732399699,"current_range_meters":18800,"station_id":"ce4bha12rcd13ifvqef0","pricing_plan_id":"cebpf4jnsgd1na2vs0mg"},{"bike_id":"9a888d6c-a9e5-421c-a96b-22efd430a366","system_id":"levelo_inurba_marseille","lat":43.3172,"lon":5.43721,"is_reserved":false,"is_disabled":false,"rental_uris":{"android":"levelo://app?vid=9a888d6c-a9e5-421c-a96b-22efd430a366","ios":"levelo://app?vid=9a888d6c-a9e5-421c-a96b-22efd430a366"},"vehicle_type_id":"4","last_reported":1732399699,"current_range_meters":24800,"station_id":"ce4bhp92rcd13ifvqhcg","pricing_plan_id":"cebpf4jnsgd1na2vs0mg"},{"bike_id":"a2315c17-94ca-4cb8-8e2c-2556246dc10d","system_id":"levelo_inurba_marseille","lat":43.25108,"lon":5.40327,"is_reserved":false,"is_disabled":false,"rental_uris":{"android":"levelo://app?vid=a2315c17-94ca-4cb8-8e2c-2556246dc10d","ios":"levelo://app?vid=a2315c17-94ca-4cb8-8e2c-2556246dc10d"},"vehicle_type_id":"4","last_reported":1732399699,"current_range_meters":38800,"station_id":"ce4bhlh2rcd13ifvqgig","pricing_plan_id":"cebpf4jnsgd1na2vs0mg"},{"bike_id":"4ee4b32e-e389-48ed-b978-536d1a4a7ebb","system_id":"levelo_inurba_marseille","lat":43.29561,"lon":5.38117,"is_reserved":false,"is_disabled":false,"rental_uris":{"android":"levelo://app?vid=4ee4b32e-e389-48ed-b978-536d1a4a7ebb","ios":"levelo://app?vid=4ee4b32e-e389-48ed-b978-536d1a4a7ebb"},"vehicle_type_id":"4","last_reported":1732399699,"current_range_meters":16000,"station_id":"ce4bgl12rcd13ifvqbo0","pricing_plan_id":"cebpf4jnsgd1na2vs0mg"},{"bike_id":"30585094-ecfe-43ac-ae36-000c4a5ab426","system_id":"levelo_inurba_marseille","lat":43.3096,"lon":5.39013,"is_reserved":false,"is_disabled":true,"rental_uris":{"android":"levelo://app?vid=30585094-ecfe-43ac-ae36-000c4a5ab426","ios":"levelo://app?vid=30585094-ecfe-43ac-ae36-000c4a5ab426"},"vehicle_type_id":"4","last_reported":1732399699,"current_range_meters":24800,"station_id":"ce4bgup2rcd13ifvqco0","pricing_plan_id":"cebpf4jnsgd1na2vs0mg"},{"bike_id":"3a78593a-40aa-4086-b7b9-3340d6ffde3c","system_id":"levelo_inurba_marseille","lat":43.2511,"lon":5.40318,"is_reserved":false,"is_disabled":false,"rental_uris":{"android":"levelo://app?vid=3a78593a-40aa-4086-b7b9-3340d6ffde3c","ios":"levelo://app?vid=3a78593a-40aa-4086-b7b9-3340d6ffde3c"},"vehicle_type_id":"4","last_reported":1732399699,"current_range_meters":25600,"station_id":"ce4bhlh2rcd13ifvqgig","pricing_plan_id":"cebpf4jnsgd1na2vs0mg"},{"bike_id":"06222d69-c6a3-47fe-9912-0fe63b34371e","system_id":"levelo_inurba_marseille","lat":43.29897,"lon":5.43668,"is_reserved":false,"is_disabled":false,"rental_uris":{"android":"levelo://app?vid=06222d69-c6a3-47fe-9912-0fe63b34371e","ios":"levelo://app?vid=06222d69-c6a3-47fe-9912-0fe63b34371e"},"vehicle_type_id":"4","last_reported":1732399699,"current_range_meters":36800,"station_id":"ce4bhpp2rcd13ifvqhfg","pricing_plan_id":"cebpf4jnsgd1na2vs0mg"},{"bike_id":"7ed373fa-e29c-4ceb-b4cf-b4727f191d71","system_id":"levelo_inurba_marseille","lat":43.29422,"lon":5.38619,"is_reserved":false,"is_disabled":false,"rental_uris":{"android":"levelo://app?vid=7ed373fa-e29c-4ceb-b4cf-b4727f191d71","ios":"levelo://app?vid=7ed373fa-e29c-4ceb-b4cf-b4727f191d71"},"vehicle_type_id":"4","last_reported":1732399699,"current_range_meters":23200,"station_id":"ce4bh2h2rcd13ifvqdh0","pricing_plan_id":"cebpf4jnsgd1na2vs0mg"},{"bike_id":"db101b78-6ffb-4919-8b14-ec9dca35135b","system_id":"levelo_inurba_marseille","lat":43.33718,"lon":5.39182,"is_reserved":false,"is_disabled":false,"rental_uris":{"android":"levelo://app?vid=db101b78-6ffb-4919-8b14-ec9dca35135b","ios":"levelo://app?vid=db101b78-6ffb-4919-8b14-ec9dca35135b"},"vehicle_type_id":"4","last_reported":1732399699,"current_range_meters":14800,"station_id":"ce4bhr92rcd13ifvqhsg","pricing_plan_id":"cebpf4jnsgd1na2vs0mg"},{"bike_id":"ac463bf0-8c11-4776-b94c-e7684cfaff7e","system_id":"levelo_inurba_marseille","lat":43.28152,"lon":5.42649,"is_reserved":false,"is_disabled":false,"rental_uris":{"android":"levelo://app?vid=ac463bf0-8c11-4776-b94c-e7684cfaff7e","ios":"levelo://app?vid=ac463bf0-8c11-4776-b94c-e7684cfaff7e"},"vehicle_type_id":"4","last_reported":1732399699,"current_range_meters":33200,"station_id":"ce4bhnh2rcd13ifvqgug","pricing_plan_id":"cebpf4jnsgd1na2vs0mg"},{"bike_id":"981fae4e-bca5-4b39-b9a6-ad966f2fbbf0","system_id":"levelo_inurba_marseille","lat":43.28627,"lon":5.36175,"is_reserved":false,"is_disabled":false,"rental_uris":{"android":"levelo://app?vid=981fae4e-bca5-4b39-b9a6-ad966f2fbbf0","ios":"levelo://app?vid=981fae4e-bca5-4b39-b9a6-ad966f2fbbf0"},"vehicle_type_id":"4","last_reported":1732399699,"current_range_meters":25200,"station_id":"","pricing_plan_id":"cebpf4jnsgd1na2vs0mg"},{"bike_id":"8e92e885-b344-425a-b3c6-0acb2e1a7430","system_id":"levelo_inurba_marseille","lat":43.31759,"lon":5.39016,"is_reserved":false,"is_disabled":false,"rental_uris":{"android":"levelo://app?vid=8e92e885-b344-425a-b3c6-0acb2e1a7430","ios":"levelo://app?vid=8e92e885-b344-425a-b3c6-0acb2e1a7430"},"vehicle_type_id":"4","last_reported":1732399699,"current_range_meters":32800,"station_id":"ce4bhqp2rcd13ifvqhng","pricing_plan_id":"cebpf4jnsgd1na2vs0mg"},{"bike_id":"646d89f5-9c2a-4a1c-b2fd-c7d6c07fd5c5","system_id":"levelo_inurba_marseille","lat":43.29201,"lon":5.39338,"is_reserved":false,"is_disabled":false,"rental_uris":{"android":"levelo://app?vid=646d89f5-9c2a-4a1c-b2fd-c7d6c07fd5c5","ios":"levelo://app?vid=646d89f5-9c2a-4a1c-b2fd-c7d6c07fd5c5"},"vehicle_type_id":"4","last_reported":1732399699,"current_range_meters":22800,"station_id":"ce4bh192rcd13ifvqdd0","pricing_plan_id":"cebpf4jnsgd1na2vs0mg"},{"bike_id":"01acb60a-0c50-4cb6-8db2-e7d9bdfa87a0","system_id":"levelo_inurba_marseille","lat":43.29514,"lon":5.39413,"is_reserved":false,"is_disabled":false,"rental_uris":{"android":"levelo://app?vid=01acb60a-0c50-4cb6-8db2-e7d9bdfa87a0","ios":"levelo://app?vid=01acb60a-0c50-4cb6-8db2-e7d9bdfa87a0"},"vehicle_type_id":"4","last_reported":1732399699,"current_range_meters":17600,"station_id":"ce4bh292rcd13ifvqdf0","pricing_plan_id":"cebpf4jnsgd1na2vs0mg"},{"bike_id":"3223a477-abc2-4c5a-b88e-7081391997c8","system_id":"levelo_inurba_marseille","lat":43.29535,"lon":5.38545,"is_reserved":false,"is_disabled":false,"rental_uris":{"android":"levelo://app?vid=3223a477-abc2-4c5a-b88e-7081391997c8","ios":"levelo://app?vid=3223a477-abc2-4c5a-b88e-7081391997c8"},"vehicle_type_id":"4","last_reported":1732399699,"current_range_meters":38800,"station_id":"ce4bgih2rcd13ifvqba0","pricing_plan_id":"cebpf4jnsgd1na2vs0mg"},{"bike_id":"caeeb28a-2337-46ff-8cc1-38286fc7227b","system_id":"levelo_inurba_marseille","lat":43.25579,"lon":5.38234,"is_reserved":false,"is_disabled":false,"rental_uris":{"android":"levelo://app?vid=caeeb28a-2337-46ff-8cc1-38286fc7227b","ios":"levelo://app?vid=caeeb28a-2337-46ff-8cc1-38286fc7227b"},"vehicle_type_id":"4","last_reported":1732399699,"current_range_meters":15200,"station_id":"ce4bhih2rcd13ifvqfs0","pricing_plan_id":"cebpf4jnsgd1na2vs0mg"},{"bike_id":"6a2df70c-4e94-45ba-b67d-45bd465ca49d","system_id":"levelo_inurba_marseille","lat":43.29201,"lon":5.39332,"is_reserved":false,"is_disabled":true,"rental_uris":{"android":"levelo://app?vid=6a2df70c-4e94-45ba-b67d-45bd465ca49d","ios":"levelo://app?vid=6a2df70c-4e94-45ba-b67d-45bd465ca49d"},"vehicle_type_id":"4","last_reported":1732399699,"current_range_meters":33600,"station_id":"ce4bh192rcd13ifvqdd0","pricing_plan_id":"cebpf4jnsgd1na2vs0mg"},{"bike_id":"f0c9b009-6e7d-4316-96af-3036572d9258","system_id":"levelo_inurba_marseille","lat":43.29527,"lon":5.37503,"is_reserved":false,"is_disabled":true,"rental_uris":{"android":"levelo://app?vid=f0c9b009-6e7d-4316-96af-3036572d9258","ios":"levelo://app?vid=f0c9b009-6e7d-4316-96af-3036572d9258"},"vehicle_type_id":"4","last_reported":1732399699,"current_range_meters":33200,"station_id":"ce4bgkp2rcd13ifvqbmg","pricing_plan_id":"cebpf4jnsgd1na2vs0mg"},{"bike_id":"a33fd1d9-8998-41b0-9a29-7b1fde6c577a","system_id":"levelo_inurba_marseille","lat":43.26031,"lon":5.37544,"is_reserved":false,"is_disabled":false,"rental_uris":{"android":"levelo://app?vid=a33fd1d9-8998-41b0-9a29-7b1fde6c577a","ios":"levelo://app?vid=a33fd1d9-8998-41b0-9a29-7b1fde6c577a"},"vehicle_type_id":"4","last_reported":1732399699,"current_range_meters":20400,"station_id":"ce4bhgh2rcd13ifvqfa0","pricing_plan_id":"cebpf4jnsgd1na2vs0mg"},{"bike_id":"b2b158d0-8028-4675-9f9a-048f08fcfa95","system_id":"levelo_inurba_marseille","lat":43.27885,"lon":5.38057,"is_reserved":false,"is_disabled":false,"rental_uris":{"android":"levelo://app?vid=b2b158d0-8028-4675-9f9a-048f08fcfa95","ios":"levelo://app?vid=b2b158d0-8028-4675-9f9a-048f08fcfa95"},"vehicle_type_id":"4","last_reported":1732399699,"current_range_meters":38800,"station_id":"ce4bhf92rcd13ifvqf50","pricing_plan_id":"cebpf4jnsgd1na2vs0mg"},{"bike_id":"cba75631-9b69-42ba-8a82-1059adf0ef0e","system_id":"levelo_inurba_marseille","lat":43.27374,"lon":5.36271,"is_reserved":false,"is_disabled":true,"rental_uris":{"android":"levelo://app?vid=cba75631-9b69-42ba-8a82-1059adf0ef0e","ios":"levelo://app?vid=cba75631-9b69-42ba-8a82-1059adf0ef0e"},"vehicle_type_id":"4","last_reported":1732399699,"current_range_meters":1600,"station_id":"ce4bhbh2rcd13ifvqeo0","pricing_plan_id":"cebpf4jnsgd1na2vs0mg"},{"bike_id":"ff3594ee-f948-4832-9680-599cfdacc368","system_id":"levelo_inurba_marseille","lat":43.27185,"lon":5.40999,"is_reserved":false,"is_disabled":false,"rental_uris":{"android":"levelo://app?vid=ff3594ee-f948-4832-9680-599cfdacc368","ios":"levelo://app?vid=ff3594ee-f948-4832-9680-599cfdacc368"},"vehicle_type_id":"4","last_reported":1732399699,"current_range_meters":36400,"station_id":"ce4bhl12rcd13ifvqgf0","pricing_plan_id":"cebpf4jnsgd1na2vs0mg"},{"bike_id":"99b29f0a-fef9-49fe-8166-69785bf88e94","system_id":"levelo_inurba_marseille","lat":43.29002,"lon":5.35614,"is_reserved":false,"is_disabled":false,"rental_uris":{"android":"levelo://app?vid=99b29f0a-fef9-49fe-8166-69785bf88e94","ios":"levelo://app?vid=99b29f0a-fef9-49fe-8166-69785bf88e94"},"vehicle_type_id":"4","last_reported":1732399699,"current_range_meters":36800,"station_id":"ce4bhb92rcd13ifvqen0","pricing_plan_id":"cebpf4jnsgd1na2vs0mg"},{"bike_id":"6f9c3a2e-2bb8-48e6-aff8-4150e52b9f6f","system_id":"levelo_inurba_marseille","lat":43.26496,"lon":5.39548,"is_reserved":false,"is_disabled":false,"rental_uris":{"android":"levelo://app?vid=6f9c3a2e-2bb8-48e6-aff8-4150e52b9f6f","ios":"levelo://app?vid=6f9c3a2e-2bb8-48e6-aff8-4150e52b9f6f"},"vehicle_type_id":"4","last_reported":1732399699,"current_range_meters":22400,"station_id":"ce4bhi12rcd13ifvqfq0","pricing_plan_id":"cebpf4jnsgd1na2vs0mg"},{"bike_id":"1e126baa-22b4-4cf7-a05e-1c0611873009","system_id":"levelo_inurba_marseille","lat":43.311192,"lon":5.377708,"is_reserved":false,"is_disabled":false,"rental_uris":{"android":"levelo://app?vid=1e126baa-22b4-4cf7-a05e-1c0611873009","ios":"levelo://app?vid=1e126baa-22b4-4cf7-a05e-1c0611873009"},"vehicle_type_id":"4","last_reported":1732399699,"current_range_meters":6000,"station_id":"","pricing_plan_id":"cebpf4jnsgd1na2vs0mg"},{"bike_id":"856c5296-7fea-42cc-be09-a6b9a37c0b30","system_id":"levelo_inurba_marseille","lat":43.27372,"lon":5.36245,"is_reserved":false,"is_disabled":true,"rental_uris":{"android":"levelo://app?vid=856c5296-7fea-42cc-be09-a6b9a37c0b30","ios":"levelo://app?vid=856c5296-7fea-42cc-be09-a6b9a37c0b30"},"vehicle_type_id":"4","last_reported":1732399699,"current_range_meters":0,"station_id":"ce4bhbh2rcd13ifvqeo0","pricing_plan_id":"cebpf4jnsgd1na2vs0mg"},{"bike_id":"84a6ae2e-9a06-419c-8a92-0654bd62bb71","system_id":"levelo_inurba_marseille","lat":43.30895,"lon":5.37196,"is_reserved":false,"is_disabled":false,"rental_uris":{"android":"levelo://app?vid=84a6ae2e-9a06-419c-8a92-0654bd62bb71","ios":"levelo://app?vid=84a6ae2e-9a06-419c-8a92-0654bd62bb71"},"vehicle_type_id":"4","last_reported":1732399699,"current_range_meters":9600,"station_id":"ce4bguh2rcd13ifvqckg","pricing_plan_id":"cebpf4jnsgd1na2vs0mg"},{"bike_id":"5bc0f97a-98f6-4fe9-8151-adba4f938e50","system_id":"levelo_inurba_marseille","lat":43.25867,"lon":5.39901,"is_reserved":false,"is_disabled":false,"rental_uris":{"android":"levelo://app?vid=5bc0f97a-98f6-4fe9-8151-adba4f938e50","ios":"levelo://app?vid=5bc0f97a-98f6-4fe9-8151-adba4f938e50"},"vehicle_type_id":"4","last_reported":1732399699,"current_range_meters":24800,"station_id":"ce4bhl92rcd13ifvqghg","pricing_plan_id":"cebpf4jnsgd1na2vs0mg"},{"bike_id":"43435885-2ad8-4c53-8462-bc2782e66cae","system_id":"levelo_inurba_marseille","lat":43.29182,"lon":5.37155,"is_reserved":false,"is_disabled":false,"rental_uris":{"android":"levelo://app?vid=43435885-2ad8-4c53-8462-bc2782e66cae","ios":"levelo://app?vid=43435885-2ad8-4c53-8462-bc2782e66cae"},"vehicle_type_id":"4","last_reported":1732399699,"current_range_meters":22800,"station_id":"ce4bha92rcd13ifvqeh0","pricing_plan_id":"cebpf4jnsgd1na2vs0mg"},{"bike_id":"32e30b44-394f-439d-9e2a-000c52163030","system_id":"levelo_inurba_marseille","lat":43.24669,"lon":5.38155,"is_reserved":false,"is_disabled":false,"rental_uris":{"android":"levelo://app?vid=32e30b44-394f-439d-9e2a-000c52163030","ios":"levelo://app?vid=32e30b44-394f-439d-9e2a-000c52163030"},"vehicle_type_id":"4","last_reported":1732399699,"current_range_meters":6800,"station_id":"ce4bhih2rcd13ifvqfr0","pricing_plan_id":"cebpf4jnsgd1na2vs0mg"},{"bike_id":"d314178e-6331-4ec1-9c2c-488e031e9b13","system_id":"levelo_inurba_marseille","lat":43.30288,"lon":5.37705,"is_reserved":false,"is_disabled":false,"rental_uris":{"android":"levelo://app?vid=d314178e-6331-4ec1-9c2c-488e031e9b13","ios":"levelo://app?vid=d314178e-6331-4ec1-9c2c-488e031e9b13"},"vehicle_type_id":"4","last_reported":1732399699,"current_range_meters":38000,"station_id":"ce4bguh2rcd13ifvqcj0","pricing_plan_id":"cebpf4jnsgd1na2vs0mg"},{"bike_id":"9a122f92-8d1b-4a84-9637-aeed9243668f","system_id":"levelo_inurba_marseille","lat":43.28938,"lon":5.36633,"is_reserved":false,"is_disabled":true,"rental_uris":{"android":"levelo://app?vid=9a122f92-8d1b-4a84-9637-aeed9243668f","ios":"levelo://app?vid=9a122f92-8d1b-4a84-9637-aeed9243668f"},"vehicle_type_id":"4","last_reported":1732399699,"current_range_meters":0,"station_id":"ce4bhap2rcd13ifvqek0","pricing_plan_id":"cebpf4jnsgd1na2vs0mg"},{"bike_id":"348a8b25-fb35-4299-82a6-4d9b2cb9a2ec","system_id":"levelo_inurba_marseille","lat":43.2886,"lon":5.35862,"is_reserved":false,"is_disabled":false,"rental_uris":{"android":"levelo://app?vid=348a8b25-fb35-4299-82a6-4d9b2cb9a2ec","ios":"levelo://app?vid=348a8b25-fb35-4299-82a6-4d9b2cb9a2ec"},"vehicle_type_id":"4","last_reported":1732399699,"current_range_meters":35200,"station_id":"ce4bhb12rcd13ifvqem0","pricing_plan_id":"cebpf4jnsgd1na2vs0mg"},{"bike_id":"9b113f26-367d-4c59-a290-1382068c8d9d","system_id":"levelo_inurba_marseille","lat":43.27944,"lon":5.41048,"is_reserved":false,"is_disabled":false,"rental_uris":{"android":"levelo://app?vid=9b113f26-367d-4c59-a290-1382068c8d9d","ios":"levelo://app?vid=9b113f26-367d-4c59-a290-1382068c8d9d"},"vehicle_type_id":"4","last_reported":1732399699,"current_range_meters":31200,"station_id":"ce4bhnp2rcd13ifvqh0g","pricing_plan_id":"cebpf4jnsgd1na2vs0mg"},{"bike_id":"0bff4688-540e-4e2c-808d-c9347a358a4f","system_id":"levelo_inurba_marseille","lat":43.27671,"lon":5.38892,"is_reserved":false,"is_disabled":true,"rental_uris":{"android":"levelo://app?vid=0bff4688-540e-4e2c-808d-c9347a358a4f","ios":"levelo://app?vid=0bff4688-540e-4e2c-808d-c9347a358a4f"},"vehicle_type_id":"4","last_reported":1732399699,"current_range_meters":38800,"station_id":"ce4bhi12rcd13ifvqfo0","pricing_plan_id":"cebpf4jnsgd1na2vs0mg"},{"bike_id":"96aac422-b7f9-486b-abcb-e851d16c06ef","system_id":"levelo_inurba_marseille","lat":43.26955,"lon":5.40237,"is_reserved":false,"is_disabled":false,"rental_uris":{"android":"levelo://app?vid=96aac422-b7f9-486b-abcb-e851d16c06ef","ios":"levelo://app?vid=96aac422-b7f9-486b-abcb-e851d16c06ef"},"vehicle_type_id":"4","last_reported":1732399699,"current_range_meters":38000,"station_id":"cjm6bp8fraef2m0cb0m0","pricing_plan_id":"cebpf4jnsgd1na2vs0mg"},{"bike_id":"eabab5b3-5476-4134-9e67-6d97b417fabd","system_id":"levelo_inurba_marseille","lat":43.28732,"lon":5.3609,"is_reserved":false,"is_disabled":false,"rental_uris":{"android":"levelo://app?vid=eabab5b3-5476-4134-9e67-6d97b417fabd","ios":"levelo://app?vid=eabab5b3-5476-4134-9e67-6d97b417fabd"},"vehicle_type_id":"4","last_reported":1732399699,"current_range_meters":39200,"station_id":"cki0cbj6b192h4jlfktg","pricing_plan_id":"cebpf4jnsgd1na2vs0mg"},{"bike_id":"265bbdf7-e01c-44e4-b9ed-1c608d0a5012","system_id":"levelo_inurba_marseille","lat":43.3302,"lon":5.39038,"is_reserved":false,"is_disabled":false,"rental_uris":{"android":"levelo://app?vid=265bbdf7-e01c-44e4-b9ed-1c608d0a5012","ios":"levelo://app?vid=265bbdf7-e01c-44e4-b9ed-1c608d0a5012"},"vehicle_type_id":"4","last_reported":1732399699,"current_range_meters":37600,"station_id":"ce4bhr92rcd13ifvqhrg","pricing_plan_id":"cebpf4jnsgd1na2vs0mg"},{"bike_id":"26b10d51-0cea-4a62-ac3e-6bdb027cffd7","system_id":"levelo_inurba_marseille","lat":43.2953,"lon":5.38546,"is_reserved":false,"is_disabled":false,"rental_uris":{"android":"levelo://app?vid=26b10d51-0cea-4a62-ac3e-6bdb027cffd7","ios":"levelo://app?vid=26b10d51-0cea-4a62-ac3e-6bdb027cffd7"},"vehicle_type_id":"4","last_reported":1732399699,"current_range_meters":13600,"station_id":"ce4bgih2rcd13ifvqba0","pricing_plan_id":"cebpf4jnsgd1na2vs0mg"},{"bike_id":"bc1d4763-2357-48f0-91d1-3eec3f47cc06","system_id":"levelo_inurba_marseille","lat":43.30896,"lon":5.37209,"is_reserved":false,"is_disabled":false,"rental_uris":{"android":"levelo://app?vid=bc1d4763-2357-48f0-91d1-3eec3f47cc06","ios":"levelo://app?vid=bc1d4763-2357-48f0-91d1-3eec3f47cc06"},"vehicle_type_id":"4","last_reported":1732399699,"current_range_meters":20800,"station_id":"ce4bguh2rcd13ifvqckg","pricing_plan_id":"cebpf4jnsgd1na2vs0mg"},{"bike_id":"ae84f45e-8143-4d00-922d-ca339f53ee16","system_id":"levelo_inurba_marseille","lat":43.29562,"lon":5.37531,"is_reserved":false,"is_disabled":false,"rental_uris":{"android":"levelo://app?vid=ae84f45e-8143-4d00-922d-ca339f53ee16","ios":"levelo://app?vid=ae84f45e-8143-4d00-922d-ca339f53ee16"},"vehicle_type_id":"4","last_reported":1732399699,"current_range_meters":8000,"station_id":"ce4bgh92rcd13ifvqb50","pricing_plan_id":"cebpf4jnsgd1na2vs0mg"},{"bike_id":"0551ee56-2776-4129-89b2-39213477ba2f","system_id":"levelo_inurba_marseille","lat":43.29533,"lon":5.38538,"is_reserved":false,"is_disabled":false,"rental_uris":{"android":"levelo://app?vid=0551ee56-2776-4129-89b2-39213477ba2f","ios":"levelo://app?vid=0551ee56-2776-4129-89b2-39213477ba2f"},"vehicle_type_id":"4","last_reported":1732399699,"current_range_meters":12000,"station_id":"ce4bgih2rcd13ifvqba0","pricing_plan_id":"cebpf4jnsgd1na2vs0mg"},{"bike_id":"9bc0a9dc-7bf5-4175-a6c2-4bfaf2140fcf","system_id":"levelo_inurba_marseille","lat":43.250688,"lon":5.389305,"is_reserved":false,"is_disabled":false,"rental_uris":{"android":"levelo://app?vid=9bc0a9dc-7bf5-4175-a6c2-4bfaf2140fcf","ios":"levelo://app?vid=9bc0a9dc-7bf5-4175-a6c2-4bfaf2140fcf"},"vehicle_type_id":"4","last_reported":1732399699,"current_range_meters":22800,"station_id":"ce4bhgp2rcd13ifvqfd0","pricing_plan_id":"cebpf4jnsgd1na2vs0mg"},{"bike_id":"1ef97de2-8d38-41c7-aa3f-0fa33ad5337d","system_id":"levelo_inurba_marseille","lat":43.29419,"lon":5.38621,"is_reserved":false,"is_disabled":false,"rental_uris":{"android":"levelo://app?vid=1ef97de2-8d38-41c7-aa3f-0fa33ad5337d","ios":"levelo://app?vid=1ef97de2-8d38-41c7-aa3f-0fa33ad5337d"},"vehicle_type_id":"4","last_reported":1732399699,"current_range_meters":28000,"station_id":"ce4bh2h2rcd13ifvqdh0","pricing_plan_id":"cebpf4jnsgd1na2vs0mg"},{"bike_id":"42fb3e5a-16a8-4c5d-8dcb-16d9465f916c","system_id":"levelo_inurba_marseille","lat":43.23963,"lon":5.36627,"is_reserved":false,"is_disabled":false,"rental_uris":{"android":"levelo://app?vid=42fb3e5a-16a8-4c5d-8dcb-16d9465f916c","ios":"levelo://app?vid=42fb3e5a-16a8-4c5d-8dcb-16d9465f916c"},"vehicle_type_id":"4","last_reported":1732399699,"current_range_meters":18000,"station_id":"ce4bhi12rcd13ifvqfp0","pricing_plan_id":"cebpf4jnsgd1na2vs0mg"},{"bike_id":"4614c3ce-fa32-4b49-800d-cf02516d6ab9","system_id":"levelo_inurba_marseille","lat":43.32381,"lon":5.3897,"is_reserved":false,"is_disabled":false,"rental_uris":{"android":"levelo://app?vid=4614c3ce-fa32-4b49-800d-cf02516d6ab9","ios":"levelo://app?vid=4614c3ce-fa32-4b49-800d-cf02516d6ab9"},"vehicle_type_id":"4","last_reported":1732399699,"current_range_meters":22400,"station_id":"","pricing_plan_id":"cebpf4jnsgd1na2vs0mg"},{"bike_id":"72488d89-84d6-4d48-85a6-5400e601b1cd","system_id":"levelo_inurba_marseille","lat":43.24667,"lon":5.38161,"is_reserved":false,"is_disabled":false,"rental_uris":{"android":"levelo://app?vid=72488d89-84d6-4d48-85a6-5400e601b1cd","ios":"levelo://app?vid=72488d89-84d6-4d48-85a6-5400e601b1cd"},"vehicle_type_id":"4","last_reported":1732399699,"current_range_meters":25200,"station_id":"ce4bhih2rcd13ifvqfr0","pricing_plan_id":"cebpf4jnsgd1na2vs0mg"},{"bike_id":"5e0800be-1e09-4676-a603-b8912b1c8901","system_id":"levelo_inurba_marseille","lat":43.32659,"lon":5.40988,"is_reserved":false,"is_disabled":false,"rental_uris":{"android":"levelo://app?vid=5e0800be-1e09-4676-a603-b8912b1c8901","ios":"levelo://app?vid=5e0800be-1e09-4676-a603-b8912b1c8901"},"vehicle_type_id":"4","last_reported":1732399699,"current_range_meters":37600,"station_id":"ce4bhpp2rcd13ifvqhgg","pricing_plan_id":"cebpf4jnsgd1na2vs0mg"},{"bike_id":"fd0e3340-543f-4c8a-8c34-222130852a29","system_id":"levelo_inurba_marseille","lat":43.27976,"lon":5.38737,"is_reserved":false,"is_disabled":true,"rental_uris":{"android":"levelo://app?vid=fd0e3340-543f-4c8a-8c34-222130852a29","ios":"levelo://app?vid=fd0e3340-543f-4c8a-8c34-222130852a29"},"vehicle_type_id":"4","last_reported":1732399699,"current_range_meters":19600,"station_id":"ce4bhg12rcd13ifvqf80","pricing_plan_id":"cebpf4jnsgd1na2vs0mg"},{"bike_id":"5dbe99c4-7052-47fb-badb-ebebdaedef38","system_id":"levelo_inurba_marseille","lat":43.28944,"lon":5.39624,"is_reserved":false,"is_disabled":false,"rental_uris":{"android":"levelo://app?vid=5dbe99c4-7052-47fb-badb-ebebdaedef38","ios":"levelo://app?vid=5dbe99c4-7052-47fb-badb-ebebdaedef38"},"vehicle_type_id":"4","last_reported":1732399699,"current_range_meters":28800,"station_id":"ce4bh3h2rcd13ifvqdn0","pricing_plan_id":"cebpf4jnsgd1na2vs0mg"},{"bike_id":"56550aa3-0b57-418c-9bf7-752295dde2cf","system_id":"levelo_inurba_marseille","lat":43.27496,"lon":5.42448,"is_reserved":false,"is_disabled":false,"rental_uris":{"android":"levelo://app?vid=56550aa3-0b57-418c-9bf7-752295dde2cf","ios":"levelo://app?vid=56550aa3-0b57-418c-9bf7-752295dde2cf"},"vehicle_type_id":"4","last_reported":1732399699,"current_range_meters":12000,"station_id":"ce4bhn92rcd13ifvqgrg","pricing_plan_id":"cebpf4jnsgd1na2vs0mg"},{"bike_id":"72f54e92-b856-4cf6-a3e8-00d89ed17e68","system_id":"levelo_inurba_marseille","lat":43.24074,"lon":5.37754,"is_reserved":false,"is_disabled":false,"rental_uris":{"android":"levelo://app?vid=72f54e92-b856-4cf6-a3e8-00d89ed17e68","ios":"levelo://app?vid=72f54e92-b856-4cf6-a3e8-00d89ed17e68"},"vehicle_type_id":"4","last_reported":1732399699,"current_range_meters":27200,"station_id":"ce4bhnp2rcd13ifvqgvg","pricing_plan_id":"cebpf4jnsgd1na2vs0mg"},{"bike_id":"82c6f485-2283-44c2-9c38-035cfeac7e21","system_id":"levelo_inurba_marseille","lat":43.29044,"lon":5.37566,"is_reserved":false,"is_disabled":false,"rental_uris":{"android":"levelo://app?vid=82c6f485-2283-44c2-9c38-035cfeac7e21","ios":"levelo://app?vid=82c6f485-2283-44c2-9c38-035cfeac7e21"},"vehicle_type_id":"4","last_reported":1732399699,"current_range_meters":28000,"station_id":"ce4bh692rcd13ifvqe90","pricing_plan_id":"cebpf4jnsgd1na2vs0mg"},{"bike_id":"1f6bdb64-1ad9-43dc-9317-33a84f3d58d9","system_id":"levelo_inurba_marseille","lat":43.28853,"lon":5.39319,"is_reserved":false,"is_disabled":false,"rental_uris":{"android":"levelo://app?vid=1f6bdb64-1ad9-43dc-9317-33a84f3d58d9","ios":"levelo://app?vid=1f6bdb64-1ad9-43dc-9317-33a84f3d58d9"},"vehicle_type_id":"4","last_reported":1732399699,"current_range_meters":38800,"station_id":"ce4bh2p2rcd13ifvqdi0","pricing_plan_id":"cebpf4jnsgd1na2vs0mg"},{"bike_id":"600b3470-1dde-43ce-962b-7a6284b20990","system_id":"levelo_inurba_marseille","lat":43.23189,"lon":5.35569,"is_reserved":false,"is_disabled":true,"rental_uris":{"android":"levelo://app?vid=600b3470-1dde-43ce-962b-7a6284b20990","ios":"levelo://app?vid=600b3470-1dde-43ce-962b-7a6284b20990"},"vehicle_type_id":"4","last_reported":1732399699,"current_range_meters":29600,"station_id":"ce4bhu92rcd13ifvqi70","pricing_plan_id":"cebpf4jnsgd1na2vs0mg"},{"bike_id":"b76a3918-0675-4a9c-9d86-33ad24747c6b","system_id":"levelo_inurba_marseille","lat":43.26945,"lon":5.40248,"is_reserved":false,"is_disabled":false,"rental_uris":{"android":"levelo://app?vid=b76a3918-0675-4a9c-9d86-33ad24747c6b","ios":"levelo://app?vid=b76a3918-0675-4a9c-9d86-33ad24747c6b"},"vehicle_type_id":"4","last_reported":1732399699,"current_range_meters":33600,"station_id":"cjm6bp8fraef2m0cb0m0","pricing_plan_id":"cebpf4jnsgd1na2vs0mg"},{"bike_id":"ae47bb9a-c366-40c4-bdb5-a76a05320251","system_id":"levelo_inurba_marseille","lat":43.2756,"lon":5.38437,"is_reserved":false,"is_disabled":false,"rental_uris":{"android":"levelo://app?vid=ae47bb9a-c366-40c4-bdb5-a76a05320251","ios":"levelo://app?vid=ae47bb9a-c366-40c4-bdb5-a76a05320251"},"vehicle_type_id":"4","last_reported":1732399699,"current_range_meters":34800,"station_id":"ce4bhh92rcd13ifvqfi0","pricing_plan_id":"cebpf4jnsgd1na2vs0mg"},{"bike_id":"9cd4a41e-9267-4c1b-94dc-126dd78de022","system_id":"levelo_inurba_marseille","lat":43.30926,"lon":5.3738,"is_reserved":false,"is_disabled":false,"rental_uris":{"android":"levelo://app?vid=9cd4a41e-9267-4c1b-94dc-126dd78de022","ios":"levelo://app?vid=9cd4a41e-9267-4c1b-94dc-126dd78de022"},"vehicle_type_id":"4","last_reported":1732399699,"current_range_meters":14000,"station_id":"","pricing_plan_id":"cebpf4jnsgd1na2vs0mg"},{"bike_id":"6f148f96-5001-4751-9146-64d27a6f5f1c","system_id":"levelo_inurba_marseille","lat":43.30799,"lon":5.43531,"is_reserved":false,"is_disabled":false,"rental_uris":{"android":"levelo://app?vid=6f148f96-5001-4751-9146-64d27a6f5f1c","ios":"levelo://app?vid=6f148f96-5001-4751-9146-64d27a6f5f1c"},"vehicle_type_id":"4","last_reported":1732399699,"current_range_meters":28400,"station_id":"ce4bhph2rcd13ifvqheg","pricing_plan_id":"cebpf4jnsgd1na2vs0mg"},{"bike_id":"6a1acbf6-031e-4a4d-abb5-26be15498067","system_id":"levelo_inurba_marseille","lat":43.29419,"lon":5.3861,"is_reserved":false,"is_disabled":false,"rental_uris":{"android":"levelo://app?vid=6a1acbf6-031e-4a4d-abb5-26be15498067","ios":"levelo://app?vid=6a1acbf6-031e-4a4d-abb5-26be15498067"},"vehicle_type_id":"4","last_reported":1732399699,"current_range_meters":34800,"station_id":"ce4bh2h2rcd13ifvqdh0","pricing_plan_id":"cebpf4jnsgd1na2vs0mg"},{"bike_id":"321c4990-1a5c-40aa-b723-3f50a5b5fefa","system_id":"levelo_inurba_marseille","lat":43.27621,"lon":5.36123,"is_reserved":false,"is_disabled":false,"rental_uris":{"android":"levelo://app?vid=321c4990-1a5c-40aa-b723-3f50a5b5fefa","ios":"levelo://app?vid=321c4990-1a5c-40aa-b723-3f50a5b5fefa"},"vehicle_type_id":"4","last_reported":1732399699,"current_range_meters":38800,"station_id":"ce4bgj92rcd13ifvqbe0","pricing_plan_id":"cebpf4jnsgd1na2vs0mg"},{"bike_id":"7b58964c-b399-429d-a118-117cdccaf393","system_id":"levelo_inurba_marseille","lat":43.27947,"lon":5.41049,"is_reserved":false,"is_disabled":false,"rental_uris":{"android":"levelo://app?vid=7b58964c-b399-429d-a118-117cdccaf393","ios":"levelo://app?vid=7b58964c-b399-429d-a118-117cdccaf393"},"vehicle_type_id":"4","last_reported":1732399699,"current_range_meters":19200,"station_id":"ce4bhnp2rcd13ifvqh0g","pricing_plan_id":"cebpf4jnsgd1na2vs0mg"},{"bike_id":"2ecac775-2361-4e0f-a979-53d0b2dcf7f8","system_id":"levelo_inurba_marseille","lat":43.31353,"lon":5.36714,"is_reserved":false,"is_disabled":false,"rental_uris":{"android":"levelo://app?vid=2ecac775-2361-4e0f-a979-53d0b2dcf7f8","ios":"levelo://app?vid=2ecac775-2361-4e0f-a979-53d0b2dcf7f8"},"vehicle_type_id":"4","last_reported":1732399699,"current_range_meters":37600,"station_id":"ce4bgr92rcd13ifvqc6g","pricing_plan_id":"cebpf4jnsgd1na2vs0mg"},{"bike_id":"59fe249a-f2d4-4476-836c-e1be366d8f7e","system_id":"levelo_inurba_marseille","lat":43.30216,"lon":5.3947,"is_reserved":false,"is_disabled":false,"rental_uris":{"android":"levelo://app?vid=59fe249a-f2d4-4476-836c-e1be366d8f7e","ios":"levelo://app?vid=59fe249a-f2d4-4476-836c-e1be366d8f7e"},"vehicle_type_id":"4","last_reported":1732399699,"current_range_meters":18000,"station_id":"ce4bh0p2rcd13ifvqd70","pricing_plan_id":"cebpf4jnsgd1na2vs0mg"},{"bike_id":"ad0c66d3-f0d2-4242-a462-85df025092da","system_id":"levelo_inurba_marseille","lat":43.2694,"lon":5.4025,"is_reserved":false,"is_disabled":false,"rental_uris":{"android":"levelo://app?vid=ad0c66d3-f0d2-4242-a462-85df025092da","ios":"levelo://app?vid=ad0c66d3-f0d2-4242-a462-85df025092da"},"vehicle_type_id":"4","last_reported":1732399699,"current_range_meters":16400,"station_id":"cjm6bp8fraef2m0cb0m0","pricing_plan_id":"cebpf4jnsgd1na2vs0mg"},{"bike_id":"734ff0c4-f245-4197-8036-be5e222d76fd","system_id":"levelo_inurba_marseille","lat":43.29002,"lon":5.42593,"is_reserved":false,"is_disabled":true,"rental_uris":{"android":"levelo://app?vid=734ff0c4-f245-4197-8036-be5e222d76fd","ios":"levelo://app?vid=734ff0c4-f245-4197-8036-be5e222d76fd"},"vehicle_type_id":"4","last_reported":1732399699,"current_range_meters":0,"station_id":"","pricing_plan_id":"cebpf4jnsgd1na2vs0mg"},{"bike_id":"6f1bad86-79c1-4a35-b9a0-2dd1f4f26150","system_id":"levelo_inurba_marseille","lat":43.29964,"lon":5.38496,"is_reserved":false,"is_disabled":true,"rental_uris":{"android":"levelo://app?vid=6f1bad86-79c1-4a35-b9a0-2dd1f4f26150","ios":"levelo://app?vid=6f1bad86-79c1-4a35-b9a0-2dd1f4f26150"},"vehicle_type_id":"4","last_reported":1732399699,"current_range_meters":32000,"station_id":"ce4bgj92rcd13ifvqbd0","pricing_plan_id":"cebpf4jnsgd1na2vs0mg"},{"bike_id":"6ac7e056-91eb-4652-8376-2a2bc9bfc434","system_id":"levelo_inurba_marseille","lat":43.28037,"lon":5.36949,"is_reserved":false,"is_disabled":false,"rental_uris":{"android":"levelo://app?vid=6ac7e056-91eb-4652-8376-2a2bc9bfc434","ios":"levelo://app?vid=6ac7e056-91eb-4652-8376-2a2bc9bfc434"},"vehicle_type_id":"4","last_reported":1732399699,"current_range_meters":16800,"station_id":"ce4bha12rcd13ifvqef0","pricing_plan_id":"cebpf4jnsgd1na2vs0mg"},{"bike_id":"850cdec5-28ab-44ef-bf8f-b8f336a8504e","system_id":"levelo_inurba_marseille","lat":43.296,"lon":5.38103,"is_reserved":false,"is_disabled":false,"rental_uris":{"android":"levelo://app?vid=850cdec5-28ab-44ef-bf8f-b8f336a8504e","ios":"levelo://app?vid=850cdec5-28ab-44ef-bf8f-b8f336a8504e"},"vehicle_type_id":"4","last_reported":1732399699,"current_range_meters":32000,"station_id":"ce4bgl12rcd13ifvqbo0","pricing_plan_id":"cebpf4jnsgd1na2vs0mg"},{"bike_id":"11980602-9466-4247-a5b8-e3e79fa3bf33","system_id":"levelo_inurba_marseille","lat":43.26033,"lon":5.37553,"is_reserved":false,"is_disabled":false,"rental_uris":{"android":"levelo://app?vid=11980602-9466-4247-a5b8-e3e79fa3bf33","ios":"levelo://app?vid=11980602-9466-4247-a5b8-e3e79fa3bf33"},"vehicle_type_id":"4","last_reported":1732399699,"current_range_meters":8000,"station_id":"ce4bhgh2rcd13ifvqfa0","pricing_plan_id":"cebpf4jnsgd1na2vs0mg"},{"bike_id":"557327f2-7e38-4545-8344-c28466d413d4","system_id":"levelo_inurba_marseille","lat":43.31358,"lon":5.38485,"is_reserved":false,"is_disabled":false,"rental_uris":{"android":"levelo://app?vid=557327f2-7e38-4545-8344-c28466d413d4","ios":"levelo://app?vid=557327f2-7e38-4545-8344-c28466d413d4"},"vehicle_type_id":"4","last_reported":1732399699,"current_range_meters":22000,"station_id":"ce4bgt92rcd13ifvqcf0","pricing_plan_id":"cebpf4jnsgd1na2vs0mg"},{"bike_id":"b5fd64d4-e945-4ab0-86b7-b18f9defb52b","system_id":"levelo_inurba_marseille","lat":43.29017,"lon":5.3863,"is_reserved":false,"is_disabled":false,"rental_uris":{"android":"levelo://app?vid=b5fd64d4-e945-4ab0-86b7-b18f9defb52b","ios":"levelo://app?vid=b5fd64d4-e945-4ab0-86b7-b18f9defb52b"},"vehicle_type_id":"4","last_reported":1732399699,"current_range_meters":36800,"station_id":"ce4bh4p2rcd13ifvqe0g","pricing_plan_id":"cebpf4jnsgd1na2vs0mg"},{"bike_id":"294eeb79-af1b-495a-909f-216801ae6b41","system_id":"levelo_inurba_marseille","lat":43.337444,"lon":5.374475,"is_reserved":false,"is_disabled":true,"rental_uris":{"android":"levelo://app?vid=294eeb79-af1b-495a-909f-216801ae6b41","ios":"levelo://app?vid=294eeb79-af1b-495a-909f-216801ae6b41"},"vehicle_type_id":"4","last_reported":1732399699,"current_range_meters":0,"station_id":"","pricing_plan_id":"cebpf4jnsgd1na2vs0mg"},{"bike_id":"e5d63661-ea2d-4e9d-bdce-dbbf19d65c3c","system_id":"levelo_inurba_marseille","lat":43.32365,"lon":5.36761,"is_reserved":false,"is_disabled":false,"rental_uris":{"android":"levelo://app?vid=e5d63661-ea2d-4e9d-bdce-dbbf19d65c3c","ios":"levelo://app?vid=e5d63661-ea2d-4e9d-bdce-dbbf19d65c3c"},"vehicle_type_id":"4","last_reported":1732399699,"current_range_meters":37600,"station_id":"ce4bhsh2rcd13ifvqi2g","pricing_plan_id":"cebpf4jnsgd1na2vs0mg"},{"bike_id":"85c835c3-8578-4aaa-9ea3-c17603d2afdb","system_id":"levelo_inurba_marseille","lat":43.29548,"lon":5.42284,"is_reserved":false,"is_disabled":false,"rental_uris":{"android":"levelo://app?vid=85c835c3-8578-4aaa-9ea3-c17603d2afdb","ios":"levelo://app?vid=85c835c3-8578-4aaa-9ea3-c17603d2afdb"},"vehicle_type_id":"4","last_reported":1732399699,"current_range_meters":38800,"station_id":"ce4bhph2rcd13ifvqhdg","pricing_plan_id":"cebpf4jnsgd1na2vs0mg"},{"bike_id":"677c7322-f017-41b4-b2b4-6107ebd39bbc","system_id":"levelo_inurba_marseille","lat":43.3266,"lon":5.40989,"is_reserved":false,"is_disabled":false,"rental_uris":{"android":"levelo://app?vid=677c7322-f017-41b4-b2b4-6107ebd39bbc","ios":"levelo://app?vid=677c7322-f017-41b4-b2b4-6107ebd39bbc"},"vehicle_type_id":"4","last_reported":1732399699,"current_range_meters":38000,"station_id":"ce4bhpp2rcd13ifvqhgg","pricing_plan_id":"cebpf4jnsgd1na2vs0mg"},{"bike_id":"3dec6d96-dd33-4729-9a95-5cab96092156","system_id":"levelo_inurba_marseille","lat":43.29262,"lon":5.38443,"is_reserved":false,"is_disabled":false,"rental_uris":{"android":"levelo://app?vid=3dec6d96-dd33-4729-9a95-5cab96092156","ios":"levelo://app?vid=3dec6d96-dd33-4729-9a95-5cab96092156"},"vehicle_type_id":"4","last_reported":1732399699,"current_range_meters":38800,"station_id":"ce4bh692rcd13ifvqea0","pricing_plan_id":"cebpf4jnsgd1na2vs0mg"},{"bike_id":"98a1dbe4-70e4-4876-99e1-ad1e6496d7ad","system_id":"levelo_inurba_marseille","lat":43.29049,"lon":5.39937,"is_reserved":false,"is_disabled":false,"rental_uris":{"android":"levelo://app?vid=98a1dbe4-70e4-4876-99e1-ad1e6496d7ad","ios":"levelo://app?vid=98a1dbe4-70e4-4876-99e1-ad1e6496d7ad"},"vehicle_type_id":"4","last_reported":1732399699,"current_range_meters":38400,"station_id":"ce4bh392rcd13ifvqdm0","pricing_plan_id":"cebpf4jnsgd1na2vs0mg"},{"bike_id":"18f6979e-cf65-4632-b209-076e21eafc22","system_id":"levelo_inurba_marseille","lat":43.25579,"lon":5.38226,"is_reserved":false,"is_disabled":false,"rental_uris":{"android":"levelo://app?vid=18f6979e-cf65-4632-b209-076e21eafc22","ios":"levelo://app?vid=18f6979e-cf65-4632-b209-076e21eafc22"},"vehicle_type_id":"4","last_reported":1732399699,"current_range_meters":38800,"station_id":"ce4bhih2rcd13ifvqfs0","pricing_plan_id":"cebpf4jnsgd1na2vs0mg"},{"bike_id":"777b7fed-d395-4c97-b504-dee7c3479d4f","system_id":"levelo_inurba_marseille","lat":43.29836,"lon":5.3785,"is_reserved":false,"is_disabled":true,"rental_uris":{"android":"levelo://app?vid=777b7fed-d395-4c97-b504-dee7c3479d4f","ios":"levelo://app?vid=777b7fed-d395-4c97-b504-dee7c3479d4f"},"vehicle_type_id":"4","last_reported":1732399699,"current_range_meters":0,"station_id":"","pricing_plan_id":"cebpf4jnsgd1na2vs0mg"},{"bike_id":"cd78312a-142a-42d0-92e1-dbc654bf8bb4","system_id":"levelo_inurba_marseille","lat":43.24183,"lon":5.39714,"is_reserved":false,"is_disabled":true,"rental_uris":{"android":"levelo://app?vid=cd78312a-142a-42d0-92e1-dbc654bf8bb4","ios":"levelo://app?vid=cd78312a-142a-42d0-92e1-dbc654bf8bb4"},"vehicle_type_id":"4","last_reported":1732399699,"current_range_meters":12000,"station_id":"ce4bhn12rcd13ifvqgpg","pricing_plan_id":"cebpf4jnsgd1na2vs0mg"},{"bike_id":"6c316017-cf26-4996-9ade-369def8e0ff9","system_id":"levelo_inurba_marseille","lat":43.30438,"lon":5.38892,"is_reserved":false,"is_disabled":false,"rental_uris":{"android":"levelo://app?vid=6c316017-cf26-4996-9ade-369def8e0ff9","ios":"levelo://app?vid=6c316017-cf26-4996-9ade-369def8e0ff9"},"vehicle_type_id":"4","last_reported":1732399699,"current_range_meters":12000,"station_id":"ce4bgk12rcd13ifvqbi0","pricing_plan_id":"cebpf4jnsgd1na2vs0mg"},{"bike_id":"9aae28c1-a0ce-475b-b3bb-81257612b070","system_id":"levelo_inurba_marseille","lat":43.30102,"lon":5.39082,"is_reserved":false,"is_disabled":false,"rental_uris":{"android":"levelo://app?vid=9aae28c1-a0ce-475b-b3bb-81257612b070","ios":"levelo://app?vid=9aae28c1-a0ce-475b-b3bb-81257612b070"},"vehicle_type_id":"4","last_reported":1732399699,"current_range_meters":36000,"station_id":"ce4bh192rcd13ifvqdb0","pricing_plan_id":"cebpf4jnsgd1na2vs0mg"},{"bike_id":"db676a26-5b91-48b6-8053-43d1140b6aeb","system_id":"levelo_inurba_marseille","lat":43.28428,"lon":5.39171,"is_reserved":false,"is_disabled":false,"rental_uris":{"android":"levelo://app?vid=db676a26-5b91-48b6-8053-43d1140b6aeb","ios":"levelo://app?vid=db676a26-5b91-48b6-8053-43d1140b6aeb"},"vehicle_type_id":"4","last_reported":1732399699,"current_range_meters":37600,"station_id":"ce4bhoh2rcd13ifvqh5g","pricing_plan_id":"cebpf4jnsgd1na2vs0mg"},{"bike_id":"a093ad12-b6bc-47f6-9819-08d3a7e62582","system_id":"levelo_inurba_marseille","lat":43.27376,"lon":5.3626,"is_reserved":false,"is_disabled":false,"rental_uris":{"android":"levelo://app?vid=a093ad12-b6bc-47f6-9819-08d3a7e62582","ios":"levelo://app?vid=a093ad12-b6bc-47f6-9819-08d3a7e62582"},"vehicle_type_id":"4","last_reported":1732399699,"current_range_meters":39200,"station_id":"ce4bhbh2rcd13ifvqeo0","pricing_plan_id":"cebpf4jnsgd1na2vs0mg"},{"bike_id":"43f6da94-5cf1-446e-9b8d-b4c4e86bf027","system_id":"levelo_inurba_marseille","lat":43.26188,"lon":5.37454,"is_reserved":false,"is_disabled":true,"rental_uris":{"android":"levelo://app?vid=43f6da94-5cf1-446e-9b8d-b4c4e86bf027","ios":"levelo://app?vid=43f6da94-5cf1-446e-9b8d-b4c4e86bf027"},"vehicle_type_id":"4","last_reported":1732399699,"current_range_meters":10000,"station_id":"ce4bhgp2rcd13ifvqfc0","pricing_plan_id":"cebpf4jnsgd1na2vs0mg"},{"bike_id":"dd5ab154-647e-4dfa-88f1-0f781c7552f5","system_id":"levelo_inurba_marseille","lat":43.25582,"lon":5.38236,"is_reserved":false,"is_disabled":false,"rental_uris":{"android":"levelo://app?vid=dd5ab154-647e-4dfa-88f1-0f781c7552f5","ios":"levelo://app?vid=dd5ab154-647e-4dfa-88f1-0f781c7552f5"},"vehicle_type_id":"4","last_reported":1732399699,"current_range_meters":28400,"station_id":"ce4bhih2rcd13ifvqfs0","pricing_plan_id":"cebpf4jnsgd1na2vs0mg"},{"bike_id":"2d586d9b-7538-4419-8a5f-4930f8195b8a","system_id":"levelo_inurba_marseille","lat":43.30425,"lon":5.39756,"is_reserved":false,"is_disabled":false,"rental_uris":{"android":"levelo://app?vid=2d586d9b-7538-4419-8a5f-4930f8195b8a","ios":"levelo://app?vid=2d586d9b-7538-4419-8a5f-4930f8195b8a"},"vehicle_type_id":"4","last_reported":1732399699,"current_range_meters":35600,"station_id":"ce4bh092rcd13ifvqd20","pricing_plan_id":"cebpf4jnsgd1na2vs0mg"},{"bike_id":"994195f6-b5da-4158-a5b5-8b38baad32b0","system_id":"levelo_inurba_marseille","lat":43.33728,"lon":5.39196,"is_reserved":false,"is_disabled":false,"rental_uris":{"android":"levelo://app?vid=994195f6-b5da-4158-a5b5-8b38baad32b0","ios":"levelo://app?vid=994195f6-b5da-4158-a5b5-8b38baad32b0"},"vehicle_type_id":"4","last_reported":1732399699,"current_range_meters":30400,"station_id":"ce4bhr92rcd13ifvqhsg","pricing_plan_id":"cebpf4jnsgd1na2vs0mg"},{"bike_id":"7c2f19f3-5373-4c2a-87bb-e1fd3ef39822","system_id":"levelo_inurba_marseille","lat":43.26566,"lon":5.39009,"is_reserved":false,"is_disabled":true,"rental_uris":{"android":"levelo://app?vid=7c2f19f3-5373-4c2a-87bb-e1fd3ef39822","ios":"levelo://app?vid=7c2f19f3-5373-4c2a-87bb-e1fd3ef39822"},"vehicle_type_id":"4","last_reported":1732399699,"current_range_meters":23200,"station_id":"ce4bhe12rcd13ifvqf30","pricing_plan_id":"cebpf4jnsgd1na2vs0mg"},{"bike_id":"36ef9a42-f4d8-45f5-adc2-b51fb9b962d0","system_id":"levelo_inurba_marseille","lat":43.34143,"lon":5.40898,"is_reserved":false,"is_disabled":false,"rental_uris":{"android":"levelo://app?vid=36ef9a42-f4d8-45f5-adc2-b51fb9b962d0","ios":"levelo://app?vid=36ef9a42-f4d8-45f5-adc2-b51fb9b962d0"},"vehicle_type_id":"4","last_reported":1732399699,"current_range_meters":38800,"station_id":"ce4bhqh2rcd13ifvqhlg","pricing_plan_id":"cebpf4jnsgd1na2vs0mg"},{"bike_id":"62821c01-689d-4275-80de-724784eacdf5","system_id":"levelo_inurba_marseille","lat":43.30543,"lon":5.3843,"is_reserved":false,"is_disabled":false,"rental_uris":{"android":"levelo://app?vid=62821c01-689d-4275-80de-724784eacdf5","ios":"levelo://app?vid=62821c01-689d-4275-80de-724784eacdf5"},"vehicle_type_id":"4","last_reported":1732399699,"current_range_meters":37600,"station_id":"ce4bgg92rcd13ifvqb30","pricing_plan_id":"cebpf4jnsgd1na2vs0mg"},{"bike_id":"a3202fc1-85cb-42ee-bead-37756f81ff0f","system_id":"levelo_inurba_marseille","lat":43.30558,"lon":5.38411,"is_reserved":false,"is_disabled":true,"rental_uris":{"android":"levelo://app?vid=a3202fc1-85cb-42ee-bead-37756f81ff0f","ios":"levelo://app?vid=a3202fc1-85cb-42ee-bead-37756f81ff0f"},"vehicle_type_id":"4","last_reported":1732399699,"current_range_meters":27600,"station_id":"ce4bgg92rcd13ifvqb30","pricing_plan_id":"cebpf4jnsgd1na2vs0mg"},{"bike_id":"97cd3183-b3fd-486d-8ecd-f6949d56b2f8","system_id":"levelo_inurba_marseille","lat":43.29559,"lon":5.42289,"is_reserved":false,"is_disabled":false,"rental_uris":{"android":"levelo://app?vid=97cd3183-b3fd-486d-8ecd-f6949d56b2f8","ios":"levelo://app?vid=97cd3183-b3fd-486d-8ecd-f6949d56b2f8"},"vehicle_type_id":"4","last_reported":1732399699,"current_range_meters":36800,"station_id":"ce4bhph2rcd13ifvqhdg","pricing_plan_id":"cebpf4jnsgd1na2vs0mg"},{"bike_id":"b7c0f879-dbd6-4e27-87cc-bd9222ad4a0e","system_id":"levelo_inurba_marseille","lat":43.31535,"lon":5.38029,"is_reserved":false,"is_disabled":false,"rental_uris":{"android":"levelo://app?vid=b7c0f879-dbd6-4e27-87cc-bd9222ad4a0e","ios":"levelo://app?vid=b7c0f879-dbd6-4e27-87cc-bd9222ad4a0e"},"vehicle_type_id":"4","last_reported":1732399699,"current_range_meters":30000,"station_id":"ce4bhsp2rcd13ifvqi50","pricing_plan_id":"cebpf4jnsgd1na2vs0mg"},{"bike_id":"67eec873-2e0f-49d2-a011-594652020334","system_id":"levelo_inurba_marseille","lat":43.26203,"lon":5.37922,"is_reserved":false,"is_disabled":false,"rental_uris":{"android":"levelo://app?vid=67eec873-2e0f-49d2-a011-594652020334","ios":"levelo://app?vid=67eec873-2e0f-49d2-a011-594652020334"},"vehicle_type_id":"4","last_reported":1732399699,"current_range_meters":16800,"station_id":"ce4bhjp2rcd13ifvqg90","pricing_plan_id":"cebpf4jnsgd1na2vs0mg"},{"bike_id":"993397a7-0824-4fe1-bebd-18c1d07c311d","system_id":"levelo_inurba_marseille","lat":43.2657,"lon":5.39005,"is_reserved":false,"is_disabled":false,"rental_uris":{"android":"levelo://app?vid=993397a7-0824-4fe1-bebd-18c1d07c311d","ios":"levelo://app?vid=993397a7-0824-4fe1-bebd-18c1d07c311d"},"vehicle_type_id":"4","last_reported":1732399699,"current_range_meters":6000,"station_id":"ce4bhe12rcd13ifvqf30","pricing_plan_id":"cebpf4jnsgd1na2vs0mg"},{"bike_id":"cd311a74-51a2-432a-9ff8-1adf1f05e254","system_id":"levelo_inurba_marseille","lat":43.25825,"lon":5.39425,"is_reserved":false,"is_disabled":false,"rental_uris":{"android":"levelo://app?vid=cd311a74-51a2-432a-9ff8-1adf1f05e254","ios":"levelo://app?vid=cd311a74-51a2-432a-9ff8-1adf1f05e254"},"vehicle_type_id":"4","last_reported":1732399699,"current_range_meters":38800,"station_id":"ce4bhip2rcd13ifvqft0","pricing_plan_id":"cebpf4jnsgd1na2vs0mg"},{"bike_id":"e81a9ece-c7c8-4e74-bae7-169acb170884","system_id":"levelo_inurba_marseille","lat":43.29453,"lon":5.39763,"is_reserved":false,"is_disabled":false,"rental_uris":{"android":"levelo://app?vid=e81a9ece-c7c8-4e74-bae7-169acb170884","ios":"levelo://app?vid=e81a9ece-c7c8-4e74-bae7-169acb170884"},"vehicle_type_id":"4","last_reported":1732399699,"current_range_meters":22800,"station_id":"ce4bh3h2rcd13ifvqdo0","pricing_plan_id":"cebpf4jnsgd1na2vs0mg"},{"bike_id":"adc63e0f-3749-4826-9f9d-5a1a2c8ca64c","system_id":"levelo_inurba_marseille","lat":43.2942,"lon":5.3862,"is_reserved":false,"is_disabled":false,"rental_uris":{"android":"levelo://app?vid=adc63e0f-3749-4826-9f9d-5a1a2c8ca64c","ios":"levelo://app?vid=adc63e0f-3749-4826-9f9d-5a1a2c8ca64c"},"vehicle_type_id":"4","last_reported":1732399699,"current_range_meters":12400,"station_id":"ce4bh2h2rcd13ifvqdh0","pricing_plan_id":"cebpf4jnsgd1na2vs0mg"},{"bike_id":"57fa0b0b-836e-4aeb-9db5-c114ef1d588b","system_id":"levelo_inurba_marseille","lat":43.27807,"lon":5.40715,"is_reserved":false,"is_disabled":false,"rental_uris":{"android":"levelo://app?vid=57fa0b0b-836e-4aeb-9db5-c114ef1d588b","ios":"levelo://app?vid=57fa0b0b-836e-4aeb-9db5-c114ef1d588b"},"vehicle_type_id":"4","last_reported":1732399699,"current_range_meters":12400,"station_id":"ce4bhnh2rcd13ifvqgtg","pricing_plan_id":"cebpf4jnsgd1na2vs0mg"},{"bike_id":"6bfcdcf3-a1aa-48d4-8475-231f03ac2af0","system_id":"levelo_inurba_marseille","lat":43.30891,"lon":5.39646,"is_reserved":false,"is_disabled":false,"rental_uris":{"android":"levelo://app?vid=6bfcdcf3-a1aa-48d4-8475-231f03ac2af0","ios":"levelo://app?vid=6bfcdcf3-a1aa-48d4-8475-231f03ac2af0"},"vehicle_type_id":"4","last_reported":1732399699,"current_range_meters":15200,"station_id":"ce4bh012rcd13ifvqcv0","pricing_plan_id":"cebpf4jnsgd1na2vs0mg"},{"bike_id":"73ff8f4e-173b-4111-860f-0fbe90564417","system_id":"levelo_inurba_marseille","lat":43.32665,"lon":5.41019,"is_reserved":false,"is_disabled":false,"rental_uris":{"android":"levelo://app?vid=73ff8f4e-173b-4111-860f-0fbe90564417","ios":"levelo://app?vid=73ff8f4e-173b-4111-860f-0fbe90564417"},"vehicle_type_id":"4","last_reported":1732399699,"current_range_meters":38800,"station_id":"ce4bhpp2rcd13ifvqhgg","pricing_plan_id":"cebpf4jnsgd1na2vs0mg"},{"bike_id":"36296f5c-0176-4be0-97c8-7930cda9c369","system_id":"levelo_inurba_marseille","lat":43.32108,"lon":5.36778,"is_reserved":false,"is_disabled":false,"rental_uris":{"android":"levelo://app?vid=36296f5c-0176-4be0-97c8-7930cda9c369","ios":"levelo://app?vid=36296f5c-0176-4be0-97c8-7930cda9c369"},"vehicle_type_id":"4","last_reported":1732399699,"current_range_meters":35200,"station_id":"ce4bhrh2rcd13ifvqhug","pricing_plan_id":"cebpf4jnsgd1na2vs0mg"},{"bike_id":"12b1bbd6-dc44-489a-bdfb-1eac521b561d","system_id":"levelo_inurba_marseille","lat":43.33609,"lon":5.41036,"is_reserved":false,"is_disabled":false,"rental_uris":{"android":"levelo://app?vid=12b1bbd6-dc44-489a-bdfb-1eac521b561d","ios":"levelo://app?vid=12b1bbd6-dc44-489a-bdfb-1eac521b561d"},"vehicle_type_id":"4","last_reported":1732399699,"current_range_meters":32400,"station_id":"ce4bhqh2rcd13ifvqhmg","pricing_plan_id":"cebpf4jnsgd1na2vs0mg"},{"bike_id":"3749f547-26de-49f3-8704-9a5a504b68f5","system_id":"levelo_inurba_marseille","lat":43.2558,"lon":5.38242,"is_reserved":false,"is_disabled":false,"rental_uris":{"android":"levelo://app?vid=3749f547-26de-49f3-8704-9a5a504b68f5","ios":"levelo://app?vid=3749f547-26de-49f3-8704-9a5a504b68f5"},"vehicle_type_id":"4","last_reported":1732399699,"current_range_meters":38000,"station_id":"ce4bhih2rcd13ifvqfs0","pricing_plan_id":"cebpf4jnsgd1na2vs0mg"},{"bike_id":"d2a52b58-fabe-4a57-94ba-464e41b85800","system_id":"levelo_inurba_marseille","lat":43.30149,"lon":5.3741,"is_reserved":false,"is_disabled":true,"rental_uris":{"android":"levelo://app?vid=d2a52b58-fabe-4a57-94ba-464e41b85800","ios":"levelo://app?vid=d2a52b58-fabe-4a57-94ba-464e41b85800"},"vehicle_type_id":"4","last_reported":1732399699,"current_range_meters":28400,"station_id":"ce4bgs92rcd13ifvqcc0","pricing_plan_id":"cebpf4jnsgd1na2vs0mg"},{"bike_id":"8795e167-4ec2-4ba6-95a7-8837dd4d70b1","system_id":"levelo_inurba_marseille","lat":43.27622,"lon":5.36112,"is_reserved":false,"is_disabled":false,"rental_uris":{"android":"levelo://app?vid=8795e167-4ec2-4ba6-95a7-8837dd4d70b1","ios":"levelo://app?vid=8795e167-4ec2-4ba6-95a7-8837dd4d70b1"},"vehicle_type_id":"4","last_reported":1732399699,"current_range_meters":34800,"station_id":"ce4bgj92rcd13ifvqbe0","pricing_plan_id":"cebpf4jnsgd1na2vs0mg"},{"bike_id":"dd0f4ec8-8e5e-4165-95a5-902fa909b3ed","system_id":"levelo_inurba_marseille","lat":43.24544,"lon":5.39519,"is_reserved":false,"is_disabled":false,"rental_uris":{"android":"levelo://app?vid=dd0f4ec8-8e5e-4165-95a5-902fa909b3ed","ios":"levelo://app?vid=dd0f4ec8-8e5e-4165-95a5-902fa909b3ed"},"vehicle_type_id":"4","last_reported":1732399699,"current_range_meters":10000,"station_id":"ce4bhlp2rcd13ifvqgjg","pricing_plan_id":"cebpf4jnsgd1na2vs0mg"},{"bike_id":"19ca91b0-403b-4356-97ee-222822a0d8bf","system_id":"levelo_inurba_marseille","lat":43.28662,"lon":5.36347,"is_reserved":false,"is_disabled":false,"rental_uris":{"android":"levelo://app?vid=19ca91b0-403b-4356-97ee-222822a0d8bf","ios":"levelo://app?vid=19ca91b0-403b-4356-97ee-222822a0d8bf"},"vehicle_type_id":"4","last_reported":1732399699,"current_range_meters":11600,"station_id":"ce4bhah2rcd13ifvqej0","pricing_plan_id":"cebpf4jnsgd1na2vs0mg"},{"bike_id":"3a14a950-ca5e-4cd9-a15c-78308e324429","system_id":"levelo_inurba_marseille","lat":43.31123,"lon":5.37787,"is_reserved":false,"is_disabled":false,"rental_uris":{"android":"levelo://app?vid=3a14a950-ca5e-4cd9-a15c-78308e324429","ios":"levelo://app?vid=3a14a950-ca5e-4cd9-a15c-78308e324429"},"vehicle_type_id":"4","last_reported":1732399699,"current_range_meters":35600,"station_id":"ce4bgt92rcd13ifvqcg0","pricing_plan_id":"cebpf4jnsgd1na2vs0mg"},{"bike_id":"3f6be80c-da3b-4962-a49d-f245ade77382","system_id":"levelo_inurba_marseille","lat":43.29315,"lon":5.37186,"is_reserved":false,"is_disabled":false,"rental_uris":{"android":"levelo://app?vid=3f6be80c-da3b-4962-a49d-f245ade77382","ios":"levelo://app?vid=3f6be80c-da3b-4962-a49d-f245ade77382"},"vehicle_type_id":"4","last_reported":1732399699,"current_range_meters":37600,"station_id":"ce4bgh92rcd13ifvqb40","pricing_plan_id":"cebpf4jnsgd1na2vs0mg"},{"bike_id":"4923d6fc-1ccb-44fd-9ab5-43feda0c5519","system_id":"levelo_inurba_marseille","lat":43.25726,"lon":5.41104,"is_reserved":false,"is_disabled":false,"rental_uris":{"android":"levelo://app?vid=4923d6fc-1ccb-44fd-9ab5-43feda0c5519","ios":"levelo://app?vid=4923d6fc-1ccb-44fd-9ab5-43feda0c5519"},"vehicle_type_id":"4","last_reported":1732399699,"current_range_meters":20000,"station_id":"ce4bhkp2rcd13ifvqgd0","pricing_plan_id":"cebpf4jnsgd1na2vs0mg"},{"bike_id":"ed8ea14a-efdb-44aa-893a-23ec19aa13cd","system_id":"levelo_inurba_marseille","lat":43.24076,"lon":5.37756,"is_reserved":false,"is_disabled":false,"rental_uris":{"android":"levelo://app?vid=ed8ea14a-efdb-44aa-893a-23ec19aa13cd","ios":"levelo://app?vid=ed8ea14a-efdb-44aa-893a-23ec19aa13cd"},"vehicle_type_id":"4","last_reported":1732399699,"current_range_meters":12400,"station_id":"ce4bhnp2rcd13ifvqgvg","pricing_plan_id":"cebpf4jnsgd1na2vs0mg"},{"bike_id":"a7790398-6f15-43a7-b440-b5dfc4446e31","system_id":"levelo_inurba_marseille","lat":43.26683,"lon":5.38267,"is_reserved":false,"is_disabled":false,"rental_uris":{"android":"levelo://app?vid=a7790398-6f15-43a7-b440-b5dfc4446e31","ios":"levelo://app?vid=a7790398-6f15-43a7-b440-b5dfc4446e31"},"vehicle_type_id":"4","last_reported":1732399699,"current_range_meters":39200,"station_id":"ce4bhg92rcd13ifvqf90","pricing_plan_id":"cebpf4jnsgd1na2vs0mg"},{"bike_id":"dd3b09fe-b71a-401a-b299-a88383f47f1c","system_id":"levelo_inurba_marseille","lat":43.337444,"lon":5.374475,"is_reserved":false,"is_disabled":false,"rental_uris":{"android":"levelo://app?vid=dd3b09fe-b71a-401a-b299-a88383f47f1c","ios":"levelo://app?vid=dd3b09fe-b71a-401a-b299-a88383f47f1c"},"vehicle_type_id":"4","last_reported":1732399699,"current_range_meters":33600,"station_id":"","pricing_plan_id":"cebpf4jnsgd1na2vs0mg"},{"bike_id":"3a660d7c-3937-4475-a0af-ffe3d752167f","system_id":"levelo_inurba_marseille","lat":43.31765,"lon":5.39027,"is_reserved":false,"is_disabled":false,"rental_uris":{"android":"levelo://app?vid=3a660d7c-3937-4475-a0af-ffe3d752167f","ios":"levelo://app?vid=3a660d7c-3937-4475-a0af-ffe3d752167f"},"vehicle_type_id":"4","last_reported":1732399699,"current_range_meters":14400,"station_id":"ce4bhqp2rcd13ifvqhng","pricing_plan_id":"cebpf4jnsgd1na2vs0mg"},{"bike_id":"e9bf011a-7de5-4276-9fb2-f1844513413b","system_id":"levelo_inurba_marseille","lat":43.24075,"lon":5.37756,"is_reserved":false,"is_disabled":false,"rental_uris":{"android":"levelo://app?vid=e9bf011a-7de5-4276-9fb2-f1844513413b","ios":"levelo://app?vid=e9bf011a-7de5-4276-9fb2-f1844513413b"},"vehicle_type_id":"4","last_reported":1732399699,"current_range_meters":26000,"station_id":"ce4bhnp2rcd13ifvqgvg","pricing_plan_id":"cebpf4jnsgd1na2vs0mg"},{"bike_id":"58ea9c78-ccb0-4451-9cc5-3b43dab99ed1","system_id":"levelo_inurba_marseille","lat":43.30892,"lon":5.39644,"is_reserved":false,"is_disabled":false,"rental_uris":{"android":"levelo://app?vid=58ea9c78-ccb0-4451-9cc5-3b43dab99ed1","ios":"levelo://app?vid=58ea9c78-ccb0-4451-9cc5-3b43dab99ed1"},"vehicle_type_id":"4","last_reported":1732399699,"current_range_meters":26800,"station_id":"ce4bh012rcd13ifvqcv0","pricing_plan_id":"cebpf4jnsgd1na2vs0mg"},{"bike_id":"c9141344-4212-4983-abf2-7da6f9e1710d","system_id":"levelo_inurba_marseille","lat":43.25717,"lon":5.41112,"is_reserved":false,"is_disabled":false,"rental_uris":{"android":"levelo://app?vid=c9141344-4212-4983-abf2-7da6f9e1710d","ios":"levelo://app?vid=c9141344-4212-4983-abf2-7da6f9e1710d"},"vehicle_type_id":"4","last_reported":1732399699,"current_range_meters":32000,"station_id":"ce4bhkp2rcd13ifvqgd0","pricing_plan_id":"cebpf4jnsgd1na2vs0mg"},{"bike_id":"f776f509-a92d-41c7-bf5e-7e314391053b","system_id":"levelo_inurba_marseille","lat":43.28939,"lon":5.36643,"is_reserved":false,"is_disabled":false,"rental_uris":{"android":"levelo://app?vid=f776f509-a92d-41c7-bf5e-7e314391053b","ios":"levelo://app?vid=f776f509-a92d-41c7-bf5e-7e314391053b"},"vehicle_type_id":"4","last_reported":1732399699,"current_range_meters":38800,"station_id":"ce4bhap2rcd13ifvqek0","pricing_plan_id":"cebpf4jnsgd1na2vs0mg"},{"bike_id":"fb6f77a9-5987-418d-9602-0247c990dbad","system_id":"levelo_inurba_marseille","lat":43.30937,"lon":5.40151,"is_reserved":false,"is_disabled":false,"rental_uris":{"android":"levelo://app?vid=fb6f77a9-5987-418d-9602-0247c990dbad","ios":"levelo://app?vid=fb6f77a9-5987-418d-9602-0247c990dbad"},"vehicle_type_id":"4","last_reported":1732399699,"current_range_meters":21600,"station_id":"ce4bgvp2rcd13ifvqct0","pricing_plan_id":"cebpf4jnsgd1na2vs0mg"},{"bike_id":"499614a1-c2bb-4e60-855c-59c57908327b","system_id":"levelo_inurba_marseille","lat":43.24071,"lon":5.37767,"is_reserved":false,"is_disabled":false,"rental_uris":{"android":"levelo://app?vid=499614a1-c2bb-4e60-855c-59c57908327b","ios":"levelo://app?vid=499614a1-c2bb-4e60-855c-59c57908327b"},"vehicle_type_id":"4","last_reported":1732399699,"current_range_meters":21600,"station_id":"ce4bhnp2rcd13ifvqgvg","pricing_plan_id":"cebpf4jnsgd1na2vs0mg"},{"bike_id":"f6858fb5-b01a-4aca-b37e-51ecf5c6add6","system_id":"levelo_inurba_marseille","lat":43.29261,"lon":5.38449,"is_reserved":false,"is_disabled":false,"rental_uris":{"android":"levelo://app?vid=f6858fb5-b01a-4aca-b37e-51ecf5c6add6","ios":"levelo://app?vid=f6858fb5-b01a-4aca-b37e-51ecf5c6add6"},"vehicle_type_id":"4","last_reported":1732399699,"current_range_meters":30800,"station_id":"ce4bh692rcd13ifvqea0","pricing_plan_id":"cebpf4jnsgd1na2vs0mg"},{"bike_id":"30afc51d-7981-4daa-a145-a1a39f6a3f81","system_id":"levelo_inurba_marseille","lat":43.26936,"lon":5.38928,"is_reserved":false,"is_disabled":false,"rental_uris":{"android":"levelo://app?vid=30afc51d-7981-4daa-a145-a1a39f6a3f81","ios":"levelo://app?vid=30afc51d-7981-4daa-a145-a1a39f6a3f81"},"vehicle_type_id":"4","last_reported":1732399699,"current_range_meters":39200,"station_id":"ce4bhhh2rcd13ifvqfl0","pricing_plan_id":"cebpf4jnsgd1na2vs0mg"},{"bike_id":"17ba6615-9f08-440e-93e9-f8f4f3600fcd","system_id":"levelo_inurba_marseille","lat":43.30546,"lon":5.36531,"is_reserved":false,"is_disabled":true,"rental_uris":{"android":"levelo://app?vid=17ba6615-9f08-440e-93e9-f8f4f3600fcd","ios":"levelo://app?vid=17ba6615-9f08-440e-93e9-f8f4f3600fcd"},"vehicle_type_id":"4","last_reported":1732399699,"current_range_meters":6400,"station_id":"ce4bgs12rcd13ifvqcag","pricing_plan_id":"cebpf4jnsgd1na2vs0mg"},{"bike_id":"cbc2167d-639d-4b33-b914-3ad6f36f2868","system_id":"levelo_inurba_marseille","lat":43.2292,"lon":5.35376,"is_reserved":false,"is_disabled":false,"rental_uris":{"android":"levelo://app?vid=cbc2167d-639d-4b33-b914-3ad6f36f2868","ios":"levelo://app?vid=cbc2167d-639d-4b33-b914-3ad6f36f2868"},"vehicle_type_id":"4","last_reported":1732399699,"current_range_meters":38000,"station_id":"cpo3532slgdg3j2ikp40","pricing_plan_id":"cebpf4jnsgd1na2vs0mg"},{"bike_id":"adbf863a-b2fb-45e3-a27c-d4f49b54741c","system_id":"levelo_inurba_marseille","lat":43.25578,"lon":5.38236,"is_reserved":false,"is_disabled":false,"rental_uris":{"android":"levelo://app?vid=adbf863a-b2fb-45e3-a27c-d4f49b54741c","ios":"levelo://app?vid=adbf863a-b2fb-45e3-a27c-d4f49b54741c"},"vehicle_type_id":"4","last_reported":1732399699,"current_range_meters":24000,"station_id":"ce4bhih2rcd13ifvqfs0","pricing_plan_id":"cebpf4jnsgd1na2vs0mg"},{"bike_id":"48e299ff-15a0-46aa-95f9-0d7210dbe96a","system_id":"levelo_inurba_marseille","lat":43.29417,"lon":5.38625,"is_reserved":false,"is_disabled":false,"rental_uris":{"android":"levelo://app?vid=48e299ff-15a0-46aa-95f9-0d7210dbe96a","ios":"levelo://app?vid=48e299ff-15a0-46aa-95f9-0d7210dbe96a"},"vehicle_type_id":"4","last_reported":1732399699,"current_range_meters":35200,"station_id":"ce4bh2h2rcd13ifvqdh0","pricing_plan_id":"cebpf4jnsgd1na2vs0mg"},{"bike_id":"d2d6b761-7df5-4ee3-9c07-7f6feedf1b78","system_id":"levelo_inurba_marseille","lat":43.29267,"lon":5.40923,"is_reserved":false,"is_disabled":false,"rental_uris":{"android":"levelo://app?vid=d2d6b761-7df5-4ee3-9c07-7f6feedf1b78","ios":"levelo://app?vid=d2d6b761-7df5-4ee3-9c07-7f6feedf1b78"},"vehicle_type_id":"4","last_reported":1732399699,"current_range_meters":27200,"station_id":"ce4bh192rcd13ifvqdc0","pricing_plan_id":"cebpf4jnsgd1na2vs0mg"},{"bike_id":"635f2088-37d7-4c7e-b140-3292398be605","system_id":"levelo_inurba_marseille","lat":43.24809,"lon":5.37454,"is_reserved":false,"is_disabled":false,"rental_uris":{"android":"levelo://app?vid=635f2088-37d7-4c7e-b140-3292398be605","ios":"levelo://app?vid=635f2088-37d7-4c7e-b140-3292398be605"},"vehicle_type_id":"4","last_reported":1732399699,"current_range_meters":38000,"station_id":"ce4bhgh2rcd13ifvqfb0","pricing_plan_id":"cebpf4jnsgd1na2vs0mg"},{"bike_id":"c838ef5d-d731-4ac9-87b1-ee7a3a460494","system_id":"levelo_inurba_marseille","lat":43.29714,"lon":5.36608,"is_reserved":false,"is_disabled":false,"rental_uris":{"android":"levelo://app?vid=c838ef5d-d731-4ac9-87b1-ee7a3a460494","ios":"levelo://app?vid=c838ef5d-d731-4ac9-87b1-ee7a3a460494"},"vehicle_type_id":"4","last_reported":1732399699,"current_range_meters":27200,"station_id":"ce4bgn12rcd13ifvqbt0","pricing_plan_id":"cebpf4jnsgd1na2vs0mg"},{"bike_id":"d7259feb-ca11-4e85-b9f7-53a5ce5807f9","system_id":"levelo_inurba_marseille","lat":43.27672,"lon":5.38899,"is_reserved":false,"is_disabled":false,"rental_uris":{"android":"levelo://app?vid=d7259feb-ca11-4e85-b9f7-53a5ce5807f9","ios":"levelo://app?vid=d7259feb-ca11-4e85-b9f7-53a5ce5807f9"},"vehicle_type_id":"4","last_reported":1732399699,"current_range_meters":38800,"station_id":"ce4bhi12rcd13ifvqfo0","pricing_plan_id":"cebpf4jnsgd1na2vs0mg"},{"bike_id":"f06bf8c3-93af-4ca0-820f-413c5c36daef","system_id":"levelo_inurba_marseille","lat":43.29259,"lon":5.3844,"is_reserved":false,"is_disabled":false,"rental_uris":{"android":"levelo://app?vid=f06bf8c3-93af-4ca0-820f-413c5c36daef","ios":"levelo://app?vid=f06bf8c3-93af-4ca0-820f-413c5c36daef"},"vehicle_type_id":"4","last_reported":1732399699,"current_range_meters":19200,"station_id":"ce4bh692rcd13ifvqea0","pricing_plan_id":"cebpf4jnsgd1na2vs0mg"},{"bike_id":"4469c4c8-b7fa-4b2b-b19f-250db921acaa","system_id":"levelo_inurba_marseille","lat":43.30299,"lon":5.39208,"is_reserved":false,"is_disabled":false,"rental_uris":{"android":"levelo://app?vid=4469c4c8-b7fa-4b2b-b19f-250db921acaa","ios":"levelo://app?vid=4469c4c8-b7fa-4b2b-b19f-250db921acaa"},"vehicle_type_id":"4","last_reported":1732399699,"current_range_meters":38000,"station_id":"ce4bgkh2rcd13ifvqbk0","pricing_plan_id":"cebpf4jnsgd1na2vs0mg"},{"bike_id":"6ecda9f4-241a-4f0f-8c7c-8a09eb20885b","system_id":"levelo_inurba_marseille","lat":43.26678,"lon":5.38262,"is_reserved":false,"is_disabled":false,"rental_uris":{"android":"levelo://app?vid=6ecda9f4-241a-4f0f-8c7c-8a09eb20885b","ios":"levelo://app?vid=6ecda9f4-241a-4f0f-8c7c-8a09eb20885b"},"vehicle_type_id":"4","last_reported":1732399699,"current_range_meters":17600,"station_id":"ce4bhg92rcd13ifvqf90","pricing_plan_id":"cebpf4jnsgd1na2vs0mg"},{"bike_id":"211c998e-f758-4ff8-907a-0ca46d0500d7","system_id":"levelo_inurba_marseille","lat":43.29262,"lon":5.38442,"is_reserved":false,"is_disabled":false,"rental_uris":{"android":"levelo://app?vid=211c998e-f758-4ff8-907a-0ca46d0500d7","ios":"levelo://app?vid=211c998e-f758-4ff8-907a-0ca46d0500d7"},"vehicle_type_id":"4","last_reported":1732399699,"current_range_meters":28400,"station_id":"ce4bh692rcd13ifvqea0","pricing_plan_id":"cebpf4jnsgd1na2vs0mg"},{"bike_id":"2671fb8a-3452-46fd-bec4-bd169133378c","system_id":"levelo_inurba_marseille","lat":43.26683,"lon":5.38269,"is_reserved":false,"is_disabled":true,"rental_uris":{"android":"levelo://app?vid=2671fb8a-3452-46fd-bec4-bd169133378c","ios":"levelo://app?vid=2671fb8a-3452-46fd-bec4-bd169133378c"},"vehicle_type_id":"4","last_reported":1732399699,"current_range_meters":22000,"station_id":"ce4bhg92rcd13ifvqf90","pricing_plan_id":"cebpf4jnsgd1na2vs0mg"},{"bike_id":"6e5f0abd-4828-428c-93b3-40258f9f6c4d","system_id":"levelo_inurba_marseille","lat":43.31749,"lon":5.40561,"is_reserved":false,"is_disabled":false,"rental_uris":{"android":"levelo://app?vid=6e5f0abd-4828-428c-93b3-40258f9f6c4d","ios":"levelo://app?vid=6e5f0abd-4828-428c-93b3-40258f9f6c4d"},"vehicle_type_id":"4","last_reported":1732399699,"current_range_meters":13600,"station_id":"ce4bhq12rcd13ifvqhig","pricing_plan_id":"cebpf4jnsgd1na2vs0mg"},{"bike_id":"e572ee7b-06a1-48ce-acc2-457156118763","system_id":"levelo_inurba_marseille","lat":43.29423,"lon":5.38629,"is_reserved":false,"is_disabled":false,"rental_uris":{"android":"levelo://app?vid=e572ee7b-06a1-48ce-acc2-457156118763","ios":"levelo://app?vid=e572ee7b-06a1-48ce-acc2-457156118763"},"vehicle_type_id":"4","last_reported":1732399699,"current_range_meters":24400,"station_id":"ce4bh2h2rcd13ifvqdh0","pricing_plan_id":"cebpf4jnsgd1na2vs0mg"},{"bike_id":"28f8ecf8-a7ae-4a32-aa4f-609e03eada5d","system_id":"levelo_inurba_marseille","lat":43.29536,"lon":5.38551,"is_reserved":false,"is_disabled":true,"rental_uris":{"android":"levelo://app?vid=28f8ecf8-a7ae-4a32-aa4f-609e03eada5d","ios":"levelo://app?vid=28f8ecf8-a7ae-4a32-aa4f-609e03eada5d"},"vehicle_type_id":"4","last_reported":1732399699,"current_range_meters":400,"station_id":"ce4bgih2rcd13ifvqba0","pricing_plan_id":"cebpf4jnsgd1na2vs0mg"},{"bike_id":"23dc7882-78ff-48c5-be30-8853f1c7852f","system_id":"levelo_inurba_marseille","lat":43.29418,"lon":5.38624,"is_reserved":false,"is_disabled":false,"rental_uris":{"android":"levelo://app?vid=23dc7882-78ff-48c5-be30-8853f1c7852f","ios":"levelo://app?vid=23dc7882-78ff-48c5-be30-8853f1c7852f"},"vehicle_type_id":"4","last_reported":1732399699,"current_range_meters":32800,"station_id":"ce4bh2h2rcd13ifvqdh0","pricing_plan_id":"cebpf4jnsgd1na2vs0mg"},{"bike_id":"858b65e1-94fc-4151-a71e-8b168cb19dcb","system_id":"levelo_inurba_marseille","lat":43.30766,"lon":5.38158,"is_reserved":false,"is_disabled":true,"rental_uris":{"android":"levelo://app?vid=858b65e1-94fc-4151-a71e-8b168cb19dcb","ios":"levelo://app?vid=858b65e1-94fc-4151-a71e-8b168cb19dcb"},"vehicle_type_id":"4","last_reported":1732399699,"current_range_meters":8800,"station_id":"","pricing_plan_id":"cebpf4jnsgd1na2vs0mg"},{"bike_id":"1162849a-37a9-4c49-a361-1136ac4b87f0","system_id":"levelo_inurba_marseille","lat":43.27066,"lon":5.42271,"is_reserved":false,"is_disabled":false,"rental_uris":{"android":"levelo://app?vid=1162849a-37a9-4c49-a361-1136ac4b87f0","ios":"levelo://app?vid=1162849a-37a9-4c49-a361-1136ac4b87f0"},"vehicle_type_id":"4","last_reported":1732399699,"current_range_meters":4000,"station_id":"ce4bhk92rcd13ifvqgb0","pricing_plan_id":"cebpf4jnsgd1na2vs0mg"},{"bike_id":"e5b7969f-45e4-425d-b3ee-8591f53d3a98","system_id":"levelo_inurba_marseille","lat":43.30146,"lon":5.39857,"is_reserved":false,"is_disabled":false,"rental_uris":{"android":"levelo://app?vid=e5b7969f-45e4-425d-b3ee-8591f53d3a98","ios":"levelo://app?vid=e5b7969f-45e4-425d-b3ee-8591f53d3a98"},"vehicle_type_id":"4","last_reported":1732399699,"current_range_meters":23200,"station_id":"ce4bh0h2rcd13ifvqd40","pricing_plan_id":"cebpf4jnsgd1na2vs0mg"},{"bike_id":"9bf477a0-e14d-4743-9508-0a902e970c65","system_id":"levelo_inurba_marseille","lat":43.26926,"lon":5.40258,"is_reserved":false,"is_disabled":false,"rental_uris":{"android":"levelo://app?vid=9bf477a0-e14d-4743-9508-0a902e970c65","ios":"levelo://app?vid=9bf477a0-e14d-4743-9508-0a902e970c65"},"vehicle_type_id":"4","last_reported":1732399699,"current_range_meters":33600,"station_id":"cjm6bp8fraef2m0cb0m0","pricing_plan_id":"cebpf4jnsgd1na2vs0mg"},{"bike_id":"133c0635-6ac4-49a6-b3b8-4ad5dda949c5","system_id":"levelo_inurba_marseille","lat":43.316955,"lon":5.377169,"is_reserved":false,"is_disabled":true,"rental_uris":{"android":"levelo://app?vid=133c0635-6ac4-49a6-b3b8-4ad5dda949c5","ios":"levelo://app?vid=133c0635-6ac4-49a6-b3b8-4ad5dda949c5"},"vehicle_type_id":"4","last_reported":1732399699,"current_range_meters":38800,"station_id":"ce4bgth2rcd13ifvqch0","pricing_plan_id":"cebpf4jnsgd1na2vs0mg"},{"bike_id":"bcc3b397-4053-4374-93ce-1da8586f0c5d","system_id":"levelo_inurba_marseille","lat":43.33725,"lon":5.39187,"is_reserved":false,"is_disabled":false,"rental_uris":{"android":"levelo://app?vid=bcc3b397-4053-4374-93ce-1da8586f0c5d","ios":"levelo://app?vid=bcc3b397-4053-4374-93ce-1da8586f0c5d"},"vehicle_type_id":"4","last_reported":1732399699,"current_range_meters":38800,"station_id":"ce4bhr92rcd13ifvqhsg","pricing_plan_id":"cebpf4jnsgd1na2vs0mg"},{"bike_id":"df46c237-6d55-4b21-a264-23e4c89ab0af","system_id":"levelo_inurba_marseille","lat":43.29279,"lon":5.36841,"is_reserved":false,"is_disabled":false,"rental_uris":{"android":"levelo://app?vid=df46c237-6d55-4b21-a264-23e4c89ab0af","ios":"levelo://app?vid=df46c237-6d55-4b21-a264-23e4c89ab0af"},"vehicle_type_id":"4","last_reported":1732399699,"current_range_meters":37600,"station_id":"ce4bhbp2rcd13ifvqesg","pricing_plan_id":"cebpf4jnsgd1na2vs0mg"},{"bike_id":"d10336fe-c20c-4a65-b5c7-91fc2a2cbdb6","system_id":"levelo_inurba_marseille","lat":43.31363,"lon":5.38496,"is_reserved":false,"is_disabled":true,"rental_uris":{"android":"levelo://app?vid=d10336fe-c20c-4a65-b5c7-91fc2a2cbdb6","ios":"levelo://app?vid=d10336fe-c20c-4a65-b5c7-91fc2a2cbdb6"},"vehicle_type_id":"4","last_reported":1732399699,"current_range_meters":3600,"station_id":"ce4bgt92rcd13ifvqcf0","pricing_plan_id":"cebpf4jnsgd1na2vs0mg"},{"bike_id":"a46f99e0-89c4-401c-80a5-0d8133e46193","system_id":"levelo_inurba_marseille","lat":43.30599,"lon":5.39371,"is_reserved":false,"is_disabled":false,"rental_uris":{"android":"levelo://app?vid=a46f99e0-89c4-401c-80a5-0d8133e46193","ios":"levelo://app?vid=a46f99e0-89c4-401c-80a5-0d8133e46193"},"vehicle_type_id":"4","last_reported":1732399699,"current_range_meters":24400,"station_id":"ce4bh0p2rcd13ifvqd80","pricing_plan_id":"cebpf4jnsgd1na2vs0mg"},{"bike_id":"09ab20da-d0df-4427-9cea-390b6ab2d379","system_id":"levelo_inurba_marseille","lat":43.2858,"lon":5.39513,"is_reserved":false,"is_disabled":false,"rental_uris":{"android":"levelo://app?vid=09ab20da-d0df-4427-9cea-390b6ab2d379","ios":"levelo://app?vid=09ab20da-d0df-4427-9cea-390b6ab2d379"},"vehicle_type_id":"4","last_reported":1732399699,"current_range_meters":38800,"station_id":"ce4bh292rcd13ifvqdg0","pricing_plan_id":"cebpf4jnsgd1na2vs0mg"},{"bike_id":"f7033b3a-38b5-43ec-9dfb-9338084bda7e","system_id":"levelo_inurba_marseille","lat":43.26061,"lon":5.39392,"is_reserved":false,"is_disabled":false,"rental_uris":{"android":"levelo://app?vid=f7033b3a-38b5-43ec-9dfb-9338084bda7e","ios":"levelo://app?vid=f7033b3a-38b5-43ec-9dfb-9338084bda7e"},"vehicle_type_id":"4","last_reported":1732399699,"current_range_meters":5600,"station_id":"ce4bhh92rcd13ifvqfj0","pricing_plan_id":"cebpf4jnsgd1na2vs0mg"},{"bike_id":"8561f9f6-c79b-4f1a-8973-2e427ee6c7d7","system_id":"levelo_inurba_marseille","lat":43.28463,"lon":5.35888,"is_reserved":false,"is_disabled":false,"rental_uris":{"android":"levelo://app?vid=8561f9f6-c79b-4f1a-8973-2e427ee6c7d7","ios":"levelo://app?vid=8561f9f6-c79b-4f1a-8973-2e427ee6c7d7"},"vehicle_type_id":"4","last_reported":1732399699,"current_range_meters":31200,"station_id":"ce4bhah2rcd13ifvqei0","pricing_plan_id":"cebpf4jnsgd1na2vs0mg"},{"bike_id":"552ae1f9-34eb-4d70-a19b-3616d3661778","system_id":"levelo_inurba_marseille","lat":43.33724,"lon":5.39188,"is_reserved":false,"is_disabled":false,"rental_uris":{"android":"levelo://app?vid=552ae1f9-34eb-4d70-a19b-3616d3661778","ios":"levelo://app?vid=552ae1f9-34eb-4d70-a19b-3616d3661778"},"vehicle_type_id":"4","last_reported":1732399699,"current_range_meters":18800,"station_id":"ce4bhr92rcd13ifvqhsg","pricing_plan_id":"cebpf4jnsgd1na2vs0mg"},{"bike_id":"f7f3756c-1ec7-4782-9c87-6273f87b6774","system_id":"levelo_inurba_marseille","lat":43.337444,"lon":5.374475,"is_reserved":false,"is_disabled":true,"rental_uris":{"android":"levelo://app?vid=f7f3756c-1ec7-4782-9c87-6273f87b6774","ios":"levelo://app?vid=f7f3756c-1ec7-4782-9c87-6273f87b6774"},"vehicle_type_id":"4","last_reported":1732399699,"current_range_meters":31200,"station_id":"","pricing_plan_id":"cebpf4jnsgd1na2vs0mg"},{"bike_id":"740f162e-a0c7-4af9-899d-283ea1409dc6","system_id":"levelo_inurba_marseille","lat":43.26934,"lon":5.38918,"is_reserved":false,"is_disabled":true,"rental_uris":{"android":"levelo://app?vid=740f162e-a0c7-4af9-899d-283ea1409dc6","ios":"levelo://app?vid=740f162e-a0c7-4af9-899d-283ea1409dc6"},"vehicle_type_id":"4","last_reported":1732399699,"current_range_meters":35200,"station_id":"ce4bhhh2rcd13ifvqfl0","pricing_plan_id":"cebpf4jnsgd1na2vs0mg"},{"bike_id":"cc88fad8-5106-4c6d-8f52-96d59990a5c7","system_id":"levelo_inurba_marseille","lat":43.27181,"lon":5.40993,"is_reserved":false,"is_disabled":false,"rental_uris":{"android":"levelo://app?vid=cc88fad8-5106-4c6d-8f52-96d59990a5c7","ios":"levelo://app?vid=cc88fad8-5106-4c6d-8f52-96d59990a5c7"},"vehicle_type_id":"4","last_reported":1732399699,"current_range_meters":38400,"station_id":"ce4bhl12rcd13ifvqgf0","pricing_plan_id":"cebpf4jnsgd1na2vs0mg"},{"bike_id":"3b97cc9e-e424-4721-9cc0-b2f33800e156","system_id":"levelo_inurba_marseille","lat":43.27839,"lon":5.39215,"is_reserved":false,"is_disabled":false,"rental_uris":{"android":"levelo://app?vid=3b97cc9e-e424-4721-9cc0-b2f33800e156","ios":"levelo://app?vid=3b97cc9e-e424-4721-9cc0-b2f33800e156"},"vehicle_type_id":"4","last_reported":1732399699,"current_range_meters":9200,"station_id":"ce4bhjp2rcd13ifvqga0","pricing_plan_id":"cebpf4jnsgd1na2vs0mg"},{"bike_id":"ed1f2db2-1d34-4bf2-b212-ac00e9ab3aa5","system_id":"levelo_inurba_marseille","lat":43.28154,"lon":5.42642,"is_reserved":false,"is_disabled":false,"rental_uris":{"android":"levelo://app?vid=ed1f2db2-1d34-4bf2-b212-ac00e9ab3aa5","ios":"levelo://app?vid=ed1f2db2-1d34-4bf2-b212-ac00e9ab3aa5"},"vehicle_type_id":"4","last_reported":1732399699,"current_range_meters":22400,"station_id":"ce4bhnh2rcd13ifvqgug","pricing_plan_id":"cebpf4jnsgd1na2vs0mg"},{"bike_id":"ae2b9dc9-2b11-49d7-85f2-a5f66993d139","system_id":"levelo_inurba_marseille","lat":43.27524,"lon":5.41645,"is_reserved":false,"is_disabled":false,"rental_uris":{"android":"levelo://app?vid=ae2b9dc9-2b11-49d7-85f2-a5f66993d139","ios":"levelo://app?vid=ae2b9dc9-2b11-49d7-85f2-a5f66993d139"},"vehicle_type_id":"4","last_reported":1732399699,"current_range_meters":27200,"station_id":"","pricing_plan_id":"cebpf4jnsgd1na2vs0mg"},{"bike_id":"7618a1e6-534c-4d73-b195-aa09c18c8b39","system_id":"levelo_inurba_marseille","lat":43.31067,"lon":5.38356,"is_reserved":false,"is_disabled":false,"rental_uris":{"android":"levelo://app?vid=7618a1e6-534c-4d73-b195-aa09c18c8b39","ios":"levelo://app?vid=7618a1e6-534c-4d73-b195-aa09c18c8b39"},"vehicle_type_id":"4","last_reported":1732399699,"current_range_meters":32400,"station_id":"ce4bgv92rcd13ifvqcr0","pricing_plan_id":"cebpf4jnsgd1na2vs0mg"},{"bike_id":"96fef04f-f424-4b1e-a003-fc645e04ed3a","system_id":"levelo_inurba_marseille","lat":43.27373,"lon":5.36247,"is_reserved":false,"is_disabled":true,"rental_uris":{"android":"levelo://app?vid=96fef04f-f424-4b1e-a003-fc645e04ed3a","ios":"levelo://app?vid=96fef04f-f424-4b1e-a003-fc645e04ed3a"},"vehicle_type_id":"4","last_reported":1732399699,"current_range_meters":35600,"station_id":"ce4bhbh2rcd13ifvqeo0","pricing_plan_id":"cebpf4jnsgd1na2vs0mg"},{"bike_id":"b7b61d62-d3cf-45c0-ae9e-f05215122577","system_id":"levelo_inurba_marseille","lat":43.30927,"lon":5.40142,"is_reserved":false,"is_disabled":true,"rental_uris":{"android":"levelo://app?vid=b7b61d62-d3cf-45c0-ae9e-f05215122577","ios":"levelo://app?vid=b7b61d62-d3cf-45c0-ae9e-f05215122577"},"vehicle_type_id":"4","last_reported":1732399699,"current_range_meters":0,"station_id":"ce4bgvp2rcd13ifvqct0","pricing_plan_id":"cebpf4jnsgd1na2vs0mg"},{"bike_id":"c764837e-c818-4ae8-974c-134fbeac39e4","system_id":"levelo_inurba_marseille","lat":43.29417,"lon":5.38633,"is_reserved":false,"is_disabled":false,"rental_uris":{"android":"levelo://app?vid=c764837e-c818-4ae8-974c-134fbeac39e4","ios":"levelo://app?vid=c764837e-c818-4ae8-974c-134fbeac39e4"},"vehicle_type_id":"4","last_reported":1732399699,"current_range_meters":19600,"station_id":"ce4bh2h2rcd13ifvqdh0","pricing_plan_id":"cebpf4jnsgd1na2vs0mg"},{"bike_id":"b69d3f02-b66a-4b6f-9d2f-8f4c1941601c","system_id":"levelo_inurba_marseille","lat":43.24116,"lon":5.37712,"is_reserved":false,"is_disabled":false,"rental_uris":{"android":"levelo://app?vid=b69d3f02-b66a-4b6f-9d2f-8f4c1941601c","ios":"levelo://app?vid=b69d3f02-b66a-4b6f-9d2f-8f4c1941601c"},"vehicle_type_id":"4","last_reported":1732399699,"current_range_meters":24800,"station_id":"","pricing_plan_id":"cebpf4jnsgd1na2vs0mg"},{"bike_id":"9ecc4a9a-817f-4837-b4ad-aaca7db32274","system_id":"levelo_inurba_marseille","lat":43.33609,"lon":5.41033,"is_reserved":false,"is_disabled":false,"rental_uris":{"android":"levelo://app?vid=9ecc4a9a-817f-4837-b4ad-aaca7db32274","ios":"levelo://app?vid=9ecc4a9a-817f-4837-b4ad-aaca7db32274"},"vehicle_type_id":"4","last_reported":1732399699,"current_range_meters":6400,"station_id":"ce4bhqh2rcd13ifvqhmg","pricing_plan_id":"cebpf4jnsgd1na2vs0mg"},{"bike_id":"4fd7c1b7-0de3-45d2-a14d-5f97318c437f","system_id":"levelo_inurba_marseille","lat":43.29684,"lon":5.37296,"is_reserved":false,"is_disabled":false,"rental_uris":{"android":"levelo://app?vid=4fd7c1b7-0de3-45d2-a14d-5f97318c437f","ios":"levelo://app?vid=4fd7c1b7-0de3-45d2-a14d-5f97318c437f"},"vehicle_type_id":"4","last_reported":1732399699,"current_range_meters":36400,"station_id":"ce4bgk12rcd13ifvqbj0","pricing_plan_id":"cebpf4jnsgd1na2vs0mg"},{"bike_id":"a55c7155-8dfc-4e13-b519-3e89d853fb5a","system_id":"levelo_inurba_marseille","lat":43.32658,"lon":5.40991,"is_reserved":false,"is_disabled":false,"rental_uris":{"android":"levelo://app?vid=a55c7155-8dfc-4e13-b519-3e89d853fb5a","ios":"levelo://app?vid=a55c7155-8dfc-4e13-b519-3e89d853fb5a"},"vehicle_type_id":"4","last_reported":1732399699,"current_range_meters":32400,"station_id":"ce4bhpp2rcd13ifvqhgg","pricing_plan_id":"cebpf4jnsgd1na2vs0mg"},{"bike_id":"63e5c75a-30c8-4be5-8ec8-448fdf89dbb8","system_id":"levelo_inurba_marseille","lat":43.23068,"lon":5.35496,"is_reserved":false,"is_disabled":false,"rental_uris":{"android":"levelo://app?vid=63e5c75a-30c8-4be5-8ec8-448fdf89dbb8","ios":"levelo://app?vid=63e5c75a-30c8-4be5-8ec8-448fdf89dbb8"},"vehicle_type_id":"4","last_reported":1732399699,"current_range_meters":8400,"station_id":"cpo3342slgdg3j2ifvpg","pricing_plan_id":"cebpf4jnsgd1na2vs0mg"},{"bike_id":"d1d6ada4-c80c-4361-a262-68c772a9065e","system_id":"levelo_inurba_marseille","lat":43.29631,"lon":5.37158,"is_reserved":false,"is_disabled":false,"rental_uris":{"android":"levelo://app?vid=d1d6ada4-c80c-4361-a262-68c772a9065e","ios":"levelo://app?vid=d1d6ada4-c80c-4361-a262-68c772a9065e"},"vehicle_type_id":"4","last_reported":1732399699,"current_range_meters":34800,"station_id":"ce4bgnh2rcd13ifvqc0g","pricing_plan_id":"cebpf4jnsgd1na2vs0mg"},{"bike_id":"844693b4-a8ab-4270-9c51-2ae0bf163fc0","system_id":"levelo_inurba_marseille","lat":43.23155,"lon":5.4371,"is_reserved":false,"is_disabled":false,"rental_uris":{"android":"levelo://app?vid=844693b4-a8ab-4270-9c51-2ae0bf163fc0","ios":"levelo://app?vid=844693b4-a8ab-4270-9c51-2ae0bf163fc0"},"vehicle_type_id":"4","last_reported":1732399699,"current_range_meters":38800,"station_id":"ce4bhmp2rcd13ifvqgog","pricing_plan_id":"cebpf4jnsgd1na2vs0mg"},{"bike_id":"325fe5f5-d999-444f-bb23-27ea636eb738","system_id":"levelo_inurba_marseille","lat":43.24172,"lon":5.36401,"is_reserved":false,"is_disabled":false,"rental_uris":{"android":"levelo://app?vid=325fe5f5-d999-444f-bb23-27ea636eb738","ios":"levelo://app?vid=325fe5f5-d999-444f-bb23-27ea636eb738"},"vehicle_type_id":"4","last_reported":1732399699,"current_range_meters":38400,"station_id":"cpo36qri1sfpv3e86is0","pricing_plan_id":"cebpf4jnsgd1na2vs0mg"},{"bike_id":"89228f68-3127-4436-9201-8331b38355c7","system_id":"levelo_inurba_marseille","lat":43.25724,"lon":5.41103,"is_reserved":false,"is_disabled":false,"rental_uris":{"android":"levelo://app?vid=89228f68-3127-4436-9201-8331b38355c7","ios":"levelo://app?vid=89228f68-3127-4436-9201-8331b38355c7"},"vehicle_type_id":"4","last_reported":1732399699,"current_range_meters":38800,"station_id":"ce4bhkp2rcd13ifvqgd0","pricing_plan_id":"cebpf4jnsgd1na2vs0mg"},{"bike_id":"0e4e4e0f-80b8-4da4-a5fd-15d890ba7922","system_id":"levelo_inurba_marseille","lat":43.27997,"lon":5.41664,"is_reserved":false,"is_disabled":false,"rental_uris":{"android":"levelo://app?vid=0e4e4e0f-80b8-4da4-a5fd-15d890ba7922","ios":"levelo://app?vid=0e4e4e0f-80b8-4da4-a5fd-15d890ba7922"},"vehicle_type_id":"4","last_reported":1732399699,"current_range_meters":22800,"station_id":"ce4bho12rcd13ifvqh1g","pricing_plan_id":"cebpf4jnsgd1na2vs0mg"},{"bike_id":"400c51b9-2ef9-425c-b02b-68c86da8008f","system_id":"levelo_inurba_marseille","lat":43.28423,"lon":5.34996,"is_reserved":false,"is_disabled":false,"rental_uris":{"android":"levelo://app?vid=400c51b9-2ef9-425c-b02b-68c86da8008f","ios":"levelo://app?vid=400c51b9-2ef9-425c-b02b-68c86da8008f"},"vehicle_type_id":"4","last_reported":1732399699,"current_range_meters":39200,"station_id":"ce4bhbh2rcd13ifvqepg","pricing_plan_id":"cebpf4jnsgd1na2vs0mg"},{"bike_id":"e5951ee3-4a5a-4ebb-b469-096c5188dfa3","system_id":"levelo_inurba_marseille","lat":43.23193,"lon":5.35559,"is_reserved":false,"is_disabled":false,"rental_uris":{"android":"levelo://app?vid=e5951ee3-4a5a-4ebb-b469-096c5188dfa3","ios":"levelo://app?vid=e5951ee3-4a5a-4ebb-b469-096c5188dfa3"},"vehicle_type_id":"4","last_reported":1732399699,"current_range_meters":22000,"station_id":"ce4bhu92rcd13ifvqi70","pricing_plan_id":"cebpf4jnsgd1na2vs0mg"},{"bike_id":"b4031e97-07ad-4bf3-b625-27b2659b4faf","system_id":"levelo_inurba_marseille","lat":43.25721,"lon":5.41102,"is_reserved":false,"is_disabled":false,"rental_uris":{"android":"levelo://app?vid=b4031e97-07ad-4bf3-b625-27b2659b4faf","ios":"levelo://app?vid=b4031e97-07ad-4bf3-b625-27b2659b4faf"},"vehicle_type_id":"4","last_reported":1732399699,"current_range_meters":13600,"station_id":"ce4bhkp2rcd13ifvqgd0","pricing_plan_id":"cebpf4jnsgd1na2vs0mg"},{"bike_id":"064a32cf-4eb7-42df-beaa-c3d5066e846b","system_id":"levelo_inurba_marseille","lat":43.29584,"lon":5.3674,"is_reserved":false,"is_disabled":false,"rental_uris":{"android":"levelo://app?vid=064a32cf-4eb7-42df-beaa-c3d5066e846b","ios":"levelo://app?vid=064a32cf-4eb7-42df-beaa-c3d5066e846b"},"vehicle_type_id":"4","last_reported":1732399699,"current_range_meters":38000,"station_id":"ce4bgph2rcd13ifvqc2g","pricing_plan_id":"cebpf4jnsgd1na2vs0mg"},{"bike_id":"53aedfa4-4049-4759-bc95-757addd8c685","system_id":"levelo_inurba_marseille","lat":43.26554,"lon":5.37287,"is_reserved":false,"is_disabled":false,"rental_uris":{"android":"levelo://app?vid=53aedfa4-4049-4759-bc95-757addd8c685","ios":"levelo://app?vid=53aedfa4-4049-4759-bc95-757addd8c685"},"vehicle_type_id":"4","last_reported":1732399699,"current_range_meters":38800,"station_id":"ce4bhg12rcd13ifvqf70","pricing_plan_id":"cebpf4jnsgd1na2vs0mg"},{"bike_id":"4f389f48-f165-455a-980b-fa52db1cf7bf","system_id":"levelo_inurba_marseille","lat":43.315,"lon":5.37216,"is_reserved":false,"is_disabled":false,"rental_uris":{"android":"levelo://app?vid=4f389f48-f165-455a-980b-fa52db1cf7bf","ios":"levelo://app?vid=4f389f48-f165-455a-980b-fa52db1cf7bf"},"vehicle_type_id":"4","last_reported":1732399699,"current_range_meters":4400,"station_id":"ce4bgt12rcd13ifvqcd0","pricing_plan_id":"cebpf4jnsgd1na2vs0mg"},{"bike_id":"4a433a3d-4ffb-425f-b957-e10cbf706b31","system_id":"levelo_inurba_marseille","lat":43.25002,"lon":5.38924,"is_reserved":false,"is_disabled":false,"rental_uris":{"android":"levelo://app?vid=4a433a3d-4ffb-425f-b957-e10cbf706b31","ios":"levelo://app?vid=4a433a3d-4ffb-425f-b957-e10cbf706b31"},"vehicle_type_id":"4","last_reported":1732399699,"current_range_meters":38000,"station_id":"ce4bhgp2rcd13ifvqfd0","pricing_plan_id":"cebpf4jnsgd1na2vs0mg"},{"bike_id":"f3766b12-5332-44f7-86e2-6edb0825bab6","system_id":"levelo_inurba_marseille","lat":43.26945,"lon":5.40247,"is_reserved":false,"is_disabled":false,"rental_uris":{"android":"levelo://app?vid=f3766b12-5332-44f7-86e2-6edb0825bab6","ios":"levelo://app?vid=f3766b12-5332-44f7-86e2-6edb0825bab6"},"vehicle_type_id":"4","last_reported":1732399699,"current_range_meters":36000,"station_id":"cjm6bp8fraef2m0cb0m0","pricing_plan_id":"cebpf4jnsgd1na2vs0mg"},{"bike_id":"6c948e9c-d5b3-4fe5-a918-1bd2f7c83b02","system_id":"levelo_inurba_marseille","lat":43.32099,"lon":5.36788,"is_reserved":false,"is_disabled":false,"rental_uris":{"android":"levelo://app?vid=6c948e9c-d5b3-4fe5-a918-1bd2f7c83b02","ios":"levelo://app?vid=6c948e9c-d5b3-4fe5-a918-1bd2f7c83b02"},"vehicle_type_id":"4","last_reported":1732399699,"current_range_meters":31200,"station_id":"ce4bhrh2rcd13ifvqhug","pricing_plan_id":"cebpf4jnsgd1na2vs0mg"},{"bike_id":"9e620abf-d324-4f99-84fc-d67e71109f2a","system_id":"levelo_inurba_marseille","lat":43.31077,"lon":5.42434,"is_reserved":false,"is_disabled":true,"rental_uris":{"android":"levelo://app?vid=9e620abf-d324-4f99-84fc-d67e71109f2a","ios":"levelo://app?vid=9e620abf-d324-4f99-84fc-d67e71109f2a"},"vehicle_type_id":"4","last_reported":1732399699,"current_range_meters":0,"station_id":"ce4bhp92rcd13ifvqhag","pricing_plan_id":"cebpf4jnsgd1na2vs0mg"},{"bike_id":"9388a7ff-9c5c-4c26-9899-39b2408cf7e3","system_id":"levelo_inurba_marseille","lat":43.31025,"lon":5.38342,"is_reserved":false,"is_disabled":true,"rental_uris":{"android":"levelo://app?vid=9388a7ff-9c5c-4c26-9899-39b2408cf7e3","ios":"levelo://app?vid=9388a7ff-9c5c-4c26-9899-39b2408cf7e3"},"vehicle_type_id":"4","last_reported":1732399699,"current_range_meters":0,"station_id":"","pricing_plan_id":"cebpf4jnsgd1na2vs0mg"},{"bike_id":"82af16e5-aea4-44e7-93e4-a1f17088c4fb","system_id":"levelo_inurba_marseille","lat":43.2558,"lon":5.38243,"is_reserved":false,"is_disabled":false,"rental_uris":{"android":"levelo://app?vid=82af16e5-aea4-44e7-93e4-a1f17088c4fb","ios":"levelo://app?vid=82af16e5-aea4-44e7-93e4-a1f17088c4fb"},"vehicle_type_id":"4","last_reported":1732399699,"current_range_meters":36000,"station_id":"ce4bhih2rcd13ifvqfs0","pricing_plan_id":"cebpf4jnsgd1na2vs0mg"},{"bike_id":"c6b4454a-877c-429e-8e00-351fc70ff9bb","system_id":"levelo_inurba_marseille","lat":43.32367,"lon":5.38888,"is_reserved":false,"is_disabled":false,"rental_uris":{"android":"levelo://app?vid=c6b4454a-877c-429e-8e00-351fc70ff9bb","ios":"levelo://app?vid=c6b4454a-877c-429e-8e00-351fc70ff9bb"},"vehicle_type_id":"4","last_reported":1732399699,"current_range_meters":11200,"station_id":"ce4bhqp2rcd13ifvqhog","pricing_plan_id":"cebpf4jnsgd1na2vs0mg"},{"bike_id":"878c1aca-74e8-4a96-8b6f-16d85c7f1ac1","system_id":"levelo_inurba_marseille","lat":43.30888,"lon":5.39643,"is_reserved":false,"is_disabled":false,"rental_uris":{"android":"levelo://app?vid=878c1aca-74e8-4a96-8b6f-16d85c7f1ac1","ios":"levelo://app?vid=878c1aca-74e8-4a96-8b6f-16d85c7f1ac1"},"vehicle_type_id":"4","last_reported":1732399699,"current_range_meters":38800,"station_id":"ce4bh012rcd13ifvqcv0","pricing_plan_id":"cebpf4jnsgd1na2vs0mg"},{"bike_id":"fcb3b44a-19bf-4080-9911-85044ccb8606","system_id":"levelo_inurba_marseille","lat":43.32543,"lon":5.41457,"is_reserved":false,"is_disabled":false,"rental_uris":{"android":"levelo://app?vid=fcb3b44a-19bf-4080-9911-85044ccb8606","ios":"levelo://app?vid=fcb3b44a-19bf-4080-9911-85044ccb8606"},"vehicle_type_id":"4","last_reported":1732399699,"current_range_meters":38000,"station_id":"ce4bhq12rcd13ifvqhhg","pricing_plan_id":"cebpf4jnsgd1na2vs0mg"},{"bike_id":"5c53cfbd-2547-413a-b79a-f8cc3b1ca992","system_id":"levelo_inurba_marseille","lat":43.32112,"lon":5.36784,"is_reserved":false,"is_disabled":false,"rental_uris":{"android":"levelo://app?vid=5c53cfbd-2547-413a-b79a-f8cc3b1ca992","ios":"levelo://app?vid=5c53cfbd-2547-413a-b79a-f8cc3b1ca992"},"vehicle_type_id":"4","last_reported":1732399699,"current_range_meters":8800,"station_id":"ce4bhrh2rcd13ifvqhug","pricing_plan_id":"cebpf4jnsgd1na2vs0mg"},{"bike_id":"84944571-a7ce-4f88-8b76-be139a0aee54","system_id":"levelo_inurba_marseille","lat":43.31709,"lon":5.43709,"is_reserved":false,"is_disabled":false,"rental_uris":{"android":"levelo://app?vid=84944571-a7ce-4f88-8b76-be139a0aee54","ios":"levelo://app?vid=84944571-a7ce-4f88-8b76-be139a0aee54"},"vehicle_type_id":"4","last_reported":1732399699,"current_range_meters":24800,"station_id":"ce4bhp92rcd13ifvqhcg","pricing_plan_id":"cebpf4jnsgd1na2vs0mg"},{"bike_id":"6535f144-f910-47c1-ae33-5a12bdda83c6","system_id":"levelo_inurba_marseille","lat":43.26946,"lon":5.38629,"is_reserved":false,"is_disabled":false,"rental_uris":{"android":"levelo://app?vid=6535f144-f910-47c1-ae33-5a12bdda83c6","ios":"levelo://app?vid=6535f144-f910-47c1-ae33-5a12bdda83c6"},"vehicle_type_id":"4","last_reported":1732399699,"current_range_meters":30800,"station_id":"ce4bhh92rcd13ifvqfh0","pricing_plan_id":"cebpf4jnsgd1na2vs0mg"},{"bike_id":"04b9c9cb-be15-44a7-9bdc-6d22ca715c34","system_id":"levelo_inurba_marseille","lat":43.33719,"lon":5.39184,"is_reserved":false,"is_disabled":false,"rental_uris":{"android":"levelo://app?vid=04b9c9cb-be15-44a7-9bdc-6d22ca715c34","ios":"levelo://app?vid=04b9c9cb-be15-44a7-9bdc-6d22ca715c34"},"vehicle_type_id":"4","last_reported":1732399699,"current_range_meters":27600,"station_id":"ce4bhr92rcd13ifvqhsg","pricing_plan_id":"cebpf4jnsgd1na2vs0mg"},{"bike_id":"03d19e80-9822-40a2-ab11-367d9ece2740","system_id":"levelo_inurba_marseille","lat":43.29598,"lon":5.38114,"is_reserved":false,"is_disabled":false,"rental_uris":{"android":"levelo://app?vid=03d19e80-9822-40a2-ab11-367d9ece2740","ios":"levelo://app?vid=03d19e80-9822-40a2-ab11-367d9ece2740"},"vehicle_type_id":"4","last_reported":1732399699,"current_range_meters":29600,"station_id":"ce4bgl12rcd13ifvqbo0","pricing_plan_id":"cebpf4jnsgd1na2vs0mg"},{"bike_id":"56ca6b93-ca3d-4dfc-8e20-e35c24d8bd07","system_id":"levelo_inurba_marseille","lat":43.337444,"lon":5.374475,"is_reserved":false,"is_disabled":true,"rental_uris":{"android":"levelo://app?vid=56ca6b93-ca3d-4dfc-8e20-e35c24d8bd07","ios":"levelo://app?vid=56ca6b93-ca3d-4dfc-8e20-e35c24d8bd07"},"vehicle_type_id":"4","last_reported":1732399699,"current_range_meters":0,"station_id":"","pricing_plan_id":"cebpf4jnsgd1na2vs0mg"},{"bike_id":"e9ed487d-bc77-4fe8-9a61-dc2ac11a5a4f","system_id":"levelo_inurba_marseille","lat":43.29872,"lon":5.38915,"is_reserved":false,"is_disabled":false,"rental_uris":{"android":"levelo://app?vid=e9ed487d-bc77-4fe8-9a61-dc2ac11a5a4f","ios":"levelo://app?vid=e9ed487d-bc77-4fe8-9a61-dc2ac11a5a4f"},"vehicle_type_id":"4","last_reported":1732399699,"current_range_meters":38800,"station_id":"ce4bh392rcd13ifvqdl0","pricing_plan_id":"cebpf4jnsgd1na2vs0mg"},{"bike_id":"fc4e3e2e-faf4-4cbc-8fd8-119b18821073","system_id":"levelo_inurba_marseille","lat":43.25578,"lon":5.38235,"is_reserved":false,"is_disabled":true,"rental_uris":{"android":"levelo://app?vid=fc4e3e2e-faf4-4cbc-8fd8-119b18821073","ios":"levelo://app?vid=fc4e3e2e-faf4-4cbc-8fd8-119b18821073"},"vehicle_type_id":"4","last_reported":1732399699,"current_range_meters":15200,"station_id":"ce4bhih2rcd13ifvqfs0","pricing_plan_id":"cebpf4jnsgd1na2vs0mg"},{"bike_id":"784ccf42-6e96-40cb-b1ba-cc836864e352","system_id":"levelo_inurba_marseille","lat":43.31356,"lon":5.385,"is_reserved":false,"is_disabled":false,"rental_uris":{"android":"levelo://app?vid=784ccf42-6e96-40cb-b1ba-cc836864e352","ios":"levelo://app?vid=784ccf42-6e96-40cb-b1ba-cc836864e352"},"vehicle_type_id":"4","last_reported":1732399699,"current_range_meters":38000,"station_id":"ce4bgt92rcd13ifvqcf0","pricing_plan_id":"cebpf4jnsgd1na2vs0mg"},{"bike_id":"46ac22a8-6f10-4221-98a6-34eba5c97bfb","system_id":"levelo_inurba_marseille","lat":43.29208,"lon":5.37313,"is_reserved":false,"is_disabled":true,"rental_uris":{"android":"levelo://app?vid=46ac22a8-6f10-4221-98a6-34eba5c97bfb","ios":"levelo://app?vid=46ac22a8-6f10-4221-98a6-34eba5c97bfb"},"vehicle_type_id":"4","last_reported":1732399699,"current_range_meters":0,"station_id":"","pricing_plan_id":"cebpf4jnsgd1na2vs0mg"},{"bike_id":"5eeb827b-7da1-4f83-81e8-52ff8cabfe3e","system_id":"levelo_inurba_marseille","lat":43.30795,"lon":5.38158,"is_reserved":false,"is_disabled":false,"rental_uris":{"android":"levelo://app?vid=5eeb827b-7da1-4f83-81e8-52ff8cabfe3e","ios":"levelo://app?vid=5eeb827b-7da1-4f83-81e8-52ff8cabfe3e"},"vehicle_type_id":"4","last_reported":1732399699,"current_range_meters":30400,"station_id":"ce4bgt12rcd13ifvqce0","pricing_plan_id":"cebpf4jnsgd1na2vs0mg"},{"bike_id":"c49b8609-9666-4244-8296-b395ec183917","system_id":"levelo_inurba_marseille","lat":43.27528,"lon":5.41633,"is_reserved":false,"is_disabled":false,"rental_uris":{"android":"levelo://app?vid=c49b8609-9666-4244-8296-b395ec183917","ios":"levelo://app?vid=c49b8609-9666-4244-8296-b395ec183917"},"vehicle_type_id":"4","last_reported":1732399699,"current_range_meters":10800,"station_id":"","pricing_plan_id":"cebpf4jnsgd1na2vs0mg"},{"bike_id":"b98490ee-49c9-4a5b-acb2-11855e78584d","system_id":"levelo_inurba_marseille","lat":43.31322,"lon":5.39692,"is_reserved":false,"is_disabled":false,"rental_uris":{"android":"levelo://app?vid=b98490ee-49c9-4a5b-acb2-11855e78584d","ios":"levelo://app?vid=b98490ee-49c9-4a5b-acb2-11855e78584d"},"vehicle_type_id":"4","last_reported":1732399699,"current_range_meters":17600,"station_id":"ce4bgvp2rcd13ifvqcu0","pricing_plan_id":"cebpf4jnsgd1na2vs0mg"},{"bike_id":"43746d86-8a13-4845-9faf-ae69b548d714","system_id":"levelo_inurba_marseille","lat":43.294538,"lon":5.379306,"is_reserved":false,"is_disabled":true,"rental_uris":{"android":"levelo://app?vid=43746d86-8a13-4845-9faf-ae69b548d714","ios":"levelo://app?vid=43746d86-8a13-4845-9faf-ae69b548d714"},"vehicle_type_id":"4","last_reported":1732399699,"current_range_meters":800,"station_id":"","pricing_plan_id":"cebpf4jnsgd1na2vs0mg"},{"bike_id":"a3acc461-ae70-4571-86d4-bbe3bb01774e","system_id":"levelo_inurba_marseille","lat":43.27983,"lon":5.40011,"is_reserved":false,"is_disabled":false,"rental_uris":{"android":"levelo://app?vid=a3acc461-ae70-4571-86d4-bbe3bb01774e","ios":"levelo://app?vid=a3acc461-ae70-4571-86d4-bbe3bb01774e"},"vehicle_type_id":"4","last_reported":1732399699,"current_range_meters":38800,"station_id":"ce4bho92rcd13ifvqh4g","pricing_plan_id":"cebpf4jnsgd1na2vs0mg"},{"bike_id":"8496e3a7-28a9-4cd0-871b-0ca81f01826c","system_id":"levelo_inurba_marseille","lat":43.30865,"lon":5.37176,"is_reserved":false,"is_disabled":false,"rental_uris":{"android":"levelo://app?vid=8496e3a7-28a9-4cd0-871b-0ca81f01826c","ios":"levelo://app?vid=8496e3a7-28a9-4cd0-871b-0ca81f01826c"},