{"last_updated":1768313732,"ttl":60,"version":"2.2","data":{"bikes":[{"bike_id":"604fbab3-766e-4a5c-9101-64b3884a0459","system_id":"levelo_inurba_marseille","lat":43.24663,"lon":5.38155,"is_reserved":false,"is_disabled":false,"rental_uris":{"android":"levelo://app?vid=604fbab3-766e-4a5c-9101-64b3884a0459","ios":"levelo://app?vid=604fbab3-766e-4a5c-9101-64b3884a0459"},"vehicle_type_id":"4","last_reported":1768313733,"current_range_meters":2800,"station_id":"ce4bhih2rcd13ifvqfr0","pricing_plan_id":"cebpf4jnsgd1na2vs0mg"},{"bike_id":"867b130f-e42d-4064-8fb6-c617116fbb81","system_id":"levelo_inurba_marseille","lat":43.25005,"lon":5.38918,"is_reserved":false,"is_disabled":false,"rental_uris":{"android":"levelo://app?vid=867b130f-e42d-4064-8fb6-c617116fbb81","ios":"levelo://app?vid=867b130f-e42d-4064-8fb6-c617116fbb81"},"vehicle_type_id":"4","last_reported":1768313733,"current_range_meters":2800,"station_id":"ce4bhgp2rcd13ifvqfd0","pricing_plan_id":"cebpf4jnsgd1na2vs0mg"},{"bike_id":"a3b66a73-aef3-42a6-bf24-ef2935218f23","system_id":"levelo_inurba_marseille","lat":43.32349,"lon":5.36744,"is_reserved":false,"is_disabled":false,"rental_uris":{"android":"levelo://app?vid=a3b66a73-aef3-42a6-bf24-ef2935218f23","ios":"levelo://app?vid=a3b66a73-aef3-42a6-bf24-ef2935218f23"},"vehicle_type_id":"4","last_reported":1768313733,"current_range_meters":2800,"station_id":"ce4bhsh2rcd13ifvqi2g","pricing_plan_id":"cebpf4jnsgd1na2vs0mg"},{"bike_id":"d24b01f1-a174-4c6c-9cd5-e4767d1723ba","system_id":"levelo_inurba_marseille","lat":43.2968,"lon":5.37818,"is_reserved":false,"is_disabled":false,"rental_uris":{"android":"levelo://app?vid=d24b01f1-a174-4c6c-9cd5-e4767d1723ba","ios":"levelo://app?vid=d24b01f1-a174-4c6c-9cd5-e4767d1723ba"},"vehicle_type_id":"4","last_reported":1768313733,"current_range_meters":2800,"station_id":"","pricing_plan_id":"cebpf4jnsgd1na2vs0mg"},{"bike_id":"a2e845c5-56a6-4e13-b9b8-02d14a90b050","system_id":"levelo_inurba_marseille","lat":43.2999,"lon":5.37171,"is_reserved":false,"is_disabled":false,"rental_uris":{"android":"levelo://app?vid=a2e845c5-56a6-4e13-b9b8-02d14a90b050","ios":"levelo://app?vid=a2e845c5-56a6-4e13-b9b8-02d14a90b050"},"vehicle_type_id":"4","last_reported":1768313733,"current_range_meters":2800,"station_id":"ce4bgr92rcd13ifvqc7g","pricing_plan_id":"cebpf4jnsgd1na2vs0mg"},{"bike_id":"b81a771e-796c-40e5-98d5-2c3857393d80","system_id":"levelo_inurba_marseille","lat":43.2848,"lon":5.483962,"is_reserved":false,"is_disabled":false,"rental_uris":{"android":"levelo://app?vid=b81a771e-796c-40e5-98d5-2c3857393d80","ios":"levelo://app?vid=b81a771e-796c-40e5-98d5-2c3857393d80"},"vehicle_type_id":"4","last_reported":1768313733,"current_range_meters":2800,"station_id":"st_d3svhcjqgbts73a3dn0g","pricing_plan_id":"cebpf4jnsgd1na2vs0mg"},{"bike_id":"d1d7ed20-2fc0-4bb0-b335-bddc0f061a5f","system_id":"levelo_inurba_marseille","lat":43.31134,"lon":5.3715,"is_reserved":false,"is_disabled":false,"rental_uris":{"android":"levelo://app?vid=d1d7ed20-2fc0-4bb0-b335-bddc0f061a5f","ios":"levelo://app?vid=d1d7ed20-2fc0-4bb0-b335-bddc0f061a5f"},"vehicle_type_id":"4","last_reported":1768313733,"current_range_meters":2800,"station_id":"st_d4kl2rp97mjs73e7tdfg","pricing_plan_id":"cebpf4jnsgd1na2vs0mg"},{"bike_id":"1ce376bc-d16e-43ee-bdf2-f7acab613f89","system_id":"levelo_inurba_marseille","lat":43.25316,"lon":5.376,"is_reserved":false,"is_disabled":false,"rental_uris":{"android":"levelo://app?vid=1ce376bc-d16e-43ee-bdf2-f7acab613f89","ios":"levelo://app?vid=1ce376bc-d16e-43ee-bdf2-f7acab613f89"},"vehicle_type_id":"4","last_reported":1768313733,"current_range_meters":2800,"station_id":"","pricing_plan_id":"cebpf4jnsgd1na2vs0mg"},{"bike_id":"bad9d05b-2efd-4707-af1a-d48b0eeaba21","system_id":"levelo_inurba_marseille","lat":43.24466,"lon":5.4254,"is_reserved":false,"is_disabled":false,"rental_uris":{"android":"levelo://app?vid=bad9d05b-2efd-4707-af1a-d48b0eeaba21","ios":"levelo://app?vid=bad9d05b-2efd-4707-af1a-d48b0eeaba21"},"vehicle_type_id":"4","last_reported":1768313733,"current_range_meters":3200,"station_id":"st_d4a3vfp97mjs738cd8kg","pricing_plan_id":"cebpf4jnsgd1na2vs0mg"},{"bike_id":"f1954b64-55b1-432c-a167-527f243227b7","system_id":"levelo_inurba_marseille","lat":43.27946,"lon":5.38736,"is_reserved":false,"is_disabled":false,"rental_uris":{"android":"levelo://app?vid=f1954b64-55b1-432c-a167-527f243227b7","ios":"levelo://app?vid=f1954b64-55b1-432c-a167-527f243227b7"},"vehicle_type_id":"4","last_reported":1768313733,"current_range_meters":3200,"station_id":"ce4bhg12rcd13ifvqf80","pricing_plan_id":"cebpf4jnsgd1na2vs0mg"},{"bike_id":"f2feb58b-2e1d-410d-a362-6a4d0a6ad00a","system_id":"levelo_inurba_marseille","lat":43.26959,"lon":5.40287,"is_reserved":false,"is_disabled":false,"rental_uris":{"android":"levelo://app?vid=f2feb58b-2e1d-410d-a362-6a4d0a6ad00a","ios":"levelo://app?vid=f2feb58b-2e1d-410d-a362-6a4d0a6ad00a"},"vehicle_type_id":"4","last_reported":1768313733,"current_range_meters":3200,"station_id":"cjm6bp8fraef2m0cb0m0","pricing_plan_id":"cebpf4jnsgd1na2vs0mg"},{"bike_id":"4202e215-6f29-4f58-ace8-2e6289f05e81","system_id":"levelo_inurba_marseille","lat":43.23959,"lon":5.36628,"is_reserved":false,"is_disabled":false,"rental_uris":{"android":"levelo://app?vid=4202e215-6f29-4f58-ace8-2e6289f05e81","ios":"levelo://app?vid=4202e215-6f29-4f58-ace8-2e6289f05e81"},"vehicle_type_id":"4","last_reported":1768313733,"current_range_meters":3200,"station_id":"ce4bhi12rcd13ifvqfp0","pricing_plan_id":"cebpf4jnsgd1na2vs0mg"},{"bike_id":"498ef5ca-3d46-448d-9054-c0930e319a04","system_id":"levelo_inurba_marseille","lat":43.26678,"lon":5.3827,"is_reserved":false,"is_disabled":false,"rental_uris":{"android":"levelo://app?vid=498ef5ca-3d46-448d-9054-c0930e319a04","ios":"levelo://app?vid=498ef5ca-3d46-448d-9054-c0930e319a04"},"vehicle_type_id":"4","last_reported":1768313733,"current_range_meters":3200,"station_id":"ce4bhg92rcd13ifvqf90","pricing_plan_id":"cebpf4jnsgd1na2vs0mg"},{"bike_id":"38f4a987-dd83-438a-8fb1-86586e5ae543","system_id":"levelo_inurba_marseille","lat":43.240726,"lon":5.377662,"is_reserved":false,"is_disabled":false,"rental_uris":{"android":"levelo://app?vid=38f4a987-dd83-438a-8fb1-86586e5ae543","ios":"levelo://app?vid=38f4a987-dd83-438a-8fb1-86586e5ae543"},"vehicle_type_id":"4","last_reported":1768313733,"current_range_meters":3200,"station_id":"","pricing_plan_id":"cebpf4jnsgd1na2vs0mg"},{"bike_id":"f834112e-8109-4d00-a01e-4c657485b5bf","system_id":"levelo_inurba_marseille","lat":43.295471,"lon":5.375056,"is_reserved":false,"is_disabled":false,"rental_uris":{"android":"levelo://app?vid=f834112e-8109-4d00-a01e-4c657485b5bf","ios":"levelo://app?vid=f834112e-8109-4d00-a01e-4c657485b5bf"},"vehicle_type_id":"4","last_reported":1768313733,"current_range_meters":3200,"station_id":"ce4bhbp2rcd13ifvqesg","pricing_plan_id":"cebpf4jnsgd1na2vs0mg"},{"bike_id":"cd0221e4-8d5e-4481-a072-4408c503f646","system_id":"levelo_inurba_marseille","lat":43.27995,"lon":5.41669,"is_reserved":false,"is_disabled":false,"rental_uris":{"android":"levelo://app?vid=cd0221e4-8d5e-4481-a072-4408c503f646","ios":"levelo://app?vid=cd0221e4-8d5e-4481-a072-4408c503f646"},"vehicle_type_id":"4","last_reported":1768313733,"current_range_meters":3200,"station_id":"ce4bho12rcd13ifvqh1g","pricing_plan_id":"cebpf4jnsgd1na2vs0mg"},{"bike_id":"682a25db-2229-438e-a91a-bd8e0ed43f7f","system_id":"levelo_inurba_marseille","lat":43.3017,"lon":5.37114,"is_reserved":false,"is_disabled":false,"rental_uris":{"android":"levelo://app?vid=682a25db-2229-438e-a91a-bd8e0ed43f7f","ios":"levelo://app?vid=682a25db-2229-438e-a91a-bd8e0ed43f7f"},"vehicle_type_id":"4","last_reported":1768313733,"current_range_meters":3600,"station_id":"","pricing_plan_id":"cebpf4jnsgd1na2vs0mg"},{"bike_id":"7fb0d18d-87f0-4490-ac9a-259338a041dc","system_id":"levelo_inurba_marseille","lat":43.23523,"lon":5.35941,"is_reserved":false,"is_disabled":false,"rental_uris":{"android":"levelo://app?vid=7fb0d18d-87f0-4490-ac9a-259338a041dc","ios":"levelo://app?vid=7fb0d18d-87f0-4490-ac9a-259338a041dc"},"vehicle_type_id":"4","last_reported":1768313733,"current_range_meters":3600,"station_id":"","pricing_plan_id":"cebpf4jnsgd1na2vs0mg"},{"bike_id":"2455333c-abb5-40b2-83d1-6df58226f70a","system_id":"levelo_inurba_marseille","lat":43.328995,"lon":5.38944,"is_reserved":false,"is_disabled":false,"rental_uris":{"android":"levelo://app?vid=2455333c-abb5-40b2-83d1-6df58226f70a","ios":"levelo://app?vid=2455333c-abb5-40b2-83d1-6df58226f70a"},"vehicle_type_id":"4","last_reported":1768313733,"current_range_meters":3600,"station_id":"","pricing_plan_id":"cebpf4jnsgd1na2vs0mg"},{"bike_id":"38d076d2-a3a0-46d0-b800-0eaafad476d4","system_id":"levelo_inurba_marseille","lat":43.2821,"lon":5.40373,"is_reserved":false,"is_disabled":false,"rental_uris":{"android":"levelo://app?vid=38d076d2-a3a0-46d0-b800-0eaafad476d4","ios":"levelo://app?vid=38d076d2-a3a0-46d0-b800-0eaafad476d4"},"vehicle_type_id":"4","last_reported":1768313733,"current_range_meters":3600,"station_id":"","pricing_plan_id":"cebpf4jnsgd1na2vs0mg"},{"bike_id":"5cc47697-e7d7-4e9c-9477-49e4d41f7e6f","system_id":"levelo_inurba_marseille","lat":43.29598,"lon":5.38106,"is_reserved":false,"is_disabled":false,"rental_uris":{"android":"levelo://app?vid=5cc47697-e7d7-4e9c-9477-49e4d41f7e6f","ios":"levelo://app?vid=5cc47697-e7d7-4e9c-9477-49e4d41f7e6f"},"vehicle_type_id":"4","last_reported":1768313733,"current_range_meters":3600,"station_id":"ce4bgl12rcd13ifvqbo0","pricing_plan_id":"cebpf4jnsgd1na2vs0mg"},{"bike_id":"9f295e7a-65c6-4272-9043-5a3d89670383","system_id":"levelo_inurba_marseille","lat":43.29009,"lon":5.35613,"is_reserved":false,"is_disabled":false,"rental_uris":{"android":"levelo://app?vid=9f295e7a-65c6-4272-9043-5a3d89670383","ios":"levelo://app?vid=9f295e7a-65c6-4272-9043-5a3d89670383"},"vehicle_type_id":"4","last_reported":1768313733,"current_range_meters":3600,"station_id":"ce4bhb92rcd13ifvqen0","pricing_plan_id":"cebpf4jnsgd1na2vs0mg"},{"bike_id":"fc74934f-bed9-4e56-8f3d-2d18a9106550","system_id":"levelo_inurba_marseille","lat":43.240833,"lon":5.37753,"is_reserved":false,"is_disabled":false,"rental_uris":{"android":"levelo://app?vid=fc74934f-bed9-4e56-8f3d-2d18a9106550","ios":"levelo://app?vid=fc74934f-bed9-4e56-8f3d-2d18a9106550"},"vehicle_type_id":"4","last_reported":1768313733,"current_range_meters":3600,"station_id":"ce4bhnp2rcd13ifvqgvg","pricing_plan_id":"cebpf4jnsgd1na2vs0mg"},{"bike_id":"a38bcbb1-c226-4bc2-8672-2e7d0273da8d","system_id":"levelo_inurba_marseille","lat":43.32345,"lon":5.36745,"is_reserved":false,"is_disabled":false,"rental_uris":{"android":"levelo://app?vid=a38bcbb1-c226-4bc2-8672-2e7d0273da8d","ios":"levelo://app?vid=a38bcbb1-c226-4bc2-8672-2e7d0273da8d"},"vehicle_type_id":"4","last_reported":1768313733,"current_range_meters":4000,"station_id":"ce4bhsh2rcd13ifvqi2g","pricing_plan_id":"cebpf4jnsgd1na2vs0mg"},{"bike_id":"e3615a85-f48a-4303-a1b7-ba1422ee46f8","system_id":"levelo_inurba_marseille","lat":43.29973,"lon":5.4134,"is_reserved":false,"is_disabled":false,"rental_uris":{"android":"levelo://app?vid=e3615a85-f48a-4303-a1b7-ba1422ee46f8","ios":"levelo://app?vid=e3615a85-f48a-4303-a1b7-ba1422ee46f8"},"vehicle_type_id":"4","last_reported":1768313733,"current_range_meters":4000,"station_id":"ce4bhp12rcd13ifvqh9g","pricing_plan_id":"cebpf4jnsgd1na2vs0mg"},{"bike_id":"d57094ce-7af8-428e-9753-4201f05f4a86","system_id":"levelo_inurba_marseille","lat":43.24814,"lon":5.37458,"is_reserved":false,"is_disabled":false,"rental_uris":{"android":"levelo://app?vid=d57094ce-7af8-428e-9753-4201f05f4a86","ios":"levelo://app?vid=d57094ce-7af8-428e-9753-4201f05f4a86"},"vehicle_type_id":"4","last_reported":1768313733,"current_range_meters":4000,"station_id":"ce4bhgh2rcd13ifvqfb0","pricing_plan_id":"cebpf4jnsgd1na2vs0mg"},{"bike_id":"f3260bf6-b6e1-4b69-a585-0ec627cbc07a","system_id":"levelo_inurba_marseille","lat":43.28982,"lon":5.37846,"is_reserved":false,"is_disabled":false,"rental_uris":{"android":"levelo://app?vid=f3260bf6-b6e1-4b69-a585-0ec627cbc07a","ios":"levelo://app?vid=f3260bf6-b6e1-4b69-a585-0ec627cbc07a"},"vehicle_type_id":"4","last_reported":1768313733,"current_range_meters":4000,"station_id":"ce4bh9p2rcd13ifvqed0","pricing_plan_id":"cebpf4jnsgd1na2vs0mg"},{"bike_id":"fd5c22af-551e-4b5c-a587-8bd6f93a7d5e","system_id":"levelo_inurba_marseille","lat":43.27945,"lon":5.41031,"is_reserved":false,"is_disabled":false,"rental_uris":{"android":"levelo://app?vid=fd5c22af-551e-4b5c-a587-8bd6f93a7d5e","ios":"levelo://app?vid=fd5c22af-551e-4b5c-a587-8bd6f93a7d5e"},"vehicle_type_id":"4","last_reported":1768313733,"current_range_meters":4000,"station_id":"","pricing_plan_id":"cebpf4jnsgd1na2vs0mg"},{"bike_id":"a35c1272-cc54-4e30-b88d-627bf077b337","system_id":"levelo_inurba_marseille","lat":43.29764,"lon":5.37118,"is_reserved":false,"is_disabled":false,"rental_uris":{"android":"levelo://app?vid=a35c1272-cc54-4e30-b88d-627bf077b337","ios":"levelo://app?vid=a35c1272-cc54-4e30-b88d-627bf077b337"},"vehicle_type_id":"4","last_reported":1768313733,"current_range_meters":4000,"station_id":"ce4bgop2rcd13ifvqc1g","pricing_plan_id":"cebpf4jnsgd1na2vs0mg"},{"bike_id":"62a6a880-8c2f-4973-954e-dca5b666173d","system_id":"levelo_inurba_marseille","lat":43.29959,"lon":5.37367,"is_reserved":false,"is_disabled":false,"rental_uris":{"android":"levelo://app?vid=62a6a880-8c2f-4973-954e-dca5b666173d","ios":"levelo://app?vid=62a6a880-8c2f-4973-954e-dca5b666173d"},"vehicle_type_id":"4","last_reported":1768313733,"current_range_meters":4000,"station_id":"","pricing_plan_id":"cebpf4jnsgd1na2vs0mg"},{"bike_id":"9bd81498-1c2d-46cc-b134-62e2c3cd9ba1","system_id":"levelo_inurba_marseille","lat":43.2887,"lon":5.42525,"is_reserved":false,"is_disabled":false,"rental_uris":{"android":"levelo://app?vid=9bd81498-1c2d-46cc-b134-62e2c3cd9ba1","ios":"levelo://app?vid=9bd81498-1c2d-46cc-b134-62e2c3cd9ba1"},"vehicle_type_id":"4","last_reported":1768313733,"current_range_meters":4000,"station_id":"st_d3b462108ojc7389ooeg","pricing_plan_id":"cebpf4jnsgd1na2vs0mg"},{"bike_id":"bb872cf3-111a-4da5-8326-64266a28cac2","system_id":"levelo_inurba_marseille","lat":43.260641,"lon":5.393972,"is_reserved":false,"is_disabled":false,"rental_uris":{"android":"levelo://app?vid=bb872cf3-111a-4da5-8326-64266a28cac2","ios":"levelo://app?vid=bb872cf3-111a-4da5-8326-64266a28cac2"},"vehicle_type_id":"4","last_reported":1768313733,"current_range_meters":4000,"station_id":"ce4bhh92rcd13ifvqfj0","pricing_plan_id":"cebpf4jnsgd1na2vs0mg"},{"bike_id":"c8f97057-827a-4c4d-ae60-8be35a8b09aa","system_id":"levelo_inurba_marseille","lat":43.318682,"lon":5.39986,"is_reserved":false,"is_disabled":false,"rental_uris":{"android":"levelo://app?vid=c8f97057-827a-4c4d-ae60-8be35a8b09aa","ios":"levelo://app?vid=c8f97057-827a-4c4d-ae60-8be35a8b09aa"},"vehicle_type_id":"4","last_reported":1768313733,"current_range_meters":4000,"station_id":"ce4bgih2rcd13ifvqba0","pricing_plan_id":"cebpf4jnsgd1na2vs0mg"},{"bike_id":"db182b38-fee4-46bf-93fb-ced6dd6ca22e","system_id":"levelo_inurba_marseille","lat":43.2694,"lon":5.38915,"is_reserved":false,"is_disabled":false,"rental_uris":{"android":"levelo://app?vid=db182b38-fee4-46bf-93fb-ced6dd6ca22e","ios":"levelo://app?vid=db182b38-fee4-46bf-93fb-ced6dd6ca22e"},"vehicle_type_id":"4","last_reported":1768313733,"current_range_meters":4000,"station_id":"ce4bhhh2rcd13ifvqfl0","pricing_plan_id":"cebpf4jnsgd1na2vs0mg"},{"bike_id":"1fab451c-a69a-44ca-b2c3-fe8939fd9580","system_id":"levelo_inurba_marseille","lat":43.31597,"lon":5.41429,"is_reserved":false,"is_disabled":false,"rental_uris":{"android":"levelo://app?vid=1fab451c-a69a-44ca-b2c3-fe8939fd9580","ios":"levelo://app?vid=1fab451c-a69a-44ca-b2c3-fe8939fd9580"},"vehicle_type_id":"4","last_reported":1768313733,"current_range_meters":4000,"station_id":"","pricing_plan_id":"cebpf4jnsgd1na2vs0mg"},{"bike_id":"e17a9c82-8846-45df-b367-7545f106e168","system_id":"levelo_inurba_marseille","lat":43.31329,"lon":5.38424,"is_reserved":false,"is_disabled":false,"rental_uris":{"android":"levelo://app?vid=e17a9c82-8846-45df-b367-7545f106e168","ios":"levelo://app?vid=e17a9c82-8846-45df-b367-7545f106e168"},"vehicle_type_id":"4","last_reported":1768313733,"current_range_meters":4400,"station_id":"","pricing_plan_id":"cebpf4jnsgd1na2vs0mg"},{"bike_id":"4e3d6d82-906c-4359-bb4c-5b997113e1ff","system_id":"levelo_inurba_marseille","lat":43.30559,"lon":5.36542,"is_reserved":false,"is_disabled":false,"rental_uris":{"android":"levelo://app?vid=4e3d6d82-906c-4359-bb4c-5b997113e1ff","ios":"levelo://app?vid=4e3d6d82-906c-4359-bb4c-5b997113e1ff"},"vehicle_type_id":"4","last_reported":1768313733,"current_range_meters":4400,"station_id":"ce4bgs12rcd13ifvqcag","pricing_plan_id":"cebpf4jnsgd1na2vs0mg"},{"bike_id":"c5b0e4e4-c0dd-441f-992f-a632a50a9951","system_id":"levelo_inurba_marseille","lat":43.27646,"lon":5.36141,"is_reserved":false,"is_disabled":false,"rental_uris":{"android":"levelo://app?vid=c5b0e4e4-c0dd-441f-992f-a632a50a9951","ios":"levelo://app?vid=c5b0e4e4-c0dd-441f-992f-a632a50a9951"},"vehicle_type_id":"4","last_reported":1768313733,"current_range_meters":4400,"station_id":"ce4bgj92rcd13ifvqbe0","pricing_plan_id":"cebpf4jnsgd1na2vs0mg"},{"bike_id":"1bc4dd22-8b42-4ae1-b96e-ede97fc223cf","system_id":"levelo_inurba_marseille","lat":43.29898,"lon":5.37797,"is_reserved":false,"is_disabled":false,"rental_uris":{"android":"levelo://app?vid=1bc4dd22-8b42-4ae1-b96e-ede97fc223cf","ios":"levelo://app?vid=1bc4dd22-8b42-4ae1-b96e-ede97fc223cf"},"vehicle_type_id":"4","last_reported":1768313733,"current_range_meters":4400,"station_id":"","pricing_plan_id":"cebpf4jnsgd1na2vs0mg"},{"bike_id":"ba9aa4b5-9ae3-4347-ba16-0b79f803aee5","system_id":"levelo_inurba_marseille","lat":43.29859,"lon":5.40915,"is_reserved":false,"is_disabled":false,"rental_uris":{"android":"levelo://app?vid=ba9aa4b5-9ae3-4347-ba16-0b79f803aee5","ios":"levelo://app?vid=ba9aa4b5-9ae3-4347-ba16-0b79f803aee5"},"vehicle_type_id":"4","last_reported":1768313733,"current_range_meters":4400,"station_id":"","pricing_plan_id":"cebpf4jnsgd1na2vs0mg"},{"bike_id":"c4719649-1dbc-4c5a-b782-8fce65146957","system_id":"levelo_inurba_marseille","lat":43.28552,"lon":5.44078,"is_reserved":false,"is_disabled":false,"rental_uris":{"android":"levelo://app?vid=c4719649-1dbc-4c5a-b782-8fce65146957","ios":"levelo://app?vid=c4719649-1dbc-4c5a-b782-8fce65146957"},"vehicle_type_id":"4","last_reported":1768313733,"current_range_meters":4400,"station_id":"st_d3j3df2ikq2c7380ej80","pricing_plan_id":"cebpf4jnsgd1na2vs0mg"},{"bike_id":"88128b65-d903-42bf-be44-f6d0a06eea86","system_id":"levelo_inurba_marseille","lat":43.24663,"lon":5.38157,"is_reserved":false,"is_disabled":false,"rental_uris":{"android":"levelo://app?vid=88128b65-d903-42bf-be44-f6d0a06eea86","ios":"levelo://app?vid=88128b65-d903-42bf-be44-f6d0a06eea86"},"vehicle_type_id":"4","last_reported":1768313733,"current_range_meters":4400,"station_id":"ce4bhih2rcd13ifvqfr0","pricing_plan_id":"cebpf4jnsgd1na2vs0mg"},{"bike_id":"9c6ac982-85bd-4de8-bac0-c36b3d884f3d","system_id":"levelo_inurba_marseille","lat":43.321068,"lon":5.367782,"is_reserved":false,"is_disabled":false,"rental_uris":{"android":"levelo://app?vid=9c6ac982-85bd-4de8-bac0-c36b3d884f3d","ios":"levelo://app?vid=9c6ac982-85bd-4de8-bac0-c36b3d884f3d"},"vehicle_type_id":"4","last_reported":1768313733,"current_range_meters":4400,"station_id":"ce4bhrh2rcd13ifvqhug","pricing_plan_id":"cebpf4jnsgd1na2vs0mg"},{"bike_id":"f49b5bee-e2f5-416e-ae69-8940360ec155","system_id":"levelo_inurba_marseille","lat":43.30156,"lon":5.38089,"is_reserved":false,"is_disabled":false,"rental_uris":{"android":"levelo://app?vid=f49b5bee-e2f5-416e-ae69-8940360ec155","ios":"levelo://app?vid=f49b5bee-e2f5-416e-ae69-8940360ec155"},"vehicle_type_id":"4","last_reported":1768313733,"current_range_meters":4400,"station_id":"ce4bgjp2rcd13ifvqbh0","pricing_plan_id":"cebpf4jnsgd1na2vs0mg"},{"bike_id":"6545afba-279f-4bbb-9cca-8da25bea068c","system_id":"levelo_inurba_marseille","lat":43.29816,"lon":5.38087,"is_reserved":false,"is_disabled":false,"rental_uris":{"android":"levelo://app?vid=6545afba-279f-4bbb-9cca-8da25bea068c","ios":"levelo://app?vid=6545afba-279f-4bbb-9cca-8da25bea068c"},"vehicle_type_id":"4","last_reported":1768313733,"current_range_meters":4400,"station_id":"ce4bgip2rcd13ifvqbb0","pricing_plan_id":"cebpf4jnsgd1na2vs0mg"},{"bike_id":"6f2a29f4-4e29-4e8c-b4a0-226d69b9d67d","system_id":"levelo_inurba_marseille","lat":43.30152,"lon":5.38771,"is_reserved":false,"is_disabled":false,"rental_uris":{"android":"levelo://app?vid=6f2a29f4-4e29-4e8c-b4a0-226d69b9d67d","ios":"levelo://app?vid=6f2a29f4-4e29-4e8c-b4a0-226d69b9d67d"},"vehicle_type_id":"4","last_reported":1768313733,"current_range_meters":4400,"station_id":"ce4bghh2rcd13ifvqb60","pricing_plan_id":"cebpf4jnsgd1na2vs0mg"},{"bike_id":"f054574f-f7a6-495c-9faa-e164013165bc","system_id":"levelo_inurba_marseille","lat":43.26207,"lon":5.37449,"is_reserved":false,"is_disabled":false,"rental_uris":{"android":"levelo://app?vid=f054574f-f7a6-495c-9faa-e164013165bc","ios":"levelo://app?vid=f054574f-f7a6-495c-9faa-e164013165bc"},"vehicle_type_id":"4","last_reported":1768313733,"current_range_meters":4400,"station_id":"ce4bhgp2rcd13ifvqfc0","pricing_plan_id":"cebpf4jnsgd1na2vs0mg"},{"bike_id":"4b7e622a-4d92-44a0-b6d5-24d6b5445f5c","system_id":"levelo_inurba_marseille","lat":43.326874,"lon":5.395609,"is_reserved":false,"is_disabled":false,"rental_uris":{"android":"levelo://app?vid=4b7e622a-4d92-44a0-b6d5-24d6b5445f5c","ios":"levelo://app?vid=4b7e622a-4d92-44a0-b6d5-24d6b5445f5c"},"vehicle_type_id":"4","last_reported":1768313733,"current_range_meters":4400,"station_id":"","pricing_plan_id":"cebpf4jnsgd1na2vs0mg"},{"bike_id":"a27f6a61-689d-49de-951e-01c7ddaa0581","system_id":"levelo_inurba_marseille","lat":43.2417,"lon":5.36399,"is_reserved":false,"is_disabled":false,"rental_uris":{"android":"levelo://app?vid=a27f6a61-689d-49de-951e-01c7ddaa0581","ios":"levelo://app?vid=a27f6a61-689d-49de-951e-01c7ddaa0581"},"vehicle_type_id":"4","last_reported":1768313733,"current_range_meters":4800,"station_id":"cpo36qri1sfpv3e86is0","pricing_plan_id":"cebpf4jnsgd1na2vs0mg"},{"bike_id":"47fa8c07-02d3-44db-8c89-106a6ddb4f66","system_id":"levelo_inurba_marseille","lat":43.2954,"lon":5.3854,"is_reserved":false,"is_disabled":false,"rental_uris":{"android":"levelo://app?vid=47fa8c07-02d3-44db-8c89-106a6ddb4f66","ios":"levelo://app?vid=47fa8c07-02d3-44db-8c89-106a6ddb4f66"},"vehicle_type_id":"4","last_reported":1768313733,"current_range_meters":4800,"station_id":"ce4bgih2rcd13ifvqba0","pricing_plan_id":"cebpf4jnsgd1na2vs0mg"},{"bike_id":"c9aa61c2-bf79-4eea-867a-5fdf9f19baaf","system_id":"levelo_inurba_marseille","lat":43.25513,"lon":5.37654,"is_reserved":false,"is_disabled":false,"rental_uris":{"android":"levelo://app?vid=c9aa61c2-bf79-4eea-867a-5fdf9f19baaf","ios":"levelo://app?vid=c9aa61c2-bf79-4eea-867a-5fdf9f19baaf"},"vehicle_type_id":"4","last_reported":1768313733,"current_range_meters":4800,"station_id":"ce4bhh12rcd13ifvqff0","pricing_plan_id":"cebpf4jnsgd1na2vs0mg"},{"bike_id":"c4fcc189-751d-4eb2-af69-d5ccf6bfb543","system_id":"levelo_inurba_marseille","lat":43.28479,"lon":5.48402,"is_reserved":false,"is_disabled":false,"rental_uris":{"android":"levelo://app?vid=c4fcc189-751d-4eb2-af69-d5ccf6bfb543","ios":"levelo://app?vid=c4fcc189-751d-4eb2-af69-d5ccf6bfb543"},"vehicle_type_id":"4","last_reported":1768313733,"current_range_meters":4800,"station_id":"","pricing_plan_id":"cebpf4jnsgd1na2vs0mg"},{"bike_id":"aa71df00-ac67-458a-bb07-9f22d4867495","system_id":"levelo_inurba_marseille","lat":43.243866,"lon":5.370732,"is_reserved":false,"is_disabled":false,"rental_uris":{"android":"levelo://app?vid=aa71df00-ac67-458a-bb07-9f22d4867495","ios":"levelo://app?vid=aa71df00-ac67-458a-bb07-9f22d4867495"},"vehicle_type_id":"4","last_reported":1768313733,"current_range_meters":4800,"station_id":"ce4bhhh2rcd13ifvqfk0","pricing_plan_id":"cebpf4jnsgd1na2vs0mg"},{"bike_id":"84951559-d076-4e70-a7a4-2e39152a2686","system_id":"levelo_inurba_marseille","lat":43.28396,"lon":5.34936,"is_reserved":false,"is_disabled":false,"rental_uris":{"android":"levelo://app?vid=84951559-d076-4e70-a7a4-2e39152a2686","ios":"levelo://app?vid=84951559-d076-4e70-a7a4-2e39152a2686"},"vehicle_type_id":"4","last_reported":1768313733,"current_range_meters":4800,"station_id":"ce4bhbh2rcd13ifvqepg","pricing_plan_id":"cebpf4jnsgd1na2vs0mg"},{"bike_id":"fbaef028-ec74-4c9f-8bef-75df8753715b","system_id":"levelo_inurba_marseille","lat":43.29028,"lon":5.37075,"is_reserved":false,"is_disabled":false,"rental_uris":{"android":"levelo://app?vid=fbaef028-ec74-4c9f-8bef-75df8753715b","ios":"levelo://app?vid=fbaef028-ec74-4c9f-8bef-75df8753715b"},"vehicle_type_id":"4","last_reported":1768313733,"current_range_meters":4800,"station_id":"","pricing_plan_id":"cebpf4jnsgd1na2vs0mg"},{"bike_id":"63b1856a-5e73-4949-8313-642a7aae66aa","system_id":"levelo_inurba_marseille","lat":43.2293,"lon":5.35385,"is_reserved":false,"is_disabled":false,"rental_uris":{"android":"levelo://app?vid=63b1856a-5e73-4949-8313-642a7aae66aa","ios":"levelo://app?vid=63b1856a-5e73-4949-8313-642a7aae66aa"},"vehicle_type_id":"4","last_reported":1768313733,"current_range_meters":4800,"station_id":"cpo3532slgdg3j2ikp40","pricing_plan_id":"cebpf4jnsgd1na2vs0mg"},{"bike_id":"a5fdd8c3-d5e0-4c98-a5d1-c952389257b2","system_id":"levelo_inurba_marseille","lat":43.24644,"lon":5.43154,"is_reserved":false,"is_disabled":false,"rental_uris":{"android":"levelo://app?vid=a5fdd8c3-d5e0-4c98-a5d1-c952389257b2","ios":"levelo://app?vid=a5fdd8c3-d5e0-4c98-a5d1-c952389257b2"},"vehicle_type_id":"4","last_reported":1768313733,"current_range_meters":4800,"station_id":"st_d2m6c4gdas8pm72e190g","pricing_plan_id":"cebpf4jnsgd1na2vs0mg"},{"bike_id":"1b1a670a-fcf4-4828-aa79-e1b72cfec18c","system_id":"levelo_inurba_marseille","lat":43.2319,"lon":5.35533,"is_reserved":false,"is_disabled":false,"rental_uris":{"android":"levelo://app?vid=1b1a670a-fcf4-4828-aa79-e1b72cfec18c","ios":"levelo://app?vid=1b1a670a-fcf4-4828-aa79-e1b72cfec18c"},"vehicle_type_id":"4","last_reported":1768313733,"current_range_meters":4800,"station_id":"ce4bhu92rcd13ifvqi70","pricing_plan_id":"cebpf4jnsgd1na2vs0mg"},{"bike_id":"b659a5a2-a6de-438e-b560-ec4a8dc93085","system_id":"levelo_inurba_marseille","lat":43.26232,"lon":5.40465,"is_reserved":false,"is_disabled":false,"rental_uris":{"android":"levelo://app?vid=b659a5a2-a6de-438e-b560-ec4a8dc93085","ios":"levelo://app?vid=b659a5a2-a6de-438e-b560-ec4a8dc93085"},"vehicle_type_id":"4","last_reported":1768313733,"current_range_meters":4800,"station_id":"ce4bhmh2rcd13ifvqgmg","pricing_plan_id":"cebpf4jnsgd1na2vs0mg"},{"bike_id":"13662eef-e481-4035-87f4-e29bc7b1f8a5","system_id":"levelo_inurba_marseille","lat":43.31066,"lon":5.38354,"is_reserved":false,"is_disabled":false,"rental_uris":{"android":"levelo://app?vid=13662eef-e481-4035-87f4-e29bc7b1f8a5","ios":"levelo://app?vid=13662eef-e481-4035-87f4-e29bc7b1f8a5"},"vehicle_type_id":"4","last_reported":1768313733,"current_range_meters":4800,"station_id":"ce4bgv92rcd13ifvqcr0","pricing_plan_id":"cebpf4jnsgd1na2vs0mg"},{"bike_id":"cdb7f885-d79c-4a7f-be8b-87d7e51ae524","system_id":"levelo_inurba_marseille","lat":43.3065,"lon":5.40499,"is_reserved":false,"is_disabled":false,"rental_uris":{"android":"levelo://app?vid=cdb7f885-d79c-4a7f-be8b-87d7e51ae524","ios":"levelo://app?vid=cdb7f885-d79c-4a7f-be8b-87d7e51ae524"},"vehicle_type_id":"4","last_reported":1768313733,"current_range_meters":4800,"station_id":"ce4bh112rcd13ifvqda0","pricing_plan_id":"cebpf4jnsgd1na2vs0mg"},{"bike_id":"f004cde4-4021-474c-a31a-7d2186825331","system_id":"levelo_inurba_marseille","lat":43.273754,"lon":5.3626,"is_reserved":false,"is_disabled":false,"rental_uris":{"android":"levelo://app?vid=f004cde4-4021-474c-a31a-7d2186825331","ios":"levelo://app?vid=f004cde4-4021-474c-a31a-7d2186825331"},"vehicle_type_id":"4","last_reported":1768313733,"current_range_meters":4800,"station_id":"","pricing_plan_id":"cebpf4jnsgd1na2vs0mg"},{"bike_id":"73995964-5fd9-40f3-be62-12151c415e47","system_id":"levelo_inurba_marseille","lat":43.25019,"lon":5.38947,"is_reserved":false,"is_disabled":false,"rental_uris":{"android":"levelo://app?vid=73995964-5fd9-40f3-be62-12151c415e47","ios":"levelo://app?vid=73995964-5fd9-40f3-be62-12151c415e47"},"vehicle_type_id":"4","last_reported":1768313733,"current_range_meters":5600,"station_id":"ce4bhgp2rcd13ifvqfd0","pricing_plan_id":"cebpf4jnsgd1na2vs0mg"},{"bike_id":"0e7aa57a-77c1-40b0-a4eb-63a9b6c73c36","system_id":"levelo_inurba_marseille","lat":43.31419,"lon":5.36752,"is_reserved":false,"is_disabled":false,"rental_uris":{"android":"levelo://app?vid=0e7aa57a-77c1-40b0-a4eb-63a9b6c73c36","ios":"levelo://app?vid=0e7aa57a-77c1-40b0-a4eb-63a9b6c73c36"},"vehicle_type_id":"4","last_reported":1768313733,"current_range_meters":5600,"station_id":"ce4bgr92rcd13ifvqc6g","pricing_plan_id":"cebpf4jnsgd1na2vs0mg"},{"bike_id":"0fafc9bc-eab3-4497-b4de-e36867104d5a","system_id":"levelo_inurba_marseille","lat":43.260662,"lon":5.393966,"is_reserved":false,"is_disabled":false,"rental_uris":{"android":"levelo://app?vid=0fafc9bc-eab3-4497-b4de-e36867104d5a","ios":"levelo://app?vid=0fafc9bc-eab3-4497-b4de-e36867104d5a"},"vehicle_type_id":"4","last_reported":1768313733,"current_range_meters":5600,"station_id":"ce4bhh92rcd13ifvqfj0","pricing_plan_id":"cebpf4jnsgd1na2vs0mg"},{"bike_id":"15b21ccb-bd0e-47c3-8259-e27d2855772d","system_id":"levelo_inurba_marseille","lat":43.24611,"lon":5.38418,"is_reserved":false,"is_disabled":false,"rental_uris":{"android":"levelo://app?vid=15b21ccb-bd0e-47c3-8259-e27d2855772d","ios":"levelo://app?vid=15b21ccb-bd0e-47c3-8259-e27d2855772d"},"vehicle_type_id":"4","last_reported":1768313733,"current_range_meters":5600,"station_id":"","pricing_plan_id":"cebpf4jnsgd1na2vs0mg"},{"bike_id":"7b7c4d5a-48b0-4253-8d68-ce9bdb9244be","system_id":"levelo_inurba_marseille","lat":43.26572,"lon":5.37296,"is_reserved":false,"is_disabled":false,"rental_uris":{"android":"levelo://app?vid=7b7c4d5a-48b0-4253-8d68-ce9bdb9244be","ios":"levelo://app?vid=7b7c4d5a-48b0-4253-8d68-ce9bdb9244be"},"vehicle_type_id":"4","last_reported":1768313733,"current_range_meters":5600,"station_id":"ce4bhg12rcd13ifvqf70","pricing_plan_id":"cebpf4jnsgd1na2vs0mg"},{"bike_id":"f177f7bc-1ed5-42e0-a608-82886412a4e4","system_id":"levelo_inurba_marseille","lat":43.23963,"lon":5.36623,"is_reserved":false,"is_disabled":false,"rental_uris":{"android":"levelo://app?vid=f177f7bc-1ed5-42e0-a608-82886412a4e4","ios":"levelo://app?vid=f177f7bc-1ed5-42e0-a608-82886412a4e4"},"vehicle_type_id":"4","last_reported":1768313733,"current_range_meters":5600,"station_id":"ce4bhi12rcd13ifvqfp0","pricing_plan_id":"cebpf4jnsgd1na2vs0mg"},{"bike_id":"16ea66e5-251a-444d-98e4-061b3f94ec8b","system_id":"levelo_inurba_marseille","lat":43.26696,"lon":5.38265,"is_reserved":false,"is_disabled":false,"rental_uris":{"android":"levelo://app?vid=16ea66e5-251a-444d-98e4-061b3f94ec8b","ios":"levelo://app?vid=16ea66e5-251a-444d-98e4-061b3f94ec8b"},"vehicle_type_id":"4","last_reported":1768313733,"current_range_meters":5600,"station_id":"ce4bhg92rcd13ifvqf90","pricing_plan_id":"cebpf4jnsgd1na2vs0mg"},{"bike_id":"e0390093-e93c-4352-a447-1922bd291a25","system_id":"levelo_inurba_marseille","lat":43.241593,"lon":5.364043,"is_reserved":false,"is_disabled":false,"rental_uris":{"android":"levelo://app?vid=e0390093-e93c-4352-a447-1922bd291a25","ios":"levelo://app?vid=e0390093-e93c-4352-a447-1922bd291a25"},"vehicle_type_id":"4","last_reported":1768313733,"current_range_meters":5600,"station_id":"cpo36qri1sfpv3e86is0","pricing_plan_id":"cebpf4jnsgd1na2vs0mg"},{"bike_id":"889365ac-dd9e-4bc8-95c4-120ab5729ad1","system_id":"levelo_inurba_marseille","lat":43.2558,"lon":5.38224,"is_reserved":false,"is_disabled":false,"rental_uris":{"android":"levelo://app?vid=889365ac-dd9e-4bc8-95c4-120ab5729ad1","ios":"levelo://app?vid=889365ac-dd9e-4bc8-95c4-120ab5729ad1"},"vehicle_type_id":"4","last_reported":1768313733,"current_range_meters":5600,"station_id":"ce4bhih2rcd13ifvqfs0","pricing_plan_id":"cebpf4jnsgd1na2vs0mg"},{"bike_id":"a8e78fea-0021-4289-ba11-696f08378aa4","system_id":"levelo_inurba_marseille","lat":43.31346,"lon":5.36715,"is_reserved":false,"is_disabled":false,"rental_uris":{"android":"levelo://app?vid=a8e78fea-0021-4289-ba11-696f08378aa4","ios":"levelo://app?vid=a8e78fea-0021-4289-ba11-696f08378aa4"},"vehicle_type_id":"4","last_reported":1768313733,"current_range_meters":5600,"station_id":"ce4bgr92rcd13ifvqc6g","pricing_plan_id":"cebpf4jnsgd1na2vs0mg"},{"bike_id":"e7f880b9-9ced-4dbf-8dbc-b70fe3a8fb49","system_id":"levelo_inurba_marseille","lat":43.32356,"lon":5.36731,"is_reserved":false,"is_disabled":false,"rental_uris":{"android":"levelo://app?vid=e7f880b9-9ced-4dbf-8dbc-b70fe3a8fb49","ios":"levelo://app?vid=e7f880b9-9ced-4dbf-8dbc-b70fe3a8fb49"},"vehicle_type_id":"4","last_reported":1768313733,"current_range_meters":5600,"station_id":"ce4bhsh2rcd13ifvqi2g","pricing_plan_id":"cebpf4jnsgd1na2vs0mg"},{"bike_id":"2cc9db73-43c9-4a56-a963-4c4c6878c41f","system_id":"levelo_inurba_marseille","lat":43.23842,"lon":5.36647,"is_reserved":false,"is_disabled":false,"rental_uris":{"android":"levelo://app?vid=2cc9db73-43c9-4a56-a963-4c4c6878c41f","ios":"levelo://app?vid=2cc9db73-43c9-4a56-a963-4c4c6878c41f"},"vehicle_type_id":"4","last_reported":1768313733,"current_range_meters":5600,"station_id":"","pricing_plan_id":"cebpf4jnsgd1na2vs0mg"},{"bike_id":"8b08bb50-6a89-4b43-8d1d-7b39db0febba","system_id":"levelo_inurba_marseille","lat":43.239665,"lon":5.366309,"is_reserved":false,"is_disabled":false,"rental_uris":{"android":"levelo://app?vid=8b08bb50-6a89-4b43-8d1d-7b39db0febba","ios":"levelo://app?vid=8b08bb50-6a89-4b43-8d1d-7b39db0febba"},"vehicle_type_id":"4","last_reported":1768313733,"current_range_meters":5600,"station_id":"ce4bhi12rcd13ifvqfp0","pricing_plan_id":"cebpf4jnsgd1na2vs0mg"},{"bike_id":"695815da-b5ce-45a2-bc73-ba8aa9d651c6","system_id":"levelo_inurba_marseille","lat":43.24666,"lon":5.38138,"is_reserved":false,"is_disabled":false,"rental_uris":{"android":"levelo://app?vid=695815da-b5ce-45a2-bc73-ba8aa9d651c6","ios":"levelo://app?vid=695815da-b5ce-45a2-bc73-ba8aa9d651c6"},"vehicle_type_id":"4","last_reported":1768313733,"current_range_meters":5600,"station_id":"ce4bhih2rcd13ifvqfr0","pricing_plan_id":"cebpf4jnsgd1na2vs0mg"},{"bike_id":"d3cdfa33-4e30-4b19-bd72-22c74d7cf36c","system_id":"levelo_inurba_marseille","lat":43.25511,"lon":5.37654,"is_reserved":false,"is_disabled":false,"rental_uris":{"android":"levelo://app?vid=d3cdfa33-4e30-4b19-bd72-22c74d7cf36c","ios":"levelo://app?vid=d3cdfa33-4e30-4b19-bd72-22c74d7cf36c"},"vehicle_type_id":"4","last_reported":1768313733,"current_range_meters":5600,"station_id":"ce4bhh12rcd13ifvqff0","pricing_plan_id":"cebpf4jnsgd1na2vs0mg"},{"bike_id":"73159171-0e70-4889-87e6-07eac0d40625","system_id":"levelo_inurba_marseille","lat":43.22569,"lon":5.41619,"is_reserved":false,"is_disabled":false,"rental_uris":{"android":"levelo://app?vid=73159171-0e70-4889-87e6-07eac0d40625","ios":"levelo://app?vid=73159171-0e70-4889-87e6-07eac0d40625"},"vehicle_type_id":"4","last_reported":1768313733,"current_range_meters":5600,"station_id":"st_d2o4gvlbi1j2169b742g","pricing_plan_id":"cebpf4jnsgd1na2vs0mg"},{"bike_id":"9c0b1e9c-6af2-4ca6-82fc-6fcbe8a0d072","system_id":"levelo_inurba_marseille","lat":43.29873,"lon":5.39735,"is_reserved":false,"is_disabled":false,"rental_uris":{"android":"levelo://app?vid=9c0b1e9c-6af2-4ca6-82fc-6fcbe8a0d072","ios":"levelo://app?vid=9c0b1e9c-6af2-4ca6-82fc-6fcbe8a0d072"},"vehicle_type_id":"4","last_reported":1768313733,"current_range_meters":6000,"station_id":"ce4bh0h2rcd13ifvqd50","pricing_plan_id":"cebpf4jnsgd1na2vs0mg"},{"bike_id":"b72b93cb-6c8e-4cf4-ac55-2a683c755517","system_id":"levelo_inurba_marseille","lat":43.29291,"lon":5.36853,"is_reserved":false,"is_disabled":false,"rental_uris":{"android":"levelo://app?vid=b72b93cb-6c8e-4cf4-ac55-2a683c755517","ios":"levelo://app?vid=b72b93cb-6c8e-4cf4-ac55-2a683c755517"},"vehicle_type_id":"4","last_reported":1768313733,"current_range_meters":6000,"station_id":"ce4bhbp2rcd13ifvqesg","pricing_plan_id":"cebpf4jnsgd1na2vs0mg"},{"bike_id":"b3940cd9-99e9-416d-932b-b96244c66170","system_id":"levelo_inurba_marseille","lat":43.31291,"lon":5.36733,"is_reserved":false,"is_disabled":false,"rental_uris":{"android":"levelo://app?vid=b3940cd9-99e9-416d-932b-b96244c66170","ios":"levelo://app?vid=b3940cd9-99e9-416d-932b-b96244c66170"},"vehicle_type_id":"4","last_reported":1768313733,"current_range_meters":6000,"station_id":"","pricing_plan_id":"cebpf4jnsgd1na2vs0mg"},{"bike_id":"312681fa-4d84-401f-8387-2d987d0df7e0","system_id":"levelo_inurba_marseille","lat":43.32365,"lon":5.36734,"is_reserved":false,"is_disabled":false,"rental_uris":{"android":"levelo://app?vid=312681fa-4d84-401f-8387-2d987d0df7e0","ios":"levelo://app?vid=312681fa-4d84-401f-8387-2d987d0df7e0"},"vehicle_type_id":"4","last_reported":1768313733,"current_range_meters":6000,"station_id":"ce4bhsh2rcd13ifvqi2g","pricing_plan_id":"cebpf4jnsgd1na2vs0mg"},{"bike_id":"1c19694b-6f9b-41c6-a73c-90ea98c0ef52","system_id":"levelo_inurba_marseille","lat":43.29745,"lon":5.37698,"is_reserved":false,"is_disabled":false,"rental_uris":{"android":"levelo://app?vid=1c19694b-6f9b-41c6-a73c-90ea98c0ef52","ios":"levelo://app?vid=1c19694b-6f9b-41c6-a73c-90ea98c0ef52"},"vehicle_type_id":"4","last_reported":1768313733,"current_range_meters":6000,"station_id":"ce4bgkh2rcd13ifvqbl0","pricing_plan_id":"cebpf4jnsgd1na2vs0mg"},{"bike_id":"595f8829-62a4-4a13-ad26-5528ec3934d4","system_id":"levelo_inurba_marseille","lat":43.29799,"lon":5.38068,"is_reserved":false,"is_disabled":false,"rental_uris":{"android":"levelo://app?vid=595f8829-62a4-4a13-ad26-5528ec3934d4","ios":"levelo://app?vid=595f8829-62a4-4a13-ad26-5528ec3934d4"},"vehicle_type_id":"4","last_reported":1768313733,"current_range_meters":6000,"station_id":"ce4bgip2rcd13ifvqbb0","pricing_plan_id":"cebpf4jnsgd1na2vs0mg"},{"bike_id":"c982d76b-7fd6-451c-9063-ebda7a233a9e","system_id":"levelo_inurba_marseille","lat":43.26941,"lon":5.40248,"is_reserved":false,"is_disabled":false,"rental_uris":{"android":"levelo://app?vid=c982d76b-7fd6-451c-9063-ebda7a233a9e","ios":"levelo://app?vid=c982d76b-7fd6-451c-9063-ebda7a233a9e"},"vehicle_type_id":"4","last_reported":1768313733,"current_range_meters":6000,"station_id":"cjm6bp8fraef2m0cb0m0","pricing_plan_id":"cebpf4jnsgd1na2vs0mg"},{"bike_id":"98381cda-b3a9-4a41-913e-3012641b7216","system_id":"levelo_inurba_marseille","lat":43.29831,"lon":5.37655,"is_reserved":false,"is_disabled":false,"rental_uris":{"android":"levelo://app?vid=98381cda-b3a9-4a41-913e-3012641b7216","ios":"levelo://app?vid=98381cda-b3a9-4a41-913e-3012641b7216"},"vehicle_type_id":"4","last_reported":1768313733,"current_range_meters":6000,"station_id":"","pricing_plan_id":"cebpf4jnsgd1na2vs0mg"},{"bike_id":"b60c8777-50a1-4187-b012-61c8b2392d61","system_id":"levelo_inurba_marseille","lat":43.24161,"lon":5.36373,"is_reserved":false,"is_disabled":false,"rental_uris":{"android":"levelo://app?vid=b60c8777-50a1-4187-b012-61c8b2392d61","ios":"levelo://app?vid=b60c8777-50a1-4187-b012-61c8b2392d61"},"vehicle_type_id":"4","last_reported":1768313733,"current_range_meters":6000,"station_id":"cpo36qri1sfpv3e86is0","pricing_plan_id":"cebpf4jnsgd1na2vs0mg"},{"bike_id":"f72a0330-2774-442c-a3bd-2da9f092a731","system_id":"levelo_inurba_marseille","lat":43.323689,"lon":5.367361,"is_reserved":false,"is_disabled":false,"rental_uris":{"android":"levelo://app?vid=f72a0330-2774-442c-a3bd-2da9f092a731","ios":"levelo://app?vid=f72a0330-2774-442c-a3bd-2da9f092a731"},"vehicle_type_id":"4","last_reported":1768313733,"current_range_meters":6000,"station_id":"ce4bhsh2rcd13ifvqi2g","pricing_plan_id":"cebpf4jnsgd1na2vs0mg"},{"bike_id":"397ab187-fc7e-4b08-94c8-d7a1cbd7c07b","system_id":"levelo_inurba_marseille","lat":43.29286,"lon":5.37448,"is_reserved":false,"is_disabled":false,"rental_uris":{"android":"levelo://app?vid=397ab187-fc7e-4b08-94c8-d7a1cbd7c07b","ios":"levelo://app?vid=397ab187-fc7e-4b08-94c8-d7a1cbd7c07b"},"vehicle_type_id":"4","last_reported":1768313733,"current_range_meters":6400,"station_id":"ce4bgi12rcd13ifvqb70","pricing_plan_id":"cebpf4jnsgd1na2vs0mg"},{"bike_id":"af0b862d-1b21-408c-b115-209a492a88a8","system_id":"levelo_inurba_marseille","lat":43.32345,"lon":5.36746,"is_reserved":false,"is_disabled":false,"rental_uris":{"android":"levelo://app?vid=af0b862d-1b21-408c-b115-209a492a88a8","ios":"levelo://app?vid=af0b862d-1b21-408c-b115-209a492a88a8"},"vehicle_type_id":"4","last_reported":1768313733,"current_range_meters":6400,"station_id":"ce4bhsh2rcd13ifvqi2g","pricing_plan_id":"cebpf4jnsgd1na2vs0mg"},{"bike_id":"6846db8e-90fb-4e30-93fa-8789900d77b9","system_id":"levelo_inurba_marseille","lat":43.25911,"lon":5.40881,"is_reserved":false,"is_disabled":false,"rental_uris":{"android":"levelo://app?vid=6846db8e-90fb-4e30-93fa-8789900d77b9","ios":"levelo://app?vid=6846db8e-90fb-4e30-93fa-8789900d77b9"},"vehicle_type_id":"4","last_reported":1768313733,"current_range_meters":6400,"station_id":"ce4bhm92rcd13ifvqglg","pricing_plan_id":"cebpf4jnsgd1na2vs0mg"},{"bike_id":"3131342a-e8d7-4b61-a752-64517a314409","system_id":"levelo_inurba_marseille","lat":43.24058,"lon":5.3773,"is_reserved":false,"is_disabled":false,"rental_uris":{"android":"levelo://app?vid=3131342a-e8d7-4b61-a752-64517a314409","ios":"levelo://app?vid=3131342a-e8d7-4b61-a752-64517a314409"},"vehicle_type_id":"4","last_reported":1768313733,"current_range_meters":6400,"station_id":"ce4bhnp2rcd13ifvqgvg","pricing_plan_id":"cebpf4jnsgd1na2vs0mg"},{"bike_id":"50df1513-8882-4403-8f50-7facfcd0de34","system_id":"levelo_inurba_marseille","lat":43.24165,"lon":5.36403,"is_reserved":false,"is_disabled":false,"rental_uris":{"android":"levelo://app?vid=50df1513-8882-4403-8f50-7facfcd0de34","ios":"levelo://app?vid=50df1513-8882-4403-8f50-7facfcd0de34"},"vehicle_type_id":"4","last_reported":1768313733,"current_range_meters":6400,"station_id":"cpo36qri1sfpv3e86is0","pricing_plan_id":"cebpf4jnsgd1na2vs0mg"},{"bike_id":"f7d36b9d-bf7c-43f6-b8d1-8e54d4f4e01e","system_id":"levelo_inurba_marseille","lat":43.315151,"lon":5.380328,"is_reserved":false,"is_disabled":false,"rental_uris":{"android":"levelo://app?vid=f7d36b9d-bf7c-43f6-b8d1-8e54d4f4e01e","ios":"levelo://app?vid=f7d36b9d-bf7c-43f6-b8d1-8e54d4f4e01e"},"vehicle_type_id":"4","last_reported":1768313733,"current_range_meters":6400,"station_id":"ce4bghh2rcd13ifvqb60","pricing_plan_id":"cebpf4jnsgd1na2vs0mg"},{"bike_id":"776bdba4-3761-419b-be7d-03785f338691","system_id":"levelo_inurba_marseille","lat":43.28843,"lon":5.39323,"is_reserved":false,"is_disabled":false,"rental_uris":{"android":"levelo://app?vid=776bdba4-3761-419b-be7d-03785f338691","ios":"levelo://app?vid=776bdba4-3761-419b-be7d-03785f338691"},"vehicle_type_id":"4","last_reported":1768313733,"current_range_meters":6400,"station_id":"ce4bh2p2rcd13ifvqdi0","pricing_plan_id":"cebpf4jnsgd1na2vs0mg"},{"bike_id":"4fcf8939-d9e5-44a3-8f16-b04dcd32071a","system_id":"levelo_inurba_marseille","lat":43.24167,"lon":5.36395,"is_reserved":false,"is_disabled":false,"rental_uris":{"android":"levelo://app?vid=4fcf8939-d9e5-44a3-8f16-b04dcd32071a","ios":"levelo://app?vid=4fcf8939-d9e5-44a3-8f16-b04dcd32071a"},"vehicle_type_id":"4","last_reported":1768313733,"current_range_meters":6400,"station_id":"cpo36qri1sfpv3e86is0","pricing_plan_id":"cebpf4jnsgd1na2vs0mg"},{"bike_id":"ce421665-3c26-4baa-b8ec-61eb8aef5e07","system_id":"levelo_inurba_marseille","lat":43.2806,"lon":5.40735,"is_reserved":false,"is_disabled":false,"rental_uris":{"android":"levelo://app?vid=ce421665-3c26-4baa-b8ec-61eb8aef5e07","ios":"levelo://app?vid=ce421665-3c26-4baa-b8ec-61eb8aef5e07"},"vehicle_type_id":"4","last_reported":1768313733,"current_range_meters":6400,"station_id":"","pricing_plan_id":"cebpf4jnsgd1na2vs0mg"},{"bike_id":"a83e853f-4b6a-4d34-9968-a57f5523d6f3","system_id":"levelo_inurba_marseille","lat":43.25759,"lon":5.394315,"is_reserved":false,"is_disabled":false,"rental_uris":{"android":"levelo://app?vid=a83e853f-4b6a-4d34-9968-a57f5523d6f3","ios":"levelo://app?vid=a83e853f-4b6a-4d34-9968-a57f5523d6f3"},"vehicle_type_id":"4","last_reported":1768313733,"current_range_meters":6400,"station_id":"ce4bhip2rcd13ifvqft0","pricing_plan_id":"cebpf4jnsgd1na2vs0mg"},{"bike_id":"dbca4029-d08e-4725-b682-eaca4b614f30","system_id":"levelo_inurba_marseille","lat":43.32512,"lon":5.3754,"is_reserved":false,"is_disabled":false,"rental_uris":{"android":"levelo://app?vid=dbca4029-d08e-4725-b682-eaca4b614f30","ios":"levelo://app?vid=dbca4029-d08e-4725-b682-eaca4b614f30"},"vehicle_type_id":"4","last_reported":1768313733,"current_range_meters":6400,"station_id":"","pricing_plan_id":"cebpf4jnsgd1na2vs0mg"},{"bike_id":"72ba4c8c-7e12-408c-a0ed-7cc605d4463c","system_id":"levelo_inurba_marseille","lat":43.25328,"lon":5.42157,"is_reserved":false,"is_disabled":false,"rental_uris":{"android":"levelo://app?vid=72ba4c8c-7e12-408c-a0ed-7cc605d4463c","ios":"levelo://app?vid=72ba4c8c-7e12-408c-a0ed-7cc605d4463c"},"vehicle_type_id":"4","last_reported":1768313733,"current_range_meters":6400,"station_id":"st_d2m65c5bi1j21697t3ng","pricing_plan_id":"cebpf4jnsgd1na2vs0mg"},{"bike_id":"9d956ddb-a873-43e0-835f-7243e12010cd","system_id":"levelo_inurba_marseille","lat":43.24471,"lon":5.42536,"is_reserved":false,"is_disabled":false,"rental_uris":{"android":"levelo://app?vid=9d956ddb-a873-43e0-835f-7243e12010cd","ios":"levelo://app?vid=9d956ddb-a873-43e0-835f-7243e12010cd"},"vehicle_type_id":"4","last_reported":1768313733,"current_range_meters":6400,"station_id":"st_d4a3vfp97mjs738cd8kg","pricing_plan_id":"cebpf4jnsgd1na2vs0mg"},{"bike_id":"1dba3e81-740c-4446-a739-c7a379d3755e","system_id":"levelo_inurba_marseille","lat":43.30559,"lon":5.36534,"is_reserved":false,"is_disabled":false,"rental_uris":{"android":"levelo://app?vid=1dba3e81-740c-4446-a739-c7a379d3755e","ios":"levelo://app?vid=1dba3e81-740c-4446-a739-c7a379d3755e"},"vehicle_type_id":"4","last_reported":1768313733,"current_range_meters":6400,"station_id":"ce4bgs12rcd13ifvqcag","pricing_plan_id":"cebpf4jnsgd1na2vs0mg"},{"bike_id":"b088ad58-7f41-4ab8-80da-21ba2cb9e467","system_id":"levelo_inurba_marseille","lat":43.2255,"lon":5.41627,"is_reserved":false,"is_disabled":false,"rental_uris":{"android":"levelo://app?vid=b088ad58-7f41-4ab8-80da-21ba2cb9e467","ios":"levelo://app?vid=b088ad58-7f41-4ab8-80da-21ba2cb9e467"},"vehicle_type_id":"4","last_reported":1768313733,"current_range_meters":6400,"station_id":"st_d2o4gvlbi1j2169b742g","pricing_plan_id":"cebpf4jnsgd1na2vs0mg"},{"bike_id":"40a5f518-4ec1-4f9c-ada8-7bc0d6856aa5","system_id":"levelo_inurba_marseille","lat":43.2417,"lon":5.36391,"is_reserved":false,"is_disabled":false,"rental_uris":{"android":"levelo://app?vid=40a5f518-4ec1-4f9c-ada8-7bc0d6856aa5","ios":"levelo://app?vid=40a5f518-4ec1-4f9c-ada8-7bc0d6856aa5"},"vehicle_type_id":"4","last_reported":1768313733,"current_range_meters":6400,"station_id":"cpo36qri1sfpv3e86is0","pricing_plan_id":"cebpf4jnsgd1na2vs0mg"},{"bike_id":"e5b92296-b086-419a-a871-19aeb3f2fd08","system_id":"levelo_inurba_marseille","lat":43.30161,"lon":5.37409,"is_reserved":false,"is_disabled":false,"rental_uris":{"android":"levelo://app?vid=e5b92296-b086-419a-a871-19aeb3f2fd08","ios":"levelo://app?vid=e5b92296-b086-419a-a871-19aeb3f2fd08"},"vehicle_type_id":"4","last_reported":1768313733,"current_range_meters":6400,"station_id":"ce4bgs92rcd13ifvqcc0","pricing_plan_id":"cebpf4jnsgd1na2vs0mg"},{"bike_id":"43d3b9e7-83f7-459f-bc0d-be5aa703d3f4","system_id":"levelo_inurba_marseille","lat":43.29614,"lon":5.37733,"is_reserved":false,"is_disabled":false,"rental_uris":{"android":"levelo://app?vid=43d3b9e7-83f7-459f-bc0d-be5aa703d3f4","ios":"levelo://app?vid=43d3b9e7-83f7-459f-bc0d-be5aa703d3f4"},"vehicle_type_id":"4","last_reported":1768313733,"current_range_meters":6400,"station_id":"ce4bgi92rcd13ifvqb90","pricing_plan_id":"cebpf4jnsgd1na2vs0mg"},{"bike_id":"dab2da86-353e-439d-b921-ec0788422c53","system_id":"levelo_inurba_marseille","lat":43.32291,"lon":5.38273,"is_reserved":false,"is_disabled":false,"rental_uris":{"android":"levelo://app?vid=dab2da86-353e-439d-b921-ec0788422c53","ios":"levelo://app?vid=dab2da86-353e-439d-b921-ec0788422c53"},"vehicle_type_id":"4","last_reported":1768313733,"current_range_meters":6400,"station_id":"ce4bhr12rcd13ifvqhqg","pricing_plan_id":"cebpf4jnsgd1na2vs0mg"},{"bike_id":"573219be-8449-4b0b-914b-5825e3035243","system_id":"levelo_inurba_marseille","lat":43.23193,"lon":5.3555,"is_reserved":false,"is_disabled":false,"rental_uris":{"android":"levelo://app?vid=573219be-8449-4b0b-914b-5825e3035243","ios":"levelo://app?vid=573219be-8449-4b0b-914b-5825e3035243"},"vehicle_type_id":"4","last_reported":1768313733,"current_range_meters":6400,"station_id":"ce4bhu92rcd13ifvqi70","pricing_plan_id":"cebpf4jnsgd1na2vs0mg"},{"bike_id":"547390f7-5da9-405b-839b-554e7c28ff51","system_id":"levelo_inurba_marseille","lat":43.265561,"lon":5.372834,"is_reserved":false,"is_disabled":false,"rental_uris":{"android":"levelo://app?vid=547390f7-5da9-405b-839b-554e7c28ff51","ios":"levelo://app?vid=547390f7-5da9-405b-839b-554e7c28ff51"},"vehicle_type_id":"4","last_reported":1768313733,"current_range_meters":6800,"station_id":"ce4bhg12rcd13ifvqf70","pricing_plan_id":"cebpf4jnsgd1na2vs0mg"},{"bike_id":"d06fb8ff-b65e-46fe-ba3f-114fbfe14af3","system_id":"levelo_inurba_marseille","lat":43.26694,"lon":5.39943,"is_reserved":false,"is_disabled":false,"rental_uris":{"android":"levelo://app?vid=d06fb8ff-b65e-46fe-ba3f-114fbfe14af3","ios":"levelo://app?vid=d06fb8ff-b65e-46fe-ba3f-114fbfe14af3"},"vehicle_type_id":"4","last_reported":1768313733,"current_range_meters":6800,"station_id":"","pricing_plan_id":"cebpf4jnsgd1na2vs0mg"},{"bike_id":"7d0e7a7d-96db-49d8-a2e7-61cbdc2de6d0","system_id":"levelo_inurba_marseille","lat":43.30548,"lon":5.36516,"is_reserved":false,"is_disabled":false,"rental_uris":{"android":"levelo://app?vid=7d0e7a7d-96db-49d8-a2e7-61cbdc2de6d0","ios":"levelo://app?vid=7d0e7a7d-96db-49d8-a2e7-61cbdc2de6d0"},"vehicle_type_id":"4","last_reported":1768313733,"current_range_meters":6800,"station_id":"ce4bgs12rcd13ifvqcag","pricing_plan_id":"cebpf4jnsgd1na2vs0mg"},{"bike_id":"fb1b72ff-a9a9-47b9-ab3e-34d5f3d9a6ca","system_id":"levelo_inurba_marseille","lat":43.27492,"lon":5.4245,"is_reserved":false,"is_disabled":false,"rental_uris":{"android":"levelo://app?vid=fb1b72ff-a9a9-47b9-ab3e-34d5f3d9a6ca","ios":"levelo://app?vid=fb1b72ff-a9a9-47b9-ab3e-34d5f3d9a6ca"},"vehicle_type_id":"4","last_reported":1768313733,"current_range_meters":6800,"station_id":"ce4bhn92rcd13ifvqgrg","pricing_plan_id":"cebpf4jnsgd1na2vs0mg"},{"bike_id":"dc2113b1-2f8d-4c2f-ab99-e0406a41f773","system_id":"levelo_inurba_marseille","lat":43.29007,"lon":5.35608,"is_reserved":false,"is_disabled":false,"rental_uris":{"android":"levelo://app?vid=dc2113b1-2f8d-4c2f-ab99-e0406a41f773","ios":"levelo://app?vid=dc2113b1-2f8d-4c2f-ab99-e0406a41f773"},"vehicle_type_id":"4","last_reported":1768313733,"current_range_meters":6800,"station_id":"ce4bhb92rcd13ifvqen0","pricing_plan_id":"cebpf4jnsgd1na2vs0mg"},{"bike_id":"73220d44-cfc8-4a61-ad7c-e12bb2c20f84","system_id":"levelo_inurba_marseille","lat":43.3246,"lon":5.3656,"is_reserved":false,"is_disabled":false,"rental_uris":{"android":"levelo://app?vid=73220d44-cfc8-4a61-ad7c-e12bb2c20f84","ios":"levelo://app?vid=73220d44-cfc8-4a61-ad7c-e12bb2c20f84"},"vehicle_type_id":"4","last_reported":1768313733,"current_range_meters":6800,"station_id":"ce4bhs12rcd13ifvqhvg","pricing_plan_id":"cebpf4jnsgd1na2vs0mg"},{"bike_id":"5525fea7-82dc-4bf3-b1d6-e42d9f6c5946","system_id":"levelo_inurba_marseille","lat":43.29685,"lon":5.37288,"is_reserved":false,"is_disabled":false,"rental_uris":{"android":"levelo://app?vid=5525fea7-82dc-4bf3-b1d6-e42d9f6c5946","ios":"levelo://app?vid=5525fea7-82dc-4bf3-b1d6-e42d9f6c5946"},"vehicle_type_id":"4","last_reported":1768313733,"current_range_meters":6800,"station_id":"ce4bgk12rcd13ifvqbj0","pricing_plan_id":"cebpf4jnsgd1na2vs0mg"},{"bike_id":"88de65bc-f1ab-4009-9187-4c5979b992e7","system_id":"levelo_inurba_marseille","lat":43.28986,"lon":5.39051,"is_reserved":false,"is_disabled":false,"rental_uris":{"android":"levelo://app?vid=88de65bc-f1ab-4009-9187-4c5979b992e7","ios":"levelo://app?vid=88de65bc-f1ab-4009-9187-4c5979b992e7"},"vehicle_type_id":"4","last_reported":1768313733,"current_range_meters":6800,"station_id":"","pricing_plan_id":"cebpf4jnsgd1na2vs0mg"},{"bike_id":"e7077856-9009-4ce4-8ea1-5cdd0a9f0d4d","system_id":"levelo_inurba_marseille","lat":43.27617,"lon":5.36119,"is_reserved":false,"is_disabled":false,"rental_uris":{"android":"levelo://app?vid=e7077856-9009-4ce4-8ea1-5cdd0a9f0d4d","ios":"levelo://app?vid=e7077856-9009-4ce4-8ea1-5cdd0a9f0d4d"},"vehicle_type_id":"4","last_reported":1768313733,"current_range_meters":6800,"station_id":"ce4bgj92rcd13ifvqbe0","pricing_plan_id":"cebpf4jnsgd1na2vs0mg"},{"bike_id":"cb7933d8-d861-42e2-9166-370355de4b93","system_id":"levelo_inurba_marseille","lat":43.2573,"lon":5.41107,"is_reserved":false,"is_disabled":false,"rental_uris":{"android":"levelo://app?vid=cb7933d8-d861-42e2-9166-370355de4b93","ios":"levelo://app?vid=cb7933d8-d861-42e2-9166-370355de4b93"},"vehicle_type_id":"4","last_reported":1768313733,"current_range_meters":6800,"station_id":"ce4bhkp2rcd13ifvqgd0","pricing_plan_id":"cebpf4jnsgd1na2vs0mg"},{"bike_id":"397807e7-3f64-4afd-9bc9-f46976f2f654","system_id":"levelo_inurba_marseille","lat":43.29918,"lon":5.37476,"is_reserved":false,"is_disabled":false,"rental_uris":{"android":"levelo://app?vid=397807e7-3f64-4afd-9bc9-f46976f2f654","ios":"levelo://app?vid=397807e7-3f64-4afd-9bc9-f46976f2f654"},"vehicle_type_id":"4","last_reported":1768313733,"current_range_meters":6800,"station_id":"ce4bgjh2rcd13ifvqbg0","pricing_plan_id":"cebpf4jnsgd1na2vs0mg"},{"bike_id":"28ca0282-9e08-44e7-a420-cbadd2ae594a","system_id":"levelo_inurba_marseille","lat":43.32622,"lon":5.36178,"is_reserved":false,"is_disabled":false,"rental_uris":{"android":"levelo://app?vid=28ca0282-9e08-44e7-a420-cbadd2ae594a","ios":"levelo://app?vid=28ca0282-9e08-44e7-a420-cbadd2ae594a"},"vehicle_type_id":"4","last_reported":1768313733,"current_range_meters":6800,"station_id":"","pricing_plan_id":"cebpf4jnsgd1na2vs0mg"},{"bike_id":"571284aa-339b-4ff7-b3ba-aff03f624836","system_id":"levelo_inurba_marseille","lat":43.29258,"lon":5.37604,"is_reserved":false,"is_disabled":false,"rental_uris":{"android":"levelo://app?vid=571284aa-339b-4ff7-b3ba-aff03f624836","ios":"levelo://app?vid=571284aa-339b-4ff7-b3ba-aff03f624836"},"vehicle_type_id":"4","last_reported":1768313733,"current_range_meters":6800,"station_id":"ce4bgi12rcd13ifvqb80","pricing_plan_id":"cebpf4jnsgd1na2vs0mg"},{"bike_id":"725558b1-3a15-4f38-8c18-ee0a96f9ef90","system_id":"levelo_inurba_marseille","lat":43.31221,"lon":5.38168,"is_reserved":false,"is_disabled":false,"rental_uris":{"android":"levelo://app?vid=725558b1-3a15-4f38-8c18-ee0a96f9ef90","ios":"levelo://app?vid=725558b1-3a15-4f38-8c18-ee0a96f9ef90"},"vehicle_type_id":"4","last_reported":1768313733,"current_range_meters":6800,"station_id":"","pricing_plan_id":"cebpf4jnsgd1na2vs0mg"},{"bike_id":"b9730916-340d-42b1-94eb-6ff35349ebd0","system_id":"levelo_inurba_marseille","lat":43.26782,"lon":5.39408,"is_reserved":false,"is_disabled":false,"rental_uris":{"android":"levelo://app?vid=b9730916-340d-42b1-94eb-6ff35349ebd0","ios":"levelo://app?vid=b9730916-340d-42b1-94eb-6ff35349ebd0"},"vehicle_type_id":"4","last_reported":1768313733,"current_range_meters":6800,"station_id":"ce4bhh12rcd13ifvqfg0","pricing_plan_id":"cebpf4jnsgd1na2vs0mg"},{"bike_id":"e485f4da-64da-4bf0-b212-a089071f4d83","system_id":"levelo_inurba_marseille","lat":43.26691,"lon":5.38267,"is_reserved":false,"is_disabled":false,"rental_uris":{"android":"levelo://app?vid=e485f4da-64da-4bf0-b212-a089071f4d83","ios":"levelo://app?vid=e485f4da-64da-4bf0-b212-a089071f4d83"},"vehicle_type_id":"4","last_reported":1768313733,"current_range_meters":7200,"station_id":"ce4bhg92rcd13ifvqf90","pricing_plan_id":"cebpf4jnsgd1na2vs0mg"},{"bike_id":"0af2e9a9-67f2-424c-9c61-d5f1c2c48c7b","system_id":"levelo_inurba_marseille","lat":43.259266,"lon":5.409135,"is_reserved":false,"is_disabled":false,"rental_uris":{"android":"levelo://app?vid=0af2e9a9-67f2-424c-9c61-d5f1c2c48c7b","ios":"levelo://app?vid=0af2e9a9-67f2-424c-9c61-d5f1c2c48c7b"},"vehicle_type_id":"4","last_reported":1768313733,"current_range_meters":7200,"station_id":"ce4bhm92rcd13ifvqglg","pricing_plan_id":"cebpf4jnsgd1na2vs0mg"},{"bike_id":"ec3166a5-ef8b-4787-8617-84123a7e0e0d","system_id":"levelo_inurba_marseille","lat":43.23189,"lon":5.39988,"is_reserved":false,"is_disabled":false,"rental_uris":{"android":"levelo://app?vid=ec3166a5-ef8b-4787-8617-84123a7e0e0d","ios":"levelo://app?vid=ec3166a5-ef8b-4787-8617-84123a7e0e0d"},"vehicle_type_id":"4","last_reported":1768313733,"current_range_meters":7200,"station_id":"ce4bhn12rcd13ifvqgqg","pricing_plan_id":"cebpf4jnsgd1na2vs0mg"},{"bike_id":"8125e88c-461b-4905-b86d-3923932af4fb","system_id":"levelo_inurba_marseille","lat":43.28003,"lon":5.39999,"is_reserved":false,"is_disabled":false,"rental_uris":{"android":"levelo://app?vid=8125e88c-461b-4905-b86d-3923932af4fb","ios":"levelo://app?vid=8125e88c-461b-4905-b86d-3923932af4fb"},"vehicle_type_id":"4","last_reported":1768313733,"current_range_meters":7200,"station_id":"ce4bho92rcd13ifvqh4g","pricing_plan_id":"cebpf4jnsgd1na2vs0mg"},{"bike_id":"1a410dc3-ec66-418e-b61d-e6ababbd00ea","system_id":"levelo_inurba_marseille","lat":43.25513,"lon":5.37654,"is_reserved":false,"is_disabled":false,"rental_uris":{"android":"levelo://app?vid=1a410dc3-ec66-418e-b61d-e6ababbd00ea","ios":"levelo://app?vid=1a410dc3-ec66-418e-b61d-e6ababbd00ea"},"vehicle_type_id":"4","last_reported":1768313733,"current_range_meters":7200,"station_id":"ce4bhh12rcd13ifvqff0","pricing_plan_id":"cebpf4jnsgd1na2vs0mg"},{"bike_id":"f5b50dfe-3b71-4c5e-9103-196dde2e66e3","system_id":"levelo_inurba_marseille","lat":43.31353,"lon":5.36708,"is_reserved":false,"is_disabled":false,"rental_uris":{"android":"levelo://app?vid=f5b50dfe-3b71-4c5e-9103-196dde2e66e3","ios":"levelo://app?vid=f5b50dfe-3b71-4c5e-9103-196dde2e66e3"},"vehicle_type_id":"4","last_reported":1768313733,"current_range_meters":7200,"station_id":"ce4bgr92rcd13ifvqc6g","pricing_plan_id":"cebpf4jnsgd1na2vs0mg"},{"bike_id":"b2dce88c-db5a-428a-8463-1e85e5fdb211","system_id":"levelo_inurba_marseille","lat":43.28992,"lon":5.3559,"is_reserved":false,"is_disabled":false,"rental_uris":{"android":"levelo://app?vid=b2dce88c-db5a-428a-8463-1e85e5fdb211","ios":"levelo://app?vid=b2dce88c-db5a-428a-8463-1e85e5fdb211"},"vehicle_type_id":"4","last_reported":1768313733,"current_range_meters":7200,"station_id":"ce4bhb92rcd13ifvqen0","pricing_plan_id":"cebpf4jnsgd1na2vs0mg"},{"bike_id":"40c6fab1-fc17-4c7a-8060-24756a12055b","system_id":"levelo_inurba_marseille","lat":43.31358,"lon":5.36731,"is_reserved":false,"is_disabled":false,"rental_uris":{"android":"levelo://app?vid=40c6fab1-fc17-4c7a-8060-24756a12055b","ios":"levelo://app?vid=40c6fab1-fc17-4c7a-8060-24756a12055b"},"vehicle_type_id":"4","last_reported":1768313733,"current_range_meters":7200,"station_id":"ce4bgr92rcd13ifvqc6g","pricing_plan_id":"cebpf4jnsgd1na2vs0mg"},{"bike_id":"e4e80814-ae14-41f0-9b96-4c5947e9470b","system_id":"levelo_inurba_marseille","lat":43.24389,"lon":5.37077,"is_reserved":false,"is_disabled":false,"rental_uris":{"android":"levelo://app?vid=e4e80814-ae14-41f0-9b96-4c5947e9470b","ios":"levelo://app?vid=e4e80814-ae14-41f0-9b96-4c5947e9470b"},"vehicle_type_id":"4","last_reported":1768313733,"current_range_meters":7200,"station_id":"ce4bhhh2rcd13ifvqfk0","pricing_plan_id":"cebpf4jnsgd1na2vs0mg"},{"bike_id":"e171e7e2-3bd5-4df8-ba94-8c663077fc99","system_id":"levelo_inurba_marseille","lat":43.325226,"lon":5.368771,"is_reserved":false,"is_disabled":false,"rental_uris":{"android":"levelo://app?vid=e171e7e2-3bd5-4df8-ba94-8c663077fc99","ios":"levelo://app?vid=e171e7e2-3bd5-4df8-ba94-8c663077fc99"},"vehicle_type_id":"4","last_reported":1768313733,"current_range_meters":7200,"station_id":"","pricing_plan_id":"cebpf4jnsgd1na2vs0mg"},{"bike_id":"cf9c58b5-19c1-4b02-b492-606e14c6080c","system_id":"levelo_inurba_marseille","lat":43.279991,"lon":5.400163,"is_reserved":false,"is_disabled":false,"rental_uris":{"android":"levelo://app?vid=cf9c58b5-19c1-4b02-b492-606e14c6080c","ios":"levelo://app?vid=cf9c58b5-19c1-4b02-b492-606e14c6080c"},"vehicle_type_id":"4","last_reported":1768313733,"current_range_meters":7200,"station_id":"ce4bh0h2rcd13ifvqd40","pricing_plan_id":"cebpf4jnsgd1na2vs0mg"},{"bike_id":"2921a8b2-62fb-48f5-b4c2-edc6f49f6f7f","system_id":"levelo_inurba_marseille","lat":43.26191,"lon":5.37452,"is_reserved":false,"is_disabled":false,"rental_uris":{"android":"levelo://app?vid=2921a8b2-62fb-48f5-b4c2-edc6f49f6f7f","ios":"levelo://app?vid=2921a8b2-62fb-48f5-b4c2-edc6f49f6f7f"},"vehicle_type_id":"4","last_reported":1768313733,"current_range_meters":7200,"station_id":"ce4bhgp2rcd13ifvqfc0","pricing_plan_id":"cebpf4jnsgd1na2vs0mg"},{"bike_id":"7e6cc50b-e111-4245-878a-c67dc59ee2c5","system_id":"levelo_inurba_marseille","lat":43.23197,"lon":5.35552,"is_reserved":false,"is_disabled":false,"rental_uris":{"android":"levelo://app?vid=7e6cc50b-e111-4245-878a-c67dc59ee2c5","ios":"levelo://app?vid=7e6cc50b-e111-4245-878a-c67dc59ee2c5"},"vehicle_type_id":"4","last_reported":1768313733,"current_range_meters":7200,"station_id":"ce4bhu92rcd13ifvqi70","pricing_plan_id":"cebpf4jnsgd1na2vs0mg"},{"bike_id":"b99a9135-a609-4f31-8229-5031d5c53d46","system_id":"levelo_inurba_marseille","lat":43.29786,"lon":5.42795,"is_reserved":false,"is_disabled":false,"rental_uris":{"android":"levelo://app?vid=b99a9135-a609-4f31-8229-5031d5c53d46","ios":"levelo://app?vid=b99a9135-a609-4f31-8229-5031d5c53d46"},"vehicle_type_id":"4","last_reported":1768313733,"current_range_meters":8000,"station_id":"st_d3md5207bmas73dh9klg","pricing_plan_id":"cebpf4jnsgd1na2vs0mg"},{"bike_id":"459ceeec-6531-408e-af1d-7d8585dacaef","system_id":"levelo_inurba_marseille","lat":43.255192,"lon":5.376642,"is_reserved":false,"is_disabled":false,"rental_uris":{"android":"levelo://app?vid=459ceeec-6531-408e-af1d-7d8585dacaef","ios":"levelo://app?vid=459ceeec-6531-408e-af1d-7d8585dacaef"},"vehicle_type_id":"4","last_reported":1768313733,"current_range_meters":8000,"station_id":"ce4bhh12rcd13ifvqff0","pricing_plan_id":"cebpf4jnsgd1na2vs0mg"},{"bike_id":"b0095239-c820-40e6-89d3-03d2f7cec2e4","system_id":"levelo_inurba_marseille","lat":43.28925,"lon":5.36635,"is_reserved":false,"is_disabled":false,"rental_uris":{"android":"levelo://app?vid=b0095239-c820-40e6-89d3-03d2f7cec2e4","ios":"levelo://app?vid=b0095239-c820-40e6-89d3-03d2f7cec2e4"},"vehicle_type_id":"4","last_reported":1768313733,"current_range_meters":8000,"station_id":"ce4bhap2rcd13ifvqek0","pricing_plan_id":"cebpf4jnsgd1na2vs0mg"},{"bike_id":"64e147a8-1bbb-419c-b69b-662d9db7e72a","system_id":"levelo_inurba_marseille","lat":43.25885,"lon":5.39923,"is_reserved":false,"is_disabled":true,"rental_uris":{"android":"levelo://app?vid=64e147a8-1bbb-419c-b69b-662d9db7e72a","ios":"levelo://app?vid=64e147a8-1bbb-419c-b69b-662d9db7e72a"},"vehicle_type_id":"4","last_reported":1768313733,"current_range_meters":8000,"station_id":"ce4bhl92rcd13ifvqghg","pricing_plan_id":"cebpf4jnsgd1na2vs0mg"},{"bike_id":"dc2e72fe-caf4-4d2f-991e-42441efcbc35","system_id":"levelo_inurba_marseille","lat":43.24449,"lon":5.4253,"is_reserved":false,"is_disabled":false,"rental_uris":{"android":"levelo://app?vid=dc2e72fe-caf4-4d2f-991e-42441efcbc35","ios":"levelo://app?vid=dc2e72fe-caf4-4d2f-991e-42441efcbc35"},"vehicle_type_id":"4","last_reported":1768313733,"current_range_meters":8000,"station_id":"st_d4a3vfp97mjs738cd8kg","pricing_plan_id":"cebpf4jnsgd1na2vs0mg"},{"bike_id":"f11786fe-49f2-4e0b-ba3e-36e01d90a23e","system_id":"levelo_inurba_marseille","lat":43.295294,"lon":5.385488,"is_reserved":false,"is_disabled":false,"rental_uris":{"android":"levelo://app?vid=f11786fe-49f2-4e0b-ba3e-36e01d90a23e","ios":"levelo://app?vid=f11786fe-49f2-4e0b-ba3e-36e01d90a23e"},"vehicle_type_id":"4","last_reported":1768313733,"current_range_meters":8000,"station_id":"ce4bgih2rcd13ifvqba0","pricing_plan_id":"cebpf4jnsgd1na2vs0mg"},{"bike_id":"4dfe9ca0-aabd-4a4a-b9fc-bf27934c9ca2","system_id":"levelo_inurba_marseille","lat":43.31062,"lon":5.37174,"is_reserved":false,"is_disabled":false,"rental_uris":{"android":"levelo://app?vid=4dfe9ca0-aabd-4a4a-b9fc-bf27934c9ca2","ios":"levelo://app?vid=4dfe9ca0-aabd-4a4a-b9fc-bf27934c9ca2"},"vehicle_type_id":"4","last_reported":1768313733,"current_range_meters":8000,"station_id":"st_d4kl2rp97mjs73e7tdfg","pricing_plan_id":"cebpf4jnsgd1na2vs0mg"},{"bike_id":"d53c37d0-76d2-4df3-965d-7d19a6e2a5ff","system_id":"levelo_inurba_marseille","lat":43.29293,"lon":5.3685,"is_reserved":false,"is_disabled":false,"rental_uris":{"android":"levelo://app?vid=d53c37d0-76d2-4df3-965d-7d19a6e2a5ff","ios":"levelo://app?vid=d53c37d0-76d2-4df3-965d-7d19a6e2a5ff"},"vehicle_type_id":"4","last_reported":1768313733,"current_range_meters":8000,"station_id":"ce4bhbp2rcd13ifvqesg","pricing_plan_id":"cebpf4jnsgd1na2vs0mg"},{"bike_id":"35ec3b8e-e652-4929-aab7-9563a05529be","system_id":"levelo_inurba_marseille","lat":43.30153,"lon":5.37415,"is_reserved":false,"is_disabled":false,"rental_uris":{"android":"levelo://app?vid=35ec3b8e-e652-4929-aab7-9563a05529be","ios":"levelo://app?vid=35ec3b8e-e652-4929-aab7-9563a05529be"},"vehicle_type_id":"4","last_reported":1768313733,"current_range_meters":8000,"station_id":"ce4bgs92rcd13ifvqcc0","pricing_plan_id":"cebpf4jnsgd1na2vs0mg"},{"bike_id":"4e7caf59-c9ef-4187-8d4e-454378bfca5a","system_id":"levelo_inurba_marseille","lat":43.29893,"lon":5.43664,"is_reserved":false,"is_disabled":false,"rental_uris":{"android":"levelo://app?vid=4e7caf59-c9ef-4187-8d4e-454378bfca5a","ios":"levelo://app?vid=4e7caf59-c9ef-4187-8d4e-454378bfca5a"},"vehicle_type_id":"4","last_reported":1768313733,"current_range_meters":8000,"station_id":"ce4bhpp2rcd13ifvqhfg","pricing_plan_id":"cebpf4jnsgd1na2vs0mg"},{"bike_id":"a701274b-baae-4465-83b6-97b2b3f97e3e","system_id":"levelo_inurba_marseille","lat":43.28476,"lon":5.48392,"is_reserved":false,"is_disabled":false,"rental_uris":{"android":"levelo://app?vid=a701274b-baae-4465-83b6-97b2b3f97e3e","ios":"levelo://app?vid=a701274b-baae-4465-83b6-97b2b3f97e3e"},"vehicle_type_id":"4","last_reported":1768313733,"current_range_meters":8000,"station_id":"","pricing_plan_id":"cebpf4jnsgd1na2vs0mg"},{"bike_id":"8283c47e-859a-4bce-893c-13739ded4e31","system_id":"levelo_inurba_marseille","lat":43.27968,"lon":5.41064,"is_reserved":false,"is_disabled":false,"rental_uris":{"android":"levelo://app?vid=8283c47e-859a-4bce-893c-13739ded4e31","ios":"levelo://app?vid=8283c47e-859a-4bce-893c-13739ded4e31"},"vehicle_type_id":"4","last_reported":1768313733,"current_range_meters":8000,"station_id":"ce4bhnp2rcd13ifvqh0g","pricing_plan_id":"cebpf4jnsgd1na2vs0mg"},{"bike_id":"8569a35d-df19-4297-9188-5c5082a48db5","system_id":"levelo_inurba_marseille","lat":43.23197,"lon":5.35551,"is_reserved":false,"is_disabled":false,"rental_uris":{"android":"levelo://app?vid=8569a35d-df19-4297-9188-5c5082a48db5","ios":"levelo://app?vid=8569a35d-df19-4297-9188-5c5082a48db5"},"vehicle_type_id":"4","last_reported":1768313733,"current_range_meters":8000,"station_id":"ce4bhu92rcd13ifvqi70","pricing_plan_id":"cebpf4jnsgd1na2vs0mg"},{"bike_id":"4decab12-4aea-443b-993f-b32cadac6871","system_id":"levelo_inurba_marseille","lat":43.23963,"lon":5.36615,"is_reserved":false,"is_disabled":false,"rental_uris":{"android":"levelo://app?vid=4decab12-4aea-443b-993f-b32cadac6871","ios":"levelo://app?vid=4decab12-4aea-443b-993f-b32cadac6871"},"vehicle_type_id":"4","last_reported":1768313733,"current_range_meters":8000,"station_id":"ce4bhi12rcd13ifvqfp0","pricing_plan_id":"cebpf4jnsgd1na2vs0mg"},{"bike_id":"8dd1de03-db4d-4ee0-a83c-49af5a854fab","system_id":"levelo_inurba_marseille","lat":43.28841,"lon":5.42633,"is_reserved":false,"is_disabled":false,"rental_uris":{"android":"levelo://app?vid=8dd1de03-db4d-4ee0-a83c-49af5a854fab","ios":"levelo://app?vid=8dd1de03-db4d-4ee0-a83c-49af5a854fab"},"vehicle_type_id":"4","last_reported":1768313733,"current_range_meters":8000,"station_id":"","pricing_plan_id":"cebpf4jnsgd1na2vs0mg"},{"bike_id":"108f5d03-c905-459c-be79-104fc27dad8d","system_id":"levelo_inurba_marseille","lat":43.29792,"lon":5.38118,"is_reserved":false,"is_disabled":false,"rental_uris":{"android":"levelo://app?vid=108f5d03-c905-459c-be79-104fc27dad8d","ios":"levelo://app?vid=108f5d03-c905-459c-be79-104fc27dad8d"},"vehicle_type_id":"4","last_reported":1768313733,"current_range_meters":8000,"station_id":"ce4bgip2rcd13ifvqbb0","pricing_plan_id":"cebpf4jnsgd1na2vs0mg"},{"bike_id":"e593e2ba-0dc8-4f23-a1cd-bebf99d1d91f","system_id":"levelo_inurba_marseille","lat":43.31768,"lon":5.39017,"is_reserved":false,"is_disabled":false,"rental_uris":{"android":"levelo://app?vid=e593e2ba-0dc8-4f23-a1cd-bebf99d1d91f","ios":"levelo://app?vid=e593e2ba-0dc8-4f23-a1cd-bebf99d1d91f"},"vehicle_type_id":"4","last_reported":1768313733,"current_range_meters":8000,"station_id":"ce4bhqp2rcd13ifvqhng","pricing_plan_id":"cebpf4jnsgd1na2vs0mg"},{"bike_id":"22e07c03-7cc2-4f12-9e49-6993b190163f","system_id":"levelo_inurba_marseille","lat":43.29884,"lon":5.39666,"is_reserved":false,"is_disabled":false,"rental_uris":{"android":"levelo://app?vid=22e07c03-7cc2-4f12-9e49-6993b190163f","ios":"levelo://app?vid=22e07c03-7cc2-4f12-9e49-6993b190163f"},"vehicle_type_id":"4","last_reported":1768313733,"current_range_meters":8000,"station_id":"ce4bh0h2rcd13ifvqd50","pricing_plan_id":"cebpf4jnsgd1na2vs0mg"},{"bike_id":"d837fa6c-222e-496d-8553-222c58e024bd","system_id":"levelo_inurba_marseille","lat":43.22932,"lon":5.35384,"is_reserved":false,"is_disabled":false,"rental_uris":{"android":"levelo://app?vid=d837fa6c-222e-496d-8553-222c58e024bd","ios":"levelo://app?vid=d837fa6c-222e-496d-8553-222c58e024bd"},"vehicle_type_id":"4","last_reported":1768313733,"current_range_meters":8000,"station_id":"cpo3532slgdg3j2ikp40","pricing_plan_id":"cebpf4jnsgd1na2vs0mg"},{"bike_id":"f5edf181-ba13-4720-a750-b48045bc1ee3","system_id":"levelo_inurba_marseille","lat":43.25922,"lon":5.40884,"is_reserved":false,"is_disabled":false,"rental_uris":{"android":"levelo://app?vid=f5edf181-ba13-4720-a750-b48045bc1ee3","ios":"levelo://app?vid=f5edf181-ba13-4720-a750-b48045bc1ee3"},"vehicle_type_id":"4","last_reported":1768313733,"current_range_meters":8000,"station_id":"ce4bhm92rcd13ifvqglg","pricing_plan_id":"cebpf4jnsgd1na2vs0mg"},{"bike_id":"3881337f-ef7f-4b7c-be0b-974709680e52","system_id":"levelo_inurba_marseille","lat":43.29312,"lon":5.3723,"is_reserved":false,"is_disabled":false,"rental_uris":{"android":"levelo://app?vid=3881337f-ef7f-4b7c-be0b-974709680e52","ios":"levelo://app?vid=3881337f-ef7f-4b7c-be0b-974709680e52"},"vehicle_type_id":"4","last_reported":1768313733,"current_range_meters":8400,"station_id":"ce4bgh92rcd13ifvqb40","pricing_plan_id":"cebpf4jnsgd1na2vs0mg"},{"bike_id":"a3f7f0a2-84e8-4600-ac6a-a70fb12b7c90","system_id":"levelo_inurba_marseille","lat":43.24399,"lon":5.37049,"is_reserved":false,"is_disabled":false,"rental_uris":{"android":"levelo://app?vid=a3f7f0a2-84e8-4600-ac6a-a70fb12b7c90","ios":"levelo://app?vid=a3f7f0a2-84e8-4600-ac6a-a70fb12b7c90"},"vehicle_type_id":"4","last_reported":1768313733,"current_range_meters":8400,"station_id":"ce4bhhh2rcd13ifvqfk0","pricing_plan_id":"cebpf4jnsgd1na2vs0mg"},{"bike_id":"eaa12c7d-9ceb-4fcf-8441-5efb65234d28","system_id":"levelo_inurba_marseille","lat":43.24806,"lon":5.37456,"is_reserved":false,"is_disabled":false,"rental_uris":{"android":"levelo://app?vid=eaa12c7d-9ceb-4fcf-8441-5efb65234d28","ios":"levelo://app?vid=eaa12c7d-9ceb-4fcf-8441-5efb65234d28"},"vehicle_type_id":"4","last_reported":1768313733,"current_range_meters":8400,"station_id":"ce4bhgh2rcd13ifvqfb0","pricing_plan_id":"cebpf4jnsgd1na2vs0mg"},{"bike_id":"5b027b49-ddf4-41e2-96f1-1cc8b60b6d10","system_id":"levelo_inurba_marseille","lat":43.22534,"lon":5.34836,"is_reserved":false,"is_disabled":false,"rental_uris":{"android":"levelo://app?vid=5b027b49-ddf4-41e2-96f1-1cc8b60b6d10","ios":"levelo://app?vid=5b027b49-ddf4-41e2-96f1-1cc8b60b6d10"},"vehicle_type_id":"4","last_reported":1768313733,"current_range_meters":8400,"station_id":"st_cvj5dfep6f1abm77gieg","pricing_plan_id":"cebpf4jnsgd1na2vs0mg"},{"bike_id":"99475782-9f22-4001-a2ed-de835e3c7087","system_id":"levelo_inurba_marseille","lat":43.29264,"lon":5.40925,"is_reserved":false,"is_disabled":true,"rental_uris":{"android":"levelo://app?vid=99475782-9f22-4001-a2ed-de835e3c7087","ios":"levelo://app?vid=99475782-9f22-4001-a2ed-de835e3c7087"},"vehicle_type_id":"4","last_reported":1768313733,"current_range_meters":8400,"station_id":"ce4bh192rcd13ifvqdc0","pricing_plan_id":"cebpf4jnsgd1na2vs0mg"},{"bike_id":"130dad21-3d53-4048-8b02-dd5b70e1e0a2","system_id":"levelo_inurba_marseille","lat":43.2906,"lon":5.39978,"is_reserved":false,"is_disabled":false,"rental_uris":{"android":"levelo://app?vid=130dad21-3d53-4048-8b02-dd5b70e1e0a2","ios":"levelo://app?vid=130dad21-3d53-4048-8b02-dd5b70e1e0a2"},"vehicle_type_id":"4","last_reported":1768313733,"current_range_meters":8400,"station_id":"ce4bh392rcd13ifvqdm0","pricing_plan_id":"cebpf4jnsgd1na2vs0mg"},{"bike_id":"1871e0c7-ef88-44e9-99e1-0df673e67e2d","system_id":"levelo_inurba_marseille","lat":43.24404,"lon":5.37068,"is_reserved":false,"is_disabled":false,"rental_uris":{"android":"levelo://app?vid=1871e0c7-ef88-44e9-99e1-0df673e67e2d","ios":"levelo://app?vid=1871e0c7-ef88-44e9-99e1-0df673e67e2d"},"vehicle_type_id":"4","last_reported":1768313733,"current_range_meters":8400,"station_id":"ce4bhhh2rcd13ifvqfk0","pricing_plan_id":"cebpf4jnsgd1na2vs0mg"},{"bike_id":"b4a9b861-fb63-44fd-ad85-c7b2758ab1bb","system_id":"levelo_inurba_marseille","lat":43.29753,"lon":5.42777,"is_reserved":false,"is_disabled":false,"rental_uris":{"android":"levelo://app?vid=b4a9b861-fb63-44fd-ad85-c7b2758ab1bb","ios":"levelo://app?vid=b4a9b861-fb63-44fd-ad85-c7b2758ab1bb"},"vehicle_type_id":"4","last_reported":1768313733,"current_range_meters":8400,"station_id":"st_d3md5207bmas73dh9klg","pricing_plan_id":"cebpf4jnsgd1na2vs0mg"},{"bike_id":"9dd907f2-f108-466a-8abb-7ae74aaeafb7","system_id":"levelo_inurba_marseille","lat":43.23794,"lon":5.36622,"is_reserved":false,"is_disabled":false,"rental_uris":{"android":"levelo://app?vid=9dd907f2-f108-466a-8abb-7ae74aaeafb7","ios":"levelo://app?vid=9dd907f2-f108-466a-8abb-7ae74aaeafb7"},"vehicle_type_id":"4","last_reported":1768313733,"current_range_meters":8400,"station_id":"st_d3nk18o9ro0c73en2l3g","pricing_plan_id":"cebpf4jnsgd1na2vs0mg"},{"bike_id":"b61728a8-2f61-428a-8e4c-b87e7bfc06c5","system_id":"levelo_inurba_marseille","lat":43.29619,"lon":5.37719,"is_reserved":false,"is_disabled":false,"rental_uris":{"android":"levelo://app?vid=b61728a8-2f61-428a-8e4c-b87e7bfc06c5","ios":"levelo://app?vid=b61728a8-2f61-428a-8e4c-b87e7bfc06c5"},"vehicle_type_id":"4","last_reported":1768313733,"current_range_meters":8400,"station_id":"ce4bgi92rcd13ifvqb90","pricing_plan_id":"cebpf4jnsgd1na2vs0mg"},{"bike_id":"0b9fb0e1-958e-4d37-8a77-cfcb3dd5be0a","system_id":"levelo_inurba_marseille","lat":43.23788,"lon":5.36635,"is_reserved":false,"is_disabled":false,"rental_uris":{"android":"levelo://app?vid=0b9fb0e1-958e-4d37-8a77-cfcb3dd5be0a","ios":"levelo://app?vid=0b9fb0e1-958e-4d37-8a77-cfcb3dd5be0a"},"vehicle_type_id":"4","last_reported":1768313733,"current_range_meters":8400,"station_id":"st_d3nk18o9ro0c73en2l3g","pricing_plan_id":"cebpf4jnsgd1na2vs0mg"},{"bike_id":"25377a8a-f8c0-42a5-8439-f16217ba2e63","system_id":"levelo_inurba_marseille","lat":43.32896,"lon":5.39137,"is_reserved":false,"is_disabled":false,"rental_uris":{"android":"levelo://app?vid=25377a8a-f8c0-42a5-8439-f16217ba2e63","ios":"levelo://app?vid=25377a8a-f8c0-42a5-8439-f16217ba2e63"},"vehicle_type_id":"4","last_reported":1768313733,"current_range_meters":8400,"station_id":"","pricing_plan_id":"cebpf4jnsgd1na2vs0mg"},{"bike_id":"10e7ab4f-9703-493d-b7c0-21855d1cad26","system_id":"levelo_inurba_marseille","lat":43.23794,"lon":5.36634,"is_reserved":false,"is_disabled":false,"rental_uris":{"android":"levelo://app?vid=10e7ab4f-9703-493d-b7c0-21855d1cad26","ios":"levelo://app?vid=10e7ab4f-9703-493d-b7c0-21855d1cad26"},"vehicle_type_id":"4","last_reported":1768313733,"current_range_meters":8800,"station_id":"st_d3nk18o9ro0c73en2l3g","pricing_plan_id":"cebpf4jnsgd1na2vs0mg"},{"bike_id":"0e5df7ef-4f3f-4918-aa70-7dd918ba921c","system_id":"levelo_inurba_marseille","lat":43.32348,"lon":5.36753,"is_reserved":false,"is_disabled":false,"rental_uris":{"android":"levelo://app?vid=0e5df7ef-4f3f-4918-aa70-7dd918ba921c","ios":"levelo://app?vid=0e5df7ef-4f3f-4918-aa70-7dd918ba921c"},"vehicle_type_id":"4","last_reported":1768313733,"current_range_meters":8800,"station_id":"ce4bhsh2rcd13ifvqi2g","pricing_plan_id":"cebpf4jnsgd1na2vs0mg"},{"bike_id":"83029d34-3b86-4276-93d0-001e8e0b129e","system_id":"levelo_inurba_marseille","lat":43.29002,"lon":5.37582,"is_reserved":false,"is_disabled":false,"rental_uris":{"android":"levelo://app?vid=83029d34-3b86-4276-93d0-001e8e0b129e","ios":"levelo://app?vid=83029d34-3b86-4276-93d0-001e8e0b129e"},"vehicle_type_id":"4","last_reported":1768313733,"current_range_meters":8800,"station_id":"ce4bh692rcd13ifvqe90","pricing_plan_id":"cebpf4jnsgd1na2vs0mg"},{"bike_id":"87237d20-145e-49ff-83c9-3e0a80130e54","system_id":"levelo_inurba_marseille","lat":43.28543,"lon":5.44081,"is_reserved":false,"is_disabled":false,"rental_uris":{"android":"levelo://app?vid=87237d20-145e-49ff-83c9-3e0a80130e54","ios":"levelo://app?vid=87237d20-145e-49ff-83c9-3e0a80130e54"},"vehicle_type_id":"4","last_reported":1768313733,"current_range_meters":8800,"station_id":"st_d3j3df2ikq2c7380ej80","pricing_plan_id":"cebpf4jnsgd1na2vs0mg"},{"bike_id":"58d01081-65c0-482a-b977-f0dfd8895a04","system_id":"levelo_inurba_marseille","lat":43.282228,"lon":5.430164,"is_reserved":false,"is_disabled":false,"rental_uris":{"android":"levelo://app?vid=58d01081-65c0-482a-b977-f0dfd8895a04","ios":"levelo://app?vid=58d01081-65c0-482a-b977-f0dfd8895a04"},"vehicle_type_id":"4","last_reported":1768313733,"current_range_meters":8800,"station_id":"","pricing_plan_id":"cebpf4jnsgd1na2vs0mg"},{"bike_id":"17d2feef-4e10-45c1-b8f9-6bc8b64939c3","system_id":"levelo_inurba_marseille","lat":43.24654,"lon":5.38161,"is_reserved":false,"is_disabled":false,"rental_uris":{"android":"levelo://app?vid=17d2feef-4e10-45c1-b8f9-6bc8b64939c3","ios":"levelo://app?vid=17d2feef-4e10-45c1-b8f9-6bc8b64939c3"},"vehicle_type_id":"4","last_reported":1768313733,"current_range_meters":8800,"station_id":"ce4bhih2rcd13ifvqfr0","pricing_plan_id":"cebpf4jnsgd1na2vs0mg"},{"bike_id":"1b652514-1232-46b8-8e6c-48cd584369c2","system_id":"levelo_inurba_marseille","lat":43.26956,"lon":5.40259,"is_reserved":false,"is_disabled":false,"rental_uris":{"android":"levelo://app?vid=1b652514-1232-46b8-8e6c-48cd584369c2","ios":"levelo://app?vid=1b652514-1232-46b8-8e6c-48cd584369c2"},"vehicle_type_id":"4","last_reported":1768313733,"current_range_meters":8800,"station_id":"cjm6bp8fraef2m0cb0m0","pricing_plan_id":"cebpf4jnsgd1na2vs0mg"},{"bike_id":"9b5af17d-963d-4337-ba4a-df5a54e9cf3a","system_id":"levelo_inurba_marseille","lat":43.32495,"lon":5.38301,"is_reserved":false,"is_disabled":false,"rental_uris":{"android":"levelo://app?vid=9b5af17d-963d-4337-ba4a-df5a54e9cf3a","ios":"levelo://app?vid=9b5af17d-963d-4337-ba4a-df5a54e9cf3a"},"vehicle_type_id":"4","last_reported":1768313733,"current_range_meters":8800,"station_id":"st_d4asgbiv49dc73anf9m0","pricing_plan_id":"cebpf4jnsgd1na2vs0mg"},{"bike_id":"8fd806c9-6515-4473-9594-1a51d8717d0d","system_id":"levelo_inurba_marseille","lat":43.23965,"lon":5.36619,"is_reserved":false,"is_disabled":false,"rental_uris":{"android":"levelo://app?vid=8fd806c9-6515-4473-9594-1a51d8717d0d","ios":"levelo://app?vid=8fd806c9-6515-4473-9594-1a51d8717d0d"},"vehicle_type_id":"4","last_reported":1768313733,"current_range_meters":8800,"station_id":"ce4bhi12rcd13ifvqfp0","pricing_plan_id":"cebpf4jnsgd1na2vs0mg"},{"bike_id":"186a214f-62c4-43b2-baa8-4dd517bf21b4","system_id":"levelo_inurba_marseille","lat":43.2953,"lon":5.38526,"is_reserved":false,"is_disabled":false,"rental_uris":{"android":"levelo://app?vid=186a214f-62c4-43b2-baa8-4dd517bf21b4","ios":"levelo://app?vid=186a214f-62c4-43b2-baa8-4dd517bf21b4"},"vehicle_type_id":"4","last_reported":1768313733,"current_range_meters":8800,"station_id":"ce4bgih2rcd13ifvqba0","pricing_plan_id":"cebpf4jnsgd1na2vs0mg"},{"bike_id":"24283deb-d455-4941-86df-ef97844bfb83","system_id":"levelo_inurba_marseille","lat":43.23153,"lon":5.43712,"is_reserved":false,"is_disabled":false,"rental_uris":{"android":"levelo://app?vid=24283deb-d455-4941-86df-ef97844bfb83","ios":"levelo://app?vid=24283deb-d455-4941-86df-ef97844bfb83"},"vehicle_type_id":"4","last_reported":1768313733,"current_range_meters":8800,"station_id":"ce4bhmp2rcd13ifvqgog","pricing_plan_id":"cebpf4jnsgd1na2vs0mg"},{"bike_id":"f1e7d6e0-da4c-41e1-9e09-b8395a021998","system_id":"levelo_inurba_marseille","lat":43.29274,"lon":5.3685,"is_reserved":false,"is_disabled":false,"rental_uris":{"android":"levelo://app?vid=f1e7d6e0-da4c-41e1-9e09-b8395a021998","ios":"levelo://app?vid=f1e7d6e0-da4c-41e1-9e09-b8395a021998"},"vehicle_type_id":"4","last_reported":1768313733,"current_range_meters":8800,"station_id":"ce4bhbp2rcd13ifvqesg","pricing_plan_id":"cebpf4jnsgd1na2vs0mg"},{"bike_id":"4b298b32-8650-4848-9e52-bfd6feef7bd7","system_id":"levelo_inurba_marseille","lat":43.294914,"lon":5.433095,"is_reserved":false,"is_disabled":false,"rental_uris":{"android":"levelo://app?vid=4b298b32-8650-4848-9e52-bfd6feef7bd7","ios":"levelo://app?vid=4b298b32-8650-4848-9e52-bfd6feef7bd7"},"vehicle_type_id":"4","last_reported":1768313733,"current_range_meters":8800,"station_id":"st_d3j5ugp08ojc73fj9d10","pricing_plan_id":"cebpf4jnsgd1na2vs0mg"},{"bike_id":"d556dfa1-2330-468d-b88e-d07e92fdbec7","system_id":"levelo_inurba_marseille","lat":43.23188,"lon":5.39986,"is_reserved":false,"is_disabled":false,"rental_uris":{"android":"levelo://app?vid=d556dfa1-2330-468d-b88e-d07e92fdbec7","ios":"levelo://app?vid=d556dfa1-2330-468d-b88e-d07e92fdbec7"},"vehicle_type_id":"4","last_reported":1768313733,"current_range_meters":8800,"station_id":"ce4bhn12rcd13ifvqgqg","pricing_plan_id":"cebpf4jnsgd1na2vs0mg"},{"bike_id":"4e5cd568-543b-4610-b469-0382d7dac3b6","system_id":"levelo_inurba_marseille","lat":43.25917,"lon":5.40855,"is_reserved":false,"is_disabled":false,"rental_uris":{"android":"levelo://app?vid=4e5cd568-543b-4610-b469-0382d7dac3b6","ios":"levelo://app?vid=4e5cd568-543b-4610-b469-0382d7dac3b6"},"vehicle_type_id":"4","last_reported":1768313733,"current_range_meters":8800,"station_id":"","pricing_plan_id":"cebpf4jnsgd1na2vs0mg"},{"bike_id":"a2b8e70d-5dfb-4230-ae5a-24f06aba12a3","system_id":"levelo_inurba_marseille","lat":43.28485,"lon":5.48391,"is_reserved":false,"is_disabled":false,"rental_uris":{"android":"levelo://app?vid=a2b8e70d-5dfb-4230-ae5a-24f06aba12a3","ios":"levelo://app?vid=a2b8e70d-5dfb-4230-ae5a-24f06aba12a3"},"vehicle_type_id":"4","last_reported":1768313733,"current_range_meters":8800,"station_id":"","pricing_plan_id":"cebpf4jnsgd1na2vs0mg"},{"bike_id":"c5098129-0aca-4658-8f1e-ce747d82e73f","system_id":"levelo_inurba_marseille","lat":43.28415,"lon":5.37512,"is_reserved":false,"is_disabled":false,"rental_uris":{"android":"levelo://app?vid=c5098129-0aca-4658-8f1e-ce747d82e73f","ios":"levelo://app?vid=c5098129-0aca-4658-8f1e-ce747d82e73f"},"vehicle_type_id":"4","last_reported":1768313733,"current_range_meters":8800,"station_id":"ce4bh412rcd13ifvqds0","pricing_plan_id":"cebpf4jnsgd1na2vs0mg"},{"bike_id":"61547623-329d-489e-b362-c83b298363d0","system_id":"levelo_inurba_marseille","lat":43.25123,"lon":5.40307,"is_reserved":false,"is_disabled":false,"rental_uris":{"android":"levelo://app?vid=61547623-329d-489e-b362-c83b298363d0","ios":"levelo://app?vid=61547623-329d-489e-b362-c83b298363d0"},"vehicle_type_id":"4","last_reported":1768313733,"current_range_meters":9200,"station_id":"ce4bhlh2rcd13ifvqgig","pricing_plan_id":"cebpf4jnsgd1na2vs0mg"},{"bike_id":"166632b1-b6f1-4a03-bf2c-f2753dbfdf9b","system_id":"levelo_inurba_marseille","lat":43.28855,"lon":5.42512,"is_reserved":false,"is_disabled":false,"rental_uris":{"android":"levelo://app?vid=166632b1-b6f1-4a03-bf2c-f2753dbfdf9b","ios":"levelo://app?vid=166632b1-b6f1-4a03-bf2c-f2753dbfdf9b"},"vehicle_type_id":"4","last_reported":1768313733,"current_range_meters":9200,"station_id":"st_d3b462108ojc7389ooeg","pricing_plan_id":"cebpf4jnsgd1na2vs0mg"},{"bike_id":"a242eaa6-dfb6-472c-9d1c-18df59764c72","system_id":"levelo_inurba_marseille","lat":43.23786,"lon":5.36621,"is_reserved":false,"is_disabled":false,"rental_uris":{"android":"levelo://app?vid=a242eaa6-dfb6-472c-9d1c-18df59764c72","ios":"levelo://app?vid=a242eaa6-dfb6-472c-9d1c-18df59764c72"},"vehicle_type_id":"4","last_reported":1768313733,"current_range_meters":9200,"station_id":"st_d3nk18o9ro0c73en2l3g","pricing_plan_id":"cebpf4jnsgd1na2vs0mg"},{"bike_id":"de0d8c54-0ade-42f7-94b1-a50e97ddbb5a","system_id":"levelo_inurba_marseille","lat":43.2656,"lon":5.37298,"is_reserved":false,"is_disabled":false,"rental_uris":{"android":"levelo://app?vid=de0d8c54-0ade-42f7-94b1-a50e97ddbb5a","ios":"levelo://app?vid=de0d8c54-0ade-42f7-94b1-a50e97ddbb5a"},"vehicle_type_id":"4","last_reported":1768313733,"current_range_meters":9200,"station_id":"ce4bhg12rcd13ifvqf70","pricing_plan_id":"cebpf4jnsgd1na2vs0mg"},{"bike_id":"df18e084-a87b-4725-8ec8-1282613db9cc","system_id":"levelo_inurba_marseille","lat":43.3016,"lon":5.38073,"is_reserved":false,"is_disabled":false,"rental_uris":{"android":"levelo://app?vid=df18e084-a87b-4725-8ec8-1282613db9cc","ios":"levelo://app?vid=df18e084-a87b-4725-8ec8-1282613db9cc"},"vehicle_type_id":"4","last_reported":1768313733,"current_range_meters":9200,"station_id":"ce4bgjp2rcd13ifvqbh0","pricing_plan_id":"cebpf4jnsgd1na2vs0mg"},{"bike_id":"dfab0d12-4f32-4348-b3b2-f318b8989ba5","system_id":"levelo_inurba_marseille","lat":43.26225,"lon":5.37504,"is_reserved":false,"is_disabled":false,"rental_uris":{"android":"levelo://app?vid=dfab0d12-4f32-4348-b3b2-f318b8989ba5","ios":"levelo://app?vid=dfab0d12-4f32-4348-b3b2-f318b8989ba5"},"vehicle_type_id":"4","last_reported":1768313733,"current_range_meters":9200,"station_id":"ce4bhgp2rcd13ifvqfc0","pricing_plan_id":"cebpf4jnsgd1na2vs0mg"},{"bike_id":"53558fc4-dcfc-4add-af9a-00b42b64a9db","system_id":"levelo_inurba_marseille","lat":43.23746,"lon":5.3664,"is_reserved":false,"is_disabled":false,"rental_uris":{"android":"levelo://app?vid=53558fc4-dcfc-4add-af9a-00b42b64a9db","ios":"levelo://app?vid=53558fc4-dcfc-4add-af9a-00b42b64a9db"},"vehicle_type_id":"4","last_reported":1768313733,"current_range_meters":9200,"station_id":"st_d3nk18o9ro0c73en2l3g","pricing_plan_id":"cebpf4jnsgd1na2vs0mg"},{"bike_id":"808e207b-0c91-45aa-9f52-7d2419231048","system_id":"levelo_inurba_marseille","lat":43.28928,"lon":5.38382,"is_reserved":false,"is_disabled":false,"rental_uris":{"android":"levelo://app?vid=808e207b-0c91-45aa-9f52-7d2419231048","ios":"levelo://app?vid=808e207b-0c91-45aa-9f52-7d2419231048"},"vehicle_type_id":"4","last_reported":1768313733,"current_range_meters":9200,"station_id":"ce4bh612rcd13ifvqe6g","pricing_plan_id":"cebpf4jnsgd1na2vs0mg"},{"bike_id":"e7e28ba2-3e4e-422f-a879-66249a6c54a4","system_id":"levelo_inurba_marseille","lat":43.30275,"lon":5.37263,"is_reserved":false,"is_disabled":false,"rental_uris":{"android":"levelo://app?vid=e7e28ba2-3e4e-422f-a879-66249a6c54a4","ios":"levelo://app?vid=e7e28ba2-3e4e-422f-a879-66249a6c54a4"},"vehicle_type_id":"4","last_reported":1768313733,"current_range_meters":9200,"station_id":"","pricing_plan_id":"cebpf4jnsgd1na2vs0mg"},{"bike_id":"05d57eef-c65b-4641-bdb1-227c824d905d","system_id":"levelo_inurba_marseille","lat":43.28327,"lon":5.38846,"is_reserved":false,"is_disabled":true,"rental_uris":{"android":"levelo://app?vid=05d57eef-c65b-4641-bdb1-227c824d905d","ios":"levelo://app?vid=05d57eef-c65b-4641-bdb1-227c824d905d"},"vehicle_type_id":"4","last_reported":1768313733,"current_range_meters":9200,"station_id":"ce4bh492rcd13ifvqdvg","pricing_plan_id":"cebpf4jnsgd1na2vs0mg"},{"bike_id":"cc034a00-d52d-42de-a70d-df8a21e3db14","system_id":"levelo_inurba_marseille","lat":43.337444,"lon":5.374475,"is_reserved":false,"is_disabled":false,"rental_uris":{"android":"levelo://app?vid=cc034a00-d52d-42de-a70d-df8a21e3db14","ios":"levelo://app?vid=cc034a00-d52d-42de-a70d-df8a21e3db14"},"vehicle_type_id":"4","last_reported":1768313733,"current_range_meters":9200,"station_id":"","pricing_plan_id":"cebpf4jnsgd1na2vs0mg"},{"bike_id":"d7ab0452-df7b-4e43-bdd1-302c07881261","system_id":"levelo_inurba_marseille","lat":43.2904,"lon":5.38617,"is_reserved":false,"is_disabled":false,"rental_uris":{"android":"levelo://app?vid=d7ab0452-df7b-4e43-bdd1-302c07881261","ios":"levelo://app?vid=d7ab0452-df7b-4e43-bdd1-302c07881261"},"vehicle_type_id":"4","last_reported":1768313733,"current_range_meters":9200,"station_id":"ce4bh4p2rcd13ifvqe0g","pricing_plan_id":"cebpf4jnsgd1na2vs0mg"},{"bike_id":"15dad9e1-f250-49d2-9e5c-6dd9d242af0a","system_id":"levelo_inurba_marseille","lat":43.31229,"lon":5.36854,"is_reserved":false,"is_disabled":false,"rental_uris":{"android":"levelo://app?vid=15dad9e1-f250-49d2-9e5c-6dd9d242af0a","ios":"levelo://app?vid=15dad9e1-f250-49d2-9e5c-6dd9d242af0a"},"vehicle_type_id":"4","last_reported":1768313733,"current_range_meters":9600,"station_id":"ce4bgl92rcd13ifvqbq0","pricing_plan_id":"cebpf4jnsgd1na2vs0mg"},{"bike_id":"b4dc94ea-322e-4d04-bd61-57a7e6b5626a","system_id":"levelo_inurba_marseille","lat":43.2958,"lon":5.36783,"is_reserved":false,"is_disabled":false,"rental_uris":{"android":"levelo://app?vid=b4dc94ea-322e-4d04-bd61-57a7e6b5626a","ios":"levelo://app?vid=b4dc94ea-322e-4d04-bd61-57a7e6b5626a"},"vehicle_type_id":"4","last_reported":1768313733,"current_range_meters":9600,"station_id":"ce4bgph2rcd13ifvqc2g","pricing_plan_id":"cebpf4jnsgd1na2vs0mg"},{"bike_id":"aac2fe7d-d2df-46e8-9a19-247b66bd07b6","system_id":"levelo_inurba_marseille","lat":43.24054,"lon":5.3768,"is_reserved":false,"is_disabled":false,"rental_uris":{"android":"levelo://app?vid=aac2fe7d-d2df-46e8-9a19-247b66bd07b6","ios":"levelo://app?vid=aac2fe7d-d2df-46e8-9a19-247b66bd07b6"},"vehicle_type_id":"4","last_reported":1768313733,"current_range_meters":9600,"station_id":"ce4bhnp2rcd13ifvqgvg","pricing_plan_id":"cebpf4jnsgd1na2vs0mg"},{"bike_id":"28efb918-45c5-4269-bea8-c5f7921c7a7d","system_id":"levelo_inurba_marseille","lat":43.25505,"lon":5.37638,"is_reserved":false,"is_disabled":false,"rental_uris":{"android":"levelo://app?vid=28efb918-45c5-4269-bea8-c5f7921c7a7d","ios":"levelo://app?vid=28efb918-45c5-4269-bea8-c5f7921c7a7d"},"vehicle_type_id":"4","last_reported":1768313733,"current_range_meters":9600,"station_id":"ce4bhh12rcd13ifvqff0","pricing_plan_id":"cebpf4jnsgd1na2vs0mg"},{"bike_id":"c39dbcf4-0e2c-439b-83e4-2d30dbef32ed","system_id":"levelo_inurba_marseille","lat":43.29063,"lon":5.37167,"is_reserved":false,"is_disabled":false,"rental_uris":{"android":"levelo://app?vid=c39dbcf4-0e2c-439b-83e4-2d30dbef32ed","ios":"levelo://app?vid=c39dbcf4-0e2c-439b-83e4-2d30dbef32ed"},"vehicle_type_id":"4","last_reported":1768313733,"current_range_meters":9600,"station_id":"ce4bh5p2rcd13ifvqe4g","pricing_plan_id":"cebpf4jnsgd1na2vs0mg"},{"bike_id":"e6b959f6-64ad-45cf-b2c4-fcdba9ad3b64","system_id":"levelo_inurba_marseille","lat":43.298038,"lon":5.381129,"is_reserved":false,"is_disabled":false,"rental_uris":{"android":"levelo://app?vid=e6b959f6-64ad-45cf-b2c4-fcdba9ad3b64","ios":"levelo://app?vid=e6b959f6-64ad-45cf-b2c4-fcdba9ad3b64"},"vehicle_type_id":"4","last_reported":1768313733,"current_range_meters":9600,"station_id":"ce4bgip2rcd13ifvqbb0","pricing_plan_id":"cebpf4jnsgd1na2vs0mg"},{"bike_id":"46a8543e-d1fa-47b5-9d49-b59928b46ad6","system_id":"levelo_inurba_marseille","lat":43.337444,"lon":5.374475,"is_reserved":false,"is_disabled":false,"rental_uris":{"android":"levelo://app?vid=46a8543e-d1fa-47b5-9d49-b59928b46ad6","ios":"levelo://app?vid=46a8543e-d1fa-47b5-9d49-b59928b46ad6"},"vehicle_type_id":"4","last_reported":1768313733,"current_range_meters":9600,"station_id":"","pricing_plan_id":"cebpf4jnsgd1na2vs0mg"},{"bike_id":"7012ff07-b3cb-4615-bd11-891f578cc79a","system_id":"levelo_inurba_marseille","lat":43.301888,"lon":5.366233,"is_reserved":false,"is_disabled":false,"rental_uris":{"android":"levelo://app?vid=7012ff07-b3cb-4615-bd11-891f578cc79a","ios":"levelo://app?vid=7012ff07-b3cb-4615-bd11-891f578cc79a"},"vehicle_type_id":"4","last_reported":1768313733,"current_range_meters":9600,"station_id":"ce4bgrh2rcd13ifvqc8g","pricing_plan_id":"cebpf4jnsgd1na2vs0mg"},{"bike_id":"39e9687f-8ed2-4e0f-ac46-a85a84abc099","system_id":"levelo_inurba_marseille","lat":43.245348,"lon":5.395334,"is_reserved":false,"is_disabled":false,"rental_uris":{"android":"levelo://app?vid=39e9687f-8ed2-4e0f-ac46-a85a84abc099","ios":"levelo://app?vid=39e9687f-8ed2-4e0f-ac46-a85a84abc099"},"vehicle_type_id":"4","last_reported":1768313733,"current_range_meters":9600,"station_id":"ce4bhlp2rcd13ifvqgjg","pricing_plan_id":"cebpf4jnsgd1na2vs0mg"},{"bike_id":"e1aaebb3-5db6-4c6e-ad54-e024332b8248","system_id":"levelo_inurba_marseille","lat":43.28425,"lon":5.34993,"is_reserved":false,"is_disabled":false,"rental_uris":{"android":"levelo://app?vid=e1aaebb3-5db6-4c6e-ad54-e024332b8248","ios":"levelo://app?vid=e1aaebb3-5db6-4c6e-ad54-e024332b8248"},"vehicle_type_id":"4","last_reported":1768313733,"current_range_meters":10000,"station_id":"ce4bhbh2rcd13ifvqepg","pricing_plan_id":"cebpf4jnsgd1na2vs0mg"},{"bike_id":"43957bbb-a5bf-4b3a-8306-c940c14f55a1","system_id":"levelo_inurba_marseille","lat":43.28552,"lon":5.44134,"is_reserved":false,"is_disabled":false,"rental_uris":{"android":"levelo://app?vid=43957bbb-a5bf-4b3a-8306-c940c14f55a1","ios":"levelo://app?vid=43957bbb-a5bf-4b3a-8306-c940c14f55a1"},"vehicle_type_id":"4","last_reported":1768313733,"current_range_meters":10000,"station_id":"st_d3j3df2ikq2c7380ej80","pricing_plan_id":"cebpf4jnsgd1na2vs0mg"},{"bike_id":"dadd3643-d3f2-43cc-93ba-a611d7b33fea","system_id":"levelo_inurba_marseille","lat":43.27994,"lon":5.41664,"is_reserved":false,"is_disabled":false,"rental_uris":{"android":"levelo://app?vid=dadd3643-d3f2-43cc-93ba-a611d7b33fea","ios":"levelo://app?vid=dadd3643-d3f2-43cc-93ba-a611d7b33fea"},"vehicle_type_id":"4","last_reported":1768313733,"current_range_meters":10000,"station_id":"ce4bho12rcd13ifvqh1g","pricing_plan_id":"cebpf4jnsgd1na2vs0mg"},{"bike_id":"b07d2b98-6097-4b4e-a6e2-345e5aa494ac","system_id":"levelo_inurba_marseille","lat":43.23788,"lon":5.36631,"is_reserved":false,"is_disabled":false,"rental_uris":{"android":"levelo://app?vid=b07d2b98-6097-4b4e-a6e2-345e5aa494ac","ios":"levelo://app?vid=b07d2b98-6097-4b4e-a6e2-345e5aa494ac"},"vehicle_type_id":"4","last_reported":1768313733,"current_range_meters":10000,"station_id":"st_d3nk18o9ro0c73en2l3g","pricing_plan_id":"cebpf4jnsgd1na2vs0mg"},{"bike_id":"477f956f-8ae0-4c37-bf44-34473ef75fe3","system_id":"levelo_inurba_marseille","lat":43.246371,"lon":5.389014,"is_reserved":false,"is_disabled":false,"rental_uris":{"android":"levelo://app?vid=477f956f-8ae0-4c37-bf44-34473ef75fe3","ios":"levelo://app?vid=477f956f-8ae0-4c37-bf44-34473ef75fe3"},"vehicle_type_id":"4","last_reported":1768313733,"current_range_meters":10000,"station_id":"ce4bhg12rcd13ifvqf60","pricing_plan_id":"cebpf4jnsgd1na2vs0mg"},{"bike_id":"737ed20c-4f87-451a-bc22-15e8ae5406ff","system_id":"levelo_inurba_marseille","lat":43.31353,"lon":5.36711,"is_reserved":false,"is_disabled":false,"rental_uris":{"android":"levelo://app?vid=737ed20c-4f87-451a-bc22-15e8ae5406ff","ios":"levelo://app?vid=737ed20c-4f87-451a-bc22-15e8ae5406ff"},"vehicle_type_id":"4","last_reported":1768313733,"current_range_meters":10000,"station_id":"ce4bgr92rcd13ifvqc6g","pricing_plan_id":"cebpf4jnsgd1na2vs0mg"},{"bike_id":"135724df-1c8a-44de-83d3-d3c3aa7e6aa0","system_id":"levelo_inurba_marseille","lat":43.249925,"lon":5.389349,"is_reserved":false,"is_disabled":false,"rental_uris":{"android":"levelo://app?vid=135724df-1c8a-44de-83d3-d3c3aa7e6aa0","ios":"levelo://app?vid=135724df-1c8a-44de-83d3-d3c3aa7e6aa0"},"vehicle_type_id":"4","last_reported":1768313733,"current_range_meters":10000,"station_id":"ce4bhgp2rcd13ifvqfd0","pricing_plan_id":"cebpf4jnsgd1na2vs0mg"},{"bike_id":"238f9851-38cc-4739-9e57-318ffb2a6625","system_id":"levelo_inurba_marseille","lat":43.24167,"lon":5.36392,"is_reserved":false,"is_disabled":true,"rental_uris":{"android":"levelo://app?vid=238f9851-38cc-4739-9e57-318ffb2a6625","ios":"levelo://app?vid=238f9851-38cc-4739-9e57-318ffb2a6625"},"vehicle_type_id":"4","last_reported":1768313733,"current_range_meters":10000,"station_id":"cpo36qri1sfpv3e86is0","pricing_plan_id":"cebpf4jnsgd1na2vs0mg"},{"bike_id":"217fb331-5db3-42e3-81ed-f078bde860e8","system_id":"levelo_inurba_marseille","lat":43.27988,"lon":5.41665,"is_reserved":false,"is_disabled":true,"rental_uris":{"android":"levelo://app?vid=217fb331-5db3-42e3-81ed-f078bde860e8","ios":"levelo://app?vid=217fb331-5db3-42e3-81ed-f078bde860e8"},"vehicle_type_id":"4","last_reported":1768313733,"current_range_meters":10000,"station_id":"ce4bho12rcd13ifvqh1g","pricing_plan_id":"cebpf4jnsgd1na2vs0mg"},{"bike_id":"c679983c-881e-4c48-b3f1-35f2bbbbfc55","system_id":"levelo_inurba_marseille","lat":43.30559,"lon":5.36713,"is_reserved":false,"is_disabled":false,"rental_uris":{"android":"levelo://app?vid=c679983c-881e-4c48-b3f1-35f2bbbbfc55","ios":"levelo://app?vid=c679983c-881e-4c48-b3f1-35f2bbbbfc55"},"vehicle_type_id":"4","last_reported":1768313733,"current_range_meters":10000,"station_id":"ce4bgrp2rcd13ifvqc9g","pricing_plan_id":"cebpf4jnsgd1na2vs0mg"},{"bike_id":"28388a32-f584-4a6e-a4b4-ab94abec33ff","system_id":"levelo_inurba_marseille","lat":43.27496,"lon":5.42448,"is_reserved":false,"is_disabled":false,"rental_uris":{"android":"levelo://app?vid=28388a32-f584-4a6e-a4b4-ab94abec33ff","ios":"levelo://app?vid=28388a32-f584-4a6e-a4b4-ab94abec33ff"},"vehicle_type_id":"4","last_reported":1768313733,"current_range_meters":10000,"station_id":"ce4bhn92rcd13ifvqgrg","pricing_plan_id":"cebpf4jnsgd1na2vs0mg"},{"bike_id":"197ecab3-0f34-419b-b5b5-460a7d8263a8","system_id":"levelo_inurba_marseille","lat":43.30283,"lon":5.37707,"is_reserved":false,"is_disabled":false,"rental_uris":{"android":"levelo://app?vid=197ecab3-0f34-419b-b5b5-460a7d8263a8","ios":"levelo://app?vid=197ecab3-0f34-419b-b5b5-460a7d8263a8"},"vehicle_type_id":"4","last_reported":1768313733,"current_range_meters":10000,"station_id":"ce4bguh2rcd13ifvqcj0","pricing_plan_id":"cebpf4jnsgd1na2vs0mg"},{"bike_id":"8fa03c5a-1cbc-4e54-b6dd-46b879d89809","system_id":"levelo_inurba_marseille","lat":43.2708,"lon":5.3832,"is_reserved":false,"is_disabled":false,"rental_uris":{"android":"levelo://app?vid=8fa03c5a-1cbc-4e54-b6dd-46b879d89809","ios":"levelo://app?vid=8fa03c5a-1cbc-4e54-b6dd-46b879d89809"},"vehicle_type_id":"4","last_reported":1768313733,"current_range_meters":10000,"station_id":"st_d3n2fo6cfp8s73cte1j0","pricing_plan_id":"cebpf4jnsgd1na2vs0mg"},{"bike_id":"c91ef3ea-3125-4302-ba52-7461cf1d6147","system_id":"levelo_inurba_marseille","lat":43.23146,"lon":5.43701,"is_reserved":false,"is_disabled":false,"rental_uris":{"android":"levelo://app?vid=c91ef3ea-3125-4302-ba52-7461cf1d6147","ios":"levelo://app?vid=c91ef3ea-3125-4302-ba52-7461cf1d6147"},"vehicle_type_id":"4","last_reported":1768313733,"current_range_meters":10000,"station_id":"ce4bhmp2rcd13ifvqgog","pricing_plan_id":"cebpf4jnsgd1na2vs0mg"},