{"last_updated":1729897793,"ttl":60,"version":"2.2","data":{"bikes":[{"bike_id":"d2ceb7b1-8be1-4a18-aa66-e1d46306bf80","system_id":"levelo_inurba_marseille","lat":43.26061,"lon":5.39397,"is_reserved":false,"is_disabled":false,"rental_uris":{"android":"levelo://app?vid=d2ceb7b1-8be1-4a18-aa66-e1d46306bf80","ios":"levelo://app?vid=d2ceb7b1-8be1-4a18-aa66-e1d46306bf80"},"vehicle_type_id":"4","last_reported":1729897793,"current_range_meters":32000,"station_id":"ce4bhh92rcd13ifvqfj0","pricing_plan_id":"cebpf4jnsgd1na2vs0mg"},{"bike_id":"f4a12ea7-75df-4c48-9db9-c584e2d01b59","system_id":"levelo_inurba_marseille","lat":43.29859,"lon":5.39729,"is_reserved":false,"is_disabled":false,"rental_uris":{"android":"levelo://app?vid=f4a12ea7-75df-4c48-9db9-c584e2d01b59","ios":"levelo://app?vid=f4a12ea7-75df-4c48-9db9-c584e2d01b59"},"vehicle_type_id":"4","last_reported":1729897793,"current_range_meters":31200,"station_id":"ce4bh0h2rcd13ifvqd50","pricing_plan_id":"cebpf4jnsgd1na2vs0mg"},{"bike_id":"163eddd4-107c-441d-b897-daa82cca5a31","system_id":"levelo_inurba_marseille","lat":43.28077,"lon":5.39657,"is_reserved":false,"is_disabled":false,"rental_uris":{"android":"levelo://app?vid=163eddd4-107c-441d-b897-daa82cca5a31","ios":"levelo://app?vid=163eddd4-107c-441d-b897-daa82cca5a31"},"vehicle_type_id":"4","last_reported":1729897793,"current_range_meters":38800,"station_id":"ce4bho12rcd13ifvqh2g","pricing_plan_id":"cebpf4jnsgd1na2vs0mg"},{"bike_id":"e486cac0-852b-4fd2-93f3-67937aaaa26a","system_id":"levelo_inurba_marseille","lat":43.26682,"lon":5.38266,"is_reserved":false,"is_disabled":false,"rental_uris":{"android":"levelo://app?vid=e486cac0-852b-4fd2-93f3-67937aaaa26a","ios":"levelo://app?vid=e486cac0-852b-4fd2-93f3-67937aaaa26a"},"vehicle_type_id":"4","last_reported":1729897793,"current_range_meters":14000,"station_id":"ce4bhg92rcd13ifvqf90","pricing_plan_id":"cebpf4jnsgd1na2vs0mg"},{"bike_id":"607fa9b8-1815-47a3-97ba-59ab08c0f8bf","system_id":"levelo_inurba_marseille","lat":43.25577,"lon":5.3824,"is_reserved":false,"is_disabled":false,"rental_uris":{"android":"levelo://app?vid=607fa9b8-1815-47a3-97ba-59ab08c0f8bf","ios":"levelo://app?vid=607fa9b8-1815-47a3-97ba-59ab08c0f8bf"},"vehicle_type_id":"4","last_reported":1729897793,"current_range_meters":28400,"station_id":"ce4bhih2rcd13ifvqfs0","pricing_plan_id":"cebpf4jnsgd1na2vs0mg"},{"bike_id":"7b6aaf83-8cdd-4ae0-abe8-d162e1381dc3","system_id":"levelo_inurba_marseille","lat":43.28674,"lon":5.36332,"is_reserved":false,"is_disabled":false,"rental_uris":{"android":"levelo://app?vid=7b6aaf83-8cdd-4ae0-abe8-d162e1381dc3","ios":"levelo://app?vid=7b6aaf83-8cdd-4ae0-abe8-d162e1381dc3"},"vehicle_type_id":"4","last_reported":1729897793,"current_range_meters":30400,"station_id":"ce4bhah2rcd13ifvqej0","pricing_plan_id":"cebpf4jnsgd1na2vs0mg"},{"bike_id":"92a05bb6-9848-44f6-a68e-d10c7e2e418e","system_id":"levelo_inurba_marseille","lat":43.31329,"lon":5.39689,"is_reserved":false,"is_disabled":false,"rental_uris":{"android":"levelo://app?vid=92a05bb6-9848-44f6-a68e-d10c7e2e418e","ios":"levelo://app?vid=92a05bb6-9848-44f6-a68e-d10c7e2e418e"},"vehicle_type_id":"4","last_reported":1729897793,"current_range_meters":36000,"station_id":"ce4bgvp2rcd13ifvqcu0","pricing_plan_id":"cebpf4jnsgd1na2vs0mg"},{"bike_id":"3381cd79-1316-4c50-ad86-ee5056cd0e14","system_id":"levelo_inurba_marseille","lat":43.25122,"lon":5.40317,"is_reserved":false,"is_disabled":false,"rental_uris":{"android":"levelo://app?vid=3381cd79-1316-4c50-ad86-ee5056cd0e14","ios":"levelo://app?vid=3381cd79-1316-4c50-ad86-ee5056cd0e14"},"vehicle_type_id":"4","last_reported":1729897793,"current_range_meters":38400,"station_id":"ce4bhlh2rcd13ifvqgig","pricing_plan_id":"cebpf4jnsgd1na2vs0mg"},{"bike_id":"ef9d1303-b3a7-4f64-b1ea-62f7e508d231","system_id":"levelo_inurba_marseille","lat":43.28084,"lon":5.39659,"is_reserved":false,"is_disabled":false,"rental_uris":{"android":"levelo://app?vid=ef9d1303-b3a7-4f64-b1ea-62f7e508d231","ios":"levelo://app?vid=ef9d1303-b3a7-4f64-b1ea-62f7e508d231"},"vehicle_type_id":"4","last_reported":1729897793,"current_range_meters":28000,"station_id":"ce4bho12rcd13ifvqh2g","pricing_plan_id":"cebpf4jnsgd1na2vs0mg"},{"bike_id":"1d38aed8-5ab9-4104-b2a5-fe53b77398b8","system_id":"levelo_inurba_marseille","lat":43.302826,"lon":5.391266,"is_reserved":false,"is_disabled":false,"rental_uris":{"android":"levelo://app?vid=1d38aed8-5ab9-4104-b2a5-fe53b77398b8","ios":"levelo://app?vid=1d38aed8-5ab9-4104-b2a5-fe53b77398b8"},"vehicle_type_id":"4","last_reported":1729897793,"current_range_meters":17600,"station_id":"ce4bgkh2rcd13ifvqbk0","pricing_plan_id":"cebpf4jnsgd1na2vs0mg"},{"bike_id":"f50afdfb-c8b7-47d3-8499-3e6c5b7b9729","system_id":"levelo_inurba_marseille","lat":43.29864,"lon":5.39736,"is_reserved":false,"is_disabled":false,"rental_uris":{"android":"levelo://app?vid=f50afdfb-c8b7-47d3-8499-3e6c5b7b9729","ios":"levelo://app?vid=f50afdfb-c8b7-47d3-8499-3e6c5b7b9729"},"vehicle_type_id":"4","last_reported":1729897793,"current_range_meters":19200,"station_id":"ce4bh0h2rcd13ifvqd50","pricing_plan_id":"cebpf4jnsgd1na2vs0mg"},{"bike_id":"783a38b9-a972-475c-913e-3785a3b5ae70","system_id":"levelo_inurba_marseille","lat":43.28033,"lon":5.36951,"is_reserved":false,"is_disabled":false,"rental_uris":{"android":"levelo://app?vid=783a38b9-a972-475c-913e-3785a3b5ae70","ios":"levelo://app?vid=783a38b9-a972-475c-913e-3785a3b5ae70"},"vehicle_type_id":"4","last_reported":1729897793,"current_range_meters":38000,"station_id":"ce4bha12rcd13ifvqef0","pricing_plan_id":"cebpf4jnsgd1na2vs0mg"},{"bike_id":"6d97c9ce-6318-4bf4-bc58-f46fdd834007","system_id":"levelo_inurba_marseille","lat":43.32366,"lon":5.3888,"is_reserved":false,"is_disabled":false,"rental_uris":{"android":"levelo://app?vid=6d97c9ce-6318-4bf4-bc58-f46fdd834007","ios":"levelo://app?vid=6d97c9ce-6318-4bf4-bc58-f46fdd834007"},"vehicle_type_id":"4","last_reported":1729897793,"current_range_meters":28400,"station_id":"ce4bhqp2rcd13ifvqhog","pricing_plan_id":"cebpf4jnsgd1na2vs0mg"},{"bike_id":"30c958c5-d73d-413c-9dd8-95b27a6323c8","system_id":"levelo_inurba_marseille","lat":43.29414,"lon":5.38629,"is_reserved":false,"is_disabled":false,"rental_uris":{"android":"levelo://app?vid=30c958c5-d73d-413c-9dd8-95b27a6323c8","ios":"levelo://app?vid=30c958c5-d73d-413c-9dd8-95b27a6323c8"},"vehicle_type_id":"4","last_reported":1729897793,"current_range_meters":34000,"station_id":"ce4bh2h2rcd13ifvqdh0","pricing_plan_id":"cebpf4jnsgd1na2vs0mg"},{"bike_id":"128c07e2-bcfb-4edf-92d9-d3778e2f0875","system_id":"levelo_inurba_marseille","lat":43.2987,"lon":5.39741,"is_reserved":false,"is_disabled":false,"rental_uris":{"android":"levelo://app?vid=128c07e2-bcfb-4edf-92d9-d3778e2f0875","ios":"levelo://app?vid=128c07e2-bcfb-4edf-92d9-d3778e2f0875"},"vehicle_type_id":"4","last_reported":1729897793,"current_range_meters":9200,"station_id":"ce4bh0h2rcd13ifvqd50","pricing_plan_id":"cebpf4jnsgd1na2vs0mg"},{"bike_id":"c51ff988-e0ce-4051-81bd-b205835f4a62","system_id":"levelo_inurba_marseille","lat":43.28699,"lon":5.39981,"is_reserved":false,"is_disabled":false,"rental_uris":{"android":"levelo://app?vid=c51ff988-e0ce-4051-81bd-b205835f4a62","ios":"levelo://app?vid=c51ff988-e0ce-4051-81bd-b205835f4a62"},"vehicle_type_id":"4","last_reported":1729897793,"current_range_meters":30000,"station_id":"ce4bho92rcd13ifvqh3g","pricing_plan_id":"cebpf4jnsgd1na2vs0mg"},{"bike_id":"231aa8e8-a4df-4ff0-be4f-1cb2389df2af","system_id":"levelo_inurba_marseille","lat":43.29017,"lon":5.38627,"is_reserved":false,"is_disabled":false,"rental_uris":{"android":"levelo://app?vid=231aa8e8-a4df-4ff0-be4f-1cb2389df2af","ios":"levelo://app?vid=231aa8e8-a4df-4ff0-be4f-1cb2389df2af"},"vehicle_type_id":"4","last_reported":1729897793,"current_range_meters":38800,"station_id":"ce4bh4p2rcd13ifvqe0g","pricing_plan_id":"cebpf4jnsgd1na2vs0mg"},{"bike_id":"9dba7589-b9fd-4fa4-a085-6c653f324b29","system_id":"levelo_inurba_marseille","lat":43.31335,"lon":5.39699,"is_reserved":false,"is_disabled":false,"rental_uris":{"android":"levelo://app?vid=9dba7589-b9fd-4fa4-a085-6c653f324b29","ios":"levelo://app?vid=9dba7589-b9fd-4fa4-a085-6c653f324b29"},"vehicle_type_id":"4","last_reported":1729897793,"current_range_meters":13600,"station_id":"ce4bgvp2rcd13ifvqcu0","pricing_plan_id":"cebpf4jnsgd1na2vs0mg"},{"bike_id":"a5add820-9e4b-49c7-bd27-b9ddeb22681d","system_id":"levelo_inurba_marseille","lat":43.28273,"lon":5.3506,"is_reserved":false,"is_disabled":false,"rental_uris":{"android":"levelo://app?vid=a5add820-9e4b-49c7-bd27-b9ddeb22681d","ios":"levelo://app?vid=a5add820-9e4b-49c7-bd27-b9ddeb22681d"},"vehicle_type_id":"4","last_reported":1729897793,"current_range_meters":16800,"station_id":"ce4bhbp2rcd13ifvqerg","pricing_plan_id":"cebpf4jnsgd1na2vs0mg"},{"bike_id":"8ca7a166-4f38-4d33-9f7d-3613ed7e21aa","system_id":"levelo_inurba_marseille","lat":43.302826,"lon":5.400947,"is_reserved":false,"is_disabled":false,"rental_uris":{"android":"levelo://app?vid=8ca7a166-4f38-4d33-9f7d-3613ed7e21aa","ios":"levelo://app?vid=8ca7a166-4f38-4d33-9f7d-3613ed7e21aa"},"vehicle_type_id":"4","last_reported":1729897793,"current_range_meters":11600,"station_id":"ce4bhip2rcd13ifvqft0","pricing_plan_id":"cebpf4jnsgd1na2vs0mg"},{"bike_id":"e46cc6d2-800b-46ae-9361-0f88e7022a54","system_id":"levelo_inurba_marseille","lat":43.28669,"lon":5.36343,"is_reserved":false,"is_disabled":false,"rental_uris":{"android":"levelo://app?vid=e46cc6d2-800b-46ae-9361-0f88e7022a54","ios":"levelo://app?vid=e46cc6d2-800b-46ae-9361-0f88e7022a54"},"vehicle_type_id":"4","last_reported":1729897793,"current_range_meters":32800,"station_id":"ce4bhah2rcd13ifvqej0","pricing_plan_id":"cebpf4jnsgd1na2vs0mg"},{"bike_id":"3b2e3407-d523-40de-9f77-51385e2cb297","system_id":"levelo_inurba_marseille","lat":43.25002,"lon":5.38916,"is_reserved":false,"is_disabled":false,"rental_uris":{"android":"levelo://app?vid=3b2e3407-d523-40de-9f77-51385e2cb297","ios":"levelo://app?vid=3b2e3407-d523-40de-9f77-51385e2cb297"},"vehicle_type_id":"4","last_reported":1729897793,"current_range_meters":8000,"station_id":"ce4bhgp2rcd13ifvqfd0","pricing_plan_id":"cebpf4jnsgd1na2vs0mg"},{"bike_id":"ab585607-30c7-4fc1-af46-cb28449af514","system_id":"levelo_inurba_marseille","lat":43.28699,"lon":5.39985,"is_reserved":false,"is_disabled":false,"rental_uris":{"android":"levelo://app?vid=ab585607-30c7-4fc1-af46-cb28449af514","ios":"levelo://app?vid=ab585607-30c7-4fc1-af46-cb28449af514"},"vehicle_type_id":"4","last_reported":1729897793,"current_range_meters":32000,"station_id":"ce4bho92rcd13ifvqh3g","pricing_plan_id":"cebpf4jnsgd1na2vs0mg"},{"bike_id":"633bdd84-8a27-486c-8d5a-62bd9dd56f9f","system_id":"levelo_inurba_marseille","lat":43.26941,"lon":5.40251,"is_reserved":false,"is_disabled":false,"rental_uris":{"android":"levelo://app?vid=633bdd84-8a27-486c-8d5a-62bd9dd56f9f","ios":"levelo://app?vid=633bdd84-8a27-486c-8d5a-62bd9dd56f9f"},"vehicle_type_id":"4","last_reported":1729897793,"current_range_meters":30400,"station_id":"cjm6bp8fraef2m0cb0m0","pricing_plan_id":"cebpf4jnsgd1na2vs0mg"},{"bike_id":"034b0df2-1eed-443a-9b6a-1ec1fc138adc","system_id":"levelo_inurba_marseille","lat":43.28723,"lon":5.36083,"is_reserved":false,"is_disabled":false,"rental_uris":{"android":"levelo://app?vid=034b0df2-1eed-443a-9b6a-1ec1fc138adc","ios":"levelo://app?vid=034b0df2-1eed-443a-9b6a-1ec1fc138adc"},"vehicle_type_id":"4","last_reported":1729897793,"current_range_meters":36000,"station_id":"cki0cbj6b192h4jlfktg","pricing_plan_id":"cebpf4jnsgd1na2vs0mg"},{"bike_id":"451f8e35-dbd4-4645-8afb-a5f3f54384b4","system_id":"levelo_inurba_marseille","lat":43.29046,"lon":5.39952,"is_reserved":false,"is_disabled":false,"rental_uris":{"android":"levelo://app?vid=451f8e35-dbd4-4645-8afb-a5f3f54384b4","ios":"levelo://app?vid=451f8e35-dbd4-4645-8afb-a5f3f54384b4"},"vehicle_type_id":"4","last_reported":1729897793,"current_range_meters":33200,"station_id":"ce4bh392rcd13ifvqdm0","pricing_plan_id":"cebpf4jnsgd1na2vs0mg"},{"bike_id":"090d6208-0a1b-4739-846f-ee75a9ed97d4","system_id":"levelo_inurba_marseille","lat":43.27836,"lon":5.39204,"is_reserved":false,"is_disabled":false,"rental_uris":{"android":"levelo://app?vid=090d6208-0a1b-4739-846f-ee75a9ed97d4","ios":"levelo://app?vid=090d6208-0a1b-4739-846f-ee75a9ed97d4"},"vehicle_type_id":"4","last_reported":1729897793,"current_range_meters":28400,"station_id":"ce4bhjp2rcd13ifvqga0","pricing_plan_id":"cebpf4jnsgd1na2vs0mg"},{"bike_id":"d44187ab-306f-4bed-b6aa-0d68527ab8c2","system_id":"levelo_inurba_marseille","lat":43.28414,"lon":5.35001,"is_reserved":false,"is_disabled":false,"rental_uris":{"android":"levelo://app?vid=d44187ab-306f-4bed-b6aa-0d68527ab8c2","ios":"levelo://app?vid=d44187ab-306f-4bed-b6aa-0d68527ab8c2"},"vehicle_type_id":"4","last_reported":1729897793,"current_range_meters":8400,"station_id":"ce4bhbh2rcd13ifvqepg","pricing_plan_id":"cebpf4jnsgd1na2vs0mg"},{"bike_id":"2acf30df-8280-459a-9517-b601c87d8e29","system_id":"levelo_inurba_marseille","lat":43.2649,"lon":5.39546,"is_reserved":false,"is_disabled":false,"rental_uris":{"android":"levelo://app?vid=2acf30df-8280-459a-9517-b601c87d8e29","ios":"levelo://app?vid=2acf30df-8280-459a-9517-b601c87d8e29"},"vehicle_type_id":"4","last_reported":1729897793,"current_range_meters":32800,"station_id":"ce4bhi12rcd13ifvqfq0","pricing_plan_id":"cebpf4jnsgd1na2vs0mg"},{"bike_id":"c8f33dbe-8d46-4679-b0bd-686b38e43e1d","system_id":"levelo_inurba_marseille","lat":43.24545,"lon":5.39523,"is_reserved":false,"is_disabled":false,"rental_uris":{"android":"levelo://app?vid=c8f33dbe-8d46-4679-b0bd-686b38e43e1d","ios":"levelo://app?vid=c8f33dbe-8d46-4679-b0bd-686b38e43e1d"},"vehicle_type_id":"4","last_reported":1729897793,"current_range_meters":37600,"station_id":"ce4bhlp2rcd13ifvqgjg","pricing_plan_id":"cebpf4jnsgd1na2vs0mg"},{"bike_id":"be85cbfc-55ff-46d3-bc5a-9eb864ef58d1","system_id":"levelo_inurba_marseille","lat":43.28567,"lon":5.39497,"is_reserved":false,"is_disabled":false,"rental_uris":{"android":"levelo://app?vid=be85cbfc-55ff-46d3-bc5a-9eb864ef58d1","ios":"levelo://app?vid=be85cbfc-55ff-46d3-bc5a-9eb864ef58d1"},"vehicle_type_id":"4","last_reported":1729897793,"current_range_meters":40000,"station_id":"ce4bh292rcd13ifvqdg0","pricing_plan_id":"cebpf4jnsgd1na2vs0mg"},{"bike_id":"0bab06ec-8c32-4868-9c09-532eb4277a15","system_id":"levelo_inurba_marseille","lat":43.2867,"lon":5.36335,"is_reserved":false,"is_disabled":false,"rental_uris":{"android":"levelo://app?vid=0bab06ec-8c32-4868-9c09-532eb4277a15","ios":"levelo://app?vid=0bab06ec-8c32-4868-9c09-532eb4277a15"},"vehicle_type_id":"4","last_reported":1729897793,"current_range_meters":24000,"station_id":"ce4bhah2rcd13ifvqej0","pricing_plan_id":"cebpf4jnsgd1na2vs0mg"},{"bike_id":"45824d76-330a-4917-813d-b7e673501ccc","system_id":"levelo_inurba_marseille","lat":43.30246,"lon":5.40077,"is_reserved":false,"is_disabled":false,"rental_uris":{"android":"levelo://app?vid=45824d76-330a-4917-813d-b7e673501ccc","ios":"levelo://app?vid=45824d76-330a-4917-813d-b7e673501ccc"},"vehicle_type_id":"4","last_reported":1729897793,"current_range_meters":11200,"station_id":"ce4bgvh2rcd13ifvqcs0","pricing_plan_id":"cebpf4jnsgd1na2vs0mg"},{"bike_id":"7403c571-2d2b-4cdd-81dd-d9c90450ceaa","system_id":"levelo_inurba_marseille","lat":43.28001,"lon":5.4001,"is_reserved":false,"is_disabled":false,"rental_uris":{"android":"levelo://app?vid=7403c571-2d2b-4cdd-81dd-d9c90450ceaa","ios":"levelo://app?vid=7403c571-2d2b-4cdd-81dd-d9c90450ceaa"},"vehicle_type_id":"4","last_reported":1729897793,"current_range_meters":18000,"station_id":"ce4bho92rcd13ifvqh4g","pricing_plan_id":"cebpf4jnsgd1na2vs0mg"},{"bike_id":"39df7709-191d-43fc-a536-f583de4e7e33","system_id":"levelo_inurba_marseille","lat":43.29886,"lon":5.38903,"is_reserved":false,"is_disabled":false,"rental_uris":{"android":"levelo://app?vid=39df7709-191d-43fc-a536-f583de4e7e33","ios":"levelo://app?vid=39df7709-191d-43fc-a536-f583de4e7e33"},"vehicle_type_id":"4","last_reported":1729897793,"current_range_meters":21600,"station_id":"ce4bh392rcd13ifvqdl0","pricing_plan_id":"cebpf4jnsgd1na2vs0mg"},{"bike_id":"c249a5dd-eda9-40bc-aacc-98f7adb7918f","system_id":"levelo_inurba_marseille","lat":43.294146,"lon":5.386196,"is_reserved":false,"is_disabled":false,"rental_uris":{"android":"levelo://app?vid=c249a5dd-eda9-40bc-aacc-98f7adb7918f","ios":"levelo://app?vid=c249a5dd-eda9-40bc-aacc-98f7adb7918f"},"vehicle_type_id":"4","last_reported":1729897793,"current_range_meters":12400,"station_id":"ce4bh0p2rcd13ifvqd80","pricing_plan_id":"cebpf4jnsgd1na2vs0mg"},{"bike_id":"5429595d-07d2-4cba-a2ba-50d88307a6c0","system_id":"levelo_inurba_marseille","lat":43.28703,"lon":5.374,"is_reserved":false,"is_disabled":false,"rental_uris":{"android":"levelo://app?vid=5429595d-07d2-4cba-a2ba-50d88307a6c0","ios":"levelo://app?vid=5429595d-07d2-4cba-a2ba-50d88307a6c0"},"vehicle_type_id":"4","last_reported":1729897793,"current_range_meters":36400,"station_id":"ce4bh3p2rcd13ifvqdq0","pricing_plan_id":"cebpf4jnsgd1na2vs0mg"},{"bike_id":"faa198e3-1685-444f-a744-5a783158aeff","system_id":"levelo_inurba_marseille","lat":43.323322,"lon":5.406199,"is_reserved":false,"is_disabled":false,"rental_uris":{"android":"levelo://app?vid=faa198e3-1685-444f-a744-5a783158aeff","ios":"levelo://app?vid=faa198e3-1685-444f-a744-5a783158aeff"},"vehicle_type_id":"4","last_reported":1729897793,"current_range_meters":38800,"station_id":"ce4bhq92rcd13ifvqhjg","pricing_plan_id":"cebpf4jnsgd1na2vs0mg"},{"bike_id":"1d909808-c30f-413b-996b-b890f44a4e71","system_id":"levelo_inurba_marseille","lat":43.29423,"lon":5.38599,"is_reserved":false,"is_disabled":false,"rental_uris":{"android":"levelo://app?vid=1d909808-c30f-413b-996b-b890f44a4e71","ios":"levelo://app?vid=1d909808-c30f-413b-996b-b890f44a4e71"},"vehicle_type_id":"4","last_reported":1729897793,"current_range_meters":38800,"station_id":"ce4bh2h2rcd13ifvqdh0","pricing_plan_id":"cebpf4jnsgd1na2vs0mg"},{"bike_id":"fa83ecf3-a6ef-4106-9cdb-5ab89addbba4","system_id":"levelo_inurba_marseille","lat":43.26941,"lon":5.40254,"is_reserved":false,"is_disabled":false,"rental_uris":{"android":"levelo://app?vid=fa83ecf3-a6ef-4106-9cdb-5ab89addbba4","ios":"levelo://app?vid=fa83ecf3-a6ef-4106-9cdb-5ab89addbba4"},"vehicle_type_id":"4","last_reported":1729897793,"current_range_meters":33200,"station_id":"cjm6bp8fraef2m0cb0m0","pricing_plan_id":"cebpf4jnsgd1na2vs0mg"},{"bike_id":"5378be0b-d09d-4e45-9176-ecdfd95681a1","system_id":"levelo_inurba_marseille","lat":43.27813,"lon":5.40713,"is_reserved":false,"is_disabled":false,"rental_uris":{"android":"levelo://app?vid=5378be0b-d09d-4e45-9176-ecdfd95681a1","ios":"levelo://app?vid=5378be0b-d09d-4e45-9176-ecdfd95681a1"},"vehicle_type_id":"4","last_reported":1729897793,"current_range_meters":38400,"station_id":"ce4bhnh2rcd13ifvqgtg","pricing_plan_id":"cebpf4jnsgd1na2vs0mg"},{"bike_id":"b24e0fd3-2a5f-4760-8d2c-03b817af8d22","system_id":"levelo_inurba_marseille","lat":43.32334,"lon":5.406176,"is_reserved":false,"is_disabled":false,"rental_uris":{"android":"levelo://app?vid=b24e0fd3-2a5f-4760-8d2c-03b817af8d22","ios":"levelo://app?vid=b24e0fd3-2a5f-4760-8d2c-03b817af8d22"},"vehicle_type_id":"4","last_reported":1729897793,"current_range_meters":26800,"station_id":"ce4bhq92rcd13ifvqhjg","pricing_plan_id":"cebpf4jnsgd1na2vs0mg"},{"bike_id":"c3aa7bb4-1be5-4d6d-ab93-efb450cee9de","system_id":"levelo_inurba_marseille","lat":43.27555,"lon":5.3842,"is_reserved":false,"is_disabled":false,"rental_uris":{"android":"levelo://app?vid=c3aa7bb4-1be5-4d6d-ab93-efb450cee9de","ios":"levelo://app?vid=c3aa7bb4-1be5-4d6d-ab93-efb450cee9de"},"vehicle_type_id":"4","last_reported":1729897793,"current_range_meters":30400,"station_id":"ce4bhh92rcd13ifvqfi0","pricing_plan_id":"cebpf4jnsgd1na2vs0mg"},{"bike_id":"0cf46879-3acc-4291-8a82-dadc2dbf9fcd","system_id":"levelo_inurba_marseille","lat":43.29415,"lon":5.3861,"is_reserved":false,"is_disabled":false,"rental_uris":{"android":"levelo://app?vid=0cf46879-3acc-4291-8a82-dadc2dbf9fcd","ios":"levelo://app?vid=0cf46879-3acc-4291-8a82-dadc2dbf9fcd"},"vehicle_type_id":"4","last_reported":1729897793,"current_range_meters":6000,"station_id":"ce4bh2h2rcd13ifvqdh0","pricing_plan_id":"cebpf4jnsgd1na2vs0mg"},{"bike_id":"e7360508-6978-487a-a79b-5e2dad5d0ea3","system_id":"levelo_inurba_marseille","lat":43.22931,"lon":5.35378,"is_reserved":false,"is_disabled":false,"rental_uris":{"android":"levelo://app?vid=e7360508-6978-487a-a79b-5e2dad5d0ea3","ios":"levelo://app?vid=e7360508-6978-487a-a79b-5e2dad5d0ea3"},"vehicle_type_id":"4","last_reported":1729897793,"current_range_meters":34000,"station_id":"cpo3532slgdg3j2ikp40","pricing_plan_id":"cebpf4jnsgd1na2vs0mg"},{"bike_id":"37ea9e9a-f668-4b40-912e-d00f32fd733b","system_id":"levelo_inurba_marseille","lat":43.2901,"lon":5.378768,"is_reserved":false,"is_disabled":false,"rental_uris":{"android":"levelo://app?vid=37ea9e9a-f668-4b40-912e-d00f32fd733b","ios":"levelo://app?vid=37ea9e9a-f668-4b40-912e-d00f32fd733b"},"vehicle_type_id":"4","last_reported":1729897793,"current_range_meters":38000,"station_id":"ce4bh9p2rcd13ifvqed0","pricing_plan_id":"cebpf4jnsgd1na2vs0mg"},{"bike_id":"b64f8909-8ab8-4404-9adb-74acb88a1516","system_id":"levelo_inurba_marseille","lat":43.29103,"lon":5.38566,"is_reserved":false,"is_disabled":false,"rental_uris":{"android":"levelo://app?vid=b64f8909-8ab8-4404-9adb-74acb88a1516","ios":"levelo://app?vid=b64f8909-8ab8-4404-9adb-74acb88a1516"},"vehicle_type_id":"4","last_reported":1729897793,"current_range_meters":22000,"station_id":"ce4bh4p2rcd13ifvqe0g","pricing_plan_id":"cebpf4jnsgd1na2vs0mg"},{"bike_id":"dfc22c95-97a7-4f16-b272-ec1032f6e482","system_id":"levelo_inurba_marseille","lat":43.28348,"lon":5.38112,"is_reserved":false,"is_disabled":false,"rental_uris":{"android":"levelo://app?vid=dfc22c95-97a7-4f16-b272-ec1032f6e482","ios":"levelo://app?vid=dfc22c95-97a7-4f16-b272-ec1032f6e482"},"vehicle_type_id":"4","last_reported":1729897793,"current_range_meters":32800,"station_id":"ce4bh412rcd13ifvqdr0","pricing_plan_id":"cebpf4jnsgd1na2vs0mg"},{"bike_id":"2cb36846-284c-4701-a1af-4ec8f0e11ab5","system_id":"levelo_inurba_marseille","lat":43.29025,"lon":5.38651,"is_reserved":false,"is_disabled":false,"rental_uris":{"android":"levelo://app?vid=2cb36846-284c-4701-a1af-4ec8f0e11ab5","ios":"levelo://app?vid=2cb36846-284c-4701-a1af-4ec8f0e11ab5"},"vehicle_type_id":"4","last_reported":1729897793,"current_range_meters":36800,"station_id":"ce4bh4p2rcd13ifvqe0g","pricing_plan_id":"cebpf4jnsgd1na2vs0mg"},{"bike_id":"34c0b19e-e327-425b-bf09-25bec92dd9c4","system_id":"levelo_inurba_marseille","lat":43.29333,"lon":5.45464,"is_reserved":false,"is_disabled":false,"rental_uris":{"android":"levelo://app?vid=34c0b19e-e327-425b-bf09-25bec92dd9c4","ios":"levelo://app?vid=34c0b19e-e327-425b-bf09-25bec92dd9c4"},"vehicle_type_id":"4","last_reported":1729897793,"current_range_meters":24400,"station_id":"","pricing_plan_id":"cebpf4jnsgd1na2vs0mg"},{"bike_id":"e835d4c8-7653-415c-9c95-ebedbb4d78f7","system_id":"levelo_inurba_marseille","lat":43.22936,"lon":5.35376,"is_reserved":false,"is_disabled":false,"rental_uris":{"android":"levelo://app?vid=e835d4c8-7653-415c-9c95-ebedbb4d78f7","ios":"levelo://app?vid=e835d4c8-7653-415c-9c95-ebedbb4d78f7"},"vehicle_type_id":"4","last_reported":1729897793,"current_range_meters":17200,"station_id":"cpo3532slgdg3j2ikp40","pricing_plan_id":"cebpf4jnsgd1na2vs0mg"},{"bike_id":"c0886989-68ca-4314-a24c-ba2d2e7427b0","system_id":"levelo_inurba_marseille","lat":43.31534,"lon":5.38024,"is_reserved":false,"is_disabled":false,"rental_uris":{"android":"levelo://app?vid=c0886989-68ca-4314-a24c-ba2d2e7427b0","ios":"levelo://app?vid=c0886989-68ca-4314-a24c-ba2d2e7427b0"},"vehicle_type_id":"4","last_reported":1729897793,"current_range_meters":2800,"station_id":"ce4bhsp2rcd13ifvqi50","pricing_plan_id":"cebpf4jnsgd1na2vs0mg"},{"bike_id":"19a1c86e-ef78-450f-ab0c-fd1b680905e3","system_id":"levelo_inurba_marseille","lat":43.29542,"lon":5.38533,"is_reserved":false,"is_disabled":false,"rental_uris":{"android":"levelo://app?vid=19a1c86e-ef78-450f-ab0c-fd1b680905e3","ios":"levelo://app?vid=19a1c86e-ef78-450f-ab0c-fd1b680905e3"},"vehicle_type_id":"4","last_reported":1729897793,"current_range_meters":28000,"station_id":"ce4bgih2rcd13ifvqba0","pricing_plan_id":"cebpf4jnsgd1na2vs0mg"},{"bike_id":"5063f4af-2df5-4a8d-971c-2e45b710db02","system_id":"levelo_inurba_marseille","lat":43.25581,"lon":5.38227,"is_reserved":false,"is_disabled":false,"rental_uris":{"android":"levelo://app?vid=5063f4af-2df5-4a8d-971c-2e45b710db02","ios":"levelo://app?vid=5063f4af-2df5-4a8d-971c-2e45b710db02"},"vehicle_type_id":"4","last_reported":1729897793,"current_range_meters":28800,"station_id":"ce4bhih2rcd13ifvqfs0","pricing_plan_id":"cebpf4jnsgd1na2vs0mg"},{"bike_id":"e16ba0fb-c8f9-4074-a1c8-ad626ad5602f","system_id":"levelo_inurba_marseille","lat":43.2694,"lon":5.40248,"is_reserved":false,"is_disabled":false,"rental_uris":{"android":"levelo://app?vid=e16ba0fb-c8f9-4074-a1c8-ad626ad5602f","ios":"levelo://app?vid=e16ba0fb-c8f9-4074-a1c8-ad626ad5602f"},"vehicle_type_id":"4","last_reported":1729897793,"current_range_meters":28800,"station_id":"cjm6bp8fraef2m0cb0m0","pricing_plan_id":"cebpf4jnsgd1na2vs0mg"},{"bike_id":"97cf0cb1-4906-4867-b158-7a88c71b3122","system_id":"levelo_inurba_marseille","lat":43.29801,"lon":5.38092,"is_reserved":false,"is_disabled":false,"rental_uris":{"android":"levelo://app?vid=97cf0cb1-4906-4867-b158-7a88c71b3122","ios":"levelo://app?vid=97cf0cb1-4906-4867-b158-7a88c71b3122"},"vehicle_type_id":"4","last_reported":1729897793,"current_range_meters":4400,"station_id":"ce4bgip2rcd13ifvqbb0","pricing_plan_id":"cebpf4jnsgd1na2vs0mg"},{"bike_id":"d442d14a-9d56-4dc0-bb62-0822a5b2b897","system_id":"levelo_inurba_marseille","lat":43.28572,"lon":5.3949,"is_reserved":false,"is_disabled":false,"rental_uris":{"android":"levelo://app?vid=d442d14a-9d56-4dc0-bb62-0822a5b2b897","ios":"levelo://app?vid=d442d14a-9d56-4dc0-bb62-0822a5b2b897"},"vehicle_type_id":"4","last_reported":1729897793,"current_range_meters":32800,"station_id":"ce4bh292rcd13ifvqdg0","pricing_plan_id":"cebpf4jnsgd1na2vs0mg"},{"bike_id":"1fd4c7b6-17d7-44d4-b4ef-ad0d587e9d81","system_id":"levelo_inurba_marseille","lat":43.30887,"lon":5.37201,"is_reserved":false,"is_disabled":false,"rental_uris":{"android":"levelo://app?vid=1fd4c7b6-17d7-44d4-b4ef-ad0d587e9d81","ios":"levelo://app?vid=1fd4c7b6-17d7-44d4-b4ef-ad0d587e9d81"},"vehicle_type_id":"4","last_reported":1729897793,"current_range_meters":35200,"station_id":"ce4bguh2rcd13ifvqckg","pricing_plan_id":"cebpf4jnsgd1na2vs0mg"},{"bike_id":"88f0b2cc-53b3-42b9-84d9-bfcb4174f6d9","system_id":"levelo_inurba_marseille","lat":43.2872,"lon":5.36087,"is_reserved":false,"is_disabled":false,"rental_uris":{"android":"levelo://app?vid=88f0b2cc-53b3-42b9-84d9-bfcb4174f6d9","ios":"levelo://app?vid=88f0b2cc-53b3-42b9-84d9-bfcb4174f6d9"},"vehicle_type_id":"4","last_reported":1729897793,"current_range_meters":35600,"station_id":"cki0cbj6b192h4jlfktg","pricing_plan_id":"cebpf4jnsgd1na2vs0mg"},{"bike_id":"50257f77-4112-46e7-96a7-9117a22623c5","system_id":"levelo_inurba_marseille","lat":43.29292,"lon":5.40126,"is_reserved":false,"is_disabled":false,"rental_uris":{"android":"levelo://app?vid=50257f77-4112-46e7-96a7-9117a22623c5","ios":"levelo://app?vid=50257f77-4112-46e7-96a7-9117a22623c5"},"vehicle_type_id":"4","last_reported":1729897793,"current_range_meters":12400,"station_id":"ce4bh312rcd13ifvqdk0","pricing_plan_id":"cebpf4jnsgd1na2vs0mg"},{"bike_id":"ec460466-73dd-49ac-a641-a480e1847cfe","system_id":"levelo_inurba_marseille","lat":43.25817,"lon":5.39428,"is_reserved":false,"is_disabled":false,"rental_uris":{"android":"levelo://app?vid=ec460466-73dd-49ac-a641-a480e1847cfe","ios":"levelo://app?vid=ec460466-73dd-49ac-a641-a480e1847cfe"},"vehicle_type_id":"4","last_reported":1729897793,"current_range_meters":38800,"station_id":"ce4bhip2rcd13ifvqft0","pricing_plan_id":"cebpf4jnsgd1na2vs0mg"},{"bike_id":"f6ab2a9d-22dd-4f39-a862-023e0bda893c","system_id":"levelo_inurba_marseille","lat":43.29957,"lon":5.41314,"is_reserved":false,"is_disabled":false,"rental_uris":{"android":"levelo://app?vid=f6ab2a9d-22dd-4f39-a862-023e0bda893c","ios":"levelo://app?vid=f6ab2a9d-22dd-4f39-a862-023e0bda893c"},"vehicle_type_id":"4","last_reported":1729897793,"current_range_meters":26800,"station_id":"ce4bhp12rcd13ifvqh9g","pricing_plan_id":"cebpf4jnsgd1na2vs0mg"},{"bike_id":"81a79566-0322-46ac-900d-8d127f21c4ba","system_id":"levelo_inurba_marseille","lat":43.31758,"lon":5.39018,"is_reserved":false,"is_disabled":false,"rental_uris":{"android":"levelo://app?vid=81a79566-0322-46ac-900d-8d127f21c4ba","ios":"levelo://app?vid=81a79566-0322-46ac-900d-8d127f21c4ba"},"vehicle_type_id":"4","last_reported":1729897793,"current_range_meters":38800,"station_id":"ce4bhqp2rcd13ifvqhng","pricing_plan_id":"cebpf4jnsgd1na2vs0mg"},{"bike_id":"422509bb-657f-4af3-a452-01661c937b71","system_id":"levelo_inurba_marseille","lat":43.28439,"lon":5.39179,"is_reserved":false,"is_disabled":false,"rental_uris":{"android":"levelo://app?vid=422509bb-657f-4af3-a452-01661c937b71","ios":"levelo://app?vid=422509bb-657f-4af3-a452-01661c937b71"},"vehicle_type_id":"4","last_reported":1729897793,"current_range_meters":14400,"station_id":"ce4bhoh2rcd13ifvqh5g","pricing_plan_id":"cebpf4jnsgd1na2vs0mg"},{"bike_id":"3a9bfb16-0c1d-4441-a397-be908d793bb9","system_id":"levelo_inurba_marseille","lat":43.25491,"lon":5.37648,"is_reserved":false,"is_disabled":false,"rental_uris":{"android":"levelo://app?vid=3a9bfb16-0c1d-4441-a397-be908d793bb9","ios":"levelo://app?vid=3a9bfb16-0c1d-4441-a397-be908d793bb9"},"vehicle_type_id":"4","last_reported":1729897793,"current_range_meters":37600,"station_id":"ce4bhh12rcd13ifvqff0","pricing_plan_id":"cebpf4jnsgd1na2vs0mg"},{"bike_id":"6c990c37-116e-41cb-a5de-cb44083ded54","system_id":"levelo_inurba_marseille","lat":43.28078,"lon":5.39648,"is_reserved":false,"is_disabled":false,"rental_uris":{"android":"levelo://app?vid=6c990c37-116e-41cb-a5de-cb44083ded54","ios":"levelo://app?vid=6c990c37-116e-41cb-a5de-cb44083ded54"},"vehicle_type_id":"4","last_reported":1729897793,"current_range_meters":37600,"station_id":"ce4bho12rcd13ifvqh2g","pricing_plan_id":"cebpf4jnsgd1na2vs0mg"},{"bike_id":"7477d48d-ca51-4712-96a0-851a7d6a2338","system_id":"levelo_inurba_marseille","lat":43.28042,"lon":5.36944,"is_reserved":false,"is_disabled":false,"rental_uris":{"android":"levelo://app?vid=7477d48d-ca51-4712-96a0-851a7d6a2338","ios":"levelo://app?vid=7477d48d-ca51-4712-96a0-851a7d6a2338"},"vehicle_type_id":"4","last_reported":1729897793,"current_range_meters":39200,"station_id":"ce4bha12rcd13ifvqef0","pricing_plan_id":"cebpf4jnsgd1na2vs0mg"},{"bike_id":"5a2d60ec-7a22-4bee-9354-dac06b2e08b0","system_id":"levelo_inurba_marseille","lat":43.30539,"lon":5.38425,"is_reserved":false,"is_disabled":false,"rental_uris":{"android":"levelo://app?vid=5a2d60ec-7a22-4bee-9354-dac06b2e08b0","ios":"levelo://app?vid=5a2d60ec-7a22-4bee-9354-dac06b2e08b0"},"vehicle_type_id":"4","last_reported":1729897793,"current_range_meters":25600,"station_id":"ce4bgg92rcd13ifvqb30","pricing_plan_id":"cebpf4jnsgd1na2vs0mg"},{"bike_id":"afb6496d-524d-4e4c-a835-a9db0d103750","system_id":"levelo_inurba_marseille","lat":43.336,"lon":5.41037,"is_reserved":false,"is_disabled":false,"rental_uris":{"android":"levelo://app?vid=afb6496d-524d-4e4c-a835-a9db0d103750","ios":"levelo://app?vid=afb6496d-524d-4e4c-a835-a9db0d103750"},"vehicle_type_id":"4","last_reported":1729897793,"current_range_meters":30000,"station_id":"ce4bhqh2rcd13ifvqhmg","pricing_plan_id":"cebpf4jnsgd1na2vs0mg"},{"bike_id":"aa396cde-d0da-410d-9cdf-1538d4b7e19d","system_id":"levelo_inurba_marseille","lat":43.32582,"lon":5.3787,"is_reserved":false,"is_disabled":false,"rental_uris":{"android":"levelo://app?vid=aa396cde-d0da-410d-9cdf-1538d4b7e19d","ios":"levelo://app?vid=aa396cde-d0da-410d-9cdf-1538d4b7e19d"},"vehicle_type_id":"4","last_reported":1729897793,"current_range_meters":12400,"station_id":"","pricing_plan_id":"cebpf4jnsgd1na2vs0mg"},{"bike_id":"c1004d9b-de93-444f-98bc-8f3c568d3154","system_id":"levelo_inurba_marseille","lat":43.2942,"lon":5.38622,"is_reserved":false,"is_disabled":false,"rental_uris":{"android":"levelo://app?vid=c1004d9b-de93-444f-98bc-8f3c568d3154","ios":"levelo://app?vid=c1004d9b-de93-444f-98bc-8f3c568d3154"},"vehicle_type_id":"4","last_reported":1729897793,"current_range_meters":38000,"station_id":"ce4bhap2rcd13ifvqek0","pricing_plan_id":"cebpf4jnsgd1na2vs0mg"},{"bike_id":"073949a6-760d-41ad-99cd-aeba5d3f39da","system_id":"levelo_inurba_marseille","lat":43.25924,"lon":5.40904,"is_reserved":false,"is_disabled":false,"rental_uris":{"android":"levelo://app?vid=073949a6-760d-41ad-99cd-aeba5d3f39da","ios":"levelo://app?vid=073949a6-760d-41ad-99cd-aeba5d3f39da"},"vehicle_type_id":"4","last_reported":1729897793,"current_range_meters":37600,"station_id":"ce4bhm92rcd13ifvqglg","pricing_plan_id":"cebpf4jnsgd1na2vs0mg"},{"bike_id":"e9305f8e-5e80-4442-a998-75172541de94","system_id":"levelo_inurba_marseille","lat":43.31369,"lon":5.38485,"is_reserved":false,"is_disabled":false,"rental_uris":{"android":"levelo://app?vid=e9305f8e-5e80-4442-a998-75172541de94","ios":"levelo://app?vid=e9305f8e-5e80-4442-a998-75172541de94"},"vehicle_type_id":"4","last_reported":1729897793,"current_range_meters":38800,"station_id":"ce4bgt92rcd13ifvqcf0","pricing_plan_id":"cebpf4jnsgd1na2vs0mg"},{"bike_id":"800bd0f2-3335-4cde-af7d-7d5749caabd1","system_id":"levelo_inurba_marseille","lat":43.25501,"lon":5.37651,"is_reserved":false,"is_disabled":false,"rental_uris":{"android":"levelo://app?vid=800bd0f2-3335-4cde-af7d-7d5749caabd1","ios":"levelo://app?vid=800bd0f2-3335-4cde-af7d-7d5749caabd1"},"vehicle_type_id":"4","last_reported":1729897793,"current_range_meters":4800,"station_id":"ce4bhh12rcd13ifvqff0","pricing_plan_id":"cebpf4jnsgd1na2vs0mg"},{"bike_id":"f4ba9dbc-14f3-4844-b85e-617e7103d370","system_id":"levelo_inurba_marseille","lat":43.29534,"lon":5.38549,"is_reserved":false,"is_disabled":false,"rental_uris":{"android":"levelo://app?vid=f4ba9dbc-14f3-4844-b85e-617e7103d370","ios":"levelo://app?vid=f4ba9dbc-14f3-4844-b85e-617e7103d370"},"vehicle_type_id":"4","last_reported":1729897793,"current_range_meters":14800,"station_id":"ce4bgih2rcd13ifvqba0","pricing_plan_id":"cebpf4jnsgd1na2vs0mg"},{"bike_id":"2b75fb34-9b9e-445c-b7a1-8df407992b64","system_id":"levelo_inurba_marseille","lat":43.28724,"lon":5.36087,"is_reserved":false,"is_disabled":false,"rental_uris":{"android":"levelo://app?vid=2b75fb34-9b9e-445c-b7a1-8df407992b64","ios":"levelo://app?vid=2b75fb34-9b9e-445c-b7a1-8df407992b64"},"vehicle_type_id":"4","last_reported":1729897793,"current_range_meters":38800,"station_id":"cki0cbj6b192h4jlfktg","pricing_plan_id":"cebpf4jnsgd1na2vs0mg"},{"bike_id":"f73eb936-9c2a-478f-b577-3db04ff09a3e","system_id":"levelo_inurba_marseille","lat":43.29248,"lon":5.40909,"is_reserved":false,"is_disabled":false,"rental_uris":{"android":"levelo://app?vid=f73eb936-9c2a-478f-b577-3db04ff09a3e","ios":"levelo://app?vid=f73eb936-9c2a-478f-b577-3db04ff09a3e"},"vehicle_type_id":"4","last_reported":1729897793,"current_range_meters":31200,"station_id":"ce4bh192rcd13ifvqdc0","pricing_plan_id":"cebpf4jnsgd1na2vs0mg"},{"bike_id":"3042a041-46d5-45d8-94a8-886dccfcccfe","system_id":"levelo_inurba_marseille","lat":43.2942,"lon":5.38603,"is_reserved":false,"is_disabled":false,"rental_uris":{"android":"levelo://app?vid=3042a041-46d5-45d8-94a8-886dccfcccfe","ios":"levelo://app?vid=3042a041-46d5-45d8-94a8-886dccfcccfe"},"vehicle_type_id":"4","last_reported":1729897793,"current_range_meters":22000,"station_id":"ce4bh2h2rcd13ifvqdh0","pricing_plan_id":"cebpf4jnsgd1na2vs0mg"},{"bike_id":"0746b5ef-d14c-48d4-b50d-3a9822f0004c","system_id":"levelo_inurba_marseille","lat":43.22933,"lon":5.35376,"is_reserved":false,"is_disabled":false,"rental_uris":{"android":"levelo://app?vid=0746b5ef-d14c-48d4-b50d-3a9822f0004c","ios":"levelo://app?vid=0746b5ef-d14c-48d4-b50d-3a9822f0004c"},"vehicle_type_id":"4","last_reported":1729897793,"current_range_meters":38400,"station_id":"cpo3532slgdg3j2ikp40","pricing_plan_id":"cebpf4jnsgd1na2vs0mg"},{"bike_id":"914d2947-3b26-4608-bb0d-9b1e8fb3aa40","system_id":"levelo_inurba_marseille","lat":43.28155,"lon":5.4265,"is_reserved":false,"is_disabled":false,"rental_uris":{"android":"levelo://app?vid=914d2947-3b26-4608-bb0d-9b1e8fb3aa40","ios":"levelo://app?vid=914d2947-3b26-4608-bb0d-9b1e8fb3aa40"},"vehicle_type_id":"4","last_reported":1729897793,"current_range_meters":27600,"station_id":"ce4bhnh2rcd13ifvqgug","pricing_plan_id":"cebpf4jnsgd1na2vs0mg"},{"bike_id":"fcc3a32b-6373-425b-be0a-b1a445ac3c61","system_id":"levelo_inurba_marseille","lat":43.30487,"lon":5.40171,"is_reserved":false,"is_disabled":false,"rental_uris":{"android":"levelo://app?vid=fcc3a32b-6373-425b-be0a-b1a445ac3c61","ios":"levelo://app?vid=fcc3a32b-6373-425b-be0a-b1a445ac3c61"},"vehicle_type_id":"4","last_reported":1729897793,"current_range_meters":6400,"station_id":"ce4bgh92rcd13ifvqb50","pricing_plan_id":"cebpf4jnsgd1na2vs0mg"},{"bike_id":"6a512a72-7ab1-4a6c-ad4f-96715c1d3ba0","system_id":"levelo_inurba_marseille","lat":43.23189,"lon":5.3998,"is_reserved":false,"is_disabled":false,"rental_uris":{"android":"levelo://app?vid=6a512a72-7ab1-4a6c-ad4f-96715c1d3ba0","ios":"levelo://app?vid=6a512a72-7ab1-4a6c-ad4f-96715c1d3ba0"},"vehicle_type_id":"4","last_reported":1729897793,"current_range_meters":29600,"station_id":"ce4bhn12rcd13ifvqgqg","pricing_plan_id":"cebpf4jnsgd1na2vs0mg"},{"bike_id":"390643ba-64c4-4db5-ac2a-2b26eb43c28f","system_id":"levelo_inurba_marseille","lat":43.28035,"lon":5.36938,"is_reserved":false,"is_disabled":false,"rental_uris":{"android":"levelo://app?vid=390643ba-64c4-4db5-ac2a-2b26eb43c28f","ios":"levelo://app?vid=390643ba-64c4-4db5-ac2a-2b26eb43c28f"},"vehicle_type_id":"4","last_reported":1729897793,"current_range_meters":16000,"station_id":"ce4bha12rcd13ifvqef0","pricing_plan_id":"cebpf4jnsgd1na2vs0mg"},{"bike_id":"ef136fa5-257b-4ee5-bd73-f0de7405e6ba","system_id":"levelo_inurba_marseille","lat":43.24542,"lon":5.3952,"is_reserved":false,"is_disabled":false,"rental_uris":{"android":"levelo://app?vid=ef136fa5-257b-4ee5-bd73-f0de7405e6ba","ios":"levelo://app?vid=ef136fa5-257b-4ee5-bd73-f0de7405e6ba"},"vehicle_type_id":"4","last_reported":1729897793,"current_range_meters":32800,"station_id":"ce4bhlp2rcd13ifvqgjg","pricing_plan_id":"cebpf4jnsgd1na2vs0mg"},{"bike_id":"a0373f4f-37d0-424f-ab67-25a6201205ca","system_id":"levelo_inurba_marseille","lat":43.30544,"lon":5.36702,"is_reserved":false,"is_disabled":false,"rental_uris":{"android":"levelo://app?vid=a0373f4f-37d0-424f-ab67-25a6201205ca","ios":"levelo://app?vid=a0373f4f-37d0-424f-ab67-25a6201205ca"},"vehicle_type_id":"4","last_reported":1729897793,"current_range_meters":32000,"station_id":"ce4bgrp2rcd13ifvqc9g","pricing_plan_id":"cebpf4jnsgd1na2vs0mg"},{"bike_id":"5004519a-eca4-4739-9620-0c1d565549c1","system_id":"levelo_inurba_marseille","lat":43.23055,"lon":5.35495,"is_reserved":false,"is_disabled":false,"rental_uris":{"android":"levelo://app?vid=5004519a-eca4-4739-9620-0c1d565549c1","ios":"levelo://app?vid=5004519a-eca4-4739-9620-0c1d565549c1"},"vehicle_type_id":"4","last_reported":1729897793,"current_range_meters":18000,"station_id":"cpo3342slgdg3j2ifvpg","pricing_plan_id":"cebpf4jnsgd1na2vs0mg"},{"bike_id":"9488ca84-aa5e-4311-bde9-38d634703444","system_id":"levelo_inurba_marseille","lat":43.32482,"lon":5.36558,"is_reserved":false,"is_disabled":false,"rental_uris":{"android":"levelo://app?vid=9488ca84-aa5e-4311-bde9-38d634703444","ios":"levelo://app?vid=9488ca84-aa5e-4311-bde9-38d634703444"},"vehicle_type_id":"4","last_reported":1729897793,"current_range_meters":30400,"station_id":"ce4bhs12rcd13ifvqhvg","pricing_plan_id":"cebpf4jnsgd1na2vs0mg"},{"bike_id":"db34918a-7907-4f64-b210-203667d3bbe6","system_id":"levelo_inurba_marseille","lat":43.30095,"lon":5.39089,"is_reserved":false,"is_disabled":false,"rental_uris":{"android":"levelo://app?vid=db34918a-7907-4f64-b210-203667d3bbe6","ios":"levelo://app?vid=db34918a-7907-4f64-b210-203667d3bbe6"},"vehicle_type_id":"4","last_reported":1729897793,"current_range_meters":36000,"station_id":"ce4bh192rcd13ifvqdb0","pricing_plan_id":"cebpf4jnsgd1na2vs0mg"},{"bike_id":"95a955a7-77a9-4e5a-9cfd-e668e7a510d0","system_id":"levelo_inurba_marseille","lat":43.232,"lon":5.35552,"is_reserved":false,"is_disabled":false,"rental_uris":{"android":"levelo://app?vid=95a955a7-77a9-4e5a-9cfd-e668e7a510d0","ios":"levelo://app?vid=95a955a7-77a9-4e5a-9cfd-e668e7a510d0"},"vehicle_type_id":"4","last_reported":1729897793,"current_range_meters":30800,"station_id":"ce4bhu92rcd13ifvqi70","pricing_plan_id":"cebpf4jnsgd1na2vs0mg"},{"bike_id":"19842355-7deb-4315-b718-98ced67fcc85","system_id":"levelo_inurba_marseille","lat":43.30424,"lon":5.39744,"is_reserved":false,"is_disabled":false,"rental_uris":{"android":"levelo://app?vid=19842355-7deb-4315-b718-98ced67fcc85","ios":"levelo://app?vid=19842355-7deb-4315-b718-98ced67fcc85"},"vehicle_type_id":"4","last_reported":1729897793,"current_range_meters":27600,"station_id":"ce4bh092rcd13ifvqd20","pricing_plan_id":"cebpf4jnsgd1na2vs0mg"},{"bike_id":"cfea328f-6487-4312-bb87-23b7c566f96d","system_id":"levelo_inurba_marseille","lat":43.27997,"lon":5.41663,"is_reserved":false,"is_disabled":false,"rental_uris":{"android":"levelo://app?vid=cfea328f-6487-4312-bb87-23b7c566f96d","ios":"levelo://app?vid=cfea328f-6487-4312-bb87-23b7c566f96d"},"vehicle_type_id":"4","last_reported":1729897793,"current_range_meters":22000,"station_id":"ce4bho12rcd13ifvqh1g","pricing_plan_id":"cebpf4jnsgd1na2vs0mg"},{"bike_id":"a387ff38-a3e1-4044-8663-9bf709f6fbc5","system_id":"levelo_inurba_marseille","lat":43.30609,"lon":5.37222,"is_reserved":false,"is_disabled":false,"rental_uris":{"android":"levelo://app?vid=a387ff38-a3e1-4044-8663-9bf709f6fbc5","ios":"levelo://app?vid=a387ff38-a3e1-4044-8663-9bf709f6fbc5"},"vehicle_type_id":"4","last_reported":1729897793,"current_range_meters":30400,"station_id":"ce4bgqh2rcd13ifvqc4g","pricing_plan_id":"cebpf4jnsgd1na2vs0mg"},{"bike_id":"da0f2c01-ea2c-47c0-bd99-b87557a74c5e","system_id":"levelo_inurba_marseille","lat":43.28854,"lon":5.39297,"is_reserved":false,"is_disabled":false,"rental_uris":{"android":"levelo://app?vid=da0f2c01-ea2c-47c0-bd99-b87557a74c5e","ios":"levelo://app?vid=da0f2c01-ea2c-47c0-bd99-b87557a74c5e"},"vehicle_type_id":"4","last_reported":1729897793,"current_range_meters":20000,"station_id":"ce4bh2p2rcd13ifvqdi0","pricing_plan_id":"cebpf4jnsgd1na2vs0mg"},{"bike_id":"a5c10523-9e0d-428e-859e-d6234f3b6b9f","system_id":"levelo_inurba_marseille","lat":43.29804,"lon":5.40403,"is_reserved":false,"is_disabled":false,"rental_uris":{"android":"levelo://app?vid=a5c10523-9e0d-428e-859e-d6234f3b6b9f","ios":"levelo://app?vid=a5c10523-9e0d-428e-859e-d6234f3b6b9f"},"vehicle_type_id":"4","last_reported":1729897793,"current_range_meters":18000,"station_id":"ce4bh112rcd13ifvqd90","pricing_plan_id":"cebpf4jnsgd1na2vs0mg"},{"bike_id":"601916c5-3274-4e01-863c-d96df39ce3b1","system_id":"levelo_inurba_marseille","lat":43.26562,"lon":5.39003,"is_reserved":false,"is_disabled":false,"rental_uris":{"android":"levelo://app?vid=601916c5-3274-4e01-863c-d96df39ce3b1","ios":"levelo://app?vid=601916c5-3274-4e01-863c-d96df39ce3b1"},"vehicle_type_id":"4","last_reported":1729897793,"current_range_meters":38400,"station_id":"ce4bhe12rcd13ifvqf30","pricing_plan_id":"cebpf4jnsgd1na2vs0mg"},{"bike_id":"984e63ce-1eef-4c39-9bbb-805e5d521fd4","system_id":"levelo_inurba_marseille","lat":43.27948,"lon":5.4104,"is_reserved":false,"is_disabled":false,"rental_uris":{"android":"levelo://app?vid=984e63ce-1eef-4c39-9bbb-805e5d521fd4","ios":"levelo://app?vid=984e63ce-1eef-4c39-9bbb-805e5d521fd4"},"vehicle_type_id":"4","last_reported":1729897793,"current_range_meters":28800,"station_id":"ce4bhnp2rcd13ifvqh0g","pricing_plan_id":"cebpf4jnsgd1na2vs0mg"},{"bike_id":"4d94334a-643e-4bf1-b359-91bb8e088c4f","system_id":"levelo_inurba_marseille","lat":43.27422,"lon":5.39418,"is_reserved":false,"is_disabled":false,"rental_uris":{"android":"levelo://app?vid=4d94334a-643e-4bf1-b359-91bb8e088c4f","ios":"levelo://app?vid=4d94334a-643e-4bf1-b359-91bb8e088c4f"},"vehicle_type_id":"4","last_reported":1729897793,"current_range_meters":22400,"station_id":"ce4bhdp2rcd13ifvqf20","pricing_plan_id":"cebpf4jnsgd1na2vs0mg"},{"bike_id":"dc72e49c-b26a-401b-87fe-367cb03380d0","system_id":"levelo_inurba_marseille","lat":43.28081,"lon":5.39651,"is_reserved":false,"is_disabled":false,"rental_uris":{"android":"levelo://app?vid=dc72e49c-b26a-401b-87fe-367cb03380d0","ios":"levelo://app?vid=dc72e49c-b26a-401b-87fe-367cb03380d0"},"vehicle_type_id":"4","last_reported":1729897793,"current_range_meters":20800,"station_id":"ce4bho12rcd13ifvqh2g","pricing_plan_id":"cebpf4jnsgd1na2vs0mg"},{"bike_id":"1fafbe93-2ba4-4077-bfcf-7b3992b30a25","system_id":"levelo_inurba_marseille","lat":43.29557,"lon":5.4229,"is_reserved":false,"is_disabled":false,"rental_uris":{"android":"levelo://app?vid=1fafbe93-2ba4-4077-bfcf-7b3992b30a25","ios":"levelo://app?vid=1fafbe93-2ba4-4077-bfcf-7b3992b30a25"},"vehicle_type_id":"4","last_reported":1729897793,"current_range_meters":38800,"station_id":"ce4bhph2rcd13ifvqhdg","pricing_plan_id":"cebpf4jnsgd1na2vs0mg"},{"bike_id":"7b9bb9f6-2747-4f5c-a936-06f552492e45","system_id":"levelo_inurba_marseille","lat":43.31726,"lon":5.42405,"is_reserved":false,"is_disabled":false,"rental_uris":{"android":"levelo://app?vid=7b9bb9f6-2747-4f5c-a936-06f552492e45","ios":"levelo://app?vid=7b9bb9f6-2747-4f5c-a936-06f552492e45"},"vehicle_type_id":"4","last_reported":1729897793,"current_range_meters":37600,"station_id":"ce4bhp92rcd13ifvqhbg","pricing_plan_id":"cebpf4jnsgd1na2vs0mg"},{"bike_id":"3b67465a-4626-4df2-9f03-611c7ea2f933","system_id":"levelo_inurba_marseille","lat":43.30145,"lon":5.37412,"is_reserved":false,"is_disabled":false,"rental_uris":{"android":"levelo://app?vid=3b67465a-4626-4df2-9f03-611c7ea2f933","ios":"levelo://app?vid=3b67465a-4626-4df2-9f03-611c7ea2f933"},"vehicle_type_id":"4","last_reported":1729897793,"current_range_meters":38000,"station_id":"ce4bgs92rcd13ifvqcc0","pricing_plan_id":"cebpf4jnsgd1na2vs0mg"},{"bike_id":"a6a5412d-25cc-4ab7-8978-8b51410244f5","system_id":"levelo_inurba_marseille","lat":43.27911,"lon":5.39586,"is_reserved":false,"is_disabled":false,"rental_uris":{"android":"levelo://app?vid=a6a5412d-25cc-4ab7-8978-8b51410244f5","ios":"levelo://app?vid=a6a5412d-25cc-4ab7-8978-8b51410244f5"},"vehicle_type_id":"4","last_reported":1729897793,"current_range_meters":27200,"station_id":"ce4bhf92rcd13ifvqf40","pricing_plan_id":"cebpf4jnsgd1na2vs0mg"},{"bike_id":"8a55373d-8f54-4890-9729-5db301ba9fa0","system_id":"levelo_inurba_marseille","lat":43.25003,"lon":5.38916,"is_reserved":false,"is_disabled":false,"rental_uris":{"android":"levelo://app?vid=8a55373d-8f54-4890-9729-5db301ba9fa0","ios":"levelo://app?vid=8a55373d-8f54-4890-9729-5db301ba9fa0"},"vehicle_type_id":"4","last_reported":1729897793,"current_range_meters":38800,"station_id":"ce4bhgp2rcd13ifvqfd0","pricing_plan_id":"cebpf4jnsgd1na2vs0mg"},{"bike_id":"b1e65eb1-5ea7-4ef4-9535-714de92c2353","system_id":"levelo_inurba_marseille","lat":43.29255,"lon":5.40906,"is_reserved":false,"is_disabled":false,"rental_uris":{"android":"levelo://app?vid=b1e65eb1-5ea7-4ef4-9535-714de92c2353","ios":"levelo://app?vid=b1e65eb1-5ea7-4ef4-9535-714de92c2353"},"vehicle_type_id":"4","last_reported":1729897793,"current_range_meters":10800,"station_id":"ce4bh192rcd13ifvqdc0","pricing_plan_id":"cebpf4jnsgd1na2vs0mg"},{"bike_id":"f7874886-a843-488f-a2f5-e7cbe33414ad","system_id":"levelo_inurba_marseille","lat":43.2926,"lon":5.38439,"is_reserved":false,"is_disabled":false,"rental_uris":{"android":"levelo://app?vid=f7874886-a843-488f-a2f5-e7cbe33414ad","ios":"levelo://app?vid=f7874886-a843-488f-a2f5-e7cbe33414ad"},"vehicle_type_id":"4","last_reported":1729897793,"current_range_meters":38400,"station_id":"ce4bh692rcd13ifvqea0","pricing_plan_id":"cebpf4jnsgd1na2vs0mg"},{"bike_id":"65395e42-a945-4454-b87b-f5f6f06819f3","system_id":"levelo_inurba_marseille","lat":43.29533,"lon":5.38531,"is_reserved":false,"is_disabled":false,"rental_uris":{"android":"levelo://app?vid=65395e42-a945-4454-b87b-f5f6f06819f3","ios":"levelo://app?vid=65395e42-a945-4454-b87b-f5f6f06819f3"},"vehicle_type_id":"4","last_reported":1729897793,"current_range_meters":38800,"station_id":"ce4bgih2rcd13ifvqba0","pricing_plan_id":"cebpf4jnsgd1na2vs0mg"},{"bike_id":"2419ef05-7e67-41c4-b57d-69bea9f77492","system_id":"levelo_inurba_marseille","lat":43.299229,"lon":5.374747,"is_reserved":false,"is_disabled":false,"rental_uris":{"android":"levelo://app?vid=2419ef05-7e67-41c4-b57d-69bea9f77492","ios":"levelo://app?vid=2419ef05-7e67-41c4-b57d-69bea9f77492"},"vehicle_type_id":"4","last_reported":1729897793,"current_range_meters":2800,"station_id":"ce4bgjh2rcd13ifvqbg0","pricing_plan_id":"cebpf4jnsgd1na2vs0mg"},{"bike_id":"f8c112c1-ce5c-4900-bc07-e4dd36cd6c03","system_id":"levelo_inurba_marseille","lat":43.31081,"lon":5.42432,"is_reserved":false,"is_disabled":false,"rental_uris":{"android":"levelo://app?vid=f8c112c1-ce5c-4900-bc07-e4dd36cd6c03","ios":"levelo://app?vid=f8c112c1-ce5c-4900-bc07-e4dd36cd6c03"},"vehicle_type_id":"4","last_reported":1729897793,"current_range_meters":27600,"station_id":"ce4bhp92rcd13ifvqhag","pricing_plan_id":"cebpf4jnsgd1na2vs0mg"},{"bike_id":"b1868a13-7208-439c-aa83-ff794adf1a87","system_id":"levelo_inurba_marseille","lat":43.2656,"lon":5.37288,"is_reserved":false,"is_disabled":false,"rental_uris":{"android":"levelo://app?vid=b1868a13-7208-439c-aa83-ff794adf1a87","ios":"levelo://app?vid=b1868a13-7208-439c-aa83-ff794adf1a87"},"vehicle_type_id":"4","last_reported":1729897793,"current_range_meters":33600,"station_id":"ce4bhg12rcd13ifvqf70","pricing_plan_id":"cebpf4jnsgd1na2vs0mg"},{"bike_id":"5637d737-cee0-49b3-a5f5-cbb922172331","system_id":"levelo_inurba_marseille","lat":43.28041,"lon":5.36947,"is_reserved":false,"is_disabled":false,"rental_uris":{"android":"levelo://app?vid=5637d737-cee0-49b3-a5f5-cbb922172331","ios":"levelo://app?vid=5637d737-cee0-49b3-a5f5-cbb922172331"},"vehicle_type_id":"4","last_reported":1729897793,"current_range_meters":26000,"station_id":"ce4bha12rcd13ifvqef0","pricing_plan_id":"cebpf4jnsgd1na2vs0mg"},{"bike_id":"724a3fc8-9d0e-4f99-90d8-6e2f079d463e","system_id":"levelo_inurba_marseille","lat":43.23962,"lon":5.36629,"is_reserved":false,"is_disabled":false,"rental_uris":{"android":"levelo://app?vid=724a3fc8-9d0e-4f99-90d8-6e2f079d463e","ios":"levelo://app?vid=724a3fc8-9d0e-4f99-90d8-6e2f079d463e"},"vehicle_type_id":"4","last_reported":1729897793,"current_range_meters":18800,"station_id":"ce4bhi12rcd13ifvqfp0","pricing_plan_id":"cebpf4jnsgd1na2vs0mg"},{"bike_id":"79e08287-a5bd-4f7d-8d11-293e54e91432","system_id":"levelo_inurba_marseille","lat":43.28668,"lon":5.36346,"is_reserved":false,"is_disabled":false,"rental_uris":{"android":"levelo://app?vid=79e08287-a5bd-4f7d-8d11-293e54e91432","ios":"levelo://app?vid=79e08287-a5bd-4f7d-8d11-293e54e91432"},"vehicle_type_id":"4","last_reported":1729897793,"current_range_meters":32000,"station_id":"ce4bhah2rcd13ifvqej0","pricing_plan_id":"cebpf4jnsgd1na2vs0mg"},{"bike_id":"35c61cd2-9197-48d2-8665-7c960a8052f0","system_id":"levelo_inurba_marseille","lat":43.25582,"lon":5.38227,"is_reserved":false,"is_disabled":false,"rental_uris":{"android":"levelo://app?vid=35c61cd2-9197-48d2-8665-7c960a8052f0","ios":"levelo://app?vid=35c61cd2-9197-48d2-8665-7c960a8052f0"},"vehicle_type_id":"4","last_reported":1729897793,"current_range_meters":33200,"station_id":"ce4bhih2rcd13ifvqfs0","pricing_plan_id":"cebpf4jnsgd1na2vs0mg"},{"bike_id":"704ff70b-3044-4cc0-a1b3-72bc6b15acdb","system_id":"levelo_inurba_marseille","lat":43.28473,"lon":5.38541,"is_reserved":false,"is_disabled":false,"rental_uris":{"android":"levelo://app?vid=704ff70b-3044-4cc0-a1b3-72bc6b15acdb","ios":"levelo://app?vid=704ff70b-3044-4cc0-a1b3-72bc6b15acdb"},"vehicle_type_id":"4","last_reported":1729897793,"current_range_meters":38800,"station_id":"ce4bh8p2rcd13ifvqeb0","pricing_plan_id":"cebpf4jnsgd1na2vs0mg"},{"bike_id":"79c7ebe1-7a54-4b93-b68a-abae41a12b29","system_id":"levelo_inurba_marseille","lat":43.25005,"lon":5.38917,"is_reserved":false,"is_disabled":false,"rental_uris":{"android":"levelo://app?vid=79c7ebe1-7a54-4b93-b68a-abae41a12b29","ios":"levelo://app?vid=79c7ebe1-7a54-4b93-b68a-abae41a12b29"},"vehicle_type_id":"4","last_reported":1729897793,"current_range_meters":38800,"station_id":"ce4bhgp2rcd13ifvqfd0","pricing_plan_id":"cebpf4jnsgd1na2vs0mg"},{"bike_id":"2f7f1956-dbaf-4143-a6fe-42f9fe56b79f","system_id":"levelo_inurba_marseille","lat":43.27616,"lon":5.36109,"is_reserved":false,"is_disabled":false,"rental_uris":{"android":"levelo://app?vid=2f7f1956-dbaf-4143-a6fe-42f9fe56b79f","ios":"levelo://app?vid=2f7f1956-dbaf-4143-a6fe-42f9fe56b79f"},"vehicle_type_id":"4","last_reported":1729897793,"current_range_meters":37600,"station_id":"ce4bgj92rcd13ifvqbe0","pricing_plan_id":"cebpf4jnsgd1na2vs0mg"},{"bike_id":"5e840611-e92f-421a-a7b9-a27075e76721","system_id":"levelo_inurba_marseille","lat":43.27906,"lon":5.39589,"is_reserved":false,"is_disabled":false,"rental_uris":{"android":"levelo://app?vid=5e840611-e92f-421a-a7b9-a27075e76721","ios":"levelo://app?vid=5e840611-e92f-421a-a7b9-a27075e76721"},"vehicle_type_id":"4","last_reported":1729897793,"current_range_meters":29600,"station_id":"ce4bhf92rcd13ifvqf40","pricing_plan_id":"cebpf4jnsgd1na2vs0mg"},{"bike_id":"763f5dbb-276a-40ae-aed0-f11835e3b041","system_id":"levelo_inurba_marseille","lat":43.22933,"lon":5.35386,"is_reserved":false,"is_disabled":false,"rental_uris":{"android":"levelo://app?vid=763f5dbb-276a-40ae-aed0-f11835e3b041","ios":"levelo://app?vid=763f5dbb-276a-40ae-aed0-f11835e3b041"},"vehicle_type_id":"4","last_reported":1729897793,"current_range_meters":25600,"station_id":"cpo3532slgdg3j2ikp40","pricing_plan_id":"cebpf4jnsgd1na2vs0mg"},{"bike_id":"0923c62f-5537-4802-96b8-cad5b7a252a6","system_id":"levelo_inurba_marseille","lat":43.31111,"lon":5.37768,"is_reserved":false,"is_disabled":false,"rental_uris":{"android":"levelo://app?vid=0923c62f-5537-4802-96b8-cad5b7a252a6","ios":"levelo://app?vid=0923c62f-5537-4802-96b8-cad5b7a252a6"},"vehicle_type_id":"4","last_reported":1729897793,"current_range_meters":27600,"station_id":"ce4bgt92rcd13ifvqcg0","pricing_plan_id":"cebpf4jnsgd1na2vs0mg"},{"bike_id":"a4cdb9e2-dcee-478e-b833-1e72009d3ae3","system_id":"levelo_inurba_marseille","lat":43.30413,"lon":5.41283,"is_reserved":false,"is_disabled":false,"rental_uris":{"android":"levelo://app?vid=a4cdb9e2-dcee-478e-b833-1e72009d3ae3","ios":"levelo://app?vid=a4cdb9e2-dcee-478e-b833-1e72009d3ae3"},"vehicle_type_id":"4","last_reported":1729897793,"current_range_meters":8400,"station_id":"ce4bhop2rcd13ifvqh8g","pricing_plan_id":"cebpf4jnsgd1na2vs0mg"},{"bike_id":"e1ccd76e-2e57-40bf-9d19-91efe5b51e12","system_id":"levelo_inurba_marseille","lat":43.27959,"lon":5.38712,"is_reserved":false,"is_disabled":false,"rental_uris":{"android":"levelo://app?vid=e1ccd76e-2e57-40bf-9d19-91efe5b51e12","ios":"levelo://app?vid=e1ccd76e-2e57-40bf-9d19-91efe5b51e12"},"vehicle_type_id":"4","last_reported":1729897793,"current_range_meters":28800,"station_id":"ce4bhg12rcd13ifvqf80","pricing_plan_id":"cebpf4jnsgd1na2vs0mg"},{"bike_id":"523bd456-4a53-49e5-9ccf-dbed8fd4f056","system_id":"levelo_inurba_marseille","lat":43.29643,"lon":5.37941,"is_reserved":false,"is_disabled":false,"rental_uris":{"android":"levelo://app?vid=523bd456-4a53-49e5-9ccf-dbed8fd4f056","ios":"levelo://app?vid=523bd456-4a53-49e5-9ccf-dbed8fd4f056"},"vehicle_type_id":"4","last_reported":1729897793,"current_range_meters":35200,"station_id":"","pricing_plan_id":"cebpf4jnsgd1na2vs0mg"},{"bike_id":"ff525f11-b341-4978-9c79-b7653983bb50","system_id":"levelo_inurba_marseille","lat":43.29706,"lon":5.36613,"is_reserved":false,"is_disabled":false,"rental_uris":{"android":"levelo://app?vid=ff525f11-b341-4978-9c79-b7653983bb50","ios":"levelo://app?vid=ff525f11-b341-4978-9c79-b7653983bb50"},"vehicle_type_id":"4","last_reported":1729897793,"current_range_meters":16400,"station_id":"ce4bgn12rcd13ifvqbt0","pricing_plan_id":"cebpf4jnsgd1na2vs0mg"},{"bike_id":"d7ff7165-6d5c-4f76-865c-b2ea1a2a3c7a","system_id":"levelo_inurba_marseille","lat":43.27489,"lon":5.42447,"is_reserved":false,"is_disabled":false,"rental_uris":{"android":"levelo://app?vid=d7ff7165-6d5c-4f76-865c-b2ea1a2a3c7a","ios":"levelo://app?vid=d7ff7165-6d5c-4f76-865c-b2ea1a2a3c7a"},"vehicle_type_id":"4","last_reported":1729897793,"current_range_meters":15200,"station_id":"ce4bhn92rcd13ifvqgrg","pricing_plan_id":"cebpf4jnsgd1na2vs0mg"},{"bike_id":"74caf35e-8b62-442b-b044-b6953bb2a484","system_id":"levelo_inurba_marseille","lat":43.24807,"lon":5.37458,"is_reserved":false,"is_disabled":false,"rental_uris":{"android":"levelo://app?vid=74caf35e-8b62-442b-b044-b6953bb2a484","ios":"levelo://app?vid=74caf35e-8b62-442b-b044-b6953bb2a484"},"vehicle_type_id":"4","last_reported":1729897793,"current_range_meters":38800,"station_id":"ce4bhgh2rcd13ifvqfb0","pricing_plan_id":"cebpf4jnsgd1na2vs0mg"},{"bike_id":"6e741f56-2372-478e-abd8-56fec2a720be","system_id":"levelo_inurba_marseille","lat":43.30934,"lon":5.40147,"is_reserved":false,"is_disabled":false,"rental_uris":{"android":"levelo://app?vid=6e741f56-2372-478e-abd8-56fec2a720be","ios":"levelo://app?vid=6e741f56-2372-478e-abd8-56fec2a720be"},"vehicle_type_id":"4","last_reported":1729897793,"current_range_meters":20000,"station_id":"ce4bgvp2rcd13ifvqct0","pricing_plan_id":"cebpf4jnsgd1na2vs0mg"},{"bike_id":"8001b44d-9ab0-46f5-80ea-c34d9f92effc","system_id":"levelo_inurba_marseille","lat":43.26942,"lon":5.40253,"is_reserved":false,"is_disabled":false,"rental_uris":{"android":"levelo://app?vid=8001b44d-9ab0-46f5-80ea-c34d9f92effc","ios":"levelo://app?vid=8001b44d-9ab0-46f5-80ea-c34d9f92effc"},"vehicle_type_id":"4","last_reported":1729897793,"current_range_meters":36400,"station_id":"cjm6bp8fraef2m0cb0m0","pricing_plan_id":"cebpf4jnsgd1na2vs0mg"},{"bike_id":"dbf22486-50b5-4519-9968-932eec589f87","system_id":"levelo_inurba_marseille","lat":43.28108,"lon":5.3784,"is_reserved":false,"is_disabled":false,"rental_uris":{"android":"levelo://app?vid=dbf22486-50b5-4519-9968-932eec589f87","ios":"levelo://app?vid=dbf22486-50b5-4519-9968-932eec589f87"},"vehicle_type_id":"4","last_reported":1729897793,"current_range_meters":29600,"station_id":"ce4bha12rcd13ifvqee0","pricing_plan_id":"cebpf4jnsgd1na2vs0mg"},{"bike_id":"df0e2338-b040-448c-b163-ee68aff3e832","system_id":"levelo_inurba_marseille","lat":43.25821,"lon":5.39417,"is_reserved":false,"is_disabled":false,"rental_uris":{"android":"levelo://app?vid=df0e2338-b040-448c-b163-ee68aff3e832","ios":"levelo://app?vid=df0e2338-b040-448c-b163-ee68aff3e832"},"vehicle_type_id":"4","last_reported":1729897793,"current_range_meters":38800,"station_id":"ce4bhip2rcd13ifvqft0","pricing_plan_id":"cebpf4jnsgd1na2vs0mg"},{"bike_id":"28c3e1e4-e1b5-4e9c-b493-956ac9bd0c5f","system_id":"levelo_inurba_marseille","lat":43.28273,"lon":5.35078,"is_reserved":false,"is_disabled":false,"rental_uris":{"android":"levelo://app?vid=28c3e1e4-e1b5-4e9c-b493-956ac9bd0c5f","ios":"levelo://app?vid=28c3e1e4-e1b5-4e9c-b493-956ac9bd0c5f"},"vehicle_type_id":"4","last_reported":1729897793,"current_range_meters":25600,"station_id":"ce4bhbp2rcd13ifvqerg","pricing_plan_id":"cebpf4jnsgd1na2vs0mg"},{"bike_id":"b0b81d6b-9f1e-4c7b-85fd-1ba4f40016a0","system_id":"levelo_inurba_marseille","lat":43.30416,"lon":5.41283,"is_reserved":false,"is_disabled":false,"rental_uris":{"android":"levelo://app?vid=b0b81d6b-9f1e-4c7b-85fd-1ba4f40016a0","ios":"levelo://app?vid=b0b81d6b-9f1e-4c7b-85fd-1ba4f40016a0"},"vehicle_type_id":"4","last_reported":1729897793,"current_range_meters":30800,"station_id":"ce4bhop2rcd13ifvqh8g","pricing_plan_id":"cebpf4jnsgd1na2vs0mg"},{"bike_id":"d4aec44f-ddca-4104-91b2-0d4ceaa50166","system_id":"levelo_inurba_marseille","lat":43.28079,"lon":5.39652,"is_reserved":false,"is_disabled":false,"rental_uris":{"android":"levelo://app?vid=d4aec44f-ddca-4104-91b2-0d4ceaa50166","ios":"levelo://app?vid=d4aec44f-ddca-4104-91b2-0d4ceaa50166"},"vehicle_type_id":"4","last_reported":1729897793,"current_range_meters":39200,"station_id":"ce4bho12rcd13ifvqh2g","pricing_plan_id":"cebpf4jnsgd1na2vs0mg"},{"bike_id":"3d52c75e-21c8-425b-a6d2-0cf7c2a167ed","system_id":"levelo_inurba_marseille","lat":43.28632,"lon":5.40775,"is_reserved":false,"is_disabled":false,"rental_uris":{"android":"levelo://app?vid=3d52c75e-21c8-425b-a6d2-0cf7c2a167ed","ios":"levelo://app?vid=3d52c75e-21c8-425b-a6d2-0cf7c2a167ed"},"vehicle_type_id":"4","last_reported":1729897793,"current_range_meters":12000,"station_id":"","pricing_plan_id":"cebpf4jnsgd1na2vs0mg"},{"bike_id":"f9dd0103-b045-4d3e-97f0-feaf4a2d3923","system_id":"levelo_inurba_marseille","lat":43.25003,"lon":5.38911,"is_reserved":false,"is_disabled":false,"rental_uris":{"android":"levelo://app?vid=f9dd0103-b045-4d3e-97f0-feaf4a2d3923","ios":"levelo://app?vid=f9dd0103-b045-4d3e-97f0-feaf4a2d3923"},"vehicle_type_id":"4","last_reported":1729897793,"current_range_meters":12000,"station_id":"ce4bhgp2rcd13ifvqfd0","pricing_plan_id":"cebpf4jnsgd1na2vs0mg"},{"bike_id":"225be540-bd75-4636-8a6a-362c5613f52a","system_id":"levelo_inurba_marseille","lat":43.2791,"lon":5.39589,"is_reserved":false,"is_disabled":false,"rental_uris":{"android":"levelo://app?vid=225be540-bd75-4636-8a6a-362c5613f52a","ios":"levelo://app?vid=225be540-bd75-4636-8a6a-362c5613f52a"},"vehicle_type_id":"4","last_reported":1729897793,"current_range_meters":20000,"station_id":"ce4bhf92rcd13ifvqf40","pricing_plan_id":"cebpf4jnsgd1na2vs0mg"},{"bike_id":"45762a51-15f0-4a01-8913-533a2ec0e59b","system_id":"levelo_inurba_marseille","lat":43.31082,"lon":5.42434,"is_reserved":false,"is_disabled":false,"rental_uris":{"android":"levelo://app?vid=45762a51-15f0-4a01-8913-533a2ec0e59b","ios":"levelo://app?vid=45762a51-15f0-4a01-8913-533a2ec0e59b"},"vehicle_type_id":"4","last_reported":1729897793,"current_range_meters":35600,"station_id":"ce4bhp92rcd13ifvqhag","pricing_plan_id":"cebpf4jnsgd1na2vs0mg"},{"bike_id":"7683b3e8-5df4-4e69-aba2-40ab59f26671","system_id":"levelo_inurba_marseille","lat":43.29962,"lon":5.38494,"is_reserved":false,"is_disabled":false,"rental_uris":{"android":"levelo://app?vid=7683b3e8-5df4-4e69-aba2-40ab59f26671","ios":"levelo://app?vid=7683b3e8-5df4-4e69-aba2-40ab59f26671"},"vehicle_type_id":"4","last_reported":1729897793,"current_range_meters":38000,"station_id":"ce4bgj92rcd13ifvqbd0","pricing_plan_id":"cebpf4jnsgd1na2vs0mg"},{"bike_id":"204a941b-23a1-4ee5-99d6-cc799d20c902","system_id":"levelo_inurba_marseille","lat":43.29979,"lon":5.37182,"is_reserved":false,"is_disabled":false,"rental_uris":{"android":"levelo://app?vid=204a941b-23a1-4ee5-99d6-cc799d20c902","ios":"levelo://app?vid=204a941b-23a1-4ee5-99d6-cc799d20c902"},"vehicle_type_id":"4","last_reported":1729897793,"current_range_meters":31200,"station_id":"ce4bgr92rcd13ifvqc7g","pricing_plan_id":"cebpf4jnsgd1na2vs0mg"},{"bike_id":"82250e14-e2bb-45c2-968b-c92f4d251f74","system_id":"levelo_inurba_marseille","lat":43.30889,"lon":5.39651,"is_reserved":false,"is_disabled":false,"rental_uris":{"android":"levelo://app?vid=82250e14-e2bb-45c2-968b-c92f4d251f74","ios":"levelo://app?vid=82250e14-e2bb-45c2-968b-c92f4d251f74"},"vehicle_type_id":"4","last_reported":1729897793,"current_range_meters":36400,"station_id":"ce4bh012rcd13ifvqcv0","pricing_plan_id":"cebpf4jnsgd1na2vs0mg"},{"bike_id":"f421c4bf-57fd-4999-8b5f-022f8ccbc780","system_id":"levelo_inurba_marseille","lat":43.28105,"lon":5.37842,"is_reserved":false,"is_disabled":false,"rental_uris":{"android":"levelo://app?vid=f421c4bf-57fd-4999-8b5f-022f8ccbc780","ios":"levelo://app?vid=f421c4bf-57fd-4999-8b5f-022f8ccbc780"},"vehicle_type_id":"4","last_reported":1729897793,"current_range_meters":6400,"station_id":"ce4bha12rcd13ifvqee0","pricing_plan_id":"cebpf4jnsgd1na2vs0mg"},{"bike_id":"5c6fc753-9f83-4903-9415-114b4e291efe","system_id":"levelo_inurba_marseille","lat":43.29869,"lon":5.39739,"is_reserved":false,"is_disabled":false,"rental_uris":{"android":"levelo://app?vid=5c6fc753-9f83-4903-9415-114b4e291efe","ios":"levelo://app?vid=5c6fc753-9f83-4903-9415-114b4e291efe"},"vehicle_type_id":"4","last_reported":1729897793,"current_range_meters":22000,"station_id":"ce4bh0h2rcd13ifvqd50","pricing_plan_id":"cebpf4jnsgd1na2vs0mg"},{"bike_id":"9710488d-6aae-4f66-a1e4-52e8e4c71cf2","system_id":"levelo_inurba_marseille","lat":43.32365,"lon":5.38878,"is_reserved":false,"is_disabled":false,"rental_uris":{"android":"levelo://app?vid=9710488d-6aae-4f66-a1e4-52e8e4c71cf2","ios":"levelo://app?vid=9710488d-6aae-4f66-a1e4-52e8e4c71cf2"},"vehicle_type_id":"4","last_reported":1729897793,"current_range_meters":12000,"station_id":"ce4bhqp2rcd13ifvqhog","pricing_plan_id":"cebpf4jnsgd1na2vs0mg"},{"bike_id":"f2c75ef3-8b59-406f-8b72-f6f25124fcba","system_id":"levelo_inurba_marseille","lat":43.28568,"lon":5.39495,"is_reserved":false,"is_disabled":false,"rental_uris":{"android":"levelo://app?vid=f2c75ef3-8b59-406f-8b72-f6f25124fcba","ios":"levelo://app?vid=f2c75ef3-8b59-406f-8b72-f6f25124fcba"},"vehicle_type_id":"4","last_reported":1729897793,"current_range_meters":27200,"station_id":"ce4bh292rcd13ifvqdg0","pricing_plan_id":"cebpf4jnsgd1na2vs0mg"},{"bike_id":"02f22de0-43a3-419b-ab86-64ec1edb08c8","system_id":"levelo_inurba_marseille","lat":43.31331,"lon":5.39691,"is_reserved":false,"is_disabled":false,"rental_uris":{"android":"levelo://app?vid=02f22de0-43a3-419b-ab86-64ec1edb08c8","ios":"levelo://app?vid=02f22de0-43a3-419b-ab86-64ec1edb08c8"},"vehicle_type_id":"4","last_reported":1729897793,"current_range_meters":16800,"station_id":"ce4bgvp2rcd13ifvqcu0","pricing_plan_id":"cebpf4jnsgd1na2vs0mg"},{"bike_id":"5037e2e2-f258-48c6-a031-6f1a1dd240dc","system_id":"levelo_inurba_marseille","lat":43.30412,"lon":5.41285,"is_reserved":false,"is_disabled":false,"rental_uris":{"android":"levelo://app?vid=5037e2e2-f258-48c6-a031-6f1a1dd240dc","ios":"levelo://app?vid=5037e2e2-f258-48c6-a031-6f1a1dd240dc"},"vehicle_type_id":"4","last_reported":1729897793,"current_range_meters":28400,"station_id":"ce4bhop2rcd13ifvqh8g","pricing_plan_id":"cebpf4jnsgd1na2vs0mg"},{"bike_id":"6e655b33-042a-4dc3-aeb8-76814f29bb50","system_id":"levelo_inurba_marseille","lat":43.27812,"lon":5.40705,"is_reserved":false,"is_disabled":false,"rental_uris":{"android":"levelo://app?vid=6e655b33-042a-4dc3-aeb8-76814f29bb50","ios":"levelo://app?vid=6e655b33-042a-4dc3-aeb8-76814f29bb50"},"vehicle_type_id":"4","last_reported":1729897793,"current_range_meters":38800,"station_id":"ce4bhnh2rcd13ifvqgtg","pricing_plan_id":"cebpf4jnsgd1na2vs0mg"},{"bike_id":"5f2af7bc-264a-43e2-9197-e3220c4819fd","system_id":"levelo_inurba_marseille","lat":43.32442,"lon":5.36972,"is_reserved":false,"is_disabled":false,"rental_uris":{"android":"levelo://app?vid=5f2af7bc-264a-43e2-9197-e3220c4819fd","ios":"levelo://app?vid=5f2af7bc-264a-43e2-9197-e3220c4819fd"},"vehicle_type_id":"4","last_reported":1729897793,"current_range_meters":6000,"station_id":"","pricing_plan_id":"cebpf4jnsgd1na2vs0mg"},{"bike_id":"3601caff-2d90-416b-976e-17b7c0b24701","system_id":"levelo_inurba_marseille","lat":43.28463,"lon":5.35883,"is_reserved":false,"is_disabled":false,"rental_uris":{"android":"levelo://app?vid=3601caff-2d90-416b-976e-17b7c0b24701","ios":"levelo://app?vid=3601caff-2d90-416b-976e-17b7c0b24701"},"vehicle_type_id":"4","last_reported":1729897793,"current_range_meters":25600,"station_id":"ce4bhah2rcd13ifvqei0","pricing_plan_id":"cebpf4jnsgd1na2vs0mg"},{"bike_id":"e37957ed-f5f8-4cfe-a795-d93f2b341fe5","system_id":"levelo_inurba_marseille","lat":43.28445,"lon":5.39189,"is_reserved":false,"is_disabled":false,"rental_uris":{"android":"levelo://app?vid=e37957ed-f5f8-4cfe-a795-d93f2b341fe5","ios":"levelo://app?vid=e37957ed-f5f8-4cfe-a795-d93f2b341fe5"},"vehicle_type_id":"4","last_reported":1729897793,"current_range_meters":28800,"station_id":"ce4bhoh2rcd13ifvqh5g","pricing_plan_id":"cebpf4jnsgd1na2vs0mg"},{"bike_id":"e01482ce-7f0b-4d09-b9f0-1d2542d0ff4a","system_id":"levelo_inurba_marseille","lat":43.29541,"lon":5.3854,"is_reserved":false,"is_disabled":false,"rental_uris":{"android":"levelo://app?vid=e01482ce-7f0b-4d09-b9f0-1d2542d0ff4a","ios":"levelo://app?vid=e01482ce-7f0b-4d09-b9f0-1d2542d0ff4a"},"vehicle_type_id":"4","last_reported":1729897793,"current_range_meters":38800,"station_id":"ce4bgih2rcd13ifvqba0","pricing_plan_id":"cebpf4jnsgd1na2vs0mg"},{"bike_id":"4746fe8f-a6ef-4e1b-aaef-5a4b9fc83054","system_id":"levelo_inurba_marseille","lat":43.29894,"lon":5.43661,"is_reserved":false,"is_disabled":false,"rental_uris":{"android":"levelo://app?vid=4746fe8f-a6ef-4e1b-aaef-5a4b9fc83054","ios":"levelo://app?vid=4746fe8f-a6ef-4e1b-aaef-5a4b9fc83054"},"vehicle_type_id":"4","last_reported":1729897793,"current_range_meters":38800,"station_id":"ce4bhpp2rcd13ifvqhfg","pricing_plan_id":"cebpf4jnsgd1na2vs0mg"},{"bike_id":"4e638b58-5cf0-405e-95fe-39dbe3c5f18c","system_id":"levelo_inurba_marseille","lat":43.24655,"lon":5.38901,"is_reserved":false,"is_disabled":false,"rental_uris":{"android":"levelo://app?vid=4e638b58-5cf0-405e-95fe-39dbe3c5f18c","ios":"levelo://app?vid=4e638b58-5cf0-405e-95fe-39dbe3c5f18c"},"vehicle_type_id":"4","last_reported":1729897793,"current_range_meters":23200,"station_id":"ce4bhg12rcd13ifvqf60","pricing_plan_id":"cebpf4jnsgd1na2vs0mg"},{"bike_id":"386c6a7e-cd6c-4112-aa78-c50040cf1776","system_id":"levelo_inurba_marseille","lat":43.25085,"lon":5.3952,"is_reserved":false,"is_disabled":false,"rental_uris":{"android":"levelo://app?vid=386c6a7e-cd6c-4112-aa78-c50040cf1776","ios":"levelo://app?vid=386c6a7e-cd6c-4112-aa78-c50040cf1776"},"vehicle_type_id":"4","last_reported":1729897793,"current_range_meters":29600,"station_id":"ce4bhm12rcd13ifvqgkg","pricing_plan_id":"cebpf4jnsgd1na2vs0mg"},{"bike_id":"6f6794c9-8922-4f2d-b362-0060a734acdd","system_id":"levelo_inurba_marseille","lat":43.29568,"lon":5.39978,"is_reserved":false,"is_disabled":false,"rental_uris":{"android":"levelo://app?vid=6f6794c9-8922-4f2d-b362-0060a734acdd","ios":"levelo://app?vid=6f6794c9-8922-4f2d-b362-0060a734acdd"},"vehicle_type_id":"4","last_reported":1729897793,"current_range_meters":18800,"station_id":"ce4bh312rcd13ifvqdj0","pricing_plan_id":"cebpf4jnsgd1na2vs0mg"},{"bike_id":"2d6ae458-641c-4b25-8403-1aa6e9113023","system_id":"levelo_inurba_marseille","lat":43.29805,"lon":5.37136,"is_reserved":false,"is_disabled":false,"rental_uris":{"android":"levelo://app?vid=2d6ae458-641c-4b25-8403-1aa6e9113023","ios":"levelo://app?vid=2d6ae458-641c-4b25-8403-1aa6e9113023"},"vehicle_type_id":"4","last_reported":1729897793,"current_range_meters":26800,"station_id":"ce4bgop2rcd13ifvqc1g","pricing_plan_id":"cebpf4jnsgd1na2vs0mg"},{"bike_id":"d0637418-25a0-4407-98d1-47ab6883e34c","system_id":"levelo_inurba_marseille","lat":43.30136,"lon":5.37411,"is_reserved":false,"is_disabled":false,"rental_uris":{"android":"levelo://app?vid=d0637418-25a0-4407-98d1-47ab6883e34c","ios":"levelo://app?vid=d0637418-25a0-4407-98d1-47ab6883e34c"},"vehicle_type_id":"4","last_reported":1729897793,"current_range_meters":38800,"station_id":"ce4bgs92rcd13ifvqcc0","pricing_plan_id":"cebpf4jnsgd1na2vs0mg"},{"bike_id":"df9c8671-6383-46e2-af96-c49cea052fec","system_id":"levelo_inurba_marseille","lat":43.28442,"lon":5.39197,"is_reserved":false,"is_disabled":false,"rental_uris":{"android":"levelo://app?vid=df9c8671-6383-46e2-af96-c49cea052fec","ios":"levelo://app?vid=df9c8671-6383-46e2-af96-c49cea052fec"},"vehicle_type_id":"4","last_reported":1729897793,"current_range_meters":8000,"station_id":"ce4bhoh2rcd13ifvqh5g","pricing_plan_id":"cebpf4jnsgd1na2vs0mg"},{"bike_id":"b5c3b916-9cba-42bd-ac7b-7ae08a96e7eb","system_id":"levelo_inurba_marseille","lat":43.27835,"lon":5.39211,"is_reserved":false,"is_disabled":false,"rental_uris":{"android":"levelo://app?vid=b5c3b916-9cba-42bd-ac7b-7ae08a96e7eb","ios":"levelo://app?vid=b5c3b916-9cba-42bd-ac7b-7ae08a96e7eb"},"vehicle_type_id":"4","last_reported":1729897793,"current_range_meters":35200,"station_id":"ce4bhjp2rcd13ifvqga0","pricing_plan_id":"cebpf4jnsgd1na2vs0mg"},{"bike_id":"233675c9-1452-4773-9b48-f42a8db67c1c","system_id":"levelo_inurba_marseille","lat":43.28409,"lon":5.34996,"is_reserved":false,"is_disabled":false,"rental_uris":{"android":"levelo://app?vid=233675c9-1452-4773-9b48-f42a8db67c1c","ios":"levelo://app?vid=233675c9-1452-4773-9b48-f42a8db67c1c"},"vehicle_type_id":"4","last_reported":1729897793,"current_range_meters":37600,"station_id":"ce4bhbh2rcd13ifvqepg","pricing_plan_id":"cebpf4jnsgd1na2vs0mg"},{"bike_id":"1178cda2-5c3a-4d86-b4d3-b676154bd669","system_id":"levelo_inurba_marseille","lat":43.271984,"lon":5.409904,"is_reserved":false,"is_disabled":false,"rental_uris":{"android":"levelo://app?vid=1178cda2-5c3a-4d86-b4d3-b676154bd669","ios":"levelo://app?vid=1178cda2-5c3a-4d86-b4d3-b676154bd669"},"vehicle_type_id":"4","last_reported":1729897793,"current_range_meters":33600,"station_id":"ce4bhl12rcd13ifvqgf0","pricing_plan_id":"cebpf4jnsgd1na2vs0mg"},{"bike_id":"9f741eb8-4308-4511-8be3-1cde4f07cf7e","system_id":"levelo_inurba_marseille","lat":43.25862,"lon":5.3991,"is_reserved":false,"is_disabled":false,"rental_uris":{"android":"levelo://app?vid=9f741eb8-4308-4511-8be3-1cde4f07cf7e","ios":"levelo://app?vid=9f741eb8-4308-4511-8be3-1cde4f07cf7e"},"vehicle_type_id":"4","last_reported":1729897793,"current_range_meters":36800,"station_id":"ce4bhl92rcd13ifvqghg","pricing_plan_id":"cebpf4jnsgd1na2vs0mg"},{"bike_id":"d53e3fc7-7e6b-40cc-bcff-83e93ea3d8a1","system_id":"levelo_inurba_marseille","lat":43.29277,"lon":5.36849,"is_reserved":false,"is_disabled":false,"rental_uris":{"android":"levelo://app?vid=d53e3fc7-7e6b-40cc-bcff-83e93ea3d8a1","ios":"levelo://app?vid=d53e3fc7-7e6b-40cc-bcff-83e93ea3d8a1"},"vehicle_type_id":"4","last_reported":1729897793,"current_range_meters":20800,"station_id":"ce4bhbp2rcd13ifvqesg","pricing_plan_id":"cebpf4jnsgd1na2vs0mg"},{"bike_id":"dba5c0e4-c4fb-4939-bd85-1709479c42ed","system_id":"levelo_inurba_marseille","lat":43.287,"lon":5.39975,"is_reserved":false,"is_disabled":false,"rental_uris":{"android":"levelo://app?vid=dba5c0e4-c4fb-4939-bd85-1709479c42ed","ios":"levelo://app?vid=dba5c0e4-c4fb-4939-bd85-1709479c42ed"},"vehicle_type_id":"4","last_reported":1729897793,"current_range_meters":38000,"station_id":"ce4bho92rcd13ifvqh3g","pricing_plan_id":"cebpf4jnsgd1na2vs0mg"},{"bike_id":"fa0d9b42-8430-42f7-b028-e598c8f32fe4","system_id":"levelo_inurba_marseille","lat":43.27566,"lon":5.38432,"is_reserved":false,"is_disabled":false,"rental_uris":{"android":"levelo://app?vid=fa0d9b42-8430-42f7-b028-e598c8f32fe4","ios":"levelo://app?vid=fa0d9b42-8430-42f7-b028-e598c8f32fe4"},"vehicle_type_id":"4","last_reported":1729897793,"current_range_meters":18000,"station_id":"ce4bhh92rcd13ifvqfi0","pricing_plan_id":"cebpf4jnsgd1na2vs0mg"},{"bike_id":"29a6c093-88d6-4372-9735-e054adbf6a09","system_id":"levelo_inurba_marseille","lat":43.29261,"lon":5.409,"is_reserved":false,"is_disabled":false,"rental_uris":{"android":"levelo://app?vid=29a6c093-88d6-4372-9735-e054adbf6a09","ios":"levelo://app?vid=29a6c093-88d6-4372-9735-e054adbf6a09"},"vehicle_type_id":"4","last_reported":1729897793,"current_range_meters":28800,"station_id":"ce4bh192rcd13ifvqdc0","pricing_plan_id":"cebpf4jnsgd1na2vs0mg"},{"bike_id":"0f3c8ac4-6ddb-4ab9-bf74-403d7db9e9b9","system_id":"levelo_inurba_marseille","lat":43.24645,"lon":5.38894,"is_reserved":false,"is_disabled":false,"rental_uris":{"android":"levelo://app?vid=0f3c8ac4-6ddb-4ab9-bf74-403d7db9e9b9","ios":"levelo://app?vid=0f3c8ac4-6ddb-4ab9-bf74-403d7db9e9b9"},"vehicle_type_id":"4","last_reported":1729897793,"current_range_meters":38400,"station_id":"ce4bhg12rcd13ifvqf60","pricing_plan_id":"cebpf4jnsgd1na2vs0mg"},{"bike_id":"83c44b3b-2d14-4901-8634-cf118b0742d2","system_id":"levelo_inurba_marseille","lat":43.29703,"lon":5.366075,"is_reserved":false,"is_disabled":false,"rental_uris":{"android":"levelo://app?vid=83c44b3b-2d14-4901-8634-cf118b0742d2","ios":"levelo://app?vid=83c44b3b-2d14-4901-8634-cf118b0742d2"},"vehicle_type_id":"4","last_reported":1729897793,"current_range_meters":29600,"station_id":"ce4bgn12rcd13ifvqbt0","pricing_plan_id":"cebpf4jnsgd1na2vs0mg"},{"bike_id":"ad567598-94d2-457b-8b07-1b577478eda3","system_id":"levelo_inurba_marseille","lat":43.29206,"lon":5.3932,"is_reserved":false,"is_disabled":false,"rental_uris":{"android":"levelo://app?vid=ad567598-94d2-457b-8b07-1b577478eda3","ios":"levelo://app?vid=ad567598-94d2-457b-8b07-1b577478eda3"},"vehicle_type_id":"4","last_reported":1729897793,"current_range_meters":16000,"station_id":"ce4bh192rcd13ifvqdd0","pricing_plan_id":"cebpf4jnsgd1na2vs0mg"},{"bike_id":"f092f188-890e-415c-bcfe-54d392c6e1bb","system_id":"levelo_inurba_marseille","lat":43.30411,"lon":5.41287,"is_reserved":false,"is_disabled":false,"rental_uris":{"android":"levelo://app?vid=f092f188-890e-415c-bcfe-54d392c6e1bb","ios":"levelo://app?vid=f092f188-890e-415c-bcfe-54d392c6e1bb"},"vehicle_type_id":"4","last_reported":1729897793,"current_range_meters":38800,"station_id":"ce4bhop2rcd13ifvqh8g","pricing_plan_id":"cebpf4jnsgd1na2vs0mg"},{"bike_id":"8b0bcb90-3ecb-40c1-bb64-6c74b2663793","system_id":"levelo_inurba_marseille","lat":43.29423,"lon":5.38605,"is_reserved":false,"is_disabled":false,"rental_uris":{"android":"levelo://app?vid=8b0bcb90-3ecb-40c1-bb64-6c74b2663793","ios":"levelo://app?vid=8b0bcb90-3ecb-40c1-bb64-6c74b2663793"},"vehicle_type_id":"4","last_reported":1729897793,"current_range_meters":38000,"station_id":"ce4bh2h2rcd13ifvqdh0","pricing_plan_id":"cebpf4jnsgd1na2vs0mg"},{"bike_id":"2f26cbff-3a6a-4e96-ba80-64f35bb4ddd5","system_id":"levelo_inurba_marseille","lat":43.28348,"lon":5.38112,"is_reserved":false,"is_disabled":false,"rental_uris":{"android":"levelo://app?vid=2f26cbff-3a6a-4e96-ba80-64f35bb4ddd5","ios":"levelo://app?vid=2f26cbff-3a6a-4e96-ba80-64f35bb4ddd5"},"vehicle_type_id":"4","last_reported":1729897793,"current_range_meters":6800,"station_id":"ce4bh412rcd13ifvqdr0","pricing_plan_id":"cebpf4jnsgd1na2vs0mg"},{"bike_id":"ec6eccb0-65e0-4f6b-8ab9-ac8e8f103721","system_id":"levelo_inurba_marseille","lat":43.29536,"lon":5.38542,"is_reserved":false,"is_disabled":false,"rental_uris":{"android":"levelo://app?vid=ec6eccb0-65e0-4f6b-8ab9-ac8e8f103721","ios":"levelo://app?vid=ec6eccb0-65e0-4f6b-8ab9-ac8e8f103721"},"vehicle_type_id":"4","last_reported":1729897793,"current_range_meters":38800,"station_id":"ce4bgih2rcd13ifvqba0","pricing_plan_id":"cebpf4jnsgd1na2vs0mg"},{"bike_id":"d3cc5ab0-9e3a-41ba-9860-c06c0ddb4613","system_id":"levelo_inurba_marseille","lat":43.22929,"lon":5.35382,"is_reserved":false,"is_disabled":false,"rental_uris":{"android":"levelo://app?vid=d3cc5ab0-9e3a-41ba-9860-c06c0ddb4613","ios":"levelo://app?vid=d3cc5ab0-9e3a-41ba-9860-c06c0ddb4613"},"vehicle_type_id":"4","last_reported":1729897793,"current_range_meters":38400,"station_id":"cpo3532slgdg3j2ikp40","pricing_plan_id":"cebpf4jnsgd1na2vs0mg"},{"bike_id":"d65d931e-09c6-43bf-b88d-6bd16c19bf54","system_id":"levelo_inurba_marseille","lat":43.27997,"lon":5.41662,"is_reserved":false,"is_disabled":false,"rental_uris":{"android":"levelo://app?vid=d65d931e-09c6-43bf-b88d-6bd16c19bf54","ios":"levelo://app?vid=d65d931e-09c6-43bf-b88d-6bd16c19bf54"},"vehicle_type_id":"4","last_reported":1729897793,"current_range_meters":24000,"station_id":"ce4bho12rcd13ifvqh1g","pricing_plan_id":"cebpf4jnsgd1na2vs0mg"},{"bike_id":"efb5599a-a16c-409d-816a-e16bb979a087","system_id":"levelo_inurba_marseille","lat":43.295804,"lon":5.375299,"is_reserved":false,"is_disabled":false,"rental_uris":{"android":"levelo://app?vid=efb5599a-a16c-409d-816a-e16bb979a087","ios":"levelo://app?vid=efb5599a-a16c-409d-816a-e16bb979a087"},"vehicle_type_id":"4","last_reported":1729897793,"current_range_meters":24400,"station_id":"","pricing_plan_id":"cebpf4jnsgd1na2vs0mg"},{"bike_id":"97bd6ba0-ba29-4ea1-9877-c1f7cfba9e3a","system_id":"levelo_inurba_marseille","lat":43.3136,"lon":5.38507,"is_reserved":false,"is_disabled":false,"rental_uris":{"android":"levelo://app?vid=97bd6ba0-ba29-4ea1-9877-c1f7cfba9e3a","ios":"levelo://app?vid=97bd6ba0-ba29-4ea1-9877-c1f7cfba9e3a"},"vehicle_type_id":"4","last_reported":1729897793,"current_range_meters":7200,"station_id":"ce4bgt92rcd13ifvqcf0","pricing_plan_id":"cebpf4jnsgd1na2vs0mg"},{"bike_id":"fe843b57-dcca-4cb9-9d71-f358a66a0543","system_id":"levelo_inurba_marseille","lat":43.31354,"lon":5.38495,"is_reserved":false,"is_disabled":false,"rental_uris":{"android":"levelo://app?vid=fe843b57-dcca-4cb9-9d71-f358a66a0543","ios":"levelo://app?vid=fe843b57-dcca-4cb9-9d71-f358a66a0543"},"vehicle_type_id":"4","last_reported":1729897793,"current_range_meters":12400,"station_id":"ce4bgt92rcd13ifvqcf0","pricing_plan_id":"cebpf4jnsgd1na2vs0mg"},{"bike_id":"27d748bc-f052-4b22-bdad-8c6f4400f23b","system_id":"levelo_inurba_marseille","lat":43.32657,"lon":5.40992,"is_reserved":false,"is_disabled":false,"rental_uris":{"android":"levelo://app?vid=27d748bc-f052-4b22-bdad-8c6f4400f23b","ios":"levelo://app?vid=27d748bc-f052-4b22-bdad-8c6f4400f23b"},"vehicle_type_id":"4","last_reported":1729897793,"current_range_meters":19600,"station_id":"ce4bhpp2rcd13ifvqhgg","pricing_plan_id":"cebpf4jnsgd1na2vs0mg"},{"bike_id":"c91daf0a-3d75-41d8-b5ff-e67d3ec66643","system_id":"levelo_inurba_marseille","lat":43.30258,"lon":5.37716,"is_reserved":false,"is_disabled":false,"rental_uris":{"android":"levelo://app?vid=c91daf0a-3d75-41d8-b5ff-e67d3ec66643","ios":"levelo://app?vid=c91daf0a-3d75-41d8-b5ff-e67d3ec66643"},"vehicle_type_id":"4","last_reported":1729897793,"current_range_meters":32000,"station_id":"ce4bguh2rcd13ifvqcj0","pricing_plan_id":"cebpf4jnsgd1na2vs0mg"},{"bike_id":"1feeeea7-6a24-4611-b050-cf179d411849","system_id":"levelo_inurba_marseille","lat":43.2987,"lon":5.39733,"is_reserved":false,"is_disabled":false,"rental_uris":{"android":"levelo://app?vid=1feeeea7-6a24-4611-b050-cf179d411849","ios":"levelo://app?vid=1feeeea7-6a24-4611-b050-cf179d411849"},"vehicle_type_id":"4","last_reported":1729897793,"current_range_meters":38800,"station_id":"ce4bh0h2rcd13ifvqd50","pricing_plan_id":"cebpf4jnsgd1na2vs0mg"},{"bike_id":"138e7038-a459-4d3e-834c-67a6fa6d396f","system_id":"levelo_inurba_marseille","lat":43.27944,"lon":5.41037,"is_reserved":false,"is_disabled":false,"rental_uris":{"android":"levelo://app?vid=138e7038-a459-4d3e-834c-67a6fa6d396f","ios":"levelo://app?vid=138e7038-a459-4d3e-834c-67a6fa6d396f"},"vehicle_type_id":"4","last_reported":1729897793,"current_range_meters":12800,"station_id":"ce4bhnp2rcd13ifvqh0g","pricing_plan_id":"cebpf4jnsgd1na2vs0mg"},{"bike_id":"5b344818-85af-4463-b4b9-76115e480045","system_id":"levelo_inurba_marseille","lat":43.29045,"lon":5.39953,"is_reserved":false,"is_disabled":false,"rental_uris":{"android":"levelo://app?vid=5b344818-85af-4463-b4b9-76115e480045","ios":"levelo://app?vid=5b344818-85af-4463-b4b9-76115e480045"},"vehicle_type_id":"4","last_reported":1729897793,"current_range_meters":37600,"station_id":"ce4bh392rcd13ifvqdm0","pricing_plan_id":"cebpf4jnsgd1na2vs0mg"},{"bike_id":"1f64965d-b6d0-4db2-9f67-5e1e698e47fb","system_id":"levelo_inurba_marseille","lat":43.27072,"lon":5.42279,"is_reserved":false,"is_disabled":false,"rental_uris":{"android":"levelo://app?vid=1f64965d-b6d0-4db2-9f67-5e1e698e47fb","ios":"levelo://app?vid=1f64965d-b6d0-4db2-9f67-5e1e698e47fb"},"vehicle_type_id":"4","last_reported":1729897793,"current_range_meters":34000,"station_id":"ce4bhk92rcd13ifvqgb0","pricing_plan_id":"cebpf4jnsgd1na2vs0mg"},{"bike_id":"7fe8d0d9-0e13-448f-8f43-ebff0f378a29","system_id":"levelo_inurba_marseille","lat":43.2572,"lon":5.41116,"is_reserved":false,"is_disabled":false,"rental_uris":{"android":"levelo://app?vid=7fe8d0d9-0e13-448f-8f43-ebff0f378a29","ios":"levelo://app?vid=7fe8d0d9-0e13-448f-8f43-ebff0f378a29"},"vehicle_type_id":"4","last_reported":1729897793,"current_range_meters":3600,"station_id":"ce4bhkp2rcd13ifvqgd0","pricing_plan_id":"cebpf4jnsgd1na2vs0mg"},{"bike_id":"4ff0e20e-4bbb-4a55-bee2-9a19402933cb","system_id":"levelo_inurba_marseille","lat":43.30925,"lon":5.40142,"is_reserved":false,"is_disabled":false,"rental_uris":{"android":"levelo://app?vid=4ff0e20e-4bbb-4a55-bee2-9a19402933cb","ios":"levelo://app?vid=4ff0e20e-4bbb-4a55-bee2-9a19402933cb"},"vehicle_type_id":"4","last_reported":1729897793,"current_range_meters":38400,"station_id":"ce4bgvp2rcd13ifvqct0","pricing_plan_id":"cebpf4jnsgd1na2vs0mg"},{"bike_id":"03415616-291c-4269-b40b-81bf3c5c1a95","system_id":"levelo_inurba_marseille","lat":43.28943,"lon":5.36414,"is_reserved":false,"is_disabled":false,"rental_uris":{"android":"levelo://app?vid=03415616-291c-4269-b40b-81bf3c5c1a95","ios":"levelo://app?vid=03415616-291c-4269-b40b-81bf3c5c1a95"},"vehicle_type_id":"4","last_reported":1729897793,"current_range_meters":38000,"station_id":"ce4bhc92rcd13ifvqetg","pricing_plan_id":"cebpf4jnsgd1na2vs0mg"},{"bike_id":"fcaa4bc5-f7eb-4aba-93c4-21959f6cf160","system_id":"levelo_inurba_marseille","lat":43.23157,"lon":5.43704,"is_reserved":false,"is_disabled":false,"rental_uris":{"android":"levelo://app?vid=fcaa4bc5-f7eb-4aba-93c4-21959f6cf160","ios":"levelo://app?vid=fcaa4bc5-f7eb-4aba-93c4-21959f6cf160"},"vehicle_type_id":"4","last_reported":1729897793,"current_range_meters":38000,"station_id":"ce4bhmp2rcd13ifvqgog","pricing_plan_id":"cebpf4jnsgd1na2vs0mg"},{"bike_id":"8365043f-fc93-45bb-aa6e-8779cf363ca1","system_id":"levelo_inurba_marseille","lat":43.30886,"lon":5.37192,"is_reserved":false,"is_disabled":false,"rental_uris":{"android":"levelo://app?vid=8365043f-fc93-45bb-aa6e-8779cf363ca1","ios":"levelo://app?vid=8365043f-fc93-45bb-aa6e-8779cf363ca1"},"vehicle_type_id":"4","last_reported":1729897793,"current_range_meters":36000,"station_id":"ce4bguh2rcd13ifvqckg","pricing_plan_id":"cebpf4jnsgd1na2vs0mg"},{"bike_id":"db97a606-2f59-41c8-8cd6-75aba7fa29a7","system_id":"levelo_inurba_marseille","lat":43.24808,"lon":5.37459,"is_reserved":false,"is_disabled":false,"rental_uris":{"android":"levelo://app?vid=db97a606-2f59-41c8-8cd6-75aba7fa29a7","ios":"levelo://app?vid=db97a606-2f59-41c8-8cd6-75aba7fa29a7"},"vehicle_type_id":"4","last_reported":1729897793,"current_range_meters":39200,"station_id":"ce4bhgh2rcd13ifvqfb0","pricing_plan_id":"cebpf4jnsgd1na2vs0mg"},{"bike_id":"60528b55-e747-4a9e-8ca0-272ea3a19644","system_id":"levelo_inurba_marseille","lat":43.27836,"lon":5.39197,"is_reserved":false,"is_disabled":false,"rental_uris":{"android":"levelo://app?vid=60528b55-e747-4a9e-8ca0-272ea3a19644","ios":"levelo://app?vid=60528b55-e747-4a9e-8ca0-272ea3a19644"},"vehicle_type_id":"4","last_reported":1729897793,"current_range_meters":38800,"station_id":"ce4bhjp2rcd13ifvqga0","pricing_plan_id":"cebpf4jnsgd1na2vs0mg"},{"bike_id":"14356211-c9f8-48c6-9293-b84598a3929e","system_id":"levelo_inurba_marseille","lat":43.28725,"lon":5.36089,"is_reserved":false,"is_disabled":false,"rental_uris":{"android":"levelo://app?vid=14356211-c9f8-48c6-9293-b84598a3929e","ios":"levelo://app?vid=14356211-c9f8-48c6-9293-b84598a3929e"},"vehicle_type_id":"4","last_reported":1729897793,"current_range_meters":8800,"station_id":"cki0cbj6b192h4jlfktg","pricing_plan_id":"cebpf4jnsgd1na2vs0mg"},{"bike_id":"960c25fd-a513-4486-9205-28e40f919a67","system_id":"levelo_inurba_marseille","lat":43.28445,"lon":5.39186,"is_reserved":false,"is_disabled":false,"rental_uris":{"android":"levelo://app?vid=960c25fd-a513-4486-9205-28e40f919a67","ios":"levelo://app?vid=960c25fd-a513-4486-9205-28e40f919a67"},"vehicle_type_id":"4","last_reported":1729897793,"current_range_meters":35200,"station_id":"ce4bhoh2rcd13ifvqh5g","pricing_plan_id":"cebpf4jnsgd1na2vs0mg"},{"bike_id":"56aee3e7-2f4d-429e-99fe-f17a6e2dcedc","system_id":"levelo_inurba_marseille","lat":43.29533,"lon":5.3853,"is_reserved":false,"is_disabled":false,"rental_uris":{"android":"levelo://app?vid=56aee3e7-2f4d-429e-99fe-f17a6e2dcedc","ios":"levelo://app?vid=56aee3e7-2f4d-429e-99fe-f17a6e2dcedc"},"vehicle_type_id":"4","last_reported":1729897793,"current_range_meters":32000,"station_id":"ce4bgih2rcd13ifvqba0","pricing_plan_id":"cebpf4jnsgd1na2vs0mg"},{"bike_id":"01c3b481-c512-4a45-84bd-632954335cfe","system_id":"levelo_inurba_marseille","lat":43.29023,"lon":5.38641,"is_reserved":false,"is_disabled":false,"rental_uris":{"android":"levelo://app?vid=01c3b481-c512-4a45-84bd-632954335cfe","ios":"levelo://app?vid=01c3b481-c512-4a45-84bd-632954335cfe"},"vehicle_type_id":"4","last_reported":1729897793,"current_range_meters":38800,"station_id":"ce4bh4p2rcd13ifvqe0g","pricing_plan_id":"cebpf4jnsgd1na2vs0mg"},{"bike_id":"dcb151fa-16b9-4c95-9f74-959a74d5451a","system_id":"levelo_inurba_marseille","lat":43.29012,"lon":5.35615,"is_reserved":false,"is_disabled":false,"rental_uris":{"android":"levelo://app?vid=dcb151fa-16b9-4c95-9f74-959a74d5451a","ios":"levelo://app?vid=dcb151fa-16b9-4c95-9f74-959a74d5451a"},"vehicle_type_id":"4","last_reported":1729897793,"current_range_meters":37600,"station_id":"ce4bhb92rcd13ifvqen0","pricing_plan_id":"cebpf4jnsgd1na2vs0mg"},{"bike_id":"8f8f1fde-6360-4477-9a30-9c9a1fe34deb","system_id":"levelo_inurba_marseille","lat":43.27417,"lon":5.39424,"is_reserved":false,"is_disabled":false,"rental_uris":{"android":"levelo://app?vid=8f8f1fde-6360-4477-9a30-9c9a1fe34deb","ios":"levelo://app?vid=8f8f1fde-6360-4477-9a30-9c9a1fe34deb"},"vehicle_type_id":"4","last_reported":1729897793,"current_range_meters":38000,"station_id":"ce4bhdp2rcd13ifvqf20","pricing_plan_id":"cebpf4jnsgd1na2vs0mg"},{"bike_id":"956abcec-9a79-4c6b-87de-517e6228b14b","system_id":"levelo_inurba_marseille","lat":43.29707,"lon":5.36614,"is_reserved":false,"is_disabled":false,"rental_uris":{"android":"levelo://app?vid=956abcec-9a79-4c6b-87de-517e6228b14b","ios":"levelo://app?vid=956abcec-9a79-4c6b-87de-517e6228b14b"},"vehicle_type_id":"4","last_reported":1729897793,"current_range_meters":24400,"station_id":"ce4bgn12rcd13ifvqbt0","pricing_plan_id":"cebpf4jnsgd1na2vs0mg"},{"bike_id":"3d37259b-924f-424a-905a-06c4451f5106","system_id":"levelo_inurba_marseille","lat":43.24075,"lon":5.3776,"is_reserved":false,"is_disabled":false,"rental_uris":{"android":"levelo://app?vid=3d37259b-924f-424a-905a-06c4451f5106","ios":"levelo://app?vid=3d37259b-924f-424a-905a-06c4451f5106"},"vehicle_type_id":"4","last_reported":1729897793,"current_range_meters":32000,"station_id":"ce4bhnp2rcd13ifvqgvg","pricing_plan_id":"cebpf4jnsgd1na2vs0mg"},{"bike_id":"8753ab59-4dcf-46ec-81b7-b8caa2c49b97","system_id":"levelo_inurba_marseille","lat":43.29571,"lon":5.3997,"is_reserved":false,"is_disabled":false,"rental_uris":{"android":"levelo://app?vid=8753ab59-4dcf-46ec-81b7-b8caa2c49b97","ios":"levelo://app?vid=8753ab59-4dcf-46ec-81b7-b8caa2c49b97"},"vehicle_type_id":"4","last_reported":1729897793,"current_range_meters":34000,"station_id":"ce4bh312rcd13ifvqdj0","pricing_plan_id":"cebpf4jnsgd1na2vs0mg"},{"bike_id":"c825a735-65fe-44b0-9387-58137a8bc8ed","system_id":"levelo_inurba_marseille","lat":43.24386,"lon":5.37054,"is_reserved":false,"is_disabled":false,"rental_uris":{"android":"levelo://app?vid=c825a735-65fe-44b0-9387-58137a8bc8ed","ios":"levelo://app?vid=c825a735-65fe-44b0-9387-58137a8bc8ed"},"vehicle_type_id":"4","last_reported":1729897793,"current_range_meters":30400,"station_id":"ce4bhhh2rcd13ifvqfk0","pricing_plan_id":"cebpf4jnsgd1na2vs0mg"},{"bike_id":"e8773bbe-ebc0-44f7-9761-7b78fb3e44f1","system_id":"levelo_inurba_marseille","lat":43.24546,"lon":5.39532,"is_reserved":false,"is_disabled":false,"rental_uris":{"android":"levelo://app?vid=e8773bbe-ebc0-44f7-9761-7b78fb3e44f1","ios":"levelo://app?vid=e8773bbe-ebc0-44f7-9761-7b78fb3e44f1"},"vehicle_type_id":"4","last_reported":1729897793,"current_range_meters":7200,"station_id":"ce4bhlp2rcd13ifvqgjg","pricing_plan_id":"cebpf4jnsgd1na2vs0mg"},{"bike_id":"b600f261-62f4-4f4a-9d9a-7c2293a99943","system_id":"levelo_inurba_marseille","lat":43.29532,"lon":5.38537,"is_reserved":false,"is_disabled":false,"rental_uris":{"android":"levelo://app?vid=b600f261-62f4-4f4a-9d9a-7c2293a99943","ios":"levelo://app?vid=b600f261-62f4-4f4a-9d9a-7c2293a99943"},"vehicle_type_id":"4","last_reported":1729897793,"current_range_meters":25200,"station_id":"ce4bgih2rcd13ifvqba0","pricing_plan_id":"cebpf4jnsgd1na2vs0mg"},{"bike_id":"fa30867d-31fd-449d-bf86-f380d61b29ca","system_id":"levelo_inurba_marseille","lat":43.284302,"lon":5.349934,"is_reserved":false,"is_disabled":false,"rental_uris":{"android":"levelo://app?vid=fa30867d-31fd-449d-bf86-f380d61b29ca","ios":"levelo://app?vid=fa30867d-31fd-449d-bf86-f380d61b29ca"},"vehicle_type_id":"4","last_reported":1729897793,"current_range_meters":38400,"station_id":"ce4bhbh2rcd13ifvqepg","pricing_plan_id":"cebpf4jnsgd1na2vs0mg"},{"bike_id":"b642362b-af87-43b2-abdf-f69eb531702d","system_id":"levelo_inurba_marseille","lat":43.27949,"lon":5.41044,"is_reserved":false,"is_disabled":false,"rental_uris":{"android":"levelo://app?vid=b642362b-af87-43b2-abdf-f69eb531702d","ios":"levelo://app?vid=b642362b-af87-43b2-abdf-f69eb531702d"},"vehicle_type_id":"4","last_reported":1729897793,"current_range_meters":14400,"station_id":"ce4bhnp2rcd13ifvqh0g","pricing_plan_id":"cebpf4jnsgd1na2vs0mg"},{"bike_id":"20bc8438-3663-4554-bffb-2e1b29d847af","system_id":"levelo_inurba_marseille","lat":43.22937,"lon":5.35381,"is_reserved":false,"is_disabled":false,"rental_uris":{"android":"levelo://app?vid=20bc8438-3663-4554-bffb-2e1b29d847af","ios":"levelo://app?vid=20bc8438-3663-4554-bffb-2e1b29d847af"},"vehicle_type_id":"4","last_reported":1729897793,"current_range_meters":16400,"station_id":"cpo3532slgdg3j2ikp40","pricing_plan_id":"cebpf4jnsgd1na2vs0mg"},{"bike_id":"2fc86fc5-142f-4299-9dd2-b641c436b5ba","system_id":"levelo_inurba_marseille","lat":43.29705,"lon":5.36608,"is_reserved":false,"is_disabled":false,"rental_uris":{"android":"levelo://app?vid=2fc86fc5-142f-4299-9dd2-b641c436b5ba","ios":"levelo://app?vid=2fc86fc5-142f-4299-9dd2-b641c436b5ba"},"vehicle_type_id":"4","last_reported":1729897793,"current_range_meters":28400,"station_id":"ce4bgn12rcd13ifvqbt0","pricing_plan_id":"cebpf4jnsgd1na2vs0mg"},{"bike_id":"b144efec-2b8a-42bf-9718-41b8dcc52cac","system_id":"levelo_inurba_marseille","lat":43.28719,"lon":5.36095,"is_reserved":false,"is_disabled":false,"rental_uris":{"android":"levelo://app?vid=b144efec-2b8a-42bf-9718-41b8dcc52cac","ios":"levelo://app?vid=b144efec-2b8a-42bf-9718-41b8dcc52cac"},"vehicle_type_id":"4","last_reported":1729897793,"current_range_meters":17200,"station_id":"cki0cbj6b192h4jlfktg","pricing_plan_id":"cebpf4jnsgd1na2vs0mg"},{"bike_id":"7388da00-6706-4a4a-aeed-4274e1ea983b","system_id":"levelo_inurba_marseille","lat":43.2955,"lon":5.38532,"is_reserved":false,"is_disabled":false,"rental_uris":{"android":"levelo://app?vid=7388da00-6706-4a4a-aeed-4274e1ea983b","ios":"levelo://app?vid=7388da00-6706-4a4a-aeed-4274e1ea983b"},"vehicle_type_id":"4","last_reported":1729897793,"current_range_meters":16800,"station_id":"ce4bgih2rcd13ifvqba0","pricing_plan_id":"cebpf4jnsgd1na2vs0mg"},{"bike_id":"83784d6d-2616-445b-96e3-354d299b39b8","system_id":"levelo_inurba_marseille","lat":43.32292,"lon":5.3827,"is_reserved":false,"is_disabled":false,"rental_uris":{"android":"levelo://app?vid=83784d6d-2616-445b-96e3-354d299b39b8","ios":"levelo://app?vid=83784d6d-2616-445b-96e3-354d299b39b8"},"vehicle_type_id":"4","last_reported":1729897793,"current_range_meters":38400,"station_id":"ce4bhr12rcd13ifvqhqg","pricing_plan_id":"cebpf4jnsgd1na2vs0mg"},{"bike_id":"9d2c0da1-d6b0-4492-9f2f-16b50b2c988d","system_id":"levelo_inurba_marseille","lat":43.29917,"lon":5.37467,"is_reserved":false,"is_disabled":false,"rental_uris":{"android":"levelo://app?vid=9d2c0da1-d6b0-4492-9f2f-16b50b2c988d","ios":"levelo://app?vid=9d2c0da1-d6b0-4492-9f2f-16b50b2c988d"},"vehicle_type_id":"4","last_reported":1729897793,"current_range_meters":27600,"station_id":"ce4bgjh2rcd13ifvqbg0","pricing_plan_id":"cebpf4jnsgd1na2vs0mg"},{"bike_id":"4be0f958-17ec-42fb-bb18-93cd9e803fc0","system_id":"levelo_inurba_marseille","lat":43.325327,"lon":5.41437,"is_reserved":false,"is_disabled":false,"rental_uris":{"android":"levelo://app?vid=4be0f958-17ec-42fb-bb18-93cd9e803fc0","ios":"levelo://app?vid=4be0f958-17ec-42fb-bb18-93cd9e803fc0"},"vehicle_type_id":"4","last_reported":1729897793,"current_range_meters":24800,"station_id":"ce4bhq12rcd13ifvqhhg","pricing_plan_id":"cebpf4jnsgd1na2vs0mg"},{"bike_id":"491314e3-790a-4896-84f8-1da9beb6ed7b","system_id":"levelo_inurba_marseille","lat":43.28001,"lon":5.40016,"is_reserved":false,"is_disabled":false,"rental_uris":{"android":"levelo://app?vid=491314e3-790a-4896-84f8-1da9beb6ed7b","ios":"levelo://app?vid=491314e3-790a-4896-84f8-1da9beb6ed7b"},"vehicle_type_id":"4","last_reported":1729897793,"current_range_meters":36800,"station_id":"ce4bho92rcd13ifvqh4g","pricing_plan_id":"cebpf4jnsgd1na2vs0mg"},{"bike_id":"fe3ebf58-7db9-49ba-83f5-5920ac1ccac5","system_id":"levelo_inurba_marseille","lat":43.24807,"lon":5.37461,"is_reserved":false,"is_disabled":false,"rental_uris":{"android":"levelo://app?vid=fe3ebf58-7db9-49ba-83f5-5920ac1ccac5","ios":"levelo://app?vid=fe3ebf58-7db9-49ba-83f5-5920ac1ccac5"},"vehicle_type_id":"4","last_reported":1729897793,"current_range_meters":38800,"station_id":"ce4bhgh2rcd13ifvqfb0","pricing_plan_id":"cebpf4jnsgd1na2vs0mg"},{"bike_id":"92fc1f17-b5f0-40a9-81f2-a7aca0aede63","system_id":"levelo_inurba_marseille","lat":43.30896,"lon":5.391617,"is_reserved":false,"is_disabled":false,"rental_uris":{"android":"levelo://app?vid=92fc1f17-b5f0-40a9-81f2-a7aca0aede63","ios":"levelo://app?vid=92fc1f17-b5f0-40a9-81f2-a7aca0aede63"},"vehicle_type_id":"4","last_reported":1729897793,"current_range_meters":8800,"station_id":"ce4bgup2rcd13ifvqco0","pricing_plan_id":"cebpf4jnsgd1na2vs0mg"},{"bike_id":"ec544e73-f03c-418a-b19e-58778fa8a67d","system_id":"levelo_inurba_marseille","lat":43.23189,"lon":5.3555,"is_reserved":false,"is_disabled":false,"rental_uris":{"android":"levelo://app?vid=ec544e73-f03c-418a-b19e-58778fa8a67d","ios":"levelo://app?vid=ec544e73-f03c-418a-b19e-58778fa8a67d"},"vehicle_type_id":"4","last_reported":1729897793,"current_range_meters":39200,"station_id":"ce4bhu92rcd13ifvqi70","pricing_plan_id":"cebpf4jnsgd1na2vs0mg"},{"bike_id":"90ead709-469b-40a3-8018-286406144fae","system_id":"levelo_inurba_marseille","lat":43.30926,"lon":5.40139,"is_reserved":false,"is_disabled":false,"rental_uris":{"android":"levelo://app?vid=90ead709-469b-40a3-8018-286406144fae","ios":"levelo://app?vid=90ead709-469b-40a3-8018-286406144fae"},"vehicle_type_id":"4","last_reported":1729897793,"current_range_meters":19600,"station_id":"ce4bgvp2rcd13ifvqct0","pricing_plan_id":"cebpf4jnsgd1na2vs0mg"},{"bike_id":"4fce8218-6bfc-440b-b108-5cf1b5e5e58a","system_id":"levelo_inurba_marseille","lat":43.23192,"lon":5.35552,"is_reserved":false,"is_disabled":false,"rental_uris":{"android":"levelo://app?vid=4fce8218-6bfc-440b-b108-5cf1b5e5e58a","ios":"levelo://app?vid=4fce8218-6bfc-440b-b108-5cf1b5e5e58a"},"vehicle_type_id":"4","last_reported":1729897793,"current_range_meters":30800,"station_id":"ce4bhu92rcd13ifvqi70","pricing_plan_id":"cebpf4jnsgd1na2vs0mg"},{"bike_id":"87f3f4a4-767b-4b2c-b553-e9468bfd1e0b","system_id":"levelo_inurba_marseille","lat":43.31759,"lon":5.39014,"is_reserved":false,"is_disabled":false,"rental_uris":{"android":"levelo://app?vid=87f3f4a4-767b-4b2c-b553-e9468bfd1e0b","ios":"levelo://app?vid=87f3f4a4-767b-4b2c-b553-e9468bfd1e0b"},"vehicle_type_id":"4","last_reported":1729897793,"current_range_meters":27600,"station_id":"ce4bhqp2rcd13ifvqhng","pricing_plan_id":"cebpf4jnsgd1na2vs0mg"},{"bike_id":"636ca202-50d8-4d9e-9750-ef9faaf66f31","system_id":"levelo_inurba_marseille","lat":43.29541,"lon":5.38542,"is_reserved":false,"is_disabled":false,"rental_uris":{"android":"levelo://app?vid=636ca202-50d8-4d9e-9750-ef9faaf66f31","ios":"levelo://app?vid=636ca202-50d8-4d9e-9750-ef9faaf66f31"},"vehicle_type_id":"4","last_reported":1729897793,"current_range_meters":19200,"station_id":"ce4bgih2rcd13ifvqba0","pricing_plan_id":"cebpf4jnsgd1na2vs0mg"},