{"last_updated":1744611320,"ttl":60,"version":"2.2","data":{"bikes":[{"bike_id":"a2ccfbf7-8a0b-49de-8499-18c843f628a5","system_id":"levelo_inurba_marseille","lat":43.231891,"lon":5.355559,"is_reserved":false,"is_disabled":false,"rental_uris":{"android":"levelo://app?vid=a2ccfbf7-8a0b-49de-8499-18c843f628a5","ios":"levelo://app?vid=a2ccfbf7-8a0b-49de-8499-18c843f628a5"},"vehicle_type_id":"4","last_reported":1744611320,"current_range_meters":3200,"station_id":"ce4bhu92rcd13ifvqi70","pricing_plan_id":"cebpf4jnsgd1na2vs0mg"},{"bike_id":"279cdc5b-c6cc-4363-bd4b-e69ebd94d44e","system_id":"levelo_inurba_marseille","lat":43.284915,"lon":5.385538,"is_reserved":false,"is_disabled":false,"rental_uris":{"android":"levelo://app?vid=279cdc5b-c6cc-4363-bd4b-e69ebd94d44e","ios":"levelo://app?vid=279cdc5b-c6cc-4363-bd4b-e69ebd94d44e"},"vehicle_type_id":"4","last_reported":1744611320,"current_range_meters":3200,"station_id":"ce4bh8p2rcd13ifvqeb0","pricing_plan_id":"cebpf4jnsgd1na2vs0mg"},{"bike_id":"d53356ed-34e7-4ce0-8d94-e073954cdd85","system_id":"levelo_inurba_marseille","lat":43.27031,"lon":5.40273,"is_reserved":false,"is_disabled":true,"rental_uris":{"android":"levelo://app?vid=d53356ed-34e7-4ce0-8d94-e073954cdd85","ios":"levelo://app?vid=d53356ed-34e7-4ce0-8d94-e073954cdd85"},"vehicle_type_id":"4","last_reported":1744611320,"current_range_meters":3200,"station_id":"ce4bhk92rcd13ifvqgc0","pricing_plan_id":"cebpf4jnsgd1na2vs0mg"},{"bike_id":"11e8aa7d-be07-4d4e-9d56-522c2ab67459","system_id":"levelo_inurba_marseille","lat":43.32108,"lon":5.40843,"is_reserved":false,"is_disabled":false,"rental_uris":{"android":"levelo://app?vid=11e8aa7d-be07-4d4e-9d56-522c2ab67459","ios":"levelo://app?vid=11e8aa7d-be07-4d4e-9d56-522c2ab67459"},"vehicle_type_id":"4","last_reported":1744611320,"current_range_meters":3200,"station_id":"","pricing_plan_id":"cebpf4jnsgd1na2vs0mg"},{"bike_id":"98d6474f-13ce-4315-9978-63da88a1218c","system_id":"levelo_inurba_marseille","lat":43.29205,"lon":5.40162,"is_reserved":false,"is_disabled":false,"rental_uris":{"android":"levelo://app?vid=98d6474f-13ce-4315-9978-63da88a1218c","ios":"levelo://app?vid=98d6474f-13ce-4315-9978-63da88a1218c"},"vehicle_type_id":"4","last_reported":1744611320,"current_range_meters":3200,"station_id":"","pricing_plan_id":"cebpf4jnsgd1na2vs0mg"},{"bike_id":"56f8c822-7b6e-43c3-9c71-c4c269804805","system_id":"levelo_inurba_marseille","lat":43.23151,"lon":5.43723,"is_reserved":false,"is_disabled":false,"rental_uris":{"android":"levelo://app?vid=56f8c822-7b6e-43c3-9c71-c4c269804805","ios":"levelo://app?vid=56f8c822-7b6e-43c3-9c71-c4c269804805"},"vehicle_type_id":"4","last_reported":1744611320,"current_range_meters":3200,"station_id":"ce4bhmp2rcd13ifvqgog","pricing_plan_id":"cebpf4jnsgd1na2vs0mg"},{"bike_id":"ef291804-1477-432e-b153-82ea15725418","system_id":"levelo_inurba_marseille","lat":43.33742,"lon":5.37454,"is_reserved":false,"is_disabled":false,"rental_uris":{"android":"levelo://app?vid=ef291804-1477-432e-b153-82ea15725418","ios":"levelo://app?vid=ef291804-1477-432e-b153-82ea15725418"},"vehicle_type_id":"4","last_reported":1744611320,"current_range_meters":3600,"station_id":"","pricing_plan_id":"cebpf4jnsgd1na2vs0mg"},{"bike_id":"1130922e-9ccc-463b-9207-aadecd794edb","system_id":"levelo_inurba_marseille","lat":43.32014,"lon":5.38158,"is_reserved":false,"is_disabled":true,"rental_uris":{"android":"levelo://app?vid=1130922e-9ccc-463b-9207-aadecd794edb","ios":"levelo://app?vid=1130922e-9ccc-463b-9207-aadecd794edb"},"vehicle_type_id":"4","last_reported":1744611320,"current_range_meters":3600,"station_id":"ce4bhr12rcd13ifvqhpg","pricing_plan_id":"cebpf4jnsgd1na2vs0mg"},{"bike_id":"76a6b777-3529-4c69-80b7-2dd31091cf96","system_id":"levelo_inurba_marseille","lat":43.29561,"lon":5.37526,"is_reserved":false,"is_disabled":false,"rental_uris":{"android":"levelo://app?vid=76a6b777-3529-4c69-80b7-2dd31091cf96","ios":"levelo://app?vid=76a6b777-3529-4c69-80b7-2dd31091cf96"},"vehicle_type_id":"4","last_reported":1744611320,"current_range_meters":3600,"station_id":"ce4bgh92rcd13ifvqb50","pricing_plan_id":"cebpf4jnsgd1na2vs0mg"},{"bike_id":"a83832b0-a287-471f-946e-e2e43eeb32a6","system_id":"levelo_inurba_marseille","lat":43.30196,"lon":5.38093,"is_reserved":false,"is_disabled":false,"rental_uris":{"android":"levelo://app?vid=a83832b0-a287-471f-946e-e2e43eeb32a6","ios":"levelo://app?vid=a83832b0-a287-471f-946e-e2e43eeb32a6"},"vehicle_type_id":"4","last_reported":1744611320,"current_range_meters":4000,"station_id":"","pricing_plan_id":"cebpf4jnsgd1na2vs0mg"},{"bike_id":"c8907ab1-08e3-4e34-b765-678ded4dfd20","system_id":"levelo_inurba_marseille","lat":43.26213,"lon":5.4047,"is_reserved":false,"is_disabled":false,"rental_uris":{"android":"levelo://app?vid=c8907ab1-08e3-4e34-b765-678ded4dfd20","ios":"levelo://app?vid=c8907ab1-08e3-4e34-b765-678ded4dfd20"},"vehicle_type_id":"4","last_reported":1744611320,"current_range_meters":4000,"station_id":"ce4bhmh2rcd13ifvqgmg","pricing_plan_id":"cebpf4jnsgd1na2vs0mg"},{"bike_id":"393e976b-b240-4c43-864d-f65832cb4ea3","system_id":"levelo_inurba_marseille","lat":43.30149,"lon":5.38094,"is_reserved":false,"is_disabled":false,"rental_uris":{"android":"levelo://app?vid=393e976b-b240-4c43-864d-f65832cb4ea3","ios":"levelo://app?vid=393e976b-b240-4c43-864d-f65832cb4ea3"},"vehicle_type_id":"4","last_reported":1744611320,"current_range_meters":4000,"station_id":"ce4bgjp2rcd13ifvqbh0","pricing_plan_id":"cebpf4jnsgd1na2vs0mg"},{"bike_id":"d8f603cd-3b83-4148-bab8-3a185ad2a59f","system_id":"levelo_inurba_marseille","lat":43.32416,"lon":5.3913,"is_reserved":false,"is_disabled":true,"rental_uris":{"android":"levelo://app?vid=d8f603cd-3b83-4148-bab8-3a185ad2a59f","ios":"levelo://app?vid=d8f603cd-3b83-4148-bab8-3a185ad2a59f"},"vehicle_type_id":"4","last_reported":1744611320,"current_range_meters":4400,"station_id":"","pricing_plan_id":"cebpf4jnsgd1na2vs0mg"},{"bike_id":"4a0973b0-92a0-41e8-9b0d-a99e944bafe0","system_id":"levelo_inurba_marseille","lat":43.34476,"lon":5.4128,"is_reserved":false,"is_disabled":false,"rental_uris":{"android":"levelo://app?vid=4a0973b0-92a0-41e8-9b0d-a99e944bafe0","ios":"levelo://app?vid=4a0973b0-92a0-41e8-9b0d-a99e944bafe0"},"vehicle_type_id":"4","last_reported":1744611320,"current_range_meters":4400,"station_id":"","pricing_plan_id":"cebpf4jnsgd1na2vs0mg"},{"bike_id":"5b77a833-8185-45c2-9fe3-07eb40df54ca","system_id":"levelo_inurba_marseille","lat":43.33995,"lon":5.38057,"is_reserved":false,"is_disabled":false,"rental_uris":{"android":"levelo://app?vid=5b77a833-8185-45c2-9fe3-07eb40df54ca","ios":"levelo://app?vid=5b77a833-8185-45c2-9fe3-07eb40df54ca"},"vehicle_type_id":"4","last_reported":1744611320,"current_range_meters":4400,"station_id":"","pricing_plan_id":"cebpf4jnsgd1na2vs0mg"},{"bike_id":"72084d32-f4df-44fa-bf57-eccb5f194a83","system_id":"levelo_inurba_marseille","lat":43.2605,"lon":5.41094,"is_reserved":false,"is_disabled":true,"rental_uris":{"android":"levelo://app?vid=72084d32-f4df-44fa-bf57-eccb5f194a83","ios":"levelo://app?vid=72084d32-f4df-44fa-bf57-eccb5f194a83"},"vehicle_type_id":"4","last_reported":1744611320,"current_range_meters":4800,"station_id":"","pricing_plan_id":"cebpf4jnsgd1na2vs0mg"},{"bike_id":"6bfc4779-3d5c-441c-8e37-70bc904878da","system_id":"levelo_inurba_marseille","lat":43.284607,"lon":5.358905,"is_reserved":false,"is_disabled":false,"rental_uris":{"android":"levelo://app?vid=6bfc4779-3d5c-441c-8e37-70bc904878da","ios":"levelo://app?vid=6bfc4779-3d5c-441c-8e37-70bc904878da"},"vehicle_type_id":"4","last_reported":1744611320,"current_range_meters":4800,"station_id":"ce4bhah2rcd13ifvqei0","pricing_plan_id":"cebpf4jnsgd1na2vs0mg"},{"bike_id":"493cde9e-7859-4c26-a2e6-f744ee5d8553","system_id":"levelo_inurba_marseille","lat":43.3177,"lon":5.36866,"is_reserved":false,"is_disabled":false,"rental_uris":{"android":"levelo://app?vid=493cde9e-7859-4c26-a2e6-f744ee5d8553","ios":"levelo://app?vid=493cde9e-7859-4c26-a2e6-f744ee5d8553"},"vehicle_type_id":"4","last_reported":1744611320,"current_range_meters":4800,"station_id":"","pricing_plan_id":"cebpf4jnsgd1na2vs0mg"},{"bike_id":"7e451bb7-a253-4e55-9306-916ea929caa4","system_id":"levelo_inurba_marseille","lat":43.28144,"lon":5.42638,"is_reserved":false,"is_disabled":false,"rental_uris":{"android":"levelo://app?vid=7e451bb7-a253-4e55-9306-916ea929caa4","ios":"levelo://app?vid=7e451bb7-a253-4e55-9306-916ea929caa4"},"vehicle_type_id":"4","last_reported":1744611320,"current_range_meters":4400,"station_id":"ce4bhnh2rcd13ifvqgug","pricing_plan_id":"cebpf4jnsgd1na2vs0mg"},{"bike_id":"0e7bf4ae-5aed-4055-a1f8-96debbb9847e","system_id":"levelo_inurba_marseille","lat":43.241682,"lon":5.363989,"is_reserved":false,"is_disabled":false,"rental_uris":{"android":"levelo://app?vid=0e7bf4ae-5aed-4055-a1f8-96debbb9847e","ios":"levelo://app?vid=0e7bf4ae-5aed-4055-a1f8-96debbb9847e"},"vehicle_type_id":"4","last_reported":1744611320,"current_range_meters":4800,"station_id":"cpo36qri1sfpv3e86is0","pricing_plan_id":"cebpf4jnsgd1na2vs0mg"},{"bike_id":"ad6ed18b-1265-4c43-a009-6420ff91943e","system_id":"levelo_inurba_marseille","lat":43.284635,"lon":5.35892,"is_reserved":false,"is_disabled":true,"rental_uris":{"android":"levelo://app?vid=ad6ed18b-1265-4c43-a009-6420ff91943e","ios":"levelo://app?vid=ad6ed18b-1265-4c43-a009-6420ff91943e"},"vehicle_type_id":"4","last_reported":1744611320,"current_range_meters":5600,"station_id":"ce4bhah2rcd13ifvqei0","pricing_plan_id":"cebpf4jnsgd1na2vs0mg"},{"bike_id":"f11cc1ae-0896-4c35-b60f-075468e2ad4a","system_id":"levelo_inurba_marseille","lat":43.24193,"lon":5.3974,"is_reserved":false,"is_disabled":false,"rental_uris":{"android":"levelo://app?vid=f11cc1ae-0896-4c35-b60f-075468e2ad4a","ios":"levelo://app?vid=f11cc1ae-0896-4c35-b60f-075468e2ad4a"},"vehicle_type_id":"4","last_reported":1744611320,"current_range_meters":6000,"station_id":"ce4bhn12rcd13ifvqgpg","pricing_plan_id":"cebpf4jnsgd1na2vs0mg"},{"bike_id":"b7e965ff-4854-44fc-8e2a-103893462049","system_id":"levelo_inurba_marseille","lat":43.337444,"lon":5.374475,"is_reserved":false,"is_disabled":true,"rental_uris":{"android":"levelo://app?vid=b7e965ff-4854-44fc-8e2a-103893462049","ios":"levelo://app?vid=b7e965ff-4854-44fc-8e2a-103893462049"},"vehicle_type_id":"4","last_reported":1744611320,"current_range_meters":6000,"station_id":"","pricing_plan_id":"cebpf4jnsgd1na2vs0mg"},{"bike_id":"2f5bc015-0a98-4a0d-a50f-f7181e1d6abe","system_id":"levelo_inurba_marseille","lat":43.2346,"lon":5.41405,"is_reserved":false,"is_disabled":false,"rental_uris":{"android":"levelo://app?vid=2f5bc015-0a98-4a0d-a50f-f7181e1d6abe","ios":"levelo://app?vid=2f5bc015-0a98-4a0d-a50f-f7181e1d6abe"},"vehicle_type_id":"4","last_reported":1744611320,"current_range_meters":6400,"station_id":"","pricing_plan_id":"cebpf4jnsgd1na2vs0mg"},{"bike_id":"97c5290c-6dcd-4f81-953a-f5953018fa5b","system_id":"levelo_inurba_marseille","lat":43.31044,"lon":5.37536,"is_reserved":false,"is_disabled":false,"rental_uris":{"android":"levelo://app?vid=97c5290c-6dcd-4f81-953a-f5953018fa5b","ios":"levelo://app?vid=97c5290c-6dcd-4f81-953a-f5953018fa5b"},"vehicle_type_id":"4","last_reported":1744611320,"current_range_meters":6400,"station_id":"","pricing_plan_id":"cebpf4jnsgd1na2vs0mg"},{"bike_id":"dab7f9b6-bca9-473a-ae7b-5cf9dcdb45f2","system_id":"levelo_inurba_marseille","lat":43.24796,"lon":5.37454,"is_reserved":false,"is_disabled":false,"rental_uris":{"android":"levelo://app?vid=dab7f9b6-bca9-473a-ae7b-5cf9dcdb45f2","ios":"levelo://app?vid=dab7f9b6-bca9-473a-ae7b-5cf9dcdb45f2"},"vehicle_type_id":"4","last_reported":1744611320,"current_range_meters":6400,"station_id":"ce4bhgh2rcd13ifvqfb0","pricing_plan_id":"cebpf4jnsgd1na2vs0mg"},{"bike_id":"30cc8b33-f5d2-402b-bc22-73b6e88b3714","system_id":"levelo_inurba_marseille","lat":43.24665,"lon":5.38191,"is_reserved":false,"is_disabled":false,"rental_uris":{"android":"levelo://app?vid=30cc8b33-f5d2-402b-bc22-73b6e88b3714","ios":"levelo://app?vid=30cc8b33-f5d2-402b-bc22-73b6e88b3714"},"vehicle_type_id":"4","last_reported":1744611320,"current_range_meters":6400,"station_id":"ce4bhih2rcd13ifvqfr0","pricing_plan_id":"cebpf4jnsgd1na2vs0mg"},{"bike_id":"59469f1e-5998-4711-8baa-1059df29ee8b","system_id":"levelo_inurba_marseille","lat":43.28935,"lon":5.36403,"is_reserved":false,"is_disabled":false,"rental_uris":{"android":"levelo://app?vid=59469f1e-5998-4711-8baa-1059df29ee8b","ios":"levelo://app?vid=59469f1e-5998-4711-8baa-1059df29ee8b"},"vehicle_type_id":"4","last_reported":1744611320,"current_range_meters":6800,"station_id":"ce4bhc92rcd13ifvqetg","pricing_plan_id":"cebpf4jnsgd1na2vs0mg"},{"bike_id":"f7843f46-58aa-4cf6-a1d0-1b94b16f71c2","system_id":"levelo_inurba_marseille","lat":43.29837,"lon":5.39666,"is_reserved":false,"is_disabled":false,"rental_uris":{"android":"levelo://app?vid=f7843f46-58aa-4cf6-a1d0-1b94b16f71c2","ios":"levelo://app?vid=f7843f46-58aa-4cf6-a1d0-1b94b16f71c2"},"vehicle_type_id":"4","last_reported":1744611320,"current_range_meters":6800,"station_id":"","pricing_plan_id":"cebpf4jnsgd1na2vs0mg"},{"bike_id":"eef662bd-49fa-4185-a5f5-5664aa402854","system_id":"levelo_inurba_marseille","lat":43.229311,"lon":5.353764,"is_reserved":false,"is_disabled":false,"rental_uris":{"android":"levelo://app?vid=eef662bd-49fa-4185-a5f5-5664aa402854","ios":"levelo://app?vid=eef662bd-49fa-4185-a5f5-5664aa402854"},"vehicle_type_id":"4","last_reported":1744611320,"current_range_meters":6800,"station_id":"cpo3532slgdg3j2ikp40","pricing_plan_id":"cebpf4jnsgd1na2vs0mg"},{"bike_id":"e654e523-849c-4f04-8e39-f201a550baf0","system_id":"levelo_inurba_marseille","lat":43.29542,"lon":5.42283,"is_reserved":false,"is_disabled":false,"rental_uris":{"android":"levelo://app?vid=e654e523-849c-4f04-8e39-f201a550baf0","ios":"levelo://app?vid=e654e523-849c-4f04-8e39-f201a550baf0"},"vehicle_type_id":"4","last_reported":1744611320,"current_range_meters":6800,"station_id":"ce4bhph2rcd13ifvqhdg","pricing_plan_id":"cebpf4jnsgd1na2vs0mg"},{"bike_id":"998bf81d-ad9f-4ed4-abc9-e0d2ed6ed276","system_id":"levelo_inurba_marseille","lat":43.231891,"lon":5.355581,"is_reserved":false,"is_disabled":true,"rental_uris":{"android":"levelo://app?vid=998bf81d-ad9f-4ed4-abc9-e0d2ed6ed276","ios":"levelo://app?vid=998bf81d-ad9f-4ed4-abc9-e0d2ed6ed276"},"vehicle_type_id":"4","last_reported":1744611320,"current_range_meters":6800,"station_id":"ce4bhu92rcd13ifvqi70","pricing_plan_id":"cebpf4jnsgd1na2vs0mg"},{"bike_id":"4f38e127-be9f-468e-8871-e9cd4f365dca","system_id":"levelo_inurba_marseille","lat":43.246875,"lon":5.411673,"is_reserved":false,"is_disabled":false,"rental_uris":{"android":"levelo://app?vid=4f38e127-be9f-468e-8871-e9cd4f365dca","ios":"levelo://app?vid=4f38e127-be9f-468e-8871-e9cd4f365dca"},"vehicle_type_id":"4","last_reported":1744611320,"current_range_meters":6800,"station_id":"","pricing_plan_id":"cebpf4jnsgd1na2vs0mg"},{"bike_id":"3d16c2e3-7c12-4342-883a-029e0fc16b05","system_id":"levelo_inurba_marseille","lat":43.310351,"lon":5.370971,"is_reserved":false,"is_disabled":false,"rental_uris":{"android":"levelo://app?vid=3d16c2e3-7c12-4342-883a-029e0fc16b05","ios":"levelo://app?vid=3d16c2e3-7c12-4342-883a-029e0fc16b05"},"vehicle_type_id":"4","last_reported":1744611320,"current_range_meters":6800,"station_id":"","pricing_plan_id":"cebpf4jnsgd1na2vs0mg"},{"bike_id":"fe3d6e42-5076-494f-915f-43c55a9fdcc4","system_id":"levelo_inurba_marseille","lat":43.27074,"lon":5.42262,"is_reserved":false,"is_disabled":false,"rental_uris":{"android":"levelo://app?vid=fe3d6e42-5076-494f-915f-43c55a9fdcc4","ios":"levelo://app?vid=fe3d6e42-5076-494f-915f-43c55a9fdcc4"},"vehicle_type_id":"4","last_reported":1744611320,"current_range_meters":6800,"station_id":"ce4bhk92rcd13ifvqgb0","pricing_plan_id":"cebpf4jnsgd1na2vs0mg"},{"bike_id":"76450c2c-888f-4d08-a5c0-d825237615aa","system_id":"levelo_inurba_marseille","lat":43.272288,"lon":5.423034,"is_reserved":false,"is_disabled":false,"rental_uris":{"android":"levelo://app?vid=76450c2c-888f-4d08-a5c0-d825237615aa","ios":"levelo://app?vid=76450c2c-888f-4d08-a5c0-d825237615aa"},"vehicle_type_id":"4","last_reported":1744611320,"current_range_meters":7200,"station_id":"","pricing_plan_id":"cebpf4jnsgd1na2vs0mg"},{"bike_id":"49ee7a2d-b87d-42ef-bdb3-cf1b5b3fae9b","system_id":"levelo_inurba_marseille","lat":43.24171,"lon":5.36399,"is_reserved":false,"is_disabled":false,"rental_uris":{"android":"levelo://app?vid=49ee7a2d-b87d-42ef-bdb3-cf1b5b3fae9b","ios":"levelo://app?vid=49ee7a2d-b87d-42ef-bdb3-cf1b5b3fae9b"},"vehicle_type_id":"4","last_reported":1744611320,"current_range_meters":7200,"station_id":"cpo36qri1sfpv3e86is0","pricing_plan_id":"cebpf4jnsgd1na2vs0mg"},{"bike_id":"6e2ac28e-dfb7-46b8-8016-b7ae92b2a4f0","system_id":"levelo_inurba_marseille","lat":43.2799,"lon":5.40018,"is_reserved":false,"is_disabled":false,"rental_uris":{"android":"levelo://app?vid=6e2ac28e-dfb7-46b8-8016-b7ae92b2a4f0","ios":"levelo://app?vid=6e2ac28e-dfb7-46b8-8016-b7ae92b2a4f0"},"vehicle_type_id":"4","last_reported":1744611320,"current_range_meters":7200,"station_id":"ce4bho92rcd13ifvqh4g","pricing_plan_id":"cebpf4jnsgd1na2vs0mg"},{"bike_id":"0c30a5d7-82b9-4bb2-9032-224893c69d2f","system_id":"levelo_inurba_marseille","lat":43.26485,"lon":5.39551,"is_reserved":false,"is_disabled":true,"rental_uris":{"android":"levelo://app?vid=0c30a5d7-82b9-4bb2-9032-224893c69d2f","ios":"levelo://app?vid=0c30a5d7-82b9-4bb2-9032-224893c69d2f"},"vehicle_type_id":"4","last_reported":1744611320,"current_range_meters":7200,"station_id":"ce4bhi12rcd13ifvqfq0","pricing_plan_id":"cebpf4jnsgd1na2vs0mg"},{"bike_id":"ae19d1a6-dd46-48fc-811d-277c3221d4a1","system_id":"levelo_inurba_marseille","lat":43.30141,"lon":5.38072,"is_reserved":false,"is_disabled":false,"rental_uris":{"android":"levelo://app?vid=ae19d1a6-dd46-48fc-811d-277c3221d4a1","ios":"levelo://app?vid=ae19d1a6-dd46-48fc-811d-277c3221d4a1"},"vehicle_type_id":"4","last_reported":1744611320,"current_range_meters":32000,"station_id":"ce4bgjp2rcd13ifvqbh0","pricing_plan_id":"cebpf4jnsgd1na2vs0mg"},{"bike_id":"9bdbd06a-f1ec-46aa-b1a5-895338323cbf","system_id":"levelo_inurba_marseille","lat":43.23151,"lon":5.43716,"is_reserved":false,"is_disabled":false,"rental_uris":{"android":"levelo://app?vid=9bdbd06a-f1ec-46aa-b1a5-895338323cbf","ios":"levelo://app?vid=9bdbd06a-f1ec-46aa-b1a5-895338323cbf"},"vehicle_type_id":"4","last_reported":1744611320,"current_range_meters":7200,"station_id":"ce4bhmp2rcd13ifvqgog","pricing_plan_id":"cebpf4jnsgd1na2vs0mg"},{"bike_id":"71d758d9-e1f9-440e-be18-d9a62c8ebcd3","system_id":"levelo_inurba_marseille","lat":43.27922,"lon":5.39604,"is_reserved":false,"is_disabled":false,"rental_uris":{"android":"levelo://app?vid=71d758d9-e1f9-440e-be18-d9a62c8ebcd3","ios":"levelo://app?vid=71d758d9-e1f9-440e-be18-d9a62c8ebcd3"},"vehicle_type_id":"4","last_reported":1744611320,"current_range_meters":7200,"station_id":"ce4bhf92rcd13ifvqf40","pricing_plan_id":"cebpf4jnsgd1na2vs0mg"},{"bike_id":"a97af672-b176-42f7-912b-8dfee7634705","system_id":"levelo_inurba_marseille","lat":43.30334,"lon":5.36893,"is_reserved":false,"is_disabled":false,"rental_uris":{"android":"levelo://app?vid=a97af672-b176-42f7-912b-8dfee7634705","ios":"levelo://app?vid=a97af672-b176-42f7-912b-8dfee7634705"},"vehicle_type_id":"4","last_reported":1744611320,"current_range_meters":8000,"station_id":"ce4bgqh2rcd13ifvqc5g","pricing_plan_id":"cebpf4jnsgd1na2vs0mg"},{"bike_id":"76aa6ede-ce7e-4070-8652-1721a02ed52b","system_id":"levelo_inurba_marseille","lat":43.27946,"lon":5.41047,"is_reserved":false,"is_disabled":false,"rental_uris":{"android":"levelo://app?vid=76aa6ede-ce7e-4070-8652-1721a02ed52b","ios":"levelo://app?vid=76aa6ede-ce7e-4070-8652-1721a02ed52b"},"vehicle_type_id":"4","last_reported":1744611320,"current_range_meters":8000,"station_id":"ce4bhnp2rcd13ifvqh0g","pricing_plan_id":"cebpf4jnsgd1na2vs0mg"},{"bike_id":"c4418ba2-fdb3-4569-93a7-bee11ff3285c","system_id":"levelo_inurba_marseille","lat":43.29229,"lon":5.40136,"is_reserved":false,"is_disabled":false,"rental_uris":{"android":"levelo://app?vid=c4418ba2-fdb3-4569-93a7-bee11ff3285c","ios":"levelo://app?vid=c4418ba2-fdb3-4569-93a7-bee11ff3285c"},"vehicle_type_id":"4","last_reported":1744611320,"current_range_meters":8000,"station_id":"","pricing_plan_id":"cebpf4jnsgd1na2vs0mg"},{"bike_id":"91fffdcd-2fa7-4f34-b242-95e7e93ac05b","system_id":"levelo_inurba_marseille","lat":43.26316,"lon":5.39767,"is_reserved":false,"is_disabled":false,"rental_uris":{"android":"levelo://app?vid=91fffdcd-2fa7-4f34-b242-95e7e93ac05b","ios":"levelo://app?vid=91fffdcd-2fa7-4f34-b242-95e7e93ac05b"},"vehicle_type_id":"4","last_reported":1744611320,"current_range_meters":8000,"station_id":"","pricing_plan_id":"cebpf4jnsgd1na2vs0mg"},{"bike_id":"82d38bd3-c046-4f55-aec8-4eb686f05e29","system_id":"levelo_inurba_marseille","lat":43.2293,"lon":5.35382,"is_reserved":false,"is_disabled":true,"rental_uris":{"android":"levelo://app?vid=82d38bd3-c046-4f55-aec8-4eb686f05e29","ios":"levelo://app?vid=82d38bd3-c046-4f55-aec8-4eb686f05e29"},"vehicle_type_id":"4","last_reported":1744611320,"current_range_meters":8000,"station_id":"cpo3532slgdg3j2ikp40","pricing_plan_id":"cebpf4jnsgd1na2vs0mg"},{"bike_id":"c127d1a8-0150-4856-a57b-18fd29314b2c","system_id":"levelo_inurba_marseille","lat":43.32466,"lon":5.36599,"is_reserved":false,"is_disabled":false,"rental_uris":{"android":"levelo://app?vid=c127d1a8-0150-4856-a57b-18fd29314b2c","ios":"levelo://app?vid=c127d1a8-0150-4856-a57b-18fd29314b2c"},"vehicle_type_id":"4","last_reported":1744611320,"current_range_meters":8000,"station_id":"ce4bhs12rcd13ifvqhvg","pricing_plan_id":"cebpf4jnsgd1na2vs0mg"},{"bike_id":"4d49d7bf-c387-4802-8134-39419f66ab07","system_id":"levelo_inurba_marseille","lat":43.250818,"lon":5.395161,"is_reserved":false,"is_disabled":false,"rental_uris":{"android":"levelo://app?vid=4d49d7bf-c387-4802-8134-39419f66ab07","ios":"levelo://app?vid=4d49d7bf-c387-4802-8134-39419f66ab07"},"vehicle_type_id":"4","last_reported":1744611320,"current_range_meters":8000,"station_id":"ce4bhm12rcd13ifvqgkg","pricing_plan_id":"cebpf4jnsgd1na2vs0mg"},{"bike_id":"f7cd819f-b752-47cc-848d-ff43c669ccb8","system_id":"levelo_inurba_marseille","lat":43.309796,"lon":5.417354,"is_reserved":false,"is_disabled":false,"rental_uris":{"android":"levelo://app?vid=f7cd819f-b752-47cc-848d-ff43c669ccb8","ios":"levelo://app?vid=f7cd819f-b752-47cc-848d-ff43c669ccb8"},"vehicle_type_id":"4","last_reported":1744611320,"current_range_meters":8400,"station_id":"","pricing_plan_id":"cebpf4jnsgd1na2vs0mg"},{"bike_id":"e6442e83-f93f-4695-9f90-e5fbefa2d523","system_id":"levelo_inurba_marseille","lat":43.28144,"lon":5.42664,"is_reserved":false,"is_disabled":false,"rental_uris":{"android":"levelo://app?vid=e6442e83-f93f-4695-9f90-e5fbefa2d523","ios":"levelo://app?vid=e6442e83-f93f-4695-9f90-e5fbefa2d523"},"vehicle_type_id":"4","last_reported":1744611320,"current_range_meters":8400,"station_id":"ce4bhnh2rcd13ifvqgug","pricing_plan_id":"cebpf4jnsgd1na2vs0mg"},{"bike_id":"45a1a513-23ca-4b7d-91b2-f9ad1dee8bcd","system_id":"levelo_inurba_marseille","lat":43.298805,"lon":5.389187,"is_reserved":false,"is_disabled":false,"rental_uris":{"android":"levelo://app?vid=45a1a513-23ca-4b7d-91b2-f9ad1dee8bcd","ios":"levelo://app?vid=45a1a513-23ca-4b7d-91b2-f9ad1dee8bcd"},"vehicle_type_id":"4","last_reported":1744611320,"current_range_meters":8400,"station_id":"ce4bh392rcd13ifvqdl0","pricing_plan_id":"cebpf4jnsgd1na2vs0mg"},{"bike_id":"b55dd5e7-54b2-4035-b945-7b626dd7afc7","system_id":"levelo_inurba_marseille","lat":43.27574,"lon":5.40932,"is_reserved":false,"is_disabled":false,"rental_uris":{"android":"levelo://app?vid=b55dd5e7-54b2-4035-b945-7b626dd7afc7","ios":"levelo://app?vid=b55dd5e7-54b2-4035-b945-7b626dd7afc7"},"vehicle_type_id":"4","last_reported":1744611320,"current_range_meters":8400,"station_id":"","pricing_plan_id":"cebpf4jnsgd1na2vs0mg"},{"bike_id":"d3d40591-4ab6-47c0-858b-e2d1c8bbaff8","system_id":"levelo_inurba_marseille","lat":43.3234,"lon":5.40616,"is_reserved":false,"is_disabled":false,"rental_uris":{"android":"levelo://app?vid=d3d40591-4ab6-47c0-858b-e2d1c8bbaff8","ios":"levelo://app?vid=d3d40591-4ab6-47c0-858b-e2d1c8bbaff8"},"vehicle_type_id":"4","last_reported":1744611320,"current_range_meters":8400,"station_id":"ce4bhq92rcd13ifvqhjg","pricing_plan_id":"cebpf4jnsgd1na2vs0mg"},{"bike_id":"020e9999-d552-48d0-ae5f-b725af0dbea2","system_id":"levelo_inurba_marseille","lat":43.2991,"lon":5.43749,"is_reserved":false,"is_disabled":false,"rental_uris":{"android":"levelo://app?vid=020e9999-d552-48d0-ae5f-b725af0dbea2","ios":"levelo://app?vid=020e9999-d552-48d0-ae5f-b725af0dbea2"},"vehicle_type_id":"4","last_reported":1744611320,"current_range_meters":8400,"station_id":"","pricing_plan_id":"cebpf4jnsgd1na2vs0mg"},{"bike_id":"a3bf51d9-08b7-458c-9b6d-ef5680cc95d6","system_id":"levelo_inurba_marseille","lat":43.21749,"lon":5.346,"is_reserved":false,"is_disabled":true,"rental_uris":{"android":"levelo://app?vid=a3bf51d9-08b7-458c-9b6d-ef5680cc95d6","ios":"levelo://app?vid=a3bf51d9-08b7-458c-9b6d-ef5680cc95d6"},"vehicle_type_id":"4","last_reported":1744611320,"current_range_meters":8400,"station_id":"st_cvj6r9ubvosntc0bgbag","pricing_plan_id":"cebpf4jnsgd1na2vs0mg"},{"bike_id":"5ec3aac8-6041-4a0f-9b1c-82151451296d","system_id":"levelo_inurba_marseille","lat":43.28356,"lon":5.38629,"is_reserved":false,"is_disabled":false,"rental_uris":{"android":"levelo://app?vid=5ec3aac8-6041-4a0f-9b1c-82151451296d","ios":"levelo://app?vid=5ec3aac8-6041-4a0f-9b1c-82151451296d"},"vehicle_type_id":"4","last_reported":1744611320,"current_range_meters":8400,"station_id":"ce4bh492rcd13ifvqdvg","pricing_plan_id":"cebpf4jnsgd1na2vs0mg"},{"bike_id":"efd328ca-f8bf-4550-bd94-c2fd75978f3c","system_id":"levelo_inurba_marseille","lat":43.33039,"lon":5.38084,"is_reserved":false,"is_disabled":false,"rental_uris":{"android":"levelo://app?vid=efd328ca-f8bf-4550-bd94-c2fd75978f3c","ios":"levelo://app?vid=efd328ca-f8bf-4550-bd94-c2fd75978f3c"},"vehicle_type_id":"4","last_reported":1744611320,"current_range_meters":8400,"station_id":"","pricing_plan_id":"cebpf4jnsgd1na2vs0mg"},{"bike_id":"4bbe6e48-9bfa-4dec-aab0-5597477f7da1","system_id":"levelo_inurba_marseille","lat":43.32412,"lon":5.39141,"is_reserved":false,"is_disabled":true,"rental_uris":{"android":"levelo://app?vid=4bbe6e48-9bfa-4dec-aab0-5597477f7da1","ios":"levelo://app?vid=4bbe6e48-9bfa-4dec-aab0-5597477f7da1"},"vehicle_type_id":"4","last_reported":1744611320,"current_range_meters":8400,"station_id":"","pricing_plan_id":"cebpf4jnsgd1na2vs0mg"},{"bike_id":"203308fc-5b45-40a7-a512-e07814ba23a1","system_id":"levelo_inurba_marseille","lat":43.3047,"lon":5.3791,"is_reserved":false,"is_disabled":false,"rental_uris":{"android":"levelo://app?vid=203308fc-5b45-40a7-a512-e07814ba23a1","ios":"levelo://app?vid=203308fc-5b45-40a7-a512-e07814ba23a1"},"vehicle_type_id":"4","last_reported":1744611320,"current_range_meters":8400,"station_id":"ce4bgup2rcd13ifvqcn0","pricing_plan_id":"cebpf4jnsgd1na2vs0mg"},{"bike_id":"e3033e51-0403-4e5c-9649-cc323385bf93","system_id":"levelo_inurba_marseille","lat":43.27506,"lon":5.42508,"is_reserved":false,"is_disabled":false,"rental_uris":{"android":"levelo://app?vid=e3033e51-0403-4e5c-9649-cc323385bf93","ios":"levelo://app?vid=e3033e51-0403-4e5c-9649-cc323385bf93"},"vehicle_type_id":"4","last_reported":1744611320,"current_range_meters":8800,"station_id":"ce4bhn92rcd13ifvqgrg","pricing_plan_id":"cebpf4jnsgd1na2vs0mg"},{"bike_id":"7f6c4363-715d-4f42-b9a9-3392906a5fa6","system_id":"levelo_inurba_marseille","lat":43.24683,"lon":5.38196,"is_reserved":false,"is_disabled":false,"rental_uris":{"android":"levelo://app?vid=7f6c4363-715d-4f42-b9a9-3392906a5fa6","ios":"levelo://app?vid=7f6c4363-715d-4f42-b9a9-3392906a5fa6"},"vehicle_type_id":"4","last_reported":1744611320,"current_range_meters":8800,"station_id":"ce4bhih2rcd13ifvqfr0","pricing_plan_id":"cebpf4jnsgd1na2vs0mg"},{"bike_id":"e24a7b75-ee5b-4514-833f-b0a5cfeba052","system_id":"levelo_inurba_marseille","lat":43.251154,"lon":5.403309,"is_reserved":false,"is_disabled":false,"rental_uris":{"android":"levelo://app?vid=e24a7b75-ee5b-4514-833f-b0a5cfeba052","ios":"levelo://app?vid=e24a7b75-ee5b-4514-833f-b0a5cfeba052"},"vehicle_type_id":"4","last_reported":1744611320,"current_range_meters":8800,"station_id":"ce4bhlh2rcd13ifvqgig","pricing_plan_id":"cebpf4jnsgd1na2vs0mg"},{"bike_id":"5bd83869-317c-4f7d-93ed-182a084c5a24","system_id":"levelo_inurba_marseille","lat":43.256956,"lon":5.411117,"is_reserved":false,"is_disabled":false,"rental_uris":{"android":"levelo://app?vid=5bd83869-317c-4f7d-93ed-182a084c5a24","ios":"levelo://app?vid=5bd83869-317c-4f7d-93ed-182a084c5a24"},"vehicle_type_id":"4","last_reported":1744611320,"current_range_meters":8800,"station_id":"ce4bhkp2rcd13ifvqgd0","pricing_plan_id":"cebpf4jnsgd1na2vs0mg"},{"bike_id":"982bb1bc-457f-43d7-ae21-85035c856353","system_id":"levelo_inurba_marseille","lat":43.22518,"lon":5.34805,"is_reserved":false,"is_disabled":true,"rental_uris":{"android":"levelo://app?vid=982bb1bc-457f-43d7-ae21-85035c856353","ios":"levelo://app?vid=982bb1bc-457f-43d7-ae21-85035c856353"},"vehicle_type_id":"4","last_reported":1744611320,"current_range_meters":8800,"station_id":"st_cvj5dfep6f1abm77gieg","pricing_plan_id":"cebpf4jnsgd1na2vs0mg"},{"bike_id":"458725bc-46e9-4766-aa8b-f13cfc93ab12","system_id":"levelo_inurba_marseille","lat":43.319954,"lon":5.381618,"is_reserved":false,"is_disabled":false,"rental_uris":{"android":"levelo://app?vid=458725bc-46e9-4766-aa8b-f13cfc93ab12","ios":"levelo://app?vid=458725bc-46e9-4766-aa8b-f13cfc93ab12"},"vehicle_type_id":"4","last_reported":1744611320,"current_range_meters":8800,"station_id":"ce4bhr12rcd13ifvqhpg","pricing_plan_id":"cebpf4jnsgd1na2vs0mg"},{"bike_id":"189bc3aa-c23a-4e02-a51e-2e6020d77594","system_id":"levelo_inurba_marseille","lat":43.231514,"lon":5.437193,"is_reserved":false,"is_disabled":false,"rental_uris":{"android":"levelo://app?vid=189bc3aa-c23a-4e02-a51e-2e6020d77594","ios":"levelo://app?vid=189bc3aa-c23a-4e02-a51e-2e6020d77594"},"vehicle_type_id":"4","last_reported":1744611320,"current_range_meters":8800,"station_id":"ce4bhmp2rcd13ifvqgog","pricing_plan_id":"cebpf4jnsgd1na2vs0mg"},{"bike_id":"6bf5a9c4-e449-405a-b5a2-19b5fc6608d1","system_id":"levelo_inurba_marseille","lat":43.2927,"lon":5.36846,"is_reserved":false,"is_disabled":false,"rental_uris":{"android":"levelo://app?vid=6bf5a9c4-e449-405a-b5a2-19b5fc6608d1","ios":"levelo://app?vid=6bf5a9c4-e449-405a-b5a2-19b5fc6608d1"},"vehicle_type_id":"4","last_reported":1744611320,"current_range_meters":8800,"station_id":"ce4bhbp2rcd13ifvqesg","pricing_plan_id":"cebpf4jnsgd1na2vs0mg"},{"bike_id":"66317577-28ea-4d7f-846c-c4a48a6a1aeb","system_id":"levelo_inurba_marseille","lat":43.26509,"lon":5.39554,"is_reserved":false,"is_disabled":false,"rental_uris":{"android":"levelo://app?vid=66317577-28ea-4d7f-846c-c4a48a6a1aeb","ios":"levelo://app?vid=66317577-28ea-4d7f-846c-c4a48a6a1aeb"},"vehicle_type_id":"4","last_reported":1744611320,"current_range_meters":8800,"station_id":"ce4bhi12rcd13ifvqfq0","pricing_plan_id":"cebpf4jnsgd1na2vs0mg"},{"bike_id":"bac238c1-16ce-4496-8a56-a76b60a16357","system_id":"levelo_inurba_marseille","lat":43.28704,"lon":5.39974,"is_reserved":false,"is_disabled":false,"rental_uris":{"android":"levelo://app?vid=bac238c1-16ce-4496-8a56-a76b60a16357","ios":"levelo://app?vid=bac238c1-16ce-4496-8a56-a76b60a16357"},"vehicle_type_id":"4","last_reported":1744611320,"current_range_meters":9200,"station_id":"ce4bho92rcd13ifvqh3g","pricing_plan_id":"cebpf4jnsgd1na2vs0mg"},{"bike_id":"d8b9884b-4022-4710-9f87-50e0dbfd421d","system_id":"levelo_inurba_marseille","lat":43.24182,"lon":5.36394,"is_reserved":false,"is_disabled":true,"rental_uris":{"android":"levelo://app?vid=d8b9884b-4022-4710-9f87-50e0dbfd421d","ios":"levelo://app?vid=d8b9884b-4022-4710-9f87-50e0dbfd421d"},"vehicle_type_id":"4","last_reported":1744611320,"current_range_meters":9200,"station_id":"cpo36qri1sfpv3e86is0","pricing_plan_id":"cebpf4jnsgd1na2vs0mg"},{"bike_id":"0ceb1776-0c88-4ba3-9905-2f990572e867","system_id":"levelo_inurba_marseille","lat":43.30383,"lon":5.42499,"is_reserved":false,"is_disabled":false,"rental_uris":{"android":"levelo://app?vid=0ceb1776-0c88-4ba3-9905-2f990572e867","ios":"levelo://app?vid=0ceb1776-0c88-4ba3-9905-2f990572e867"},"vehicle_type_id":"4","last_reported":1744611320,"current_range_meters":9200,"station_id":"ce4bhoh2rcd13ifvqh6g","pricing_plan_id":"cebpf4jnsgd1na2vs0mg"},{"bike_id":"d49ed5f3-63dd-41d8-a7c3-7b7860b035b1","system_id":"levelo_inurba_marseille","lat":43.24818,"lon":5.3748,"is_reserved":false,"is_disabled":true,"rental_uris":{"android":"levelo://app?vid=d49ed5f3-63dd-41d8-a7c3-7b7860b035b1","ios":"levelo://app?vid=d49ed5f3-63dd-41d8-a7c3-7b7860b035b1"},"vehicle_type_id":"4","last_reported":1744611320,"current_range_meters":9200,"station_id":"ce4bhgh2rcd13ifvqfb0","pricing_plan_id":"cebpf4jnsgd1na2vs0mg"},{"bike_id":"c219c8dd-afad-477f-bfa1-25af23ef8c6f","system_id":"levelo_inurba_marseille","lat":43.31357,"lon":5.3672,"is_reserved":false,"is_disabled":false,"rental_uris":{"android":"levelo://app?vid=c219c8dd-afad-477f-bfa1-25af23ef8c6f","ios":"levelo://app?vid=c219c8dd-afad-477f-bfa1-25af23ef8c6f"},"vehicle_type_id":"4","last_reported":1744611320,"current_range_meters":9200,"station_id":"ce4bgr92rcd13ifvqc6g","pricing_plan_id":"cebpf4jnsgd1na2vs0mg"},{"bike_id":"1201dea7-5edd-4dc9-ae9c-c6b3d8e2a04f","system_id":"levelo_inurba_marseille","lat":43.270595,"lon":5.40292,"is_reserved":false,"is_disabled":true,"rental_uris":{"android":"levelo://app?vid=1201dea7-5edd-4dc9-ae9c-c6b3d8e2a04f","ios":"levelo://app?vid=1201dea7-5edd-4dc9-ae9c-c6b3d8e2a04f"},"vehicle_type_id":"4","last_reported":1744611320,"current_range_meters":9200,"station_id":"ce4bhk92rcd13ifvqgc0","pricing_plan_id":"cebpf4jnsgd1na2vs0mg"},{"bike_id":"5591936e-ca63-41c7-89f3-9c9493c86f89","system_id":"levelo_inurba_marseille","lat":43.24173,"lon":5.36403,"is_reserved":false,"is_disabled":false,"rental_uris":{"android":"levelo://app?vid=5591936e-ca63-41c7-89f3-9c9493c86f89","ios":"levelo://app?vid=5591936e-ca63-41c7-89f3-9c9493c86f89"},"vehicle_type_id":"4","last_reported":1744611320,"current_range_meters":9200,"station_id":"cpo36qri1sfpv3e86is0","pricing_plan_id":"cebpf4jnsgd1na2vs0mg"},{"bike_id":"35bd4d02-fb6f-47e3-8b9b-a14059c8d044","system_id":"levelo_inurba_marseille","lat":43.24181,"lon":5.39726,"is_reserved":false,"is_disabled":false,"rental_uris":{"android":"levelo://app?vid=35bd4d02-fb6f-47e3-8b9b-a14059c8d044","ios":"levelo://app?vid=35bd4d02-fb6f-47e3-8b9b-a14059c8d044"},"vehicle_type_id":"4","last_reported":1744611320,"current_range_meters":9200,"station_id":"ce4bhn12rcd13ifvqgpg","pricing_plan_id":"cebpf4jnsgd1na2vs0mg"},{"bike_id":"cec9fed2-74bc-4f07-a628-035c465b00b6","system_id":"levelo_inurba_marseille","lat":43.24192,"lon":5.39737,"is_reserved":false,"is_disabled":false,"rental_uris":{"android":"levelo://app?vid=cec9fed2-74bc-4f07-a628-035c465b00b6","ios":"levelo://app?vid=cec9fed2-74bc-4f07-a628-035c465b00b6"},"vehicle_type_id":"4","last_reported":1744611320,"current_range_meters":9600,"station_id":"ce4bhn12rcd13ifvqgpg","pricing_plan_id":"cebpf4jnsgd1na2vs0mg"},{"bike_id":"b3e64b14-29c8-4f32-9a7d-73acca2d0222","system_id":"levelo_inurba_marseille","lat":43.29042,"lon":5.40062,"is_reserved":false,"is_disabled":true,"rental_uris":{"android":"levelo://app?vid=b3e64b14-29c8-4f32-9a7d-73acca2d0222","ios":"levelo://app?vid=b3e64b14-29c8-4f32-9a7d-73acca2d0222"},"vehicle_type_id":"4","last_reported":1744611320,"current_range_meters":9600,"station_id":"","pricing_plan_id":"cebpf4jnsgd1na2vs0mg"},{"bike_id":"72ebdd68-4727-45bd-ae87-df9c54928155","system_id":"levelo_inurba_marseille","lat":43.32538,"lon":5.4109,"is_reserved":false,"is_disabled":false,"rental_uris":{"android":"levelo://app?vid=72ebdd68-4727-45bd-ae87-df9c54928155","ios":"levelo://app?vid=72ebdd68-4727-45bd-ae87-df9c54928155"},"vehicle_type_id":"4","last_reported":1744611320,"current_range_meters":10000,"station_id":"","pricing_plan_id":"cebpf4jnsgd1na2vs0mg"},{"bike_id":"6a003e47-a1cc-4c38-b762-6e37af426d05","system_id":"levelo_inurba_marseille","lat":43.323674,"lon":5.367615,"is_reserved":false,"is_disabled":false,"rental_uris":{"android":"levelo://app?vid=6a003e47-a1cc-4c38-b762-6e37af426d05","ios":"levelo://app?vid=6a003e47-a1cc-4c38-b762-6e37af426d05"},"vehicle_type_id":"4","last_reported":1744611320,"current_range_meters":10000,"station_id":"ce4bhsh2rcd13ifvqi2g","pricing_plan_id":"cebpf4jnsgd1na2vs0mg"},{"bike_id":"0d6889fd-fc28-4905-ae73-dde45f2ce921","system_id":"levelo_inurba_marseille","lat":43.24678,"lon":5.38163,"is_reserved":false,"is_disabled":false,"rental_uris":{"android":"levelo://app?vid=0d6889fd-fc28-4905-ae73-dde45f2ce921","ios":"levelo://app?vid=0d6889fd-fc28-4905-ae73-dde45f2ce921"},"vehicle_type_id":"4","last_reported":1744611320,"current_range_meters":10000,"station_id":"ce4bhih2rcd13ifvqfr0","pricing_plan_id":"cebpf4jnsgd1na2vs0mg"},{"bike_id":"2bb6b5da-a4a8-4544-9220-ce73d140bbc1","system_id":"levelo_inurba_marseille","lat":43.28441,"lon":5.39187,"is_reserved":false,"is_disabled":false,"rental_uris":{"android":"levelo://app?vid=2bb6b5da-a4a8-4544-9220-ce73d140bbc1","ios":"levelo://app?vid=2bb6b5da-a4a8-4544-9220-ce73d140bbc1"},"vehicle_type_id":"4","last_reported":1744611320,"current_range_meters":10800,"station_id":"ce4bhoh2rcd13ifvqh5g","pricing_plan_id":"cebpf4jnsgd1na2vs0mg"},{"bike_id":"cb918d5b-8793-4d93-bf83-5042608ad86c","system_id":"levelo_inurba_marseille","lat":43.33167,"lon":5.39558,"is_reserved":false,"is_disabled":false,"rental_uris":{"android":"levelo://app?vid=cb918d5b-8793-4d93-bf83-5042608ad86c","ios":"levelo://app?vid=cb918d5b-8793-4d93-bf83-5042608ad86c"},"vehicle_type_id":"4","last_reported":1744611320,"current_range_meters":10800,"station_id":"","pricing_plan_id":"cebpf4jnsgd1na2vs0mg"},{"bike_id":"c2a31b7c-37b8-460a-a9ba-47af7e49c6b9","system_id":"levelo_inurba_marseille","lat":43.27496,"lon":5.42457,"is_reserved":false,"is_disabled":false,"rental_uris":{"android":"levelo://app?vid=c2a31b7c-37b8-460a-a9ba-47af7e49c6b9","ios":"levelo://app?vid=c2a31b7c-37b8-460a-a9ba-47af7e49c6b9"},"vehicle_type_id":"4","last_reported":1744611320,"current_range_meters":10800,"station_id":"ce4bhn92rcd13ifvqgrg","pricing_plan_id":"cebpf4jnsgd1na2vs0mg"},{"bike_id":"65f98b52-627f-4221-921f-c1d48e4da20d","system_id":"levelo_inurba_marseille","lat":43.21743,"lon":5.34604,"is_reserved":false,"is_disabled":false,"rental_uris":{"android":"levelo://app?vid=65f98b52-627f-4221-921f-c1d48e4da20d","ios":"levelo://app?vid=65f98b52-627f-4221-921f-c1d48e4da20d"},"vehicle_type_id":"4","last_reported":1744611320,"current_range_meters":10800,"station_id":"st_cvj6r9ubvosntc0bgbag","pricing_plan_id":"cebpf4jnsgd1na2vs0mg"},{"bike_id":"5cacdac6-936a-44c6-9e06-3d5924e24ab3","system_id":"levelo_inurba_marseille","lat":43.28431,"lon":5.3498,"is_reserved":false,"is_disabled":true,"rental_uris":{"android":"levelo://app?vid=5cacdac6-936a-44c6-9e06-3d5924e24ab3","ios":"levelo://app?vid=5cacdac6-936a-44c6-9e06-3d5924e24ab3"},"vehicle_type_id":"4","last_reported":1744611320,"current_range_meters":11200,"station_id":"ce4bhbh2rcd13ifvqepg","pricing_plan_id":"cebpf4jnsgd1na2vs0mg"},{"bike_id":"e617923d-5e38-4ab5-9f0a-d006b9dcc88d","system_id":"levelo_inurba_marseille","lat":43.29534,"lon":5.38555,"is_reserved":false,"is_disabled":true,"rental_uris":{"android":"levelo://app?vid=e617923d-5e38-4ab5-9f0a-d006b9dcc88d","ios":"levelo://app?vid=e617923d-5e38-4ab5-9f0a-d006b9dcc88d"},"vehicle_type_id":"4","last_reported":1744611320,"current_range_meters":11200,"station_id":"ce4bgih2rcd13ifvqba0","pricing_plan_id":"cebpf4jnsgd1na2vs0mg"},{"bike_id":"fbcffd98-9af3-437e-a238-670cf1dcb555","system_id":"levelo_inurba_marseille","lat":43.28953,"lon":5.36631,"is_reserved":false,"is_disabled":true,"rental_uris":{"android":"levelo://app?vid=fbcffd98-9af3-437e-a238-670cf1dcb555","ios":"levelo://app?vid=fbcffd98-9af3-437e-a238-670cf1dcb555"},"vehicle_type_id":"4","last_reported":1744611320,"current_range_meters":11200,"station_id":"ce4bhap2rcd13ifvqek0","pricing_plan_id":"cebpf4jnsgd1na2vs0mg"},{"bike_id":"e6be24a9-462c-4d93-b7b5-635bacae826f","system_id":"levelo_inurba_marseille","lat":43.29917,"lon":5.40363,"is_reserved":false,"is_disabled":false,"rental_uris":{"android":"levelo://app?vid=e6be24a9-462c-4d93-b7b5-635bacae826f","ios":"levelo://app?vid=e6be24a9-462c-4d93-b7b5-635bacae826f"},"vehicle_type_id":"4","last_reported":1744611320,"current_range_meters":11200,"station_id":"","pricing_plan_id":"cebpf4jnsgd1na2vs0mg"},{"bike_id":"77d4a71f-df0e-455f-ae69-c0292309b34a","system_id":"levelo_inurba_marseille","lat":43.27941,"lon":5.41043,"is_reserved":false,"is_disabled":false,"rental_uris":{"android":"levelo://app?vid=77d4a71f-df0e-455f-ae69-c0292309b34a","ios":"levelo://app?vid=77d4a71f-df0e-455f-ae69-c0292309b34a"},"vehicle_type_id":"4","last_reported":1744611320,"current_range_meters":11600,"station_id":"ce4bhnp2rcd13ifvqh0g","pricing_plan_id":"cebpf4jnsgd1na2vs0mg"},{"bike_id":"ece71115-0f99-4b98-8cf0-dd86ae7901a5","system_id":"levelo_inurba_marseille","lat":43.23143,"lon":5.43709,"is_reserved":false,"is_disabled":false,"rental_uris":{"android":"levelo://app?vid=ece71115-0f99-4b98-8cf0-dd86ae7901a5","ios":"levelo://app?vid=ece71115-0f99-4b98-8cf0-dd86ae7901a5"},"vehicle_type_id":"4","last_reported":1744611320,"current_range_meters":11600,"station_id":"ce4bhmp2rcd13ifvqgog","pricing_plan_id":"cebpf4jnsgd1na2vs0mg"},{"bike_id":"64538bc4-b51e-4503-877d-144db96564f3","system_id":"levelo_inurba_marseille","lat":43.30331,"lon":5.40441,"is_reserved":false,"is_disabled":false,"rental_uris":{"android":"levelo://app?vid=64538bc4-b51e-4503-877d-144db96564f3","ios":"levelo://app?vid=64538bc4-b51e-4503-877d-144db96564f3"},"vehicle_type_id":"4","last_reported":1744611320,"current_range_meters":11600,"station_id":"ce4bh012rcd13ifvqd10","pricing_plan_id":"cebpf4jnsgd1na2vs0mg"},{"bike_id":"ad1eb90c-c5c4-438d-a60f-7c5e492e3bd9","system_id":"levelo_inurba_marseille","lat":43.28944,"lon":5.3664,"is_reserved":false,"is_disabled":false,"rental_uris":{"android":"levelo://app?vid=ad1eb90c-c5c4-438d-a60f-7c5e492e3bd9","ios":"levelo://app?vid=ad1eb90c-c5c4-438d-a60f-7c5e492e3bd9"},"vehicle_type_id":"4","last_reported":1744611320,"current_range_meters":11600,"station_id":"ce4bhap2rcd13ifvqek0","pricing_plan_id":"cebpf4jnsgd1na2vs0mg"},{"bike_id":"343cc64c-4a39-45e1-84bf-d73c3feac488","system_id":"levelo_inurba_marseille","lat":43.31478,"lon":5.37292,"is_reserved":false,"is_disabled":false,"rental_uris":{"android":"levelo://app?vid=343cc64c-4a39-45e1-84bf-d73c3feac488","ios":"levelo://app?vid=343cc64c-4a39-45e1-84bf-d73c3feac488"},"vehicle_type_id":"4","last_reported":1744611320,"current_range_meters":11600,"station_id":"ce4bgt12rcd13ifvqcd0","pricing_plan_id":"cebpf4jnsgd1na2vs0mg"},{"bike_id":"7dc344f9-e25b-4767-b943-2086cb106dfa","system_id":"levelo_inurba_marseille","lat":43.29051,"lon":5.39954,"is_reserved":false,"is_disabled":true,"rental_uris":{"android":"levelo://app?vid=7dc344f9-e25b-4767-b943-2086cb106dfa","ios":"levelo://app?vid=7dc344f9-e25b-4767-b943-2086cb106dfa"},"vehicle_type_id":"4","last_reported":1744611320,"current_range_meters":12000,"station_id":"ce4bh392rcd13ifvqdm0","pricing_plan_id":"cebpf4jnsgd1na2vs0mg"},{"bike_id":"229e8b04-963a-4bfa-a656-9fbbab07788e","system_id":"levelo_inurba_marseille","lat":43.31138,"lon":5.38721,"is_reserved":false,"is_disabled":true,"rental_uris":{"android":"levelo://app?vid=229e8b04-963a-4bfa-a656-9fbbab07788e","ios":"levelo://app?vid=229e8b04-963a-4bfa-a656-9fbbab07788e"},"vehicle_type_id":"4","last_reported":1744611320,"current_range_meters":12000,"station_id":"ce4bgv12rcd13ifvqcp0","pricing_plan_id":"cebpf4jnsgd1na2vs0mg"},{"bike_id":"30c1e10a-8e64-456d-9f2b-b52001072faf","system_id":"levelo_inurba_marseille","lat":43.29699,"lon":5.37277,"is_reserved":false,"is_disabled":false,"rental_uris":{"android":"levelo://app?vid=30c1e10a-8e64-456d-9f2b-b52001072faf","ios":"levelo://app?vid=30c1e10a-8e64-456d-9f2b-b52001072faf"},"vehicle_type_id":"4","last_reported":1744611320,"current_range_meters":12400,"station_id":"ce4bgk12rcd13ifvqbj0","pricing_plan_id":"cebpf4jnsgd1na2vs0mg"},{"bike_id":"94ebb454-9dc3-4e5a-a1c0-ae0c608bc7ee","system_id":"levelo_inurba_marseille","lat":43.279943,"lon":5.416575,"is_reserved":false,"is_disabled":true,"rental_uris":{"android":"levelo://app?vid=94ebb454-9dc3-4e5a-a1c0-ae0c608bc7ee","ios":"levelo://app?vid=94ebb454-9dc3-4e5a-a1c0-ae0c608bc7ee"},"vehicle_type_id":"4","last_reported":1744611320,"current_range_meters":12400,"station_id":"ce4bho12rcd13ifvqh1g","pricing_plan_id":"cebpf4jnsgd1na2vs0mg"},{"bike_id":"efbb2abd-4267-4ab4-a434-e3283571934d","system_id":"levelo_inurba_marseille","lat":43.32048,"lon":5.41544,"is_reserved":false,"is_disabled":false,"rental_uris":{"android":"levelo://app?vid=efbb2abd-4267-4ab4-a434-e3283571934d","ios":"levelo://app?vid=efbb2abd-4267-4ab4-a434-e3283571934d"},"vehicle_type_id":"4","last_reported":1744611320,"current_range_meters":12400,"station_id":"ce4bhq92rcd13ifvqhkg","pricing_plan_id":"cebpf4jnsgd1na2vs0mg"},{"bike_id":"72795014-e60d-4831-88a1-e24f7bb1743d","system_id":"levelo_inurba_marseille","lat":43.32389,"lon":5.38997,"is_reserved":false,"is_disabled":true,"rental_uris":{"android":"levelo://app?vid=72795014-e60d-4831-88a1-e24f7bb1743d","ios":"levelo://app?vid=72795014-e60d-4831-88a1-e24f7bb1743d"},"vehicle_type_id":"4","last_reported":1744611320,"current_range_meters":12800,"station_id":"","pricing_plan_id":"cebpf4jnsgd1na2vs0mg"},{"bike_id":"491f8d55-213a-4477-afe5-576efb509e41","system_id":"levelo_inurba_marseille","lat":43.30331,"lon":5.40431,"is_reserved":false,"is_disabled":false,"rental_uris":{"android":"levelo://app?vid=491f8d55-213a-4477-afe5-576efb509e41","ios":"levelo://app?vid=491f8d55-213a-4477-afe5-576efb509e41"},"vehicle_type_id":"4","last_reported":1744611320,"current_range_meters":12800,"station_id":"ce4bh012rcd13ifvqd10","pricing_plan_id":"cebpf4jnsgd1na2vs0mg"},{"bike_id":"d4f810b6-449e-42ac-88be-cc9141c5b583","system_id":"levelo_inurba_marseille","lat":43.30155,"lon":5.38094,"is_reserved":false,"is_disabled":false,"rental_uris":{"android":"levelo://app?vid=d4f810b6-449e-42ac-88be-cc9141c5b583","ios":"levelo://app?vid=d4f810b6-449e-42ac-88be-cc9141c5b583"},"vehicle_type_id":"4","last_reported":1744611320,"current_range_meters":13600,"station_id":"ce4bgjp2rcd13ifvqbh0","pricing_plan_id":"cebpf4jnsgd1na2vs0mg"},{"bike_id":"73e54262-d103-49da-a2c6-d98368397ce4","system_id":"levelo_inurba_marseille","lat":43.2593,"lon":5.4091,"is_reserved":false,"is_disabled":false,"rental_uris":{"android":"levelo://app?vid=73e54262-d103-49da-a2c6-d98368397ce4","ios":"levelo://app?vid=73e54262-d103-49da-a2c6-d98368397ce4"},"vehicle_type_id":"4","last_reported":1744611320,"current_range_meters":13600,"station_id":"ce4bhm92rcd13ifvqglg","pricing_plan_id":"cebpf4jnsgd1na2vs0mg"},{"bike_id":"c5de9f04-a68c-4314-9995-789e3d717983","system_id":"levelo_inurba_marseille","lat":43.24369,"lon":5.3707,"is_reserved":false,"is_disabled":true,"rental_uris":{"android":"levelo://app?vid=c5de9f04-a68c-4314-9995-789e3d717983","ios":"levelo://app?vid=c5de9f04-a68c-4314-9995-789e3d717983"},"vehicle_type_id":"4","last_reported":1744611320,"current_range_meters":13600,"station_id":"ce4bhhh2rcd13ifvqfk0","pricing_plan_id":"cebpf4jnsgd1na2vs0mg"},{"bike_id":"2551df23-46eb-4dc9-b328-33c9a95ff7ca","system_id":"levelo_inurba_marseille","lat":43.29194,"lon":5.36055,"is_reserved":false,"is_disabled":true,"rental_uris":{"android":"levelo://app?vid=2551df23-46eb-4dc9-b328-33c9a95ff7ca","ios":"levelo://app?vid=2551df23-46eb-4dc9-b328-33c9a95ff7ca"},"vehicle_type_id":"4","last_reported":1744611320,"current_range_meters":13600,"station_id":"ce4bhbh2rcd13ifvqeqg","pricing_plan_id":"cebpf4jnsgd1na2vs0mg"},{"bike_id":"935a7e55-4cea-4394-8ed2-15f7e1ee706c","system_id":"levelo_inurba_marseille","lat":43.27248,"lon":5.4314,"is_reserved":false,"is_disabled":false,"rental_uris":{"android":"levelo://app?vid=935a7e55-4cea-4394-8ed2-15f7e1ee706c","ios":"levelo://app?vid=935a7e55-4cea-4394-8ed2-15f7e1ee706c"},"vehicle_type_id":"4","last_reported":1744611320,"current_range_meters":14000,"station_id":"","pricing_plan_id":"cebpf4jnsgd1na2vs0mg"},{"bike_id":"50f3a6ca-1b32-4e17-a21b-a50e16960e96","system_id":"levelo_inurba_marseille","lat":43.337766,"lon":5.374441,"is_reserved":false,"is_disabled":true,"rental_uris":{"android":"levelo://app?vid=50f3a6ca-1b32-4e17-a21b-a50e16960e96","ios":"levelo://app?vid=50f3a6ca-1b32-4e17-a21b-a50e16960e96"},"vehicle_type_id":"4","last_reported":1744611320,"current_range_meters":14000,"station_id":"","pricing_plan_id":"cebpf4jnsgd1na2vs0mg"},{"bike_id":"da48e56b-5b98-4592-a2ea-cf5907cac18b","system_id":"levelo_inurba_marseille","lat":43.337703,"lon":5.374424,"is_reserved":false,"is_disabled":true,"rental_uris":{"android":"levelo://app?vid=da48e56b-5b98-4592-a2ea-cf5907cac18b","ios":"levelo://app?vid=da48e56b-5b98-4592-a2ea-cf5907cac18b"},"vehicle_type_id":"4","last_reported":1744611320,"current_range_meters":14400,"station_id":"","pricing_plan_id":"cebpf4jnsgd1na2vs0mg"},{"bike_id":"86ac3ad7-4349-4b45-82d1-b61ad882a2f6","system_id":"levelo_inurba_marseille","lat":43.21721,"lon":5.34628,"is_reserved":false,"is_disabled":true,"rental_uris":{"android":"levelo://app?vid=86ac3ad7-4349-4b45-82d1-b61ad882a2f6","ios":"levelo://app?vid=86ac3ad7-4349-4b45-82d1-b61ad882a2f6"},"vehicle_type_id":"4","last_reported":1744611320,"current_range_meters":14400,"station_id":"st_cvj6r9ubvosntc0bgbag","pricing_plan_id":"cebpf4jnsgd1na2vs0mg"},{"bike_id":"c2652164-c871-427c-840e-2dcb99169578","system_id":"levelo_inurba_marseille","lat":43.24697,"lon":5.38209,"is_reserved":false,"is_disabled":false,"rental_uris":{"android":"levelo://app?vid=c2652164-c871-427c-840e-2dcb99169578","ios":"levelo://app?vid=c2652164-c871-427c-840e-2dcb99169578"},"vehicle_type_id":"4","last_reported":1744611320,"current_range_meters":15200,"station_id":"ce4bhih2rcd13ifvqfr0","pricing_plan_id":"cebpf4jnsgd1na2vs0mg"},{"bike_id":"9032fd9f-8258-4b06-828f-3216c8110290","system_id":"levelo_inurba_marseille","lat":43.31003,"lon":5.4173,"is_reserved":false,"is_disabled":false,"rental_uris":{"android":"levelo://app?vid=9032fd9f-8258-4b06-828f-3216c8110290","ios":"levelo://app?vid=9032fd9f-8258-4b06-828f-3216c8110290"},"vehicle_type_id":"4","last_reported":1744611320,"current_range_meters":15200,"station_id":"","pricing_plan_id":"cebpf4jnsgd1na2vs0mg"},{"bike_id":"5badbb30-e7bf-4735-8929-7b4b101f03b1","system_id":"levelo_inurba_marseille","lat":43.24178,"lon":5.36394,"is_reserved":false,"is_disabled":false,"rental_uris":{"android":"levelo://app?vid=5badbb30-e7bf-4735-8929-7b4b101f03b1","ios":"levelo://app?vid=5badbb30-e7bf-4735-8929-7b4b101f03b1"},"vehicle_type_id":"4","last_reported":1744611320,"current_range_meters":16000,"station_id":"cpo36qri1sfpv3e86is0","pricing_plan_id":"cebpf4jnsgd1na2vs0mg"},{"bike_id":"216a8464-4ea5-4b56-8cd6-224becea39c4","system_id":"levelo_inurba_marseille","lat":43.27834,"lon":5.40734,"is_reserved":false,"is_disabled":false,"rental_uris":{"android":"levelo://app?vid=216a8464-4ea5-4b56-8cd6-224becea39c4","ios":"levelo://app?vid=216a8464-4ea5-4b56-8cd6-224becea39c4"},"vehicle_type_id":"4","last_reported":1744611320,"current_range_meters":16000,"station_id":"ce4bhnh2rcd13ifvqgtg","pricing_plan_id":"cebpf4jnsgd1na2vs0mg"},{"bike_id":"f78c91d1-04f4-4f78-9165-254b9a501eff","system_id":"levelo_inurba_marseille","lat":43.25909,"lon":5.40913,"is_reserved":false,"is_disabled":false,"rental_uris":{"android":"levelo://app?vid=f78c91d1-04f4-4f78-9165-254b9a501eff","ios":"levelo://app?vid=f78c91d1-04f4-4f78-9165-254b9a501eff"},"vehicle_type_id":"4","last_reported":1744611320,"current_range_meters":16000,"station_id":"ce4bhm92rcd13ifvqglg","pricing_plan_id":"cebpf4jnsgd1na2vs0mg"},{"bike_id":"fb13c941-1858-46a4-86ad-2a5e302996c3","system_id":"levelo_inurba_marseille","lat":43.258623,"lon":5.399082,"is_reserved":false,"is_disabled":true,"rental_uris":{"android":"levelo://app?vid=fb13c941-1858-46a4-86ad-2a5e302996c3","ios":"levelo://app?vid=fb13c941-1858-46a4-86ad-2a5e302996c3"},"vehicle_type_id":"4","last_reported":1744611320,"current_range_meters":16000,"station_id":"ce4bhl92rcd13ifvqghg","pricing_plan_id":"cebpf4jnsgd1na2vs0mg"},{"bike_id":"df49f249-4aa5-4aa6-9193-27ea889ed0d0","system_id":"levelo_inurba_marseille","lat":43.304384,"lon":5.388996,"is_reserved":false,"is_disabled":true,"rental_uris":{"android":"levelo://app?vid=df49f249-4aa5-4aa6-9193-27ea889ed0d0","ios":"levelo://app?vid=df49f249-4aa5-4aa6-9193-27ea889ed0d0"},"vehicle_type_id":"4","last_reported":1744611320,"current_range_meters":16000,"station_id":"ce4bgk12rcd13ifvqbi0","pricing_plan_id":"cebpf4jnsgd1na2vs0mg"},{"bike_id":"27a55245-8dd2-4f1a-af63-95a9d7b71690","system_id":"levelo_inurba_marseille","lat":43.31059,"lon":5.37883,"is_reserved":false,"is_disabled":true,"rental_uris":{"android":"levelo://app?vid=27a55245-8dd2-4f1a-af63-95a9d7b71690","ios":"levelo://app?vid=27a55245-8dd2-4f1a-af63-95a9d7b71690"},"vehicle_type_id":"4","last_reported":1744611320,"current_range_meters":16000,"station_id":"","pricing_plan_id":"cebpf4jnsgd1na2vs0mg"},{"bike_id":"8e84781a-82c3-4b14-a541-78f95f1999c0","system_id":"levelo_inurba_marseille","lat":43.27456,"lon":5.39383,"is_reserved":false,"is_disabled":true,"rental_uris":{"android":"levelo://app?vid=8e84781a-82c3-4b14-a541-78f95f1999c0","ios":"levelo://app?vid=8e84781a-82c3-4b14-a541-78f95f1999c0"},"vehicle_type_id":"4","last_reported":1744611320,"current_range_meters":16400,"station_id":"ce4bhdp2rcd13ifvqf20","pricing_plan_id":"cebpf4jnsgd1na2vs0mg"},{"bike_id":"59c7d7f9-492d-4240-b3d4-e8d1015f1ebd","system_id":"levelo_inurba_marseille","lat":43.21751,"lon":5.34608,"is_reserved":false,"is_disabled":true,"rental_uris":{"android":"levelo://app?vid=59c7d7f9-492d-4240-b3d4-e8d1015f1ebd","ios":"levelo://app?vid=59c7d7f9-492d-4240-b3d4-e8d1015f1ebd"},"vehicle_type_id":"4","last_reported":1744611320,"current_range_meters":16400,"station_id":"st_cvj6r9ubvosntc0bgbag","pricing_plan_id":"cebpf4jnsgd1na2vs0mg"},{"bike_id":"10f9e84f-2f08-49b5-bb9a-785f0bd93774","system_id":"levelo_inurba_marseille","lat":43.28008,"lon":5.40002,"is_reserved":false,"is_disabled":false,"rental_uris":{"android":"levelo://app?vid=10f9e84f-2f08-49b5-bb9a-785f0bd93774","ios":"levelo://app?vid=10f9e84f-2f08-49b5-bb9a-785f0bd93774"},"vehicle_type_id":"4","last_reported":1744611320,"current_range_meters":16400,"station_id":"ce4bho92rcd13ifvqh4g","pricing_plan_id":"cebpf4jnsgd1na2vs0mg"},{"bike_id":"61377ee4-fd99-4c2f-b5ad-a5ac167d945b","system_id":"levelo_inurba_marseille","lat":43.23157,"lon":5.43724,"is_reserved":false,"is_disabled":false,"rental_uris":{"android":"levelo://app?vid=61377ee4-fd99-4c2f-b5ad-a5ac167d945b","ios":"levelo://app?vid=61377ee4-fd99-4c2f-b5ad-a5ac167d945b"},"vehicle_type_id":"4","last_reported":1744611320,"current_range_meters":16400,"station_id":"ce4bhmp2rcd13ifvqgog","pricing_plan_id":"cebpf4jnsgd1na2vs0mg"},{"bike_id":"a6535ba8-9ced-4cad-b71b-a79f16af244f","system_id":"levelo_inurba_marseille","lat":43.24663,"lon":5.38176,"is_reserved":false,"is_disabled":false,"rental_uris":{"android":"levelo://app?vid=a6535ba8-9ced-4cad-b71b-a79f16af244f","ios":"levelo://app?vid=a6535ba8-9ced-4cad-b71b-a79f16af244f"},"vehicle_type_id":"4","last_reported":1744611320,"current_range_meters":16800,"station_id":"ce4bhih2rcd13ifvqfr0","pricing_plan_id":"cebpf4jnsgd1na2vs0mg"},{"bike_id":"b456b85c-8928-4a5a-9171-1132c2572ebe","system_id":"levelo_inurba_marseille","lat":43.267914,"lon":5.402602,"is_reserved":false,"is_disabled":false,"rental_uris":{"android":"levelo://app?vid=b456b85c-8928-4a5a-9171-1132c2572ebe","ios":"levelo://app?vid=b456b85c-8928-4a5a-9171-1132c2572ebe"},"vehicle_type_id":"4","last_reported":1744611320,"current_range_meters":16800,"station_id":"ce501612rcd8frsf0b60","pricing_plan_id":"cebpf4jnsgd1na2vs0mg"},{"bike_id":"72ecbc85-7cd1-4418-be98-d8877b1e610a","system_id":"levelo_inurba_marseille","lat":43.28952,"lon":5.36631,"is_reserved":false,"is_disabled":false,"rental_uris":{"android":"levelo://app?vid=72ecbc85-7cd1-4418-be98-d8877b1e610a","ios":"levelo://app?vid=72ecbc85-7cd1-4418-be98-d8877b1e610a"},"vehicle_type_id":"4","last_reported":1744611320,"current_range_meters":16800,"station_id":"ce4bhap2rcd13ifvqek0","pricing_plan_id":"cebpf4jnsgd1na2vs0mg"},{"bike_id":"2b8a16ed-0cf9-48b4-ad3d-bc7f7993601c","system_id":"levelo_inurba_marseille","lat":43.30544,"lon":5.36549,"is_reserved":false,"is_disabled":false,"rental_uris":{"android":"levelo://app?vid=2b8a16ed-0cf9-48b4-ad3d-bc7f7993601c","ios":"levelo://app?vid=2b8a16ed-0cf9-48b4-ad3d-bc7f7993601c"},"vehicle_type_id":"4","last_reported":1744611320,"current_range_meters":16400,"station_id":"ce4bgs12rcd13ifvqcag","pricing_plan_id":"cebpf4jnsgd1na2vs0mg"},{"bike_id":"810bca26-118c-4e0c-a6a9-454e34e3c288","system_id":"levelo_inurba_marseille","lat":43.30533,"lon":5.36721,"is_reserved":false,"is_disabled":false,"rental_uris":{"android":"levelo://app?vid=810bca26-118c-4e0c-a6a9-454e34e3c288","ios":"levelo://app?vid=810bca26-118c-4e0c-a6a9-454e34e3c288"},"vehicle_type_id":"4","last_reported":1744611320,"current_range_meters":16800,"station_id":"ce4bgrp2rcd13ifvqc9g","pricing_plan_id":"cebpf4jnsgd1na2vs0mg"},{"bike_id":"d4538f71-93b0-4217-9021-68ecfedbe940","system_id":"levelo_inurba_marseille","lat":43.25491,"lon":5.37653,"is_reserved":false,"is_disabled":false,"rental_uris":{"android":"levelo://app?vid=d4538f71-93b0-4217-9021-68ecfedbe940","ios":"levelo://app?vid=d4538f71-93b0-4217-9021-68ecfedbe940"},"vehicle_type_id":"4","last_reported":1744611320,"current_range_meters":17200,"station_id":"ce4bhh12rcd13ifvqff0","pricing_plan_id":"cebpf4jnsgd1na2vs0mg"},{"bike_id":"407a54c4-ce42-4e1a-bc9b-9b8f2ef8a27a","system_id":"levelo_inurba_marseille","lat":43.32413,"lon":5.39122,"is_reserved":false,"is_disabled":true,"rental_uris":{"android":"levelo://app?vid=407a54c4-ce42-4e1a-bc9b-9b8f2ef8a27a","ios":"levelo://app?vid=407a54c4-ce42-4e1a-bc9b-9b8f2ef8a27a"},"vehicle_type_id":"4","last_reported":1744611320,"current_range_meters":17200,"station_id":"","pricing_plan_id":"cebpf4jnsgd1na2vs0mg"},{"bike_id":"7068e823-0ef7-4bec-9d46-9774d9ea3ba0","system_id":"levelo_inurba_marseille","lat":43.31502,"lon":5.37299,"is_reserved":false,"is_disabled":false,"rental_uris":{"android":"levelo://app?vid=7068e823-0ef7-4bec-9d46-9774d9ea3ba0","ios":"levelo://app?vid=7068e823-0ef7-4bec-9d46-9774d9ea3ba0"},"vehicle_type_id":"4","last_reported":1744611320,"current_range_meters":17200,"station_id":"ce4bgt12rcd13ifvqcd0","pricing_plan_id":"cebpf4jnsgd1na2vs0mg"},{"bike_id":"56135a82-d19f-45ea-a72c-58b1131d0fcb","system_id":"levelo_inurba_marseille","lat":43.28129,"lon":5.39633,"is_reserved":false,"is_disabled":true,"rental_uris":{"android":"levelo://app?vid=56135a82-d19f-45ea-a72c-58b1131d0fcb","ios":"levelo://app?vid=56135a82-d19f-45ea-a72c-58b1131d0fcb"},"vehicle_type_id":"4","last_reported":1744611320,"current_range_meters":17200,"station_id":"ce4bho12rcd13ifvqh2g","pricing_plan_id":"cebpf4jnsgd1na2vs0mg"},{"bike_id":"020ed278-c829-4b66-8f5e-46beb322d9a1","system_id":"levelo_inurba_marseille","lat":43.30788,"lon":5.3764,"is_reserved":false,"is_disabled":false,"rental_uris":{"android":"levelo://app?vid=020ed278-c829-4b66-8f5e-46beb322d9a1","ios":"levelo://app?vid=020ed278-c829-4b66-8f5e-46beb322d9a1"},"vehicle_type_id":"4","last_reported":1744611320,"current_range_meters":17600,"station_id":"ce4bgv92rcd13ifvqcq0","pricing_plan_id":"cebpf4jnsgd1na2vs0mg"},{"bike_id":"626065a0-5dba-4dd3-94f8-76bb3800d58f","system_id":"levelo_inurba_marseille","lat":43.25722,"lon":5.41109,"is_reserved":false,"is_disabled":false,"rental_uris":{"android":"levelo://app?vid=626065a0-5dba-4dd3-94f8-76bb3800d58f","ios":"levelo://app?vid=626065a0-5dba-4dd3-94f8-76bb3800d58f"},"vehicle_type_id":"4","last_reported":1744611320,"current_range_meters":17600,"station_id":"ce4bhkp2rcd13ifvqgd0","pricing_plan_id":"cebpf4jnsgd1na2vs0mg"},{"bike_id":"a818834f-725d-4dbb-9bab-d3518b1b13c4","system_id":"levelo_inurba_marseille","lat":43.32358,"lon":5.36761,"is_reserved":false,"is_disabled":false,"rental_uris":{"android":"levelo://app?vid=a818834f-725d-4dbb-9bab-d3518b1b13c4","ios":"levelo://app?vid=a818834f-725d-4dbb-9bab-d3518b1b13c4"},"vehicle_type_id":"4","last_reported":1744611320,"current_range_meters":17600,"station_id":"ce4bhsh2rcd13ifvqi2g","pricing_plan_id":"cebpf4jnsgd1na2vs0mg"},{"bike_id":"7c2a4588-bcf7-4c8d-b580-ff8de5ba6372","system_id":"levelo_inurba_marseille","lat":43.28722,"lon":5.39993,"is_reserved":false,"is_disabled":true,"rental_uris":{"android":"levelo://app?vid=7c2a4588-bcf7-4c8d-b580-ff8de5ba6372","ios":"levelo://app?vid=7c2a4588-bcf7-4c8d-b580-ff8de5ba6372"},"vehicle_type_id":"4","last_reported":1744611320,"current_range_meters":17600,"station_id":"ce4bho92rcd13ifvqh3g","pricing_plan_id":"cebpf4jnsgd1na2vs0mg"},{"bike_id":"92acc3ad-3130-40c6-a9a1-3c9cc354f998","system_id":"levelo_inurba_marseille","lat":43.24391,"lon":5.370638,"is_reserved":false,"is_disabled":false,"rental_uris":{"android":"levelo://app?vid=92acc3ad-3130-40c6-a9a1-3c9cc354f998","ios":"levelo://app?vid=92acc3ad-3130-40c6-a9a1-3c9cc354f998"},"vehicle_type_id":"4","last_reported":1744611320,"current_range_meters":17600,"station_id":"ce4bhhh2rcd13ifvqfk0","pricing_plan_id":"cebpf4jnsgd1na2vs0mg"},{"bike_id":"a8791189-08ab-44ed-9124-c68d4aa71e0a","system_id":"levelo_inurba_marseille","lat":43.28713,"lon":5.39967,"is_reserved":false,"is_disabled":false,"rental_uris":{"android":"levelo://app?vid=a8791189-08ab-44ed-9124-c68d4aa71e0a","ios":"levelo://app?vid=a8791189-08ab-44ed-9124-c68d4aa71e0a"},"vehicle_type_id":"4","last_reported":1744611320,"current_range_meters":17600,"station_id":"ce4bho92rcd13ifvqh3g","pricing_plan_id":"cebpf4jnsgd1na2vs0mg"},{"bike_id":"08e69920-6699-44a2-bf5e-065531bec167","system_id":"levelo_inurba_marseille","lat":43.29226,"lon":5.40119,"is_reserved":false,"is_disabled":true,"rental_uris":{"android":"levelo://app?vid=08e69920-6699-44a2-bf5e-065531bec167","ios":"levelo://app?vid=08e69920-6699-44a2-bf5e-065531bec167"},"vehicle_type_id":"4","last_reported":1744611320,"current_range_meters":17600,"station_id":"","pricing_plan_id":"cebpf4jnsgd1na2vs0mg"},{"bike_id":"c93af6c0-4439-4283-8d45-1b7e8a8fc0e4","system_id":"levelo_inurba_marseille","lat":43.29305,"lon":5.37451,"is_reserved":false,"is_disabled":true,"rental_uris":{"android":"levelo://app?vid=c93af6c0-4439-4283-8d45-1b7e8a8fc0e4","ios":"levelo://app?vid=c93af6c0-4439-4283-8d45-1b7e8a8fc0e4"},"vehicle_type_id":"4","last_reported":1744611320,"current_range_meters":17600,"station_id":"ce4bgi12rcd13ifvqb70","pricing_plan_id":"cebpf4jnsgd1na2vs0mg"},{"bike_id":"e1cdcd88-4a6b-4a95-887f-82f9936440ef","system_id":"levelo_inurba_marseille","lat":43.32546,"lon":5.41445,"is_reserved":false,"is_disabled":false,"rental_uris":{"android":"levelo://app?vid=e1cdcd88-4a6b-4a95-887f-82f9936440ef","ios":"levelo://app?vid=e1cdcd88-4a6b-4a95-887f-82f9936440ef"},"vehicle_type_id":"4","last_reported":1744611320,"current_range_meters":18000,"station_id":"ce4bhq12rcd13ifvqhhg","pricing_plan_id":"cebpf4jnsgd1na2vs0mg"},{"bike_id":"301f53d6-0a8d-48c7-b250-860880def1f4","system_id":"levelo_inurba_marseille","lat":43.31045,"lon":5.37106,"is_reserved":false,"is_disabled":false,"rental_uris":{"android":"levelo://app?vid=301f53d6-0a8d-48c7-b250-860880def1f4","ios":"levelo://app?vid=301f53d6-0a8d-48c7-b250-860880def1f4"},"vehicle_type_id":"4","last_reported":1744611320,"current_range_meters":18000,"station_id":"","pricing_plan_id":"cebpf4jnsgd1na2vs0mg"},{"bike_id":"91cd5f61-fcd7-440a-9c95-b35a968d1ead","system_id":"levelo_inurba_marseille","lat":43.25736,"lon":5.41116,"is_reserved":false,"is_disabled":false,"rental_uris":{"android":"levelo://app?vid=91cd5f61-fcd7-440a-9c95-b35a968d1ead","ios":"levelo://app?vid=91cd5f61-fcd7-440a-9c95-b35a968d1ead"},"vehicle_type_id":"4","last_reported":1744611320,"current_range_meters":18000,"station_id":"ce4bhkp2rcd13ifvqgd0","pricing_plan_id":"cebpf4jnsgd1na2vs0mg"},{"bike_id":"86507adb-43c1-4a89-acc7-c74cd80a099f","system_id":"levelo_inurba_marseille","lat":43.23123,"lon":5.36667,"is_reserved":false,"is_disabled":false,"rental_uris":{"android":"levelo://app?vid=86507adb-43c1-4a89-acc7-c74cd80a099f","ios":"levelo://app?vid=86507adb-43c1-4a89-acc7-c74cd80a099f"},"vehicle_type_id":"4","last_reported":1744611320,"current_range_meters":18000,"station_id":"","pricing_plan_id":"cebpf4jnsgd1na2vs0mg"},{"bike_id":"46e1fc9d-0b93-4a87-b368-562a1bf4c38d","system_id":"levelo_inurba_marseille","lat":43.34146,"lon":5.40949,"is_reserved":false,"is_disabled":false,"rental_uris":{"android":"levelo://app?vid=46e1fc9d-0b93-4a87-b368-562a1bf4c38d","ios":"levelo://app?vid=46e1fc9d-0b93-4a87-b368-562a1bf4c38d"},"vehicle_type_id":"4","last_reported":1744611320,"current_range_meters":18000,"station_id":"ce4bhqh2rcd13ifvqhlg","pricing_plan_id":"cebpf4jnsgd1na2vs0mg"},{"bike_id":"9ccaf1e8-d14c-4218-be36-430bac425c11","system_id":"levelo_inurba_marseille","lat":43.30608,"lon":5.39361,"is_reserved":false,"is_disabled":true,"rental_uris":{"android":"levelo://app?vid=9ccaf1e8-d14c-4218-be36-430bac425c11","ios":"levelo://app?vid=9ccaf1e8-d14c-4218-be36-430bac425c11"},"vehicle_type_id":"4","last_reported":1744611320,"current_range_meters":18800,"station_id":"ce4bh0p2rcd13ifvqd80","pricing_plan_id":"cebpf4jnsgd1na2vs0mg"},{"bike_id":"ec55715f-50ef-4b62-b932-d89df8729be7","system_id":"levelo_inurba_marseille","lat":43.31595,"lon":5.38902,"is_reserved":false,"is_disabled":false,"rental_uris":{"android":"levelo://app?vid=ec55715f-50ef-4b62-b932-d89df8729be7","ios":"levelo://app?vid=ec55715f-50ef-4b62-b932-d89df8729be7"},"vehicle_type_id":"4","last_reported":1744611320,"current_range_meters":18800,"station_id":"","pricing_plan_id":"cebpf4jnsgd1na2vs0mg"},{"bike_id":"d3764e5f-435b-45e6-9606-8ce5a1adcd07","system_id":"levelo_inurba_marseille","lat":43.31481,"lon":5.37311,"is_reserved":false,"is_disabled":false,"rental_uris":{"android":"levelo://app?vid=d3764e5f-435b-45e6-9606-8ce5a1adcd07","ios":"levelo://app?vid=d3764e5f-435b-45e6-9606-8ce5a1adcd07"},"vehicle_type_id":"4","last_reported":1744611320,"current_range_meters":18800,"station_id":"ce4bgt12rcd13ifvqcd0","pricing_plan_id":"cebpf4jnsgd1na2vs0mg"},{"bike_id":"86c06b03-5d3d-487a-bec3-c7d20381f28b","system_id":"levelo_inurba_marseille","lat":43.29019,"lon":5.38159,"is_reserved":false,"is_disabled":true,"rental_uris":{"android":"levelo://app?vid=86c06b03-5d3d-487a-bec3-c7d20381f28b","ios":"levelo://app?vid=86c06b03-5d3d-487a-bec3-c7d20381f28b"},"vehicle_type_id":"4","last_reported":1744611320,"current_range_meters":18800,"station_id":"ce4bh4p2rcd13ifvqe1g","pricing_plan_id":"cebpf4jnsgd1na2vs0mg"},{"bike_id":"9a227ae0-9b0b-49dd-8ce6-99a44c30cb7d","system_id":"levelo_inurba_marseille","lat":43.23153,"lon":5.43721,"is_reserved":false,"is_disabled":false,"rental_uris":{"android":"levelo://app?vid=9a227ae0-9b0b-49dd-8ce6-99a44c30cb7d","ios":"levelo://app?vid=9a227ae0-9b0b-49dd-8ce6-99a44c30cb7d"},"vehicle_type_id":"4","last_reported":1744611320,"current_range_meters":18800,"station_id":"ce4bhmp2rcd13ifvqgog","pricing_plan_id":"cebpf4jnsgd1na2vs0mg"},{"bike_id":"05ef945a-87ec-42f8-9aba-7b0a3ccc320a","system_id":"levelo_inurba_marseille","lat":43.317237,"lon":5.424079,"is_reserved":false,"is_disabled":false,"rental_uris":{"android":"levelo://app?vid=05ef945a-87ec-42f8-9aba-7b0a3ccc320a","ios":"levelo://app?vid=05ef945a-87ec-42f8-9aba-7b0a3ccc320a"},"vehicle_type_id":"4","last_reported":1744611320,"current_range_meters":18800,"station_id":"ce4bhp92rcd13ifvqhbg","pricing_plan_id":"cebpf4jnsgd1na2vs0mg"},{"bike_id":"177c0557-58ff-4f4f-9a4b-4b8689a6410b","system_id":"levelo_inurba_marseille","lat":43.287068,"lon":5.399996,"is_reserved":false,"is_disabled":false,"rental_uris":{"android":"levelo://app?vid=177c0557-58ff-4f4f-9a4b-4b8689a6410b","ios":"levelo://app?vid=177c0557-58ff-4f4f-9a4b-4b8689a6410b"},"vehicle_type_id":"4","last_reported":1744611320,"current_range_meters":19200,"station_id":"ce4bho92rcd13ifvqh3g","pricing_plan_id":"cebpf4jnsgd1na2vs0mg"},{"bike_id":"2f601a2d-782e-46f1-9cec-c8e17e6431fb","system_id":"levelo_inurba_marseille","lat":43.30963,"lon":5.39053,"is_reserved":false,"is_disabled":false,"rental_uris":{"android":"levelo://app?vid=2f601a2d-782e-46f1-9cec-c8e17e6431fb","ios":"levelo://app?vid=2f601a2d-782e-46f1-9cec-c8e17e6431fb"},"vehicle_type_id":"4","last_reported":1744611320,"current_range_meters":19200,"station_id":"ce4bgup2rcd13ifvqco0","pricing_plan_id":"cebpf4jnsgd1na2vs0mg"},{"bike_id":"1db2c28a-e0ef-4f48-818f-eb01d86707b7","system_id":"levelo_inurba_marseille","lat":43.29279,"lon":5.40905,"is_reserved":false,"is_disabled":true,"rental_uris":{"android":"levelo://app?vid=1db2c28a-e0ef-4f48-818f-eb01d86707b7","ios":"levelo://app?vid=1db2c28a-e0ef-4f48-818f-eb01d86707b7"},"vehicle_type_id":"4","last_reported":1744611320,"current_range_meters":19200,"station_id":"ce4bh192rcd13ifvqdc0","pricing_plan_id":"cebpf4jnsgd1na2vs0mg"},{"bike_id":"0c89cc46-3a4b-4000-b641-0c7712c59585","system_id":"levelo_inurba_marseille","lat":43.303229,"lon":5.375125,"is_reserved":false,"is_disabled":true,"rental_uris":{"android":"levelo://app?vid=0c89cc46-3a4b-4000-b641-0c7712c59585","ios":"levelo://app?vid=0c89cc46-3a4b-4000-b641-0c7712c59585"},"vehicle_type_id":"4","last_reported":1744611320,"current_range_meters":19200,"station_id":"","pricing_plan_id":"cebpf4jnsgd1na2vs0mg"},{"bike_id":"382a1a40-cce5-4bcf-8677-ad51fb5a2457","system_id":"levelo_inurba_marseille","lat":43.2882,"lon":5.39318,"is_reserved":false,"is_disabled":true,"rental_uris":{"android":"levelo://app?vid=382a1a40-cce5-4bcf-8677-ad51fb5a2457","ios":"levelo://app?vid=382a1a40-cce5-4bcf-8677-ad51fb5a2457"},"vehicle_type_id":"4","last_reported":1744611320,"current_range_meters":19200,"station_id":"ce4bh2p2rcd13ifvqdi0","pricing_plan_id":"cebpf4jnsgd1na2vs0mg"},{"bike_id":"577ffec8-632b-4e30-b8cf-6b3da4fe608a","system_id":"levelo_inurba_marseille","lat":43.257298,"lon":5.417398,"is_reserved":false,"is_disabled":false,"rental_uris":{"android":"levelo://app?vid=577ffec8-632b-4e30-b8cf-6b3da4fe608a","ios":"levelo://app?vid=577ffec8-632b-4e30-b8cf-6b3da4fe608a"},"vehicle_type_id":"4","last_reported":1744611320,"current_range_meters":19200,"station_id":"","pricing_plan_id":"cebpf4jnsgd1na2vs0mg"},{"bike_id":"e951b6c2-47b9-4111-a7ec-03f8051784e9","system_id":"levelo_inurba_marseille","lat":43.25931,"lon":5.40957,"is_reserved":false,"is_disabled":false,"rental_uris":{"android":"levelo://app?vid=e951b6c2-47b9-4111-a7ec-03f8051784e9","ios":"levelo://app?vid=e951b6c2-47b9-4111-a7ec-03f8051784e9"},"vehicle_type_id":"4","last_reported":1744611320,"current_range_meters":19200,"station_id":"ce4bhm92rcd13ifvqglg","pricing_plan_id":"cebpf4jnsgd1na2vs0mg"},{"bike_id":"f2b958c0-24a2-4e27-9609-9870f4395933","system_id":"levelo_inurba_marseille","lat":43.29066,"lon":5.40016,"is_reserved":false,"is_disabled":true,"rental_uris":{"android":"levelo://app?vid=f2b958c0-24a2-4e27-9609-9870f4395933","ios":"levelo://app?vid=f2b958c0-24a2-4e27-9609-9870f4395933"},"vehicle_type_id":"4","last_reported":1744611320,"current_range_meters":19600,"station_id":"","pricing_plan_id":"cebpf4jnsgd1na2vs0mg"},{"bike_id":"4bde7ac1-16a4-4691-a3fc-be036661e2eb","system_id":"levelo_inurba_marseille","lat":43.24167,"lon":5.36396,"is_reserved":false,"is_disabled":false,"rental_uris":{"android":"levelo://app?vid=4bde7ac1-16a4-4691-a3fc-be036661e2eb","ios":"levelo://app?vid=4bde7ac1-16a4-4691-a3fc-be036661e2eb"},"vehicle_type_id":"4","last_reported":1744611320,"current_range_meters":19600,"station_id":"cpo36qri1sfpv3e86is0","pricing_plan_id":"cebpf4jnsgd1na2vs0mg"},{"bike_id":"730c5e85-5d7c-4ba0-bad9-be798910c304","system_id":"levelo_inurba_marseille","lat":43.29442,"lon":5.39748,"is_reserved":false,"is_disabled":false,"rental_uris":{"android":"levelo://app?vid=730c5e85-5d7c-4ba0-bad9-be798910c304","ios":"levelo://app?vid=730c5e85-5d7c-4ba0-bad9-be798910c304"},"vehicle_type_id":"4","last_reported":1744611320,"current_range_meters":19600,"station_id":"ce4bh3h2rcd13ifvqdo0","pricing_plan_id":"cebpf4jnsgd1na2vs0mg"},{"bike_id":"d2d37f01-fa46-4fbc-a721-7789f4003663","system_id":"levelo_inurba_marseille","lat":43.24975,"lon":5.38961,"is_reserved":false,"is_disabled":false,"rental_uris":{"android":"levelo://app?vid=d2d37f01-fa46-4fbc-a721-7789f4003663","ios":"levelo://app?vid=d2d37f01-fa46-4fbc-a721-7789f4003663"},"vehicle_type_id":"4","last_reported":1744611320,"current_range_meters":19600,"station_id":"ce4bhgp2rcd13ifvqfd0","pricing_plan_id":"cebpf4jnsgd1na2vs0mg"},{"bike_id":"a5c728b7-8f91-4df9-ad18-07e0dacd0eab","system_id":"levelo_inurba_marseille","lat":43.30933,"lon":5.40146,"is_reserved":false,"is_disabled":false,"rental_uris":{"android":"levelo://app?vid=a5c728b7-8f91-4df9-ad18-07e0dacd0eab","ios":"levelo://app?vid=a5c728b7-8f91-4df9-ad18-07e0dacd0eab"},"vehicle_type_id":"4","last_reported":1744611320,"current_range_meters":20400,"station_id":"ce4bgvp2rcd13ifvqct0","pricing_plan_id":"cebpf4jnsgd1na2vs0mg"},{"bike_id":"605dd58f-f426-4430-a476-fb56d2facab6","system_id":"levelo_inurba_marseille","lat":43.33602,"lon":5.410044,"is_reserved":false,"is_disabled":false,"rental_uris":{"android":"levelo://app?vid=605dd58f-f426-4430-a476-fb56d2facab6","ios":"levelo://app?vid=605dd58f-f426-4430-a476-fb56d2facab6"},"vehicle_type_id":"4","last_reported":1744611320,"current_range_meters":19600,"station_id":"ce4bhqh2rcd13ifvqhmg","pricing_plan_id":"cebpf4jnsgd1na2vs0mg"},{"bike_id":"d3ef79fd-6570-4243-bf7a-f37d60285df3","system_id":"levelo_inurba_marseille","lat":43.24168,"lon":5.36397,"is_reserved":false,"is_disabled":false,"rental_uris":{"android":"levelo://app?vid=d3ef79fd-6570-4243-bf7a-f37d60285df3","ios":"levelo://app?vid=d3ef79fd-6570-4243-bf7a-f37d60285df3"},"vehicle_type_id":"4","last_reported":1744611320,"current_range_meters":19600,"station_id":"cpo36qri1sfpv3e86is0","pricing_plan_id":"cebpf4jnsgd1na2vs0mg"},{"bike_id":"38355223-d483-4dc5-a030-a69ad04c1b53","system_id":"levelo_inurba_marseille","lat":43.30484,"lon":5.37898,"is_reserved":false,"is_disabled":false,"rental_uris":{"android":"levelo://app?vid=38355223-d483-4dc5-a030-a69ad04c1b53","ios":"levelo://app?vid=38355223-d483-4dc5-a030-a69ad04c1b53"},"vehicle_type_id":"4","last_reported":1744611320,"current_range_meters":19600,"station_id":"ce4bgup2rcd13ifvqcn0","pricing_plan_id":"cebpf4jnsgd1na2vs0mg"},{"bike_id":"205a676e-388e-4b5d-b5d4-92bca6b76c07","system_id":"levelo_inurba_marseille","lat":43.31155,"lon":5.38016,"is_reserved":false,"is_disabled":true,"rental_uris":{"android":"levelo://app?vid=205a676e-388e-4b5d-b5d4-92bca6b76c07","ios":"levelo://app?vid=205a676e-388e-4b5d-b5d4-92bca6b76c07"},"vehicle_type_id":"4","last_reported":1744611320,"current_range_meters":19600,"station_id":"","pricing_plan_id":"cebpf4jnsgd1na2vs0mg"},{"bike_id":"1e8cc7af-6955-45de-96fb-b930b948e842","system_id":"levelo_inurba_marseille","lat":43.30607,"lon":5.39351,"is_reserved":false,"is_disabled":false,"rental_uris":{"android":"levelo://app?vid=1e8cc7af-6955-45de-96fb-b930b948e842","ios":"levelo://app?vid=1e8cc7af-6955-45de-96fb-b930b948e842"},"vehicle_type_id":"4","last_reported":1744611320,"current_range_meters":20000,"station_id":"ce4bh0p2rcd13ifvqd80","pricing_plan_id":"cebpf4jnsgd1na2vs0mg"},{"bike_id":"8ba8da06-09b4-4e35-9af5-e823a105a352","system_id":"levelo_inurba_marseille","lat":43.230686,"lon":5.354874,"is_reserved":false,"is_disabled":false,"rental_uris":{"android":"levelo://app?vid=8ba8da06-09b4-4e35-9af5-e823a105a352","ios":"levelo://app?vid=8ba8da06-09b4-4e35-9af5-e823a105a352"},"vehicle_type_id":"4","last_reported":1744611320,"current_range_meters":20000,"station_id":"cpo3342slgdg3j2ifvpg","pricing_plan_id":"cebpf4jnsgd1na2vs0mg"},{"bike_id":"e99bbbc0-9729-4b2e-8bfc-ad4234220e71","system_id":"levelo_inurba_marseille","lat":43.30892,"lon":5.37198,"is_reserved":false,"is_disabled":false,"rental_uris":{"android":"levelo://app?vid=e99bbbc0-9729-4b2e-8bfc-ad4234220e71","ios":"levelo://app?vid=e99bbbc0-9729-4b2e-8bfc-ad4234220e71"},"vehicle_type_id":"4","last_reported":1744611320,"current_range_meters":20000,"station_id":"ce4bguh2rcd13ifvqckg","pricing_plan_id":"cebpf4jnsgd1na2vs0mg"},{"bike_id":"bab3be6d-6345-43f6-b375-913477b629be","system_id":"levelo_inurba_marseille","lat":43.30175,"lon":5.366283,"is_reserved":false,"is_disabled":false,"rental_uris":{"android":"levelo://app?vid=bab3be6d-6345-43f6-b375-913477b629be","ios":"levelo://app?vid=bab3be6d-6345-43f6-b375-913477b629be"},"vehicle_type_id":"4","last_reported":1744611320,"current_range_meters":20000,"station_id":"ce4bgrh2rcd13ifvqc8g","pricing_plan_id":"cebpf4jnsgd1na2vs0mg"},{"bike_id":"7b98c8bb-62d9-4cd3-a36f-0a17b94f78cd","system_id":"levelo_inurba_marseille","lat":43.23488,"lon":5.38091,"is_reserved":false,"is_disabled":false,"rental_uris":{"android":"levelo://app?vid=7b98c8bb-62d9-4cd3-a36f-0a17b94f78cd","ios":"levelo://app?vid=7b98c8bb-62d9-4cd3-a36f-0a17b94f78cd"},"vehicle_type_id":"4","last_reported":1744611320,"current_range_meters":20000,"station_id":"","pricing_plan_id":"cebpf4jnsgd1na2vs0mg"},{"bike_id":"8712c4fb-fd70-4efb-a2f3-0da4120a3f95","system_id":"levelo_inurba_marseille","lat":43.31202,"lon":5.38704,"is_reserved":false,"is_disabled":true,"rental_uris":{"android":"levelo://app?vid=8712c4fb-fd70-4efb-a2f3-0da4120a3f95","ios":"levelo://app?vid=8712c4fb-fd70-4efb-a2f3-0da4120a3f95"},"vehicle_type_id":"4","last_reported":1744611320,"current_range_meters":20000,"station_id":"ce4bgv12rcd13ifvqcp0","pricing_plan_id":"cebpf4jnsgd1na2vs0mg"},{"bike_id":"af757c1b-a0cd-42a7-b400-8982e931e188","system_id":"levelo_inurba_marseille","lat":43.30294,"lon":5.36908,"is_reserved":false,"is_disabled":false,"rental_uris":{"android":"levelo://app?vid=af757c1b-a0cd-42a7-b400-8982e931e188","ios":"levelo://app?vid=af757c1b-a0cd-42a7-b400-8982e931e188"},"vehicle_type_id":"4","last_reported":1744611320,"current_range_meters":20000,"station_id":"ce4bgqh2rcd13ifvqc5g","pricing_plan_id":"cebpf4jnsgd1na2vs0mg"},{"bike_id":"b3ea20ce-5604-45b6-ace7-cad39f4f56d5","system_id":"levelo_inurba_marseille","lat":43.29657,"lon":5.36379,"is_reserved":false,"is_disabled":false,"rental_uris":{"android":"levelo://app?vid=b3ea20ce-5604-45b6-ace7-cad39f4f56d5","ios":"levelo://app?vid=b3ea20ce-5604-45b6-ace7-cad39f4f56d5"},"vehicle_type_id":"4","last_reported":1744611320,"current_range_meters":20400,"station_id":"","pricing_plan_id":"cebpf4jnsgd1na2vs0mg"},{"bike_id":"469cac9e-0c72-4c46-a796-98a152ab1135","system_id":"levelo_inurba_marseille","lat":43.23516,"lon":5.41353,"is_reserved":false,"is_disabled":false,"rental_uris":{"android":"levelo://app?vid=469cac9e-0c72-4c46-a796-98a152ab1135","ios":"levelo://app?vid=469cac9e-0c72-4c46-a796-98a152ab1135"},"vehicle_type_id":"4","last_reported":1744611320,"current_range_meters":20400,"station_id":"","pricing_plan_id":"cebpf4jnsgd1na2vs0mg"},{"bike_id":"d2e7b202-c0a7-4bdc-b207-26c7ead4fb9c","system_id":"levelo_inurba_marseille","lat":43.26556,"lon":5.37325,"is_reserved":false,"is_disabled":true,"rental_uris":{"android":"levelo://app?vid=d2e7b202-c0a7-4bdc-b207-26c7ead4fb9c","ios":"levelo://app?vid=d2e7b202-c0a7-4bdc-b207-26c7ead4fb9c"},"vehicle_type_id":"4","last_reported":1744611320,"current_range_meters":20400,"station_id":"ce4bhg12rcd13ifvqf70","pricing_plan_id":"cebpf4jnsgd1na2vs0mg"},{"bike_id":"8ba444c2-d8e1-42ae-9dd8-6b48744e7629","system_id":"levelo_inurba_marseille","lat":43.30925,"lon":5.36666,"is_reserved":false,"is_disabled":true,"rental_uris":{"android":"levelo://app?vid=8ba444c2-d8e1-42ae-9dd8-6b48744e7629","ios":"levelo://app?vid=8ba444c2-d8e1-42ae-9dd8-6b48744e7629"},"vehicle_type_id":"4","last_reported":1744611320,"current_range_meters":20800,"station_id":"","pricing_plan_id":"cebpf4jnsgd1na2vs0mg"},{"bike_id":"c6f0793b-a8c0-4ceb-9961-7f0f54665723","system_id":"levelo_inurba_marseille","lat":43.24179,"lon":5.39723,"is_reserved":false,"is_disabled":false,"rental_uris":{"android":"levelo://app?vid=c6f0793b-a8c0-4ceb-9961-7f0f54665723","ios":"levelo://app?vid=c6f0793b-a8c0-4ceb-9961-7f0f54665723"},"vehicle_type_id":"4","last_reported":1744611320,"current_range_meters":20800,"station_id":"ce4bhn12rcd13ifvqgpg","pricing_plan_id":"cebpf4jnsgd1na2vs0mg"},{"bike_id":"40e32cee-9c94-4ec8-8cc1-dfc745c5629a","system_id":"levelo_inurba_marseille","lat":43.241695,"lon":5.364066,"is_reserved":false,"is_disabled":false,"rental_uris":{"android":"levelo://app?vid=40e32cee-9c94-4ec8-8cc1-dfc745c5629a","ios":"levelo://app?vid=40e32cee-9c94-4ec8-8cc1-dfc745c5629a"},"vehicle_type_id":"4","last_reported":1744611320,"current_range_meters":20800,"station_id":"cpo36qri1sfpv3e86is0","pricing_plan_id":"cebpf4jnsgd1na2vs0mg"},{"bike_id":"80f053ef-e33b-4a29-aa28-851a89dc91ac","system_id":"levelo_inurba_marseille","lat":43.28677,"lon":5.39974,"is_reserved":false,"is_disabled":false,"rental_uris":{"android":"levelo://app?vid=80f053ef-e33b-4a29-aa28-851a89dc91ac","ios":"levelo://app?vid=80f053ef-e33b-4a29-aa28-851a89dc91ac"},"vehicle_type_id":"4","last_reported":1744611320,"current_range_meters":20800,"station_id":"ce4bho92rcd13ifvqh3g","pricing_plan_id":"cebpf4jnsgd1na2vs0mg"},{"bike_id":"780a0686-9af7-41e6-bbd7-3db6c50456a5","system_id":"levelo_inurba_marseille","lat":43.304685,"lon":5.379095,"is_reserved":false,"is_disabled":false,"rental_uris":{"android":"levelo://app?vid=780a0686-9af7-41e6-bbd7-3db6c50456a5","ios":"levelo://app?vid=780a0686-9af7-41e6-bbd7-3db6c50456a5"},"vehicle_type_id":"4","last_reported":1744611320,"current_range_meters":21600,"station_id":"ce4bgup2rcd13ifvqcn0","pricing_plan_id":"cebpf4jnsgd1na2vs0mg"},{"bike_id":"d3a6e040-4c66-4701-9487-0913f4157ba8","system_id":"levelo_inurba_marseille","lat":43.27502,"lon":5.42472,"is_reserved":false,"is_disabled":false,"rental_uris":{"android":"levelo://app?vid=d3a6e040-4c66-4701-9487-0913f4157ba8","ios":"levelo://app?vid=d3a6e040-4c66-4701-9487-0913f4157ba8"},"vehicle_type_id":"4","last_reported":1744611320,"current_range_meters":21600,"station_id":"ce4bhn92rcd13ifvqgrg","pricing_plan_id":"cebpf4jnsgd1na2vs0mg"},{"bike_id":"46238be7-bf23-4cc1-97e3-53370c252017","system_id":"levelo_inurba_marseille","lat":43.290369,"lon":5.399821,"is_reserved":false,"is_disabled":false,"rental_uris":{"android":"levelo://app?vid=46238be7-bf23-4cc1-97e3-53370c252017","ios":"levelo://app?vid=46238be7-bf23-4cc1-97e3-53370c252017"},"vehicle_type_id":"4","last_reported":1744611320,"current_range_meters":21600,"station_id":"ce4bh392rcd13ifvqdm0","pricing_plan_id":"cebpf4jnsgd1na2vs0mg"},{"bike_id":"1bbf1fe4-cc43-4347-a86d-8e9b83aa164f","system_id":"levelo_inurba_marseille","lat":43.28703,"lon":5.374,"is_reserved":false,"is_disabled":false,"rental_uris":{"android":"levelo://app?vid=1bbf1fe4-cc43-4347-a86d-8e9b83aa164f","ios":"levelo://app?vid=1bbf1fe4-cc43-4347-a86d-8e9b83aa164f"},"vehicle_type_id":"4","last_reported":1744611320,"current_range_meters":21600,"station_id":"ce4bh3p2rcd13ifvqdq0","pricing_plan_id":"cebpf4jnsgd1na2vs0mg"},{"bike_id":"d39a297e-b81a-445b-909a-68bb361aae1d","system_id":"levelo_inurba_marseille","lat":43.28485,"lon":5.3856,"is_reserved":false,"is_disabled":false,"rental_uris":{"android":"levelo://app?vid=d39a297e-b81a-445b-909a-68bb361aae1d","ios":"levelo://app?vid=d39a297e-b81a-445b-909a-68bb361aae1d"},"vehicle_type_id":"4","last_reported":1744611320,"current_range_meters":22000,"station_id":"ce4bh8p2rcd13ifvqeb0","pricing_plan_id":"cebpf4jnsgd1na2vs0mg"},{"bike_id":"06de46b6-2e50-4a75-83c0-d1e92fc89a31","system_id":"levelo_inurba_marseille","lat":43.289673,"lon":5.37273,"is_reserved":false,"is_disabled":false,"rental_uris":{"android":"levelo://app?vid=06de46b6-2e50-4a75-83c0-d1e92fc89a31","ios":"levelo://app?vid=06de46b6-2e50-4a75-83c0-d1e92fc89a31"},"vehicle_type_id":"4","last_reported":1744611320,"current_range_meters":22000,"station_id":"ce4bgkh2rcd13ifvqbl0","pricing_plan_id":"cebpf4jnsgd1na2vs0mg"},{"bike_id":"13cbbd1a-32ff-4c3a-9da5-9c5de663fe7a","system_id":"levelo_inurba_marseille","lat":43.24177,"lon":5.39733,"is_reserved":false,"is_disabled":false,"rental_uris":{"android":"levelo://app?vid=13cbbd1a-32ff-4c3a-9da5-9c5de663fe7a","ios":"levelo://app?vid=13cbbd1a-32ff-4c3a-9da5-9c5de663fe7a"},"vehicle_type_id":"4","last_reported":1744611320,"current_range_meters":22000,"station_id":"ce4bhn12rcd13ifvqgpg","pricing_plan_id":"cebpf4jnsgd1na2vs0mg"},{"bike_id":"43f58436-ed0c-4ef8-928b-e1986da84aa3","system_id":"levelo_inurba_marseille","lat":43.22922,"lon":5.353815,"is_reserved":false,"is_disabled":false,"rental_uris":{"android":"levelo://app?vid=43f58436-ed0c-4ef8-928b-e1986da84aa3","ios":"levelo://app?vid=43f58436-ed0c-4ef8-928b-e1986da84aa3"},"vehicle_type_id":"4","last_reported":1744611320,"current_range_meters":22000,"station_id":"cpo3532slgdg3j2ikp40","pricing_plan_id":"cebpf4jnsgd1na2vs0mg"},{"bike_id":"0dc05c3d-e964-42f6-aef2-d753c749006a","system_id":"levelo_inurba_marseille","lat":43.26934,"lon":5.40257,"is_reserved":false,"is_disabled":true,"rental_uris":{"android":"levelo://app?vid=0dc05c3d-e964-42f6-aef2-d753c749006a","ios":"levelo://app?vid=0dc05c3d-e964-42f6-aef2-d753c749006a"},"vehicle_type_id":"4","last_reported":1744611320,"current_range_meters":22000,"station_id":"ce4bh312rcd13ifvqdj0","pricing_plan_id":"cebpf4jnsgd1na2vs0mg"},{"bike_id":"8898e3fe-c2b6-40b0-a364-f06265fc78c4","system_id":"levelo_inurba_marseille","lat":43.28707,"lon":5.37949,"is_reserved":false,"is_disabled":true,"rental_uris":{"android":"levelo://app?vid=8898e3fe-c2b6-40b0-a364-f06265fc78c4","ios":"levelo://app?vid=8898e3fe-c2b6-40b0-a364-f06265fc78c4"},"vehicle_type_id":"4","last_reported":1744611320,"current_range_meters":22000,"station_id":"ce4bh9p2rcd13ifvqec0","pricing_plan_id":"cebpf4jnsgd1na2vs0mg"},{"bike_id":"36c8e20b-456c-4361-b715-596ebc53f83c","system_id":"levelo_inurba_marseille","lat":43.28655,"lon":5.39979,"is_reserved":false,"is_disabled":false,"rental_uris":{"android":"levelo://app?vid=36c8e20b-456c-4361-b715-596ebc53f83c","ios":"levelo://app?vid=36c8e20b-456c-4361-b715-596ebc53f83c"},"vehicle_type_id":"4","last_reported":1744611320,"current_range_meters":22000,"station_id":"ce4bho92rcd13ifvqh3g","pricing_plan_id":"cebpf4jnsgd1na2vs0mg"},{"bike_id":"5cf6443d-70ca-4ec8-b6e1-d64c9c6fb393","system_id":"levelo_inurba_marseille","lat":43.27376,"lon":5.36243,"is_reserved":false,"is_disabled":true,"rental_uris":{"android":"levelo://app?vid=5cf6443d-70ca-4ec8-b6e1-d64c9c6fb393","ios":"levelo://app?vid=5cf6443d-70ca-4ec8-b6e1-d64c9c6fb393"},"vehicle_type_id":"4","last_reported":1744611320,"current_range_meters":22000,"station_id":"ce4bhbh2rcd13ifvqeo0","pricing_plan_id":"cebpf4jnsgd1na2vs0mg"},{"bike_id":"eda67c80-ce7e-4d04-9da3-e0218af0fb5d","system_id":"levelo_inurba_marseille","lat":43.23194,"lon":5.40001,"is_reserved":false,"is_disabled":true,"rental_uris":{"android":"levelo://app?vid=eda67c80-ce7e-4d04-9da3-e0218af0fb5d","ios":"levelo://app?vid=eda67c80-ce7e-4d04-9da3-e0218af0fb5d"},"vehicle_type_id":"4","last_reported":1744611320,"current_range_meters":22400,"station_id":"ce4bhn12rcd13ifvqgqg","pricing_plan_id":"cebpf4jnsgd1na2vs0mg"},{"bike_id":"37aab643-a03b-4324-b0c2-f9b062aff4f0","system_id":"levelo_inurba_marseille","lat":43.30161,"lon":5.3809,"is_reserved":false,"is_disabled":false,"rental_uris":{"android":"levelo://app?vid=37aab643-a03b-4324-b0c2-f9b062aff4f0","ios":"levelo://app?vid=37aab643-a03b-4324-b0c2-f9b062aff4f0"},"vehicle_type_id":"4","last_reported":1744611320,"current_range_meters":22400,"station_id":"ce4bgjp2rcd13ifvqbh0","pricing_plan_id":"cebpf4jnsgd1na2vs0mg"},{"bike_id":"42d1de0b-8ab3-460a-9c4e-a1adbfa578cc","system_id":"levelo_inurba_marseille","lat":43.28031,"lon":5.36937,"is_reserved":false,"is_disabled":true,"rental_uris":{"android":"levelo://app?vid=42d1de0b-8ab3-460a-9c4e-a1adbfa578cc","ios":"levelo://app?vid=42d1de0b-8ab3-460a-9c4e-a1adbfa578cc"},"vehicle_type_id":"4","last_reported":1744611320,"current_range_meters":22400,"station_id":"ce4bha12rcd13ifvqef0","pricing_plan_id":"cebpf4jnsgd1na2vs0mg"},{"bike_id":"33f29b75-f4e6-4e71-a299-29a3904a9b72","system_id":"levelo_inurba_marseille","lat":43.34149,"lon":5.4092,"is_reserved":false,"is_disabled":false,"rental_uris":{"android":"levelo://app?vid=33f29b75-f4e6-4e71-a299-29a3904a9b72","ios":"levelo://app?vid=33f29b75-f4e6-4e71-a299-29a3904a9b72"},"vehicle_type_id":"4","last_reported":1744611320,"current_range_meters":22400,"station_id":"ce4bhqh2rcd13ifvqhlg","pricing_plan_id":"cebpf4jnsgd1na2vs0mg"},{"bike_id":"4d5f53c7-37a7-4e9c-adbc-852490a34e03","system_id":"levelo_inurba_marseille","lat":43.29579,"lon":5.3997,"is_reserved":false,"is_disabled":false,"rental_uris":{"android":"levelo://app?vid=4d5f53c7-37a7-4e9c-adbc-852490a34e03","ios":"levelo://app?vid=4d5f53c7-37a7-4e9c-adbc-852490a34e03"},"vehicle_type_id":"4","last_reported":1744611320,"current_range_meters":22400,"station_id":"ce4bh312rcd13ifvqdj0","pricing_plan_id":"cebpf4jnsgd1na2vs0mg"},{"bike_id":"0dbb8451-6fbf-4474-9639-bd687b68c8c2","system_id":"levelo_inurba_marseille","lat":43.31572,"lon":5.3752,"is_reserved":false,"is_disabled":false,"rental_uris":{"android":"levelo://app?vid=0dbb8451-6fbf-4474-9639-bd687b68c8c2","ios":"levelo://app?vid=0dbb8451-6fbf-4474-9639-bd687b68c8c2"},"vehicle_type_id":"4","last_reported":1744611320,"current_range_meters":22400,"station_id":"","pricing_plan_id":"cebpf4jnsgd1na2vs0mg"},{"bike_id":"1ed8392d-f2e0-43c7-a523-16860ef26f19","system_id":"levelo_inurba_marseille","lat":43.29042,"lon":5.39951,"is_reserved":false,"is_disabled":false,"rental_uris":{"android":"levelo://app?vid=1ed8392d-f2e0-43c7-a523-16860ef26f19","ios":"levelo://app?vid=1ed8392d-f2e0-43c7-a523-16860ef26f19"},"vehicle_type_id":"4","last_reported":1744611320,"current_range_meters":22400,"station_id":"ce4bh392rcd13ifvqdm0","pricing_plan_id":"cebpf4jnsgd1na2vs0mg"},{"bike_id":"95c65c4e-3136-49d0-8cbf-79273800a322","system_id":"levelo_inurba_marseille","lat":43.307856,"lon":5.376465,"is_reserved":false,"is_disabled":false,"rental_uris":{"android":"levelo://app?vid=95c65c4e-3136-49d0-8cbf-79273800a322","ios":"levelo://app?vid=95c65c4e-3136-49d0-8cbf-79273800a322"},"vehicle_type_id":"4","last_reported":1744611320,"current_range_meters":22400,"station_id":"ce4bgv92rcd13ifvqcq0","pricing_plan_id":"cebpf4jnsgd1na2vs0mg"},{"bike_id":"f6375cd8-5ddf-4b3f-b398-501a93558e36","system_id":"levelo_inurba_marseille","lat":43.241697,"lon":5.364031,"is_reserved":false,"is_disabled":false,"rental_uris":{"android":"levelo://app?vid=f6375cd8-5ddf-4b3f-b398-501a93558e36","ios":"levelo://app?vid=f6375cd8-5ddf-4b3f-b398-501a93558e36"},"vehicle_type_id":"4","last_reported":1744611320,"current_range_meters":22400,"station_id":"cpo36qri1sfpv3e86is0","pricing_plan_id":"cebpf4jnsgd1na2vs0mg"},{"bike_id":"5024480a-8568-40d5-86c2-819dbdab970a","system_id":"levelo_inurba_marseille","lat":43.29813,"lon":5.38127,"is_reserved":false,"is_disabled":true,"rental_uris":{"android":"levelo://app?vid=5024480a-8568-40d5-86c2-819dbdab970a","ios":"levelo://app?vid=5024480a-8568-40d5-86c2-819dbdab970a"},"vehicle_type_id":"4","last_reported":1744611320,"current_range_meters":22400,"station_id":"ce4bgip2rcd13ifvqbb0","pricing_plan_id":"cebpf4jnsgd1na2vs0mg"},{"bike_id":"d111cc14-d9bf-4634-9493-154ce676b357","system_id":"levelo_inurba_marseille","lat":43.3047,"lon":5.37896,"is_reserved":false,"is_disabled":false,"rental_uris":{"android":"levelo://app?vid=d111cc14-d9bf-4634-9493-154ce676b357","ios":"levelo://app?vid=d111cc14-d9bf-4634-9493-154ce676b357"},"vehicle_type_id":"4","last_reported":1744611320,"current_range_meters":22800,"station_id":"ce4bgup2rcd13ifvqcn0","pricing_plan_id":"cebpf4jnsgd1na2vs0mg"},{"bike_id":"978c3251-2dd4-4326-91be-f80bb46db8f7","system_id":"levelo_inurba_marseille","lat":43.29046,"lon":5.40008,"is_reserved":false,"is_disabled":false,"rental_uris":{"android":"levelo://app?vid=978c3251-2dd4-4326-91be-f80bb46db8f7","ios":"levelo://app?vid=978c3251-2dd4-4326-91be-f80bb46db8f7"},"vehicle_type_id":"4","last_reported":1744611320,"current_range_meters":22800,"station_id":"ce4bh392rcd13ifvqdm0","pricing_plan_id":"cebpf4jnsgd1na2vs0mg"},{"bike_id":"389d8d38-8613-422a-a25c-551d9c175038","system_id":"levelo_inurba_marseille","lat":43.30469,"lon":5.37896,"is_reserved":false,"is_disabled":false,"rental_uris":{"android":"levelo://app?vid=389d8d38-8613-422a-a25c-551d9c175038","ios":"levelo://app?vid=389d8d38-8613-422a-a25c-551d9c175038"},"vehicle_type_id":"4","last_reported":1744611320,"current_range_meters":22800,"station_id":"ce4bgup2rcd13ifvqcn0","pricing_plan_id":"cebpf4jnsgd1na2vs0mg"},{"bike_id":"e2b5c1c3-8a61-4de4-a851-cf768b759e51","system_id":"levelo_inurba_marseille","lat":43.24166,"lon":5.39747,"is_reserved":false,"is_disabled":false,"rental_uris":{"android":"levelo://app?vid=e2b5c1c3-8a61-4de4-a851-cf768b759e51","ios":"levelo://app?vid=e2b5c1c3-8a61-4de4-a851-cf768b759e51"},"vehicle_type_id":"4","last_reported":1744611320,"current_range_meters":22800,"station_id":"ce4bhn12rcd13ifvqgpg","pricing_plan_id":"cebpf4jnsgd1na2vs0mg"},{"bike_id":"aa1ee5e1-0d0f-4792-acc4-9604db999f76","system_id":"levelo_inurba_marseille","lat":43.30327,"lon":5.40439,"is_reserved":false,"is_disabled":false,"rental_uris":{"android":"levelo://app?vid=aa1ee5e1-0d0f-4792-acc4-9604db999f76","ios":"levelo://app?vid=aa1ee5e1-0d0f-4792-acc4-9604db999f76"},"vehicle_type_id":"4","last_reported":1744611320,"current_range_meters":23200,"station_id":"ce4bh012rcd13ifvqd10","pricing_plan_id":"cebpf4jnsgd1na2vs0mg"},{"bike_id":"5fcc9b38-a9fe-48fc-865f-f59d6aeb44b1","system_id":"levelo_inurba_marseille","lat":43.3016,"lon":5.38093,"is_reserved":false,"is_disabled":false,"rental_uris":{"android":"levelo://app?vid=5fcc9b38-a9fe-48fc-865f-f59d6aeb44b1","ios":"levelo://app?vid=5fcc9b38-a9fe-48fc-865f-f59d6aeb44b1"},"vehicle_type_id":"4","last_reported":1744611320,"current_range_meters":22800,"station_id":"ce4bgjp2rcd13ifvqbh0","pricing_plan_id":"cebpf4jnsgd1na2vs0mg"},{"bike_id":"d647f220-b29b-47ef-aebf-121e9856e163","system_id":"levelo_inurba_marseille","lat":43.24385,"lon":5.37055,"is_reserved":false,"is_disabled":false,"rental_uris":{"android":"levelo://app?vid=d647f220-b29b-47ef-aebf-121e9856e163","ios":"levelo://app?vid=d647f220-b29b-47ef-aebf-121e9856e163"},"vehicle_type_id":"4","last_reported":1744611320,"current_range_meters":22800,"station_id":"ce4bhhh2rcd13ifvqfk0","pricing_plan_id":"cebpf4jnsgd1na2vs0mg"},{"bike_id":"05664e36-336b-404a-b8de-2ca42d4238f0","system_id":"levelo_inurba_marseille","lat":43.25004,"lon":5.38196,"is_reserved":false,"is_disabled":false,"rental_uris":{"android":"levelo://app?vid=05664e36-336b-404a-b8de-2ca42d4238f0","ios":"levelo://app?vid=05664e36-336b-404a-b8de-2ca42d4238f0"},"vehicle_type_id":"4","last_reported":1744611320,"current_range_meters":22800,"station_id":"","pricing_plan_id":"cebpf4jnsgd1na2vs0mg"},{"bike_id":"7c0ae596-019e-45d5-98ed-2ba379611286","system_id":"levelo_inurba_marseille","lat":43.24807,"lon":5.37459,"is_reserved":false,"is_disabled":true,"rental_uris":{"android":"levelo://app?vid=7c0ae596-019e-45d5-98ed-2ba379611286","ios":"levelo://app?vid=7c0ae596-019e-45d5-98ed-2ba379611286"},"vehicle_type_id":"4","last_reported":1744611320,"current_range_meters":23200,"station_id":"ce4bhgh2rcd13ifvqfb0","pricing_plan_id":"cebpf4jnsgd1na2vs0mg"},{"bike_id":"61788b27-74ee-400b-92ea-fa87486fb4d1","system_id":"levelo_inurba_marseille","lat":43.32998,"lon":5.43869,"is_reserved":false,"is_disabled":false,"rental_uris":{"android":"levelo://app?vid=61788b27-74ee-400b-92ea-fa87486fb4d1","ios":"levelo://app?vid=61788b27-74ee-400b-92ea-fa87486fb4d1"},"vehicle_type_id":"4","last_reported":1744611320,"current_range_meters":23200,"station_id":"","pricing_plan_id":"cebpf4jnsgd1na2vs0mg"},{"bike_id":"1777298c-cd5e-48d9-b75c-2f2323e7643c","system_id":"levelo_inurba_marseille","lat":43.28697,"lon":5.39989,"is_reserved":false,"is_disabled":false,"rental_uris":{"android":"levelo://app?vid=1777298c-cd5e-48d9-b75c-2f2323e7643c","ios":"levelo://app?vid=1777298c-cd5e-48d9-b75c-2f2323e7643c"},"vehicle_type_id":"4","last_reported":1744611320,"current_range_meters":23200,"station_id":"ce4bho92rcd13ifvqh3g","pricing_plan_id":"cebpf4jnsgd1na2vs0mg"},{"bike_id":"1a2befd0-b833-45ab-82fc-2ae52a03f06e","system_id":"levelo_inurba_marseille","lat":43.28481,"lon":5.38444,"is_reserved":false,"is_disabled":true,"rental_uris":{"android":"levelo://app?vid=1a2befd0-b833-45ab-82fc-2ae52a03f06e","ios":"levelo://app?vid=1a2befd0-b833-45ab-82fc-2ae52a03f06e"},"vehicle_type_id":"4","last_reported":1744611320,"current_range_meters":23200,"station_id":"ce4bh512rcd13ifvqe3g","pricing_plan_id":"cebpf4jnsgd1na2vs0mg"},{"bike_id":"1832662d-d84f-402a-881c-e2fd1c31db3d","system_id":"levelo_inurba_marseille","lat":43.299331,"lon":5.413244,"is_reserved":false,"is_disabled":false,"rental_uris":{"android":"levelo://app?vid=1832662d-d84f-402a-881c-e2fd1c31db3d","ios":"levelo://app?vid=1832662d-d84f-402a-881c-e2fd1c31db3d"},"vehicle_type_id":"4","last_reported":1744611320,"current_range_meters":23200,"station_id":"ce4bhp12rcd13ifvqh9g","pricing_plan_id":"cebpf4jnsgd1na2vs0mg"},{"bike_id":"f1250c6f-f810-45f3-811a-cd42a6956118","system_id":"levelo_inurba_marseille","lat":43.23147,"lon":5.43723,"is_reserved":false,"is_disabled":false,"rental_uris":{"android":"levelo://app?vid=f1250c6f-f810-45f3-811a-cd42a6956118","ios":"levelo://app?vid=f1250c6f-f810-45f3-811a-cd42a6956118"},"vehicle_type_id":"4","last_reported":1744611320,"current_range_meters":23200,"station_id":"ce4bhmp2rcd13ifvqgog","pricing_plan_id":"cebpf4jnsgd1na2vs0mg"},{"bike_id":"1ac6cae9-5a5f-4765-b8d5-20772275ca89","system_id":"levelo_inurba_marseille","lat":43.23327,"lon":5.3615,"is_reserved":false,"is_disabled":false,"rental_uris":{"android":"levelo://app?vid=1ac6cae9-5a5f-4765-b8d5-20772275ca89","ios":"levelo://app?vid=1ac6cae9-5a5f-4765-b8d5-20772275ca89"},"vehicle_type_id":"4","last_reported":1744611320,"current_range_meters":23200,"station_id":"","pricing_plan_id":"cebpf4jnsgd1na2vs0mg"},{"bike_id":"59a7bc76-9215-478e-a7ec-9be56ca68a1a","system_id":"levelo_inurba_marseille","lat":43.296001,"lon":5.37715,"is_reserved":false,"is_disabled":true,"rental_uris":{"android":"levelo://app?vid=59a7bc76-9215-478e-a7ec-9be56ca68a1a","ios":"levelo://app?vid=59a7bc76-9215-478e-a7ec-9be56ca68a1a"},"vehicle_type_id":"4","last_reported":1744611320,"current_range_meters":23200,"station_id":"ce4bgi92rcd13ifvqb90","pricing_plan_id":"cebpf4jnsgd1na2vs0mg"},{"bike_id":"c3fc0dc3-ed0b-401a-a472-d0cebf517a2d","system_id":"levelo_inurba_marseille","lat":43.31232,"lon":5.36877,"is_reserved":false,"is_disabled":false,"rental_uris":{"android":"levelo://app?vid=c3fc0dc3-ed0b-401a-a472-d0cebf517a2d","ios":"levelo://app?vid=c3fc0dc3-ed0b-401a-a472-d0cebf517a2d"},"vehicle_type_id":"4","last_reported":1744611320,"current_range_meters":22800,"station_id":"ce4bgl92rcd13ifvqbq0","pricing_plan_id":"cebpf4jnsgd1na2vs0mg"},{"bike_id":"fd73b415-4b2b-4f6a-9133-d55b8182475d","system_id":"levelo_inurba_marseille","lat":43.2843,"lon":5.39211,"is_reserved":false,"is_disabled":true,"rental_uris":{"android":"levelo://app?vid=fd73b415-4b2b-4f6a-9133-d55b8182475d","ios":"levelo://app?vid=fd73b415-4b2b-4f6a-9133-d55b8182475d"},"vehicle_type_id":"4","last_reported":1744611320,"current_range_meters":23200,"station_id":"ce4bhoh2rcd13ifvqh5g","pricing_plan_id":"cebpf4jnsgd1na2vs0mg"},{"bike_id":"97eaab4d-1dff-49ff-86e5-23bd769ff75d","system_id":"levelo_inurba_marseille","lat":43.34143,"lon":5.40911,"is_reserved":false,"is_disabled":false,"rental_uris":{"android":"levelo://app?vid=97eaab4d-1dff-49ff-86e5-23bd769ff75d","ios":"levelo://app?vid=97eaab4d-1dff-49ff-86e5-23bd769ff75d"},"vehicle_type_id":"4","last_reported":1744611320,"current_range_meters":23200,"station_id":"ce4bhqh2rcd13ifvqhlg","pricing_plan_id":"cebpf4jnsgd1na2vs0mg"},