{"last_updated":1744294176,"ttl":60,"version":"2.2","data":{"bikes":[{"bike_id":"ad1be89b-c913-451e-8d0d-f5d1b46239b5","system_id":"levelo_inurba_marseille","lat":43.28643,"lon":5.35086,"is_reserved":false,"is_disabled":false,"rental_uris":{"android":"levelo://app?vid=ad1be89b-c913-451e-8d0d-f5d1b46239b5","ios":"levelo://app?vid=ad1be89b-c913-451e-8d0d-f5d1b46239b5"},"vehicle_type_id":"4","last_reported":1744294176,"current_range_meters":2800,"station_id":"ce4bhch2rcd13ifvqeug","pricing_plan_id":"cebpf4jnsgd1na2vs0mg"},{"bike_id":"3e6d049f-f050-46e2-a234-5ef4caf09d01","system_id":"levelo_inurba_marseille","lat":43.28666,"lon":5.36346,"is_reserved":false,"is_disabled":false,"rental_uris":{"android":"levelo://app?vid=3e6d049f-f050-46e2-a234-5ef4caf09d01","ios":"levelo://app?vid=3e6d049f-f050-46e2-a234-5ef4caf09d01"},"vehicle_type_id":"4","last_reported":1744294176,"current_range_meters":2800,"station_id":"ce4bhah2rcd13ifvqej0","pricing_plan_id":"cebpf4jnsgd1na2vs0mg"},{"bike_id":"615feaf7-c2d1-4e09-9306-8bf36fe13216","system_id":"levelo_inurba_marseille","lat":43.25113,"lon":5.40328,"is_reserved":false,"is_disabled":false,"rental_uris":{"android":"levelo://app?vid=615feaf7-c2d1-4e09-9306-8bf36fe13216","ios":"levelo://app?vid=615feaf7-c2d1-4e09-9306-8bf36fe13216"},"vehicle_type_id":"4","last_reported":1744294176,"current_range_meters":3200,"station_id":"ce4bhlh2rcd13ifvqgig","pricing_plan_id":"cebpf4jnsgd1na2vs0mg"},{"bike_id":"35cb41df-35d1-4631-a031-df05cedb714f","system_id":"levelo_inurba_marseille","lat":43.29008,"lon":5.35613,"is_reserved":false,"is_disabled":false,"rental_uris":{"android":"levelo://app?vid=35cb41df-35d1-4631-a031-df05cedb714f","ios":"levelo://app?vid=35cb41df-35d1-4631-a031-df05cedb714f"},"vehicle_type_id":"4","last_reported":1744294176,"current_range_meters":3200,"station_id":"ce4bhb92rcd13ifvqen0","pricing_plan_id":"cebpf4jnsgd1na2vs0mg"},{"bike_id":"cc3ed902-6c4e-464d-b81e-8d7a6c7791e9","system_id":"levelo_inurba_marseille","lat":43.30897,"lon":5.39653,"is_reserved":false,"is_disabled":false,"rental_uris":{"android":"levelo://app?vid=cc3ed902-6c4e-464d-b81e-8d7a6c7791e9","ios":"levelo://app?vid=cc3ed902-6c4e-464d-b81e-8d7a6c7791e9"},"vehicle_type_id":"4","last_reported":1744294176,"current_range_meters":4000,"station_id":"ce4bh012rcd13ifvqcv0","pricing_plan_id":"cebpf4jnsgd1na2vs0mg"},{"bike_id":"3d4d2a88-d828-482b-9a57-3913fd9b87a1","system_id":"levelo_inurba_marseille","lat":43.29713,"lon":5.3772,"is_reserved":false,"is_disabled":false,"rental_uris":{"android":"levelo://app?vid=3d4d2a88-d828-482b-9a57-3913fd9b87a1","ios":"levelo://app?vid=3d4d2a88-d828-482b-9a57-3913fd9b87a1"},"vehicle_type_id":"4","last_reported":1744294176,"current_range_meters":3600,"station_id":"ce4bgkh2rcd13ifvqbl0","pricing_plan_id":"cebpf4jnsgd1na2vs0mg"},{"bike_id":"1d287767-add9-477a-9e98-95a05b0f4287","system_id":"levelo_inurba_marseille","lat":43.30901,"lon":5.36844,"is_reserved":false,"is_disabled":false,"rental_uris":{"android":"levelo://app?vid=1d287767-add9-477a-9e98-95a05b0f4287","ios":"levelo://app?vid=1d287767-add9-477a-9e98-95a05b0f4287"},"vehicle_type_id":"4","last_reported":1744294176,"current_range_meters":3600,"station_id":"ce4bgn92rcd13ifvqbvg","pricing_plan_id":"cebpf4jnsgd1na2vs0mg"},{"bike_id":"97d9f5c7-5601-4024-8218-e080850705e4","system_id":"levelo_inurba_marseille","lat":43.28399,"lon":5.34896,"is_reserved":false,"is_disabled":true,"rental_uris":{"android":"levelo://app?vid=97d9f5c7-5601-4024-8218-e080850705e4","ios":"levelo://app?vid=97d9f5c7-5601-4024-8218-e080850705e4"},"vehicle_type_id":"4","last_reported":1744294176,"current_range_meters":3600,"station_id":"ce4bhbh2rcd13ifvqepg","pricing_plan_id":"cebpf4jnsgd1na2vs0mg"},{"bike_id":"4debff6a-986a-4034-bc28-7d0d210c695c","system_id":"levelo_inurba_marseille","lat":43.21192,"lon":5.35067,"is_reserved":false,"is_disabled":false,"rental_uris":{"android":"levelo://app?vid=4debff6a-986a-4034-bc28-7d0d210c695c","ios":"levelo://app?vid=4debff6a-986a-4034-bc28-7d0d210c695c"},"vehicle_type_id":"4","last_reported":1744294176,"current_range_meters":3600,"station_id":"st_cvj6sg6p6f1abm77japg","pricing_plan_id":"cebpf4jnsgd1na2vs0mg"},{"bike_id":"80663e12-6b64-446d-88c9-20255bde1a8a","system_id":"levelo_inurba_marseille","lat":43.308857,"lon":5.396377,"is_reserved":false,"is_disabled":true,"rental_uris":{"android":"levelo://app?vid=80663e12-6b64-446d-88c9-20255bde1a8a","ios":"levelo://app?vid=80663e12-6b64-446d-88c9-20255bde1a8a"},"vehicle_type_id":"4","last_reported":1744294176,"current_range_meters":4000,"station_id":"ce4bh012rcd13ifvqcv0","pricing_plan_id":"cebpf4jnsgd1na2vs0mg"},{"bike_id":"e8f233ef-b37b-4b35-8d21-0e681a7b86ab","system_id":"levelo_inurba_marseille","lat":43.28265,"lon":5.35052,"is_reserved":false,"is_disabled":false,"rental_uris":{"android":"levelo://app?vid=e8f233ef-b37b-4b35-8d21-0e681a7b86ab","ios":"levelo://app?vid=e8f233ef-b37b-4b35-8d21-0e681a7b86ab"},"vehicle_type_id":"4","last_reported":1744294176,"current_range_meters":4000,"station_id":"ce4bhbp2rcd13ifvqerg","pricing_plan_id":"cebpf4jnsgd1na2vs0mg"},{"bike_id":"9ae835e9-338d-4788-b2d5-c4ec4c37efb9","system_id":"levelo_inurba_marseille","lat":43.30422,"lon":5.39748,"is_reserved":false,"is_disabled":false,"rental_uris":{"android":"levelo://app?vid=9ae835e9-338d-4788-b2d5-c4ec4c37efb9","ios":"levelo://app?vid=9ae835e9-338d-4788-b2d5-c4ec4c37efb9"},"vehicle_type_id":"4","last_reported":1744294176,"current_range_meters":4400,"station_id":"ce4bh092rcd13ifvqd20","pricing_plan_id":"cebpf4jnsgd1na2vs0mg"},{"bike_id":"629c8bea-6b48-43ff-81f4-cd64c75e2aea","system_id":"levelo_inurba_marseille","lat":43.28274,"lon":5.35081,"is_reserved":false,"is_disabled":false,"rental_uris":{"android":"levelo://app?vid=629c8bea-6b48-43ff-81f4-cd64c75e2aea","ios":"levelo://app?vid=629c8bea-6b48-43ff-81f4-cd64c75e2aea"},"vehicle_type_id":"4","last_reported":1744294176,"current_range_meters":4400,"station_id":"ce4bhbp2rcd13ifvqerg","pricing_plan_id":"cebpf4jnsgd1na2vs0mg"},{"bike_id":"7f9e8611-1a3d-4e15-a99c-d3c78cae7740","system_id":"levelo_inurba_marseille","lat":43.28256,"lon":5.35058,"is_reserved":false,"is_disabled":false,"rental_uris":{"android":"levelo://app?vid=7f9e8611-1a3d-4e15-a99c-d3c78cae7740","ios":"levelo://app?vid=7f9e8611-1a3d-4e15-a99c-d3c78cae7740"},"vehicle_type_id":"4","last_reported":1744294176,"current_range_meters":4800,"station_id":"ce4bhbp2rcd13ifvqerg","pricing_plan_id":"cebpf4jnsgd1na2vs0mg"},{"bike_id":"549d8412-ae94-4c81-9e19-e25290eff0ef","system_id":"levelo_inurba_marseille","lat":43.29987,"lon":5.385162,"is_reserved":false,"is_disabled":false,"rental_uris":{"android":"levelo://app?vid=549d8412-ae94-4c81-9e19-e25290eff0ef","ios":"levelo://app?vid=549d8412-ae94-4c81-9e19-e25290eff0ef"},"vehicle_type_id":"4","last_reported":1744294176,"current_range_meters":4800,"station_id":"ce4bgj92rcd13ifvqbd0","pricing_plan_id":"cebpf4jnsgd1na2vs0mg"},{"bike_id":"b317976b-8958-435d-ad6d-78efe2b4a29e","system_id":"levelo_inurba_marseille","lat":43.27372,"lon":5.36256,"is_reserved":false,"is_disabled":false,"rental_uris":{"android":"levelo://app?vid=b317976b-8958-435d-ad6d-78efe2b4a29e","ios":"levelo://app?vid=b317976b-8958-435d-ad6d-78efe2b4a29e"},"vehicle_type_id":"4","last_reported":1744294176,"current_range_meters":4800,"station_id":"ce4bhbh2rcd13ifvqeo0","pricing_plan_id":"cebpf4jnsgd1na2vs0mg"},{"bike_id":"683a81fc-5ac9-4887-8820-b268aea3cd9c","system_id":"levelo_inurba_marseille","lat":43.2439,"lon":5.37056,"is_reserved":false,"is_disabled":false,"rental_uris":{"android":"levelo://app?vid=683a81fc-5ac9-4887-8820-b268aea3cd9c","ios":"levelo://app?vid=683a81fc-5ac9-4887-8820-b268aea3cd9c"},"vehicle_type_id":"4","last_reported":1744294176,"current_range_meters":4800,"station_id":"ce4bhhh2rcd13ifvqfk0","pricing_plan_id":"cebpf4jnsgd1na2vs0mg"},{"bike_id":"f9fde33d-3e05-4f24-9670-2ad2d1cacdc1","system_id":"levelo_inurba_marseille","lat":43.28097,"lon":5.37831,"is_reserved":false,"is_disabled":true,"rental_uris":{"android":"levelo://app?vid=f9fde33d-3e05-4f24-9670-2ad2d1cacdc1","ios":"levelo://app?vid=f9fde33d-3e05-4f24-9670-2ad2d1cacdc1"},"vehicle_type_id":"4","last_reported":1744294176,"current_range_meters":4800,"station_id":"ce4bha12rcd13ifvqee0","pricing_plan_id":"cebpf4jnsgd1na2vs0mg"},{"bike_id":"5647bc9f-1c77-40ee-8700-78390ab8f231","system_id":"levelo_inurba_marseille","lat":43.29862,"lon":5.38903,"is_reserved":false,"is_disabled":false,"rental_uris":{"android":"levelo://app?vid=5647bc9f-1c77-40ee-8700-78390ab8f231","ios":"levelo://app?vid=5647bc9f-1c77-40ee-8700-78390ab8f231"},"vehicle_type_id":"4","last_reported":1744294176,"current_range_meters":4800,"station_id":"ce4bh392rcd13ifvqdl0","pricing_plan_id":"cebpf4jnsgd1na2vs0mg"},{"bike_id":"5107fc22-bcb7-457b-a79d-f815bf17105e","system_id":"levelo_inurba_marseille","lat":43.28268,"lon":5.35074,"is_reserved":false,"is_disabled":false,"rental_uris":{"android":"levelo://app?vid=5107fc22-bcb7-457b-a79d-f815bf17105e","ios":"levelo://app?vid=5107fc22-bcb7-457b-a79d-f815bf17105e"},"vehicle_type_id":"4","last_reported":1744294176,"current_range_meters":5600,"station_id":"ce4bhbp2rcd13ifvqerg","pricing_plan_id":"cebpf4jnsgd1na2vs0mg"},{"bike_id":"08f9c0c8-8b33-4578-8a03-20f44d582241","system_id":"levelo_inurba_marseille","lat":43.30536,"lon":5.36957,"is_reserved":false,"is_disabled":false,"rental_uris":{"android":"levelo://app?vid=08f9c0c8-8b33-4578-8a03-20f44d582241","ios":"levelo://app?vid=08f9c0c8-8b33-4578-8a03-20f44d582241"},"vehicle_type_id":"4","last_reported":1744294176,"current_range_meters":5600,"station_id":"","pricing_plan_id":"cebpf4jnsgd1na2vs0mg"},{"bike_id":"e3e166d6-72ef-4bfd-a748-75584014541e","system_id":"levelo_inurba_marseille","lat":43.27054,"lon":5.40256,"is_reserved":false,"is_disabled":false,"rental_uris":{"android":"levelo://app?vid=e3e166d6-72ef-4bfd-a748-75584014541e","ios":"levelo://app?vid=e3e166d6-72ef-4bfd-a748-75584014541e"},"vehicle_type_id":"4","last_reported":1744294176,"current_range_meters":6000,"station_id":"ce4bhk92rcd13ifvqgc0","pricing_plan_id":"cebpf4jnsgd1na2vs0mg"},{"bike_id":"4a9ec4ec-e71c-4cb6-9a9f-a931e66492d0","system_id":"levelo_inurba_marseille","lat":43.24801,"lon":5.37455,"is_reserved":false,"is_disabled":false,"rental_uris":{"android":"levelo://app?vid=4a9ec4ec-e71c-4cb6-9a9f-a931e66492d0","ios":"levelo://app?vid=4a9ec4ec-e71c-4cb6-9a9f-a931e66492d0"},"vehicle_type_id":"4","last_reported":1744294176,"current_range_meters":6000,"station_id":"ce4bhgh2rcd13ifvqfb0","pricing_plan_id":"cebpf4jnsgd1na2vs0mg"},{"bike_id":"b917f8c8-e675-46ca-bc65-ae36b6e1f0bb","system_id":"levelo_inurba_marseille","lat":43.25575,"lon":5.38236,"is_reserved":false,"is_disabled":false,"rental_uris":{"android":"levelo://app?vid=b917f8c8-e675-46ca-bc65-ae36b6e1f0bb","ios":"levelo://app?vid=b917f8c8-e675-46ca-bc65-ae36b6e1f0bb"},"vehicle_type_id":"4","last_reported":1744294176,"current_range_meters":6000,"station_id":"ce4bhih2rcd13ifvqfs0","pricing_plan_id":"cebpf4jnsgd1na2vs0mg"},{"bike_id":"7a1995c3-b958-444e-ab6b-76d264034bb0","system_id":"levelo_inurba_marseille","lat":43.26933,"lon":5.40253,"is_reserved":false,"is_disabled":false,"rental_uris":{"android":"levelo://app?vid=7a1995c3-b958-444e-ab6b-76d264034bb0","ios":"levelo://app?vid=7a1995c3-b958-444e-ab6b-76d264034bb0"},"vehicle_type_id":"4","last_reported":1744294176,"current_range_meters":6400,"station_id":"cjm6bp8fraef2m0cb0m0","pricing_plan_id":"cebpf4jnsgd1na2vs0mg"},{"bike_id":"eab3fd31-12bb-43a8-aec7-697c60841ecc","system_id":"levelo_inurba_marseille","lat":43.302978,"lon":5.392152,"is_reserved":false,"is_disabled":false,"rental_uris":{"android":"levelo://app?vid=eab3fd31-12bb-43a8-aec7-697c60841ecc","ios":"levelo://app?vid=eab3fd31-12bb-43a8-aec7-697c60841ecc"},"vehicle_type_id":"4","last_reported":1744294176,"current_range_meters":6400,"station_id":"ce4bh3h2rcd13ifvqdo0","pricing_plan_id":"cebpf4jnsgd1na2vs0mg"},{"bike_id":"4865defc-06f3-4576-b6a5-2eb4d4e5f8b6","system_id":"levelo_inurba_marseille","lat":43.28269,"lon":5.35071,"is_reserved":false,"is_disabled":false,"rental_uris":{"android":"levelo://app?vid=4865defc-06f3-4576-b6a5-2eb4d4e5f8b6","ios":"levelo://app?vid=4865defc-06f3-4576-b6a5-2eb4d4e5f8b6"},"vehicle_type_id":"4","last_reported":1744294176,"current_range_meters":6400,"station_id":"ce4bhbp2rcd13ifvqerg","pricing_plan_id":"cebpf4jnsgd1na2vs0mg"},{"bike_id":"3481cf0c-a513-4391-a377-41d6eaed484b","system_id":"levelo_inurba_marseille","lat":43.25498,"lon":5.37649,"is_reserved":false,"is_disabled":false,"rental_uris":{"android":"levelo://app?vid=3481cf0c-a513-4391-a377-41d6eaed484b","ios":"levelo://app?vid=3481cf0c-a513-4391-a377-41d6eaed484b"},"vehicle_type_id":"4","last_reported":1744294176,"current_range_meters":6400,"station_id":"ce4bhh12rcd13ifvqff0","pricing_plan_id":"cebpf4jnsgd1na2vs0mg"},{"bike_id":"98fee74c-8bbf-49d4-9a7a-e972567f85f6","system_id":"levelo_inurba_marseille","lat":43.25588,"lon":5.3823,"is_reserved":false,"is_disabled":false,"rental_uris":{"android":"levelo://app?vid=98fee74c-8bbf-49d4-9a7a-e972567f85f6","ios":"levelo://app?vid=98fee74c-8bbf-49d4-9a7a-e972567f85f6"},"vehicle_type_id":"4","last_reported":1744294176,"current_range_meters":6400,"station_id":"ce4bhih2rcd13ifvqfs0","pricing_plan_id":"cebpf4jnsgd1na2vs0mg"},{"bike_id":"a7b18984-b4d9-4e8a-a52c-3f5687882067","system_id":"levelo_inurba_marseille","lat":43.28272,"lon":5.35064,"is_reserved":false,"is_disabled":false,"rental_uris":{"android":"levelo://app?vid=a7b18984-b4d9-4e8a-a52c-3f5687882067","ios":"levelo://app?vid=a7b18984-b4d9-4e8a-a52c-3f5687882067"},"vehicle_type_id":"4","last_reported":1744294176,"current_range_meters":6400,"station_id":"ce4bhbp2rcd13ifvqerg","pricing_plan_id":"cebpf4jnsgd1na2vs0mg"},{"bike_id":"0ad61cd4-5cd9-4af6-937d-55c31698e01a","system_id":"levelo_inurba_marseille","lat":43.26045,"lon":5.375385,"is_reserved":false,"is_disabled":false,"rental_uris":{"android":"levelo://app?vid=0ad61cd4-5cd9-4af6-937d-55c31698e01a","ios":"levelo://app?vid=0ad61cd4-5cd9-4af6-937d-55c31698e01a"},"vehicle_type_id":"4","last_reported":1744294176,"current_range_meters":6400,"station_id":"ce4bhgh2rcd13ifvqfa0","pricing_plan_id":"cebpf4jnsgd1na2vs0mg"},{"bike_id":"32259305-3cda-4490-936a-e5c68c2acfc4","system_id":"levelo_inurba_marseille","lat":43.27374,"lon":5.36253,"is_reserved":false,"is_disabled":false,"rental_uris":{"android":"levelo://app?vid=32259305-3cda-4490-936a-e5c68c2acfc4","ios":"levelo://app?vid=32259305-3cda-4490-936a-e5c68c2acfc4"},"vehicle_type_id":"4","last_reported":1744294176,"current_range_meters":6800,"station_id":"ce4bhbh2rcd13ifvqeo0","pricing_plan_id":"cebpf4jnsgd1na2vs0mg"},{"bike_id":"00463c7e-b910-4a99-8fe8-7a3e8db45b85","system_id":"levelo_inurba_marseille","lat":43.29092,"lon":5.37574,"is_reserved":false,"is_disabled":false,"rental_uris":{"android":"levelo://app?vid=00463c7e-b910-4a99-8fe8-7a3e8db45b85","ios":"levelo://app?vid=00463c7e-b910-4a99-8fe8-7a3e8db45b85"},"vehicle_type_id":"4","last_reported":1744294176,"current_range_meters":6800,"station_id":"ce4bhb92rcd13ifvqen0","pricing_plan_id":"cebpf4jnsgd1na2vs0mg"},{"bike_id":"64e8636e-16b7-468e-a8fa-793bf80e76f1","system_id":"levelo_inurba_marseille","lat":43.29421,"lon":5.38619,"is_reserved":false,"is_disabled":false,"rental_uris":{"android":"levelo://app?vid=64e8636e-16b7-468e-a8fa-793bf80e76f1","ios":"levelo://app?vid=64e8636e-16b7-468e-a8fa-793bf80e76f1"},"vehicle_type_id":"4","last_reported":1744294176,"current_range_meters":6800,"station_id":"ce4bh2h2rcd13ifvqdh0","pricing_plan_id":"cebpf4jnsgd1na2vs0mg"},{"bike_id":"5037faec-7abd-490c-b433-64c827de7f93","system_id":"levelo_inurba_marseille","lat":43.28278,"lon":5.35083,"is_reserved":false,"is_disabled":false,"rental_uris":{"android":"levelo://app?vid=5037faec-7abd-490c-b433-64c827de7f93","ios":"levelo://app?vid=5037faec-7abd-490c-b433-64c827de7f93"},"vehicle_type_id":"4","last_reported":1744294176,"current_range_meters":6800,"station_id":"ce4bhbp2rcd13ifvqerg","pricing_plan_id":"cebpf4jnsgd1na2vs0mg"},{"bike_id":"b5b01554-d5cd-47ac-aebb-d69c5dfa11ba","system_id":"levelo_inurba_marseille","lat":43.27381,"lon":5.3624,"is_reserved":false,"is_disabled":false,"rental_uris":{"android":"levelo://app?vid=b5b01554-d5cd-47ac-aebb-d69c5dfa11ba","ios":"levelo://app?vid=b5b01554-d5cd-47ac-aebb-d69c5dfa11ba"},"vehicle_type_id":"4","last_reported":1744294176,"current_range_meters":7200,"station_id":"ce4bhbh2rcd13ifvqeo0","pricing_plan_id":"cebpf4jnsgd1na2vs0mg"},{"bike_id":"dba0e398-f21e-407d-b059-4331a06138fe","system_id":"levelo_inurba_marseille","lat":43.2826,"lon":5.35067,"is_reserved":false,"is_disabled":false,"rental_uris":{"android":"levelo://app?vid=dba0e398-f21e-407d-b059-4331a06138fe","ios":"levelo://app?vid=dba0e398-f21e-407d-b059-4331a06138fe"},"vehicle_type_id":"4","last_reported":1744294176,"current_range_meters":7200,"station_id":"ce4bhbp2rcd13ifvqerg","pricing_plan_id":"cebpf4jnsgd1na2vs0mg"},{"bike_id":"990e9060-73e1-4262-bd0a-00a336aabeef","system_id":"levelo_inurba_marseille","lat":43.28409,"lon":5.34991,"is_reserved":false,"is_disabled":false,"rental_uris":{"android":"levelo://app?vid=990e9060-73e1-4262-bd0a-00a336aabeef","ios":"levelo://app?vid=990e9060-73e1-4262-bd0a-00a336aabeef"},"vehicle_type_id":"4","last_reported":1744294176,"current_range_meters":7200,"station_id":"ce4bhbh2rcd13ifvqepg","pricing_plan_id":"cebpf4jnsgd1na2vs0mg"},{"bike_id":"3945b849-6d84-4bce-9e3f-b728c519d443","system_id":"levelo_inurba_marseille","lat":43.27361,"lon":5.36242,"is_reserved":false,"is_disabled":false,"rental_uris":{"android":"levelo://app?vid=3945b849-6d84-4bce-9e3f-b728c519d443","ios":"levelo://app?vid=3945b849-6d84-4bce-9e3f-b728c519d443"},"vehicle_type_id":"4","last_reported":1744294176,"current_range_meters":7200,"station_id":"ce4bhbh2rcd13ifvqeo0","pricing_plan_id":"cebpf4jnsgd1na2vs0mg"},{"bike_id":"0b14e020-b594-4567-92b1-5652d62501cd","system_id":"levelo_inurba_marseille","lat":43.24168,"lon":5.36394,"is_reserved":false,"is_disabled":false,"rental_uris":{"android":"levelo://app?vid=0b14e020-b594-4567-92b1-5652d62501cd","ios":"levelo://app?vid=0b14e020-b594-4567-92b1-5652d62501cd"},"vehicle_type_id":"4","last_reported":1744294176,"current_range_meters":8000,"station_id":"cpo36qri1sfpv3e86is0","pricing_plan_id":"cebpf4jnsgd1na2vs0mg"},{"bike_id":"f5f0af69-a014-46c5-a367-8669341311c2","system_id":"levelo_inurba_marseille","lat":43.28414,"lon":5.34984,"is_reserved":false,"is_disabled":false,"rental_uris":{"android":"levelo://app?vid=f5f0af69-a014-46c5-a367-8669341311c2","ios":"levelo://app?vid=f5f0af69-a014-46c5-a367-8669341311c2"},"vehicle_type_id":"4","last_reported":1744294176,"current_range_meters":8000,"station_id":"ce4bhbh2rcd13ifvqepg","pricing_plan_id":"cebpf4jnsgd1na2vs0mg"},{"bike_id":"0034db4b-efd6-4119-a358-80e858a45e83","system_id":"levelo_inurba_marseille","lat":43.31759,"lon":5.38918,"is_reserved":false,"is_disabled":false,"rental_uris":{"android":"levelo://app?vid=0034db4b-efd6-4119-a358-80e858a45e83","ios":"levelo://app?vid=0034db4b-efd6-4119-a358-80e858a45e83"},"vehicle_type_id":"4","last_reported":1744294176,"current_range_meters":8000,"station_id":"","pricing_plan_id":"cebpf4jnsgd1na2vs0mg"},{"bike_id":"699a4501-8252-4026-b758-00d6b7f68b03","system_id":"levelo_inurba_marseille","lat":43.28279,"lon":5.35072,"is_reserved":false,"is_disabled":false,"rental_uris":{"android":"levelo://app?vid=699a4501-8252-4026-b758-00d6b7f68b03","ios":"levelo://app?vid=699a4501-8252-4026-b758-00d6b7f68b03"},"vehicle_type_id":"4","last_reported":1744294176,"current_range_meters":8000,"station_id":"ce4bhbp2rcd13ifvqerg","pricing_plan_id":"cebpf4jnsgd1na2vs0mg"},{"bike_id":"50b3fa45-2101-4605-9055-30b5f7609db0","system_id":"levelo_inurba_marseille","lat":43.28268,"lon":5.35065,"is_reserved":false,"is_disabled":false,"rental_uris":{"android":"levelo://app?vid=50b3fa45-2101-4605-9055-30b5f7609db0","ios":"levelo://app?vid=50b3fa45-2101-4605-9055-30b5f7609db0"},"vehicle_type_id":"4","last_reported":1744294176,"current_range_meters":8000,"station_id":"ce4bhbp2rcd13ifvqerg","pricing_plan_id":"cebpf4jnsgd1na2vs0mg"},{"bike_id":"5ada447e-ddc7-490c-b34d-6453d556c784","system_id":"levelo_inurba_marseille","lat":43.24646,"lon":5.38894,"is_reserved":false,"is_disabled":false,"rental_uris":{"android":"levelo://app?vid=5ada447e-ddc7-490c-b34d-6453d556c784","ios":"levelo://app?vid=5ada447e-ddc7-490c-b34d-6453d556c784"},"vehicle_type_id":"4","last_reported":1744294176,"current_range_meters":8400,"station_id":"ce4bhg12rcd13ifvqf60","pricing_plan_id":"cebpf4jnsgd1na2vs0mg"},{"bike_id":"8d5c1c84-9808-4eb1-b090-55574f8ec3ab","system_id":"levelo_inurba_marseille","lat":43.27374,"lon":5.36254,"is_reserved":false,"is_disabled":false,"rental_uris":{"android":"levelo://app?vid=8d5c1c84-9808-4eb1-b090-55574f8ec3ab","ios":"levelo://app?vid=8d5c1c84-9808-4eb1-b090-55574f8ec3ab"},"vehicle_type_id":"4","last_reported":1744294176,"current_range_meters":8400,"station_id":"ce4bhbh2rcd13ifvqeo0","pricing_plan_id":"cebpf4jnsgd1na2vs0mg"},{"bike_id":"a21989ec-9f04-4674-bff3-ea3762ba55b8","system_id":"levelo_inurba_marseille","lat":43.25724,"lon":5.41113,"is_reserved":false,"is_disabled":false,"rental_uris":{"android":"levelo://app?vid=a21989ec-9f04-4674-bff3-ea3762ba55b8","ios":"levelo://app?vid=a21989ec-9f04-4674-bff3-ea3762ba55b8"},"vehicle_type_id":"4","last_reported":1744294176,"current_range_meters":8400,"station_id":"ce4bhkp2rcd13ifvqgd0","pricing_plan_id":"cebpf4jnsgd1na2vs0mg"},{"bike_id":"01e31f15-bc9b-4d18-bebd-edf19bcedef2","system_id":"levelo_inurba_marseille","lat":43.287038,"lon":5.379389,"is_reserved":false,"is_disabled":true,"rental_uris":{"android":"levelo://app?vid=01e31f15-bc9b-4d18-bebd-edf19bcedef2","ios":"levelo://app?vid=01e31f15-bc9b-4d18-bebd-edf19bcedef2"},"vehicle_type_id":"4","last_reported":1744294176,"current_range_meters":8400,"station_id":"ce4bh9p2rcd13ifvqec0","pricing_plan_id":"cebpf4jnsgd1na2vs0mg"},{"bike_id":"5f30a5a4-de9f-499e-b151-b811ebb3b43a","system_id":"levelo_inurba_marseille","lat":43.31049,"lon":5.38349,"is_reserved":false,"is_disabled":true,"rental_uris":{"android":"levelo://app?vid=5f30a5a4-de9f-499e-b151-b811ebb3b43a","ios":"levelo://app?vid=5f30a5a4-de9f-499e-b151-b811ebb3b43a"},"vehicle_type_id":"4","last_reported":1744294176,"current_range_meters":8400,"station_id":"ce4bgv92rcd13ifvqcr0","pricing_plan_id":"cebpf4jnsgd1na2vs0mg"},{"bike_id":"1dcad6ad-01e8-46c2-94c8-cef1664fbb6a","system_id":"levelo_inurba_marseille","lat":43.29433,"lon":5.39762,"is_reserved":false,"is_disabled":false,"rental_uris":{"android":"levelo://app?vid=1dcad6ad-01e8-46c2-94c8-cef1664fbb6a","ios":"levelo://app?vid=1dcad6ad-01e8-46c2-94c8-cef1664fbb6a"},"vehicle_type_id":"4","last_reported":1744294176,"current_range_meters":5600,"station_id":"ce4bh3h2rcd13ifvqdo0","pricing_plan_id":"cebpf4jnsgd1na2vs0mg"},{"bike_id":"b7dcf25f-735f-4684-89ce-67892b37a2b5","system_id":"levelo_inurba_marseille","lat":43.27368,"lon":5.36258,"is_reserved":false,"is_disabled":false,"rental_uris":{"android":"levelo://app?vid=b7dcf25f-735f-4684-89ce-67892b37a2b5","ios":"levelo://app?vid=b7dcf25f-735f-4684-89ce-67892b37a2b5"},"vehicle_type_id":"4","last_reported":1744294176,"current_range_meters":8400,"station_id":"ce4bhbh2rcd13ifvqeo0","pricing_plan_id":"cebpf4jnsgd1na2vs0mg"},{"bike_id":"8e16c62f-15a0-4758-83fb-480472de9c40","system_id":"levelo_inurba_marseille","lat":43.29418,"lon":5.38623,"is_reserved":false,"is_disabled":false,"rental_uris":{"android":"levelo://app?vid=8e16c62f-15a0-4758-83fb-480472de9c40","ios":"levelo://app?vid=8e16c62f-15a0-4758-83fb-480472de9c40"},"vehicle_type_id":"4","last_reported":1744294176,"current_range_meters":8800,"station_id":"ce4bh2h2rcd13ifvqdh0","pricing_plan_id":"cebpf4jnsgd1na2vs0mg"},{"bike_id":"dd85f473-9757-4e75-9591-0ce87a87bbcd","system_id":"levelo_inurba_marseille","lat":43.30533,"lon":5.36691,"is_reserved":false,"is_disabled":false,"rental_uris":{"android":"levelo://app?vid=dd85f473-9757-4e75-9591-0ce87a87bbcd","ios":"levelo://app?vid=dd85f473-9757-4e75-9591-0ce87a87bbcd"},"vehicle_type_id":"4","last_reported":1744294176,"current_range_meters":8800,"station_id":"ce4bgrp2rcd13ifvqc9g","pricing_plan_id":"cebpf4jnsgd1na2vs0mg"},{"bike_id":"ad41588c-3f9e-445f-bd21-bffd01d62c91","system_id":"levelo_inurba_marseille","lat":43.28296,"lon":5.35086,"is_reserved":false,"is_disabled":false,"rental_uris":{"android":"levelo://app?vid=ad41588c-3f9e-445f-bd21-bffd01d62c91","ios":"levelo://app?vid=ad41588c-3f9e-445f-bd21-bffd01d62c91"},"vehicle_type_id":"4","last_reported":1744294176,"current_range_meters":8800,"station_id":"ce4bhbp2rcd13ifvqerg","pricing_plan_id":"cebpf4jnsgd1na2vs0mg"},{"bike_id":"39d93b20-a4fd-483b-bd1a-24eb2ff46e7b","system_id":"levelo_inurba_marseille","lat":43.28273,"lon":5.35059,"is_reserved":false,"is_disabled":false,"rental_uris":{"android":"levelo://app?vid=39d93b20-a4fd-483b-bd1a-24eb2ff46e7b","ios":"levelo://app?vid=39d93b20-a4fd-483b-bd1a-24eb2ff46e7b"},"vehicle_type_id":"4","last_reported":1744294176,"current_range_meters":8800,"station_id":"ce4bhbp2rcd13ifvqerg","pricing_plan_id":"cebpf4jnsgd1na2vs0mg"},{"bike_id":"fb21b0ac-c81d-4244-a4bc-7fae8a735a1f","system_id":"levelo_inurba_marseille","lat":43.26943,"lon":5.40255,"is_reserved":false,"is_disabled":false,"rental_uris":{"android":"levelo://app?vid=fb21b0ac-c81d-4244-a4bc-7fae8a735a1f","ios":"levelo://app?vid=fb21b0ac-c81d-4244-a4bc-7fae8a735a1f"},"vehicle_type_id":"4","last_reported":1744294176,"current_range_meters":8800,"station_id":"cjm6bp8fraef2m0cb0m0","pricing_plan_id":"cebpf4jnsgd1na2vs0mg"},{"bike_id":"c243072f-6bd2-4d94-ba83-04162cf2a05c","system_id":"levelo_inurba_marseille","lat":43.27182,"lon":5.4014,"is_reserved":false,"is_disabled":false,"rental_uris":{"android":"levelo://app?vid=c243072f-6bd2-4d94-ba83-04162cf2a05c","ios":"levelo://app?vid=c243072f-6bd2-4d94-ba83-04162cf2a05c"},"vehicle_type_id":"4","last_reported":1744294176,"current_range_meters":8800,"station_id":"","pricing_plan_id":"cebpf4jnsgd1na2vs0mg"},{"bike_id":"c0ef0be6-eda3-49fb-8108-6a68ded57394","system_id":"levelo_inurba_marseille","lat":43.299739,"lon":5.371835,"is_reserved":false,"is_disabled":false,"rental_uris":{"android":"levelo://app?vid=c0ef0be6-eda3-49fb-8108-6a68ded57394","ios":"levelo://app?vid=c0ef0be6-eda3-49fb-8108-6a68ded57394"},"vehicle_type_id":"4","last_reported":1744294176,"current_range_meters":9200,"station_id":"ce4bgr92rcd13ifvqc7g","pricing_plan_id":"cebpf4jnsgd1na2vs0mg"},{"bike_id":"bd7bbe22-69f6-45f6-b09a-534cd675b139","system_id":"levelo_inurba_marseille","lat":43.29055,"lon":5.35927,"is_reserved":false,"is_disabled":false,"rental_uris":{"android":"levelo://app?vid=bd7bbe22-69f6-45f6-b09a-534cd675b139","ios":"levelo://app?vid=bd7bbe22-69f6-45f6-b09a-534cd675b139"},"vehicle_type_id":"4","last_reported":1744294176,"current_range_meters":9200,"station_id":"ce4bha92rcd13ifvqeg0","pricing_plan_id":"cebpf4jnsgd1na2vs0mg"},{"bike_id":"6b383df4-9571-4b6b-8882-b1538f985b7f","system_id":"levelo_inurba_marseille","lat":43.30515,"lon":5.36519,"is_reserved":false,"is_disabled":false,"rental_uris":{"android":"levelo://app?vid=6b383df4-9571-4b6b-8882-b1538f985b7f","ios":"levelo://app?vid=6b383df4-9571-4b6b-8882-b1538f985b7f"},"vehicle_type_id":"4","last_reported":1744294176,"current_range_meters":9200,"station_id":"ce4bgs12rcd13ifvqcag","pricing_plan_id":"cebpf4jnsgd1na2vs0mg"},{"bike_id":"80dc68f4-ff2f-46fa-9e35-712178fe8902","system_id":"levelo_inurba_marseille","lat":43.28252,"lon":5.3507,"is_reserved":false,"is_disabled":false,"rental_uris":{"android":"levelo://app?vid=80dc68f4-ff2f-46fa-9e35-712178fe8902","ios":"levelo://app?vid=80dc68f4-ff2f-46fa-9e35-712178fe8902"},"vehicle_type_id":"4","last_reported":1744294176,"current_range_meters":9600,"station_id":"ce4bhbp2rcd13ifvqerg","pricing_plan_id":"cebpf4jnsgd1na2vs0mg"},{"bike_id":"0904d504-01b4-4048-b119-e70f348b9679","system_id":"levelo_inurba_marseille","lat":43.23182,"lon":5.3997,"is_reserved":false,"is_disabled":false,"rental_uris":{"android":"levelo://app?vid=0904d504-01b4-4048-b119-e70f348b9679","ios":"levelo://app?vid=0904d504-01b4-4048-b119-e70f348b9679"},"vehicle_type_id":"4","last_reported":1744294176,"current_range_meters":9600,"station_id":"ce4bhn12rcd13ifvqgqg","pricing_plan_id":"cebpf4jnsgd1na2vs0mg"},{"bike_id":"c66e0227-8dab-43f7-959d-ad39878fa71f","system_id":"levelo_inurba_marseille","lat":43.23051,"lon":5.35495,"is_reserved":false,"is_disabled":false,"rental_uris":{"android":"levelo://app?vid=c66e0227-8dab-43f7-959d-ad39878fa71f","ios":"levelo://app?vid=c66e0227-8dab-43f7-959d-ad39878fa71f"},"vehicle_type_id":"4","last_reported":1744294176,"current_range_meters":10000,"station_id":"cpo3342slgdg3j2ifvpg","pricing_plan_id":"cebpf4jnsgd1na2vs0mg"},{"bike_id":"20ac7130-af66-4009-9825-a0048c302cf1","system_id":"levelo_inurba_marseille","lat":43.30149,"lon":5.37421,"is_reserved":false,"is_disabled":false,"rental_uris":{"android":"levelo://app?vid=20ac7130-af66-4009-9825-a0048c302cf1","ios":"levelo://app?vid=20ac7130-af66-4009-9825-a0048c302cf1"},"vehicle_type_id":"4","last_reported":1744294176,"current_range_meters":10000,"station_id":"ce4bgs92rcd13ifvqcc0","pricing_plan_id":"cebpf4jnsgd1na2vs0mg"},{"bike_id":"e8e61ec0-24ba-41bc-af68-5ad4ae819140","system_id":"levelo_inurba_marseille","lat":43.2119,"lon":5.35077,"is_reserved":false,"is_disabled":false,"rental_uris":{"android":"levelo://app?vid=e8e61ec0-24ba-41bc-af68-5ad4ae819140","ios":"levelo://app?vid=e8e61ec0-24ba-41bc-af68-5ad4ae819140"},"vehicle_type_id":"4","last_reported":1744294176,"current_range_meters":10000,"station_id":"st_cvj6sg6p6f1abm77japg","pricing_plan_id":"cebpf4jnsgd1na2vs0mg"},{"bike_id":"19af92e2-dc4d-47ce-85e0-250e64402cea","system_id":"levelo_inurba_marseille","lat":43.29412,"lon":5.38634,"is_reserved":false,"is_disabled":false,"rental_uris":{"android":"levelo://app?vid=19af92e2-dc4d-47ce-85e0-250e64402cea","ios":"levelo://app?vid=19af92e2-dc4d-47ce-85e0-250e64402cea"},"vehicle_type_id":"4","last_reported":1744294176,"current_range_meters":10000,"station_id":"ce4bh2h2rcd13ifvqdh0","pricing_plan_id":"cebpf4jnsgd1na2vs0mg"},{"bike_id":"0d9ea3f7-0f38-4782-a51c-aec9d76081e0","system_id":"levelo_inurba_marseille","lat":43.24384,"lon":5.37051,"is_reserved":false,"is_disabled":false,"rental_uris":{"android":"levelo://app?vid=0d9ea3f7-0f38-4782-a51c-aec9d76081e0","ios":"levelo://app?vid=0d9ea3f7-0f38-4782-a51c-aec9d76081e0"},"vehicle_type_id":"4","last_reported":1744294176,"current_range_meters":10000,"station_id":"ce4bhhh2rcd13ifvqfk0","pricing_plan_id":"cebpf4jnsgd1na2vs0mg"},{"bike_id":"e6b27e51-7a6f-4c87-9cdb-e0dbaf392783","system_id":"levelo_inurba_marseille","lat":43.3099,"lon":5.3965,"is_reserved":false,"is_disabled":false,"rental_uris":{"android":"levelo://app?vid=e6b27e51-7a6f-4c87-9cdb-e0dbaf392783","ios":"levelo://app?vid=e6b27e51-7a6f-4c87-9cdb-e0dbaf392783"},"vehicle_type_id":"4","last_reported":1744294176,"current_range_meters":10000,"station_id":"","pricing_plan_id":"cebpf4jnsgd1na2vs0mg"},{"bike_id":"19462489-0523-4a01-954f-207161d67777","system_id":"levelo_inurba_marseille","lat":43.21195,"lon":5.35071,"is_reserved":false,"is_disabled":false,"rental_uris":{"android":"levelo://app?vid=19462489-0523-4a01-954f-207161d67777","ios":"levelo://app?vid=19462489-0523-4a01-954f-207161d67777"},"vehicle_type_id":"4","last_reported":1744294176,"current_range_meters":10000,"station_id":"st_cvj6sg6p6f1abm77japg","pricing_plan_id":"cebpf4jnsgd1na2vs0mg"},{"bike_id":"f79b97f0-9d6c-4bac-a5e9-e02761419b05","system_id":"levelo_inurba_marseille","lat":43.31244,"lon":5.36882,"is_reserved":false,"is_disabled":false,"rental_uris":{"android":"levelo://app?vid=f79b97f0-9d6c-4bac-a5e9-e02761419b05","ios":"levelo://app?vid=f79b97f0-9d6c-4bac-a5e9-e02761419b05"},"vehicle_type_id":"4","last_reported":1744294176,"current_range_meters":10000,"station_id":"ce4bgl92rcd13ifvqbq0","pricing_plan_id":"cebpf4jnsgd1na2vs0mg"},{"bike_id":"7d021571-076d-45da-8ff9-7b625346848a","system_id":"levelo_inurba_marseille","lat":43.24641,"lon":5.3888,"is_reserved":false,"is_disabled":false,"rental_uris":{"android":"levelo://app?vid=7d021571-076d-45da-8ff9-7b625346848a","ios":"levelo://app?vid=7d021571-076d-45da-8ff9-7b625346848a"},"vehicle_type_id":"4","last_reported":1744294176,"current_range_meters":10800,"station_id":"ce4bhg12rcd13ifvqf60","pricing_plan_id":"cebpf4jnsgd1na2vs0mg"},{"bike_id":"46bcf2ad-c657-4cbb-ba52-daffd5f44dbf","system_id":"levelo_inurba_marseille","lat":43.28281,"lon":5.35082,"is_reserved":false,"is_disabled":false,"rental_uris":{"android":"levelo://app?vid=46bcf2ad-c657-4cbb-ba52-daffd5f44dbf","ios":"levelo://app?vid=46bcf2ad-c657-4cbb-ba52-daffd5f44dbf"},"vehicle_type_id":"4","last_reported":1744294176,"current_range_meters":10800,"station_id":"ce4bhbp2rcd13ifvqerg","pricing_plan_id":"cebpf4jnsgd1na2vs0mg"},{"bike_id":"a08fdf65-f7c3-4eb9-83c1-6d1abed3497e","system_id":"levelo_inurba_marseille","lat":43.286966,"lon":5.39983,"is_reserved":false,"is_disabled":true,"rental_uris":{"android":"levelo://app?vid=a08fdf65-f7c3-4eb9-83c1-6d1abed3497e","ios":"levelo://app?vid=a08fdf65-f7c3-4eb9-83c1-6d1abed3497e"},"vehicle_type_id":"4","last_reported":1744294176,"current_range_meters":10800,"station_id":"ce4bho92rcd13ifvqh3g","pricing_plan_id":"cebpf4jnsgd1na2vs0mg"},{"bike_id":"c7922c9e-df40-4d6f-92a1-640cc6bd2ff7","system_id":"levelo_inurba_marseille","lat":43.24172,"lon":5.36391,"is_reserved":false,"is_disabled":false,"rental_uris":{"android":"levelo://app?vid=c7922c9e-df40-4d6f-92a1-640cc6bd2ff7","ios":"levelo://app?vid=c7922c9e-df40-4d6f-92a1-640cc6bd2ff7"},"vehicle_type_id":"4","last_reported":1744294176,"current_range_meters":10800,"station_id":"cpo36qri1sfpv3e86is0","pricing_plan_id":"cebpf4jnsgd1na2vs0mg"},{"bike_id":"200cb183-6f5b-458d-8644-75aa34f88d84","system_id":"levelo_inurba_marseille","lat":43.27372,"lon":5.36262,"is_reserved":false,"is_disabled":false,"rental_uris":{"android":"levelo://app?vid=200cb183-6f5b-458d-8644-75aa34f88d84","ios":"levelo://app?vid=200cb183-6f5b-458d-8644-75aa34f88d84"},"vehicle_type_id":"4","last_reported":1744294176,"current_range_meters":10800,"station_id":"ce4bhbh2rcd13ifvqeo0","pricing_plan_id":"cebpf4jnsgd1na2vs0mg"},{"bike_id":"94e4f3a7-7ad9-4211-ad37-a25bd7f263e3","system_id":"levelo_inurba_marseille","lat":43.21188,"lon":5.3508,"is_reserved":false,"is_disabled":false,"rental_uris":{"android":"levelo://app?vid=94e4f3a7-7ad9-4211-ad37-a25bd7f263e3","ios":"levelo://app?vid=94e4f3a7-7ad9-4211-ad37-a25bd7f263e3"},"vehicle_type_id":"4","last_reported":1744294176,"current_range_meters":10800,"station_id":"st_cvj6sg6p6f1abm77japg","pricing_plan_id":"cebpf4jnsgd1na2vs0mg"},{"bike_id":"245ce5fe-7351-4dcf-baad-550d47ea2d8a","system_id":"levelo_inurba_marseille","lat":43.21744,"lon":5.3461,"is_reserved":false,"is_disabled":false,"rental_uris":{"android":"levelo://app?vid=245ce5fe-7351-4dcf-baad-550d47ea2d8a","ios":"levelo://app?vid=245ce5fe-7351-4dcf-baad-550d47ea2d8a"},"vehicle_type_id":"4","last_reported":1744294176,"current_range_meters":10800,"station_id":"st_cvj6r9ubvosntc0bgbag","pricing_plan_id":"cebpf4jnsgd1na2vs0mg"},{"bike_id":"c45efe87-6e83-4f3e-93c0-b6707ed76f64","system_id":"levelo_inurba_marseille","lat":43.30132,"lon":5.37398,"is_reserved":false,"is_disabled":false,"rental_uris":{"android":"levelo://app?vid=c45efe87-6e83-4f3e-93c0-b6707ed76f64","ios":"levelo://app?vid=c45efe87-6e83-4f3e-93c0-b6707ed76f64"},"vehicle_type_id":"4","last_reported":1744294176,"current_range_meters":10800,"station_id":"ce4bgs92rcd13ifvqcc0","pricing_plan_id":"cebpf4jnsgd1na2vs0mg"},{"bike_id":"bff67837-c676-4b88-9fdc-8db7fe587121","system_id":"levelo_inurba_marseille","lat":43.30235,"lon":5.40079,"is_reserved":false,"is_disabled":true,"rental_uris":{"android":"levelo://app?vid=bff67837-c676-4b88-9fdc-8db7fe587121","ios":"levelo://app?vid=bff67837-c676-4b88-9fdc-8db7fe587121"},"vehicle_type_id":"4","last_reported":1744294176,"current_range_meters":10800,"station_id":"ce4bgvh2rcd13ifvqcs0","pricing_plan_id":"cebpf4jnsgd1na2vs0mg"},{"bike_id":"99260628-93ca-4816-84c2-7509aaf9aff8","system_id":"levelo_inurba_marseille","lat":43.312287,"lon":5.368648,"is_reserved":false,"is_disabled":false,"rental_uris":{"android":"levelo://app?vid=99260628-93ca-4816-84c2-7509aaf9aff8","ios":"levelo://app?vid=99260628-93ca-4816-84c2-7509aaf9aff8"},"vehicle_type_id":"4","last_reported":1744294176,"current_range_meters":10800,"station_id":"ce4bgl92rcd13ifvqbq0","pricing_plan_id":"cebpf4jnsgd1na2vs0mg"},{"bike_id":"3a9217d1-18bc-4b31-930c-3710c4c0ac7d","system_id":"levelo_inurba_marseille","lat":43.28114,"lon":5.37834,"is_reserved":false,"is_disabled":false,"rental_uris":{"android":"levelo://app?vid=3a9217d1-18bc-4b31-930c-3710c4c0ac7d","ios":"levelo://app?vid=3a9217d1-18bc-4b31-930c-3710c4c0ac7d"},"vehicle_type_id":"4","last_reported":1744294176,"current_range_meters":11200,"station_id":"ce4bha12rcd13ifvqee0","pricing_plan_id":"cebpf4jnsgd1na2vs0mg"},{"bike_id":"34a2f5d8-ec72-44cb-adc7-644db274612f","system_id":"levelo_inurba_marseille","lat":43.27367,"lon":5.3624,"is_reserved":false,"is_disabled":false,"rental_uris":{"android":"levelo://app?vid=34a2f5d8-ec72-44cb-adc7-644db274612f","ios":"levelo://app?vid=34a2f5d8-ec72-44cb-adc7-644db274612f"},"vehicle_type_id":"4","last_reported":1744294176,"current_range_meters":11200,"station_id":"ce4bhbh2rcd13ifvqeo0","pricing_plan_id":"cebpf4jnsgd1na2vs0mg"},{"bike_id":"2b5875ba-982f-47a3-b768-736d882948a4","system_id":"levelo_inurba_marseille","lat":43.27059,"lon":5.40265,"is_reserved":false,"is_disabled":false,"rental_uris":{"android":"levelo://app?vid=2b5875ba-982f-47a3-b768-736d882948a4","ios":"levelo://app?vid=2b5875ba-982f-47a3-b768-736d882948a4"},"vehicle_type_id":"4","last_reported":1744294176,"current_range_meters":11600,"station_id":"ce4bhk92rcd13ifvqgc0","pricing_plan_id":"cebpf4jnsgd1na2vs0mg"},{"bike_id":"a06ef191-700f-428e-a6fb-db20b2123e41","system_id":"levelo_inurba_marseille","lat":43.25085,"lon":5.39528,"is_reserved":false,"is_disabled":false,"rental_uris":{"android":"levelo://app?vid=a06ef191-700f-428e-a6fb-db20b2123e41","ios":"levelo://app?vid=a06ef191-700f-428e-a6fb-db20b2123e41"},"vehicle_type_id":"4","last_reported":1744294176,"current_range_meters":11600,"station_id":"ce4bhm12rcd13ifvqgkg","pricing_plan_id":"cebpf4jnsgd1na2vs0mg"},{"bike_id":"46f554ce-16ee-4fab-97ba-49c8bc70376f","system_id":"levelo_inurba_marseille","lat":43.27811,"lon":5.40708,"is_reserved":false,"is_disabled":false,"rental_uris":{"android":"levelo://app?vid=46f554ce-16ee-4fab-97ba-49c8bc70376f","ios":"levelo://app?vid=46f554ce-16ee-4fab-97ba-49c8bc70376f"},"vehicle_type_id":"4","last_reported":1744294176,"current_range_meters":11600,"station_id":"ce4bhnh2rcd13ifvqgtg","pricing_plan_id":"cebpf4jnsgd1na2vs0mg"},{"bike_id":"5a865e26-3851-449e-9d8f-0f021e8cf0c4","system_id":"levelo_inurba_marseille","lat":43.25108,"lon":5.4034,"is_reserved":false,"is_disabled":false,"rental_uris":{"android":"levelo://app?vid=5a865e26-3851-449e-9d8f-0f021e8cf0c4","ios":"levelo://app?vid=5a865e26-3851-449e-9d8f-0f021e8cf0c4"},"vehicle_type_id":"4","last_reported":1744294176,"current_range_meters":12000,"station_id":"ce4bhlh2rcd13ifvqgig","pricing_plan_id":"cebpf4jnsgd1na2vs0mg"},{"bike_id":"f8be9081-c514-460d-9be3-4d086fbd951f","system_id":"levelo_inurba_marseille","lat":43.28607,"lon":5.35103,"is_reserved":false,"is_disabled":false,"rental_uris":{"android":"levelo://app?vid=f8be9081-c514-460d-9be3-4d086fbd951f","ios":"levelo://app?vid=f8be9081-c514-460d-9be3-4d086fbd951f"},"vehicle_type_id":"4","last_reported":1744294176,"current_range_meters":12000,"station_id":"","pricing_plan_id":"cebpf4jnsgd1na2vs0mg"},{"bike_id":"a7c3a0f9-fa44-4142-bbeb-0cac9979a26a","system_id":"levelo_inurba_marseille","lat":43.24153,"lon":5.36403,"is_reserved":false,"is_disabled":false,"rental_uris":{"android":"levelo://app?vid=a7c3a0f9-fa44-4142-bbeb-0cac9979a26a","ios":"levelo://app?vid=a7c3a0f9-fa44-4142-bbeb-0cac9979a26a"},"vehicle_type_id":"4","last_reported":1744294176,"current_range_meters":12000,"station_id":"cpo36qri1sfpv3e86is0","pricing_plan_id":"cebpf4jnsgd1na2vs0mg"},{"bike_id":"88b81c37-5f9b-494f-8b1a-584cc1caf0e2","system_id":"levelo_inurba_marseille","lat":43.28277,"lon":5.35078,"is_reserved":false,"is_disabled":false,"rental_uris":{"android":"levelo://app?vid=88b81c37-5f9b-494f-8b1a-584cc1caf0e2","ios":"levelo://app?vid=88b81c37-5f9b-494f-8b1a-584cc1caf0e2"},"vehicle_type_id":"4","last_reported":1744294176,"current_range_meters":12000,"station_id":"ce4bhbp2rcd13ifvqerg","pricing_plan_id":"cebpf4jnsgd1na2vs0mg"},{"bike_id":"9e513efc-8512-4e8c-a6aa-e313d46673d5","system_id":"levelo_inurba_marseille","lat":43.29371,"lon":5.37828,"is_reserved":false,"is_disabled":false,"rental_uris":{"android":"levelo://app?vid=9e513efc-8512-4e8c-a6aa-e313d46673d5","ios":"levelo://app?vid=9e513efc-8512-4e8c-a6aa-e313d46673d5"},"vehicle_type_id":"4","last_reported":1744294176,"current_range_meters":12400,"station_id":"ce4bgjh2rcd13ifvqbf0","pricing_plan_id":"cebpf4jnsgd1na2vs0mg"},{"bike_id":"e45e845e-02cd-4293-b462-473e32856e08","system_id":"levelo_inurba_marseille","lat":43.26206,"lon":5.37445,"is_reserved":false,"is_disabled":false,"rental_uris":{"android":"levelo://app?vid=e45e845e-02cd-4293-b462-473e32856e08","ios":"levelo://app?vid=e45e845e-02cd-4293-b462-473e32856e08"},"vehicle_type_id":"4","last_reported":1744294176,"current_range_meters":12400,"station_id":"ce4bhgp2rcd13ifvqfc0","pricing_plan_id":"cebpf4jnsgd1na2vs0mg"},{"bike_id":"18c27848-dd38-4d47-92e9-8cde4c0a0e25","system_id":"levelo_inurba_marseille","lat":43.27374,"lon":5.36253,"is_reserved":false,"is_disabled":false,"rental_uris":{"android":"levelo://app?vid=18c27848-dd38-4d47-92e9-8cde4c0a0e25","ios":"levelo://app?vid=18c27848-dd38-4d47-92e9-8cde4c0a0e25"},"vehicle_type_id":"4","last_reported":1744294176,"current_range_meters":12400,"station_id":"ce4bhbh2rcd13ifvqeo0","pricing_plan_id":"cebpf4jnsgd1na2vs0mg"},{"bike_id":"7cc27cd4-e2c6-4e9a-8dec-a21ecdc26d23","system_id":"levelo_inurba_marseille","lat":43.29867,"lon":5.36314,"is_reserved":false,"is_disabled":false,"rental_uris":{"android":"levelo://app?vid=7cc27cd4-e2c6-4e9a-8dec-a21ecdc26d23","ios":"levelo://app?vid=7cc27cd4-e2c6-4e9a-8dec-a21ecdc26d23"},"vehicle_type_id":"4","last_reported":1744294176,"current_range_meters":10800,"station_id":"ce4bgpp2rcd13ifvqc3g","pricing_plan_id":"cebpf4jnsgd1na2vs0mg"},{"bike_id":"4b4e759d-83e4-473c-b5f6-d120f01204f0","system_id":"levelo_inurba_marseille","lat":43.29569,"lon":5.3998,"is_reserved":false,"is_disabled":false,"rental_uris":{"android":"levelo://app?vid=4b4e759d-83e4-473c-b5f6-d120f01204f0","ios":"levelo://app?vid=4b4e759d-83e4-473c-b5f6-d120f01204f0"},"vehicle_type_id":"4","last_reported":1744294176,"current_range_meters":12400,"station_id":"ce4bh312rcd13ifvqdj0","pricing_plan_id":"cebpf4jnsgd1na2vs0mg"},{"bike_id":"38672461-15bc-4d0d-807d-faad7fea0510","system_id":"levelo_inurba_marseille","lat":43.29897,"lon":5.43669,"is_reserved":false,"is_disabled":false,"rental_uris":{"android":"levelo://app?vid=38672461-15bc-4d0d-807d-faad7fea0510","ios":"levelo://app?vid=38672461-15bc-4d0d-807d-faad7fea0510"},"vehicle_type_id":"4","last_reported":1744294176,"current_range_meters":12400,"station_id":"ce4bhpp2rcd13ifvqhfg","pricing_plan_id":"cebpf4jnsgd1na2vs0mg"},{"bike_id":"4e6ceb3a-a0cf-4c77-b68f-e3ad382a8e75","system_id":"levelo_inurba_marseille","lat":43.27832,"lon":5.39204,"is_reserved":false,"is_disabled":false,"rental_uris":{"android":"levelo://app?vid=4e6ceb3a-a0cf-4c77-b68f-e3ad382a8e75","ios":"levelo://app?vid=4e6ceb3a-a0cf-4c77-b68f-e3ad382a8e75"},"vehicle_type_id":"4","last_reported":1744294176,"current_range_meters":12400,"station_id":"ce4bhjp2rcd13ifvqga0","pricing_plan_id":"cebpf4jnsgd1na2vs0mg"},{"bike_id":"2fc989f7-8aae-448c-bfc5-4b79935db939","system_id":"levelo_inurba_marseille","lat":43.28154,"lon":5.42645,"is_reserved":false,"is_disabled":false,"rental_uris":{"android":"levelo://app?vid=2fc989f7-8aae-448c-bfc5-4b79935db939","ios":"levelo://app?vid=2fc989f7-8aae-448c-bfc5-4b79935db939"},"vehicle_type_id":"4","last_reported":1744294176,"current_range_meters":12800,"station_id":"ce4bhnh2rcd13ifvqgug","pricing_plan_id":"cebpf4jnsgd1na2vs0mg"},{"bike_id":"a935c53b-64c1-40af-8db0-c24c6a6999b0","system_id":"levelo_inurba_marseille","lat":43.30539,"lon":5.36529,"is_reserved":false,"is_disabled":false,"rental_uris":{"android":"levelo://app?vid=a935c53b-64c1-40af-8db0-c24c6a6999b0","ios":"levelo://app?vid=a935c53b-64c1-40af-8db0-c24c6a6999b0"},"vehicle_type_id":"4","last_reported":1744294176,"current_range_meters":12800,"station_id":"ce4bgs12rcd13ifvqcag","pricing_plan_id":"cebpf4jnsgd1na2vs0mg"},{"bike_id":"e8993fcf-2806-4f5f-ac4b-09fdf2946a62","system_id":"levelo_inurba_marseille","lat":43.25502,"lon":5.37652,"is_reserved":false,"is_disabled":false,"rental_uris":{"android":"levelo://app?vid=e8993fcf-2806-4f5f-ac4b-09fdf2946a62","ios":"levelo://app?vid=e8993fcf-2806-4f5f-ac4b-09fdf2946a62"},"vehicle_type_id":"4","last_reported":1744294176,"current_range_meters":12800,"station_id":"ce4bhh12rcd13ifvqff0","pricing_plan_id":"cebpf4jnsgd1na2vs0mg"},{"bike_id":"c38d3607-c650-44f1-a069-4d2a5092bcc6","system_id":"levelo_inurba_marseille","lat":43.2794,"lon":5.4105,"is_reserved":false,"is_disabled":false,"rental_uris":{"android":"levelo://app?vid=c38d3607-c650-44f1-a069-4d2a5092bcc6","ios":"levelo://app?vid=c38d3607-c650-44f1-a069-4d2a5092bcc6"},"vehicle_type_id":"4","last_reported":1744294176,"current_range_meters":12800,"station_id":"ce4bhnp2rcd13ifvqh0g","pricing_plan_id":"cebpf4jnsgd1na2vs0mg"},{"bike_id":"58a06d5c-23f8-466b-a88d-449307d0c901","system_id":"levelo_inurba_marseille","lat":43.31429,"lon":5.36771,"is_reserved":false,"is_disabled":false,"rental_uris":{"android":"levelo://app?vid=58a06d5c-23f8-466b-a88d-449307d0c901","ios":"levelo://app?vid=58a06d5c-23f8-466b-a88d-449307d0c901"},"vehicle_type_id":"4","last_reported":1744294176,"current_range_meters":12800,"station_id":"","pricing_plan_id":"cebpf4jnsgd1na2vs0mg"},{"bike_id":"479143a4-0232-484d-9996-7cb31df8df82","system_id":"levelo_inurba_marseille","lat":43.25579,"lon":5.38233,"is_reserved":false,"is_disabled":false,"rental_uris":{"android":"levelo://app?vid=479143a4-0232-484d-9996-7cb31df8df82","ios":"levelo://app?vid=479143a4-0232-484d-9996-7cb31df8df82"},"vehicle_type_id":"4","last_reported":1744294176,"current_range_meters":13600,"station_id":"ce4bhih2rcd13ifvqfs0","pricing_plan_id":"cebpf4jnsgd1na2vs0mg"},{"bike_id":"4fe9ed65-30de-44b3-91d2-ec2f30ea1d86","system_id":"levelo_inurba_marseille","lat":43.27375,"lon":5.3625,"is_reserved":false,"is_disabled":false,"rental_uris":{"android":"levelo://app?vid=4fe9ed65-30de-44b3-91d2-ec2f30ea1d86","ios":"levelo://app?vid=4fe9ed65-30de-44b3-91d2-ec2f30ea1d86"},"vehicle_type_id":"4","last_reported":1744294176,"current_range_meters":13600,"station_id":"ce4bhbh2rcd13ifvqeo0","pricing_plan_id":"cebpf4jnsgd1na2vs0mg"},{"bike_id":"d5707416-f903-4c51-8bcb-006d8c375fe4","system_id":"levelo_inurba_marseille","lat":43.29557,"lon":5.42288,"is_reserved":false,"is_disabled":false,"rental_uris":{"android":"levelo://app?vid=d5707416-f903-4c51-8bcb-006d8c375fe4","ios":"levelo://app?vid=d5707416-f903-4c51-8bcb-006d8c375fe4"},"vehicle_type_id":"4","last_reported":1744294176,"current_range_meters":13600,"station_id":"ce4bhph2rcd13ifvqhdg","pricing_plan_id":"cebpf4jnsgd1na2vs0mg"},{"bike_id":"34fa764b-7350-4fbf-8417-8076c25f13ae","system_id":"levelo_inurba_marseille","lat":43.30483,"lon":5.37917,"is_reserved":false,"is_disabled":false,"rental_uris":{"android":"levelo://app?vid=34fa764b-7350-4fbf-8417-8076c25f13ae","ios":"levelo://app?vid=34fa764b-7350-4fbf-8417-8076c25f13ae"},"vehicle_type_id":"4","last_reported":1744294176,"current_range_meters":14000,"station_id":"ce4bgup2rcd13ifvqcn0","pricing_plan_id":"cebpf4jnsgd1na2vs0mg"},{"bike_id":"e3c3a051-8134-4ed3-913b-374aa217874c","system_id":"levelo_inurba_marseille","lat":43.256115,"lon":5.405147,"is_reserved":false,"is_disabled":false,"rental_uris":{"android":"levelo://app?vid=e3c3a051-8134-4ed3-913b-374aa217874c","ios":"levelo://app?vid=e3c3a051-8134-4ed3-913b-374aa217874c"},"vehicle_type_id":"4","last_reported":1744294176,"current_range_meters":14000,"station_id":"","pricing_plan_id":"cebpf4jnsgd1na2vs0mg"},{"bike_id":"f8d16596-077f-44ec-a69a-f1d004f7b1f6","system_id":"levelo_inurba_marseille","lat":43.29412,"lon":5.38612,"is_reserved":false,"is_disabled":false,"rental_uris":{"android":"levelo://app?vid=f8d16596-077f-44ec-a69a-f1d004f7b1f6","ios":"levelo://app?vid=f8d16596-077f-44ec-a69a-f1d004f7b1f6"},"vehicle_type_id":"4","last_reported":1744294176,"current_range_meters":14000,"station_id":"ce4bh2h2rcd13ifvqdh0","pricing_plan_id":"cebpf4jnsgd1na2vs0mg"},{"bike_id":"74053bb6-5007-48ec-8fee-5bdc4e6c88c8","system_id":"levelo_inurba_marseille","lat":43.282601,"lon":5.35069,"is_reserved":false,"is_disabled":false,"rental_uris":{"android":"levelo://app?vid=74053bb6-5007-48ec-8fee-5bdc4e6c88c8","ios":"levelo://app?vid=74053bb6-5007-48ec-8fee-5bdc4e6c88c8"},"vehicle_type_id":"4","last_reported":1744294176,"current_range_meters":14000,"station_id":"","pricing_plan_id":"cebpf4jnsgd1na2vs0mg"},{"bike_id":"ab2bd7df-59ba-4c5b-b54d-03819217820c","system_id":"levelo_inurba_marseille","lat":43.26207,"lon":5.37445,"is_reserved":false,"is_disabled":false,"rental_uris":{"android":"levelo://app?vid=ab2bd7df-59ba-4c5b-b54d-03819217820c","ios":"levelo://app?vid=ab2bd7df-59ba-4c5b-b54d-03819217820c"},"vehicle_type_id":"4","last_reported":1744294176,"current_range_meters":14000,"station_id":"ce4bhgp2rcd13ifvqfc0","pricing_plan_id":"cebpf4jnsgd1na2vs0mg"},{"bike_id":"7c86ebaf-c9fe-4bc4-bc7c-bb16ccfd1fa7","system_id":"levelo_inurba_marseille","lat":43.27377,"lon":5.36246,"is_reserved":false,"is_disabled":false,"rental_uris":{"android":"levelo://app?vid=7c86ebaf-c9fe-4bc4-bc7c-bb16ccfd1fa7","ios":"levelo://app?vid=7c86ebaf-c9fe-4bc4-bc7c-bb16ccfd1fa7"},"vehicle_type_id":"4","last_reported":1744294176,"current_range_meters":14000,"station_id":"ce4bhbh2rcd13ifvqeo0","pricing_plan_id":"cebpf4jnsgd1na2vs0mg"},{"bike_id":"b19e5786-8da6-4fa6-89f5-e943e8791bb3","system_id":"levelo_inurba_marseille","lat":43.2737,"lon":5.3626,"is_reserved":false,"is_disabled":false,"rental_uris":{"android":"levelo://app?vid=b19e5786-8da6-4fa6-89f5-e943e8791bb3","ios":"levelo://app?vid=b19e5786-8da6-4fa6-89f5-e943e8791bb3"},"vehicle_type_id":"4","last_reported":1744294176,"current_range_meters":14000,"station_id":"ce4bhbh2rcd13ifvqeo0","pricing_plan_id":"cebpf4jnsgd1na2vs0mg"},{"bike_id":"6d76978a-2740-4f57-9972-fcce06d4c9a8","system_id":"levelo_inurba_marseille","lat":43.31397,"lon":5.36686,"is_reserved":false,"is_disabled":false,"rental_uris":{"android":"levelo://app?vid=6d76978a-2740-4f57-9972-fcce06d4c9a8","ios":"levelo://app?vid=6d76978a-2740-4f57-9972-fcce06d4c9a8"},"vehicle_type_id":"4","last_reported":1744294176,"current_range_meters":14400,"station_id":"ce4bgr92rcd13ifvqc6g","pricing_plan_id":"cebpf4jnsgd1na2vs0mg"},{"bike_id":"d1649a4a-b714-4d6f-96fa-0ea28322bcaf","system_id":"levelo_inurba_marseille","lat":43.29851,"lon":5.36288,"is_reserved":false,"is_disabled":false,"rental_uris":{"android":"levelo://app?vid=d1649a4a-b714-4d6f-96fa-0ea28322bcaf","ios":"levelo://app?vid=d1649a4a-b714-4d6f-96fa-0ea28322bcaf"},"vehicle_type_id":"4","last_reported":1744294176,"current_range_meters":14800,"station_id":"ce4bgpp2rcd13ifvqc3g","pricing_plan_id":"cebpf4jnsgd1na2vs0mg"},{"bike_id":"d35e45c1-f848-4254-a3e4-531709350aa5","system_id":"levelo_inurba_marseille","lat":43.27379,"lon":5.36265,"is_reserved":false,"is_disabled":false,"rental_uris":{"android":"levelo://app?vid=d35e45c1-f848-4254-a3e4-531709350aa5","ios":"levelo://app?vid=d35e45c1-f848-4254-a3e4-531709350aa5"},"vehicle_type_id":"4","last_reported":1744294176,"current_range_meters":14400,"station_id":"ce4bhbh2rcd13ifvqeo0","pricing_plan_id":"cebpf4jnsgd1na2vs0mg"},{"bike_id":"6ab8b5fb-085e-4d78-a0a8-db5dcf1ec54d","system_id":"levelo_inurba_marseille","lat":43.24164,"lon":5.36395,"is_reserved":false,"is_disabled":false,"rental_uris":{"android":"levelo://app?vid=6ab8b5fb-085e-4d78-a0a8-db5dcf1ec54d","ios":"levelo://app?vid=6ab8b5fb-085e-4d78-a0a8-db5dcf1ec54d"},"vehicle_type_id":"4","last_reported":1744294176,"current_range_meters":14400,"station_id":"cpo36qri1sfpv3e86is0","pricing_plan_id":"cebpf4jnsgd1na2vs0mg"},{"bike_id":"f78bf8a8-b506-43e9-9fc4-9ec4cb688e82","system_id":"levelo_inurba_marseille","lat":43.32108,"lon":5.36743,"is_reserved":false,"is_disabled":false,"rental_uris":{"android":"levelo://app?vid=f78bf8a8-b506-43e9-9fc4-9ec4cb688e82","ios":"levelo://app?vid=f78bf8a8-b506-43e9-9fc4-9ec4cb688e82"},"vehicle_type_id":"4","last_reported":1744294176,"current_range_meters":14800,"station_id":"ce4bhrh2rcd13ifvqhug","pricing_plan_id":"cebpf4jnsgd1na2vs0mg"},{"bike_id":"d67deb44-486c-414b-a5f4-7eb9e5d5be03","system_id":"levelo_inurba_marseille","lat":43.29884,"lon":5.38906,"is_reserved":false,"is_disabled":false,"rental_uris":{"android":"levelo://app?vid=d67deb44-486c-414b-a5f4-7eb9e5d5be03","ios":"levelo://app?vid=d67deb44-486c-414b-a5f4-7eb9e5d5be03"},"vehicle_type_id":"4","last_reported":1744294176,"current_range_meters":14800,"station_id":"ce4bh392rcd13ifvqdl0","pricing_plan_id":"cebpf4jnsgd1na2vs0mg"},{"bike_id":"c74893b0-7990-42e1-81ba-6333fadd7f5e","system_id":"levelo_inurba_marseille","lat":43.30532,"lon":5.36533,"is_reserved":false,"is_disabled":false,"rental_uris":{"android":"levelo://app?vid=c74893b0-7990-42e1-81ba-6333fadd7f5e","ios":"levelo://app?vid=c74893b0-7990-42e1-81ba-6333fadd7f5e"},"vehicle_type_id":"4","last_reported":1744294176,"current_range_meters":14800,"station_id":"ce4bgs12rcd13ifvqcag","pricing_plan_id":"cebpf4jnsgd1na2vs0mg"},{"bike_id":"083e46db-7202-4d81-a11b-6c85cd648e16","system_id":"levelo_inurba_marseille","lat":43.31772,"lon":5.38987,"is_reserved":false,"is_disabled":false,"rental_uris":{"android":"levelo://app?vid=083e46db-7202-4d81-a11b-6c85cd648e16","ios":"levelo://app?vid=083e46db-7202-4d81-a11b-6c85cd648e16"},"vehicle_type_id":"4","last_reported":1744294176,"current_range_meters":14800,"station_id":"ce4bhqp2rcd13ifvqhng","pricing_plan_id":"cebpf4jnsgd1na2vs0mg"},{"bike_id":"378d1099-a5f4-4624-9931-f09096fe7da7","system_id":"levelo_inurba_marseille","lat":43.28262,"lon":5.35061,"is_reserved":false,"is_disabled":false,"rental_uris":{"android":"levelo://app?vid=378d1099-a5f4-4624-9931-f09096fe7da7","ios":"levelo://app?vid=378d1099-a5f4-4624-9931-f09096fe7da7"},"vehicle_type_id":"4","last_reported":1744294176,"current_range_meters":14800,"station_id":"ce4bhbp2rcd13ifvqerg","pricing_plan_id":"cebpf4jnsgd1na2vs0mg"},{"bike_id":"784f6f6f-9f28-47b2-878e-a7ec8d21c437","system_id":"levelo_inurba_marseille","lat":43.30431,"lon":5.37364,"is_reserved":false,"is_disabled":false,"rental_uris":{"android":"levelo://app?vid=784f6f6f-9f28-47b2-878e-a7ec8d21c437","ios":"levelo://app?vid=784f6f6f-9f28-47b2-878e-a7ec8d21c437"},"vehicle_type_id":"4","last_reported":1744294176,"current_range_meters":14800,"station_id":"","pricing_plan_id":"cebpf4jnsgd1na2vs0mg"},{"bike_id":"33a6b0c2-7562-4d71-b58b-8456a21af49e","system_id":"levelo_inurba_marseille","lat":43.25594,"lon":5.38243,"is_reserved":false,"is_disabled":false,"rental_uris":{"android":"levelo://app?vid=33a6b0c2-7562-4d71-b58b-8456a21af49e","ios":"levelo://app?vid=33a6b0c2-7562-4d71-b58b-8456a21af49e"},"vehicle_type_id":"4","last_reported":1744294176,"current_range_meters":14800,"station_id":"ce4bhih2rcd13ifvqfs0","pricing_plan_id":"cebpf4jnsgd1na2vs0mg"},{"bike_id":"8297bc3a-18ae-4bb6-8a08-9f012e1ed86e","system_id":"levelo_inurba_marseille","lat":43.32042,"lon":5.41539,"is_reserved":false,"is_disabled":false,"rental_uris":{"android":"levelo://app?vid=8297bc3a-18ae-4bb6-8a08-9f012e1ed86e","ios":"levelo://app?vid=8297bc3a-18ae-4bb6-8a08-9f012e1ed86e"},"vehicle_type_id":"4","last_reported":1744294176,"current_range_meters":15200,"station_id":"ce4bhq92rcd13ifvqhkg","pricing_plan_id":"cebpf4jnsgd1na2vs0mg"},{"bike_id":"536ec13d-9bb8-46c8-ad96-f036bf3695d4","system_id":"levelo_inurba_marseille","lat":43.28301,"lon":5.35088,"is_reserved":false,"is_disabled":false,"rental_uris":{"android":"levelo://app?vid=536ec13d-9bb8-46c8-ad96-f036bf3695d4","ios":"levelo://app?vid=536ec13d-9bb8-46c8-ad96-f036bf3695d4"},"vehicle_type_id":"4","last_reported":1744294176,"current_range_meters":15200,"station_id":"ce4bhbp2rcd13ifvqerg","pricing_plan_id":"cebpf4jnsgd1na2vs0mg"},{"bike_id":"1dc28d27-cf24-4e5f-80f1-6419a31f0848","system_id":"levelo_inurba_marseille","lat":43.262085,"lon":5.374416,"is_reserved":false,"is_disabled":false,"rental_uris":{"android":"levelo://app?vid=1dc28d27-cf24-4e5f-80f1-6419a31f0848","ios":"levelo://app?vid=1dc28d27-cf24-4e5f-80f1-6419a31f0848"},"vehicle_type_id":"4","last_reported":1744294176,"current_range_meters":15200,"station_id":"ce4bhi12rcd13ifvqfp0","pricing_plan_id":"cebpf4jnsgd1na2vs0mg"},{"bike_id":"3c067051-95a5-4cf7-b3c1-ce0cfab4f17f","system_id":"levelo_inurba_marseille","lat":43.23166,"lon":5.43713,"is_reserved":false,"is_disabled":false,"rental_uris":{"android":"levelo://app?vid=3c067051-95a5-4cf7-b3c1-ce0cfab4f17f","ios":"levelo://app?vid=3c067051-95a5-4cf7-b3c1-ce0cfab4f17f"},"vehicle_type_id":"4","last_reported":1744294176,"current_range_meters":15200,"station_id":"ce4bhmp2rcd13ifvqgog","pricing_plan_id":"cebpf4jnsgd1na2vs0mg"},{"bike_id":"9c07b687-0cca-4a28-82f6-66c50d295640","system_id":"levelo_inurba_marseille","lat":43.32372,"lon":5.38981,"is_reserved":false,"is_disabled":false,"rental_uris":{"android":"levelo://app?vid=9c07b687-0cca-4a28-82f6-66c50d295640","ios":"levelo://app?vid=9c07b687-0cca-4a28-82f6-66c50d295640"},"vehicle_type_id":"4","last_reported":1744294176,"current_range_meters":15200,"station_id":"","pricing_plan_id":"cebpf4jnsgd1na2vs0mg"},{"bike_id":"7d0e50b3-b7c9-4183-82d3-92c0a048a72b","system_id":"levelo_inurba_marseille","lat":43.30537,"lon":5.36954,"is_reserved":false,"is_disabled":false,"rental_uris":{"android":"levelo://app?vid=7d0e50b3-b7c9-4183-82d3-92c0a048a72b","ios":"levelo://app?vid=7d0e50b3-b7c9-4183-82d3-92c0a048a72b"},"vehicle_type_id":"4","last_reported":1744294176,"current_range_meters":16000,"station_id":"","pricing_plan_id":"cebpf4jnsgd1na2vs0mg"},{"bike_id":"76c40392-9eb2-47c4-a019-9089b3da5207","system_id":"levelo_inurba_marseille","lat":43.27377,"lon":5.36258,"is_reserved":false,"is_disabled":false,"rental_uris":{"android":"levelo://app?vid=76c40392-9eb2-47c4-a019-9089b3da5207","ios":"levelo://app?vid=76c40392-9eb2-47c4-a019-9089b3da5207"},"vehicle_type_id":"4","last_reported":1744294176,"current_range_meters":16000,"station_id":"ce4bhbh2rcd13ifvqeo0","pricing_plan_id":"cebpf4jnsgd1na2vs0mg"},{"bike_id":"edcc2472-e7bf-4e0c-91d2-956f1c779ee1","system_id":"levelo_inurba_marseille","lat":43.241758,"lon":5.397323,"is_reserved":false,"is_disabled":false,"rental_uris":{"android":"levelo://app?vid=edcc2472-e7bf-4e0c-91d2-956f1c779ee1","ios":"levelo://app?vid=edcc2472-e7bf-4e0c-91d2-956f1c779ee1"},"vehicle_type_id":"4","last_reported":1744294176,"current_range_meters":16000,"station_id":"ce4bhn12rcd13ifvqgpg","pricing_plan_id":"cebpf4jnsgd1na2vs0mg"},{"bike_id":"4306516e-def9-4a66-b90a-245e75ad5e81","system_id":"levelo_inurba_marseille","lat":43.30537,"lon":5.36729,"is_reserved":false,"is_disabled":false,"rental_uris":{"android":"levelo://app?vid=4306516e-def9-4a66-b90a-245e75ad5e81","ios":"levelo://app?vid=4306516e-def9-4a66-b90a-245e75ad5e81"},"vehicle_type_id":"4","last_reported":1744294176,"current_range_meters":16000,"station_id":"ce4bgrp2rcd13ifvqc9g","pricing_plan_id":"cebpf4jnsgd1na2vs0mg"},{"bike_id":"2ce0e4f8-a024-47eb-bc7b-eb19d14eb60d","system_id":"levelo_inurba_marseille","lat":43.28412,"lon":5.34992,"is_reserved":false,"is_disabled":false,"rental_uris":{"android":"levelo://app?vid=2ce0e4f8-a024-47eb-bc7b-eb19d14eb60d","ios":"levelo://app?vid=2ce0e4f8-a024-47eb-bc7b-eb19d14eb60d"},"vehicle_type_id":"4","last_reported":1744294176,"current_range_meters":16000,"station_id":"ce4bhbh2rcd13ifvqepg","pricing_plan_id":"cebpf4jnsgd1na2vs0mg"},{"bike_id":"eab6cbfa-cb8e-47d7-b0d6-226ab7facec7","system_id":"levelo_inurba_marseille","lat":43.31717,"lon":5.42409,"is_reserved":false,"is_disabled":true,"rental_uris":{"android":"levelo://app?vid=eab6cbfa-cb8e-47d7-b0d6-226ab7facec7","ios":"levelo://app?vid=eab6cbfa-cb8e-47d7-b0d6-226ab7facec7"},"vehicle_type_id":"4","last_reported":1744294176,"current_range_meters":16000,"station_id":"ce4bhp92rcd13ifvqhbg","pricing_plan_id":"cebpf4jnsgd1na2vs0mg"},{"bike_id":"9dbc1560-03e6-4dc4-9f70-14d918b83bd5","system_id":"levelo_inurba_marseille","lat":43.29554,"lon":5.42285,"is_reserved":false,"is_disabled":false,"rental_uris":{"android":"levelo://app?vid=9dbc1560-03e6-4dc4-9f70-14d918b83bd5","ios":"levelo://app?vid=9dbc1560-03e6-4dc4-9f70-14d918b83bd5"},"vehicle_type_id":"4","last_reported":1744294176,"current_range_meters":16400,"station_id":"ce4bhph2rcd13ifvqhdg","pricing_plan_id":"cebpf4jnsgd1na2vs0mg"},{"bike_id":"7e523cd7-4a07-47da-b949-b357bb3bb06c","system_id":"levelo_inurba_marseille","lat":43.24672,"lon":5.38168,"is_reserved":false,"is_disabled":false,"rental_uris":{"android":"levelo://app?vid=7e523cd7-4a07-47da-b949-b357bb3bb06c","ios":"levelo://app?vid=7e523cd7-4a07-47da-b949-b357bb3bb06c"},"vehicle_type_id":"4","last_reported":1744294176,"current_range_meters":16400,"station_id":"ce4bhih2rcd13ifvqfr0","pricing_plan_id":"cebpf4jnsgd1na2vs0mg"},{"bike_id":"cefba539-dcbb-4b92-91a6-7b18c9c36d80","system_id":"levelo_inurba_marseille","lat":43.29267,"lon":5.37641,"is_reserved":false,"is_disabled":false,"rental_uris":{"android":"levelo://app?vid=cefba539-dcbb-4b92-91a6-7b18c9c36d80","ios":"levelo://app?vid=cefba539-dcbb-4b92-91a6-7b18c9c36d80"},"vehicle_type_id":"4","last_reported":1744294176,"current_range_meters":16400,"station_id":"ce4bgi12rcd13ifvqb80","pricing_plan_id":"cebpf4jnsgd1na2vs0mg"},{"bike_id":"c306c786-9f23-4c3d-9eef-8b3591ed0e3c","system_id":"levelo_inurba_marseille","lat":43.26774,"lon":5.3941,"is_reserved":false,"is_disabled":false,"rental_uris":{"android":"levelo://app?vid=c306c786-9f23-4c3d-9eef-8b3591ed0e3c","ios":"levelo://app?vid=c306c786-9f23-4c3d-9eef-8b3591ed0e3c"},"vehicle_type_id":"4","last_reported":1744294176,"current_range_meters":16400,"station_id":"ce4bhh12rcd13ifvqfg0","pricing_plan_id":"cebpf4jnsgd1na2vs0mg"},{"bike_id":"3cfa414a-56ce-4678-b27b-88f21f1ddfeb","system_id":"levelo_inurba_marseille","lat":43.30319,"lon":5.37722,"is_reserved":false,"is_disabled":false,"rental_uris":{"android":"levelo://app?vid=3cfa414a-56ce-4678-b27b-88f21f1ddfeb","ios":"levelo://app?vid=3cfa414a-56ce-4678-b27b-88f21f1ddfeb"},"vehicle_type_id":"4","last_reported":1744294176,"current_range_meters":16400,"station_id":"ce4bguh2rcd13ifvqcj0","pricing_plan_id":"cebpf4jnsgd1na2vs0mg"},{"bike_id":"7928f85f-6603-4b62-a9f0-1785aa6fb49a","system_id":"levelo_inurba_marseille","lat":43.30787,"lon":5.374,"is_reserved":false,"is_disabled":false,"rental_uris":{"android":"levelo://app?vid=7928f85f-6603-4b62-a9f0-1785aa6fb49a","ios":"levelo://app?vid=7928f85f-6603-4b62-a9f0-1785aa6fb49a"},"vehicle_type_id":"4","last_reported":1744294176,"current_range_meters":16400,"station_id":"","pricing_plan_id":"cebpf4jnsgd1na2vs0mg"},{"bike_id":"4fe5ba71-dced-4722-9f92-13e13795c67b","system_id":"levelo_inurba_marseille","lat":43.30143,"lon":5.37402,"is_reserved":false,"is_disabled":false,"rental_uris":{"android":"levelo://app?vid=4fe5ba71-dced-4722-9f92-13e13795c67b","ios":"levelo://app?vid=4fe5ba71-dced-4722-9f92-13e13795c67b"},"vehicle_type_id":"4","last_reported":1744294176,"current_range_meters":16400,"station_id":"ce4bgs92rcd13ifvqcc0","pricing_plan_id":"cebpf4jnsgd1na2vs0mg"},{"bike_id":"b54ac630-7801-48cc-9785-f994a3cb6155","system_id":"levelo_inurba_marseille","lat":43.241746,"lon":5.397084,"is_reserved":false,"is_disabled":false,"rental_uris":{"android":"levelo://app?vid=b54ac630-7801-48cc-9785-f994a3cb6155","ios":"levelo://app?vid=b54ac630-7801-48cc-9785-f994a3cb6155"},"vehicle_type_id":"4","last_reported":1744294176,"current_range_meters":16400,"station_id":"ce4bhn12rcd13ifvqgpg","pricing_plan_id":"cebpf4jnsgd1na2vs0mg"},{"bike_id":"ba979053-e804-4759-be4f-dd79bed29cd7","system_id":"levelo_inurba_marseille","lat":43.21193,"lon":5.35072,"is_reserved":false,"is_disabled":false,"rental_uris":{"android":"levelo://app?vid=ba979053-e804-4759-be4f-dd79bed29cd7","ios":"levelo://app?vid=ba979053-e804-4759-be4f-dd79bed29cd7"},"vehicle_type_id":"4","last_reported":1744294176,"current_range_meters":16400,"station_id":"st_cvj6sg6p6f1abm77japg","pricing_plan_id":"cebpf4jnsgd1na2vs0mg"},{"bike_id":"0922821c-4e1d-4817-9469-860e55f8f0d1","system_id":"levelo_inurba_marseille","lat":43.337444,"lon":5.374475,"is_reserved":false,"is_disabled":false,"rental_uris":{"android":"levelo://app?vid=0922821c-4e1d-4817-9469-860e55f8f0d1","ios":"levelo://app?vid=0922821c-4e1d-4817-9469-860e55f8f0d1"},"vehicle_type_id":"4","last_reported":1744294176,"current_range_meters":16400,"station_id":"","pricing_plan_id":"cebpf4jnsgd1na2vs0mg"},{"bike_id":"8934a0ad-03dc-48ca-8088-4026aee9d9bb","system_id":"levelo_inurba_marseille","lat":43.28272,"lon":5.35084,"is_reserved":false,"is_disabled":false,"rental_uris":{"android":"levelo://app?vid=8934a0ad-03dc-48ca-8088-4026aee9d9bb","ios":"levelo://app?vid=8934a0ad-03dc-48ca-8088-4026aee9d9bb"},"vehicle_type_id":"4","last_reported":1744294176,"current_range_meters":16400,"station_id":"ce4bhbp2rcd13ifvqerg","pricing_plan_id":"cebpf4jnsgd1na2vs0mg"},{"bike_id":"23718e9a-5ce7-4d28-99a5-8f754f56e13c","system_id":"levelo_inurba_marseille","lat":43.22503,"lon":5.34786,"is_reserved":false,"is_disabled":false,"rental_uris":{"android":"levelo://app?vid=23718e9a-5ce7-4d28-99a5-8f754f56e13c","ios":"levelo://app?vid=23718e9a-5ce7-4d28-99a5-8f754f56e13c"},"vehicle_type_id":"4","last_reported":1744294176,"current_range_meters":16800,"station_id":"","pricing_plan_id":"cebpf4jnsgd1na2vs0mg"},{"bike_id":"a034f737-c7d2-4943-9d22-7ee87c8de504","system_id":"levelo_inurba_marseille","lat":43.28419,"lon":5.3499,"is_reserved":false,"is_disabled":false,"rental_uris":{"android":"levelo://app?vid=a034f737-c7d2-4943-9d22-7ee87c8de504","ios":"levelo://app?vid=a034f737-c7d2-4943-9d22-7ee87c8de504"},"vehicle_type_id":"4","last_reported":1744294176,"current_range_meters":16800,"station_id":"ce4bhbh2rcd13ifvqepg","pricing_plan_id":"cebpf4jnsgd1na2vs0mg"},{"bike_id":"83059bca-96ad-46af-977f-33e97ab24489","system_id":"levelo_inurba_marseille","lat":43.292946,"lon":5.374624,"is_reserved":false,"is_disabled":false,"rental_uris":{"android":"levelo://app?vid=83059bca-96ad-46af-977f-33e97ab24489","ios":"levelo://app?vid=83059bca-96ad-46af-977f-33e97ab24489"},"vehicle_type_id":"4","last_reported":1744294176,"current_range_meters":16800,"station_id":"ce4bgj92rcd13ifvqbd0","pricing_plan_id":"cebpf4jnsgd1na2vs0mg"},{"bike_id":"fd864bf9-8e42-4e19-a3c4-3a411921c887","system_id":"levelo_inurba_marseille","lat":43.26202,"lon":5.3792,"is_reserved":false,"is_disabled":false,"rental_uris":{"android":"levelo://app?vid=fd864bf9-8e42-4e19-a3c4-3a411921c887","ios":"levelo://app?vid=fd864bf9-8e42-4e19-a3c4-3a411921c887"},"vehicle_type_id":"4","last_reported":1744294176,"current_range_meters":16800,"station_id":"ce4bhjp2rcd13ifvqg90","pricing_plan_id":"cebpf4jnsgd1na2vs0mg"},{"bike_id":"873840b1-9482-4c1d-8c3a-9179d0bfd4c6","system_id":"levelo_inurba_marseille","lat":43.32405,"lon":5.38994,"is_reserved":false,"is_disabled":false,"rental_uris":{"android":"levelo://app?vid=873840b1-9482-4c1d-8c3a-9179d0bfd4c6","ios":"levelo://app?vid=873840b1-9482-4c1d-8c3a-9179d0bfd4c6"},"vehicle_type_id":"4","last_reported":1744294176,"current_range_meters":16800,"station_id":"","pricing_plan_id":"cebpf4jnsgd1na2vs0mg"},{"bike_id":"07a8272c-7a41-4249-8643-ca8ac750f0d7","system_id":"levelo_inurba_marseille","lat":43.300808,"lon":5.390609,"is_reserved":false,"is_disabled":false,"rental_uris":{"android":"levelo://app?vid=07a8272c-7a41-4249-8643-ca8ac750f0d7","ios":"levelo://app?vid=07a8272c-7a41-4249-8643-ca8ac750f0d7"},"vehicle_type_id":"4","last_reported":1744294176,"current_range_meters":16800,"station_id":"ce4bh192rcd13ifvqdb0","pricing_plan_id":"cebpf4jnsgd1na2vs0mg"},{"bike_id":"ec81288d-8f34-427b-b879-068881ef991f","system_id":"levelo_inurba_marseille","lat":43.23146,"lon":5.43719,"is_reserved":false,"is_disabled":false,"rental_uris":{"android":"levelo://app?vid=ec81288d-8f34-427b-b879-068881ef991f","ios":"levelo://app?vid=ec81288d-8f34-427b-b879-068881ef991f"},"vehicle_type_id":"4","last_reported":1744294176,"current_range_meters":17200,"station_id":"ce4bhmp2rcd13ifvqgog","pricing_plan_id":"cebpf4jnsgd1na2vs0mg"},{"bike_id":"a737f5db-dfb3-4dd8-aeff-67617975e190","system_id":"levelo_inurba_marseille","lat":43.29605,"lon":5.37715,"is_reserved":false,"is_disabled":true,"rental_uris":{"android":"levelo://app?vid=a737f5db-dfb3-4dd8-aeff-67617975e190","ios":"levelo://app?vid=a737f5db-dfb3-4dd8-aeff-67617975e190"},"vehicle_type_id":"4","last_reported":1744294176,"current_range_meters":17200,"station_id":"ce4bgi92rcd13ifvqb90","pricing_plan_id":"cebpf4jnsgd1na2vs0mg"},{"bike_id":"572c239e-c7a9-441e-bd9d-2667f4375dd1","system_id":"levelo_inurba_marseille","lat":43.28413,"lon":5.34988,"is_reserved":false,"is_disabled":false,"rental_uris":{"android":"levelo://app?vid=572c239e-c7a9-441e-bd9d-2667f4375dd1","ios":"levelo://app?vid=572c239e-c7a9-441e-bd9d-2667f4375dd1"},"vehicle_type_id":"4","last_reported":1744294176,"current_range_meters":17200,"station_id":"ce4bhbh2rcd13ifvqepg","pricing_plan_id":"cebpf4jnsgd1na2vs0mg"},{"bike_id":"467924d9-889a-4591-a26d-c954ba0abb33","system_id":"levelo_inurba_marseille","lat":43.32402,"lon":5.38995,"is_reserved":false,"is_disabled":false,"rental_uris":{"android":"levelo://app?vid=467924d9-889a-4591-a26d-c954ba0abb33","ios":"levelo://app?vid=467924d9-889a-4591-a26d-c954ba0abb33"},"vehicle_type_id":"4","last_reported":1744294176,"current_range_meters":17200,"station_id":"","pricing_plan_id":"cebpf4jnsgd1na2vs0mg"},{"bike_id":"2e5d7497-768e-412c-a641-8e4808d45bd3","system_id":"levelo_inurba_marseille","lat":43.29276,"lon":5.40113,"is_reserved":false,"is_disabled":false,"rental_uris":{"android":"levelo://app?vid=2e5d7497-768e-412c-a641-8e4808d45bd3","ios":"levelo://app?vid=2e5d7497-768e-412c-a641-8e4808d45bd3"},"vehicle_type_id":"4","last_reported":1744294176,"current_range_meters":17200,"station_id":"ce4bh312rcd13ifvqdk0","pricing_plan_id":"cebpf4jnsgd1na2vs0mg"},{"bike_id":"221b5d38-61dc-40aa-b23e-5b0391fc47a1","system_id":"levelo_inurba_marseille","lat":43.26214,"lon":5.40446,"is_reserved":false,"is_disabled":false,"rental_uris":{"android":"levelo://app?vid=221b5d38-61dc-40aa-b23e-5b0391fc47a1","ios":"levelo://app?vid=221b5d38-61dc-40aa-b23e-5b0391fc47a1"},"vehicle_type_id":"4","last_reported":1744294176,"current_range_meters":17200,"station_id":"ce4bhmh2rcd13ifvqgmg","pricing_plan_id":"cebpf4jnsgd1na2vs0mg"},{"bike_id":"7a02487e-7eb9-4e91-8637-a660d57cd311","system_id":"levelo_inurba_marseille","lat":43.30349,"lon":5.41887,"is_reserved":false,"is_disabled":false,"rental_uris":{"android":"levelo://app?vid=7a02487e-7eb9-4e91-8637-a660d57cd311","ios":"levelo://app?vid=7a02487e-7eb9-4e91-8637-a660d57cd311"},"vehicle_type_id":"4","last_reported":1744294176,"current_range_meters":16000,"station_id":"ce4bhop2rcd13ifvqh7g","pricing_plan_id":"cebpf4jnsgd1na2vs0mg"},{"bike_id":"13be7fea-e9e2-4515-8179-954cc16a5aa1","system_id":"levelo_inurba_marseille","lat":43.30903,"lon":5.36845,"is_reserved":false,"is_disabled":false,"rental_uris":{"android":"levelo://app?vid=13be7fea-e9e2-4515-8179-954cc16a5aa1","ios":"levelo://app?vid=13be7fea-e9e2-4515-8179-954cc16a5aa1"},"vehicle_type_id":"4","last_reported":1744294176,"current_range_meters":17200,"station_id":"ce4bgn92rcd13ifvqbvg","pricing_plan_id":"cebpf4jnsgd1na2vs0mg"},{"bike_id":"94455896-0f19-4fae-bd72-9879f01fcd6e","system_id":"levelo_inurba_marseille","lat":43.29548,"lon":5.42278,"is_reserved":false,"is_disabled":true,"rental_uris":{"android":"levelo://app?vid=94455896-0f19-4fae-bd72-9879f01fcd6e","ios":"levelo://app?vid=94455896-0f19-4fae-bd72-9879f01fcd6e"},"vehicle_type_id":"4","last_reported":1744294176,"current_range_meters":17200,"station_id":"ce4bhph2rcd13ifvqhdg","pricing_plan_id":"cebpf4jnsgd1na2vs0mg"},{"bike_id":"182650a6-9433-4951-80ba-44b6e3878dab","system_id":"levelo_inurba_marseille","lat":43.30536,"lon":5.38434,"is_reserved":false,"is_disabled":true,"rental_uris":{"android":"levelo://app?vid=182650a6-9433-4951-80ba-44b6e3878dab","ios":"levelo://app?vid=182650a6-9433-4951-80ba-44b6e3878dab"},"vehicle_type_id":"4","last_reported":1744294176,"current_range_meters":17200,"station_id":"ce4bgg92rcd13ifvqb30","pricing_plan_id":"cebpf4jnsgd1na2vs0mg"},{"bike_id":"cbc4d964-4d58-4891-a1a0-a908875052fd","system_id":"levelo_inurba_marseille","lat":43.26024,"lon":5.37548,"is_reserved":false,"is_disabled":false,"rental_uris":{"android":"levelo://app?vid=cbc4d964-4d58-4891-a1a0-a908875052fd","ios":"levelo://app?vid=cbc4d964-4d58-4891-a1a0-a908875052fd"},"vehicle_type_id":"4","last_reported":1744294176,"current_range_meters":17200,"station_id":"ce4bhgh2rcd13ifvqfa0","pricing_plan_id":"cebpf4jnsgd1na2vs0mg"},{"bike_id":"7ae786ad-391a-497b-8af6-181ef6535752","system_id":"levelo_inurba_marseille","lat":43.23177,"lon":5.39985,"is_reserved":false,"is_disabled":false,"rental_uris":{"android":"levelo://app?vid=7ae786ad-391a-497b-8af6-181ef6535752","ios":"levelo://app?vid=7ae786ad-391a-497b-8af6-181ef6535752"},"vehicle_type_id":"4","last_reported":1744294176,"current_range_meters":17600,"station_id":"ce4bhn12rcd13ifvqgqg","pricing_plan_id":"cebpf4jnsgd1na2vs0mg"},{"bike_id":"52c3b748-b29e-4ce9-aba4-2948b8a19d23","system_id":"levelo_inurba_marseille","lat":43.28424,"lon":5.34985,"is_reserved":false,"is_disabled":false,"rental_uris":{"android":"levelo://app?vid=52c3b748-b29e-4ce9-aba4-2948b8a19d23","ios":"levelo://app?vid=52c3b748-b29e-4ce9-aba4-2948b8a19d23"},"vehicle_type_id":"4","last_reported":1744294176,"current_range_meters":17600,"station_id":"ce4bhbh2rcd13ifvqepg","pricing_plan_id":"cebpf4jnsgd1na2vs0mg"},{"bike_id":"35b36e91-763a-4885-8944-e030c3a30dcf","system_id":"levelo_inurba_marseille","lat":43.31213,"lon":5.36866,"is_reserved":false,"is_disabled":false,"rental_uris":{"android":"levelo://app?vid=35b36e91-763a-4885-8944-e030c3a30dcf","ios":"levelo://app?vid=35b36e91-763a-4885-8944-e030c3a30dcf"},"vehicle_type_id":"4","last_reported":1744294176,"current_range_meters":17600,"station_id":"ce4bgl92rcd13ifvqbq0","pricing_plan_id":"cebpf4jnsgd1na2vs0mg"},{"bike_id":"03b0720c-6012-464e-871f-53375b5579b8","system_id":"levelo_inurba_marseille","lat":43.21193,"lon":5.35071,"is_reserved":false,"is_disabled":false,"rental_uris":{"android":"levelo://app?vid=03b0720c-6012-464e-871f-53375b5579b8","ios":"levelo://app?vid=03b0720c-6012-464e-871f-53375b5579b8"},"vehicle_type_id":"4","last_reported":1744294176,"current_range_meters":17600,"station_id":"st_cvj6sg6p6f1abm77japg","pricing_plan_id":"cebpf4jnsgd1na2vs0mg"},{"bike_id":"6f5a3fba-5124-42a7-b36e-1ce41590f370","system_id":"levelo_inurba_marseille","lat":43.32352,"lon":5.36755,"is_reserved":false,"is_disabled":false,"rental_uris":{"android":"levelo://app?vid=6f5a3fba-5124-42a7-b36e-1ce41590f370","ios":"levelo://app?vid=6f5a3fba-5124-42a7-b36e-1ce41590f370"},"vehicle_type_id":"4","last_reported":1744294176,"current_range_meters":17600,"station_id":"ce4bhsh2rcd13ifvqi2g","pricing_plan_id":"cebpf4jnsgd1na2vs0mg"},{"bike_id":"8d237f63-0cab-4612-bab8-4ca526045359","system_id":"levelo_inurba_marseille","lat":43.27613,"lon":5.36099,"is_reserved":false,"is_disabled":false,"rental_uris":{"android":"levelo://app?vid=8d237f63-0cab-4612-bab8-4ca526045359","ios":"levelo://app?vid=8d237f63-0cab-4612-bab8-4ca526045359"},"vehicle_type_id":"4","last_reported":1744294176,"current_range_meters":17600,"station_id":"ce4bgj92rcd13ifvqbe0","pricing_plan_id":"cebpf4jnsgd1na2vs0mg"},{"bike_id":"cb7c1180-3dd2-4117-b2f8-6af14e765160","system_id":"levelo_inurba_marseille","lat":43.27369,"lon":5.36257,"is_reserved":false,"is_disabled":false,"rental_uris":{"android":"levelo://app?vid=cb7c1180-3dd2-4117-b2f8-6af14e765160","ios":"levelo://app?vid=cb7c1180-3dd2-4117-b2f8-6af14e765160"},"vehicle_type_id":"4","last_reported":1744294176,"current_range_meters":17600,"station_id":"ce4bhbh2rcd13ifvqeo0","pricing_plan_id":"cebpf4jnsgd1na2vs0mg"},{"bike_id":"9ecea778-7468-44ed-bf94-627f6eb2c8b3","system_id":"levelo_inurba_marseille","lat":43.28418,"lon":5.34996,"is_reserved":false,"is_disabled":false,"rental_uris":{"android":"levelo://app?vid=9ecea778-7468-44ed-bf94-627f6eb2c8b3","ios":"levelo://app?vid=9ecea778-7468-44ed-bf94-627f6eb2c8b3"},"vehicle_type_id":"4","last_reported":1744294176,"current_range_meters":17600,"station_id":"ce4bhbh2rcd13ifvqepg","pricing_plan_id":"cebpf4jnsgd1na2vs0mg"},{"bike_id":"d571cef0-172f-4e67-a1f5-f1c6c75d5d7b","system_id":"levelo_inurba_marseille","lat":43.24649,"lon":5.38892,"is_reserved":false,"is_disabled":false,"rental_uris":{"android":"levelo://app?vid=d571cef0-172f-4e67-a1f5-f1c6c75d5d7b","ios":"levelo://app?vid=d571cef0-172f-4e67-a1f5-f1c6c75d5d7b"},"vehicle_type_id":"4","last_reported":1744294176,"current_range_meters":17600,"station_id":"ce4bhg12rcd13ifvqf60","pricing_plan_id":"cebpf4jnsgd1na2vs0mg"},{"bike_id":"a66454a6-425c-4178-b601-5819c879b7bf","system_id":"levelo_inurba_marseille","lat":43.32283,"lon":5.38278,"is_reserved":false,"is_disabled":false,"rental_uris":{"android":"levelo://app?vid=a66454a6-425c-4178-b601-5819c879b7bf","ios":"levelo://app?vid=a66454a6-425c-4178-b601-5819c879b7bf"},"vehicle_type_id":"4","last_reported":1744294176,"current_range_meters":18000,"station_id":"ce4bhr12rcd13ifvqhqg","pricing_plan_id":"cebpf4jnsgd1na2vs0mg"},{"bike_id":"463b41fd-37bb-48c0-a6e4-12f737a3d7cf","system_id":"levelo_inurba_marseille","lat":43.26944,"lon":5.40265,"is_reserved":false,"is_disabled":true,"rental_uris":{"android":"levelo://app?vid=463b41fd-37bb-48c0-a6e4-12f737a3d7cf","ios":"levelo://app?vid=463b41fd-37bb-48c0-a6e4-12f737a3d7cf"},"vehicle_type_id":"4","last_reported":1744294176,"current_range_meters":18000,"station_id":"cjm6bp8fraef2m0cb0m0","pricing_plan_id":"cebpf4jnsgd1na2vs0mg"},{"bike_id":"aeb315f8-5663-4264-8421-f5acbb6ac33d","system_id":"levelo_inurba_marseille","lat":43.26227,"lon":5.40456,"is_reserved":false,"is_disabled":false,"rental_uris":{"android":"levelo://app?vid=aeb315f8-5663-4264-8421-f5acbb6ac33d","ios":"levelo://app?vid=aeb315f8-5663-4264-8421-f5acbb6ac33d"},"vehicle_type_id":"4","last_reported":1744294176,"current_range_meters":18000,"station_id":"ce4bhmh2rcd13ifvqgmg","pricing_plan_id":"cebpf4jnsgd1na2vs0mg"},{"bike_id":"747fc457-ca7b-482e-ab22-50d6d68fcf10","system_id":"levelo_inurba_marseille","lat":43.30181,"lon":5.36605,"is_reserved":false,"is_disabled":false,"rental_uris":{"android":"levelo://app?vid=747fc457-ca7b-482e-ab22-50d6d68fcf10","ios":"levelo://app?vid=747fc457-ca7b-482e-ab22-50d6d68fcf10"},"vehicle_type_id":"4","last_reported":1744294176,"current_range_meters":18000,"station_id":"ce4bgrh2rcd13ifvqc8g","pricing_plan_id":"cebpf4jnsgd1na2vs0mg"},{"bike_id":"934d9494-a152-4835-8070-1282637919d6","system_id":"levelo_inurba_marseille","lat":43.29191,"lon":5.35807,"is_reserved":false,"is_disabled":false,"rental_uris":{"android":"levelo://app?vid=934d9494-a152-4835-8070-1282637919d6","ios":"levelo://app?vid=934d9494-a152-4835-8070-1282637919d6"},"vehicle_type_id":"4","last_reported":1744294176,"current_range_meters":18800,"station_id":"ce4bhb12rcd13ifvqel0","pricing_plan_id":"cebpf4jnsgd1na2vs0mg"},{"bike_id":"6d1f80b1-80e0-4012-99d1-3f8172cadb63","system_id":"levelo_inurba_marseille","lat":43.24178,"lon":5.36404,"is_reserved":false,"is_disabled":false,"rental_uris":{"android":"levelo://app?vid=6d1f80b1-80e0-4012-99d1-3f8172cadb63","ios":"levelo://app?vid=6d1f80b1-80e0-4012-99d1-3f8172cadb63"},"vehicle_type_id":"4","last_reported":1744294176,"current_range_meters":18000,"station_id":"cpo36qri1sfpv3e86is0","pricing_plan_id":"cebpf4jnsgd1na2vs0mg"},{"bike_id":"8b26b7d7-9d7b-4865-9516-95269fac0bab","system_id":"levelo_inurba_marseille","lat":43.29207,"lon":5.36041,"is_reserved":false,"is_disabled":false,"rental_uris":{"android":"levelo://app?vid=8b26b7d7-9d7b-4865-9516-95269fac0bab","ios":"levelo://app?vid=8b26b7d7-9d7b-4865-9516-95269fac0bab"},"vehicle_type_id":"4","last_reported":1744294176,"current_range_meters":18000,"station_id":"ce4bhbh2rcd13ifvqeqg","pricing_plan_id":"cebpf4jnsgd1na2vs0mg"},{"bike_id":"6cdaadb8-0be5-4eab-91d0-332b568bc153","system_id":"levelo_inurba_marseille","lat":43.31884,"lon":5.4073,"is_reserved":false,"is_disabled":false,"rental_uris":{"android":"levelo://app?vid=6cdaadb8-0be5-4eab-91d0-332b568bc153","ios":"levelo://app?vid=6cdaadb8-0be5-4eab-91d0-332b568bc153"},"vehicle_type_id":"4","last_reported":1744294176,"current_range_meters":18000,"station_id":"ce4bhq12rcd13ifvqhig","pricing_plan_id":"cebpf4jnsgd1na2vs0mg"},{"bike_id":"1af67812-ba5d-466a-b2e4-9548cdad5a26","system_id":"levelo_inurba_marseille","lat":43.30144,"lon":5.3742,"is_reserved":false,"is_disabled":false,"rental_uris":{"android":"levelo://app?vid=1af67812-ba5d-466a-b2e4-9548cdad5a26","ios":"levelo://app?vid=1af67812-ba5d-466a-b2e4-9548cdad5a26"},"vehicle_type_id":"4","last_reported":1744294176,"current_range_meters":18000,"station_id":"ce4bgs92rcd13ifvqcc0","pricing_plan_id":"cebpf4jnsgd1na2vs0mg"},{"bike_id":"047e8588-daa0-461f-a011-d73d664563b8","system_id":"levelo_inurba_marseille","lat":43.23179,"lon":5.39983,"is_reserved":false,"is_disabled":false,"rental_uris":{"android":"levelo://app?vid=047e8588-daa0-461f-a011-d73d664563b8","ios":"levelo://app?vid=047e8588-daa0-461f-a011-d73d664563b8"},"vehicle_type_id":"4","last_reported":1744294176,"current_range_meters":18000,"station_id":"ce4bhn12rcd13ifvqgqg","pricing_plan_id":"cebpf4jnsgd1na2vs0mg"},{"bike_id":"d74f48bf-558e-491e-b334-54e16e979165","system_id":"levelo_inurba_marseille","lat":43.30427,"lon":5.38883,"is_reserved":false,"is_disabled":false,"rental_uris":{"android":"levelo://app?vid=d74f48bf-558e-491e-b334-54e16e979165","ios":"levelo://app?vid=d74f48bf-558e-491e-b334-54e16e979165"},"vehicle_type_id":"4","last_reported":1744294176,"current_range_meters":18800,"station_id":"ce4bgk12rcd13ifvqbi0","pricing_plan_id":"cebpf4jnsgd1na2vs0mg"},{"bike_id":"a36e135b-ae00-4eeb-9afb-fa14c36a5dfc","system_id":"levelo_inurba_marseille","lat":43.24807,"lon":5.37452,"is_reserved":false,"is_disabled":false,"rental_uris":{"android":"levelo://app?vid=a36e135b-ae00-4eeb-9afb-fa14c36a5dfc","ios":"levelo://app?vid=a36e135b-ae00-4eeb-9afb-fa14c36a5dfc"},"vehicle_type_id":"4","last_reported":1744294176,"current_range_meters":18800,"station_id":"ce4bhgh2rcd13ifvqfb0","pricing_plan_id":"cebpf4jnsgd1na2vs0mg"},{"bike_id":"9c1dc393-5dcd-4873-9d88-975e3135726a","system_id":"levelo_inurba_marseille","lat":43.29712,"lon":5.37694,"is_reserved":false,"is_disabled":false,"rental_uris":{"android":"levelo://app?vid=9c1dc393-5dcd-4873-9d88-975e3135726a","ios":"levelo://app?vid=9c1dc393-5dcd-4873-9d88-975e3135726a"},"vehicle_type_id":"4","last_reported":1744294176,"current_range_meters":18800,"station_id":"ce4bgkh2rcd13ifvqbl0","pricing_plan_id":"cebpf4jnsgd1na2vs0mg"},{"bike_id":"ce1c82e4-2ab0-456b-9391-c9519ed40ac3","system_id":"levelo_inurba_marseille","lat":43.27367,"lon":5.3625,"is_reserved":false,"is_disabled":false,"rental_uris":{"android":"levelo://app?vid=ce1c82e4-2ab0-456b-9391-c9519ed40ac3","ios":"levelo://app?vid=ce1c82e4-2ab0-456b-9391-c9519ed40ac3"},"vehicle_type_id":"4","last_reported":1744294176,"current_range_meters":18800,"station_id":"ce4bhbh2rcd13ifvqeo0","pricing_plan_id":"cebpf4jnsgd1na2vs0mg"},{"bike_id":"94c7794a-6d48-406f-b5c8-69da2480bb40","system_id":"levelo_inurba_marseille","lat":43.31394,"lon":5.3671,"is_reserved":false,"is_disabled":false,"rental_uris":{"android":"levelo://app?vid=94c7794a-6d48-406f-b5c8-69da2480bb40","ios":"levelo://app?vid=94c7794a-6d48-406f-b5c8-69da2480bb40"},"vehicle_type_id":"4","last_reported":1744294176,"current_range_meters":18800,"station_id":"","pricing_plan_id":"cebpf4jnsgd1na2vs0mg"},{"bike_id":"2185f1df-cf13-4f70-b27e-4dc4a091a855","system_id":"levelo_inurba_marseille","lat":43.29196,"lon":5.39322,"is_reserved":false,"is_disabled":false,"rental_uris":{"android":"levelo://app?vid=2185f1df-cf13-4f70-b27e-4dc4a091a855","ios":"levelo://app?vid=2185f1df-cf13-4f70-b27e-4dc4a091a855"},"vehicle_type_id":"4","last_reported":1744294176,"current_range_meters":18800,"station_id":"ce4bh192rcd13ifvqdd0","pricing_plan_id":"cebpf4jnsgd1na2vs0mg"},{"bike_id":"89e18915-d30e-41cb-bb03-ba8ebbb23625","system_id":"levelo_inurba_marseille","lat":43.26697,"lon":5.3826,"is_reserved":false,"is_disabled":false,"rental_uris":{"android":"levelo://app?vid=89e18915-d30e-41cb-bb03-ba8ebbb23625","ios":"levelo://app?vid=89e18915-d30e-41cb-bb03-ba8ebbb23625"},"vehicle_type_id":"4","last_reported":1744294176,"current_range_meters":18800,"station_id":"ce4bhg92rcd13ifvqf90","pricing_plan_id":"cebpf4jnsgd1na2vs0mg"},{"bike_id":"74b72030-22b7-4763-8f22-0b59385f2b90","system_id":"levelo_inurba_marseille","lat":43.27997,"lon":5.41661,"is_reserved":false,"is_disabled":false,"rental_uris":{"android":"levelo://app?vid=74b72030-22b7-4763-8f22-0b59385f2b90","ios":"levelo://app?vid=74b72030-22b7-4763-8f22-0b59385f2b90"},"vehicle_type_id":"4","last_reported":1744294176,"current_range_meters":18800,"station_id":"ce4bho12rcd13ifvqh1g","pricing_plan_id":"cebpf4jnsgd1na2vs0mg"},{"bike_id":"74b26f4a-6d3d-4ac2-b681-1e6162ab2ff1","system_id":"levelo_inurba_marseille","lat":43.31236,"lon":5.36855,"is_reserved":false,"is_disabled":false,"rental_uris":{"android":"levelo://app?vid=74b26f4a-6d3d-4ac2-b681-1e6162ab2ff1","ios":"levelo://app?vid=74b26f4a-6d3d-4ac2-b681-1e6162ab2ff1"},"vehicle_type_id":"4","last_reported":1744294176,"current_range_meters":18800,"station_id":"ce4bgl92rcd13ifvqbq0","pricing_plan_id":"cebpf4jnsgd1na2vs0mg"},{"bike_id":"bf88cfe5-9d1f-4aca-8aa3-25e24942dbca","system_id":"levelo_inurba_marseille","lat":43.28274,"lon":5.3506,"is_reserved":false,"is_disabled":false,"rental_uris":{"android":"levelo://app?vid=bf88cfe5-9d1f-4aca-8aa3-25e24942dbca","ios":"levelo://app?vid=bf88cfe5-9d1f-4aca-8aa3-25e24942dbca"},"vehicle_type_id":"4","last_reported":1744294176,"current_range_meters":18800,"station_id":"ce4bhbp2rcd13ifvqerg","pricing_plan_id":"cebpf4jnsgd1na2vs0mg"},{"bike_id":"958448b5-0f1a-4f99-a7d4-5df0e1e29ff5","system_id":"levelo_inurba_marseille","lat":43.34141,"lon":5.409,"is_reserved":false,"is_disabled":false,"rental_uris":{"android":"levelo://app?vid=958448b5-0f1a-4f99-a7d4-5df0e1e29ff5","ios":"levelo://app?vid=958448b5-0f1a-4f99-a7d4-5df0e1e29ff5"},"vehicle_type_id":"4","last_reported":1744294176,"current_range_meters":19200,"station_id":"ce4bhqh2rcd13ifvqhlg","pricing_plan_id":"cebpf4jnsgd1na2vs0mg"},{"bike_id":"d37408de-b5d7-4466-8973-ab7c2a7000bc","system_id":"levelo_inurba_marseille","lat":43.29273,"lon":5.3684,"is_reserved":false,"is_disabled":true,"rental_uris":{"android":"levelo://app?vid=d37408de-b5d7-4466-8973-ab7c2a7000bc","ios":"levelo://app?vid=d37408de-b5d7-4466-8973-ab7c2a7000bc"},"vehicle_type_id":"4","last_reported":1744294176,"current_range_meters":19200,"station_id":"ce4bhbp2rcd13ifvqesg","pricing_plan_id":"cebpf4jnsgd1na2vs0mg"},{"bike_id":"430c7a17-f4ba-4123-bda7-cc0a01c30950","system_id":"levelo_inurba_marseille","lat":43.27356,"lon":5.36238,"is_reserved":false,"is_disabled":false,"rental_uris":{"android":"levelo://app?vid=430c7a17-f4ba-4123-bda7-cc0a01c30950","ios":"levelo://app?vid=430c7a17-f4ba-4123-bda7-cc0a01c30950"},"vehicle_type_id":"4","last_reported":1744294176,"current_range_meters":19200,"station_id":"ce4bhbh2rcd13ifvqeo0","pricing_plan_id":"cebpf4jnsgd1na2vs0mg"},{"bike_id":"41296d85-37fc-42bb-838c-0d3e19348df6","system_id":"levelo_inurba_marseille","lat":43.22506,"lon":5.34783,"is_reserved":false,"is_disabled":false,"rental_uris":{"android":"levelo://app?vid=41296d85-37fc-42bb-838c-0d3e19348df6","ios":"levelo://app?vid=41296d85-37fc-42bb-838c-0d3e19348df6"},"vehicle_type_id":"4","last_reported":1744294176,"current_range_meters":19200,"station_id":"st_cvj5dfep6f1abm77gieg","pricing_plan_id":"cebpf4jnsgd1na2vs0mg"},{"bike_id":"c9127137-6b89-49ff-a9bd-260e0562df5a","system_id":"levelo_inurba_marseille","lat":43.29001,"lon":5.35615,"is_reserved":false,"is_disabled":false,"rental_uris":{"android":"levelo://app?vid=c9127137-6b89-49ff-a9bd-260e0562df5a","ios":"levelo://app?vid=c9127137-6b89-49ff-a9bd-260e0562df5a"},"vehicle_type_id":"4","last_reported":1744294176,"current_range_meters":19200,"station_id":"ce4bhb92rcd13ifvqen0","pricing_plan_id":"cebpf4jnsgd1na2vs0mg"},{"bike_id":"3e405538-dbe1-4dcb-af44-a3d15512812d","system_id":"levelo_inurba_marseille","lat":43.33598,"lon":5.40981,"is_reserved":false,"is_disabled":false,"rental_uris":{"android":"levelo://app?vid=3e405538-dbe1-4dcb-af44-a3d15512812d","ios":"levelo://app?vid=3e405538-dbe1-4dcb-af44-a3d15512812d"},"vehicle_type_id":"4","last_reported":1744294176,"current_range_meters":19200,"station_id":"ce4bhqh2rcd13ifvqhmg","pricing_plan_id":"cebpf4jnsgd1na2vs0mg"},{"bike_id":"9a96b46d-0cc2-4587-9846-e1477bf94575","system_id":"levelo_inurba_marseille","lat":43.25499,"lon":5.37651,"is_reserved":false,"is_disabled":false,"rental_uris":{"android":"levelo://app?vid=9a96b46d-0cc2-4587-9846-e1477bf94575","ios":"levelo://app?vid=9a96b46d-0cc2-4587-9846-e1477bf94575"},"vehicle_type_id":"4","last_reported":1744294176,"current_range_meters":19200,"station_id":"ce4bhh12rcd13ifvqff0","pricing_plan_id":"cebpf4jnsgd1na2vs0mg"},{"bike_id":"d41ae61a-63da-4c5b-9ca3-0fc5a06df94c","system_id":"levelo_inurba_marseille","lat":43.312183,"lon":5.368617,"is_reserved":false,"is_disabled":false,"rental_uris":{"android":"levelo://app?vid=d41ae61a-63da-4c5b-9ca3-0fc5a06df94c","ios":"levelo://app?vid=d41ae61a-63da-4c5b-9ca3-0fc5a06df94c"},"vehicle_type_id":"4","last_reported":1744294176,"current_range_meters":19600,"station_id":"ce4bgl92rcd13ifvqbq0","pricing_plan_id":"cebpf4jnsgd1na2vs0mg"},{"bike_id":"45aeef06-f668-4a75-bbf8-003c1e46ff7b","system_id":"levelo_inurba_marseille","lat":43.311187,"lon":5.377737,"is_reserved":false,"is_disabled":false,"rental_uris":{"android":"levelo://app?vid=45aeef06-f668-4a75-bbf8-003c1e46ff7b","ios":"levelo://app?vid=45aeef06-f668-4a75-bbf8-003c1e46ff7b"},"vehicle_type_id":"4","last_reported":1744294176,"current_range_meters":19600,"station_id":"ce4bgt92rcd13ifvqcg0","pricing_plan_id":"cebpf4jnsgd1na2vs0mg"},{"bike_id":"25fb06f4-18a8-47b2-8f0c-a4e815a75645","system_id":"levelo_inurba_marseille","lat":43.3372,"lon":5.39186,"is_reserved":false,"is_disabled":false,"rental_uris":{"android":"levelo://app?vid=25fb06f4-18a8-47b2-8f0c-a4e815a75645","ios":"levelo://app?vid=25fb06f4-18a8-47b2-8f0c-a4e815a75645"},"vehicle_type_id":"4","last_reported":1744294176,"current_range_meters":19600,"station_id":"ce4bhr92rcd13ifvqhsg","pricing_plan_id":"cebpf4jnsgd1na2vs0mg"},{"bike_id":"a1190991-8d8b-44a6-bcb0-86d831980de8","system_id":"levelo_inurba_marseille","lat":43.26062,"lon":5.39399,"is_reserved":false,"is_disabled":false,"rental_uris":{"android":"levelo://app?vid=a1190991-8d8b-44a6-bcb0-86d831980de8","ios":"levelo://app?vid=a1190991-8d8b-44a6-bcb0-86d831980de8"},"vehicle_type_id":"4","last_reported":1744294176,"current_range_meters":19600,"station_id":"ce4bhh92rcd13ifvqfj0","pricing_plan_id":"cebpf4jnsgd1na2vs0mg"},{"bike_id":"b493d9df-4c23-4677-9287-935c5c131174","system_id":"levelo_inurba_marseille","lat":43.28278,"lon":5.35068,"is_reserved":false,"is_disabled":false,"rental_uris":{"android":"levelo://app?vid=b493d9df-4c23-4677-9287-935c5c131174","ios":"levelo://app?vid=b493d9df-4c23-4677-9287-935c5c131174"},"vehicle_type_id":"4","last_reported":1744294176,"current_range_meters":19600,"station_id":"ce4bhbp2rcd13ifvqerg","pricing_plan_id":"cebpf4jnsgd1na2vs0mg"},{"bike_id":"4c893399-b4ed-40ed-a49f-713da320f269","system_id":"levelo_inurba_marseille","lat":43.29861,"lon":5.37841,"is_reserved":false,"is_disabled":false,"rental_uris":{"android":"levelo://app?vid=4c893399-b4ed-40ed-a49f-713da320f269","ios":"levelo://app?vid=4c893399-b4ed-40ed-a49f-713da320f269"},"vehicle_type_id":"4","last_reported":1744294176,"current_range_meters":19600,"station_id":"","pricing_plan_id":"cebpf4jnsgd1na2vs0mg"},{"bike_id":"0801f89b-1ed0-4d57-a40e-9f6b2d4f412a","system_id":"levelo_inurba_marseille","lat":43.28273,"lon":5.35061,"is_reserved":false,"is_disabled":false,"rental_uris":{"android":"levelo://app?vid=0801f89b-1ed0-4d57-a40e-9f6b2d4f412a","ios":"levelo://app?vid=0801f89b-1ed0-4d57-a40e-9f6b2d4f412a"},"vehicle_type_id":"4","last_reported":1744294176,"current_range_meters":19600,"station_id":"ce4bhbp2rcd13ifvqerg","pricing_plan_id":"cebpf4jnsgd1na2vs0mg"},{"bike_id":"a74be2d4-29ec-4cfa-a308-00240eb06797","system_id":"levelo_inurba_marseille","lat":43.292247,"lon":5.360553,"is_reserved":false,"is_disabled":false,"rental_uris":{"android":"levelo://app?vid=a74be2d4-29ec-4cfa-a308-00240eb06797","ios":"levelo://app?vid=a74be2d4-29ec-4cfa-a308-00240eb06797"},"vehicle_type_id":"4","last_reported":1744294176,"current_range_meters":19600,"station_id":"ce4bhbh2rcd13ifvqeqg","pricing_plan_id":"cebpf4jnsgd1na2vs0mg"},{"bike_id":"d43b77db-9bd3-4428-badc-36b3eeadc6b1","system_id":"levelo_inurba_marseille","lat":43.313619,"lon":5.367187,"is_reserved":false,"is_disabled":false,"rental_uris":{"android":"levelo://app?vid=d43b77db-9bd3-4428-badc-36b3eeadc6b1","ios":"levelo://app?vid=d43b77db-9bd3-4428-badc-36b3eeadc6b1"},"vehicle_type_id":"4","last_reported":1744294176,"current_range_meters":19600,"station_id":"","pricing_plan_id":"cebpf4jnsgd1na2vs0mg"},{"bike_id":"1ede5530-359a-4f4b-accd-6ef3370b9d78","system_id":"levelo_inurba_marseille","lat":43.21191,"lon":5.35073,"is_reserved":false,"is_disabled":false,"rental_uris":{"android":"levelo://app?vid=1ede5530-359a-4f4b-accd-6ef3370b9d78","ios":"levelo://app?vid=1ede5530-359a-4f4b-accd-6ef3370b9d78"},"vehicle_type_id":"4","last_reported":1744294176,"current_range_meters":19600,"station_id":"st_cvj6sg6p6f1abm77japg","pricing_plan_id":"cebpf4jnsgd1na2vs0mg"},{"bike_id":"8970a559-23dd-4a79-81d4-b1d8b6134717","system_id":"levelo_inurba_marseille","lat":43.27371,"lon":5.3623,"is_reserved":false,"is_disabled":false,"rental_uris":{"android":"levelo://app?vid=8970a559-23dd-4a79-81d4-b1d8b6134717","ios":"levelo://app?vid=8970a559-23dd-4a79-81d4-b1d8b6134717"},"vehicle_type_id":"4","last_reported":1744294176,"current_range_meters":20000,"station_id":"ce4bhbh2rcd13ifvqeo0","pricing_plan_id":"cebpf4jnsgd1na2vs0mg"},{"bike_id":"14e8e51b-316b-4286-bd1c-32e8e097e8a9","system_id":"levelo_inurba_marseille","lat":43.29904,"lon":5.37461,"is_reserved":false,"is_disabled":false,"rental_uris":{"android":"levelo://app?vid=14e8e51b-316b-4286-bd1c-32e8e097e8a9","ios":"levelo://app?vid=14e8e51b-316b-4286-bd1c-32e8e097e8a9"},"vehicle_type_id":"4","last_reported":1744294176,"current_range_meters":20000,"station_id":"ce4bgjh2rcd13ifvqbg0","pricing_plan_id":"cebpf4jnsgd1na2vs0mg"},{"bike_id":"ef291804-1477-432e-b153-82ea15725418","system_id":"levelo_inurba_marseille","lat":43.33742,"lon":5.37454,"is_reserved":false,"is_disabled":false,"rental_uris":{"android":"levelo://app?vid=ef291804-1477-432e-b153-82ea15725418","ios":"levelo://app?vid=ef291804-1477-432e-b153-82ea15725418"},"vehicle_type_id":"4","last_reported":1744294176,"current_range_meters":20000,"station_id":"","pricing_plan_id":"cebpf4jnsgd1na2vs0mg"},{"bike_id":"5cd3192f-2dd9-4e73-a748-09f1e44aea14","system_id":"levelo_inurba_marseille","lat":43.29897,"lon":5.43656,"is_reserved":false,"is_disabled":false,"rental_uris":{"android":"levelo://app?vid=5cd3192f-2dd9-4e73-a748-09f1e44aea14","ios":"levelo://app?vid=5cd3192f-2dd9-4e73-a748-09f1e44aea14"},"vehicle_type_id":"4","last_reported":1744294176,"current_range_meters":20000,"station_id":"ce4bhpp2rcd13ifvqhfg","pricing_plan_id":"cebpf4jnsgd1na2vs0mg"},{"bike_id":"ee39e4ce-146f-4ef7-9c3d-695aac04788d","system_id":"levelo_inurba_marseille","lat":43.2781,"lon":5.40709,"is_reserved":false,"is_disabled":false,"rental_uris":{"android":"levelo://app?vid=ee39e4ce-146f-4ef7-9c3d-695aac04788d","ios":"levelo://app?vid=ee39e4ce-146f-4ef7-9c3d-695aac04788d"},"vehicle_type_id":"4","last_reported":1744294176,"current_range_meters":20000,"station_id":"ce4bhnh2rcd13ifvqgtg","pricing_plan_id":"cebpf4jnsgd1na2vs0mg"},{"bike_id":"8c58f2fa-99e1-41f8-bf90-9c1648b679b1","system_id":"levelo_inurba_marseille","lat":43.27312,"lon":5.41487,"is_reserved":false,"is_disabled":false,"rental_uris":{"android":"levelo://app?vid=8c58f2fa-99e1-41f8-bf90-9c1648b679b1","ios":"levelo://app?vid=8c58f2fa-99e1-41f8-bf90-9c1648b679b1"},"vehicle_type_id":"4","last_reported":1744294176,"current_range_meters":20000,"station_id":"","pricing_plan_id":"cebpf4jnsgd1na2vs0mg"},{"bike_id":"b04e1ab1-8c7b-4573-a318-8a238d2e2a4d","system_id":"levelo_inurba_marseille","lat":43.31248,"lon":5.36843,"is_reserved":false,"is_disabled":false,"rental_uris":{"android":"levelo://app?vid=b04e1ab1-8c7b-4573-a318-8a238d2e2a4d","ios":"levelo://app?vid=b04e1ab1-8c7b-4573-a318-8a238d2e2a4d"},"vehicle_type_id":"4","last_reported":1744294176,"current_range_meters":20000,"station_id":"ce4bgl92rcd13ifvqbq0","pricing_plan_id":"cebpf4jnsgd1na2vs0mg"},{"bike_id":"b6d10335-a36c-4eb3-8e6e-04912c1a05cd","system_id":"levelo_inurba_marseille","lat":43.29792,"lon":5.37118,"is_reserved":false,"is_disabled":false,"rental_uris":{"android":"levelo://app?vid=b6d10335-a36c-4eb3-8e6e-04912c1a05cd","ios":"levelo://app?vid=b6d10335-a36c-4eb3-8e6e-04912c1a05cd"},"vehicle_type_id":"4","last_reported":1744294176,"current_range_meters":20000,"station_id":"ce4bgop2rcd13ifvqc1g","pricing_plan_id":"cebpf4jnsgd1na2vs0mg"},{"bike_id":"ab23986d-af42-4b4b-90d6-eff1a0998087","system_id":"levelo_inurba_marseille","lat":43.28271,"lon":5.35075,"is_reserved":false,"is_disabled":false,"rental_uris":{"android":"levelo://app?vid=ab23986d-af42-4b4b-90d6-eff1a0998087","ios":"levelo://app?vid=ab23986d-af42-4b4b-90d6-eff1a0998087"},"vehicle_type_id":"4","last_reported":1744294176,"current_range_meters":20400,"station_id":"ce4bhbp2rcd13ifvqerg","pricing_plan_id":"cebpf4jnsgd1na2vs0mg"},{"bike_id":"6d58f8c5-5ca6-4710-b40d-80b0a7d90518","system_id":"levelo_inurba_marseille","lat":43.30698,"lon":5.37254,"is_reserved":false,"is_disabled":false,"rental_uris":{"android":"levelo://app?vid=6d58f8c5-5ca6-4710-b40d-80b0a7d90518","ios":"levelo://app?vid=6d58f8c5-5ca6-4710-b40d-80b0a7d90518"},"vehicle_type_id":"4","last_reported":1744294176,"current_range_meters":20400,"station_id":"","pricing_plan_id":"cebpf4jnsgd1na2vs0mg"},{"bike_id":"6bd557e1-23cd-4f3a-83d0-24a27e524e4f","system_id":"levelo_inurba_marseille","lat":43.30214,"lon":5.39465,"is_reserved":false,"is_disabled":false,"rental_uris":{"android":"levelo://app?vid=6bd557e1-23cd-4f3a-83d0-24a27e524e4f","ios":"levelo://app?vid=6bd557e1-23cd-4f3a-83d0-24a27e524e4f"},"vehicle_type_id":"4","last_reported":1744294176,"current_range_meters":20400,"station_id":"ce4bh0p2rcd13ifvqd70","pricing_plan_id":"cebpf4jnsgd1na2vs0mg"},{"bike_id":"3184e0b3-4ab8-4348-9679-fb84c43d9309","system_id":"levelo_inurba_marseille","lat":43.284205,"lon":5.349958,"is_reserved":false,"is_disabled":false,"rental_uris":{"android":"levelo://app?vid=3184e0b3-4ab8-4348-9679-fb84c43d9309","ios":"levelo://app?vid=3184e0b3-4ab8-4348-9679-fb84c43d9309"},"vehicle_type_id":"4","last_reported":1744294176,"current_range_meters":20400,"station_id":"ce4bhbh2rcd13ifvqepg","pricing_plan_id":"cebpf4jnsgd1na2vs0mg"},{"bike_id":"22ad6089-3aa1-48e2-a191-f7b3f0b57852","system_id":"levelo_inurba_marseille","lat":43.26195,"lon":5.37447,"is_reserved":false,"is_disabled":false,"rental_uris":{"android":"levelo://app?vid=22ad6089-3aa1-48e2-a191-f7b3f0b57852","ios":"levelo://app?vid=22ad6089-3aa1-48e2-a191-f7b3f0b57852"},