{"last_updated":1706915175,"ttl":30,"version":"2.2","data":{"bikes":[{"bike_id":"dfb90a0b-684d-44eb-aed8-26abca3ae3af","system_id":"levelo_inurba_marseille","lat":43.31341,"lon":5.367098,"is_reserved":false,"is_disabled":false,"rental_uris":{"android":"levelo://app?vid=dfb90a0b-684d-44eb-aed8-26abca3ae3af","ios":"levelo://app?vid=dfb90a0b-684d-44eb-aed8-26abca3ae3af"},"vehicle_type_id":"4","last_reported":1706915175,"current_range_meters":16800,"station_id":"ce4bgr92rcd13ifvqc6g","pricing_plan_id":"free"},{"bike_id":"e697e095-5d17-4be2-97df-4ed05bd66b28","system_id":"levelo_inurba_marseille","lat":43.312239,"lon":5.368562,"is_reserved":false,"is_disabled":false,"rental_uris":{"android":"levelo://app?vid=e697e095-5d17-4be2-97df-4ed05bd66b28","ios":"levelo://app?vid=e697e095-5d17-4be2-97df-4ed05bd66b28"},"vehicle_type_id":"4","last_reported":1706915175,"current_range_meters":13200,"station_id":"ce4bgl92rcd13ifvqbq0","pricing_plan_id":"free"},{"bike_id":"8075556e-9c83-4ece-b92f-e5e90a5fd8a2","system_id":"levelo_inurba_marseille","lat":43.31306,"lon":5.37258,"is_reserved":false,"is_disabled":false,"rental_uris":{"android":"levelo://app?vid=8075556e-9c83-4ece-b92f-e5e90a5fd8a2","ios":"levelo://app?vid=8075556e-9c83-4ece-b92f-e5e90a5fd8a2"},"vehicle_type_id":"4","last_reported":1706915175,"current_range_meters":6800,"station_id":"","pricing_plan_id":"free"},{"bike_id":"5a39e319-e3b3-4088-8eb8-368da2144e4a","system_id":"levelo_inurba_marseille","lat":43.314811,"lon":5.373103,"is_reserved":false,"is_disabled":false,"rental_uris":{"android":"levelo://app?vid=5a39e319-e3b3-4088-8eb8-368da2144e4a","ios":"levelo://app?vid=5a39e319-e3b3-4088-8eb8-368da2144e4a"},"vehicle_type_id":"4","last_reported":1706915175,"current_range_meters":30000,"station_id":"ce4bgt12rcd13ifvqcd0","pricing_plan_id":"free"},{"bike_id":"9a1e9921-786c-4773-a8b9-a61182e60c33","system_id":"levelo_inurba_marseille","lat":43.314811,"lon":5.373103,"is_reserved":false,"is_disabled":false,"rental_uris":{"android":"levelo://app?vid=9a1e9921-786c-4773-a8b9-a61182e60c33","ios":"levelo://app?vid=9a1e9921-786c-4773-a8b9-a61182e60c33"},"vehicle_type_id":"4","last_reported":1706915175,"current_range_meters":1600,"station_id":"ce4bgt12rcd13ifvqcd0","pricing_plan_id":"free"},{"bike_id":"299f3193-fd88-4039-b731-d40dc423027e","system_id":"levelo_inurba_marseille","lat":43.314811,"lon":5.373103,"is_reserved":false,"is_disabled":false,"rental_uris":{"android":"levelo://app?vid=299f3193-fd88-4039-b731-d40dc423027e","ios":"levelo://app?vid=299f3193-fd88-4039-b731-d40dc423027e"},"vehicle_type_id":"4","last_reported":1706915175,"current_range_meters":4400,"station_id":"ce4bgt12rcd13ifvqcd0","pricing_plan_id":"free"},{"bike_id":"1801fe58-7e9f-46bc-ba43-f7f06ff237c7","system_id":"levelo_inurba_marseille","lat":43.314811,"lon":5.373104,"is_reserved":false,"is_disabled":false,"rental_uris":{"android":"levelo://app?vid=1801fe58-7e9f-46bc-ba43-f7f06ff237c7","ios":"levelo://app?vid=1801fe58-7e9f-46bc-ba43-f7f06ff237c7"},"vehicle_type_id":"4","last_reported":1706915175,"current_range_meters":11600,"station_id":"ce4bgt12rcd13ifvqcd0","pricing_plan_id":"free"},{"bike_id":"9f726ba6-780a-4fb7-89d5-d5e0aac01f16","system_id":"levelo_inurba_marseille","lat":43.309039,"lon":5.371797,"is_reserved":false,"is_disabled":false,"rental_uris":{"android":"levelo://app?vid=9f726ba6-780a-4fb7-89d5-d5e0aac01f16","ios":"levelo://app?vid=9f726ba6-780a-4fb7-89d5-d5e0aac01f16"},"vehicle_type_id":"4","last_reported":1706915175,"current_range_meters":30000,"station_id":"ce4bguh2rcd13ifvqckg","pricing_plan_id":"free"},{"bike_id":"4935c2bb-fa9e-412b-9ac1-51d8f5e7ba5e","system_id":"levelo_inurba_marseille","lat":43.30863,"lon":5.37155,"is_reserved":false,"is_disabled":false,"rental_uris":{"android":"levelo://app?vid=4935c2bb-fa9e-412b-9ac1-51d8f5e7ba5e","ios":"levelo://app?vid=4935c2bb-fa9e-412b-9ac1-51d8f5e7ba5e"},"vehicle_type_id":"4","last_reported":1706915175,"current_range_meters":0,"station_id":"","pricing_plan_id":"free"},{"bike_id":"976ee1f5-da4c-4134-84b8-ddabf0209737","system_id":"levelo_inurba_marseille","lat":43.30542,"lon":5.36559,"is_reserved":false,"is_disabled":false,"rental_uris":{"android":"levelo://app?vid=976ee1f5-da4c-4134-84b8-ddabf0209737","ios":"levelo://app?vid=976ee1f5-da4c-4134-84b8-ddabf0209737"},"vehicle_type_id":"4","last_reported":1706915175,"current_range_meters":28000,"station_id":"ce4bgs12rcd13ifvqcag","pricing_plan_id":"free"},{"bike_id":"17e70644-8db6-4909-bca3-c78061f43192","system_id":"levelo_inurba_marseille","lat":43.305989,"lon":5.37225,"is_reserved":false,"is_disabled":false,"rental_uris":{"android":"levelo://app?vid=17e70644-8db6-4909-bca3-c78061f43192","ios":"levelo://app?vid=17e70644-8db6-4909-bca3-c78061f43192"},"vehicle_type_id":"4","last_reported":1706915175,"current_range_meters":6800,"station_id":"ce4bgqh2rcd13ifvqc4g","pricing_plan_id":"free"},{"bike_id":"26ba5cd5-4ea3-43ae-9303-49c4bc3ac763","system_id":"levelo_inurba_marseille","lat":43.305989,"lon":5.37225,"is_reserved":false,"is_disabled":false,"rental_uris":{"android":"levelo://app?vid=26ba5cd5-4ea3-43ae-9303-49c4bc3ac763","ios":"levelo://app?vid=26ba5cd5-4ea3-43ae-9303-49c4bc3ac763"},"vehicle_type_id":"4","last_reported":1706915175,"current_range_meters":24800,"station_id":"ce4bgqh2rcd13ifvqc4g","pricing_plan_id":"free"},{"bike_id":"10640890-11c6-4d30-a3c4-8c8dc7b90886","system_id":"levelo_inurba_marseille","lat":43.305989,"lon":5.37225,"is_reserved":false,"is_disabled":false,"rental_uris":{"android":"levelo://app?vid=10640890-11c6-4d30-a3c4-8c8dc7b90886","ios":"levelo://app?vid=10640890-11c6-4d30-a3c4-8c8dc7b90886"},"vehicle_type_id":"4","last_reported":1706915175,"current_range_meters":17200,"station_id":"ce4bgqh2rcd13ifvqc4g","pricing_plan_id":"free"},{"bike_id":"afb76f03-2128-4c2f-b0a7-d93ad931ec6c","system_id":"levelo_inurba_marseille","lat":43.305989,"lon":5.37225,"is_reserved":false,"is_disabled":false,"rental_uris":{"android":"levelo://app?vid=afb76f03-2128-4c2f-b0a7-d93ad931ec6c","ios":"levelo://app?vid=afb76f03-2128-4c2f-b0a7-d93ad931ec6c"},"vehicle_type_id":"4","last_reported":1706915175,"current_range_meters":0,"station_id":"ce4bgqh2rcd13ifvqc4g","pricing_plan_id":"free"},{"bike_id":"a3b5ffbb-6c42-43f8-8082-ed8023617dff","system_id":"levelo_inurba_marseille","lat":43.311131,"lon":5.377651,"is_reserved":false,"is_disabled":false,"rental_uris":{"android":"levelo://app?vid=a3b5ffbb-6c42-43f8-8082-ed8023617dff","ios":"levelo://app?vid=a3b5ffbb-6c42-43f8-8082-ed8023617dff"},"vehicle_type_id":"4","last_reported":1706915175,"current_range_meters":3600,"station_id":"ce4bgt92rcd13ifvqcg0","pricing_plan_id":"free"},{"bike_id":"f66762dc-a538-490c-acd2-343d34d450fb","system_id":"levelo_inurba_marseille","lat":43.311125,"lon":5.377624,"is_reserved":false,"is_disabled":false,"rental_uris":{"android":"levelo://app?vid=f66762dc-a538-490c-acd2-343d34d450fb","ios":"levelo://app?vid=f66762dc-a538-490c-acd2-343d34d450fb"},"vehicle_type_id":"4","last_reported":1706915175,"current_range_meters":7600,"station_id":"ce4bgt92rcd13ifvqcg0","pricing_plan_id":"free"},{"bike_id":"8ad27c0b-5640-4fcd-b27a-bbb69ebc1a48","system_id":"levelo_inurba_marseille","lat":43.311131,"lon":5.377651,"is_reserved":false,"is_disabled":false,"rental_uris":{"android":"levelo://app?vid=8ad27c0b-5640-4fcd-b27a-bbb69ebc1a48","ios":"levelo://app?vid=8ad27c0b-5640-4fcd-b27a-bbb69ebc1a48"},"vehicle_type_id":"4","last_reported":1706915175,"current_range_meters":14400,"station_id":"ce4bgt92rcd13ifvqcg0","pricing_plan_id":"free"},{"bike_id":"3adfefd7-2e3e-4f0a-a6b8-a0613d1259d7","system_id":"levelo_inurba_marseille","lat":43.311185,"lon":5.37777,"is_reserved":false,"is_disabled":false,"rental_uris":{"android":"levelo://app?vid=3adfefd7-2e3e-4f0a-a6b8-a0613d1259d7","ios":"levelo://app?vid=3adfefd7-2e3e-4f0a-a6b8-a0613d1259d7"},"vehicle_type_id":"4","last_reported":1706915175,"current_range_meters":18800,"station_id":"ce4bgt92rcd13ifvqcg0","pricing_plan_id":"free"},{"bike_id":"7fa83cad-99b9-4aa6-ab92-7ae36f834b06","system_id":"levelo_inurba_marseille","lat":43.307945,"lon":5.376487,"is_reserved":false,"is_disabled":false,"rental_uris":{"android":"levelo://app?vid=7fa83cad-99b9-4aa6-ab92-7ae36f834b06","ios":"levelo://app?vid=7fa83cad-99b9-4aa6-ab92-7ae36f834b06"},"vehicle_type_id":"4","last_reported":1706915175,"current_range_meters":22400,"station_id":"ce4bgv92rcd13ifvqcq0","pricing_plan_id":"free"},{"bike_id":"b440bc5a-deb0-4990-96d5-027ba951d614","system_id":"levelo_inurba_marseille","lat":43.307945,"lon":5.376487,"is_reserved":false,"is_disabled":false,"rental_uris":{"android":"levelo://app?vid=b440bc5a-deb0-4990-96d5-027ba951d614","ios":"levelo://app?vid=b440bc5a-deb0-4990-96d5-027ba951d614"},"vehicle_type_id":"4","last_reported":1706915175,"current_range_meters":7600,"station_id":"ce4bgv92rcd13ifvqcq0","pricing_plan_id":"free"},{"bike_id":"7ac2494b-5e40-4fb1-bff3-6b24340e9579","system_id":"levelo_inurba_marseille","lat":43.307945,"lon":5.376487,"is_reserved":false,"is_disabled":false,"rental_uris":{"android":"levelo://app?vid=7ac2494b-5e40-4fb1-bff3-6b24340e9579","ios":"levelo://app?vid=7ac2494b-5e40-4fb1-bff3-6b24340e9579"},"vehicle_type_id":"4","last_reported":1706915175,"current_range_meters":9200,"station_id":"ce4bgv92rcd13ifvqcq0","pricing_plan_id":"free"},{"bike_id":"ab3286eb-dbac-4366-b110-90ffe0d4f697","system_id":"levelo_inurba_marseille","lat":43.307945,"lon":5.376487,"is_reserved":false,"is_disabled":false,"rental_uris":{"android":"levelo://app?vid=ab3286eb-dbac-4366-b110-90ffe0d4f697","ios":"levelo://app?vid=ab3286eb-dbac-4366-b110-90ffe0d4f697"},"vehicle_type_id":"4","last_reported":1706915175,"current_range_meters":12800,"station_id":"ce4bgv92rcd13ifvqcq0","pricing_plan_id":"free"},{"bike_id":"2295bdf0-b945-48a1-b7b3-5cd2c65aa77b","system_id":"levelo_inurba_marseille","lat":43.307868,"lon":5.376495,"is_reserved":false,"is_disabled":false,"rental_uris":{"android":"levelo://app?vid=2295bdf0-b945-48a1-b7b3-5cd2c65aa77b","ios":"levelo://app?vid=2295bdf0-b945-48a1-b7b3-5cd2c65aa77b"},"vehicle_type_id":"4","last_reported":1706915175,"current_range_meters":21600,"station_id":"","pricing_plan_id":"free"},{"bike_id":"6132a412-ad44-4070-82af-5684b840e2f3","system_id":"levelo_inurba_marseille","lat":43.307945,"lon":5.376487,"is_reserved":false,"is_disabled":false,"rental_uris":{"android":"levelo://app?vid=6132a412-ad44-4070-82af-5684b840e2f3","ios":"levelo://app?vid=6132a412-ad44-4070-82af-5684b840e2f3"},"vehicle_type_id":"4","last_reported":1706915175,"current_range_meters":22400,"station_id":"ce4bgv92rcd13ifvqcq0","pricing_plan_id":"free"},{"bike_id":"c91671d6-de7c-4415-8bcb-22246a9e4d8b","system_id":"levelo_inurba_marseille","lat":43.307945,"lon":5.376487,"is_reserved":false,"is_disabled":false,"rental_uris":{"android":"levelo://app?vid=c91671d6-de7c-4415-8bcb-22246a9e4d8b","ios":"levelo://app?vid=c91671d6-de7c-4415-8bcb-22246a9e4d8b"},"vehicle_type_id":"4","last_reported":1706915175,"current_range_meters":27600,"station_id":"ce4bgv92rcd13ifvqcq0","pricing_plan_id":"free"},{"bike_id":"793a6182-bb41-4a42-9317-17c9919f3baa","system_id":"levelo_inurba_marseille","lat":43.307945,"lon":5.376487,"is_reserved":false,"is_disabled":false,"rental_uris":{"android":"levelo://app?vid=793a6182-bb41-4a42-9317-17c9919f3baa","ios":"levelo://app?vid=793a6182-bb41-4a42-9317-17c9919f3baa"},"vehicle_type_id":"4","last_reported":1706915175,"current_range_meters":2000,"station_id":"ce4bgv92rcd13ifvqcq0","pricing_plan_id":"free"},{"bike_id":"3fd6b355-cd17-4e44-a4ed-1c6a0b48a8ac","system_id":"levelo_inurba_marseille","lat":43.307945,"lon":5.376487,"is_reserved":false,"is_disabled":false,"rental_uris":{"android":"levelo://app?vid=3fd6b355-cd17-4e44-a4ed-1c6a0b48a8ac","ios":"levelo://app?vid=3fd6b355-cd17-4e44-a4ed-1c6a0b48a8ac"},"vehicle_type_id":"4","last_reported":1706915175,"current_range_meters":12800,"station_id":"ce4bgv92rcd13ifvqcq0","pricing_plan_id":"free"},{"bike_id":"600e6c56-502c-498c-9b74-2ede5b850d18","system_id":"levelo_inurba_marseille","lat":43.307945,"lon":5.376487,"is_reserved":false,"is_disabled":false,"rental_uris":{"android":"levelo://app?vid=600e6c56-502c-498c-9b74-2ede5b850d18","ios":"levelo://app?vid=600e6c56-502c-498c-9b74-2ede5b850d18"},"vehicle_type_id":"4","last_reported":1706915175,"current_range_meters":27200,"station_id":"ce4bgv92rcd13ifvqcq0","pricing_plan_id":"free"},{"bike_id":"956baefa-276e-4952-83b1-dd8a9f77b0d2","system_id":"levelo_inurba_marseille","lat":43.307945,"lon":5.376487,"is_reserved":false,"is_disabled":false,"rental_uris":{"android":"levelo://app?vid=956baefa-276e-4952-83b1-dd8a9f77b0d2","ios":"levelo://app?vid=956baefa-276e-4952-83b1-dd8a9f77b0d2"},"vehicle_type_id":"4","last_reported":1706915175,"current_range_meters":5600,"station_id":"ce4bgv92rcd13ifvqcq0","pricing_plan_id":"free"},{"bike_id":"a0678281-8496-42cc-adcf-2ad65eff5b13","system_id":"levelo_inurba_marseille","lat":43.307945,"lon":5.376487,"is_reserved":false,"is_disabled":false,"rental_uris":{"android":"levelo://app?vid=a0678281-8496-42cc-adcf-2ad65eff5b13","ios":"levelo://app?vid=a0678281-8496-42cc-adcf-2ad65eff5b13"},"vehicle_type_id":"4","last_reported":1706915175,"current_range_meters":18400,"station_id":"ce4bgv92rcd13ifvqcq0","pricing_plan_id":"free"},{"bike_id":"6c88268f-a2a7-465d-8a0f-f73b9031ffd3","system_id":"levelo_inurba_marseille","lat":43.317075,"lon":5.377367,"is_reserved":false,"is_disabled":false,"rental_uris":{"android":"levelo://app?vid=6c88268f-a2a7-465d-8a0f-f73b9031ffd3","ios":"levelo://app?vid=6c88268f-a2a7-465d-8a0f-f73b9031ffd3"},"vehicle_type_id":"4","last_reported":1706915175,"current_range_meters":0,"station_id":"ce4bgth2rcd13ifvqch0","pricing_plan_id":"free"},{"bike_id":"999edf58-e3e3-4653-8556-d4cfa02487c2","system_id":"levelo_inurba_marseille","lat":43.317023,"lon":5.37752,"is_reserved":false,"is_disabled":false,"rental_uris":{"android":"levelo://app?vid=999edf58-e3e3-4653-8556-d4cfa02487c2","ios":"levelo://app?vid=999edf58-e3e3-4653-8556-d4cfa02487c2"},"vehicle_type_id":"4","last_reported":1706915175,"current_range_meters":0,"station_id":"ce4bgth2rcd13ifvqch0","pricing_plan_id":"free"},{"bike_id":"0f833ad1-607f-417a-a09f-4998cd54a18f","system_id":"levelo_inurba_marseille","lat":43.317127,"lon":5.377494,"is_reserved":false,"is_disabled":false,"rental_uris":{"android":"levelo://app?vid=0f833ad1-607f-417a-a09f-4998cd54a18f","ios":"levelo://app?vid=0f833ad1-607f-417a-a09f-4998cd54a18f"},"vehicle_type_id":"4","last_reported":1706915175,"current_range_meters":0,"station_id":"ce4bgth2rcd13ifvqch0","pricing_plan_id":"free"},{"bike_id":"ad87a741-465c-46a5-b675-b3d7a2447b79","system_id":"levelo_inurba_marseille","lat":43.305989,"lon":5.37225,"is_reserved":false,"is_disabled":false,"rental_uris":{"android":"levelo://app?vid=ad87a741-465c-46a5-b675-b3d7a2447b79","ios":"levelo://app?vid=ad87a741-465c-46a5-b675-b3d7a2447b79"},"vehicle_type_id":"4","last_reported":1706915175,"current_range_meters":29200,"station_id":"ce4bgqh2rcd13ifvqc4g","pricing_plan_id":"free"},{"bike_id":"963ca9b6-5691-4683-bd64-5ec33f753d91","system_id":"levelo_inurba_marseille","lat":43.303099,"lon":5.368996,"is_reserved":false,"is_disabled":false,"rental_uris":{"android":"levelo://app?vid=963ca9b6-5691-4683-bd64-5ec33f753d91","ios":"levelo://app?vid=963ca9b6-5691-4683-bd64-5ec33f753d91"},"vehicle_type_id":"4","last_reported":1706915175,"current_range_meters":18000,"station_id":"ce4bgqh2rcd13ifvqc5g","pricing_plan_id":"free"},{"bike_id":"1a602077-a2da-4c0c-a77b-f923a08d5789","system_id":"levelo_inurba_marseille","lat":43.315293,"lon":5.380349,"is_reserved":false,"is_disabled":false,"rental_uris":{"android":"levelo://app?vid=1a602077-a2da-4c0c-a77b-f923a08d5789","ios":"levelo://app?vid=1a602077-a2da-4c0c-a77b-f923a08d5789"},"vehicle_type_id":"4","last_reported":1706915175,"current_range_meters":29600,"station_id":"ce4bhsp2rcd13ifvqi50","pricing_plan_id":"free"},{"bike_id":"da9d8b73-e4eb-4d26-82d2-b4644779f7dd","system_id":"levelo_inurba_marseille","lat":43.301939,"lon":5.366286,"is_reserved":false,"is_disabled":false,"rental_uris":{"android":"levelo://app?vid=da9d8b73-e4eb-4d26-82d2-b4644779f7dd","ios":"levelo://app?vid=da9d8b73-e4eb-4d26-82d2-b4644779f7dd"},"vehicle_type_id":"4","last_reported":1706915175,"current_range_meters":18400,"station_id":"ce4bgrh2rcd13ifvqc8g","pricing_plan_id":"free"},{"bike_id":"51529f4e-a52c-49ae-9fa7-2d1a0a08ea65","system_id":"levelo_inurba_marseille","lat":43.308012,"lon":5.381511,"is_reserved":false,"is_disabled":false,"rental_uris":{"android":"levelo://app?vid=51529f4e-a52c-49ae-9fa7-2d1a0a08ea65","ios":"levelo://app?vid=51529f4e-a52c-49ae-9fa7-2d1a0a08ea65"},"vehicle_type_id":"4","last_reported":1706915175,"current_range_meters":2800,"station_id":"ce4bgt12rcd13ifvqce0","pricing_plan_id":"free"},{"bike_id":"227df6f9-8e9b-456c-88a7-b261f7196654","system_id":"levelo_inurba_marseille","lat":43.308012,"lon":5.381511,"is_reserved":false,"is_disabled":false,"rental_uris":{"android":"levelo://app?vid=227df6f9-8e9b-456c-88a7-b261f7196654","ios":"levelo://app?vid=227df6f9-8e9b-456c-88a7-b261f7196654"},"vehicle_type_id":"4","last_reported":1706915175,"current_range_meters":0,"station_id":"ce4bgt12rcd13ifvqce0","pricing_plan_id":"free"},{"bike_id":"3bd9d227-5f2f-463e-a750-cd6e40a9aab7","system_id":"levelo_inurba_marseille","lat":43.308012,"lon":5.381511,"is_reserved":false,"is_disabled":false,"rental_uris":{"android":"levelo://app?vid=3bd9d227-5f2f-463e-a750-cd6e40a9aab7","ios":"levelo://app?vid=3bd9d227-5f2f-463e-a750-cd6e40a9aab7"},"vehicle_type_id":"4","last_reported":1706915175,"current_range_meters":0,"station_id":"ce4bgt12rcd13ifvqce0","pricing_plan_id":"free"},{"bike_id":"e8d1aec6-bab8-49b7-a80d-b9317baa73d0","system_id":"levelo_inurba_marseille","lat":43.308012,"lon":5.381511,"is_reserved":false,"is_disabled":false,"rental_uris":{"android":"levelo://app?vid=e8d1aec6-bab8-49b7-a80d-b9317baa73d0","ios":"levelo://app?vid=e8d1aec6-bab8-49b7-a80d-b9317baa73d0"},"vehicle_type_id":"4","last_reported":1706915175,"current_range_meters":17600,"station_id":"ce4bgt12rcd13ifvqce0","pricing_plan_id":"free"},{"bike_id":"431102b2-088e-472f-885e-fa9133b7fe5f","system_id":"levelo_inurba_marseille","lat":43.308012,"lon":5.381511,"is_reserved":false,"is_disabled":false,"rental_uris":{"android":"levelo://app?vid=431102b2-088e-472f-885e-fa9133b7fe5f","ios":"levelo://app?vid=431102b2-088e-472f-885e-fa9133b7fe5f"},"vehicle_type_id":"4","last_reported":1706915175,"current_range_meters":0,"station_id":"ce4bgt12rcd13ifvqce0","pricing_plan_id":"free"},{"bike_id":"d4b22706-fefc-4985-82d5-d8c957a26110","system_id":"levelo_inurba_marseille","lat":43.308012,"lon":5.381511,"is_reserved":false,"is_disabled":false,"rental_uris":{"android":"levelo://app?vid=d4b22706-fefc-4985-82d5-d8c957a26110","ios":"levelo://app?vid=d4b22706-fefc-4985-82d5-d8c957a26110"},"vehicle_type_id":"4","last_reported":1706915175,"current_range_meters":15600,"station_id":"ce4bgt12rcd13ifvqce0","pricing_plan_id":"free"},{"bike_id":"74e04ce8-be1e-48b1-aeea-c30e848f4fae","system_id":"levelo_inurba_marseille","lat":43.32477,"lon":5.36578,"is_reserved":false,"is_disabled":false,"rental_uris":{"android":"levelo://app?vid=74e04ce8-be1e-48b1-aeea-c30e848f4fae","ios":"levelo://app?vid=74e04ce8-be1e-48b1-aeea-c30e848f4fae"},"vehicle_type_id":"4","last_reported":1706915175,"current_range_meters":0,"station_id":"ce4bhs12rcd13ifvqhvg","pricing_plan_id":"free"},{"bike_id":"c829652e-e086-4603-a8a6-0278668b9e64","system_id":"levelo_inurba_marseille","lat":43.310804,"lon":5.38359,"is_reserved":false,"is_disabled":false,"rental_uris":{"android":"levelo://app?vid=c829652e-e086-4603-a8a6-0278668b9e64","ios":"levelo://app?vid=c829652e-e086-4603-a8a6-0278668b9e64"},"vehicle_type_id":"4","last_reported":1706915175,"current_range_meters":16000,"station_id":"ce4bgv92rcd13ifvqcr0","pricing_plan_id":"free"},{"bike_id":"dbf1a8f0-edf9-4392-a6a8-024912b1d2f2","system_id":"levelo_inurba_marseille","lat":43.324771,"lon":5.36557,"is_reserved":false,"is_disabled":false,"rental_uris":{"android":"levelo://app?vid=dbf1a8f0-edf9-4392-a6a8-024912b1d2f2","ios":"levelo://app?vid=dbf1a8f0-edf9-4392-a6a8-024912b1d2f2"},"vehicle_type_id":"4","last_reported":1706915175,"current_range_meters":1200,"station_id":"ce4bhs12rcd13ifvqhvg","pricing_plan_id":"free"},{"bike_id":"89477423-b9e8-49c8-8d78-04c9b090cb74","system_id":"levelo_inurba_marseille","lat":43.31064,"lon":5.38344,"is_reserved":false,"is_disabled":false,"rental_uris":{"android":"levelo://app?vid=89477423-b9e8-49c8-8d78-04c9b090cb74","ios":"levelo://app?vid=89477423-b9e8-49c8-8d78-04c9b090cb74"},"vehicle_type_id":"4","last_reported":1706915175,"current_range_meters":14400,"station_id":"ce4bgv92rcd13ifvqcr0","pricing_plan_id":"free"},{"bike_id":"1223bdf3-4c95-4a9a-b98e-9c0e8c3f34b8","system_id":"levelo_inurba_marseille","lat":43.31069,"lon":5.38349,"is_reserved":false,"is_disabled":false,"rental_uris":{"android":"levelo://app?vid=1223bdf3-4c95-4a9a-b98e-9c0e8c3f34b8","ios":"levelo://app?vid=1223bdf3-4c95-4a9a-b98e-9c0e8c3f34b8"},"vehicle_type_id":"4","last_reported":1706915175,"current_range_meters":800,"station_id":"ce4bgv92rcd13ifvqcr0","pricing_plan_id":"free"},{"bike_id":"8ff5c724-9d28-47b3-81fc-4a79212bb09c","system_id":"levelo_inurba_marseille","lat":43.2901,"lon":5.381269,"is_reserved":false,"is_disabled":false,"rental_uris":{"android":"levelo://app?vid=8ff5c724-9d28-47b3-81fc-4a79212bb09c","ios":"levelo://app?vid=8ff5c724-9d28-47b3-81fc-4a79212bb09c"},"vehicle_type_id":"4","last_reported":1706915175,"current_range_meters":1200,"station_id":"ce4bh4p2rcd13ifvqe1g","pricing_plan_id":"free"},{"bike_id":"09d42cb6-0520-4ffa-8ce4-8a8a5a5c6053","system_id":"levelo_inurba_marseille","lat":43.302784,"lon":5.377158,"is_reserved":false,"is_disabled":false,"rental_uris":{"android":"levelo://app?vid=09d42cb6-0520-4ffa-8ce4-8a8a5a5c6053","ios":"levelo://app?vid=09d42cb6-0520-4ffa-8ce4-8a8a5a5c6053"},"vehicle_type_id":"4","last_reported":1706915175,"current_range_meters":22400,"station_id":"ce4bguh2rcd13ifvqcj0","pricing_plan_id":"free"},{"bike_id":"b84a0076-24f6-4d7a-83b6-da086d02eec9","system_id":"levelo_inurba_marseille","lat":43.302784,"lon":5.377158,"is_reserved":false,"is_disabled":false,"rental_uris":{"android":"levelo://app?vid=b84a0076-24f6-4d7a-83b6-da086d02eec9","ios":"levelo://app?vid=b84a0076-24f6-4d7a-83b6-da086d02eec9"},"vehicle_type_id":"4","last_reported":1706915175,"current_range_meters":0,"station_id":"ce4bguh2rcd13ifvqcj0","pricing_plan_id":"free"},{"bike_id":"6d6fb41a-d458-4158-94ba-3dc1d513804a","system_id":"levelo_inurba_marseille","lat":43.30143,"lon":5.37413,"is_reserved":false,"is_disabled":false,"rental_uris":{"android":"levelo://app?vid=6d6fb41a-d458-4158-94ba-3dc1d513804a","ios":"levelo://app?vid=6d6fb41a-d458-4158-94ba-3dc1d513804a"},"vehicle_type_id":"4","last_reported":1706915175,"current_range_meters":0,"station_id":"ce4bgs92rcd13ifvqcc0","pricing_plan_id":"free"},{"bike_id":"3d61fbe9-f0a7-41a6-b416-f31fedf6750d","system_id":"levelo_inurba_marseille","lat":43.302784,"lon":5.377158,"is_reserved":false,"is_disabled":false,"rental_uris":{"android":"levelo://app?vid=3d61fbe9-f0a7-41a6-b416-f31fedf6750d","ios":"levelo://app?vid=3d61fbe9-f0a7-41a6-b416-f31fedf6750d"},"vehicle_type_id":"4","last_reported":1706915175,"current_range_meters":0,"station_id":"ce4bguh2rcd13ifvqcj0","pricing_plan_id":"free"},{"bike_id":"fbb7e0ac-f99c-473d-9d66-74e13870913c","system_id":"levelo_inurba_marseille","lat":43.302784,"lon":5.377158,"is_reserved":false,"is_disabled":false,"rental_uris":{"android":"levelo://app?vid=fbb7e0ac-f99c-473d-9d66-74e13870913c","ios":"levelo://app?vid=fbb7e0ac-f99c-473d-9d66-74e13870913c"},"vehicle_type_id":"4","last_reported":1706915175,"current_range_meters":14400,"station_id":"ce4bguh2rcd13ifvqcj0","pricing_plan_id":"free"},{"bike_id":"a52e201f-d6ef-49e1-962b-9691dd660968","system_id":"levelo_inurba_marseille","lat":43.302784,"lon":5.377158,"is_reserved":false,"is_disabled":false,"rental_uris":{"android":"levelo://app?vid=a52e201f-d6ef-49e1-962b-9691dd660968","ios":"levelo://app?vid=a52e201f-d6ef-49e1-962b-9691dd660968"},"vehicle_type_id":"4","last_reported":1706915175,"current_range_meters":29600,"station_id":"ce4bguh2rcd13ifvqcj0","pricing_plan_id":"free"},{"bike_id":"5301e721-ba6e-4e3f-9607-8f8cd4ef9972","system_id":"levelo_inurba_marseille","lat":43.30268,"lon":5.37733,"is_reserved":false,"is_disabled":false,"rental_uris":{"android":"levelo://app?vid=5301e721-ba6e-4e3f-9607-8f8cd4ef9972","ios":"levelo://app?vid=5301e721-ba6e-4e3f-9607-8f8cd4ef9972"},"vehicle_type_id":"4","last_reported":1706915175,"current_range_meters":11600,"station_id":"ce4bguh2rcd13ifvqcj0","pricing_plan_id":"free"},{"bike_id":"106a407c-36e6-462b-9265-604bd28d927b","system_id":"levelo_inurba_marseille","lat":43.319935,"lon":5.381699,"is_reserved":false,"is_disabled":false,"rental_uris":{"android":"levelo://app?vid=106a407c-36e6-462b-9265-604bd28d927b","ios":"levelo://app?vid=106a407c-36e6-462b-9265-604bd28d927b"},"vehicle_type_id":"4","last_reported":1706915175,"current_range_meters":14000,"station_id":"ce4bhr12rcd13ifvqhpg","pricing_plan_id":"free"},{"bike_id":"d6c6117f-570d-4943-9f4e-85244eb92b89","system_id":"levelo_inurba_marseille","lat":43.319899,"lon":5.38155,"is_reserved":false,"is_disabled":false,"rental_uris":{"android":"levelo://app?vid=d6c6117f-570d-4943-9f4e-85244eb92b89","ios":"levelo://app?vid=d6c6117f-570d-4943-9f4e-85244eb92b89"},"vehicle_type_id":"4","last_reported":1706915175,"current_range_meters":11600,"station_id":"ce4bhr12rcd13ifvqhpg","pricing_plan_id":"free"},{"bike_id":"dc7eb389-de1d-44d8-91e8-3334ec5a7aa2","system_id":"levelo_inurba_marseille","lat":43.313571,"lon":5.384829,"is_reserved":false,"is_disabled":false,"rental_uris":{"android":"levelo://app?vid=dc7eb389-de1d-44d8-91e8-3334ec5a7aa2","ios":"levelo://app?vid=dc7eb389-de1d-44d8-91e8-3334ec5a7aa2"},"vehicle_type_id":"4","last_reported":1706915175,"current_range_meters":13600,"station_id":"ce4bgt92rcd13ifvqcf0","pricing_plan_id":"free"},{"bike_id":"3dfccb5d-f33c-411e-923a-f38a51b2ded8","system_id":"levelo_inurba_marseille","lat":43.313571,"lon":5.384829,"is_reserved":false,"is_disabled":false,"rental_uris":{"android":"levelo://app?vid=3dfccb5d-f33c-411e-923a-f38a51b2ded8","ios":"levelo://app?vid=3dfccb5d-f33c-411e-923a-f38a51b2ded8"},"vehicle_type_id":"4","last_reported":1706915175,"current_range_meters":25200,"station_id":"ce4bgt92rcd13ifvqcf0","pricing_plan_id":"free"},{"bike_id":"b9f1c861-09e9-4c41-85f3-6044baf33276","system_id":"levelo_inurba_marseille","lat":43.313571,"lon":5.384829,"is_reserved":false,"is_disabled":false,"rental_uris":{"android":"levelo://app?vid=b9f1c861-09e9-4c41-85f3-6044baf33276","ios":"levelo://app?vid=b9f1c861-09e9-4c41-85f3-6044baf33276"},"vehicle_type_id":"4","last_reported":1706915175,"current_range_meters":3200,"station_id":"ce4bgt92rcd13ifvqcf0","pricing_plan_id":"free"},{"bike_id":"fc02dd47-3f6c-4370-9ff3-ea2aea38ef40","system_id":"levelo_inurba_marseille","lat":43.313571,"lon":5.384829,"is_reserved":false,"is_disabled":false,"rental_uris":{"android":"levelo://app?vid=fc02dd47-3f6c-4370-9ff3-ea2aea38ef40","ios":"levelo://app?vid=fc02dd47-3f6c-4370-9ff3-ea2aea38ef40"},"vehicle_type_id":"4","last_reported":1706915175,"current_range_meters":20400,"station_id":"ce4bgt92rcd13ifvqcf0","pricing_plan_id":"free"},{"bike_id":"301629ab-6389-4d9d-add4-609511b9a5b9","system_id":"levelo_inurba_marseille","lat":43.313571,"lon":5.384829,"is_reserved":false,"is_disabled":false,"rental_uris":{"android":"levelo://app?vid=301629ab-6389-4d9d-add4-609511b9a5b9","ios":"levelo://app?vid=301629ab-6389-4d9d-add4-609511b9a5b9"},"vehicle_type_id":"4","last_reported":1706915175,"current_range_meters":18800,"station_id":"ce4bgt92rcd13ifvqcf0","pricing_plan_id":"free"},{"bike_id":"4423e192-b3e7-44d9-ac8b-124416752f38","system_id":"levelo_inurba_marseille","lat":43.313571,"lon":5.384829,"is_reserved":false,"is_disabled":false,"rental_uris":{"android":"levelo://app?vid=4423e192-b3e7-44d9-ac8b-124416752f38","ios":"levelo://app?vid=4423e192-b3e7-44d9-ac8b-124416752f38"},"vehicle_type_id":"4","last_reported":1706915175,"current_range_meters":8800,"station_id":"ce4bgt92rcd13ifvqcf0","pricing_plan_id":"free"},{"bike_id":"5134c7a4-0fe6-4671-8ff1-65e0ad508bf7","system_id":"levelo_inurba_marseille","lat":43.313571,"lon":5.384829,"is_reserved":false,"is_disabled":false,"rental_uris":{"android":"levelo://app?vid=5134c7a4-0fe6-4671-8ff1-65e0ad508bf7","ios":"levelo://app?vid=5134c7a4-0fe6-4671-8ff1-65e0ad508bf7"},"vehicle_type_id":"4","last_reported":1706915175,"current_range_meters":8400,"station_id":"ce4bgt92rcd13ifvqcf0","pricing_plan_id":"free"},{"bike_id":"d044613f-7b3b-4798-a318-312429e32d2d","system_id":"levelo_inurba_marseille","lat":43.313571,"lon":5.384829,"is_reserved":false,"is_disabled":false,"rental_uris":{"android":"levelo://app?vid=d044613f-7b3b-4798-a318-312429e32d2d","ios":"levelo://app?vid=d044613f-7b3b-4798-a318-312429e32d2d"},"vehicle_type_id":"4","last_reported":1706915175,"current_range_meters":6000,"station_id":"ce4bgt92rcd13ifvqcf0","pricing_plan_id":"free"},{"bike_id":"ad7a0a27-1962-4ed8-9087-d786a8844dd9","system_id":"levelo_inurba_marseille","lat":43.299222,"lon":5.365554,"is_reserved":false,"is_disabled":false,"rental_uris":{"android":"levelo://app?vid=ad7a0a27-1962-4ed8-9087-d786a8844dd9","ios":"levelo://app?vid=ad7a0a27-1962-4ed8-9087-d786a8844dd9"},"vehicle_type_id":"4","last_reported":1706915175,"current_range_meters":20000,"station_id":"ce4bgm92rcd13ifvqbr0","pricing_plan_id":"free"},{"bike_id":"76dc2ce1-a83f-41b6-8d28-bd79c0db6059","system_id":"levelo_inurba_marseille","lat":43.299222,"lon":5.365554,"is_reserved":false,"is_disabled":false,"rental_uris":{"android":"levelo://app?vid=76dc2ce1-a83f-41b6-8d28-bd79c0db6059","ios":"levelo://app?vid=76dc2ce1-a83f-41b6-8d28-bd79c0db6059"},"vehicle_type_id":"4","last_reported":1706915175,"current_range_meters":18800,"station_id":"ce4bgm92rcd13ifvqbr0","pricing_plan_id":"free"},{"bike_id":"bc33351a-f903-4dc0-8465-9a0f8cef89fd","system_id":"levelo_inurba_marseille","lat":43.29931,"lon":5.37466,"is_reserved":false,"is_disabled":false,"rental_uris":{"android":"levelo://app?vid=bc33351a-f903-4dc0-8465-9a0f8cef89fd","ios":"levelo://app?vid=bc33351a-f903-4dc0-8465-9a0f8cef89fd"},"vehicle_type_id":"4","last_reported":1706915175,"current_range_meters":0,"station_id":"ce4bgjh2rcd13ifvqbg0","pricing_plan_id":"free"},{"bike_id":"2cbd631c-70c9-4740-9cb2-f352d5ae695c","system_id":"levelo_inurba_marseille","lat":43.29919,"lon":5.37459,"is_reserved":false,"is_disabled":false,"rental_uris":{"android":"levelo://app?vid=2cbd631c-70c9-4740-9cb2-f352d5ae695c","ios":"levelo://app?vid=2cbd631c-70c9-4740-9cb2-f352d5ae695c"},"vehicle_type_id":"4","last_reported":1706915175,"current_range_meters":12000,"station_id":"ce4bgjh2rcd13ifvqbg0","pricing_plan_id":"free"},{"bike_id":"817fdec0-cdad-4773-97cc-a30c8b8749b0","system_id":"levelo_inurba_marseille","lat":43.311774,"lon":5.387106,"is_reserved":false,"is_disabled":false,"rental_uris":{"android":"levelo://app?vid=817fdec0-cdad-4773-97cc-a30c8b8749b0","ios":"levelo://app?vid=817fdec0-cdad-4773-97cc-a30c8b8749b0"},"vehicle_type_id":"4","last_reported":1706915175,"current_range_meters":18000,"station_id":"ce4bgv12rcd13ifvqcp0","pricing_plan_id":"free"},{"bike_id":"3d4f3d84-51f3-4229-83fe-3be49c001beb","system_id":"levelo_inurba_marseille","lat":43.31171,"lon":5.387104,"is_reserved":false,"is_disabled":false,"rental_uris":{"android":"levelo://app?vid=3d4f3d84-51f3-4229-83fe-3be49c001beb","ios":"levelo://app?vid=3d4f3d84-51f3-4229-83fe-3be49c001beb"},"vehicle_type_id":"4","last_reported":1706915175,"current_range_meters":0,"station_id":"ce4bgv12rcd13ifvqcp0","pricing_plan_id":"free"},{"bike_id":"8081cb9b-9817-4414-8802-7e71f4991282","system_id":"levelo_inurba_marseille","lat":43.31178,"lon":5.38716,"is_reserved":false,"is_disabled":false,"rental_uris":{"android":"levelo://app?vid=8081cb9b-9817-4414-8802-7e71f4991282","ios":"levelo://app?vid=8081cb9b-9817-4414-8802-7e71f4991282"},"vehicle_type_id":"4","last_reported":1706915175,"current_range_meters":0,"station_id":"ce4bgv12rcd13ifvqcp0","pricing_plan_id":"free"},{"bike_id":"137dcf2e-3884-442a-9b0c-44aa7407cdd4","system_id":"levelo_inurba_marseille","lat":43.299243,"lon":5.374807,"is_reserved":false,"is_disabled":false,"rental_uris":{"android":"levelo://app?vid=137dcf2e-3884-442a-9b0c-44aa7407cdd4","ios":"levelo://app?vid=137dcf2e-3884-442a-9b0c-44aa7407cdd4"},"vehicle_type_id":"4","last_reported":1706915175,"current_range_meters":1600,"station_id":"ce4bgjh2rcd13ifvqbg0","pricing_plan_id":"free"},{"bike_id":"fa932f8f-fcac-420c-8595-9eaed6f9528b","system_id":"levelo_inurba_marseille","lat":43.311722,"lon":5.387247,"is_reserved":false,"is_disabled":false,"rental_uris":{"android":"levelo://app?vid=fa932f8f-fcac-420c-8595-9eaed6f9528b","ios":"levelo://app?vid=fa932f8f-fcac-420c-8595-9eaed6f9528b"},"vehicle_type_id":"4","last_reported":1706915175,"current_range_meters":30800,"station_id":"ce4bgv12rcd13ifvqcp0","pricing_plan_id":"free"},{"bike_id":"e544a8cb-9126-4c85-a57a-b40c62ba6606","system_id":"levelo_inurba_marseille","lat":43.311722,"lon":5.387247,"is_reserved":false,"is_disabled":false,"rental_uris":{"android":"levelo://app?vid=e544a8cb-9126-4c85-a57a-b40c62ba6606","ios":"levelo://app?vid=e544a8cb-9126-4c85-a57a-b40c62ba6606"},"vehicle_type_id":"4","last_reported":1706915175,"current_range_meters":31200,"station_id":"ce4bgv12rcd13ifvqcp0","pricing_plan_id":"free"},{"bike_id":"a28fc4bb-c110-41f8-8e1d-8313bb7a61c6","system_id":"levelo_inurba_marseille","lat":43.311722,"lon":5.387247,"is_reserved":false,"is_disabled":false,"rental_uris":{"android":"levelo://app?vid=a28fc4bb-c110-41f8-8e1d-8313bb7a61c6","ios":"levelo://app?vid=a28fc4bb-c110-41f8-8e1d-8313bb7a61c6"},"vehicle_type_id":"4","last_reported":1706915175,"current_range_meters":9200,"station_id":"ce4bgv12rcd13ifvqcp0","pricing_plan_id":"free"},{"bike_id":"f3a6b36f-702f-4662-8ff7-d959fcbc6177","system_id":"levelo_inurba_marseille","lat":43.299243,"lon":5.374807,"is_reserved":false,"is_disabled":false,"rental_uris":{"android":"levelo://app?vid=f3a6b36f-702f-4662-8ff7-d959fcbc6177","ios":"levelo://app?vid=f3a6b36f-702f-4662-8ff7-d959fcbc6177"},"vehicle_type_id":"4","last_reported":1706915175,"current_range_meters":18000,"station_id":"ce4bgjh2rcd13ifvqbg0","pricing_plan_id":"free"},{"bike_id":"b5d7b2cb-266e-4133-b32f-f491e5a88e3f","system_id":"levelo_inurba_marseille","lat":43.322872,"lon":5.382756,"is_reserved":false,"is_disabled":false,"rental_uris":{"android":"levelo://app?vid=b5d7b2cb-266e-4133-b32f-f491e5a88e3f","ios":"levelo://app?vid=b5d7b2cb-266e-4133-b32f-f491e5a88e3f"},"vehicle_type_id":"4","last_reported":1706915175,"current_range_meters":24800,"station_id":"ce4bhr12rcd13ifvqhqg","pricing_plan_id":"free"},{"bike_id":"c1c821b1-46e9-4095-ab28-696a5cc48552","system_id":"levelo_inurba_marseille","lat":43.322872,"lon":5.382756,"is_reserved":false,"is_disabled":false,"rental_uris":{"android":"levelo://app?vid=c1c821b1-46e9-4095-ab28-696a5cc48552","ios":"levelo://app?vid=c1c821b1-46e9-4095-ab28-696a5cc48552"},"vehicle_type_id":"4","last_reported":1706915175,"current_range_meters":12400,"station_id":"ce4bhr12rcd13ifvqhqg","pricing_plan_id":"free"},{"bike_id":"a949a12d-7dee-406d-b3c0-51cbee7cf722","system_id":"levelo_inurba_marseille","lat":43.322872,"lon":5.382756,"is_reserved":false,"is_disabled":false,"rental_uris":{"android":"levelo://app?vid=a949a12d-7dee-406d-b3c0-51cbee7cf722","ios":"levelo://app?vid=a949a12d-7dee-406d-b3c0-51cbee7cf722"},"vehicle_type_id":"4","last_reported":1706915175,"current_range_meters":27200,"station_id":"ce4bhr12rcd13ifvqhqg","pricing_plan_id":"free"},{"bike_id":"02e37b27-5863-4c78-9d44-465544029690","system_id":"levelo_inurba_marseille","lat":43.322872,"lon":5.382756,"is_reserved":false,"is_disabled":false,"rental_uris":{"android":"levelo://app?vid=02e37b27-5863-4c78-9d44-465544029690","ios":"levelo://app?vid=02e37b27-5863-4c78-9d44-465544029690"},"vehicle_type_id":"4","last_reported":1706915175,"current_range_meters":26000,"station_id":"ce4bhr12rcd13ifvqhqg","pricing_plan_id":"free"},{"bike_id":"65cdfc14-d57a-452e-8dc5-c02b0bdb56dd","system_id":"levelo_inurba_marseille","lat":43.322872,"lon":5.382756,"is_reserved":false,"is_disabled":false,"rental_uris":{"android":"levelo://app?vid=65cdfc14-d57a-452e-8dc5-c02b0bdb56dd","ios":"levelo://app?vid=65cdfc14-d57a-452e-8dc5-c02b0bdb56dd"},"vehicle_type_id":"4","last_reported":1706915175,"current_range_meters":30800,"station_id":"ce4bhr12rcd13ifvqhqg","pricing_plan_id":"free"},{"bike_id":"1900e2ea-9239-49b1-933e-57903fa99707","system_id":"levelo_inurba_marseille","lat":43.32826,"lon":5.36695,"is_reserved":false,"is_disabled":false,"rental_uris":{"android":"levelo://app?vid=1900e2ea-9239-49b1-933e-57903fa99707","ios":"levelo://app?vid=1900e2ea-9239-49b1-933e-57903fa99707"},"vehicle_type_id":"4","last_reported":1706915175,"current_range_meters":17200,"station_id":"ce4bhs92rcd13ifvqi0g","pricing_plan_id":"free"},{"bike_id":"ab22a9f9-4426-4a48-9339-d0847e65fb60","system_id":"levelo_inurba_marseille","lat":43.328371,"lon":5.366909,"is_reserved":false,"is_disabled":false,"rental_uris":{"android":"levelo://app?vid=ab22a9f9-4426-4a48-9339-d0847e65fb60","ios":"levelo://app?vid=ab22a9f9-4426-4a48-9339-d0847e65fb60"},"vehicle_type_id":"4","last_reported":1706915175,"current_range_meters":7600,"station_id":"ce4bhs92rcd13ifvqi0g","pricing_plan_id":"free"},{"bike_id":"c57ea357-b562-4b13-a699-d79b0f991fa3","system_id":"levelo_inurba_marseille","lat":43.295169,"lon":5.390426,"is_reserved":false,"is_disabled":false,"rental_uris":{"android":"levelo://app?vid=c57ea357-b562-4b13-a699-d79b0f991fa3","ios":"levelo://app?vid=c57ea357-b562-4b13-a699-d79b0f991fa3"},"vehicle_type_id":"4","last_reported":1706915175,"current_range_meters":2000,"station_id":"ce4bh3p2rcd13ifvqdp0","pricing_plan_id":"free"},{"bike_id":"1f166725-8d68-4732-bbab-a3b4346e6507","system_id":"levelo_inurba_marseille","lat":43.299028,"lon":5.381509,"is_reserved":false,"is_disabled":false,"rental_uris":{"android":"levelo://app?vid=1f166725-8d68-4732-bbab-a3b4346e6507","ios":"levelo://app?vid=1f166725-8d68-4732-bbab-a3b4346e6507"},"vehicle_type_id":"4","last_reported":1706915175,"current_range_meters":4800,"station_id":"ce4bgj12rcd13ifvqbc0","pricing_plan_id":"free"},{"bike_id":"a4fe5056-6774-499a-be3a-0a59e021e33e","system_id":"levelo_inurba_marseille","lat":43.30957,"lon":5.39025,"is_reserved":false,"is_disabled":false,"rental_uris":{"android":"levelo://app?vid=a4fe5056-6774-499a-be3a-0a59e021e33e","ios":"levelo://app?vid=a4fe5056-6774-499a-be3a-0a59e021e33e"},"vehicle_type_id":"4","last_reported":1706915175,"current_range_meters":0,"station_id":"ce4bgup2rcd13ifvqco0","pricing_plan_id":"free"},{"bike_id":"abb7a5a2-61bb-4b2b-9559-c7c8d34a9efc","system_id":"levelo_inurba_marseille","lat":43.309589,"lon":5.390258,"is_reserved":false,"is_disabled":false,"rental_uris":{"android":"levelo://app?vid=abb7a5a2-61bb-4b2b-9559-c7c8d34a9efc","ios":"levelo://app?vid=abb7a5a2-61bb-4b2b-9559-c7c8d34a9efc"},"vehicle_type_id":"4","last_reported":1706915175,"current_range_meters":0,"station_id":"ce4bgup2rcd13ifvqco0","pricing_plan_id":"free"},{"bike_id":"642d6723-e5b8-4670-b8fe-3ba898c7a5d3","system_id":"levelo_inurba_marseille","lat":43.309589,"lon":5.390258,"is_reserved":false,"is_disabled":false,"rental_uris":{"android":"levelo://app?vid=642d6723-e5b8-4670-b8fe-3ba898c7a5d3","ios":"levelo://app?vid=642d6723-e5b8-4670-b8fe-3ba898c7a5d3"},"vehicle_type_id":"4","last_reported":1706915175,"current_range_meters":0,"station_id":"ce4bgup2rcd13ifvqco0","pricing_plan_id":"free"},{"bike_id":"6717cb07-a2bf-46d1-ba83-09e9386dc5e6","system_id":"levelo_inurba_marseille","lat":43.317557,"lon":5.390173,"is_reserved":false,"is_disabled":false,"rental_uris":{"android":"levelo://app?vid=6717cb07-a2bf-46d1-ba83-09e9386dc5e6","ios":"levelo://app?vid=6717cb07-a2bf-46d1-ba83-09e9386dc5e6"},"vehicle_type_id":"4","last_reported":1706915175,"current_range_meters":23200,"station_id":"ce4bhqp2rcd13ifvqhng","pricing_plan_id":"free"},{"bike_id":"a58d93ca-bdc9-4969-ad76-287ea92adedb","system_id":"levelo_inurba_marseille","lat":43.317557,"lon":5.390173,"is_reserved":false,"is_disabled":false,"rental_uris":{"android":"levelo://app?vid=a58d93ca-bdc9-4969-ad76-287ea92adedb","ios":"levelo://app?vid=a58d93ca-bdc9-4969-ad76-287ea92adedb"},"vehicle_type_id":"4","last_reported":1706915175,"current_range_meters":31200,"station_id":"ce4bhqp2rcd13ifvqhng","pricing_plan_id":"free"},{"bike_id":"cdd0a5e1-97e9-4609-aa8c-b9db9e70b7f9","system_id":"levelo_inurba_marseille","lat":43.317557,"lon":5.390173,"is_reserved":false,"is_disabled":false,"rental_uris":{"android":"levelo://app?vid=cdd0a5e1-97e9-4609-aa8c-b9db9e70b7f9","ios":"levelo://app?vid=cdd0a5e1-97e9-4609-aa8c-b9db9e70b7f9"},"vehicle_type_id":"4","last_reported":1706915175,"current_range_meters":17200,"station_id":"ce4bhqp2rcd13ifvqhng","pricing_plan_id":"free"},{"bike_id":"106fe314-0813-4817-8722-724f217949ab","system_id":"levelo_inurba_marseille","lat":43.317557,"lon":5.390173,"is_reserved":false,"is_disabled":false,"rental_uris":{"android":"levelo://app?vid=106fe314-0813-4817-8722-724f217949ab","ios":"levelo://app?vid=106fe314-0813-4817-8722-724f217949ab"},"vehicle_type_id":"4","last_reported":1706915175,"current_range_meters":26400,"station_id":"ce4bhqp2rcd13ifvqhng","pricing_plan_id":"free"},{"bike_id":"aaee9df6-2bd3-419f-9a0a-fb04ee96325a","system_id":"levelo_inurba_marseille","lat":43.317557,"lon":5.390173,"is_reserved":false,"is_disabled":false,"rental_uris":{"android":"levelo://app?vid=aaee9df6-2bd3-419f-9a0a-fb04ee96325a","ios":"levelo://app?vid=aaee9df6-2bd3-419f-9a0a-fb04ee96325a"},"vehicle_type_id":"4","last_reported":1706915175,"current_range_meters":31200,"station_id":"ce4bhqp2rcd13ifvqhng","pricing_plan_id":"free"},{"bike_id":"86eba5ee-3f3e-465e-879d-a26eca611b6f","system_id":"levelo_inurba_marseille","lat":43.319141,"lon":5.389913,"is_reserved":false,"is_disabled":false,"rental_uris":{"android":"levelo://app?vid=86eba5ee-3f3e-465e-879d-a26eca611b6f","ios":"levelo://app?vid=86eba5ee-3f3e-465e-879d-a26eca611b6f"},"vehicle_type_id":"4","last_reported":1706915175,"current_range_meters":24000,"station_id":"","pricing_plan_id":"free"},{"bike_id":"cdf5ccd3-6d1a-4fc7-ad3d-a67faeace5b1","system_id":"levelo_inurba_marseille","lat":43.29581,"lon":5.37509,"is_reserved":false,"is_disabled":false,"rental_uris":{"android":"levelo://app?vid=cdf5ccd3-6d1a-4fc7-ad3d-a67faeace5b1","ios":"levelo://app?vid=cdf5ccd3-6d1a-4fc7-ad3d-a67faeace5b1"},"vehicle_type_id":"4","last_reported":1706915175,"current_range_meters":2800,"station_id":"ce4bgh92rcd13ifvqb50","pricing_plan_id":"free"},{"bike_id":"a23a6088-54d4-4f7b-ad68-4fe274ed2568","system_id":"levelo_inurba_marseille","lat":43.304278,"lon":5.388868,"is_reserved":false,"is_disabled":false,"rental_uris":{"android":"levelo://app?vid=a23a6088-54d4-4f7b-ad68-4fe274ed2568","ios":"levelo://app?vid=a23a6088-54d4-4f7b-ad68-4fe274ed2568"},"vehicle_type_id":"4","last_reported":1706915175,"current_range_meters":1200,"station_id":"ce4bgk12rcd13ifvqbi0","pricing_plan_id":"free"},{"bike_id":"4ee3489f-e2cb-4856-a378-8a85452c8a06","system_id":"levelo_inurba_marseille","lat":43.299707,"lon":5.384859,"is_reserved":false,"is_disabled":false,"rental_uris":{"android":"levelo://app?vid=4ee3489f-e2cb-4856-a378-8a85452c8a06","ios":"levelo://app?vid=4ee3489f-e2cb-4856-a378-8a85452c8a06"},"vehicle_type_id":"4","last_reported":1706915175,"current_range_meters":0,"station_id":"ce4bgj92rcd13ifvqbd0","pricing_plan_id":"free"},{"bike_id":"bd7baa57-26d7-4c18-b549-ec7ad71dded2","system_id":"levelo_inurba_marseille","lat":43.31103,"lon":5.39326,"is_reserved":false,"is_disabled":false,"rental_uris":{"android":"levelo://app?vid=bd7baa57-26d7-4c18-b549-ec7ad71dded2","ios":"levelo://app?vid=bd7baa57-26d7-4c18-b549-ec7ad71dded2"},"vehicle_type_id":"4","last_reported":1706915175,"current_range_meters":2400,"station_id":"","pricing_plan_id":"free"},{"bike_id":"2f639903-b097-46b0-8494-0017af56b0e6","system_id":"levelo_inurba_marseille","lat":43.323656,"lon":5.38875,"is_reserved":false,"is_disabled":false,"rental_uris":{"android":"levelo://app?vid=2f639903-b097-46b0-8494-0017af56b0e6","ios":"levelo://app?vid=2f639903-b097-46b0-8494-0017af56b0e6"},"vehicle_type_id":"4","last_reported":1706915175,"current_range_meters":20400,"station_id":"ce4bhqp2rcd13ifvqhog","pricing_plan_id":"free"},{"bike_id":"11d92546-2528-492a-a49e-9a0a5d945886","system_id":"levelo_inurba_marseille","lat":43.32365,"lon":5.38878,"is_reserved":false,"is_disabled":false,"rental_uris":{"android":"levelo://app?vid=11d92546-2528-492a-a49e-9a0a5d945886","ios":"levelo://app?vid=11d92546-2528-492a-a49e-9a0a5d945886"},"vehicle_type_id":"4","last_reported":1706915175,"current_range_meters":8000,"station_id":"ce4bhqp2rcd13ifvqhog","pricing_plan_id":"free"},{"bike_id":"13b9c551-9d4a-4e3d-8b94-3ec930896106","system_id":"levelo_inurba_marseille","lat":43.323624,"lon":5.388814,"is_reserved":false,"is_disabled":false,"rental_uris":{"android":"levelo://app?vid=13b9c551-9d4a-4e3d-8b94-3ec930896106","ios":"levelo://app?vid=13b9c551-9d4a-4e3d-8b94-3ec930896106"},"vehicle_type_id":"4","last_reported":1706915175,"current_range_meters":2000,"station_id":"ce4bhqp2rcd13ifvqhog","pricing_plan_id":"free"},{"bike_id":"81b0db2a-d7d3-47f0-a95d-ba7da6ca0e0e","system_id":"levelo_inurba_marseille","lat":43.32365,"lon":5.38882,"is_reserved":false,"is_disabled":false,"rental_uris":{"android":"levelo://app?vid=81b0db2a-d7d3-47f0-a95d-ba7da6ca0e0e","ios":"levelo://app?vid=81b0db2a-d7d3-47f0-a95d-ba7da6ca0e0e"},"vehicle_type_id":"4","last_reported":1706915175,"current_range_meters":0,"station_id":"ce4bhqp2rcd13ifvqhog","pricing_plan_id":"free"},{"bike_id":"2867005b-b9b0-4312-8b91-edb88d7a8842","system_id":"levelo_inurba_marseille","lat":43.32362,"lon":5.38886,"is_reserved":false,"is_disabled":false,"rental_uris":{"android":"levelo://app?vid=2867005b-b9b0-4312-8b91-edb88d7a8842","ios":"levelo://app?vid=2867005b-b9b0-4312-8b91-edb88d7a8842"},"vehicle_type_id":"4","last_reported":1706915175,"current_range_meters":0,"station_id":"ce4bhqp2rcd13ifvqhog","pricing_plan_id":"free"},{"bike_id":"522745f2-6505-4a93-9a55-5c66eaece61d","system_id":"levelo_inurba_marseille","lat":43.32366,"lon":5.38884,"is_reserved":false,"is_disabled":false,"rental_uris":{"android":"levelo://app?vid=522745f2-6505-4a93-9a55-5c66eaece61d","ios":"levelo://app?vid=522745f2-6505-4a93-9a55-5c66eaece61d"},"vehicle_type_id":"4","last_reported":1706915175,"current_range_meters":5200,"station_id":"ce4bhqp2rcd13ifvqhog","pricing_plan_id":"free"},{"bike_id":"e3ee28ba-cab5-40e7-ba5c-728151521cef","system_id":"levelo_inurba_marseille","lat":43.32366,"lon":5.38884,"is_reserved":false,"is_disabled":false,"rental_uris":{"android":"levelo://app?vid=e3ee28ba-cab5-40e7-ba5c-728151521cef","ios":"levelo://app?vid=e3ee28ba-cab5-40e7-ba5c-728151521cef"},"vehicle_type_id":"4","last_reported":1706915175,"current_range_meters":9600,"station_id":"ce4bhqp2rcd13ifvqhog","pricing_plan_id":"free"},{"bike_id":"1aca591f-66c1-4cab-8b35-fdb227e8bbbc","system_id":"levelo_inurba_marseille","lat":43.32367,"lon":5.388836,"is_reserved":false,"is_disabled":false,"rental_uris":{"android":"levelo://app?vid=1aca591f-66c1-4cab-8b35-fdb227e8bbbc","ios":"levelo://app?vid=1aca591f-66c1-4cab-8b35-fdb227e8bbbc"},"vehicle_type_id":"4","last_reported":1706915175,"current_range_meters":400,"station_id":"ce4bhqp2rcd13ifvqhog","pricing_plan_id":"free"},{"bike_id":"80aebc65-9276-4106-9147-2143e4c2833e","system_id":"levelo_inurba_marseille","lat":43.32363,"lon":5.38888,"is_reserved":false,"is_disabled":false,"rental_uris":{"android":"levelo://app?vid=80aebc65-9276-4106-9147-2143e4c2833e","ios":"levelo://app?vid=80aebc65-9276-4106-9147-2143e4c2833e"},"vehicle_type_id":"4","last_reported":1706915175,"current_range_meters":10000,"station_id":"ce4bhqp2rcd13ifvqhog","pricing_plan_id":"free"},{"bike_id":"81a48434-30d3-4355-a668-7d3953e7fa82","system_id":"levelo_inurba_marseille","lat":43.32367,"lon":5.388836,"is_reserved":false,"is_disabled":false,"rental_uris":{"android":"levelo://app?vid=81a48434-30d3-4355-a668-7d3953e7fa82","ios":"levelo://app?vid=81a48434-30d3-4355-a668-7d3953e7fa82"},"vehicle_type_id":"4","last_reported":1706915175,"current_range_meters":0,"station_id":"ce4bhqp2rcd13ifvqhog","pricing_plan_id":"free"},{"bike_id":"e512050a-6529-4225-a927-b67d6c06029f","system_id":"levelo_inurba_marseille","lat":43.32369,"lon":5.388835,"is_reserved":false,"is_disabled":false,"rental_uris":{"android":"levelo://app?vid=e512050a-6529-4225-a927-b67d6c06029f","ios":"levelo://app?vid=e512050a-6529-4225-a927-b67d6c06029f"},"vehicle_type_id":"4","last_reported":1706915175,"current_range_meters":0,"station_id":"ce4bhqp2rcd13ifvqhog","pricing_plan_id":"free"},{"bike_id":"a763ba73-be1b-47fe-b1b9-a14bd81f3a01","system_id":"levelo_inurba_marseille","lat":43.32367,"lon":5.388836,"is_reserved":false,"is_disabled":false,"rental_uris":{"android":"levelo://app?vid=a763ba73-be1b-47fe-b1b9-a14bd81f3a01","ios":"levelo://app?vid=a763ba73-be1b-47fe-b1b9-a14bd81f3a01"},"vehicle_type_id":"4","last_reported":1706915175,"current_range_meters":22400,"station_id":"ce4bhqp2rcd13ifvqhog","pricing_plan_id":"free"},{"bike_id":"cabe25cb-ec0b-4dc3-8feb-44741e6dd484","system_id":"levelo_inurba_marseille","lat":43.323681,"lon":5.388877,"is_reserved":false,"is_disabled":false,"rental_uris":{"android":"levelo://app?vid=cabe25cb-ec0b-4dc3-8feb-44741e6dd484","ios":"levelo://app?vid=cabe25cb-ec0b-4dc3-8feb-44741e6dd484"},"vehicle_type_id":"4","last_reported":1706915175,"current_range_meters":6000,"station_id":"ce4bhqp2rcd13ifvqhog","pricing_plan_id":"free"},{"bike_id":"44412611-1df1-41d1-a1a2-71e4de692709","system_id":"levelo_inurba_marseille","lat":43.32372,"lon":5.38889,"is_reserved":false,"is_disabled":false,"rental_uris":{"android":"levelo://app?vid=44412611-1df1-41d1-a1a2-71e4de692709","ios":"levelo://app?vid=44412611-1df1-41d1-a1a2-71e4de692709"},"vehicle_type_id":"4","last_reported":1706915175,"current_range_meters":23200,"station_id":"ce4bhqp2rcd13ifvqhog","pricing_plan_id":"free"},{"bike_id":"009d54aa-fb25-42ff-ade7-d9558858bd76","system_id":"levelo_inurba_marseille","lat":43.29602,"lon":5.381084,"is_reserved":false,"is_disabled":false,"rental_uris":{"android":"levelo://app?vid=009d54aa-fb25-42ff-ade7-d9558858bd76","ios":"levelo://app?vid=009d54aa-fb25-42ff-ade7-d9558858bd76"},"vehicle_type_id":"4","last_reported":1706915175,"current_range_meters":30000,"station_id":"ce4bgl12rcd13ifvqbo0","pricing_plan_id":"free"},{"bike_id":"a88d7e98-ded5-4cda-9476-c135ae1668e8","system_id":"levelo_inurba_marseille","lat":43.29602,"lon":5.381084,"is_reserved":false,"is_disabled":false,"rental_uris":{"android":"levelo://app?vid=a88d7e98-ded5-4cda-9476-c135ae1668e8","ios":"levelo://app?vid=a88d7e98-ded5-4cda-9476-c135ae1668e8"},"vehicle_type_id":"4","last_reported":1706915175,"current_range_meters":9200,"station_id":"ce4bgl12rcd13ifvqbo0","pricing_plan_id":"free"},{"bike_id":"ae22f137-c83e-4343-a16a-a5f3f01f2552","system_id":"levelo_inurba_marseille","lat":43.293259,"lon":5.371586,"is_reserved":false,"is_disabled":false,"rental_uris":{"android":"levelo://app?vid=ae22f137-c83e-4343-a16a-a5f3f01f2552","ios":"levelo://app?vid=ae22f137-c83e-4343-a16a-a5f3f01f2552"},"vehicle_type_id":"4","last_reported":1706915175,"current_range_meters":4800,"station_id":"ce4bgh92rcd13ifvqb40","pricing_plan_id":"free"},{"bike_id":"ed831dd3-a562-45fc-83ed-732ab50d8fca","system_id":"levelo_inurba_marseille","lat":43.293259,"lon":5.371586,"is_reserved":false,"is_disabled":false,"rental_uris":{"android":"levelo://app?vid=ed831dd3-a562-45fc-83ed-732ab50d8fca","ios":"levelo://app?vid=ed831dd3-a562-45fc-83ed-732ab50d8fca"},"vehicle_type_id":"4","last_reported":1706915175,"current_range_meters":400,"station_id":"ce4bgh92rcd13ifvqb40","pricing_plan_id":"free"},{"bike_id":"e4cca626-7905-47c7-bbaa-8460d2e32bf8","system_id":"levelo_inurba_marseille","lat":43.293071,"lon":5.371833,"is_reserved":false,"is_disabled":false,"rental_uris":{"android":"levelo://app?vid=e4cca626-7905-47c7-bbaa-8460d2e32bf8","ios":"levelo://app?vid=e4cca626-7905-47c7-bbaa-8460d2e32bf8"},"vehicle_type_id":"4","last_reported":1706915175,"current_range_meters":0,"station_id":"ce4bgh92rcd13ifvqb40","pricing_plan_id":"free"},{"bike_id":"f8c29005-e4af-4580-ae46-cfc0c90628c0","system_id":"levelo_inurba_marseille","lat":43.29272,"lon":5.36839,"is_reserved":false,"is_disabled":false,"rental_uris":{"android":"levelo://app?vid=f8c29005-e4af-4580-ae46-cfc0c90628c0","ios":"levelo://app?vid=f8c29005-e4af-4580-ae46-cfc0c90628c0"},"vehicle_type_id":"4","last_reported":1706915175,"current_range_meters":10000,"station_id":"ce4bhbp2rcd13ifvqesg","pricing_plan_id":"free"},{"bike_id":"9ffa8d96-0e7f-4588-b025-6311387f91b4","system_id":"levelo_inurba_marseille","lat":43.29271,"lon":5.368376,"is_reserved":false,"is_disabled":false,"rental_uris":{"android":"levelo://app?vid=9ffa8d96-0e7f-4588-b025-6311387f91b4","ios":"levelo://app?vid=9ffa8d96-0e7f-4588-b025-6311387f91b4"},"vehicle_type_id":"4","last_reported":1706915175,"current_range_meters":0,"station_id":"ce4bhbp2rcd13ifvqesg","pricing_plan_id":"free"},{"bike_id":"7e6db439-387c-4e86-aab4-02e8c05b2712","system_id":"levelo_inurba_marseille","lat":43.29301,"lon":5.37446,"is_reserved":false,"is_disabled":false,"rental_uris":{"android":"levelo://app?vid=7e6db439-387c-4e86-aab4-02e8c05b2712","ios":"levelo://app?vid=7e6db439-387c-4e86-aab4-02e8c05b2712"},"vehicle_type_id":"4","last_reported":1706915175,"current_range_meters":0,"station_id":"ce4bgi12rcd13ifvqb70","pricing_plan_id":"free"},{"bike_id":"22a2795b-e608-46c6-b86c-243a38ebcb03","system_id":"levelo_inurba_marseille","lat":43.2929,"lon":5.37449,"is_reserved":false,"is_disabled":false,"rental_uris":{"android":"levelo://app?vid=22a2795b-e608-46c6-b86c-243a38ebcb03","ios":"levelo://app?vid=22a2795b-e608-46c6-b86c-243a38ebcb03"},"vehicle_type_id":"4","last_reported":1706915175,"current_range_meters":0,"station_id":"","pricing_plan_id":"free"},{"bike_id":"4b3ead66-9d33-4d06-a1c8-9da3a298b9ce","system_id":"levelo_inurba_marseille","lat":43.303002,"lon":5.392142,"is_reserved":false,"is_disabled":false,"rental_uris":{"android":"levelo://app?vid=4b3ead66-9d33-4d06-a1c8-9da3a298b9ce","ios":"levelo://app?vid=4b3ead66-9d33-4d06-a1c8-9da3a298b9ce"},"vehicle_type_id":"4","last_reported":1706915175,"current_range_meters":23200,"station_id":"ce4bgkh2rcd13ifvqbk0","pricing_plan_id":"free"},{"bike_id":"bcab7625-d36c-4095-83f1-59795927cc64","system_id":"levelo_inurba_marseille","lat":43.29287,"lon":5.3746,"is_reserved":false,"is_disabled":false,"rental_uris":{"android":"levelo://app?vid=bcab7625-d36c-4095-83f1-59795927cc64","ios":"levelo://app?vid=bcab7625-d36c-4095-83f1-59795927cc64"},"vehicle_type_id":"4","last_reported":1706915175,"current_range_meters":0,"station_id":"ce4bgi12rcd13ifvqb70","pricing_plan_id":"free"},{"bike_id":"e768bcbf-1caf-49fb-ac36-8a9491c046d2","system_id":"levelo_inurba_marseille","lat":43.303002,"lon":5.392142,"is_reserved":false,"is_disabled":false,"rental_uris":{"android":"levelo://app?vid=e768bcbf-1caf-49fb-ac36-8a9491c046d2","ios":"levelo://app?vid=e768bcbf-1caf-49fb-ac36-8a9491c046d2"},"vehicle_type_id":"4","last_reported":1706915175,"current_range_meters":18800,"station_id":"ce4bgkh2rcd13ifvqbk0","pricing_plan_id":"free"},{"bike_id":"1c7ecc51-97eb-43b1-80b7-980ed9a508dc","system_id":"levelo_inurba_marseille","lat":43.302992,"lon":5.392136,"is_reserved":false,"is_disabled":false,"rental_uris":{"android":"levelo://app?vid=1c7ecc51-97eb-43b1-80b7-980ed9a508dc","ios":"levelo://app?vid=1c7ecc51-97eb-43b1-80b7-980ed9a508dc"},"vehicle_type_id":"4","last_reported":1706915175,"current_range_meters":9200,"station_id":"ce4bgkh2rcd13ifvqbk0","pricing_plan_id":"free"},{"bike_id":"b8d741ad-4f4a-4125-aa9b-6edd295f11a1","system_id":"levelo_inurba_marseille","lat":43.29224,"lon":5.36052,"is_reserved":false,"is_disabled":false,"rental_uris":{"android":"levelo://app?vid=b8d741ad-4f4a-4125-aa9b-6edd295f11a1","ios":"levelo://app?vid=b8d741ad-4f4a-4125-aa9b-6edd295f11a1"},"vehicle_type_id":"4","last_reported":1706915175,"current_range_meters":0,"station_id":"ce4bhbh2rcd13ifvqeqg","pricing_plan_id":"free"},{"bike_id":"a554000c-f8c3-42d1-938a-5cc1a886fb28","system_id":"levelo_inurba_marseille","lat":43.29189,"lon":5.37143,"is_reserved":false,"is_disabled":false,"rental_uris":{"android":"levelo://app?vid=a554000c-f8c3-42d1-938a-5cc1a886fb28","ios":"levelo://app?vid=a554000c-f8c3-42d1-938a-5cc1a886fb28"},"vehicle_type_id":"4","last_reported":1706915175,"current_range_meters":0,"station_id":"ce4bha92rcd13ifvqeh0","pricing_plan_id":"free"},{"bike_id":"a32dba60-2664-412e-910f-c6369224a090","system_id":"levelo_inurba_marseille","lat":43.291671,"lon":5.371575,"is_reserved":false,"is_disabled":false,"rental_uris":{"android":"levelo://app?vid=a32dba60-2664-412e-910f-c6369224a090","ios":"levelo://app?vid=a32dba60-2664-412e-910f-c6369224a090"},"vehicle_type_id":"4","last_reported":1706915175,"current_range_meters":18800,"station_id":"ce4bha92rcd13ifvqeh0","pricing_plan_id":"free"},{"bike_id":"92172746-2a03-489e-bfe6-cc275513d490","system_id":"levelo_inurba_marseille","lat":43.298764,"lon":5.388973,"is_reserved":false,"is_disabled":false,"rental_uris":{"android":"levelo://app?vid=92172746-2a03-489e-bfe6-cc275513d490","ios":"levelo://app?vid=92172746-2a03-489e-bfe6-cc275513d490"},"vehicle_type_id":"4","last_reported":1706915175,"current_range_meters":6400,"station_id":"ce4bh392rcd13ifvqdl0","pricing_plan_id":"free"},{"bike_id":"7ef67463-6302-4e52-8abd-98184a442b92","system_id":"levelo_inurba_marseille","lat":43.30891,"lon":5.39624,"is_reserved":false,"is_disabled":false,"rental_uris":{"android":"levelo://app?vid=7ef67463-6302-4e52-8abd-98184a442b92","ios":"levelo://app?vid=7ef67463-6302-4e52-8abd-98184a442b92"},"vehicle_type_id":"4","last_reported":1706915175,"current_range_meters":4800,"station_id":"ce4bh012rcd13ifvqcv0","pricing_plan_id":"free"},{"bike_id":"0f6c4419-7854-4df8-b95a-411ef15b5051","system_id":"levelo_inurba_marseille","lat":43.309038,"lon":5.396546,"is_reserved":false,"is_disabled":false,"rental_uris":{"android":"levelo://app?vid=0f6c4419-7854-4df8-b95a-411ef15b5051","ios":"levelo://app?vid=0f6c4419-7854-4df8-b95a-411ef15b5051"},"vehicle_type_id":"4","last_reported":1706915175,"current_range_meters":0,"station_id":"ce4bh012rcd13ifvqcv0","pricing_plan_id":"free"},{"bike_id":"c621328d-fe6f-496a-ba67-af6e2ccae257","system_id":"levelo_inurba_marseille","lat":43.308868,"lon":5.396342,"is_reserved":false,"is_disabled":false,"rental_uris":{"android":"levelo://app?vid=c621328d-fe6f-496a-ba67-af6e2ccae257","ios":"levelo://app?vid=c621328d-fe6f-496a-ba67-af6e2ccae257"},"vehicle_type_id":"4","last_reported":1706915175,"current_range_meters":16000,"station_id":"ce4bh012rcd13ifvqcv0","pricing_plan_id":"free"},{"bike_id":"a4547af4-8ec7-47ea-a3d3-5a57d51a742f","system_id":"levelo_inurba_marseille","lat":43.309038,"lon":5.396546,"is_reserved":false,"is_disabled":false,"rental_uris":{"android":"levelo://app?vid=a4547af4-8ec7-47ea-a3d3-5a57d51a742f","ios":"levelo://app?vid=a4547af4-8ec7-47ea-a3d3-5a57d51a742f"},"vehicle_type_id":"4","last_reported":1706915175,"current_range_meters":22800,"station_id":"ce4bh012rcd13ifvqcv0","pricing_plan_id":"free"},{"bike_id":"cf225569-58ad-4df6-970e-ada45ec3143e","system_id":"levelo_inurba_marseille","lat":43.30887,"lon":5.39637,"is_reserved":false,"is_disabled":false,"rental_uris":{"android":"levelo://app?vid=cf225569-58ad-4df6-970e-ada45ec3143e","ios":"levelo://app?vid=cf225569-58ad-4df6-970e-ada45ec3143e"},"vehicle_type_id":"4","last_reported":1706915175,"current_range_meters":25200,"station_id":"ce4bh012rcd13ifvqcv0","pricing_plan_id":"free"},{"bike_id":"4a2ef070-db7f-4c4b-bc9c-0dbaf1163ad8","system_id":"levelo_inurba_marseille","lat":43.309038,"lon":5.396546,"is_reserved":false,"is_disabled":false,"rental_uris":{"android":"levelo://app?vid=4a2ef070-db7f-4c4b-bc9c-0dbaf1163ad8","ios":"levelo://app?vid=4a2ef070-db7f-4c4b-bc9c-0dbaf1163ad8"},"vehicle_type_id":"4","last_reported":1706915175,"current_range_meters":11600,"station_id":"ce4bh012rcd13ifvqcv0","pricing_plan_id":"free"},{"bike_id":"d2d2d962-d13f-47c6-bca5-e63cb852a68f","system_id":"levelo_inurba_marseille","lat":43.30887,"lon":5.39638,"is_reserved":false,"is_disabled":false,"rental_uris":{"android":"levelo://app?vid=d2d2d962-d13f-47c6-bca5-e63cb852a68f","ios":"levelo://app?vid=d2d2d962-d13f-47c6-bca5-e63cb852a68f"},"vehicle_type_id":"4","last_reported":1706915175,"current_range_meters":13600,"station_id":"ce4bh012rcd13ifvqcv0","pricing_plan_id":"free"},{"bike_id":"ef246586-2568-4424-80eb-794800e614d7","system_id":"levelo_inurba_marseille","lat":43.291994,"lon":5.357886,"is_reserved":false,"is_disabled":false,"rental_uris":{"android":"levelo://app?vid=ef246586-2568-4424-80eb-794800e614d7","ios":"levelo://app?vid=ef246586-2568-4424-80eb-794800e614d7"},"vehicle_type_id":"4","last_reported":1706915175,"current_range_meters":0,"station_id":"ce4bhb12rcd13ifvqel0","pricing_plan_id":"free"},{"bike_id":"3988e5bf-8ff9-428c-9c02-1ae20e73638b","system_id":"levelo_inurba_marseille","lat":43.313291,"lon":5.396838,"is_reserved":false,"is_disabled":false,"rental_uris":{"android":"levelo://app?vid=3988e5bf-8ff9-428c-9c02-1ae20e73638b","ios":"levelo://app?vid=3988e5bf-8ff9-428c-9c02-1ae20e73638b"},"vehicle_type_id":"4","last_reported":1706915175,"current_range_meters":7600,"station_id":"ce4bgvp2rcd13ifvqcu0","pricing_plan_id":"free"},{"bike_id":"2a2e6507-acec-4233-b32d-38cfc6a35f67","system_id":"levelo_inurba_marseille","lat":43.313291,"lon":5.396838,"is_reserved":false,"is_disabled":false,"rental_uris":{"android":"levelo://app?vid=2a2e6507-acec-4233-b32d-38cfc6a35f67","ios":"levelo://app?vid=2a2e6507-acec-4233-b32d-38cfc6a35f67"},"vehicle_type_id":"4","last_reported":1706915175,"current_range_meters":8000,"station_id":"ce4bgvp2rcd13ifvqcu0","pricing_plan_id":"free"},{"bike_id":"8f6d25c4-5720-49e2-901c-58b7ad6d9c8f","system_id":"levelo_inurba_marseille","lat":43.309038,"lon":5.396546,"is_reserved":false,"is_disabled":false,"rental_uris":{"android":"levelo://app?vid=8f6d25c4-5720-49e2-901c-58b7ad6d9c8f","ios":"levelo://app?vid=8f6d25c4-5720-49e2-901c-58b7ad6d9c8f"},"vehicle_type_id":"4","last_reported":1706915175,"current_range_meters":20800,"station_id":"ce4bh012rcd13ifvqcv0","pricing_plan_id":"free"},{"bike_id":"94549a1c-392b-4389-9513-b7fd6987b023","system_id":"levelo_inurba_marseille","lat":43.313291,"lon":5.396838,"is_reserved":false,"is_disabled":false,"rental_uris":{"android":"levelo://app?vid=94549a1c-392b-4389-9513-b7fd6987b023","ios":"levelo://app?vid=94549a1c-392b-4389-9513-b7fd6987b023"},"vehicle_type_id":"4","last_reported":1706915175,"current_range_meters":17200,"station_id":"ce4bgvp2rcd13ifvqcu0","pricing_plan_id":"free"},{"bike_id":"d3dccefa-b8bd-4418-8224-c50ac69270cb","system_id":"levelo_inurba_marseille","lat":43.309038,"lon":5.396546,"is_reserved":false,"is_disabled":false,"rental_uris":{"android":"levelo://app?vid=d3dccefa-b8bd-4418-8224-c50ac69270cb","ios":"levelo://app?vid=d3dccefa-b8bd-4418-8224-c50ac69270cb"},"vehicle_type_id":"4","last_reported":1706915175,"current_range_meters":3600,"station_id":"ce4bh012rcd13ifvqcv0","pricing_plan_id":"free"},{"bike_id":"aceb6d8b-63c6-4723-888f-e7774e512ec4","system_id":"levelo_inurba_marseille","lat":43.309038,"lon":5.396546,"is_reserved":false,"is_disabled":false,"rental_uris":{"android":"levelo://app?vid=aceb6d8b-63c6-4723-888f-e7774e512ec4","ios":"levelo://app?vid=aceb6d8b-63c6-4723-888f-e7774e512ec4"},"vehicle_type_id":"4","last_reported":1706915175,"current_range_meters":9600,"station_id":"ce4bh012rcd13ifvqcv0","pricing_plan_id":"free"},{"bike_id":"f4ba1029-0104-436a-be6e-bd8a157def75","system_id":"levelo_inurba_marseille","lat":43.308843,"lon":5.396458,"is_reserved":false,"is_disabled":false,"rental_uris":{"android":"levelo://app?vid=f4ba1029-0104-436a-be6e-bd8a157def75","ios":"levelo://app?vid=f4ba1029-0104-436a-be6e-bd8a157def75"},"vehicle_type_id":"4","last_reported":1706915175,"current_range_meters":2400,"station_id":"ce4bh012rcd13ifvqcv0","pricing_plan_id":"free"},{"bike_id":"503eabd9-d11d-447d-82e1-1dd32d594b2c","system_id":"levelo_inurba_marseille","lat":43.313291,"lon":5.396838,"is_reserved":false,"is_disabled":false,"rental_uris":{"android":"levelo://app?vid=503eabd9-d11d-447d-82e1-1dd32d594b2c","ios":"levelo://app?vid=503eabd9-d11d-447d-82e1-1dd32d594b2c"},"vehicle_type_id":"4","last_reported":1706915175,"current_range_meters":25600,"station_id":"ce4bgvp2rcd13ifvqcu0","pricing_plan_id":"free"},{"bike_id":"684472ef-5a4a-42fe-9e4a-0df2b26abec7","system_id":"levelo_inurba_marseille","lat":43.309038,"lon":5.396546,"is_reserved":false,"is_disabled":false,"rental_uris":{"android":"levelo://app?vid=684472ef-5a4a-42fe-9e4a-0df2b26abec7","ios":"levelo://app?vid=684472ef-5a4a-42fe-9e4a-0df2b26abec7"},"vehicle_type_id":"4","last_reported":1706915175,"current_range_meters":6000,"station_id":"ce4bh012rcd13ifvqcv0","pricing_plan_id":"free"},{"bike_id":"4fa92898-a8db-48e5-8063-ffcbd73e576f","system_id":"levelo_inurba_marseille","lat":43.30882,"lon":5.39652,"is_reserved":false,"is_disabled":false,"rental_uris":{"android":"levelo://app?vid=4fa92898-a8db-48e5-8063-ffcbd73e576f","ios":"levelo://app?vid=4fa92898-a8db-48e5-8063-ffcbd73e576f"},"vehicle_type_id":"4","last_reported":1706915175,"current_range_meters":4000,"station_id":"ce4bh012rcd13ifvqcv0","pricing_plan_id":"free"},{"bike_id":"949bfd27-a71b-4a84-a6c4-303ca5447557","system_id":"levelo_inurba_marseille","lat":43.309038,"lon":5.396546,"is_reserved":false,"is_disabled":false,"rental_uris":{"android":"levelo://app?vid=949bfd27-a71b-4a84-a6c4-303ca5447557","ios":"levelo://app?vid=949bfd27-a71b-4a84-a6c4-303ca5447557"},"vehicle_type_id":"4","last_reported":1706915175,"current_range_meters":17600,"station_id":"ce4bh012rcd13ifvqcv0","pricing_plan_id":"free"},{"bike_id":"f300afa8-89a8-4172-8af7-7659dbad0c75","system_id":"levelo_inurba_marseille","lat":43.308928,"lon":5.396607,"is_reserved":false,"is_disabled":false,"rental_uris":{"android":"levelo://app?vid=f300afa8-89a8-4172-8af7-7659dbad0c75","ios":"levelo://app?vid=f300afa8-89a8-4172-8af7-7659dbad0c75"},"vehicle_type_id":"4","last_reported":1706915175,"current_range_meters":10000,"station_id":"ce4bh012rcd13ifvqcv0","pricing_plan_id":"free"},{"bike_id":"153d62be-1970-4dee-860b-1f5d32ec0ccf","system_id":"levelo_inurba_marseille","lat":43.30888,"lon":5.39663,"is_reserved":false,"is_disabled":false,"rental_uris":{"android":"levelo://app?vid=153d62be-1970-4dee-860b-1f5d32ec0ccf","ios":"levelo://app?vid=153d62be-1970-4dee-860b-1f5d32ec0ccf"},"vehicle_type_id":"4","last_reported":1706915175,"current_range_meters":24000,"station_id":"ce4bh012rcd13ifvqcv0","pricing_plan_id":"free"},{"bike_id":"bab61782-3050-4359-a0c4-d6a17a69773a","system_id":"levelo_inurba_marseille","lat":43.290779,"lon":5.371482,"is_reserved":false,"is_disabled":false,"rental_uris":{"android":"levelo://app?vid=bab61782-3050-4359-a0c4-d6a17a69773a","ios":"levelo://app?vid=bab61782-3050-4359-a0c4-d6a17a69773a"},"vehicle_type_id":"4","last_reported":1706915175,"current_range_meters":23200,"station_id":"ce4bh5p2rcd13ifvqe4g","pricing_plan_id":"free"},{"bike_id":"475a649c-a0f2-4648-ba62-d78aff861087","system_id":"levelo_inurba_marseille","lat":43.290779,"lon":5.371482,"is_reserved":false,"is_disabled":false,"rental_uris":{"android":"levelo://app?vid=475a649c-a0f2-4648-ba62-d78aff861087","ios":"levelo://app?vid=475a649c-a0f2-4648-ba62-d78aff861087"},"vehicle_type_id":"4","last_reported":1706915175,"current_range_meters":10800,"station_id":"ce4bh5p2rcd13ifvqe4g","pricing_plan_id":"free"},{"bike_id":"c45b5750-73d6-4834-b834-33b2d0638e74","system_id":"levelo_inurba_marseille","lat":43.290631,"lon":5.359244,"is_reserved":false,"is_disabled":false,"rental_uris":{"android":"levelo://app?vid=c45b5750-73d6-4834-b834-33b2d0638e74","ios":"levelo://app?vid=c45b5750-73d6-4834-b834-33b2d0638e74"},"vehicle_type_id":"4","last_reported":1706915175,"current_range_meters":6000,"station_id":"ce4bha92rcd13ifvqeg0","pricing_plan_id":"free"},{"bike_id":"7c755874-04f4-49a7-881c-3dccfea2f0df","system_id":"levelo_inurba_marseille","lat":43.290441,"lon":5.359123,"is_reserved":false,"is_disabled":false,"rental_uris":{"android":"levelo://app?vid=7c755874-04f4-49a7-881c-3dccfea2f0df","ios":"levelo://app?vid=7c755874-04f4-49a7-881c-3dccfea2f0df"},"vehicle_type_id":"4","last_reported":1706915175,"current_range_meters":4800,"station_id":"","pricing_plan_id":"free"},{"bike_id":"97639ec1-eeec-4bbd-bffa-002e44889fbc","system_id":"levelo_inurba_marseille","lat":43.290631,"lon":5.359244,"is_reserved":false,"is_disabled":false,"rental_uris":{"android":"levelo://app?vid=97639ec1-eeec-4bbd-bffa-002e44889fbc","ios":"levelo://app?vid=97639ec1-eeec-4bbd-bffa-002e44889fbc"},"vehicle_type_id":"4","last_reported":1706915175,"current_range_meters":24000,"station_id":"ce4bha92rcd13ifvqeg0","pricing_plan_id":"free"},{"bike_id":"9d7ba3e5-ef51-4951-be98-d98ec0adeb04","system_id":"levelo_inurba_marseille","lat":43.290327,"lon":5.375711,"is_reserved":false,"is_disabled":false,"rental_uris":{"android":"levelo://app?vid=9d7ba3e5-ef51-4951-be98-d98ec0adeb04","ios":"levelo://app?vid=9d7ba3e5-ef51-4951-be98-d98ec0adeb04"},"vehicle_type_id":"4","last_reported":1706915175,"current_range_meters":22000,"station_id":"ce4bh692rcd13ifvqe90","pricing_plan_id":"free"},{"bike_id":"f27dfbfa-ab5a-4f8e-aebc-1718e3892257","system_id":"levelo_inurba_marseille","lat":43.292644,"lon":5.384257,"is_reserved":false,"is_disabled":false,"rental_uris":{"android":"levelo://app?vid=f27dfbfa-ab5a-4f8e-aebc-1718e3892257","ios":"levelo://app?vid=f27dfbfa-ab5a-4f8e-aebc-1718e3892257"},"vehicle_type_id":"4","last_reported":1706915175,"current_range_meters":0,"station_id":"ce4bh692rcd13ifvqea0","pricing_plan_id":"free"},{"bike_id":"d5a2f2f4-0ad4-43ce-88da-f919106b1cc1","system_id":"levelo_inurba_marseille","lat":43.304296,"lon":5.397513,"is_reserved":false,"is_disabled":false,"rental_uris":{"android":"levelo://app?vid=d5a2f2f4-0ad4-43ce-88da-f919106b1cc1","ios":"levelo://app?vid=d5a2f2f4-0ad4-43ce-88da-f919106b1cc1"},"vehicle_type_id":"4","last_reported":1706915175,"current_range_meters":15200,"station_id":"ce4bh092rcd13ifvqd20","pricing_plan_id":"free"},{"bike_id":"a726dbb2-b3de-444c-b963-cf9d56ec4c79","system_id":"levelo_inurba_marseille","lat":43.29267,"lon":5.38444,"is_reserved":false,"is_disabled":false,"rental_uris":{"android":"levelo://app?vid=a726dbb2-b3de-444c-b963-cf9d56ec4c79","ios":"levelo://app?vid=a726dbb2-b3de-444c-b963-cf9d56ec4c79"},"vehicle_type_id":"4","last_reported":1706915175,"current_range_meters":0,"station_id":"ce4bh692rcd13ifvqea0","pricing_plan_id":"free"},{"bike_id":"18f39d0b-e16e-4367-b33e-ca6725bc1806","system_id":"levelo_inurba_marseille","lat":43.304274,"lon":5.397513,"is_reserved":false,"is_disabled":false,"rental_uris":{"android":"levelo://app?vid=18f39d0b-e16e-4367-b33e-ca6725bc1806","ios":"levelo://app?vid=18f39d0b-e16e-4367-b33e-ca6725bc1806"},"vehicle_type_id":"4","last_reported":1706915175,"current_range_meters":15200,"station_id":"ce4bh092rcd13ifvqd20","pricing_plan_id":"free"},{"bike_id":"469697e6-aa81-4b55-82c0-870819fff52c","system_id":"levelo_inurba_marseille","lat":43.290104,"lon":5.356111,"is_reserved":false,"is_disabled":false,"rental_uris":{"android":"levelo://app?vid=469697e6-aa81-4b55-82c0-870819fff52c","ios":"levelo://app?vid=469697e6-aa81-4b55-82c0-870819fff52c"},"vehicle_type_id":"4","last_reported":1706915175,"current_range_meters":24000,"station_id":"ce4bhb92rcd13ifvqen0","pricing_plan_id":"free"},{"bike_id":"f9d5d05c-03c7-490f-94f5-7f3e107031f5","system_id":"levelo_inurba_marseille","lat":43.317557,"lon":5.390173,"is_reserved":false,"is_disabled":false,"rental_uris":{"android":"levelo://app?vid=f9d5d05c-03c7-490f-94f5-7f3e107031f5","ios":"levelo://app?vid=f9d5d05c-03c7-490f-94f5-7f3e107031f5"},"vehicle_type_id":"4","last_reported":1706915175,"current_range_meters":4400,"station_id":"ce4bhqp2rcd13ifvqhng","pricing_plan_id":"free"},{"bike_id":"6328502a-cfa8-42fb-8b7f-2b72e3769c63","system_id":"levelo_inurba_marseille","lat":43.295169,"lon":5.390426,"is_reserved":false,"is_disabled":false,"rental_uris":{"android":"levelo://app?vid=6328502a-cfa8-42fb-8b7f-2b72e3769c63","ios":"levelo://app?vid=6328502a-cfa8-42fb-8b7f-2b72e3769c63"},"vehicle_type_id":"4","last_reported":1706915175,"current_range_meters":11200,"station_id":"ce4bh3p2rcd13ifvqdp0","pricing_plan_id":"free"},{"bike_id":"c5405c07-7fa5-4745-8cda-c4e947fcabdc","system_id":"levelo_inurba_marseille","lat":43.295169,"lon":5.390426,"is_reserved":false,"is_disabled":false,"rental_uris":{"android":"levelo://app?vid=c5405c07-7fa5-4745-8cda-c4e947fcabdc","ios":"levelo://app?vid=c5405c07-7fa5-4745-8cda-c4e947fcabdc"},"vehicle_type_id":"4","last_reported":1706915175,"current_range_meters":0,"station_id":"ce4bh3p2rcd13ifvqdp0","pricing_plan_id":"free"},{"bike_id":"40b63e42-7dd5-4da8-b1dc-ea809a2f4f1a","system_id":"levelo_inurba_marseille","lat":43.289743,"lon":5.378304,"is_reserved":false,"is_disabled":false,"rental_uris":{"android":"levelo://app?vid=40b63e42-7dd5-4da8-b1dc-ea809a2f4f1a","ios":"levelo://app?vid=40b63e42-7dd5-4da8-b1dc-ea809a2f4f1a"},"vehicle_type_id":"4","last_reported":1706915175,"current_range_meters":1200,"station_id":"ce4bh9p2rcd13ifvqed0","pricing_plan_id":"free"},{"bike_id":"a569bc82-2799-4d58-8f5c-19e0f6fce87d","system_id":"levelo_inurba_marseille","lat":43.33021,"lon":5.39044,"is_reserved":false,"is_disabled":false,"rental_uris":{"android":"levelo://app?vid=a569bc82-2799-4d58-8f5c-19e0f6fce87d","ios":"levelo://app?vid=a569bc82-2799-4d58-8f5c-19e0f6fce87d"},"vehicle_type_id":"4","last_reported":1706915175,"current_range_meters":5200,"station_id":"ce4bhr92rcd13ifvqhrg","pricing_plan_id":"free"},{"bike_id":"8f658ab6-8fed-4977-8e88-a981133a25a8","system_id":"levelo_inurba_marseille","lat":43.3303,"lon":5.39038,"is_reserved":false,"is_disabled":false,"rental_uris":{"android":"levelo://app?vid=8f658ab6-8fed-4977-8e88-a981133a25a8","ios":"levelo://app?vid=8f658ab6-8fed-4977-8e88-a981133a25a8"},"vehicle_type_id":"4","last_reported":1706915175,"current_range_meters":5600,"station_id":"ce4bhr92rcd13ifvqhrg","pricing_plan_id":"free"},{"bike_id":"4186a1f1-4481-4512-a6f2-253aff1e6dc4","system_id":"levelo_inurba_marseille","lat":43.33027,"lon":5.39045,"is_reserved":false,"is_disabled":false,"rental_uris":{"android":"levelo://app?vid=4186a1f1-4481-4512-a6f2-253aff1e6dc4","ios":"levelo://app?vid=4186a1f1-4481-4512-a6f2-253aff1e6dc4"},"vehicle_type_id":"4","last_reported":1706915175,"current_range_meters":3600,"station_id":"ce4bhr92rcd13ifvqhrg","pricing_plan_id":"free"},{"bike_id":"29fa78cb-ddcd-473b-afaa-62a18b90e67f","system_id":"levelo_inurba_marseille","lat":43.330442,"lon":5.389148,"is_reserved":false,"is_disabled":false,"rental_uris":{"android":"levelo://app?vid=29fa78cb-ddcd-473b-afaa-62a18b90e67f","ios":"levelo://app?vid=29fa78cb-ddcd-473b-afaa-62a18b90e67f"},"vehicle_type_id":"4","last_reported":1706915175,"current_range_meters":15600,"station_id":"ce4bhr92rcd13ifvqhrg","pricing_plan_id":"free"},{"bike_id":"1d550a91-1159-4c7a-8af0-a410633bcc3a","system_id":"levelo_inurba_marseille","lat":43.2901,"lon":5.381269,"is_reserved":false,"is_disabled":false,"rental_uris":{"android":"levelo://app?vid=1d550a91-1159-4c7a-8af0-a410633bcc3a","ios":"levelo://app?vid=1d550a91-1159-4c7a-8af0-a410633bcc3a"},"vehicle_type_id":"4","last_reported":1706915175,"current_range_meters":21600,"station_id":"ce4bh4p2rcd13ifvqe1g","pricing_plan_id":"free"},{"bike_id":"930044cf-b81c-4690-853e-2930b365dc8e","system_id":"levelo_inurba_marseille","lat":43.288673,"lon":5.358453,"is_reserved":false,"is_disabled":false,"rental_uris":{"android":"levelo://app?vid=930044cf-b81c-4690-853e-2930b365dc8e","ios":"levelo://app?vid=930044cf-b81c-4690-853e-2930b365dc8e"},"vehicle_type_id":"4","last_reported":1706915175,"current_range_meters":1200,"station_id":"ce4bhb12rcd13ifvqem0","pricing_plan_id":"free"},{"bike_id":"3ebbe77a-bb68-4637-bc85-dd4116c62d2e","system_id":"levelo_inurba_marseille","lat":43.290094,"lon":5.381264,"is_reserved":false,"is_disabled":false,"rental_uris":{"android":"levelo://app?vid=3ebbe77a-bb68-4637-bc85-dd4116c62d2e","ios":"levelo://app?vid=3ebbe77a-bb68-4637-bc85-dd4116c62d2e"},"vehicle_type_id":"4","last_reported":1706915175,"current_range_meters":0,"station_id":"ce4bh4p2rcd13ifvqe1g","pricing_plan_id":"free"},{"bike_id":"81f95038-7ad7-47e5-8f5b-35215afb62b1","system_id":"levelo_inurba_marseille","lat":43.28856,"lon":5.358371,"is_reserved":false,"is_disabled":false,"rental_uris":{"android":"levelo://app?vid=81f95038-7ad7-47e5-8f5b-35215afb62b1","ios":"levelo://app?vid=81f95038-7ad7-47e5-8f5b-35215afb62b1"},"vehicle_type_id":"4","last_reported":1706915175,"current_range_meters":0,"station_id":"ce4bhb12rcd13ifvqem0","pricing_plan_id":"free"},{"bike_id":"2dfa196c-6c5c-4e7d-8a85-f7be22241efa","system_id":"levelo_inurba_marseille","lat":43.312609,"lon":5.401662,"is_reserved":false,"is_disabled":false,"rental_uris":{"android":"levelo://app?vid=2dfa196c-6c5c-4e7d-8a85-f7be22241efa","ios":"levelo://app?vid=2dfa196c-6c5c-4e7d-8a85-f7be22241efa"},"vehicle_type_id":"4","last_reported":1706915175,"current_range_meters":0,"station_id":"ce4bh092rcd13ifvqd30","pricing_plan_id":"free"},{"bike_id":"a693be26-d51d-4635-bbd8-1f98ddaeba30","system_id":"levelo_inurba_marseille","lat":43.33747,"lon":5.374474,"is_reserved":false,"is_disabled":false,"rental_uris":{"android":"levelo://app?vid=a693be26-d51d-4635-bbd8-1f98ddaeba30","ios":"levelo://app?vid=a693be26-d51d-4635-bbd8-1f98ddaeba30"},"vehicle_type_id":"4","last_reported":1706915175,"current_range_meters":28000,"station_id":"","pricing_plan_id":"free"},{"bike_id":"253e1e33-5a27-4a9c-9770-625b8bb3dcfd","system_id":"levelo_inurba_marseille","lat":43.312609,"lon":5.401662,"is_reserved":false,"is_disabled":false,"rental_uris":{"android":"levelo://app?vid=253e1e33-5a27-4a9c-9770-625b8bb3dcfd","ios":"levelo://app?vid=253e1e33-5a27-4a9c-9770-625b8bb3dcfd"},"vehicle_type_id":"4","last_reported":1706915175,"current_range_meters":0,"station_id":"ce4bh092rcd13ifvqd30","pricing_plan_id":"free"},{"bike_id":"66bd3461-0691-40ae-b47a-4aa7890e1bf1","system_id":"levelo_inurba_marseille","lat":43.309371,"lon":5.401449,"is_reserved":false,"is_disabled":false,"rental_uris":{"android":"levelo://app?vid=66bd3461-0691-40ae-b47a-4aa7890e1bf1","ios":"levelo://app?vid=66bd3461-0691-40ae-b47a-4aa7890e1bf1"},"vehicle_type_id":"4","last_reported":1706915175,"current_range_meters":25600,"station_id":"ce4bgvp2rcd13ifvqct0","pricing_plan_id":"free"},{"bike_id":"bd740a52-b1ec-4c40-8bda-e9c4da3213c8","system_id":"levelo_inurba_marseille","lat":43.309371,"lon":5.401449,"is_reserved":false,"is_disabled":false,"rental_uris":{"android":"levelo://app?vid=bd740a52-b1ec-4c40-8bda-e9c4da3213c8","ios":"levelo://app?vid=bd740a52-b1ec-4c40-8bda-e9c4da3213c8"},"vehicle_type_id":"4","last_reported":1706915175,"current_range_meters":10400,"station_id":"ce4bgvp2rcd13ifvqct0","pricing_plan_id":"free"},{"bike_id":"7c2e5fe5-16e0-4357-86d7-db3612155c2b","system_id":"levelo_inurba_marseille","lat":43.30642,"lon":5.401031,"is_reserved":false,"is_disabled":false,"rental_uris":{"android":"levelo://app?vid=7c2e5fe5-16e0-4357-86d7-db3612155c2b","ios":"levelo://app?vid=7c2e5fe5-16e0-4357-86d7-db3612155c2b"},"vehicle_type_id":"4","last_reported":1706915175,"current_range_meters":4800,"station_id":"ce4bh112rcd13ifvqda0","pricing_plan_id":"free"},{"bike_id":"2feada40-09cf-41e1-8c7f-90000efbe655","system_id":"levelo_inurba_marseille","lat":43.309371,"lon":5.401449,"is_reserved":false,"is_disabled":false,"rental_uris":{"android":"levelo://app?vid=2feada40-09cf-41e1-8c7f-90000efbe655","ios":"levelo://app?vid=2feada40-09cf-41e1-8c7f-90000efbe655"},"vehicle_type_id":"4","last_reported":1706915175,"current_range_meters":19600,"station_id":"ce4bgvp2rcd13ifvqct0","pricing_plan_id":"free"},{"bike_id":"c76e661a-8046-4e71-b684-4d17284bfb58","system_id":"levelo_inurba_marseille","lat":43.30642,"lon":5.401031,"is_reserved":false,"is_disabled":false,"rental_uris":{"android":"levelo://app?vid=c76e661a-8046-4e71-b684-4d17284bfb58","ios":"levelo://app?vid=c76e661a-8046-4e71-b684-4d17284bfb58"},"vehicle_type_id":"4","last_reported":1706915175,"current_range_meters":31200,"station_id":"ce4bh112rcd13ifvqda0","pricing_plan_id":"free"},{"bike_id":"8bb262aa-a828-4328-a751-72000e38b5fa","system_id":"levelo_inurba_marseille","lat":43.309371,"lon":5.401449,"is_reserved":false,"is_disabled":false,"rental_uris":{"android":"levelo://app?vid=8bb262aa-a828-4328-a751-72000e38b5fa","ios":"levelo://app?vid=8bb262aa-a828-4328-a751-72000e38b5fa"},"vehicle_type_id":"4","last_reported":1706915175,"current_range_meters":5200,"station_id":"ce4bgvp2rcd13ifvqct0","pricing_plan_id":"free"},{"bike_id":"076e2a1c-0cf6-486c-a662-3ffded36caf0","system_id":"levelo_inurba_marseille","lat":43.306412,"lon":5.401035,"is_reserved":false,"is_disabled":false,"rental_uris":{"android":"levelo://app?vid=076e2a1c-0cf6-486c-a662-3ffded36caf0","ios":"levelo://app?vid=076e2a1c-0cf6-486c-a662-3ffded36caf0"},"vehicle_type_id":"4","last_reported":1706915175,"current_range_meters":30400,"station_id":"ce4bh112rcd13ifvqda0","pricing_plan_id":"free"},{"bike_id":"513347cb-f706-49bb-874e-0168082690f2","system_id":"levelo_inurba_marseille","lat":43.30642,"lon":5.401031,"is_reserved":false,"is_disabled":false,"rental_uris":{"android":"levelo://app?vid=513347cb-f706-49bb-874e-0168082690f2","ios":"levelo://app?vid=513347cb-f706-49bb-874e-0168082690f2"},"vehicle_type_id":"4","last_reported":1706915175,"current_range_meters":0,"station_id":"ce4bh112rcd13ifvqda0","pricing_plan_id":"free"},{"bike_id":"fbd79014-8443-4fa8-a575-118d08a47cbc","system_id":"levelo_inurba_marseille","lat":43.33762,"lon":5.37432,"is_reserved":false,"is_disabled":false,"rental_uris":{"android":"levelo://app?vid=fbd79014-8443-4fa8-a575-118d08a47cbc","ios":"levelo://app?vid=fbd79014-8443-4fa8-a575-118d08a47cbc"},"vehicle_type_id":"4","last_reported":1706915175,"current_range_meters":24800,"station_id":"","pricing_plan_id":"free"},{"bike_id":"e2d4d079-cc66-4f38-adc8-060273bea7e7","system_id":"levelo_inurba_marseille","lat":43.337648,"lon":5.374435,"is_reserved":false,"is_disabled":false,"rental_uris":{"android":"levelo://app?vid=e2d4d079-cc66-4f38-adc8-060273bea7e7","ios":"levelo://app?vid=e2d4d079-cc66-4f38-adc8-060273bea7e7"},"vehicle_type_id":"4","last_reported":1706915175,"current_range_meters":800,"station_id":"","pricing_plan_id":"free"},{"bike_id":"11c34592-b84c-4003-b8c3-4bbea2a3789d","system_id":"levelo_inurba_marseille","lat":43.301117,"lon":5.398795,"is_reserved":false,"is_disabled":false,"rental_uris":{"android":"levelo://app?vid=11c34592-b84c-4003-b8c3-4bbea2a3789d","ios":"levelo://app?vid=11c34592-b84c-4003-b8c3-4bbea2a3789d"},"vehicle_type_id":"4","last_reported":1706915175,"current_range_meters":14800,"station_id":"ce4bh0h2rcd13ifvqd40","pricing_plan_id":"free"},{"bike_id":"0aca2214-6738-4ad0-ba13-439e119f904d","system_id":"levelo_inurba_marseille","lat":43.33769,"lon":5.37449,"is_reserved":false,"is_disabled":false,"rental_uris":{"android":"levelo://app?vid=0aca2214-6738-4ad0-ba13-439e119f904d","ios":"levelo://app?vid=0aca2214-6738-4ad0-ba13-439e119f904d"},"vehicle_type_id":"4","last_reported":1706915175,"current_range_meters":26000,"station_id":"","pricing_plan_id":"free"},{"bike_id":"c0d52db0-3989-4ba8-9430-7506cdc3a535","system_id":"levelo_inurba_marseille","lat":43.306412,"lon":5.401035,"is_reserved":false,"is_disabled":false,"rental_uris":{"android":"levelo://app?vid=c0d52db0-3989-4ba8-9430-7506cdc3a535","ios":"levelo://app?vid=c0d52db0-3989-4ba8-9430-7506cdc3a535"},"vehicle_type_id":"4","last_reported":1706915175,"current_range_meters":15200,"station_id":"ce4bh112rcd13ifvqda0","pricing_plan_id":"free"},{"bike_id":"36900c9a-7d8b-4a2f-998f-51013456acd1","system_id":"levelo_inurba_marseille","lat":43.301117,"lon":5.398795,"is_reserved":false,"is_disabled":false,"rental_uris":{"android":"levelo://app?vid=36900c9a-7d8b-4a2f-998f-51013456acd1","ios":"levelo://app?vid=36900c9a-7d8b-4a2f-998f-51013456acd1"},"vehicle_type_id":"4","last_reported":1706915175,"current_range_meters":0,"station_id":"ce4bh0h2rcd13ifvqd40","pricing_plan_id":"free"},{"bike_id":"7b7c10ea-7b5f-4162-8774-474e1fd91ee9","system_id":"levelo_inurba_marseille","lat":43.301117,"lon":5.398795,"is_reserved":false,"is_disabled":false,"rental_uris":{"android":"levelo://app?vid=7b7c10ea-7b5f-4162-8774-474e1fd91ee9","ios":"levelo://app?vid=7b7c10ea-7b5f-4162-8774-474e1fd91ee9"},"vehicle_type_id":"4","last_reported":1706915175,"current_range_meters":18800,"station_id":"ce4bh0h2rcd13ifvqd40","pricing_plan_id":"free"},{"bike_id":"ac5cac9a-e2b8-48b6-9bf6-cb631e9e1d39","system_id":"levelo_inurba_marseille","lat":43.301117,"lon":5.398795,"is_reserved":false,"is_disabled":false,"rental_uris":{"android":"levelo://app?vid=ac5cac9a-e2b8-48b6-9bf6-cb631e9e1d39","ios":"levelo://app?vid=ac5cac9a-e2b8-48b6-9bf6-cb631e9e1d39"},"vehicle_type_id":"4","last_reported":1706915175,"current_range_meters":16400,"station_id":"ce4bh0h2rcd13ifvqd40","pricing_plan_id":"free"},{"bike_id":"426147a3-5c01-4a2e-8ad7-555333246514","system_id":"levelo_inurba_marseille","lat":43.28807,"lon":5.37679,"is_reserved":false,"is_disabled":false,"rental_uris":{"android":"levelo://app?vid=426147a3-5c01-4a2e-8ad7-555333246514","ios":"levelo://app?vid=426147a3-5c01-4a2e-8ad7-555333246514"},"vehicle_type_id":"4","last_reported":1706915175,"current_range_meters":24000,"station_id":"","pricing_plan_id":"free"},{"bike_id":"28bc864d-7c69-4b7f-83e4-ae0c99064d0d","system_id":"levelo_inurba_marseille","lat":43.301117,"lon":5.398795,"is_reserved":false,"is_disabled":false,"rental_uris":{"android":"levelo://app?vid=28bc864d-7c69-4b7f-83e4-ae0c99064d0d","ios":"levelo://app?vid=28bc864d-7c69-4b7f-83e4-ae0c99064d0d"},"vehicle_type_id":"4","last_reported":1706915175,"current_range_meters":14400,"station_id":"ce4bh0h2rcd13ifvqd40","pricing_plan_id":"free"},{"bike_id":"6d84f152-c7ac-4c3b-bd66-cad9c407ff03","system_id":"levelo_inurba_marseille","lat":43.301117,"lon":5.398795,"is_reserved":false,"is_disabled":false,"rental_uris":{"android":"levelo://app?vid=6d84f152-c7ac-4c3b-bd66-cad9c407ff03","ios":"levelo://app?vid=6d84f152-c7ac-4c3b-bd66-cad9c407ff03"},"vehicle_type_id":"4","last_reported":1706915175,"current_range_meters":17200,"station_id":"ce4bh0h2rcd13ifvqd40","pricing_plan_id":"free"},{"bike_id":"8919e1f1-2a7d-4f58-bd77-cab508e9b352","system_id":"levelo_inurba_marseille","lat":43.301117,"lon":5.398795,"is_reserved":false,"is_disabled":false,"rental_uris":{"android":"levelo://app?vid=8919e1f1-2a7d-4f58-bd77-cab508e9b352","ios":"levelo://app?vid=8919e1f1-2a7d-4f58-bd77-cab508e9b352"},"vehicle_type_id":"4","last_reported":1706915175,"current_range_meters":0,"station_id":"ce4bh0h2rcd13ifvqd40","pricing_plan_id":"free"},{"bike_id":"1bcab667-1027-45c3-ab16-166372f3cfe6","system_id":"levelo_inurba_marseille","lat":43.301117,"lon":5.398795,"is_reserved":false,"is_disabled":false,"rental_uris":{"android":"levelo://app?vid=1bcab667-1027-45c3-ab16-166372f3cfe6","ios":"levelo://app?vid=1bcab667-1027-45c3-ab16-166372f3cfe6"},"vehicle_type_id":"4","last_reported":1706915175,"current_range_meters":11600,"station_id":"ce4bh0h2rcd13ifvqd40","pricing_plan_id":"free"},{"bike_id":"9f5e1423-5f32-4cdd-b6cc-ffc6c1393dfe","system_id":"levelo_inurba_marseille","lat":43.301117,"lon":5.398795,"is_reserved":false,"is_disabled":false,"rental_uris":{"android":"levelo://app?vid=9f5e1423-5f32-4cdd-b6cc-ffc6c1393dfe","ios":"levelo://app?vid=9f5e1423-5f32-4cdd-b6cc-ffc6c1393dfe"},"vehicle_type_id":"4","last_reported":1706915175,"current_range_meters":800,"station_id":"ce4bh0h2rcd13ifvqd40","pricing_plan_id":"free"},{"bike_id":"f337049d-0d49-4c1e-ae5b-dd05727195b8","system_id":"levelo_inurba_marseille","lat":43.301117,"lon":5.398795,"is_reserved":false,"is_disabled":false,"rental_uris":{"android":"levelo://app?vid=f337049d-0d49-4c1e-ae5b-dd05727195b8","ios":"levelo://app?vid=f337049d-0d49-4c1e-ae5b-dd05727195b8"},"vehicle_type_id":"4","last_reported":1706915175,"current_range_meters":26800,"station_id":"ce4bh0h2rcd13ifvqd40","pricing_plan_id":"free"},{"bike_id":"dc1b6163-ea78-4570-9b82-c8acff422233","system_id":"levelo_inurba_marseille","lat":43.28727,"lon":5.36078,"is_reserved":false,"is_disabled":false,"rental_uris":{"android":"levelo://app?vid=dc1b6163-ea78-4570-9b82-c8acff422233","ios":"levelo://app?vid=dc1b6163-ea78-4570-9b82-c8acff422233"},"vehicle_type_id":"4","last_reported":1706915175,"current_range_meters":24400,"station_id":"cki0cbj6b192h4jlfktg","pricing_plan_id":"free"},{"bike_id":"e6cc739c-2f0b-4eb6-8e96-63c78bedcdd3","system_id":"levelo_inurba_marseille","lat":43.286591,"lon":5.363346,"is_reserved":false,"is_disabled":false,"rental_uris":{"android":"levelo://app?vid=e6cc739c-2f0b-4eb6-8e96-63c78bedcdd3","ios":"levelo://app?vid=e6cc739c-2f0b-4eb6-8e96-63c78bedcdd3"},"vehicle_type_id":"4","last_reported":1706915175,"current_range_meters":15600,"station_id":"ce4bhah2rcd13ifvqej0","pricing_plan_id":"free"},{"bike_id":"a04c9d26-d28c-4650-a41f-0d601b02f195","system_id":"levelo_inurba_marseille","lat":43.286591,"lon":5.363346,"is_reserved":false,"is_disabled":false,"rental_uris":{"android":"levelo://app?vid=a04c9d26-d28c-4650-a41f-0d601b02f195","ios":"levelo://app?vid=a04c9d26-d28c-4650-a41f-0d601b02f195"},"vehicle_type_id":"4","last_reported":1706915175,"current_range_meters":4400,"station_id":"ce4bhah2rcd13ifvqej0","pricing_plan_id":"free"},{"bike_id":"b0f3ea7c-a3ae-4207-93a1-4ed65fa6874a","system_id":"levelo_inurba_marseille","lat":43.286591,"lon":5.363346,"is_reserved":false,"is_disabled":false,"rental_uris":{"android":"levelo://app?vid=b0f3ea7c-a3ae-4207-93a1-4ed65fa6874a","ios":"levelo://app?vid=b0f3ea7c-a3ae-4207-93a1-4ed65fa6874a"},"vehicle_type_id":"4","last_reported":1706915175,"current_range_meters":4000,"station_id":"ce4bhah2rcd13ifvqej0","pricing_plan_id":"free"},{"bike_id":"72f7e516-5bcb-4d56-8434-b67bf90e6033","system_id":"levelo_inurba_marseille","lat":43.298681,"lon":5.397225,"is_reserved":false,"is_disabled":false,"rental_uris":{"android":"levelo://app?vid=72f7e516-5bcb-4d56-8434-b67bf90e6033","ios":"levelo://app?vid=72f7e516-5bcb-4d56-8434-b67bf90e6033"},"vehicle_type_id":"4","last_reported":1706915175,"current_range_meters":16800,"station_id":"ce4bh0h2rcd13ifvqd50","pricing_plan_id":"free"},{"bike_id":"f5954d0a-1f3b-407f-806f-c3358f422674","system_id":"levelo_inurba_marseille","lat":43.286591,"lon":5.363346,"is_reserved":false,"is_disabled":false,"rental_uris":{"android":"levelo://app?vid=f5954d0a-1f3b-407f-806f-c3358f422674","ios":"levelo://app?vid=f5954d0a-1f3b-407f-806f-c3358f422674"},"vehicle_type_id":"4","last_reported":1706915175,"current_range_meters":14000,"station_id":"ce4bhah2rcd13ifvqej0","pricing_plan_id":"free"},{"bike_id":"a511b62c-42bc-460c-be67-09803ac5828d","system_id":"levelo_inurba_marseille","lat":43.286591,"lon":5.363346,"is_reserved":false,"is_disabled":false,"rental_uris":{"android":"levelo://app?vid=a511b62c-42bc-460c-be67-09803ac5828d","ios":"levelo://app?vid=a511b62c-42bc-460c-be67-09803ac5828d"},"vehicle_type_id":"4","last_reported":1706915175,"current_range_meters":2800,"station_id":"ce4bhah2rcd13ifvqej0","pricing_plan_id":"free"},{"bike_id":"2e3348e7-286c-4baf-94f1-b8310956459a","system_id":"levelo_inurba_marseille","lat":43.28709,"lon":5.37394,"is_reserved":false,"is_disabled":false,"rental_uris":{"android":"levelo://app?vid=2e3348e7-286c-4baf-94f1-b8310956459a","ios":"levelo://app?vid=2e3348e7-286c-4baf-94f1-b8310956459a"},"vehicle_type_id":"4","last_reported":1706915175,"current_range_meters":24400,"station_id":"ce4bh3p2rcd13ifvqdq0","pricing_plan_id":"free"},{"bike_id":"82dca378-c7da-4141-8cfe-26d1ef779885","system_id":"levelo_inurba_marseille","lat":43.286593,"lon":5.363346,"is_reserved":false,"is_disabled":false,"rental_uris":{"android":"levelo://app?vid=82dca378-c7da-4141-8cfe-26d1ef779885","ios":"levelo://app?vid=82dca378-c7da-4141-8cfe-26d1ef779885"},"vehicle_type_id":"4","last_reported":1706915175,"current_range_meters":2800,"station_id":"ce4bhah2rcd13ifvqej0","pricing_plan_id":"free"},{"bike_id":"8c360b2e-009b-4ffb-b357-1f00562773b9","system_id":"levelo_inurba_marseille","lat":43.287074,"lon":5.373913,"is_reserved":false,"is_disabled":false,"rental_uris":{"android":"levelo://app?vid=8c360b2e-009b-4ffb-b357-1f00562773b9","ios":"levelo://app?vid=8c360b2e-009b-4ffb-b357-1f00562773b9"},"vehicle_type_id":"4","last_reported":1706915175,"current_range_meters":27200,"station_id":"ce4bh3p2rcd13ifvqdq0","pricing_plan_id":"free"},{"bike_id":"6985d04a-5734-4a32-9090-1bb308a3d8fc","system_id":"levelo_inurba_marseille","lat":43.286593,"lon":5.363346,"is_reserved":false,"is_disabled":false,"rental_uris":{"android":"levelo://app?vid=6985d04a-5734-4a32-9090-1bb308a3d8fc","ios":"levelo://app?vid=6985d04a-5734-4a32-9090-1bb308a3d8fc"},"vehicle_type_id":"4","last_reported":1706915175,"current_range_meters":16400,"station_id":"ce4bhah2rcd13ifvqej0","pricing_plan_id":"free"},{"bike_id":"2af7b858-7f90-426f-85d5-192f7e31c2bb","system_id":"levelo_inurba_marseille","lat":43.286593,"lon":5.363346,"is_reserved":false,"is_disabled":false,"rental_uris":{"android":"levelo://app?vid=2af7b858-7f90-426f-85d5-192f7e31c2bb","ios":"levelo://app?vid=2af7b858-7f90-426f-85d5-192f7e31c2bb"},"vehicle_type_id":"4","last_reported":1706915175,"current_range_meters":27200,"station_id":"ce4bhah2rcd13ifvqej0","pricing_plan_id":"free"},{"bike_id":"a390102e-fccb-43b0-979a-fa8b9bb5334f","system_id":"levelo_inurba_marseille","lat":43.286593,"lon":5.363346,"is_reserved":false,"is_disabled":false,"rental_uris":{"android":"levelo://app?vid=a390102e-fccb-43b0-979a-fa8b9bb5334f","ios":"levelo://app?vid=a390102e-fccb-43b0-979a-fa8b9bb5334f"},"vehicle_type_id":"4","last_reported":1706915175,"current_range_meters":24000,"station_id":"ce4bhah2rcd13ifvqej0","pricing_plan_id":"free"},{"bike_id":"bd32dd80-5a8e-4363-a9bf-5732cdb3d2f2","system_id":"levelo_inurba_marseille","lat":43.29874,"lon":5.39741,"is_reserved":false,"is_disabled":false,"rental_uris":{"android":"levelo://app?vid=bd32dd80-5a8e-4363-a9bf-5732cdb3d2f2","ios":"levelo://app?vid=bd32dd80-5a8e-4363-a9bf-5732cdb3d2f2"},"vehicle_type_id":"4","last_reported":1706915175,"current_range_meters":23600,"station_id":"ce4bh0h2rcd13ifvqd50","pricing_plan_id":"free"},{"bike_id":"0e079454-b37d-4f6e-b78a-c812e787dc12","system_id":"levelo_inurba_marseille","lat":43.286984,"lon":5.373915,"is_reserved":false,"is_disabled":false,"rental_uris":{"android":"levelo://app?vid=0e079454-b37d-4f6e-b78a-c812e787dc12","ios":"levelo://app?vid=0e079454-b37d-4f6e-b78a-c812e787dc12"},"vehicle_type_id":"4","last_reported":1706915175,"current_range_meters":30000,"station_id":"ce4bh3p2rcd13ifvqdq0","pricing_plan_id":"free"},{"bike_id":"2e5b195c-dffa-47bd-8c15-8b6c481f804f","system_id":"levelo_inurba_marseille","lat":43.286593,"lon":5.363346,"is_reserved":false,"is_disabled":false,"rental_uris":{"android":"levelo://app?vid=2e5b195c-dffa-47bd-8c15-8b6c481f804f","ios":"levelo://app?vid=2e5b195c-dffa-47bd-8c15-8b6c481f804f"},"vehicle_type_id":"4","last_reported":1706915175,"current_range_meters":21200,"station_id":"ce4bhah2rcd13ifvqej0","pricing_plan_id":"free"},{"bike_id":"6a9b3661-645f-41d4-aedf-d0aa9c636f86","system_id":"levelo_inurba_marseille","lat":43.286958,"lon":5.373817,"is_reserved":false,"is_disabled":false,"rental_uris":{"android":"levelo://app?vid=6a9b3661-645f-41d4-aedf-d0aa9c636f86","ios":"levelo://app?vid=6a9b3661-645f-41d4-aedf-d0aa9c636f86"},"vehicle_type_id":"4","last_reported":1706915175,"current_range_meters":26400,"station_id":"ce4bh3p2rcd13ifvqdq0","pricing_plan_id":"free"},{"bike_id":"a2f26cb2-5c66-4173-9aed-68461016323c","system_id":"levelo_inurba_marseille","lat":43.295194,"lon":5.39397,"is_reserved":false,"is_disabled":false,"rental_uris":{"android":"levelo://app?vid=a2f26cb2-5c66-4173-9aed-68461016323c","ios":"levelo://app?vid=a2f26cb2-5c66-4173-9aed-68461016323c"},"vehicle_type_id":"4","last_reported":1706915175,"current_range_meters":0,"station_id":"ce4bh292rcd13ifvqdf0","pricing_plan_id":"free"},{"bike_id":"6e2297b7-ca2f-4306-adea-98e2c559fae8","system_id":"levelo_inurba_marseille","lat":43.289307,"lon":5.38406,"is_reserved":false,"is_disabled":false,"rental_uris":{"android":"levelo://app?vid=6e2297b7-ca2f-4306-adea-98e2c559fae8","ios":"levelo://app?vid=6e2297b7-ca2f-4306-adea-98e2c559fae8"},"vehicle_type_id":"4","last_reported":1706915175,"current_range_meters":4800,"station_id":"ce4bh612rcd13ifvqe6g","pricing_plan_id":"free"},{"bike_id":"c73e8d57-37d7-405b-812b-51dff2e59d7b","system_id":"levelo_inurba_marseille","lat":43.29042,"lon":5.38652,"is_reserved":false,"is_disabled":false,"rental_uris":{"android":"levelo://app?vid=c73e8d57-37d7-405b-812b-51dff2e59d7b","ios":"levelo://app?vid=c73e8d57-37d7-405b-812b-51dff2e59d7b"},"vehicle_type_id":"4","last_reported":1706915175,"current_range_meters":8000,"station_id":"","pricing_plan_id":"free"},{"bike_id":"c61f3b61-24b4-4490-8666-d22f2cfe5675","system_id":"levelo_inurba_marseille","lat":43.30252,"lon":5.40064,"is_reserved":false,"is_disabled":false,"rental_uris":{"android":"levelo://app?vid=c61f3b61-24b4-4490-8666-d22f2cfe5675","ios":"levelo://app?vid=c61f3b61-24b4-4490-8666-d22f2cfe5675"},"vehicle_type_id":"4","last_reported":1706915175,"current_range_meters":800,"station_id":"ce4bgvh2rcd13ifvqcs0","pricing_plan_id":"free"},{"bike_id":"3a3a5a51-911a-4221-8f21-c349580f219c","system_id":"levelo_inurba_marseille","lat":43.30254,"lon":5.40072,"is_reserved":false,"is_disabled":false,"rental_uris":{"android":"levelo://app?vid=3a3a5a51-911a-4221-8f21-c349580f219c","ios":"levelo://app?vid=3a3a5a51-911a-4221-8f21-c349580f219c"},"vehicle_type_id":"4","last_reported":1706915175,"current_range_meters":2800,"station_id":"ce4bgvh2rcd13ifvqcs0","pricing_plan_id":"free"},{"bike_id":"0fb68509-550e-4c7f-8e12-8a0fa1af93f8","system_id":"levelo_inurba_marseille","lat":43.289307,"lon":5.38406,"is_reserved":false,"is_disabled":false,"rental_uris":{"android":"levelo://app?vid=0fb68509-550e-4c7f-8e12-8a0fa1af93f8","ios":"levelo://app?vid=0fb68509-550e-4c7f-8e12-8a0fa1af93f8"},"vehicle_type_id":"4","last_reported":1706915175,"current_range_meters":24800,"station_id":"ce4bh612rcd13ifvqe6g","pricing_plan_id":"free"},{"bike_id":"a4b0f2ce-10b6-4093-833e-d8becb540d19","system_id":"levelo_inurba_marseille","lat":43.30255,"lon":5.4008,"is_reserved":false,"is_disabled":false,"rental_uris":{"android":"levelo://app?vid=a4b0f2ce-10b6-4093-833e-d8becb540d19","ios":"levelo://app?vid=a4b0f2ce-10b6-4093-833e-d8becb540d19"},"vehicle_type_id":"4","last_reported":1706915175,"current_range_meters":0,"station_id":"ce4bgvh2rcd13ifvqcs0","pricing_plan_id":"free"},{"bike_id":"81187463-0d06-4236-b02e-9dadb5f475d1","system_id":"levelo_inurba_marseille","lat":43.286039,"lon":5.370679,"is_reserved":false,"is_disabled":false,"rental_uris":{"android":"levelo://app?vid=81187463-0d06-4236-b02e-9dadb5f475d1","ios":"levelo://app?vid=81187463-0d06-4236-b02e-9dadb5f475d1"},"vehicle_type_id":"4","last_reported":1706915175,"current_range_meters":4400,"station_id":"ce4bht12rcd13ifvqi60","pricing_plan_id":"free"},{"bike_id":"1cbf275f-c77e-456f-9704-4c993dd301c2","system_id":"levelo_inurba_marseille","lat":43.301117,"lon":5.398795,"is_reserved":false,"is_disabled":false,"rental_uris":{"android":"levelo://app?vid=1cbf275f-c77e-456f-9704-4c993dd301c2","ios":"levelo://app?vid=1cbf275f-c77e-456f-9704-4c993dd301c2"},"vehicle_type_id":"4","last_reported":1706915175,"current_range_meters":9200,"station_id":"ce4bh0h2rcd13ifvqd40","pricing_plan_id":"free"},