{"last_updated":1706285320,"ttl":30,"version":"2.2","data":{"bikes":[{"bike_id":"3563b9d5-1a93-405f-a0fa-96423c8cab6b","system_id":"levelo_inurba_marseille","lat":43.312239,"lon":5.368562,"is_reserved":false,"is_disabled":false,"rental_uris":{"android":"levelo://app?vid=3563b9d5-1a93-405f-a0fa-96423c8cab6b","ios":"levelo://app?vid=3563b9d5-1a93-405f-a0fa-96423c8cab6b"},"vehicle_type_id":"4","last_reported":1706285320,"current_range_meters":19200,"station_id":"ce4bgl92rcd13ifvqbq0","pricing_plan_id":"free"},{"bike_id":"6727a764-10dd-4351-a8d5-50719096128c","system_id":"levelo_inurba_marseille","lat":43.30923,"lon":5.36837,"is_reserved":false,"is_disabled":false,"rental_uris":{"android":"levelo://app?vid=6727a764-10dd-4351-a8d5-50719096128c","ios":"levelo://app?vid=6727a764-10dd-4351-a8d5-50719096128c"},"vehicle_type_id":"4","last_reported":1706285320,"current_range_meters":15600,"station_id":"ce4bgn92rcd13ifvqbvg","pricing_plan_id":"free"},{"bike_id":"13d02edf-8d46-4783-816f-8c47c899d435","system_id":"levelo_inurba_marseille","lat":43.314811,"lon":5.373103,"is_reserved":false,"is_disabled":false,"rental_uris":{"android":"levelo://app?vid=13d02edf-8d46-4783-816f-8c47c899d435","ios":"levelo://app?vid=13d02edf-8d46-4783-816f-8c47c899d435"},"vehicle_type_id":"4","last_reported":1706285320,"current_range_meters":14400,"station_id":"ce4bgt12rcd13ifvqcd0","pricing_plan_id":"free"},{"bike_id":"819b7c84-31b8-43b6-a78f-7adbcbc0b38d","system_id":"levelo_inurba_marseille","lat":43.314811,"lon":5.373103,"is_reserved":false,"is_disabled":false,"rental_uris":{"android":"levelo://app?vid=819b7c84-31b8-43b6-a78f-7adbcbc0b38d","ios":"levelo://app?vid=819b7c84-31b8-43b6-a78f-7adbcbc0b38d"},"vehicle_type_id":"4","last_reported":1706285320,"current_range_meters":400,"station_id":"ce4bgt12rcd13ifvqcd0","pricing_plan_id":"free"},{"bike_id":"43f2e9a3-4e4c-4d41-8a34-9514a3e6c5d3","system_id":"levelo_inurba_marseille","lat":43.31598,"lon":5.37318,"is_reserved":false,"is_disabled":false,"rental_uris":{"android":"levelo://app?vid=43f2e9a3-4e4c-4d41-8a34-9514a3e6c5d3","ios":"levelo://app?vid=43f2e9a3-4e4c-4d41-8a34-9514a3e6c5d3"},"vehicle_type_id":"4","last_reported":1706285320,"current_range_meters":10000,"station_id":"","pricing_plan_id":"free"},{"bike_id":"9443e511-2e2d-41e7-a2cd-4c95bf03992f","system_id":"levelo_inurba_marseille","lat":43.31356,"lon":5.37622,"is_reserved":false,"is_disabled":false,"rental_uris":{"android":"levelo://app?vid=9443e511-2e2d-41e7-a2cd-4c95bf03992f","ios":"levelo://app?vid=9443e511-2e2d-41e7-a2cd-4c95bf03992f"},"vehicle_type_id":"4","last_reported":1706285320,"current_range_meters":10800,"station_id":"","pricing_plan_id":"free"},{"bike_id":"821ee142-c646-4937-a28b-49be9668445e","system_id":"levelo_inurba_marseille","lat":43.30537,"lon":5.367345,"is_reserved":false,"is_disabled":false,"rental_uris":{"android":"levelo://app?vid=821ee142-c646-4937-a28b-49be9668445e","ios":"levelo://app?vid=821ee142-c646-4937-a28b-49be9668445e"},"vehicle_type_id":"4","last_reported":1706285320,"current_range_meters":10400,"station_id":"ce4bgrp2rcd13ifvqc9g","pricing_plan_id":"free"},{"bike_id":"b39695c3-0247-4890-85d8-94debce8a2fb","system_id":"levelo_inurba_marseille","lat":43.305714,"lon":5.365633,"is_reserved":false,"is_disabled":false,"rental_uris":{"android":"levelo://app?vid=b39695c3-0247-4890-85d8-94debce8a2fb","ios":"levelo://app?vid=b39695c3-0247-4890-85d8-94debce8a2fb"},"vehicle_type_id":"4","last_reported":1706285320,"current_range_meters":19200,"station_id":"ce4bgs12rcd13ifvqcag","pricing_plan_id":"free"},{"bike_id":"8b9fdf63-a977-45bb-a8b7-539930aa4897","system_id":"levelo_inurba_marseille","lat":43.30545,"lon":5.3653,"is_reserved":false,"is_disabled":false,"rental_uris":{"android":"levelo://app?vid=8b9fdf63-a977-45bb-a8b7-539930aa4897","ios":"levelo://app?vid=8b9fdf63-a977-45bb-a8b7-539930aa4897"},"vehicle_type_id":"4","last_reported":1706285320,"current_range_meters":800,"station_id":"ce4bgs12rcd13ifvqcag","pricing_plan_id":"free"},{"bike_id":"4e732002-a237-4a8b-8938-0f81f2fce241","system_id":"levelo_inurba_marseille","lat":43.30544,"lon":5.36531,"is_reserved":false,"is_disabled":false,"rental_uris":{"android":"levelo://app?vid=4e732002-a237-4a8b-8938-0f81f2fce241","ios":"levelo://app?vid=4e732002-a237-4a8b-8938-0f81f2fce241"},"vehicle_type_id":"4","last_reported":1706285320,"current_range_meters":1200,"station_id":"ce4bgs12rcd13ifvqcag","pricing_plan_id":"free"},{"bike_id":"e1eecb6f-5967-4ca3-af3e-6930243654e6","system_id":"levelo_inurba_marseille","lat":43.30543,"lon":5.36529,"is_reserved":false,"is_disabled":false,"rental_uris":{"android":"levelo://app?vid=e1eecb6f-5967-4ca3-af3e-6930243654e6","ios":"levelo://app?vid=e1eecb6f-5967-4ca3-af3e-6930243654e6"},"vehicle_type_id":"4","last_reported":1706285320,"current_range_meters":3200,"station_id":"ce4bgs12rcd13ifvqcag","pricing_plan_id":"free"},{"bike_id":"87e789a3-e0cd-424d-8979-316af2396b74","system_id":"levelo_inurba_marseille","lat":43.30536,"lon":5.36551,"is_reserved":false,"is_disabled":false,"rental_uris":{"android":"levelo://app?vid=87e789a3-e0cd-424d-8979-316af2396b74","ios":"levelo://app?vid=87e789a3-e0cd-424d-8979-316af2396b74"},"vehicle_type_id":"4","last_reported":1706285320,"current_range_meters":7600,"station_id":"ce4bgs12rcd13ifvqcag","pricing_plan_id":"free"},{"bike_id":"dd197113-4d18-4627-bee6-391c8f6cd2d0","system_id":"levelo_inurba_marseille","lat":43.305706,"lon":5.365654,"is_reserved":false,"is_disabled":false,"rental_uris":{"android":"levelo://app?vid=dd197113-4d18-4627-bee6-391c8f6cd2d0","ios":"levelo://app?vid=dd197113-4d18-4627-bee6-391c8f6cd2d0"},"vehicle_type_id":"4","last_reported":1706285320,"current_range_meters":27600,"station_id":"ce4bgs12rcd13ifvqcag","pricing_plan_id":"free"},{"bike_id":"6d5b1a63-7338-40b0-b17a-6f0e118f6dc9","system_id":"levelo_inurba_marseille","lat":43.30607,"lon":5.37221,"is_reserved":false,"is_disabled":false,"rental_uris":{"android":"levelo://app?vid=6d5b1a63-7338-40b0-b17a-6f0e118f6dc9","ios":"levelo://app?vid=6d5b1a63-7338-40b0-b17a-6f0e118f6dc9"},"vehicle_type_id":"4","last_reported":1706285320,"current_range_meters":2000,"station_id":"ce4bgqh2rcd13ifvqc4g","pricing_plan_id":"free"},{"bike_id":"acfe565d-519d-4ad5-9de9-5a3d5bf4d9bb","system_id":"levelo_inurba_marseille","lat":43.31122,"lon":5.37754,"is_reserved":false,"is_disabled":false,"rental_uris":{"android":"levelo://app?vid=acfe565d-519d-4ad5-9de9-5a3d5bf4d9bb","ios":"levelo://app?vid=acfe565d-519d-4ad5-9de9-5a3d5bf4d9bb"},"vehicle_type_id":"4","last_reported":1706285320,"current_range_meters":16800,"station_id":"ce4bgt92rcd13ifvqcg0","pricing_plan_id":"free"},{"bike_id":"7c81727c-5265-4d7c-9735-708db1b3fe50","system_id":"levelo_inurba_marseille","lat":43.31119,"lon":5.37757,"is_reserved":false,"is_disabled":false,"rental_uris":{"android":"levelo://app?vid=7c81727c-5265-4d7c-9735-708db1b3fe50","ios":"levelo://app?vid=7c81727c-5265-4d7c-9735-708db1b3fe50"},"vehicle_type_id":"4","last_reported":1706285320,"current_range_meters":0,"station_id":"ce4bgt92rcd13ifvqcg0","pricing_plan_id":"free"},{"bike_id":"08aeb24f-6fd6-400d-a34e-dab7421d9fe8","system_id":"levelo_inurba_marseille","lat":43.311125,"lon":5.377624,"is_reserved":false,"is_disabled":false,"rental_uris":{"android":"levelo://app?vid=08aeb24f-6fd6-400d-a34e-dab7421d9fe8","ios":"levelo://app?vid=08aeb24f-6fd6-400d-a34e-dab7421d9fe8"},"vehicle_type_id":"4","last_reported":1706285320,"current_range_meters":16800,"station_id":"ce4bgt92rcd13ifvqcg0","pricing_plan_id":"free"},{"bike_id":"1fcb387e-457b-4b6c-9802-b935a86d85aa","system_id":"levelo_inurba_marseille","lat":43.311125,"lon":5.377624,"is_reserved":false,"is_disabled":false,"rental_uris":{"android":"levelo://app?vid=1fcb387e-457b-4b6c-9802-b935a86d85aa","ios":"levelo://app?vid=1fcb387e-457b-4b6c-9802-b935a86d85aa"},"vehicle_type_id":"4","last_reported":1706285320,"current_range_meters":18000,"station_id":"ce4bgt92rcd13ifvqcg0","pricing_plan_id":"free"},{"bike_id":"0f0f1f39-6195-492b-a1a0-c1efe36c69a3","system_id":"levelo_inurba_marseille","lat":43.31121,"lon":5.37762,"is_reserved":false,"is_disabled":false,"rental_uris":{"android":"levelo://app?vid=0f0f1f39-6195-492b-a1a0-c1efe36c69a3","ios":"levelo://app?vid=0f0f1f39-6195-492b-a1a0-c1efe36c69a3"},"vehicle_type_id":"4","last_reported":1706285320,"current_range_meters":10400,"station_id":"ce4bgt92rcd13ifvqcg0","pricing_plan_id":"free"},{"bike_id":"c5e8f4a8-7d39-4e03-bce9-db237bf71511","system_id":"levelo_inurba_marseille","lat":43.311125,"lon":5.377624,"is_reserved":false,"is_disabled":false,"rental_uris":{"android":"levelo://app?vid=c5e8f4a8-7d39-4e03-bce9-db237bf71511","ios":"levelo://app?vid=c5e8f4a8-7d39-4e03-bce9-db237bf71511"},"vehicle_type_id":"4","last_reported":1706285320,"current_range_meters":14400,"station_id":"ce4bgt92rcd13ifvqcg0","pricing_plan_id":"free"},{"bike_id":"727419b3-634b-479b-8d7c-3c5965c8840f","system_id":"levelo_inurba_marseille","lat":43.29573,"lon":5.367355,"is_reserved":false,"is_disabled":false,"rental_uris":{"android":"levelo://app?vid=727419b3-634b-479b-8d7c-3c5965c8840f","ios":"levelo://app?vid=727419b3-634b-479b-8d7c-3c5965c8840f"},"vehicle_type_id":"4","last_reported":1706285320,"current_range_meters":25200,"station_id":"ce4bgph2rcd13ifvqc2g","pricing_plan_id":"free"},{"bike_id":"01be444e-eaaf-4c69-bb5e-70bfa91a2842","system_id":"levelo_inurba_marseille","lat":43.311125,"lon":5.377624,"is_reserved":false,"is_disabled":false,"rental_uris":{"android":"levelo://app?vid=01be444e-eaaf-4c69-bb5e-70bfa91a2842","ios":"levelo://app?vid=01be444e-eaaf-4c69-bb5e-70bfa91a2842"},"vehicle_type_id":"4","last_reported":1706285320,"current_range_meters":25200,"station_id":"ce4bgt92rcd13ifvqcg0","pricing_plan_id":"free"},{"bike_id":"df3bc79c-edb2-4eb7-a5e8-c8be4751d549","system_id":"levelo_inurba_marseille","lat":43.307945,"lon":5.376487,"is_reserved":false,"is_disabled":false,"rental_uris":{"android":"levelo://app?vid=df3bc79c-edb2-4eb7-a5e8-c8be4751d549","ios":"levelo://app?vid=df3bc79c-edb2-4eb7-a5e8-c8be4751d549"},"vehicle_type_id":"4","last_reported":1706285320,"current_range_meters":3200,"station_id":"ce4bgv92rcd13ifvqcq0","pricing_plan_id":"free"},{"bike_id":"52a9a8b6-e56d-4bcd-a558-12044da36464","system_id":"levelo_inurba_marseille","lat":43.31705,"lon":5.377445,"is_reserved":false,"is_disabled":false,"rental_uris":{"android":"levelo://app?vid=52a9a8b6-e56d-4bcd-a558-12044da36464","ios":"levelo://app?vid=52a9a8b6-e56d-4bcd-a558-12044da36464"},"vehicle_type_id":"4","last_reported":1706285320,"current_range_meters":7200,"station_id":"ce4bgth2rcd13ifvqch0","pricing_plan_id":"free"},{"bike_id":"0f44ee86-190c-4d6f-824c-774c8cd91e5e","system_id":"levelo_inurba_marseille","lat":43.317075,"lon":5.377367,"is_reserved":false,"is_disabled":false,"rental_uris":{"android":"levelo://app?vid=0f44ee86-190c-4d6f-824c-774c8cd91e5e","ios":"levelo://app?vid=0f44ee86-190c-4d6f-824c-774c8cd91e5e"},"vehicle_type_id":"4","last_reported":1706285320,"current_range_meters":14800,"station_id":"ce4bgth2rcd13ifvqch0","pricing_plan_id":"free"},{"bike_id":"1c0522a1-813f-4f7f-8252-dba325cc1a94","system_id":"levelo_inurba_marseille","lat":43.317075,"lon":5.377367,"is_reserved":false,"is_disabled":false,"rental_uris":{"android":"levelo://app?vid=1c0522a1-813f-4f7f-8252-dba325cc1a94","ios":"levelo://app?vid=1c0522a1-813f-4f7f-8252-dba325cc1a94"},"vehicle_type_id":"4","last_reported":1706285320,"current_range_meters":31200,"station_id":"ce4bgth2rcd13ifvqch0","pricing_plan_id":"free"},{"bike_id":"183bb1c1-398f-466c-b05d-327ac4efc436","system_id":"levelo_inurba_marseille","lat":43.31719,"lon":5.37754,"is_reserved":false,"is_disabled":false,"rental_uris":{"android":"levelo://app?vid=183bb1c1-398f-466c-b05d-327ac4efc436","ios":"levelo://app?vid=183bb1c1-398f-466c-b05d-327ac4efc436"},"vehicle_type_id":"4","last_reported":1706285320,"current_range_meters":18400,"station_id":"ce4bgth2rcd13ifvqch0","pricing_plan_id":"free"},{"bike_id":"00f8f20a-1ef1-44de-8ede-9583b0c98af9","system_id":"levelo_inurba_marseille","lat":43.303148,"lon":5.368969,"is_reserved":false,"is_disabled":false,"rental_uris":{"android":"levelo://app?vid=00f8f20a-1ef1-44de-8ede-9583b0c98af9","ios":"levelo://app?vid=00f8f20a-1ef1-44de-8ede-9583b0c98af9"},"vehicle_type_id":"4","last_reported":1706285320,"current_range_meters":19200,"station_id":"ce4bgqh2rcd13ifvqc5g","pricing_plan_id":"free"},{"bike_id":"77f4db21-fbe7-4909-91aa-7f729504d19f","system_id":"levelo_inurba_marseille","lat":43.3031,"lon":5.369,"is_reserved":false,"is_disabled":false,"rental_uris":{"android":"levelo://app?vid=77f4db21-fbe7-4909-91aa-7f729504d19f","ios":"levelo://app?vid=77f4db21-fbe7-4909-91aa-7f729504d19f"},"vehicle_type_id":"4","last_reported":1706285320,"current_range_meters":23200,"station_id":"ce4bgqh2rcd13ifvqc5g","pricing_plan_id":"free"},{"bike_id":"57296598-fdc2-4116-9184-a64126670a97","system_id":"levelo_inurba_marseille","lat":43.3031,"lon":5.36912,"is_reserved":false,"is_disabled":false,"rental_uris":{"android":"levelo://app?vid=57296598-fdc2-4116-9184-a64126670a97","ios":"levelo://app?vid=57296598-fdc2-4116-9184-a64126670a97"},"vehicle_type_id":"4","last_reported":1706285320,"current_range_meters":0,"station_id":"ce4bgqh2rcd13ifvqc5g","pricing_plan_id":"free"},{"bike_id":"1a8f9022-122b-4eb8-ab3b-d780babe6020","system_id":"levelo_inurba_marseille","lat":43.30304,"lon":5.368987,"is_reserved":false,"is_disabled":false,"rental_uris":{"android":"levelo://app?vid=1a8f9022-122b-4eb8-ab3b-d780babe6020","ios":"levelo://app?vid=1a8f9022-122b-4eb8-ab3b-d780babe6020"},"vehicle_type_id":"4","last_reported":1706285320,"current_range_meters":18400,"station_id":"ce4bgqh2rcd13ifvqc5g","pricing_plan_id":"free"},{"bike_id":"51010e28-fb0c-43ae-bd4f-235a8cd9f45c","system_id":"levelo_inurba_marseille","lat":43.301939,"lon":5.366286,"is_reserved":false,"is_disabled":false,"rental_uris":{"android":"levelo://app?vid=51010e28-fb0c-43ae-bd4f-235a8cd9f45c","ios":"levelo://app?vid=51010e28-fb0c-43ae-bd4f-235a8cd9f45c"},"vehicle_type_id":"4","last_reported":1706285320,"current_range_meters":25200,"station_id":"ce4bgrh2rcd13ifvqc8g","pricing_plan_id":"free"},{"bike_id":"9c3785cc-cb7d-4ec3-9ada-d989e5f1a7dd","system_id":"levelo_inurba_marseille","lat":43.30799,"lon":5.3816,"is_reserved":false,"is_disabled":false,"rental_uris":{"android":"levelo://app?vid=9c3785cc-cb7d-4ec3-9ada-d989e5f1a7dd","ios":"levelo://app?vid=9c3785cc-cb7d-4ec3-9ada-d989e5f1a7dd"},"vehicle_type_id":"4","last_reported":1706285320,"current_range_meters":0,"station_id":"ce4bgt12rcd13ifvqce0","pricing_plan_id":"free"},{"bike_id":"72c3bba0-9903-4dc2-be88-daeafdbb7b0a","system_id":"levelo_inurba_marseille","lat":43.308012,"lon":5.381511,"is_reserved":false,"is_disabled":false,"rental_uris":{"android":"levelo://app?vid=72c3bba0-9903-4dc2-be88-daeafdbb7b0a","ios":"levelo://app?vid=72c3bba0-9903-4dc2-be88-daeafdbb7b0a"},"vehicle_type_id":"4","last_reported":1706285320,"current_range_meters":12400,"station_id":"ce4bgt12rcd13ifvqce0","pricing_plan_id":"free"},{"bike_id":"422ab4e2-6c69-424f-b323-ed14b0b74e80","system_id":"levelo_inurba_marseille","lat":43.308012,"lon":5.381511,"is_reserved":false,"is_disabled":false,"rental_uris":{"android":"levelo://app?vid=422ab4e2-6c69-424f-b323-ed14b0b74e80","ios":"levelo://app?vid=422ab4e2-6c69-424f-b323-ed14b0b74e80"},"vehicle_type_id":"4","last_reported":1706285320,"current_range_meters":24400,"station_id":"ce4bgt12rcd13ifvqce0","pricing_plan_id":"free"},{"bike_id":"b65aae7c-fbc8-4c7b-999f-cf1a58a0dead","system_id":"levelo_inurba_marseille","lat":43.30462,"lon":5.37904,"is_reserved":false,"is_disabled":false,"rental_uris":{"android":"levelo://app?vid=b65aae7c-fbc8-4c7b-999f-cf1a58a0dead","ios":"levelo://app?vid=b65aae7c-fbc8-4c7b-999f-cf1a58a0dead"},"vehicle_type_id":"4","last_reported":1706285320,"current_range_meters":0,"station_id":"ce4bgup2rcd13ifvqcn0","pricing_plan_id":"free"},{"bike_id":"e2ca8ecc-1b18-473b-b6ab-6d0e4670b77d","system_id":"levelo_inurba_marseille","lat":43.304567,"lon":5.37904,"is_reserved":false,"is_disabled":false,"rental_uris":{"android":"levelo://app?vid=e2ca8ecc-1b18-473b-b6ab-6d0e4670b77d","ios":"levelo://app?vid=e2ca8ecc-1b18-473b-b6ab-6d0e4670b77d"},"vehicle_type_id":"4","last_reported":1706285320,"current_range_meters":1200,"station_id":"ce4bgup2rcd13ifvqcn0","pricing_plan_id":"free"},{"bike_id":"f6339ddc-f98c-4c3e-bf25-b80a10a52296","system_id":"levelo_inurba_marseille","lat":43.304534,"lon":5.379104,"is_reserved":false,"is_disabled":false,"rental_uris":{"android":"levelo://app?vid=f6339ddc-f98c-4c3e-bf25-b80a10a52296","ios":"levelo://app?vid=f6339ddc-f98c-4c3e-bf25-b80a10a52296"},"vehicle_type_id":"4","last_reported":1706285320,"current_range_meters":0,"station_id":"ce4bgup2rcd13ifvqcn0","pricing_plan_id":"free"},{"bike_id":"67dd0fec-772d-4a91-8e6f-add2eae29409","system_id":"levelo_inurba_marseille","lat":43.324771,"lon":5.36557,"is_reserved":false,"is_disabled":false,"rental_uris":{"android":"levelo://app?vid=67dd0fec-772d-4a91-8e6f-add2eae29409","ios":"levelo://app?vid=67dd0fec-772d-4a91-8e6f-add2eae29409"},"vehicle_type_id":"4","last_reported":1706285320,"current_range_meters":12400,"station_id":"ce4bhs12rcd13ifvqhvg","pricing_plan_id":"free"},{"bike_id":"02ea73c2-1a52-49f6-a8f6-c5beeceb283c","system_id":"levelo_inurba_marseille","lat":43.302784,"lon":5.377158,"is_reserved":false,"is_disabled":false,"rental_uris":{"android":"levelo://app?vid=02ea73c2-1a52-49f6-a8f6-c5beeceb283c","ios":"levelo://app?vid=02ea73c2-1a52-49f6-a8f6-c5beeceb283c"},"vehicle_type_id":"4","last_reported":1706285320,"current_range_meters":6000,"station_id":"ce4bguh2rcd13ifvqcj0","pricing_plan_id":"free"},{"bike_id":"4c3ced0a-b5ba-4a47-8df4-ac3a4ac85548","system_id":"levelo_inurba_marseille","lat":43.302784,"lon":5.377158,"is_reserved":false,"is_disabled":false,"rental_uris":{"android":"levelo://app?vid=4c3ced0a-b5ba-4a47-8df4-ac3a4ac85548","ios":"levelo://app?vid=4c3ced0a-b5ba-4a47-8df4-ac3a4ac85548"},"vehicle_type_id":"4","last_reported":1706285320,"current_range_meters":20400,"station_id":"ce4bguh2rcd13ifvqcj0","pricing_plan_id":"free"},{"bike_id":"fc51b747-b33f-40c9-9c2c-bd6f886bc3e2","system_id":"levelo_inurba_marseille","lat":43.319884,"lon":5.381423,"is_reserved":false,"is_disabled":false,"rental_uris":{"android":"levelo://app?vid=fc51b747-b33f-40c9-9c2c-bd6f886bc3e2","ios":"levelo://app?vid=fc51b747-b33f-40c9-9c2c-bd6f886bc3e2"},"vehicle_type_id":"4","last_reported":1706285320,"current_range_meters":14000,"station_id":"ce4bhr12rcd13ifvqhpg","pricing_plan_id":"free"},{"bike_id":"3ce3e68d-0313-40cb-afa9-858c717ce4c9","system_id":"levelo_inurba_marseille","lat":43.319935,"lon":5.381699,"is_reserved":false,"is_disabled":false,"rental_uris":{"android":"levelo://app?vid=3ce3e68d-0313-40cb-afa9-858c717ce4c9","ios":"levelo://app?vid=3ce3e68d-0313-40cb-afa9-858c717ce4c9"},"vehicle_type_id":"4","last_reported":1706285320,"current_range_meters":9200,"station_id":"ce4bhr12rcd13ifvqhpg","pricing_plan_id":"free"},{"bike_id":"fd388e30-6c90-4fbf-abdf-dd15ef425659","system_id":"levelo_inurba_marseille","lat":43.319967,"lon":5.381565,"is_reserved":false,"is_disabled":false,"rental_uris":{"android":"levelo://app?vid=fd388e30-6c90-4fbf-abdf-dd15ef425659","ios":"levelo://app?vid=fd388e30-6c90-4fbf-abdf-dd15ef425659"},"vehicle_type_id":"4","last_reported":1706285320,"current_range_meters":10000,"station_id":"ce4bhr12rcd13ifvqhpg","pricing_plan_id":"free"},{"bike_id":"01533f59-2c23-4279-b5fa-c0608335cf09","system_id":"levelo_inurba_marseille","lat":43.320003,"lon":5.381535,"is_reserved":false,"is_disabled":false,"rental_uris":{"android":"levelo://app?vid=01533f59-2c23-4279-b5fa-c0608335cf09","ios":"levelo://app?vid=01533f59-2c23-4279-b5fa-c0608335cf09"},"vehicle_type_id":"4","last_reported":1706285320,"current_range_meters":1600,"station_id":"ce4bhr12rcd13ifvqhpg","pricing_plan_id":"free"},{"bike_id":"c332e8d1-00d4-4f46-bb13-67d5515bd1ba","system_id":"levelo_inurba_marseille","lat":43.313571,"lon":5.384829,"is_reserved":false,"is_disabled":false,"rental_uris":{"android":"levelo://app?vid=c332e8d1-00d4-4f46-bb13-67d5515bd1ba","ios":"levelo://app?vid=c332e8d1-00d4-4f46-bb13-67d5515bd1ba"},"vehicle_type_id":"4","last_reported":1706285320,"current_range_meters":12800,"station_id":"ce4bgt92rcd13ifvqcf0","pricing_plan_id":"free"},{"bike_id":"a22110d3-034a-4019-93b3-0ce31288a751","system_id":"levelo_inurba_marseille","lat":43.313571,"lon":5.384829,"is_reserved":false,"is_disabled":false,"rental_uris":{"android":"levelo://app?vid=a22110d3-034a-4019-93b3-0ce31288a751","ios":"levelo://app?vid=a22110d3-034a-4019-93b3-0ce31288a751"},"vehicle_type_id":"4","last_reported":1706285320,"current_range_meters":15600,"station_id":"ce4bgt92rcd13ifvqcf0","pricing_plan_id":"free"},{"bike_id":"b1ac4457-938e-4fba-ac56-f2b7a8b8bd29","system_id":"levelo_inurba_marseille","lat":43.299222,"lon":5.365554,"is_reserved":false,"is_disabled":false,"rental_uris":{"android":"levelo://app?vid=b1ac4457-938e-4fba-ac56-f2b7a8b8bd29","ios":"levelo://app?vid=b1ac4457-938e-4fba-ac56-f2b7a8b8bd29"},"vehicle_type_id":"4","last_reported":1706285320,"current_range_meters":26400,"station_id":"ce4bgm92rcd13ifvqbr0","pricing_plan_id":"free"},{"bike_id":"ad377639-929d-4486-a080-d47abb26a6ad","system_id":"levelo_inurba_marseille","lat":43.299724,"lon":5.371829,"is_reserved":false,"is_disabled":false,"rental_uris":{"android":"levelo://app?vid=ad377639-929d-4486-a080-d47abb26a6ad","ios":"levelo://app?vid=ad377639-929d-4486-a080-d47abb26a6ad"},"vehicle_type_id":"4","last_reported":1706285320,"current_range_meters":4400,"station_id":"ce4bgr92rcd13ifvqc7g","pricing_plan_id":"free"},{"bike_id":"0d284a52-5089-4fd1-88db-0246eea44b0f","system_id":"levelo_inurba_marseille","lat":43.299724,"lon":5.371829,"is_reserved":false,"is_disabled":false,"rental_uris":{"android":"levelo://app?vid=0d284a52-5089-4fd1-88db-0246eea44b0f","ios":"levelo://app?vid=0d284a52-5089-4fd1-88db-0246eea44b0f"},"vehicle_type_id":"4","last_reported":1706285320,"current_range_meters":26800,"station_id":"ce4bgr92rcd13ifvqc7g","pricing_plan_id":"free"},{"bike_id":"f998be67-a16d-4db7-a041-4be4653003fb","system_id":"levelo_inurba_marseille","lat":43.299724,"lon":5.371829,"is_reserved":false,"is_disabled":false,"rental_uris":{"android":"levelo://app?vid=f998be67-a16d-4db7-a041-4be4653003fb","ios":"levelo://app?vid=f998be67-a16d-4db7-a041-4be4653003fb"},"vehicle_type_id":"4","last_reported":1706285320,"current_range_meters":9200,"station_id":"ce4bgr92rcd13ifvqc7g","pricing_plan_id":"free"},{"bike_id":"da29485a-0ff9-4c06-b09e-49469afdd682","system_id":"levelo_inurba_marseille","lat":43.299724,"lon":5.371829,"is_reserved":false,"is_disabled":false,"rental_uris":{"android":"levelo://app?vid=da29485a-0ff9-4c06-b09e-49469afdd682","ios":"levelo://app?vid=da29485a-0ff9-4c06-b09e-49469afdd682"},"vehicle_type_id":"4","last_reported":1706285320,"current_range_meters":25600,"station_id":"ce4bgr92rcd13ifvqc7g","pricing_plan_id":"free"},{"bike_id":"de8fda47-6a2a-4e70-96bc-63642cb933ab","system_id":"levelo_inurba_marseille","lat":43.299724,"lon":5.371829,"is_reserved":false,"is_disabled":false,"rental_uris":{"android":"levelo://app?vid=de8fda47-6a2a-4e70-96bc-63642cb933ab","ios":"levelo://app?vid=de8fda47-6a2a-4e70-96bc-63642cb933ab"},"vehicle_type_id":"4","last_reported":1706285320,"current_range_meters":3600,"station_id":"ce4bgr92rcd13ifvqc7g","pricing_plan_id":"free"},{"bike_id":"86ca605a-48b3-433c-9666-07c3c5ac4379","system_id":"levelo_inurba_marseille","lat":43.318408,"lon":5.38427,"is_reserved":false,"is_disabled":false,"rental_uris":{"android":"levelo://app?vid=86ca605a-48b3-433c-9666-07c3c5ac4379","ios":"levelo://app?vid=86ca605a-48b3-433c-9666-07c3c5ac4379"},"vehicle_type_id":"4","last_reported":1706285320,"current_range_meters":1200,"station_id":"","pricing_plan_id":"free"},{"bike_id":"2cd87d6f-f99e-49cc-bf07-a3877f0730f5","system_id":"levelo_inurba_marseille","lat":43.305364,"lon":5.384119,"is_reserved":false,"is_disabled":false,"rental_uris":{"android":"levelo://app?vid=2cd87d6f-f99e-49cc-bf07-a3877f0730f5","ios":"levelo://app?vid=2cd87d6f-f99e-49cc-bf07-a3877f0730f5"},"vehicle_type_id":"4","last_reported":1706285320,"current_range_meters":25200,"station_id":"ce4bgg92rcd13ifvqb30","pricing_plan_id":"free"},{"bike_id":"2f57bff3-211c-4461-ba79-5dd94b8234e7","system_id":"levelo_inurba_marseille","lat":43.311722,"lon":5.387247,"is_reserved":false,"is_disabled":false,"rental_uris":{"android":"levelo://app?vid=2f57bff3-211c-4461-ba79-5dd94b8234e7","ios":"levelo://app?vid=2f57bff3-211c-4461-ba79-5dd94b8234e7"},"vehicle_type_id":"4","last_reported":1706285320,"current_range_meters":26800,"station_id":"ce4bgv12rcd13ifvqcp0","pricing_plan_id":"free"},{"bike_id":"a0a1b9d2-c088-4104-b00e-de10fc1d46da","system_id":"levelo_inurba_marseille","lat":43.311724,"lon":5.38717,"is_reserved":false,"is_disabled":false,"rental_uris":{"android":"levelo://app?vid=a0a1b9d2-c088-4104-b00e-de10fc1d46da","ios":"levelo://app?vid=a0a1b9d2-c088-4104-b00e-de10fc1d46da"},"vehicle_type_id":"4","last_reported":1706285320,"current_range_meters":16400,"station_id":"ce4bgv12rcd13ifvqcp0","pricing_plan_id":"free"},{"bike_id":"ff3e431b-0675-4e7a-b583-4c9691d17e3a","system_id":"levelo_inurba_marseille","lat":43.311722,"lon":5.387247,"is_reserved":false,"is_disabled":false,"rental_uris":{"android":"levelo://app?vid=ff3e431b-0675-4e7a-b583-4c9691d17e3a","ios":"levelo://app?vid=ff3e431b-0675-4e7a-b583-4c9691d17e3a"},"vehicle_type_id":"4","last_reported":1706285320,"current_range_meters":22400,"station_id":"ce4bgv12rcd13ifvqcp0","pricing_plan_id":"free"},{"bike_id":"ddf4682a-b82e-4df9-8962-0676e0d93ee1","system_id":"levelo_inurba_marseille","lat":43.297774,"lon":5.370875,"is_reserved":false,"is_disabled":false,"rental_uris":{"android":"levelo://app?vid=ddf4682a-b82e-4df9-8962-0676e0d93ee1","ios":"levelo://app?vid=ddf4682a-b82e-4df9-8962-0676e0d93ee1"},"vehicle_type_id":"4","last_reported":1706285320,"current_range_meters":3200,"station_id":"ce4bgop2rcd13ifvqc1g","pricing_plan_id":"free"},{"bike_id":"6048f879-62cf-47e3-a798-60e1ba33a714","system_id":"levelo_inurba_marseille","lat":43.328371,"lon":5.366909,"is_reserved":false,"is_disabled":false,"rental_uris":{"android":"levelo://app?vid=6048f879-62cf-47e3-a798-60e1ba33a714","ios":"levelo://app?vid=6048f879-62cf-47e3-a798-60e1ba33a714"},"vehicle_type_id":"4","last_reported":1706285320,"current_range_meters":30800,"station_id":"ce4bhs92rcd13ifvqi0g","pricing_plan_id":"free"},{"bike_id":"c26ab9ea-55f3-41aa-af56-893d04c83d1e","system_id":"levelo_inurba_marseille","lat":43.297163,"lon":5.365866,"is_reserved":false,"is_disabled":false,"rental_uris":{"android":"levelo://app?vid=c26ab9ea-55f3-41aa-af56-893d04c83d1e","ios":"levelo://app?vid=c26ab9ea-55f3-41aa-af56-893d04c83d1e"},"vehicle_type_id":"4","last_reported":1706285320,"current_range_meters":25600,"station_id":"ce4bgn12rcd13ifvqbt0","pricing_plan_id":"free"},{"bike_id":"914d72db-ac4f-45b1-b4ff-eea208177d9d","system_id":"levelo_inurba_marseille","lat":43.297163,"lon":5.365866,"is_reserved":false,"is_disabled":false,"rental_uris":{"android":"levelo://app?vid=914d72db-ac4f-45b1-b4ff-eea208177d9d","ios":"levelo://app?vid=914d72db-ac4f-45b1-b4ff-eea208177d9d"},"vehicle_type_id":"4","last_reported":1706285320,"current_range_meters":20000,"station_id":"ce4bgn12rcd13ifvqbt0","pricing_plan_id":"free"},{"bike_id":"fc8c4c87-f2fa-450d-86c9-67e828e8f0fc","system_id":"levelo_inurba_marseille","lat":43.29573,"lon":5.367355,"is_reserved":false,"is_disabled":false,"rental_uris":{"android":"levelo://app?vid=fc8c4c87-f2fa-450d-86c9-67e828e8f0fc","ios":"levelo://app?vid=fc8c4c87-f2fa-450d-86c9-67e828e8f0fc"},"vehicle_type_id":"4","last_reported":1706285320,"current_range_meters":18400,"station_id":"ce4bgph2rcd13ifvqc2g","pricing_plan_id":"free"},{"bike_id":"4a69eb63-9136-44d6-ab61-e1cea34c949f","system_id":"levelo_inurba_marseille","lat":43.29573,"lon":5.367355,"is_reserved":false,"is_disabled":false,"rental_uris":{"android":"levelo://app?vid=4a69eb63-9136-44d6-ab61-e1cea34c949f","ios":"levelo://app?vid=4a69eb63-9136-44d6-ab61-e1cea34c949f"},"vehicle_type_id":"4","last_reported":1706285320,"current_range_meters":16400,"station_id":"ce4bgph2rcd13ifvqc2g","pricing_plan_id":"free"},{"bike_id":"86af1008-9c37-42ba-b7f9-905e88fabe20","system_id":"levelo_inurba_marseille","lat":43.29573,"lon":5.367355,"is_reserved":false,"is_disabled":false,"rental_uris":{"android":"levelo://app?vid=86af1008-9c37-42ba-b7f9-905e88fabe20","ios":"levelo://app?vid=86af1008-9c37-42ba-b7f9-905e88fabe20"},"vehicle_type_id":"4","last_reported":1706285320,"current_range_meters":12000,"station_id":"ce4bgph2rcd13ifvqc2g","pricing_plan_id":"free"},{"bike_id":"71c5f9f9-b53e-4664-81a9-cbc1b756435e","system_id":"levelo_inurba_marseille","lat":43.29573,"lon":5.367355,"is_reserved":false,"is_disabled":false,"rental_uris":{"android":"levelo://app?vid=71c5f9f9-b53e-4664-81a9-cbc1b756435e","ios":"levelo://app?vid=71c5f9f9-b53e-4664-81a9-cbc1b756435e"},"vehicle_type_id":"4","last_reported":1706285320,"current_range_meters":14800,"station_id":"ce4bgph2rcd13ifvqc2g","pricing_plan_id":"free"},{"bike_id":"cb1ddb84-77da-4b98-ba97-ec7373ddfc28","system_id":"levelo_inurba_marseille","lat":43.305315,"lon":5.388545,"is_reserved":false,"is_disabled":false,"rental_uris":{"android":"levelo://app?vid=cb1ddb84-77da-4b98-ba97-ec7373ddfc28","ios":"levelo://app?vid=cb1ddb84-77da-4b98-ba97-ec7373ddfc28"},"vehicle_type_id":"4","last_reported":1706285320,"current_range_meters":5200,"station_id":"","pricing_plan_id":"free"},{"bike_id":"d1c46a63-33a4-465e-8602-645fe9e89bd0","system_id":"levelo_inurba_marseille","lat":43.317557,"lon":5.390173,"is_reserved":false,"is_disabled":false,"rental_uris":{"android":"levelo://app?vid=d1c46a63-33a4-465e-8602-645fe9e89bd0","ios":"levelo://app?vid=d1c46a63-33a4-465e-8602-645fe9e89bd0"},"vehicle_type_id":"4","last_reported":1706285320,"current_range_meters":20800,"station_id":"ce4bhqp2rcd13ifvqhng","pricing_plan_id":"free"},{"bike_id":"216c585f-0fe5-4cc1-8e4c-9a47ffde4dac","system_id":"levelo_inurba_marseille","lat":43.317557,"lon":5.390173,"is_reserved":false,"is_disabled":false,"rental_uris":{"android":"levelo://app?vid=216c585f-0fe5-4cc1-8e4c-9a47ffde4dac","ios":"levelo://app?vid=216c585f-0fe5-4cc1-8e4c-9a47ffde4dac"},"vehicle_type_id":"4","last_reported":1706285320,"current_range_meters":24000,"station_id":"ce4bhqp2rcd13ifvqhng","pricing_plan_id":"free"},{"bike_id":"9eee8bba-9f6c-4442-90f7-b9b7f8a147bb","system_id":"levelo_inurba_marseille","lat":43.317557,"lon":5.390173,"is_reserved":false,"is_disabled":false,"rental_uris":{"android":"levelo://app?vid=9eee8bba-9f6c-4442-90f7-b9b7f8a147bb","ios":"levelo://app?vid=9eee8bba-9f6c-4442-90f7-b9b7f8a147bb"},"vehicle_type_id":"4","last_reported":1706285320,"current_range_meters":22400,"station_id":"ce4bhqp2rcd13ifvqhng","pricing_plan_id":"free"},{"bike_id":"6356eb48-1cbc-4ae8-a585-58dc417434e6","system_id":"levelo_inurba_marseille","lat":43.31762,"lon":5.39014,"is_reserved":false,"is_disabled":false,"rental_uris":{"android":"levelo://app?vid=6356eb48-1cbc-4ae8-a585-58dc417434e6","ios":"levelo://app?vid=6356eb48-1cbc-4ae8-a585-58dc417434e6"},"vehicle_type_id":"4","last_reported":1706285320,"current_range_meters":8400,"station_id":"ce4bhqp2rcd13ifvqhng","pricing_plan_id":"free"},{"bike_id":"2ceb589a-5d1f-4b41-8731-91dde3244961","system_id":"levelo_inurba_marseille","lat":43.317557,"lon":5.390173,"is_reserved":false,"is_disabled":false,"rental_uris":{"android":"levelo://app?vid=2ceb589a-5d1f-4b41-8731-91dde3244961","ios":"levelo://app?vid=2ceb589a-5d1f-4b41-8731-91dde3244961"},"vehicle_type_id":"4","last_reported":1706285320,"current_range_meters":18000,"station_id":"ce4bhqp2rcd13ifvqhng","pricing_plan_id":"free"},{"bike_id":"6ac052fe-29ce-47b8-aa0e-177675cb42a9","system_id":"levelo_inurba_marseille","lat":43.298037,"lon":5.381066,"is_reserved":false,"is_disabled":false,"rental_uris":{"android":"levelo://app?vid=6ac052fe-29ce-47b8-aa0e-177675cb42a9","ios":"levelo://app?vid=6ac052fe-29ce-47b8-aa0e-177675cb42a9"},"vehicle_type_id":"4","last_reported":1706285320,"current_range_meters":12400,"station_id":"ce4bgip2rcd13ifvqbb0","pricing_plan_id":"free"},{"bike_id":"de362fa6-713e-42f5-ac75-504f3d93f634","system_id":"levelo_inurba_marseille","lat":43.29793,"lon":5.38087,"is_reserved":false,"is_disabled":false,"rental_uris":{"android":"levelo://app?vid=de362fa6-713e-42f5-ac75-504f3d93f634","ios":"levelo://app?vid=de362fa6-713e-42f5-ac75-504f3d93f634"},"vehicle_type_id":"4","last_reported":1706285320,"current_range_meters":24000,"station_id":"ce4bgip2rcd13ifvqbb0","pricing_plan_id":"free"},{"bike_id":"e381c7e8-d010-45cc-9024-eb5220f2e071","system_id":"levelo_inurba_marseille","lat":43.29694,"lon":5.37875,"is_reserved":false,"is_disabled":false,"rental_uris":{"android":"levelo://app?vid=e381c7e8-d010-45cc-9024-eb5220f2e071","ios":"levelo://app?vid=e381c7e8-d010-45cc-9024-eb5220f2e071"},"vehicle_type_id":"4","last_reported":1706285320,"current_range_meters":0,"station_id":"","pricing_plan_id":"free"},{"bike_id":"0cc5e760-3938-45db-be5a-a8bca8a493b8","system_id":"levelo_inurba_marseille","lat":43.298037,"lon":5.381066,"is_reserved":false,"is_disabled":false,"rental_uris":{"android":"levelo://app?vid=0cc5e760-3938-45db-be5a-a8bca8a493b8","ios":"levelo://app?vid=0cc5e760-3938-45db-be5a-a8bca8a493b8"},"vehicle_type_id":"4","last_reported":1706285320,"current_range_meters":14400,"station_id":"ce4bgip2rcd13ifvqbb0","pricing_plan_id":"free"},{"bike_id":"a063bbb0-1e70-4c13-a890-e317686c9518","system_id":"levelo_inurba_marseille","lat":43.299707,"lon":5.384859,"is_reserved":false,"is_disabled":false,"rental_uris":{"android":"levelo://app?vid=a063bbb0-1e70-4c13-a890-e317686c9518","ios":"levelo://app?vid=a063bbb0-1e70-4c13-a890-e317686c9518"},"vehicle_type_id":"4","last_reported":1706285320,"current_range_meters":2000,"station_id":"ce4bgj92rcd13ifvqbd0","pricing_plan_id":"free"},{"bike_id":"eb139c3f-4e26-498b-9062-05e48b898dfa","system_id":"levelo_inurba_marseille","lat":43.29977,"lon":5.38492,"is_reserved":false,"is_disabled":false,"rental_uris":{"android":"levelo://app?vid=eb139c3f-4e26-498b-9062-05e48b898dfa","ios":"levelo://app?vid=eb139c3f-4e26-498b-9062-05e48b898dfa"},"vehicle_type_id":"4","last_reported":1706285320,"current_range_meters":800,"station_id":"ce4bgj92rcd13ifvqbd0","pricing_plan_id":"free"},{"bike_id":"12b07fb3-8ac6-420e-af0e-bfc92c56b9c8","system_id":"levelo_inurba_marseille","lat":43.299717,"lon":5.384845,"is_reserved":false,"is_disabled":false,"rental_uris":{"android":"levelo://app?vid=12b07fb3-8ac6-420e-af0e-bfc92c56b9c8","ios":"levelo://app?vid=12b07fb3-8ac6-420e-af0e-bfc92c56b9c8"},"vehicle_type_id":"4","last_reported":1706285320,"current_range_meters":14400,"station_id":"ce4bgj92rcd13ifvqbd0","pricing_plan_id":"free"},{"bike_id":"1f7d3dee-144a-4eb2-88fc-ab5446062787","system_id":"levelo_inurba_marseille","lat":43.29969,"lon":5.38499,"is_reserved":false,"is_disabled":false,"rental_uris":{"android":"levelo://app?vid=1f7d3dee-144a-4eb2-88fc-ab5446062787","ios":"levelo://app?vid=1f7d3dee-144a-4eb2-88fc-ab5446062787"},"vehicle_type_id":"4","last_reported":1706285320,"current_range_meters":6800,"station_id":"ce4bgj92rcd13ifvqbd0","pricing_plan_id":"free"},{"bike_id":"40996b4a-fac6-4cc2-a8e8-9a9ba72f10c9","system_id":"levelo_inurba_marseille","lat":43.298614,"lon":5.383962,"is_reserved":false,"is_disabled":false,"rental_uris":{"android":"levelo://app?vid=40996b4a-fac6-4cc2-a8e8-9a9ba72f10c9","ios":"levelo://app?vid=40996b4a-fac6-4cc2-a8e8-9a9ba72f10c9"},"vehicle_type_id":"4","last_reported":1706285320,"current_range_meters":12400,"station_id":"","pricing_plan_id":"free"},{"bike_id":"0ea3fd81-3f73-43eb-a24e-cc7fa2617f9d","system_id":"levelo_inurba_marseille","lat":43.32367,"lon":5.388836,"is_reserved":false,"is_disabled":false,"rental_uris":{"android":"levelo://app?vid=0ea3fd81-3f73-43eb-a24e-cc7fa2617f9d","ios":"levelo://app?vid=0ea3fd81-3f73-43eb-a24e-cc7fa2617f9d"},"vehicle_type_id":"4","last_reported":1706285320,"current_range_meters":8400,"station_id":"ce4bhqp2rcd13ifvqhog","pricing_plan_id":"free"},{"bike_id":"6d4e98a9-3b8c-4251-9bc4-f50fadfe25a7","system_id":"levelo_inurba_marseille","lat":43.32367,"lon":5.388836,"is_reserved":false,"is_disabled":false,"rental_uris":{"android":"levelo://app?vid=6d4e98a9-3b8c-4251-9bc4-f50fadfe25a7","ios":"levelo://app?vid=6d4e98a9-3b8c-4251-9bc4-f50fadfe25a7"},"vehicle_type_id":"4","last_reported":1706285320,"current_range_meters":24400,"station_id":"ce4bhqp2rcd13ifvqhog","pricing_plan_id":"free"},{"bike_id":"093c130e-4f2a-4443-a4e9-622aa3d2e066","system_id":"levelo_inurba_marseille","lat":43.29602,"lon":5.381084,"is_reserved":false,"is_disabled":false,"rental_uris":{"android":"levelo://app?vid=093c130e-4f2a-4443-a4e9-622aa3d2e066","ios":"levelo://app?vid=093c130e-4f2a-4443-a4e9-622aa3d2e066"},"vehicle_type_id":"4","last_reported":1706285320,"current_range_meters":21600,"station_id":"ce4bgl12rcd13ifvqbo0","pricing_plan_id":"free"},{"bike_id":"22e0bc64-9e41-4624-ba61-96de346bb831","system_id":"levelo_inurba_marseille","lat":43.292762,"lon":5.368422,"is_reserved":false,"is_disabled":false,"rental_uris":{"android":"levelo://app?vid=22e0bc64-9e41-4624-ba61-96de346bb831","ios":"levelo://app?vid=22e0bc64-9e41-4624-ba61-96de346bb831"},"vehicle_type_id":"4","last_reported":1706285320,"current_range_meters":20800,"station_id":"ce4bhbp2rcd13ifvqesg","pricing_plan_id":"free"},{"bike_id":"0dbf9e9b-a8aa-4025-bdd1-9bd662af92c5","system_id":"levelo_inurba_marseille","lat":43.292749,"lon":5.368402,"is_reserved":false,"is_disabled":false,"rental_uris":{"android":"levelo://app?vid=0dbf9e9b-a8aa-4025-bdd1-9bd662af92c5","ios":"levelo://app?vid=0dbf9e9b-a8aa-4025-bdd1-9bd662af92c5"},"vehicle_type_id":"4","last_reported":1706285320,"current_range_meters":19200,"station_id":"ce4bhbp2rcd13ifvqesg","pricing_plan_id":"free"},{"bike_id":"77af66a2-d6cb-4baa-9a4c-cf352f3cb5db","system_id":"levelo_inurba_marseille","lat":43.292749,"lon":5.368402,"is_reserved":false,"is_disabled":false,"rental_uris":{"android":"levelo://app?vid=77af66a2-d6cb-4baa-9a4c-cf352f3cb5db","ios":"levelo://app?vid=77af66a2-d6cb-4baa-9a4c-cf352f3cb5db"},"vehicle_type_id":"4","last_reported":1706285320,"current_range_meters":16400,"station_id":"ce4bhbp2rcd13ifvqesg","pricing_plan_id":"free"},{"bike_id":"7af4857b-de63-404c-881e-d54b20bd0a23","system_id":"levelo_inurba_marseille","lat":43.292749,"lon":5.368402,"is_reserved":false,"is_disabled":false,"rental_uris":{"android":"levelo://app?vid=7af4857b-de63-404c-881e-d54b20bd0a23","ios":"levelo://app?vid=7af4857b-de63-404c-881e-d54b20bd0a23"},"vehicle_type_id":"4","last_reported":1706285320,"current_range_meters":13600,"station_id":"ce4bhbp2rcd13ifvqesg","pricing_plan_id":"free"},{"bike_id":"c4ff95d5-6a1d-4430-b499-85b025b5ec0b","system_id":"levelo_inurba_marseille","lat":43.292749,"lon":5.368402,"is_reserved":false,"is_disabled":false,"rental_uris":{"android":"levelo://app?vid=c4ff95d5-6a1d-4430-b499-85b025b5ec0b","ios":"levelo://app?vid=c4ff95d5-6a1d-4430-b499-85b025b5ec0b"},"vehicle_type_id":"4","last_reported":1706285320,"current_range_meters":20000,"station_id":"ce4bhbp2rcd13ifvqesg","pricing_plan_id":"free"},{"bike_id":"1a8e372a-8909-4f82-8950-84965d6252c3","system_id":"levelo_inurba_marseille","lat":43.292749,"lon":5.368402,"is_reserved":false,"is_disabled":false,"rental_uris":{"android":"levelo://app?vid=1a8e372a-8909-4f82-8950-84965d6252c3","ios":"levelo://app?vid=1a8e372a-8909-4f82-8950-84965d6252c3"},"vehicle_type_id":"4","last_reported":1706285320,"current_range_meters":29200,"station_id":"ce4bhbp2rcd13ifvqesg","pricing_plan_id":"free"},{"bike_id":"d86b9e27-eedc-4aa8-89bb-d4b1d1b6ab95","system_id":"levelo_inurba_marseille","lat":43.292749,"lon":5.368402,"is_reserved":false,"is_disabled":false,"rental_uris":{"android":"levelo://app?vid=d86b9e27-eedc-4aa8-89bb-d4b1d1b6ab95","ios":"levelo://app?vid=d86b9e27-eedc-4aa8-89bb-d4b1d1b6ab95"},"vehicle_type_id":"4","last_reported":1706285320,"current_range_meters":2800,"station_id":"ce4bhbp2rcd13ifvqesg","pricing_plan_id":"free"},{"bike_id":"240c5b26-b709-4c94-9f60-cc0bccc4d347","system_id":"levelo_inurba_marseille","lat":43.293009,"lon":5.374584,"is_reserved":false,"is_disabled":false,"rental_uris":{"android":"levelo://app?vid=240c5b26-b709-4c94-9f60-cc0bccc4d347","ios":"levelo://app?vid=240c5b26-b709-4c94-9f60-cc0bccc4d347"},"vehicle_type_id":"4","last_reported":1706285320,"current_range_meters":1200,"station_id":"ce4bgi12rcd13ifvqb70","pricing_plan_id":"free"},{"bike_id":"c348b474-244c-4ea9-beb2-6f23cb52648f","system_id":"levelo_inurba_marseille","lat":43.30099,"lon":5.39076,"is_reserved":false,"is_disabled":false,"rental_uris":{"android":"levelo://app?vid=c348b474-244c-4ea9-beb2-6f23cb52648f","ios":"levelo://app?vid=c348b474-244c-4ea9-beb2-6f23cb52648f"},"vehicle_type_id":"4","last_reported":1706285320,"current_range_meters":26400,"station_id":"ce4bh192rcd13ifvqdb0","pricing_plan_id":"free"},{"bike_id":"8f3c79d7-6699-4366-ac2a-c257b6f09fa6","system_id":"levelo_inurba_marseille","lat":43.30093,"lon":5.39076,"is_reserved":false,"is_disabled":false,"rental_uris":{"android":"levelo://app?vid=8f3c79d7-6699-4366-ac2a-c257b6f09fa6","ios":"levelo://app?vid=8f3c79d7-6699-4366-ac2a-c257b6f09fa6"},"vehicle_type_id":"4","last_reported":1706285320,"current_range_meters":18800,"station_id":"ce4bh192rcd13ifvqdb0","pricing_plan_id":"free"},{"bike_id":"0b61dc40-37a3-49a8-8e0d-1ebaa5873097","system_id":"levelo_inurba_marseille","lat":43.292311,"lon":5.360731,"is_reserved":false,"is_disabled":false,"rental_uris":{"android":"levelo://app?vid=0b61dc40-37a3-49a8-8e0d-1ebaa5873097","ios":"levelo://app?vid=0b61dc40-37a3-49a8-8e0d-1ebaa5873097"},"vehicle_type_id":"4","last_reported":1706285320,"current_range_meters":0,"station_id":"ce4bhbh2rcd13ifvqeqg","pricing_plan_id":"free"},{"bike_id":"33eb5899-2263-4601-8070-0871b2140d8c","system_id":"levelo_inurba_marseille","lat":43.292311,"lon":5.360731,"is_reserved":false,"is_disabled":false,"rental_uris":{"android":"levelo://app?vid=33eb5899-2263-4601-8070-0871b2140d8c","ios":"levelo://app?vid=33eb5899-2263-4601-8070-0871b2140d8c"},"vehicle_type_id":"4","last_reported":1706285320,"current_range_meters":0,"station_id":"ce4bhbh2rcd13ifvqeqg","pricing_plan_id":"free"},{"bike_id":"d9574e74-497b-4c65-880a-6cd5f7de2243","system_id":"levelo_inurba_marseille","lat":43.300888,"lon":5.39089,"is_reserved":false,"is_disabled":false,"rental_uris":{"android":"levelo://app?vid=d9574e74-497b-4c65-880a-6cd5f7de2243","ios":"levelo://app?vid=d9574e74-497b-4c65-880a-6cd5f7de2243"},"vehicle_type_id":"4","last_reported":1706285320,"current_range_meters":17600,"station_id":"ce4bh192rcd13ifvqdb0","pricing_plan_id":"free"},{"bike_id":"f43bc4b9-69b4-4c2e-a7f1-390317b11d36","system_id":"levelo_inurba_marseille","lat":43.2926,"lon":5.376142,"is_reserved":false,"is_disabled":false,"rental_uris":{"android":"levelo://app?vid=f43bc4b9-69b4-4c2e-a7f1-390317b11d36","ios":"levelo://app?vid=f43bc4b9-69b4-4c2e-a7f1-390317b11d36"},"vehicle_type_id":"4","last_reported":1706285320,"current_range_meters":20800,"station_id":"ce4bgi12rcd13ifvqb70","pricing_plan_id":"free"},{"bike_id":"dc3cdda6-b374-4590-bc42-e72bf74d4d97","system_id":"levelo_inurba_marseille","lat":43.291671,"lon":5.371575,"is_reserved":false,"is_disabled":false,"rental_uris":{"android":"levelo://app?vid=dc3cdda6-b374-4590-bc42-e72bf74d4d97","ios":"levelo://app?vid=dc3cdda6-b374-4590-bc42-e72bf74d4d97"},"vehicle_type_id":"4","last_reported":1706285320,"current_range_meters":6800,"station_id":"ce4bha92rcd13ifvqeh0","pricing_plan_id":"free"},{"bike_id":"2cdd5039-e8ec-441b-9bd5-4c34b690b828","system_id":"levelo_inurba_marseille","lat":43.304908,"lon":5.394226,"is_reserved":false,"is_disabled":false,"rental_uris":{"android":"levelo://app?vid=2cdd5039-e8ec-441b-9bd5-4c34b690b828","ios":"levelo://app?vid=2cdd5039-e8ec-441b-9bd5-4c34b690b828"},"vehicle_type_id":"4","last_reported":1706285320,"current_range_meters":24000,"station_id":"","pricing_plan_id":"free"},{"bike_id":"6a6457f5-1cbd-4e5f-b6d0-33ac5bb78613","system_id":"levelo_inurba_marseille","lat":43.291994,"lon":5.357886,"is_reserved":false,"is_disabled":false,"rental_uris":{"android":"levelo://app?vid=6a6457f5-1cbd-4e5f-b6d0-33ac5bb78613","ios":"levelo://app?vid=6a6457f5-1cbd-4e5f-b6d0-33ac5bb78613"},"vehicle_type_id":"4","last_reported":1706285320,"current_range_meters":2800,"station_id":"ce4bhb12rcd13ifvqel0","pricing_plan_id":"free"},{"bike_id":"403c6df2-3072-45e0-ae45-6b211b00b687","system_id":"levelo_inurba_marseille","lat":43.313291,"lon":5.396838,"is_reserved":false,"is_disabled":false,"rental_uris":{"android":"levelo://app?vid=403c6df2-3072-45e0-ae45-6b211b00b687","ios":"levelo://app?vid=403c6df2-3072-45e0-ae45-6b211b00b687"},"vehicle_type_id":"4","last_reported":1706285320,"current_range_meters":24000,"station_id":"ce4bgvp2rcd13ifvqcu0","pricing_plan_id":"free"},{"bike_id":"15417d4b-46da-4da9-82a2-0e8a7fb3a800","system_id":"levelo_inurba_marseille","lat":43.313291,"lon":5.396838,"is_reserved":false,"is_disabled":false,"rental_uris":{"android":"levelo://app?vid=15417d4b-46da-4da9-82a2-0e8a7fb3a800","ios":"levelo://app?vid=15417d4b-46da-4da9-82a2-0e8a7fb3a800"},"vehicle_type_id":"4","last_reported":1706285320,"current_range_meters":24800,"station_id":"ce4bgvp2rcd13ifvqcu0","pricing_plan_id":"free"},{"bike_id":"a2ad11db-5050-4410-b2fc-bb25eaae3284","system_id":"levelo_inurba_marseille","lat":43.313291,"lon":5.396838,"is_reserved":false,"is_disabled":false,"rental_uris":{"android":"levelo://app?vid=a2ad11db-5050-4410-b2fc-bb25eaae3284","ios":"levelo://app?vid=a2ad11db-5050-4410-b2fc-bb25eaae3284"},"vehicle_type_id":"4","last_reported":1706285320,"current_range_meters":20400,"station_id":"ce4bgvp2rcd13ifvqcu0","pricing_plan_id":"free"},{"bike_id":"bacf894d-260b-4df2-af85-01d0dce98ddc","system_id":"levelo_inurba_marseille","lat":43.309038,"lon":5.396546,"is_reserved":false,"is_disabled":false,"rental_uris":{"android":"levelo://app?vid=bacf894d-260b-4df2-af85-01d0dce98ddc","ios":"levelo://app?vid=bacf894d-260b-4df2-af85-01d0dce98ddc"},"vehicle_type_id":"4","last_reported":1706285320,"current_range_meters":18400,"station_id":"ce4bh012rcd13ifvqcv0","pricing_plan_id":"free"},{"bike_id":"a69cece6-1cc8-4671-99b0-0a6636d1f12b","system_id":"levelo_inurba_marseille","lat":43.309038,"lon":5.396546,"is_reserved":false,"is_disabled":false,"rental_uris":{"android":"levelo://app?vid=a69cece6-1cc8-4671-99b0-0a6636d1f12b","ios":"levelo://app?vid=a69cece6-1cc8-4671-99b0-0a6636d1f12b"},"vehicle_type_id":"4","last_reported":1706285320,"current_range_meters":22000,"station_id":"ce4bh012rcd13ifvqcv0","pricing_plan_id":"free"},{"bike_id":"4f75e040-43a8-4d6f-9722-cc9172879977","system_id":"levelo_inurba_marseille","lat":43.290624,"lon":5.359245,"is_reserved":false,"is_disabled":false,"rental_uris":{"android":"levelo://app?vid=4f75e040-43a8-4d6f-9722-cc9172879977","ios":"levelo://app?vid=4f75e040-43a8-4d6f-9722-cc9172879977"},"vehicle_type_id":"4","last_reported":1706285320,"current_range_meters":6000,"station_id":"ce4bha92rcd13ifvqeg0","pricing_plan_id":"free"},{"bike_id":"fda64318-eabc-48b8-9963-265c6cf7e02d","system_id":"levelo_inurba_marseille","lat":43.290327,"lon":5.375711,"is_reserved":false,"is_disabled":false,"rental_uris":{"android":"levelo://app?vid=fda64318-eabc-48b8-9963-265c6cf7e02d","ios":"levelo://app?vid=fda64318-eabc-48b8-9963-265c6cf7e02d"},"vehicle_type_id":"4","last_reported":1706285320,"current_range_meters":7200,"station_id":"ce4bh692rcd13ifvqe90","pricing_plan_id":"free"},{"bike_id":"3e9e9e5b-18a8-4bfb-abb7-3bdedb07dac7","system_id":"levelo_inurba_marseille","lat":43.29259,"lon":5.38437,"is_reserved":false,"is_disabled":false,"rental_uris":{"android":"levelo://app?vid=3e9e9e5b-18a8-4bfb-abb7-3bdedb07dac7","ios":"levelo://app?vid=3e9e9e5b-18a8-4bfb-abb7-3bdedb07dac7"},"vehicle_type_id":"4","last_reported":1706285320,"current_range_meters":0,"station_id":"ce4bh692rcd13ifvqea0","pricing_plan_id":"free"},{"bike_id":"d3d89656-d433-4349-9e84-0ddfdb7de13e","system_id":"levelo_inurba_marseille","lat":43.290103,"lon":5.356114,"is_reserved":false,"is_disabled":false,"rental_uris":{"android":"levelo://app?vid=d3d89656-d433-4349-9e84-0ddfdb7de13e","ios":"levelo://app?vid=d3d89656-d433-4349-9e84-0ddfdb7de13e"},"vehicle_type_id":"4","last_reported":1706285320,"current_range_meters":0,"station_id":"ce4bhb92rcd13ifvqen0","pricing_plan_id":"free"},{"bike_id":"2784ecb4-8f9e-4add-9330-04ef567bc49f","system_id":"levelo_inurba_marseille","lat":43.290104,"lon":5.356111,"is_reserved":false,"is_disabled":false,"rental_uris":{"android":"levelo://app?vid=2784ecb4-8f9e-4add-9330-04ef567bc49f","ios":"levelo://app?vid=2784ecb4-8f9e-4add-9330-04ef567bc49f"},"vehicle_type_id":"4","last_reported":1706285320,"current_range_meters":7600,"station_id":"ce4bhb92rcd13ifvqen0","pricing_plan_id":"free"},{"bike_id":"3ea37155-32aa-445e-a3fe-20c450995c18","system_id":"levelo_inurba_marseille","lat":43.29004,"lon":5.35611,"is_reserved":false,"is_disabled":false,"rental_uris":{"android":"levelo://app?vid=3ea37155-32aa-445e-a3fe-20c450995c18","ios":"levelo://app?vid=3ea37155-32aa-445e-a3fe-20c450995c18"},"vehicle_type_id":"4","last_reported":1706285320,"current_range_meters":14800,"station_id":"","pricing_plan_id":"free"},{"bike_id":"852a7094-307e-4517-96e4-ab32e113a0e9","system_id":"levelo_inurba_marseille","lat":43.290104,"lon":5.356111,"is_reserved":false,"is_disabled":false,"rental_uris":{"android":"levelo://app?vid=852a7094-307e-4517-96e4-ab32e113a0e9","ios":"levelo://app?vid=852a7094-307e-4517-96e4-ab32e113a0e9"},"vehicle_type_id":"4","last_reported":1706285320,"current_range_meters":400,"station_id":"ce4bhb92rcd13ifvqen0","pricing_plan_id":"free"},{"bike_id":"37c3a40e-ffb4-4be6-b759-e870126d05db","system_id":"levelo_inurba_marseille","lat":43.290103,"lon":5.356114,"is_reserved":false,"is_disabled":false,"rental_uris":{"android":"levelo://app?vid=37c3a40e-ffb4-4be6-b759-e870126d05db","ios":"levelo://app?vid=37c3a40e-ffb4-4be6-b759-e870126d05db"},"vehicle_type_id":"4","last_reported":1706285320,"current_range_meters":800,"station_id":"ce4bhb92rcd13ifvqen0","pricing_plan_id":"free"},{"bike_id":"7154f6e6-ff5b-4e1f-a0ff-2ad14da36a7d","system_id":"levelo_inurba_marseille","lat":43.290104,"lon":5.356111,"is_reserved":false,"is_disabled":false,"rental_uris":{"android":"levelo://app?vid=7154f6e6-ff5b-4e1f-a0ff-2ad14da36a7d","ios":"levelo://app?vid=7154f6e6-ff5b-4e1f-a0ff-2ad14da36a7d"},"vehicle_type_id":"4","last_reported":1706285320,"current_range_meters":10800,"station_id":"ce4bhb92rcd13ifvqen0","pricing_plan_id":"free"},{"bike_id":"d10ae0ed-5f4a-40f8-9a0b-51057e10f348","system_id":"levelo_inurba_marseille","lat":43.290104,"lon":5.356111,"is_reserved":false,"is_disabled":false,"rental_uris":{"android":"levelo://app?vid=d10ae0ed-5f4a-40f8-9a0b-51057e10f348","ios":"levelo://app?vid=d10ae0ed-5f4a-40f8-9a0b-51057e10f348"},"vehicle_type_id":"4","last_reported":1706285320,"current_range_meters":14800,"station_id":"ce4bhb92rcd13ifvqen0","pricing_plan_id":"free"},{"bike_id":"fa521e29-dd48-4fb3-9e24-174593695292","system_id":"levelo_inurba_marseille","lat":43.290103,"lon":5.356114,"is_reserved":false,"is_disabled":false,"rental_uris":{"android":"levelo://app?vid=fa521e29-dd48-4fb3-9e24-174593695292","ios":"levelo://app?vid=fa521e29-dd48-4fb3-9e24-174593695292"},"vehicle_type_id":"4","last_reported":1706285320,"current_range_meters":23200,"station_id":"ce4bhb92rcd13ifvqen0","pricing_plan_id":"free"},{"bike_id":"67a5fdd1-ee10-4c30-a27f-7357e6e29322","system_id":"levelo_inurba_marseille","lat":43.28995,"lon":5.35602,"is_reserved":false,"is_disabled":false,"rental_uris":{"android":"levelo://app?vid=67a5fdd1-ee10-4c30-a27f-7357e6e29322","ios":"levelo://app?vid=67a5fdd1-ee10-4c30-a27f-7357e6e29322"},"vehicle_type_id":"4","last_reported":1706285320,"current_range_meters":0,"station_id":"ce4bhb92rcd13ifvqen0","pricing_plan_id":"free"},{"bike_id":"65841eab-b5a5-4713-9319-6bde420e3288","system_id":"levelo_inurba_marseille","lat":43.29788,"lon":5.39337,"is_reserved":false,"is_disabled":false,"rental_uris":{"android":"levelo://app?vid=65841eab-b5a5-4713-9319-6bde420e3288","ios":"levelo://app?vid=65841eab-b5a5-4713-9319-6bde420e3288"},"vehicle_type_id":"4","last_reported":1706285320,"current_range_meters":24800,"station_id":"chh1huq6cuj3fo74tm60","pricing_plan_id":"free"},{"bike_id":"52d4633a-8477-4e91-adba-b7ca16f695fb","system_id":"levelo_inurba_marseille","lat":43.29787,"lon":5.3934,"is_reserved":false,"is_disabled":false,"rental_uris":{"android":"levelo://app?vid=52d4633a-8477-4e91-adba-b7ca16f695fb","ios":"levelo://app?vid=52d4633a-8477-4e91-adba-b7ca16f695fb"},"vehicle_type_id":"4","last_reported":1706285320,"current_range_meters":0,"station_id":"chh1huq6cuj3fo74tm60","pricing_plan_id":"free"},{"bike_id":"ef0e193f-929b-4e83-bf80-4785652f9b3b","system_id":"levelo_inurba_marseille","lat":43.29781,"lon":5.39335,"is_reserved":false,"is_disabled":false,"rental_uris":{"android":"levelo://app?vid=ef0e193f-929b-4e83-bf80-4785652f9b3b","ios":"levelo://app?vid=ef0e193f-929b-4e83-bf80-4785652f9b3b"},"vehicle_type_id":"4","last_reported":1706285320,"current_range_meters":0,"station_id":"chh1huq6cuj3fo74tm60","pricing_plan_id":"free"},{"bike_id":"716badff-eb4f-4120-9de8-57cbfe848be2","system_id":"levelo_inurba_marseille","lat":43.29781,"lon":5.39338,"is_reserved":false,"is_disabled":false,"rental_uris":{"android":"levelo://app?vid=716badff-eb4f-4120-9de8-57cbfe848be2","ios":"levelo://app?vid=716badff-eb4f-4120-9de8-57cbfe848be2"},"vehicle_type_id":"4","last_reported":1706285320,"current_range_meters":11200,"station_id":"chh1huq6cuj3fo74tm60","pricing_plan_id":"free"},{"bike_id":"fc9c45bc-3a60-4f5c-a4f5-166ec8be1396","system_id":"levelo_inurba_marseille","lat":43.29774,"lon":5.39333,"is_reserved":false,"is_disabled":false,"rental_uris":{"android":"levelo://app?vid=fc9c45bc-3a60-4f5c-a4f5-166ec8be1396","ios":"levelo://app?vid=fc9c45bc-3a60-4f5c-a4f5-166ec8be1396"},"vehicle_type_id":"4","last_reported":1706285320,"current_range_meters":23600,"station_id":"chh1huq6cuj3fo74tm60","pricing_plan_id":"free"},{"bike_id":"5cac4158-935d-4fb7-9950-b41309d3eaf8","system_id":"levelo_inurba_marseille","lat":43.330442,"lon":5.389148,"is_reserved":false,"is_disabled":false,"rental_uris":{"android":"levelo://app?vid=5cac4158-935d-4fb7-9950-b41309d3eaf8","ios":"levelo://app?vid=5cac4158-935d-4fb7-9950-b41309d3eaf8"},"vehicle_type_id":"4","last_reported":1706285320,"current_range_meters":12400,"station_id":"ce4bhr92rcd13ifvqhrg","pricing_plan_id":"free"},{"bike_id":"0bbd5f12-9312-4d72-8ad2-a7b34a6102ca","system_id":"levelo_inurba_marseille","lat":43.29777,"lon":5.3934,"is_reserved":false,"is_disabled":false,"rental_uris":{"android":"levelo://app?vid=0bbd5f12-9312-4d72-8ad2-a7b34a6102ca","ios":"levelo://app?vid=0bbd5f12-9312-4d72-8ad2-a7b34a6102ca"},"vehicle_type_id":"4","last_reported":1706285320,"current_range_meters":0,"station_id":"chh1huq6cuj3fo74tm60","pricing_plan_id":"free"},{"bike_id":"216d90c4-73b3-4de5-aead-bd8b0c60cc67","system_id":"levelo_inurba_marseille","lat":43.290094,"lon":5.381264,"is_reserved":false,"is_disabled":false,"rental_uris":{"android":"levelo://app?vid=216d90c4-73b3-4de5-aead-bd8b0c60cc67","ios":"levelo://app?vid=216d90c4-73b3-4de5-aead-bd8b0c60cc67"},"vehicle_type_id":"4","last_reported":1706285320,"current_range_meters":18400,"station_id":"ce4bh4p2rcd13ifvqe1g","pricing_plan_id":"free"},{"bike_id":"6e06f553-f807-4cf9-bfff-0d0364c5d479","system_id":"levelo_inurba_marseille","lat":43.28856,"lon":5.358371,"is_reserved":false,"is_disabled":false,"rental_uris":{"android":"levelo://app?vid=6e06f553-f807-4cf9-bfff-0d0364c5d479","ios":"levelo://app?vid=6e06f553-f807-4cf9-bfff-0d0364c5d479"},"vehicle_type_id":"4","last_reported":1706285320,"current_range_meters":2000,"station_id":"ce4bhb12rcd13ifvqem0","pricing_plan_id":"free"},{"bike_id":"ef873048-b62f-4a6c-ba75-e3e5729feaf1","system_id":"levelo_inurba_marseille","lat":43.28856,"lon":5.358371,"is_reserved":false,"is_disabled":false,"rental_uris":{"android":"levelo://app?vid=ef873048-b62f-4a6c-ba75-e3e5729feaf1","ios":"levelo://app?vid=ef873048-b62f-4a6c-ba75-e3e5729feaf1"},"vehicle_type_id":"4","last_reported":1706285320,"current_range_meters":8800,"station_id":"ce4bhb12rcd13ifvqem0","pricing_plan_id":"free"},{"bike_id":"17064ae3-8022-4a0d-a051-1edfa102b86d","system_id":"levelo_inurba_marseille","lat":43.309224,"lon":5.401362,"is_reserved":false,"is_disabled":false,"rental_uris":{"android":"levelo://app?vid=17064ae3-8022-4a0d-a051-1edfa102b86d","ios":"levelo://app?vid=17064ae3-8022-4a0d-a051-1edfa102b86d"},"vehicle_type_id":"4","last_reported":1706285320,"current_range_meters":16400,"station_id":"ce4bgvp2rcd13ifvqct0","pricing_plan_id":"free"},{"bike_id":"b9494bfd-c595-4aa2-9139-ca21eccacf3d","system_id":"levelo_inurba_marseille","lat":43.312609,"lon":5.401662,"is_reserved":false,"is_disabled":false,"rental_uris":{"android":"levelo://app?vid=b9494bfd-c595-4aa2-9139-ca21eccacf3d","ios":"levelo://app?vid=b9494bfd-c595-4aa2-9139-ca21eccacf3d"},"vehicle_type_id":"4","last_reported":1706285320,"current_range_meters":21200,"station_id":"ce4bh092rcd13ifvqd30","pricing_plan_id":"free"},{"bike_id":"aebfd9f5-01d1-4e4d-af2b-513a08366402","system_id":"levelo_inurba_marseille","lat":43.309371,"lon":5.401449,"is_reserved":false,"is_disabled":false,"rental_uris":{"android":"levelo://app?vid=aebfd9f5-01d1-4e4d-af2b-513a08366402","ios":"levelo://app?vid=aebfd9f5-01d1-4e4d-af2b-513a08366402"},"vehicle_type_id":"4","last_reported":1706285320,"current_range_meters":800,"station_id":"ce4bgvp2rcd13ifvqct0","pricing_plan_id":"free"},{"bike_id":"90ab6077-6d05-417d-8e2f-04fe7c372cdf","system_id":"levelo_inurba_marseille","lat":43.309371,"lon":5.401449,"is_reserved":false,"is_disabled":false,"rental_uris":{"android":"levelo://app?vid=90ab6077-6d05-417d-8e2f-04fe7c372cdf","ios":"levelo://app?vid=90ab6077-6d05-417d-8e2f-04fe7c372cdf"},"vehicle_type_id":"4","last_reported":1706285320,"current_range_meters":6800,"station_id":"ce4bgvp2rcd13ifvqct0","pricing_plan_id":"free"},{"bike_id":"ff45774e-e88b-4dc6-9588-400a81130eab","system_id":"levelo_inurba_marseille","lat":43.30929,"lon":5.40145,"is_reserved":false,"is_disabled":false,"rental_uris":{"android":"levelo://app?vid=ff45774e-e88b-4dc6-9588-400a81130eab","ios":"levelo://app?vid=ff45774e-e88b-4dc6-9588-400a81130eab"},"vehicle_type_id":"4","last_reported":1706285320,"current_range_meters":4800,"station_id":"ce4bgvp2rcd13ifvqct0","pricing_plan_id":"free"},{"bike_id":"c4b216b0-d1cd-464f-be83-8343917584ea","system_id":"levelo_inurba_marseille","lat":43.298681,"lon":5.397225,"is_reserved":false,"is_disabled":false,"rental_uris":{"android":"levelo://app?vid=c4b216b0-d1cd-464f-be83-8343917584ea","ios":"levelo://app?vid=c4b216b0-d1cd-464f-be83-8343917584ea"},"vehicle_type_id":"4","last_reported":1706285320,"current_range_meters":20000,"station_id":"ce4bh0h2rcd13ifvqd50","pricing_plan_id":"free"},{"bike_id":"615def67-475d-4bf5-bfc3-f5f7a58a8014","system_id":"levelo_inurba_marseille","lat":43.30642,"lon":5.401031,"is_reserved":false,"is_disabled":false,"rental_uris":{"android":"levelo://app?vid=615def67-475d-4bf5-bfc3-f5f7a58a8014","ios":"levelo://app?vid=615def67-475d-4bf5-bfc3-f5f7a58a8014"},"vehicle_type_id":"4","last_reported":1706285320,"current_range_meters":8400,"station_id":"ce4bh112rcd13ifvqda0","pricing_plan_id":"free"},{"bike_id":"b7f12eab-e0a6-499e-87ec-2b4381c4602a","system_id":"levelo_inurba_marseille","lat":43.33752,"lon":5.37478,"is_reserved":false,"is_disabled":false,"rental_uris":{"android":"levelo://app?vid=b7f12eab-e0a6-499e-87ec-2b4381c4602a","ios":"levelo://app?vid=b7f12eab-e0a6-499e-87ec-2b4381c4602a"},"vehicle_type_id":"4","last_reported":1706285320,"current_range_meters":28800,"station_id":"","pricing_plan_id":"free"},{"bike_id":"6a4c2b08-db7e-4d54-8995-355785483883","system_id":"levelo_inurba_marseille","lat":43.30642,"lon":5.401031,"is_reserved":false,"is_disabled":false,"rental_uris":{"android":"levelo://app?vid=6a4c2b08-db7e-4d54-8995-355785483883","ios":"levelo://app?vid=6a4c2b08-db7e-4d54-8995-355785483883"},"vehicle_type_id":"4","last_reported":1706285320,"current_range_meters":22800,"station_id":"ce4bh112rcd13ifvqda0","pricing_plan_id":"free"},{"bike_id":"b9d43a37-bea7-43f9-8850-2171d4c77f6e","system_id":"levelo_inurba_marseille","lat":43.337591,"lon":5.374581,"is_reserved":false,"is_disabled":false,"rental_uris":{"android":"levelo://app?vid=b9d43a37-bea7-43f9-8850-2171d4c77f6e","ios":"levelo://app?vid=b9d43a37-bea7-43f9-8850-2171d4c77f6e"},"vehicle_type_id":"4","last_reported":1706285320,"current_range_meters":27200,"station_id":"","pricing_plan_id":"free"},{"bike_id":"3218bf13-df5d-4e5a-91bc-797b616c7b22","system_id":"levelo_inurba_marseille","lat":43.30642,"lon":5.401031,"is_reserved":false,"is_disabled":false,"rental_uris":{"android":"levelo://app?vid=3218bf13-df5d-4e5a-91bc-797b616c7b22","ios":"levelo://app?vid=3218bf13-df5d-4e5a-91bc-797b616c7b22"},"vehicle_type_id":"4","last_reported":1706285320,"current_range_meters":13200,"station_id":"ce4bh112rcd13ifvqda0","pricing_plan_id":"free"},{"bike_id":"90e7ec13-de8a-4d04-b810-0e71868b885a","system_id":"levelo_inurba_marseille","lat":43.306412,"lon":5.401035,"is_reserved":false,"is_disabled":false,"rental_uris":{"android":"levelo://app?vid=90e7ec13-de8a-4d04-b810-0e71868b885a","ios":"levelo://app?vid=90e7ec13-de8a-4d04-b810-0e71868b885a"},"vehicle_type_id":"4","last_reported":1706285320,"current_range_meters":7200,"station_id":"ce4bh112rcd13ifvqda0","pricing_plan_id":"free"},{"bike_id":"9027d950-3f66-456b-9ac5-2a9e09db251f","system_id":"levelo_inurba_marseille","lat":43.30656,"lon":5.40112,"is_reserved":false,"is_disabled":false,"rental_uris":{"android":"levelo://app?vid=9027d950-3f66-456b-9ac5-2a9e09db251f","ios":"levelo://app?vid=9027d950-3f66-456b-9ac5-2a9e09db251f"},"vehicle_type_id":"4","last_reported":1706285320,"current_range_meters":4800,"station_id":"ce4bh112rcd13ifvqda0","pricing_plan_id":"free"},{"bike_id":"0e258464-bb2d-42e5-be64-3b958a4ef3fb","system_id":"levelo_inurba_marseille","lat":43.301117,"lon":5.398795,"is_reserved":false,"is_disabled":false,"rental_uris":{"android":"levelo://app?vid=0e258464-bb2d-42e5-be64-3b958a4ef3fb","ios":"levelo://app?vid=0e258464-bb2d-42e5-be64-3b958a4ef3fb"},"vehicle_type_id":"4","last_reported":1706285320,"current_range_meters":10800,"station_id":"ce4bh0h2rcd13ifvqd40","pricing_plan_id":"free"},{"bike_id":"41f75714-5d17-4dea-bd2e-2fd7e7521ca4","system_id":"levelo_inurba_marseille","lat":43.28727,"lon":5.36078,"is_reserved":false,"is_disabled":false,"rental_uris":{"android":"levelo://app?vid=41f75714-5d17-4dea-bd2e-2fd7e7521ca4","ios":"levelo://app?vid=41f75714-5d17-4dea-bd2e-2fd7e7521ca4"},"vehicle_type_id":"4","last_reported":1706285320,"current_range_meters":7200,"station_id":"cki0cbj6b192h4jlfktg","pricing_plan_id":"free"},{"bike_id":"9a905646-6458-41f7-b9ee-4139e0710744","system_id":"levelo_inurba_marseille","lat":43.306357,"lon":5.401743,"is_reserved":false,"is_disabled":false,"rental_uris":{"android":"levelo://app?vid=9a905646-6458-41f7-b9ee-4139e0710744","ios":"levelo://app?vid=9a905646-6458-41f7-b9ee-4139e0710744"},"vehicle_type_id":"4","last_reported":1706285320,"current_range_meters":17600,"station_id":"","pricing_plan_id":"free"},{"bike_id":"4053e9ee-b014-4af4-a580-356309fb228a","system_id":"levelo_inurba_marseille","lat":43.298681,"lon":5.397225,"is_reserved":false,"is_disabled":false,"rental_uris":{"android":"levelo://app?vid=4053e9ee-b014-4af4-a580-356309fb228a","ios":"levelo://app?vid=4053e9ee-b014-4af4-a580-356309fb228a"},"vehicle_type_id":"4","last_reported":1706285320,"current_range_meters":4000,"station_id":"ce4bh0h2rcd13ifvqd50","pricing_plan_id":"free"},{"bike_id":"ef2cae89-57d8-4147-8771-1bf58190d120","system_id":"levelo_inurba_marseille","lat":43.298681,"lon":5.397225,"is_reserved":false,"is_disabled":false,"rental_uris":{"android":"levelo://app?vid=ef2cae89-57d8-4147-8771-1bf58190d120","ios":"levelo://app?vid=ef2cae89-57d8-4147-8771-1bf58190d120"},"vehicle_type_id":"4","last_reported":1706285320,"current_range_meters":6400,"station_id":"ce4bh0h2rcd13ifvqd50","pricing_plan_id":"free"},{"bike_id":"ee617ade-0dd4-4fd8-b64d-1b7d7211d68b","system_id":"levelo_inurba_marseille","lat":43.286591,"lon":5.363346,"is_reserved":false,"is_disabled":false,"rental_uris":{"android":"levelo://app?vid=ee617ade-0dd4-4fd8-b64d-1b7d7211d68b","ios":"levelo://app?vid=ee617ade-0dd4-4fd8-b64d-1b7d7211d68b"},"vehicle_type_id":"4","last_reported":1706285320,"current_range_meters":4400,"station_id":"ce4bhah2rcd13ifvqej0","pricing_plan_id":"free"},{"bike_id":"e4fd258b-196a-4754-812c-1f6b982b87e4","system_id":"levelo_inurba_marseille","lat":43.298681,"lon":5.397225,"is_reserved":false,"is_disabled":false,"rental_uris":{"android":"levelo://app?vid=e4fd258b-196a-4754-812c-1f6b982b87e4","ios":"levelo://app?vid=e4fd258b-196a-4754-812c-1f6b982b87e4"},"vehicle_type_id":"4","last_reported":1706285320,"current_range_meters":20800,"station_id":"ce4bh0h2rcd13ifvqd50","pricing_plan_id":"free"},{"bike_id":"f3860d6e-fe6a-472a-8887-4053c1162f54","system_id":"levelo_inurba_marseille","lat":43.286593,"lon":5.363346,"is_reserved":false,"is_disabled":false,"rental_uris":{"android":"levelo://app?vid=f3860d6e-fe6a-472a-8887-4053c1162f54","ios":"levelo://app?vid=f3860d6e-fe6a-472a-8887-4053c1162f54"},"vehicle_type_id":"4","last_reported":1706285320,"current_range_meters":0,"station_id":"ce4bhah2rcd13ifvqej0","pricing_plan_id":"free"},{"bike_id":"d8d09eca-bd64-461c-b2a7-01acc50bf591","system_id":"levelo_inurba_marseille","lat":43.302759,"lon":5.400793,"is_reserved":false,"is_disabled":false,"rental_uris":{"android":"levelo://app?vid=d8d09eca-bd64-461c-b2a7-01acc50bf591","ios":"levelo://app?vid=d8d09eca-bd64-461c-b2a7-01acc50bf591"},"vehicle_type_id":"4","last_reported":1706285320,"current_range_meters":11200,"station_id":"ce4bgvh2rcd13ifvqcs0","pricing_plan_id":"free"},{"bike_id":"29532e8a-52f7-4ecc-8664-ce035cfac403","system_id":"levelo_inurba_marseille","lat":43.289307,"lon":5.38406,"is_reserved":false,"is_disabled":false,"rental_uris":{"android":"levelo://app?vid=29532e8a-52f7-4ecc-8664-ce035cfac403","ios":"levelo://app?vid=29532e8a-52f7-4ecc-8664-ce035cfac403"},"vehicle_type_id":"4","last_reported":1706285320,"current_range_meters":19600,"station_id":"ce4bh612rcd13ifvqe6g","pricing_plan_id":"free"},{"bike_id":"190be3fc-c971-43d4-974d-30032318b42f","system_id":"levelo_inurba_marseille","lat":43.290345,"lon":5.38646,"is_reserved":false,"is_disabled":false,"rental_uris":{"android":"levelo://app?vid=190be3fc-c971-43d4-974d-30032318b42f","ios":"levelo://app?vid=190be3fc-c971-43d4-974d-30032318b42f"},"vehicle_type_id":"4","last_reported":1706285320,"current_range_meters":0,"station_id":"ce4bh4p2rcd13ifvqe0g","pricing_plan_id":"free"},{"bike_id":"891fbc79-a0fa-45c6-94e4-6bb1c7931f15","system_id":"levelo_inurba_marseille","lat":43.290345,"lon":5.38646,"is_reserved":false,"is_disabled":false,"rental_uris":{"android":"levelo://app?vid=891fbc79-a0fa-45c6-94e4-6bb1c7931f15","ios":"levelo://app?vid=891fbc79-a0fa-45c6-94e4-6bb1c7931f15"},"vehicle_type_id":"4","last_reported":1706285320,"current_range_meters":800,"station_id":"ce4bh4p2rcd13ifvqe0g","pricing_plan_id":"free"},{"bike_id":"e2b9b7ae-f33d-49a2-98cf-215b98696d6a","system_id":"levelo_inurba_marseille","lat":43.290345,"lon":5.38646,"is_reserved":false,"is_disabled":false,"rental_uris":{"android":"levelo://app?vid=e2b9b7ae-f33d-49a2-98cf-215b98696d6a","ios":"levelo://app?vid=e2b9b7ae-f33d-49a2-98cf-215b98696d6a"},"vehicle_type_id":"4","last_reported":1706285320,"current_range_meters":2800,"station_id":"ce4bh4p2rcd13ifvqe0g","pricing_plan_id":"free"},{"bike_id":"f4281c7c-8493-40da-933b-751aef198f56","system_id":"levelo_inurba_marseille","lat":43.290345,"lon":5.38646,"is_reserved":false,"is_disabled":false,"rental_uris":{"android":"levelo://app?vid=f4281c7c-8493-40da-933b-751aef198f56","ios":"levelo://app?vid=f4281c7c-8493-40da-933b-751aef198f56"},"vehicle_type_id":"4","last_reported":1706285320,"current_range_meters":12400,"station_id":"ce4bh4p2rcd13ifvqe0g","pricing_plan_id":"free"},{"bike_id":"64aef954-5d06-4136-bf52-71f8cf76bfd7","system_id":"levelo_inurba_marseille","lat":43.289307,"lon":5.38406,"is_reserved":false,"is_disabled":false,"rental_uris":{"android":"levelo://app?vid=64aef954-5d06-4136-bf52-71f8cf76bfd7","ios":"levelo://app?vid=64aef954-5d06-4136-bf52-71f8cf76bfd7"},"vehicle_type_id":"4","last_reported":1706285320,"current_range_meters":16400,"station_id":"ce4bh612rcd13ifvqe6g","pricing_plan_id":"free"},{"bike_id":"cb34321a-c1ee-48d3-afb9-524ccc00da6c","system_id":"levelo_inurba_marseille","lat":43.290336,"lon":5.386425,"is_reserved":false,"is_disabled":false,"rental_uris":{"android":"levelo://app?vid=cb34321a-c1ee-48d3-afb9-524ccc00da6c","ios":"levelo://app?vid=cb34321a-c1ee-48d3-afb9-524ccc00da6c"},"vehicle_type_id":"4","last_reported":1706285320,"current_range_meters":6400,"station_id":"ce4bh4p2rcd13ifvqe0g","pricing_plan_id":"free"},{"bike_id":"6a7e93e3-41e3-4b20-a7b4-74d30671270d","system_id":"levelo_inurba_marseille","lat":43.286039,"lon":5.370681,"is_reserved":false,"is_disabled":false,"rental_uris":{"android":"levelo://app?vid=6a7e93e3-41e3-4b20-a7b4-74d30671270d","ios":"levelo://app?vid=6a7e93e3-41e3-4b20-a7b4-74d30671270d"},"vehicle_type_id":"4","last_reported":1706285320,"current_range_meters":11600,"station_id":"ce4bht12rcd13ifvqi60","pricing_plan_id":"free"},{"bike_id":"0f4ea219-fa7b-40fd-9389-7985d8c9865f","system_id":"levelo_inurba_marseille","lat":43.316821,"lon":5.404737,"is_reserved":false,"is_disabled":false,"rental_uris":{"android":"levelo://app?vid=0f4ea219-fa7b-40fd-9389-7985d8c9865f","ios":"levelo://app?vid=0f4ea219-fa7b-40fd-9389-7985d8c9865f"},"vehicle_type_id":"4","last_reported":1706285320,"current_range_meters":23200,"station_id":"ce4bh012rcd13ifvqd00","pricing_plan_id":"free"},{"bike_id":"fc57950b-8060-4d6d-ab57-1bfa2e4b6294","system_id":"levelo_inurba_marseille","lat":43.316821,"lon":5.404737,"is_reserved":false,"is_disabled":false,"rental_uris":{"android":"levelo://app?vid=fc57950b-8060-4d6d-ab57-1bfa2e4b6294","ios":"levelo://app?vid=fc57950b-8060-4d6d-ab57-1bfa2e4b6294"},"vehicle_type_id":"4","last_reported":1706285320,"current_range_meters":16800,"station_id":"ce4bh012rcd13ifvqd00","pricing_plan_id":"free"},{"bike_id":"974c555a-7775-4d9b-9d4c-eb89e499b402","system_id":"levelo_inurba_marseille","lat":43.291994,"lon":5.392907,"is_reserved":false,"is_disabled":false,"rental_uris":{"android":"levelo://app?vid=974c555a-7775-4d9b-9d4c-eb89e499b402","ios":"levelo://app?vid=974c555a-7775-4d9b-9d4c-eb89e499b402"},"vehicle_type_id":"4","last_reported":1706285320,"current_range_meters":4800,"station_id":"ce4bh192rcd13ifvqdd0","pricing_plan_id":"free"},{"bike_id":"40a89223-fb13-42bf-b650-7140f625ef25","system_id":"levelo_inurba_marseille","lat":43.291994,"lon":5.392907,"is_reserved":false,"is_disabled":false,"rental_uris":{"android":"levelo://app?vid=40a89223-fb13-42bf-b650-7140f625ef25","ios":"levelo://app?vid=40a89223-fb13-42bf-b650-7140f625ef25"},"vehicle_type_id":"4","last_reported":1706285320,"current_range_meters":14000,"station_id":"ce4bh192rcd13ifvqdd0","pricing_plan_id":"free"},{"bike_id":"3df523e9-bfb3-47a2-8d2c-273a497b93f8","system_id":"levelo_inurba_marseille","lat":43.291994,"lon":5.392907,"is_reserved":false,"is_disabled":false,"rental_uris":{"android":"levelo://app?vid=3df523e9-bfb3-47a2-8d2c-273a497b93f8","ios":"levelo://app?vid=3df523e9-bfb3-47a2-8d2c-273a497b93f8"},"vehicle_type_id":"4","last_reported":1706285320,"current_range_meters":3200,"station_id":"ce4bh192rcd13ifvqdd0","pricing_plan_id":"free"},{"bike_id":"85f1263d-e687-4a50-b95c-56dd699d151e","system_id":"levelo_inurba_marseille","lat":43.291994,"lon":5.392907,"is_reserved":false,"is_disabled":false,"rental_uris":{"android":"levelo://app?vid=85f1263d-e687-4a50-b95c-56dd699d151e","ios":"levelo://app?vid=85f1263d-e687-4a50-b95c-56dd699d151e"},"vehicle_type_id":"4","last_reported":1706285320,"current_range_meters":5600,"station_id":"ce4bh192rcd13ifvqdd0","pricing_plan_id":"free"},{"bike_id":"2936708a-680d-4e1e-aef7-37188de88c4c","system_id":"levelo_inurba_marseille","lat":43.28464,"lon":5.3588,"is_reserved":false,"is_disabled":false,"rental_uris":{"android":"levelo://app?vid=2936708a-680d-4e1e-aef7-37188de88c4c","ios":"levelo://app?vid=2936708a-680d-4e1e-aef7-37188de88c4c"},"vehicle_type_id":"4","last_reported":1706285320,"current_range_meters":0,"station_id":"ce4bhah2rcd13ifvqei0","pricing_plan_id":"free"},{"bike_id":"c07ae0f6-0514-49ac-a119-3be9db4c3f91","system_id":"levelo_inurba_marseille","lat":43.28462,"lon":5.35892,"is_reserved":false,"is_disabled":false,"rental_uris":{"android":"levelo://app?vid=c07ae0f6-0514-49ac-a119-3be9db4c3f91","ios":"levelo://app?vid=c07ae0f6-0514-49ac-a119-3be9db4c3f91"},"vehicle_type_id":"4","last_reported":1706285320,"current_range_meters":1600,"station_id":"ce4bhah2rcd13ifvqei0","pricing_plan_id":"free"},{"bike_id":"3c29331a-6007-43d6-a73f-5e1d13035bd6","system_id":"levelo_inurba_marseille","lat":43.28461,"lon":5.35884,"is_reserved":false,"is_disabled":false,"rental_uris":{"android":"levelo://app?vid=3c29331a-6007-43d6-a73f-5e1d13035bd6","ios":"levelo://app?vid=3c29331a-6007-43d6-a73f-5e1d13035bd6"},"vehicle_type_id":"4","last_reported":1706285320,"current_range_meters":2000,"station_id":"ce4bhah2rcd13ifvqei0","pricing_plan_id":"free"},{"bike_id":"97481e5b-6c30-46f4-8c4a-6cee1bbe44fb","system_id":"levelo_inurba_marseille","lat":43.28458,"lon":5.35884,"is_reserved":false,"is_disabled":false,"rental_uris":{"android":"levelo://app?vid=97481e5b-6c30-46f4-8c4a-6cee1bbe44fb","ios":"levelo://app?vid=97481e5b-6c30-46f4-8c4a-6cee1bbe44fb"},"vehicle_type_id":"4","last_reported":1706285320,"current_range_meters":22400,"station_id":"ce4bhah2rcd13ifvqei0","pricing_plan_id":"free"},{"bike_id":"9667454f-be70-47fd-9e86-185f20cde50a","system_id":"levelo_inurba_marseille","lat":43.28456,"lon":5.35892,"is_reserved":false,"is_disabled":false,"rental_uris":{"android":"levelo://app?vid=9667454f-be70-47fd-9e86-185f20cde50a","ios":"levelo://app?vid=9667454f-be70-47fd-9e86-185f20cde50a"},"vehicle_type_id":"4","last_reported":1706285320,"current_range_meters":24400,"station_id":"ce4bhah2rcd13ifvqei0","pricing_plan_id":"free"},{"bike_id":"04c807ae-04c1-4d15-96a9-d67048fc19b4","system_id":"levelo_inurba_marseille","lat":43.285848,"lon":5.350787,"is_reserved":false,"is_disabled":false,"rental_uris":{"android":"levelo://app?vid=04c807ae-04c1-4d15-96a9-d67048fc19b4","ios":"levelo://app?vid=04c807ae-04c1-4d15-96a9-d67048fc19b4"},"vehicle_type_id":"4","last_reported":1706285320,"current_range_meters":4400,"station_id":"ce4bhch2rcd13ifvqeug","pricing_plan_id":"free"},{"bike_id":"b21b77fb-b8a6-46e8-bcbc-5297880eba72","system_id":"levelo_inurba_marseille","lat":43.285848,"lon":5.350787,"is_reserved":false,"is_disabled":false,"rental_uris":{"android":"levelo://app?vid=b21b77fb-b8a6-46e8-bcbc-5297880eba72","ios":"levelo://app?vid=b21b77fb-b8a6-46e8-bcbc-5297880eba72"},"vehicle_type_id":"4","last_reported":1706285320,"current_range_meters":0,"station_id":"ce4bhch2rcd13ifvqeug","pricing_plan_id":"free"},{"bike_id":"d13ac71b-24e5-4553-aaa0-e3f36b6a2728","system_id":"levelo_inurba_marseille","lat":43.285848,"lon":5.350787,"is_reserved":false,"is_disabled":false,"rental_uris":{"android":"levelo://app?vid=d13ac71b-24e5-4553-aaa0-e3f36b6a2728","ios":"levelo://app?vid=d13ac71b-24e5-4553-aaa0-e3f36b6a2728"},"vehicle_type_id":"4","last_reported":1706285320,"current_range_meters":22400,"station_id":"ce4bhch2rcd13ifvqeug","pricing_plan_id":"free"},{"bike_id":"12839084-ab9d-4edc-8d01-ddd03409e093","system_id":"levelo_inurba_marseille","lat":43.28611,"lon":5.38331,"is_reserved":false,"is_disabled":false,"rental_uris":{"android":"levelo://app?vid=12839084-ab9d-4edc-8d01-ddd03409e093","ios":"levelo://app?vid=12839084-ab9d-4edc-8d01-ddd03409e093"},"vehicle_type_id":"4","last_reported":1706285320,"current_range_meters":15200,"station_id":"","pricing_plan_id":"free"},{"bike_id":"d68dfa8c-9b11-4279-95ba-b9f9d740fa4b","system_id":"levelo_inurba_marseille","lat":43.319179,"lon":5.407725,"is_reserved":false,"is_disabled":false,"rental_uris":{"android":"levelo://app?vid=d68dfa8c-9b11-4279-95ba-b9f9d740fa4b","ios":"levelo://app?vid=d68dfa8c-9b11-4279-95ba-b9f9d740fa4b"},"vehicle_type_id":"4","last_reported":1706285320,"current_range_meters":24800,"station_id":"ce4bhq12rcd13ifvqhig","pricing_plan_id":"free"},{"bike_id":"32edf36e-a27d-47fa-87e1-07d7d7c2f01a","system_id":"levelo_inurba_marseille","lat":43.323464,"lon":5.406297,"is_reserved":false,"is_disabled":false,"rental_uris":{"android":"levelo://app?vid=32edf36e-a27d-47fa-87e1-07d7d7c2f01a","ios":"levelo://app?vid=32edf36e-a27d-47fa-87e1-07d7d7c2f01a"},"vehicle_type_id":"4","last_reported":1706285320,"current_range_meters":30800,"station_id":"ce4bhq92rcd13ifvqhjg","pricing_plan_id":"free"},{"bike_id":"922fc25b-fabe-4adf-b4a3-80c59b96699e","system_id":"levelo_inurba_marseille","lat":43.337168,"lon":5.391825,"is_reserved":false,"is_disabled":false,"rental_uris":{"android":"levelo://app?vid=922fc25b-fabe-4adf-b4a3-80c59b96699e","ios":"levelo://app?vid=922fc25b-fabe-4adf-b4a3-80c59b96699e"},"vehicle_type_id":"4","last_reported":1706285320,"current_range_meters":26400,"station_id":"ce4bhr92rcd13ifvqhsg","pricing_plan_id":"free"},{"bike_id":"39d5b51b-a3f0-48bd-b347-a780de53c69b","system_id":"levelo_inurba_marseille","lat":43.323464,"lon":5.406297,"is_reserved":false,"is_disabled":false,"rental_uris":{"android":"levelo://app?vid=39d5b51b-a3f0-48bd-b347-a780de53c69b","ios":"levelo://app?vid=39d5b51b-a3f0-48bd-b347-a780de53c69b"},"vehicle_type_id":"4","last_reported":1706285320,"current_range_meters":27600,"station_id":"ce4bhq92rcd13ifvqhjg","pricing_plan_id":"free"},{"bike_id":"67413b43-878a-49d0-b1e5-0b41e2e6070d","system_id":"levelo_inurba_marseille","lat":43.323464,"lon":5.406297,"is_reserved":false,"is_disabled":false,"rental_uris":{"android":"levelo://app?vid=67413b43-878a-49d0-b1e5-0b41e2e6070d","ios":"levelo://app?vid=67413b43-878a-49d0-b1e5-0b41e2e6070d"},"vehicle_type_id":"4","last_reported":1706285320,"current_range_meters":18000,"station_id":"ce4bhq92rcd13ifvqhjg","pricing_plan_id":"free"},{"bike_id":"b4bd1ce7-26ad-41db-a915-a3b476b9e02e","system_id":"levelo_inurba_marseille","lat":43.323464,"lon":5.406297,"is_reserved":false,"is_disabled":false,"rental_uris":{"android":"levelo://app?vid=b4bd1ce7-26ad-41db-a915-a3b476b9e02e","ios":"levelo://app?vid=b4bd1ce7-26ad-41db-a915-a3b476b9e02e"},"vehicle_type_id":"4","last_reported":1706285320,"current_range_meters":31600,"station_id":"ce4bhq92rcd13ifvqhjg","pricing_plan_id":"free"},{"bike_id":"29c971f3-912e-4f79-8c22-d20e1f4b5d74","system_id":"levelo_inurba_marseille","lat":43.337168,"lon":5.391825,"is_reserved":false,"is_disabled":false,"rental_uris":{"android":"levelo://app?vid=29c971f3-912e-4f79-8c22-d20e1f4b5d74","ios":"levelo://app?vid=29c971f3-912e-4f79-8c22-d20e1f4b5d74"},"vehicle_type_id":"4","last_reported":1706285320,"current_range_meters":24400,"station_id":"ce4bhr92rcd13ifvqhsg","pricing_plan_id":"free"},{"bike_id":"6124beb4-af00-4a7d-a18e-9ab7c4542ec2","system_id":"levelo_inurba_marseille","lat":43.28472,"lon":5.38419,"is_reserved":false,"is_disabled":false,"rental_uris":{"android":"levelo://app?vid=6124beb4-af00-4a7d-a18e-9ab7c4542ec2","ios":"levelo://app?vid=6124beb4-af00-4a7d-a18e-9ab7c4542ec2"},"vehicle_type_id":"4","last_reported":1706285320,"current_range_meters":0,"station_id":"ce4bh512rcd13ifvqe3g","pricing_plan_id":"free"},{"bike_id":"a8690214-fd69-4ca2-ba35-cec8203245b6","system_id":"levelo_inurba_marseille","lat":43.288105,"lon":5.392156,"is_reserved":false,"is_disabled":false,"rental_uris":{"android":"levelo://app?vid=a8690214-fd69-4ca2-ba35-cec8203245b6","ios":"levelo://app?vid=a8690214-fd69-4ca2-ba35-cec8203245b6"},"vehicle_type_id":"4","last_reported":1706285320,"current_range_meters":15200,"station_id":"","pricing_plan_id":"free"},{"bike_id":"057f660e-1a4c-44ff-b8ee-3f5a39cb10bd","system_id":"levelo_inurba_marseille","lat":43.288501,"lon":5.393087,"is_reserved":false,"is_disabled":false,"rental_uris":{"android":"levelo://app?vid=057f660e-1a4c-44ff-b8ee-3f5a39cb10bd","ios":"levelo://app?vid=057f660e-1a4c-44ff-b8ee-3f5a39cb10bd"},"vehicle_type_id":"4","last_reported":1706285320,"current_range_meters":12800,"station_id":"ce4bh2p2rcd13ifvqdi0","pricing_plan_id":"free"},{"bike_id":"992b2c2d-9a77-4af2-ac2a-abdc06742183","system_id":"levelo_inurba_marseille","lat":43.28428,"lon":5.34997,"is_reserved":false,"is_disabled":false,"rental_uris":{"android":"levelo://app?vid=992b2c2d-9a77-4af2-ac2a-abdc06742183","ios":"levelo://app?vid=992b2c2d-9a77-4af2-ac2a-abdc06742183"},"vehicle_type_id":"4","last_reported":1706285320,"current_range_meters":20000,"station_id":"ce4bhbh2rcd13ifvqepg","pricing_plan_id":"free"},{"bike_id":"c8a4f706-f9a0-4566-88da-4b6370447d16","system_id":"levelo_inurba_marseille","lat":43.284214,"lon":5.349706,"is_reserved":false,"is_disabled":false,"rental_uris":{"android":"levelo://app?vid=c8a4f706-f9a0-4566-88da-4b6370447d16","ios":"levelo://app?vid=c8a4f706-f9a0-4566-88da-4b6370447d16"},"vehicle_type_id":"4","last_reported":1706285320,"current_range_meters":14400,"station_id":"ce4bhbh2rcd13ifvqepg","pricing_plan_id":"free"},{"bike_id":"937fbaaa-fd55-49a5-976d-59a9b44001c8","system_id":"levelo_inurba_marseille","lat":43.284217,"lon":5.349697,"is_reserved":false,"is_disabled":false,"rental_uris":{"android":"levelo://app?vid=937fbaaa-fd55-49a5-976d-59a9b44001c8","ios":"levelo://app?vid=937fbaaa-fd55-49a5-976d-59a9b44001c8"},"vehicle_type_id":"4","last_reported":1706285320,"current_range_meters":28000,"station_id":"ce4bhbh2rcd13ifvqepg","pricing_plan_id":"free"},{"bike_id":"c23e3c5f-d7ff-40c2-80ba-309670217130","system_id":"levelo_inurba_marseille","lat":43.284217,"lon":5.349697,"is_reserved":false,"is_disabled":false,"rental_uris":{"android":"levelo://app?vid=c23e3c5f-d7ff-40c2-80ba-309670217130","ios":"levelo://app?vid=c23e3c5f-d7ff-40c2-80ba-309670217130"},"vehicle_type_id":"4","last_reported":1706285320,"current_range_meters":30000,"station_id":"ce4bhbh2rcd13ifvqepg","pricing_plan_id":"free"},{"bike_id":"d0114db0-d38e-4e30-8ef0-61b4aaaee3c4","system_id":"levelo_inurba_marseille","lat":43.284217,"lon":5.349697,"is_reserved":false,"is_disabled":false,"rental_uris":{"android":"levelo://app?vid=d0114db0-d38e-4e30-8ef0-61b4aaaee3c4","ios":"levelo://app?vid=d0114db0-d38e-4e30-8ef0-61b4aaaee3c4"},"vehicle_type_id":"4","last_reported":1706285320,"current_range_meters":24400,"station_id":"ce4bhbh2rcd13ifvqepg","pricing_plan_id":"free"},{"bike_id":"b41bcd76-cb12-4b33-95cd-9444d1e23578","system_id":"levelo_inurba_marseille","lat":43.293556,"lon":5.401561,"is_reserved":false,"is_disabled":false,"rental_uris":{"android":"levelo://app?vid=b41bcd76-cb12-4b33-95cd-9444d1e23578","ios":"levelo://app?vid=b41bcd76-cb12-4b33-95cd-9444d1e23578"},"vehicle_type_id":"4","last_reported":1706285320,"current_range_meters":13200,"station_id":"","pricing_plan_id":"free"},{"bike_id":"9aa40e42-5e97-4a04-bc48-a032478869ce","system_id":"levelo_inurba_marseille","lat":43.292724,"lon":5.401131,"is_reserved":false,"is_disabled":false,"rental_uris":{"android":"levelo://app?vid=9aa40e42-5e97-4a04-bc48-a032478869ce","ios":"levelo://app?vid=9aa40e42-5e97-4a04-bc48-a032478869ce"},"vehicle_type_id":"4","last_reported":1706285320,"current_range_meters":4800,"station_id":"ce4bh312rcd13ifvqdk0","pricing_plan_id":"free"},{"bike_id":"99566a63-469d-4955-92f1-a4fd15963112","system_id":"levelo_inurba_marseille","lat":43.287962,"lon":5.395362,"is_reserved":false,"is_disabled":false,"rental_uris":{"android":"levelo://app?vid=99566a63-469d-4955-92f1-a4fd15963112","ios":"levelo://app?vid=99566a63-469d-4955-92f1-a4fd15963112"},"vehicle_type_id":"4","last_reported":1706285320,"current_range_meters":0,"station_id":"","pricing_plan_id":"free"},{"bike_id":"b579eaac-dd7c-4400-acd2-b6d622352c0d","system_id":"levelo_inurba_marseille","lat":43.282754,"lon":5.350519,"is_reserved":false,"is_disabled":false,"rental_uris":{"android":"levelo://app?vid=b579eaac-dd7c-4400-acd2-b6d622352c0d","ios":"levelo://app?vid=b579eaac-dd7c-4400-acd2-b6d622352c0d"},"vehicle_type_id":"4","last_reported":1706285320,"current_range_meters":1200,"station_id":"ce4bhbp2rcd13ifvqerg","pricing_plan_id":"free"},{"bike_id":"2019fce3-2d1b-4762-a13c-4ae2d7549e3e","system_id":"levelo_inurba_marseille","lat":43.282744,"lon":5.350533,"is_reserved":false,"is_disabled":false,"rental_uris":{"android":"levelo://app?vid=2019fce3-2d1b-4762-a13c-4ae2d7549e3e","ios":"levelo://app?vid=2019fce3-2d1b-4762-a13c-4ae2d7549e3e"},"vehicle_type_id":"4","last_reported":1706285320,"current_range_meters":8800,"station_id":"ce4bhbp2rcd13ifvqerg","pricing_plan_id":"free"},{"bike_id":"69316a1b-e6ab-4d61-8a58-568129ae6178","system_id":"levelo_inurba_marseille","lat":43.28039,"lon":5.369297,"is_reserved":false,"is_disabled":false,"rental_uris":{"android":"levelo://app?vid=69316a1b-e6ab-4d61-8a58-568129ae6178","ios":"levelo://app?vid=69316a1b-e6ab-4d61-8a58-568129ae6178"},"vehicle_type_id":"4","last_reported":1706285320,"current_range_meters":0,"station_id":"ce4bha12rcd13ifvqef0","pricing_plan_id":"free"},{"bike_id":"416772a6-7a0e-4df4-9e9f-614972da0b9c","system_id":"levelo_inurba_marseille","lat":43.281044,"lon":5.378308,"is_reserved":false,"is_disabled":false,"rental_uris":{"android":"levelo://app?vid=416772a6-7a0e-4df4-9e9f-614972da0b9c","ios":"levelo://app?vid=416772a6-7a0e-4df4-9e9f-614972da0b9c"},"vehicle_type_id":"4","last_reported":1706285320,"current_range_meters":29200,"station_id":"ce4bha12rcd13ifvqee0","pricing_plan_id":"free"},{"bike_id":"5017315e-7461-4d8c-a8a8-eca849d08657","system_id":"levelo_inurba_marseille","lat":43.281044,"lon":5.378308,"is_reserved":false,"is_disabled":false,"rental_uris":{"android":"levelo://app?vid=5017315e-7461-4d8c-a8a8-eca849d08657","ios":"levelo://app?vid=5017315e-7461-4d8c-a8a8-eca849d08657"},"vehicle_type_id":"4","last_reported":1706285320,"current_range_meters":7600,"station_id":"ce4bha12rcd13ifvqee0","pricing_plan_id":"free"},{"bike_id":"767d3196-4c51-4d57-90e5-77ffb7cb4578","system_id":"levelo_inurba_marseille","lat":43.296263,"lon":5.40601,"is_reserved":false,"is_disabled":false,"rental_uris":{"android":"levelo://app?vid=767d3196-4c51-4d57-90e5-77ffb7cb4578","ios":"levelo://app?vid=767d3196-4c51-4d57-90e5-77ffb7cb4578"},"vehicle_type_id":"4","last_reported":1706285320,"current_range_meters":16800,"station_id":"ce4bh0h2rcd13ifvqd60","pricing_plan_id":"free"},{"bike_id":"384f1b23-6a43-46e2-a9b8-bfa29e85ab78","system_id":"levelo_inurba_marseille","lat":43.284462,"lon":5.392121,"is_reserved":false,"is_disabled":false,"rental_uris":{"android":"levelo://app?vid=384f1b23-6a43-46e2-a9b8-bfa29e85ab78","ios":"levelo://app?vid=384f1b23-6a43-46e2-a9b8-bfa29e85ab78"},"vehicle_type_id":"4","last_reported":1706285320,"current_range_meters":17200,"station_id":"ce4bhoh2rcd13ifvqh5g","pricing_plan_id":"free"},{"bike_id":"4cc28649-2f51-440d-acee-9d4d21c202db","system_id":"levelo_inurba_marseille","lat":43.285742,"lon":5.395004,"is_reserved":false,"is_disabled":false,"rental_uris":{"android":"levelo://app?vid=4cc28649-2f51-440d-acee-9d4d21c202db","ios":"levelo://app?vid=4cc28649-2f51-440d-acee-9d4d21c202db"},"vehicle_type_id":"4","last_reported":1706285320,"current_range_meters":26400,"station_id":"ce4bh292rcd13ifvqdg0","pricing_plan_id":"free"},{"bike_id":"1ef856e0-c451-4123-81c7-7248e4e0c87a","system_id":"levelo_inurba_marseille","lat":43.326608,"lon":5.409885,"is_reserved":false,"is_disabled":false,"rental_uris":{"android":"levelo://app?vid=1ef856e0-c451-4123-81c7-7248e4e0c87a","ios":"levelo://app?vid=1ef856e0-c451-4123-81c7-7248e4e0c87a"},"vehicle_type_id":"4","last_reported":1706285320,"current_range_meters":30800,"station_id":"ce4bhpp2rcd13ifvqhgg","pricing_plan_id":"free"},{"bike_id":"73c96e17-bb1f-44e0-a970-f689ceab99bb","system_id":"levelo_inurba_marseille","lat":43.32659,"lon":5.4099,"is_reserved":false,"is_disabled":false,"rental_uris":{"android":"levelo://app?vid=73c96e17-bb1f-44e0-a970-f689ceab99bb","ios":"levelo://app?vid=73c96e17-bb1f-44e0-a970-f689ceab99bb"},"vehicle_type_id":"4","last_reported":1706285320,"current_range_meters":29600,"station_id":"ce4bhpp2rcd13ifvqhgg","pricing_plan_id":"free"},{"bike_id":"7fad673b-9b7a-444b-9242-673d9c2732fe","system_id":"levelo_inurba_marseille","lat":43.326617,"lon":5.409885,"is_reserved":false,"is_disabled":false,"rental_uris":{"android":"levelo://app?vid=7fad673b-9b7a-444b-9242-673d9c2732fe","ios":"levelo://app?vid=7fad673b-9b7a-444b-9242-673d9c2732fe"},"vehicle_type_id":"4","last_reported":1706285320,"current_range_meters":17600,"station_id":"ce4bhpp2rcd13ifvqhgg","pricing_plan_id":"free"},{"bike_id":"c230fe11-e04a-48d7-87a3-7f659a4375cc","system_id":"levelo_inurba_marseille","lat":43.32657,"lon":5.40998,"is_reserved":false,"is_disabled":false,"rental_uris":{"android":"levelo://app?vid=c230fe11-e04a-48d7-87a3-7f659a4375cc","ios":"levelo://app?vid=c230fe11-e04a-48d7-87a3-7f659a4375cc"},"vehicle_type_id":"4","last_reported":1706285320,"current_range_meters":19600,"station_id":"ce4bhpp2rcd13ifvqhgg","pricing_plan_id":"free"},{"bike_id":"259b22f4-f9ea-4474-8864-d20059830d64","system_id":"levelo_inurba_marseille","lat":43.304188,"lon":5.412904,"is_reserved":false,"is_disabled":false,"rental_uris":{"android":"levelo://app?vid=259b22f4-f9ea-4474-8864-d20059830d64","ios":"levelo://app?vid=259b22f4-f9ea-4474-8864-d20059830d64"},"vehicle_type_id":"4","last_reported":1706285320,"current_range_meters":22800,"station_id":"ce4bhop2rcd13ifvqh8g","pricing_plan_id":"free"},{"bike_id":"69f56406-88e5-4eee-af02-1ccde810f262","system_id":"levelo_inurba_marseille","lat":43.279087,"lon":5.380114,"is_reserved":false,"is_disabled":false,"rental_uris":{"android":"levelo://app?vid=69f56406-88e5-4eee-af02-1ccde810f262","ios":"levelo://app?vid=69f56406-88e5-4eee-af02-1ccde810f262"},"vehicle_type_id":"4","last_reported":1706285320,"current_range_meters":11600,"station_id":"ce4bhf92rcd13ifvqf50","pricing_plan_id":"free"},{"bike_id":"4b8b1c81-048f-4b6c-863e-bea53aab5dc3","system_id":"levelo_inurba_marseille","lat":43.2926,"lon":5.40906,"is_reserved":false,"is_disabled":false,"rental_uris":{"android":"levelo://app?vid=4b8b1c81-048f-4b6c-863e-bea53aab5dc3","ios":"levelo://app?vid=4b8b1c81-048f-4b6c-863e-bea53aab5dc3"},"vehicle_type_id":"4","last_reported":1706285320,"current_range_meters":12000,"station_id":"ce4bh192rcd13ifvqdc0","pricing_plan_id":"free"},{"bike_id":"7c30b2f2-cf93-4282-ba39-beeadc284c23","system_id":"levelo_inurba_marseille","lat":43.292571,"lon":5.409107,"is_reserved":false,"is_disabled":false,"rental_uris":{"android":"levelo://app?vid=7c30b2f2-cf93-4282-ba39-beeadc284c23","ios":"levelo://app?vid=7c30b2f2-cf93-4282-ba39-beeadc284c23"},"vehicle_type_id":"4","last_reported":1706285320,"current_range_meters":28000,"station_id":"ce4bh192rcd13ifvqdc0","pricing_plan_id":"free"},{"bike_id":"21eae715-679e-4375-9625-f4d5d5f63699","system_id":"levelo_inurba_marseille","lat":43.27618,"lon":5.361009,"is_reserved":false,"is_disabled":false,"rental_uris":{"android":"levelo://app?vid=21eae715-679e-4375-9625-f4d5d5f63699","ios":"levelo://app?vid=21eae715-679e-4375-9625-f4d5d5f63699"},"vehicle_type_id":"4","last_reported":1706285320,"current_range_meters":26800,"station_id":"ce4bgj92rcd13ifvqbe0","pricing_plan_id":"free"},{"bike_id":"3b9583f7-6370-4320-aa82-57e2778e6df7","system_id":"levelo_inurba_marseille","lat":43.27618,"lon":5.361009,"is_reserved":false,"is_disabled":false,"rental_uris":{"android":"levelo://app?vid=3b9583f7-6370-4320-aa82-57e2778e6df7","ios":"levelo://app?vid=3b9583f7-6370-4320-aa82-57e2778e6df7"},"vehicle_type_id":"4","last_reported":1706285320,"current_range_meters":18000,"station_id":"ce4bgj92rcd13ifvqbe0","pricing_plan_id":"free"},{"bike_id":"6c9274dd-965d-4cdf-8f74-8df7fcdad3c9","system_id":"levelo_inurba_marseille","lat":43.27618,"lon":5.361009,"is_reserved":false,"is_disabled":false,"rental_uris":{"android":"levelo://app?vid=6c9274dd-965d-4cdf-8f74-8df7fcdad3c9","ios":"levelo://app?vid=6c9274dd-965d-4cdf-8f74-8df7fcdad3c9"},"vehicle_type_id":"4","last_reported":1706285320,"current_range_meters":26800,"station_id":"ce4bgj92rcd13ifvqbe0","pricing_plan_id":"free"},{"bike_id":"ef7434d7-7b98-4537-beff-881a656fef9f","system_id":"levelo_inurba_marseille","lat":43.276179,"lon":5.361009,"is_reserved":false,"is_disabled":false,"rental_uris":{"android":"levelo://app?vid=ef7434d7-7b98-4537-beff-881a656fef9f","ios":"levelo://app?vid=ef7434d7-7b98-4537-beff-881a656fef9f"},"vehicle_type_id":"4","last_reported":1706285320,"current_range_meters":6400,"station_id":"ce4bgj92rcd13ifvqbe0","pricing_plan_id":"free"},{"bike_id":"6cb1c175-f202-431e-b657-ef8c77280210","system_id":"levelo_inurba_marseille","lat":43.276179,"lon":5.361009,"is_reserved":false,"is_disabled":false,"rental_uris":{"android":"levelo://app?vid=6cb1c175-f202-431e-b657-ef8c77280210","ios":"levelo://app?vid=6cb1c175-f202-431e-b657-ef8c77280210"},"vehicle_type_id":"4","last_reported":1706285320,"current_range_meters":13200,"station_id":"ce4bgj92rcd13ifvqbe0","pricing_plan_id":"free"},{"bike_id":"f8e150fc-384e-451d-b5d6-d4c09d7f2fa3","system_id":"levelo_inurba_marseille","lat":43.280784,"lon":5.396622,"is_reserved":false,"is_disabled":false,"rental_uris":{"android":"levelo://app?vid=f8e150fc-384e-451d-b5d6-d4c09d7f2fa3","ios":"levelo://app?vid=f8e150fc-384e-451d-b5d6-d4c09d7f2fa3"},"vehicle_type_id":"4","last_reported":1706285320,"current_range_meters":16000,"station_id":"ce4bho12rcd13ifvqh2g","pricing_plan_id":"free"},{"bike_id":"c40a7949-8e6c-4a42-8f51-460f88b0c6ee","system_id":"levelo_inurba_marseille","lat":43.303837,"lon":5.418724,"is_reserved":false,"is_disabled":false,"rental_uris":{"android":"levelo://app?vid=c40a7949-8e6c-4a42-8f51-460f88b0c6ee","ios":"levelo://app?vid=c40a7949-8e6c-4a42-8f51-460f88b0c6ee"},"vehicle_type_id":"4","last_reported":1706285320,"current_range_meters":20800,"station_id":"ce4bhop2rcd13ifvqh7g","pricing_plan_id":"free"},{"bike_id":"f3fca714-5426-4b66-9426-f058985cce07","system_id":"levelo_inurba_marseille","lat":43.303837,"lon":5.418724,"is_reserved":false,"is_disabled":false,"rental_uris":{"android":"levelo://app?vid=f3fca714-5426-4b66-9426-f058985cce07","ios":"levelo://app?vid=f3fca714-5426-4b66-9426-f058985cce07"},"vehicle_type_id":"4","last_reported":1706285320,"current_range_meters":4000,"station_id":"ce4bhop2rcd13ifvqh7g","pricing_plan_id":"free"},{"bike_id":"e9f17c91-e6d6-4112-8fb7-6e89d0a53890","system_id":"levelo_inurba_marseille","lat":43.278401,"lon":5.392152,"is_reserved":false,"is_disabled":false,"rental_uris":{"android":"levelo://app?vid=e9f17c91-e6d6-4112-8fb7-6e89d0a53890","ios":"levelo://app?vid=e9f17c91-e6d6-4112-8fb7-6e89d0a53890"},"vehicle_type_id":"4","last_reported":1706285320,"current_range_meters":26800,"station_id":"ce4bhjp2rcd13ifvqga0","pricing_plan_id":"free"},{"bike_id":"fc6e3190-e183-41c6-b8ba-1ace24dae6a7","system_id":"levelo_inurba_marseille","lat":43.278401,"lon":5.392152,"is_reserved":false,"is_disabled":false,"rental_uris":{"android":"levelo://app?vid=fc6e3190-e183-41c6-b8ba-1ace24dae6a7","ios":"levelo://app?vid=fc6e3190-e183-41c6-b8ba-1ace24dae6a7"},"vehicle_type_id":"4","last_reported":1706285320,"current_range_meters":10400,"station_id":"ce4bhjp2rcd13ifvqga0","pricing_plan_id":"free"},{"bike_id":"35764404-3748-4aba-81da-367baec88a1f","system_id":"levelo_inurba_marseille","lat":43.275625,"lon":5.384392,"is_reserved":false,"is_disabled":false,"rental_uris":{"android":"levelo://app?vid=35764404-3748-4aba-81da-367baec88a1f","ios":"levelo://app?vid=35764404-3748-4aba-81da-367baec88a1f"},"vehicle_type_id":"4","last_reported":1706285320,"current_range_meters":11200,"station_id":"ce4bhh92rcd13ifvqfi0","pricing_plan_id":"free"},{"bike_id":"657640f8-219f-4f49-b1a4-ac8361b2a514","system_id":"levelo_inurba_marseille","lat":43.273613,"lon":5.362705,"is_reserved":false,"is_disabled":false,"rental_uris":{"android":"levelo://app?vid=657640f8-219f-4f49-b1a4-ac8361b2a514","ios":"levelo://app?vid=657640f8-219f-4f49-b1a4-ac8361b2a514"},"vehicle_type_id":"4","last_reported":1706285320,"current_range_meters":31200,"station_id":"ce4bhbh2rcd13ifvqeo0","pricing_plan_id":"free"},{"bike_id":"cd8c1ef8-fb69-4e5e-ad59-cad435a725c2","system_id":"levelo_inurba_marseille","lat":43.273613,"lon":5.362705,"is_reserved":false,"is_disabled":false,"rental_uris":{"android":"levelo://app?vid=cd8c1ef8-fb69-4e5e-ad59-cad435a725c2","ios":"levelo://app?vid=cd8c1ef8-fb69-4e5e-ad59-cad435a725c2"},"vehicle_type_id":"4","last_reported":1706285320,"current_range_meters":31200,"station_id":"ce4bhbh2rcd13ifvqeo0","pricing_plan_id":"free"},{"bike_id":"d6584f20-a9d2-429a-9c87-5f1f2e8cbe61","system_id":"levelo_inurba_marseille","lat":43.276769,"lon":5.388787,"is_reserved":false,"is_disabled":false,"rental_uris":{"android":"levelo://app?vid=d6584f20-a9d2-429a-9c87-5f1f2e8cbe61","ios":"levelo://app?vid=d6584f20-a9d2-429a-9c87-5f1f2e8cbe61"},"vehicle_type_id":"4","last_reported":1706285320,"current_range_meters":17200,"station_id":"ce4bhi12rcd13ifvqfo0","pricing_plan_id":"free"},{"bike_id":"dffc33cc-3c8a-4fc2-a257-765ecb95c3f9","system_id":"levelo_inurba_marseille","lat":43.276771,"lon":5.388799,"is_reserved":false,"is_disabled":false,"rental_uris":{"android":"levelo://app?vid=dffc33cc-3c8a-4fc2-a257-765ecb95c3f9","ios":"levelo://app?vid=dffc33cc-3c8a-4fc2-a257-765ecb95c3f9"},"vehicle_type_id":"4","last_reported":1706285320,"current_range_meters":14000,"station_id":"ce4bhi12rcd13ifvqfo0","pricing_plan_id":"free"},{"bike_id":"d2f4f858-a74a-4afc-b6b1-ee0914995884","system_id":"levelo_inurba_marseille","lat":43.276771,"lon":5.388799,"is_reserved":false,"is_disabled":false,"rental_uris":{"android":"levelo://app?vid=d2f4f858-a74a-4afc-b6b1-ee0914995884","ios":"levelo://app?vid=d2f4f858-a74a-4afc-b6b1-ee0914995884"},"vehicle_type_id":"4","last_reported":1706285320,"current_range_meters":18400,"station_id":"ce4bhi12rcd13ifvqfo0","pricing_plan_id":"free"},{"bike_id":"92071fea-e5bf-412c-b064-85f4142ed6b0","system_id":"levelo_inurba_marseille","lat":43.27656,"lon":5.38887,"is_reserved":false,"is_disabled":false,"rental_uris":{"android":"levelo://app?vid=92071fea-e5bf-412c-b064-85f4142ed6b0","ios":"levelo://app?vid=92071fea-e5bf-412c-b064-85f4142ed6b0"},"vehicle_type_id":"4","last_reported":1706285320,"current_range_meters":0,"station_id":"ce4bhi12rcd13ifvqfo0","pricing_plan_id":"free"},{"bike_id":"703c9b65-f915-4bd2-884f-b6c7f6bd35e9","system_id":"levelo_inurba_marseille","lat":43.279952,"lon":5.400085,"is_reserved":false,"is_disabled":false,"rental_uris":{"android":"levelo://app?vid=703c9b65-f915-4bd2-884f-b6c7f6bd35e9","ios":"levelo://app?vid=703c9b65-f915-4bd2-884f-b6c7f6bd35e9"},"vehicle_type_id":"4","last_reported":1706285320,"current_range_meters":24400,"station_id":"ce4bho92rcd13ifvqh4g","pricing_plan_id":"free"},{"bike_id":"bf9e602f-cc80-4c70-b96b-2b0ba9f6a734","system_id":"levelo_inurba_marseille","lat":43.27625,"lon":5.391577,"is_reserved":false,"is_disabled":false,"rental_uris":{"android":"levelo://app?vid=bf9e602f-cc80-4c70-b96b-2b0ba9f6a734","ios":"levelo://app?vid=bf9e602f-cc80-4c70-b96b-2b0ba9f6a734"},"vehicle_type_id":"4","last_reported":1706285320,"current_range_meters":4400,"station_id":"","pricing_plan_id":"free"},{"bike_id":"ecc194e1-ab1b-48e8-b883-21fa6e33f6e0","system_id":"levelo_inurba_marseille","lat":43.279952,"lon":5.400085,"is_reserved":false,"is_disabled":false,"rental_uris":{"android":"levelo://app?vid=ecc194e1-ab1b-48e8-b883-21fa6e33f6e0","ios":"levelo://app?vid=ecc194e1-ab1b-48e8-b883-21fa6e33f6e0"},