{"last_updated":1747443143,"ttl":60,"version":"2.2","data":{"bikes":[{"bike_id":"c0b9fd4f-e181-46ce-b0bf-f5119973334f","system_id":"levelo_inurba_marseille","lat":43.33771,"lon":5.37424,"is_reserved":false,"is_disabled":false,"rental_uris":{"android":"levelo://app?vid=c0b9fd4f-e181-46ce-b0bf-f5119973334f","ios":"levelo://app?vid=c0b9fd4f-e181-46ce-b0bf-f5119973334f"},"vehicle_type_id":"4","last_reported":1747443143,"current_range_meters":8000,"station_id":"","pricing_plan_id":"cebpf4jnsgd1na2vs0mg"},{"bike_id":"fc2577e7-1497-425b-9d4f-ab8d7dc843c6","system_id":"levelo_inurba_marseille","lat":43.33771,"lon":5.37485,"is_reserved":false,"is_disabled":true,"rental_uris":{"android":"levelo://app?vid=fc2577e7-1497-425b-9d4f-ab8d7dc843c6","ios":"levelo://app?vid=fc2577e7-1497-425b-9d4f-ab8d7dc843c6"},"vehicle_type_id":"4","last_reported":1747443143,"current_range_meters":0,"station_id":"","pricing_plan_id":"cebpf4jnsgd1na2vs0mg"},{"bike_id":"0322f8c0-478a-4036-9bba-8fce70858e9a","system_id":"levelo_inurba_marseille","lat":43.28214,"lon":5.34916,"is_reserved":false,"is_disabled":true,"rental_uris":{"android":"levelo://app?vid=0322f8c0-478a-4036-9bba-8fce70858e9a","ios":"levelo://app?vid=0322f8c0-478a-4036-9bba-8fce70858e9a"},"vehicle_type_id":"4","last_reported":1747443143,"current_range_meters":0,"station_id":"","pricing_plan_id":"cebpf4jnsgd1na2vs0mg"},{"bike_id":"ce4325af-2448-4172-bdec-81d552ee0b62","system_id":"levelo_inurba_marseille","lat":43.26157,"lon":5.41954,"is_reserved":false,"is_disabled":true,"rental_uris":{"android":"levelo://app?vid=ce4325af-2448-4172-bdec-81d552ee0b62","ios":"levelo://app?vid=ce4325af-2448-4172-bdec-81d552ee0b62"},"vehicle_type_id":"4","last_reported":1747443143,"current_range_meters":0,"station_id":"","pricing_plan_id":"cebpf4jnsgd1na2vs0mg"},{"bike_id":"23939faf-d206-4b93-ade4-199417584041","system_id":"levelo_inurba_marseille","lat":43.24946,"lon":5.37532,"is_reserved":false,"is_disabled":true,"rental_uris":{"android":"levelo://app?vid=23939faf-d206-4b93-ade4-199417584041","ios":"levelo://app?vid=23939faf-d206-4b93-ade4-199417584041"},"vehicle_type_id":"4","last_reported":1747443143,"current_range_meters":0,"station_id":"","pricing_plan_id":"cebpf4jnsgd1na2vs0mg"},{"bike_id":"2b8fbf5f-4106-421b-bd48-29543ccb14db","system_id":"levelo_inurba_marseille","lat":43.237015,"lon":5.362979,"is_reserved":false,"is_disabled":true,"rental_uris":{"android":"levelo://app?vid=2b8fbf5f-4106-421b-bd48-29543ccb14db","ios":"levelo://app?vid=2b8fbf5f-4106-421b-bd48-29543ccb14db"},"vehicle_type_id":"4","last_reported":1747443143,"current_range_meters":0,"station_id":"","pricing_plan_id":"cebpf4jnsgd1na2vs0mg"},{"bike_id":"5de4311e-acc0-4747-9be3-06bcfa4d137e","system_id":"levelo_inurba_marseille","lat":43.31977,"lon":5.3874,"is_reserved":false,"is_disabled":true,"rental_uris":{"android":"levelo://app?vid=5de4311e-acc0-4747-9be3-06bcfa4d137e","ios":"levelo://app?vid=5de4311e-acc0-4747-9be3-06bcfa4d137e"},"vehicle_type_id":"4","last_reported":1747443143,"current_range_meters":0,"station_id":"","pricing_plan_id":"cebpf4jnsgd1na2vs0mg"},{"bike_id":"792567c6-0442-4011-aff0-9c05e25deb48","system_id":"levelo_inurba_marseille","lat":43.337444,"lon":5.374475,"is_reserved":false,"is_disabled":true,"rental_uris":{"android":"levelo://app?vid=792567c6-0442-4011-aff0-9c05e25deb48","ios":"levelo://app?vid=792567c6-0442-4011-aff0-9c05e25deb48"},"vehicle_type_id":"4","last_reported":1747443143,"current_range_meters":0,"station_id":"","pricing_plan_id":"cebpf4jnsgd1na2vs0mg"},{"bike_id":"fc4c81c1-d472-4cad-a313-517d54fe18f4","system_id":"levelo_inurba_marseille","lat":43.29341,"lon":5.3707,"is_reserved":false,"is_disabled":true,"rental_uris":{"android":"levelo://app?vid=fc4c81c1-d472-4cad-a313-517d54fe18f4","ios":"levelo://app?vid=fc4c81c1-d472-4cad-a313-517d54fe18f4"},"vehicle_type_id":"4","last_reported":1747443143,"current_range_meters":0,"station_id":"","pricing_plan_id":"cebpf4jnsgd1na2vs0mg"},{"bike_id":"84cbecd9-346d-4881-8f55-5e6eb08c2bd5","system_id":"levelo_inurba_marseille","lat":43.280307,"lon":5.36947,"is_reserved":false,"is_disabled":true,"rental_uris":{"android":"levelo://app?vid=84cbecd9-346d-4881-8f55-5e6eb08c2bd5","ios":"levelo://app?vid=84cbecd9-346d-4881-8f55-5e6eb08c2bd5"},"vehicle_type_id":"4","last_reported":1747443143,"current_range_meters":0,"station_id":"ce4bha12rcd13ifvqef0","pricing_plan_id":"cebpf4jnsgd1na2vs0mg"},{"bike_id":"a2a2d7ce-1a15-4ee4-a2cf-9a739b0fb811","system_id":"levelo_inurba_marseille","lat":43.27172,"lon":5.40996,"is_reserved":false,"is_disabled":true,"rental_uris":{"android":"levelo://app?vid=a2a2d7ce-1a15-4ee4-a2cf-9a739b0fb811","ios":"levelo://app?vid=a2a2d7ce-1a15-4ee4-a2cf-9a739b0fb811"},"vehicle_type_id":"4","last_reported":1747443143,"current_range_meters":0,"station_id":"ce4bhl12rcd13ifvqgf0","pricing_plan_id":"cebpf4jnsgd1na2vs0mg"},{"bike_id":"c33000dc-eade-4881-af6f-7b82a1af4de2","system_id":"levelo_inurba_marseille","lat":43.30366,"lon":5.42502,"is_reserved":false,"is_disabled":true,"rental_uris":{"android":"levelo://app?vid=c33000dc-eade-4881-af6f-7b82a1af4de2","ios":"levelo://app?vid=c33000dc-eade-4881-af6f-7b82a1af4de2"},"vehicle_type_id":"4","last_reported":1747443143,"current_range_meters":0,"station_id":"ce4bhoh2rcd13ifvqh6g","pricing_plan_id":"cebpf4jnsgd1na2vs0mg"},{"bike_id":"c651a58a-693c-4942-980b-6d1c6ed6a73e","system_id":"levelo_inurba_marseille","lat":43.23182,"lon":5.35557,"is_reserved":false,"is_disabled":true,"rental_uris":{"android":"levelo://app?vid=c651a58a-693c-4942-980b-6d1c6ed6a73e","ios":"levelo://app?vid=c651a58a-693c-4942-980b-6d1c6ed6a73e"},"vehicle_type_id":"4","last_reported":1747443143,"current_range_meters":0,"station_id":"ce4bhu92rcd13ifvqi70","pricing_plan_id":"cebpf4jnsgd1na2vs0mg"},{"bike_id":"8bc59f09-925c-43ab-a1e2-397aabbe4e01","system_id":"levelo_inurba_marseille","lat":43.28296,"lon":5.40506,"is_reserved":false,"is_disabled":true,"rental_uris":{"android":"levelo://app?vid=8bc59f09-925c-43ab-a1e2-397aabbe4e01","ios":"levelo://app?vid=8bc59f09-925c-43ab-a1e2-397aabbe4e01"},"vehicle_type_id":"4","last_reported":1747443143,"current_range_meters":400,"station_id":"","pricing_plan_id":"cebpf4jnsgd1na2vs0mg"},{"bike_id":"d0450ea9-9816-41b2-a3e2-911d5afc36b6","system_id":"levelo_inurba_marseille","lat":43.31708,"lon":5.37741,"is_reserved":false,"is_disabled":true,"rental_uris":{"android":"levelo://app?vid=d0450ea9-9816-41b2-a3e2-911d5afc36b6","ios":"levelo://app?vid=d0450ea9-9816-41b2-a3e2-911d5afc36b6"},"vehicle_type_id":"4","last_reported":1747443143,"current_range_meters":400,"station_id":"ce4bgth2rcd13ifvqch0","pricing_plan_id":"cebpf4jnsgd1na2vs0mg"},{"bike_id":"610a7ca5-7649-44e5-913e-926d4d7778bb","system_id":"levelo_inurba_marseille","lat":43.28453,"lon":5.39895,"is_reserved":false,"is_disabled":true,"rental_uris":{"android":"levelo://app?vid=610a7ca5-7649-44e5-913e-926d4d7778bb","ios":"levelo://app?vid=610a7ca5-7649-44e5-913e-926d4d7778bb"},"vehicle_type_id":"4","last_reported":1747443143,"current_range_meters":800,"station_id":"","pricing_plan_id":"cebpf4jnsgd1na2vs0mg"},{"bike_id":"45ba2fe5-bb59-4b8d-a9e2-11d23c46fb21","system_id":"levelo_inurba_marseille","lat":43.30443,"lon":5.37902,"is_reserved":false,"is_disabled":true,"rental_uris":{"android":"levelo://app?vid=45ba2fe5-bb59-4b8d-a9e2-11d23c46fb21","ios":"levelo://app?vid=45ba2fe5-bb59-4b8d-a9e2-11d23c46fb21"},"vehicle_type_id":"4","last_reported":1747443143,"current_range_meters":800,"station_id":"ce4bgup2rcd13ifvqcn0","pricing_plan_id":"cebpf4jnsgd1na2vs0mg"},{"bike_id":"c8107b40-4e78-47e4-a23d-10a935f8e353","system_id":"levelo_inurba_marseille","lat":43.2687,"lon":5.37073,"is_reserved":false,"is_disabled":true,"rental_uris":{"android":"levelo://app?vid=c8107b40-4e78-47e4-a23d-10a935f8e353","ios":"levelo://app?vid=c8107b40-4e78-47e4-a23d-10a935f8e353"},"vehicle_type_id":"4","last_reported":1747443143,"current_range_meters":1200,"station_id":"","pricing_plan_id":"cebpf4jnsgd1na2vs0mg"},{"bike_id":"5711b0c6-baa8-48f2-86c8-9c951f5f5520","system_id":"levelo_inurba_marseille","lat":43.29572,"lon":5.39963,"is_reserved":false,"is_disabled":true,"rental_uris":{"android":"levelo://app?vid=5711b0c6-baa8-48f2-86c8-9c951f5f5520","ios":"levelo://app?vid=5711b0c6-baa8-48f2-86c8-9c951f5f5520"},"vehicle_type_id":"4","last_reported":1747443143,"current_range_meters":1200,"station_id":"ce4bh312rcd13ifvqdj0","pricing_plan_id":"cebpf4jnsgd1na2vs0mg"},{"bike_id":"a2fbdedf-3659-48f8-a356-a837b69a4dff","system_id":"levelo_inurba_marseille","lat":43.255799,"lon":5.38229,"is_reserved":false,"is_disabled":true,"rental_uris":{"android":"levelo://app?vid=a2fbdedf-3659-48f8-a356-a837b69a4dff","ios":"levelo://app?vid=a2fbdedf-3659-48f8-a356-a837b69a4dff"},"vehicle_type_id":"4","last_reported":1747443143,"current_range_meters":1200,"station_id":"ce4bhih2rcd13ifvqfs0","pricing_plan_id":"cebpf4jnsgd1na2vs0mg"},{"bike_id":"606c8300-9d01-4160-95c4-234c4dd7299b","system_id":"levelo_inurba_marseille","lat":43.24072,"lon":5.37738,"is_reserved":false,"is_disabled":true,"rental_uris":{"android":"levelo://app?vid=606c8300-9d01-4160-95c4-234c4dd7299b","ios":"levelo://app?vid=606c8300-9d01-4160-95c4-234c4dd7299b"},"vehicle_type_id":"4","last_reported":1747443143,"current_range_meters":1200,"station_id":"ce4bhnp2rcd13ifvqgvg","pricing_plan_id":"cebpf4jnsgd1na2vs0mg"},{"bike_id":"2abba726-19c7-4c71-a019-5238cdf2ebd7","system_id":"levelo_inurba_marseille","lat":43.3041,"lon":5.41288,"is_reserved":false,"is_disabled":true,"rental_uris":{"android":"levelo://app?vid=2abba726-19c7-4c71-a019-5238cdf2ebd7","ios":"levelo://app?vid=2abba726-19c7-4c71-a019-5238cdf2ebd7"},"vehicle_type_id":"4","last_reported":1747443143,"current_range_meters":1200,"station_id":"ce4bhop2rcd13ifvqh8g","pricing_plan_id":"cebpf4jnsgd1na2vs0mg"},{"bike_id":"a653d092-b831-4c97-84c6-8b670d798318","system_id":"levelo_inurba_marseille","lat":43.28205,"lon":5.39087,"is_reserved":false,"is_disabled":true,"rental_uris":{"android":"levelo://app?vid=a653d092-b831-4c97-84c6-8b670d798318","ios":"levelo://app?vid=a653d092-b831-4c97-84c6-8b670d798318"},"vehicle_type_id":"4","last_reported":1747443143,"current_range_meters":1600,"station_id":"","pricing_plan_id":"cebpf4jnsgd1na2vs0mg"},{"bike_id":"4b895eb9-cba0-4f63-935e-92573f0b2c42","system_id":"levelo_inurba_marseille","lat":43.264982,"lon":5.395468,"is_reserved":false,"is_disabled":true,"rental_uris":{"android":"levelo://app?vid=4b895eb9-cba0-4f63-935e-92573f0b2c42","ios":"levelo://app?vid=4b895eb9-cba0-4f63-935e-92573f0b2c42"},"vehicle_type_id":"4","last_reported":1747443143,"current_range_meters":1600,"station_id":"ce4bhi12rcd13ifvqfq0","pricing_plan_id":"cebpf4jnsgd1na2vs0mg"},{"bike_id":"80d0d83f-909d-4568-b4e7-8a3ef4eed2de","system_id":"levelo_inurba_marseille","lat":43.25399,"lon":5.41907,"is_reserved":false,"is_disabled":false,"rental_uris":{"android":"levelo://app?vid=80d0d83f-909d-4568-b4e7-8a3ef4eed2de","ios":"levelo://app?vid=80d0d83f-909d-4568-b4e7-8a3ef4eed2de"},"vehicle_type_id":"4","last_reported":1747443143,"current_range_meters":3200,"station_id":"","pricing_plan_id":"cebpf4jnsgd1na2vs0mg"},{"bike_id":"b4b7b148-cc4b-409c-a19c-3d61035f85b8","system_id":"levelo_inurba_marseille","lat":43.2873,"lon":5.36093,"is_reserved":false,"is_disabled":false,"rental_uris":{"android":"levelo://app?vid=b4b7b148-cc4b-409c-a19c-3d61035f85b8","ios":"levelo://app?vid=b4b7b148-cc4b-409c-a19c-3d61035f85b8"},"vehicle_type_id":"4","last_reported":1747443143,"current_range_meters":4000,"station_id":"cki0cbj6b192h4jlfktg","pricing_plan_id":"cebpf4jnsgd1na2vs0mg"},{"bike_id":"c6cd41cb-2d42-47ad-aaed-9a43699d6051","system_id":"levelo_inurba_marseille","lat":43.30793,"lon":5.38152,"is_reserved":false,"is_disabled":false,"rental_uris":{"android":"levelo://app?vid=c6cd41cb-2d42-47ad-aaed-9a43699d6051","ios":"levelo://app?vid=c6cd41cb-2d42-47ad-aaed-9a43699d6051"},"vehicle_type_id":"4","last_reported":1747443143,"current_range_meters":4400,"station_id":"ce4bgt12rcd13ifvqce0","pricing_plan_id":"cebpf4jnsgd1na2vs0mg"},{"bike_id":"da36a3f9-3171-4d1c-85c5-8d3c32a7bc01","system_id":"levelo_inurba_marseille","lat":43.31117,"lon":5.37772,"is_reserved":false,"is_disabled":false,"rental_uris":{"android":"levelo://app?vid=da36a3f9-3171-4d1c-85c5-8d3c32a7bc01","ios":"levelo://app?vid=da36a3f9-3171-4d1c-85c5-8d3c32a7bc01"},"vehicle_type_id":"4","last_reported":1747443143,"current_range_meters":4400,"station_id":"ce4bgt92rcd13ifvqcg0","pricing_plan_id":"cebpf4jnsgd1na2vs0mg"},{"bike_id":"f574f8a2-2537-4ed3-a7a3-6ec95ee912b7","system_id":"levelo_inurba_marseille","lat":43.28461,"lon":5.35892,"is_reserved":false,"is_disabled":false,"rental_uris":{"android":"levelo://app?vid=f574f8a2-2537-4ed3-a7a3-6ec95ee912b7","ios":"levelo://app?vid=f574f8a2-2537-4ed3-a7a3-6ec95ee912b7"},"vehicle_type_id":"4","last_reported":1747443143,"current_range_meters":4400,"station_id":"ce4bhah2rcd13ifvqei0","pricing_plan_id":"cebpf4jnsgd1na2vs0mg"},{"bike_id":"aec5af64-5758-4d49-b2f9-eff089336aac","system_id":"levelo_inurba_marseille","lat":43.28089,"lon":5.396583,"is_reserved":false,"is_disabled":false,"rental_uris":{"android":"levelo://app?vid=aec5af64-5758-4d49-b2f9-eff089336aac","ios":"levelo://app?vid=aec5af64-5758-4d49-b2f9-eff089336aac"},"vehicle_type_id":"4","last_reported":1747443143,"current_range_meters":4400,"station_id":"ce4bho12rcd13ifvqh2g","pricing_plan_id":"cebpf4jnsgd1na2vs0mg"},{"bike_id":"7eb7be2d-3eec-4648-b495-0d532492ed4d","system_id":"levelo_inurba_marseille","lat":43.23189,"lon":5.35552,"is_reserved":false,"is_disabled":false,"rental_uris":{"android":"levelo://app?vid=7eb7be2d-3eec-4648-b495-0d532492ed4d","ios":"levelo://app?vid=7eb7be2d-3eec-4648-b495-0d532492ed4d"},"vehicle_type_id":"4","last_reported":1747443143,"current_range_meters":4400,"station_id":"ce4bhu92rcd13ifvqi70","pricing_plan_id":"cebpf4jnsgd1na2vs0mg"},{"bike_id":"8eb1f58f-aa4f-4974-816f-c27c18b7dfee","system_id":"levelo_inurba_marseille","lat":43.24645,"lon":5.38914,"is_reserved":false,"is_disabled":false,"rental_uris":{"android":"levelo://app?vid=8eb1f58f-aa4f-4974-816f-c27c18b7dfee","ios":"levelo://app?vid=8eb1f58f-aa4f-4974-816f-c27c18b7dfee"},"vehicle_type_id":"4","last_reported":1747443143,"current_range_meters":4800,"station_id":"ce4bhg12rcd13ifvqf60","pricing_plan_id":"cebpf4jnsgd1na2vs0mg"},{"bike_id":"ec82b09f-348b-46ef-919d-f478aa787858","system_id":"levelo_inurba_marseille","lat":43.22912,"lon":5.35417,"is_reserved":false,"is_disabled":false,"rental_uris":{"android":"levelo://app?vid=ec82b09f-348b-46ef-919d-f478aa787858","ios":"levelo://app?vid=ec82b09f-348b-46ef-919d-f478aa787858"},"vehicle_type_id":"4","last_reported":1747443143,"current_range_meters":4800,"station_id":"cpo3532slgdg3j2ikp40","pricing_plan_id":"cebpf4jnsgd1na2vs0mg"},{"bike_id":"deb72f86-18c7-4059-b066-9e7105249bc3","system_id":"levelo_inurba_marseille","lat":43.326594,"lon":5.409906,"is_reserved":false,"is_disabled":false,"rental_uris":{"android":"levelo://app?vid=deb72f86-18c7-4059-b066-9e7105249bc3","ios":"levelo://app?vid=deb72f86-18c7-4059-b066-9e7105249bc3"},"vehicle_type_id":"4","last_reported":1747443143,"current_range_meters":5600,"station_id":"ce4bhpp2rcd13ifvqhgg","pricing_plan_id":"cebpf4jnsgd1na2vs0mg"},{"bike_id":"ec2cf44a-d2ce-40ed-aaeb-ddb24e07b8b0","system_id":"levelo_inurba_marseille","lat":43.23166,"lon":5.40016,"is_reserved":false,"is_disabled":false,"rental_uris":{"android":"levelo://app?vid=ec2cf44a-d2ce-40ed-aaeb-ddb24e07b8b0","ios":"levelo://app?vid=ec2cf44a-d2ce-40ed-aaeb-ddb24e07b8b0"},"vehicle_type_id":"4","last_reported":1747443143,"current_range_meters":6000,"station_id":"ce4bhn12rcd13ifvqgqg","pricing_plan_id":"cebpf4jnsgd1na2vs0mg"},{"bike_id":"d93d0c6d-be90-4a1f-bc81-4d02d1453c4b","system_id":"levelo_inurba_marseille","lat":43.22514,"lon":5.34775,"is_reserved":false,"is_disabled":false,"rental_uris":{"android":"levelo://app?vid=d93d0c6d-be90-4a1f-bc81-4d02d1453c4b","ios":"levelo://app?vid=d93d0c6d-be90-4a1f-bc81-4d02d1453c4b"},"vehicle_type_id":"4","last_reported":1747443143,"current_range_meters":6000,"station_id":"st_cvj5dfep6f1abm77gieg","pricing_plan_id":"cebpf4jnsgd1na2vs0mg"},{"bike_id":"f768f02c-a770-46ed-b9fb-ed1e435a3c0f","system_id":"levelo_inurba_marseille","lat":43.32937,"lon":5.38997,"is_reserved":false,"is_disabled":false,"rental_uris":{"android":"levelo://app?vid=f768f02c-a770-46ed-b9fb-ed1e435a3c0f","ios":"levelo://app?vid=f768f02c-a770-46ed-b9fb-ed1e435a3c0f"},"vehicle_type_id":"4","last_reported":1747443143,"current_range_meters":6400,"station_id":"","pricing_plan_id":"cebpf4jnsgd1na2vs0mg"},{"bike_id":"7786eff1-4b33-41f4-ad74-a0685c7b3640","system_id":"levelo_inurba_marseille","lat":43.29653,"lon":5.3936,"is_reserved":false,"is_disabled":false,"rental_uris":{"android":"levelo://app?vid=7786eff1-4b33-41f4-ad74-a0685c7b3640","ios":"levelo://app?vid=7786eff1-4b33-41f4-ad74-a0685c7b3640"},"vehicle_type_id":"4","last_reported":1747443143,"current_range_meters":6400,"station_id":"","pricing_plan_id":"cebpf4jnsgd1na2vs0mg"},{"bike_id":"c43a58fc-765e-406d-b0e8-87f6c11c793d","system_id":"levelo_inurba_marseille","lat":43.28702,"lon":5.39983,"is_reserved":false,"is_disabled":false,"rental_uris":{"android":"levelo://app?vid=c43a58fc-765e-406d-b0e8-87f6c11c793d","ios":"levelo://app?vid=c43a58fc-765e-406d-b0e8-87f6c11c793d"},"vehicle_type_id":"4","last_reported":1747443143,"current_range_meters":6400,"station_id":"ce4bho92rcd13ifvqh3g","pricing_plan_id":"cebpf4jnsgd1na2vs0mg"},{"bike_id":"06e20113-a5f1-4fe5-b188-f647ff408cc7","system_id":"levelo_inurba_marseille","lat":43.276918,"lon":5.419602,"is_reserved":false,"is_disabled":false,"rental_uris":{"android":"levelo://app?vid=06e20113-a5f1-4fe5-b188-f647ff408cc7","ios":"levelo://app?vid=06e20113-a5f1-4fe5-b188-f647ff408cc7"},"vehicle_type_id":"4","last_reported":1747443143,"current_range_meters":6800,"station_id":"","pricing_plan_id":"cebpf4jnsgd1na2vs0mg"},{"bike_id":"519a3c0e-40a7-4efc-b3d1-b28e4afef009","system_id":"levelo_inurba_marseille","lat":43.305966,"lon":5.393565,"is_reserved":false,"is_disabled":false,"rental_uris":{"android":"levelo://app?vid=519a3c0e-40a7-4efc-b3d1-b28e4afef009","ios":"levelo://app?vid=519a3c0e-40a7-4efc-b3d1-b28e4afef009"},"vehicle_type_id":"4","last_reported":1747443143,"current_range_meters":6800,"station_id":"ce4bh0p2rcd13ifvqd80","pricing_plan_id":"cebpf4jnsgd1na2vs0mg"},{"bike_id":"8960e400-29a9-4f67-8392-0890d082e4e7","system_id":"levelo_inurba_marseille","lat":43.28342,"lon":5.38108,"is_reserved":false,"is_disabled":false,"rental_uris":{"android":"levelo://app?vid=8960e400-29a9-4f67-8392-0890d082e4e7","ios":"levelo://app?vid=8960e400-29a9-4f67-8392-0890d082e4e7"},"vehicle_type_id":"4","last_reported":1747443143,"current_range_meters":6800,"station_id":"ce4bh412rcd13ifvqdr0","pricing_plan_id":"cebpf4jnsgd1na2vs0mg"},{"bike_id":"6dd57cf4-65e0-489e-905f-ab0dc1fdf6dd","system_id":"levelo_inurba_marseille","lat":43.329819,"lon":5.393796,"is_reserved":false,"is_disabled":false,"rental_uris":{"android":"levelo://app?vid=6dd57cf4-65e0-489e-905f-ab0dc1fdf6dd","ios":"levelo://app?vid=6dd57cf4-65e0-489e-905f-ab0dc1fdf6dd"},"vehicle_type_id":"4","last_reported":1747443143,"current_range_meters":7200,"station_id":"","pricing_plan_id":"cebpf4jnsgd1na2vs0mg"},{"bike_id":"39861c1a-7ea9-4d9c-8c37-9f3e5efa8240","system_id":"levelo_inurba_marseille","lat":43.29979,"lon":5.37161,"is_reserved":false,"is_disabled":false,"rental_uris":{"android":"levelo://app?vid=39861c1a-7ea9-4d9c-8c37-9f3e5efa8240","ios":"levelo://app?vid=39861c1a-7ea9-4d9c-8c37-9f3e5efa8240"},"vehicle_type_id":"4","last_reported":1747443143,"current_range_meters":7200,"station_id":"ce4bgr92rcd13ifvqc7g","pricing_plan_id":"cebpf4jnsgd1na2vs0mg"},{"bike_id":"fc973eed-dc62-42c4-805e-36dab951638a","system_id":"levelo_inurba_marseille","lat":43.31074,"lon":5.38355,"is_reserved":false,"is_disabled":false,"rental_uris":{"android":"levelo://app?vid=fc973eed-dc62-42c4-805e-36dab951638a","ios":"levelo://app?vid=fc973eed-dc62-42c4-805e-36dab951638a"},"vehicle_type_id":"4","last_reported":1747443143,"current_range_meters":7200,"station_id":"ce4bgv92rcd13ifvqcr0","pricing_plan_id":"cebpf4jnsgd1na2vs0mg"},{"bike_id":"a0efa2ff-065b-49c3-8196-e9faf8c2efdb","system_id":"levelo_inurba_marseille","lat":43.28453,"lon":5.35888,"is_reserved":false,"is_disabled":false,"rental_uris":{"android":"levelo://app?vid=a0efa2ff-065b-49c3-8196-e9faf8c2efdb","ios":"levelo://app?vid=a0efa2ff-065b-49c3-8196-e9faf8c2efdb"},"vehicle_type_id":"4","last_reported":1747443143,"current_range_meters":7200,"station_id":"ce4bhah2rcd13ifvqei0","pricing_plan_id":"cebpf4jnsgd1na2vs0mg"},{"bike_id":"6d485413-0a5b-4296-862c-2c19c83ee78f","system_id":"levelo_inurba_marseille","lat":43.32415,"lon":5.406538,"is_reserved":false,"is_disabled":false,"rental_uris":{"android":"levelo://app?vid=6d485413-0a5b-4296-862c-2c19c83ee78f","ios":"levelo://app?vid=6d485413-0a5b-4296-862c-2c19c83ee78f"},"vehicle_type_id":"4","last_reported":1747443143,"current_range_meters":8000,"station_id":"","pricing_plan_id":"cebpf4jnsgd1na2vs0mg"},{"bike_id":"b15acf99-a4c0-4a0e-8ffe-93213d16b527","system_id":"levelo_inurba_marseille","lat":43.35456,"lon":5.3574,"is_reserved":false,"is_disabled":false,"rental_uris":{"android":"levelo://app?vid=b15acf99-a4c0-4a0e-8ffe-93213d16b527","ios":"levelo://app?vid=b15acf99-a4c0-4a0e-8ffe-93213d16b527"},"vehicle_type_id":"4","last_reported":1747443143,"current_range_meters":8000,"station_id":"","pricing_plan_id":"cebpf4jnsgd1na2vs0mg"},{"bike_id":"e64e4484-2db6-41f4-beb8-e0c0ae1263cd","system_id":"levelo_inurba_marseille","lat":43.28501,"lon":5.43056,"is_reserved":false,"is_disabled":false,"rental_uris":{"android":"levelo://app?vid=e64e4484-2db6-41f4-beb8-e0c0ae1263cd","ios":"levelo://app?vid=e64e4484-2db6-41f4-beb8-e0c0ae1263cd"},"vehicle_type_id":"4","last_reported":1747443143,"current_range_meters":8000,"station_id":"","pricing_plan_id":"cebpf4jnsgd1na2vs0mg"},{"bike_id":"b89a24e6-5078-471a-88fa-2c70cdf078ca","system_id":"levelo_inurba_marseille","lat":43.310133,"lon":5.37532,"is_reserved":false,"is_disabled":false,"rental_uris":{"android":"levelo://app?vid=b89a24e6-5078-471a-88fa-2c70cdf078ca","ios":"levelo://app?vid=b89a24e6-5078-471a-88fa-2c70cdf078ca"},"vehicle_type_id":"4","last_reported":1747443143,"current_range_meters":8000,"station_id":"","pricing_plan_id":"cebpf4jnsgd1na2vs0mg"},{"bike_id":"d7c28a5b-bfdb-4b24-bdb4-045314a2e674","system_id":"levelo_inurba_marseille","lat":43.34051,"lon":5.37494,"is_reserved":false,"is_disabled":false,"rental_uris":{"android":"levelo://app?vid=d7c28a5b-bfdb-4b24-bdb4-045314a2e674","ios":"levelo://app?vid=d7c28a5b-bfdb-4b24-bdb4-045314a2e674"},"vehicle_type_id":"4","last_reported":1747443143,"current_range_meters":8000,"station_id":"","pricing_plan_id":"cebpf4jnsgd1na2vs0mg"},{"bike_id":"79237a5b-0518-4c98-9cbb-d8b11eabc794","system_id":"levelo_inurba_marseille","lat":43.29531,"lon":5.38557,"is_reserved":false,"is_disabled":false,"rental_uris":{"android":"levelo://app?vid=79237a5b-0518-4c98-9cbb-d8b11eabc794","ios":"levelo://app?vid=79237a5b-0518-4c98-9cbb-d8b11eabc794"},"vehicle_type_id":"4","last_reported":1747443143,"current_range_meters":8000,"station_id":"ce4bgih2rcd13ifvqba0","pricing_plan_id":"cebpf4jnsgd1na2vs0mg"},{"bike_id":"0a91310c-ba07-4746-b08c-598b0123d73f","system_id":"levelo_inurba_marseille","lat":43.30884,"lon":5.39661,"is_reserved":false,"is_disabled":false,"rental_uris":{"android":"levelo://app?vid=0a91310c-ba07-4746-b08c-598b0123d73f","ios":"levelo://app?vid=0a91310c-ba07-4746-b08c-598b0123d73f"},"vehicle_type_id":"4","last_reported":1747443143,"current_range_meters":8000,"station_id":"ce4bh012rcd13ifvqcv0","pricing_plan_id":"cebpf4jnsgd1na2vs0mg"},{"bike_id":"db938447-fae6-47fb-a29f-51c01da04522","system_id":"levelo_inurba_marseille","lat":43.29199,"lon":5.35809,"is_reserved":false,"is_disabled":false,"rental_uris":{"android":"levelo://app?vid=db938447-fae6-47fb-a29f-51c01da04522","ios":"levelo://app?vid=db938447-fae6-47fb-a29f-51c01da04522"},"vehicle_type_id":"4","last_reported":1747443143,"current_range_meters":8000,"station_id":"ce4bhb12rcd13ifvqel0","pricing_plan_id":"cebpf4jnsgd1na2vs0mg"},{"bike_id":"b83840fc-e8b5-4516-afbe-00694cb37051","system_id":"levelo_inurba_marseille","lat":43.24394,"lon":5.37063,"is_reserved":false,"is_disabled":false,"rental_uris":{"android":"levelo://app?vid=b83840fc-e8b5-4516-afbe-00694cb37051","ios":"levelo://app?vid=b83840fc-e8b5-4516-afbe-00694cb37051"},"vehicle_type_id":"4","last_reported":1747443143,"current_range_meters":8000,"station_id":"ce4bhhh2rcd13ifvqfk0","pricing_plan_id":"cebpf4jnsgd1na2vs0mg"},{"bike_id":"a7fd0861-fa86-48c1-a42f-40fb1b26955e","system_id":"levelo_inurba_marseille","lat":43.279881,"lon":5.416588,"is_reserved":false,"is_disabled":false,"rental_uris":{"android":"levelo://app?vid=a7fd0861-fa86-48c1-a42f-40fb1b26955e","ios":"levelo://app?vid=a7fd0861-fa86-48c1-a42f-40fb1b26955e"},"vehicle_type_id":"4","last_reported":1747443143,"current_range_meters":8000,"station_id":"ce4bho12rcd13ifvqh1g","pricing_plan_id":"cebpf4jnsgd1na2vs0mg"},{"bike_id":"6d36ce03-b344-4b5e-9465-9800cf819cb5","system_id":"levelo_inurba_marseille","lat":43.21157,"lon":5.35094,"is_reserved":false,"is_disabled":false,"rental_uris":{"android":"levelo://app?vid=6d36ce03-b344-4b5e-9465-9800cf819cb5","ios":"levelo://app?vid=6d36ce03-b344-4b5e-9465-9800cf819cb5"},"vehicle_type_id":"4","last_reported":1747443143,"current_range_meters":8000,"station_id":"st_cvj6sg6p6f1abm77japg","pricing_plan_id":"cebpf4jnsgd1na2vs0mg"},{"bike_id":"02288632-79f4-483c-92bd-91cd61a950da","system_id":"levelo_inurba_marseille","lat":43.296417,"lon":5.36215,"is_reserved":false,"is_disabled":false,"rental_uris":{"android":"levelo://app?vid=02288632-79f4-483c-92bd-91cd61a950da","ios":"levelo://app?vid=02288632-79f4-483c-92bd-91cd61a950da"},"vehicle_type_id":"4","last_reported":1747443143,"current_range_meters":8400,"station_id":"","pricing_plan_id":"cebpf4jnsgd1na2vs0mg"},{"bike_id":"f8bef29a-1c6c-4a23-8f6a-4b760357c234","system_id":"levelo_inurba_marseille","lat":43.292573,"lon":5.40904,"is_reserved":false,"is_disabled":false,"rental_uris":{"android":"levelo://app?vid=f8bef29a-1c6c-4a23-8f6a-4b760357c234","ios":"levelo://app?vid=f8bef29a-1c6c-4a23-8f6a-4b760357c234"},"vehicle_type_id":"4","last_reported":1747443143,"current_range_meters":8400,"station_id":"ce4bh192rcd13ifvqdc0","pricing_plan_id":"cebpf4jnsgd1na2vs0mg"},{"bike_id":"4a07484a-afe5-412c-b3c0-444a3bb6c3c7","system_id":"levelo_inurba_marseille","lat":43.32663,"lon":5.4102,"is_reserved":false,"is_disabled":false,"rental_uris":{"android":"levelo://app?vid=4a07484a-afe5-412c-b3c0-444a3bb6c3c7","ios":"levelo://app?vid=4a07484a-afe5-412c-b3c0-444a3bb6c3c7"},"vehicle_type_id":"4","last_reported":1747443143,"current_range_meters":8400,"station_id":"ce4bhpp2rcd13ifvqhgg","pricing_plan_id":"cebpf4jnsgd1na2vs0mg"},{"bike_id":"2684f383-9cad-415a-984f-e353bd4d06ba","system_id":"levelo_inurba_marseille","lat":43.32343,"lon":5.40612,"is_reserved":false,"is_disabled":false,"rental_uris":{"android":"levelo://app?vid=2684f383-9cad-415a-984f-e353bd4d06ba","ios":"levelo://app?vid=2684f383-9cad-415a-984f-e353bd4d06ba"},"vehicle_type_id":"4","last_reported":1747443143,"current_range_meters":8400,"station_id":"ce4bhq92rcd13ifvqhjg","pricing_plan_id":"cebpf4jnsgd1na2vs0mg"},{"bike_id":"3556ce11-1526-46e1-a718-49bf331ed7e2","system_id":"levelo_inurba_marseille","lat":43.31706,"lon":5.37765,"is_reserved":false,"is_disabled":false,"rental_uris":{"android":"levelo://app?vid=3556ce11-1526-46e1-a718-49bf331ed7e2","ios":"levelo://app?vid=3556ce11-1526-46e1-a718-49bf331ed7e2"},"vehicle_type_id":"4","last_reported":1747443143,"current_range_meters":8800,"station_id":"ce4bgth2rcd13ifvqch0","pricing_plan_id":"cebpf4jnsgd1na2vs0mg"},{"bike_id":"f0f7ca87-7ffb-46bd-ab65-ff44d1578193","system_id":"levelo_inurba_marseille","lat":43.32361,"lon":5.40644,"is_reserved":false,"is_disabled":false,"rental_uris":{"android":"levelo://app?vid=f0f7ca87-7ffb-46bd-ab65-ff44d1578193","ios":"levelo://app?vid=f0f7ca87-7ffb-46bd-ab65-ff44d1578193"},"vehicle_type_id":"4","last_reported":1747443143,"current_range_meters":8800,"station_id":"ce4bhq92rcd13ifvqhjg","pricing_plan_id":"cebpf4jnsgd1na2vs0mg"},{"bike_id":"9d29eb8a-633f-4a3f-bd84-0754a56c14c4","system_id":"levelo_inurba_marseille","lat":43.32431,"lon":5.36655,"is_reserved":false,"is_disabled":false,"rental_uris":{"android":"levelo://app?vid=9d29eb8a-633f-4a3f-bd84-0754a56c14c4","ios":"levelo://app?vid=9d29eb8a-633f-4a3f-bd84-0754a56c14c4"},"vehicle_type_id":"4","last_reported":1747443143,"current_range_meters":8800,"station_id":"ce4bhs12rcd13ifvqhvg","pricing_plan_id":"cebpf4jnsgd1na2vs0mg"},{"bike_id":"94f0c13c-e647-4c7a-bbee-c165d50fd6d6","system_id":"levelo_inurba_marseille","lat":43.2417,"lon":5.364,"is_reserved":false,"is_disabled":false,"rental_uris":{"android":"levelo://app?vid=94f0c13c-e647-4c7a-bbee-c165d50fd6d6","ios":"levelo://app?vid=94f0c13c-e647-4c7a-bbee-c165d50fd6d6"},"vehicle_type_id":"4","last_reported":1747443143,"current_range_meters":8800,"station_id":"cpo36qri1sfpv3e86is0","pricing_plan_id":"cebpf4jnsgd1na2vs0mg"},{"bike_id":"a488853e-8708-42f9-a9f1-40f4dc62e03d","system_id":"levelo_inurba_marseille","lat":43.30587,"lon":5.3733,"is_reserved":false,"is_disabled":false,"rental_uris":{"android":"levelo://app?vid=a488853e-8708-42f9-a9f1-40f4dc62e03d","ios":"levelo://app?vid=a488853e-8708-42f9-a9f1-40f4dc62e03d"},"vehicle_type_id":"4","last_reported":1747443143,"current_range_meters":9200,"station_id":"","pricing_plan_id":"cebpf4jnsgd1na2vs0mg"},{"bike_id":"6bf2a9b0-c523-4b1e-b2f9-8999e65339bf","system_id":"levelo_inurba_marseille","lat":43.29867,"lon":5.397367,"is_reserved":false,"is_disabled":false,"rental_uris":{"android":"levelo://app?vid=6bf2a9b0-c523-4b1e-b2f9-8999e65339bf","ios":"levelo://app?vid=6bf2a9b0-c523-4b1e-b2f9-8999e65339bf"},"vehicle_type_id":"4","last_reported":1747443143,"current_range_meters":9200,"station_id":"ce4bh0h2rcd13ifvqd50","pricing_plan_id":"cebpf4jnsgd1na2vs0mg"},{"bike_id":"25102c3b-2fbb-400c-8820-f98bbff5bece","system_id":"levelo_inurba_marseille","lat":43.27916,"lon":5.39594,"is_reserved":false,"is_disabled":false,"rental_uris":{"android":"levelo://app?vid=25102c3b-2fbb-400c-8820-f98bbff5bece","ios":"levelo://app?vid=25102c3b-2fbb-400c-8820-f98bbff5bece"},"vehicle_type_id":"4","last_reported":1747443143,"current_range_meters":9200,"station_id":"ce4bhf92rcd13ifvqf40","pricing_plan_id":"cebpf4jnsgd1na2vs0mg"},{"bike_id":"5deb8060-b584-45ba-8ee7-be227a41b5a4","system_id":"levelo_inurba_marseille","lat":43.24663,"lon":5.38162,"is_reserved":false,"is_disabled":false,"rental_uris":{"android":"levelo://app?vid=5deb8060-b584-45ba-8ee7-be227a41b5a4","ios":"levelo://app?vid=5deb8060-b584-45ba-8ee7-be227a41b5a4"},"vehicle_type_id":"4","last_reported":1747443143,"current_range_meters":9200,"station_id":"ce4bhih2rcd13ifvqfr0","pricing_plan_id":"cebpf4jnsgd1na2vs0mg"},{"bike_id":"5bd7c68d-bffc-45e6-bca1-d02bf7a1c1bb","system_id":"levelo_inurba_marseille","lat":43.2587,"lon":5.39883,"is_reserved":false,"is_disabled":false,"rental_uris":{"android":"levelo://app?vid=5bd7c68d-bffc-45e6-bca1-d02bf7a1c1bb","ios":"levelo://app?vid=5bd7c68d-bffc-45e6-bca1-d02bf7a1c1bb"},"vehicle_type_id":"4","last_reported":1747443143,"current_range_meters":9200,"station_id":"ce4bhl92rcd13ifvqghg","pricing_plan_id":"cebpf4jnsgd1na2vs0mg"},{"bike_id":"f3b1a435-7ed8-43ea-bf76-4f3e5880364b","system_id":"levelo_inurba_marseille","lat":43.24177,"lon":5.39733,"is_reserved":false,"is_disabled":false,"rental_uris":{"android":"levelo://app?vid=f3b1a435-7ed8-43ea-bf76-4f3e5880364b","ios":"levelo://app?vid=f3b1a435-7ed8-43ea-bf76-4f3e5880364b"},"vehicle_type_id":"4","last_reported":1747443143,"current_range_meters":9200,"station_id":"ce4bhn12rcd13ifvqgpg","pricing_plan_id":"cebpf4jnsgd1na2vs0mg"},{"bike_id":"8cf75296-6b59-4787-bf18-cfee7fac28e0","system_id":"levelo_inurba_marseille","lat":43.241767,"lon":5.397241,"is_reserved":false,"is_disabled":false,"rental_uris":{"android":"levelo://app?vid=8cf75296-6b59-4787-bf18-cfee7fac28e0","ios":"levelo://app?vid=8cf75296-6b59-4787-bf18-cfee7fac28e0"},"vehicle_type_id":"4","last_reported":1747443143,"current_range_meters":9200,"station_id":"ce4bhn12rcd13ifvqgpg","pricing_plan_id":"cebpf4jnsgd1na2vs0mg"},{"bike_id":"4609076a-6d41-42eb-9d87-f98d829ffd68","system_id":"levelo_inurba_marseille","lat":43.28709,"lon":5.39987,"is_reserved":false,"is_disabled":false,"rental_uris":{"android":"levelo://app?vid=4609076a-6d41-42eb-9d87-f98d829ffd68","ios":"levelo://app?vid=4609076a-6d41-42eb-9d87-f98d829ffd68"},"vehicle_type_id":"4","last_reported":1747443143,"current_range_meters":9200,"station_id":"ce4bho92rcd13ifvqh3g","pricing_plan_id":"cebpf4jnsgd1na2vs0mg"},{"bike_id":"3d6b5b36-a314-45fa-8bc0-68e5f98a5dde","system_id":"levelo_inurba_marseille","lat":43.22933,"lon":5.35396,"is_reserved":false,"is_disabled":false,"rental_uris":{"android":"levelo://app?vid=3d6b5b36-a314-45fa-8bc0-68e5f98a5dde","ios":"levelo://app?vid=3d6b5b36-a314-45fa-8bc0-68e5f98a5dde"},"vehicle_type_id":"4","last_reported":1747443143,"current_range_meters":9200,"station_id":"cpo3532slgdg3j2ikp40","pricing_plan_id":"cebpf4jnsgd1na2vs0mg"},{"bike_id":"71abf16d-0037-4503-8336-9084f9a4a4ec","system_id":"levelo_inurba_marseille","lat":43.30929,"lon":5.40168,"is_reserved":false,"is_disabled":false,"rental_uris":{"android":"levelo://app?vid=71abf16d-0037-4503-8336-9084f9a4a4ec","ios":"levelo://app?vid=71abf16d-0037-4503-8336-9084f9a4a4ec"},"vehicle_type_id":"4","last_reported":1747443143,"current_range_meters":9600,"station_id":"ce4bgvp2rcd13ifvqct0","pricing_plan_id":"cebpf4jnsgd1na2vs0mg"},{"bike_id":"17701fff-5292-44b6-b992-d09dfa94fc0c","system_id":"levelo_inurba_marseille","lat":43.28346,"lon":5.381067,"is_reserved":false,"is_disabled":false,"rental_uris":{"android":"levelo://app?vid=17701fff-5292-44b6-b992-d09dfa94fc0c","ios":"levelo://app?vid=17701fff-5292-44b6-b992-d09dfa94fc0c"},"vehicle_type_id":"4","last_reported":1747443143,"current_range_meters":9600,"station_id":"ce4bh412rcd13ifvqdr0","pricing_plan_id":"cebpf4jnsgd1na2vs0mg"},{"bike_id":"3e480d2f-8011-45e8-bab5-26452b394142","system_id":"levelo_inurba_marseille","lat":43.28664,"lon":5.36343,"is_reserved":false,"is_disabled":false,"rental_uris":{"android":"levelo://app?vid=3e480d2f-8011-45e8-bab5-26452b394142","ios":"levelo://app?vid=3e480d2f-8011-45e8-bab5-26452b394142"},"vehicle_type_id":"4","last_reported":1747443143,"current_range_meters":9600,"station_id":"ce4bhah2rcd13ifvqej0","pricing_plan_id":"cebpf4jnsgd1na2vs0mg"},{"bike_id":"ffc0a45b-4ccf-4d90-956f-00a18a3d76a3","system_id":"levelo_inurba_marseille","lat":43.27899,"lon":5.38012,"is_reserved":false,"is_disabled":false,"rental_uris":{"android":"levelo://app?vid=ffc0a45b-4ccf-4d90-956f-00a18a3d76a3","ios":"levelo://app?vid=ffc0a45b-4ccf-4d90-956f-00a18a3d76a3"},"vehicle_type_id":"4","last_reported":1747443143,"current_range_meters":9600,"station_id":"ce4bhf92rcd13ifvqf50","pricing_plan_id":"cebpf4jnsgd1na2vs0mg"},{"bike_id":"cc997091-761a-4004-b43e-d05e1c15efff","system_id":"levelo_inurba_marseille","lat":43.23186,"lon":5.39992,"is_reserved":false,"is_disabled":false,"rental_uris":{"android":"levelo://app?vid=cc997091-761a-4004-b43e-d05e1c15efff","ios":"levelo://app?vid=cc997091-761a-4004-b43e-d05e1c15efff"},"vehicle_type_id":"4","last_reported":1747443143,"current_range_meters":9600,"station_id":"ce4bhn12rcd13ifvqgqg","pricing_plan_id":"cebpf4jnsgd1na2vs0mg"},{"bike_id":"d120d306-2989-4095-afe1-ef4c0806f027","system_id":"levelo_inurba_marseille","lat":43.30418,"lon":5.41286,"is_reserved":false,"is_disabled":false,"rental_uris":{"android":"levelo://app?vid=d120d306-2989-4095-afe1-ef4c0806f027","ios":"levelo://app?vid=d120d306-2989-4095-afe1-ef4c0806f027"},"vehicle_type_id":"4","last_reported":1747443143,"current_range_meters":9600,"station_id":"ce4bhop2rcd13ifvqh8g","pricing_plan_id":"cebpf4jnsgd1na2vs0mg"},{"bike_id":"5cf74a5b-3237-4306-8708-835ce896cf40","system_id":"levelo_inurba_marseille","lat":43.319917,"lon":5.381634,"is_reserved":false,"is_disabled":false,"rental_uris":{"android":"levelo://app?vid=5cf74a5b-3237-4306-8708-835ce896cf40","ios":"levelo://app?vid=5cf74a5b-3237-4306-8708-835ce896cf40"},"vehicle_type_id":"4","last_reported":1747443143,"current_range_meters":9600,"station_id":"ce4bhr12rcd13ifvqhpg","pricing_plan_id":"cebpf4jnsgd1na2vs0mg"},{"bike_id":"af4d8ae5-b5e3-4ba4-bb1f-49c4a5ed79fd","system_id":"levelo_inurba_marseille","lat":43.28852,"lon":5.45,"is_reserved":false,"is_disabled":false,"rental_uris":{"android":"levelo://app?vid=af4d8ae5-b5e3-4ba4-bb1f-49c4a5ed79fd","ios":"levelo://app?vid=af4d8ae5-b5e3-4ba4-bb1f-49c4a5ed79fd"},"vehicle_type_id":"4","last_reported":1747443143,"current_range_meters":10000,"station_id":"","pricing_plan_id":"cebpf4jnsgd1na2vs0mg"},{"bike_id":"ad5f9cf6-9c88-49f6-b4d6-7ea60bde5bb4","system_id":"levelo_inurba_marseille","lat":43.30896,"lon":5.39625,"is_reserved":false,"is_disabled":false,"rental_uris":{"android":"levelo://app?vid=ad5f9cf6-9c88-49f6-b4d6-7ea60bde5bb4","ios":"levelo://app?vid=ad5f9cf6-9c88-49f6-b4d6-7ea60bde5bb4"},"vehicle_type_id":"4","last_reported":1747443143,"current_range_meters":10000,"station_id":"ce4bh012rcd13ifvqcv0","pricing_plan_id":"cebpf4jnsgd1na2vs0mg"},{"bike_id":"c42eb6c9-abfc-48f4-912e-2ed38fd920d9","system_id":"levelo_inurba_marseille","lat":43.28459,"lon":5.35892,"is_reserved":false,"is_disabled":false,"rental_uris":{"android":"levelo://app?vid=c42eb6c9-abfc-48f4-912e-2ed38fd920d9","ios":"levelo://app?vid=c42eb6c9-abfc-48f4-912e-2ed38fd920d9"},"vehicle_type_id":"4","last_reported":1747443143,"current_range_meters":10000,"station_id":"ce4bhah2rcd13ifvqei0","pricing_plan_id":"cebpf4jnsgd1na2vs0mg"},{"bike_id":"44b99538-fb26-4f4c-9469-128b12406ff3","system_id":"levelo_inurba_marseille","lat":43.286708,"lon":5.363332,"is_reserved":false,"is_disabled":false,"rental_uris":{"android":"levelo://app?vid=44b99538-fb26-4f4c-9469-128b12406ff3","ios":"levelo://app?vid=44b99538-fb26-4f4c-9469-128b12406ff3"},"vehicle_type_id":"4","last_reported":1747443143,"current_range_meters":10000,"station_id":"ce4bhah2rcd13ifvqej0","pricing_plan_id":"cebpf4jnsgd1na2vs0mg"},{"bike_id":"1ceec604-ca26-4cfc-8641-847e25915f00","system_id":"levelo_inurba_marseille","lat":43.25583,"lon":5.38233,"is_reserved":false,"is_disabled":false,"rental_uris":{"android":"levelo://app?vid=1ceec604-ca26-4cfc-8641-847e25915f00","ios":"levelo://app?vid=1ceec604-ca26-4cfc-8641-847e25915f00"},"vehicle_type_id":"4","last_reported":1747443143,"current_range_meters":10000,"station_id":"ce4bhih2rcd13ifvqfs0","pricing_plan_id":"cebpf4jnsgd1na2vs0mg"},{"bike_id":"0a0babc2-26c5-42ba-a79e-338dfe361b88","system_id":"levelo_inurba_marseille","lat":43.2407,"lon":5.37766,"is_reserved":false,"is_disabled":false,"rental_uris":{"android":"levelo://app?vid=0a0babc2-26c5-42ba-a79e-338dfe361b88","ios":"levelo://app?vid=0a0babc2-26c5-42ba-a79e-338dfe361b88"},"vehicle_type_id":"4","last_reported":1747443143,"current_range_meters":10000,"station_id":"ce4bhnp2rcd13ifvqgvg","pricing_plan_id":"cebpf4jnsgd1na2vs0mg"},{"bike_id":"8a61a1bc-5a2c-4409-b911-e09287002183","system_id":"levelo_inurba_marseille","lat":43.30992,"lon":5.37936,"is_reserved":false,"is_disabled":false,"rental_uris":{"android":"levelo://app?vid=8a61a1bc-5a2c-4409-b911-e09287002183","ios":"levelo://app?vid=8a61a1bc-5a2c-4409-b911-e09287002183"},"vehicle_type_id":"4","last_reported":1747443143,"current_range_meters":10800,"station_id":"","pricing_plan_id":"cebpf4jnsgd1na2vs0mg"},{"bike_id":"e475e5bd-1508-4148-8277-7137299171ce","system_id":"levelo_inurba_marseille","lat":43.29088,"lon":5.38135,"is_reserved":false,"is_disabled":false,"rental_uris":{"android":"levelo://app?vid=e475e5bd-1508-4148-8277-7137299171ce","ios":"levelo://app?vid=e475e5bd-1508-4148-8277-7137299171ce"},"vehicle_type_id":"4","last_reported":1747443143,"current_range_meters":10800,"station_id":"ce4bh512rcd13ifvqe2g","pricing_plan_id":"cebpf4jnsgd1na2vs0mg"},{"bike_id":"fd36f2b2-ab3f-4773-a649-0c532c529c78","system_id":"levelo_inurba_marseille","lat":43.26559,"lon":5.37295,"is_reserved":false,"is_disabled":false,"rental_uris":{"android":"levelo://app?vid=fd36f2b2-ab3f-4773-a649-0c532c529c78","ios":"levelo://app?vid=fd36f2b2-ab3f-4773-a649-0c532c529c78"},"vehicle_type_id":"4","last_reported":1747443143,"current_range_meters":10800,"station_id":"ce4bhg12rcd13ifvqf70","pricing_plan_id":"cebpf4jnsgd1na2vs0mg"},{"bike_id":"4bb33cf8-ba2b-4943-9e07-00506ea3cdca","system_id":"levelo_inurba_marseille","lat":43.24801,"lon":5.37467,"is_reserved":false,"is_disabled":false,"rental_uris":{"android":"levelo://app?vid=4bb33cf8-ba2b-4943-9e07-00506ea3cdca","ios":"levelo://app?vid=4bb33cf8-ba2b-4943-9e07-00506ea3cdca"},"vehicle_type_id":"4","last_reported":1747443143,"current_range_meters":10800,"station_id":"ce4bhgh2rcd13ifvqfb0","pricing_plan_id":"cebpf4jnsgd1na2vs0mg"},{"bike_id":"f353be5c-4d23-4a48-9cad-8c96299b174e","system_id":"levelo_inurba_marseille","lat":43.28707,"lon":5.39999,"is_reserved":false,"is_disabled":false,"rental_uris":{"android":"levelo://app?vid=f353be5c-4d23-4a48-9cad-8c96299b174e","ios":"levelo://app?vid=f353be5c-4d23-4a48-9cad-8c96299b174e"},"vehicle_type_id":"4","last_reported":1747443143,"current_range_meters":10800,"station_id":"ce4bho92rcd13ifvqh3g","pricing_plan_id":"cebpf4jnsgd1na2vs0mg"},{"bike_id":"a0e9d505-cf02-46ac-8830-1ac6326a531c","system_id":"levelo_inurba_marseille","lat":43.28718,"lon":5.40023,"is_reserved":false,"is_disabled":false,"rental_uris":{"android":"levelo://app?vid=a0e9d505-cf02-46ac-8830-1ac6326a531c","ios":"levelo://app?vid=a0e9d505-cf02-46ac-8830-1ac6326a531c"},"vehicle_type_id":"4","last_reported":1747443143,"current_range_meters":10800,"station_id":"ce4bho92rcd13ifvqh3g","pricing_plan_id":"cebpf4jnsgd1na2vs0mg"},{"bike_id":"755e2a9b-d57b-44d4-a01d-9d083097cd79","system_id":"levelo_inurba_marseille","lat":43.29904,"lon":5.436631,"is_reserved":false,"is_disabled":false,"rental_uris":{"android":"levelo://app?vid=755e2a9b-d57b-44d4-a01d-9d083097cd79","ios":"levelo://app?vid=755e2a9b-d57b-44d4-a01d-9d083097cd79"},"vehicle_type_id":"4","last_reported":1747443143,"current_range_meters":10800,"station_id":"ce4bhpp2rcd13ifvqhfg","pricing_plan_id":"cebpf4jnsgd1na2vs0mg"},{"bike_id":"f29a82b1-b1c6-469a-ad31-486669e75362","system_id":"levelo_inurba_marseille","lat":43.28194,"lon":5.39061,"is_reserved":false,"is_disabled":false,"rental_uris":{"android":"levelo://app?vid=f29a82b1-b1c6-469a-ad31-486669e75362","ios":"levelo://app?vid=f29a82b1-b1c6-469a-ad31-486669e75362"},"vehicle_type_id":"4","last_reported":1747443143,"current_range_meters":11200,"station_id":"","pricing_plan_id":"cebpf4jnsgd1na2vs0mg"},{"bike_id":"78199755-afb1-469f-8ef9-e063bff7ffe2","system_id":"levelo_inurba_marseille","lat":43.311671,"lon":5.387193,"is_reserved":false,"is_disabled":false,"rental_uris":{"android":"levelo://app?vid=78199755-afb1-469f-8ef9-e063bff7ffe2","ios":"levelo://app?vid=78199755-afb1-469f-8ef9-e063bff7ffe2"},"vehicle_type_id":"4","last_reported":1747443143,"current_range_meters":11600,"station_id":"ce4bgv12rcd13ifvqcp0","pricing_plan_id":"cebpf4jnsgd1na2vs0mg"},{"bike_id":"31b335dd-0efd-4451-a4bc-570c0e133833","system_id":"levelo_inurba_marseille","lat":43.30422,"lon":5.39738,"is_reserved":false,"is_disabled":false,"rental_uris":{"android":"levelo://app?vid=31b335dd-0efd-4451-a4bc-570c0e133833","ios":"levelo://app?vid=31b335dd-0efd-4451-a4bc-570c0e133833"},"vehicle_type_id":"4","last_reported":1747443143,"current_range_meters":11600,"station_id":"ce4bh092rcd13ifvqd20","pricing_plan_id":"cebpf4jnsgd1na2vs0mg"},{"bike_id":"3cd875c6-2fc7-4921-b8fd-8038ee4a98ec","system_id":"levelo_inurba_marseille","lat":43.2963,"lon":5.40601,"is_reserved":false,"is_disabled":false,"rental_uris":{"android":"levelo://app?vid=3cd875c6-2fc7-4921-b8fd-8038ee4a98ec","ios":"levelo://app?vid=3cd875c6-2fc7-4921-b8fd-8038ee4a98ec"},"vehicle_type_id":"4","last_reported":1747443143,"current_range_meters":11600,"station_id":"ce4bh0h2rcd13ifvqd60","pricing_plan_id":"cebpf4jnsgd1na2vs0mg"},{"bike_id":"af44d4a3-d6a4-4f2a-9ee4-ed38f31a9dc5","system_id":"levelo_inurba_marseille","lat":43.24786,"lon":5.37494,"is_reserved":false,"is_disabled":false,"rental_uris":{"android":"levelo://app?vid=af44d4a3-d6a4-4f2a-9ee4-ed38f31a9dc5","ios":"levelo://app?vid=af44d4a3-d6a4-4f2a-9ee4-ed38f31a9dc5"},"vehicle_type_id":"4","last_reported":1747443143,"current_range_meters":11600,"station_id":"ce4bhgh2rcd13ifvqfb0","pricing_plan_id":"cebpf4jnsgd1na2vs0mg"},{"bike_id":"3d216e9a-870c-4f34-a5ad-2b102159f30a","system_id":"levelo_inurba_marseille","lat":43.26939,"lon":5.38911,"is_reserved":false,"is_disabled":false,"rental_uris":{"android":"levelo://app?vid=3d216e9a-870c-4f34-a5ad-2b102159f30a","ios":"levelo://app?vid=3d216e9a-870c-4f34-a5ad-2b102159f30a"},"vehicle_type_id":"4","last_reported":1747443143,"current_range_meters":11600,"station_id":"ce4bhhh2rcd13ifvqfl0","pricing_plan_id":"cebpf4jnsgd1na2vs0mg"},{"bike_id":"b6722871-ecb9-4532-8e24-3cb5e6fa1809","system_id":"levelo_inurba_marseille","lat":43.27206,"lon":5.39187,"is_reserved":false,"is_disabled":false,"rental_uris":{"android":"levelo://app?vid=b6722871-ecb9-4532-8e24-3cb5e6fa1809","ios":"levelo://app?vid=b6722871-ecb9-4532-8e24-3cb5e6fa1809"},"vehicle_type_id":"4","last_reported":1747443143,"current_range_meters":11600,"station_id":"ce4bhhp2rcd13ifvqfm0","pricing_plan_id":"cebpf4jnsgd1na2vs0mg"},{"bike_id":"6b22d085-5486-4c2f-8819-3b8733106875","system_id":"levelo_inurba_marseille","lat":43.292866,"lon":5.401196,"is_reserved":false,"is_disabled":false,"rental_uris":{"android":"levelo://app?vid=6b22d085-5486-4c2f-8819-3b8733106875","ios":"levelo://app?vid=6b22d085-5486-4c2f-8819-3b8733106875"},"vehicle_type_id":"4","last_reported":1747443143,"current_range_meters":12000,"station_id":"ce4bh312rcd13ifvqdk0","pricing_plan_id":"cebpf4jnsgd1na2vs0mg"},{"bike_id":"e5a2b069-efb7-48e5-8628-944f65ddff23","system_id":"levelo_inurba_marseille","lat":43.28383,"lon":5.37518,"is_reserved":false,"is_disabled":false,"rental_uris":{"android":"levelo://app?vid=e5a2b069-efb7-48e5-8628-944f65ddff23","ios":"levelo://app?vid=e5a2b069-efb7-48e5-8628-944f65ddff23"},"vehicle_type_id":"4","last_reported":1747443143,"current_range_meters":12000,"station_id":"ce4bh412rcd13ifvqds0","pricing_plan_id":"cebpf4jnsgd1na2vs0mg"},{"bike_id":"721df069-6549-4c54-8bac-4b295f90d0c2","system_id":"levelo_inurba_marseille","lat":43.27561,"lon":5.38423,"is_reserved":false,"is_disabled":false,"rental_uris":{"android":"levelo://app?vid=721df069-6549-4c54-8bac-4b295f90d0c2","ios":"levelo://app?vid=721df069-6549-4c54-8bac-4b295f90d0c2"},"vehicle_type_id":"4","last_reported":1747443143,"current_range_meters":12000,"station_id":"ce4bhh92rcd13ifvqfi0","pricing_plan_id":"cebpf4jnsgd1na2vs0mg"},{"bike_id":"fede80f5-6052-458f-b876-b381da02fc76","system_id":"levelo_inurba_marseille","lat":43.25116,"lon":5.40326,"is_reserved":false,"is_disabled":false,"rental_uris":{"android":"levelo://app?vid=fede80f5-6052-458f-b876-b381da02fc76","ios":"levelo://app?vid=fede80f5-6052-458f-b876-b381da02fc76"},"vehicle_type_id":"4","last_reported":1747443143,"current_range_meters":12000,"station_id":"ce4bhlh2rcd13ifvqgig","pricing_plan_id":"cebpf4jnsgd1na2vs0mg"},{"bike_id":"04a18447-2884-4855-b162-74adb2e2d419","system_id":"levelo_inurba_marseille","lat":43.24544,"lon":5.3952,"is_reserved":false,"is_disabled":false,"rental_uris":{"android":"levelo://app?vid=04a18447-2884-4855-b162-74adb2e2d419","ios":"levelo://app?vid=04a18447-2884-4855-b162-74adb2e2d419"},"vehicle_type_id":"4","last_reported":1747443143,"current_range_meters":12000,"station_id":"ce4bhlp2rcd13ifvqgjg","pricing_plan_id":"cebpf4jnsgd1na2vs0mg"},{"bike_id":"a0af3bfb-b2d7-4a69-ba04-7a6d5675a899","system_id":"levelo_inurba_marseille","lat":43.32542,"lon":5.41437,"is_reserved":false,"is_disabled":false,"rental_uris":{"android":"levelo://app?vid=a0af3bfb-b2d7-4a69-ba04-7a6d5675a899","ios":"levelo://app?vid=a0af3bfb-b2d7-4a69-ba04-7a6d5675a899"},"vehicle_type_id":"4","last_reported":1747443143,"current_range_meters":12000,"station_id":"ce4bhq12rcd13ifvqhhg","pricing_plan_id":"cebpf4jnsgd1na2vs0mg"},{"bike_id":"8c096d36-b301-47ce-bf2e-0dfaa371183c","system_id":"levelo_inurba_marseille","lat":43.322778,"lon":5.382787,"is_reserved":false,"is_disabled":false,"rental_uris":{"android":"levelo://app?vid=8c096d36-b301-47ce-bf2e-0dfaa371183c","ios":"levelo://app?vid=8c096d36-b301-47ce-bf2e-0dfaa371183c"},"vehicle_type_id":"4","last_reported":1747443143,"current_range_meters":12000,"station_id":"ce4bhr12rcd13ifvqhqg","pricing_plan_id":"cebpf4jnsgd1na2vs0mg"},{"bike_id":"52f73c65-e56a-4791-be63-f4dafb48bba9","system_id":"levelo_inurba_marseille","lat":43.30649,"lon":5.40077,"is_reserved":false,"is_disabled":false,"rental_uris":{"android":"levelo://app?vid=52f73c65-e56a-4791-be63-f4dafb48bba9","ios":"levelo://app?vid=52f73c65-e56a-4791-be63-f4dafb48bba9"},"vehicle_type_id":"4","last_reported":1747443143,"current_range_meters":12400,"station_id":"ce4bh112rcd13ifvqda0","pricing_plan_id":"cebpf4jnsgd1na2vs0mg"},{"bike_id":"7f0f0eb1-eb6a-48f0-b4c4-ba8877209c3a","system_id":"levelo_inurba_marseille","lat":43.271981,"lon":5.365098,"is_reserved":false,"is_disabled":false,"rental_uris":{"android":"levelo://app?vid=7f0f0eb1-eb6a-48f0-b4c4-ba8877209c3a","ios":"levelo://app?vid=7f0f0eb1-eb6a-48f0-b4c4-ba8877209c3a"},"vehicle_type_id":"4","last_reported":1747443143,"current_range_meters":12800,"station_id":"","pricing_plan_id":"cebpf4jnsgd1na2vs0mg"},{"bike_id":"51b14f2c-a860-4537-9033-48a7ce05506e","system_id":"levelo_inurba_marseille","lat":43.30929,"lon":5.40132,"is_reserved":false,"is_disabled":false,"rental_uris":{"android":"levelo://app?vid=51b14f2c-a860-4537-9033-48a7ce05506e","ios":"levelo://app?vid=51b14f2c-a860-4537-9033-48a7ce05506e"},"vehicle_type_id":"4","last_reported":1747443143,"current_range_meters":12800,"station_id":"ce4bgvp2rcd13ifvqct0","pricing_plan_id":"cebpf4jnsgd1na2vs0mg"},{"bike_id":"d399f67f-0396-4821-89ac-9cdd629dd41b","system_id":"levelo_inurba_marseille","lat":43.29277,"lon":5.40117,"is_reserved":false,"is_disabled":false,"rental_uris":{"android":"levelo://app?vid=d399f67f-0396-4821-89ac-9cdd629dd41b","ios":"levelo://app?vid=d399f67f-0396-4821-89ac-9cdd629dd41b"},"vehicle_type_id":"4","last_reported":1747443143,"current_range_meters":12800,"station_id":"ce4bh312rcd13ifvqdk0","pricing_plan_id":"cebpf4jnsgd1na2vs0mg"},{"bike_id":"a4ee7bc1-cc74-4f6f-931f-5e00624f621f","system_id":"levelo_inurba_marseille","lat":43.28356,"lon":5.38107,"is_reserved":false,"is_disabled":false,"rental_uris":{"android":"levelo://app?vid=a4ee7bc1-cc74-4f6f-931f-5e00624f621f","ios":"levelo://app?vid=a4ee7bc1-cc74-4f6f-931f-5e00624f621f"},"vehicle_type_id":"4","last_reported":1747443143,"current_range_meters":12800,"station_id":"ce4bh412rcd13ifvqdr0","pricing_plan_id":"cebpf4jnsgd1na2vs0mg"},{"bike_id":"6f39507d-dc84-417b-b3c7-9c7fb085d5ea","system_id":"levelo_inurba_marseille","lat":43.27192,"lon":5.40993,"is_reserved":false,"is_disabled":false,"rental_uris":{"android":"levelo://app?vid=6f39507d-dc84-417b-b3c7-9c7fb085d5ea","ios":"levelo://app?vid=6f39507d-dc84-417b-b3c7-9c7fb085d5ea"},"vehicle_type_id":"4","last_reported":1747443143,"current_range_meters":12800,"station_id":"ce4bhl12rcd13ifvqgf0","pricing_plan_id":"cebpf4jnsgd1na2vs0mg"},{"bike_id":"f7ee0080-6106-4f65-bd17-b89acd336dfd","system_id":"levelo_inurba_marseille","lat":43.31886,"lon":5.40738,"is_reserved":false,"is_disabled":false,"rental_uris":{"android":"levelo://app?vid=f7ee0080-6106-4f65-bd17-b89acd336dfd","ios":"levelo://app?vid=f7ee0080-6106-4f65-bd17-b89acd336dfd"},"vehicle_type_id":"4","last_reported":1747443143,"current_range_meters":12800,"station_id":"ce4bhq12rcd13ifvqhig","pricing_plan_id":"cebpf4jnsgd1na2vs0mg"},{"bike_id":"6da655b8-0421-4e8a-ae32-6637af746f6a","system_id":"levelo_inurba_marseille","lat":43.26822,"lon":5.41108,"is_reserved":false,"is_disabled":false,"rental_uris":{"android":"levelo://app?vid=6da655b8-0421-4e8a-ae32-6637af746f6a","ios":"levelo://app?vid=6da655b8-0421-4e8a-ae32-6637af746f6a"},"vehicle_type_id":"4","last_reported":1747443143,"current_range_meters":13600,"station_id":"","pricing_plan_id":"cebpf4jnsgd1na2vs0mg"},{"bike_id":"ab6ea088-36b9-4853-9cb2-123cb287e172","system_id":"levelo_inurba_marseille","lat":43.26566,"lon":5.39004,"is_reserved":false,"is_disabled":false,"rental_uris":{"android":"levelo://app?vid=ab6ea088-36b9-4853-9cb2-123cb287e172","ios":"levelo://app?vid=ab6ea088-36b9-4853-9cb2-123cb287e172"},"vehicle_type_id":"4","last_reported":1747443143,"current_range_meters":13600,"station_id":"ce4bhe12rcd13ifvqf30","pricing_plan_id":"cebpf4jnsgd1na2vs0mg"},{"bike_id":"b8e6468b-87db-4ff6-8122-ef13bf5b7c8c","system_id":"levelo_inurba_marseille","lat":43.31376,"lon":5.37929,"is_reserved":false,"is_disabled":false,"rental_uris":{"android":"levelo://app?vid=b8e6468b-87db-4ff6-8122-ef13bf5b7c8c","ios":"levelo://app?vid=b8e6468b-87db-4ff6-8122-ef13bf5b7c8c"},"vehicle_type_id":"4","last_reported":1747443143,"current_range_meters":14000,"station_id":"","pricing_plan_id":"cebpf4jnsgd1na2vs0mg"},{"bike_id":"aeca2e96-8dc6-4af9-a31e-df7f2249e0ec","system_id":"levelo_inurba_marseille","lat":43.27976,"lon":5.387416,"is_reserved":false,"is_disabled":false,"rental_uris":{"android":"levelo://app?vid=aeca2e96-8dc6-4af9-a31e-df7f2249e0ec","ios":"levelo://app?vid=aeca2e96-8dc6-4af9-a31e-df7f2249e0ec"},"vehicle_type_id":"4","last_reported":1747443143,"current_range_meters":14000,"station_id":"ce4bhg12rcd13ifvqf80","pricing_plan_id":"cebpf4jnsgd1na2vs0mg"},{"bike_id":"852ea9ac-6507-488a-87c5-b27d54b34b2e","system_id":"levelo_inurba_marseille","lat":43.2814,"lon":5.42644,"is_reserved":false,"is_disabled":false,"rental_uris":{"android":"levelo://app?vid=852ea9ac-6507-488a-87c5-b27d54b34b2e","ios":"levelo://app?vid=852ea9ac-6507-488a-87c5-b27d54b34b2e"},"vehicle_type_id":"4","last_reported":1747443143,"current_range_meters":14000,"station_id":"ce4bhnh2rcd13ifvqgug","pricing_plan_id":"cebpf4jnsgd1na2vs0mg"},{"bike_id":"b9c75e31-0dec-4268-a32d-5866a7675c28","system_id":"levelo_inurba_marseille","lat":43.31123,"lon":5.37761,"is_reserved":false,"is_disabled":false,"rental_uris":{"android":"levelo://app?vid=b9c75e31-0dec-4268-a32d-5866a7675c28","ios":"levelo://app?vid=b9c75e31-0dec-4268-a32d-5866a7675c28"},"vehicle_type_id":"4","last_reported":1747443143,"current_range_meters":14400,"station_id":"ce4bgt92rcd13ifvqcg0","pricing_plan_id":"cebpf4jnsgd1na2vs0mg"},{"bike_id":"77324ed5-4a1d-4c12-86ae-c2ae87deb52f","system_id":"levelo_inurba_marseille","lat":43.29887,"lon":5.38895,"is_reserved":false,"is_disabled":false,"rental_uris":{"android":"levelo://app?vid=77324ed5-4a1d-4c12-86ae-c2ae87deb52f","ios":"levelo://app?vid=77324ed5-4a1d-4c12-86ae-c2ae87deb52f"},"vehicle_type_id":"4","last_reported":1747443143,"current_range_meters":14400,"station_id":"ce4bh392rcd13ifvqdl0","pricing_plan_id":"cebpf4jnsgd1na2vs0mg"},{"bike_id":"05fa6154-7b6d-440a-86e3-24f2d5b80dee","system_id":"levelo_inurba_marseille","lat":43.243848,"lon":5.370535,"is_reserved":false,"is_disabled":false,"rental_uris":{"android":"levelo://app?vid=05fa6154-7b6d-440a-86e3-24f2d5b80dee","ios":"levelo://app?vid=05fa6154-7b6d-440a-86e3-24f2d5b80dee"},"vehicle_type_id":"4","last_reported":1747443143,"current_range_meters":14800,"station_id":"ce4bhhh2rcd13ifvqfk0","pricing_plan_id":"cebpf4jnsgd1na2vs0mg"},{"bike_id":"5859aa69-92a8-4d08-a554-05f544a7c60e","system_id":"levelo_inurba_marseille","lat":43.24409,"lon":5.37067,"is_reserved":false,"is_disabled":false,"rental_uris":{"android":"levelo://app?vid=5859aa69-92a8-4d08-a554-05f544a7c60e","ios":"levelo://app?vid=5859aa69-92a8-4d08-a554-05f544a7c60e"},"vehicle_type_id":"4","last_reported":1747443143,"current_range_meters":14800,"station_id":"ce4bhhh2rcd13ifvqfk0","pricing_plan_id":"cebpf4jnsgd1na2vs0mg"},{"bike_id":"c96873c1-07ae-4fa5-9d39-77223fea8e8c","system_id":"levelo_inurba_marseille","lat":43.24055,"lon":5.37816,"is_reserved":false,"is_disabled":false,"rental_uris":{"android":"levelo://app?vid=c96873c1-07ae-4fa5-9d39-77223fea8e8c","ios":"levelo://app?vid=c96873c1-07ae-4fa5-9d39-77223fea8e8c"},"vehicle_type_id":"4","last_reported":1747443143,"current_range_meters":14800,"station_id":"ce4bhnp2rcd13ifvqgvg","pricing_plan_id":"cebpf4jnsgd1na2vs0mg"},{"bike_id":"296481d9-ac5b-41e5-b3a7-2556863503ea","system_id":"levelo_inurba_marseille","lat":43.29895,"lon":5.43676,"is_reserved":false,"is_disabled":false,"rental_uris":{"android":"levelo://app?vid=296481d9-ac5b-41e5-b3a7-2556863503ea","ios":"levelo://app?vid=296481d9-ac5b-41e5-b3a7-2556863503ea"},"vehicle_type_id":"4","last_reported":1747443143,"current_range_meters":14800,"station_id":"ce4bhpp2rcd13ifvqhfg","pricing_plan_id":"cebpf4jnsgd1na2vs0mg"},{"bike_id":"838936c3-57df-4d22-8fd7-ed39b0a3f5c2","system_id":"levelo_inurba_marseille","lat":43.30264,"lon":5.4003,"is_reserved":false,"is_disabled":false,"rental_uris":{"android":"levelo://app?vid=838936c3-57df-4d22-8fd7-ed39b0a3f5c2","ios":"levelo://app?vid=838936c3-57df-4d22-8fd7-ed39b0a3f5c2"},"vehicle_type_id":"4","last_reported":1747443143,"current_range_meters":15200,"station_id":"ce4bgvh2rcd13ifvqcs0","pricing_plan_id":"cebpf4jnsgd1na2vs0mg"},{"bike_id":"dd8c66ca-d773-4748-bce1-7bf7f85dfaca","system_id":"levelo_inurba_marseille","lat":43.3065,"lon":5.40085,"is_reserved":false,"is_disabled":false,"rental_uris":{"android":"levelo://app?vid=dd8c66ca-d773-4748-bce1-7bf7f85dfaca","ios":"levelo://app?vid=dd8c66ca-d773-4748-bce1-7bf7f85dfaca"},"vehicle_type_id":"4","last_reported":1747443143,"current_range_meters":15200,"station_id":"ce4bh112rcd13ifvqda0","pricing_plan_id":"cebpf4jnsgd1na2vs0mg"},{"bike_id":"36d675ba-fa56-4b81-9412-e90e0a1df913","system_id":"levelo_inurba_marseille","lat":43.30923,"lon":5.40143,"is_reserved":false,"is_disabled":false,"rental_uris":{"android":"levelo://app?vid=36d675ba-fa56-4b81-9412-e90e0a1df913","ios":"levelo://app?vid=36d675ba-fa56-4b81-9412-e90e0a1df913"},"vehicle_type_id":"4","last_reported":1747443143,"current_range_meters":16000,"station_id":"ce4bgvp2rcd13ifvqct0","pricing_plan_id":"cebpf4jnsgd1na2vs0mg"},{"bike_id":"aeec4e39-af05-47c5-b2f5-375d292acea5","system_id":"levelo_inurba_marseille","lat":43.30208,"lon":5.39472,"is_reserved":false,"is_disabled":false,"rental_uris":{"android":"levelo://app?vid=aeec4e39-af05-47c5-b2f5-375d292acea5","ios":"levelo://app?vid=aeec4e39-af05-47c5-b2f5-375d292acea5"},"vehicle_type_id":"4","last_reported":1747443143,"current_range_meters":16000,"station_id":"ce4bh0p2rcd13ifvqd70","pricing_plan_id":"cebpf4jnsgd1na2vs0mg"},{"bike_id":"ff73f50f-d4f6-452f-b8c5-c3e016c11039","system_id":"levelo_inurba_marseille","lat":43.265715,"lon":5.390156,"is_reserved":false,"is_disabled":false,"rental_uris":{"android":"levelo://app?vid=ff73f50f-d4f6-452f-b8c5-c3e016c11039","ios":"levelo://app?vid=ff73f50f-d4f6-452f-b8c5-c3e016c11039"},"vehicle_type_id":"4","last_reported":1747443143,"current_range_meters":16000,"station_id":"ce4bhe12rcd13ifvqf30","pricing_plan_id":"cebpf4jnsgd1na2vs0mg"},{"bike_id":"844e0845-2667-404b-9f3a-f80940d0cad3","system_id":"levelo_inurba_marseille","lat":43.24815,"lon":5.37467,"is_reserved":false,"is_disabled":false,"rental_uris":{"android":"levelo://app?vid=844e0845-2667-404b-9f3a-f80940d0cad3","ios":"levelo://app?vid=844e0845-2667-404b-9f3a-f80940d0cad3"},"vehicle_type_id":"4","last_reported":1747443143,"current_range_meters":16000,"station_id":"ce4bhgh2rcd13ifvqfb0","pricing_plan_id":"cebpf4jnsgd1na2vs0mg"},{"bike_id":"d9b504ee-8007-4760-a4a1-f54f52b040ce","system_id":"levelo_inurba_marseille","lat":43.30308,"lon":5.37295,"is_reserved":false,"is_disabled":false,"rental_uris":{"android":"levelo://app?vid=d9b504ee-8007-4760-a4a1-f54f52b040ce","ios":"levelo://app?vid=d9b504ee-8007-4760-a4a1-f54f52b040ce"},"vehicle_type_id":"4","last_reported":1747443143,"current_range_meters":16400,"station_id":"","pricing_plan_id":"cebpf4jnsgd1na2vs0mg"},{"bike_id":"93b7313b-e798-456c-a2fd-2fca3cd105de","system_id":"levelo_inurba_marseille","lat":43.30244,"lon":5.40073,"is_reserved":false,"is_disabled":false,"rental_uris":{"android":"levelo://app?vid=93b7313b-e798-456c-a2fd-2fca3cd105de","ios":"levelo://app?vid=93b7313b-e798-456c-a2fd-2fca3cd105de"},"vehicle_type_id":"4","last_reported":1747443143,"current_range_meters":16800,"station_id":"ce4bgvh2rcd13ifvqcs0","pricing_plan_id":"cebpf4jnsgd1na2vs0mg"},{"bike_id":"c721b5a3-2e8c-48be-86db-c2b48bfbe8c0","system_id":"levelo_inurba_marseille","lat":43.23196,"lon":5.40006,"is_reserved":false,"is_disabled":false,"rental_uris":{"android":"levelo://app?vid=c721b5a3-2e8c-48be-86db-c2b48bfbe8c0","ios":"levelo://app?vid=c721b5a3-2e8c-48be-86db-c2b48bfbe8c0"},"vehicle_type_id":"4","last_reported":1747443143,"current_range_meters":16800,"station_id":"ce4bhn12rcd13ifvqgqg","pricing_plan_id":"cebpf4jnsgd1na2vs0mg"},{"bike_id":"3f1f80f2-74b8-4b50-8e33-883290c5e268","system_id":"levelo_inurba_marseille","lat":43.231776,"lon":5.399843,"is_reserved":false,"is_disabled":false,"rental_uris":{"android":"levelo://app?vid=3f1f80f2-74b8-4b50-8e33-883290c5e268","ios":"levelo://app?vid=3f1f80f2-74b8-4b50-8e33-883290c5e268"},"vehicle_type_id":"4","last_reported":1747443143,"current_range_meters":16800,"station_id":"ce4bhn12rcd13ifvqgqg","pricing_plan_id":"cebpf4jnsgd1na2vs0mg"},{"bike_id":"aafe78a6-692c-4e55-8bb8-4da8ee7b3518","system_id":"levelo_inurba_marseille","lat":43.28733,"lon":5.39972,"is_reserved":false,"is_disabled":false,"rental_uris":{"android":"levelo://app?vid=aafe78a6-692c-4e55-8bb8-4da8ee7b3518","ios":"levelo://app?vid=aafe78a6-692c-4e55-8bb8-4da8ee7b3518"},"vehicle_type_id":"4","last_reported":1747443143,"current_range_meters":16800,"station_id":"ce4bho92rcd13ifvqh3g","pricing_plan_id":"cebpf4jnsgd1na2vs0mg"},{"bike_id":"edd12218-8475-4e8d-b63e-0814f4946c70","system_id":"levelo_inurba_marseille","lat":43.32336,"lon":5.40627,"is_reserved":false,"is_disabled":false,"rental_uris":{"android":"levelo://app?vid=edd12218-8475-4e8d-b63e-0814f4946c70","ios":"levelo://app?vid=edd12218-8475-4e8d-b63e-0814f4946c70"},"vehicle_type_id":"4","last_reported":1747443143,"current_range_meters":16800,"station_id":"ce4bhq92rcd13ifvqhjg","pricing_plan_id":"cebpf4jnsgd1na2vs0mg"},{"bike_id":"e131e685-e134-45f3-b108-446e40511ca5","system_id":"levelo_inurba_marseille","lat":43.28721,"lon":5.36103,"is_reserved":false,"is_disabled":false,"rental_uris":{"android":"levelo://app?vid=e131e685-e134-45f3-b108-446e40511ca5","ios":"levelo://app?vid=e131e685-e134-45f3-b108-446e40511ca5"},"vehicle_type_id":"4","last_reported":1747443143,"current_range_meters":16800,"station_id":"cki0cbj6b192h4jlfktg","pricing_plan_id":"cebpf4jnsgd1na2vs0mg"},{"bike_id":"8f600fbf-ec68-4624-9822-6cce2bd50be5","system_id":"levelo_inurba_marseille","lat":43.325278,"lon":5.428339,"is_reserved":false,"is_disabled":false,"rental_uris":{"android":"levelo://app?vid=8f600fbf-ec68-4624-9822-6cce2bd50be5","ios":"levelo://app?vid=8f600fbf-ec68-4624-9822-6cce2bd50be5"},"vehicle_type_id":"4","last_reported":1747443143,"current_range_meters":17200,"station_id":"","pricing_plan_id":"cebpf4jnsgd1na2vs0mg"},{"bike_id":"194f17c8-93f0-4ff7-9d7b-60238225a3ec","system_id":"levelo_inurba_marseille","lat":43.261672,"lon":5.420615,"is_reserved":false,"is_disabled":false,"rental_uris":{"android":"levelo://app?vid=194f17c8-93f0-4ff7-9d7b-60238225a3ec","ios":"levelo://app?vid=194f17c8-93f0-4ff7-9d7b-60238225a3ec"},"vehicle_type_id":"4","last_reported":1747443143,"current_range_meters":17200,"station_id":"","pricing_plan_id":"cebpf4jnsgd1na2vs0mg"},{"bike_id":"a70005ac-0a15-4886-8a0b-5c42247a7114","system_id":"levelo_inurba_marseille","lat":43.30788,"lon":5.38156,"is_reserved":false,"is_disabled":false,"rental_uris":{"android":"levelo://app?vid=a70005ac-0a15-4886-8a0b-5c42247a7114","ios":"levelo://app?vid=a70005ac-0a15-4886-8a0b-5c42247a7114"},"vehicle_type_id":"4","last_reported":1747443143,"current_range_meters":17200,"station_id":"ce4bgt12rcd13ifvqce0","pricing_plan_id":"cebpf4jnsgd1na2vs0mg"},{"bike_id":"a89ef3f0-3fcc-4f75-a1fa-dffb133acf8f","system_id":"levelo_inurba_marseille","lat":43.30324,"lon":5.40436,"is_reserved":false,"is_disabled":false,"rental_uris":{"android":"levelo://app?vid=a89ef3f0-3fcc-4f75-a1fa-dffb133acf8f","ios":"levelo://app?vid=a89ef3f0-3fcc-4f75-a1fa-dffb133acf8f"},"vehicle_type_id":"4","last_reported":1747443143,"current_range_meters":17200,"station_id":"ce4bh012rcd13ifvqd10","pricing_plan_id":"cebpf4jnsgd1na2vs0mg"},{"bike_id":"86c832c5-9a03-4a84-82ff-03a412f37003","system_id":"levelo_inurba_marseille","lat":43.30318,"lon":5.40447,"is_reserved":false,"is_disabled":false,"rental_uris":{"android":"levelo://app?vid=86c832c5-9a03-4a84-82ff-03a412f37003","ios":"levelo://app?vid=86c832c5-9a03-4a84-82ff-03a412f37003"},"vehicle_type_id":"4","last_reported":1747443143,"current_range_meters":17200,"station_id":"ce4bh012rcd13ifvqd10","pricing_plan_id":"cebpf4jnsgd1na2vs0mg"},{"bike_id":"465ca380-6a0b-4a53-aac8-6d66ff8ad361","system_id":"levelo_inurba_marseille","lat":43.27913,"lon":5.39584,"is_reserved":false,"is_disabled":false,"rental_uris":{"android":"levelo://app?vid=465ca380-6a0b-4a53-aac8-6d66ff8ad361","ios":"levelo://app?vid=465ca380-6a0b-4a53-aac8-6d66ff8ad361"},"vehicle_type_id":"4","last_reported":1747443143,"current_range_meters":17200,"station_id":"ce4bhf92rcd13ifvqf40","pricing_plan_id":"cebpf4jnsgd1na2vs0mg"},{"bike_id":"52b44b22-d946-4b9e-9a5d-c34672e1243c","system_id":"levelo_inurba_marseille","lat":43.30298,"lon":5.39211,"is_reserved":false,"is_disabled":false,"rental_uris":{"android":"levelo://app?vid=52b44b22-d946-4b9e-9a5d-c34672e1243c","ios":"levelo://app?vid=52b44b22-d946-4b9e-9a5d-c34672e1243c"},"vehicle_type_id":"4","last_reported":1747443143,"current_range_meters":17600,"station_id":"ce4bgkh2rcd13ifvqbk0","pricing_plan_id":"cebpf4jnsgd1na2vs0mg"},{"bike_id":"79f89832-f9a8-4a23-a4f7-88a9cbc43f00","system_id":"levelo_inurba_marseille","lat":43.30257,"lon":5.40095,"is_reserved":false,"is_disabled":false,"rental_uris":{"android":"levelo://app?vid=79f89832-f9a8-4a23-a4f7-88a9cbc43f00","ios":"levelo://app?vid=79f89832-f9a8-4a23-a4f7-88a9cbc43f00"},"vehicle_type_id":"4","last_reported":1747443143,"current_range_meters":17600,"station_id":"ce4bgvh2rcd13ifvqcs0","pricing_plan_id":"cebpf4jnsgd1na2vs0mg"},{"bike_id":"36e412fc-5676-428c-8273-57542e182c3f","system_id":"levelo_inurba_marseille","lat":43.30654,"lon":5.40078,"is_reserved":false,"is_disabled":false,"rental_uris":{"android":"levelo://app?vid=36e412fc-5676-428c-8273-57542e182c3f","ios":"levelo://app?vid=36e412fc-5676-428c-8273-57542e182c3f"},"vehicle_type_id":"4","last_reported":1747443143,"current_range_meters":17600,"station_id":"ce4bh112rcd13ifvqda0","pricing_plan_id":"cebpf4jnsgd1na2vs0mg"},{"bike_id":"9e49a682-253a-4b25-9aa1-c8e49feac05d","system_id":"levelo_inurba_marseille","lat":43.26494,"lon":5.39545,"is_reserved":false,"is_disabled":false,"rental_uris":{"android":"levelo://app?vid=9e49a682-253a-4b25-9aa1-c8e49feac05d","ios":"levelo://app?vid=9e49a682-253a-4b25-9aa1-c8e49feac05d"},"vehicle_type_id":"4","last_reported":1747443143,"current_range_meters":17600,"station_id":"ce4bhi12rcd13ifvqfq0","pricing_plan_id":"cebpf4jnsgd1na2vs0mg"},{"bike_id":"712f1c4d-f153-4002-ad59-f4eda49ba117","system_id":"levelo_inurba_marseille","lat":43.23184,"lon":5.40013,"is_reserved":false,"is_disabled":false,"rental_uris":{"android":"levelo://app?vid=712f1c4d-f153-4002-ad59-f4eda49ba117","ios":"levelo://app?vid=712f1c4d-f153-4002-ad59-f4eda49ba117"},"vehicle_type_id":"4","last_reported":1747443143,"current_range_meters":17600,"station_id":"ce4bhn12rcd13ifvqgqg","pricing_plan_id":"cebpf4jnsgd1na2vs0mg"},{"bike_id":"6959522a-bd59-4233-a378-b798da685450","system_id":"levelo_inurba_marseille","lat":43.241693,"lon":5.363855,"is_reserved":false,"is_disabled":false,"rental_uris":{"android":"levelo://app?vid=6959522a-bd59-4233-a378-b798da685450","ios":"levelo://app?vid=6959522a-bd59-4233-a378-b798da685450"},"vehicle_type_id":"4","last_reported":1747443143,"current_range_meters":17600,"station_id":"cpo36qri1sfpv3e86is0","pricing_plan_id":"cebpf4jnsgd1na2vs0mg"},{"bike_id":"f14ff356-705b-4c10-9776-0a9fbf94763f","system_id":"levelo_inurba_marseille","lat":43.28199,"lon":5.39047,"is_reserved":false,"is_disabled":false,"rental_uris":{"android":"levelo://app?vid=f14ff356-705b-4c10-9776-0a9fbf94763f","ios":"levelo://app?vid=f14ff356-705b-4c10-9776-0a9fbf94763f"},"vehicle_type_id":"4","last_reported":1747443143,"current_range_meters":18000,"station_id":"","pricing_plan_id":"cebpf4jnsgd1na2vs0mg"},{"bike_id":"eeba79b8-1813-484e-b68c-4c7a8dea3f27","system_id":"levelo_inurba_marseille","lat":43.30038,"lon":5.37222,"is_reserved":false,"is_disabled":false,"rental_uris":{"android":"levelo://app?vid=eeba79b8-1813-484e-b68c-4c7a8dea3f27","ios":"levelo://app?vid=eeba79b8-1813-484e-b68c-4c7a8dea3f27"},"vehicle_type_id":"4","last_reported":1747443143,"current_range_meters":18000,"station_id":"","pricing_plan_id":"cebpf4jnsgd1na2vs0mg"},{"bike_id":"efd0c986-76dc-485b-8a83-afbcec4f2a16","system_id":"levelo_inurba_marseille","lat":43.23826,"lon":5.37348,"is_reserved":false,"is_disabled":false,"rental_uris":{"android":"levelo://app?vid=efd0c986-76dc-485b-8a83-afbcec4f2a16","ios":"levelo://app?vid=efd0c986-76dc-485b-8a83-afbcec4f2a16"},"vehicle_type_id":"4","last_reported":1747443143,"current_range_meters":18000,"station_id":"","pricing_plan_id":"cebpf4jnsgd1na2vs0mg"},{"bike_id":"63696afc-d4ad-4506-9d77-647f15610b35","system_id":"levelo_inurba_marseille","lat":43.31115,"lon":5.37779,"is_reserved":false,"is_disabled":false,"rental_uris":{"android":"levelo://app?vid=63696afc-d4ad-4506-9d77-647f15610b35","ios":"levelo://app?vid=63696afc-d4ad-4506-9d77-647f15610b35"},"vehicle_type_id":"4","last_reported":1747443143,"current_range_meters":18000,"station_id":"ce4bgt92rcd13ifvqcg0","pricing_plan_id":"cebpf4jnsgd1na2vs0mg"},{"bike_id":"ffacb92f-e7c4-4fb2-af44-92ebc0f906c1","system_id":"levelo_inurba_marseille","lat":43.30876,"lon":5.39632,"is_reserved":false,"is_disabled":false,"rental_uris":{"android":"levelo://app?vid=ffacb92f-e7c4-4fb2-af44-92ebc0f906c1","ios":"levelo://app?vid=ffacb92f-e7c4-4fb2-af44-92ebc0f906c1"},"vehicle_type_id":"4","last_reported":1747443143,"current_range_meters":18000,"station_id":"ce4bh012rcd13ifvqcv0","pricing_plan_id":"cebpf4jnsgd1na2vs0mg"},{"bike_id":"b26a0dd7-cbdc-4ab7-8def-31c4b88b224a","system_id":"levelo_inurba_marseille","lat":43.31222,"lon":5.39267,"is_reserved":false,"is_disabled":false,"rental_uris":{"android":"levelo://app?vid=b26a0dd7-cbdc-4ab7-8def-31c4b88b224a","ios":"levelo://app?vid=b26a0dd7-cbdc-4ab7-8def-31c4b88b224a"},"vehicle_type_id":"4","last_reported":1747443143,"current_range_meters":18800,"station_id":"","pricing_plan_id":"cebpf4jnsgd1na2vs0mg"},{"bike_id":"ea85b944-994c-4259-bb8a-f30ee3f8e132","system_id":"levelo_inurba_marseille","lat":43.30344,"lon":5.39244,"is_reserved":false,"is_disabled":false,"rental_uris":{"android":"levelo://app?vid=ea85b944-994c-4259-bb8a-f30ee3f8e132","ios":"levelo://app?vid=ea85b944-994c-4259-bb8a-f30ee3f8e132"},"vehicle_type_id":"4","last_reported":1747443143,"current_range_meters":18800,"station_id":"","pricing_plan_id":"cebpf4jnsgd1na2vs0mg"},{"bike_id":"4f12897c-2286-4ff6-8b08-c0a318ab8550","system_id":"levelo_inurba_marseille","lat":43.31366,"lon":5.38531,"is_reserved":false,"is_disabled":false,"rental_uris":{"android":"levelo://app?vid=4f12897c-2286-4ff6-8b08-c0a318ab8550","ios":"levelo://app?vid=4f12897c-2286-4ff6-8b08-c0a318ab8550"},"vehicle_type_id":"4","last_reported":1747443143,"current_range_meters":18800,"station_id":"ce4bgt92rcd13ifvqcf0","pricing_plan_id":"cebpf4jnsgd1na2vs0mg"},{"bike_id":"5f7d6b79-e172-405d-8d44-4ba9e02ba2d7","system_id":"levelo_inurba_marseille","lat":43.31119,"lon":5.37777,"is_reserved":false,"is_disabled":false,"rental_uris":{"android":"levelo://app?vid=5f7d6b79-e172-405d-8d44-4ba9e02ba2d7","ios":"levelo://app?vid=5f7d6b79-e172-405d-8d44-4ba9e02ba2d7"},"vehicle_type_id":"4","last_reported":1747443143,"current_range_meters":18800,"station_id":"ce4bgt92rcd13ifvqcg0","pricing_plan_id":"cebpf4jnsgd1na2vs0mg"},{"bike_id":"89052c1b-e95c-422c-8ad1-9f017da0c226","system_id":"levelo_inurba_marseille","lat":43.286647,"lon":5.363592,"is_reserved":false,"is_disabled":false,"rental_uris":{"android":"levelo://app?vid=89052c1b-e95c-422c-8ad1-9f017da0c226","ios":"levelo://app?vid=89052c1b-e95c-422c-8ad1-9f017da0c226"},"vehicle_type_id":"4","last_reported":1747443143,"current_range_meters":18800,"station_id":"ce4bhah2rcd13ifvqej0","pricing_plan_id":"cebpf4jnsgd1na2vs0mg"},{"bike_id":"8268a799-2bb7-4ed9-81d2-101dc9206646","system_id":"levelo_inurba_marseille","lat":43.25114,"lon":5.40321,"is_reserved":false,"is_disabled":false,"rental_uris":{"android":"levelo://app?vid=8268a799-2bb7-4ed9-81d2-101dc9206646","ios":"levelo://app?vid=8268a799-2bb7-4ed9-81d2-101dc9206646"},"vehicle_type_id":"4","last_reported":1747443143,"current_range_meters":18800,"station_id":"ce4bhlh2rcd13ifvqgig","pricing_plan_id":"cebpf4jnsgd1na2vs0mg"},{"bike_id":"9143bf9f-fcfd-4e3f-8cfb-5538c0aff594","system_id":"levelo_inurba_marseille","lat":43.27982,"lon":5.41666,"is_reserved":false,"is_disabled":false,"rental_uris":{"android":"levelo://app?vid=9143bf9f-fcfd-4e3f-8cfb-5538c0aff594","ios":"levelo://app?vid=9143bf9f-fcfd-4e3f-8cfb-5538c0aff594"},"vehicle_type_id":"4","last_reported":1747443143,"current_range_meters":18800,"station_id":"ce4bho12rcd13ifvqh1g","pricing_plan_id":"cebpf4jnsgd1na2vs0mg"},{"bike_id":"a1a9750a-bc0d-4b11-a3b7-d84a245dd624","system_id":"levelo_inurba_marseille","lat":43.32479,"lon":5.36572,"is_reserved":false,"is_disabled":false,"rental_uris":{"android":"levelo://app?vid=a1a9750a-bc0d-4b11-a3b7-d84a245dd624","ios":"levelo://app?vid=a1a9750a-bc0d-4b11-a3b7-d84a245dd624"},"vehicle_type_id":"4","last_reported":1747443143,"current_range_meters":18800,"station_id":"ce4bhs12rcd13ifvqhvg","pricing_plan_id":"cebpf4jnsgd1na2vs0mg"},{"bike_id":"6cc6e4c8-8c85-4b94-86d2-be3d819c5558","system_id":"levelo_inurba_marseille","lat":43.29249,"lon":5.40891,"is_reserved":false,"is_disabled":false,"rental_uris":{"android":"levelo://app?vid=6cc6e4c8-8c85-4b94-86d2-be3d819c5558","ios":"levelo://app?vid=6cc6e4c8-8c85-4b94-86d2-be3d819c5558"},"vehicle_type_id":"4","last_reported":1747443143,"current_range_meters":19200,"station_id":"ce4bh192rcd13ifvqdc0","pricing_plan_id":"cebpf4jnsgd1na2vs0mg"},{"bike_id":"cbf5a926-a14e-49e1-ac53-9e81acb40398","system_id":"levelo_inurba_marseille","lat":43.248118,"lon":5.374577,"is_reserved":false,"is_disabled":false,"rental_uris":{"android":"levelo://app?vid=cbf5a926-a14e-49e1-ac53-9e81acb40398","ios":"levelo://app?vid=cbf5a926-a14e-49e1-ac53-9e81acb40398"},"vehicle_type_id":"4","last_reported":1747443143,"current_range_meters":19200,"station_id":"ce4bhgh2rcd13ifvqfb0","pricing_plan_id":"cebpf4jnsgd1na2vs0mg"},{"bike_id":"b4e0e14e-e323-4652-8cb4-3c87f1c50859","system_id":"levelo_inurba_marseille","lat":43.27827,"lon":5.39222,"is_reserved":false,"is_disabled":false,"rental_uris":{"android":"levelo://app?vid=b4e0e14e-e323-4652-8cb4-3c87f1c50859","ios":"levelo://app?vid=b4e0e14e-e323-4652-8cb4-3c87f1c50859"},"vehicle_type_id":"4","last_reported":1747443143,"current_range_meters":19200,"station_id":"ce4bhjp2rcd13ifvqga0","pricing_plan_id":"cebpf4jnsgd1na2vs0mg"},{"bike_id":"0e5f176b-a2ad-4e52-a016-7b89f80ce2a1","system_id":"levelo_inurba_marseille","lat":43.257,"lon":5.41116,"is_reserved":false,"is_disabled":false,"rental_uris":{"android":"levelo://app?vid=0e5f176b-a2ad-4e52-a016-7b89f80ce2a1","ios":"levelo://app?vid=0e5f176b-a2ad-4e52-a016-7b89f80ce2a1"},"vehicle_type_id":"4","last_reported":1747443143,"current_range_meters":19200,"station_id":"ce4bhkp2rcd13ifvqgd0","pricing_plan_id":"cebpf4jnsgd1na2vs0mg"},{"bike_id":"2df91c1e-bae9-4f77-8ed6-a464e92c0f2d","system_id":"levelo_inurba_marseille","lat":43.284377,"lon":5.39197,"is_reserved":false,"is_disabled":false,"rental_uris":{"android":"levelo://app?vid=2df91c1e-bae9-4f77-8ed6-a464e92c0f2d","ios":"levelo://app?vid=2df91c1e-bae9-4f77-8ed6-a464e92c0f2d"},"vehicle_type_id":"4","last_reported":1747443143,"current_range_meters":19200,"station_id":"ce4bhoh2rcd13ifvqh5g","pricing_plan_id":"cebpf4jnsgd1na2vs0mg"},{"bike_id":"b071020f-c99f-46ed-97ba-db34ed9f69b9","system_id":"levelo_inurba_marseille","lat":43.329971,"lon":5.438622,"is_reserved":false,"is_disabled":false,"rental_uris":{"android":"levelo://app?vid=b071020f-c99f-46ed-97ba-db34ed9f69b9","ios":"levelo://app?vid=b071020f-c99f-46ed-97ba-db34ed9f69b9"},"vehicle_type_id":"4","last_reported":1747443143,"current_range_meters":19600,"station_id":"","pricing_plan_id":"cebpf4jnsgd1na2vs0mg"},{"bike_id":"5b22c96d-1b61-436e-a53c-3fef0e6c3965","system_id":"levelo_inurba_marseille","lat":43.3092,"lon":5.40201,"is_reserved":false,"is_disabled":false,"rental_uris":{"android":"levelo://app?vid=5b22c96d-1b61-436e-a53c-3fef0e6c3965","ios":"levelo://app?vid=5b22c96d-1b61-436e-a53c-3fef0e6c3965"},"vehicle_type_id":"4","last_reported":1747443143,"current_range_meters":19600,"station_id":"ce4bgvp2rcd13ifvqct0","pricing_plan_id":"cebpf4jnsgd1na2vs0mg"},{"bike_id":"e2a3fc9e-3b2b-4e11-acb8-1f877835728a","system_id":"levelo_inurba_marseille","lat":43.29277,"lon":5.40119,"is_reserved":false,"is_disabled":false,"rental_uris":{"android":"levelo://app?vid=e2a3fc9e-3b2b-4e11-acb8-1f877835728a","ios":"levelo://app?vid=e2a3fc9e-3b2b-4e11-acb8-1f877835728a"},"vehicle_type_id":"4","last_reported":1747443143,"current_range_meters":19600,"station_id":"ce4bh312rcd13ifvqdk0","pricing_plan_id":"cebpf4jnsgd1na2vs0mg"},{"bike_id":"bec3575b-db99-48cd-b73d-9e020c97a752","system_id":"levelo_inurba_marseille","lat":43.28852,"lon":5.35884,"is_reserved":false,"is_disabled":false,"rental_uris":{"android":"levelo://app?vid=bec3575b-db99-48cd-b73d-9e020c97a752","ios":"levelo://app?vid=bec3575b-db99-48cd-b73d-9e020c97a752"},"vehicle_type_id":"4","last_reported":1747443143,"current_range_meters":19600,"station_id":"ce4bhb12rcd13ifvqem0","pricing_plan_id":"cebpf4jnsgd1na2vs0mg"},{"bike_id":"fcaeefda-0dda-417a-bcc1-0a4dbdcf45c9","system_id":"levelo_inurba_marseille","lat":43.27066,"lon":5.42287,"is_reserved":false,"is_disabled":false,"rental_uris":{"android":"levelo://app?vid=fcaeefda-0dda-417a-bcc1-0a4dbdcf45c9","ios":"levelo://app?vid=fcaeefda-0dda-417a-bcc1-0a4dbdcf45c9"},"vehicle_type_id":"4","last_reported":1747443143,"current_range_meters":19600,"station_id":"ce4bhk92rcd13ifvqgb0","pricing_plan_id":"cebpf4jnsgd1na2vs0mg"},{"bike_id":"fe91eab0-536f-47f6-83b3-009d4ed191b8","system_id":"levelo_inurba_marseille","lat":43.30798,"lon":5.43527,"is_reserved":false,"is_disabled":false,"rental_uris":{"android":"levelo://app?vid=fe91eab0-536f-47f6-83b3-009d4ed191b8","ios":"levelo://app?vid=fe91eab0-536f-47f6-83b3-009d4ed191b8"},"vehicle_type_id":"4","last_reported":1747443143,"current_range_meters":19600,"station_id":"ce4bhph2rcd13ifvqheg","pricing_plan_id":"cebpf4jnsgd1na2vs0mg"},{"bike_id":"3eacf02e-f6f6-4d58-9549-81b9dd836990","system_id":"levelo_inurba_marseille","lat":43.30858,"lon":5.39652,"is_reserved":false,"is_disabled":false,"rental_uris":{"android":"levelo://app?vid=3eacf02e-f6f6-4d58-9549-81b9dd836990","ios":"levelo://app?vid=3eacf02e-f6f6-4d58-9549-81b9dd836990"},"vehicle_type_id":"4","last_reported":1747443143,"current_range_meters":20000,"station_id":"","pricing_plan_id":"cebpf4jnsgd1na2vs0mg"},{"bike_id":"53f2f235-9fc1-4337-9315-cd5a3910fa60","system_id":"levelo_inurba_marseille","lat":43.31324,"lon":5.39697,"is_reserved":false,"is_disabled":false,"rental_uris":{"android":"levelo://app?vid=53f2f235-9fc1-4337-9315-cd5a3910fa60","ios":"levelo://app?vid=53f2f235-9fc1-4337-9315-cd5a3910fa60"},"vehicle_type_id":"4","last_reported":1747443143,"current_range_meters":20000,"station_id":"ce4bgvp2rcd13ifvqcu0","pricing_plan_id":"cebpf4jnsgd1na2vs0mg"},{"bike_id":"275b649d-02f0-4312-842d-23d1319dd956","system_id":"levelo_inurba_marseille","lat":43.2846,"lon":5.35894,"is_reserved":false,"is_disabled":false,"rental_uris":{"android":"levelo://app?vid=275b649d-02f0-4312-842d-23d1319dd956","ios":"levelo://app?vid=275b649d-02f0-4312-842d-23d1319dd956"},"vehicle_type_id":"4","last_reported":1747443143,"current_range_meters":20000,"station_id":"ce4bhah2rcd13ifvqei0","pricing_plan_id":"cebpf4jnsgd1na2vs0mg"},{"bike_id":"1e9197c8-426e-4553-9d33-2496074d4420","system_id":"levelo_inurba_marseille","lat":43.248042,"lon":5.374574,"is_reserved":false,"is_disabled":false,"rental_uris":{"android":"levelo://app?vid=1e9197c8-426e-4553-9d33-2496074d4420","ios":"levelo://app?vid=1e9197c8-426e-4553-9d33-2496074d4420"},"vehicle_type_id":"4","last_reported":1747443143,"current_range_meters":20000,"station_id":"ce4bhgh2rcd13ifvqfb0","pricing_plan_id":"cebpf4jnsgd1na2vs0mg"},{"bike_id":"e1291dda-99b5-4759-85d1-03c344292341","system_id":"levelo_inurba_marseille","lat":43.31791,"lon":5.3902,"is_reserved":false,"is_disabled":false,"rental_uris":{"android":"levelo://app?vid=e1291dda-99b5-4759-85d1-03c344292341","ios":"levelo://app?vid=e1291dda-99b5-4759-85d1-03c344292341"},"vehicle_type_id":"4","last_reported":1747443143,"current_range_meters":20000,"station_id":"ce4bhqp2rcd13ifvqhng","pricing_plan_id":"cebpf4jnsgd1na2vs0mg"},{"bike_id":"a4156300-0486-419f-8347-9dc0ee8b7106","system_id":"levelo_inurba_marseille","lat":43.309388,"lon":5.401433,"is_reserved":false,"is_disabled":false,"rental_uris":{"android":"levelo://app?vid=a4156300-0486-419f-8347-9dc0ee8b7106","ios":"levelo://app?vid=a4156300-0486-419f-8347-9dc0ee8b7106"},"vehicle_type_id":"4","last_reported":1747443143,"current_range_meters":20400,"station_id":"ce4bgvp2rcd13ifvqct0","pricing_plan_id":"cebpf4jnsgd1na2vs0mg"},{"bike_id":"f30a9611-cada-44fd-b78d-eb49cd053e3f","system_id":"levelo_inurba_marseille","lat":43.3169,"lon":5.40475,"is_reserved":false,"is_disabled":false,"rental_uris":{"android":"levelo://app?vid=f30a9611-cada-44fd-b78d-eb49cd053e3f","ios":"levelo://app?vid=f30a9611-cada-44fd-b78d-eb49cd053e3f"},"vehicle_type_id":"4","last_reported":1747443143,"current_range_meters":20400,"station_id":"ce4bh012rcd13ifvqd00","pricing_plan_id":"cebpf4jnsgd1na2vs0mg"},{"bike_id":"392869e9-ed4a-4455-841c-24d69bd07e03","system_id":"levelo_inurba_marseille","lat":43.25094,"lon":5.3952,"is_reserved":false,"is_disabled":false,"rental_uris":{"android":"levelo://app?vid=392869e9-ed4a-4455-841c-24d69bd07e03","ios":"levelo://app?vid=392869e9-ed4a-4455-841c-24d69bd07e03"},"vehicle_type_id":"4","last_reported":1747443143,"current_range_meters":20400,"station_id":"ce4bhm12rcd13ifvqgkg","pricing_plan_id":"cebpf4jnsgd1na2vs0mg"},{"bike_id":"30fb0418-2587-40f6-8bd7-c829579e7d5a","system_id":"levelo_inurba_marseille","lat":43.30475,"lon":5.38824,"is_reserved":false,"is_disabled":false,"rental_uris":{"android":"levelo://app?vid=30fb0418-2587-40f6-8bd7-c829579e7d5a","ios":"levelo://app?vid=30fb0418-2587-40f6-8bd7-c829579e7d5a"},"vehicle_type_id":"4","last_reported":1747443143,"current_range_meters":20800,"station_id":"","pricing_plan_id":"cebpf4jnsgd1na2vs0mg"},{"bike_id":"56897df8-bf67-489a-b146-24860c15e342","system_id":"levelo_inurba_marseille","lat":43.320863,"lon":5.440803,"is_reserved":false,"is_disabled":false,"rental_uris":{"android":"levelo://app?vid=56897df8-bf67-489a-b146-24860c15e342","ios":"levelo://app?vid=56897df8-bf67-489a-b146-24860c15e342"},"vehicle_type_id":"4","last_reported":1747443143,"current_range_meters":20800,"station_id":"","pricing_plan_id":"cebpf4jnsgd1na2vs0mg"},{"bike_id":"df19b5a5-2fd7-495c-a803-6c8bbbd7c839","system_id":"levelo_inurba_marseille","lat":43.3123,"lon":5.36895,"is_reserved":false,"is_disabled":false,"rental_uris":{"android":"levelo://app?vid=df19b5a5-2fd7-495c-a803-6c8bbbd7c839","ios":"levelo://app?vid=df19b5a5-2fd7-495c-a803-6c8bbbd7c839"},"vehicle_type_id":"4","last_reported":1747443143,"current_range_meters":20800,"station_id":"ce4bgl92rcd13ifvqbq0","pricing_plan_id":"cebpf4jnsgd1na2vs0mg"},{"bike_id":"90014d97-06db-4bc1-ab3f-97e958703dbb","system_id":"levelo_inurba_marseille","lat":43.31671,"lon":5.40436,"is_reserved":false,"is_disabled":false,"rental_uris":{"android":"levelo://app?vid=90014d97-06db-4bc1-ab3f-97e958703dbb","ios":"levelo://app?vid=90014d97-06db-4bc1-ab3f-97e958703dbb"},"vehicle_type_id":"4","last_reported":1747443143,"current_range_meters":20800,"station_id":"ce4bh012rcd13ifvqd00","pricing_plan_id":"cebpf4jnsgd1na2vs0mg"},{"bike_id":"68c6ce24-2964-4326-8c24-df69ca1a7a5d","system_id":"levelo_inurba_marseille","lat":43.27946,"lon":5.38701,"is_reserved":false,"is_disabled":false,"rental_uris":{"android":"levelo://app?vid=68c6ce24-2964-4326-8c24-df69ca1a7a5d","ios":"levelo://app?vid=68c6ce24-2964-4326-8c24-df69ca1a7a5d"},"vehicle_type_id":"4","last_reported":1747443143,"current_range_meters":20800,"station_id":"ce4bhg12rcd13ifvqf80","pricing_plan_id":"cebpf4jnsgd1na2vs0mg"},{"bike_id":"853ed374-60d5-4054-9312-5a029e078d6f","system_id":"levelo_inurba_marseille","lat":43.24389,"lon":5.37063,"is_reserved":false,"is_disabled":false,"rental_uris":{"android":"levelo://app?vid=853ed374-60d5-4054-9312-5a029e078d6f","ios":"levelo://app?vid=853ed374-60d5-4054-9312-5a029e078d6f"},"vehicle_type_id":"4","last_reported":1747443143,"current_range_meters":20800,"station_id":"ce4bhhh2rcd13ifvqfk0","pricing_plan_id":"cebpf4jnsgd1na2vs0mg"},{"bike_id":"d8cc98e7-d848-49ae-961d-a112acbe6a37","system_id":"levelo_inurba_marseille","lat":43.262286,"lon":5.404566,"is_reserved":false,"is_disabled":false,"rental_uris":{"android":"levelo://app?vid=d8cc98e7-d848-49ae-961d-a112acbe6a37","ios":"levelo://app?vid=d8cc98e7-d848-49ae-961d-a112acbe6a37"},"vehicle_type_id":"4","last_reported":1747443143,"current_range_meters":20800,"station_id":"ce4bhmh2rcd13ifvqgmg","pricing_plan_id":"cebpf4jnsgd1na2vs0mg"},{"bike_id":"c734f66f-5037-47ce-b476-1761c5a56348","system_id":"levelo_inurba_marseille","lat":43.30586,"lon":5.36802,"is_reserved":false,"is_disabled":false,"rental_uris":{"android":"levelo://app?vid=c734f66f-5037-47ce-b476-1761c5a56348","ios":"levelo://app?vid=c734f66f-5037-47ce-b476-1761c5a56348"},"vehicle_type_id":"4","last_reported":1747443143,"current_range_meters":21600,"station_id":"","pricing_plan_id":"cebpf4jnsgd1na2vs0mg"},{"bike_id":"fb0348d8-5579-4c31-8112-75233ae7088d","system_id":"levelo_inurba_marseille","lat":43.32548,"lon":5.42983,"is_reserved":false,"is_disabled":false,"rental_uris":{"android":"levelo://app?vid=fb0348d8-5579-4c31-8112-75233ae7088d","ios":"levelo://app?vid=fb0348d8-5579-4c31-8112-75233ae7088d"},"vehicle_type_id":"4","last_reported":1747443143,"current_range_meters":21600,"station_id":"","pricing_plan_id":"cebpf4jnsgd1na2vs0mg"},{"bike_id":"5d48371b-6b96-4c68-9312-b692d66827c9","system_id":"levelo_inurba_marseille","lat":43.309292,"lon":5.40146,"is_reserved":false,"is_disabled":false,"rental_uris":{"android":"levelo://app?vid=5d48371b-6b96-4c68-9312-b692d66827c9","ios":"levelo://app?vid=5d48371b-6b96-4c68-9312-b692d66827c9"},"vehicle_type_id":"4","last_reported":1747443143,"current_range_meters":21600,"station_id":"ce4bgvp2rcd13ifvqct0","pricing_plan_id":"cebpf4jnsgd1na2vs0mg"},{"bike_id":"8ce98679-07ff-4368-b901-86fca7f335b3","system_id":"levelo_inurba_marseille","lat":43.355414,"lon":5.357509,"is_reserved":false,"is_disabled":false,"rental_uris":{"android":"levelo://app?vid=8ce98679-07ff-4368-b901-86fca7f335b3","ios":"levelo://app?vid=8ce98679-07ff-4368-b901-86fca7f335b3"},"vehicle_type_id":"4","last_reported":1747443143,"current_range_meters":22400,"station_id":"","pricing_plan_id":"cebpf4jnsgd1na2vs0mg"},{"bike_id":"86603db7-b462-4e72-8622-a2dee8bb2920","system_id":"levelo_inurba_marseille","lat":43.337444,"lon":5.374475,"is_reserved":false,"is_disabled":false,"rental_uris":{"android":"levelo://app?vid=86603db7-b462-4e72-8622-a2dee8bb2920","ios":"levelo://app?vid=86603db7-b462-4e72-8622-a2dee8bb2920"},"vehicle_type_id":"4","last_reported":1747443143,"current_range_meters":22400,"station_id":"","pricing_plan_id":"cebpf4jnsgd1na2vs0mg"},{"bike_id":"de395387-3719-4338-8762-150bf424eba2","system_id":"levelo_inurba_marseille","lat":43.310445,"lon":5.393407,"is_reserved":false,"is_disabled":false,"rental_uris":{"android":"levelo://app?vid=de395387-3719-4338-8762-150bf424eba2","ios":"levelo://app?vid=de395387-3719-4338-8762-150bf424eba2"},"vehicle_type_id":"4","last_reported":1747443143,"current_range_meters":22400,"station_id":"","pricing_plan_id":"cebpf4jnsgd1na2vs0mg"},{"bike_id":"a21c4cca-1aa8-435b-b913-4be763ea33d4","system_id":"levelo_inurba_marseille","lat":43.30926,"lon":5.40155,"is_reserved":false,"is_disabled":false,"rental_uris":{"android":"levelo://app?vid=a21c4cca-1aa8-435b-b913-4be763ea33d4","ios":"levelo://app?vid=a21c4cca-1aa8-435b-b913-4be763ea33d4"},"vehicle_type_id":"4","last_reported":1747443143,"current_range_meters":22400,"station_id":"ce4bgvp2rcd13ifvqct0","pricing_plan_id":"cebpf4jnsgd1na2vs0mg"},{"bike_id":"dbf18c5d-adab-44d4-8bec-395fcf912ce0","system_id":"levelo_inurba_marseille","lat":43.28462,"lon":5.35892,"is_reserved":false,"is_disabled":false,"rental_uris":{"android":"levelo://app?vid=dbf18c5d-adab-44d4-8bec-395fcf912ce0","ios":"levelo://app?vid=dbf18c5d-adab-44d4-8bec-395fcf912ce0"},"vehicle_type_id":"4","last_reported":1747443143,"current_range_meters":22400,"station_id":"ce4bhah2rcd13ifvqei0","pricing_plan_id":"cebpf4jnsgd1na2vs0mg"},{"bike_id":"8f279430-ab9f-48cf-8c27-6a09f6988db0","system_id":"levelo_inurba_marseille","lat":43.28452,"lon":5.35886,"is_reserved":false,"is_disabled":false,"rental_uris":{"android":"levelo://app?vid=8f279430-ab9f-48cf-8c27-6a09f6988db0","ios":"levelo://app?vid=8f279430-ab9f-48cf-8c27-6a09f6988db0"},"vehicle_type_id":"4","last_reported":1747443143,"current_range_meters":22400,"station_id":"ce4bhah2rcd13ifvqei0","pricing_plan_id":"cebpf4jnsgd1na2vs0mg"},{"bike_id":"f95f6b13-fb6b-4918-aa29-c70dce4e737e","system_id":"levelo_inurba_marseille","lat":43.32339,"lon":5.40624,"is_reserved":false,"is_disabled":false,"rental_uris":{"android":"levelo://app?vid=f95f6b13-fb6b-4918-aa29-c70dce4e737e","ios":"levelo://app?vid=f95f6b13-fb6b-4918-aa29-c70dce4e737e"},"vehicle_type_id":"4","last_reported":1747443143,"current_range_meters":22400,"station_id":"ce4bhq92rcd13ifvqhjg","pricing_plan_id":"cebpf4jnsgd1na2vs0mg"},{"bike_id":"2afaca15-0485-427d-8585-df19badd207b","system_id":"levelo_inurba_marseille","lat":43.22516,"lon":5.34803,"is_reserved":false,"is_disabled":false,"rental_uris":{"android":"levelo://app?vid=2afaca15-0485-427d-8585-df19badd207b","ios":"levelo://app?vid=2afaca15-0485-427d-8585-df19badd207b"},"vehicle_type_id":"4","last_reported":1747443143,"current_range_meters":22400,"station_id":"st_cvj5dfep6f1abm77gieg","pricing_plan_id":"cebpf4jnsgd1na2vs0mg"},{"bike_id":"19456222-7d38-48cf-a950-06daadd07927","system_id":"levelo_inurba_marseille","lat":43.25037,"lon":5.37521,"is_reserved":false,"is_disabled":false,"rental_uris":{"android":"levelo://app?vid=19456222-7d38-48cf-a950-06daadd07927","ios":"levelo://app?vid=19456222-7d38-48cf-a950-06daadd07927"},"vehicle_type_id":"4","last_reported":1747443143,"current_range_meters":22800,"station_id":"","pricing_plan_id":"cebpf4jnsgd1na2vs0mg"},{"bike_id":"039bc931-574e-491a-8561-72fdb145d04b","system_id":"levelo_inurba_marseille","lat":43.313572,"lon":5.384873,"is_reserved":false,"is_disabled":false,"rental_uris":{"android":"levelo://app?vid=039bc931-574e-491a-8561-72fdb145d04b","ios":"levelo://app?vid=039bc931-574e-491a-8561-72fdb145d04b"},"vehicle_type_id":"4","last_reported":1747443143,"current_range_meters":22800,"station_id":"ce4bgt92rcd13ifvqcf0","pricing_plan_id":"cebpf4jnsgd1na2vs0mg"},{"bike_id":"0bbae27d-252b-4ebb-871e-0cea87aa3c08","system_id":"levelo_inurba_marseille","lat":43.308,"lon":5.43528,"is_reserved":false,"is_disabled":false,"rental_uris":{"android":"levelo://app?vid=0bbae27d-252b-4ebb-871e-0cea87aa3c08","ios":"levelo://app?vid=0bbae27d-252b-4ebb-871e-0cea87aa3c08"},"vehicle_type_id":"4","last_reported":1747443143,"current_range_meters":22800,"station_id":"ce4bhph2rcd13ifvqheg","pricing_plan_id":"cebpf4jnsgd1na2vs0mg"},{"bike_id":"2452eef8-78c8-4e56-ad41-7bf22ce8148a","system_id":"levelo_inurba_marseille","lat":43.32469,"lon":5.36607,"is_reserved":false,"is_disabled":false,"rental_uris":{"android":"levelo://app?vid=2452eef8-78c8-4e56-ad41-7bf22ce8148a","ios":"levelo://app?vid=2452eef8-78c8-4e56-ad41-7bf22ce8148a"},"vehicle_type_id":"4","last_reported":1747443143,"current_range_meters":22800,"station_id":"ce4bhs12rcd13ifvqhvg","pricing_plan_id":"cebpf4jnsgd1na2vs0mg"},{"bike_id":"8663c425-1f6b-4bf5-80b9-577de7a4898f","system_id":"levelo_inurba_marseille","lat":43.211926,"lon":5.350706,"is_reserved":false,"is_disabled":false,"rental_uris":{"android":"levelo://app?vid=8663c425-1f6b-4bf5-80b9-577de7a4898f","ios":"levelo://app?vid=8663c425-1f6b-4bf5-80b9-577de7a4898f"},"vehicle_type_id":"4","last_reported":1747443143,"current_range_meters":22800,"station_id":"st_cvj6sg6p6f1abm77japg","pricing_plan_id":"cebpf4jnsgd1na2vs0mg"},{"bike_id":"5911c15f-f455-496f-8792-bc2c5776f780","system_id":"levelo_inurba_marseille","lat":43.247094,"lon":5.401086,"is_reserved":false,"is_disabled":false,"rental_uris":{"android":"levelo://app?vid=5911c15f-f455-496f-8792-bc2c5776f780","ios":"levelo://app?vid=5911c15f-f455-496f-8792-bc2c5776f780"},"vehicle_type_id":"4","last_reported":1747443143,"current_range_meters":23200,"station_id":"","pricing_plan_id":"cebpf4jnsgd1na2vs0mg"},{"bike_id":"96651392-3ce6-4f50-839b-902f171897cf","system_id":"levelo_inurba_marseille","lat":43.30883,"lon":5.39658,"is_reserved":false,"is_disabled":false,"rental_uris":{"android":"levelo://app?vid=96651392-3ce6-4f50-839b-902f171897cf","ios":"levelo://app?vid=96651392-3ce6-4f50-839b-902f171897cf"},"vehicle_type_id":"4","last_reported":1747443143,"current_range_meters":23200,"station_id":"ce4bh012rcd13ifvqcv0","pricing_plan_id":"cebpf4jnsgd1na2vs0mg"},{"bike_id":"29b9843e-e485-44ca-9089-baa93cb6ecb6","system_id":"levelo_inurba_marseille","lat":43.3087,"lon":5.39635,"is_reserved":false,"is_disabled":false,"rental_uris":{"android":"levelo://app?vid=29b9843e-e485-44ca-9089-baa93cb6ecb6","ios":"levelo://app?vid=29b9843e-e485-44ca-9089-baa93cb6ecb6"},"vehicle_type_id":"4","last_reported":1747443143,"current_range_meters":23200,"station_id":"ce4bh012rcd13ifvqcv0","pricing_plan_id":"cebpf4jnsgd1na2vs0mg"},{"bike_id":"db4e3245-1570-40b2-b06f-c0e66b2e804a","system_id":"levelo_inurba_marseille","lat":43.284563,"lon":5.358823,"is_reserved":false,"is_disabled":false,"rental_uris":{"android":"levelo://app?vid=db4e3245-1570-40b2-b06f-c0e66b2e804a","ios":"levelo://app?vid=db4e3245-1570-40b2-b06f-c0e66b2e804a"},"vehicle_type_id":"4","last_reported":1747443143,"current_range_meters":23200,"station_id":"ce4bhah2rcd13ifvqei0","pricing_plan_id":"cebpf4jnsgd1na2vs0mg"},{"bike_id":"8189a40a-8aa6-44b6-848f-9fe44d5dd84b","system_id":"levelo_inurba_marseille","lat":43.29903,"lon":5.43657,"is_reserved":false,"is_disabled":false,"rental_uris":{"android":"levelo://app?vid=8189a40a-8aa6-44b6-848f-9fe44d5dd84b","ios":"levelo://app?vid=8189a40a-8aa6-44b6-848f-9fe44d5dd84b"},"vehicle_type_id":"4","last_reported":1747443143,"current_range_meters":23200,"station_id":"ce4bhpp2rcd13ifvqhfg","pricing_plan_id":"cebpf4jnsgd1na2vs0mg"},{"bike_id":"0dc70cde-c053-41e7-8a6e-ef36ac6241fe","system_id":"levelo_inurba_marseille","lat":43.29964,"lon":5.37161,"is_reserved":false,"is_disabled":false,"rental_uris":{"android":"levelo://app?vid=0dc70cde-c053-41e7-8a6e-ef36ac6241fe","ios":"levelo://app?vid=0dc70cde-c053-41e7-8a6e-ef36ac6241fe"},"vehicle_type_id":"4","last_reported":1747443143,"current_range_meters":24000,"station_id":"ce4bgr92rcd13ifvqc7g","pricing_plan_id":"cebpf4jnsgd1na2vs0mg"},{"bike_id":"bc45fcc3-0438-46b6-a38b-2ab30c6cef93","system_id":"levelo_inurba_marseille","lat":43.314924,"lon":5.373036,"is_reserved":false,"is_disabled":false,"rental_uris":{"android":"levelo://app?vid=bc45fcc3-0438-46b6-a38b-2ab30c6cef93","ios":"levelo://app?vid=bc45fcc3-0438-46b6-a38b-2ab30c6cef93"},"vehicle_type_id":"4","last_reported":1747443143,"current_range_meters":24000,"station_id":"ce4bgt12rcd13ifvqcd0","pricing_plan_id":"cebpf4jnsgd1na2vs0mg"},{"bike_id":"be82626e-40b1-414d-9f56-b0223c76849a","system_id":"levelo_inurba_marseille","lat":43.30243,"lon":5.40059,"is_reserved":false,"is_disabled":false,"rental_uris":{"android":"levelo://app?vid=be82626e-40b1-414d-9f56-b0223c76849a","ios":"levelo://app?vid=be82626e-40b1-414d-9f56-b0223c76849a"},"vehicle_type_id":"4","last_reported":1747443143,"current_range_meters":24000,"station_id":"ce4bgvh2rcd13ifvqcs0","pricing_plan_id":"cebpf4jnsgd1na2vs0mg"},{"bike_id":"79b3ef41-73cc-431f-b979-9933b47828b5","system_id":"levelo_inurba_marseille","lat":43.30943,"lon":5.40128,"is_reserved":false,"is_disabled":false,"rental_uris":{"android":"levelo://app?vid=79b3ef41-73cc-431f-b979-9933b47828b5","ios":"levelo://app?vid=79b3ef41-73cc-431f-b979-9933b47828b5"},"vehicle_type_id":"4","last_reported":1747443143,"current_range_meters":24000,"station_id":"ce4bgvp2rcd13ifvqct0","pricing_plan_id":"cebpf4jnsgd1na2vs0mg"},{"bike_id":"37fcb76f-acd1-4063-9c79-4a0d45c637ac","system_id":"levelo_inurba_marseille","lat":43.34142,"lon":5.40902,"is_reserved":false,"is_disabled":false,"rental_uris":{"android":"levelo://app?vid=37fcb76f-acd1-4063-9c79-4a0d45c637ac","ios":"levelo://app?vid=37fcb76f-acd1-4063-9c79-4a0d45c637ac"},"vehicle_type_id":"4","last_reported":1747443143,"current_range_meters":24000,"station_id":"ce4bhqh2rcd13ifvqhlg","pricing_plan_id":"cebpf4jnsgd1na2vs0mg"},{"bike_id":"ed34fad4-c48e-4c1a-b9b1-8eb1cd77d573","system_id":"levelo_inurba_marseille","lat":43.337444,"lon":5.374475,"is_reserved":false,"is_disabled":false,"rental_uris":{"android":"levelo://app?vid=ed34fad4-c48e-4c1a-b9b1-8eb1cd77d573","ios":"levelo://app?vid=ed34fad4-c48e-4c1a-b9b1-8eb1cd77d573"},"vehicle_type_id":"4","last_reported":1747443143,"current_range_meters":24000,"station_id":"ce4bhqh2rcd13ifvqhmg","pricing_plan_id":"cebpf4jnsgd1na2vs0mg"},{"bike_id":"69539b48-04c5-422a-a1ac-af618a4f4416","system_id":"levelo_inurba_marseille","lat":43.27836,"lon":5.42173,"is_reserved":false,"is_disabled":false,"rental_uris":{"android":"levelo://app?vid=69539b48-04c5-422a-a1ac-af618a4f4416","ios":"levelo://app?vid=69539b48-04c5-422a-a1ac-af618a4f4416"},"vehicle_type_id":"4","last_reported":1747443143,"current_range_meters":24400,"station_id":"","pricing_plan_id":"cebpf4jnsgd1na2vs0mg"},{"bike_id":"6ac6555c-a8f7-4cda-8a26-3a5067557365","system_id":"levelo_inurba_marseille","lat":43.304298,"lon":5.388904,"is_reserved":false,"is_disabled":false,"rental_uris":{"android":"levelo://app?vid=6ac6555c-a8f7-4cda-8a26-3a5067557365","ios":"levelo://app?vid=6ac6555c-a8f7-4cda-8a26-3a5067557365"},"vehicle_type_id":"4","last_reported":1747443143,"current_range_meters":24400,"station_id":"ce4bgk12rcd13ifvqbi0","pricing_plan_id":"cebpf4jnsgd1na2vs0mg"},{"bike_id":"1bb173eb-e5b1-43be-8199-a2a928d4afce","system_id":"levelo_inurba_marseille","lat":43.31125,"lon":5.37778,"is_reserved":false,"is_disabled":false,"rental_uris":{"android":"levelo://app?vid=1bb173eb-e5b1-43be-8199-a2a928d4afce","ios":"levelo://app?vid=1bb173eb-e5b1-43be-8199-a2a928d4afce"},"vehicle_type_id":"4","last_reported":1747443143,"current_range_meters":24400,"station_id":"ce4bgt92rcd13ifvqcg0","pricing_plan_id":"cebpf4jnsgd1na2vs0mg"},{"bike_id":"1406d914-64bc-492c-a5e1-9c2f1e893ae9","system_id":"levelo_inurba_marseille","lat":43.30246,"lon":5.40093,"is_reserved":false,"is_disabled":false,"rental_uris":{"android":"levelo://app?vid=1406d914-64bc-492c-a5e1-9c2f1e893ae9","ios":"levelo://app?vid=1406d914-64bc-492c-a5e1-9c2f1e893ae9"},"vehicle_type_id":"4","last_reported":1747443143,"current_range_meters":24400,"station_id":"ce4bgvh2rcd13ifvqcs0","pricing_plan_id":"cebpf4jnsgd1na2vs0mg"},