{"last_updated":1778750728,"ttl":60,"version":"2.2","data":{"bikes":[{"bike_id":"dbb34851-cc12-43aa-8265-f89dd28f33e1","system_id":"levelo_inurba_marseille","lat":43.28594,"lon":5.39499,"is_reserved":false,"is_disabled":false,"rental_uris":{"android":"levelo://app?vid=dbb34851-cc12-43aa-8265-f89dd28f33e1","ios":"levelo://app?vid=dbb34851-cc12-43aa-8265-f89dd28f33e1"},"vehicle_type_id":"4","last_reported":1778750729,"current_range_meters":2800,"station_id":"ce4bh292rcd13ifvqdg0","pricing_plan_id":"cebpf4jnsgd1na2vs0mg"},{"bike_id":"04457e6f-0405-4b98-9944-c702e39a01bd","system_id":"levelo_inurba_marseille","lat":43.3144,"lon":5.37392,"is_reserved":false,"is_disabled":false,"rental_uris":{"android":"levelo://app?vid=04457e6f-0405-4b98-9944-c702e39a01bd","ios":"levelo://app?vid=04457e6f-0405-4b98-9944-c702e39a01bd"},"vehicle_type_id":"4","last_reported":1778750729,"current_range_meters":2800,"station_id":"","pricing_plan_id":"cebpf4jnsgd1na2vs0mg"},{"bike_id":"ffbaabd0-3fec-4045-81eb-607ce59006bb","system_id":"levelo_inurba_marseille","lat":43.26945,"lon":5.3862,"is_reserved":false,"is_disabled":false,"rental_uris":{"android":"levelo://app?vid=ffbaabd0-3fec-4045-81eb-607ce59006bb","ios":"levelo://app?vid=ffbaabd0-3fec-4045-81eb-607ce59006bb"},"vehicle_type_id":"4","last_reported":1778750729,"current_range_meters":2800,"station_id":"ce4bhh92rcd13ifvqfh0","pricing_plan_id":"cebpf4jnsgd1na2vs0mg"},{"bike_id":"1b92dc77-fa37-4622-8e11-1fa6fd28c9b8","system_id":"levelo_inurba_marseille","lat":43.31312,"lon":5.39736,"is_reserved":false,"is_disabled":false,"rental_uris":{"android":"levelo://app?vid=1b92dc77-fa37-4622-8e11-1fa6fd28c9b8","ios":"levelo://app?vid=1b92dc77-fa37-4622-8e11-1fa6fd28c9b8"},"vehicle_type_id":"4","last_reported":1778750729,"current_range_meters":2800,"station_id":"ce4bgvp2rcd13ifvqcu0","pricing_plan_id":"cebpf4jnsgd1na2vs0mg"},{"bike_id":"29e3aeab-2b14-448e-a328-a3ad67cdcb3c","system_id":"levelo_inurba_marseille","lat":43.22573,"lon":5.41618,"is_reserved":false,"is_disabled":false,"rental_uris":{"android":"levelo://app?vid=29e3aeab-2b14-448e-a328-a3ad67cdcb3c","ios":"levelo://app?vid=29e3aeab-2b14-448e-a328-a3ad67cdcb3c"},"vehicle_type_id":"4","last_reported":1778750729,"current_range_meters":3200,"station_id":"st_d2o4gvlbi1j2169b742g","pricing_plan_id":"cebpf4jnsgd1na2vs0mg"},{"bike_id":"ab5a67cc-2b0d-4199-b45d-a9d7d6047cab","system_id":"levelo_inurba_marseille","lat":43.30196,"lon":5.3686,"is_reserved":false,"is_disabled":false,"rental_uris":{"android":"levelo://app?vid=ab5a67cc-2b0d-4199-b45d-a9d7d6047cab","ios":"levelo://app?vid=ab5a67cc-2b0d-4199-b45d-a9d7d6047cab"},"vehicle_type_id":"4","last_reported":1778750729,"current_range_meters":3200,"station_id":"","pricing_plan_id":"cebpf4jnsgd1na2vs0mg"},{"bike_id":"7076757c-102e-4b9a-8844-ed202ef3c20c","system_id":"levelo_inurba_marseille","lat":43.28496,"lon":5.48345,"is_reserved":false,"is_disabled":false,"rental_uris":{"android":"levelo://app?vid=7076757c-102e-4b9a-8844-ed202ef3c20c","ios":"levelo://app?vid=7076757c-102e-4b9a-8844-ed202ef3c20c"},"vehicle_type_id":"4","last_reported":1778750729,"current_range_meters":3200,"station_id":"","pricing_plan_id":"cebpf4jnsgd1na2vs0mg"},{"bike_id":"d42eff96-2a63-4bb7-854f-d06471913ef6","system_id":"levelo_inurba_marseille","lat":43.317043,"lon":5.377422,"is_reserved":false,"is_disabled":false,"rental_uris":{"android":"levelo://app?vid=d42eff96-2a63-4bb7-854f-d06471913ef6","ios":"levelo://app?vid=d42eff96-2a63-4bb7-854f-d06471913ef6"},"vehicle_type_id":"4","last_reported":1778750729,"current_range_meters":3200,"station_id":"ce4bgth2rcd13ifvqch0","pricing_plan_id":"cebpf4jnsgd1na2vs0mg"},{"bike_id":"1708bcfb-6900-4ce4-8f2f-40e64297f7b6","system_id":"levelo_inurba_marseille","lat":43.231842,"lon":5.399838,"is_reserved":false,"is_disabled":false,"rental_uris":{"android":"levelo://app?vid=1708bcfb-6900-4ce4-8f2f-40e64297f7b6","ios":"levelo://app?vid=1708bcfb-6900-4ce4-8f2f-40e64297f7b6"},"vehicle_type_id":"4","last_reported":1778750729,"current_range_meters":3200,"station_id":"ce4bhn12rcd13ifvqgqg","pricing_plan_id":"cebpf4jnsgd1na2vs0mg"},{"bike_id":"34849bd1-190f-450b-a158-38c77db26dd4","system_id":"levelo_inurba_marseille","lat":43.29573,"lon":5.3997,"is_reserved":false,"is_disabled":false,"rental_uris":{"android":"levelo://app?vid=34849bd1-190f-450b-a158-38c77db26dd4","ios":"levelo://app?vid=34849bd1-190f-450b-a158-38c77db26dd4"},"vehicle_type_id":"4","last_reported":1778750729,"current_range_meters":3200,"station_id":"ce4bh312rcd13ifvqdj0","pricing_plan_id":"cebpf4jnsgd1na2vs0mg"},{"bike_id":"55575535-2d5b-40c7-a495-9ae194b84263","system_id":"levelo_inurba_marseille","lat":43.29773,"lon":5.43744,"is_reserved":false,"is_disabled":false,"rental_uris":{"android":"levelo://app?vid=55575535-2d5b-40c7-a495-9ae194b84263","ios":"levelo://app?vid=55575535-2d5b-40c7-a495-9ae194b84263"},"vehicle_type_id":"4","last_reported":1778750729,"current_range_meters":3200,"station_id":"","pricing_plan_id":"cebpf4jnsgd1na2vs0mg"},{"bike_id":"aa3f6d5a-caf7-4884-92ce-12eb0b9c9e82","system_id":"levelo_inurba_marseille","lat":43.28016,"lon":5.39283,"is_reserved":false,"is_disabled":false,"rental_uris":{"android":"levelo://app?vid=aa3f6d5a-caf7-4884-92ce-12eb0b9c9e82","ios":"levelo://app?vid=aa3f6d5a-caf7-4884-92ce-12eb0b9c9e82"},"vehicle_type_id":"4","last_reported":1778750729,"current_range_meters":3200,"station_id":"","pricing_plan_id":"cebpf4jnsgd1na2vs0mg"},{"bike_id":"0f37d688-46c0-4558-9b09-89bb1915d2b6","system_id":"levelo_inurba_marseille","lat":43.33544,"lon":5.37493,"is_reserved":false,"is_disabled":false,"rental_uris":{"android":"levelo://app?vid=0f37d688-46c0-4558-9b09-89bb1915d2b6","ios":"levelo://app?vid=0f37d688-46c0-4558-9b09-89bb1915d2b6"},"vehicle_type_id":"4","last_reported":1778750729,"current_range_meters":3200,"station_id":"st_d46tts09ee8s73dlu43g","pricing_plan_id":"cebpf4jnsgd1na2vs0mg"},{"bike_id":"90696508-a5d0-432c-92b1-dc6f9bd70bd0","system_id":"levelo_inurba_marseille","lat":43.299713,"lon":5.37188,"is_reserved":false,"is_disabled":false,"rental_uris":{"android":"levelo://app?vid=90696508-a5d0-432c-92b1-dc6f9bd70bd0","ios":"levelo://app?vid=90696508-a5d0-432c-92b1-dc6f9bd70bd0"},"vehicle_type_id":"4","last_reported":1778750729,"current_range_meters":3600,"station_id":"ce4bgr92rcd13ifvqc7g","pricing_plan_id":"cebpf4jnsgd1na2vs0mg"},{"bike_id":"405f1dbf-c088-4880-9365-03325b4d46a5","system_id":"levelo_inurba_marseille","lat":43.27995,"lon":5.400089,"is_reserved":false,"is_disabled":true,"rental_uris":{"android":"levelo://app?vid=405f1dbf-c088-4880-9365-03325b4d46a5","ios":"levelo://app?vid=405f1dbf-c088-4880-9365-03325b4d46a5"},"vehicle_type_id":"4","last_reported":1778750729,"current_range_meters":3600,"station_id":"ce4bho92rcd13ifvqh4g","pricing_plan_id":"cebpf4jnsgd1na2vs0mg"},{"bike_id":"34cd8bea-a8f6-49af-9554-9386e6d99017","system_id":"levelo_inurba_marseille","lat":43.28195,"lon":5.42631,"is_reserved":false,"is_disabled":true,"rental_uris":{"android":"levelo://app?vid=34cd8bea-a8f6-49af-9554-9386e6d99017","ios":"levelo://app?vid=34cd8bea-a8f6-49af-9554-9386e6d99017"},"vehicle_type_id":"4","last_reported":1778750729,"current_range_meters":3600,"station_id":"ce4bhnh2rcd13ifvqgug","pricing_plan_id":"cebpf4jnsgd1na2vs0mg"},{"bike_id":"48066121-841a-4b69-bb96-5a67813041e0","system_id":"levelo_inurba_marseille","lat":43.28703,"lon":5.46678,"is_reserved":false,"is_disabled":false,"rental_uris":{"android":"levelo://app?vid=48066121-841a-4b69-bb96-5a67813041e0","ios":"levelo://app?vid=48066121-841a-4b69-bb96-5a67813041e0"},"vehicle_type_id":"4","last_reported":1778750729,"current_range_meters":3600,"station_id":"st_d6tc3vkotcvc738tfjhg","pricing_plan_id":"cebpf4jnsgd1na2vs0mg"},{"bike_id":"5fb8929d-8102-448c-b915-edd3a3b92015","system_id":"levelo_inurba_marseille","lat":43.33157,"lon":5.37701,"is_reserved":false,"is_disabled":false,"rental_uris":{"android":"levelo://app?vid=5fb8929d-8102-448c-b915-edd3a3b92015","ios":"levelo://app?vid=5fb8929d-8102-448c-b915-edd3a3b92015"},"vehicle_type_id":"4","last_reported":1778750729,"current_range_meters":3600,"station_id":"st_d46cu089ee8s73dldbu0","pricing_plan_id":"cebpf4jnsgd1na2vs0mg"},{"bike_id":"bd4f0d75-69e3-4e19-9768-148989a79ac8","system_id":"levelo_inurba_marseille","lat":43.284974,"lon":5.385738,"is_reserved":false,"is_disabled":false,"rental_uris":{"android":"levelo://app?vid=bd4f0d75-69e3-4e19-9768-148989a79ac8","ios":"levelo://app?vid=bd4f0d75-69e3-4e19-9768-148989a79ac8"},"vehicle_type_id":"4","last_reported":1778750729,"current_range_meters":3600,"station_id":"ce4bh8p2rcd13ifvqeb0","pricing_plan_id":"cebpf4jnsgd1na2vs0mg"},{"bike_id":"88d993db-c841-40d4-84f2-d3a351a0d731","system_id":"levelo_inurba_marseille","lat":43.294432,"lon":5.397528,"is_reserved":false,"is_disabled":false,"rental_uris":{"android":"levelo://app?vid=88d993db-c841-40d4-84f2-d3a351a0d731","ios":"levelo://app?vid=88d993db-c841-40d4-84f2-d3a351a0d731"},"vehicle_type_id":"4","last_reported":1778750729,"current_range_meters":3600,"station_id":"ce4bh3h2rcd13ifvqdo0","pricing_plan_id":"cebpf4jnsgd1na2vs0mg"},{"bike_id":"8e266aaf-cc57-43ca-979e-2c477fd0ce8b","system_id":"levelo_inurba_marseille","lat":43.25864,"lon":5.39904,"is_reserved":false,"is_disabled":false,"rental_uris":{"android":"levelo://app?vid=8e266aaf-cc57-43ca-979e-2c477fd0ce8b","ios":"levelo://app?vid=8e266aaf-cc57-43ca-979e-2c477fd0ce8b"},"vehicle_type_id":"4","last_reported":1778750729,"current_range_meters":3600,"station_id":"ce4bhl92rcd13ifvqghg","pricing_plan_id":"cebpf4jnsgd1na2vs0mg"},{"bike_id":"eb778b7f-d6bc-49a0-94fa-f96e2976ee7d","system_id":"levelo_inurba_marseille","lat":43.25649,"lon":5.42033,"is_reserved":false,"is_disabled":false,"rental_uris":{"android":"levelo://app?vid=eb778b7f-d6bc-49a0-94fa-f96e2976ee7d","ios":"levelo://app?vid=eb778b7f-d6bc-49a0-94fa-f96e2976ee7d"},"vehicle_type_id":"4","last_reported":1778750729,"current_range_meters":3600,"station_id":"","pricing_plan_id":"cebpf4jnsgd1na2vs0mg"},{"bike_id":"2cb18ed5-e77d-4cfb-9fff-632f56cc56ee","system_id":"levelo_inurba_marseille","lat":43.30437,"lon":5.39754,"is_reserved":false,"is_disabled":false,"rental_uris":{"android":"levelo://app?vid=2cb18ed5-e77d-4cfb-9fff-632f56cc56ee","ios":"levelo://app?vid=2cb18ed5-e77d-4cfb-9fff-632f56cc56ee"},"vehicle_type_id":"4","last_reported":1778750729,"current_range_meters":4000,"station_id":"ce4bh092rcd13ifvqd20","pricing_plan_id":"cebpf4jnsgd1na2vs0mg"},{"bike_id":"30388078-cd88-4dde-9070-5a1bdfc97cfb","system_id":"levelo_inurba_marseille","lat":43.31172,"lon":5.39453,"is_reserved":false,"is_disabled":false,"rental_uris":{"android":"levelo://app?vid=30388078-cd88-4dde-9070-5a1bdfc97cfb","ios":"levelo://app?vid=30388078-cd88-4dde-9070-5a1bdfc97cfb"},"vehicle_type_id":"4","last_reported":1778750729,"current_range_meters":4000,"station_id":"","pricing_plan_id":"cebpf4jnsgd1na2vs0mg"},{"bike_id":"c00153b8-9d2a-44bd-9652-fadbf9359cf2","system_id":"levelo_inurba_marseille","lat":43.29489,"lon":5.43313,"is_reserved":false,"is_disabled":false,"rental_uris":{"android":"levelo://app?vid=c00153b8-9d2a-44bd-9652-fadbf9359cf2","ios":"levelo://app?vid=c00153b8-9d2a-44bd-9652-fadbf9359cf2"},"vehicle_type_id":"4","last_reported":1778750729,"current_range_meters":4000,"station_id":"st_d3j5ugp08ojc73fj9d10","pricing_plan_id":"cebpf4jnsgd1na2vs0mg"},{"bike_id":"bbc3c688-839a-4272-ba0f-bd3ff2fd5e51","system_id":"levelo_inurba_marseille","lat":43.29904,"lon":5.42092,"is_reserved":false,"is_disabled":false,"rental_uris":{"android":"levelo://app?vid=bbc3c688-839a-4272-ba0f-bd3ff2fd5e51","ios":"levelo://app?vid=bbc3c688-839a-4272-ba0f-bd3ff2fd5e51"},"vehicle_type_id":"4","last_reported":1778750729,"current_range_meters":4000,"station_id":"st_d6tc004otcvc738tfe70","pricing_plan_id":"cebpf4jnsgd1na2vs0mg"},{"bike_id":"4660d09c-3d67-4691-b901-cf7c81798d2c","system_id":"levelo_inurba_marseille","lat":43.27456,"lon":5.41654,"is_reserved":false,"is_disabled":false,"rental_uris":{"android":"levelo://app?vid=4660d09c-3d67-4691-b901-cf7c81798d2c","ios":"levelo://app?vid=4660d09c-3d67-4691-b901-cf7c81798d2c"},"vehicle_type_id":"4","last_reported":1778750729,"current_range_meters":4000,"station_id":"","pricing_plan_id":"cebpf4jnsgd1na2vs0mg"},{"bike_id":"e87d90bf-7f27-4494-86f8-3a1d5cd041da","system_id":"levelo_inurba_marseille","lat":43.23801,"lon":5.36595,"is_reserved":false,"is_disabled":false,"rental_uris":{"android":"levelo://app?vid=e87d90bf-7f27-4494-86f8-3a1d5cd041da","ios":"levelo://app?vid=e87d90bf-7f27-4494-86f8-3a1d5cd041da"},"vehicle_type_id":"4","last_reported":1778750729,"current_range_meters":4000,"station_id":"st_d3nk18o9ro0c73en2l3g","pricing_plan_id":"cebpf4jnsgd1na2vs0mg"},{"bike_id":"cc07bf0e-fbfe-4b5f-bef1-ce0ea8b187cc","system_id":"levelo_inurba_marseille","lat":43.30444,"lon":5.39734,"is_reserved":false,"is_disabled":false,"rental_uris":{"android":"levelo://app?vid=cc07bf0e-fbfe-4b5f-bef1-ce0ea8b187cc","ios":"levelo://app?vid=cc07bf0e-fbfe-4b5f-bef1-ce0ea8b187cc"},"vehicle_type_id":"4","last_reported":1778750729,"current_range_meters":4000,"station_id":"ce4bh092rcd13ifvqd20","pricing_plan_id":"cebpf4jnsgd1na2vs0mg"},{"bike_id":"b2d5cf0b-8f5e-459a-b6a1-c06552bdccb8","system_id":"levelo_inurba_marseille","lat":43.28534,"lon":5.44092,"is_reserved":false,"is_disabled":false,"rental_uris":{"android":"levelo://app?vid=b2d5cf0b-8f5e-459a-b6a1-c06552bdccb8","ios":"levelo://app?vid=b2d5cf0b-8f5e-459a-b6a1-c06552bdccb8"},"vehicle_type_id":"4","last_reported":1778750729,"current_range_meters":4000,"station_id":"st_d3j3df2ikq2c7380ej80","pricing_plan_id":"cebpf4jnsgd1na2vs0mg"},{"bike_id":"805de22b-1219-4f85-96ef-75e6cd60b5f0","system_id":"levelo_inurba_marseille","lat":43.2559,"lon":5.38219,"is_reserved":false,"is_disabled":false,"rental_uris":{"android":"levelo://app?vid=805de22b-1219-4f85-96ef-75e6cd60b5f0","ios":"levelo://app?vid=805de22b-1219-4f85-96ef-75e6cd60b5f0"},"vehicle_type_id":"4","last_reported":1778750729,"current_range_meters":4000,"station_id":"ce4bhih2rcd13ifvqfs0","pricing_plan_id":"cebpf4jnsgd1na2vs0mg"},{"bike_id":"64a34069-83c6-4aa1-8414-4d1796fa1f0d","system_id":"levelo_inurba_marseille","lat":43.24472,"lon":5.42524,"is_reserved":false,"is_disabled":false,"rental_uris":{"android":"levelo://app?vid=64a34069-83c6-4aa1-8414-4d1796fa1f0d","ios":"levelo://app?vid=64a34069-83c6-4aa1-8414-4d1796fa1f0d"},"vehicle_type_id":"4","last_reported":1778750729,"current_range_meters":4000,"station_id":"st_d4a3vfp97mjs738cd8kg","pricing_plan_id":"cebpf4jnsgd1na2vs0mg"},{"bike_id":"4437c253-b8aa-44da-a2dc-0bd394f1f309","system_id":"levelo_inurba_marseille","lat":43.2621,"lon":5.37442,"is_reserved":false,"is_disabled":false,"rental_uris":{"android":"levelo://app?vid=4437c253-b8aa-44da-a2dc-0bd394f1f309","ios":"levelo://app?vid=4437c253-b8aa-44da-a2dc-0bd394f1f309"},"vehicle_type_id":"4","last_reported":1778750729,"current_range_meters":4000,"station_id":"ce4bhgp2rcd13ifvqfc0","pricing_plan_id":"cebpf4jnsgd1na2vs0mg"},{"bike_id":"72179d6d-4306-495c-979e-7fc83e24d3fc","system_id":"levelo_inurba_marseille","lat":43.302,"lon":5.36608,"is_reserved":false,"is_disabled":false,"rental_uris":{"android":"levelo://app?vid=72179d6d-4306-495c-979e-7fc83e24d3fc","ios":"levelo://app?vid=72179d6d-4306-495c-979e-7fc83e24d3fc"},"vehicle_type_id":"4","last_reported":1778750729,"current_range_meters":4400,"station_id":"ce4bgrh2rcd13ifvqc8g","pricing_plan_id":"cebpf4jnsgd1na2vs0mg"},{"bike_id":"95c02ffd-d429-4bb4-9cec-b7834d99f0f6","system_id":"levelo_inurba_marseille","lat":43.33138,"lon":5.37829,"is_reserved":false,"is_disabled":false,"rental_uris":{"android":"levelo://app?vid=95c02ffd-d429-4bb4-9cec-b7834d99f0f6","ios":"levelo://app?vid=95c02ffd-d429-4bb4-9cec-b7834d99f0f6"},"vehicle_type_id":"4","last_reported":1778750729,"current_range_meters":4400,"station_id":"st_d46cu089ee8s73dldbu0","pricing_plan_id":"cebpf4jnsgd1na2vs0mg"},{"bike_id":"43a06db5-04b5-4a22-9e6f-f46b3fa2bbc7","system_id":"levelo_inurba_marseille","lat":43.32103,"lon":5.36793,"is_reserved":false,"is_disabled":false,"rental_uris":{"android":"levelo://app?vid=43a06db5-04b5-4a22-9e6f-f46b3fa2bbc7","ios":"levelo://app?vid=43a06db5-04b5-4a22-9e6f-f46b3fa2bbc7"},"vehicle_type_id":"4","last_reported":1778750729,"current_range_meters":4400,"station_id":"ce4bhrh2rcd13ifvqhug","pricing_plan_id":"cebpf4jnsgd1na2vs0mg"},{"bike_id":"9f951a4e-f42a-468d-a39f-212a251ebfbd","system_id":"levelo_inurba_marseille","lat":43.30156,"lon":5.3808,"is_reserved":false,"is_disabled":false,"rental_uris":{"android":"levelo://app?vid=9f951a4e-f42a-468d-a39f-212a251ebfbd","ios":"levelo://app?vid=9f951a4e-f42a-468d-a39f-212a251ebfbd"},"vehicle_type_id":"4","last_reported":1778750729,"current_range_meters":4400,"station_id":"ce4bgjp2rcd13ifvqbh0","pricing_plan_id":"cebpf4jnsgd1na2vs0mg"},{"bike_id":"54d93836-b270-4bba-9dbc-dd578b12997a","system_id":"levelo_inurba_marseille","lat":43.289713,"lon":5.378339,"is_reserved":false,"is_disabled":false,"rental_uris":{"android":"levelo://app?vid=54d93836-b270-4bba-9dbc-dd578b12997a","ios":"levelo://app?vid=54d93836-b270-4bba-9dbc-dd578b12997a"},"vehicle_type_id":"4","last_reported":1778750729,"current_range_meters":4400,"station_id":"ce4bh9p2rcd13ifvqed0","pricing_plan_id":"cebpf4jnsgd1na2vs0mg"},{"bike_id":"0ddd1a44-6a20-4f20-87bb-54f6dbe51696","system_id":"levelo_inurba_marseille","lat":43.31735,"lon":5.40186,"is_reserved":false,"is_disabled":false,"rental_uris":{"android":"levelo://app?vid=0ddd1a44-6a20-4f20-87bb-54f6dbe51696","ios":"levelo://app?vid=0ddd1a44-6a20-4f20-87bb-54f6dbe51696"},"vehicle_type_id":"4","last_reported":1778750729,"current_range_meters":4400,"station_id":"","pricing_plan_id":"cebpf4jnsgd1na2vs0mg"},{"bike_id":"e0e3f93f-16e8-4b39-b089-98387a4c334d","system_id":"levelo_inurba_marseille","lat":43.3354,"lon":5.37469,"is_reserved":false,"is_disabled":false,"rental_uris":{"android":"levelo://app?vid=e0e3f93f-16e8-4b39-b089-98387a4c334d","ios":"levelo://app?vid=e0e3f93f-16e8-4b39-b089-98387a4c334d"},"vehicle_type_id":"4","last_reported":1778750729,"current_range_meters":4400,"station_id":"st_d46tts09ee8s73dlu43g","pricing_plan_id":"cebpf4jnsgd1na2vs0mg"},{"bike_id":"a9b08a9e-aa19-4588-8ccd-1718e12e7820","system_id":"levelo_inurba_marseille","lat":43.26771,"lon":5.39418,"is_reserved":false,"is_disabled":false,"rental_uris":{"android":"levelo://app?vid=a9b08a9e-aa19-4588-8ccd-1718e12e7820","ios":"levelo://app?vid=a9b08a9e-aa19-4588-8ccd-1718e12e7820"},"vehicle_type_id":"4","last_reported":1778750729,"current_range_meters":4400,"station_id":"ce4bhh12rcd13ifvqfg0","pricing_plan_id":"cebpf4jnsgd1na2vs0mg"},{"bike_id":"64c247da-b0be-4aaa-bd52-5aa02afec6aa","system_id":"levelo_inurba_marseille","lat":43.28491,"lon":5.38559,"is_reserved":false,"is_disabled":false,"rental_uris":{"android":"levelo://app?vid=64c247da-b0be-4aaa-bd52-5aa02afec6aa","ios":"levelo://app?vid=64c247da-b0be-4aaa-bd52-5aa02afec6aa"},"vehicle_type_id":"4","last_reported":1778750729,"current_range_meters":4400,"station_id":"ce4bh8p2rcd13ifvqeb0","pricing_plan_id":"cebpf4jnsgd1na2vs0mg"},{"bike_id":"f2b95a4b-5f22-431e-b561-664c8893ed1d","system_id":"levelo_inurba_marseille","lat":43.27504,"lon":5.41565,"is_reserved":false,"is_disabled":false,"rental_uris":{"android":"levelo://app?vid=f2b95a4b-5f22-431e-b561-664c8893ed1d","ios":"levelo://app?vid=f2b95a4b-5f22-431e-b561-664c8893ed1d"},"vehicle_type_id":"4","last_reported":1778750729,"current_range_meters":4400,"station_id":"st_d6im8g6chgec73a5pndg","pricing_plan_id":"cebpf4jnsgd1na2vs0mg"},{"bike_id":"23dd7e9d-979a-4281-b8ae-d54103af534b","system_id":"levelo_inurba_marseille","lat":43.2582,"lon":5.39431,"is_reserved":false,"is_disabled":false,"rental_uris":{"android":"levelo://app?vid=23dd7e9d-979a-4281-b8ae-d54103af534b","ios":"levelo://app?vid=23dd7e9d-979a-4281-b8ae-d54103af534b"},"vehicle_type_id":"4","last_reported":1778750729,"current_range_meters":4400,"station_id":"ce4bhip2rcd13ifvqft0","pricing_plan_id":"cebpf4jnsgd1na2vs0mg"},{"bike_id":"6206d17b-cf9d-41b3-a41d-c6052f6a6ce2","system_id":"levelo_inurba_marseille","lat":43.33544,"lon":5.37478,"is_reserved":false,"is_disabled":false,"rental_uris":{"android":"levelo://app?vid=6206d17b-cf9d-41b3-a41d-c6052f6a6ce2","ios":"levelo://app?vid=6206d17b-cf9d-41b3-a41d-c6052f6a6ce2"},"vehicle_type_id":"4","last_reported":1778750729,"current_range_meters":4800,"station_id":"st_d46tts09ee8s73dlu43g","pricing_plan_id":"cebpf4jnsgd1na2vs0mg"},{"bike_id":"a69bbb17-e904-4bbe-b1a6-d8e7b08362c7","system_id":"levelo_inurba_marseille","lat":43.23975,"lon":5.39925,"is_reserved":false,"is_disabled":false,"rental_uris":{"android":"levelo://app?vid=a69bbb17-e904-4bbe-b1a6-d8e7b08362c7","ios":"levelo://app?vid=a69bbb17-e904-4bbe-b1a6-d8e7b08362c7"},"vehicle_type_id":"4","last_reported":1778750729,"current_range_meters":4800,"station_id":"","pricing_plan_id":"cebpf4jnsgd1na2vs0mg"},{"bike_id":"92ab43c4-65a8-40ad-9026-0da4c99cc465","system_id":"levelo_inurba_marseille","lat":43.25882,"lon":5.40525,"is_reserved":false,"is_disabled":false,"rental_uris":{"android":"levelo://app?vid=92ab43c4-65a8-40ad-9026-0da4c99cc465","ios":"levelo://app?vid=92ab43c4-65a8-40ad-9026-0da4c99cc465"},"vehicle_type_id":"4","last_reported":1778750729,"current_range_meters":4800,"station_id":"","pricing_plan_id":"cebpf4jnsgd1na2vs0mg"},{"bike_id":"844741a2-f80e-4514-aadd-d1fe2ac89ebf","system_id":"levelo_inurba_marseille","lat":43.22928,"lon":5.3538,"is_reserved":false,"is_disabled":false,"rental_uris":{"android":"levelo://app?vid=844741a2-f80e-4514-aadd-d1fe2ac89ebf","ios":"levelo://app?vid=844741a2-f80e-4514-aadd-d1fe2ac89ebf"},"vehicle_type_id":"4","last_reported":1778750729,"current_range_meters":4800,"station_id":"cpo3532slgdg3j2ikp40","pricing_plan_id":"cebpf4jnsgd1na2vs0mg"},{"bike_id":"36606052-1c3a-4693-b343-56bc75b8bf4f","system_id":"levelo_inurba_marseille","lat":43.27368,"lon":5.36257,"is_reserved":false,"is_disabled":false,"rental_uris":{"android":"levelo://app?vid=36606052-1c3a-4693-b343-56bc75b8bf4f","ios":"levelo://app?vid=36606052-1c3a-4693-b343-56bc75b8bf4f"},"vehicle_type_id":"4","last_reported":1778750729,"current_range_meters":4800,"station_id":"ce4bhbh2rcd13ifvqeo0","pricing_plan_id":"cebpf4jnsgd1na2vs0mg"},{"bike_id":"f7b71e8a-de3b-4d59-8cbd-1c1ed6357a73","system_id":"levelo_inurba_marseille","lat":43.26947,"lon":5.40252,"is_reserved":false,"is_disabled":true,"rental_uris":{"android":"levelo://app?vid=f7b71e8a-de3b-4d59-8cbd-1c1ed6357a73","ios":"levelo://app?vid=f7b71e8a-de3b-4d59-8cbd-1c1ed6357a73"},"vehicle_type_id":"4","last_reported":1778750729,"current_range_meters":4800,"station_id":"cjm6bp8fraef2m0cb0m0","pricing_plan_id":"cebpf4jnsgd1na2vs0mg"},{"bike_id":"98c592a1-cd6b-45f1-8baa-5a1ce3ca61cd","system_id":"levelo_inurba_marseille","lat":43.2763,"lon":5.36093,"is_reserved":false,"is_disabled":false,"rental_uris":{"android":"levelo://app?vid=98c592a1-cd6b-45f1-8baa-5a1ce3ca61cd","ios":"levelo://app?vid=98c592a1-cd6b-45f1-8baa-5a1ce3ca61cd"},"vehicle_type_id":"4","last_reported":1778750729,"current_range_meters":4800,"station_id":"ce4bgj92rcd13ifvqbe0","pricing_plan_id":"cebpf4jnsgd1na2vs0mg"},{"bike_id":"788dfa8a-456b-4e1b-8663-b20f000fa194","system_id":"levelo_inurba_marseille","lat":43.26971,"lon":5.40233,"is_reserved":false,"is_disabled":false,"rental_uris":{"android":"levelo://app?vid=788dfa8a-456b-4e1b-8663-b20f000fa194","ios":"levelo://app?vid=788dfa8a-456b-4e1b-8663-b20f000fa194"},"vehicle_type_id":"4","last_reported":1778750729,"current_range_meters":4800,"station_id":"cjm6bp8fraef2m0cb0m0","pricing_plan_id":"cebpf4jnsgd1na2vs0mg"},{"bike_id":"85c4beb0-759e-43b8-96d0-4a792eb6f9e1","system_id":"levelo_inurba_marseille","lat":43.24826,"lon":5.37459,"is_reserved":false,"is_disabled":false,"rental_uris":{"android":"levelo://app?vid=85c4beb0-759e-43b8-96d0-4a792eb6f9e1","ios":"levelo://app?vid=85c4beb0-759e-43b8-96d0-4a792eb6f9e1"},"vehicle_type_id":"4","last_reported":1778750729,"current_range_meters":4800,"station_id":"ce4bhgh2rcd13ifvqfb0","pricing_plan_id":"cebpf4jnsgd1na2vs0mg"},{"bike_id":"b084f1e8-57fd-4277-b2a9-cf79dcea1328","system_id":"levelo_inurba_marseille","lat":43.31053,"lon":5.37184,"is_reserved":false,"is_disabled":false,"rental_uris":{"android":"levelo://app?vid=b084f1e8-57fd-4277-b2a9-cf79dcea1328","ios":"levelo://app?vid=b084f1e8-57fd-4277-b2a9-cf79dcea1328"},"vehicle_type_id":"4","last_reported":1778750729,"current_range_meters":4800,"station_id":"st_d4kl2rp97mjs73e7tdfg","pricing_plan_id":"cebpf4jnsgd1na2vs0mg"},{"bike_id":"1dee72ea-cbbb-4f0f-b373-7962e2bff9d2","system_id":"levelo_inurba_marseille","lat":43.2464,"lon":5.38973,"is_reserved":false,"is_disabled":false,"rental_uris":{"android":"levelo://app?vid=1dee72ea-cbbb-4f0f-b373-7962e2bff9d2","ios":"levelo://app?vid=1dee72ea-cbbb-4f0f-b373-7962e2bff9d2"},"vehicle_type_id":"4","last_reported":1778750729,"current_range_meters":4800,"station_id":"","pricing_plan_id":"cebpf4jnsgd1na2vs0mg"},{"bike_id":"c5675cd5-3916-429f-90aa-9fdff6420454","system_id":"levelo_inurba_marseille","lat":43.30462,"lon":5.37909,"is_reserved":false,"is_disabled":false,"rental_uris":{"android":"levelo://app?vid=c5675cd5-3916-429f-90aa-9fdff6420454","ios":"levelo://app?vid=c5675cd5-3916-429f-90aa-9fdff6420454"},"vehicle_type_id":"4","last_reported":1778750729,"current_range_meters":5600,"station_id":"ce4bgup2rcd13ifvqcn0","pricing_plan_id":"cebpf4jnsgd1na2vs0mg"},{"bike_id":"3baf60fe-0260-4ac0-9a4d-b71fdd4d99a9","system_id":"levelo_inurba_marseille","lat":43.31755,"lon":5.40446,"is_reserved":false,"is_disabled":false,"rental_uris":{"android":"levelo://app?vid=3baf60fe-0260-4ac0-9a4d-b71fdd4d99a9","ios":"levelo://app?vid=3baf60fe-0260-4ac0-9a4d-b71fdd4d99a9"},"vehicle_type_id":"4","last_reported":1778750729,"current_range_meters":5600,"station_id":"","pricing_plan_id":"cebpf4jnsgd1na2vs0mg"},{"bike_id":"2eaa840a-f8ca-45a2-bc4a-9d7b0be45bff","system_id":"levelo_inurba_marseille","lat":43.31125,"lon":5.37744,"is_reserved":false,"is_disabled":false,"rental_uris":{"android":"levelo://app?vid=2eaa840a-f8ca-45a2-bc4a-9d7b0be45bff","ios":"levelo://app?vid=2eaa840a-f8ca-45a2-bc4a-9d7b0be45bff"},"vehicle_type_id":"4","last_reported":1778750729,"current_range_meters":5600,"station_id":"ce4bgt92rcd13ifvqcg0","pricing_plan_id":"cebpf4jnsgd1na2vs0mg"},{"bike_id":"974155a8-15e9-4961-bf5a-c20f8b52fd28","system_id":"levelo_inurba_marseille","lat":43.31344,"lon":5.39712,"is_reserved":false,"is_disabled":false,"rental_uris":{"android":"levelo://app?vid=974155a8-15e9-4961-bf5a-c20f8b52fd28","ios":"levelo://app?vid=974155a8-15e9-4961-bf5a-c20f8b52fd28"},"vehicle_type_id":"4","last_reported":1778750729,"current_range_meters":5600,"station_id":"ce4bgvp2rcd13ifvqcu0","pricing_plan_id":"cebpf4jnsgd1na2vs0mg"},{"bike_id":"10ea7793-89fc-4210-8abc-ada687913ea7","system_id":"levelo_inurba_marseille","lat":43.32031,"lon":5.36773,"is_reserved":false,"is_disabled":false,"rental_uris":{"android":"levelo://app?vid=10ea7793-89fc-4210-8abc-ada687913ea7","ios":"levelo://app?vid=10ea7793-89fc-4210-8abc-ada687913ea7"},"vehicle_type_id":"4","last_reported":1778750729,"current_range_meters":5600,"station_id":"ce4bhrh2rcd13ifvqhug","pricing_plan_id":"cebpf4jnsgd1na2vs0mg"},{"bike_id":"7665fefd-ac6e-42d9-a250-b2c920cd7a20","system_id":"levelo_inurba_marseille","lat":43.28476,"lon":5.38445,"is_reserved":false,"is_disabled":false,"rental_uris":{"android":"levelo://app?vid=7665fefd-ac6e-42d9-a250-b2c920cd7a20","ios":"levelo://app?vid=7665fefd-ac6e-42d9-a250-b2c920cd7a20"},"vehicle_type_id":"4","last_reported":1778750729,"current_range_meters":5600,"station_id":"ce4bh512rcd13ifvqe3g","pricing_plan_id":"cebpf4jnsgd1na2vs0mg"},{"bike_id":"ced285ee-436e-424f-ae86-7270e6910e95","system_id":"levelo_inurba_marseille","lat":43.29297,"lon":5.37459,"is_reserved":false,"is_disabled":false,"rental_uris":{"android":"levelo://app?vid=ced285ee-436e-424f-ae86-7270e6910e95","ios":"levelo://app?vid=ced285ee-436e-424f-ae86-7270e6910e95"},"vehicle_type_id":"4","last_reported":1778750729,"current_range_meters":5600,"station_id":"ce4bgi12rcd13ifvqb70","pricing_plan_id":"cebpf4jnsgd1na2vs0mg"},{"bike_id":"b630733c-36b3-46cd-9655-9aac8fe315cf","system_id":"levelo_inurba_marseille","lat":43.30593,"lon":5.37243,"is_reserved":false,"is_disabled":false,"rental_uris":{"android":"levelo://app?vid=b630733c-36b3-46cd-9655-9aac8fe315cf","ios":"levelo://app?vid=b630733c-36b3-46cd-9655-9aac8fe315cf"},"vehicle_type_id":"4","last_reported":1778750729,"current_range_meters":5600,"station_id":"ce4bgqh2rcd13ifvqc4g","pricing_plan_id":"cebpf4jnsgd1na2vs0mg"},{"bike_id":"4751127d-3aa2-446e-8601-6629ed659fa5","system_id":"levelo_inurba_marseille","lat":43.22561,"lon":5.41631,"is_reserved":false,"is_disabled":false,"rental_uris":{"android":"levelo://app?vid=4751127d-3aa2-446e-8601-6629ed659fa5","ios":"levelo://app?vid=4751127d-3aa2-446e-8601-6629ed659fa5"},"vehicle_type_id":"4","last_reported":1778750729,"current_range_meters":5600,"station_id":"st_d2o4gvlbi1j2169b742g","pricing_plan_id":"cebpf4jnsgd1na2vs0mg"},{"bike_id":"74107c3e-4a4b-404c-b3eb-5ce68acb0287","system_id":"levelo_inurba_marseille","lat":43.26254,"lon":5.38775,"is_reserved":false,"is_disabled":false,"rental_uris":{"android":"levelo://app?vid=74107c3e-4a4b-404c-b3eb-5ce68acb0287","ios":"levelo://app?vid=74107c3e-4a4b-404c-b3eb-5ce68acb0287"},"vehicle_type_id":"4","last_reported":1778750729,"current_range_meters":5600,"station_id":"","pricing_plan_id":"cebpf4jnsgd1na2vs0mg"},{"bike_id":"a74d4fa7-7cfc-4c3c-9d37-386041ab4429","system_id":"levelo_inurba_marseille","lat":43.30641,"lon":5.40101,"is_reserved":false,"is_disabled":false,"rental_uris":{"android":"levelo://app?vid=a74d4fa7-7cfc-4c3c-9d37-386041ab4429","ios":"levelo://app?vid=a74d4fa7-7cfc-4c3c-9d37-386041ab4429"},"vehicle_type_id":"4","last_reported":1778750729,"current_range_meters":5600,"station_id":"ce4bh112rcd13ifvqda0","pricing_plan_id":"cebpf4jnsgd1na2vs0mg"},{"bike_id":"8c213e32-c8d9-4960-bc93-fa01f8be8240","system_id":"levelo_inurba_marseille","lat":43.31042,"lon":5.37215,"is_reserved":false,"is_disabled":false,"rental_uris":{"android":"levelo://app?vid=8c213e32-c8d9-4960-bc93-fa01f8be8240","ios":"levelo://app?vid=8c213e32-c8d9-4960-bc93-fa01f8be8240"},"vehicle_type_id":"4","last_reported":1778750729,"current_range_meters":6000,"station_id":"","pricing_plan_id":"cebpf4jnsgd1na2vs0mg"},{"bike_id":"35e8ee96-f021-41ee-8a16-5cd416ace246","system_id":"levelo_inurba_marseille","lat":43.28177,"lon":5.42667,"is_reserved":false,"is_disabled":false,"rental_uris":{"android":"levelo://app?vid=35e8ee96-f021-41ee-8a16-5cd416ace246","ios":"levelo://app?vid=35e8ee96-f021-41ee-8a16-5cd416ace246"},"vehicle_type_id":"4","last_reported":1778750729,"current_range_meters":6000,"station_id":"ce4bhnh2rcd13ifvqgug","pricing_plan_id":"cebpf4jnsgd1na2vs0mg"},{"bike_id":"b010d68e-2434-4145-8078-37d4a28eadfd","system_id":"levelo_inurba_marseille","lat":43.30213,"lon":5.38043,"is_reserved":false,"is_disabled":false,"rental_uris":{"android":"levelo://app?vid=b010d68e-2434-4145-8078-37d4a28eadfd","ios":"levelo://app?vid=b010d68e-2434-4145-8078-37d4a28eadfd"},"vehicle_type_id":"4","last_reported":1778750729,"current_range_meters":6000,"station_id":"","pricing_plan_id":"cebpf4jnsgd1na2vs0mg"},{"bike_id":"b1f85c10-3a72-4895-b4df-4b7782abd0b1","system_id":"levelo_inurba_marseille","lat":43.28529,"lon":5.44105,"is_reserved":false,"is_disabled":false,"rental_uris":{"android":"levelo://app?vid=b1f85c10-3a72-4895-b4df-4b7782abd0b1","ios":"levelo://app?vid=b1f85c10-3a72-4895-b4df-4b7782abd0b1"},"vehicle_type_id":"4","last_reported":1778750729,"current_range_meters":6000,"station_id":"st_d3j3df2ikq2c7380ej80","pricing_plan_id":"cebpf4jnsgd1na2vs0mg"},{"bike_id":"34cc106d-e88f-464c-b290-ce7702652b61","system_id":"levelo_inurba_marseille","lat":43.28948,"lon":5.36383,"is_reserved":false,"is_disabled":false,"rental_uris":{"android":"levelo://app?vid=34cc106d-e88f-464c-b290-ce7702652b61","ios":"levelo://app?vid=34cc106d-e88f-464c-b290-ce7702652b61"},"vehicle_type_id":"4","last_reported":1778750729,"current_range_meters":6000,"station_id":"ce4bhc92rcd13ifvqetg","pricing_plan_id":"cebpf4jnsgd1na2vs0mg"},{"bike_id":"d114d888-eafe-4e27-96ce-84f56d10b9cc","system_id":"levelo_inurba_marseille","lat":43.28619,"lon":5.35081,"is_reserved":false,"is_disabled":false,"rental_uris":{"android":"levelo://app?vid=d114d888-eafe-4e27-96ce-84f56d10b9cc","ios":"levelo://app?vid=d114d888-eafe-4e27-96ce-84f56d10b9cc"},"vehicle_type_id":"4","last_reported":1778750729,"current_range_meters":6000,"station_id":"ce4bhch2rcd13ifvqeug","pricing_plan_id":"cebpf4jnsgd1na2vs0mg"},{"bike_id":"faa348fa-aab6-4291-8d52-a8fe1851a878","system_id":"levelo_inurba_marseille","lat":43.23153,"lon":5.4372,"is_reserved":false,"is_disabled":false,"rental_uris":{"android":"levelo://app?vid=faa348fa-aab6-4291-8d52-a8fe1851a878","ios":"levelo://app?vid=faa348fa-aab6-4291-8d52-a8fe1851a878"},"vehicle_type_id":"4","last_reported":1778750729,"current_range_meters":6000,"station_id":"ce4bhmp2rcd13ifvqgog","pricing_plan_id":"cebpf4jnsgd1na2vs0mg"},{"bike_id":"76abce95-1fbb-457c-83c9-8be31c1ba964","system_id":"levelo_inurba_marseille","lat":43.23194,"lon":5.39979,"is_reserved":false,"is_disabled":false,"rental_uris":{"android":"levelo://app?vid=76abce95-1fbb-457c-83c9-8be31c1ba964","ios":"levelo://app?vid=76abce95-1fbb-457c-83c9-8be31c1ba964"},"vehicle_type_id":"4","last_reported":1778750729,"current_range_meters":6000,"station_id":"ce4bhn12rcd13ifvqgqg","pricing_plan_id":"cebpf4jnsgd1na2vs0mg"},{"bike_id":"8bb75740-110f-4d4e-8348-fb9d76c42c05","system_id":"levelo_inurba_marseille","lat":43.28718,"lon":5.46663,"is_reserved":false,"is_disabled":false,"rental_uris":{"android":"levelo://app?vid=8bb75740-110f-4d4e-8348-fb9d76c42c05","ios":"levelo://app?vid=8bb75740-110f-4d4e-8348-fb9d76c42c05"},"vehicle_type_id":"4","last_reported":1778750729,"current_range_meters":6000,"station_id":"st_d6tc3vkotcvc738tfjhg","pricing_plan_id":"cebpf4jnsgd1na2vs0mg"},{"bike_id":"6a19ed57-ac73-42b5-8e17-cb7b62700533","system_id":"levelo_inurba_marseille","lat":43.23191,"lon":5.35551,"is_reserved":false,"is_disabled":false,"rental_uris":{"android":"levelo://app?vid=6a19ed57-ac73-42b5-8e17-cb7b62700533","ios":"levelo://app?vid=6a19ed57-ac73-42b5-8e17-cb7b62700533"},"vehicle_type_id":"4","last_reported":1778750729,"current_range_meters":6000,"station_id":"ce4bhu92rcd13ifvqi70","pricing_plan_id":"cebpf4jnsgd1na2vs0mg"},{"bike_id":"6e855303-55c2-4763-9425-8d7d0f002e10","system_id":"levelo_inurba_marseille","lat":43.27946,"lon":5.39585,"is_reserved":false,"is_disabled":false,"rental_uris":{"android":"levelo://app?vid=6e855303-55c2-4763-9425-8d7d0f002e10","ios":"levelo://app?vid=6e855303-55c2-4763-9425-8d7d0f002e10"},"vehicle_type_id":"4","last_reported":1778750729,"current_range_meters":6400,"station_id":"ce4bhf92rcd13ifvqf40","pricing_plan_id":"cebpf4jnsgd1na2vs0mg"},{"bike_id":"c162d7a3-552c-4671-8401-bf628d829427","system_id":"levelo_inurba_marseille","lat":43.26202,"lon":5.3792,"is_reserved":false,"is_disabled":false,"rental_uris":{"android":"levelo://app?vid=c162d7a3-552c-4671-8401-bf628d829427","ios":"levelo://app?vid=c162d7a3-552c-4671-8401-bf628d829427"},"vehicle_type_id":"4","last_reported":1778750729,"current_range_meters":6400,"station_id":"ce4bhjp2rcd13ifvqg90","pricing_plan_id":"cebpf4jnsgd1na2vs0mg"},{"bike_id":"bd8fd7b8-70c6-4235-aae5-6f8ff5bf4f4f","system_id":"levelo_inurba_marseille","lat":43.284825,"lon":5.384168,"is_reserved":false,"is_disabled":false,"rental_uris":{"android":"levelo://app?vid=bd8fd7b8-70c6-4235-aae5-6f8ff5bf4f4f","ios":"levelo://app?vid=bd8fd7b8-70c6-4235-aae5-6f8ff5bf4f4f"},"vehicle_type_id":"4","last_reported":1778750729,"current_range_meters":6400,"station_id":"ce4bh512rcd13ifvqe3g","pricing_plan_id":"cebpf4jnsgd1na2vs0mg"},{"bike_id":"961ae3cb-3fb8-4279-8e42-ea1f7ab378e9","system_id":"levelo_inurba_marseille","lat":43.23204,"lon":5.3995,"is_reserved":false,"is_disabled":false,"rental_uris":{"android":"levelo://app?vid=961ae3cb-3fb8-4279-8e42-ea1f7ab378e9","ios":"levelo://app?vid=961ae3cb-3fb8-4279-8e42-ea1f7ab378e9"},"vehicle_type_id":"4","last_reported":1778750729,"current_range_meters":6400,"station_id":"","pricing_plan_id":"cebpf4jnsgd1na2vs0mg"},{"bike_id":"d442a09b-e8af-4fd5-b509-37bd57813bce","system_id":"levelo_inurba_marseille","lat":43.29727,"lon":5.36586,"is_reserved":false,"is_disabled":false,"rental_uris":{"android":"levelo://app?vid=d442a09b-e8af-4fd5-b509-37bd57813bce","ios":"levelo://app?vid=d442a09b-e8af-4fd5-b509-37bd57813bce"},"vehicle_type_id":"4","last_reported":1778750729,"current_range_meters":6400,"station_id":"ce4bgn12rcd13ifvqbt0","pricing_plan_id":"cebpf4jnsgd1na2vs0mg"},{"bike_id":"3c9fd14c-8db8-479c-846c-f3dc1ab44fd4","system_id":"levelo_inurba_marseille","lat":43.24715,"lon":5.39286,"is_reserved":false,"is_disabled":false,"rental_uris":{"android":"levelo://app?vid=3c9fd14c-8db8-479c-846c-f3dc1ab44fd4","ios":"levelo://app?vid=3c9fd14c-8db8-479c-846c-f3dc1ab44fd4"},"vehicle_type_id":"4","last_reported":1778750729,"current_range_meters":6400,"station_id":"","pricing_plan_id":"cebpf4jnsgd1na2vs0mg"},{"bike_id":"0da6948a-b597-4317-b926-141efbb7181d","system_id":"levelo_inurba_marseille","lat":43.25508,"lon":5.37621,"is_reserved":false,"is_disabled":false,"rental_uris":{"android":"levelo://app?vid=0da6948a-b597-4317-b926-141efbb7181d","ios":"levelo://app?vid=0da6948a-b597-4317-b926-141efbb7181d"},"vehicle_type_id":"4","last_reported":1778750729,"current_range_meters":6400,"station_id":"ce4bhh12rcd13ifvqff0","pricing_plan_id":"cebpf4jnsgd1na2vs0mg"},{"bike_id":"ce46e338-2b3c-4540-bcec-12f047be9263","system_id":"levelo_inurba_marseille","lat":43.28227,"lon":5.40547,"is_reserved":false,"is_disabled":false,"rental_uris":{"android":"levelo://app?vid=ce46e338-2b3c-4540-bcec-12f047be9263","ios":"levelo://app?vid=ce46e338-2b3c-4540-bcec-12f047be9263"},"vehicle_type_id":"4","last_reported":1778750729,"current_range_meters":6400,"station_id":"","pricing_plan_id":"cebpf4jnsgd1na2vs0mg"},{"bike_id":"7f2cf64e-d432-4a6f-b804-e1e718732a8a","system_id":"levelo_inurba_marseille","lat":43.29233,"lon":5.35763,"is_reserved":false,"is_disabled":false,"rental_uris":{"android":"levelo://app?vid=7f2cf64e-d432-4a6f-b804-e1e718732a8a","ios":"levelo://app?vid=7f2cf64e-d432-4a6f-b804-e1e718732a8a"},"vehicle_type_id":"4","last_reported":1778750729,"current_range_meters":6400,"station_id":"ce4bhb12rcd13ifvqel0","pricing_plan_id":"cebpf4jnsgd1na2vs0mg"},{"bike_id":"1c8551e7-65a0-49fa-ba5d-23c46f24083e","system_id":"levelo_inurba_marseille","lat":43.28698,"lon":5.46669,"is_reserved":false,"is_disabled":false,"rental_uris":{"android":"levelo://app?vid=1c8551e7-65a0-49fa-ba5d-23c46f24083e","ios":"levelo://app?vid=1c8551e7-65a0-49fa-ba5d-23c46f24083e"},"vehicle_type_id":"4","last_reported":1778750729,"current_range_meters":6400,"station_id":"st_d6tc3vkotcvc738tfjhg","pricing_plan_id":"cebpf4jnsgd1na2vs0mg"},{"bike_id":"cc2b562c-a43f-4402-a8da-db48fd9cbc13","system_id":"levelo_inurba_marseille","lat":43.3063,"lon":5.37231,"is_reserved":false,"is_disabled":false,"rental_uris":{"android":"levelo://app?vid=cc2b562c-a43f-4402-a8da-db48fd9cbc13","ios":"levelo://app?vid=cc2b562c-a43f-4402-a8da-db48fd9cbc13"},"vehicle_type_id":"4","last_reported":1778750729,"current_range_meters":6400,"station_id":"ce4bgqh2rcd13ifvqc4g","pricing_plan_id":"cebpf4jnsgd1na2vs0mg"},{"bike_id":"bdec0714-2661-4d5d-b0ca-dfb1e5acc403","system_id":"levelo_inurba_marseille","lat":43.21758,"lon":5.34586,"is_reserved":false,"is_disabled":true,"rental_uris":{"android":"levelo://app?vid=bdec0714-2661-4d5d-b0ca-dfb1e5acc403","ios":"levelo://app?vid=bdec0714-2661-4d5d-b0ca-dfb1e5acc403"},"vehicle_type_id":"4","last_reported":1778750729,"current_range_meters":6400,"station_id":"st_cvj6r9ubvosntc0bgbag","pricing_plan_id":"cebpf4jnsgd1na2vs0mg"},{"bike_id":"b299766d-661b-4293-b516-1846fa5fb91f","system_id":"levelo_inurba_marseille","lat":43.28627,"lon":5.38553,"is_reserved":false,"is_disabled":false,"rental_uris":{"android":"levelo://app?vid=b299766d-661b-4293-b516-1846fa5fb91f","ios":"levelo://app?vid=b299766d-661b-4293-b516-1846fa5fb91f"},"vehicle_type_id":"4","last_reported":1778750729,"current_range_meters":6400,"station_id":"","pricing_plan_id":"cebpf4jnsgd1na2vs0mg"},{"bike_id":"241e3942-3c13-4b00-90b4-13ab8de78b45","system_id":"levelo_inurba_marseille","lat":43.30686,"lon":5.36996,"is_reserved":false,"is_disabled":false,"rental_uris":{"android":"levelo://app?vid=241e3942-3c13-4b00-90b4-13ab8de78b45","ios":"levelo://app?vid=241e3942-3c13-4b00-90b4-13ab8de78b45"},"vehicle_type_id":"4","last_reported":1778750729,"current_range_meters":6400,"station_id":"","pricing_plan_id":"cebpf4jnsgd1na2vs0mg"},{"bike_id":"f7ad5531-c80d-4488-932d-7c4d62779c85","system_id":"levelo_inurba_marseille","lat":43.27925,"lon":5.39581,"is_reserved":false,"is_disabled":false,"rental_uris":{"android":"levelo://app?vid=f7ad5531-c80d-4488-932d-7c4d62779c85","ios":"levelo://app?vid=f7ad5531-c80d-4488-932d-7c4d62779c85"},"vehicle_type_id":"4","last_reported":1778750729,"current_range_meters":6400,"station_id":"ce4bhf92rcd13ifvqf40","pricing_plan_id":"cebpf4jnsgd1na2vs0mg"},{"bike_id":"81ae9a97-046f-4685-b3d6-f0657cc0dac1","system_id":"levelo_inurba_marseille","lat":43.26954,"lon":5.40304,"is_reserved":false,"is_disabled":false,"rental_uris":{"android":"levelo://app?vid=81ae9a97-046f-4685-b3d6-f0657cc0dac1","ios":"levelo://app?vid=81ae9a97-046f-4685-b3d6-f0657cc0dac1"},"vehicle_type_id":"4","last_reported":1778750729,"current_range_meters":6800,"station_id":"cjm6bp8fraef2m0cb0m0","pricing_plan_id":"cebpf4jnsgd1na2vs0mg"},{"bike_id":"4066804f-6245-416c-a2b8-375581408be7","system_id":"levelo_inurba_marseille","lat":43.29133,"lon":5.42442,"is_reserved":false,"is_disabled":false,"rental_uris":{"android":"levelo://app?vid=4066804f-6245-416c-a2b8-375581408be7","ios":"levelo://app?vid=4066804f-6245-416c-a2b8-375581408be7"},"vehicle_type_id":"4","last_reported":1778750729,"current_range_meters":6800,"station_id":"","pricing_plan_id":"cebpf4jnsgd1na2vs0mg"},{"bike_id":"0c4f0459-8ff8-44cf-b5cc-67d73d3665d1","system_id":"levelo_inurba_marseille","lat":43.2509,"lon":5.39526,"is_reserved":false,"is_disabled":false,"rental_uris":{"android":"levelo://app?vid=0c4f0459-8ff8-44cf-b5cc-67d73d3665d1","ios":"levelo://app?vid=0c4f0459-8ff8-44cf-b5cc-67d73d3665d1"},"vehicle_type_id":"4","last_reported":1778750729,"current_range_meters":6800,"station_id":"ce4bhm12rcd13ifvqgkg","pricing_plan_id":"cebpf4jnsgd1na2vs0mg"},{"bike_id":"5e57f13f-0095-4757-85ab-b6d06c068367","system_id":"levelo_inurba_marseille","lat":43.28037,"lon":5.36943,"is_reserved":false,"is_disabled":false,"rental_uris":{"android":"levelo://app?vid=5e57f13f-0095-4757-85ab-b6d06c068367","ios":"levelo://app?vid=5e57f13f-0095-4757-85ab-b6d06c068367"},"vehicle_type_id":"4","last_reported":1778750729,"current_range_meters":6800,"station_id":"ce4bha12rcd13ifvqef0","pricing_plan_id":"cebpf4jnsgd1na2vs0mg"},{"bike_id":"72bbc40c-8750-45ed-82bb-1835a82bcc54","system_id":"levelo_inurba_marseille","lat":43.246702,"lon":5.381634,"is_reserved":false,"is_disabled":false,"rental_uris":{"android":"levelo://app?vid=72bbc40c-8750-45ed-82bb-1835a82bcc54","ios":"levelo://app?vid=72bbc40c-8750-45ed-82bb-1835a82bcc54"},"vehicle_type_id":"4","last_reported":1778750729,"current_range_meters":6800,"station_id":"ce4bhih2rcd13ifvqfr0","pricing_plan_id":"cebpf4jnsgd1na2vs0mg"},{"bike_id":"f6fcf2d3-59dc-446e-8e5d-6c4db3de3165","system_id":"levelo_inurba_marseille","lat":43.308026,"lon":5.381497,"is_reserved":false,"is_disabled":false,"rental_uris":{"android":"levelo://app?vid=f6fcf2d3-59dc-446e-8e5d-6c4db3de3165","ios":"levelo://app?vid=f6fcf2d3-59dc-446e-8e5d-6c4db3de3165"},"vehicle_type_id":"4","last_reported":1778750729,"current_range_meters":6800,"station_id":"","pricing_plan_id":"cebpf4jnsgd1na2vs0mg"},{"bike_id":"11bfc38c-9d4c-45ee-b922-1948cd421490","system_id":"levelo_inurba_marseille","lat":43.24834,"lon":5.3746,"is_reserved":false,"is_disabled":true,"rental_uris":{"android":"levelo://app?vid=11bfc38c-9d4c-45ee-b922-1948cd421490","ios":"levelo://app?vid=11bfc38c-9d4c-45ee-b922-1948cd421490"},"vehicle_type_id":"4","last_reported":1778750729,"current_range_meters":6800,"station_id":"","pricing_plan_id":"cebpf4jnsgd1na2vs0mg"},{"bike_id":"9bb62d1d-98d2-456f-8ada-1bbcaeb98c00","system_id":"levelo_inurba_marseille","lat":43.2855,"lon":5.38437,"is_reserved":false,"is_disabled":false,"rental_uris":{"android":"levelo://app?vid=9bb62d1d-98d2-456f-8ada-1bbcaeb98c00","ios":"levelo://app?vid=9bb62d1d-98d2-456f-8ada-1bbcaeb98c00"},"vehicle_type_id":"4","last_reported":1778750729,"current_range_meters":6800,"station_id":"","pricing_plan_id":"cebpf4jnsgd1na2vs0mg"},{"bike_id":"d42a7cf1-1fa2-40ee-b441-c73427ab11ef","system_id":"levelo_inurba_marseille","lat":43.23967,"lon":5.36629,"is_reserved":false,"is_disabled":false,"rental_uris":{"android":"levelo://app?vid=d42a7cf1-1fa2-40ee-b441-c73427ab11ef","ios":"levelo://app?vid=d42a7cf1-1fa2-40ee-b441-c73427ab11ef"},"vehicle_type_id":"4","last_reported":1778750729,"current_range_meters":6800,"station_id":"ce4bhi12rcd13ifvqfp0","pricing_plan_id":"cebpf4jnsgd1na2vs0mg"},{"bike_id":"e775c99b-0b70-4f8c-ba25-de3c681ed645","system_id":"levelo_inurba_marseille","lat":43.24649,"lon":5.38876,"is_reserved":false,"is_disabled":false,"rental_uris":{"android":"levelo://app?vid=e775c99b-0b70-4f8c-ba25-de3c681ed645","ios":"levelo://app?vid=e775c99b-0b70-4f8c-ba25-de3c681ed645"},"vehicle_type_id":"4","last_reported":1778750729,"current_range_meters":6800,"station_id":"ce4bhg12rcd13ifvqf60","pricing_plan_id":"cebpf4jnsgd1na2vs0mg"},{"bike_id":"18df3caf-e3cd-46b1-8a56-af0d8c09400e","system_id":"levelo_inurba_marseille","lat":43.24169,"lon":5.36397,"is_reserved":false,"is_disabled":false,"rental_uris":{"android":"levelo://app?vid=18df3caf-e3cd-46b1-8a56-af0d8c09400e","ios":"levelo://app?vid=18df3caf-e3cd-46b1-8a56-af0d8c09400e"},"vehicle_type_id":"4","last_reported":1778750729,"current_range_meters":6800,"station_id":"cpo36qri1sfpv3e86is0","pricing_plan_id":"cebpf4jnsgd1na2vs0mg"},{"bike_id":"4118b0ae-0089-403c-b061-2637c601fef5","system_id":"levelo_inurba_marseille","lat":43.26802,"lon":5.40243,"is_reserved":false,"is_disabled":false,"rental_uris":{"android":"levelo://app?vid=4118b0ae-0089-403c-b061-2637c601fef5","ios":"levelo://app?vid=4118b0ae-0089-403c-b061-2637c601fef5"},"vehicle_type_id":"4","last_reported":1778750729,"current_range_meters":6800,"station_id":"ce501612rcd8frsf0b60","pricing_plan_id":"cebpf4jnsgd1na2vs0mg"},{"bike_id":"e7639aa3-651f-4e26-8dc2-eebbc9adb5f8","system_id":"levelo_inurba_marseille","lat":43.24643,"lon":5.38877,"is_reserved":false,"is_disabled":true,"rental_uris":{"android":"levelo://app?vid=e7639aa3-651f-4e26-8dc2-eebbc9adb5f8","ios":"levelo://app?vid=e7639aa3-651f-4e26-8dc2-eebbc9adb5f8"},"vehicle_type_id":"4","last_reported":1778750729,"current_range_meters":6800,"station_id":"ce4bhg12rcd13ifvqf60","pricing_plan_id":"cebpf4jnsgd1na2vs0mg"},{"bike_id":"4d2f6501-f59d-42f5-8f2d-638fca42e820","system_id":"levelo_inurba_marseille","lat":43.28516,"lon":5.4839,"is_reserved":false,"is_disabled":false,"rental_uris":{"android":"levelo://app?vid=4d2f6501-f59d-42f5-8f2d-638fca42e820","ios":"levelo://app?vid=4d2f6501-f59d-42f5-8f2d-638fca42e820"},"vehicle_type_id":"4","last_reported":1778750729,"current_range_meters":6800,"station_id":"","pricing_plan_id":"cebpf4jnsgd1na2vs0mg"},{"bike_id":"a78667bd-4808-4f19-8a3a-4b296fdcb733","system_id":"levelo_inurba_marseille","lat":43.30471,"lon":5.37933,"is_reserved":false,"is_disabled":false,"rental_uris":{"android":"levelo://app?vid=a78667bd-4808-4f19-8a3a-4b296fdcb733","ios":"levelo://app?vid=a78667bd-4808-4f19-8a3a-4b296fdcb733"},"vehicle_type_id":"4","last_reported":1778750729,"current_range_meters":6800,"station_id":"ce4bgup2rcd13ifvqcn0","pricing_plan_id":"cebpf4jnsgd1na2vs0mg"},{"bike_id":"2ba64ae6-db85-4c18-8c3b-5d451085a825","system_id":"levelo_inurba_marseille","lat":43.2861,"lon":5.3706,"is_reserved":false,"is_disabled":false,"rental_uris":{"android":"levelo://app?vid=2ba64ae6-db85-4c18-8c3b-5d451085a825","ios":"levelo://app?vid=2ba64ae6-db85-4c18-8c3b-5d451085a825"},"vehicle_type_id":"4","last_reported":1778750729,"current_range_meters":6800,"station_id":"ce4bht12rcd13ifvqi60","pricing_plan_id":"cebpf4jnsgd1na2vs0mg"},{"bike_id":"43dc5ec9-cce1-48fb-99af-2b40ca7b9483","system_id":"levelo_inurba_marseille","lat":43.21766,"lon":5.3459,"is_reserved":false,"is_disabled":false,"rental_uris":{"android":"levelo://app?vid=43dc5ec9-cce1-48fb-99af-2b40ca7b9483","ios":"levelo://app?vid=43dc5ec9-cce1-48fb-99af-2b40ca7b9483"},"vehicle_type_id":"4","last_reported":1778750729,"current_range_meters":7200,"station_id":"st_cvj6r9ubvosntc0bgbag","pricing_plan_id":"cebpf4jnsgd1na2vs0mg"},{"bike_id":"f009bb4b-625b-4482-8ff8-5aeca90a33f4","system_id":"levelo_inurba_marseille","lat":43.26229,"lon":5.37437,"is_reserved":false,"is_disabled":false,"rental_uris":{"android":"levelo://app?vid=f009bb4b-625b-4482-8ff8-5aeca90a33f4","ios":"levelo://app?vid=f009bb4b-625b-4482-8ff8-5aeca90a33f4"},"vehicle_type_id":"4","last_reported":1778750729,"current_range_meters":7200,"station_id":"","pricing_plan_id":"cebpf4jnsgd1na2vs0mg"},{"bike_id":"b7aef511-a30b-48e6-924f-5b7ff92819c7","system_id":"levelo_inurba_marseille","lat":43.28158,"lon":5.42646,"is_reserved":false,"is_disabled":true,"rental_uris":{"android":"levelo://app?vid=b7aef511-a30b-48e6-924f-5b7ff92819c7","ios":"levelo://app?vid=b7aef511-a30b-48e6-924f-5b7ff92819c7"},"vehicle_type_id":"4","last_reported":1778750729,"current_range_meters":7200,"station_id":"ce4bhnh2rcd13ifvqgug","pricing_plan_id":"cebpf4jnsgd1na2vs0mg"},{"bike_id":"ffb3d7f7-6459-4e3d-8b24-278faf4681ca","system_id":"levelo_inurba_marseille","lat":43.28571,"lon":5.39511,"is_reserved":false,"is_disabled":false,"rental_uris":{"android":"levelo://app?vid=ffb3d7f7-6459-4e3d-8b24-278faf4681ca","ios":"levelo://app?vid=ffb3d7f7-6459-4e3d-8b24-278faf4681ca"},"vehicle_type_id":"4","last_reported":1778750729,"current_range_meters":7200,"station_id":"ce4bh292rcd13ifvqdg0","pricing_plan_id":"cebpf4jnsgd1na2vs0mg"},{"bike_id":"0f5bf0de-e73b-4309-b0f7-5dfae347ec95","system_id":"levelo_inurba_marseille","lat":43.29627,"lon":5.40593,"is_reserved":false,"is_disabled":false,"rental_uris":{"android":"levelo://app?vid=0f5bf0de-e73b-4309-b0f7-5dfae347ec95","ios":"levelo://app?vid=0f5bf0de-e73b-4309-b0f7-5dfae347ec95"},"vehicle_type_id":"4","last_reported":1778750729,"current_range_meters":7200,"station_id":"ce4bh0h2rcd13ifvqd60","pricing_plan_id":"cebpf4jnsgd1na2vs0mg"},{"bike_id":"72c4b5ec-6750-4385-ac59-50206ebfe355","system_id":"levelo_inurba_marseille","lat":43.27909,"lon":5.39578,"is_reserved":false,"is_disabled":false,"rental_uris":{"android":"levelo://app?vid=72c4b5ec-6750-4385-ac59-50206ebfe355","ios":"levelo://app?vid=72c4b5ec-6750-4385-ac59-50206ebfe355"},"vehicle_type_id":"4","last_reported":1778750729,"current_range_meters":7200,"station_id":"ce4bhf92rcd13ifvqf40","pricing_plan_id":"cebpf4jnsgd1na2vs0mg"},{"bike_id":"9ab268a0-a8ea-4091-be12-135023a9af46","system_id":"levelo_inurba_marseille","lat":43.30411,"lon":5.39695,"is_reserved":false,"is_disabled":false,"rental_uris":{"android":"levelo://app?vid=9ab268a0-a8ea-4091-be12-135023a9af46","ios":"levelo://app?vid=9ab268a0-a8ea-4091-be12-135023a9af46"},"vehicle_type_id":"4","last_reported":1778750729,"current_range_meters":7200,"station_id":"","pricing_plan_id":"cebpf4jnsgd1na2vs0mg"},{"bike_id":"66fd8018-0de1-49f2-826e-b4cee9b193a8","system_id":"levelo_inurba_marseille","lat":43.30187,"lon":5.36628,"is_reserved":false,"is_disabled":true,"rental_uris":{"android":"levelo://app?vid=66fd8018-0de1-49f2-826e-b4cee9b193a8","ios":"levelo://app?vid=66fd8018-0de1-49f2-826e-b4cee9b193a8"},"vehicle_type_id":"4","last_reported":1778750729,"current_range_meters":7200,"station_id":"ce4bgrh2rcd13ifvqc8g","pricing_plan_id":"cebpf4jnsgd1na2vs0mg"},{"bike_id":"0e0085c3-fe65-4ad3-a236-774b9ecc552e","system_id":"levelo_inurba_marseille","lat":43.24382,"lon":5.3706,"is_reserved":false,"is_disabled":false,"rental_uris":{"android":"levelo://app?vid=0e0085c3-fe65-4ad3-a236-774b9ecc552e","ios":"levelo://app?vid=0e0085c3-fe65-4ad3-a236-774b9ecc552e"},"vehicle_type_id":"4","last_reported":1778750729,"current_range_meters":7200,"station_id":"ce4bhhh2rcd13ifvqfk0","pricing_plan_id":"cebpf4jnsgd1na2vs0mg"},{"bike_id":"6ad6ae18-21fc-4cd2-8d6b-b443438f9ca8","system_id":"levelo_inurba_marseille","lat":43.29021,"lon":5.42874,"is_reserved":false,"is_disabled":false,"rental_uris":{"android":"levelo://app?vid=6ad6ae18-21fc-4cd2-8d6b-b443438f9ca8","ios":"levelo://app?vid=6ad6ae18-21fc-4cd2-8d6b-b443438f9ca8"},"vehicle_type_id":"4","last_reported":1778750729,"current_range_meters":7200,"station_id":"","pricing_plan_id":"cebpf4jnsgd1na2vs0mg"},{"bike_id":"ead892c9-b844-4758-9093-438046339052","system_id":"levelo_inurba_marseille","lat":43.33577,"lon":5.3749,"is_reserved":false,"is_disabled":false,"rental_uris":{"android":"levelo://app?vid=ead892c9-b844-4758-9093-438046339052","ios":"levelo://app?vid=ead892c9-b844-4758-9093-438046339052"},"vehicle_type_id":"4","last_reported":1778750729,"current_range_meters":7200,"station_id":"st_d46tts09ee8s73dlu43g","pricing_plan_id":"cebpf4jnsgd1na2vs0mg"},{"bike_id":"e82b5d42-3586-42a6-8cf2-e549c0dabdad","system_id":"levelo_inurba_marseille","lat":43.29783,"lon":5.39338,"is_reserved":false,"is_disabled":false,"rental_uris":{"android":"levelo://app?vid=e82b5d42-3586-42a6-8cf2-e549c0dabdad","ios":"levelo://app?vid=e82b5d42-3586-42a6-8cf2-e549c0dabdad"},"vehicle_type_id":"4","last_reported":1778750729,"current_range_meters":8000,"station_id":"chh1huq6cuj3fo74tm60","pricing_plan_id":"cebpf4jnsgd1na2vs0mg"},{"bike_id":"1f07e132-97a9-4528-b9b3-ef7c62abf882","system_id":"levelo_inurba_marseille","lat":43.27625,"lon":5.3609,"is_reserved":false,"is_disabled":false,"rental_uris":{"android":"levelo://app?vid=1f07e132-97a9-4528-b9b3-ef7c62abf882","ios":"levelo://app?vid=1f07e132-97a9-4528-b9b3-ef7c62abf882"},"vehicle_type_id":"4","last_reported":1778750729,"current_range_meters":8000,"station_id":"ce4bgj92rcd13ifvqbe0","pricing_plan_id":"cebpf4jnsgd1na2vs0mg"},{"bike_id":"0e1804ca-dccb-4098-accf-62174948ed0a","system_id":"levelo_inurba_marseille","lat":43.29446,"lon":5.38235,"is_reserved":false,"is_disabled":false,"rental_uris":{"android":"levelo://app?vid=0e1804ca-dccb-4098-accf-62174948ed0a","ios":"levelo://app?vid=0e1804ca-dccb-4098-accf-62174948ed0a"},"vehicle_type_id":"4","last_reported":1778750729,"current_range_meters":8000,"station_id":"","pricing_plan_id":"cebpf4jnsgd1na2vs0mg"},{"bike_id":"55ab020e-68f6-412a-b977-6fdf5b6f3f56","system_id":"levelo_inurba_marseille","lat":43.31364,"lon":5.3849,"is_reserved":false,"is_disabled":false,"rental_uris":{"android":"levelo://app?vid=55ab020e-68f6-412a-b977-6fdf5b6f3f56","ios":"levelo://app?vid=55ab020e-68f6-412a-b977-6fdf5b6f3f56"},"vehicle_type_id":"4","last_reported":1778750729,"current_range_meters":8000,"station_id":"ce4bgt92rcd13ifvqcf0","pricing_plan_id":"cebpf4jnsgd1na2vs0mg"},{"bike_id":"04fab4f5-3865-44d6-9da6-cd03201dc7b5","system_id":"levelo_inurba_marseille","lat":43.29518,"lon":5.3908,"is_reserved":false,"is_disabled":false,"rental_uris":{"android":"levelo://app?vid=04fab4f5-3865-44d6-9da6-cd03201dc7b5","ios":"levelo://app?vid=04fab4f5-3865-44d6-9da6-cd03201dc7b5"},"vehicle_type_id":"4","last_reported":1778750729,"current_range_meters":8000,"station_id":"ce4bh3p2rcd13ifvqdp0","pricing_plan_id":"cebpf4jnsgd1na2vs0mg"},{"bike_id":"f81ebe42-0cdd-438c-9026-65221b5a0476","system_id":"levelo_inurba_marseille","lat":43.28635,"lon":5.3703,"is_reserved":false,"is_disabled":false,"rental_uris":{"android":"levelo://app?vid=f81ebe42-0cdd-438c-9026-65221b5a0476","ios":"levelo://app?vid=f81ebe42-0cdd-438c-9026-65221b5a0476"},"vehicle_type_id":"4","last_reported":1778750729,"current_range_meters":8000,"station_id":"ce4bht12rcd13ifvqi60","pricing_plan_id":"cebpf4jnsgd1na2vs0mg"},{"bike_id":"96a35e3c-1baa-490c-ba25-14178514c14f","system_id":"levelo_inurba_marseille","lat":43.21193,"lon":5.35071,"is_reserved":false,"is_disabled":false,"rental_uris":{"android":"levelo://app?vid=96a35e3c-1baa-490c-ba25-14178514c14f","ios":"levelo://app?vid=96a35e3c-1baa-490c-ba25-14178514c14f"},"vehicle_type_id":"4","last_reported":1778750729,"current_range_meters":8000,"station_id":"st_cvj6sg6p6f1abm77japg","pricing_plan_id":"cebpf4jnsgd1na2vs0mg"},{"bike_id":"8e9c1944-1b37-4c02-adb0-51b53d6eb9b7","system_id":"levelo_inurba_marseille","lat":43.24467,"lon":5.4252,"is_reserved":false,"is_disabled":false,"rental_uris":{"android":"levelo://app?vid=8e9c1944-1b37-4c02-adb0-51b53d6eb9b7","ios":"levelo://app?vid=8e9c1944-1b37-4c02-adb0-51b53d6eb9b7"},"vehicle_type_id":"4","last_reported":1778750729,"current_range_meters":8000,"station_id":"st_d4a3vfp97mjs738cd8kg","pricing_plan_id":"cebpf4jnsgd1na2vs0mg"},{"bike_id":"c1aea499-d26f-49bf-8367-447ce7aec604","system_id":"levelo_inurba_marseille","lat":43.25321,"lon":5.42144,"is_reserved":false,"is_disabled":false,"rental_uris":{"android":"levelo://app?vid=c1aea499-d26f-49bf-8367-447ce7aec604","ios":"levelo://app?vid=c1aea499-d26f-49bf-8367-447ce7aec604"},"vehicle_type_id":"4","last_reported":1778750729,"current_range_meters":8000,"station_id":"st_d2m65c5bi1j21697t3ng","pricing_plan_id":"cebpf4jnsgd1na2vs0mg"},{"bike_id":"94109f37-c4a8-4bcf-b491-3c1e07e07200","system_id":"levelo_inurba_marseille","lat":43.30164,"lon":5.3808,"is_reserved":false,"is_disabled":false,"rental_uris":{"android":"levelo://app?vid=94109f37-c4a8-4bcf-b491-3c1e07e07200","ios":"levelo://app?vid=94109f37-c4a8-4bcf-b491-3c1e07e07200"},"vehicle_type_id":"4","last_reported":1778750729,"current_range_meters":8000,"station_id":"ce4bgjp2rcd13ifvqbh0","pricing_plan_id":"cebpf4jnsgd1na2vs0mg"},{"bike_id":"af705914-bb9c-47f1-9802-e7ff0d2548f0","system_id":"levelo_inurba_marseille","lat":43.25491,"lon":5.37651,"is_reserved":false,"is_disabled":false,"rental_uris":{"android":"levelo://app?vid=af705914-bb9c-47f1-9802-e7ff0d2548f0","ios":"levelo://app?vid=af705914-bb9c-47f1-9802-e7ff0d2548f0"},"vehicle_type_id":"4","last_reported":1778750729,"current_range_meters":8000,"station_id":"ce4bhh12rcd13ifvqff0","pricing_plan_id":"cebpf4jnsgd1na2vs0mg"},{"bike_id":"8645af47-ab30-4e2d-ab96-5fe7f96547e8","system_id":"levelo_inurba_marseille","lat":43.28415,"lon":5.37496,"is_reserved":false,"is_disabled":false,"rental_uris":{"android":"levelo://app?vid=8645af47-ab30-4e2d-ab96-5fe7f96547e8","ios":"levelo://app?vid=8645af47-ab30-4e2d-ab96-5fe7f96547e8"},"vehicle_type_id":"4","last_reported":1778750729,"current_range_meters":8000,"station_id":"ce4bh412rcd13ifvqds0","pricing_plan_id":"cebpf4jnsgd1na2vs0mg"},{"bike_id":"b68725fb-48bd-4094-a63b-2967d5e783dd","system_id":"levelo_inurba_marseille","lat":43.27915,"lon":5.39587,"is_reserved":false,"is_disabled":true,"rental_uris":{"android":"levelo://app?vid=b68725fb-48bd-4094-a63b-2967d5e783dd","ios":"levelo://app?vid=b68725fb-48bd-4094-a63b-2967d5e783dd"},"vehicle_type_id":"4","last_reported":1778750729,"current_range_meters":8000,"station_id":"ce4bhf92rcd13ifvqf40","pricing_plan_id":"cebpf4jnsgd1na2vs0mg"},{"bike_id":"a311301a-3ed2-4db2-8cc3-38734f56787d","system_id":"levelo_inurba_marseille","lat":43.2119,"lon":5.35071,"is_reserved":false,"is_disabled":false,"rental_uris":{"android":"levelo://app?vid=a311301a-3ed2-4db2-8cc3-38734f56787d","ios":"levelo://app?vid=a311301a-3ed2-4db2-8cc3-38734f56787d"},"vehicle_type_id":"4","last_reported":1778750729,"current_range_meters":8000,"station_id":"st_cvj6sg6p6f1abm77japg","pricing_plan_id":"cebpf4jnsgd1na2vs0mg"},{"bike_id":"42f00887-56d0-4f2e-a284-c17ea1c51735","system_id":"levelo_inurba_marseille","lat":43.27204,"lon":5.39156,"is_reserved":false,"is_disabled":false,"rental_uris":{"android":"levelo://app?vid=42f00887-56d0-4f2e-a284-c17ea1c51735","ios":"levelo://app?vid=42f00887-56d0-4f2e-a284-c17ea1c51735"},"vehicle_type_id":"4","last_reported":1778750729,"current_range_meters":8000,"station_id":"ce4bhhp2rcd13ifvqfm0","pricing_plan_id":"cebpf4jnsgd1na2vs0mg"},{"bike_id":"6ca71038-9f95-4ab6-abac-0a0dca643d0a","system_id":"levelo_inurba_marseille","lat":43.29566,"lon":5.39955,"is_reserved":false,"is_disabled":false,"rental_uris":{"android":"levelo://app?vid=6ca71038-9f95-4ab6-abac-0a0dca643d0a","ios":"levelo://app?vid=6ca71038-9f95-4ab6-abac-0a0dca643d0a"},"vehicle_type_id":"4","last_reported":1778750729,"current_range_meters":8000,"station_id":"ce4bh312rcd13ifvqdj0","pricing_plan_id":"cebpf4jnsgd1na2vs0mg"},{"bike_id":"3ce682a9-82b7-46ed-941f-1d7e4fc80d3d","system_id":"levelo_inurba_marseille","lat":43.25114,"lon":5.40309,"is_reserved":false,"is_disabled":false,"rental_uris":{"android":"levelo://app?vid=3ce682a9-82b7-46ed-941f-1d7e4fc80d3d","ios":"levelo://app?vid=3ce682a9-82b7-46ed-941f-1d7e4fc80d3d"},"vehicle_type_id":"4","last_reported":1778750729,"current_range_meters":8000,"station_id":"ce4bhlh2rcd13ifvqgig","pricing_plan_id":"cebpf4jnsgd1na2vs0mg"},{"bike_id":"0f39ab81-4ec8-4110-bdec-ad4c73ac1f43","system_id":"levelo_inurba_marseille","lat":43.28542,"lon":5.44102,"is_reserved":false,"is_disabled":false,"rental_uris":{"android":"levelo://app?vid=0f39ab81-4ec8-4110-bdec-ad4c73ac1f43","ios":"levelo://app?vid=0f39ab81-4ec8-4110-bdec-ad4c73ac1f43"},"vehicle_type_id":"4","last_reported":1778750729,"current_range_meters":8000,"station_id":"st_d3j3df2ikq2c7380ej80","pricing_plan_id":"cebpf4jnsgd1na2vs0mg"},{"bike_id":"d1be613e-085b-4259-9861-d62c7bd1b056","system_id":"levelo_inurba_marseille","lat":43.31905,"lon":5.36816,"is_reserved":false,"is_disabled":false,"rental_uris":{"android":"levelo://app?vid=d1be613e-085b-4259-9861-d62c7bd1b056","ios":"levelo://app?vid=d1be613e-085b-4259-9861-d62c7bd1b056"},"vehicle_type_id":"4","last_reported":1778750729,"current_range_meters":8000,"station_id":"st_d6o2h0d0559c73evc1b0","pricing_plan_id":"cebpf4jnsgd1na2vs0mg"},{"bike_id":"b2b4314a-5925-4700-bab3-038d34f53a7d","system_id":"levelo_inurba_marseille","lat":43.28712,"lon":5.46678,"is_reserved":false,"is_disabled":false,"rental_uris":{"android":"levelo://app?vid=b2b4314a-5925-4700-bab3-038d34f53a7d","ios":"levelo://app?vid=b2b4314a-5925-4700-bab3-038d34f53a7d"},"vehicle_type_id":"4","last_reported":1778750729,"current_range_meters":8400,"station_id":"st_d6tc3vkotcvc738tfjhg","pricing_plan_id":"cebpf4jnsgd1na2vs0mg"},{"bike_id":"91eeadf8-9cc7-4358-8f0a-69d93f2e05ce","system_id":"levelo_inurba_marseille","lat":43.31233,"lon":5.36877,"is_reserved":false,"is_disabled":false,"rental_uris":{"android":"levelo://app?vid=91eeadf8-9cc7-4358-8f0a-69d93f2e05ce","ios":"levelo://app?vid=91eeadf8-9cc7-4358-8f0a-69d93f2e05ce"},"vehicle_type_id":"4","last_reported":1778750729,"current_range_meters":8400,"station_id":"ce4bgl92rcd13ifvqbq0","pricing_plan_id":"cebpf4jnsgd1na2vs0mg"},{"bike_id":"e21152b8-d489-4151-83e2-605c867fd03b","system_id":"levelo_inurba_marseille","lat":43.28461,"lon":5.35918,"is_reserved":false,"is_disabled":false,"rental_uris":{"android":"levelo://app?vid=e21152b8-d489-4151-83e2-605c867fd03b","ios":"levelo://app?vid=e21152b8-d489-4151-83e2-605c867fd03b"},"vehicle_type_id":"4","last_reported":1778750729,"current_range_meters":8400,"station_id":"ce4bhah2rcd13ifvqei0","pricing_plan_id":"cebpf4jnsgd1na2vs0mg"},{"bike_id":"1700d583-7597-4737-8882-3cff6f507183","system_id":"levelo_inurba_marseille","lat":43.30683,"lon":5.40061,"is_reserved":false,"is_disabled":false,"rental_uris":{"android":"levelo://app?vid=1700d583-7597-4737-8882-3cff6f507183","ios":"levelo://app?vid=1700d583-7597-4737-8882-3cff6f507183"},"vehicle_type_id":"4","last_reported":1778750729,"current_range_meters":8400,"station_id":"ce4bh112rcd13ifvqda0","pricing_plan_id":"cebpf4jnsgd1na2vs0mg"},{"bike_id":"a805dd41-a9d9-4ba0-b517-cd11edd5e755","system_id":"levelo_inurba_marseille","lat":43.28528,"lon":5.44089,"is_reserved":false,"is_disabled":false,"rental_uris":{"android":"levelo://app?vid=a805dd41-a9d9-4ba0-b517-cd11edd5e755","ios":"levelo://app?vid=a805dd41-a9d9-4ba0-b517-cd11edd5e755"},"vehicle_type_id":"4","last_reported":1778750729,"current_range_meters":8400,"station_id":"st_d3j3df2ikq2c7380ej80","pricing_plan_id":"cebpf4jnsgd1na2vs0mg"},{"bike_id":"cc90a0a8-a1f0-4a30-a8be-482630da4418","system_id":"levelo_inurba_marseille","lat":43.29721,"lon":5.3768,"is_reserved":false,"is_disabled":true,"rental_uris":{"android":"levelo://app?vid=cc90a0a8-a1f0-4a30-a8be-482630da4418","ios":"levelo://app?vid=cc90a0a8-a1f0-4a30-a8be-482630da4418"},"vehicle_type_id":"4","last_reported":1778750729,"current_range_meters":8400,"station_id":"ce4bgkh2rcd13ifvqbl0","pricing_plan_id":"cebpf4jnsgd1na2vs0mg"},{"bike_id":"dc6960a7-1f93-4b4e-85c3-4c612c60a34a","system_id":"levelo_inurba_marseille","lat":43.29043,"lon":5.39954,"is_reserved":false,"is_disabled":false,"rental_uris":{"android":"levelo://app?vid=dc6960a7-1f93-4b4e-85c3-4c612c60a34a","ios":"levelo://app?vid=dc6960a7-1f93-4b4e-85c3-4c612c60a34a"},"vehicle_type_id":"4","last_reported":1778750729,"current_range_meters":8400,"station_id":"ce4bh392rcd13ifvqdm0","pricing_plan_id":"cebpf4jnsgd1na2vs0mg"},{"bike_id":"9062255f-0238-4e6e-b972-b53f3708ba09","system_id":"levelo_inurba_marseille","lat":43.25342,"lon":5.42175,"is_reserved":false,"is_disabled":false,"rental_uris":{"android":"levelo://app?vid=9062255f-0238-4e6e-b972-b53f3708ba09","ios":"levelo://app?vid=9062255f-0238-4e6e-b972-b53f3708ba09"},"vehicle_type_id":"4","last_reported":1778750729,"current_range_meters":8400,"station_id":"st_d2m65c5bi1j21697t3ng","pricing_plan_id":"cebpf4jnsgd1na2vs0mg"},{"bike_id":"3eb17ea7-504c-4154-a442-3f77f9eb2f74","system_id":"levelo_inurba_marseille","lat":43.255,"lon":5.37638,"is_reserved":false,"is_disabled":false,"rental_uris":{"android":"levelo://app?vid=3eb17ea7-504c-4154-a442-3f77f9eb2f74","ios":"levelo://app?vid=3eb17ea7-504c-4154-a442-3f77f9eb2f74"},"vehicle_type_id":"4","last_reported":1778750729,"current_range_meters":8400,"station_id":"ce4bhh12rcd13ifvqff0","pricing_plan_id":"cebpf4jnsgd1na2vs0mg"},{"bike_id":"0a87e042-c3d6-4211-889b-724575aa05cf","system_id":"levelo_inurba_marseille","lat":43.29974,"lon":5.38471,"is_reserved":false,"is_disabled":false,"rental_uris":{"android":"levelo://app?vid=0a87e042-c3d6-4211-889b-724575aa05cf","ios":"levelo://app?vid=0a87e042-c3d6-4211-889b-724575aa05cf"},"vehicle_type_id":"4","last_reported":1778750729,"current_range_meters":8400,"station_id":"ce4bgj92rcd13ifvqbd0","pricing_plan_id":"cebpf4jnsgd1na2vs0mg"},{"bike_id":"14ca5927-a52c-4674-8786-4b2a04005b2e","system_id":"levelo_inurba_marseille","lat":43.31084,"lon":5.37156,"is_reserved":false,"is_disabled":false,"rental_uris":{"android":"levelo://app?vid=14ca5927-a52c-4674-8786-4b2a04005b2e","ios":"levelo://app?vid=14ca5927-a52c-4674-8786-4b2a04005b2e"},"vehicle_type_id":"4","last_reported":1778750729,"current_range_meters":8400,"station_id":"st_d4kl2rp97mjs73e7tdfg","pricing_plan_id":"cebpf4jnsgd1na2vs0mg"},{"bike_id":"cf86c92c-3641-4c56-b4a8-89ebd58517ee","system_id":"levelo_inurba_marseille","lat":43.32105,"lon":5.36763,"is_reserved":false,"is_disabled":false,"rental_uris":{"android":"levelo://app?vid=cf86c92c-3641-4c56-b4a8-89ebd58517ee","ios":"levelo://app?vid=cf86c92c-3641-4c56-b4a8-89ebd58517ee"},"vehicle_type_id":"4","last_reported":1778750729,"current_range_meters":8400,"station_id":"ce4bhrh2rcd13ifvqhug","pricing_plan_id":"cebpf4jnsgd1na2vs0mg"},{"bike_id":"56f10c3c-5d40-4146-aea1-bd5b16dc8ee8","system_id":"levelo_inurba_marseille","lat":43.33192,"lon":5.40651,"is_reserved":false,"is_disabled":false,"rental_uris":{"android":"levelo://app?vid=56f10c3c-5d40-4146-aea1-bd5b16dc8ee8","ios":"levelo://app?vid=56f10c3c-5d40-4146-aea1-bd5b16dc8ee8"},"vehicle_type_id":"4","last_reported":1778750729,"current_range_meters":8400,"station_id":"","pricing_plan_id":"cebpf4jnsgd1na2vs0mg"},{"bike_id":"fadf391a-50ae-43f3-a758-3f928f452afc","system_id":"levelo_inurba_marseille","lat":43.2719,"lon":5.41003,"is_reserved":false,"is_disabled":true,"rental_uris":{"android":"levelo://app?vid=fadf391a-50ae-43f3-a758-3f928f452afc","ios":"levelo://app?vid=fadf391a-50ae-43f3-a758-3f928f452afc"},"vehicle_type_id":"4","last_reported":1778750729,"current_range_meters":8400,"station_id":"ce4bhl12rcd13ifvqgf0","pricing_plan_id":"cebpf4jnsgd1na2vs0mg"},{"bike_id":"6558a215-088b-4d96-81b8-6bad41db068e","system_id":"levelo_inurba_marseille","lat":43.30946,"lon":5.40153,"is_reserved":false,"is_disabled":false,"rental_uris":{"android":"levelo://app?vid=6558a215-088b-4d96-81b8-6bad41db068e","ios":"levelo://app?vid=6558a215-088b-4d96-81b8-6bad41db068e"},"vehicle_type_id":"4","last_reported":1778750729,"current_range_meters":8400,"station_id":"ce4bgvp2rcd13ifvqct0","pricing_plan_id":"cebpf4jnsgd1na2vs0mg"},{"bike_id":"c1c72d3d-55e4-49c0-b252-4cb84958352d","system_id":"levelo_inurba_marseille","lat":43.30937,"lon":5.40154,"is_reserved":false,"is_disabled":false,"rental_uris":{"android":"levelo://app?vid=c1c72d3d-55e4-49c0-b252-4cb84958352d","ios":"levelo://app?vid=c1c72d3d-55e4-49c0-b252-4cb84958352d"},"vehicle_type_id":"4","last_reported":1778750729,"current_range_meters":8400,"station_id":"ce4bgvp2rcd13ifvqct0","pricing_plan_id":"cebpf4jnsgd1na2vs0mg"},{"bike_id":"fb6a4e03-6a4e-4ff2-aa3f-8e60f26d6bc9","system_id":"levelo_inurba_marseille","lat":43.2883,"lon":5.35823,"is_reserved":false,"is_disabled":false,"rental_uris":{"android":"levelo://app?vid=fb6a4e03-6a4e-4ff2-aa3f-8e60f26d6bc9","ios":"levelo://app?vid=fb6a4e03-6a4e-4ff2-aa3f-8e60f26d6bc9"},"vehicle_type_id":"4","last_reported":1778750729,"current_range_meters":8400,"station_id":"ce4bhb12rcd13ifvqem0","pricing_plan_id":"cebpf4jnsgd1na2vs0mg"},{"bike_id":"0202b8b7-1a40-45f3-9b1d-d3e2276526da","system_id":"levelo_inurba_marseille","lat":43.28712,"lon":5.39945,"is_reserved":false,"is_disabled":false,"rental_uris":{"android":"levelo://app?vid=0202b8b7-1a40-45f3-9b1d-d3e2276526da","ios":"levelo://app?vid=0202b8b7-1a40-45f3-9b1d-d3e2276526da"},"vehicle_type_id":"4","last_reported":1778750729,"current_range_meters":8400,"station_id":"ce4bho92rcd13ifvqh3g","pricing_plan_id":"cebpf4jnsgd1na2vs0mg"},{"bike_id":"b4557c18-0c64-4ad3-9e11-156aa838e06c","system_id":"levelo_inurba_marseille","lat":43.31372,"lon":5.39671,"is_reserved":false,"is_disabled":false,"rental_uris":{"android":"levelo://app?vid=b4557c18-0c64-4ad3-9e11-156aa838e06c","ios":"levelo://app?vid=b4557c18-0c64-4ad3-9e11-156aa838e06c"},"vehicle_type_id":"4","last_reported":1778750729,"current_range_meters":8400,"station_id":"ce4bgvp2rcd13ifvqcu0","pricing_plan_id":"cebpf4jnsgd1na2vs0mg"},{"bike_id":"5e36af05-b91e-4935-abc0-8d532a0ac838","system_id":"levelo_inurba_marseille","lat":43.28719,"lon":5.37379,"is_reserved":false,"is_disabled":false,"rental_uris":{"android":"levelo://app?vid=5e36af05-b91e-4935-abc0-8d532a0ac838","ios":"levelo://app?vid=5e36af05-b91e-4935-abc0-8d532a0ac838"},"vehicle_type_id":"4","last_reported":1778750729,"current_range_meters":8400,"station_id":"ce4bh3p2rcd13ifvqdq0","pricing_plan_id":"cebpf4jnsgd1na2vs0mg"},{"bike_id":"8af38655-e65c-465e-83e2-1c3ed295a51f","system_id":"levelo_inurba_marseille","lat":43.24462,"lon":5.42524,"is_reserved":false,"is_disabled":false,"rental_uris":{"android":"levelo://app?vid=8af38655-e65c-465e-83e2-1c3ed295a51f","ios":"levelo://app?vid=8af38655-e65c-465e-83e2-1c3ed295a51f"},"vehicle_type_id":"4","last_reported":1778750729,"current_range_meters":8800,"station_id":"st_d4a3vfp97mjs738cd8kg","pricing_plan_id":"cebpf4jnsgd1na2vs0mg"},{"bike_id":"003baca3-1b51-47a6-bbf5-e479a5ad0ebd","system_id":"levelo_inurba_marseille","lat":43.33557,"lon":5.37438,"is_reserved":false,"is_disabled":false,"rental_uris":{"android":"levelo://app?vid=003baca3-1b51-47a6-bbf5-e479a5ad0ebd","ios":"levelo://app?vid=003baca3-1b51-47a6-bbf5-e479a5ad0ebd"},"vehicle_type_id":"4","last_reported":1778750729,"current_range_meters":8800,"station_id":"st_d46tts09ee8s73dlu43g","pricing_plan_id":"cebpf4jnsgd1na2vs0mg"},{"bike_id":"4fda1eba-1f18-4b92-81e6-b18d658c8fe7","system_id":"levelo_inurba_marseille","lat":43.31909,"lon":5.36778,"is_reserved":false,"is_disabled":false,"rental_uris":{"android":"levelo://app?vid=4fda1eba-1f18-4b92-81e6-b18d658c8fe7","ios":"levelo://app?vid=4fda1eba-1f18-4b92-81e6-b18d658c8fe7"},"vehicle_type_id":"4","last_reported":1778750729,"current_range_meters":8800,"station_id":"st_d6o2h0d0559c73evc1b0","pricing_plan_id":"cebpf4jnsgd1na2vs0mg"},{"bike_id":"fc226c98-f322-48a2-8f2c-6caf8724578d","system_id":"levelo_inurba_marseille","lat":43.31102,"lon":5.37747,"is_reserved":false,"is_disabled":false,"rental_uris":{"android":"levelo://app?vid=fc226c98-f322-48a2-8f2c-6caf8724578d","ios":"levelo://app?vid=fc226c98-f322-48a2-8f2c-6caf8724578d"},"vehicle_type_id":"4","last_reported":1778750729,"current_range_meters":8800,"station_id":"ce4bgt92rcd13ifvqcg0","pricing_plan_id":"cebpf4jnsgd1na2vs0mg"},{"bike_id":"403abfca-db03-47e4-b8c9-06a6b97b58d4","system_id":"levelo_inurba_marseille","lat":43.33218,"lon":5.43052,"is_reserved":false,"is_disabled":false,"rental_uris":{"android":"levelo://app?vid=403abfca-db03-47e4-b8c9-06a6b97b58d4","ios":"levelo://app?vid=403abfca-db03-47e4-b8c9-06a6b97b58d4"},"vehicle_type_id":"4","last_reported":1778750729,"current_range_meters":8800,"station_id":"","pricing_plan_id":"cebpf4jnsgd1na2vs0mg"},{"bike_id":"caa35868-8ac3-42c6-97ed-7b6dd63e75d5","system_id":"levelo_inurba_marseille","lat":43.27503,"lon":5.41597,"is_reserved":false,"is_disabled":false,"rental_uris":{"android":"levelo://app?vid=caa35868-8ac3-42c6-97ed-7b6dd63e75d5","ios":"levelo://app?vid=caa35868-8ac3-42c6-97ed-7b6dd63e75d5"},"vehicle_type_id":"4","last_reported":1778750729,"current_range_meters":8800,"station_id":"st_d6im8g6chgec73a5pndg","pricing_plan_id":"cebpf4jnsgd1na2vs0mg"},{"bike_id":"3469f700-545e-41e3-b24a-6a73a452f236","system_id":"levelo_inurba_marseille","lat":43.26505,"lon":5.39536,"is_reserved":false,"is_disabled":false,"rental_uris":{"android":"levelo://app?vid=3469f700-545e-41e3-b24a-6a73a452f236","ios":"levelo://app?vid=3469f700-545e-41e3-b24a-6a73a452f236"},"vehicle_type_id":"4","last_reported":1778750729,"current_range_meters":8800,"station_id":"ce4bhi12rcd13ifvqfq0","pricing_plan_id":"cebpf4jnsgd1na2vs0mg"},{"bike_id":"6401d9e4-349a-44c6-8e80-53cb045748c0","system_id":"levelo_inurba_marseille","lat":43.29289,"lon":5.36829,"is_reserved":false,"is_disabled":false,"rental_uris":{"android":"levelo://app?vid=6401d9e4-349a-44c6-8e80-53cb045748c0","ios":"levelo://app?vid=6401d9e4-349a-44c6-8e80-53cb045748c0"},"vehicle_type_id":"4","last_reported":1778750729,"current_range_meters":8800,"station_id":"ce4bhbp2rcd13ifvqesg","pricing_plan_id":"cebpf4jnsgd1na2vs0mg"},{"bike_id":"01d6866d-1fa3-4b9d-a3c3-f33e2c3346ea","system_id":"levelo_inurba_marseille","lat":43.23795,"lon":5.36629,"is_reserved":false,"is_disabled":false,"rental_uris":{"android":"levelo://app?vid=01d6866d-1fa3-4b9d-a3c3-f33e2c3346ea","ios":"levelo://app?vid=01d6866d-1fa3-4b9d-a3c3-f33e2c3346ea"},"vehicle_type_id":"4","last_reported":1778750729,"current_range_meters":8800,"station_id":"st_d3nk18o9ro0c73en2l3g","pricing_plan_id":"cebpf4jnsgd1na2vs0mg"},{"bike_id":"97584df1-b6f6-4d5b-a233-f0962dc7cb39","system_id":"levelo_inurba_marseille","lat":43.26035,"lon":5.37546,"is_reserved":false,"is_disabled":false,"rental_uris":{"android":"levelo://app?vid=97584df1-b6f6-4d5b-a233-f0962dc7cb39","ios":"levelo://app?vid=97584df1-b6f6-4d5b-a233-f0962dc7cb39"},"vehicle_type_id":"4","last_reported":1778750729,"current_range_meters":8800,"station_id":"ce4bhgh2rcd13ifvqfa0","pricing_plan_id":"cebpf4jnsgd1na2vs0mg"},{"bike_id":"f0ae77a3-32eb-4c7c-8efc-fba7b5d64db2","system_id":"levelo_inurba_marseille","lat":43.27847,"lon":5.39181,"is_reserved":false,"is_disabled":true,"rental_uris":{"android":"levelo://app?vid=f0ae77a3-32eb-4c7c-8efc-fba7b5d64db2","ios":"levelo://app?vid=f0ae77a3-32eb-4c7c-8efc-fba7b5d64db2"},"vehicle_type_id":"4","last_reported":1778750729,"current_range_meters":8800,"station_id":"ce4bhjp2rcd13ifvqga0","pricing_plan_id":"cebpf4jnsgd1na2vs0mg"},{"bike_id":"befa7ca9-07da-4b3a-822a-5e23279d9209","system_id":"levelo_inurba_marseille","lat":43.29581,"lon":5.42255,"is_reserved":false,"is_disabled":false,"rental_uris":{"android":"levelo://app?vid=befa7ca9-07da-4b3a-822a-5e23279d9209","ios":"levelo://app?vid=befa7ca9-07da-4b3a-822a-5e23279d9209"},"vehicle_type_id":"4","last_reported":1778750729,"current_range_meters":8800,"station_id":"ce4bhph2rcd13ifvqhdg","pricing_plan_id":"cebpf4jnsgd1na2vs0mg"},{"bike_id":"b97ca2c9-214e-411d-929b-8472faf4cb9e","system_id":"levelo_inurba_marseille","lat":43.27381,"lon":5.36263,"is_reserved":false,"is_disabled":false,"rental_uris":{"android":"levelo://app?vid=b97ca2c9-214e-411d-929b-8472faf4cb9e","ios":"levelo://app?vid=b97ca2c9-214e-411d-929b-8472faf4cb9e"},"vehicle_type_id":"4","last_reported":1778750729,"current_range_meters":8800,"station_id":"","pricing_plan_id":"cebpf4jnsgd1na2vs0mg"},{"bike_id":"5e360434-c987-4796-baac-a41f6d54bfe8","system_id":"levelo_inurba_marseille","lat":43.25068,"lon":5.41208,"is_reserved":false,"is_disabled":false,"rental_uris":{"android":"levelo://app?vid=5e360434-c987-4796-baac-a41f6d54bfe8","ios":"levelo://app?vid=5e360434-c987-4796-baac-a41f6d54bfe8"},"vehicle_type_id":"4","last_reported":1778750729,"current_range_meters":8800,"station_id":"","pricing_plan_id":"cebpf4jnsgd1na2vs0mg"},{"bike_id":"be8d6c47-c148-4d18-9223-1fa0e7f162da","system_id":"levelo_inurba_marseille","lat":43.29868,"lon":5.42058,"is_reserved":false,"is_disabled":false,"rental_uris":{"android":"levelo://app?vid=be8d6c47-c148-4d18-9223-1fa0e7f162da","ios":"levelo://app?vid=be8d6c47-c148-4d18-9223-1fa0e7f162da"},"vehicle_type_id":"4","last_reported":1778750729,"current_range_meters":8800,"station_id":"st_d6tc004otcvc738tfe70","pricing_plan_id":"cebpf4jnsgd1na2vs0mg"},{"bike_id":"fd926cd8-f3e7-4ea0-9811-e5d39a863ccd","system_id":"levelo_inurba_marseille","lat":43.2904,"lon":5.39959,"is_reserved":false,"is_disabled":true,"rental_uris":{"android":"levelo://app?vid=fd926cd8-f3e7-4ea0-9811-e5d39a863ccd","ios":"levelo://app?vid=fd926cd8-f3e7-4ea0-9811-e5d39a863ccd"},"vehicle_type_id":"4","last_reported":1778750729,"current_range_meters":8800,"station_id":"ce4bh392rcd13ifvqdm0","pricing_plan_id":"cebpf4jnsgd1na2vs0mg"},{"bike_id":"d06e21cb-7e20-41e8-9360-9b829e92b25c","system_id":"levelo_inurba_marseille","lat":43.33163,"lon":5.37669,"is_reserved":false,"is_disabled":false,"rental_uris":{"android":"levelo://app?vid=d06e21cb-7e20-41e8-9360-9b829e92b25c","ios":"levelo://app?vid=d06e21cb-7e20-41e8-9360-9b829e92b25c"},"vehicle_type_id":"4","last_reported":1778750729,"current_range_meters":8800,"station_id":"st_d46cu089ee8s73dldbu0","pricing_plan_id":"cebpf4jnsgd1na2vs0mg"},{"bike_id":"a62b23fd-5e82-4062-938c-2e6d26cc868d","system_id":"levelo_inurba_marseille","lat":43.28673,"lon":5.36338,"is_reserved":false,"is_disabled":false,"rental_uris":{"android":"levelo://app?vid=a62b23fd-5e82-4062-938c-2e6d26cc868d","ios":"levelo://app?vid=a62b23fd-5e82-4062-938c-2e6d26cc868d"},"vehicle_type_id":"4","last_reported":1778750729,"current_range_meters":8800,"station_id":"ce4bhah2rcd13ifvqej0","pricing_plan_id":"cebpf4jnsgd1na2vs0mg"},{"bike_id":"a749aa3e-52e5-43f2-aef2-449bb7bb45e8","system_id":"levelo_inurba_marseille","lat":43.31236,"lon":5.38449,"is_reserved":false,"is_disabled":false,"rental_uris":{"android":"levelo://app?vid=a749aa3e-52e5-43f2-aef2-449bb7bb45e8","ios":"levelo://app?vid=a749aa3e-52e5-43f2-aef2-449bb7bb45e8"},"vehicle_type_id":"4","last_reported":1778750729,"current_range_meters":9200,"station_id":"","pricing_plan_id":"cebpf4jnsgd1na2vs0mg"},{"bike_id":"d15b429e-d67e-4a9c-94a1-5a0b02013a81","system_id":"levelo_inurba_marseille","lat":43.29794,"lon":5.38084,"is_reserved":false,"is_disabled":false,"rental_uris":{"android":"levelo://app?vid=d15b429e-d67e-4a9c-94a1-5a0b02013a81","ios":"levelo://app?vid=d15b429e-d67e-4a9c-94a1-5a0b02013a81"},"vehicle_type_id":"4","last_reported":1778750729,"current_range_meters":9200,"station_id":"ce4bgip2rcd13ifvqbb0","pricing_plan_id":"cebpf4jnsgd1na2vs0mg"},{"bike_id":"a10d5a94-8a0e-48d4-b167-8dc8b1c636f0","system_id":"levelo_inurba_marseille","lat":43.27557,"lon":5.38434,"is_reserved":false,"is_disabled":false,"rental_uris":{"android":"levelo://app?vid=a10d5a94-8a0e-48d4-b167-8dc8b1c636f0","ios":"levelo://app?vid=a10d5a94-8a0e-48d4-b167-8dc8b1c636f0"},"vehicle_type_id":"4","last_reported":1778750729,"current_range_meters":9200,"station_id":"ce4bhh92rcd13ifvqfi0","pricing_plan_id":"cebpf4jnsgd1na2vs0mg"},{"bike_id":"0480f53f-32e7-48a7-94bd-18e696381361","system_id":"levelo_inurba_marseille","lat":43.3234,"lon":5.36755,"is_reserved":false,"is_disabled":false,"rental_uris":{"android":"levelo://app?vid=0480f53f-32e7-48a7-94bd-18e696381361","ios":"levelo://app?vid=0480f53f-32e7-48a7-94bd-18e696381361"},"vehicle_type_id":"4","last_reported":1778750729,"current_range_meters":9200,"station_id":"ce4bhsh2rcd13ifvqi2g","pricing_plan_id":"cebpf4jnsgd1na2vs0mg"},{"bike_id":"e633d061-28f0-43c3-9a61-1f82f584c157","system_id":"levelo_inurba_marseille","lat":43.26777,"lon":5.39414,"is_reserved":false,"is_disabled":false,"rental_uris":{"android":"levelo://app?vid=e633d061-28f0-43c3-9a61-1f82f584c157","ios":"levelo://app?vid=e633d061-28f0-43c3-9a61-1f82f584c157"},"vehicle_type_id":"4","last_reported":1778750729,"current_range_meters":9200,"station_id":"ce4bhh12rcd13ifvqfg0","pricing_plan_id":"cebpf4jnsgd1na2vs0mg"},{"bike_id":"355b9e66-6c32-4c74-81a4-ccb0813605fa","system_id":"levelo_inurba_marseille","lat":43.31281,"lon":5.40138,"is_reserved":false,"is_disabled":false,"rental_uris":{"android":"levelo://app?vid=355b9e66-6c32-4c74-81a4-ccb0813605fa","ios":"levelo://app?vid=355b9e66-6c32-4c74-81a4-ccb0813605fa"},"vehicle_type_id":"4","last_reported":1778750729,"current_range_meters":9200,"station_id":"ce4bh092rcd13ifvqd30","pricing_plan_id":"cebpf4jnsgd1na2vs0mg"},{"bike_id":"d3431ac7-cfc4-47eb-8483-97af52bdafa1","system_id":"levelo_inurba_marseille","lat":43.27834,"lon":5.40713,"is_reserved":false,"is_disabled":true,"rental_uris":{"android":"levelo://app?vid=d3431ac7-cfc4-47eb-8483-97af52bdafa1","ios":"levelo://app?vid=d3431ac7-cfc4-47eb-8483-97af52bdafa1"},"vehicle_type_id":"4","last_reported":1778750729,"current_range_meters":9200,"station_id":"ce4bhnh2rcd13ifvqgtg","pricing_plan_id":"cebpf4jnsgd1na2vs0mg"},{"bike_id":"be5ec2e3-e51c-450e-b635-2e2a7b9f299b","system_id":"levelo_inurba_marseille","lat":43.24393,"lon":5.37044,"is_reserved":false,"is_disabled":false,"rental_uris":{"android":"levelo://app?vid=be5ec2e3-e51c-450e-b635-2e2a7b9f299b","ios":"levelo://app?vid=be5ec2e3-e51c-450e-b635-2e2a7b9f299b"},"vehicle_type_id":"4","last_reported":1778750729,"current_range_meters":9200,"station_id":"ce4bhhh2rcd13ifvqfk0","pricing_plan_id":"cebpf4jnsgd1na2vs0mg"},{"bike_id":"dde90ede-aa81-4fec-ba8a-3a63f05bee38","system_id":"levelo_inurba_marseille","lat":43.299278,"lon":5.365407,"is_reserved":false,"is_disabled":false,"rental_uris":{"android":"levelo://app?vid=dde90ede-aa81-4fec-ba8a-3a63f05bee38","ios":"levelo://app?vid=dde90ede-aa81-4fec-ba8a-3a63f05bee38"},"vehicle_type_id":"4","last_reported":1778750729,"current_range_meters":9200,"station_id":"ce4bgm92rcd13ifvqbr0","pricing_plan_id":"cebpf4jnsgd1na2vs0mg"},{"bike_id":"e0fe3a17-472d-4871-8c21-cb195f5dd1f7","system_id":"levelo_inurba_marseille","lat":43.33752,"lon":5.37427,"is_reserved":false,"is_disabled":false,"rental_uris":{"android":"levelo://app?vid=e0fe3a17-472d-4871-8c21-cb195f5dd1f7","ios":"levelo://app?vid=e0fe3a17-472d-4871-8c21-cb195f5dd1f7"},"vehicle_type_id":"4","last_reported":1778750729,"current_range_meters":9200,"station_id":"","pricing_plan_id":"cebpf4jnsgd1na2vs0mg"},{"bike_id":"975defbf-c33f-4bba-8ed9-2f5f7058411e","system_id":"levelo_inurba_marseille","lat":43.2175,"lon":5.34589,"is_reserved":false,"is_disabled":false,"rental_uris":{"android":"levelo://app?vid=975defbf-c33f-4bba-8ed9-2f5f7058411e","ios":"levelo://app?vid=975defbf-c33f-4bba-8ed9-2f5f7058411e"},"vehicle_type_id":"4","last_reported":1778750729,"current_range_meters":9200,"station_id":"st_cvj6r9ubvosntc0bgbag","pricing_plan_id":"cebpf4jnsgd1na2vs0mg"},{"bike_id":"b1aeb62c-99d7-42de-90eb-0e40a0a34789","system_id":"levelo_inurba_marseille","lat":43.31427,"lon":5.38441,"is_reserved":false,"is_disabled":false,"rental_uris":{"android":"levelo://app?vid=b1aeb62c-99d7-42de-90eb-0e40a0a34789","ios":"levelo://app?vid=b1aeb62c-99d7-42de-90eb-0e40a0a34789"},"vehicle_type_id":"4","last_reported":1778750729,"current_range_meters":9200,"station_id":"","pricing_plan_id":"cebpf4jnsgd1na2vs0mg"},{"bike_id":"f0fddcf7-5d98-4d8a-9bda-e27dac14a45c","system_id":"levelo_inurba_marseille","lat":43.33545,"lon":5.3747,"is_reserved":false,"is_disabled":false,"rental_uris":{"android":"levelo://app?vid=f0fddcf7-5d98-4d8a-9bda-e27dac14a45c","ios":"levelo://app?vid=f0fddcf7-5d98-4d8a-9bda-e27dac14a45c"},"vehicle_type_id":"4","last_reported":1778750729,"current_range_meters":9200,"station_id":"st_d46tts09ee8s73dlu43g","pricing_plan_id":"cebpf4jnsgd1na2vs0mg"},{"bike_id":"d8b68879-59ba-4273-b219-2f9226170b3f","system_id":"levelo_inurba_marseille","lat":43.27946,"lon":5.41051,"is_reserved":false,"is_disabled":true,"rental_uris":{"android":"levelo://app?vid=d8b68879-59ba-4273-b219-2f9226170b3f","ios":"levelo://app?vid=d8b68879-59ba-4273-b219-2f9226170b3f"},"vehicle_type_id":"4","last_reported":1778750729,"current_range_meters":9200,"station_id":"ce4bhnp2rcd13ifvqh0g","pricing_plan_id":"cebpf4jnsgd1na2vs0mg"},{"bike_id":"3010ae6d-5c9f-4d7a-b91a-3f1b5ac48abf","system_id":"levelo_inurba_marseille","lat":43.31693,"lon":5.40476,"is_reserved":false,"is_disabled":false,"rental_uris":{"android":"levelo://app?vid=3010ae6d-5c9f-4d7a-b91a-3f1b5ac48abf","ios":"levelo://app?vid=3010ae6d-5c9f-4d7a-b91a-3f1b5ac48abf"},"vehicle_type_id":"4","last_reported":1778750729,"current_range_meters":9200,"station_id":"ce4bh012rcd13ifvqd00","pricing_plan_id":"cebpf4jnsgd1na2vs0mg"},{"bike_id":"6171fa24-5cbb-4dd4-8a11-21768112000d","system_id":"levelo_inurba_marseille","lat":43.2854,"lon":5.44101,"is_reserved":false,"is_disabled":false,"rental_uris":{"android":"levelo://app?vid=6171fa24-5cbb-4dd4-8a11-21768112000d","ios":"levelo://app?vid=6171fa24-5cbb-4dd4-8a11-21768112000d"},"vehicle_type_id":"4","last_reported":1778750729,"current_range_meters":9200,"station_id":"st_d3j3df2ikq2c7380ej80","pricing_plan_id":"cebpf4jnsgd1na2vs0mg"},{"bike_id":"958cb00b-8036-41bc-85a3-ca6ade118af0","system_id":"levelo_inurba_marseille","lat":43.29567,"lon":5.39989,"is_reserved":false,"is_disabled":false,"rental_uris":{"android":"levelo://app?vid=958cb00b-8036-41bc-85a3-ca6ade118af0","ios":"levelo://app?vid=958cb00b-8036-41bc-85a3-ca6ade118af0"},"vehicle_type_id":"4","last_reported":1778750729,"current_range_meters":9200,"station_id":"ce4bh312rcd13ifvqdj0","pricing_plan_id":"cebpf4jnsgd1na2vs0mg"},{"bike_id":"1458c48c-f715-412e-ae68-345739dde0ee","system_id":"levelo_inurba_marseille","lat":43.2984,"lon":5.36266,"is_reserved":false,"is_disabled":false,"rental_uris":{"android":"levelo://app?vid=1458c48c-f715-412e-ae68-345739dde0ee","ios":"levelo://app?vid=1458c48c-f715-412e-ae68-345739dde0ee"},"vehicle_type_id":"4","last_reported":1778750729,"current_range_meters":9200,"station_id":"ce4bgpp2rcd13ifvqc3g","pricing_plan_id":"cebpf4jnsgd1na2vs0mg"},{"bike_id":"ec044123-f0f5-4788-a4af-7c2b1134f3c2","system_id":"levelo_inurba_marseille","lat":43.2439,"lon":5.37079,"is_reserved":false,"is_disabled":false,"rental_uris":{"android":"levelo://app?vid=ec044123-f0f5-4788-a4af-7c2b1134f3c2","ios":"levelo://app?vid=ec044123-f0f5-4788-a4af-7c2b1134f3c2"},"vehicle_type_id":"4","last_reported":1778750729,"current_range_meters":9600,"station_id":"ce4bhhh2rcd13ifvqfk0","pricing_plan_id":"cebpf4jnsgd1na2vs0mg"},{"bike_id":"055e0055-6622-4173-8d35-a3f52bd60f76","system_id":"levelo_inurba_marseille","lat":43.291249,"lon":5.369535,"is_reserved":false,"is_disabled":false,"rental_uris":{"android":"levelo://app?vid=055e0055-6622-4173-8d35-a3f52bd60f76","ios":"levelo://app?vid=055e0055-6622-4173-8d35-a3f52bd60f76"},"vehicle_type_id":"4","last_reported":1778750729,"current_range_meters":9600,"station_id":"ce4bha92rcd13ifvqeh0","pricing_plan_id":"cebpf4jnsgd1na2vs0mg"},{"bike_id":"33a253f8-40d6-4203-b550-d0f710913120","system_id":"levelo_inurba_marseille","lat":43.25598,"lon":5.38231,"is_reserved":false,"is_disabled":false,"rental_uris":{"android":"levelo://app?vid=33a253f8-40d6-4203-b550-d0f710913120","ios":"levelo://app?vid=33a253f8-40d6-4203-b550-d0f710913120"},"vehicle_type_id":"4","last_reported":1778750729,"current_range_meters":9600,"station_id":"ce4bhih2rcd13ifvqfs0","pricing_plan_id":"cebpf4jnsgd1na2vs0mg"},{"bike_id":"b4e7bb92-cc59-4fb1-847a-ca23d67eaaec","system_id":"levelo_inurba_marseille","lat":43.29561,"lon":5.39962,"is_reserved":false,"is_disabled":false,"rental_uris":{"android":"levelo://app?vid=b4e7bb92-cc59-4fb1-847a-ca23d67eaaec","ios":"levelo://app?vid=b4e7bb92-cc59-4fb1-847a-ca23d67eaaec"},"vehicle_type_id":"4","last_reported":1778750729,"current_range_meters":9600,"station_id":"ce4bh312rcd13ifvqdj0","pricing_plan_id":"cebpf4jnsgd1na2vs0mg"},{"bike_id":"3620539c-6e6d-44a7-b9e5-962a4eccd059","system_id":"levelo_inurba_marseille","lat":43.30271,"lon":5.40062,"is_reserved":false,"is_disabled":false,"rental_uris":{"android":"levelo://app?vid=3620539c-6e6d-44a7-b9e5-962a4eccd059","ios":"levelo://app?vid=3620539c-6e6d-44a7-b9e5-962a4eccd059"},"vehicle_type_id":"4","last_reported":1778750729,"current_range_meters":9600,"station_id":"ce4bgvh2rcd13ifvqcs0","pricing_plan_id":"cebpf4jnsgd1na2vs0mg"},{"bike_id":"b35b42df-1e5c-4e3c-be7f-d5351e008fb3","system_id":"levelo_inurba_marseille","lat":43.33548,"lon":5.37479,"is_reserved":false,"is_disabled":false,"rental_uris":{"android":"levelo://app?vid=b35b42df-1e5c-4e3c-be7f-d5351e008fb3","ios":"levelo://app?vid=b35b42df-1e5c-4e3c-be7f-d5351e008fb3"},"vehicle_type_id":"4","last_reported":1778750729,"current_range_meters":9600,"station_id":"st_d46tts09ee8s73dlu43g","pricing_plan_id":"cebpf4jnsgd1na2vs0mg"},{"bike_id":"a937e1f4-5cc1-45cb-be53-4c722afd139d","system_id":"levelo_inurba_marseille","lat":43.2962,"lon":5.371691,"is_reserved":false,"is_disabled":false,"rental_uris":{"android":"levelo://app?vid=a937e1f4-5cc1-45cb-be53-4c722afd139d","ios":"levelo://app?vid=a937e1f4-5cc1-45cb-be53-4c722afd139d"},"vehicle_type_id":"4","last_reported":1778750729,"current_range_meters":9600,"station_id":"ce4bgnh2rcd13ifvqc0g","pricing_plan_id":"cebpf4jnsgd1na2vs0mg"},{"bike_id":"3b40133b-d576-45cb-9184-9745dbafe64b","system_id":"levelo_inurba_marseille","lat":43.29971,"lon":5.4132,"is_reserved":false,"is_disabled":false,"rental_uris":{"android":"levelo://app?vid=3b40133b-d576-45cb-9184-9745dbafe64b","ios":"levelo://app?vid=3b40133b-d576-45cb-9184-9745dbafe64b"},"vehicle_type_id":"4","last_reported":1778750729,"current_range_meters":9600,"station_id":"ce4bhp12rcd13ifvqh9g","pricing_plan_id":"cebpf4jnsgd1na2vs0mg"},{"bike_id":"35da982c-f03f-4855-9dca-a3cd64167ab4","system_id":"levelo_inurba_marseille","lat":43.30309,"lon":5.36899,"is_reserved":false,"is_disabled":false,"rental_uris":{"android":"levelo://app?vid=35da982c-f03f-4855-9dca-a3cd64167ab4","ios":"levelo://app?vid=35da982c-f03f-4855-9dca-a3cd64167ab4"},"vehicle_type_id":"4","last_reported":1778750729,"current_range_meters":9600,"station_id":"ce4bgqh2rcd13ifvqc5g","pricing_plan_id":"cebpf4jnsgd1na2vs0mg"},{"bike_id":"03763523-6f3b-4d5b-8669-5273ed49ed77","system_id":"levelo_inurba_marseille","lat":43.26814,"lon":5.40256,"is_reserved":false,"is_disabled":false,"rental_uris":{"android":"levelo://app?vid=03763523-6f3b-4d5b-8669-5273ed49ed77","ios":"levelo://app?vid=03763523-6f3b-4d5b-8669-5273ed49ed77"},"vehicle_type_id":"4","last_reported":1778750729,"current_range_meters":9600,"station_id":"ce501612rcd8frsf0b60","pricing_plan_id":"cebpf4jnsgd1na2vs0mg"},{"bike_id":"eed4ce53-a4b7-4a20-8aed-e525aa277104","system_id":"levelo_inurba_marseille","lat":43.29786,"lon":5.38072,"is_reserved":false,"is_disabled":false,"rental_uris":{"android":"levelo://app?vid=eed4ce53-a4b7-4a20-8aed-e525aa277104","ios":"levelo://app?vid=eed4ce53-a4b7-4a20-8aed-e525aa277104"},"vehicle_type_id":"4","last_reported":1778750729,"current_range_meters":9600,"station_id":"ce4bgip2rcd13ifvqbb0","pricing_plan_id":"cebpf4jnsgd1na2vs0mg"},{"bike_id":"7e2f95fd-2605-4477-9b92-0e4ef2227e99","system_id":"levelo_inurba_marseille","lat":43.29781,"lon":5.38529,"is_reserved":false,"is_disabled":false,"rental_uris":{"android":"levelo://app?vid=7e2f95fd-2605-4477-9b92-0e4ef2227e99","ios":"levelo://app?vid=7e2f95fd-2605-4477-9b92-0e4ef2227e99"},"vehicle_type_id":"4","last_reported":1778750729,"current_range_meters":9600,"station_id":"","pricing_plan_id":"cebpf4jnsgd1na2vs0mg"},{"bike_id":"1daf7321-7267-490f-b510-d317a2d79da3","system_id":"levelo_inurba_marseille","lat":43.31291,"lon":5.37865,"is_reserved":false,"is_disabled":false,"rental_uris":{"android":"levelo://app?vid=1daf7321-7267-490f-b510-d317a2d79da3","ios":"levelo://app?vid=1daf7321-7267-490f-b510-d317a2d79da3"},"vehicle_type_id":"4","last_reported":1778750729,"current_range_meters":9600,"station_id":"","pricing_plan_id":"cebpf4jnsgd1na2vs0mg"},{"bike_id":"d2378736-faa6-4b3d-b520-c3399b756631","system_id":"levelo_inurba_marseille","lat":43.2889,"lon":5.42521,"is_reserved":false,"is_disabled":false,"rental_uris":{"android":"levelo://app?vid=d2378736-faa6-4b3d-b520-c3399b756631","ios":"levelo://app?vid=d2378736-faa6-4b3d-b520-c3399b756631"},"vehicle_type_id":"4","last_reported":1778750729,"current_range_meters":9600,"station_id":"st_d3b462108ojc7389ooeg","pricing_plan_id":"cebpf4jnsgd1na2vs0mg"},{"bike_id":"111390c2-b711-460b-8437-bd49adb3615f","system_id":"levelo_inurba_marseille","lat":43.2658,"lon":5.39055,"is_reserved":false,"is_disabled":false,"rental_uris":{"android":"levelo://app?vid=111390c2-b711-460b-8437-bd49adb3615f","ios":"levelo://app?vid=111390c2-b711-460b-8437-bd49adb3615f"},"vehicle_type_id":"4","last_reported":1778750729,"current_range_meters":9600,"station_id":"ce4bhe12rcd13ifvqf30","pricing_plan_id":"cebpf4jnsgd1na2vs0mg"},{"bike_id":"ca3ff5ba-beb0-4730-ae3b-017407a047db","system_id":"levelo_inurba_marseille","lat":43.26257,"lon":5.4048,"is_reserved":false,"is_disabled":false,"rental_uris":{"android":"levelo://app?vid=ca3ff5ba-beb0-4730-ae3b-017407a047db","ios":"levelo://app?vid=ca3ff5ba-beb0-4730-ae3b-017407a047db"},"vehicle_type_id":"4","last_reported":1778750729,"current_range_meters":9600,"station_id":"","pricing_plan_id":"cebpf4jnsgd1na2vs0mg"},{"bike_id":"a3284f6e-6540-4c55-99cc-b6b2cd3c1aca","system_id":"levelo_inurba_marseille","lat":43.30655,"lon":5.40094,"is_reserved":false,"is_disabled":false,"rental_uris":{"android":"levelo://app?vid=a3284f6e-6540-4c55-99cc-b6b2cd3c1aca","ios":"levelo://app?vid=a3284f6e-6540-4c55-99cc-b6b2cd3c1aca"},"vehicle_type_id":"4","last_reported":1778750729,"current_range_meters":9600,"station_id":"ce4bh112rcd13ifvqda0","pricing_plan_id":"cebpf4jnsgd1na2vs0mg"},{"bike_id":"addf513f-1b30-4d11-a17b-9ca94c984170","system_id":"levelo_inurba_marseille","lat":43.29264,"lon":5.40154,"is_reserved":false,"is_disabled":false,"rental_uris":{"android":"levelo://app?vid=addf513f-1b30-4d11-a17b-9ca94c984170","ios":"levelo://app?vid=addf513f-1b30-4d11-a17b-9ca94c984170"},"vehicle_type_id":"4","last_reported":1778750729,"current_range_meters":9600,"station_id":"ce4bh312rcd13ifvqdk0","pricing_plan_id":"cebpf4jnsgd1na2vs0mg"},{"bike_id":"48bd556d-b77b-4887-87eb-0c845466b78e","system_id":"levelo_inurba_marseille","lat":43.27992,"lon":5.40015,"is_reserved":false,"is_disabled":false,"rental_uris":{"android":"levelo://app?vid=48bd556d-b77b-4887-87eb-0c845466b78e","ios":"levelo://app?vid=48bd556d-b77b-4887-87eb-0c845466b78e"},"vehicle_type_id":"4","last_reported":1778750729,"current_range_meters":10000,"station_id":"ce4bho92rcd13ifvqh4g","pricing_plan_id":"cebpf4jnsgd1na2vs0mg"},{"bike_id":"7218b9b5-afa0-486e-b672-e4467da00793","system_id":"levelo_inurba_marseille","lat":43.24172,"lon":5.3639,"is_reserved":false,"is_disabled":false,"rental_uris":{"android":"levelo://app?vid=7218b9b5-afa0-486e-b672-e4467da00793","ios":"levelo://app?vid=7218b9b5-afa0-486e-b672-e4467da00793"},"vehicle_type_id":"4","last_reported":1778750729,"current_range_meters":10000,"station_id":"cpo36qri1sfpv3e86is0","pricing_plan_id":"cebpf4jnsgd1na2vs0mg"},{"bike_id":"cd382ef6-e165-4c5a-9266-61b6eb8de4e7","system_id":"levelo_inurba_marseille","lat":43.26544,"lon":5.37293,"is_reserved":false,"is_disabled":false,"rental_uris":{"android":"levelo://app?vid=cd382ef6-e165-4c5a-9266-61b6eb8de4e7","ios":"levelo://app?vid=cd382ef6-e165-4c5a-9266-61b6eb8de4e7"},"vehicle_type_id":"4","last_reported":1778750729,"current_range_meters":10000,"station_id":"ce4bhg12rcd13ifvqf70","pricing_plan_id":"cebpf4jnsgd1na2vs0mg"},{"bike_id":"0d384e12-7d27-4b4b-bb7f-7b05cc5cdd0f","system_id":"levelo_inurba_marseille","lat":43.26225,"lon":5.37449,"is_reserved":false,"is_disabled":false,"rental_uris":{"android":"levelo://app?vid=0d384e12-7d27-4b4b-bb7f-7b05cc5cdd0f","ios":"levelo://app?vid=0d384e12-7d27-4b4b-bb7f-7b05cc5cdd0f"},"vehicle_type_id":"4","last_reported":1778750729,"current_range_meters":10000,"station_id":"","pricing_plan_id":"cebpf4jnsgd1na2vs0mg"},{"bike_id":"7aafdf75-1b15-45c1-9ca0-bb37fa1d5039","system_id":"levelo_inurba_marseille","lat":43.30933,"lon":5.40143,"is_reserved":false,"is_disabled":false,"rental_uris":{"android":"levelo://app?vid=7aafdf75-1b15-45c1-9ca0-bb37fa1d5039","ios":"levelo://app?vid=7aafdf75-1b15-45c1-9ca0-bb37fa1d5039"},"vehicle_type_id":"4","last_reported":1778750729,"current_range_meters":10000,"station_id":"ce4bgvp2rcd13ifvqct0","pricing_plan_id":"cebpf4jnsgd1na2vs0mg"},{"bike_id":"57be7502-1a93-477f-8e6f-a7929dc85d0a","system_id":"levelo_inurba_marseille","lat":43.27621,"lon":5.36108,"is_reserved":false,"is_disabled":false,"rental_uris":{"android":"levelo://app?vid=57be7502-1a93-477f-8e6f-a7929dc85d0a","ios":"levelo://app?vid=57be7502-1a93-477f-8e6f-a7929dc85d0a"},"vehicle_type_id":"4","last_reported":1778750729,"current_range_meters":10000,"station_id":"ce4bgj92rcd13ifvqbe0","pricing_plan_id":"cebpf4jnsgd1na2vs0mg"},{"bike_id":"277c106d-5962-4ac5-8f17-fa3c0a1eecdc","system_id":"levelo_inurba_marseille","lat":43.22561,"lon":5.41629,"is_reserved":false,"is_disabled":false,"rental_uris":{"android":"levelo://app?vid=277c106d-5962-4ac5-8f17-fa3c0a1eecdc","ios":"levelo://app?vid=277c106d-5962-4ac5-8f17-fa3c0a1eecdc"},"vehicle_type_id":"4","last_reported":1778750729,"current_range_meters":10000,"station_id":"st_d2o4gvlbi1j2169b742g","pricing_plan_id":"cebpf4jnsgd1na2vs0mg"},{"bike_id":"0704953b-d0d4-41a9-9ea7-6a1c9458e73d","system_id":"levelo_inurba_marseille","lat":43.2844,"lon":5.34962,"is_reserved":false,"is_disabled":false,"rental_uris":{"android":"levelo://app?vid=0704953b-d0d4-41a9-9ea7-6a1c9458e73d","ios":"levelo://app?vid=0704953b-d0d4-41a9-9ea7-6a1c9458e73d"},"vehicle_type_id":"4","last_reported":1778750729,"current_range_meters":10000,"station_id":"ce4bhbh2rcd13ifvqepg","pricing_plan_id":"cebpf4jnsgd1na2vs0mg"},{"bike_id":"059b2226-8727-4b1a-a1d7-d6873d66b82c","system_id":"levelo_inurba_marseille","lat":43.299,"lon":5.38123,"is_reserved":false,"is_disabled":true,"rental_uris":{"android":"levelo://app?vid=059b2226-8727-4b1a-a1d7-d6873d66b82c","ios":"levelo://app?vid=059b2226-8727-4b1a-a1d7-d6873d66b82c"},"vehicle_type_id":"4","last_reported":1778750729,"current_range_meters":10000,"station_id":"ce4bgj12rcd13ifvqbc0","pricing_plan_id":"cebpf4jnsgd1na2vs0mg"},{"bike_id":"1dff7f60-c48e-4ff4-87df-6bc7f11bee78","system_id":"levelo_inurba_marseille","lat":43.31057,"lon":5.37192,"is_reserved":false,"is_disabled":false,"rental_uris":{"android":"levelo://app?vid=1dff7f60-c48e-4ff4-87df-6bc7f11bee78","ios":"levelo://app?vid=1dff7f60-c48e-4ff4-87df-6bc7f11bee78"},