{"last_updated":1738656757,"ttl":60,"version":"2.2","data":{"bikes":[{"bike_id":"a6accd57-54cf-4d44-87f9-766d1013e2f7","system_id":"levelo_inurba_marseille","lat":43.26014,"lon":5.37547,"is_reserved":false,"is_disabled":false,"rental_uris":{"android":"levelo://app?vid=a6accd57-54cf-4d44-87f9-766d1013e2f7","ios":"levelo://app?vid=a6accd57-54cf-4d44-87f9-766d1013e2f7"},"vehicle_type_id":"4","last_reported":1738656757,"current_range_meters":37600,"station_id":"ce4bhgh2rcd13ifvqfa0","pricing_plan_id":"cebpf4jnsgd1na2vs0mg"},{"bike_id":"41d4bdb2-17e3-42bb-9f6a-26bdb58ebab8","system_id":"levelo_inurba_marseille","lat":43.28459,"lon":5.35882,"is_reserved":false,"is_disabled":false,"rental_uris":{"android":"levelo://app?vid=41d4bdb2-17e3-42bb-9f6a-26bdb58ebab8","ios":"levelo://app?vid=41d4bdb2-17e3-42bb-9f6a-26bdb58ebab8"},"vehicle_type_id":"4","last_reported":1738656757,"current_range_meters":22000,"station_id":"ce4bhah2rcd13ifvqei0","pricing_plan_id":"cebpf4jnsgd1na2vs0mg"},{"bike_id":"3dd6c08f-719a-43b7-9e16-fa033ab26402","system_id":"levelo_inurba_marseille","lat":43.30161,"lon":5.38079,"is_reserved":false,"is_disabled":true,"rental_uris":{"android":"levelo://app?vid=3dd6c08f-719a-43b7-9e16-fa033ab26402","ios":"levelo://app?vid=3dd6c08f-719a-43b7-9e16-fa033ab26402"},"vehicle_type_id":"4","last_reported":1738656757,"current_range_meters":21600,"station_id":"ce4bgjp2rcd13ifvqbh0","pricing_plan_id":"cebpf4jnsgd1na2vs0mg"},{"bike_id":"39f3158f-eccf-4248-be0e-27e17087573e","system_id":"levelo_inurba_marseille","lat":43.30469,"lon":5.37917,"is_reserved":false,"is_disabled":false,"rental_uris":{"android":"levelo://app?vid=39f3158f-eccf-4248-be0e-27e17087573e","ios":"levelo://app?vid=39f3158f-eccf-4248-be0e-27e17087573e"},"vehicle_type_id":"4","last_reported":1738656757,"current_range_meters":24400,"station_id":"ce4bgup2rcd13ifvqcn0","pricing_plan_id":"cebpf4jnsgd1na2vs0mg"},{"bike_id":"176cb06f-f5e2-40ce-a5f0-b94c8af2011d","system_id":"levelo_inurba_marseille","lat":43.30896,"lon":5.36872,"is_reserved":false,"is_disabled":true,"rental_uris":{"android":"levelo://app?vid=176cb06f-f5e2-40ce-a5f0-b94c8af2011d","ios":"levelo://app?vid=176cb06f-f5e2-40ce-a5f0-b94c8af2011d"},"vehicle_type_id":"4","last_reported":1738656757,"current_range_meters":26800,"station_id":"","pricing_plan_id":"cebpf4jnsgd1na2vs0mg"},{"bike_id":"64594683-6f86-4a5c-9e34-47a05b42ae02","system_id":"levelo_inurba_marseille","lat":43.30904,"lon":5.36849,"is_reserved":false,"is_disabled":false,"rental_uris":{"android":"levelo://app?vid=64594683-6f86-4a5c-9e34-47a05b42ae02","ios":"levelo://app?vid=64594683-6f86-4a5c-9e34-47a05b42ae02"},"vehicle_type_id":"4","last_reported":1738656757,"current_range_meters":21600,"station_id":"ce4bgn92rcd13ifvqbvg","pricing_plan_id":"cebpf4jnsgd1na2vs0mg"},{"bike_id":"5f647c77-f5d9-4f72-9c15-eb3e607c59b1","system_id":"levelo_inurba_marseille","lat":43.30541,"lon":5.38424,"is_reserved":false,"is_disabled":false,"rental_uris":{"android":"levelo://app?vid=5f647c77-f5d9-4f72-9c15-eb3e607c59b1","ios":"levelo://app?vid=5f647c77-f5d9-4f72-9c15-eb3e607c59b1"},"vehicle_type_id":"4","last_reported":1738656757,"current_range_meters":9200,"station_id":"ce4bgg92rcd13ifvqb30","pricing_plan_id":"cebpf4jnsgd1na2vs0mg"},{"bike_id":"9fdfcae4-44c9-45dd-b687-1db1a6159631","system_id":"levelo_inurba_marseille","lat":43.26179,"lon":5.37435,"is_reserved":false,"is_disabled":false,"rental_uris":{"android":"levelo://app?vid=9fdfcae4-44c9-45dd-b687-1db1a6159631","ios":"levelo://app?vid=9fdfcae4-44c9-45dd-b687-1db1a6159631"},"vehicle_type_id":"4","last_reported":1738656757,"current_range_meters":31200,"station_id":"","pricing_plan_id":"cebpf4jnsgd1na2vs0mg"},{"bike_id":"b228fcd1-0432-4c37-8737-3e17f7fe8089","system_id":"levelo_inurba_marseille","lat":43.29224,"lon":5.36041,"is_reserved":false,"is_disabled":false,"rental_uris":{"android":"levelo://app?vid=b228fcd1-0432-4c37-8737-3e17f7fe8089","ios":"levelo://app?vid=b228fcd1-0432-4c37-8737-3e17f7fe8089"},"vehicle_type_id":"4","last_reported":1738656757,"current_range_meters":16800,"station_id":"ce4bhbh2rcd13ifvqeqg","pricing_plan_id":"cebpf4jnsgd1na2vs0mg"},{"bike_id":"7ad543c6-fb45-451c-add8-0b23712390bd","system_id":"levelo_inurba_marseille","lat":43.26937,"lon":5.402536,"is_reserved":false,"is_disabled":false,"rental_uris":{"android":"levelo://app?vid=7ad543c6-fb45-451c-add8-0b23712390bd","ios":"levelo://app?vid=7ad543c6-fb45-451c-add8-0b23712390bd"},"vehicle_type_id":"4","last_reported":1738656757,"current_range_meters":17600,"station_id":"cjm6bp8fraef2m0cb0m0","pricing_plan_id":"cebpf4jnsgd1na2vs0mg"},{"bike_id":"db90e030-6fe7-4a19-9bb1-0175ffc7c8b8","system_id":"levelo_inurba_marseille","lat":43.30461,"lon":5.3791,"is_reserved":false,"is_disabled":true,"rental_uris":{"android":"levelo://app?vid=db90e030-6fe7-4a19-9bb1-0175ffc7c8b8","ios":"levelo://app?vid=db90e030-6fe7-4a19-9bb1-0175ffc7c8b8"},"vehicle_type_id":"4","last_reported":1738656757,"current_range_meters":25200,"station_id":"ce4bgup2rcd13ifvqcn0","pricing_plan_id":"cebpf4jnsgd1na2vs0mg"},{"bike_id":"c83fec32-dcf8-45bb-9c13-a99bd785b12a","system_id":"levelo_inurba_marseille","lat":43.24059,"lon":5.37758,"is_reserved":false,"is_disabled":false,"rental_uris":{"android":"levelo://app?vid=c83fec32-dcf8-45bb-9c13-a99bd785b12a","ios":"levelo://app?vid=c83fec32-dcf8-45bb-9c13-a99bd785b12a"},"vehicle_type_id":"4","last_reported":1738656757,"current_range_meters":14800,"station_id":"ce4bhnp2rcd13ifvqgvg","pricing_plan_id":"cebpf4jnsgd1na2vs0mg"},{"bike_id":"7ed54307-2d9b-4ee2-a514-2412ddd43070","system_id":"levelo_inurba_marseille","lat":43.30156,"lon":5.38075,"is_reserved":false,"is_disabled":false,"rental_uris":{"android":"levelo://app?vid=7ed54307-2d9b-4ee2-a514-2412ddd43070","ios":"levelo://app?vid=7ed54307-2d9b-4ee2-a514-2412ddd43070"},"vehicle_type_id":"4","last_reported":1738656757,"current_range_meters":35200,"station_id":"ce4bgjp2rcd13ifvqbh0","pricing_plan_id":"cebpf4jnsgd1na2vs0mg"},{"bike_id":"81fc2b49-7d41-4bc4-9c6c-fc4ded896c4f","system_id":"levelo_inurba_marseille","lat":43.299206,"lon":5.374559,"is_reserved":false,"is_disabled":true,"rental_uris":{"android":"levelo://app?vid=81fc2b49-7d41-4bc4-9c6c-fc4ded896c4f","ios":"levelo://app?vid=81fc2b49-7d41-4bc4-9c6c-fc4ded896c4f"},"vehicle_type_id":"4","last_reported":1738656757,"current_range_meters":33600,"station_id":"ce4bgjh2rcd13ifvqbg0","pricing_plan_id":"cebpf4jnsgd1na2vs0mg"},{"bike_id":"b2f5ad0b-e859-4a5a-afe6-19f2444b14ba","system_id":"levelo_inurba_marseille","lat":43.31986,"lon":5.38157,"is_reserved":false,"is_disabled":false,"rental_uris":{"android":"levelo://app?vid=b2f5ad0b-e859-4a5a-afe6-19f2444b14ba","ios":"levelo://app?vid=b2f5ad0b-e859-4a5a-afe6-19f2444b14ba"},"vehicle_type_id":"4","last_reported":1738656757,"current_range_meters":38000,"station_id":"ce4bhr12rcd13ifvqhpg","pricing_plan_id":"cebpf4jnsgd1na2vs0mg"},{"bike_id":"f670e577-d2e0-4476-9e77-01baed11281c","system_id":"levelo_inurba_marseille","lat":43.26775,"lon":5.39422,"is_reserved":false,"is_disabled":false,"rental_uris":{"android":"levelo://app?vid=f670e577-d2e0-4476-9e77-01baed11281c","ios":"levelo://app?vid=f670e577-d2e0-4476-9e77-01baed11281c"},"vehicle_type_id":"4","last_reported":1738656757,"current_range_meters":36400,"station_id":"ce4bhh12rcd13ifvqfg0","pricing_plan_id":"cebpf4jnsgd1na2vs0mg"},{"bike_id":"a67505ff-9349-4c8f-a3c0-d08cadbfa578","system_id":"levelo_inurba_marseille","lat":43.26958,"lon":5.38634,"is_reserved":false,"is_disabled":false,"rental_uris":{"android":"levelo://app?vid=a67505ff-9349-4c8f-a3c0-d08cadbfa578","ios":"levelo://app?vid=a67505ff-9349-4c8f-a3c0-d08cadbfa578"},"vehicle_type_id":"4","last_reported":1738656757,"current_range_meters":17600,"station_id":"ce4bhh92rcd13ifvqfh0","pricing_plan_id":"cebpf4jnsgd1na2vs0mg"},{"bike_id":"6565eb05-b739-45ba-bf82-9e7032cd4557","system_id":"levelo_inurba_marseille","lat":43.27965,"lon":5.38751,"is_reserved":false,"is_disabled":false,"rental_uris":{"android":"levelo://app?vid=6565eb05-b739-45ba-bf82-9e7032cd4557","ios":"levelo://app?vid=6565eb05-b739-45ba-bf82-9e7032cd4557"},"vehicle_type_id":"4","last_reported":1738656757,"current_range_meters":21600,"station_id":"ce4bhg12rcd13ifvqf80","pricing_plan_id":"cebpf4jnsgd1na2vs0mg"},{"bike_id":"5f22ccce-05ee-4c35-9422-69e39af10776","system_id":"levelo_inurba_marseille","lat":43.30931,"lon":5.40137,"is_reserved":false,"is_disabled":false,"rental_uris":{"android":"levelo://app?vid=5f22ccce-05ee-4c35-9422-69e39af10776","ios":"levelo://app?vid=5f22ccce-05ee-4c35-9422-69e39af10776"},"vehicle_type_id":"4","last_reported":1738656757,"current_range_meters":36800,"station_id":"ce4bgvp2rcd13ifvqct0","pricing_plan_id":"cebpf4jnsgd1na2vs0mg"},{"bike_id":"189753a9-02dd-4e95-8b00-94ac211c9d5f","system_id":"levelo_inurba_marseille","lat":43.30152,"lon":5.3809,"is_reserved":false,"is_disabled":false,"rental_uris":{"android":"levelo://app?vid=189753a9-02dd-4e95-8b00-94ac211c9d5f","ios":"levelo://app?vid=189753a9-02dd-4e95-8b00-94ac211c9d5f"},"vehicle_type_id":"4","last_reported":1738656757,"current_range_meters":6800,"station_id":"ce4bgjp2rcd13ifvqbh0","pricing_plan_id":"cebpf4jnsgd1na2vs0mg"},{"bike_id":"7e953663-785f-4ca5-b64b-6c0ab0420a03","system_id":"levelo_inurba_marseille","lat":43.27498,"lon":5.42461,"is_reserved":false,"is_disabled":false,"rental_uris":{"android":"levelo://app?vid=7e953663-785f-4ca5-b64b-6c0ab0420a03","ios":"levelo://app?vid=7e953663-785f-4ca5-b64b-6c0ab0420a03"},"vehicle_type_id":"4","last_reported":1738656757,"current_range_meters":31200,"station_id":"ce4bhn92rcd13ifvqgrg","pricing_plan_id":"cebpf4jnsgd1na2vs0mg"},{"bike_id":"c92d27b3-011a-4b9b-85d3-c7a68cdf0054","system_id":"levelo_inurba_marseille","lat":43.324777,"lon":5.365669,"is_reserved":false,"is_disabled":true,"rental_uris":{"android":"levelo://app?vid=c92d27b3-011a-4b9b-85d3-c7a68cdf0054","ios":"levelo://app?vid=c92d27b3-011a-4b9b-85d3-c7a68cdf0054"},"vehicle_type_id":"4","last_reported":1738656757,"current_range_meters":17600,"station_id":"","pricing_plan_id":"cebpf4jnsgd1na2vs0mg"},{"bike_id":"3e574816-3754-460d-8072-f6ebe3757ea0","system_id":"levelo_inurba_marseille","lat":43.32366,"lon":5.36776,"is_reserved":false,"is_disabled":false,"rental_uris":{"android":"levelo://app?vid=3e574816-3754-460d-8072-f6ebe3757ea0","ios":"levelo://app?vid=3e574816-3754-460d-8072-f6ebe3757ea0"},"vehicle_type_id":"4","last_reported":1738656757,"current_range_meters":18800,"station_id":"ce4bhsh2rcd13ifvqi2g","pricing_plan_id":"cebpf4jnsgd1na2vs0mg"},{"bike_id":"c2713548-3811-4ac0-ba42-9180d830f676","system_id":"levelo_inurba_marseille","lat":43.30305,"lon":5.36887,"is_reserved":false,"is_disabled":false,"rental_uris":{"android":"levelo://app?vid=c2713548-3811-4ac0-ba42-9180d830f676","ios":"levelo://app?vid=c2713548-3811-4ac0-ba42-9180d830f676"},"vehicle_type_id":"4","last_reported":1738656757,"current_range_meters":24800,"station_id":"ce4bgqh2rcd13ifvqc5g","pricing_plan_id":"cebpf4jnsgd1na2vs0mg"},{"bike_id":"a1a7079b-68b5-45ca-9af8-b6bc9f7cd559","system_id":"levelo_inurba_marseille","lat":43.22932,"lon":5.35373,"is_reserved":false,"is_disabled":false,"rental_uris":{"android":"levelo://app?vid=a1a7079b-68b5-45ca-9af8-b6bc9f7cd559","ios":"levelo://app?vid=a1a7079b-68b5-45ca-9af8-b6bc9f7cd559"},"vehicle_type_id":"4","last_reported":1738656757,"current_range_meters":38800,"station_id":"cpo3532slgdg3j2ikp40","pricing_plan_id":"cebpf4jnsgd1na2vs0mg"},{"bike_id":"391156ab-23e6-4087-9fff-4d00554806c8","system_id":"levelo_inurba_marseille","lat":43.27568,"lon":5.3841,"is_reserved":false,"is_disabled":false,"rental_uris":{"android":"levelo://app?vid=391156ab-23e6-4087-9fff-4d00554806c8","ios":"levelo://app?vid=391156ab-23e6-4087-9fff-4d00554806c8"},"vehicle_type_id":"4","last_reported":1738656757,"current_range_meters":34000,"station_id":"ce4bhh92rcd13ifvqfi0","pricing_plan_id":"cebpf4jnsgd1na2vs0mg"},{"bike_id":"c5d244f0-0f80-49dd-80ea-357f59117f57","system_id":"levelo_inurba_marseille","lat":43.304726,"lon":5.367191,"is_reserved":false,"is_disabled":false,"rental_uris":{"android":"levelo://app?vid=c5d244f0-0f80-49dd-80ea-357f59117f57","ios":"levelo://app?vid=c5d244f0-0f80-49dd-80ea-357f59117f57"},"vehicle_type_id":"4","last_reported":1738656757,"current_range_meters":3600,"station_id":"ce4bgrp2rcd13ifvqc9g","pricing_plan_id":"cebpf4jnsgd1na2vs0mg"},{"bike_id":"85a8b99c-9fad-49b5-a487-aee8d117ea56","system_id":"levelo_inurba_marseille","lat":43.32654,"lon":5.40997,"is_reserved":false,"is_disabled":false,"rental_uris":{"android":"levelo://app?vid=85a8b99c-9fad-49b5-a487-aee8d117ea56","ios":"levelo://app?vid=85a8b99c-9fad-49b5-a487-aee8d117ea56"},"vehicle_type_id":"4","last_reported":1738656757,"current_range_meters":32800,"station_id":"ce4bhpp2rcd13ifvqhgg","pricing_plan_id":"cebpf4jnsgd1na2vs0mg"},{"bike_id":"8b7cdb48-c19b-44dd-8859-dc2aba3e48ea","system_id":"levelo_inurba_marseille","lat":43.25583,"lon":5.38253,"is_reserved":false,"is_disabled":false,"rental_uris":{"android":"levelo://app?vid=8b7cdb48-c19b-44dd-8859-dc2aba3e48ea","ios":"levelo://app?vid=8b7cdb48-c19b-44dd-8859-dc2aba3e48ea"},"vehicle_type_id":"4","last_reported":1738656757,"current_range_meters":8000,"station_id":"ce4bhih2rcd13ifvqfs0","pricing_plan_id":"cebpf4jnsgd1na2vs0mg"},{"bike_id":"1e80229c-3730-4f6a-ad92-db35f7d75e3d","system_id":"levelo_inurba_marseille","lat":43.27184,"lon":5.40983,"is_reserved":false,"is_disabled":false,"rental_uris":{"android":"levelo://app?vid=1e80229c-3730-4f6a-ad92-db35f7d75e3d","ios":"levelo://app?vid=1e80229c-3730-4f6a-ad92-db35f7d75e3d"},"vehicle_type_id":"4","last_reported":1738656757,"current_range_meters":38400,"station_id":"ce4bhl12rcd13ifvqgf0","pricing_plan_id":"cebpf4jnsgd1na2vs0mg"},{"bike_id":"f738eb8f-3268-4a0f-af5c-e51042433d2c","system_id":"levelo_inurba_marseille","lat":43.30297,"lon":5.39895,"is_reserved":false,"is_disabled":false,"rental_uris":{"android":"levelo://app?vid=f738eb8f-3268-4a0f-af5c-e51042433d2c","ios":"levelo://app?vid=f738eb8f-3268-4a0f-af5c-e51042433d2c"},"vehicle_type_id":"4","last_reported":1738656757,"current_range_meters":22800,"station_id":"","pricing_plan_id":"cebpf4jnsgd1na2vs0mg"},{"bike_id":"b2a6436f-4c95-46dd-a3bd-6af91e9591d2","system_id":"levelo_inurba_marseille","lat":43.2558,"lon":5.38229,"is_reserved":false,"is_disabled":false,"rental_uris":{"android":"levelo://app?vid=b2a6436f-4c95-46dd-a3bd-6af91e9591d2","ios":"levelo://app?vid=b2a6436f-4c95-46dd-a3bd-6af91e9591d2"},"vehicle_type_id":"4","last_reported":1738656757,"current_range_meters":19600,"station_id":"ce4bhih2rcd13ifvqfs0","pricing_plan_id":"cebpf4jnsgd1na2vs0mg"},{"bike_id":"fcd446ef-f8e6-45a0-806e-34fecb9910fa","system_id":"levelo_inurba_marseille","lat":43.27504,"lon":5.42448,"is_reserved":false,"is_disabled":false,"rental_uris":{"android":"levelo://app?vid=fcd446ef-f8e6-45a0-806e-34fecb9910fa","ios":"levelo://app?vid=fcd446ef-f8e6-45a0-806e-34fecb9910fa"},"vehicle_type_id":"4","last_reported":1738656757,"current_range_meters":20400,"station_id":"ce4bhn92rcd13ifvqgrg","pricing_plan_id":"cebpf4jnsgd1na2vs0mg"},{"bike_id":"3a9e538c-65c2-479b-b2d6-6e9e8856f5d8","system_id":"levelo_inurba_marseille","lat":43.25938,"lon":5.40902,"is_reserved":false,"is_disabled":false,"rental_uris":{"android":"levelo://app?vid=3a9e538c-65c2-479b-b2d6-6e9e8856f5d8","ios":"levelo://app?vid=3a9e538c-65c2-479b-b2d6-6e9e8856f5d8"},"vehicle_type_id":"4","last_reported":1738656757,"current_range_meters":24800,"station_id":"ce4bhm92rcd13ifvqglg","pricing_plan_id":"cebpf4jnsgd1na2vs0mg"},{"bike_id":"f49399e3-6204-4840-b71d-d4fdec09f64b","system_id":"levelo_inurba_marseille","lat":43.25934,"lon":5.40905,"is_reserved":false,"is_disabled":false,"rental_uris":{"android":"levelo://app?vid=f49399e3-6204-4840-b71d-d4fdec09f64b","ios":"levelo://app?vid=f49399e3-6204-4840-b71d-d4fdec09f64b"},"vehicle_type_id":"4","last_reported":1738656757,"current_range_meters":28800,"station_id":"ce4bhm92rcd13ifvqglg","pricing_plan_id":"cebpf4jnsgd1na2vs0mg"},{"bike_id":"3ef881c7-d37f-40dd-a33c-5e6b4a2570c1","system_id":"levelo_inurba_marseille","lat":43.29806,"lon":5.38109,"is_reserved":false,"is_disabled":false,"rental_uris":{"android":"levelo://app?vid=3ef881c7-d37f-40dd-a33c-5e6b4a2570c1","ios":"levelo://app?vid=3ef881c7-d37f-40dd-a33c-5e6b4a2570c1"},"vehicle_type_id":"4","last_reported":1738656757,"current_range_meters":25600,"station_id":"ce4bgip2rcd13ifvqbb0","pricing_plan_id":"cebpf4jnsgd1na2vs0mg"},{"bike_id":"0363a049-97d8-4d69-b6d6-46ab2f2594c4","system_id":"levelo_inurba_marseille","lat":43.29554,"lon":5.42286,"is_reserved":false,"is_disabled":false,"rental_uris":{"android":"levelo://app?vid=0363a049-97d8-4d69-b6d6-46ab2f2594c4","ios":"levelo://app?vid=0363a049-97d8-4d69-b6d6-46ab2f2594c4"},"vehicle_type_id":"4","last_reported":1738656757,"current_range_meters":6800,"station_id":"ce4bhph2rcd13ifvqhdg","pricing_plan_id":"cebpf4jnsgd1na2vs0mg"},{"bike_id":"1a794636-1de8-48ff-a1bf-f41557cb147d","system_id":"levelo_inurba_marseille","lat":43.34597,"lon":5.38102,"is_reserved":false,"is_disabled":false,"rental_uris":{"android":"levelo://app?vid=1a794636-1de8-48ff-a1bf-f41557cb147d","ios":"levelo://app?vid=1a794636-1de8-48ff-a1bf-f41557cb147d"},"vehicle_type_id":"4","last_reported":1738656757,"current_range_meters":14400,"station_id":"","pricing_plan_id":"cebpf4jnsgd1na2vs0mg"},{"bike_id":"3c8e5445-cf86-469e-9c11-4a5caaef9b7e","system_id":"levelo_inurba_marseille","lat":43.24646,"lon":5.38896,"is_reserved":false,"is_disabled":false,"rental_uris":{"android":"levelo://app?vid=3c8e5445-cf86-469e-9c11-4a5caaef9b7e","ios":"levelo://app?vid=3c8e5445-cf86-469e-9c11-4a5caaef9b7e"},"vehicle_type_id":"4","last_reported":1738656757,"current_range_meters":38800,"station_id":"ce4bhg12rcd13ifvqf60","pricing_plan_id":"cebpf4jnsgd1na2vs0mg"},{"bike_id":"d6839042-ffb2-4301-bb52-472b8256b81e","system_id":"levelo_inurba_marseille","lat":43.30474,"lon":5.379,"is_reserved":false,"is_disabled":false,"rental_uris":{"android":"levelo://app?vid=d6839042-ffb2-4301-bb52-472b8256b81e","ios":"levelo://app?vid=d6839042-ffb2-4301-bb52-472b8256b81e"},"vehicle_type_id":"4","last_reported":1738656757,"current_range_meters":32800,"station_id":"ce4bgup2rcd13ifvqcn0","pricing_plan_id":"cebpf4jnsgd1na2vs0mg"},{"bike_id":"73eafdd5-6e61-4fa8-88ae-0301d718a618","system_id":"levelo_inurba_marseille","lat":43.32291,"lon":5.38228,"is_reserved":false,"is_disabled":false,"rental_uris":{"android":"levelo://app?vid=73eafdd5-6e61-4fa8-88ae-0301d718a618","ios":"levelo://app?vid=73eafdd5-6e61-4fa8-88ae-0301d718a618"},"vehicle_type_id":"4","last_reported":1738656757,"current_range_meters":24800,"station_id":"ce4bhr12rcd13ifvqhqg","pricing_plan_id":"cebpf4jnsgd1na2vs0mg"},{"bike_id":"0580b22c-e37b-43ae-9129-b4938c90022d","system_id":"levelo_inurba_marseille","lat":43.31496,"lon":5.373,"is_reserved":false,"is_disabled":false,"rental_uris":{"android":"levelo://app?vid=0580b22c-e37b-43ae-9129-b4938c90022d","ios":"levelo://app?vid=0580b22c-e37b-43ae-9129-b4938c90022d"},"vehicle_type_id":"4","last_reported":1738656757,"current_range_meters":30400,"station_id":"ce4bgt12rcd13ifvqcd0","pricing_plan_id":"cebpf4jnsgd1na2vs0mg"},{"bike_id":"30d68ac6-7ba6-4749-8154-bf914e372a6a","system_id":"levelo_inurba_marseille","lat":43.32352,"lon":5.38883,"is_reserved":false,"is_disabled":false,"rental_uris":{"android":"levelo://app?vid=30d68ac6-7ba6-4749-8154-bf914e372a6a","ios":"levelo://app?vid=30d68ac6-7ba6-4749-8154-bf914e372a6a"},"vehicle_type_id":"4","last_reported":1738656757,"current_range_meters":38000,"station_id":"ce4bhqp2rcd13ifvqhog","pricing_plan_id":"cebpf4jnsgd1na2vs0mg"},{"bike_id":"70db77fa-5101-4cc3-b5ef-7ecd27e20697","system_id":"levelo_inurba_marseille","lat":43.23052,"lon":5.35511,"is_reserved":false,"is_disabled":false,"rental_uris":{"android":"levelo://app?vid=70db77fa-5101-4cc3-b5ef-7ecd27e20697","ios":"levelo://app?vid=70db77fa-5101-4cc3-b5ef-7ecd27e20697"},"vehicle_type_id":"4","last_reported":1738656757,"current_range_meters":24800,"station_id":"cpo3342slgdg3j2ifvpg","pricing_plan_id":"cebpf4jnsgd1na2vs0mg"},{"bike_id":"f6dacf6b-80aa-4ed3-b60f-a447a5860aff","system_id":"levelo_inurba_marseille","lat":43.29232,"lon":5.36071,"is_reserved":false,"is_disabled":false,"rental_uris":{"android":"levelo://app?vid=f6dacf6b-80aa-4ed3-b60f-a447a5860aff","ios":"levelo://app?vid=f6dacf6b-80aa-4ed3-b60f-a447a5860aff"},"vehicle_type_id":"4","last_reported":1738656757,"current_range_meters":14400,"station_id":"ce4bhbh2rcd13ifvqeqg","pricing_plan_id":"cebpf4jnsgd1na2vs0mg"},{"bike_id":"e33c097b-83d0-40ec-9fbf-364e5b0a9ef8","system_id":"levelo_inurba_marseille","lat":43.231973,"lon":5.355488,"is_reserved":false,"is_disabled":false,"rental_uris":{"android":"levelo://app?vid=e33c097b-83d0-40ec-9fbf-364e5b0a9ef8","ios":"levelo://app?vid=e33c097b-83d0-40ec-9fbf-364e5b0a9ef8"},"vehicle_type_id":"4","last_reported":1738656757,"current_range_meters":38800,"station_id":"ce4bhu92rcd13ifvqi70","pricing_plan_id":"cebpf4jnsgd1na2vs0mg"},{"bike_id":"15a26f1c-8db6-4e23-b349-ee383d713225","system_id":"levelo_inurba_marseille","lat":43.2903,"lon":5.39956,"is_reserved":false,"is_disabled":true,"rental_uris":{"android":"levelo://app?vid=15a26f1c-8db6-4e23-b349-ee383d713225","ios":"levelo://app?vid=15a26f1c-8db6-4e23-b349-ee383d713225"},"vehicle_type_id":"4","last_reported":1738656757,"current_range_meters":22800,"station_id":"ce4bh392rcd13ifvqdm0","pricing_plan_id":"cebpf4jnsgd1na2vs0mg"},{"bike_id":"5e21a4a6-dee3-4ed2-9ed2-31836fddc8dd","system_id":"levelo_inurba_marseille","lat":43.30148,"lon":5.38083,"is_reserved":false,"is_disabled":false,"rental_uris":{"android":"levelo://app?vid=5e21a4a6-dee3-4ed2-9ed2-31836fddc8dd","ios":"levelo://app?vid=5e21a4a6-dee3-4ed2-9ed2-31836fddc8dd"},"vehicle_type_id":"4","last_reported":1738656757,"current_range_meters":28800,"station_id":"ce4bgjp2rcd13ifvqbh0","pricing_plan_id":"cebpf4jnsgd1na2vs0mg"},{"bike_id":"8c6b7a51-ddd8-424b-ae4e-3239e83554e1","system_id":"levelo_inurba_marseille","lat":43.30463,"lon":5.37903,"is_reserved":false,"is_disabled":false,"rental_uris":{"android":"levelo://app?vid=8c6b7a51-ddd8-424b-ae4e-3239e83554e1","ios":"levelo://app?vid=8c6b7a51-ddd8-424b-ae4e-3239e83554e1"},"vehicle_type_id":"4","last_reported":1738656757,"current_range_meters":27600,"station_id":"ce4bgup2rcd13ifvqcn0","pricing_plan_id":"cebpf4jnsgd1na2vs0mg"},{"bike_id":"cedd1b75-7ca7-45aa-a6ce-9bae6e8b581f","system_id":"levelo_inurba_marseille","lat":43.26944,"lon":5.38645,"is_reserved":false,"is_disabled":false,"rental_uris":{"android":"levelo://app?vid=cedd1b75-7ca7-45aa-a6ce-9bae6e8b581f","ios":"levelo://app?vid=cedd1b75-7ca7-45aa-a6ce-9bae6e8b581f"},"vehicle_type_id":"4","last_reported":1738656757,"current_range_meters":38800,"station_id":"ce4bhh92rcd13ifvqfh0","pricing_plan_id":"cebpf4jnsgd1na2vs0mg"},{"bike_id":"89e0fb27-5f26-4cfe-9f61-e8651117733f","system_id":"levelo_inurba_marseille","lat":43.22935,"lon":5.3536,"is_reserved":false,"is_disabled":false,"rental_uris":{"android":"levelo://app?vid=89e0fb27-5f26-4cfe-9f61-e8651117733f","ios":"levelo://app?vid=89e0fb27-5f26-4cfe-9f61-e8651117733f"},"vehicle_type_id":"4","last_reported":1738656757,"current_range_meters":38000,"station_id":"cpo3532slgdg3j2ikp40","pricing_plan_id":"cebpf4jnsgd1na2vs0mg"},{"bike_id":"c99192c5-d228-4fa6-b582-8ef5a907c121","system_id":"levelo_inurba_marseille","lat":43.289783,"lon":5.378407,"is_reserved":false,"is_disabled":false,"rental_uris":{"android":"levelo://app?vid=c99192c5-d228-4fa6-b582-8ef5a907c121","ios":"levelo://app?vid=c99192c5-d228-4fa6-b582-8ef5a907c121"},"vehicle_type_id":"4","last_reported":1738656757,"current_range_meters":39200,"station_id":"ce4bh9p2rcd13ifvqed0","pricing_plan_id":"cebpf4jnsgd1na2vs0mg"},{"bike_id":"cfdf0950-ea3c-4b92-804b-57a6b13d3e7a","system_id":"levelo_inurba_marseille","lat":43.27498,"lon":5.42444,"is_reserved":false,"is_disabled":false,"rental_uris":{"android":"levelo://app?vid=cfdf0950-ea3c-4b92-804b-57a6b13d3e7a","ios":"levelo://app?vid=cfdf0950-ea3c-4b92-804b-57a6b13d3e7a"},"vehicle_type_id":"4","last_reported":1738656757,"current_range_meters":34000,"station_id":"ce4bhn92rcd13ifvqgrg","pricing_plan_id":"cebpf4jnsgd1na2vs0mg"},{"bike_id":"c548f53c-8626-4aa7-a88e-8260a0782630","system_id":"levelo_inurba_marseille","lat":43.25913,"lon":5.40875,"is_reserved":false,"is_disabled":false,"rental_uris":{"android":"levelo://app?vid=c548f53c-8626-4aa7-a88e-8260a0782630","ios":"levelo://app?vid=c548f53c-8626-4aa7-a88e-8260a0782630"},"vehicle_type_id":"4","last_reported":1738656757,"current_range_meters":3600,"station_id":"ce4bhm92rcd13ifvqglg","pricing_plan_id":"cebpf4jnsgd1na2vs0mg"},{"bike_id":"de27dfc9-f2fb-4778-8226-69a993c0eb2e","system_id":"levelo_inurba_marseille","lat":43.24555,"lon":5.39524,"is_reserved":false,"is_disabled":false,"rental_uris":{"android":"levelo://app?vid=de27dfc9-f2fb-4778-8226-69a993c0eb2e","ios":"levelo://app?vid=de27dfc9-f2fb-4778-8226-69a993c0eb2e"},"vehicle_type_id":"4","last_reported":1738656757,"current_range_meters":36800,"station_id":"ce4bhlp2rcd13ifvqgjg","pricing_plan_id":"cebpf4jnsgd1na2vs0mg"},{"bike_id":"5b406e0d-76c2-4128-ae56-d87c22288738","system_id":"levelo_inurba_marseille","lat":43.30909,"lon":5.36854,"is_reserved":false,"is_disabled":false,"rental_uris":{"android":"levelo://app?vid=5b406e0d-76c2-4128-ae56-d87c22288738","ios":"levelo://app?vid=5b406e0d-76c2-4128-ae56-d87c22288738"},"vehicle_type_id":"4","last_reported":1738656757,"current_range_meters":26800,"station_id":"ce4bgn92rcd13ifvqbvg","pricing_plan_id":"cebpf4jnsgd1na2vs0mg"},{"bike_id":"932475df-f4f3-42e7-9bed-194c6c3d5702","system_id":"levelo_inurba_marseille","lat":43.28714,"lon":5.37934,"is_reserved":false,"is_disabled":true,"rental_uris":{"android":"levelo://app?vid=932475df-f4f3-42e7-9bed-194c6c3d5702","ios":"levelo://app?vid=932475df-f4f3-42e7-9bed-194c6c3d5702"},"vehicle_type_id":"4","last_reported":1738656757,"current_range_meters":35200,"station_id":"ce4bh9p2rcd13ifvqec0","pricing_plan_id":"cebpf4jnsgd1na2vs0mg"},{"bike_id":"b9abc1ed-768d-4da8-84aa-764a3f684dc2","system_id":"levelo_inurba_marseille","lat":43.26954,"lon":5.38642,"is_reserved":false,"is_disabled":false,"rental_uris":{"android":"levelo://app?vid=b9abc1ed-768d-4da8-84aa-764a3f684dc2","ios":"levelo://app?vid=b9abc1ed-768d-4da8-84aa-764a3f684dc2"},"vehicle_type_id":"4","last_reported":1738656757,"current_range_meters":24000,"station_id":"ce4bhh92rcd13ifvqfh0","pricing_plan_id":"cebpf4jnsgd1na2vs0mg"},{"bike_id":"b215dd6e-9910-4def-beb6-1006112b71da","system_id":"levelo_inurba_marseille","lat":43.24087,"lon":5.37761,"is_reserved":false,"is_disabled":false,"rental_uris":{"android":"levelo://app?vid=b215dd6e-9910-4def-beb6-1006112b71da","ios":"levelo://app?vid=b215dd6e-9910-4def-beb6-1006112b71da"},"vehicle_type_id":"4","last_reported":1738656757,"current_range_meters":38800,"station_id":"ce4bhnp2rcd13ifvqgvg","pricing_plan_id":"cebpf4jnsgd1na2vs0mg"},{"bike_id":"b8377e0a-43f0-421f-b7bc-be53cdc947c8","system_id":"levelo_inurba_marseille","lat":43.32541,"lon":5.41441,"is_reserved":false,"is_disabled":false,"rental_uris":{"android":"levelo://app?vid=b8377e0a-43f0-421f-b7bc-be53cdc947c8","ios":"levelo://app?vid=b8377e0a-43f0-421f-b7bc-be53cdc947c8"},"vehicle_type_id":"4","last_reported":1738656757,"current_range_meters":37600,"station_id":"ce4bhq12rcd13ifvqhhg","pricing_plan_id":"cebpf4jnsgd1na2vs0mg"},{"bike_id":"607124c1-d96a-415c-9526-773092e5fa36","system_id":"levelo_inurba_marseille","lat":43.23184,"lon":5.39985,"is_reserved":false,"is_disabled":false,"rental_uris":{"android":"levelo://app?vid=607124c1-d96a-415c-9526-773092e5fa36","ios":"levelo://app?vid=607124c1-d96a-415c-9526-773092e5fa36"},"vehicle_type_id":"4","last_reported":1738656757,"current_range_meters":3200,"station_id":"ce4bhn12rcd13ifvqgqg","pricing_plan_id":"cebpf4jnsgd1na2vs0mg"},{"bike_id":"9a246337-8b93-40ac-8041-a37c41945aaf","system_id":"levelo_inurba_marseille","lat":43.26937,"lon":5.40262,"is_reserved":false,"is_disabled":false,"rental_uris":{"android":"levelo://app?vid=9a246337-8b93-40ac-8041-a37c41945aaf","ios":"levelo://app?vid=9a246337-8b93-40ac-8041-a37c41945aaf"},"vehicle_type_id":"4","last_reported":1738656757,"current_range_meters":7200,"station_id":"cjm6bp8fraef2m0cb0m0","pricing_plan_id":"cebpf4jnsgd1na2vs0mg"},{"bike_id":"3bee43d5-e27e-4692-8630-5bfa4bfc3f39","system_id":"levelo_inurba_marseille","lat":43.32281,"lon":5.38295,"is_reserved":false,"is_disabled":false,"rental_uris":{"android":"levelo://app?vid=3bee43d5-e27e-4692-8630-5bfa4bfc3f39","ios":"levelo://app?vid=3bee43d5-e27e-4692-8630-5bfa4bfc3f39"},"vehicle_type_id":"4","last_reported":1738656757,"current_range_meters":25600,"station_id":"ce4bhr12rcd13ifvqhqg","pricing_plan_id":"cebpf4jnsgd1na2vs0mg"},{"bike_id":"278902b4-7b50-4f46-8ac1-6d0f29cc8638","system_id":"levelo_inurba_marseille","lat":43.2408,"lon":5.37746,"is_reserved":false,"is_disabled":false,"rental_uris":{"android":"levelo://app?vid=278902b4-7b50-4f46-8ac1-6d0f29cc8638","ios":"levelo://app?vid=278902b4-7b50-4f46-8ac1-6d0f29cc8638"},"vehicle_type_id":"4","last_reported":1738656757,"current_range_meters":30400,"station_id":"","pricing_plan_id":"cebpf4jnsgd1na2vs0mg"},{"bike_id":"cb9e092a-81a9-4536-b645-1d1f9d6be896","system_id":"levelo_inurba_marseille","lat":43.28405,"lon":5.37507,"is_reserved":false,"is_disabled":false,"rental_uris":{"android":"levelo://app?vid=cb9e092a-81a9-4536-b645-1d1f9d6be896","ios":"levelo://app?vid=cb9e092a-81a9-4536-b645-1d1f9d6be896"},"vehicle_type_id":"4","last_reported":1738656757,"current_range_meters":11200,"station_id":"ce4bh412rcd13ifvqds0","pricing_plan_id":"cebpf4jnsgd1na2vs0mg"},{"bike_id":"f34eb020-b91b-40c4-94ad-4e062aa01000","system_id":"levelo_inurba_marseille","lat":43.2931,"lon":5.40134,"is_reserved":false,"is_disabled":false,"rental_uris":{"android":"levelo://app?vid=f34eb020-b91b-40c4-94ad-4e062aa01000","ios":"levelo://app?vid=f34eb020-b91b-40c4-94ad-4e062aa01000"},"vehicle_type_id":"4","last_reported":1738656757,"current_range_meters":4800,"station_id":"ce4bh312rcd13ifvqdk0","pricing_plan_id":"cebpf4jnsgd1na2vs0mg"},{"bike_id":"061fe1f7-1b1b-403e-bdb0-1319fb067ccf","system_id":"levelo_inurba_marseille","lat":43.32543,"lon":5.41438,"is_reserved":false,"is_disabled":false,"rental_uris":{"android":"levelo://app?vid=061fe1f7-1b1b-403e-bdb0-1319fb067ccf","ios":"levelo://app?vid=061fe1f7-1b1b-403e-bdb0-1319fb067ccf"},"vehicle_type_id":"4","last_reported":1738656757,"current_range_meters":39200,"station_id":"ce4bhq12rcd13ifvqhhg","pricing_plan_id":"cebpf4jnsgd1na2vs0mg"},{"bike_id":"3ab0ceb6-cd89-477f-8038-1be761eb4bda","system_id":"levelo_inurba_marseille","lat":43.29201,"lon":5.36023,"is_reserved":false,"is_disabled":false,"rental_uris":{"android":"levelo://app?vid=3ab0ceb6-cd89-477f-8038-1be761eb4bda","ios":"levelo://app?vid=3ab0ceb6-cd89-477f-8038-1be761eb4bda"},"vehicle_type_id":"4","last_reported":1738656757,"current_range_meters":14400,"station_id":"","pricing_plan_id":"cebpf4jnsgd1na2vs0mg"},{"bike_id":"cb22c695-a4a1-4b40-8327-76d0a13c0d1d","system_id":"levelo_inurba_marseille","lat":43.30563,"lon":5.36688,"is_reserved":false,"is_disabled":false,"rental_uris":{"android":"levelo://app?vid=cb22c695-a4a1-4b40-8327-76d0a13c0d1d","ios":"levelo://app?vid=cb22c695-a4a1-4b40-8327-76d0a13c0d1d"},"vehicle_type_id":"4","last_reported":1738656757,"current_range_meters":23200,"station_id":"ce4bgrp2rcd13ifvqc9g","pricing_plan_id":"cebpf4jnsgd1na2vs0mg"},{"bike_id":"48a197a0-4298-4bad-a5d2-5346b8b8d122","system_id":"levelo_inurba_marseille","lat":43.30207,"lon":5.38063,"is_reserved":false,"is_disabled":false,"rental_uris":{"android":"levelo://app?vid=48a197a0-4298-4bad-a5d2-5346b8b8d122","ios":"levelo://app?vid=48a197a0-4298-4bad-a5d2-5346b8b8d122"},"vehicle_type_id":"4","last_reported":1738656757,"current_range_meters":8400,"station_id":"","pricing_plan_id":"cebpf4jnsgd1na2vs0mg"},{"bike_id":"a7707bf1-29c6-4f48-976f-2880303742fc","system_id":"levelo_inurba_marseille","lat":43.29523,"lon":5.39022,"is_reserved":false,"is_disabled":true,"rental_uris":{"android":"levelo://app?vid=a7707bf1-29c6-4f48-976f-2880303742fc","ios":"levelo://app?vid=a7707bf1-29c6-4f48-976f-2880303742fc"},"vehicle_type_id":"4","last_reported":1738656757,"current_range_meters":14800,"station_id":"ce4bh3p2rcd13ifvqdp0","pricing_plan_id":"cebpf4jnsgd1na2vs0mg"},{"bike_id":"cda6c1fe-0f78-49ea-ac45-361d8d9def33","system_id":"levelo_inurba_marseille","lat":43.29236,"lon":5.36068,"is_reserved":false,"is_disabled":false,"rental_uris":{"android":"levelo://app?vid=cda6c1fe-0f78-49ea-ac45-361d8d9def33","ios":"levelo://app?vid=cda6c1fe-0f78-49ea-ac45-361d8d9def33"},"vehicle_type_id":"4","last_reported":1738656757,"current_range_meters":34800,"station_id":"ce4bhbh2rcd13ifvqeqg","pricing_plan_id":"cebpf4jnsgd1na2vs0mg"},{"bike_id":"a3e0bdd7-331d-41c6-92f9-0568b606c73e","system_id":"levelo_inurba_marseille","lat":43.25577,"lon":5.38247,"is_reserved":false,"is_disabled":false,"rental_uris":{"android":"levelo://app?vid=a3e0bdd7-331d-41c6-92f9-0568b606c73e","ios":"levelo://app?vid=a3e0bdd7-331d-41c6-92f9-0568b606c73e"},"vehicle_type_id":"4","last_reported":1738656757,"current_range_meters":7200,"station_id":"ce4bhih2rcd13ifvqfs0","pricing_plan_id":"cebpf4jnsgd1na2vs0mg"},{"bike_id":"fe4addfc-5c8a-4063-b873-cad745fef866","system_id":"levelo_inurba_marseille","lat":43.29042,"lon":5.39964,"is_reserved":false,"is_disabled":false,"rental_uris":{"android":"levelo://app?vid=fe4addfc-5c8a-4063-b873-cad745fef866","ios":"levelo://app?vid=fe4addfc-5c8a-4063-b873-cad745fef866"},"vehicle_type_id":"4","last_reported":1738656757,"current_range_meters":8400,"station_id":"ce4bh392rcd13ifvqdm0","pricing_plan_id":"cebpf4jnsgd1na2vs0mg"},{"bike_id":"8af0b331-8042-4fb4-ad0c-c579fbbb63b7","system_id":"levelo_inurba_marseille","lat":43.33623,"lon":5.40982,"is_reserved":false,"is_disabled":false,"rental_uris":{"android":"levelo://app?vid=8af0b331-8042-4fb4-ad0c-c579fbbb63b7","ios":"levelo://app?vid=8af0b331-8042-4fb4-ad0c-c579fbbb63b7"},"vehicle_type_id":"4","last_reported":1738656757,"current_range_meters":39200,"station_id":"ce4bhqh2rcd13ifvqhmg","pricing_plan_id":"cebpf4jnsgd1na2vs0mg"},{"bike_id":"a91cdf06-8aaf-4398-8173-3fb2561d3057","system_id":"levelo_inurba_marseille","lat":43.25573,"lon":5.38268,"is_reserved":false,"is_disabled":false,"rental_uris":{"android":"levelo://app?vid=a91cdf06-8aaf-4398-8173-3fb2561d3057","ios":"levelo://app?vid=a91cdf06-8aaf-4398-8173-3fb2561d3057"},"vehicle_type_id":"4","last_reported":1738656757,"current_range_meters":36000,"station_id":"ce4bhih2rcd13ifvqfs0","pricing_plan_id":"cebpf4jnsgd1na2vs0mg"},{"bike_id":"54d06fd4-9213-43ef-8373-28e5edb151d5","system_id":"levelo_inurba_marseille","lat":43.304638,"lon":5.379138,"is_reserved":false,"is_disabled":false,"rental_uris":{"android":"levelo://app?vid=54d06fd4-9213-43ef-8373-28e5edb151d5","ios":"levelo://app?vid=54d06fd4-9213-43ef-8373-28e5edb151d5"},"vehicle_type_id":"4","last_reported":1738656757,"current_range_meters":28000,"station_id":"ce4bgup2rcd13ifvqcn0","pricing_plan_id":"cebpf4jnsgd1na2vs0mg"},{"bike_id":"f99c2d6a-f6bd-43c9-9b5e-96aec13e4155","system_id":"levelo_inurba_marseille","lat":43.31354,"lon":5.36721,"is_reserved":false,"is_disabled":false,"rental_uris":{"android":"levelo://app?vid=f99c2d6a-f6bd-43c9-9b5e-96aec13e4155","ios":"levelo://app?vid=f99c2d6a-f6bd-43c9-9b5e-96aec13e4155"},"vehicle_type_id":"4","last_reported":1738656757,"current_range_meters":39200,"station_id":"ce4bgr92rcd13ifvqc6g","pricing_plan_id":"cebpf4jnsgd1na2vs0mg"},{"bike_id":"49170bb5-5f8f-4c9a-9641-befe48837358","system_id":"levelo_inurba_marseille","lat":43.29028,"lon":5.39984,"is_reserved":false,"is_disabled":false,"rental_uris":{"android":"levelo://app?vid=49170bb5-5f8f-4c9a-9641-befe48837358","ios":"levelo://app?vid=49170bb5-5f8f-4c9a-9641-befe48837358"},"vehicle_type_id":"4","last_reported":1738656757,"current_range_meters":32000,"station_id":"ce4bh392rcd13ifvqdm0","pricing_plan_id":"cebpf4jnsgd1na2vs0mg"},{"bike_id":"ed5de887-020e-4099-93c8-ce1f75b4656a","system_id":"levelo_inurba_marseille","lat":43.27052,"lon":5.40264,"is_reserved":false,"is_disabled":false,"rental_uris":{"android":"levelo://app?vid=ed5de887-020e-4099-93c8-ce1f75b4656a","ios":"levelo://app?vid=ed5de887-020e-4099-93c8-ce1f75b4656a"},"vehicle_type_id":"4","last_reported":1738656757,"current_range_meters":20000,"station_id":"ce4bhk92rcd13ifvqgc0","pricing_plan_id":"cebpf4jnsgd1na2vs0mg"},{"bike_id":"8deac318-65a8-448d-93f6-837f094a0dbe","system_id":"levelo_inurba_marseille","lat":43.31347,"lon":5.3674,"is_reserved":false,"is_disabled":false,"rental_uris":{"android":"levelo://app?vid=8deac318-65a8-448d-93f6-837f094a0dbe","ios":"levelo://app?vid=8deac318-65a8-448d-93f6-837f094a0dbe"},"vehicle_type_id":"4","last_reported":1738656757,"current_range_meters":38800,"station_id":"ce4bgr92rcd13ifvqc6g","pricing_plan_id":"cebpf4jnsgd1na2vs0mg"},{"bike_id":"0416cf78-7863-4eec-b5e5-3557e2310ee1","system_id":"levelo_inurba_marseille","lat":43.26776,"lon":5.39442,"is_reserved":false,"is_disabled":true,"rental_uris":{"android":"levelo://app?vid=0416cf78-7863-4eec-b5e5-3557e2310ee1","ios":"levelo://app?vid=0416cf78-7863-4eec-b5e5-3557e2310ee1"},"vehicle_type_id":"4","last_reported":1738656757,"current_range_meters":0,"station_id":"ce4bhh12rcd13ifvqfg0","pricing_plan_id":"cebpf4jnsgd1na2vs0mg"},{"bike_id":"d956c0fa-8e81-4a5c-a819-66560ebeacd2","system_id":"levelo_inurba_marseille","lat":43.28154,"lon":5.42646,"is_reserved":false,"is_disabled":false,"rental_uris":{"android":"levelo://app?vid=d956c0fa-8e81-4a5c-a819-66560ebeacd2","ios":"levelo://app?vid=d956c0fa-8e81-4a5c-a819-66560ebeacd2"},"vehicle_type_id":"4","last_reported":1738656757,"current_range_meters":7200,"station_id":"ce4bhnh2rcd13ifvqgug","pricing_plan_id":"cebpf4jnsgd1na2vs0mg"},{"bike_id":"9ba8d17f-ec4e-4639-8854-1ba5f642e9d2","system_id":"levelo_inurba_marseille","lat":43.30465,"lon":5.3791,"is_reserved":false,"is_disabled":false,"rental_uris":{"android":"levelo://app?vid=9ba8d17f-ec4e-4639-8854-1ba5f642e9d2","ios":"levelo://app?vid=9ba8d17f-ec4e-4639-8854-1ba5f642e9d2"},"vehicle_type_id":"4","last_reported":1738656757,"current_range_meters":35200,"station_id":"ce4bgup2rcd13ifvqcn0","pricing_plan_id":"cebpf4jnsgd1na2vs0mg"},{"bike_id":"7fdd338e-83cb-49bf-81f4-cc7bdeea298f","system_id":"levelo_inurba_marseille","lat":43.241653,"lon":5.363953,"is_reserved":false,"is_disabled":false,"rental_uris":{"android":"levelo://app?vid=7fdd338e-83cb-49bf-81f4-cc7bdeea298f","ios":"levelo://app?vid=7fdd338e-83cb-49bf-81f4-cc7bdeea298f"},"vehicle_type_id":"4","last_reported":1738656757,"current_range_meters":24800,"station_id":"cpo36qri1sfpv3e86is0","pricing_plan_id":"cebpf4jnsgd1na2vs0mg"},{"bike_id":"e270e9c9-c637-4eec-85ca-20047cef130b","system_id":"levelo_inurba_marseille","lat":43.23148,"lon":5.43725,"is_reserved":false,"is_disabled":true,"rental_uris":{"android":"levelo://app?vid=e270e9c9-c637-4eec-85ca-20047cef130b","ios":"levelo://app?vid=e270e9c9-c637-4eec-85ca-20047cef130b"},"vehicle_type_id":"4","last_reported":1738656757,"current_range_meters":1200,"station_id":"ce4bhmp2rcd13ifvqgog","pricing_plan_id":"cebpf4jnsgd1na2vs0mg"},{"bike_id":"98682d30-e93c-49a6-a226-9bd09ce46180","system_id":"levelo_inurba_marseille","lat":43.26067,"lon":5.39391,"is_reserved":false,"is_disabled":false,"rental_uris":{"android":"levelo://app?vid=98682d30-e93c-49a6-a226-9bd09ce46180","ios":"levelo://app?vid=98682d30-e93c-49a6-a226-9bd09ce46180"},"vehicle_type_id":"4","last_reported":1738656757,"current_range_meters":39200,"station_id":"ce4bhh92rcd13ifvqfj0","pricing_plan_id":"cebpf4jnsgd1na2vs0mg"},{"bike_id":"dfe4a7c7-0508-43ad-a0c0-ea841f1a5151","system_id":"levelo_inurba_marseille","lat":43.31243,"lon":5.3686,"is_reserved":false,"is_disabled":false,"rental_uris":{"android":"levelo://app?vid=dfe4a7c7-0508-43ad-a0c0-ea841f1a5151","ios":"levelo://app?vid=dfe4a7c7-0508-43ad-a0c0-ea841f1a5151"},"vehicle_type_id":"4","last_reported":1738656757,"current_range_meters":35600,"station_id":"ce4bgl92rcd13ifvqbq0","pricing_plan_id":"cebpf4jnsgd1na2vs0mg"},{"bike_id":"71ec8193-f671-4e06-9ff4-9da8f309a0bc","system_id":"levelo_inurba_marseille","lat":43.28457,"lon":5.38463,"is_reserved":false,"is_disabled":true,"rental_uris":{"android":"levelo://app?vid=71ec8193-f671-4e06-9ff4-9da8f309a0bc","ios":"levelo://app?vid=71ec8193-f671-4e06-9ff4-9da8f309a0bc"},"vehicle_type_id":"4","last_reported":1738656757,"current_range_meters":19600,"station_id":"ce4bh512rcd13ifvqe3g","pricing_plan_id":"cebpf4jnsgd1na2vs0mg"},{"bike_id":"0779427b-9373-4e00-a6df-90da704710dd","system_id":"levelo_inurba_marseille","lat":43.29303,"lon":5.3718,"is_reserved":false,"is_disabled":false,"rental_uris":{"android":"levelo://app?vid=0779427b-9373-4e00-a6df-90da704710dd","ios":"levelo://app?vid=0779427b-9373-4e00-a6df-90da704710dd"},"vehicle_type_id":"4","last_reported":1738656757,"current_range_meters":38800,"station_id":"ce4bgh92rcd13ifvqb40","pricing_plan_id":"cebpf4jnsgd1na2vs0mg"},{"bike_id":"ab21f6d2-741a-4615-9802-4ed65daecb37","system_id":"levelo_inurba_marseille","lat":43.26677,"lon":5.3827,"is_reserved":false,"is_disabled":false,"rental_uris":{"android":"levelo://app?vid=ab21f6d2-741a-4615-9802-4ed65daecb37","ios":"levelo://app?vid=ab21f6d2-741a-4615-9802-4ed65daecb37"},"vehicle_type_id":"4","last_reported":1738656757,"current_range_meters":35200,"station_id":"ce4bhg92rcd13ifvqf90","pricing_plan_id":"cebpf4jnsgd1na2vs0mg"},{"bike_id":"af6afeaf-502f-42e9-9f5e-56ed1c47c923","system_id":"levelo_inurba_marseille","lat":43.28343,"lon":5.38111,"is_reserved":false,"is_disabled":false,"rental_uris":{"android":"levelo://app?vid=af6afeaf-502f-42e9-9f5e-56ed1c47c923","ios":"levelo://app?vid=af6afeaf-502f-42e9-9f5e-56ed1c47c923"},"vehicle_type_id":"4","last_reported":1738656757,"current_range_meters":31200,"station_id":"ce4bh412rcd13ifvqdr0","pricing_plan_id":"cebpf4jnsgd1na2vs0mg"},{"bike_id":"c1ac1f60-a8dc-4824-a6ad-b9fcfc0f1194","system_id":"levelo_inurba_marseille","lat":43.29531,"lon":5.37515,"is_reserved":false,"is_disabled":false,"rental_uris":{"android":"levelo://app?vid=c1ac1f60-a8dc-4824-a6ad-b9fcfc0f1194","ios":"levelo://app?vid=c1ac1f60-a8dc-4824-a6ad-b9fcfc0f1194"},"vehicle_type_id":"4","last_reported":1738656757,"current_range_meters":22400,"station_id":"ce4bgkp2rcd13ifvqbmg","pricing_plan_id":"cebpf4jnsgd1na2vs0mg"},{"bike_id":"7268df03-0057-41ae-b742-1d956fd18e03","system_id":"levelo_inurba_marseille","lat":43.26955,"lon":5.38636,"is_reserved":false,"is_disabled":false,"rental_uris":{"android":"levelo://app?vid=7268df03-0057-41ae-b742-1d956fd18e03","ios":"levelo://app?vid=7268df03-0057-41ae-b742-1d956fd18e03"},"vehicle_type_id":"4","last_reported":1738656757,"current_range_meters":6000,"station_id":"ce4bhh92rcd13ifvqfh0","pricing_plan_id":"cebpf4jnsgd1na2vs0mg"},{"bike_id":"88f6ec14-1047-428a-bfc8-ed7564b679d3","system_id":"levelo_inurba_marseille","lat":43.24422,"lon":5.37032,"is_reserved":false,"is_disabled":false,"rental_uris":{"android":"levelo://app?vid=88f6ec14-1047-428a-bfc8-ed7564b679d3","ios":"levelo://app?vid=88f6ec14-1047-428a-bfc8-ed7564b679d3"},"vehicle_type_id":"4","last_reported":1738656757,"current_range_meters":4800,"station_id":"ce4bhhh2rcd13ifvqfk0","pricing_plan_id":"cebpf4jnsgd1na2vs0mg"},{"bike_id":"f631330b-388d-40e1-9e0b-e33d7a148e59","system_id":"levelo_inurba_marseille","lat":43.30279,"lon":5.37707,"is_reserved":false,"is_disabled":false,"rental_uris":{"android":"levelo://app?vid=f631330b-388d-40e1-9e0b-e33d7a148e59","ios":"levelo://app?vid=f631330b-388d-40e1-9e0b-e33d7a148e59"},"vehicle_type_id":"4","last_reported":1738656757,"current_range_meters":16000,"station_id":"ce4bguh2rcd13ifvqcj0","pricing_plan_id":"cebpf4jnsgd1na2vs0mg"},{"bike_id":"fad26299-4859-48d9-af16-461be31a4018","system_id":"levelo_inurba_marseille","lat":43.2318,"lon":5.40001,"is_reserved":false,"is_disabled":true,"rental_uris":{"android":"levelo://app?vid=fad26299-4859-48d9-af16-461be31a4018","ios":"levelo://app?vid=fad26299-4859-48d9-af16-461be31a4018"},"vehicle_type_id":"4","last_reported":1738656757,"current_range_meters":0,"station_id":"ce4bhn12rcd13ifvqgqg","pricing_plan_id":"cebpf4jnsgd1na2vs0mg"},{"bike_id":"a8766a27-52fa-421d-9e4b-77ec1c5e6f30","system_id":"levelo_inurba_marseille","lat":43.28153,"lon":5.4264,"is_reserved":false,"is_disabled":true,"rental_uris":{"android":"levelo://app?vid=a8766a27-52fa-421d-9e4b-77ec1c5e6f30","ios":"levelo://app?vid=a8766a27-52fa-421d-9e4b-77ec1c5e6f30"},"vehicle_type_id":"4","last_reported":1738656757,"current_range_meters":0,"station_id":"ce4bhnh2rcd13ifvqgug","pricing_plan_id":"cebpf4jnsgd1na2vs0mg"},{"bike_id":"3395039b-02f6-49da-8cf8-4d53d23b46be","system_id":"levelo_inurba_marseille","lat":43.30484,"lon":5.37905,"is_reserved":false,"is_disabled":false,"rental_uris":{"android":"levelo://app?vid=3395039b-02f6-49da-8cf8-4d53d23b46be","ios":"levelo://app?vid=3395039b-02f6-49da-8cf8-4d53d23b46be"},"vehicle_type_id":"4","last_reported":1738656757,"current_range_meters":35200,"station_id":"ce4bgup2rcd13ifvqcn0","pricing_plan_id":"cebpf4jnsgd1na2vs0mg"},{"bike_id":"865e7d8b-8981-4f25-879f-2ffa78f4edfd","system_id":"levelo_inurba_marseille","lat":43.23959,"lon":5.36624,"is_reserved":false,"is_disabled":false,"rental_uris":{"android":"levelo://app?vid=865e7d8b-8981-4f25-879f-2ffa78f4edfd","ios":"levelo://app?vid=865e7d8b-8981-4f25-879f-2ffa78f4edfd"},"vehicle_type_id":"4","last_reported":1738656757,"current_range_meters":4400,"station_id":"ce4bhi12rcd13ifvqfp0","pricing_plan_id":"cebpf4jnsgd1na2vs0mg"},{"bike_id":"40040c8e-2685-4c87-9802-c71ca769ff08","system_id":"levelo_inurba_marseille","lat":43.31343,"lon":5.36729,"is_reserved":false,"is_disabled":false,"rental_uris":{"android":"levelo://app?vid=40040c8e-2685-4c87-9802-c71ca769ff08","ios":"levelo://app?vid=40040c8e-2685-4c87-9802-c71ca769ff08"},"vehicle_type_id":"4","last_reported":1738656757,"current_range_meters":19600,"station_id":"ce4bgr92rcd13ifvqc6g","pricing_plan_id":"cebpf4jnsgd1na2vs0mg"},{"bike_id":"03215b30-aa65-4b10-b451-ed50967ec88e","system_id":"levelo_inurba_marseille","lat":43.34431,"lon":5.35966,"is_reserved":false,"is_disabled":true,"rental_uris":{"android":"levelo://app?vid=03215b30-aa65-4b10-b451-ed50967ec88e","ios":"levelo://app?vid=03215b30-aa65-4b10-b451-ed50967ec88e"},"vehicle_type_id":"4","last_reported":1738656757,"current_range_meters":0,"station_id":"","pricing_plan_id":"cebpf4jnsgd1na2vs0mg"},{"bike_id":"7e4e9d17-2462-4eac-8af7-42aaed11d077","system_id":"levelo_inurba_marseille","lat":43.27492,"lon":5.42456,"is_reserved":false,"is_disabled":false,"rental_uris":{"android":"levelo://app?vid=7e4e9d17-2462-4eac-8af7-42aaed11d077","ios":"levelo://app?vid=7e4e9d17-2462-4eac-8af7-42aaed11d077"},"vehicle_type_id":"4","last_reported":1738656757,"current_range_meters":23200,"station_id":"ce4bhn92rcd13ifvqgrg","pricing_plan_id":"cebpf4jnsgd1na2vs0mg"},{"bike_id":"2adfaedc-761e-491f-92ad-a68e10122b3c","system_id":"levelo_inurba_marseille","lat":43.24675,"lon":5.38153,"is_reserved":false,"is_disabled":false,"rental_uris":{"android":"levelo://app?vid=2adfaedc-761e-491f-92ad-a68e10122b3c","ios":"levelo://app?vid=2adfaedc-761e-491f-92ad-a68e10122b3c"},"vehicle_type_id":"4","last_reported":1738656757,"current_range_meters":8000,"station_id":"ce4bhih2rcd13ifvqfr0","pricing_plan_id":"cebpf4jnsgd1na2vs0mg"},{"bike_id":"e909661d-e36b-46c7-8f76-361f4308c549","system_id":"levelo_inurba_marseille","lat":43.29903,"lon":5.37474,"is_reserved":false,"is_disabled":false,"rental_uris":{"android":"levelo://app?vid=e909661d-e36b-46c7-8f76-361f4308c549","ios":"levelo://app?vid=e909661d-e36b-46c7-8f76-361f4308c549"},"vehicle_type_id":"4","last_reported":1738656757,"current_range_meters":8400,"station_id":"ce4bgjh2rcd13ifvqbg0","pricing_plan_id":"cebpf4jnsgd1na2vs0mg"},{"bike_id":"d1d51ec2-e1ab-4b92-9a4b-f935b04ef436","system_id":"levelo_inurba_marseille","lat":43.2499,"lon":5.38912,"is_reserved":false,"is_disabled":false,"rental_uris":{"android":"levelo://app?vid=d1d51ec2-e1ab-4b92-9a4b-f935b04ef436","ios":"levelo://app?vid=d1d51ec2-e1ab-4b92-9a4b-f935b04ef436"},"vehicle_type_id":"4","last_reported":1738656757,"current_range_meters":24800,"station_id":"ce4bhgp2rcd13ifvqfd0","pricing_plan_id":"cebpf4jnsgd1na2vs0mg"},{"bike_id":"66e207d9-0e49-41bc-b8c7-fa36242f8418","system_id":"levelo_inurba_marseille","lat":43.32365,"lon":5.38895,"is_reserved":false,"is_disabled":false,"rental_uris":{"android":"levelo://app?vid=66e207d9-0e49-41bc-b8c7-fa36242f8418","ios":"levelo://app?vid=66e207d9-0e49-41bc-b8c7-fa36242f8418"},"vehicle_type_id":"4","last_reported":1738656757,"current_range_meters":12400,"station_id":"ce4bhqp2rcd13ifvqhog","pricing_plan_id":"cebpf4jnsgd1na2vs0mg"},{"bike_id":"7a2080c9-d44a-471c-9acd-526428e8e5dc","system_id":"levelo_inurba_marseille","lat":43.2296,"lon":5.35398,"is_reserved":false,"is_disabled":false,"rental_uris":{"android":"levelo://app?vid=7a2080c9-d44a-471c-9acd-526428e8e5dc","ios":"levelo://app?vid=7a2080c9-d44a-471c-9acd-526428e8e5dc"},"vehicle_type_id":"4","last_reported":1738656757,"current_range_meters":37600,"station_id":"cpo3532slgdg3j2ikp40","pricing_plan_id":"cebpf4jnsgd1na2vs0mg"},{"bike_id":"e13a24f9-4692-47cd-aa92-a38002a14a15","system_id":"levelo_inurba_marseille","lat":43.29598,"lon":5.3775,"is_reserved":false,"is_disabled":false,"rental_uris":{"android":"levelo://app?vid=e13a24f9-4692-47cd-aa92-a38002a14a15","ios":"levelo://app?vid=e13a24f9-4692-47cd-aa92-a38002a14a15"},"vehicle_type_id":"4","last_reported":1738656757,"current_range_meters":38800,"station_id":"ce4bgi92rcd13ifvqb90","pricing_plan_id":"cebpf4jnsgd1na2vs0mg"},{"bike_id":"d4decd6c-2a51-4ba8-8222-5965e66e3b2d","system_id":"levelo_inurba_marseille","lat":43.28948,"lon":5.39647,"is_reserved":false,"is_disabled":true,"rental_uris":{"android":"levelo://app?vid=d4decd6c-2a51-4ba8-8222-5965e66e3b2d","ios":"levelo://app?vid=d4decd6c-2a51-4ba8-8222-5965e66e3b2d"},"vehicle_type_id":"4","last_reported":1738656757,"current_range_meters":0,"station_id":"ce4bh3h2rcd13ifvqdn0","pricing_plan_id":"cebpf4jnsgd1na2vs0mg"},{"bike_id":"b3aedbd9-a4d0-4784-b54b-46a16f8371c0","system_id":"levelo_inurba_marseille","lat":43.29545,"lon":5.4227,"is_reserved":false,"is_disabled":true,"rental_uris":{"android":"levelo://app?vid=b3aedbd9-a4d0-4784-b54b-46a16f8371c0","ios":"levelo://app?vid=b3aedbd9-a4d0-4784-b54b-46a16f8371c0"},"vehicle_type_id":"4","last_reported":1738656757,"current_range_meters":36400,"station_id":"ce4bhph2rcd13ifvqhdg","pricing_plan_id":"cebpf4jnsgd1na2vs0mg"},{"bike_id":"227d1457-7acb-444d-bf95-2cc0d4b33a5a","system_id":"levelo_inurba_marseille","lat":43.26559,"lon":5.38991,"is_reserved":false,"is_disabled":false,"rental_uris":{"android":"levelo://app?vid=227d1457-7acb-444d-bf95-2cc0d4b33a5a","ios":"levelo://app?vid=227d1457-7acb-444d-bf95-2cc0d4b33a5a"},"vehicle_type_id":"4","last_reported":1738656757,"current_range_meters":20000,"station_id":"ce4bhe12rcd13ifvqf30","pricing_plan_id":"cebpf4jnsgd1na2vs0mg"},{"bike_id":"556b9b10-c973-42c5-85a9-ca6a27ee9171","system_id":"levelo_inurba_marseille","lat":43.29213,"lon":5.36074,"is_reserved":false,"is_disabled":false,"rental_uris":{"android":"levelo://app?vid=556b9b10-c973-42c5-85a9-ca6a27ee9171","ios":"levelo://app?vid=556b9b10-c973-42c5-85a9-ca6a27ee9171"},"vehicle_type_id":"4","last_reported":1738656757,"current_range_meters":8400,"station_id":"ce4bhbh2rcd13ifvqeqg","pricing_plan_id":"cebpf4jnsgd1na2vs0mg"},{"bike_id":"0bb638d0-2838-47fa-8a2d-f175e9aec41a","system_id":"levelo_inurba_marseille","lat":43.23955,"lon":5.36649,"is_reserved":false,"is_disabled":false,"rental_uris":{"android":"levelo://app?vid=0bb638d0-2838-47fa-8a2d-f175e9aec41a","ios":"levelo://app?vid=0bb638d0-2838-47fa-8a2d-f175e9aec41a"},"vehicle_type_id":"4","last_reported":1738656757,"current_range_meters":16000,"station_id":"ce4bhi12rcd13ifvqfp0","pricing_plan_id":"cebpf4jnsgd1na2vs0mg"},{"bike_id":"2cbd5193-ddde-4715-a2bf-e1cb8bb201c9","system_id":"levelo_inurba_marseille","lat":43.2849,"lon":5.38432,"is_reserved":false,"is_disabled":true,"rental_uris":{"android":"levelo://app?vid=2cbd5193-ddde-4715-a2bf-e1cb8bb201c9","ios":"levelo://app?vid=2cbd5193-ddde-4715-a2bf-e1cb8bb201c9"},"vehicle_type_id":"4","last_reported":1738656757,"current_range_meters":0,"station_id":"ce4bh512rcd13ifvqe3g","pricing_plan_id":"cebpf4jnsgd1na2vs0mg"},{"bike_id":"9be03674-7120-4176-aff8-82689c3366f6","system_id":"levelo_inurba_marseille","lat":43.25934,"lon":5.4091,"is_reserved":false,"is_disabled":false,"rental_uris":{"android":"levelo://app?vid=9be03674-7120-4176-aff8-82689c3366f6","ios":"levelo://app?vid=9be03674-7120-4176-aff8-82689c3366f6"},"vehicle_type_id":"4","last_reported":1738656757,"current_range_meters":15200,"station_id":"ce4bhm92rcd13ifvqglg","pricing_plan_id":"cebpf4jnsgd1na2vs0mg"},{"bike_id":"2fed9ba3-3909-423b-8e60-69abd9978d73","system_id":"levelo_inurba_marseille","lat":43.2681,"lon":5.40276,"is_reserved":false,"is_disabled":false,"rental_uris":{"android":"levelo://app?vid=2fed9ba3-3909-423b-8e60-69abd9978d73","ios":"levelo://app?vid=2fed9ba3-3909-423b-8e60-69abd9978d73"},"vehicle_type_id":"4","last_reported":1738656757,"current_range_meters":38800,"station_id":"ce501612rcd8frsf0b60","pricing_plan_id":"cebpf4jnsgd1na2vs0mg"},{"bike_id":"57177188-63b6-4ba7-b8e7-32133daa92a4","system_id":"levelo_inurba_marseille","lat":43.30308,"lon":5.36893,"is_reserved":false,"is_disabled":false,"rental_uris":{"android":"levelo://app?vid=57177188-63b6-4ba7-b8e7-32133daa92a4","ios":"levelo://app?vid=57177188-63b6-4ba7-b8e7-32133daa92a4"},"vehicle_type_id":"4","last_reported":1738656757,"current_range_meters":33200,"station_id":"ce4bgqh2rcd13ifvqc5g","pricing_plan_id":"cebpf4jnsgd1na2vs0mg"},{"bike_id":"98709c99-b7fd-450f-bb98-395cad9c7ffe","system_id":"levelo_inurba_marseille","lat":43.28731,"lon":5.36098,"is_reserved":false,"is_disabled":true,"rental_uris":{"android":"levelo://app?vid=98709c99-b7fd-450f-bb98-395cad9c7ffe","ios":"levelo://app?vid=98709c99-b7fd-450f-bb98-395cad9c7ffe"},"vehicle_type_id":"4","last_reported":1738656757,"current_range_meters":6800,"station_id":"cki0cbj6b192h4jlfktg","pricing_plan_id":"cebpf4jnsgd1na2vs0mg"},{"bike_id":"a2360890-da0d-437a-916b-04e787d9f58a","system_id":"levelo_inurba_marseille","lat":43.32475,"lon":5.36585,"is_reserved":false,"is_disabled":false,"rental_uris":{"android":"levelo://app?vid=a2360890-da0d-437a-916b-04e787d9f58a","ios":"levelo://app?vid=a2360890-da0d-437a-916b-04e787d9f58a"},"vehicle_type_id":"4","last_reported":1738656757,"current_range_meters":35600,"station_id":"ce4bhs12rcd13ifvqhvg","pricing_plan_id":"cebpf4jnsgd1na2vs0mg"},{"bike_id":"316de86a-e37e-48d1-9a39-4dd07715a32b","system_id":"levelo_inurba_marseille","lat":43.28681,"lon":5.38666,"is_reserved":false,"is_disabled":false,"rental_uris":{"android":"levelo://app?vid=316de86a-e37e-48d1-9a39-4dd07715a32b","ios":"levelo://app?vid=316de86a-e37e-48d1-9a39-4dd07715a32b"},"vehicle_type_id":"4","last_reported":1738656757,"current_range_meters":19600,"station_id":"ce4bh492rcd13ifvqdug","pricing_plan_id":"cebpf4jnsgd1na2vs0mg"},{"bike_id":"a953d668-03aa-4039-8533-13fff33025d7","system_id":"levelo_inurba_marseille","lat":43.28618,"lon":5.35089,"is_reserved":false,"is_disabled":false,"rental_uris":{"android":"levelo://app?vid=a953d668-03aa-4039-8533-13fff33025d7","ios":"levelo://app?vid=a953d668-03aa-4039-8533-13fff33025d7"},"vehicle_type_id":"4","last_reported":1738656757,"current_range_meters":26800,"station_id":"ce4bhch2rcd13ifvqeug","pricing_plan_id":"cebpf4jnsgd1na2vs0mg"},{"bike_id":"48ad2ada-c5f9-43ce-83c7-1d09232e6b48","system_id":"levelo_inurba_marseille","lat":43.26491,"lon":5.39565,"is_reserved":false,"is_disabled":false,"rental_uris":{"android":"levelo://app?vid=48ad2ada-c5f9-43ce-83c7-1d09232e6b48","ios":"levelo://app?vid=48ad2ada-c5f9-43ce-83c7-1d09232e6b48"},"vehicle_type_id":"4","last_reported":1738656757,"current_range_meters":24400,"station_id":"ce4bhi12rcd13ifvqfq0","pricing_plan_id":"cebpf4jnsgd1na2vs0mg"},{"bike_id":"37409d03-63b1-491a-8bef-1c423b9ce1f4","system_id":"levelo_inurba_marseille","lat":43.30787,"lon":5.37642,"is_reserved":false,"is_disabled":false,"rental_uris":{"android":"levelo://app?vid=37409d03-63b1-491a-8bef-1c423b9ce1f4","ios":"levelo://app?vid=37409d03-63b1-491a-8bef-1c423b9ce1f4"},"vehicle_type_id":"4","last_reported":1738656757,"current_range_meters":19600,"station_id":"ce4bgv92rcd13ifvqcq0","pricing_plan_id":"cebpf4jnsgd1na2vs0mg"},{"bike_id":"5875daa5-2b51-4890-86b6-114703e4a4f2","system_id":"levelo_inurba_marseille","lat":43.31108,"lon":5.38027,"is_reserved":false,"is_disabled":false,"rental_uris":{"android":"levelo://app?vid=5875daa5-2b51-4890-86b6-114703e4a4f2","ios":"levelo://app?vid=5875daa5-2b51-4890-86b6-114703e4a4f2"},"vehicle_type_id":"4","last_reported":1738656757,"current_range_meters":11200,"station_id":"","pricing_plan_id":"cebpf4jnsgd1na2vs0mg"},{"bike_id":"17152edd-b1d4-4a46-be84-5f51cb6d3ffc","system_id":"levelo_inurba_marseille","lat":43.29156,"lon":5.37167,"is_reserved":false,"is_disabled":false,"rental_uris":{"android":"levelo://app?vid=17152edd-b1d4-4a46-be84-5f51cb6d3ffc","ios":"levelo://app?vid=17152edd-b1d4-4a46-be84-5f51cb6d3ffc"},"vehicle_type_id":"4","last_reported":1738656757,"current_range_meters":29600,"station_id":"ce4bha92rcd13ifvqeh0","pricing_plan_id":"cebpf4jnsgd1na2vs0mg"},{"bike_id":"8e859a06-524c-46d1-a638-40daa07fbee3","system_id":"levelo_inurba_marseille","lat":43.30587,"lon":5.37239,"is_reserved":false,"is_disabled":false,"rental_uris":{"android":"levelo://app?vid=8e859a06-524c-46d1-a638-40daa07fbee3","ios":"levelo://app?vid=8e859a06-524c-46d1-a638-40daa07fbee3"},"vehicle_type_id":"4","last_reported":1738656757,"current_range_meters":30000,"station_id":"ce4bgqh2rcd13ifvqc4g","pricing_plan_id":"cebpf4jnsgd1na2vs0mg"},{"bike_id":"5056aeb2-6f80-4ea0-9897-dccfd7616052","system_id":"levelo_inurba_marseille","lat":43.29305,"lon":5.37468,"is_reserved":false,"is_disabled":false,"rental_uris":{"android":"levelo://app?vid=5056aeb2-6f80-4ea0-9897-dccfd7616052","ios":"levelo://app?vid=5056aeb2-6f80-4ea0-9897-dccfd7616052"},"vehicle_type_id":"4","last_reported":1738656757,"current_range_meters":25600,"station_id":"ce4bgi12rcd13ifvqb70","pricing_plan_id":"cebpf4jnsgd1na2vs0mg"},{"bike_id":"3ca53271-0e58-4f09-a6c8-ace88698b7a9","system_id":"levelo_inurba_marseille","lat":43.24997,"lon":5.38925,"is_reserved":false,"is_disabled":false,"rental_uris":{"android":"levelo://app?vid=3ca53271-0e58-4f09-a6c8-ace88698b7a9","ios":"levelo://app?vid=3ca53271-0e58-4f09-a6c8-ace88698b7a9"},"vehicle_type_id":"4","last_reported":1738656757,"current_range_meters":26000,"station_id":"ce4bhgp2rcd13ifvqfd0","pricing_plan_id":"cebpf4jnsgd1na2vs0mg"},{"bike_id":"49dfd201-9c9e-4c2d-9035-d7194487066e","system_id":"levelo_inurba_marseille","lat":43.30457,"lon":5.37883,"is_reserved":false,"is_disabled":false,"rental_uris":{"android":"levelo://app?vid=49dfd201-9c9e-4c2d-9035-d7194487066e","ios":"levelo://app?vid=49dfd201-9c9e-4c2d-9035-d7194487066e"},"vehicle_type_id":"4","last_reported":1738656757,"current_range_meters":39200,"station_id":"ce4bgup2rcd13ifvqcn0","pricing_plan_id":"cebpf4jnsgd1na2vs0mg"},{"bike_id":"c28c025b-47c1-4849-b894-a654574e0b27","system_id":"levelo_inurba_marseille","lat":43.28336,"lon":5.38112,"is_reserved":false,"is_disabled":true,"rental_uris":{"android":"levelo://app?vid=c28c025b-47c1-4849-b894-a654574e0b27","ios":"levelo://app?vid=c28c025b-47c1-4849-b894-a654574e0b27"},"vehicle_type_id":"4","last_reported":1738656757,"current_range_meters":400,"station_id":"ce4bh412rcd13ifvqdr0","pricing_plan_id":"cebpf4jnsgd1na2vs0mg"},{"bike_id":"557d0f7c-453d-4c3c-bfcb-ef55e43e5420","system_id":"levelo_inurba_marseille","lat":43.29225,"lon":5.36066,"is_reserved":false,"is_disabled":false,"rental_uris":{"android":"levelo://app?vid=557d0f7c-453d-4c3c-bfcb-ef55e43e5420","ios":"levelo://app?vid=557d0f7c-453d-4c3c-bfcb-ef55e43e5420"},"vehicle_type_id":"4","last_reported":1738656757,"current_range_meters":34800,"station_id":"ce4bhbh2rcd13ifvqeqg","pricing_plan_id":"cebpf4jnsgd1na2vs0mg"},{"bike_id":"48457462-e2e5-4b0c-9657-da77fe2191e8","system_id":"levelo_inurba_marseille","lat":43.30556,"lon":5.36541,"is_reserved":false,"is_disabled":false,"rental_uris":{"android":"levelo://app?vid=48457462-e2e5-4b0c-9657-da77fe2191e8","ios":"levelo://app?vid=48457462-e2e5-4b0c-9657-da77fe2191e8"},"vehicle_type_id":"4","last_reported":1738656757,"current_range_meters":24800,"station_id":"ce4bgs12rcd13ifvqcag","pricing_plan_id":"cebpf4jnsgd1na2vs0mg"},{"bike_id":"786a807b-5d7e-44b6-b6a0-21a7ebd0ff59","system_id":"levelo_inurba_marseille","lat":43.2781,"lon":5.4071,"is_reserved":false,"is_disabled":false,"rental_uris":{"android":"levelo://app?vid=786a807b-5d7e-44b6-b6a0-21a7ebd0ff59","ios":"levelo://app?vid=786a807b-5d7e-44b6-b6a0-21a7ebd0ff59"},"vehicle_type_id":"4","last_reported":1738656757,"current_range_meters":38800,"station_id":"ce4bhnh2rcd13ifvqgtg","pricing_plan_id":"cebpf4jnsgd1na2vs0mg"},{"bike_id":"630dd466-e4dd-4ada-8a39-01e92abf0818","system_id":"levelo_inurba_marseille","lat":43.26183,"lon":5.37454,"is_reserved":false,"is_disabled":false,"rental_uris":{"android":"levelo://app?vid=630dd466-e4dd-4ada-8a39-01e92abf0818","ios":"levelo://app?vid=630dd466-e4dd-4ada-8a39-01e92abf0818"},"vehicle_type_id":"4","last_reported":1738656757,"current_range_meters":34800,"station_id":"ce4bhgp2rcd13ifvqfc0","pricing_plan_id":"cebpf4jnsgd1na2vs0mg"},{"bike_id":"5df9bf08-43fe-4acc-898a-9db2002f38bc","system_id":"levelo_inurba_marseille","lat":43.25871,"lon":5.39888,"is_reserved":false,"is_disabled":true,"rental_uris":{"android":"levelo://app?vid=5df9bf08-43fe-4acc-898a-9db2002f38bc","ios":"levelo://app?vid=5df9bf08-43fe-4acc-898a-9db2002f38bc"},"vehicle_type_id":"4","last_reported":1738656757,"current_range_meters":16400,"station_id":"ce4bhl92rcd13ifvqghg","pricing_plan_id":"cebpf4jnsgd1na2vs0mg"},{"bike_id":"841d7594-6524-4014-8cd2-6a80499cbaa5","system_id":"levelo_inurba_marseille","lat":43.29301,"lon":5.37466,"is_reserved":false,"is_disabled":true,"rental_uris":{"android":"levelo://app?vid=841d7594-6524-4014-8cd2-6a80499cbaa5","ios":"levelo://app?vid=841d7594-6524-4014-8cd2-6a80499cbaa5"},"vehicle_type_id":"4","last_reported":1738656757,"current_range_meters":4000,"station_id":"ce4bgi12rcd13ifvqb70","pricing_plan_id":"cebpf4jnsgd1na2vs0mg"},{"bike_id":"3034d64e-f78e-468c-b4d6-2520a053438f","system_id":"levelo_inurba_marseille","lat":43.23175,"lon":5.40037,"is_reserved":false,"is_disabled":true,"rental_uris":{"android":"levelo://app?vid=3034d64e-f78e-468c-b4d6-2520a053438f","ios":"levelo://app?vid=3034d64e-f78e-468c-b4d6-2520a053438f"},"vehicle_type_id":"4","last_reported":1738656757,"current_range_meters":10000,"station_id":"ce4bhn12rcd13ifvqgqg","pricing_plan_id":"cebpf4jnsgd1na2vs0mg"},{"bike_id":"4d56843c-838b-4099-80e1-081325709750","system_id":"levelo_inurba_marseille","lat":43.29183,"lon":5.35795,"is_reserved":false,"is_disabled":false,"rental_uris":{"android":"levelo://app?vid=4d56843c-838b-4099-80e1-081325709750","ios":"levelo://app?vid=4d56843c-838b-4099-80e1-081325709750"},"vehicle_type_id":"4","last_reported":1738656757,"current_range_meters":38400,"station_id":"ce4bhb12rcd13ifvqel0","pricing_plan_id":"cebpf4jnsgd1na2vs0mg"},{"bike_id":"343ee9fa-65bc-44d7-b41c-f81f2cce2b1a","system_id":"levelo_inurba_marseille","lat":43.23135,"lon":5.43705,"is_reserved":false,"is_disabled":false,"rental_uris":{"android":"levelo://app?vid=343ee9fa-65bc-44d7-b41c-f81f2cce2b1a","ios":"levelo://app?vid=343ee9fa-65bc-44d7-b41c-f81f2cce2b1a"},"vehicle_type_id":"4","last_reported":1738656757,"current_range_meters":12000,"station_id":"ce4bhmp2rcd13ifvqgog","pricing_plan_id":"cebpf4jnsgd1na2vs0mg"},{"bike_id":"7f87d5fc-9445-41df-bd3e-5287cb6adb70","system_id":"levelo_inurba_marseille","lat":43.26808,"lon":5.4026,"is_reserved":false,"is_disabled":false,"rental_uris":{"android":"levelo://app?vid=7f87d5fc-9445-41df-bd3e-5287cb6adb70","ios":"levelo://app?vid=7f87d5fc-9445-41df-bd3e-5287cb6adb70"},"vehicle_type_id":"4","last_reported":1738656757,"current_range_meters":10000,"station_id":"ce501612rcd8frsf0b60","pricing_plan_id":"cebpf4jnsgd1na2vs0mg"},{"bike_id":"9889f64f-961a-4fc8-9d44-bf6f4412f46f","system_id":"levelo_inurba_marseille","lat":43.25932,"lon":5.40914,"is_reserved":false,"is_disabled":false,"rental_uris":{"android":"levelo://app?vid=9889f64f-961a-4fc8-9d44-bf6f4412f46f","ios":"levelo://app?vid=9889f64f-961a-4fc8-9d44-bf6f4412f46f"},"vehicle_type_id":"4","last_reported":1738656757,"current_range_meters":9200,"station_id":"ce4bhm92rcd13ifvqglg","pricing_plan_id":"cebpf4jnsgd1na2vs0mg"},{"bike_id":"76841a95-ebb6-4179-95a8-ce572823cffe","system_id":"levelo_inurba_marseille","lat":43.29811,"lon":5.38084,"is_reserved":false,"is_disabled":false,"rental_uris":{"android":"levelo://app?vid=76841a95-ebb6-4179-95a8-ce572823cffe","ios":"levelo://app?vid=76841a95-ebb6-4179-95a8-ce572823cffe"},"vehicle_type_id":"4","last_reported":1738656757,"current_range_meters":24000,"station_id":"ce4bgip2rcd13ifvqbb0","pricing_plan_id":"cebpf4jnsgd1na2vs0mg"},{"bike_id":"d37751ab-cc21-4a2c-8c36-fb109c15b551","system_id":"levelo_inurba_marseille","lat":43.29223,"lon":5.36101,"is_reserved":false,"is_disabled":false,"rental_uris":{"android":"levelo://app?vid=d37751ab-cc21-4a2c-8c36-fb109c15b551","ios":"levelo://app?vid=d37751ab-cc21-4a2c-8c36-fb109c15b551"},"vehicle_type_id":"4","last_reported":1738656757,"current_range_meters":37600,"station_id":"ce4bhbh2rcd13ifvqeqg","pricing_plan_id":"cebpf4jnsgd1na2vs0mg"},{"bike_id":"942ee348-f601-4816-a32c-40a8d55d3f6b","system_id":"levelo_inurba_marseille","lat":43.337444,"lon":5.374475,"is_reserved":false,"is_disabled":true,"rental_uris":{"android":"levelo://app?vid=942ee348-f601-4816-a32c-40a8d55d3f6b","ios":"levelo://app?vid=942ee348-f601-4816-a32c-40a8d55d3f6b"},"vehicle_type_id":"4","last_reported":1738656757,"current_range_meters":0,"station_id":"","pricing_plan_id":"cebpf4jnsgd1na2vs0mg"},{"bike_id":"a7dc0848-081a-4438-bce6-7e161a91f066","system_id":"levelo_inurba_marseille","lat":43.2816,"lon":5.42668,"is_reserved":false,"is_disabled":false,"rental_uris":{"android":"levelo://app?vid=a7dc0848-081a-4438-bce6-7e161a91f066","ios":"levelo://app?vid=a7dc0848-081a-4438-bce6-7e161a91f066"},"vehicle_type_id":"4","last_reported":1738656757,"current_range_meters":35600,"station_id":"ce4bhnh2rcd13ifvqgug","pricing_plan_id":"cebpf4jnsgd1na2vs0mg"},{"bike_id":"36dc3366-e52e-4f9e-a872-e2d020ed7b6b","system_id":"levelo_inurba_marseille","lat":43.30919,"lon":5.36864,"is_reserved":false,"is_disabled":false,"rental_uris":{"android":"levelo://app?vid=36dc3366-e52e-4f9e-a872-e2d020ed7b6b","ios":"levelo://app?vid=36dc3366-e52e-4f9e-a872-e2d020ed7b6b"},"vehicle_type_id":"4","last_reported":1738656757,"current_range_meters":38000,"station_id":"ce4bgn92rcd13ifvqbvg","pricing_plan_id":"cebpf4jnsgd1na2vs0mg"},{"bike_id":"e6beea85-171c-43b3-b198-c294e670e02a","system_id":"levelo_inurba_marseille","lat":43.266803,"lon":5.382711,"is_reserved":false,"is_disabled":false,"rental_uris":{"android":"levelo://app?vid=e6beea85-171c-43b3-b198-c294e670e02a","ios":"levelo://app?vid=e6beea85-171c-43b3-b198-c294e670e02a"},"vehicle_type_id":"4","last_reported":1738656757,"current_range_meters":17600,"station_id":"ce4bhg92rcd13ifvqf90","pricing_plan_id":"cebpf4jnsgd1na2vs0mg"},{"bike_id":"1a3f5c15-7190-4cd1-869b-6eea5cdc763a","system_id":"levelo_inurba_marseille","lat":43.294133,"lon":5.386251,"is_reserved":false,"is_disabled":false,"rental_uris":{"android":"levelo://app?vid=1a3f5c15-7190-4cd1-869b-6eea5cdc763a","ios":"levelo://app?vid=1a3f5c15-7190-4cd1-869b-6eea5cdc763a"},"vehicle_type_id":"4","last_reported":1738656757,"current_range_meters":28400,"station_id":"ce4bh4p2rcd13ifvqe1g","pricing_plan_id":"cebpf4jnsgd1na2vs0mg"},{"bike_id":"f0b53076-d51d-4c78-be73-c20056d1b4ad","system_id":"levelo_inurba_marseille","lat":43.29981,"lon":5.38512,"is_reserved":false,"is_disabled":false,"rental_uris":{"android":"levelo://app?vid=f0b53076-d51d-4c78-be73-c20056d1b4ad","ios":"levelo://app?vid=f0b53076-d51d-4c78-be73-c20056d1b4ad"},"vehicle_type_id":"4","last_reported":1738656757,"current_range_meters":36400,"station_id":"ce4bgj92rcd13ifvqbd0","pricing_plan_id":"cebpf4jnsgd1na2vs0mg"},{"bike_id":"356d0183-7d80-4eb5-95fe-3d9dd28f8f01","system_id":"levelo_inurba_marseille","lat":43.25001,"lon":5.38935,"is_reserved":false,"is_disabled":false,"rental_uris":{"android":"levelo://app?vid=356d0183-7d80-4eb5-95fe-3d9dd28f8f01","ios":"levelo://app?vid=356d0183-7d80-4eb5-95fe-3d9dd28f8f01"},"vehicle_type_id":"4","last_reported":1738656757,"current_range_meters":6400,"station_id":"ce4bhgp2rcd13ifvqfd0","pricing_plan_id":"cebpf4jnsgd1na2vs0mg"},{"bike_id":"c8bd1d84-2291-473f-ab82-361f165fe1db","system_id":"levelo_inurba_marseille","lat":43.2417,"lon":5.36392,"is_reserved":false,"is_disabled":false,"rental_uris":{"android":"levelo://app?vid=c8bd1d84-2291-473f-ab82-361f165fe1db","ios":"levelo://app?vid=c8bd1d84-2291-473f-ab82-361f165fe1db"},"vehicle_type_id":"4","last_reported":1738656757,"current_range_meters":16400,"station_id":"cpo36qri1sfpv3e86is0","pricing_plan_id":"cebpf4jnsgd1na2vs0mg"},{"bike_id":"da05f112-ffb2-4f41-a3cb-99544f3f7f0e","system_id":"levelo_inurba_marseille","lat":43.30525,"lon":5.36709,"is_reserved":false,"is_disabled":false,"rental_uris":{"android":"levelo://app?vid=da05f112-ffb2-4f41-a3cb-99544f3f7f0e","ios":"levelo://app?vid=da05f112-ffb2-4f41-a3cb-99544f3f7f0e"},"vehicle_type_id":"4","last_reported":1738656757,"current_range_meters":34000,"station_id":"ce4bgrp2rcd13ifvqc9g","pricing_plan_id":"cebpf4jnsgd1na2vs0mg"},{"bike_id":"bb846df9-2969-480a-aed6-edbcf9c326fb","system_id":"levelo_inurba_marseille","lat":43.2481,"lon":5.37461,"is_reserved":false,"is_disabled":false,"rental_uris":{"android":"levelo://app?vid=bb846df9-2969-480a-aed6-edbcf9c326fb","ios":"levelo://app?vid=bb846df9-2969-480a-aed6-edbcf9c326fb"},"vehicle_type_id":"4","last_reported":1738656757,"current_range_meters":26000,"station_id":"ce4bhgh2rcd13ifvqfb0","pricing_plan_id":"cebpf4jnsgd1na2vs0mg"},{"bike_id":"48ebfd2e-3b3a-4da2-a76d-11ff63396ffb","system_id":"levelo_inurba_marseille","lat":43.279913,"lon":5.400048,"is_reserved":false,"is_disabled":true,"rental_uris":{"android":"levelo://app?vid=48ebfd2e-3b3a-4da2-a76d-11ff63396ffb","ios":"levelo://app?vid=48ebfd2e-3b3a-4da2-a76d-11ff63396ffb"},"vehicle_type_id":"4","last_reported":1738656757,"current_range_meters":16800,"station_id":"ce4bho92rcd13ifvqh4g","pricing_plan_id":"cebpf4jnsgd1na2vs0mg"},{"bike_id":"cd07e062-2af1-406e-bcb9-5f1ec4730937","system_id":"levelo_inurba_marseille","lat":43.23062,"lon":5.35496,"is_reserved":false,"is_disabled":false,"rental_uris":{"android":"levelo://app?vid=cd07e062-2af1-406e-bcb9-5f1ec4730937","ios":"levelo://app?vid=cd07e062-2af1-406e-bcb9-5f1ec4730937"},"vehicle_type_id":"4","last_reported":1738656757,"current_range_meters":9200,"station_id":"cpo3342slgdg3j2ifvpg","pricing_plan_id":"cebpf4jnsgd1na2vs0mg"},{"bike_id":"6d93c457-3ddd-4cec-9816-ca38730af33b","system_id":"levelo_inurba_marseille","lat":43.27044,"lon":5.40289,"is_reserved":false,"is_disabled":false,"rental_uris":{"android":"levelo://app?vid=6d93c457-3ddd-4cec-9816-ca38730af33b","ios":"levelo://app?vid=6d93c457-3ddd-4cec-9816-ca38730af33b"},"vehicle_type_id":"4","last_reported":1738656757,"current_range_meters":8000,"station_id":"ce4bhk92rcd13ifvqgc0","pricing_plan_id":"cebpf4jnsgd1na2vs0mg"},{"bike_id":"516f2549-79cf-4297-a0ad-3d3f06a71f80","system_id":"levelo_inurba_marseille","lat":43.3172,"lon":5.4239,"is_reserved":false,"is_disabled":true,"rental_uris":{"android":"levelo://app?vid=516f2549-79cf-4297-a0ad-3d3f06a71f80","ios":"levelo://app?vid=516f2549-79cf-4297-a0ad-3d3f06a71f80"},"vehicle_type_id":"4","last_reported":1738656757,"current_range_meters":4000,"station_id":"ce4bhp92rcd13ifvqhbg","pricing_plan_id":"cebpf4jnsgd1na2vs0mg"},{"bike_id":"9e9e116b-0245-457e-81f0-41dec3dfcb36","system_id":"levelo_inurba_marseille","lat":43.2749,"lon":5.42451,"is_reserved":false,"is_disabled":false,"rental_uris":{"android":"levelo://app?vid=9e9e116b-0245-457e-81f0-41dec3dfcb36","ios":"levelo://app?vid=9e9e116b-0245-457e-81f0-41dec3dfcb36"},"vehicle_type_id":"4","last_reported":1738656757,"current_range_meters":36400,"station_id":"ce4bhn92rcd13ifvqgrg","pricing_plan_id":"cebpf4jnsgd1na2vs0mg"},{"bike_id":"98c8136a-16ae-47fa-a564-d42e7b4dc97e","system_id":"levelo_inurba_marseille","lat":43.30891,"lon":5.39649,"is_reserved":false,"is_disabled":true,"rental_uris":{"android":"levelo://app?vid=98c8136a-16ae-47fa-a564-d42e7b4dc97e","ios":"levelo://app?vid=98c8136a-16ae-47fa-a564-d42e7b4dc97e"},"vehicle_type_id":"4","last_reported":1738656757,"current_range_meters":34000,"station_id":"ce4bh012rcd13ifvqcv0","pricing_plan_id":"cebpf4jnsgd1na2vs0mg"},{"bike_id":"85f0531e-eed8-4026-b7b7-30474a3ea725","system_id":"levelo_inurba_marseille","lat":43.30544,"lon":5.3654,"is_reserved":false,"is_disabled":true,"rental_uris":{"android":"levelo://app?vid=85f0531e-eed8-4026-b7b7-30474a3ea725","ios":"levelo://app?vid=85f0531e-eed8-4026-b7b7-30474a3ea725"},"vehicle_type_id":"4","last_reported":1738656757,"current_range_meters":39200,"station_id":"ce4bgs12rcd13ifvqcag","pricing_plan_id":"cebpf4jnsgd1na2vs0mg"},{"bike_id":"473dc738-2184-4c96-a388-d3c1ef9e6829","system_id":"levelo_inurba_marseille","lat":43.27492,"lon":5.42461,"is_reserved":false,"is_disabled":false,"rental_uris":{"android":"levelo://app?vid=473dc738-2184-4c96-a388-d3c1ef9e6829","ios":"levelo://app?vid=473dc738-2184-4c96-a388-d3c1ef9e6829"},"vehicle_type_id":"4","last_reported":1738656757,"current_range_meters":12800,"station_id":"ce4bhn92rcd13ifvqgrg","pricing_plan_id":"cebpf4jnsgd1na2vs0mg"},{"bike_id":"04c40de0-6b7b-411d-84fc-5236aea28afc","system_id":"levelo_inurba_marseille","lat":43.30908,"lon":5.36856,"is_reserved":false,"is_disabled":false,"rental_uris":{"android":"levelo://app?vid=04c40de0-6b7b-411d-84fc-5236aea28afc","ios":"levelo://app?vid=04c40de0-6b7b-411d-84fc-5236aea28afc"},"vehicle_type_id":"4","last_reported":1738656757,"current_range_meters":4000,"station_id":"ce4bgn92rcd13ifvqbvg","pricing_plan_id":"cebpf4jnsgd1na2vs0mg"},{"bike_id":"330eba4c-e2b6-46ce-93af-c009d482439c","system_id":"levelo_inurba_marseille","lat":43.29626,"lon":5.37726,"is_reserved":false,"is_disabled":false,"rental_uris":{"android":"levelo://app?vid=330eba4c-e2b6-46ce-93af-c009d482439c","ios":"levelo://app?vid=330eba4c-e2b6-46ce-93af-c009d482439c"},"vehicle_type_id":"4","last_reported":1738656757,"current_range_meters":27200,"station_id":"ce4bgi92rcd13ifvqb90","pricing_plan_id":"cebpf4jnsgd1na2vs0mg"},{"bike_id":"15b72a17-6480-4f6d-86fc-355e39e8992c","system_id":"levelo_inurba_marseille","lat":43.27053,"lon":5.40263,"is_reserved":false,"is_disabled":true,"rental_uris":{"android":"levelo://app?vid=15b72a17-6480-4f6d-86fc-355e39e8992c","ios":"levelo://app?vid=15b72a17-6480-4f6d-86fc-355e39e8992c"},"vehicle_type_id":"4","last_reported":1738656757,"current_range_meters":26800,"station_id":"ce4bhk92rcd13ifvqgc0","pricing_plan_id":"cebpf4jnsgd1na2vs0mg"},{"bike_id":"9fbaf56c-7e97-4be7-a9dc-e67668eb6d45","system_id":"levelo_inurba_marseille","lat":43.300967,"lon":5.390733,"is_reserved":false,"is_disabled":false,"rental_uris":{"android":"levelo://app?vid=9fbaf56c-7e97-4be7-a9dc-e67668eb6d45","ios":"levelo://app?vid=9fbaf56c-7e97-4be7-a9dc-e67668eb6d45"},"vehicle_type_id":"4","last_reported":1738656757,"current_range_meters":38800,"station_id":"ce4bh192rcd13ifvqdb0","pricing_plan_id":"cebpf4jnsgd1na2vs0mg"},{"bike_id":"473e7f69-ee4e-4079-b276-de69af6c6a7a","system_id":"levelo_inurba_marseille","lat":43.31495,"lon":5.37306,"is_reserved":false,"is_disabled":false,"rental_uris":{"android":"levelo://app?vid=473e7f69-ee4e-4079-b276-de69af6c6a7a","ios":"levelo://app?vid=473e7f69-ee4e-4079-b276-de69af6c6a7a"},"vehicle_type_id":"4","last_reported":1738656757,"current_range_meters":16800,"station_id":"ce4bgt12rcd13ifvqcd0","pricing_plan_id":"cebpf4jnsgd1na2vs0mg"},{"bike_id":"4aa6a979-835f-4210-a405-64607276413b","system_id":"levelo_inurba_marseille","lat":43.24076,"lon":5.37773,"is_reserved":false,"is_disabled":false,"rental_uris":{"android":"levelo://app?vid=4aa6a979-835f-4210-a405-64607276413b","ios":"levelo://app?vid=4aa6a979-835f-4210-a405-64607276413b"},"vehicle_type_id":"4","last_reported":1738656757,"current_range_meters":38400,"station_id":"ce4bhnp2rcd13ifvqgvg","pricing_plan_id":"cebpf4jnsgd1na2vs0mg"},{"bike_id":"cb360eae-9e0a-4706-ac77-865a26f70022","system_id":"levelo_inurba_marseille","lat":43.23146,"lon":5.43718,"is_reserved":false,"is_disabled":false,"rental_uris":{"android":"levelo://app?vid=cb360eae-9e0a-4706-ac77-865a26f70022","ios":"levelo://app?vid=cb360eae-9e0a-4706-ac77-865a26f70022"},"vehicle_type_id":"4","last_reported":1738656757,"current_range_meters":6800,"station_id":"ce4bhmp2rcd13ifvqgog","pricing_plan_id":"cebpf4jnsgd1na2vs0mg"},{"bike_id":"35798297-b936-47d1-8a98-bfdb50e14c75","system_id":"levelo_inurba_marseille","lat":43.32081,"lon":5.433,"is_reserved":false,"is_disabled":true,"rental_uris":{"android":"levelo://app?vid=35798297-b936-47d1-8a98-bfdb50e14c75","ios":"levelo://app?vid=35798297-b936-47d1-8a98-bfdb50e14c75"},"vehicle_type_id":"4","last_reported":1738656757,"current_range_meters":38000,"station_id":"","pricing_plan_id":"cebpf4jnsgd1na2vs0mg"},{"bike_id":"c3066916-eed2-4635-b496-6709235f4164","system_id":"levelo_inurba_marseille","lat":43.24993,"lon":5.38938,"is_reserved":false,"is_disabled":false,"rental_uris":{"android":"levelo://app?vid=c3066916-eed2-4635-b496-6709235f4164","ios":"levelo://app?vid=c3066916-eed2-4635-b496-6709235f4164"},"vehicle_type_id":"4","last_reported":1738656757,"current_range_meters":14400,"station_id":"ce4bhgp2rcd13ifvqfd0","pricing_plan_id":"cebpf4jnsgd1na2vs0mg"},{"bike_id":"417b228d-71a2-4d40-9514-91dba2be9f7a","system_id":"levelo_inurba_marseille","lat":43.28482,"lon":5.38556,"is_reserved":false,"is_disabled":true,"rental_uris":{"android":"levelo://app?vid=417b228d-71a2-4d40-9514-91dba2be9f7a","ios":"levelo://app?vid=417b228d-71a2-4d40-9514-91dba2be9f7a"},"vehicle_type_id":"4","last_reported":1738656757,"current_range_meters":36800,"station_id":"ce4bh8p2rcd13ifvqeb0","pricing_plan_id":"cebpf4jnsgd1na2vs0mg"},{"bike_id":"e6dc612f-7f56-4634-8aac-2cfefb7b3910","system_id":"levelo_inurba_marseille","lat":43.28266,"lon":5.35059,"is_reserved":false,"is_disabled":true,"rental_uris":{"android":"levelo://app?vid=e6dc612f-7f56-4634-8aac-2cfefb7b3910","ios":"levelo://app?vid=e6dc612f-7f56-4634-8aac-2cfefb7b3910"},"vehicle_type_id":"4","last_reported":1738656757,"current_range_meters":32400,"station_id":"ce4bhbp2rcd13ifvqerg","pricing_plan_id":"cebpf4jnsgd1na2vs0mg"},{"bike_id":"fa48af50-f7f8-463b-8073-011bea7848cf","system_id":"levelo_inurba_marseille","lat":43.26953,"lon":5.40265,"is_reserved":false,"is_disabled":false,"rental_uris":{"android":"levelo://app?vid=fa48af50-f7f8-463b-8073-011bea7848cf","ios":"levelo://app?vid=fa48af50-f7f8-463b-8073-011bea7848cf"},"vehicle_type_id":"4","last_reported":1738656757,"current_range_meters":32800,"station_id":"cjm6bp8fraef2m0cb0m0","pricing_plan_id":"cebpf4jnsgd1na2vs0mg"},{"bike_id":"4d733ec9-15bf-4046-97a4-0956ab830084","system_id":"levelo_inurba_marseille","lat":43.26949,"lon":5.40293,"is_reserved":false,"is_disabled":true,"rental_uris":{"android":"levelo://app?vid=4d733ec9-15bf-4046-97a4-0956ab830084","ios":"levelo://app?vid=4d733ec9-15bf-4046-97a4-0956ab830084"},"vehicle_type_id":"4","last_reported":1738656757,"current_range_meters":10800,"station_id":"cjm6bp8fraef2m0cb0m0","pricing_plan_id":"cebpf4jnsgd1na2vs0mg"},{"bike_id":"bab749bb-d933-48a9-82cb-07f6f36a39e1","system_id":"levelo_inurba_marseille","lat":43.29223,"lon":5.36085,"is_reserved":false,"is_disabled":false,"rental_uris":{"android":"levelo://app?vid=bab749bb-d933-48a9-82cb-07f6f36a39e1","ios":"levelo://app?vid=bab749bb-d933-48a9-82cb-07f6f36a39e1"},"vehicle_type_id":"4","last_reported":1738656757,"current_range_meters":8400,"station_id":"ce4bhbh2rcd13ifvqeqg","pricing_plan_id":"cebpf4jnsgd1na2vs0mg"},{"bike_id":"7bbd1ca9-5cb4-4750-a3f0-60560373cbff","system_id":"levelo_inurba_marseille","lat":43.254919,"lon":5.376494,"is_reserved":false,"is_disabled":false,"rental_uris":{"android":"levelo://app?vid=7bbd1ca9-5cb4-4750-a3f0-60560373cbff","ios":"levelo://app?vid=7bbd1ca9-5cb4-4750-a3f0-60560373cbff"},"vehicle_type_id":"4","last_reported":1738656757,"current_range_meters":36800,"station_id":"ce4bhh12rcd13ifvqff0","pricing_plan_id":"cebpf4jnsgd1na2vs0mg"},{"bike_id":"ee46d164-24d0-4f34-9cc4-5be670b96b79","system_id":"levelo_inurba_marseille","lat":43.30302,"lon":5.39208,"is_reserved":false,"is_disabled":true,"rental_uris":{"android":"levelo://app?vid=ee46d164-24d0-4f34-9cc4-5be670b96b79","ios":"levelo://app?vid=ee46d164-24d0-4f34-9cc4-5be670b96b79"},"vehicle_type_id":"4","last_reported":1738656757,"current_range_meters":3600,"station_id":"ce4bgkh2rcd13ifvqbk0","pricing_plan_id":"cebpf4jnsgd1na2vs0mg"},{"bike_id":"070f0b27-0b2f-4f16-aced-78655828d7b9","system_id":"levelo_inurba_marseille","lat":43.27491,"lon":5.42451,"is_reserved":false,"is_disabled":false,"rental_uris":{"android":"levelo://app?vid=070f0b27-0b2f-4f16-aced-78655828d7b9","ios":"levelo://app?vid=070f0b27-0b2f-4f16-aced-78655828d7b9"},"vehicle_type_id":"4","last_reported":1738656757,"current_range_meters":27600,"station_id":"ce4bhn92rcd13ifvqgrg","pricing_plan_id":"cebpf4jnsgd1na2vs0mg"},{"bike_id":"81a48f08-d4c6-468d-8824-4316dc07ab6d","system_id":"levelo_inurba_marseille","lat":43.27315,"lon":5.39071,"is_reserved":false,"is_disabled":false,"rental_uris":{"android":"levelo://app?vid=81a48f08-d4c6-468d-8824-4316dc07ab6d","ios":"levelo://app?vid=81a48f08-d4c6-468d-8824-4316dc07ab6d"},"vehicle_type_id":"4","last_reported":1738656757,"current_range_meters":39200,"station_id":"ce4bhgp2rcd13ifvqfe0","pricing_plan_id":"cebpf4jnsgd1na2vs0mg"},{"bike_id":"0c5c15e8-0295-4742-9ba3-07d5adfcbe05","system_id":"levelo_inurba_marseille","lat":43.25934,"lon":5.40901,"is_reserved":false,"is_disabled":false,"rental_uris":{"android":"levelo://app?vid=0c5c15e8-0295-4742-9ba3-07d5adfcbe05","ios":"levelo://app?vid=0c5c15e8-0295-4742-9ba3-07d5adfcbe05"},"vehicle_type_id":"4","last_reported":1738656757,"current_range_meters":30400,"station_id":"ce4bhm92rcd13ifvqglg","pricing_plan_id":"cebpf4jnsgd1na2vs0mg"},{"bike_id":"ae50caec-5ecb-4a77-8148-ffb9866043e3","system_id":"levelo_inurba_marseille","lat":43.32326,"lon":5.38934,"is_reserved":false,"is_disabled":false,"rental_uris":{"android":"levelo://app?vid=ae50caec-5ecb-4a77-8148-ffb9866043e3","ios":"levelo://app?vid=ae50caec-5ecb-4a77-8148-ffb9866043e3"},"vehicle_type_id":"4","last_reported":1738656757,"current_range_meters":25600,"station_id":"ce4bhqp2rcd13ifvqhog","pricing_plan_id":"cebpf4jnsgd1na2vs0mg"},{"bike_id":"6bb18b6b-35db-4080-8375-2a2e83c6fc4b","system_id":"levelo_inurba_marseille","lat":43.2315,"lon":5.43721,"is_reserved":false,"is_disabled":true,"rental_uris":{"android":"levelo://app?vid=6bb18b6b-35db-4080-8375-2a2e83c6fc4b","ios":"levelo://app?vid=6bb18b6b-35db-4080-8375-2a2e83c6fc4b"},"vehicle_type_id":"4","last_reported":1738656757,"current_range_meters":38400,"station_id":"ce4bhmp2rcd13ifvqgog","pricing_plan_id":"cebpf4jnsgd1na2vs0mg"},{"bike_id":"008f8599-12bb-45a9-ba7d-3b22638538db","system_id":"levelo_inurba_marseille","lat":43.27974,"lon":5.38751,"is_reserved":false,"is_disabled":false,"rental_uris":{"android":"levelo://app?vid=008f8599-12bb-45a9-ba7d-3b22638538db","ios":"levelo://app?vid=008f8599-12bb-45a9-ba7d-3b22638538db"},"vehicle_type_id":"4","last_reported":1738656757,"current_range_meters":23200,"station_id":"ce4bhg12rcd13ifvqf80","pricing_plan_id":"cebpf4jnsgd1na2vs0mg"},{"bike_id":"752349b0-989f-416f-93e1-78e34c5f1122","system_id":"levelo_inurba_marseille","lat":43.26784,"lon":5.39413,"is_reserved":false,"is_disabled":false,"rental_uris":{"android":"levelo://app?vid=752349b0-989f-416f-93e1-78e34c5f1122","ios":"levelo://app?vid=752349b0-989f-416f-93e1-78e34c5f1122"},"vehicle_type_id":"4","last_reported":1738656757,"current_range_meters":20000,"station_id":"ce4bhh12rcd13ifvqfg0","pricing_plan_id":"cebpf4jnsgd1na2vs0mg"},{"bike_id":"787b7837-f258-4886-bbf5-841ee39c0166","system_id":"levelo_inurba_marseille","lat":43.2827,"lon":5.35094,"is_reserved":false,"is_disabled":true,"rental_uris":{"android":"levelo://app?vid=787b7837-f258-4886-bbf5-841ee39c0166","ios":"levelo://app?vid=787b7837-f258-4886-bbf5-841ee39c0166"},"vehicle_type_id":"4","last_reported":1738656757,"current_range_meters":37600,"station_id":"ce4bhbp2rcd13ifvqerg","pricing_plan_id":"cebpf4jnsgd1na2vs0mg"},{"bike_id":"35e9be92-813b-4a24-804a-34341a2b466d","system_id":"levelo_inurba_marseille","lat":43.26494,"lon":5.39552,"is_reserved":false,"is_disabled":false,"rental_uris":{"android":"levelo://app?vid=35e9be92-813b-4a24-804a-34341a2b466d","ios":"levelo://app?vid=35e9be92-813b-4a24-804a-34341a2b466d"},"vehicle_type_id":"4","last_reported":1738656757,"current_range_meters":38800,"station_id":"ce4bhi12rcd13ifvqfq0","pricing_plan_id":"cebpf4jnsgd1na2vs0mg"},{"bike_id":"2726d875-1d0b-4730-b675-cd20129246db","system_id":"levelo_inurba_marseille","lat":43.25934,"lon":5.40914,"is_reserved":false,"is_disabled":false,"rental_uris":{"android":"levelo://app?vid=2726d875-1d0b-4730-b675-cd20129246db","ios":"levelo://app?vid=2726d875-1d0b-4730-b675-cd20129246db"},"vehicle_type_id":"4","last_reported":1738656757,"current_range_meters":15200,"station_id":"ce4bhm92rcd13ifvqglg","pricing_plan_id":"cebpf4jnsgd1na2vs0mg"},{"bike_id":"bdeea8bd-cd97-4131-bdee-cc2817422b37","system_id":"levelo_inurba_marseille","lat":43.2893,"lon":5.36384,"is_reserved":false,"is_disabled":false,"rental_uris":{"android":"levelo://app?vid=bdeea8bd-cd97-4131-bdee-cc2817422b37","ios":"levelo://app?vid=bdeea8bd-cd97-4131-bdee-cc2817422b37"},"vehicle_type_id":"4","last_reported":1738656757,"current_range_meters":3200,"station_id":"ce4bhc92rcd13ifvqetg","pricing_plan_id":"cebpf4jnsgd1na2vs0mg"},{"bike_id":"d42ab506-242e-49de-93ba-15e047f78824","system_id":"levelo_inurba_marseille","lat":43.29841,"lon":5.3627,"is_reserved":false,"is_disabled":false,"rental_uris":{"android":"levelo://app?vid=d42ab506-242e-49de-93ba-15e047f78824","ios":"levelo://app?vid=d42ab506-242e-49de-93ba-15e047f78824"},"vehicle_type_id":"4","last_reported":1738656757,"current_range_meters":38000,"station_id":"ce4bgpp2rcd13ifvqc3g","pricing_plan_id":"cebpf4jnsgd1na2vs0mg"},{"bike_id":"ec18b12a-8427-47cf-8e4a-de725000bb9a","system_id":"levelo_inurba_marseille","lat":43.30891,"lon":5.37203,"is_reserved":false,"is_disabled":false,"rental_uris":{"android":"levelo://app?vid=ec18b12a-8427-47cf-8e4a-de725000bb9a","ios":"levelo://app?vid=ec18b12a-8427-47cf-8e4a-de725000bb9a"},"vehicle_type_id":"4","last_reported":1738656757,"current_range_meters":32400,"station_id":"ce4bguh2rcd13ifvqckg","pricing_plan_id":"cebpf4jnsgd1na2vs0mg"},{"bike_id":"98c5fa24-0abc-41cc-a36e-b6c167cfaced","system_id":"levelo_inurba_marseille","lat":43.32277,"lon":5.3826,"is_reserved":false,"is_disabled":false,"rental_uris":{"android":"levelo://app?vid=98c5fa24-0abc-41cc-a36e-b6c167cfaced","ios":"levelo://app?vid=98c5fa24-0abc-41cc-a36e-b6c167cfaced"},"vehicle_type_id":"4","last_reported":1738656757,"current_range_meters":30400,"station_id":"ce4bhr12rcd13ifvqhqg","pricing_plan_id":"cebpf4jnsgd1na2vs0mg"},{"bike_id":"d0c5b029-ce01-4b49-8e99-7c83c58f1880","system_id":"levelo_inurba_marseille","lat":43.29671,"lon":5.37284,"is_reserved":false,"is_disabled":false,"rental_uris":{"android":"levelo://app?vid=d0c5b029-ce01-4b49-8e99-7c83c58f1880","ios":"levelo://app?vid=d0c5b029-ce01-4b49-8e99-7c83c58f1880"},"vehicle_type_id":"4","last_reported":1738656757,"current_range_meters":38800,"station_id":"ce4bgk12rcd13ifvqbj0","pricing_plan_id":"cebpf4jnsgd1na2vs0mg"},{"bike_id":"eac8e106-76e0-4f1b-81af-4eaefecd2501","system_id":"levelo_inurba_marseille","lat":43.25007,"lon":5.38919,"is_reserved":false,"is_disabled":false,"rental_uris":{"android":"levelo://app?vid=eac8e106-76e0-4f1b-81af-4eaefecd2501","ios":"levelo://app?vid=eac8e106-76e0-4f1b-81af-4eaefecd2501"},"vehicle_type_id":"4","last_reported":1738656757,"current_range_meters":16800,"station_id":"ce4bhgp2rcd13ifvqfd0","pricing_plan_id":"cebpf4jnsgd1na2vs0mg"},{"bike_id":"17d67310-c3e3-4250-954d-55c08aa602f6","system_id":"levelo_inurba_marseille","lat":43.30505,"lon":5.39764,"is_reserved":false,"is_disabled":false,"rental_uris":{"android":"levelo://app?vid=17d67310-c3e3-4250-954d-55c08aa602f6","ios":"levelo://app?vid=17d67310-c3e3-4250-954d-55c08aa602f6"},"vehicle_type_id":"4","last_reported":1738656757,"current_range_meters":36800,"station_id":"ce4bh092rcd13ifvqd20","pricing_plan_id":"cebpf4jnsgd1na2vs0mg"},{"bike_id":"31fd5316-6699-4a20-a1ec-d33428eaf5e7","system_id":"levelo_inurba_marseille","lat":43.30547,"lon":5.36704,"is_reserved":false,"is_disabled":false,"rental_uris":{"android":"levelo://app?vid=31fd5316-6699-4a20-a1ec-d33428eaf5e7","ios":"levelo://app?vid=31fd5316-6699-4a20-a1ec-d33428eaf5e7"},"vehicle_type_id":"4","last_reported":1738656757,"current_range_meters":27600,"station_id":"ce4bgrp2rcd13ifvqc9g","pricing_plan_id":"cebpf4jnsgd1na2vs0mg"},{"bike_id":"25f2077a-d569-4e6a-93b0-8c971d939cf0","system_id":"levelo_inurba_marseille","lat":43.27055,"lon":5.40283,"is_reserved":false,"is_disabled":false,"rental_uris":{"android":"levelo://app?vid=25f2077a-d569-4e6a-93b0-8c971d939cf0","ios":"levelo://app?vid=25f2077a-d569-4e6a-93b0-8c971d939cf0"},"vehicle_type_id":"4","last_reported":1738656757,"current_range_meters":2800,"station_id":"ce4bhk92rcd13ifvqgc0","pricing_plan_id":"cebpf4jnsgd1na2vs0mg"},{"bike_id":"a3f6364f-8b71-4ce5-8ef1-ff15ed0d2207","system_id":"levelo_inurba_marseille","lat":43.28616,"lon":5.35108,"is_reserved":false,"is_disabled":false,"rental_uris":{"android":"levelo://app?vid=a3f6364f-8b71-4ce5-8ef1-ff15ed0d2207","ios":"levelo://app?vid=a3f6364f-8b71-4ce5-8ef1-ff15ed0d2207"},"vehicle_type_id":"4","last_reported":1738656757,"current_range_meters":38400,"station_id":"ce4bhch2rcd13ifvqeug","pricing_plan_id":"cebpf4jnsgd1na2vs0mg"},{"bike_id":"b772af12-ec89-4b3c-b62a-7a14942b501f","system_id":"levelo_inurba_marseille","lat":43.27374,"lon":5.36257,"is_reserved":false,"is_disabled":false,"rental_uris":{"android":"levelo://app?vid=b772af12-ec89-4b3c-b62a-7a14942b501f","ios":"levelo://app?vid=b772af12-ec89-4b3c-b62a-7a14942b501f"},"vehicle_type_id":"4","last_reported":1738656757,"current_range_meters":38800,"station_id":"ce4bhbh2rcd13ifvqeo0","pricing_plan_id":"cebpf4jnsgd1na2vs0mg"},{"bike_id":"61ceb31b-03f6-4213-9b34-0374ee45b479","system_id":"levelo_inurba_marseille","lat":43.321023,"lon":5.367703,"is_reserved":false,"is_disabled":false,"rental_uris":{"android":"levelo://app?vid=61ceb31b-03f6-4213-9b34-0374ee45b479","ios":"levelo://app?vid=61ceb31b-03f6-4213-9b34-0374ee45b479"},"vehicle_type_id":"4","last_reported":1738656757,"current_range_meters":25200,"station_id":"ce4bhrh2rcd13ifvqhug","pricing_plan_id":"cebpf4jnsgd1na2vs0mg"},{"bike_id":"67e0b101-f1a3-4b4e-9684-12f90f2d31e6","system_id":"levelo_inurba_marseille","lat":43.3015,"lon":5.38088,"is_reserved":false,"is_disabled":false,"rental_uris":{"android":"levelo://app?vid=67e0b101-f1a3-4b4e-9684-12f90f2d31e6","ios":"levelo://app?vid=67e0b101-f1a3-4b4e-9684-12f90f2d31e6"},"vehicle_type_id":"4","last_reported":1738656757,"current_range_meters":38400,"station_id":"ce4bgjp2rcd13ifvqbh0","pricing_plan_id":"cebpf4jnsgd1na2vs0mg"},{"bike_id":"48e64539-c8f0-439b-bcf1-20ae8f537918","system_id":"levelo_inurba_marseille","lat":43.2594,"lon":5.40904,"is_reserved":false,"is_disabled":false,"rental_uris":{"android":"levelo://app?vid=48e64539-c8f0-439b-bcf1-20ae8f537918","ios":"levelo://app?vid=48e64539-c8f0-439b-bcf1-20ae8f537918"},"vehicle_type_id":"4","last_reported":1738656757,"current_range_meters":25600,"station_id":"ce4bhm92rcd13ifvqglg","pricing_plan_id":"cebpf4jnsgd1na2vs0mg"},{"bike_id":"5bc6287f-5ed6-4b7e-a064-4a574b583e66","system_id":"levelo_inurba_marseille","lat":43.30143,"lon":5.37427,"is_reserved":false,"is_disabled":true,"rental_uris":{"android":"levelo://app?vid=5bc6287f-5ed6-4b7e-a064-4a574b583e66","ios":"levelo://app?vid=5bc6287f-5ed6-4b7e-a064-4a574b583e66"},"vehicle_type_id":"4","last_reported":1738656757,"current_range_meters":24400,"station_id":"ce4bgs92rcd13ifvqcc0","pricing_plan_id":"cebpf4jnsgd1na2vs0mg"},{"bike_id":"62f0b809-0a6f-4458-ac5b-021bac916226","system_id":"levelo_inurba_marseille","lat":43.2962,"lon":5.37151,"is_reserved":false,"is_disabled":false,"rental_uris":{"android":"levelo://app?vid=62f0b809-0a6f-4458-ac5b-021bac916226","ios":"levelo://app?vid=62f0b809-0a6f-4458-ac5b-021bac916226"},"vehicle_type_id":"4","last_reported":1738656757,"current_range_meters":20400,"station_id":"ce4bgnh2rcd13ifvqc0g","pricing_plan_id":"cebpf4jnsgd1na2vs0mg"},{"bike_id":"bd8fce10-db60-4637-88ad-07a5a938f039","system_id":"levelo_inurba_marseille","lat":43.28607,"lon":5.3707,"is_reserved":false,"is_disabled":true,"rental_uris":{"android":"levelo://app?vid=bd8fce10-db60-4637-88ad-07a5a938f039","ios":"levelo://app?vid=bd8fce10-db60-4637-88ad-07a5a938f039"},"vehicle_type_id":"4","last_reported":1738656757,"current_range_meters":36400,"station_id":"ce4bht12rcd13ifvqi60","pricing_plan_id":"cebpf4jnsgd1na2vs0mg"},{"bike_id":"aca7f856-95b0-4e97-8a0a-cf9d567272bd","system_id":"levelo_inurba_marseille","lat":43.23048,"lon":5.35515,"is_reserved":false,"is_disabled":false,"rental_uris":{"android":"levelo://app?vid=aca7f856-95b0-4e97-8a0a-cf9d567272bd","ios":"levelo://app?vid=aca7f856-95b0-4e97-8a0a-cf9d567272bd"},"vehicle_type_id":"4","last_reported":1738656757,"current_range_meters":34000,"station_id":"cpo3342slgdg3j2ifvpg","pricing_plan_id":"cebpf4jnsgd1na2vs0mg"},{"bike_id":"9d9e6714-036c-4151-8a5d-515ad00cd54b","system_id":"levelo_inurba_marseille","lat":43.231936,"lon":5.355486,"is_reserved":false,"is_disabled":false,"rental_uris":{"android":"levelo://app?vid=9d9e6714-036c-4151-8a5d-515ad00cd54b","ios":"levelo://app?vid=9d9e6714-036c-4151-8a5d-515ad00cd54b"},"vehicle_type_id":"4","last_reported":1738656757,"current_range_meters":18000,"station_id":"ce4bhu92rcd13ifvqi70","pricing_plan_id":"cebpf4jnsgd1na2vs0mg"},{"bike_id":"ccd879e3-fbb4-4bbd-9c01-d06277293c4b","system_id":"levelo_inurba_marseille","lat":43.26196,"lon":5.37925,"is_reserved":false,"is_disabled":true,"rental_uris":{"android":"levelo://app?vid=ccd879e3-fbb4-4bbd-9c01-d06277293c4b","ios":"levelo://app?vid=ccd879e3-fbb4-4bbd-9c01-d06277293c4b"},"vehicle_type_id":"4","last_reported":1738656757,"current_range_meters":30000,"station_id":"ce4bhjp2rcd13ifvqg90","pricing_plan_id":"cebpf4jnsgd1na2vs0mg"},{"bike_id":"008f607a-5178-4a5b-b713-cf2008351f93","system_id":"levelo_inurba_marseille","lat":43.30933,"lon":5.40158,"is_reserved":false,"is_disabled":false,"rental_uris":{"android":"levelo://app?vid=008f607a-5178-4a5b-b713-cf2008351f93","ios":"levelo://app?vid=008f607a-5178-4a5b-b713-cf2008351f93"},"vehicle_type_id":"4","last_reported":1738656757,"current_range_meters":10800,"station_id":"ce4bgvp2rcd13ifvqct0","pricing_plan_id":"cebpf4jnsgd1na2vs0mg"},{"bike_id":"460e31ef-521b-4ce9-baa3-86b5aeba1bc5","system_id":"levelo_inurba_marseille","lat":43.295873,"lon":5.375108,"is_reserved":false,"is_disabled":false,"rental_uris":{"android":"levelo://app?vid=460e31ef-521b-4ce9-baa3-86b5aeba1bc5","ios":"levelo://app?vid=460e31ef-521b-4ce9-baa3-86b5aeba1bc5"},"vehicle_type_id":"4","last_reported":1738656757,"current_range_meters":16000,"station_id":"ce4bgh92rcd13ifvqb50","pricing_plan_id":"cebpf4jnsgd1na2vs0mg"},{"bike_id":"40bdcfb2-751b-4558-b6d4-3ac74ace0aab","system_id":"levelo_inurba_marseille","lat":43.32114,"lon":5.36795,"is_reserved":false,"is_disabled":true,"rental_uris":{"android":"levelo://app?vid=40bdcfb2-751b-4558-b6d4-3ac74ace0aab","ios":"levelo://app?vid=40bdcfb2-751b-4558-b6d4-3ac74ace0aab"},"vehicle_type_id":"4","last_reported":1738656757,"current_range_meters":32000,"station_id":"ce4bhrh2rcd13ifvqhug","pricing_plan_id":"cebpf4jnsgd1na2vs0mg"},{"bike_id":"0dfb61a9-4673-401e-bfb4-e8e9b30d9f64","system_id":"levelo_inurba_marseille","lat":43.30143,"lon":5.3989,"is_reserved":false,"is_disabled":true,"rental_uris":{"android":"levelo://app?vid=0dfb61a9-4673-401e-bfb4-e8e9b30d9f64","ios":"levelo://app?vid=0dfb61a9-4673-401e-bfb4-e8e9b30d9f64"},"vehicle_type_id":"4","last_reported":1738656757,"current_range_meters":37600,"station_id":"ce4bh0h2rcd13ifvqd40","pricing_plan_id":"cebpf4jnsgd1na2vs0mg"},{"bike_id":"d1f73a6e-4a72-4ba1-ace0-3d4a39f9f484","system_id":"levelo_inurba_marseille","lat":43.30353,"lon":5.41901,"is_reserved":false,"is_disabled":true,"rental_uris":{"android":"levelo://app?vid=d1f73a6e-4a72-4ba1-ace0-3d4a39f9f484","ios":"levelo://app?vid=d1f73a6e-4a72-4ba1-ace0-3d4a39f9f484"},"vehicle_type_id":"4","last_reported":1738656757,"current_range_meters":35200,"station_id":"ce4bhop2rcd13ifvqh7g","pricing_plan_id":"cebpf4jnsgd1na2vs0mg"},{"bike_id":"483b7b5c-21d2-4032-a869-8ee330a26a01","system_id":"levelo_inurba_marseille","lat":43.29591,"lon":5.37532,"is_reserved":false,"is_disabled":false,"rental_uris":{"android":"levelo://app?vid=483b7b5c-21d2-4032-a869-8ee330a26a01","ios":"levelo://app?vid=483b7b5c-21d2-4032-a869-8ee330a26a01"},"vehicle_type_id":"4","last_reported":1738656757,"current_range_meters":36000,"station_id":"ce4bgh92rcd13ifvqb50","pricing_plan_id":"cebpf4jnsgd1na2vs0mg"},{"bike_id":"c8305409-d5db-4ffe-82e3-891657542624","system_id":"levelo_inurba_marseille","lat":43.28938,"lon":5.36377,"is_reserved":false,"is_disabled":false,"rental_uris":{"android":"levelo://app?vid=c8305409-d5db-4ffe-82e3-891657542624","ios":"levelo://app?vid=c8305409-d5db-4ffe-82e3-891657542624"},"vehicle_type_id":"4","last_reported":1738656757,"current_range_meters":12400,"station_id":"ce4bhc92rcd13ifvqetg","pricing_plan_id":"cebpf4jnsgd1na2vs0mg"},{"bike_id":"aaabeea2-2808-47e0-965f-96d0c83f5744","system_id":"levelo_inurba_marseille","lat":43.30972,"lon":5.39037,"is_reserved":false,"is_disabled":false,"rental_uris":{"android":"levelo://app?vid=aaabeea2-2808-47e0-965f-96d0c83f5744","ios":"levelo://app?vid=aaabeea2-2808-47e0-965f-96d0c83f5744"},"vehicle_type_id":"4","last_reported":1738656757,"current_range_meters":30400,"station_id":"ce4bgup2rcd13ifvqco0","pricing_plan_id":"cebpf4jnsgd1na2vs0mg"},{"bike_id":"4f0d7afb-7919-4d92-a699-5b52ab930452","system_id":"levelo_inurba_marseille","lat":43.25829,"lon":5.39442,"is_reserved":false,"is_disabled":false,"rental_uris":{"android":"levelo://app?vid=4f0d7afb-7919-4d92-a699-5b52ab930452","ios":"levelo://app?vid=4f0d7afb-7919-4d92-a699-5b52ab930452"},"vehicle_type_id":"4","last_reported":1738656757,"current_range_meters":38000,"station_id":"ce4bhip2rcd13ifvqft0","pricing_plan_id":"cebpf4jnsgd1na2vs0mg"},{"bike_id":"2fda3f26-ae2d-4248-910e-026a01457f54","system_id":"levelo_inurba_marseille","lat":43.284108,"lon":5.375154,"is_reserved":false,"is_disabled":false,"rental_uris":{"android":"levelo://app?vid=2fda3f26-ae2d-4248-910e-026a01457f54","ios":"levelo://app?vid=2fda3f26-ae2d-4248-910e-026a01457f54"},"vehicle_type_id":"4","last_reported":1738656757,"current_range_meters":16000,"station_id":"ce4bh412rcd13ifvqds0","pricing_plan_id":"cebpf4jnsgd1na2vs0mg"},{"bike_id":"7b39ed00-86df-4303-bda1-bfc0fee1e7e2","system_id":"levelo_inurba_marseille","lat":43.32453,"lon":5.45544,"is_reserved":false,"is_disabled":false,"rental_uris":{"android":"levelo://app?vid=7b39ed00-86df-4303-bda1-bfc0fee1e7e2","ios":"levelo://app?vid=7b39ed00-86df-4303-bda1-bfc0fee1e7e2"},"vehicle_type_id":"4","last_reported":1738656757,"current_range_meters":25200,"station_id":"","pricing_plan_id":"cebpf4jnsgd1na2vs0mg"},