{"last_updated":1730218298,"ttl":60,"version":"2.2","data":{"bikes":[{"bike_id":"6daefb7d-890b-4927-bca4-1e9b57c2727d","system_id":"levelo_inurba_marseille","lat":43.27179,"lon":5.40996,"is_reserved":false,"is_disabled":false,"rental_uris":{"android":"levelo://app?vid=6daefb7d-890b-4927-bca4-1e9b57c2727d","ios":"levelo://app?vid=6daefb7d-890b-4927-bca4-1e9b57c2727d"},"vehicle_type_id":"4","last_reported":1730218299,"current_range_meters":6800,"station_id":"ce4bhl12rcd13ifvqgf0","pricing_plan_id":"cebpf4jnsgd1na2vs0mg"},{"bike_id":"e6951a8d-6fc4-496a-baed-f0a6c74b3547","system_id":"levelo_inurba_marseille","lat":43.26196,"lon":5.37442,"is_reserved":false,"is_disabled":false,"rental_uris":{"android":"levelo://app?vid=e6951a8d-6fc4-496a-baed-f0a6c74b3547","ios":"levelo://app?vid=e6951a8d-6fc4-496a-baed-f0a6c74b3547"},"vehicle_type_id":"4","last_reported":1730218299,"current_range_meters":10000,"station_id":"ce4bh492rcd13ifvqdug","pricing_plan_id":"cebpf4jnsgd1na2vs0mg"},{"bike_id":"7728c6cd-92bf-48f0-9848-309e67c38641","system_id":"levelo_inurba_marseille","lat":43.32287,"lon":5.38286,"is_reserved":false,"is_disabled":false,"rental_uris":{"android":"levelo://app?vid=7728c6cd-92bf-48f0-9848-309e67c38641","ios":"levelo://app?vid=7728c6cd-92bf-48f0-9848-309e67c38641"},"vehicle_type_id":"4","last_reported":1730218299,"current_range_meters":38800,"station_id":"ce4bhr12rcd13ifvqhqg","pricing_plan_id":"cebpf4jnsgd1na2vs0mg"},{"bike_id":"9cd28ed1-51d4-469f-80b1-db1aa7224fd9","system_id":"levelo_inurba_marseille","lat":43.31885,"lon":5.40753,"is_reserved":false,"is_disabled":false,"rental_uris":{"android":"levelo://app?vid=9cd28ed1-51d4-469f-80b1-db1aa7224fd9","ios":"levelo://app?vid=9cd28ed1-51d4-469f-80b1-db1aa7224fd9"},"vehicle_type_id":"4","last_reported":1730218299,"current_range_meters":34000,"station_id":"ce4bhq12rcd13ifvqhig","pricing_plan_id":"cebpf4jnsgd1na2vs0mg"},{"bike_id":"969efca5-0824-464c-ae56-b5091666896f","system_id":"levelo_inurba_marseille","lat":43.29068,"lon":5.37156,"is_reserved":false,"is_disabled":false,"rental_uris":{"android":"levelo://app?vid=969efca5-0824-464c-ae56-b5091666896f","ios":"levelo://app?vid=969efca5-0824-464c-ae56-b5091666896f"},"vehicle_type_id":"4","last_reported":1730218299,"current_range_meters":30800,"station_id":"ce4bh5p2rcd13ifvqe4g","pricing_plan_id":"cebpf4jnsgd1na2vs0mg"},{"bike_id":"db74ef22-49e5-48d4-aa27-7887ca84fc31","system_id":"levelo_inurba_marseille","lat":43.29548,"lon":5.38564,"is_reserved":false,"is_disabled":false,"rental_uris":{"android":"levelo://app?vid=db74ef22-49e5-48d4-aa27-7887ca84fc31","ios":"levelo://app?vid=db74ef22-49e5-48d4-aa27-7887ca84fc31"},"vehicle_type_id":"4","last_reported":1730218299,"current_range_meters":37600,"station_id":"ce4bh2h2rcd13ifvqdh0","pricing_plan_id":"cebpf4jnsgd1na2vs0mg"},{"bike_id":"4efc610e-02b4-467c-acf9-9ee68f6b7bf5","system_id":"levelo_inurba_marseille","lat":43.23194,"lon":5.35549,"is_reserved":false,"is_disabled":false,"rental_uris":{"android":"levelo://app?vid=4efc610e-02b4-467c-acf9-9ee68f6b7bf5","ios":"levelo://app?vid=4efc610e-02b4-467c-acf9-9ee68f6b7bf5"},"vehicle_type_id":"4","last_reported":1730218299,"current_range_meters":40000,"station_id":"ce4bhu92rcd13ifvqi70","pricing_plan_id":"cebpf4jnsgd1na2vs0mg"},{"bike_id":"20e3fade-aa0a-44b5-a481-8fe8d952b99a","system_id":"levelo_inurba_marseille","lat":43.29709,"lon":5.36622,"is_reserved":false,"is_disabled":false,"rental_uris":{"android":"levelo://app?vid=20e3fade-aa0a-44b5-a481-8fe8d952b99a","ios":"levelo://app?vid=20e3fade-aa0a-44b5-a481-8fe8d952b99a"},"vehicle_type_id":"4","last_reported":1730218299,"current_range_meters":24000,"station_id":"ce4bgn12rcd13ifvqbt0","pricing_plan_id":"cebpf4jnsgd1na2vs0mg"},{"bike_id":"960d455d-56ea-41f6-9c69-d1294353e87b","system_id":"levelo_inurba_marseille","lat":43.32481,"lon":5.3657,"is_reserved":false,"is_disabled":false,"rental_uris":{"android":"levelo://app?vid=960d455d-56ea-41f6-9c69-d1294353e87b","ios":"levelo://app?vid=960d455d-56ea-41f6-9c69-d1294353e87b"},"vehicle_type_id":"4","last_reported":1730218299,"current_range_meters":28400,"station_id":"ce4bhs12rcd13ifvqhvg","pricing_plan_id":"cebpf4jnsgd1na2vs0mg"},{"bike_id":"14f5f195-09a8-4d63-9e89-720e4754fc70","system_id":"levelo_inurba_marseille","lat":43.33021,"lon":5.3904,"is_reserved":false,"is_disabled":false,"rental_uris":{"android":"levelo://app?vid=14f5f195-09a8-4d63-9e89-720e4754fc70","ios":"levelo://app?vid=14f5f195-09a8-4d63-9e89-720e4754fc70"},"vehicle_type_id":"4","last_reported":1730218299,"current_range_meters":38800,"station_id":"ce4bhr92rcd13ifvqhrg","pricing_plan_id":"cebpf4jnsgd1na2vs0mg"},{"bike_id":"c0a75ca5-c291-48e9-b7bd-7495ba67ae98","system_id":"levelo_inurba_marseille","lat":43.25004,"lon":5.38924,"is_reserved":false,"is_disabled":false,"rental_uris":{"android":"levelo://app?vid=c0a75ca5-c291-48e9-b7bd-7495ba67ae98","ios":"levelo://app?vid=c0a75ca5-c291-48e9-b7bd-7495ba67ae98"},"vehicle_type_id":"4","last_reported":1730218299,"current_range_meters":5600,"station_id":"ce4bhgp2rcd13ifvqfd0","pricing_plan_id":"cebpf4jnsgd1na2vs0mg"},{"bike_id":"9394403d-2ea5-4798-92ec-d77690d61a5b","system_id":"levelo_inurba_marseille","lat":43.29703,"lon":5.36618,"is_reserved":false,"is_disabled":false,"rental_uris":{"android":"levelo://app?vid=9394403d-2ea5-4798-92ec-d77690d61a5b","ios":"levelo://app?vid=9394403d-2ea5-4798-92ec-d77690d61a5b"},"vehicle_type_id":"4","last_reported":1730218299,"current_range_meters":10000,"station_id":"ce4bgn12rcd13ifvqbt0","pricing_plan_id":"cebpf4jnsgd1na2vs0mg"},{"bike_id":"88ce7e88-25c4-420d-96c1-bc92241aae4f","system_id":"levelo_inurba_marseille","lat":43.28039,"lon":5.36946,"is_reserved":false,"is_disabled":false,"rental_uris":{"android":"levelo://app?vid=88ce7e88-25c4-420d-96c1-bc92241aae4f","ios":"levelo://app?vid=88ce7e88-25c4-420d-96c1-bc92241aae4f"},"vehicle_type_id":"4","last_reported":1730218299,"current_range_meters":22400,"station_id":"ce4bha12rcd13ifvqef0","pricing_plan_id":"cebpf4jnsgd1na2vs0mg"},{"bike_id":"d8345d1e-36d0-463c-aadb-d17da6d61802","system_id":"levelo_inurba_marseille","lat":43.26566,"lon":5.39005,"is_reserved":false,"is_disabled":false,"rental_uris":{"android":"levelo://app?vid=d8345d1e-36d0-463c-aadb-d17da6d61802","ios":"levelo://app?vid=d8345d1e-36d0-463c-aadb-d17da6d61802"},"vehicle_type_id":"4","last_reported":1730218299,"current_range_meters":35200,"station_id":"ce4bhe12rcd13ifvqf30","pricing_plan_id":"cebpf4jnsgd1na2vs0mg"},{"bike_id":"2ab02868-2ca9-408f-b8c2-0fbba908f8be","system_id":"levelo_inurba_marseille","lat":43.27372,"lon":5.36271,"is_reserved":false,"is_disabled":false,"rental_uris":{"android":"levelo://app?vid=2ab02868-2ca9-408f-b8c2-0fbba908f8be","ios":"levelo://app?vid=2ab02868-2ca9-408f-b8c2-0fbba908f8be"},"vehicle_type_id":"4","last_reported":1730218299,"current_range_meters":28800,"station_id":"ce4bhbh2rcd13ifvqeo0","pricing_plan_id":"cebpf4jnsgd1na2vs0mg"},{"bike_id":"94f08dc5-f9cf-426a-8416-f5114492ac69","system_id":"levelo_inurba_marseille","lat":43.24658,"lon":5.38167,"is_reserved":false,"is_disabled":false,"rental_uris":{"android":"levelo://app?vid=94f08dc5-f9cf-426a-8416-f5114492ac69","ios":"levelo://app?vid=94f08dc5-f9cf-426a-8416-f5114492ac69"},"vehicle_type_id":"4","last_reported":1730218299,"current_range_meters":21600,"station_id":"ce4bhih2rcd13ifvqfr0","pricing_plan_id":"cebpf4jnsgd1na2vs0mg"},{"bike_id":"d3fc3e25-0443-442b-bfbf-2fab20b6ae0a","system_id":"levelo_inurba_marseille","lat":43.27055,"lon":5.40257,"is_reserved":false,"is_disabled":false,"rental_uris":{"android":"levelo://app?vid=d3fc3e25-0443-442b-bfbf-2fab20b6ae0a","ios":"levelo://app?vid=d3fc3e25-0443-442b-bfbf-2fab20b6ae0a"},"vehicle_type_id":"4","last_reported":1730218299,"current_range_meters":36000,"station_id":"ce4bhk92rcd13ifvqgc0","pricing_plan_id":"cebpf4jnsgd1na2vs0mg"},{"bike_id":"8897d205-66a5-4afc-b22b-cefc8ff949a9","system_id":"levelo_inurba_marseille","lat":43.28405,"lon":5.34995,"is_reserved":false,"is_disabled":false,"rental_uris":{"android":"levelo://app?vid=8897d205-66a5-4afc-b22b-cefc8ff949a9","ios":"levelo://app?vid=8897d205-66a5-4afc-b22b-cefc8ff949a9"},"vehicle_type_id":"4","last_reported":1730218299,"current_range_meters":38800,"station_id":"ce4bhbh2rcd13ifvqepg","pricing_plan_id":"cebpf4jnsgd1na2vs0mg"},{"bike_id":"202fad19-a7ec-44cc-8f11-3ef2dd1cdd83","system_id":"levelo_inurba_marseille","lat":43.29272,"lon":5.36842,"is_reserved":false,"is_disabled":false,"rental_uris":{"android":"levelo://app?vid=202fad19-a7ec-44cc-8f11-3ef2dd1cdd83","ios":"levelo://app?vid=202fad19-a7ec-44cc-8f11-3ef2dd1cdd83"},"vehicle_type_id":"4","last_reported":1730218299,"current_range_meters":36400,"station_id":"ce4bhbp2rcd13ifvqesg","pricing_plan_id":"cebpf4jnsgd1na2vs0mg"},{"bike_id":"70bb78fe-4bef-4d56-a833-affc0bdfc9f3","system_id":"levelo_inurba_marseille","lat":43.23193,"lon":5.35558,"is_reserved":false,"is_disabled":false,"rental_uris":{"android":"levelo://app?vid=70bb78fe-4bef-4d56-a833-affc0bdfc9f3","ios":"levelo://app?vid=70bb78fe-4bef-4d56-a833-affc0bdfc9f3"},"vehicle_type_id":"4","last_reported":1730218299,"current_range_meters":38800,"station_id":"ce4bhu92rcd13ifvqi70","pricing_plan_id":"cebpf4jnsgd1na2vs0mg"},{"bike_id":"40111601-2eb3-4dcf-bb36-a6c99d382e54","system_id":"levelo_inurba_marseille","lat":43.25824,"lon":5.39442,"is_reserved":false,"is_disabled":false,"rental_uris":{"android":"levelo://app?vid=40111601-2eb3-4dcf-bb36-a6c99d382e54","ios":"levelo://app?vid=40111601-2eb3-4dcf-bb36-a6c99d382e54"},"vehicle_type_id":"4","last_reported":1730218299,"current_range_meters":6800,"station_id":"ce4bhip2rcd13ifvqft0","pricing_plan_id":"cebpf4jnsgd1na2vs0mg"},{"bike_id":"d302301f-8b32-420e-b4ae-aa19589fe609","system_id":"levelo_inurba_marseille","lat":43.26789,"lon":5.39416,"is_reserved":false,"is_disabled":false,"rental_uris":{"android":"levelo://app?vid=d302301f-8b32-420e-b4ae-aa19589fe609","ios":"levelo://app?vid=d302301f-8b32-420e-b4ae-aa19589fe609"},"vehicle_type_id":"4","last_reported":1730218299,"current_range_meters":3600,"station_id":"ce4bhh12rcd13ifvqfg0","pricing_plan_id":"cebpf4jnsgd1na2vs0mg"},{"bike_id":"f65b158c-f93c-4b00-9eda-014bab0fd168","system_id":"levelo_inurba_marseille","lat":43.290243,"lon":5.386079,"is_reserved":false,"is_disabled":false,"rental_uris":{"android":"levelo://app?vid=f65b158c-f93c-4b00-9eda-014bab0fd168","ios":"levelo://app?vid=f65b158c-f93c-4b00-9eda-014bab0fd168"},"vehicle_type_id":"4","last_reported":1730218299,"current_range_meters":28800,"station_id":"ce4bh0h2rcd13ifvqd40","pricing_plan_id":"cebpf4jnsgd1na2vs0mg"},{"bike_id":"330cc5f1-bd93-46bf-afc4-12b21cb5c9b1","system_id":"levelo_inurba_marseille","lat":43.24546,"lon":5.39528,"is_reserved":false,"is_disabled":false,"rental_uris":{"android":"levelo://app?vid=330cc5f1-bd93-46bf-afc4-12b21cb5c9b1","ios":"levelo://app?vid=330cc5f1-bd93-46bf-afc4-12b21cb5c9b1"},"vehicle_type_id":"4","last_reported":1730218299,"current_range_meters":19200,"station_id":"ce4bhlp2rcd13ifvqgjg","pricing_plan_id":"cebpf4jnsgd1na2vs0mg"},{"bike_id":"7ab5bc4e-f7c4-4df0-9e7c-3e7db2e4fd41","system_id":"levelo_inurba_marseille","lat":43.30147,"lon":5.38076,"is_reserved":false,"is_disabled":false,"rental_uris":{"android":"levelo://app?vid=7ab5bc4e-f7c4-4df0-9e7c-3e7db2e4fd41","ios":"levelo://app?vid=7ab5bc4e-f7c4-4df0-9e7c-3e7db2e4fd41"},"vehicle_type_id":"4","last_reported":1730218299,"current_range_meters":29600,"station_id":"ce4bgjp2rcd13ifvqbh0","pricing_plan_id":"cebpf4jnsgd1na2vs0mg"},{"bike_id":"2dc84c40-d154-4a82-bc6e-96de7b996581","system_id":"levelo_inurba_marseille","lat":43.28934,"lon":5.3839,"is_reserved":false,"is_disabled":false,"rental_uris":{"android":"levelo://app?vid=2dc84c40-d154-4a82-bc6e-96de7b996581","ios":"levelo://app?vid=2dc84c40-d154-4a82-bc6e-96de7b996581"},"vehicle_type_id":"4","last_reported":1730218299,"current_range_meters":8400,"station_id":"ce4bh612rcd13ifvqe6g","pricing_plan_id":"cebpf4jnsgd1na2vs0mg"},{"bike_id":"2d9bc695-c62e-46fa-a994-6c804a6d7dc0","system_id":"levelo_inurba_marseille","lat":43.27914,"lon":5.39583,"is_reserved":false,"is_disabled":false,"rental_uris":{"android":"levelo://app?vid=2d9bc695-c62e-46fa-a994-6c804a6d7dc0","ios":"levelo://app?vid=2d9bc695-c62e-46fa-a994-6c804a6d7dc0"},"vehicle_type_id":"4","last_reported":1730218299,"current_range_meters":16400,"station_id":"ce4bhf92rcd13ifvqf40","pricing_plan_id":"cebpf4jnsgd1na2vs0mg"},{"bike_id":"84f776d9-08d4-4f83-82bd-4fc265ac8c79","system_id":"levelo_inurba_marseille","lat":43.25829,"lon":5.39447,"is_reserved":false,"is_disabled":false,"rental_uris":{"android":"levelo://app?vid=84f776d9-08d4-4f83-82bd-4fc265ac8c79","ios":"levelo://app?vid=84f776d9-08d4-4f83-82bd-4fc265ac8c79"},"vehicle_type_id":"4","last_reported":1730218299,"current_range_meters":16000,"station_id":"ce4bhip2rcd13ifvqft0","pricing_plan_id":"cebpf4jnsgd1na2vs0mg"},{"bike_id":"1c36e968-b9ec-4e4e-a73e-52f85b4ded24","system_id":"levelo_inurba_marseille","lat":43.27179,"lon":5.40995,"is_reserved":false,"is_disabled":false,"rental_uris":{"android":"levelo://app?vid=1c36e968-b9ec-4e4e-a73e-52f85b4ded24","ios":"levelo://app?vid=1c36e968-b9ec-4e4e-a73e-52f85b4ded24"},"vehicle_type_id":"4","last_reported":1730218299,"current_range_meters":14800,"station_id":"ce4bhl12rcd13ifvqgf0","pricing_plan_id":"cebpf4jnsgd1na2vs0mg"},{"bike_id":"6f544d1a-9b5f-4ccb-9e0e-067277a2a766","system_id":"levelo_inurba_marseille","lat":43.28253,"lon":5.35068,"is_reserved":false,"is_disabled":false,"rental_uris":{"android":"levelo://app?vid=6f544d1a-9b5f-4ccb-9e0e-067277a2a766","ios":"levelo://app?vid=6f544d1a-9b5f-4ccb-9e0e-067277a2a766"},"vehicle_type_id":"4","last_reported":1730218299,"current_range_meters":37600,"station_id":"ce4bhbp2rcd13ifvqerg","pricing_plan_id":"cebpf4jnsgd1na2vs0mg"},{"bike_id":"92adf987-4779-4b78-ad9c-8e29ab9175f3","system_id":"levelo_inurba_marseille","lat":43.23187,"lon":5.35557,"is_reserved":false,"is_disabled":false,"rental_uris":{"android":"levelo://app?vid=92adf987-4779-4b78-ad9c-8e29ab9175f3","ios":"levelo://app?vid=92adf987-4779-4b78-ad9c-8e29ab9175f3"},"vehicle_type_id":"4","last_reported":1730218299,"current_range_meters":18000,"station_id":"ce4bhu92rcd13ifvqi70","pricing_plan_id":"cebpf4jnsgd1na2vs0mg"},{"bike_id":"261700ee-aabe-4a42-8d1e-f2316ad1baa8","system_id":"levelo_inurba_marseille","lat":43.28104,"lon":5.37842,"is_reserved":false,"is_disabled":false,"rental_uris":{"android":"levelo://app?vid=261700ee-aabe-4a42-8d1e-f2316ad1baa8","ios":"levelo://app?vid=261700ee-aabe-4a42-8d1e-f2316ad1baa8"},"vehicle_type_id":"4","last_reported":1730218299,"current_range_meters":38400,"station_id":"ce4bha12rcd13ifvqee0","pricing_plan_id":"cebpf4jnsgd1na2vs0mg"},{"bike_id":"5486b7b8-b852-43ff-b5de-6482f81c010b","system_id":"levelo_inurba_marseille","lat":43.26571,"lon":5.39001,"is_reserved":false,"is_disabled":false,"rental_uris":{"android":"levelo://app?vid=5486b7b8-b852-43ff-b5de-6482f81c010b","ios":"levelo://app?vid=5486b7b8-b852-43ff-b5de-6482f81c010b"},"vehicle_type_id":"4","last_reported":1730218299,"current_range_meters":11600,"station_id":"ce4bhe12rcd13ifvqf30","pricing_plan_id":"cebpf4jnsgd1na2vs0mg"},{"bike_id":"d1ef263a-d9a8-4b8b-b3a7-cb8ca46bc41b","system_id":"levelo_inurba_marseille","lat":43.27568,"lon":5.38435,"is_reserved":false,"is_disabled":false,"rental_uris":{"android":"levelo://app?vid=d1ef263a-d9a8-4b8b-b3a7-cb8ca46bc41b","ios":"levelo://app?vid=d1ef263a-d9a8-4b8b-b3a7-cb8ca46bc41b"},"vehicle_type_id":"4","last_reported":1730218299,"current_range_meters":39200,"station_id":"ce4bhh92rcd13ifvqfi0","pricing_plan_id":"cebpf4jnsgd1na2vs0mg"},{"bike_id":"bdd4b560-7456-474a-8d43-7d179515bc00","system_id":"levelo_inurba_marseille","lat":43.33755,"lon":5.37471,"is_reserved":false,"is_disabled":false,"rental_uris":{"android":"levelo://app?vid=bdd4b560-7456-474a-8d43-7d179515bc00","ios":"levelo://app?vid=bdd4b560-7456-474a-8d43-7d179515bc00"},"vehicle_type_id":"4","last_reported":1730218299,"current_range_meters":38000,"station_id":"","pricing_plan_id":"cebpf4jnsgd1na2vs0mg"},{"bike_id":"6ba743b2-c836-4adf-afb7-01e2673b8646","system_id":"levelo_inurba_marseille","lat":43.23149,"lon":5.43717,"is_reserved":false,"is_disabled":false,"rental_uris":{"android":"levelo://app?vid=6ba743b2-c836-4adf-afb7-01e2673b8646","ios":"levelo://app?vid=6ba743b2-c836-4adf-afb7-01e2673b8646"},"vehicle_type_id":"4","last_reported":1730218299,"current_range_meters":5600,"station_id":"ce4bhmp2rcd13ifvqgog","pricing_plan_id":"cebpf4jnsgd1na2vs0mg"},{"bike_id":"5e15f001-efcf-47a0-8cea-20e462f00e05","system_id":"levelo_inurba_marseille","lat":43.26938,"lon":5.38931,"is_reserved":false,"is_disabled":false,"rental_uris":{"android":"levelo://app?vid=5e15f001-efcf-47a0-8cea-20e462f00e05","ios":"levelo://app?vid=5e15f001-efcf-47a0-8cea-20e462f00e05"},"vehicle_type_id":"4","last_reported":1730218299,"current_range_meters":8000,"station_id":"ce4bhhh2rcd13ifvqfl0","pricing_plan_id":"cebpf4jnsgd1na2vs0mg"},{"bike_id":"f0a0ce64-f4f2-4e80-9cc4-9f36a004f84a","system_id":"levelo_inurba_marseille","lat":43.30317,"lon":5.40438,"is_reserved":false,"is_disabled":false,"rental_uris":{"android":"levelo://app?vid=f0a0ce64-f4f2-4e80-9cc4-9f36a004f84a","ios":"levelo://app?vid=f0a0ce64-f4f2-4e80-9cc4-9f36a004f84a"},"vehicle_type_id":"4","last_reported":1730218299,"current_range_meters":24000,"station_id":"ce4bh012rcd13ifvqd10","pricing_plan_id":"cebpf4jnsgd1na2vs0mg"},{"bike_id":"3eacef56-e200-4054-9b0c-156c6ef1c7f9","system_id":"levelo_inurba_marseille","lat":43.32105,"lon":5.36788,"is_reserved":false,"is_disabled":false,"rental_uris":{"android":"levelo://app?vid=3eacef56-e200-4054-9b0c-156c6ef1c7f9","ios":"levelo://app?vid=3eacef56-e200-4054-9b0c-156c6ef1c7f9"},"vehicle_type_id":"4","last_reported":1730218299,"current_range_meters":36000,"station_id":"ce4bhrh2rcd13ifvqhug","pricing_plan_id":"cebpf4jnsgd1na2vs0mg"},{"bike_id":"349f988a-7b0b-4b25-a227-26e106e6450c","system_id":"levelo_inurba_marseille","lat":43.28462,"lon":5.35903,"is_reserved":false,"is_disabled":false,"rental_uris":{"android":"levelo://app?vid=349f988a-7b0b-4b25-a227-26e106e6450c","ios":"levelo://app?vid=349f988a-7b0b-4b25-a227-26e106e6450c"},"vehicle_type_id":"4","last_reported":1730218299,"current_range_meters":20000,"station_id":"ce4bhah2rcd13ifvqei0","pricing_plan_id":"cebpf4jnsgd1na2vs0mg"},{"bike_id":"86b8222b-fabd-447a-bba1-fa7cb533ac4f","system_id":"levelo_inurba_marseille","lat":43.29699,"lon":5.36616,"is_reserved":false,"is_disabled":false,"rental_uris":{"android":"levelo://app?vid=86b8222b-fabd-447a-bba1-fa7cb533ac4f","ios":"levelo://app?vid=86b8222b-fabd-447a-bba1-fa7cb533ac4f"},"vehicle_type_id":"4","last_reported":1730218299,"current_range_meters":36800,"station_id":"ce4bgn12rcd13ifvqbt0","pricing_plan_id":"cebpf4jnsgd1na2vs0mg"},{"bike_id":"c1c7b7d7-dd1d-4016-b0a7-2c43484590e0","system_id":"levelo_inurba_marseille","lat":43.30535,"lon":5.36544,"is_reserved":false,"is_disabled":false,"rental_uris":{"android":"levelo://app?vid=c1c7b7d7-dd1d-4016-b0a7-2c43484590e0","ios":"levelo://app?vid=c1c7b7d7-dd1d-4016-b0a7-2c43484590e0"},"vehicle_type_id":"4","last_reported":1730218299,"current_range_meters":13600,"station_id":"ce4bgs12rcd13ifvqcag","pricing_plan_id":"cebpf4jnsgd1na2vs0mg"},{"bike_id":"ae844abd-5f49-4e6c-8086-3880c1d44cf6","system_id":"levelo_inurba_marseille","lat":43.3266,"lon":5.40984,"is_reserved":false,"is_disabled":false,"rental_uris":{"android":"levelo://app?vid=ae844abd-5f49-4e6c-8086-3880c1d44cf6","ios":"levelo://app?vid=ae844abd-5f49-4e6c-8086-3880c1d44cf6"},"vehicle_type_id":"4","last_reported":1730218299,"current_range_meters":24000,"station_id":"ce4bhpp2rcd13ifvqhgg","pricing_plan_id":"cebpf4jnsgd1na2vs0mg"},{"bike_id":"7e700bcc-4f8e-4e3a-920a-5e247fc93a67","system_id":"levelo_inurba_marseille","lat":43.2993,"lon":5.3655,"is_reserved":false,"is_disabled":false,"rental_uris":{"android":"levelo://app?vid=7e700bcc-4f8e-4e3a-920a-5e247fc93a67","ios":"levelo://app?vid=7e700bcc-4f8e-4e3a-920a-5e247fc93a67"},"vehicle_type_id":"4","last_reported":1730218299,"current_range_meters":28000,"station_id":"ce4bgm92rcd13ifvqbr0","pricing_plan_id":"cebpf4jnsgd1na2vs0mg"},{"bike_id":"94d8c438-400f-4658-980f-4548812f9662","system_id":"levelo_inurba_marseille","lat":43.28616,"lon":5.35114,"is_reserved":false,"is_disabled":false,"rental_uris":{"android":"levelo://app?vid=94d8c438-400f-4658-980f-4548812f9662","ios":"levelo://app?vid=94d8c438-400f-4658-980f-4548812f9662"},"vehicle_type_id":"4","last_reported":1730218299,"current_range_meters":3600,"station_id":"ce4bhch2rcd13ifvqeug","pricing_plan_id":"cebpf4jnsgd1na2vs0mg"},{"bike_id":"0249e3c7-0ee6-43ae-aea1-a5a682acfe38","system_id":"levelo_inurba_marseille","lat":43.26939,"lon":5.40253,"is_reserved":false,"is_disabled":false,"rental_uris":{"android":"levelo://app?vid=0249e3c7-0ee6-43ae-aea1-a5a682acfe38","ios":"levelo://app?vid=0249e3c7-0ee6-43ae-aea1-a5a682acfe38"},"vehicle_type_id":"4","last_reported":1730218299,"current_range_meters":40000,"station_id":"cjm6bp8fraef2m0cb0m0","pricing_plan_id":"cebpf4jnsgd1na2vs0mg"},{"bike_id":"0a0f22f5-d783-43fc-bb8b-28ad8fcf2cd4","system_id":"levelo_inurba_marseille","lat":43.29527,"lon":5.38541,"is_reserved":false,"is_disabled":false,"rental_uris":{"android":"levelo://app?vid=0a0f22f5-d783-43fc-bb8b-28ad8fcf2cd4","ios":"levelo://app?vid=0a0f22f5-d783-43fc-bb8b-28ad8fcf2cd4"},"vehicle_type_id":"4","last_reported":1730218299,"current_range_meters":24800,"station_id":"ce4bgih2rcd13ifvqba0","pricing_plan_id":"cebpf4jnsgd1na2vs0mg"},{"bike_id":"4bd3dc7a-cd73-4bb6-8f68-66aa73a42057","system_id":"levelo_inurba_marseille","lat":43.27058,"lon":5.40258,"is_reserved":false,"is_disabled":false,"rental_uris":{"android":"levelo://app?vid=4bd3dc7a-cd73-4bb6-8f68-66aa73a42057","ios":"levelo://app?vid=4bd3dc7a-cd73-4bb6-8f68-66aa73a42057"},"vehicle_type_id":"4","last_reported":1730218299,"current_range_meters":30400,"station_id":"ce4bhk92rcd13ifvqgc0","pricing_plan_id":"cebpf4jnsgd1na2vs0mg"},{"bike_id":"8711a2a2-1e07-4ea9-97df-f5df8ee3323d","system_id":"levelo_inurba_marseille","lat":43.30535,"lon":5.36718,"is_reserved":false,"is_disabled":false,"rental_uris":{"android":"levelo://app?vid=8711a2a2-1e07-4ea9-97df-f5df8ee3323d","ios":"levelo://app?vid=8711a2a2-1e07-4ea9-97df-f5df8ee3323d"},"vehicle_type_id":"4","last_reported":1730218299,"current_range_meters":28800,"station_id":"ce4bgrp2rcd13ifvqc9g","pricing_plan_id":"cebpf4jnsgd1na2vs0mg"},{"bike_id":"538c6c97-8738-4e40-afde-1ced2fc6b778","system_id":"levelo_inurba_marseille","lat":43.33716,"lon":5.39177,"is_reserved":false,"is_disabled":false,"rental_uris":{"android":"levelo://app?vid=538c6c97-8738-4e40-afde-1ced2fc6b778","ios":"levelo://app?vid=538c6c97-8738-4e40-afde-1ced2fc6b778"},"vehicle_type_id":"4","last_reported":1730218299,"current_range_meters":38800,"station_id":"ce4bhr92rcd13ifvqhsg","pricing_plan_id":"cebpf4jnsgd1na2vs0mg"},{"bike_id":"e40111e4-4deb-41a5-ac02-7465c5223951","system_id":"levelo_inurba_marseille","lat":43.2863,"lon":5.38355,"is_reserved":false,"is_disabled":false,"rental_uris":{"android":"levelo://app?vid=e40111e4-4deb-41a5-ac02-7465c5223951","ios":"levelo://app?vid=e40111e4-4deb-41a5-ac02-7465c5223951"},"vehicle_type_id":"4","last_reported":1730218299,"current_range_meters":16000,"station_id":"ce4bh4p2rcd13ifvqe1g","pricing_plan_id":"cebpf4jnsgd1na2vs0mg"},{"bike_id":"c497513d-9d1d-4320-a1e3-875a8b21d4c5","system_id":"levelo_inurba_marseille","lat":43.27181,"lon":5.40996,"is_reserved":false,"is_disabled":false,"rental_uris":{"android":"levelo://app?vid=c497513d-9d1d-4320-a1e3-875a8b21d4c5","ios":"levelo://app?vid=c497513d-9d1d-4320-a1e3-875a8b21d4c5"},"vehicle_type_id":"4","last_reported":1730218299,"current_range_meters":36800,"station_id":"ce4bhl12rcd13ifvqgf0","pricing_plan_id":"cebpf4jnsgd1na2vs0mg"},{"bike_id":"e1b8f9fb-e491-40ed-a82e-b7180152c511","system_id":"levelo_inurba_marseille","lat":43.23968,"lon":5.36632,"is_reserved":false,"is_disabled":false,"rental_uris":{"android":"levelo://app?vid=e1b8f9fb-e491-40ed-a82e-b7180152c511","ios":"levelo://app?vid=e1b8f9fb-e491-40ed-a82e-b7180152c511"},"vehicle_type_id":"4","last_reported":1730218299,"current_range_meters":36800,"station_id":"ce4bhi12rcd13ifvqfp0","pricing_plan_id":"cebpf4jnsgd1na2vs0mg"},{"bike_id":"eff6c5ad-dea6-4ce2-b40f-e81d26d61f17","system_id":"levelo_inurba_marseille","lat":43.28263,"lon":5.35076,"is_reserved":false,"is_disabled":false,"rental_uris":{"android":"levelo://app?vid=eff6c5ad-dea6-4ce2-b40f-e81d26d61f17","ios":"levelo://app?vid=eff6c5ad-dea6-4ce2-b40f-e81d26d61f17"},"vehicle_type_id":"4","last_reported":1730218299,"current_range_meters":38800,"station_id":"ce4bhbp2rcd13ifvqerg","pricing_plan_id":"cebpf4jnsgd1na2vs0mg"},{"bike_id":"44ae2bbb-5388-422a-97db-c3e465fb33fc","system_id":"levelo_inurba_marseille","lat":43.30547,"lon":5.36545,"is_reserved":false,"is_disabled":false,"rental_uris":{"android":"levelo://app?vid=44ae2bbb-5388-422a-97db-c3e465fb33fc","ios":"levelo://app?vid=44ae2bbb-5388-422a-97db-c3e465fb33fc"},"vehicle_type_id":"4","last_reported":1730218299,"current_range_meters":38800,"station_id":"ce4bgs12rcd13ifvqcag","pricing_plan_id":"cebpf4jnsgd1na2vs0mg"},{"bike_id":"68896770-3246-478e-a22a-6cc10490e0aa","system_id":"levelo_inurba_marseille","lat":43.287201,"lon":5.379275,"is_reserved":false,"is_disabled":false,"rental_uris":{"android":"levelo://app?vid=68896770-3246-478e-a22a-6cc10490e0aa","ios":"levelo://app?vid=68896770-3246-478e-a22a-6cc10490e0aa"},"vehicle_type_id":"4","last_reported":1730218299,"current_range_meters":38400,"station_id":"ce4bh9p2rcd13ifvqec0","pricing_plan_id":"cebpf4jnsgd1na2vs0mg"},{"bike_id":"d5c8fa42-2467-4cbe-a884-69b7df559269","system_id":"levelo_inurba_marseille","lat":43.27997,"lon":5.40026,"is_reserved":false,"is_disabled":false,"rental_uris":{"android":"levelo://app?vid=d5c8fa42-2467-4cbe-a884-69b7df559269","ios":"levelo://app?vid=d5c8fa42-2467-4cbe-a884-69b7df559269"},"vehicle_type_id":"4","last_reported":1730218299,"current_range_meters":38800,"station_id":"ce4bho92rcd13ifvqh4g","pricing_plan_id":"cebpf4jnsgd1na2vs0mg"},{"bike_id":"49e62e5b-a744-4960-b578-e2e1ed1f4e39","system_id":"levelo_inurba_marseille","lat":43.29897,"lon":5.43671,"is_reserved":false,"is_disabled":false,"rental_uris":{"android":"levelo://app?vid=49e62e5b-a744-4960-b578-e2e1ed1f4e39","ios":"levelo://app?vid=49e62e5b-a744-4960-b578-e2e1ed1f4e39"},"vehicle_type_id":"4","last_reported":1730218299,"current_range_meters":33200,"station_id":"ce4bhpp2rcd13ifvqhfg","pricing_plan_id":"cebpf4jnsgd1na2vs0mg"},{"bike_id":"1e4476f3-15fc-4fb9-8231-99b512b22599","system_id":"levelo_inurba_marseille","lat":43.3132,"lon":5.39718,"is_reserved":false,"is_disabled":false,"rental_uris":{"android":"levelo://app?vid=1e4476f3-15fc-4fb9-8231-99b512b22599","ios":"levelo://app?vid=1e4476f3-15fc-4fb9-8231-99b512b22599"},"vehicle_type_id":"4","last_reported":1730218299,"current_range_meters":38800,"station_id":"ce4bgvp2rcd13ifvqcu0","pricing_plan_id":"cebpf4jnsgd1na2vs0mg"},{"bike_id":"b12425a9-456b-4240-9101-c3b9f8f5a488","system_id":"levelo_inurba_marseille","lat":43.3248,"lon":5.3657,"is_reserved":false,"is_disabled":false,"rental_uris":{"android":"levelo://app?vid=b12425a9-456b-4240-9101-c3b9f8f5a488","ios":"levelo://app?vid=b12425a9-456b-4240-9101-c3b9f8f5a488"},"vehicle_type_id":"4","last_reported":1730218299,"current_range_meters":40000,"station_id":"ce4bhs12rcd13ifvqhvg","pricing_plan_id":"cebpf4jnsgd1na2vs0mg"},{"bike_id":"3afe96a7-8916-4540-97ee-832018c717e1","system_id":"levelo_inurba_marseille","lat":43.28172,"lon":5.425194,"is_reserved":false,"is_disabled":false,"rental_uris":{"android":"levelo://app?vid=3afe96a7-8916-4540-97ee-832018c717e1","ios":"levelo://app?vid=3afe96a7-8916-4540-97ee-832018c717e1"},"vehicle_type_id":"4","last_reported":1730218299,"current_range_meters":28400,"station_id":"ce4bhnh2rcd13ifvqgug","pricing_plan_id":"cebpf4jnsgd1na2vs0mg"},{"bike_id":"2b3e16cd-c085-4c74-adb9-14662341c0cb","system_id":"levelo_inurba_marseille","lat":43.299707,"lon":5.384794,"is_reserved":false,"is_disabled":false,"rental_uris":{"android":"levelo://app?vid=2b3e16cd-c085-4c74-adb9-14662341c0cb","ios":"levelo://app?vid=2b3e16cd-c085-4c74-adb9-14662341c0cb"},"vehicle_type_id":"4","last_reported":1730218299,"current_range_meters":38000,"station_id":"ce4bgj92rcd13ifvqbd0","pricing_plan_id":"cebpf4jnsgd1na2vs0mg"},{"bike_id":"98441195-be16-4cb9-bef6-28860e3aa02b","system_id":"levelo_inurba_marseille","lat":43.273762,"lon":5.362556,"is_reserved":false,"is_disabled":false,"rental_uris":{"android":"levelo://app?vid=98441195-be16-4cb9-bef6-28860e3aa02b","ios":"levelo://app?vid=98441195-be16-4cb9-bef6-28860e3aa02b"},"vehicle_type_id":"4","last_reported":1730218299,"current_range_meters":27600,"station_id":"ce4bhbh2rcd13ifvqeo0","pricing_plan_id":"cebpf4jnsgd1na2vs0mg"},{"bike_id":"82013d36-20b9-413e-bbac-496c7f788159","system_id":"levelo_inurba_marseille","lat":43.28844,"lon":5.39304,"is_reserved":false,"is_disabled":false,"rental_uris":{"android":"levelo://app?vid=82013d36-20b9-413e-bbac-496c7f788159","ios":"levelo://app?vid=82013d36-20b9-413e-bbac-496c7f788159"},"vehicle_type_id":"4","last_reported":1730218299,"current_range_meters":38000,"station_id":"ce4bh2p2rcd13ifvqdi0","pricing_plan_id":"cebpf4jnsgd1na2vs0mg"},{"bike_id":"92fa9657-dbab-4680-b1ad-47b6aaf27d01","system_id":"levelo_inurba_marseille","lat":43.27997,"lon":5.40032,"is_reserved":false,"is_disabled":false,"rental_uris":{"android":"levelo://app?vid=92fa9657-dbab-4680-b1ad-47b6aaf27d01","ios":"levelo://app?vid=92fa9657-dbab-4680-b1ad-47b6aaf27d01"},"vehicle_type_id":"4","last_reported":1730218299,"current_range_meters":18800,"station_id":"ce4bho92rcd13ifvqh4g","pricing_plan_id":"cebpf4jnsgd1na2vs0mg"},{"bike_id":"bf84a371-74d3-4f82-864d-2c089baff562","system_id":"levelo_inurba_marseille","lat":43.29982,"lon":5.38492,"is_reserved":false,"is_disabled":false,"rental_uris":{"android":"levelo://app?vid=bf84a371-74d3-4f82-864d-2c089baff562","ios":"levelo://app?vid=bf84a371-74d3-4f82-864d-2c089baff562"},"vehicle_type_id":"4","last_reported":1730218299,"current_range_meters":32800,"station_id":"ce4bgj92rcd13ifvqbd0","pricing_plan_id":"cebpf4jnsgd1na2vs0mg"},{"bike_id":"2f354290-2eff-429f-bbb4-984ad0cb8792","system_id":"levelo_inurba_marseille","lat":43.27311,"lon":5.39077,"is_reserved":false,"is_disabled":false,"rental_uris":{"android":"levelo://app?vid=2f354290-2eff-429f-bbb4-984ad0cb8792","ios":"levelo://app?vid=2f354290-2eff-429f-bbb4-984ad0cb8792"},"vehicle_type_id":"4","last_reported":1730218299,"current_range_meters":30400,"station_id":"ce4bhgp2rcd13ifvqfe0","pricing_plan_id":"cebpf4jnsgd1na2vs0mg"},{"bike_id":"4cc9b611-227a-4675-8219-8592dde41f3f","system_id":"levelo_inurba_marseille","lat":43.28268,"lon":5.35082,"is_reserved":false,"is_disabled":false,"rental_uris":{"android":"levelo://app?vid=4cc9b611-227a-4675-8219-8592dde41f3f","ios":"levelo://app?vid=4cc9b611-227a-4675-8219-8592dde41f3f"},"vehicle_type_id":"4","last_reported":1730218299,"current_range_meters":31200,"station_id":"ce4bhbp2rcd13ifvqerg","pricing_plan_id":"cebpf4jnsgd1na2vs0mg"},{"bike_id":"9d46e0b2-b7a2-490a-aca2-06a1d5481623","system_id":"levelo_inurba_marseille","lat":43.28107,"lon":5.40638,"is_reserved":false,"is_disabled":false,"rental_uris":{"android":"levelo://app?vid=9d46e0b2-b7a2-490a-aca2-06a1d5481623","ios":"levelo://app?vid=9d46e0b2-b7a2-490a-aca2-06a1d5481623"},"vehicle_type_id":"4","last_reported":1730218299,"current_range_meters":18000,"station_id":"","pricing_plan_id":"cebpf4jnsgd1na2vs0mg"},{"bike_id":"d186de71-9327-4a51-9cd0-3ca0c3346f0a","system_id":"levelo_inurba_marseille","lat":43.23194,"lon":5.35555,"is_reserved":false,"is_disabled":false,"rental_uris":{"android":"levelo://app?vid=d186de71-9327-4a51-9cd0-3ca0c3346f0a","ios":"levelo://app?vid=d186de71-9327-4a51-9cd0-3ca0c3346f0a"},"vehicle_type_id":"4","last_reported":1730218299,"current_range_meters":32800,"station_id":"ce4bhu92rcd13ifvqi70","pricing_plan_id":"cebpf4jnsgd1na2vs0mg"},{"bike_id":"e0dcbb9a-63d8-4ea1-901e-710f67ecbea0","system_id":"levelo_inurba_marseille","lat":43.289264,"lon":5.387389,"is_reserved":false,"is_disabled":false,"rental_uris":{"android":"levelo://app?vid=e0dcbb9a-63d8-4ea1-901e-710f67ecbea0","ios":"levelo://app?vid=e0dcbb9a-63d8-4ea1-901e-710f67ecbea0"},"vehicle_type_id":"4","last_reported":1730218299,"current_range_meters":26000,"station_id":"ce4bh4p2rcd13ifvqe0g","pricing_plan_id":"cebpf4jnsgd1na2vs0mg"},{"bike_id":"3a11bd5a-cb4e-40db-885d-4477b913c9a5","system_id":"levelo_inurba_marseille","lat":43.30536,"lon":5.36701,"is_reserved":false,"is_disabled":false,"rental_uris":{"android":"levelo://app?vid=3a11bd5a-cb4e-40db-885d-4477b913c9a5","ios":"levelo://app?vid=3a11bd5a-cb4e-40db-885d-4477b913c9a5"},"vehicle_type_id":"4","last_reported":1730218299,"current_range_meters":9200,"station_id":"ce4bgrp2rcd13ifvqc9g","pricing_plan_id":"cebpf4jnsgd1na2vs0mg"},{"bike_id":"75c95769-bd0d-4809-8874-7e56f100baf8","system_id":"levelo_inurba_marseille","lat":43.27203,"lon":5.39189,"is_reserved":false,"is_disabled":false,"rental_uris":{"android":"levelo://app?vid=75c95769-bd0d-4809-8874-7e56f100baf8","ios":"levelo://app?vid=75c95769-bd0d-4809-8874-7e56f100baf8"},"vehicle_type_id":"4","last_reported":1730218299,"current_range_meters":32800,"station_id":"ce4bhhp2rcd13ifvqfm0","pricing_plan_id":"cebpf4jnsgd1na2vs0mg"},{"bike_id":"e0b6ce61-bdc7-4290-a55a-719483f6c5ad","system_id":"levelo_inurba_marseille","lat":43.25577,"lon":5.3823,"is_reserved":false,"is_disabled":false,"rental_uris":{"android":"levelo://app?vid=e0b6ce61-bdc7-4290-a55a-719483f6c5ad","ios":"levelo://app?vid=e0b6ce61-bdc7-4290-a55a-719483f6c5ad"},"vehicle_type_id":"4","last_reported":1730218299,"current_range_meters":30400,"station_id":"ce4bhih2rcd13ifvqfs0","pricing_plan_id":"cebpf4jnsgd1na2vs0mg"},{"bike_id":"410e1737-ba72-4cd3-b304-5ca5e98f4aba","system_id":"levelo_inurba_marseille","lat":43.27369,"lon":5.36255,"is_reserved":false,"is_disabled":false,"rental_uris":{"android":"levelo://app?vid=410e1737-ba72-4cd3-b304-5ca5e98f4aba","ios":"levelo://app?vid=410e1737-ba72-4cd3-b304-5ca5e98f4aba"},"vehicle_type_id":"4","last_reported":1730218299,"current_range_meters":28000,"station_id":"ce4bhbh2rcd13ifvqeo0","pricing_plan_id":"cebpf4jnsgd1na2vs0mg"},{"bike_id":"1488cb5b-ba01-4856-b5ef-dc4c1f7247e9","system_id":"levelo_inurba_marseille","lat":43.23961,"lon":5.36631,"is_reserved":false,"is_disabled":false,"rental_uris":{"android":"levelo://app?vid=1488cb5b-ba01-4856-b5ef-dc4c1f7247e9","ios":"levelo://app?vid=1488cb5b-ba01-4856-b5ef-dc4c1f7247e9"},"vehicle_type_id":"4","last_reported":1730218299,"current_range_meters":16800,"station_id":"ce4bhi12rcd13ifvqfp0","pricing_plan_id":"cebpf4jnsgd1na2vs0mg"},{"bike_id":"6c55372d-3929-4cf2-b4ea-30149f454df3","system_id":"levelo_inurba_marseille","lat":43.27989,"lon":5.40009,"is_reserved":false,"is_disabled":false,"rental_uris":{"android":"levelo://app?vid=6c55372d-3929-4cf2-b4ea-30149f454df3","ios":"levelo://app?vid=6c55372d-3929-4cf2-b4ea-30149f454df3"},"vehicle_type_id":"4","last_reported":1730218299,"current_range_meters":31200,"station_id":"ce4bho92rcd13ifvqh4g","pricing_plan_id":"cebpf4jnsgd1na2vs0mg"},{"bike_id":"e0095f9d-f458-4518-aa52-8605c13b0747","system_id":"levelo_inurba_marseille","lat":43.26554,"lon":5.37287,"is_reserved":false,"is_disabled":false,"rental_uris":{"android":"levelo://app?vid=e0095f9d-f458-4518-aa52-8605c13b0747","ios":"levelo://app?vid=e0095f9d-f458-4518-aa52-8605c13b0747"},"vehicle_type_id":"4","last_reported":1730218299,"current_range_meters":28800,"station_id":"ce4bhg12rcd13ifvqf70","pricing_plan_id":"cebpf4jnsgd1na2vs0mg"},{"bike_id":"984eabb7-c5b8-4615-a6cd-09a37e3870a8","system_id":"levelo_inurba_marseille","lat":43.30151,"lon":5.38085,"is_reserved":false,"is_disabled":false,"rental_uris":{"android":"levelo://app?vid=984eabb7-c5b8-4615-a6cd-09a37e3870a8","ios":"levelo://app?vid=984eabb7-c5b8-4615-a6cd-09a37e3870a8"},"vehicle_type_id":"4","last_reported":1730218299,"current_range_meters":18800,"station_id":"ce4bgjp2rcd13ifvqbh0","pricing_plan_id":"cebpf4jnsgd1na2vs0mg"},{"bike_id":"dbda7efb-410d-4a2b-a65e-9bcd0c2c113c","system_id":"levelo_inurba_marseille","lat":43.25105,"lon":5.40327,"is_reserved":false,"is_disabled":false,"rental_uris":{"android":"levelo://app?vid=dbda7efb-410d-4a2b-a65e-9bcd0c2c113c","ios":"levelo://app?vid=dbda7efb-410d-4a2b-a65e-9bcd0c2c113c"},"vehicle_type_id":"4","last_reported":1730218299,"current_range_meters":14000,"station_id":"ce4bhlh2rcd13ifvqgig","pricing_plan_id":"cebpf4jnsgd1na2vs0mg"},{"bike_id":"bb821d30-bf87-4f9f-b285-1d4bcb13d437","system_id":"levelo_inurba_marseille","lat":43.30356,"lon":5.41881,"is_reserved":false,"is_disabled":false,"rental_uris":{"android":"levelo://app?vid=bb821d30-bf87-4f9f-b285-1d4bcb13d437","ios":"levelo://app?vid=bb821d30-bf87-4f9f-b285-1d4bcb13d437"},"vehicle_type_id":"4","last_reported":1730218299,"current_range_meters":8400,"station_id":"ce4bhop2rcd13ifvqh7g","pricing_plan_id":"cebpf4jnsgd1na2vs0mg"},{"bike_id":"53f40179-1243-4e83-8f7a-432c3bf8a957","system_id":"levelo_inurba_marseille","lat":43.29928,"lon":5.36547,"is_reserved":false,"is_disabled":false,"rental_uris":{"android":"levelo://app?vid=53f40179-1243-4e83-8f7a-432c3bf8a957","ios":"levelo://app?vid=53f40179-1243-4e83-8f7a-432c3bf8a957"},"vehicle_type_id":"4","last_reported":1730218299,"current_range_meters":35600,"station_id":"ce4bgm92rcd13ifvqbr0","pricing_plan_id":"cebpf4jnsgd1na2vs0mg"},{"bike_id":"5d52ed52-2bb8-4fd0-a3df-02540b690f37","system_id":"levelo_inurba_marseille","lat":43.30637,"lon":5.40088,"is_reserved":false,"is_disabled":false,"rental_uris":{"android":"levelo://app?vid=5d52ed52-2bb8-4fd0-a3df-02540b690f37","ios":"levelo://app?vid=5d52ed52-2bb8-4fd0-a3df-02540b690f37"},"vehicle_type_id":"4","last_reported":1730218299,"current_range_meters":10000,"station_id":"ce4bh112rcd13ifvqda0","pricing_plan_id":"cebpf4jnsgd1na2vs0mg"},{"bike_id":"a1f83bf3-eed6-45ed-a98a-d29a1a4fe512","system_id":"levelo_inurba_marseille","lat":43.29931,"lon":5.41319,"is_reserved":false,"is_disabled":false,"rental_uris":{"android":"levelo://app?vid=a1f83bf3-eed6-45ed-a98a-d29a1a4fe512","ios":"levelo://app?vid=a1f83bf3-eed6-45ed-a98a-d29a1a4fe512"},"vehicle_type_id":"4","last_reported":1730218299,"current_range_meters":28000,"station_id":"ce4bhp12rcd13ifvqh9g","pricing_plan_id":"cebpf4jnsgd1na2vs0mg"},{"bike_id":"1dd7c0ac-7f39-4185-ab40-5cf967459eb0","system_id":"levelo_inurba_marseille","lat":43.285583,"lon":5.350637,"is_reserved":false,"is_disabled":false,"rental_uris":{"android":"levelo://app?vid=1dd7c0ac-7f39-4185-ab40-5cf967459eb0","ios":"levelo://app?vid=1dd7c0ac-7f39-4185-ab40-5cf967459eb0"},"vehicle_type_id":"4","last_reported":1730218299,"current_range_meters":14800,"station_id":"","pricing_plan_id":"cebpf4jnsgd1na2vs0mg"},{"bike_id":"6c5c2d65-9bb4-4292-a94e-19dacaca1c03","system_id":"levelo_inurba_marseille","lat":43.29896,"lon":5.43662,"is_reserved":false,"is_disabled":false,"rental_uris":{"android":"levelo://app?vid=6c5c2d65-9bb4-4292-a94e-19dacaca1c03","ios":"levelo://app?vid=6c5c2d65-9bb4-4292-a94e-19dacaca1c03"},"vehicle_type_id":"4","last_reported":1730218299,"current_range_meters":40000,"station_id":"ce4bhpp2rcd13ifvqhfg","pricing_plan_id":"cebpf4jnsgd1na2vs0mg"},{"bike_id":"b5996ed0-4a74-4de7-a076-3bd8c12991b0","system_id":"levelo_inurba_marseille","lat":43.27314,"lon":5.39088,"is_reserved":false,"is_disabled":false,"rental_uris":{"android":"levelo://app?vid=b5996ed0-4a74-4de7-a076-3bd8c12991b0","ios":"levelo://app?vid=b5996ed0-4a74-4de7-a076-3bd8c12991b0"},"vehicle_type_id":"4","last_reported":1730218299,"current_range_meters":10800,"station_id":"ce4bhgp2rcd13ifvqfe0","pricing_plan_id":"cebpf4jnsgd1na2vs0mg"},{"bike_id":"766801a5-7dbd-464a-bc56-398e14b9cf78","system_id":"levelo_inurba_marseille","lat":43.29805,"lon":5.37136,"is_reserved":false,"is_disabled":false,"rental_uris":{"android":"levelo://app?vid=766801a5-7dbd-464a-bc56-398e14b9cf78","ios":"levelo://app?vid=766801a5-7dbd-464a-bc56-398e14b9cf78"},"vehicle_type_id":"4","last_reported":1730218299,"current_range_meters":10000,"station_id":"","pricing_plan_id":"cebpf4jnsgd1na2vs0mg"},{"bike_id":"afc8a59e-718c-432c-b226-d6be0903e5fb","system_id":"levelo_inurba_marseille","lat":43.24388,"lon":5.37071,"is_reserved":false,"is_disabled":false,"rental_uris":{"android":"levelo://app?vid=afc8a59e-718c-432c-b226-d6be0903e5fb","ios":"levelo://app?vid=afc8a59e-718c-432c-b226-d6be0903e5fb"},"vehicle_type_id":"4","last_reported":1730218299,"current_range_meters":37600,"station_id":"ce4bhhh2rcd13ifvqfk0","pricing_plan_id":"cebpf4jnsgd1na2vs0mg"},{"bike_id":"057be8eb-e4e3-4e61-ac3e-e574d7e989e2","system_id":"levelo_inurba_marseille","lat":43.324817,"lon":5.365653,"is_reserved":false,"is_disabled":false,"rental_uris":{"android":"levelo://app?vid=057be8eb-e4e3-4e61-ac3e-e574d7e989e2","ios":"levelo://app?vid=057be8eb-e4e3-4e61-ac3e-e574d7e989e2"},"vehicle_type_id":"4","last_reported":1730218299,"current_range_meters":8000,"station_id":"ce4bhs12rcd13ifvqhvg","pricing_plan_id":"cebpf4jnsgd1na2vs0mg"},{"bike_id":"9c8adeaf-ca41-4f82-8125-c28908857e17","system_id":"levelo_inurba_marseille","lat":43.26782,"lon":5.39424,"is_reserved":false,"is_disabled":false,"rental_uris":{"android":"levelo://app?vid=9c8adeaf-ca41-4f82-8125-c28908857e17","ios":"levelo://app?vid=9c8adeaf-ca41-4f82-8125-c28908857e17"},"vehicle_type_id":"4","last_reported":1730218299,"current_range_meters":27200,"station_id":"ce4bhh12rcd13ifvqfg0","pricing_plan_id":"cebpf4jnsgd1na2vs0mg"},{"bike_id":"7b3f8ac8-7d03-4ba6-9380-d9b2e9579763","system_id":"levelo_inurba_marseille","lat":43.29619,"lon":5.37169,"is_reserved":false,"is_disabled":false,"rental_uris":{"android":"levelo://app?vid=7b3f8ac8-7d03-4ba6-9380-d9b2e9579763","ios":"levelo://app?vid=7b3f8ac8-7d03-4ba6-9380-d9b2e9579763"},"vehicle_type_id":"4","last_reported":1730218299,"current_range_meters":38800,"station_id":"ce4bgnh2rcd13ifvqc0g","pricing_plan_id":"cebpf4jnsgd1na2vs0mg"},{"bike_id":"84a34f64-d710-4f7b-8f16-f367a9f930e0","system_id":"levelo_inurba_marseille","lat":43.26065,"lon":5.39393,"is_reserved":false,"is_disabled":false,"rental_uris":{"android":"levelo://app?vid=84a34f64-d710-4f7b-8f16-f367a9f930e0","ios":"levelo://app?vid=84a34f64-d710-4f7b-8f16-f367a9f930e0"},"vehicle_type_id":"4","last_reported":1730218299,"current_range_meters":29600,"station_id":"ce4bhh92rcd13ifvqfj0","pricing_plan_id":"cebpf4jnsgd1na2vs0mg"},{"bike_id":"cf54be13-c281-426c-86d0-77b1f84d1400","system_id":"levelo_inurba_marseille","lat":43.29532,"lon":5.38547,"is_reserved":false,"is_disabled":false,"rental_uris":{"android":"levelo://app?vid=cf54be13-c281-426c-86d0-77b1f84d1400","ios":"levelo://app?vid=cf54be13-c281-426c-86d0-77b1f84d1400"},"vehicle_type_id":"4","last_reported":1730218299,"current_range_meters":32400,"station_id":"ce4bgih2rcd13ifvqba0","pricing_plan_id":"cebpf4jnsgd1na2vs0mg"},{"bike_id":"b8d8173c-914d-4578-9a45-ef7c426a5055","system_id":"levelo_inurba_marseille","lat":43.27921,"lon":5.39579,"is_reserved":false,"is_disabled":false,"rental_uris":{"android":"levelo://app?vid=b8d8173c-914d-4578-9a45-ef7c426a5055","ios":"levelo://app?vid=b8d8173c-914d-4578-9a45-ef7c426a5055"},"vehicle_type_id":"4","last_reported":1730218299,"current_range_meters":2800,"station_id":"ce4bhf92rcd13ifvqf40","pricing_plan_id":"cebpf4jnsgd1na2vs0mg"},{"bike_id":"c7757bea-4296-44dc-b490-1ebf01a3caf0","system_id":"levelo_inurba_marseille","lat":43.32482,"lon":5.36579,"is_reserved":false,"is_disabled":false,"rental_uris":{"android":"levelo://app?vid=c7757bea-4296-44dc-b490-1ebf01a3caf0","ios":"levelo://app?vid=c7757bea-4296-44dc-b490-1ebf01a3caf0"},"vehicle_type_id":"4","last_reported":1730218299,"current_range_meters":35200,"station_id":"ce4bhs12rcd13ifvqhvg","pricing_plan_id":"cebpf4jnsgd1na2vs0mg"},{"bike_id":"82938b73-db78-491a-8e6b-de7ae6d59fe5","system_id":"levelo_inurba_marseille","lat":43.33752,"lon":5.37449,"is_reserved":false,"is_disabled":false,"rental_uris":{"android":"levelo://app?vid=82938b73-db78-491a-8e6b-de7ae6d59fe5","ios":"levelo://app?vid=82938b73-db78-491a-8e6b-de7ae6d59fe5"},"vehicle_type_id":"4","last_reported":1730218299,"current_range_meters":36400,"station_id":"","pricing_plan_id":"cebpf4jnsgd1na2vs0mg"},{"bike_id":"9849ea7b-4c4d-4e7c-9589-e7fd87a12308","system_id":"levelo_inurba_marseille","lat":43.2694,"lon":5.40251,"is_reserved":false,"is_disabled":false,"rental_uris":{"android":"levelo://app?vid=9849ea7b-4c4d-4e7c-9589-e7fd87a12308","ios":"levelo://app?vid=9849ea7b-4c4d-4e7c-9589-e7fd87a12308"},"vehicle_type_id":"4","last_reported":1730218299,"current_range_meters":8400,"station_id":"cjm6bp8fraef2m0cb0m0","pricing_plan_id":"cebpf4jnsgd1na2vs0mg"},{"bike_id":"6401894d-cc49-4858-a656-3b33ece2aed3","system_id":"levelo_inurba_marseille","lat":43.24803,"lon":5.37455,"is_reserved":false,"is_disabled":false,"rental_uris":{"android":"levelo://app?vid=6401894d-cc49-4858-a656-3b33ece2aed3","ios":"levelo://app?vid=6401894d-cc49-4858-a656-3b33ece2aed3"},"vehicle_type_id":"4","last_reported":1730218299,"current_range_meters":14000,"station_id":"ce4bhgh2rcd13ifvqfb0","pricing_plan_id":"cebpf4jnsgd1na2vs0mg"},{"bike_id":"69f99de8-a5e5-40ed-8f48-3ec2b07a28b2","system_id":"levelo_inurba_marseille","lat":43.26576,"lon":5.38995,"is_reserved":false,"is_disabled":false,"rental_uris":{"android":"levelo://app?vid=69f99de8-a5e5-40ed-8f48-3ec2b07a28b2","ios":"levelo://app?vid=69f99de8-a5e5-40ed-8f48-3ec2b07a28b2"},"vehicle_type_id":"4","last_reported":1730218299,"current_range_meters":13600,"station_id":"ce4bhe12rcd13ifvqf30","pricing_plan_id":"cebpf4jnsgd1na2vs0mg"},{"bike_id":"a06aaa3a-469c-4c08-9a71-0d7e5c362262","system_id":"levelo_inurba_marseille","lat":43.33715,"lon":5.39181,"is_reserved":false,"is_disabled":false,"rental_uris":{"android":"levelo://app?vid=a06aaa3a-469c-4c08-9a71-0d7e5c362262","ios":"levelo://app?vid=a06aaa3a-469c-4c08-9a71-0d7e5c362262"},"vehicle_type_id":"4","last_reported":1730218299,"current_range_meters":31200,"station_id":"ce4bhr92rcd13ifvqhsg","pricing_plan_id":"cebpf4jnsgd1na2vs0mg"},{"bike_id":"a75905d9-cc74-45b8-ae12-50067cbcbd0c","system_id":"levelo_inurba_marseille","lat":43.27369,"lon":5.36261,"is_reserved":false,"is_disabled":false,"rental_uris":{"android":"levelo://app?vid=a75905d9-cc74-45b8-ae12-50067cbcbd0c","ios":"levelo://app?vid=a75905d9-cc74-45b8-ae12-50067cbcbd0c"},"vehicle_type_id":"4","last_reported":1730218299,"current_range_meters":10800,"station_id":"ce4bhbh2rcd13ifvqeo0","pricing_plan_id":"cebpf4jnsgd1na2vs0mg"},{"bike_id":"2a1108cc-c9a1-43a8-b7c9-9dbd6de6f771","system_id":"levelo_inurba_marseille","lat":43.28407,"lon":5.34997,"is_reserved":false,"is_disabled":false,"rental_uris":{"android":"levelo://app?vid=2a1108cc-c9a1-43a8-b7c9-9dbd6de6f771","ios":"levelo://app?vid=2a1108cc-c9a1-43a8-b7c9-9dbd6de6f771"},"vehicle_type_id":"4","last_reported":1730218299,"current_range_meters":37600,"station_id":"ce4bhbh2rcd13ifvqepg","pricing_plan_id":"cebpf4jnsgd1na2vs0mg"},{"bike_id":"a404248e-6987-4d99-b20a-9cc9dfe309cc","system_id":"levelo_inurba_marseille","lat":43.24075,"lon":5.37756,"is_reserved":false,"is_disabled":false,"rental_uris":{"android":"levelo://app?vid=a404248e-6987-4d99-b20a-9cc9dfe309cc","ios":"levelo://app?vid=a404248e-6987-4d99-b20a-9cc9dfe309cc"},"vehicle_type_id":"4","last_reported":1730218299,"current_range_meters":9600,"station_id":"ce4bhnp2rcd13ifvqgvg","pricing_plan_id":"cebpf4jnsgd1na2vs0mg"},{"bike_id":"b9f1ad9c-a85d-423e-bfd1-e3d8c870cf87","system_id":"levelo_inurba_marseille","lat":43.31263,"lon":5.40165,"is_reserved":false,"is_disabled":false,"rental_uris":{"android":"levelo://app?vid=b9f1ad9c-a85d-423e-bfd1-e3d8c870cf87","ios":"levelo://app?vid=b9f1ad9c-a85d-423e-bfd1-e3d8c870cf87"},"vehicle_type_id":"4","last_reported":1730218299,"current_range_meters":29600,"station_id":"ce4bh092rcd13ifvqd30","pricing_plan_id":"cebpf4jnsgd1na2vs0mg"},{"bike_id":"5ea475d8-fbf3-460f-872c-01c8b0273f69","system_id":"levelo_inurba_marseille","lat":43.23048,"lon":5.35501,"is_reserved":false,"is_disabled":false,"rental_uris":{"android":"levelo://app?vid=5ea475d8-fbf3-460f-872c-01c8b0273f69","ios":"levelo://app?vid=5ea475d8-fbf3-460f-872c-01c8b0273f69"},"vehicle_type_id":"4","last_reported":1730218299,"current_range_meters":12800,"station_id":"cpo3342slgdg3j2ifvpg","pricing_plan_id":"cebpf4jnsgd1na2vs0mg"},{"bike_id":"c301accf-a537-4c35-9b51-7a53ea1114b4","system_id":"levelo_inurba_marseille","lat":43.32659,"lon":5.40998,"is_reserved":false,"is_disabled":false,"rental_uris":{"android":"levelo://app?vid=c301accf-a537-4c35-9b51-7a53ea1114b4","ios":"levelo://app?vid=c301accf-a537-4c35-9b51-7a53ea1114b4"},"vehicle_type_id":"4","last_reported":1730218299,"current_range_meters":34000,"station_id":"ce4bhpp2rcd13ifvqhgg","pricing_plan_id":"cebpf4jnsgd1na2vs0mg"},{"bike_id":"5b0caea7-b0e5-4da2-a359-403550b56cfa","system_id":"levelo_inurba_marseille","lat":43.24165,"lon":5.36399,"is_reserved":false,"is_disabled":false,"rental_uris":{"android":"levelo://app?vid=5b0caea7-b0e5-4da2-a359-403550b56cfa","ios":"levelo://app?vid=5b0caea7-b0e5-4da2-a359-403550b56cfa"},"vehicle_type_id":"4","last_reported":1730218299,"current_range_meters":27600,"station_id":"cpo36qri1sfpv3e86is0","pricing_plan_id":"cebpf4jnsgd1na2vs0mg"},{"bike_id":"77ef123c-8538-4364-86da-52db013cf76c","system_id":"levelo_inurba_marseille","lat":43.24807,"lon":5.37457,"is_reserved":false,"is_disabled":false,"rental_uris":{"android":"levelo://app?vid=77ef123c-8538-4364-86da-52db013cf76c","ios":"levelo://app?vid=77ef123c-8538-4364-86da-52db013cf76c"},"vehicle_type_id":"4","last_reported":1730218299,"current_range_meters":38000,"station_id":"ce4bhgh2rcd13ifvqfb0","pricing_plan_id":"cebpf4jnsgd1na2vs0mg"},{"bike_id":"aee7f5bd-dd1a-43d3-8332-fe1be419f635","system_id":"levelo_inurba_marseille","lat":43.29542,"lon":5.39022,"is_reserved":false,"is_disabled":false,"rental_uris":{"android":"levelo://app?vid=aee7f5bd-dd1a-43d3-8332-fe1be419f635","ios":"levelo://app?vid=aee7f5bd-dd1a-43d3-8332-fe1be419f635"},"vehicle_type_id":"4","last_reported":1730218299,"current_range_meters":15200,"station_id":"ce4bh3p2rcd13ifvqdp0","pricing_plan_id":"cebpf4jnsgd1na2vs0mg"},{"bike_id":"4caafd88-9a42-4479-8778-fdb020740267","system_id":"levelo_inurba_marseille","lat":43.29532,"lon":5.38542,"is_reserved":false,"is_disabled":false,"rental_uris":{"android":"levelo://app?vid=4caafd88-9a42-4479-8778-fdb020740267","ios":"levelo://app?vid=4caafd88-9a42-4479-8778-fdb020740267"},"vehicle_type_id":"4","last_reported":1730218299,"current_range_meters":39200,"station_id":"ce4bgih2rcd13ifvqba0","pricing_plan_id":"cebpf4jnsgd1na2vs0mg"},{"bike_id":"be702d16-88dd-4ee5-9a7f-db36a69e90eb","system_id":"levelo_inurba_marseille","lat":43.28445,"lon":5.39205,"is_reserved":false,"is_disabled":false,"rental_uris":{"android":"levelo://app?vid=be702d16-88dd-4ee5-9a7f-db36a69e90eb","ios":"levelo://app?vid=be702d16-88dd-4ee5-9a7f-db36a69e90eb"},"vehicle_type_id":"4","last_reported":1730218299,"current_range_meters":17600,"station_id":"ce4bhoh2rcd13ifvqh5g","pricing_plan_id":"cebpf4jnsgd1na2vs0mg"},{"bike_id":"5fbffce1-f55f-48a7-9683-b6ea4c0bbb3d","system_id":"levelo_inurba_marseille","lat":43.27495,"lon":5.42457,"is_reserved":false,"is_disabled":false,"rental_uris":{"android":"levelo://app?vid=5fbffce1-f55f-48a7-9683-b6ea4c0bbb3d","ios":"levelo://app?vid=5fbffce1-f55f-48a7-9683-b6ea4c0bbb3d"},"vehicle_type_id":"4","last_reported":1730218299,"current_range_meters":8400,"station_id":"ce4bhn92rcd13ifvqgrg","pricing_plan_id":"cebpf4jnsgd1na2vs0mg"},{"bike_id":"3a33a40c-8118-46fa-8de8-a41873361fc8","system_id":"levelo_inurba_marseille","lat":43.26501,"lon":5.39535,"is_reserved":false,"is_disabled":false,"rental_uris":{"android":"levelo://app?vid=3a33a40c-8118-46fa-8de8-a41873361fc8","ios":"levelo://app?vid=3a33a40c-8118-46fa-8de8-a41873361fc8"},"vehicle_type_id":"4","last_reported":1730218299,"current_range_meters":36400,"station_id":"ce4bhi12rcd13ifvqfq0","pricing_plan_id":"cebpf4jnsgd1na2vs0mg"},{"bike_id":"2c0ecc19-43bf-49e5-b2a3-e1c6a9641b07","system_id":"levelo_inurba_marseille","lat":43.26491,"lon":5.39551,"is_reserved":false,"is_disabled":false,"rental_uris":{"android":"levelo://app?vid=2c0ecc19-43bf-49e5-b2a3-e1c6a9641b07","ios":"levelo://app?vid=2c0ecc19-43bf-49e5-b2a3-e1c6a9641b07"},"vehicle_type_id":"4","last_reported":1730218299,"current_range_meters":38000,"station_id":"ce4bhi12rcd13ifvqfq0","pricing_plan_id":"cebpf4jnsgd1na2vs0mg"},{"bike_id":"bd1d0c81-a505-473b-97ed-c2b8dcfa3ede","system_id":"levelo_inurba_marseille","lat":43.28411,"lon":5.34978,"is_reserved":false,"is_disabled":false,"rental_uris":{"android":"levelo://app?vid=bd1d0c81-a505-473b-97ed-c2b8dcfa3ede","ios":"levelo://app?vid=bd1d0c81-a505-473b-97ed-c2b8dcfa3ede"},"vehicle_type_id":"4","last_reported":1730218299,"current_range_meters":39200,"station_id":"ce4bhbh2rcd13ifvqepg","pricing_plan_id":"cebpf4jnsgd1na2vs0mg"},{"bike_id":"d79569ce-89bf-4b29-b374-2abbf6cc7e66","system_id":"levelo_inurba_marseille","lat":43.24165,"lon":5.36408,"is_reserved":false,"is_disabled":false,"rental_uris":{"android":"levelo://app?vid=d79569ce-89bf-4b29-b374-2abbf6cc7e66","ios":"levelo://app?vid=d79569ce-89bf-4b29-b374-2abbf6cc7e66"},"vehicle_type_id":"4","last_reported":1730218299,"current_range_meters":33600,"station_id":"cpo36qri1sfpv3e86is0","pricing_plan_id":"cebpf4jnsgd1na2vs0mg"},{"bike_id":"053b5ffd-996c-4264-b9e3-8971a582bd8a","system_id":"levelo_inurba_marseille","lat":43.27609,"lon":5.3612,"is_reserved":false,"is_disabled":false,"rental_uris":{"android":"levelo://app?vid=053b5ffd-996c-4264-b9e3-8971a582bd8a","ios":"levelo://app?vid=053b5ffd-996c-4264-b9e3-8971a582bd8a"},"vehicle_type_id":"4","last_reported":1730218299,"current_range_meters":8800,"station_id":"ce4bgj92rcd13ifvqbe0","pricing_plan_id":"cebpf4jnsgd1na2vs0mg"},{"bike_id":"4434f272-1fd2-453f-9817-a1d38243ac94","system_id":"levelo_inurba_marseille","lat":43.29706,"lon":5.36625,"is_reserved":false,"is_disabled":false,"rental_uris":{"android":"levelo://app?vid=4434f272-1fd2-453f-9817-a1d38243ac94","ios":"levelo://app?vid=4434f272-1fd2-453f-9817-a1d38243ac94"},"vehicle_type_id":"4","last_reported":1730218299,"current_range_meters":28400,"station_id":"ce4bgn12rcd13ifvqbt0","pricing_plan_id":"cebpf4jnsgd1na2vs0mg"},{"bike_id":"71ca1ef6-5725-460f-9bb5-daec8bfd3521","system_id":"levelo_inurba_marseille","lat":43.33024,"lon":5.39037,"is_reserved":false,"is_disabled":false,"rental_uris":{"android":"levelo://app?vid=71ca1ef6-5725-460f-9bb5-daec8bfd3521","ios":"levelo://app?vid=71ca1ef6-5725-460f-9bb5-daec8bfd3521"},"vehicle_type_id":"4","last_reported":1730218299,"current_range_meters":26000,"station_id":"ce4bhr92rcd13ifvqhrg","pricing_plan_id":"cebpf4jnsgd1na2vs0mg"},{"bike_id":"5e7ddc23-cca1-4564-9972-d9e2de88a646","system_id":"levelo_inurba_marseille","lat":43.26567,"lon":5.39008,"is_reserved":false,"is_disabled":false,"rental_uris":{"android":"levelo://app?vid=5e7ddc23-cca1-4564-9972-d9e2de88a646","ios":"levelo://app?vid=5e7ddc23-cca1-4564-9972-d9e2de88a646"},"vehicle_type_id":"4","last_reported":1730218299,"current_range_meters":4800,"station_id":"ce4bhe12rcd13ifvqf30","pricing_plan_id":"cebpf4jnsgd1na2vs0mg"},{"bike_id":"160c3125-d109-49e3-a687-ede78b99dea2","system_id":"levelo_inurba_marseille","lat":43.232,"lon":5.3555,"is_reserved":false,"is_disabled":false,"rental_uris":{"android":"levelo://app?vid=160c3125-d109-49e3-a687-ede78b99dea2","ios":"levelo://app?vid=160c3125-d109-49e3-a687-ede78b99dea2"},"vehicle_type_id":"4","last_reported":1730218299,"current_range_meters":16000,"station_id":"ce4bhu92rcd13ifvqi70","pricing_plan_id":"cebpf4jnsgd1na2vs0mg"},{"bike_id":"7a3f60d6-5589-44b2-bea7-8a929e9b6b4e","system_id":"levelo_inurba_marseille","lat":43.29899,"lon":5.43667,"is_reserved":false,"is_disabled":false,"rental_uris":{"android":"levelo://app?vid=7a3f60d6-5589-44b2-bea7-8a929e9b6b4e","ios":"levelo://app?vid=7a3f60d6-5589-44b2-bea7-8a929e9b6b4e"},"vehicle_type_id":"4","last_reported":1730218299,"current_range_meters":16800,"station_id":"ce4bhpp2rcd13ifvqhfg","pricing_plan_id":"cebpf4jnsgd1na2vs0mg"},{"bike_id":"aa288308-8405-41fa-a182-5603517313ab","system_id":"levelo_inurba_marseille","lat":43.30426,"lon":5.41295,"is_reserved":false,"is_disabled":false,"rental_uris":{"android":"levelo://app?vid=aa288308-8405-41fa-a182-5603517313ab","ios":"levelo://app?vid=aa288308-8405-41fa-a182-5603517313ab"},"vehicle_type_id":"4","last_reported":1730218299,"current_range_meters":26000,"station_id":"ce4bhop2rcd13ifvqh8g","pricing_plan_id":"cebpf4jnsgd1na2vs0mg"},{"bike_id":"f2c3314f-b028-46d4-8ea1-2dda665bc2eb","system_id":"levelo_inurba_marseille","lat":43.30085,"lon":5.39085,"is_reserved":false,"is_disabled":false,"rental_uris":{"android":"levelo://app?vid=f2c3314f-b028-46d4-8ea1-2dda665bc2eb","ios":"levelo://app?vid=f2c3314f-b028-46d4-8ea1-2dda665bc2eb"},"vehicle_type_id":"4","last_reported":1730218299,"current_range_meters":4000,"station_id":"ce4bh192rcd13ifvqdb0","pricing_plan_id":"cebpf4jnsgd1na2vs0mg"},{"bike_id":"236b6802-9c55-4b02-ac01-96d90f0ba14e","system_id":"levelo_inurba_marseille","lat":43.26797,"lon":5.4026,"is_reserved":false,"is_disabled":false,"rental_uris":{"android":"levelo://app?vid=236b6802-9c55-4b02-ac01-96d90f0ba14e","ios":"levelo://app?vid=236b6802-9c55-4b02-ac01-96d90f0ba14e"},"vehicle_type_id":"4","last_reported":1730218299,"current_range_meters":39200,"station_id":"ce501612rcd8frsf0b60","pricing_plan_id":"cebpf4jnsgd1na2vs0mg"},{"bike_id":"dd669173-2546-4e51-83c0-5c35cc2f73b4","system_id":"levelo_inurba_marseille","lat":43.255,"lon":5.37655,"is_reserved":false,"is_disabled":false,"rental_uris":{"android":"levelo://app?vid=dd669173-2546-4e51-83c0-5c35cc2f73b4","ios":"levelo://app?vid=dd669173-2546-4e51-83c0-5c35cc2f73b4"},"vehicle_type_id":"4","last_reported":1730218299,"current_range_meters":24800,"station_id":"ce4bhh12rcd13ifvqff0","pricing_plan_id":"cebpf4jnsgd1na2vs0mg"},{"bike_id":"f21b45e8-a786-4421-856f-8b8245fd84cb","system_id":"levelo_inurba_marseille","lat":43.31682,"lon":5.4047,"is_reserved":false,"is_disabled":false,"rental_uris":{"android":"levelo://app?vid=f21b45e8-a786-4421-856f-8b8245fd84cb","ios":"levelo://app?vid=f21b45e8-a786-4421-856f-8b8245fd84cb"},"vehicle_type_id":"4","last_reported":1730218299,"current_range_meters":34000,"station_id":"ce4bh012rcd13ifvqd00","pricing_plan_id":"cebpf4jnsgd1na2vs0mg"},{"bike_id":"a5ecadc9-cb02-4701-8506-8cbc8f44bd96","system_id":"levelo_inurba_marseille","lat":43.33027,"lon":5.39042,"is_reserved":false,"is_disabled":false,"rental_uris":{"android":"levelo://app?vid=a5ecadc9-cb02-4701-8506-8cbc8f44bd96","ios":"levelo://app?vid=a5ecadc9-cb02-4701-8506-8cbc8f44bd96"},"vehicle_type_id":"4","last_reported":1730218299,"current_range_meters":25600,"station_id":"ce4bhr92rcd13ifvqhrg","pricing_plan_id":"cebpf4jnsgd1na2vs0mg"},{"bike_id":"3e48ef2c-5e9b-488e-b4f4-d5654e80ffd4","system_id":"levelo_inurba_marseille","lat":43.27314,"lon":5.39077,"is_reserved":false,"is_disabled":false,"rental_uris":{"android":"levelo://app?vid=3e48ef2c-5e9b-488e-b4f4-d5654e80ffd4","ios":"levelo://app?vid=3e48ef2c-5e9b-488e-b4f4-d5654e80ffd4"},"vehicle_type_id":"4","last_reported":1730218299,"current_range_meters":6800,"station_id":"ce4bhgp2rcd13ifvqfe0","pricing_plan_id":"cebpf4jnsgd1na2vs0mg"},{"bike_id":"e24765a5-e631-4950-85a7-d50d4da7738d","system_id":"levelo_inurba_marseille","lat":43.22933,"lon":5.35375,"is_reserved":false,"is_disabled":false,"rental_uris":{"android":"levelo://app?vid=e24765a5-e631-4950-85a7-d50d4da7738d","ios":"levelo://app?vid=e24765a5-e631-4950-85a7-d50d4da7738d"},"vehicle_type_id":"4","last_reported":1730218299,"current_range_meters":8000,"station_id":"cpo3532slgdg3j2ikp40","pricing_plan_id":"cebpf4jnsgd1na2vs0mg"},{"bike_id":"648fac3e-24a4-4416-944b-a287bd76c738","system_id":"levelo_inurba_marseille","lat":43.26931,"lon":5.38918,"is_reserved":false,"is_disabled":false,"rental_uris":{"android":"levelo://app?vid=648fac3e-24a4-4416-944b-a287bd76c738","ios":"levelo://app?vid=648fac3e-24a4-4416-944b-a287bd76c738"},"vehicle_type_id":"4","last_reported":1730218299,"current_range_meters":37600,"station_id":"ce4bhhh2rcd13ifvqfl0","pricing_plan_id":"cebpf4jnsgd1na2vs0mg"},{"bike_id":"308000a4-cb10-4aaf-bf38-988ad1730720","system_id":"levelo_inurba_marseille","lat":43.29715,"lon":5.36603,"is_reserved":false,"is_disabled":false,"rental_uris":{"android":"levelo://app?vid=308000a4-cb10-4aaf-bf38-988ad1730720","ios":"levelo://app?vid=308000a4-cb10-4aaf-bf38-988ad1730720"},"vehicle_type_id":"4","last_reported":1730218299,"current_range_meters":23200,"station_id":"ce4bgn12rcd13ifvqbt0","pricing_plan_id":"cebpf4jnsgd1na2vs0mg"},{"bike_id":"2fda6181-03f5-40ed-b158-4bcd6908625f","system_id":"levelo_inurba_marseille","lat":43.31675,"lon":5.43558,"is_reserved":false,"is_disabled":false,"rental_uris":{"android":"levelo://app?vid=2fda6181-03f5-40ed-b158-4bcd6908625f","ios":"levelo://app?vid=2fda6181-03f5-40ed-b158-4bcd6908625f"},"vehicle_type_id":"4","last_reported":1730218299,"current_range_meters":23200,"station_id":"","pricing_plan_id":"cebpf4jnsgd1na2vs0mg"},{"bike_id":"42f33d93-d869-423b-8263-d4fe286325ee","system_id":"levelo_inurba_marseille","lat":43.24076,"lon":5.37752,"is_reserved":false,"is_disabled":false,"rental_uris":{"android":"levelo://app?vid=42f33d93-d869-423b-8263-d4fe286325ee","ios":"levelo://app?vid=42f33d93-d869-423b-8263-d4fe286325ee"},"vehicle_type_id":"4","last_reported":1730218299,"current_range_meters":4400,"station_id":"ce4bhnp2rcd13ifvqgvg","pricing_plan_id":"cebpf4jnsgd1na2vs0mg"},{"bike_id":"6c857bf7-f984-4f12-a2c3-99e3635aa9a9","system_id":"levelo_inurba_marseille","lat":43.26056,"lon":5.39401,"is_reserved":false,"is_disabled":false,"rental_uris":{"android":"levelo://app?vid=6c857bf7-f984-4f12-a2c3-99e3635aa9a9","ios":"levelo://app?vid=6c857bf7-f984-4f12-a2c3-99e3635aa9a9"},"vehicle_type_id":"4","last_reported":1730218299,"current_range_meters":30800,"station_id":"ce4bhh92rcd13ifvqfj0","pricing_plan_id":"cebpf4jnsgd1na2vs0mg"},{"bike_id":"d2919913-d1a8-416d-8b8e-e029be2017b5","system_id":"levelo_inurba_marseille","lat":43.2558,"lon":5.38231,"is_reserved":false,"is_disabled":false,"rental_uris":{"android":"levelo://app?vid=d2919913-d1a8-416d-8b8e-e029be2017b5","ios":"levelo://app?vid=d2919913-d1a8-416d-8b8e-e029be2017b5"},"vehicle_type_id":"4","last_reported":1730218299,"current_range_meters":27200,"station_id":"ce4bhih2rcd13ifvqfs0","pricing_plan_id":"cebpf4jnsgd1na2vs0mg"},{"bike_id":"f1cfc95a-1214-43f4-a393-2c944d77315d","system_id":"levelo_inurba_marseille","lat":43.25085,"lon":5.3952,"is_reserved":false,"is_disabled":false,"rental_uris":{"android":"levelo://app?vid=f1cfc95a-1214-43f4-a393-2c944d77315d","ios":"levelo://app?vid=f1cfc95a-1214-43f4-a393-2c944d77315d"},"vehicle_type_id":"4","last_reported":1730218299,"current_range_meters":30400,"station_id":"ce4bhm12rcd13ifvqgkg","pricing_plan_id":"cebpf4jnsgd1na2vs0mg"},{"bike_id":"db89d506-e898-40b5-bf29-2c9325c8def0","system_id":"levelo_inurba_marseille","lat":43.26557,"lon":5.37288,"is_reserved":false,"is_disabled":false,"rental_uris":{"android":"levelo://app?vid=db89d506-e898-40b5-bf29-2c9325c8def0","ios":"levelo://app?vid=db89d506-e898-40b5-bf29-2c9325c8def0"},"vehicle_type_id":"4","last_reported":1730218299,"current_range_meters":3200,"station_id":"ce4bhg12rcd13ifvqf70","pricing_plan_id":"cebpf4jnsgd1na2vs0mg"},{"bike_id":"42c5b94d-a6e1-4c0e-b3fa-74ef5f2ef0d2","system_id":"levelo_inurba_marseille","lat":43.23962,"lon":5.36629,"is_reserved":false,"is_disabled":false,"rental_uris":{"android":"levelo://app?vid=42c5b94d-a6e1-4c0e-b3fa-74ef5f2ef0d2","ios":"levelo://app?vid=42c5b94d-a6e1-4c0e-b3fa-74ef5f2ef0d2"},"vehicle_type_id":"4","last_reported":1730218299,"current_range_meters":22000,"station_id":"ce4bhi12rcd13ifvqfp0","pricing_plan_id":"cebpf4jnsgd1na2vs0mg"},{"bike_id":"6ed0f2ae-9151-433a-9eb2-217d0699a980","system_id":"levelo_inurba_marseille","lat":43.30592,"lon":5.39363,"is_reserved":false,"is_disabled":false,"rental_uris":{"android":"levelo://app?vid=6ed0f2ae-9151-433a-9eb2-217d0699a980","ios":"levelo://app?vid=6ed0f2ae-9151-433a-9eb2-217d0699a980"},"vehicle_type_id":"4","last_reported":1730218299,"current_range_meters":38800,"station_id":"ce4bh0p2rcd13ifvqd80","pricing_plan_id":"cebpf4jnsgd1na2vs0mg"},{"bike_id":"dbd786e4-0c66-4d20-8d25-759a1428a626","system_id":"levelo_inurba_marseille","lat":43.27072,"lon":5.42283,"is_reserved":false,"is_disabled":false,"rental_uris":{"android":"levelo://app?vid=dbd786e4-0c66-4d20-8d25-759a1428a626","ios":"levelo://app?vid=dbd786e4-0c66-4d20-8d25-759a1428a626"},"vehicle_type_id":"4","last_reported":1730218299,"current_range_meters":22800,"station_id":"ce4bhk92rcd13ifvqgb0","pricing_plan_id":"cebpf4jnsgd1na2vs0mg"},{"bike_id":"9afe790e-07bb-4867-bf36-11e781b23627","system_id":"levelo_inurba_marseille","lat":43.28155,"lon":5.42639,"is_reserved":false,"is_disabled":false,"rental_uris":{"android":"levelo://app?vid=9afe790e-07bb-4867-bf36-11e781b23627","ios":"levelo://app?vid=9afe790e-07bb-4867-bf36-11e781b23627"},"vehicle_type_id":"4","last_reported":1730218299,"current_range_meters":32000,"station_id":"ce4bhnh2rcd13ifvqgug","pricing_plan_id":"cebpf4jnsgd1na2vs0mg"},{"bike_id":"0cebe45a-7302-469a-b861-6fd094a95414","system_id":"levelo_inurba_marseille","lat":43.2319,"lon":5.35554,"is_reserved":false,"is_disabled":false,"rental_uris":{"android":"levelo://app?vid=0cebe45a-7302-469a-b861-6fd094a95414","ios":"levelo://app?vid=0cebe45a-7302-469a-b861-6fd094a95414"},"vehicle_type_id":"4","last_reported":1730218299,"current_range_meters":8000,"station_id":"ce4bhu92rcd13ifvqi70","pricing_plan_id":"cebpf4jnsgd1na2vs0mg"},{"bike_id":"769025b3-b1ab-4a56-8310-7807acc06298","system_id":"levelo_inurba_marseille","lat":43.272283,"lon":5.391539,"is_reserved":false,"is_disabled":false,"rental_uris":{"android":"levelo://app?vid=769025b3-b1ab-4a56-8310-7807acc06298","ios":"levelo://app?vid=769025b3-b1ab-4a56-8310-7807acc06298"},"vehicle_type_id":"4","last_reported":1730218299,"current_range_meters":37600,"station_id":"ce4bh3p2rcd13ifvqdq0","pricing_plan_id":"cebpf4jnsgd1na2vs0mg"},{"bike_id":"b19e8bf0-f239-49bb-a7d3-c3ba3e9b5222","system_id":"levelo_inurba_marseille","lat":43.24388,"lon":5.37046,"is_reserved":false,"is_disabled":false,"rental_uris":{"android":"levelo://app?vid=b19e8bf0-f239-49bb-a7d3-c3ba3e9b5222","ios":"levelo://app?vid=b19e8bf0-f239-49bb-a7d3-c3ba3e9b5222"},"vehicle_type_id":"4","last_reported":1730218299,"current_range_meters":39200,"station_id":"ce4bhhh2rcd13ifvqfk0","pricing_plan_id":"cebpf4jnsgd1na2vs0mg"},{"bike_id":"70fb1716-4a55-48c3-b067-927c36055bfa","system_id":"levelo_inurba_marseille","lat":43.28835,"lon":5.39379,"is_reserved":false,"is_disabled":false,"rental_uris":{"android":"levelo://app?vid=70fb1716-4a55-48c3-b067-927c36055bfa","ios":"levelo://app?vid=70fb1716-4a55-48c3-b067-927c36055bfa"},"vehicle_type_id":"4","last_reported":1730218299,"current_range_meters":29600,"station_id":"ce4bh2p2rcd13ifvqdi0","pricing_plan_id":"cebpf4jnsgd1na2vs0mg"},{"bike_id":"be5b23df-b679-485b-ba4f-b66122adad2e","system_id":"levelo_inurba_marseille","lat":43.26501,"lon":5.39546,"is_reserved":false,"is_disabled":false,"rental_uris":{"android":"levelo://app?vid=be5b23df-b679-485b-ba4f-b66122adad2e","ios":"levelo://app?vid=be5b23df-b679-485b-ba4f-b66122adad2e"},"vehicle_type_id":"4","last_reported":1730218299,"current_range_meters":28000,"station_id":"ce4bhi12rcd13ifvqfq0","pricing_plan_id":"cebpf4jnsgd1na2vs0mg"},{"bike_id":"de2ecb3e-921c-4da6-887e-1f90f1b7ac74","system_id":"levelo_inurba_marseille","lat":43.26565,"lon":5.39011,"is_reserved":false,"is_disabled":false,"rental_uris":{"android":"levelo://app?vid=de2ecb3e-921c-4da6-887e-1f90f1b7ac74","ios":"levelo://app?vid=de2ecb3e-921c-4da6-887e-1f90f1b7ac74"},"vehicle_type_id":"4","last_reported":1730218299,"current_range_meters":11200,"station_id":"ce4bhe12rcd13ifvqf30","pricing_plan_id":"cebpf4jnsgd1na2vs0mg"},{"bike_id":"9cb93c0f-e209-48e9-8366-c721da652997","system_id":"levelo_inurba_marseille","lat":43.28671,"lon":5.36358,"is_reserved":false,"is_disabled":false,"rental_uris":{"android":"levelo://app?vid=9cb93c0f-e209-48e9-8366-c721da652997","ios":"levelo://app?vid=9cb93c0f-e209-48e9-8366-c721da652997"},"vehicle_type_id":"4","last_reported":1730218299,"current_range_meters":38000,"station_id":"ce4bhah2rcd13ifvqej0","pricing_plan_id":"cebpf4jnsgd1na2vs0mg"},{"bike_id":"0951f49d-f3cb-4201-95c1-cf4a9bc452cc","system_id":"levelo_inurba_marseille","lat":43.31274,"lon":5.40178,"is_reserved":false,"is_disabled":false,"rental_uris":{"android":"levelo://app?vid=0951f49d-f3cb-4201-95c1-cf4a9bc452cc","ios":"levelo://app?vid=0951f49d-f3cb-4201-95c1-cf4a9bc452cc"},"vehicle_type_id":"4","last_reported":1730218299,"current_range_meters":12000,"station_id":"ce4bh092rcd13ifvqd30","pricing_plan_id":"cebpf4jnsgd1na2vs0mg"},{"bike_id":"5d518288-2712-4be9-8aff-1f5ec6403be2","system_id":"levelo_inurba_marseille","lat":43.27177,"lon":5.41,"is_reserved":false,"is_disabled":false,"rental_uris":{"android":"levelo://app?vid=5d518288-2712-4be9-8aff-1f5ec6403be2","ios":"levelo://app?vid=5d518288-2712-4be9-8aff-1f5ec6403be2"},"vehicle_type_id":"4","last_reported":1730218299,"current_range_meters":19600,"station_id":"ce4bhl12rcd13ifvqgf0","pricing_plan_id":"cebpf4jnsgd1na2vs0mg"},{"bike_id":"e9ef590c-3946-4f3c-a061-93b1487a6806","system_id":"levelo_inurba_marseille","lat":43.25501,"lon":5.37651,"is_reserved":false,"is_disabled":false,"rental_uris":{"android":"levelo://app?vid=e9ef590c-3946-4f3c-a061-93b1487a6806","ios":"levelo://app?vid=e9ef590c-3946-4f3c-a061-93b1487a6806"},"vehicle_type_id":"4","last_reported":1730218299,"current_range_meters":36000,"station_id":"ce4bhh12rcd13ifvqff0","pricing_plan_id":"cebpf4jnsgd1na2vs0mg"},{"bike_id":"53e94855-bad6-47b3-abdd-cc077fae34c5","system_id":"levelo_inurba_marseille","lat":43.239623,"lon":5.366243,"is_reserved":false,"is_disabled":false,"rental_uris":{"android":"levelo://app?vid=53e94855-bad6-47b3-abdd-cc077fae34c5","ios":"levelo://app?vid=53e94855-bad6-47b3-abdd-cc077fae34c5"},"vehicle_type_id":"4","last_reported":1730218299,"current_range_meters":35600,"station_id":"ce4bhi12rcd13ifvqfp0","pricing_plan_id":"cebpf4jnsgd1na2vs0mg"},{"bike_id":"98191616-df7b-4873-81e2-78bbef00038b","system_id":"levelo_inurba_marseille","lat":43.230555,"lon":5.354943,"is_reserved":false,"is_disabled":false,"rental_uris":{"android":"levelo://app?vid=98191616-df7b-4873-81e2-78bbef00038b","ios":"levelo://app?vid=98191616-df7b-4873-81e2-78bbef00038b"},"vehicle_type_id":"4","last_reported":1730218299,"current_range_meters":20400,"station_id":"cpo3342slgdg3j2ifvpg","pricing_plan_id":"cebpf4jnsgd1na2vs0mg"},{"bike_id":"b838bb80-b27c-4331-9071-b3f231234486","system_id":"levelo_inurba_marseille","lat":43.32365,"lon":5.38884,"is_reserved":false,"is_disabled":false,"rental_uris":{"android":"levelo://app?vid=b838bb80-b27c-4331-9071-b3f231234486","ios":"levelo://app?vid=b838bb80-b27c-4331-9071-b3f231234486"},"vehicle_type_id":"4","last_reported":1730218299,"current_range_meters":28800,"station_id":"ce4bhqp2rcd13ifvqhog","pricing_plan_id":"cebpf4jnsgd1na2vs0mg"},{"bike_id":"4511374d-08b0-4185-adbc-ce1936c3c797","system_id":"levelo_inurba_marseille","lat":43.32658,"lon":5.40986,"is_reserved":false,"is_disabled":false,"rental_uris":{"android":"levelo://app?vid=4511374d-08b0-4185-adbc-ce1936c3c797","ios":"levelo://app?vid=4511374d-08b0-4185-adbc-ce1936c3c797"},"vehicle_type_id":"4","last_reported":1730218299,"current_range_meters":25600,"station_id":"ce4bhpp2rcd13ifvqhgg","pricing_plan_id":"cebpf4jnsgd1na2vs0mg"},{"bike_id":"fc1da08e-896c-48c0-a413-0763b8e214fc","system_id":"levelo_inurba_marseille","lat":43.30692,"lon":5.4002,"is_reserved":false,"is_disabled":false,"rental_uris":{"android":"levelo://app?vid=fc1da08e-896c-48c0-a413-0763b8e214fc","ios":"levelo://app?vid=fc1da08e-896c-48c0-a413-0763b8e214fc"},"vehicle_type_id":"4","last_reported":1730218299,"current_range_meters":31200,"station_id":"ce4bgvp2rcd13ifvqct0","pricing_plan_id":"cebpf4jnsgd1na2vs0mg"},{"bike_id":"f8204a4e-e980-46bc-953a-4be0868dd859","system_id":"levelo_inurba_marseille","lat":43.31077,"lon":5.42435,"is_reserved":false,"is_disabled":false,"rental_uris":{"android":"levelo://app?vid=f8204a4e-e980-46bc-953a-4be0868dd859","ios":"levelo://app?vid=f8204a4e-e980-46bc-953a-4be0868dd859"},"vehicle_type_id":"4","last_reported":1730218299,"current_range_meters":38800,"station_id":"ce4bhp92rcd13ifvqhag","pricing_plan_id":"cebpf4jnsgd1na2vs0mg"},{"bike_id":"a5cb1303-a73c-4081-b544-4c2d1bd86c87","system_id":"levelo_inurba_marseille","lat":43.27167,"lon":5.40994,"is_reserved":false,"is_disabled":false,"rental_uris":{"android":"levelo://app?vid=a5cb1303-a73c-4081-b544-4c2d1bd86c87","ios":"levelo://app?vid=a5cb1303-a73c-4081-b544-4c2d1bd86c87"},"vehicle_type_id":"4","last_reported":1730218299,"current_range_meters":12800,"station_id":"ce4bhl12rcd13ifvqgf0","pricing_plan_id":"cebpf4jnsgd1na2vs0mg"},{"bike_id":"456d025c-87fa-4204-96ec-64fd60f0cdcf","system_id":"levelo_inurba_marseille","lat":43.29039,"lon":5.39972,"is_reserved":false,"is_disabled":false,"rental_uris":{"android":"levelo://app?vid=456d025c-87fa-4204-96ec-64fd60f0cdcf","ios":"levelo://app?vid=456d025c-87fa-4204-96ec-64fd60f0cdcf"},"vehicle_type_id":"4","last_reported":1730218299,"current_range_meters":28000,"station_id":"ce4bh392rcd13ifvqdm0","pricing_plan_id":"cebpf4jnsgd1na2vs0mg"},{"bike_id":"e5d7fc79-deaa-4d09-b329-6aea675c4874","system_id":"levelo_inurba_marseille","lat":43.32288,"lon":5.38258,"is_reserved":false,"is_disabled":false,"rental_uris":{"android":"levelo://app?vid=e5d7fc79-deaa-4d09-b329-6aea675c4874","ios":"levelo://app?vid=e5d7fc79-deaa-4d09-b329-6aea675c4874"},"vehicle_type_id":"4","last_reported":1730218299,"current_range_meters":14800,"station_id":"ce4bhr12rcd13ifvqhqg","pricing_plan_id":"cebpf4jnsgd1na2vs0mg"},{"bike_id":"562866d0-785a-41d6-930a-8f364c56175d","system_id":"levelo_inurba_marseille","lat":43.30209,"lon":5.39459,"is_reserved":false,"is_disabled":false,"rental_uris":{"android":"levelo://app?vid=562866d0-785a-41d6-930a-8f364c56175d","ios":"levelo://app?vid=562866d0-785a-41d6-930a-8f364c56175d"},"vehicle_type_id":"4","last_reported":1730218299,"current_range_meters":37600,"station_id":"ce4bh0p2rcd13ifvqd70","pricing_plan_id":"cebpf4jnsgd1na2vs0mg"},{"bike_id":"f4f9d16a-23ce-49d8-b92f-ce1d4ce09c08","system_id":"levelo_inurba_marseille","lat":43.24084,"lon":5.37743,"is_reserved":false,"is_disabled":false,"rental_uris":{"android":"levelo://app?vid=f4f9d16a-23ce-49d8-b92f-ce1d4ce09c08","ios":"levelo://app?vid=f4f9d16a-23ce-49d8-b92f-ce1d4ce09c08"},"vehicle_type_id":"4","last_reported":1730218299,"current_range_meters":28400,"station_id":"ce4bhnp2rcd13ifvqgvg","pricing_plan_id":"cebpf4jnsgd1na2vs0mg"},{"bike_id":"c9fcbe8b-c8a3-4682-b6df-74865b130a3b","system_id":"levelo_inurba_marseille","lat":43.30545,"lon":5.36713,"is_reserved":false,"is_disabled":false,"rental_uris":{"android":"levelo://app?vid=c9fcbe8b-c8a3-4682-b6df-74865b130a3b","ios":"levelo://app?vid=c9fcbe8b-c8a3-4682-b6df-74865b130a3b"},"vehicle_type_id":"4","last_reported":1730218299,"current_range_meters":12000,"station_id":"ce4bgrp2rcd13ifvqc9g","pricing_plan_id":"cebpf4jnsgd1na2vs0mg"},{"bike_id":"55b30f1e-f030-4b78-97b9-5d194f74d882","system_id":"levelo_inurba_marseille","lat":43.27895,"lon":5.3802,"is_reserved":false,"is_disabled":false,"rental_uris":{"android":"levelo://app?vid=55b30f1e-f030-4b78-97b9-5d194f74d882","ios":"levelo://app?vid=55b30f1e-f030-4b78-97b9-5d194f74d882"},"vehicle_type_id":"4","last_reported":1730218299,"current_range_meters":36000,"station_id":"ce4bhf92rcd13ifvqf50","pricing_plan_id":"cebpf4jnsgd1na2vs0mg"},{"bike_id":"6fb5ea7d-ea46-4e51-8a16-096ebc153269","system_id":"levelo_inurba_marseille","lat":43.28467,"lon":5.38429,"is_reserved":false,"is_disabled":false,"rental_uris":{"android":"levelo://app?vid=6fb5ea7d-ea46-4e51-8a16-096ebc153269","ios":"levelo://app?vid=6fb5ea7d-ea46-4e51-8a16-096ebc153269"},"vehicle_type_id":"4","last_reported":1730218299,"current_range_meters":27200,"station_id":"ce4bh512rcd13ifvqe3g","pricing_plan_id":"cebpf4jnsgd1na2vs0mg"},{"bike_id":"d8c6147b-bac4-4598-8033-6db332218460","system_id":"levelo_inurba_marseille","lat":43.27617,"lon":5.36108,"is_reserved":false,"is_disabled":false,"rental_uris":{"android":"levelo://app?vid=d8c6147b-bac4-4598-8033-6db332218460","ios":"levelo://app?vid=d8c6147b-bac4-4598-8033-6db332218460"},"vehicle_type_id":"4","last_reported":1730218299,"current_range_meters":30800,"station_id":"ce4bgj92rcd13ifvqbe0","pricing_plan_id":"cebpf4jnsgd1na2vs0mg"},{"bike_id":"bed4016a-d330-429c-8abd-aa71c41e5420","system_id":"levelo_inurba_marseille","lat":43.31687,"lon":5.40479,"is_reserved":false,"is_disabled":false,"rental_uris":{"android":"levelo://app?vid=bed4016a-d330-429c-8abd-aa71c41e5420","ios":"levelo://app?vid=bed4016a-d330-429c-8abd-aa71c41e5420"},"vehicle_type_id":"4","last_reported":1730218299,"current_range_meters":33600,"station_id":"ce4bh012rcd13ifvqd00","pricing_plan_id":"cebpf4jnsgd1na2vs0mg"},{"bike_id":"7415c028-200f-4121-b372-814b4c89c050","system_id":"levelo_inurba_marseille","lat":43.27376,"lon":5.36261,"is_reserved":false,"is_disabled":false,"rental_uris":{"android":"levelo://app?vid=7415c028-200f-4121-b372-814b4c89c050","ios":"levelo://app?vid=7415c028-200f-4121-b372-814b4c89c050"},"vehicle_type_id":"4","last_reported":1730218299,"current_range_meters":15200,"station_id":"ce4bhbh2rcd13ifvqeo0","pricing_plan_id":"cebpf4jnsgd1na2vs0mg"},{"bike_id":"5fa717c3-49d2-4351-b8ee-3acdb1697798","system_id":"levelo_inurba_marseille","lat":43.28941,"lon":5.36631,"is_reserved":false,"is_disabled":false,"rental_uris":{"android":"levelo://app?vid=5fa717c3-49d2-4351-b8ee-3acdb1697798","ios":"levelo://app?vid=5fa717c3-49d2-4351-b8ee-3acdb1697798"},"vehicle_type_id":"4","last_reported":1730218299,"current_range_meters":22800,"station_id":"ce4bhap2rcd13ifvqek0","pricing_plan_id":"cebpf4jnsgd1na2vs0mg"},{"bike_id":"a6780b83-a5e4-4c8a-bc34-d04e79ee8d15","system_id":"levelo_inurba_marseille","lat":43.27997,"lon":5.40021,"is_reserved":false,"is_disabled":false,"rental_uris":{"android":"levelo://app?vid=a6780b83-a5e4-4c8a-bc34-d04e79ee8d15","ios":"levelo://app?vid=a6780b83-a5e4-4c8a-bc34-d04e79ee8d15"},"vehicle_type_id":"4","last_reported":1730218299,"current_range_meters":10800,"station_id":"ce4bho92rcd13ifvqh4g","pricing_plan_id":"cebpf4jnsgd1na2vs0mg"},{"bike_id":"9e541136-436a-4b82-917e-b2364b1d0a9d","system_id":"levelo_inurba_marseille","lat":43.2927,"lon":5.40893,"is_reserved":false,"is_disabled":false,"rental_uris":{"android":"levelo://app?vid=9e541136-436a-4b82-917e-b2364b1d0a9d","ios":"levelo://app?vid=9e541136-436a-4b82-917e-b2364b1d0a9d"},"vehicle_type_id":"4","last_reported":1730218299,"current_range_meters":19600,"station_id":"ce4bh192rcd13ifvqdc0","pricing_plan_id":"cebpf4jnsgd1na2vs0mg"},{"bike_id":"7c1b11fe-d428-4c81-be03-f3db1c769619","system_id":"levelo_inurba_marseille","lat":43.23967,"lon":5.36637,"is_reserved":false,"is_disabled":false,"rental_uris":{"android":"levelo://app?vid=7c1b11fe-d428-4c81-be03-f3db1c769619","ios":"levelo://app?vid=7c1b11fe-d428-4c81-be03-f3db1c769619"},"vehicle_type_id":"4","last_reported":1730218299,"current_range_meters":36800,"station_id":"ce4bhi12rcd13ifvqfp0","pricing_plan_id":"cebpf4jnsgd1na2vs0mg"},{"bike_id":"3086ddd5-5ad2-4668-b67d-f6172f947744","system_id":"levelo_inurba_marseille","lat":43.29707,"lon":5.3662,"is_reserved":false,"is_disabled":false,"rental_uris":{"android":"levelo://app?vid=3086ddd5-5ad2-4668-b67d-f6172f947744","ios":"levelo://app?vid=3086ddd5-5ad2-4668-b67d-f6172f947744"},"vehicle_type_id":"4","last_reported":1730218299,"current_range_meters":14400,"station_id":"ce4bgn12rcd13ifvqbt0","pricing_plan_id":"cebpf4jnsgd1na2vs0mg"},{"bike_id":"6c48d6a9-ca48-468e-854f-b9bb6d2bda14","system_id":"levelo_inurba_marseille","lat":43.28968,"lon":5.37856,"is_reserved":false,"is_disabled":false,"rental_uris":{"android":"levelo://app?vid=6c48d6a9-ca48-468e-854f-b9bb6d2bda14","ios":"levelo://app?vid=6c48d6a9-ca48-468e-854f-b9bb6d2bda14"},"vehicle_type_id":"4","last_reported":1730218299,"current_range_meters":30400,"station_id":"ce4bh9p2rcd13ifvqed0","pricing_plan_id":"cebpf4jnsgd1na2vs0mg"},{"bike_id":"7a581afa-ceee-4aab-b7d5-be727d90a15e","system_id":"levelo_inurba_marseille","lat":43.31461,"lon":5.39214,"is_reserved":false,"is_disabled":false,"rental_uris":{"android":"levelo://app?vid=7a581afa-ceee-4aab-b7d5-be727d90a15e","ios":"levelo://app?vid=7a581afa-ceee-4aab-b7d5-be727d90a15e"},"vehicle_type_id":"4","last_reported":1730218299,"current_range_meters":9200,"station_id":"ce4bgvp2rcd13ifvqcu0","pricing_plan_id":"cebpf4jnsgd1na2vs0mg"},{"bike_id":"9190cc6d-75dd-477d-9466-8ac1fd0cda3b","system_id":"levelo_inurba_marseille","lat":43.28613,"lon":5.38486,"is_reserved":false,"is_disabled":false,"rental_uris":{"android":"levelo://app?vid=9190cc6d-75dd-477d-9466-8ac1fd0cda3b","ios":"levelo://app?vid=9190cc6d-75dd-477d-9466-8ac1fd0cda3b"},"vehicle_type_id":"4","last_reported":1730218299,"current_range_meters":8000,"station_id":"ce4bho92rcd13ifvqh4g","pricing_plan_id":"cebpf4jnsgd1na2vs0mg"},{"bike_id":"7389791a-f8ce-4755-9251-c256a0cf9b0f","system_id":"levelo_inurba_marseille","lat":43.2306,"lon":5.35491,"is_reserved":false,"is_disabled":false,"rental_uris":{"android":"levelo://app?vid=7389791a-f8ce-4755-9251-c256a0cf9b0f","ios":"levelo://app?vid=7389791a-f8ce-4755-9251-c256a0cf9b0f"},"vehicle_type_id":"4","last_reported":1730218299,"current_range_meters":17200,"station_id":"cpo3342slgdg3j2ifvpg","pricing_plan_id":"cebpf4jnsgd1na2vs0mg"},{"bike_id":"ccc3ddb5-d6df-40f6-81ab-f895d3a06831","system_id":"levelo_inurba_marseille","lat":43.23059,"lon":5.35488,"is_reserved":false,"is_disabled":false,"rental_uris":{"android":"levelo://app?vid=ccc3ddb5-d6df-40f6-81ab-f895d3a06831","ios":"levelo://app?vid=ccc3ddb5-d6df-40f6-81ab-f895d3a06831"},"vehicle_type_id":"4","last_reported":1730218299,"current_range_meters":18000,"station_id":"cpo3342slgdg3j2ifvpg","pricing_plan_id":"cebpf4jnsgd1na2vs0mg"},{"bike_id":"f83c915f-7bc4-4196-9097-0a09fd61fe73","system_id":"levelo_inurba_marseille","lat":43.24383,"lon":5.3705,"is_reserved":false,"is_disabled":false,"rental_uris":{"android":"levelo://app?vid=f83c915f-7bc4-4196-9097-0a09fd61fe73","ios":"levelo://app?vid=f83c915f-7bc4-4196-9097-0a09fd61fe73"},"vehicle_type_id":"4","last_reported":1730218299,"current_range_meters":39200,"station_id":"ce4bhhh2rcd13ifvqfk0","pricing_plan_id":"cebpf4jnsgd1na2vs0mg"},{"bike_id":"ffab8395-8cff-414a-bbf2-caadd24e2d4d","system_id":"levelo_inurba_marseille","lat":43.32361,"lon":5.36757,"is_reserved":false,"is_disabled":false,"rental_uris":{"android":"levelo://app?vid=ffab8395-8cff-414a-bbf2-caadd24e2d4d","ios":"levelo://app?vid=ffab8395-8cff-414a-bbf2-caadd24e2d4d"},"vehicle_type_id":"4","last_reported":1730218299,"current_range_meters":29600,"station_id":"ce4bhsh2rcd13ifvqi2g","pricing_plan_id":"cebpf4jnsgd1na2vs0mg"},{"bike_id":"a1e22817-bf4b-4df1-9b2a-1541e25b57b2","system_id":"levelo_inurba_marseille","lat":43.30633,"lon":5.40097,"is_reserved":false,"is_disabled":false,"rental_uris":{"android":"levelo://app?vid=a1e22817-bf4b-4df1-9b2a-1541e25b57b2","ios":"levelo://app?vid=a1e22817-bf4b-4df1-9b2a-1541e25b57b2"},"vehicle_type_id":"4","last_reported":1730218299,"current_range_meters":38000,"station_id":"ce4bh112rcd13ifvqda0","pricing_plan_id":"cebpf4jnsgd1na2vs0mg"},{"bike_id":"e93d9475-cbc0-407e-9b61-67c60c3bd468","system_id":"levelo_inurba_marseille","lat":43.32338,"lon":5.40631,"is_reserved":false,"is_disabled":false,"rental_uris":{"android":"levelo://app?vid=e93d9475-cbc0-407e-9b61-67c60c3bd468","ios":"levelo://app?vid=e93d9475-cbc0-407e-9b61-67c60c3bd468"},"vehicle_type_id":"4","last_reported":1730218299,"current_range_meters":38000,"station_id":"ce4bhq92rcd13ifvqhjg","pricing_plan_id":"cebpf4jnsgd1na2vs0mg"},{"bike_id":"dba82181-5b9f-4076-8f90-a6dfe34e7498","system_id":"levelo_inurba_marseille","lat":43.2768,"lon":5.38868,"is_reserved":false,"is_disabled":false,"rental_uris":{"android":"levelo://app?vid=dba82181-5b9f-4076-8f90-a6dfe34e7498","ios":"levelo://app?vid=dba82181-5b9f-4076-8f90-a6dfe34e7498"},"vehicle_type_id":"4","last_reported":1730218299,"current_range_meters":9200,"station_id":"ce4bhi12rcd13ifvqfo0","pricing_plan_id":"cebpf4jnsgd1na2vs0mg"},{"bike_id":"baae4bb2-14d3-4961-918f-5cbd3442116a","system_id":"levelo_inurba_marseille","lat":43.25826,"lon":5.39436,"is_reserved":false,"is_disabled":false,"rental_uris":{"android":"levelo://app?vid=baae4bb2-14d3-4961-918f-5cbd3442116a","ios":"levelo://app?vid=baae4bb2-14d3-4961-918f-5cbd3442116a"},"vehicle_type_id":"4","last_reported":1730218299,"current_range_meters":37600,"station_id":"ce4bhip2rcd13ifvqft0","pricing_plan_id":"cebpf4jnsgd1na2vs0mg"},{"bike_id":"99f5cc5b-add6-4a6d-86d4-8f4b2867d4f4","system_id":"levelo_inurba_marseille","lat":43.32484,"lon":5.36573,"is_reserved":false,"is_disabled":false,"rental_uris":{"android":"levelo://app?vid=99f5cc5b-add6-4a6d-86d4-8f4b2867d4f4","ios":"levelo://app?vid=99f5cc5b-add6-4a6d-86d4-8f4b2867d4f4"},"vehicle_type_id":"4","last_reported":1730218299,"current_range_meters":8800,"station_id":"ce4bhs12rcd13ifvqhvg","pricing_plan_id":"cebpf4jnsgd1na2vs0mg"},{"bike_id":"518b8733-8ff5-4790-81a5-a927d7b5e92d","system_id":"levelo_inurba_marseille","lat":43.337564,"lon":5.374548,"is_reserved":false,"is_disabled":false,"rental_uris":{"android":"levelo://app?vid=518b8733-8ff5-4790-81a5-a927d7b5e92d","ios":"levelo://app?vid=518b8733-8ff5-4790-81a5-a927d7b5e92d"},"vehicle_type_id":"4","last_reported":1730218299,"current_range_meters":36400,"station_id":"","pricing_plan_id":"cebpf4jnsgd1na2vs0mg"},{"bike_id":"08f81285-ea43-4720-a4f4-ba64edae0e0b","system_id":"levelo_inurba_marseille","lat":43.25083,"lon":5.3953,"is_reserved":false,"is_disabled":false,"rental_uris":{"android":"levelo://app?vid=08f81285-ea43-4720-a4f4-ba64edae0e0b","ios":"levelo://app?vid=08f81285-ea43-4720-a4f4-ba64edae0e0b"},"vehicle_type_id":"4","last_reported":1730218299,"current_range_meters":30400,"station_id":"ce4bhm12rcd13ifvqgkg","pricing_plan_id":"cebpf4jnsgd1na2vs0mg"},{"bike_id":"57d39ef9-a8a9-4ebd-89f3-291e62a2625a","system_id":"levelo_inurba_marseille","lat":43.30145,"lon":5.38073,"is_reserved":false,"is_disabled":false,"rental_uris":{"android":"levelo://app?vid=57d39ef9-a8a9-4ebd-89f3-291e62a2625a","ios":"levelo://app?vid=57d39ef9-a8a9-4ebd-89f3-291e62a2625a"},"vehicle_type_id":"4","last_reported":1730218299,"current_range_meters":10000,"station_id":"ce4bgjp2rcd13ifvqbh0","pricing_plan_id":"cebpf4jnsgd1na2vs0mg"},{"bike_id":"2c16266b-58b5-47a9-9313-ffe546d8d2b1","system_id":"levelo_inurba_marseille","lat":43.23962,"lon":5.36632,"is_reserved":false,"is_disabled":false,"rental_uris":{"android":"levelo://app?vid=2c16266b-58b5-47a9-9313-ffe546d8d2b1","ios":"levelo://app?vid=2c16266b-58b5-47a9-9313-ffe546d8d2b1"},"vehicle_type_id":"4","last_reported":1730218299,"current_range_meters":36800,"station_id":"ce4bhi12rcd13ifvqfp0","pricing_plan_id":"cebpf4jnsgd1na2vs0mg"},{"bike_id":"acc7c678-f0c6-42b2-9fb6-7a4471755c7a","system_id":"levelo_inurba_marseille","lat":43.27185,"lon":5.40998,"is_reserved":false,"is_disabled":false,"rental_uris":{"android":"levelo://app?vid=acc7c678-f0c6-42b2-9fb6-7a4471755c7a","ios":"levelo://app?vid=acc7c678-f0c6-42b2-9fb6-7a4471755c7a"},"vehicle_type_id":"4","last_reported":1730218299,"current_range_meters":9200,"station_id":"ce4bhl12rcd13ifvqgf0","pricing_plan_id":"cebpf4jnsgd1na2vs0mg"},{"bike_id":"441bbec1-ae65-4059-a99e-66cecc8f44de","system_id":"levelo_inurba_marseille","lat":43.231049,"lon":5.35466,"is_reserved":false,"is_disabled":false,"rental_uris":{"android":"levelo://app?vid=441bbec1-ae65-4059-a99e-66cecc8f44de","ios":"levelo://app?vid=441bbec1-ae65-4059-a99e-66cecc8f44de"},"vehicle_type_id":"4","last_reported":1730218299,"current_range_meters":16400,"station_id":"cpo3342slgdg3j2ifvpg","pricing_plan_id":"cebpf4jnsgd1na2vs0mg"},{"bike_id":"38dad52d-8199-4ab7-b15a-226ff7cf8b9f","system_id":"levelo_inurba_marseille","lat":43.23192,"lon":5.35557,"is_reserved":false,"is_disabled":false,"rental_uris":{"android":"levelo://app?vid=38dad52d-8199-4ab7-b15a-226ff7cf8b9f","ios":"levelo://app?vid=38dad52d-8199-4ab7-b15a-226ff7cf8b9f"},"vehicle_type_id":"4","last_reported":1730218299,"current_range_meters":33200,"station_id":"ce4bhu92rcd13ifvqi70","pricing_plan_id":"cebpf4jnsgd1na2vs0mg"},{"bike_id":"801db353-2faf-4d75-8d4d-ed85d190714a","system_id":"levelo_inurba_marseille","lat":43.23958,"lon":5.36641,"is_reserved":false,"is_disabled":false,"rental_uris":{"android":"levelo://app?vid=801db353-2faf-4d75-8d4d-ed85d190714a","ios":"levelo://app?vid=801db353-2faf-4d75-8d4d-ed85d190714a"},"vehicle_type_id":"4","last_reported":1730218299,"current_range_meters":36400,"station_id":"ce4bhi12rcd13ifvqfp0","pricing_plan_id":"cebpf4jnsgd1na2vs0mg"},{"bike_id":"74cc4239-9c94-4727-b784-8ef3e4d27c07","system_id":"levelo_inurba_marseille","lat":43.24664,"lon":5.38166,"is_reserved":false,"is_disabled":false,"rental_uris":{"android":"levelo://app?vid=74cc4239-9c94-4727-b784-8ef3e4d27c07","ios":"levelo://app?vid=74cc4239-9c94-4727-b784-8ef3e4d27c07"},"vehicle_type_id":"4","last_reported":1730218299,"current_range_meters":22800,"station_id":"ce4bhih2rcd13ifvqfr0","pricing_plan_id":"cebpf4jnsgd1na2vs0mg"},{"bike_id":"669cdbd5-c376-45f6-8357-9a16dd886e35","system_id":"levelo_inurba_marseille","lat":43.24078,"lon":5.37753,"is_reserved":false,"is_disabled":false,"rental_uris":{"android":"levelo://app?vid=669cdbd5-c376-45f6-8357-9a16dd886e35","ios":"levelo://app?vid=669cdbd5-c376-45f6-8357-9a16dd886e35"},"vehicle_type_id":"4","last_reported":1730218299,"current_range_meters":21600,"station_id":"ce4bhnp2rcd13ifvqgvg","pricing_plan_id":"cebpf4jnsgd1na2vs0mg"},{"bike_id":"4812bb9b-92a8-4379-a4c2-d11355013d71","system_id":"levelo_inurba_marseille","lat":43.28034,"lon":5.36953,"is_reserved":false,"is_disabled":false,"rental_uris":{"android":"levelo://app?vid=4812bb9b-92a8-4379-a4c2-d11355013d71","ios":"levelo://app?vid=4812bb9b-92a8-4379-a4c2-d11355013d71"},"vehicle_type_id":"4","last_reported":1730218299,"current_range_meters":14000,"station_id":"ce4bha12rcd13ifvqef0","pricing_plan_id":"cebpf4jnsgd1na2vs0mg"},{"bike_id":"6879f74d-649d-4251-8756-de38aec2c8a2","system_id":"levelo_inurba_marseille","lat":43.24387,"lon":5.37059,"is_reserved":false,"is_disabled":false,"rental_uris":{"android":"levelo://app?vid=6879f74d-649d-4251-8756-de38aec2c8a2","ios":"levelo://app?vid=6879f74d-649d-4251-8756-de38aec2c8a2"},"vehicle_type_id":"4","last_reported":1730218299,"current_range_meters":30000,"station_id":"ce4bhhh2rcd13ifvqfk0","pricing_plan_id":"cebpf4jnsgd1na2vs0mg"},{"bike_id":"4bf0385b-018d-48c2-811b-3ba42bab039b","system_id":"levelo_inurba_marseille","lat":43.25119,"lon":5.4032,"is_reserved":false,"is_disabled":false,"rental_uris":{"android":"levelo://app?vid=4bf0385b-018d-48c2-811b-3ba42bab039b","ios":"levelo://app?vid=4bf0385b-018d-48c2-811b-3ba42bab039b"},"vehicle_type_id":"4","last_reported":1730218299,"current_range_meters":38000,"station_id":"ce4bhlh2rcd13ifvqgig","pricing_plan_id":"cebpf4jnsgd1na2vs0mg"},{"bike_id":"da82a103-ffad-4349-87c9-6f5c09322044","system_id":"levelo_inurba_marseille","lat":43.29926,"lon":5.3655,"is_reserved":false,"is_disabled":false,"rental_uris":{"android":"levelo://app?vid=da82a103-ffad-4349-87c9-6f5c09322044","ios":"levelo://app?vid=da82a103-ffad-4349-87c9-6f5c09322044"},"vehicle_type_id":"4","last_reported":1730218299,"current_range_meters":38400,"station_id":"ce4bgm92rcd13ifvqbr0","pricing_plan_id":"cebpf4jnsgd1na2vs0mg"},{"bike_id":"28f270e6-6c6f-48e2-bfa4-7e2f5ca61ffd","system_id":"levelo_inurba_marseille","lat":43.33024,"lon":5.39046,"is_reserved":false,"is_disabled":false,"rental_uris":{"android":"levelo://app?vid=28f270e6-6c6f-48e2-bfa4-7e2f5ca61ffd","ios":"levelo://app?vid=28f270e6-6c6f-48e2-bfa4-7e2f5ca61ffd"},"vehicle_type_id":"4","last_reported":1730218299,"current_range_meters":15200,"station_id":"ce4bhr92rcd13ifvqhrg","pricing_plan_id":"cebpf4jnsgd1na2vs0mg"},{"bike_id":"aeec7b94-ba6f-4552-bc77-ffff963c8dcd","system_id":"levelo_inurba_marseille","lat":43.23959,"lon":5.36635,"is_reserved":false,"is_disabled":false,"rental_uris":{"android":"levelo://app?vid=aeec7b94-ba6f-4552-bc77-ffff963c8dcd","ios":"levelo://app?vid=aeec7b94-ba6f-4552-bc77-ffff963c8dcd"},"vehicle_type_id":"4","last_reported":1730218299,"current_range_meters":30800,"station_id":"ce4bhi12rcd13ifvqfp0","pricing_plan_id":"cebpf4jnsgd1na2vs0mg"},{"bike_id":"80db716c-57cf-422f-9a3d-a790ad931d94","system_id":"levelo_inurba_marseille","lat":43.32488,"lon":5.3657,"is_reserved":false,"is_disabled":false,"rental_uris":{"android":"levelo://app?vid=80db716c-57cf-422f-9a3d-a790ad931d94","ios":"levelo://app?vid=80db716c-57cf-422f-9a3d-a790ad931d94"},"vehicle_type_id":"4","last_reported":1730218299,"current_range_meters":24000,"station_id":"ce4bhs12rcd13ifvqhvg","pricing_plan_id":"cebpf4jnsgd1na2vs0mg"},{"bike_id":"c2132ae7-f0fb-4982-9d50-a7a2b97e3cc7","system_id":"levelo_inurba_marseille","lat":43.27424,"lon":5.39407,"is_reserved":false,"is_disabled":false,"rental_uris":{"android":"levelo://app?vid=c2132ae7-f0fb-4982-9d50-a7a2b97e3cc7","ios":"levelo://app?vid=c2132ae7-f0fb-4982-9d50-a7a2b97e3cc7"},"vehicle_type_id":"4","last_reported":1730218299,"current_range_meters":21600,"station_id":"ce4bhdp2rcd13ifvqf20","pricing_plan_id":"cebpf4jnsgd1na2vs0mg"},{"bike_id":"6ee0b674-50c0-4bdc-aa5c-569edef3d9f3","system_id":"levelo_inurba_marseille","lat":43.2439,"lon":5.37065,"is_reserved":false,"is_disabled":false,"rental_uris":{"android":"levelo://app?vid=6ee0b674-50c0-4bdc-aa5c-569edef3d9f3","ios":"levelo://app?vid=6ee0b674-50c0-4bdc-aa5c-569edef3d9f3"},"vehicle_type_id":"4","last_reported":1730218299,"current_range_meters":40000,"station_id":"ce4bhhh2rcd13ifvqfk0","pricing_plan_id":"cebpf4jnsgd1na2vs0mg"},{"bike_id":"02df2ccb-fff4-4d90-9fd2-c2490328375f","system_id":"levelo_inurba_marseille","lat":43.27179,"lon":5.40996,"is_reserved":false,"is_disabled":false,"rental_uris":{"android":"levelo://app?vid=02df2ccb-fff4-4d90-9fd2-c2490328375f","ios":"levelo://app?vid=02df2ccb-fff4-4d90-9fd2-c2490328375f"},"vehicle_type_id":"4","last_reported":1730218299,"current_range_meters":38800,"station_id":"ce4bhl12rcd13ifvqgf0","pricing_plan_id":"cebpf4jnsgd1na2vs0mg"},{"bike_id":"3efce4cd-df82-42b2-a307-e8f83da4e6d7","system_id":"levelo_inurba_marseille","lat":43.23961,"lon":5.36634,"is_reserved":false,"is_disabled":false,"rental_uris":{"android":"levelo://app?vid=3efce4cd-df82-42b2-a307-e8f83da4e6d7","ios":"levelo://app?vid=3efce4cd-df82-42b2-a307-e8f83da4e6d7"},"vehicle_type_id":"4","last_reported":1730218299,"current_range_meters":39200,"station_id":"ce4bhi12rcd13ifvqfp0","pricing_plan_id":"cebpf4jnsgd1na2vs0mg"},{"bike_id":"d8061a6a-d41a-443a-a2e3-5e1fffc52715","system_id":"levelo_inurba_marseille","lat":43.330328,"lon":5.390088,"is_reserved":false,"is_disabled":false,"rental_uris":{"android":"levelo://app?vid=d8061a6a-d41a-443a-a2e3-5e1fffc52715","ios":"levelo://app?vid=d8061a6a-d41a-443a-a2e3-5e1fffc52715"},"vehicle_type_id":"4","last_reported":1730218299,"current_range_meters":27200,"station_id":"ce4bhr92rcd13ifvqhrg","pricing_plan_id":"cebpf4jnsgd1na2vs0mg"},{"bike_id":"c5f1abaf-e691-447a-99de-fe7e1e6757be","system_id":"levelo_inurba_marseille","lat":43.26564,"lon":5.39017,"is_reserved":false,"is_disabled":false,"rental_uris":{"android":"levelo://app?vid=c5f1abaf-e691-447a-99de-fe7e1e6757be","ios":"levelo://app?vid=c5f1abaf-e691-447a-99de-fe7e1e6757be"},"vehicle_type_id":"4","last_reported":1730218299,"current_range_meters":32800,"station_id":"ce4bhe12rcd13ifvqf30","pricing_plan_id":"cebpf4jnsgd1na2vs0mg"},{"bike_id":"e5e53f34-dab0-4b84-8f81-50a0fcdd7773","system_id":"levelo_inurba_marseille","lat":43.2306,"lon":5.3549,"is_reserved":false,"is_disabled":false,"rental_uris":{"android":"levelo://app?vid=e5e53f34-dab0-4b84-8f81-50a0fcdd7773","ios":"levelo://app?vid=e5e53f34-dab0-4b84-8f81-50a0fcdd7773"},"vehicle_type_id":"4","last_reported":1730218299,"current_range_meters":37600,"station_id":"cpo3342slgdg3j2ifvpg","pricing_plan_id":"cebpf4jnsgd1na2vs0mg"},{"bike_id":"8d2b5787-4f9a-41fb-954c-1205ef5daeeb","system_id":"levelo_inurba_marseille","lat":43.29619,"lon":5.37175,"is_reserved":false,"is_disabled":false,"rental_uris":{"android":"levelo://app?vid=8d2b5787-4f9a-41fb-954c-1205ef5daeeb","ios":"levelo://app?vid=8d2b5787-4f9a-41fb-954c-1205ef5daeeb"},"vehicle_type_id":"4","last_reported":1730218299,"current_range_meters":38400,"station_id":"ce4bgnh2rcd13ifvqc0g","pricing_plan_id":"cebpf4jnsgd1na2vs0mg"},{"bike_id":"57a6503b-0828-4a7f-8dbd-b9ff7a8702ee","system_id":"levelo_inurba_marseille","lat":43.30784,"lon":5.37646,"is_reserved":false,"is_disabled":false,"rental_uris":{"android":"levelo://app?vid=57a6503b-0828-4a7f-8dbd-b9ff7a8702ee","ios":"levelo://app?vid=57a6503b-0828-4a7f-8dbd-b9ff7a8702ee"},"vehicle_type_id":"4","last_reported":1730218299,"current_range_meters":33600,"station_id":"ce4bgv92rcd13ifvqcq0","pricing_plan_id":"cebpf4jnsgd1na2vs0mg"},{"bike_id":"984b9b92-cc3e-4edf-b03e-709318a16b71","system_id":"levelo_inurba_marseille","lat":43.32484,"lon":5.36585,"is_reserved":false,"is_disabled":false,"rental_uris":{"android":"levelo://app?vid=984b9b92-cc3e-4edf-b03e-709318a16b71","ios":"levelo://app?vid=984b9b92-cc3e-4edf-b03e-709318a16b71"},"vehicle_type_id":"4","last_reported":1730218299,"current_range_meters":24400,"station_id":"ce4bhs12rcd13ifvqhvg","pricing_plan_id":"cebpf4jnsgd1na2vs0mg"},{"bike_id":"c6982a4e-6f22-440f-b88a-9a920bd67a37","system_id":"levelo_inurba_marseille","lat":43.256795,"lon":5.364295,"is_reserved":false,"is_disabled":false,"rental_uris":{"android":"levelo://app?vid=c6982a4e-6f22-440f-b88a-9a920bd67a37","ios":"levelo://app?vid=c6982a4e-6f22-440f-b88a-9a920bd67a37"},"vehicle_type_id":"4","last_reported":1730218299,"current_range_meters":16800,"station_id":"ce4bhi12rcd13ifvqfp0","pricing_plan_id":"cebpf4jnsgd1na2vs0mg"},{"bike_id":"3cdc5a09-27a3-4016-9ee2-4433cbcabb81","system_id":"levelo_inurba_marseille","lat":43.310789,"lon":5.376673,"is_reserved":false,"is_disabled":false,"rental_uris":{"android":"levelo://app?vid=3cdc5a09-27a3-4016-9ee2-4433cbcabb81","ios":"levelo://app?vid=3cdc5a09-27a3-4016-9ee2-4433cbcabb81"},"vehicle_type_id":"4","last_reported":1730218299,"current_range_meters":25200,"station_id":"ce4bgth2rcd13ifvqch0","pricing_plan_id":"cebpf4jnsgd1na2vs0mg"},{"bike_id":"6fccb326-6d6b-4608-b08c-5fd7057bc582","system_id":"levelo_inurba_marseille","lat":43.32481,"lon":5.36573,"is_reserved":false,"is_disabled":false,"rental_uris":{"android":"levelo://app?vid=6fccb326-6d6b-4608-b08c-5fd7057bc582","ios":"levelo://app?vid=6fccb326-6d6b-4608-b08c-5fd7057bc582"},"vehicle_type_id":"4","last_reported":1730218299,"current_range_meters":30800,"station_id":"ce4bhs12rcd13ifvqhvg","pricing_plan_id":"cebpf4jnsgd1na2vs0mg"},{"bike_id":"ee39756b-5367-419c-8c0d-9d1944e0544c","system_id":"levelo_inurba_marseille","lat":43.2963,"lon":5.40606,"is_reserved":false,"is_disabled":false,"rental_uris":{"android":"levelo://app?vid=ee39756b-5367-419c-8c0d-9d1944e0544c","ios":"levelo://app?vid=ee39756b-5367-419c-8c0d-9d1944e0544c"},"vehicle_type_id":"4","last_reported":1730218299,"current_range_meters":18000,"station_id":"ce4bh0h2rcd13ifvqd60","pricing_plan_id":"cebpf4jnsgd1na2vs0mg"},{"bike_id":"3f913462-320b-4380-b19a-756544c39443","system_id":"levelo_inurba_marseille","lat":43.27372,"lon":5.36254,"is_reserved":false,"is_disabled":false,"rental_uris":{"android":"levelo://app?vid=3f913462-320b-4380-b19a-756544c39443","ios":"levelo://app?vid=3f913462-320b-4380-b19a-756544c39443"},"vehicle_type_id":"4","last_reported":1730218299,"current_range_meters":40000,"station_id":"ce4bhbh2rcd13ifvqeo0","pricing_plan_id":"cebpf4jnsgd1na2vs0mg"},