{"last_updated":1744032080,"ttl":60,"version":"2.2","data":{"bikes":[{"bike_id":"cfadbaf1-ec36-4a24-929b-9b0ebd0dc770","system_id":"levelo_inurba_marseille","lat":43.29003,"lon":5.35605,"is_reserved":false,"is_disabled":false,"rental_uris":{"android":"levelo://app?vid=cfadbaf1-ec36-4a24-929b-9b0ebd0dc770","ios":"levelo://app?vid=cfadbaf1-ec36-4a24-929b-9b0ebd0dc770"},"vehicle_type_id":"4","last_reported":1744032080,"current_range_meters":3200,"station_id":"ce4bhb92rcd13ifvqen0","pricing_plan_id":"cebpf4jnsgd1na2vs0mg"},{"bike_id":"5896ee65-4d17-4bb7-a29a-39d4290852d3","system_id":"levelo_inurba_marseille","lat":43.26189,"lon":5.37455,"is_reserved":false,"is_disabled":false,"rental_uris":{"android":"levelo://app?vid=5896ee65-4d17-4bb7-a29a-39d4290852d3","ios":"levelo://app?vid=5896ee65-4d17-4bb7-a29a-39d4290852d3"},"vehicle_type_id":"4","last_reported":1744032080,"current_range_meters":3200,"station_id":"ce4bhgp2rcd13ifvqfc0","pricing_plan_id":"cebpf4jnsgd1na2vs0mg"},{"bike_id":"79998a80-63d7-4d42-87ad-ed8cd8e7c14b","system_id":"levelo_inurba_marseille","lat":43.29295,"lon":5.37454,"is_reserved":false,"is_disabled":false,"rental_uris":{"android":"levelo://app?vid=79998a80-63d7-4d42-87ad-ed8cd8e7c14b","ios":"levelo://app?vid=79998a80-63d7-4d42-87ad-ed8cd8e7c14b"},"vehicle_type_id":"4","last_reported":1744032080,"current_range_meters":3600,"station_id":"ce4bgi12rcd13ifvqb70","pricing_plan_id":"cebpf4jnsgd1na2vs0mg"},{"bike_id":"2bd0252e-e6aa-444f-933b-a052fd77f984","system_id":"levelo_inurba_marseille","lat":43.25909,"lon":5.40865,"is_reserved":false,"is_disabled":false,"rental_uris":{"android":"levelo://app?vid=2bd0252e-e6aa-444f-933b-a052fd77f984","ios":"levelo://app?vid=2bd0252e-e6aa-444f-933b-a052fd77f984"},"vehicle_type_id":"4","last_reported":1744032080,"current_range_meters":3600,"station_id":"ce4bhm92rcd13ifvqglg","pricing_plan_id":"cebpf4jnsgd1na2vs0mg"},{"bike_id":"c114fa13-24e1-48f9-bc1f-e90e8583879f","system_id":"levelo_inurba_marseille","lat":43.30305,"lon":5.36926,"is_reserved":false,"is_disabled":false,"rental_uris":{"android":"levelo://app?vid=c114fa13-24e1-48f9-bc1f-e90e8583879f","ios":"levelo://app?vid=c114fa13-24e1-48f9-bc1f-e90e8583879f"},"vehicle_type_id":"4","last_reported":1744032080,"current_range_meters":3600,"station_id":"","pricing_plan_id":"cebpf4jnsgd1na2vs0mg"},{"bike_id":"c3fb1264-b314-49c5-a2b3-87cc4bb3598c","system_id":"levelo_inurba_marseille","lat":43.29593,"lon":5.38107,"is_reserved":false,"is_disabled":false,"rental_uris":{"android":"levelo://app?vid=c3fb1264-b314-49c5-a2b3-87cc4bb3598c","ios":"levelo://app?vid=c3fb1264-b314-49c5-a2b3-87cc4bb3598c"},"vehicle_type_id":"4","last_reported":1744032080,"current_range_meters":3600,"station_id":"ce4bgl12rcd13ifvqbo0","pricing_plan_id":"cebpf4jnsgd1na2vs0mg"},{"bike_id":"eb79d1f9-7c91-4ea2-b5f8-796189743e1a","system_id":"levelo_inurba_marseille","lat":43.34255,"lon":5.38098,"is_reserved":false,"is_disabled":true,"rental_uris":{"android":"levelo://app?vid=eb79d1f9-7c91-4ea2-b5f8-796189743e1a","ios":"levelo://app?vid=eb79d1f9-7c91-4ea2-b5f8-796189743e1a"},"vehicle_type_id":"4","last_reported":1744032080,"current_range_meters":4000,"station_id":"","pricing_plan_id":"cebpf4jnsgd1na2vs0mg"},{"bike_id":"46aaf249-f504-46ae-93ce-7245839b78b5","system_id":"levelo_inurba_marseille","lat":43.26206,"lon":5.37916,"is_reserved":false,"is_disabled":true,"rental_uris":{"android":"levelo://app?vid=46aaf249-f504-46ae-93ce-7245839b78b5","ios":"levelo://app?vid=46aaf249-f504-46ae-93ce-7245839b78b5"},"vehicle_type_id":"4","last_reported":1744032080,"current_range_meters":4000,"station_id":"ce4bhjp2rcd13ifvqg90","pricing_plan_id":"cebpf4jnsgd1na2vs0mg"},{"bike_id":"bce37b8c-258b-4fc8-86bd-d158ddf5f7a2","system_id":"levelo_inurba_marseille","lat":43.30126,"lon":5.37416,"is_reserved":false,"is_disabled":false,"rental_uris":{"android":"levelo://app?vid=bce37b8c-258b-4fc8-86bd-d158ddf5f7a2","ios":"levelo://app?vid=bce37b8c-258b-4fc8-86bd-d158ddf5f7a2"},"vehicle_type_id":"4","last_reported":1744032080,"current_range_meters":4000,"station_id":"ce4bgs92rcd13ifvqcc0","pricing_plan_id":"cebpf4jnsgd1na2vs0mg"},{"bike_id":"620b9284-a283-4a50-82ff-ec39b41f1a89","system_id":"levelo_inurba_marseille","lat":43.30415,"lon":5.37827,"is_reserved":false,"is_disabled":false,"rental_uris":{"android":"levelo://app?vid=620b9284-a283-4a50-82ff-ec39b41f1a89","ios":"levelo://app?vid=620b9284-a283-4a50-82ff-ec39b41f1a89"},"vehicle_type_id":"4","last_reported":1744032080,"current_range_meters":4000,"station_id":"","pricing_plan_id":"cebpf4jnsgd1na2vs0mg"},{"bike_id":"4815b711-7def-4ca4-828f-f82d5b3e3191","system_id":"levelo_inurba_marseille","lat":43.23144,"lon":5.4372,"is_reserved":false,"is_disabled":false,"rental_uris":{"android":"levelo://app?vid=4815b711-7def-4ca4-828f-f82d5b3e3191","ios":"levelo://app?vid=4815b711-7def-4ca4-828f-f82d5b3e3191"},"vehicle_type_id":"4","last_reported":1744032080,"current_range_meters":4400,"station_id":"ce4bhmp2rcd13ifvqgog","pricing_plan_id":"cebpf4jnsgd1na2vs0mg"},{"bike_id":"7ad6992c-9757-4a33-ab8d-288cc51dcd62","system_id":"levelo_inurba_marseille","lat":43.30377,"lon":5.42489,"is_reserved":false,"is_disabled":false,"rental_uris":{"android":"levelo://app?vid=7ad6992c-9757-4a33-ab8d-288cc51dcd62","ios":"levelo://app?vid=7ad6992c-9757-4a33-ab8d-288cc51dcd62"},"vehicle_type_id":"4","last_reported":1744032080,"current_range_meters":4400,"station_id":"ce4bhoh2rcd13ifvqh6g","pricing_plan_id":"cebpf4jnsgd1na2vs0mg"},{"bike_id":"2a5c32c7-0a26-46cc-81c7-606ad8c62b2c","system_id":"levelo_inurba_marseille","lat":43.284628,"lon":5.358924,"is_reserved":false,"is_disabled":false,"rental_uris":{"android":"levelo://app?vid=2a5c32c7-0a26-46cc-81c7-606ad8c62b2c","ios":"levelo://app?vid=2a5c32c7-0a26-46cc-81c7-606ad8c62b2c"},"vehicle_type_id":"4","last_reported":1744032080,"current_range_meters":4400,"station_id":"ce4bhah2rcd13ifvqei0","pricing_plan_id":"cebpf4jnsgd1na2vs0mg"},{"bike_id":"ce6a6d2c-e7ec-4365-a3f4-ce460c70e39d","system_id":"levelo_inurba_marseille","lat":43.275,"lon":5.42452,"is_reserved":false,"is_disabled":false,"rental_uris":{"android":"levelo://app?vid=ce6a6d2c-e7ec-4365-a3f4-ce460c70e39d","ios":"levelo://app?vid=ce6a6d2c-e7ec-4365-a3f4-ce460c70e39d"},"vehicle_type_id":"4","last_reported":1744032080,"current_range_meters":4800,"station_id":"ce4bhn92rcd13ifvqgrg","pricing_plan_id":"cebpf4jnsgd1na2vs0mg"},{"bike_id":"38ae81b3-edcc-4763-8880-8b0fde623123","system_id":"levelo_inurba_marseille","lat":43.23145,"lon":5.43724,"is_reserved":false,"is_disabled":false,"rental_uris":{"android":"levelo://app?vid=38ae81b3-edcc-4763-8880-8b0fde623123","ios":"levelo://app?vid=38ae81b3-edcc-4763-8880-8b0fde623123"},"vehicle_type_id":"4","last_reported":1744032080,"current_range_meters":5600,"station_id":"ce4bhmp2rcd13ifvqgog","pricing_plan_id":"cebpf4jnsgd1na2vs0mg"},{"bike_id":"f5c72e14-26e2-4f72-a1e6-6f68768b442e","system_id":"levelo_inurba_marseille","lat":43.2998,"lon":5.38496,"is_reserved":false,"is_disabled":false,"rental_uris":{"android":"levelo://app?vid=f5c72e14-26e2-4f72-a1e6-6f68768b442e","ios":"levelo://app?vid=f5c72e14-26e2-4f72-a1e6-6f68768b442e"},"vehicle_type_id":"4","last_reported":1744032080,"current_range_meters":6000,"station_id":"ce4bgj92rcd13ifvqbd0","pricing_plan_id":"cebpf4jnsgd1na2vs0mg"},{"bike_id":"04672190-2464-4355-a58f-89e8599f51ba","system_id":"levelo_inurba_marseille","lat":43.28422,"lon":5.34977,"is_reserved":false,"is_disabled":false,"rental_uris":{"android":"levelo://app?vid=04672190-2464-4355-a58f-89e8599f51ba","ios":"levelo://app?vid=04672190-2464-4355-a58f-89e8599f51ba"},"vehicle_type_id":"4","last_reported":1744032080,"current_range_meters":6000,"station_id":"ce4bhbh2rcd13ifvqepg","pricing_plan_id":"cebpf4jnsgd1na2vs0mg"},{"bike_id":"991343ab-5465-4eac-bd8e-f58a2337f627","system_id":"levelo_inurba_marseille","lat":43.29335,"lon":5.3714,"is_reserved":false,"is_disabled":false,"rental_uris":{"android":"levelo://app?vid=991343ab-5465-4eac-bd8e-f58a2337f627","ios":"levelo://app?vid=991343ab-5465-4eac-bd8e-f58a2337f627"},"vehicle_type_id":"4","last_reported":1744032080,"current_range_meters":6000,"station_id":"ce4bgh92rcd13ifvqb40","pricing_plan_id":"cebpf4jnsgd1na2vs0mg"},{"bike_id":"816d445f-e23e-423e-8b61-284c7909ad8e","system_id":"levelo_inurba_marseille","lat":43.26208,"lon":5.37444,"is_reserved":false,"is_disabled":false,"rental_uris":{"android":"levelo://app?vid=816d445f-e23e-423e-8b61-284c7909ad8e","ios":"levelo://app?vid=816d445f-e23e-423e-8b61-284c7909ad8e"},"vehicle_type_id":"4","last_reported":1744032080,"current_range_meters":6000,"station_id":"ce4bhgp2rcd13ifvqfc0","pricing_plan_id":"cebpf4jnsgd1na2vs0mg"},{"bike_id":"df12a9eb-c704-43c1-aeab-4014a219a1d8","system_id":"levelo_inurba_marseille","lat":43.284051,"lon":5.375162,"is_reserved":false,"is_disabled":false,"rental_uris":{"android":"levelo://app?vid=df12a9eb-c704-43c1-aeab-4014a219a1d8","ios":"levelo://app?vid=df12a9eb-c704-43c1-aeab-4014a219a1d8"},"vehicle_type_id":"4","last_reported":1744032080,"current_range_meters":6000,"station_id":"ce4bh412rcd13ifvqds0","pricing_plan_id":"cebpf4jnsgd1na2vs0mg"},{"bike_id":"20465b52-ecb5-4000-97b7-4e4a7d8ba1e5","system_id":"levelo_inurba_marseille","lat":43.28935,"lon":5.36642,"is_reserved":false,"is_disabled":false,"rental_uris":{"android":"levelo://app?vid=20465b52-ecb5-4000-97b7-4e4a7d8ba1e5","ios":"levelo://app?vid=20465b52-ecb5-4000-97b7-4e4a7d8ba1e5"},"vehicle_type_id":"4","last_reported":1744032080,"current_range_meters":6400,"station_id":"ce4bhap2rcd13ifvqek0","pricing_plan_id":"cebpf4jnsgd1na2vs0mg"},{"bike_id":"1d6f3057-f8f7-4009-89c3-a3edbfb45073","system_id":"levelo_inurba_marseille","lat":43.28143,"lon":5.4266,"is_reserved":false,"is_disabled":false,"rental_uris":{"android":"levelo://app?vid=1d6f3057-f8f7-4009-89c3-a3edbfb45073","ios":"levelo://app?vid=1d6f3057-f8f7-4009-89c3-a3edbfb45073"},"vehicle_type_id":"4","last_reported":1744032080,"current_range_meters":6400,"station_id":"ce4bhnh2rcd13ifvqgug","pricing_plan_id":"cebpf4jnsgd1na2vs0mg"},{"bike_id":"85b5802f-c53f-4b16-a2b8-76aacc9ae178","system_id":"levelo_inurba_marseille","lat":43.22928,"lon":5.35399,"is_reserved":false,"is_disabled":false,"rental_uris":{"android":"levelo://app?vid=85b5802f-c53f-4b16-a2b8-76aacc9ae178","ios":"levelo://app?vid=85b5802f-c53f-4b16-a2b8-76aacc9ae178"},"vehicle_type_id":"4","last_reported":1744032080,"current_range_meters":6400,"station_id":"cpo3532slgdg3j2ikp40","pricing_plan_id":"cebpf4jnsgd1na2vs0mg"},{"bike_id":"94d67a03-6433-40c6-90ff-4ae9b136a304","system_id":"levelo_inurba_marseille","lat":43.26495,"lon":5.3955,"is_reserved":false,"is_disabled":false,"rental_uris":{"android":"levelo://app?vid=94d67a03-6433-40c6-90ff-4ae9b136a304","ios":"levelo://app?vid=94d67a03-6433-40c6-90ff-4ae9b136a304"},"vehicle_type_id":"4","last_reported":1744032080,"current_range_meters":6400,"station_id":"ce4bhi12rcd13ifvqfq0","pricing_plan_id":"cebpf4jnsgd1na2vs0mg"},{"bike_id":"da2d057d-b3e2-4a7b-8f1b-e83ff2e14dcf","system_id":"levelo_inurba_marseille","lat":43.25009,"lon":5.3892,"is_reserved":false,"is_disabled":false,"rental_uris":{"android":"levelo://app?vid=da2d057d-b3e2-4a7b-8f1b-e83ff2e14dcf","ios":"levelo://app?vid=da2d057d-b3e2-4a7b-8f1b-e83ff2e14dcf"},"vehicle_type_id":"4","last_reported":1744032080,"current_range_meters":6800,"station_id":"ce4bhgp2rcd13ifvqfd0","pricing_plan_id":"cebpf4jnsgd1na2vs0mg"},{"bike_id":"9451db43-aac8-4c9f-83f8-881c49333870","system_id":"levelo_inurba_marseille","lat":43.30525,"lon":5.36561,"is_reserved":false,"is_disabled":false,"rental_uris":{"android":"levelo://app?vid=9451db43-aac8-4c9f-83f8-881c49333870","ios":"levelo://app?vid=9451db43-aac8-4c9f-83f8-881c49333870"},"vehicle_type_id":"4","last_reported":1744032080,"current_range_meters":6800,"station_id":"ce4bgs12rcd13ifvqcag","pricing_plan_id":"cebpf4jnsgd1na2vs0mg"},{"bike_id":"31c8b10c-96c2-4fd4-b13d-d0a96ccd8a04","system_id":"levelo_inurba_marseille","lat":43.27948,"lon":5.41025,"is_reserved":false,"is_disabled":false,"rental_uris":{"android":"levelo://app?vid=31c8b10c-96c2-4fd4-b13d-d0a96ccd8a04","ios":"levelo://app?vid=31c8b10c-96c2-4fd4-b13d-d0a96ccd8a04"},"vehicle_type_id":"4","last_reported":1744032080,"current_range_meters":6800,"station_id":"ce4bhnp2rcd13ifvqh0g","pricing_plan_id":"cebpf4jnsgd1na2vs0mg"},{"bike_id":"c5839f54-bef9-4a08-b316-2e6cff1ea8d7","system_id":"levelo_inurba_marseille","lat":43.23145,"lon":5.43718,"is_reserved":false,"is_disabled":false,"rental_uris":{"android":"levelo://app?vid=c5839f54-bef9-4a08-b316-2e6cff1ea8d7","ios":"levelo://app?vid=c5839f54-bef9-4a08-b316-2e6cff1ea8d7"},"vehicle_type_id":"4","last_reported":1744032080,"current_range_meters":6800,"station_id":"ce4bhmp2rcd13ifvqgog","pricing_plan_id":"cebpf4jnsgd1na2vs0mg"},{"bike_id":"ad4d36ee-4ace-4017-b1a2-48c4f7e23651","system_id":"levelo_inurba_marseille","lat":43.2592,"lon":5.40899,"is_reserved":false,"is_disabled":false,"rental_uris":{"android":"levelo://app?vid=ad4d36ee-4ace-4017-b1a2-48c4f7e23651","ios":"levelo://app?vid=ad4d36ee-4ace-4017-b1a2-48c4f7e23651"},"vehicle_type_id":"4","last_reported":1744032080,"current_range_meters":6800,"station_id":"ce4bhm92rcd13ifvqglg","pricing_plan_id":"cebpf4jnsgd1na2vs0mg"},{"bike_id":"1f8d1e21-f657-42c0-bf7b-10b968483646","system_id":"levelo_inurba_marseille","lat":43.31239,"lon":5.3686,"is_reserved":false,"is_disabled":false,"rental_uris":{"android":"levelo://app?vid=1f8d1e21-f657-42c0-bf7b-10b968483646","ios":"levelo://app?vid=1f8d1e21-f657-42c0-bf7b-10b968483646"},"vehicle_type_id":"4","last_reported":1744032080,"current_range_meters":6800,"station_id":"ce4bgl92rcd13ifvqbq0","pricing_plan_id":"cebpf4jnsgd1na2vs0mg"},{"bike_id":"78505195-b1f7-4255-bb59-0959f6e3552f","system_id":"levelo_inurba_marseille","lat":43.254012,"lon":5.419052,"is_reserved":false,"is_disabled":false,"rental_uris":{"android":"levelo://app?vid=78505195-b1f7-4255-bb59-0959f6e3552f","ios":"levelo://app?vid=78505195-b1f7-4255-bb59-0959f6e3552f"},"vehicle_type_id":"4","last_reported":1744032080,"current_range_meters":7200,"station_id":"","pricing_plan_id":"cebpf4jnsgd1na2vs0mg"},{"bike_id":"33455205-ab4a-4189-a49c-dfe86ae13355","system_id":"levelo_inurba_marseille","lat":43.25114,"lon":5.40335,"is_reserved":false,"is_disabled":false,"rental_uris":{"android":"levelo://app?vid=33455205-ab4a-4189-a49c-dfe86ae13355","ios":"levelo://app?vid=33455205-ab4a-4189-a49c-dfe86ae13355"},"vehicle_type_id":"4","last_reported":1744032080,"current_range_meters":7200,"station_id":"ce4bhlh2rcd13ifvqgig","pricing_plan_id":"cebpf4jnsgd1na2vs0mg"},{"bike_id":"2fe9a66c-2512-40ef-8d0d-a70ae0137933","system_id":"levelo_inurba_marseille","lat":43.30239,"lon":5.40038,"is_reserved":false,"is_disabled":false,"rental_uris":{"android":"levelo://app?vid=2fe9a66c-2512-40ef-8d0d-a70ae0137933","ios":"levelo://app?vid=2fe9a66c-2512-40ef-8d0d-a70ae0137933"},"vehicle_type_id":"4","last_reported":1744032080,"current_range_meters":7200,"station_id":"","pricing_plan_id":"cebpf4jnsgd1na2vs0mg"},{"bike_id":"a59cdb7a-c52d-4ec1-9b87-c2bc4ee39248","system_id":"levelo_inurba_marseille","lat":43.25112,"lon":5.40325,"is_reserved":false,"is_disabled":false,"rental_uris":{"android":"levelo://app?vid=a59cdb7a-c52d-4ec1-9b87-c2bc4ee39248","ios":"levelo://app?vid=a59cdb7a-c52d-4ec1-9b87-c2bc4ee39248"},"vehicle_type_id":"4","last_reported":1744032080,"current_range_meters":7200,"station_id":"ce4bhlh2rcd13ifvqgig","pricing_plan_id":"cebpf4jnsgd1na2vs0mg"},{"bike_id":"599cd34c-20ae-429b-a3d3-757fcae68040","system_id":"levelo_inurba_marseille","lat":43.3128,"lon":5.36812,"is_reserved":false,"is_disabled":false,"rental_uris":{"android":"levelo://app?vid=599cd34c-20ae-429b-a3d3-757fcae68040","ios":"levelo://app?vid=599cd34c-20ae-429b-a3d3-757fcae68040"},"vehicle_type_id":"4","last_reported":1744032080,"current_range_meters":7200,"station_id":"ce4bgl92rcd13ifvqbq0","pricing_plan_id":"cebpf4jnsgd1na2vs0mg"},{"bike_id":"6b79c190-08a0-493c-b3e0-7480ca940237","system_id":"levelo_inurba_marseille","lat":43.2596,"lon":5.40855,"is_reserved":false,"is_disabled":false,"rental_uris":{"android":"levelo://app?vid=6b79c190-08a0-493c-b3e0-7480ca940237","ios":"levelo://app?vid=6b79c190-08a0-493c-b3e0-7480ca940237"},"vehicle_type_id":"4","last_reported":1744032080,"current_range_meters":7200,"station_id":"","pricing_plan_id":"cebpf4jnsgd1na2vs0mg"},{"bike_id":"00393ee2-317d-4e98-a30d-fd25773ef49f","system_id":"levelo_inurba_marseille","lat":43.35231,"lon":5.35795,"is_reserved":false,"is_disabled":false,"rental_uris":{"android":"levelo://app?vid=00393ee2-317d-4e98-a30d-fd25773ef49f","ios":"levelo://app?vid=00393ee2-317d-4e98-a30d-fd25773ef49f"},"vehicle_type_id":"4","last_reported":1744032080,"current_range_meters":7200,"station_id":"","pricing_plan_id":"cebpf4jnsgd1na2vs0mg"},{"bike_id":"aba5e844-f429-4fca-8fbd-34616f5265a2","system_id":"levelo_inurba_marseille","lat":43.28138,"lon":5.42647,"is_reserved":false,"is_disabled":false,"rental_uris":{"android":"levelo://app?vid=aba5e844-f429-4fca-8fbd-34616f5265a2","ios":"levelo://app?vid=aba5e844-f429-4fca-8fbd-34616f5265a2"},"vehicle_type_id":"4","last_reported":1744032080,"current_range_meters":7200,"station_id":"ce4bhnh2rcd13ifvqgug","pricing_plan_id":"cebpf4jnsgd1na2vs0mg"},{"bike_id":"3977a3b9-1501-444c-a60e-e479e69e917e","system_id":"levelo_inurba_marseille","lat":43.29261,"lon":5.38441,"is_reserved":false,"is_disabled":false,"rental_uris":{"android":"levelo://app?vid=3977a3b9-1501-444c-a60e-e479e69e917e","ios":"levelo://app?vid=3977a3b9-1501-444c-a60e-e479e69e917e"},"vehicle_type_id":"4","last_reported":1744032080,"current_range_meters":7200,"station_id":"ce4bh692rcd13ifvqea0","pricing_plan_id":"cebpf4jnsgd1na2vs0mg"},{"bike_id":"00116622-f061-445e-9075-73d231f712bb","system_id":"levelo_inurba_marseille","lat":43.25925,"lon":5.40904,"is_reserved":false,"is_disabled":false,"rental_uris":{"android":"levelo://app?vid=00116622-f061-445e-9075-73d231f712bb","ios":"levelo://app?vid=00116622-f061-445e-9075-73d231f712bb"},"vehicle_type_id":"4","last_reported":1744032080,"current_range_meters":7200,"station_id":"ce4bhm92rcd13ifvqglg","pricing_plan_id":"cebpf4jnsgd1na2vs0mg"},{"bike_id":"104fa708-46b3-4372-bb3d-5a274078b566","system_id":"levelo_inurba_marseille","lat":43.23153,"lon":5.43702,"is_reserved":false,"is_disabled":false,"rental_uris":{"android":"levelo://app?vid=104fa708-46b3-4372-bb3d-5a274078b566","ios":"levelo://app?vid=104fa708-46b3-4372-bb3d-5a274078b566"},"vehicle_type_id":"4","last_reported":1744032080,"current_range_meters":7200,"station_id":"ce4bhmp2rcd13ifvqgog","pricing_plan_id":"cebpf4jnsgd1na2vs0mg"},{"bike_id":"136b6e45-ee21-453e-aa22-e07947db9071","system_id":"levelo_inurba_marseille","lat":43.23147,"lon":5.43688,"is_reserved":false,"is_disabled":true,"rental_uris":{"android":"levelo://app?vid=136b6e45-ee21-453e-aa22-e07947db9071","ios":"levelo://app?vid=136b6e45-ee21-453e-aa22-e07947db9071"},"vehicle_type_id":"4","last_reported":1744032080,"current_range_meters":7200,"station_id":"ce4bhmp2rcd13ifvqgog","pricing_plan_id":"cebpf4jnsgd1na2vs0mg"},{"bike_id":"eb3e148a-ca72-4987-82c4-a76fbd3dc65b","system_id":"levelo_inurba_marseille","lat":43.292608,"lon":5.376143,"is_reserved":false,"is_disabled":false,"rental_uris":{"android":"levelo://app?vid=eb3e148a-ca72-4987-82c4-a76fbd3dc65b","ios":"levelo://app?vid=eb3e148a-ca72-4987-82c4-a76fbd3dc65b"},"vehicle_type_id":"4","last_reported":1744032080,"current_range_meters":8000,"station_id":"ce4bgi12rcd13ifvqb70","pricing_plan_id":"cebpf4jnsgd1na2vs0mg"},{"bike_id":"590bd0e2-9f1d-4e6f-9e37-05bb0e5ae5dc","system_id":"levelo_inurba_marseille","lat":43.337444,"lon":5.374475,"is_reserved":false,"is_disabled":false,"rental_uris":{"android":"levelo://app?vid=590bd0e2-9f1d-4e6f-9e37-05bb0e5ae5dc","ios":"levelo://app?vid=590bd0e2-9f1d-4e6f-9e37-05bb0e5ae5dc"},"vehicle_type_id":"4","last_reported":1744032080,"current_range_meters":8000,"station_id":"","pricing_plan_id":"cebpf4jnsgd1na2vs0mg"},{"bike_id":"2cd7ef9b-a726-4134-9830-a54c0abc7b06","system_id":"levelo_inurba_marseille","lat":43.24181,"lon":5.39739,"is_reserved":false,"is_disabled":false,"rental_uris":{"android":"levelo://app?vid=2cd7ef9b-a726-4134-9830-a54c0abc7b06","ios":"levelo://app?vid=2cd7ef9b-a726-4134-9830-a54c0abc7b06"},"vehicle_type_id":"4","last_reported":1744032080,"current_range_meters":8000,"station_id":"ce4bhn12rcd13ifvqgpg","pricing_plan_id":"cebpf4jnsgd1na2vs0mg"},{"bike_id":"b6cc2813-4f4e-4e04-ad33-c2ed8d1712c3","system_id":"levelo_inurba_marseille","lat":43.27944,"lon":5.41044,"is_reserved":false,"is_disabled":false,"rental_uris":{"android":"levelo://app?vid=b6cc2813-4f4e-4e04-ad33-c2ed8d1712c3","ios":"levelo://app?vid=b6cc2813-4f4e-4e04-ad33-c2ed8d1712c3"},"vehicle_type_id":"4","last_reported":1744032080,"current_range_meters":8000,"station_id":"ce4bhnp2rcd13ifvqh0g","pricing_plan_id":"cebpf4jnsgd1na2vs0mg"},{"bike_id":"f56fa8c2-6991-4db5-9b1b-225fe2c50caf","system_id":"levelo_inurba_marseille","lat":43.28161,"lon":5.42652,"is_reserved":false,"is_disabled":false,"rental_uris":{"android":"levelo://app?vid=f56fa8c2-6991-4db5-9b1b-225fe2c50caf","ios":"levelo://app?vid=f56fa8c2-6991-4db5-9b1b-225fe2c50caf"},"vehicle_type_id":"4","last_reported":1744032080,"current_range_meters":8000,"station_id":"ce4bhnh2rcd13ifvqgug","pricing_plan_id":"cebpf4jnsgd1na2vs0mg"},{"bike_id":"351b921a-1463-4cf6-859d-ca5bd51a6e76","system_id":"levelo_inurba_marseille","lat":43.31802,"lon":5.3682,"is_reserved":false,"is_disabled":false,"rental_uris":{"android":"levelo://app?vid=351b921a-1463-4cf6-859d-ca5bd51a6e76","ios":"levelo://app?vid=351b921a-1463-4cf6-859d-ca5bd51a6e76"},"vehicle_type_id":"4","last_reported":1744032080,"current_range_meters":8000,"station_id":"","pricing_plan_id":"cebpf4jnsgd1na2vs0mg"},{"bike_id":"d66890eb-a849-4361-8afb-8574c3836f73","system_id":"levelo_inurba_marseille","lat":43.26073,"lon":5.38721,"is_reserved":false,"is_disabled":false,"rental_uris":{"android":"levelo://app?vid=d66890eb-a849-4361-8afb-8574c3836f73","ios":"levelo://app?vid=d66890eb-a849-4361-8afb-8574c3836f73"},"vehicle_type_id":"4","last_reported":1744032080,"current_range_meters":8000,"station_id":"","pricing_plan_id":"cebpf4jnsgd1na2vs0mg"},{"bike_id":"372eae65-470f-4fa6-9ccd-a00833a51555","system_id":"levelo_inurba_marseille","lat":43.337444,"lon":5.374475,"is_reserved":false,"is_disabled":false,"rental_uris":{"android":"levelo://app?vid=372eae65-470f-4fa6-9ccd-a00833a51555","ios":"levelo://app?vid=372eae65-470f-4fa6-9ccd-a00833a51555"},"vehicle_type_id":"4","last_reported":1744032080,"current_range_meters":8400,"station_id":"ce4bgr92rcd13ifvqc7g","pricing_plan_id":"cebpf4jnsgd1na2vs0mg"},{"bike_id":"c3e6d442-6282-4c88-9f90-93d85aff9e76","system_id":"levelo_inurba_marseille","lat":43.28165,"lon":5.42649,"is_reserved":false,"is_disabled":false,"rental_uris":{"android":"levelo://app?vid=c3e6d442-6282-4c88-9f90-93d85aff9e76","ios":"levelo://app?vid=c3e6d442-6282-4c88-9f90-93d85aff9e76"},"vehicle_type_id":"4","last_reported":1744032080,"current_range_meters":8400,"station_id":"ce4bhnh2rcd13ifvqgug","pricing_plan_id":"cebpf4jnsgd1na2vs0mg"},{"bike_id":"c7f769a0-9ae3-4891-a95a-079fb88a4ee7","system_id":"levelo_inurba_marseille","lat":43.25116,"lon":5.4033,"is_reserved":false,"is_disabled":false,"rental_uris":{"android":"levelo://app?vid=c7f769a0-9ae3-4891-a95a-079fb88a4ee7","ios":"levelo://app?vid=c7f769a0-9ae3-4891-a95a-079fb88a4ee7"},"vehicle_type_id":"4","last_reported":1744032080,"current_range_meters":8400,"station_id":"ce4bhlh2rcd13ifvqgig","pricing_plan_id":"cebpf4jnsgd1na2vs0mg"},{"bike_id":"606675f6-9cae-427a-83c9-8a064752327b","system_id":"levelo_inurba_marseille","lat":43.323591,"lon":5.367511,"is_reserved":false,"is_disabled":false,"rental_uris":{"android":"levelo://app?vid=606675f6-9cae-427a-83c9-8a064752327b","ios":"levelo://app?vid=606675f6-9cae-427a-83c9-8a064752327b"},"vehicle_type_id":"4","last_reported":1744032080,"current_range_meters":8400,"station_id":"ce4bhsh2rcd13ifvqi2g","pricing_plan_id":"cebpf4jnsgd1na2vs0mg"},{"bike_id":"60e666a5-c72f-4ad1-8049-0e6775087d89","system_id":"levelo_inurba_marseille","lat":43.2678,"lon":5.39421,"is_reserved":false,"is_disabled":false,"rental_uris":{"android":"levelo://app?vid=60e666a5-c72f-4ad1-8049-0e6775087d89","ios":"levelo://app?vid=60e666a5-c72f-4ad1-8049-0e6775087d89"},"vehicle_type_id":"4","last_reported":1744032080,"current_range_meters":8800,"station_id":"ce4bhh12rcd13ifvqfg0","pricing_plan_id":"cebpf4jnsgd1na2vs0mg"},{"bike_id":"8a38320c-a733-4cf5-8c8e-152497fe8f8f","system_id":"levelo_inurba_marseille","lat":43.28151,"lon":5.42648,"is_reserved":false,"is_disabled":false,"rental_uris":{"android":"levelo://app?vid=8a38320c-a733-4cf5-8c8e-152497fe8f8f","ios":"levelo://app?vid=8a38320c-a733-4cf5-8c8e-152497fe8f8f"},"vehicle_type_id":"4","last_reported":1744032080,"current_range_meters":8800,"station_id":"ce4bhnh2rcd13ifvqgug","pricing_plan_id":"cebpf4jnsgd1na2vs0mg"},{"bike_id":"23980d64-35b5-4604-ad44-ad65e6bbcdb3","system_id":"levelo_inurba_marseille","lat":43.2315,"lon":5.43705,"is_reserved":false,"is_disabled":false,"rental_uris":{"android":"levelo://app?vid=23980d64-35b5-4604-ad44-ad65e6bbcdb3","ios":"levelo://app?vid=23980d64-35b5-4604-ad44-ad65e6bbcdb3"},"vehicle_type_id":"4","last_reported":1744032080,"current_range_meters":8800,"station_id":"ce4bhmp2rcd13ifvqgog","pricing_plan_id":"cebpf4jnsgd1na2vs0mg"},{"bike_id":"516d1131-8d22-4c00-9743-8f8296b9be79","system_id":"levelo_inurba_marseille","lat":43.2549,"lon":5.376457,"is_reserved":false,"is_disabled":true,"rental_uris":{"android":"levelo://app?vid=516d1131-8d22-4c00-9743-8f8296b9be79","ios":"levelo://app?vid=516d1131-8d22-4c00-9743-8f8296b9be79"},"vehicle_type_id":"4","last_reported":1744032080,"current_range_meters":8800,"station_id":"ce4bhh12rcd13ifvqff0","pricing_plan_id":"cebpf4jnsgd1na2vs0mg"},{"bike_id":"2d6b3f3e-921f-45af-809c-090b5ad1e09f","system_id":"levelo_inurba_marseille","lat":43.26205,"lon":5.3793,"is_reserved":false,"is_disabled":false,"rental_uris":{"android":"levelo://app?vid=2d6b3f3e-921f-45af-809c-090b5ad1e09f","ios":"levelo://app?vid=2d6b3f3e-921f-45af-809c-090b5ad1e09f"},"vehicle_type_id":"4","last_reported":1744032080,"current_range_meters":8800,"station_id":"ce4bhjp2rcd13ifvqg90","pricing_plan_id":"cebpf4jnsgd1na2vs0mg"},{"bike_id":"03459487-5609-45d6-8672-77ad1a4c94a5","system_id":"levelo_inurba_marseille","lat":43.23151,"lon":5.43708,"is_reserved":false,"is_disabled":false,"rental_uris":{"android":"levelo://app?vid=03459487-5609-45d6-8672-77ad1a4c94a5","ios":"levelo://app?vid=03459487-5609-45d6-8672-77ad1a4c94a5"},"vehicle_type_id":"4","last_reported":1744032080,"current_range_meters":9200,"station_id":"ce4bhmp2rcd13ifvqgog","pricing_plan_id":"cebpf4jnsgd1na2vs0mg"},{"bike_id":"45aba047-a215-471c-a693-ba0966fecf5c","system_id":"levelo_inurba_marseille","lat":43.26562,"lon":5.37293,"is_reserved":false,"is_disabled":false,"rental_uris":{"android":"levelo://app?vid=45aba047-a215-471c-a693-ba0966fecf5c","ios":"levelo://app?vid=45aba047-a215-471c-a693-ba0966fecf5c"},"vehicle_type_id":"4","last_reported":1744032080,"current_range_meters":9200,"station_id":"ce4bhg12rcd13ifvqf70","pricing_plan_id":"cebpf4jnsgd1na2vs0mg"},{"bike_id":"298db965-e305-4b18-8431-6a5ac8388e4d","system_id":"levelo_inurba_marseille","lat":43.30313,"lon":5.36896,"is_reserved":false,"is_disabled":false,"rental_uris":{"android":"levelo://app?vid=298db965-e305-4b18-8431-6a5ac8388e4d","ios":"levelo://app?vid=298db965-e305-4b18-8431-6a5ac8388e4d"},"vehicle_type_id":"4","last_reported":1744032080,"current_range_meters":9200,"station_id":"ce4bgqh2rcd13ifvqc5g","pricing_plan_id":"cebpf4jnsgd1na2vs0mg"},{"bike_id":"1cb84fac-f7ce-4532-93a5-d336cf597c93","system_id":"levelo_inurba_marseille","lat":43.26244,"lon":5.4047,"is_reserved":false,"is_disabled":false,"rental_uris":{"android":"levelo://app?vid=1cb84fac-f7ce-4532-93a5-d336cf597c93","ios":"levelo://app?vid=1cb84fac-f7ce-4532-93a5-d336cf597c93"},"vehicle_type_id":"4","last_reported":1744032080,"current_range_meters":9200,"station_id":"ce4bhmh2rcd13ifvqgmg","pricing_plan_id":"cebpf4jnsgd1na2vs0mg"},{"bike_id":"3a6cf4dd-4a04-48a6-bbfb-6b1ea18759b5","system_id":"levelo_inurba_marseille","lat":43.32357,"lon":5.36785,"is_reserved":false,"is_disabled":false,"rental_uris":{"android":"levelo://app?vid=3a6cf4dd-4a04-48a6-bbfb-6b1ea18759b5","ios":"levelo://app?vid=3a6cf4dd-4a04-48a6-bbfb-6b1ea18759b5"},"vehicle_type_id":"4","last_reported":1744032080,"current_range_meters":9200,"station_id":"ce4bhsh2rcd13ifvqi2g","pricing_plan_id":"cebpf4jnsgd1na2vs0mg"},{"bike_id":"e0aaaea9-eadf-4f8e-a365-03e1aeed1a0f","system_id":"levelo_inurba_marseille","lat":43.27952,"lon":5.41026,"is_reserved":false,"is_disabled":false,"rental_uris":{"android":"levelo://app?vid=e0aaaea9-eadf-4f8e-a365-03e1aeed1a0f","ios":"levelo://app?vid=e0aaaea9-eadf-4f8e-a365-03e1aeed1a0f"},"vehicle_type_id":"4","last_reported":1744032080,"current_range_meters":9200,"station_id":"ce4bhnp2rcd13ifvqh0g","pricing_plan_id":"cebpf4jnsgd1na2vs0mg"},{"bike_id":"84664750-914f-4773-92f0-ec08ad702917","system_id":"levelo_inurba_marseille","lat":43.26964,"lon":5.36619,"is_reserved":false,"is_disabled":false,"rental_uris":{"android":"levelo://app?vid=84664750-914f-4773-92f0-ec08ad702917","ios":"levelo://app?vid=84664750-914f-4773-92f0-ec08ad702917"},"vehicle_type_id":"4","last_reported":1744032080,"current_range_meters":9200,"station_id":"ce4bgvp2rcd13ifvqcu0","pricing_plan_id":"cebpf4jnsgd1na2vs0mg"},{"bike_id":"1e81c4d2-6637-42bf-8d6d-5d37c0fe2360","system_id":"levelo_inurba_marseille","lat":43.32104,"lon":5.36797,"is_reserved":false,"is_disabled":false,"rental_uris":{"android":"levelo://app?vid=1e81c4d2-6637-42bf-8d6d-5d37c0fe2360","ios":"levelo://app?vid=1e81c4d2-6637-42bf-8d6d-5d37c0fe2360"},"vehicle_type_id":"4","last_reported":1744032080,"current_range_meters":9200,"station_id":"ce4bhrh2rcd13ifvqhug","pricing_plan_id":"cebpf4jnsgd1na2vs0mg"},{"bike_id":"a959694d-18ce-4d80-917f-23c91ed81065","system_id":"levelo_inurba_marseille","lat":43.29898,"lon":5.43647,"is_reserved":false,"is_disabled":false,"rental_uris":{"android":"levelo://app?vid=a959694d-18ce-4d80-917f-23c91ed81065","ios":"levelo://app?vid=a959694d-18ce-4d80-917f-23c91ed81065"},"vehicle_type_id":"4","last_reported":1744032080,"current_range_meters":9200,"station_id":"ce4bhpp2rcd13ifvqhfg","pricing_plan_id":"cebpf4jnsgd1na2vs0mg"},{"bike_id":"e4d4dc7a-abcd-4c1d-8017-887f937d011f","system_id":"levelo_inurba_marseille","lat":43.29577,"lon":5.39951,"is_reserved":false,"is_disabled":true,"rental_uris":{"android":"levelo://app?vid=e4d4dc7a-abcd-4c1d-8017-887f937d011f","ios":"levelo://app?vid=e4d4dc7a-abcd-4c1d-8017-887f937d011f"},"vehicle_type_id":"4","last_reported":1744032080,"current_range_meters":9200,"station_id":"ce4bh312rcd13ifvqdj0","pricing_plan_id":"cebpf4jnsgd1na2vs0mg"},{"bike_id":"2f180a7b-5742-4878-a74e-e50f08ac0e26","system_id":"levelo_inurba_marseille","lat":43.28408,"lon":5.3752,"is_reserved":false,"is_disabled":false,"rental_uris":{"android":"levelo://app?vid=2f180a7b-5742-4878-a74e-e50f08ac0e26","ios":"levelo://app?vid=2f180a7b-5742-4878-a74e-e50f08ac0e26"},"vehicle_type_id":"4","last_reported":1744032080,"current_range_meters":9200,"station_id":"ce4bh412rcd13ifvqds0","pricing_plan_id":"cebpf4jnsgd1na2vs0mg"},{"bike_id":"6196ae68-ec43-4906-96af-d13787861ce6","system_id":"levelo_inurba_marseille","lat":43.3093,"lon":5.40168,"is_reserved":false,"is_disabled":false,"rental_uris":{"android":"levelo://app?vid=6196ae68-ec43-4906-96af-d13787861ce6","ios":"levelo://app?vid=6196ae68-ec43-4906-96af-d13787861ce6"},"vehicle_type_id":"4","last_reported":1744032080,"current_range_meters":9600,"station_id":"ce4bgvp2rcd13ifvqct0","pricing_plan_id":"cebpf4jnsgd1na2vs0mg"},{"bike_id":"755acd57-59ea-49ed-ad6a-698107bd5c37","system_id":"levelo_inurba_marseille","lat":43.323589,"lon":5.367597,"is_reserved":false,"is_disabled":false,"rental_uris":{"android":"levelo://app?vid=755acd57-59ea-49ed-ad6a-698107bd5c37","ios":"levelo://app?vid=755acd57-59ea-49ed-ad6a-698107bd5c37"},"vehicle_type_id":"4","last_reported":1744032080,"current_range_meters":9600,"station_id":"ce4bhsh2rcd13ifvqi2g","pricing_plan_id":"cebpf4jnsgd1na2vs0mg"},{"bike_id":"87bda883-ac94-49fc-94c2-3a86e52b4f97","system_id":"levelo_inurba_marseille","lat":43.30731,"lon":5.3833,"is_reserved":false,"is_disabled":false,"rental_uris":{"android":"levelo://app?vid=87bda883-ac94-49fc-94c2-3a86e52b4f97","ios":"levelo://app?vid=87bda883-ac94-49fc-94c2-3a86e52b4f97"},"vehicle_type_id":"4","last_reported":1744032080,"current_range_meters":9600,"station_id":"","pricing_plan_id":"cebpf4jnsgd1na2vs0mg"},{"bike_id":"055c2f9f-083d-4f60-bc6b-09db86ff54f2","system_id":"levelo_inurba_marseille","lat":43.25115,"lon":5.40331,"is_reserved":false,"is_disabled":false,"rental_uris":{"android":"levelo://app?vid=055c2f9f-083d-4f60-bc6b-09db86ff54f2","ios":"levelo://app?vid=055c2f9f-083d-4f60-bc6b-09db86ff54f2"},"vehicle_type_id":"4","last_reported":1744032080,"current_range_meters":9600,"station_id":"ce4bhlh2rcd13ifvqgig","pricing_plan_id":"cebpf4jnsgd1na2vs0mg"},{"bike_id":"d893a78a-9318-483a-996e-9bec91fd98dc","system_id":"levelo_inurba_marseille","lat":43.31703,"lon":5.43689,"is_reserved":false,"is_disabled":false,"rental_uris":{"android":"levelo://app?vid=d893a78a-9318-483a-996e-9bec91fd98dc","ios":"levelo://app?vid=d893a78a-9318-483a-996e-9bec91fd98dc"},"vehicle_type_id":"4","last_reported":1744032080,"current_range_meters":9600,"station_id":"ce4bhp92rcd13ifvqhcg","pricing_plan_id":"cebpf4jnsgd1na2vs0mg"},{"bike_id":"2ef40d35-8718-4e6b-8409-094ae1e3a695","system_id":"levelo_inurba_marseille","lat":43.28347,"lon":5.38104,"is_reserved":false,"is_disabled":false,"rental_uris":{"android":"levelo://app?vid=2ef40d35-8718-4e6b-8409-094ae1e3a695","ios":"levelo://app?vid=2ef40d35-8718-4e6b-8409-094ae1e3a695"},"vehicle_type_id":"4","last_reported":1744032080,"current_range_meters":9200,"station_id":"ce4bh412rcd13ifvqdr0","pricing_plan_id":"cebpf4jnsgd1na2vs0mg"},{"bike_id":"fe0651c9-dbd1-4aec-82c6-2bfd33c9039f","system_id":"levelo_inurba_marseille","lat":43.29976,"lon":5.38494,"is_reserved":false,"is_disabled":false,"rental_uris":{"android":"levelo://app?vid=fe0651c9-dbd1-4aec-82c6-2bfd33c9039f","ios":"levelo://app?vid=fe0651c9-dbd1-4aec-82c6-2bfd33c9039f"},"vehicle_type_id":"4","last_reported":1744032080,"current_range_meters":9600,"station_id":"ce4bgj92rcd13ifvqbd0","pricing_plan_id":"cebpf4jnsgd1na2vs0mg"},{"bike_id":"251e27e9-8827-4065-a079-9b5958b22fcc","system_id":"levelo_inurba_marseille","lat":43.26226,"lon":5.37933,"is_reserved":false,"is_disabled":false,"rental_uris":{"android":"levelo://app?vid=251e27e9-8827-4065-a079-9b5958b22fcc","ios":"levelo://app?vid=251e27e9-8827-4065-a079-9b5958b22fcc"},"vehicle_type_id":"4","last_reported":1744032080,"current_range_meters":10800,"station_id":"ce4bhjp2rcd13ifvqg90","pricing_plan_id":"cebpf4jnsgd1na2vs0mg"},{"bike_id":"2a6c70b7-3280-4c58-9c17-d39c1ef6b670","system_id":"levelo_inurba_marseille","lat":43.323617,"lon":5.367661,"is_reserved":false,"is_disabled":false,"rental_uris":{"android":"levelo://app?vid=2a6c70b7-3280-4c58-9c17-d39c1ef6b670","ios":"levelo://app?vid=2a6c70b7-3280-4c58-9c17-d39c1ef6b670"},"vehicle_type_id":"4","last_reported":1744032080,"current_range_meters":10800,"station_id":"ce4bhsh2rcd13ifvqi2g","pricing_plan_id":"cebpf4jnsgd1na2vs0mg"},{"bike_id":"7bab74d1-e957-43a8-874d-e7d96dd89adc","system_id":"levelo_inurba_marseille","lat":43.24679,"lon":5.38149,"is_reserved":false,"is_disabled":false,"rental_uris":{"android":"levelo://app?vid=7bab74d1-e957-43a8-874d-e7d96dd89adc","ios":"levelo://app?vid=7bab74d1-e957-43a8-874d-e7d96dd89adc"},"vehicle_type_id":"4","last_reported":1744032080,"current_range_meters":10800,"station_id":"ce4bhih2rcd13ifvqfr0","pricing_plan_id":"cebpf4jnsgd1na2vs0mg"},{"bike_id":"9389f907-78e2-4c8e-b008-de9739faa63f","system_id":"levelo_inurba_marseille","lat":43.33018,"lon":5.39464,"is_reserved":false,"is_disabled":false,"rental_uris":{"android":"levelo://app?vid=9389f907-78e2-4c8e-b008-de9739faa63f","ios":"levelo://app?vid=9389f907-78e2-4c8e-b008-de9739faa63f"},"vehicle_type_id":"4","last_reported":1744032080,"current_range_meters":10800,"station_id":"","pricing_plan_id":"cebpf4jnsgd1na2vs0mg"},{"bike_id":"1d218ff5-da10-4d41-a676-b43c1c254d72","system_id":"levelo_inurba_marseille","lat":43.25717,"lon":5.41119,"is_reserved":false,"is_disabled":false,"rental_uris":{"android":"levelo://app?vid=1d218ff5-da10-4d41-a676-b43c1c254d72","ios":"levelo://app?vid=1d218ff5-da10-4d41-a676-b43c1c254d72"},"vehicle_type_id":"4","last_reported":1744032080,"current_range_meters":10800,"station_id":"ce4bhkp2rcd13ifvqgd0","pricing_plan_id":"cebpf4jnsgd1na2vs0mg"},{"bike_id":"0d5f9895-aaa3-4ebc-b78b-222385caeb3f","system_id":"levelo_inurba_marseille","lat":43.23185,"lon":5.39992,"is_reserved":false,"is_disabled":false,"rental_uris":{"android":"levelo://app?vid=0d5f9895-aaa3-4ebc-b78b-222385caeb3f","ios":"levelo://app?vid=0d5f9895-aaa3-4ebc-b78b-222385caeb3f"},"vehicle_type_id":"4","last_reported":1744032080,"current_range_meters":10800,"station_id":"ce4bhn12rcd13ifvqgqg","pricing_plan_id":"cebpf4jnsgd1na2vs0mg"},{"bike_id":"543e8a52-25b8-474c-a2e7-31d0c99c8646","system_id":"levelo_inurba_marseille","lat":43.24179,"lon":5.39729,"is_reserved":false,"is_disabled":false,"rental_uris":{"android":"levelo://app?vid=543e8a52-25b8-474c-a2e7-31d0c99c8646","ios":"levelo://app?vid=543e8a52-25b8-474c-a2e7-31d0c99c8646"},"vehicle_type_id":"4","last_reported":1744032080,"current_range_meters":10800,"station_id":"ce4bhn12rcd13ifvqgpg","pricing_plan_id":"cebpf4jnsgd1na2vs0mg"},{"bike_id":"cc057f14-b1e1-4dee-b107-8741c01c5964","system_id":"levelo_inurba_marseille","lat":43.32094,"lon":5.367883,"is_reserved":false,"is_disabled":true,"rental_uris":{"android":"levelo://app?vid=cc057f14-b1e1-4dee-b107-8741c01c5964","ios":"levelo://app?vid=cc057f14-b1e1-4dee-b107-8741c01c5964"},"vehicle_type_id":"4","last_reported":1744032080,"current_range_meters":10800,"station_id":"ce4bhrh2rcd13ifvqhug","pricing_plan_id":"cebpf4jnsgd1na2vs0mg"},{"bike_id":"f0d398b3-0e99-4a60-9edf-0e289b418a47","system_id":"levelo_inurba_marseille","lat":43.30535,"lon":5.36567,"is_reserved":false,"is_disabled":false,"rental_uris":{"android":"levelo://app?vid=f0d398b3-0e99-4a60-9edf-0e289b418a47","ios":"levelo://app?vid=f0d398b3-0e99-4a60-9edf-0e289b418a47"},"vehicle_type_id":"4","last_reported":1744032080,"current_range_meters":11200,"station_id":"ce4bgs12rcd13ifvqcag","pricing_plan_id":"cebpf4jnsgd1na2vs0mg"},{"bike_id":"750bc9c2-8244-4f27-a571-77c62d7d6b92","system_id":"levelo_inurba_marseille","lat":43.31276,"lon":5.37771,"is_reserved":false,"is_disabled":false,"rental_uris":{"android":"levelo://app?vid=750bc9c2-8244-4f27-a571-77c62d7d6b92","ios":"levelo://app?vid=750bc9c2-8244-4f27-a571-77c62d7d6b92"},"vehicle_type_id":"4","last_reported":1744032080,"current_range_meters":11200,"station_id":"","pricing_plan_id":"cebpf4jnsgd1na2vs0mg"},{"bike_id":"32327de5-3268-4e55-8338-e898590376b3","system_id":"levelo_inurba_marseille","lat":43.255827,"lon":5.382385,"is_reserved":false,"is_disabled":false,"rental_uris":{"android":"levelo://app?vid=32327de5-3268-4e55-8338-e898590376b3","ios":"levelo://app?vid=32327de5-3268-4e55-8338-e898590376b3"},"vehicle_type_id":"4","last_reported":1744032080,"current_range_meters":11200,"station_id":"ce4bhih2rcd13ifvqfs0","pricing_plan_id":"cebpf4jnsgd1na2vs0mg"},{"bike_id":"7b3646e0-cbf2-40de-92a8-c829ec618775","system_id":"levelo_inurba_marseille","lat":43.319947,"lon":5.38158,"is_reserved":false,"is_disabled":true,"rental_uris":{"android":"levelo://app?vid=7b3646e0-cbf2-40de-92a8-c829ec618775","ios":"levelo://app?vid=7b3646e0-cbf2-40de-92a8-c829ec618775"},"vehicle_type_id":"4","last_reported":1744032080,"current_range_meters":11200,"station_id":"ce4bhr12rcd13ifvqhpg","pricing_plan_id":"cebpf4jnsgd1na2vs0mg"},{"bike_id":"7e1b6a3d-58ec-44af-a745-ef3d905a50bb","system_id":"levelo_inurba_marseille","lat":43.26201,"lon":5.37931,"is_reserved":false,"is_disabled":false,"rental_uris":{"android":"levelo://app?vid=7e1b6a3d-58ec-44af-a745-ef3d905a50bb","ios":"levelo://app?vid=7e1b6a3d-58ec-44af-a745-ef3d905a50bb"},"vehicle_type_id":"4","last_reported":1744032080,"current_range_meters":11600,"station_id":"ce4bhjp2rcd13ifvqg90","pricing_plan_id":"cebpf4jnsgd1na2vs0mg"},{"bike_id":"e53b9e9b-ac51-4f70-ad60-ed3149b8c178","system_id":"levelo_inurba_marseille","lat":43.31305,"lon":5.37336,"is_reserved":false,"is_disabled":false,"rental_uris":{"android":"levelo://app?vid=e53b9e9b-ac51-4f70-ad60-ed3149b8c178","ios":"levelo://app?vid=e53b9e9b-ac51-4f70-ad60-ed3149b8c178"},"vehicle_type_id":"4","last_reported":1744032080,"current_range_meters":11600,"station_id":"","pricing_plan_id":"cebpf4jnsgd1na2vs0mg"},{"bike_id":"73272853-088e-4b39-8e6e-94fe10fc353c","system_id":"levelo_inurba_marseille","lat":43.33767,"lon":5.37485,"is_reserved":false,"is_disabled":true,"rental_uris":{"android":"levelo://app?vid=73272853-088e-4b39-8e6e-94fe10fc353c","ios":"levelo://app?vid=73272853-088e-4b39-8e6e-94fe10fc353c"},"vehicle_type_id":"4","last_reported":1744032080,"current_range_meters":12000,"station_id":"","pricing_plan_id":"cebpf4jnsgd1na2vs0mg"},{"bike_id":"b3955141-b4e4-46ef-9f72-2d6ddb89ac2c","system_id":"levelo_inurba_marseille","lat":43.23151,"lon":5.43731,"is_reserved":false,"is_disabled":false,"rental_uris":{"android":"levelo://app?vid=b3955141-b4e4-46ef-9f72-2d6ddb89ac2c","ios":"levelo://app?vid=b3955141-b4e4-46ef-9f72-2d6ddb89ac2c"},"vehicle_type_id":"4","last_reported":1744032080,"current_range_meters":11600,"station_id":"ce4bhmp2rcd13ifvqgog","pricing_plan_id":"cebpf4jnsgd1na2vs0mg"},{"bike_id":"e05cb48a-d1ec-4cad-8899-eaa67d18b583","system_id":"levelo_inurba_marseille","lat":43.30313,"lon":5.39205,"is_reserved":false,"is_disabled":false,"rental_uris":{"android":"levelo://app?vid=e05cb48a-d1ec-4cad-8899-eaa67d18b583","ios":"levelo://app?vid=e05cb48a-d1ec-4cad-8899-eaa67d18b583"},"vehicle_type_id":"4","last_reported":1744032080,"current_range_meters":11600,"station_id":"ce4bgkh2rcd13ifvqbk0","pricing_plan_id":"cebpf4jnsgd1na2vs0mg"},{"bike_id":"5a9a168c-3ae7-4c98-8417-23fbf6040d1f","system_id":"levelo_inurba_marseille","lat":43.29601,"lon":5.38094,"is_reserved":false,"is_disabled":false,"rental_uris":{"android":"levelo://app?vid=5a9a168c-3ae7-4c98-8417-23fbf6040d1f","ios":"levelo://app?vid=5a9a168c-3ae7-4c98-8417-23fbf6040d1f"},"vehicle_type_id":"4","last_reported":1744032080,"current_range_meters":11600,"station_id":"ce4bgl12rcd13ifvqbo0","pricing_plan_id":"cebpf4jnsgd1na2vs0mg"},{"bike_id":"1f4892ef-d0bb-412f-badf-b2a03a83af5b","system_id":"levelo_inurba_marseille","lat":43.29851,"lon":5.36291,"is_reserved":false,"is_disabled":false,"rental_uris":{"android":"levelo://app?vid=1f4892ef-d0bb-412f-badf-b2a03a83af5b","ios":"levelo://app?vid=1f4892ef-d0bb-412f-badf-b2a03a83af5b"},"vehicle_type_id":"4","last_reported":1744032080,"current_range_meters":11600,"station_id":"ce4bgpp2rcd13ifvqc3g","pricing_plan_id":"cebpf4jnsgd1na2vs0mg"},{"bike_id":"7f849341-935d-4b6d-88b0-0fbbf079e418","system_id":"levelo_inurba_marseille","lat":43.28458,"lon":5.38421,"is_reserved":false,"is_disabled":true,"rental_uris":{"android":"levelo://app?vid=7f849341-935d-4b6d-88b0-0fbbf079e418","ios":"levelo://app?vid=7f849341-935d-4b6d-88b0-0fbbf079e418"},"vehicle_type_id":"4","last_reported":1744032080,"current_range_meters":12400,"station_id":"ce4bh512rcd13ifvqe3g","pricing_plan_id":"cebpf4jnsgd1na2vs0mg"},{"bike_id":"965debe4-081f-4ce1-a884-fcf3ae2cc3a4","system_id":"levelo_inurba_marseille","lat":43.23148,"lon":5.43709,"is_reserved":false,"is_disabled":false,"rental_uris":{"android":"levelo://app?vid=965debe4-081f-4ce1-a884-fcf3ae2cc3a4","ios":"levelo://app?vid=965debe4-081f-4ce1-a884-fcf3ae2cc3a4"},"vehicle_type_id":"4","last_reported":1744032080,"current_range_meters":12400,"station_id":"ce4bhmp2rcd13ifvqgog","pricing_plan_id":"cebpf4jnsgd1na2vs0mg"},{"bike_id":"a6280444-7408-4511-b79e-babeaf12e790","system_id":"levelo_inurba_marseille","lat":43.28615,"lon":5.35072,"is_reserved":false,"is_disabled":false,"rental_uris":{"android":"levelo://app?vid=a6280444-7408-4511-b79e-babeaf12e790","ios":"levelo://app?vid=a6280444-7408-4511-b79e-babeaf12e790"},"vehicle_type_id":"4","last_reported":1744032080,"current_range_meters":12400,"station_id":"ce4bhch2rcd13ifvqeug","pricing_plan_id":"cebpf4jnsgd1na2vs0mg"},{"bike_id":"8127a379-abcb-448e-b192-b2b588a12b57","system_id":"levelo_inurba_marseille","lat":43.25719,"lon":5.41105,"is_reserved":false,"is_disabled":false,"rental_uris":{"android":"levelo://app?vid=8127a379-abcb-448e-b192-b2b588a12b57","ios":"levelo://app?vid=8127a379-abcb-448e-b192-b2b588a12b57"},"vehicle_type_id":"4","last_reported":1744032080,"current_range_meters":12400,"station_id":"ce4bhkp2rcd13ifvqgd0","pricing_plan_id":"cebpf4jnsgd1na2vs0mg"},{"bike_id":"f6badd6d-7c01-4364-a05b-585cb882162b","system_id":"levelo_inurba_marseille","lat":43.23155,"lon":5.4372,"is_reserved":false,"is_disabled":false,"rental_uris":{"android":"levelo://app?vid=f6badd6d-7c01-4364-a05b-585cb882162b","ios":"levelo://app?vid=f6badd6d-7c01-4364-a05b-585cb882162b"},"vehicle_type_id":"4","last_reported":1744032080,"current_range_meters":12400,"station_id":"ce4bhmp2rcd13ifvqgog","pricing_plan_id":"cebpf4jnsgd1na2vs0mg"},{"bike_id":"f3e1697d-6322-4b7c-bcd9-bfaaba5adcfb","system_id":"levelo_inurba_marseille","lat":43.31992,"lon":5.38135,"is_reserved":false,"is_disabled":true,"rental_uris":{"android":"levelo://app?vid=f3e1697d-6322-4b7c-bcd9-bfaaba5adcfb","ios":"levelo://app?vid=f3e1697d-6322-4b7c-bcd9-bfaaba5adcfb"},"vehicle_type_id":"4","last_reported":1744032080,"current_range_meters":12400,"station_id":"ce4bhr12rcd13ifvqhpg","pricing_plan_id":"cebpf4jnsgd1na2vs0mg"},{"bike_id":"6bb42352-d3ad-4a2f-9f21-9eb6cc41e5ff","system_id":"levelo_inurba_marseille","lat":43.312244,"lon":5.368641,"is_reserved":false,"is_disabled":false,"rental_uris":{"android":"levelo://app?vid=6bb42352-d3ad-4a2f-9f21-9eb6cc41e5ff","ios":"levelo://app?vid=6bb42352-d3ad-4a2f-9f21-9eb6cc41e5ff"},"vehicle_type_id":"4","last_reported":1744032080,"current_range_meters":12800,"station_id":"ce4bgl92rcd13ifvqbq0","pricing_plan_id":"cebpf4jnsgd1na2vs0mg"},{"bike_id":"68a8437a-613e-4ab0-8f0d-f2fde4ad9c9b","system_id":"levelo_inurba_marseille","lat":43.23179,"lon":5.39986,"is_reserved":false,"is_disabled":false,"rental_uris":{"android":"levelo://app?vid=68a8437a-613e-4ab0-8f0d-f2fde4ad9c9b","ios":"levelo://app?vid=68a8437a-613e-4ab0-8f0d-f2fde4ad9c9b"},"vehicle_type_id":"4","last_reported":1744032080,"current_range_meters":12800,"station_id":"ce4bhn12rcd13ifvqgqg","pricing_plan_id":"cebpf4jnsgd1na2vs0mg"},{"bike_id":"5c491fd9-4e9d-42cf-8042-18827c0ca2c5","system_id":"levelo_inurba_marseille","lat":43.28481,"lon":5.38547,"is_reserved":false,"is_disabled":false,"rental_uris":{"android":"levelo://app?vid=5c491fd9-4e9d-42cf-8042-18827c0ca2c5","ios":"levelo://app?vid=5c491fd9-4e9d-42cf-8042-18827c0ca2c5"},"vehicle_type_id":"4","last_reported":1744032080,"current_range_meters":12800,"station_id":"ce4bh8p2rcd13ifvqeb0","pricing_plan_id":"cebpf4jnsgd1na2vs0mg"},{"bike_id":"cc04bd1a-08e4-4179-96af-ec251ae135b2","system_id":"levelo_inurba_marseille","lat":43.2996,"lon":5.40145,"is_reserved":false,"is_disabled":false,"rental_uris":{"android":"levelo://app?vid=cc04bd1a-08e4-4179-96af-ec251ae135b2","ios":"levelo://app?vid=cc04bd1a-08e4-4179-96af-ec251ae135b2"},"vehicle_type_id":"4","last_reported":1744032080,"current_range_meters":12800,"station_id":"","pricing_plan_id":"cebpf4jnsgd1na2vs0mg"},{"bike_id":"886cd2a0-9d6b-4b84-9289-90a246a3fa11","system_id":"levelo_inurba_marseille","lat":43.31225,"lon":5.36866,"is_reserved":false,"is_disabled":false,"rental_uris":{"android":"levelo://app?vid=886cd2a0-9d6b-4b84-9289-90a246a3fa11","ios":"levelo://app?vid=886cd2a0-9d6b-4b84-9289-90a246a3fa11"},"vehicle_type_id":"4","last_reported":1744032080,"current_range_meters":12800,"station_id":"ce4bgl92rcd13ifvqbq0","pricing_plan_id":"cebpf4jnsgd1na2vs0mg"},{"bike_id":"533903e7-9ddd-4509-88b4-8ffbb1b6017c","system_id":"levelo_inurba_marseille","lat":43.29707,"lon":5.36613,"is_reserved":false,"is_disabled":false,"rental_uris":{"android":"levelo://app?vid=533903e7-9ddd-4509-88b4-8ffbb1b6017c","ios":"levelo://app?vid=533903e7-9ddd-4509-88b4-8ffbb1b6017c"},"vehicle_type_id":"4","last_reported":1744032080,"current_range_meters":13600,"station_id":"ce4bgn12rcd13ifvqbt0","pricing_plan_id":"cebpf4jnsgd1na2vs0mg"},{"bike_id":"b6f1d573-648c-4e57-ac54-ce8ae3fc6c69","system_id":"levelo_inurba_marseille","lat":43.304294,"lon":5.388998,"is_reserved":false,"is_disabled":false,"rental_uris":{"android":"levelo://app?vid=b6f1d573-648c-4e57-ac54-ce8ae3fc6c69","ios":"levelo://app?vid=b6f1d573-648c-4e57-ac54-ce8ae3fc6c69"},"vehicle_type_id":"4","last_reported":1744032080,"current_range_meters":13600,"station_id":"ce4bgk12rcd13ifvqbi0","pricing_plan_id":"cebpf4jnsgd1na2vs0mg"},{"bike_id":"4d8c57b1-71ae-46bf-9529-a8bb84cf317e","system_id":"levelo_inurba_marseille","lat":43.31757,"lon":5.3902,"is_reserved":false,"is_disabled":false,"rental_uris":{"android":"levelo://app?vid=4d8c57b1-71ae-46bf-9529-a8bb84cf317e","ios":"levelo://app?vid=4d8c57b1-71ae-46bf-9529-a8bb84cf317e"},"vehicle_type_id":"4","last_reported":1744032080,"current_range_meters":13600,"station_id":"ce4bhqp2rcd13ifvqhng","pricing_plan_id":"cebpf4jnsgd1na2vs0mg"},{"bike_id":"de025030-242b-44bd-9800-c39937f402a7","system_id":"levelo_inurba_marseille","lat":43.30211,"lon":5.39462,"is_reserved":false,"is_disabled":false,"rental_uris":{"android":"levelo://app?vid=de025030-242b-44bd-9800-c39937f402a7","ios":"levelo://app?vid=de025030-242b-44bd-9800-c39937f402a7"},"vehicle_type_id":"4","last_reported":1744032080,"current_range_meters":13600,"station_id":"ce4bh0p2rcd13ifvqd70","pricing_plan_id":"cebpf4jnsgd1na2vs0mg"},{"bike_id":"257d1c02-5396-419e-a612-6a8a1704493e","system_id":"levelo_inurba_marseille","lat":43.29029,"lon":5.37606,"is_reserved":false,"is_disabled":true,"rental_uris":{"android":"levelo://app?vid=257d1c02-5396-419e-a612-6a8a1704493e","ios":"levelo://app?vid=257d1c02-5396-419e-a612-6a8a1704493e"},"vehicle_type_id":"4","last_reported":1744032080,"current_range_meters":13600,"station_id":"ce4bh692rcd13ifvqe90","pricing_plan_id":"cebpf4jnsgd1na2vs0mg"},{"bike_id":"19224d95-e048-4cbb-8884-43e0e6b3db9b","system_id":"levelo_inurba_marseille","lat":43.29867,"lon":5.39736,"is_reserved":false,"is_disabled":true,"rental_uris":{"android":"levelo://app?vid=19224d95-e048-4cbb-8884-43e0e6b3db9b","ios":"levelo://app?vid=19224d95-e048-4cbb-8884-43e0e6b3db9b"},"vehicle_type_id":"4","last_reported":1744032080,"current_range_meters":13600,"station_id":"ce4bh0h2rcd13ifvqd50","pricing_plan_id":"cebpf4jnsgd1na2vs0mg"},{"bike_id":"4e63bc7f-b907-45ea-bc67-f61c9be2b9d6","system_id":"levelo_inurba_marseille","lat":43.29989,"lon":5.38517,"is_reserved":false,"is_disabled":true,"rental_uris":{"android":"levelo://app?vid=4e63bc7f-b907-45ea-bc67-f61c9be2b9d6","ios":"levelo://app?vid=4e63bc7f-b907-45ea-bc67-f61c9be2b9d6"},"vehicle_type_id":"4","last_reported":1744032080,"current_range_meters":13600,"station_id":"ce4bgj92rcd13ifvqbd0","pricing_plan_id":"cebpf4jnsgd1na2vs0mg"},{"bike_id":"d87c23f7-e235-41b8-a936-eedfca587c54","system_id":"levelo_inurba_marseille","lat":43.23181,"lon":5.39989,"is_reserved":false,"is_disabled":false,"rental_uris":{"android":"levelo://app?vid=d87c23f7-e235-41b8-a936-eedfca587c54","ios":"levelo://app?vid=d87c23f7-e235-41b8-a936-eedfca587c54"},"vehicle_type_id":"4","last_reported":1744032080,"current_range_meters":14000,"station_id":"ce4bhn12rcd13ifvqgqg","pricing_plan_id":"cebpf4jnsgd1na2vs0mg"},{"bike_id":"82f28cf6-556c-431d-a12b-bd3ce5fc2f28","system_id":"levelo_inurba_marseille","lat":43.27491,"lon":5.37907,"is_reserved":false,"is_disabled":false,"rental_uris":{"android":"levelo://app?vid=82f28cf6-556c-431d-a12b-bd3ce5fc2f28","ios":"levelo://app?vid=82f28cf6-556c-431d-a12b-bd3ce5fc2f28"},"vehicle_type_id":"4","last_reported":1744032080,"current_range_meters":14000,"station_id":"","pricing_plan_id":"cebpf4jnsgd1na2vs0mg"},{"bike_id":"4662f2c9-aa99-4430-b56d-3b091c848158","system_id":"levelo_inurba_marseille","lat":43.26191,"lon":5.37454,"is_reserved":false,"is_disabled":false,"rental_uris":{"android":"levelo://app?vid=4662f2c9-aa99-4430-b56d-3b091c848158","ios":"levelo://app?vid=4662f2c9-aa99-4430-b56d-3b091c848158"},"vehicle_type_id":"4","last_reported":1744032080,"current_range_meters":14000,"station_id":"ce4bhgp2rcd13ifvqfc0","pricing_plan_id":"cebpf4jnsgd1na2vs0mg"},{"bike_id":"e2f79613-1ca7-434d-bacf-09897e49bc33","system_id":"levelo_inurba_marseille","lat":43.26063,"lon":5.39399,"is_reserved":false,"is_disabled":false,"rental_uris":{"android":"levelo://app?vid=e2f79613-1ca7-434d-bacf-09897e49bc33","ios":"levelo://app?vid=e2f79613-1ca7-434d-bacf-09897e49bc33"},"vehicle_type_id":"4","last_reported":1744032080,"current_range_meters":14000,"station_id":"ce4bhh92rcd13ifvqfj0","pricing_plan_id":"cebpf4jnsgd1na2vs0mg"},{"bike_id":"3576b946-70b3-456f-a60a-d98e227f015c","system_id":"levelo_inurba_marseille","lat":43.30128,"lon":5.38161,"is_reserved":false,"is_disabled":false,"rental_uris":{"android":"levelo://app?vid=3576b946-70b3-456f-a60a-d98e227f015c","ios":"levelo://app?vid=3576b946-70b3-456f-a60a-d98e227f015c"},"vehicle_type_id":"4","last_reported":1744032080,"current_range_meters":14000,"station_id":"ce4bgup2rcd13ifvqcn0","pricing_plan_id":"cebpf4jnsgd1na2vs0mg"},{"bike_id":"3c68a883-360e-4d89-ab4f-693cc32fbed4","system_id":"levelo_inurba_marseille","lat":43.29093,"lon":5.3811,"is_reserved":false,"is_disabled":false,"rental_uris":{"android":"levelo://app?vid=3c68a883-360e-4d89-ab4f-693cc32fbed4","ios":"levelo://app?vid=3c68a883-360e-4d89-ab4f-693cc32fbed4"},"vehicle_type_id":"4","last_reported":1744032080,"current_range_meters":14000,"station_id":"ce4bh512rcd13ifvqe2g","pricing_plan_id":"cebpf4jnsgd1na2vs0mg"},{"bike_id":"ddb2a2ac-bb00-4161-9f2f-3ca20c29b015","system_id":"levelo_inurba_marseille","lat":43.25114,"lon":5.40322,"is_reserved":false,"is_disabled":false,"rental_uris":{"android":"levelo://app?vid=ddb2a2ac-bb00-4161-9f2f-3ca20c29b015","ios":"levelo://app?vid=ddb2a2ac-bb00-4161-9f2f-3ca20c29b015"},"vehicle_type_id":"4","last_reported":1744032080,"current_range_meters":14000,"station_id":"ce4bhlh2rcd13ifvqgig","pricing_plan_id":"cebpf4jnsgd1na2vs0mg"},{"bike_id":"de98718e-5aa8-4934-8f69-7da6b3087489","system_id":"levelo_inurba_marseille","lat":43.30949,"lon":5.39033,"is_reserved":false,"is_disabled":false,"rental_uris":{"android":"levelo://app?vid=de98718e-5aa8-4934-8f69-7da6b3087489","ios":"levelo://app?vid=de98718e-5aa8-4934-8f69-7da6b3087489"},"vehicle_type_id":"4","last_reported":1744032080,"current_range_meters":14000,"station_id":"ce4bgup2rcd13ifvqco0","pricing_plan_id":"cebpf4jnsgd1na2vs0mg"},{"bike_id":"7b4c4d4d-56f5-48e0-b468-8da89976d517","system_id":"levelo_inurba_marseille","lat":43.28679,"lon":5.38669,"is_reserved":false,"is_disabled":false,"rental_uris":{"android":"levelo://app?vid=7b4c4d4d-56f5-48e0-b468-8da89976d517","ios":"levelo://app?vid=7b4c4d4d-56f5-48e0-b468-8da89976d517"},"vehicle_type_id":"4","last_reported":1744032080,"current_range_meters":14000,"station_id":"ce4bh492rcd13ifvqdug","pricing_plan_id":"cebpf4jnsgd1na2vs0mg"},{"bike_id":"92a1d5fe-b2e8-4e3c-94aa-61e0e2abcbd9","system_id":"levelo_inurba_marseille","lat":43.30465,"lon":5.37912,"is_reserved":false,"is_disabled":false,"rental_uris":{"android":"levelo://app?vid=92a1d5fe-b2e8-4e3c-94aa-61e0e2abcbd9","ios":"levelo://app?vid=92a1d5fe-b2e8-4e3c-94aa-61e0e2abcbd9"},"vehicle_type_id":"4","last_reported":1744032080,"current_range_meters":14400,"station_id":"ce4bgup2rcd13ifvqcn0","pricing_plan_id":"cebpf4jnsgd1na2vs0mg"},{"bike_id":"1340b2f8-6277-4420-bd29-3b30d9b62605","system_id":"levelo_inurba_marseille","lat":43.29575,"lon":5.37517,"is_reserved":false,"is_disabled":false,"rental_uris":{"android":"levelo://app?vid=1340b2f8-6277-4420-bd29-3b30d9b62605","ios":"levelo://app?vid=1340b2f8-6277-4420-bd29-3b30d9b62605"},"vehicle_type_id":"4","last_reported":1744032080,"current_range_meters":14400,"station_id":"ce4bgh92rcd13ifvqb50","pricing_plan_id":"cebpf4jnsgd1na2vs0mg"},{"bike_id":"90205901-24a5-4083-967f-4639bf9f7cd7","system_id":"levelo_inurba_marseille","lat":43.28721,"lon":5.37946,"is_reserved":false,"is_disabled":false,"rental_uris":{"android":"levelo://app?vid=90205901-24a5-4083-967f-4639bf9f7cd7","ios":"levelo://app?vid=90205901-24a5-4083-967f-4639bf9f7cd7"},"vehicle_type_id":"4","last_reported":1744032080,"current_range_meters":14400,"station_id":"ce4bh9p2rcd13ifvqec0","pricing_plan_id":"cebpf4jnsgd1na2vs0mg"},{"bike_id":"4b9dfe05-0e60-423c-af4b-3ef6e8cad4ce","system_id":"levelo_inurba_marseille","lat":43.25115,"lon":5.40335,"is_reserved":false,"is_disabled":true,"rental_uris":{"android":"levelo://app?vid=4b9dfe05-0e60-423c-af4b-3ef6e8cad4ce","ios":"levelo://app?vid=4b9dfe05-0e60-423c-af4b-3ef6e8cad4ce"},"vehicle_type_id":"4","last_reported":1744032080,"current_range_meters":14400,"station_id":"ce4bhlh2rcd13ifvqgig","pricing_plan_id":"cebpf4jnsgd1na2vs0mg"},{"bike_id":"f17ce36f-e80a-4732-89e2-7a7dfab19d87","system_id":"levelo_inurba_marseille","lat":43.29897,"lon":5.43623,"is_reserved":false,"is_disabled":false,"rental_uris":{"android":"levelo://app?vid=f17ce36f-e80a-4732-89e2-7a7dfab19d87","ios":"levelo://app?vid=f17ce36f-e80a-4732-89e2-7a7dfab19d87"},"vehicle_type_id":"4","last_reported":1744032080,"current_range_meters":14800,"station_id":"ce4bhpp2rcd13ifvqhfg","pricing_plan_id":"cebpf4jnsgd1na2vs0mg"},{"bike_id":"1d085f39-182d-4cda-bb2c-ac3d5d3220d2","system_id":"levelo_inurba_marseille","lat":43.23143,"lon":5.43727,"is_reserved":false,"is_disabled":false,"rental_uris":{"android":"levelo://app?vid=1d085f39-182d-4cda-bb2c-ac3d5d3220d2","ios":"levelo://app?vid=1d085f39-182d-4cda-bb2c-ac3d5d3220d2"},"vehicle_type_id":"4","last_reported":1744032080,"current_range_meters":14800,"station_id":"ce4bhmp2rcd13ifvqgog","pricing_plan_id":"cebpf4jnsgd1na2vs0mg"},{"bike_id":"ec7d3251-d53b-4874-b96d-6dae899b6aa1","system_id":"levelo_inurba_marseille","lat":43.27211,"lon":5.39187,"is_reserved":false,"is_disabled":true,"rental_uris":{"android":"levelo://app?vid=ec7d3251-d53b-4874-b96d-6dae899b6aa1","ios":"levelo://app?vid=ec7d3251-d53b-4874-b96d-6dae899b6aa1"},"vehicle_type_id":"4","last_reported":1744032080,"current_range_meters":14800,"station_id":"ce4bhhp2rcd13ifvqfm0","pricing_plan_id":"cebpf4jnsgd1na2vs0mg"},{"bike_id":"00546100-0381-4e70-9755-f729356b673b","system_id":"levelo_inurba_marseille","lat":43.29298,"lon":5.37173,"is_reserved":false,"is_disabled":false,"rental_uris":{"android":"levelo://app?vid=00546100-0381-4e70-9755-f729356b673b","ios":"levelo://app?vid=00546100-0381-4e70-9755-f729356b673b"},"vehicle_type_id":"4","last_reported":1744032080,"current_range_meters":14400,"station_id":"ce4bgh92rcd13ifvqb40","pricing_plan_id":"cebpf4jnsgd1na2vs0mg"},{"bike_id":"1b5a4a29-76ed-45eb-aa03-1b30006e045a","system_id":"levelo_inurba_marseille","lat":43.27423,"lon":5.39423,"is_reserved":false,"is_disabled":false,"rental_uris":{"android":"levelo://app?vid=1b5a4a29-76ed-45eb-aa03-1b30006e045a","ios":"levelo://app?vid=1b5a4a29-76ed-45eb-aa03-1b30006e045a"},"vehicle_type_id":"4","last_reported":1744032080,"current_range_meters":14800,"station_id":"ce4bhdp2rcd13ifvqf20","pricing_plan_id":"cebpf4jnsgd1na2vs0mg"},{"bike_id":"fb9f6b16-b64d-4eb9-b329-0548a57bc9c5","system_id":"levelo_inurba_marseille","lat":43.30096,"lon":5.39078,"is_reserved":false,"is_disabled":false,"rental_uris":{"android":"levelo://app?vid=fb9f6b16-b64d-4eb9-b329-0548a57bc9c5","ios":"levelo://app?vid=fb9f6b16-b64d-4eb9-b329-0548a57bc9c5"},"vehicle_type_id":"4","last_reported":1744032080,"current_range_meters":15200,"station_id":"ce4bh192rcd13ifvqdb0","pricing_plan_id":"cebpf4jnsgd1na2vs0mg"},{"bike_id":"b514593e-be6d-4924-b489-8644124642b3","system_id":"levelo_inurba_marseille","lat":43.30428,"lon":5.38888,"is_reserved":false,"is_disabled":false,"rental_uris":{"android":"levelo://app?vid=b514593e-be6d-4924-b489-8644124642b3","ios":"levelo://app?vid=b514593e-be6d-4924-b489-8644124642b3"},"vehicle_type_id":"4","last_reported":1744032080,"current_range_meters":15200,"station_id":"ce4bgk12rcd13ifvqbi0","pricing_plan_id":"cebpf4jnsgd1na2vs0mg"},{"bike_id":"cc65c360-2c51-477e-b733-399e2ec581d2","system_id":"levelo_inurba_marseille","lat":43.27813,"lon":5.40712,"is_reserved":false,"is_disabled":false,"rental_uris":{"android":"levelo://app?vid=cc65c360-2c51-477e-b733-399e2ec581d2","ios":"levelo://app?vid=cc65c360-2c51-477e-b733-399e2ec581d2"},"vehicle_type_id":"4","last_reported":1744032080,"current_range_meters":15200,"station_id":"ce4bhnh2rcd13ifvqgtg","pricing_plan_id":"cebpf4jnsgd1na2vs0mg"},{"bike_id":"61cd41de-07c4-4597-a74e-0c712a9e4d87","system_id":"levelo_inurba_marseille","lat":43.21193,"lon":5.35077,"is_reserved":false,"is_disabled":false,"rental_uris":{"android":"levelo://app?vid=61cd41de-07c4-4597-a74e-0c712a9e4d87","ios":"levelo://app?vid=61cd41de-07c4-4597-a74e-0c712a9e4d87"},"vehicle_type_id":"4","last_reported":1744032080,"current_range_meters":15200,"station_id":"","pricing_plan_id":"cebpf4jnsgd1na2vs0mg"},{"bike_id":"b023f26d-4ba0-4c78-9432-daac19db61ce","system_id":"levelo_inurba_marseille","lat":43.24548,"lon":5.39528,"is_reserved":false,"is_disabled":false,"rental_uris":{"android":"levelo://app?vid=b023f26d-4ba0-4c78-9432-daac19db61ce","ios":"levelo://app?vid=b023f26d-4ba0-4c78-9432-daac19db61ce"},"vehicle_type_id":"4","last_reported":1744032080,"current_range_meters":16000,"station_id":"ce4bhlp2rcd13ifvqgjg","pricing_plan_id":"cebpf4jnsgd1na2vs0mg"},{"bike_id":"c8198234-6855-460d-b91b-8bbfd4f2a26e","system_id":"levelo_inurba_marseille","lat":43.21194,"lon":5.35071,"is_reserved":false,"is_disabled":false,"rental_uris":{"android":"levelo://app?vid=c8198234-6855-460d-b91b-8bbfd4f2a26e","ios":"levelo://app?vid=c8198234-6855-460d-b91b-8bbfd4f2a26e"},"vehicle_type_id":"4","last_reported":1744032080,"current_range_meters":16000,"station_id":"st_cvj6sg6p6f1abm77japg","pricing_plan_id":"cebpf4jnsgd1na2vs0mg"},{"bike_id":"0aa02c49-cbb3-4907-a588-f754056f3ba8","system_id":"levelo_inurba_marseille","lat":43.30811,"lon":5.38148,"is_reserved":false,"is_disabled":true,"rental_uris":{"android":"levelo://app?vid=0aa02c49-cbb3-4907-a588-f754056f3ba8","ios":"levelo://app?vid=0aa02c49-cbb3-4907-a588-f754056f3ba8"},"vehicle_type_id":"4","last_reported":1744032080,"current_range_meters":16000,"station_id":"ce4bgt12rcd13ifvqce0","pricing_plan_id":"cebpf4jnsgd1na2vs0mg"},{"bike_id":"889763a9-aa13-4a71-bb0c-e1cb1d4e9045","system_id":"levelo_inurba_marseille","lat":43.30909,"lon":5.36863,"is_reserved":false,"is_disabled":false,"rental_uris":{"android":"levelo://app?vid=889763a9-aa13-4a71-bb0c-e1cb1d4e9045","ios":"levelo://app?vid=889763a9-aa13-4a71-bb0c-e1cb1d4e9045"},"vehicle_type_id":"4","last_reported":1744032080,"current_range_meters":16000,"station_id":"ce4bgn92rcd13ifvqbvg","pricing_plan_id":"cebpf4jnsgd1na2vs0mg"},{"bike_id":"9bee14d8-f334-4e2d-87b5-326c1dbfa0af","system_id":"levelo_inurba_marseille","lat":43.29192,"lon":5.39325,"is_reserved":false,"is_disabled":false,"rental_uris":{"android":"levelo://app?vid=9bee14d8-f334-4e2d-87b5-326c1dbfa0af","ios":"levelo://app?vid=9bee14d8-f334-4e2d-87b5-326c1dbfa0af"},"vehicle_type_id":"4","last_reported":1744032080,"current_range_meters":16000,"station_id":"ce4bh192rcd13ifvqdd0","pricing_plan_id":"cebpf4jnsgd1na2vs0mg"},{"bike_id":"606ea610-deb9-42ea-a645-5e04730bb63d","system_id":"levelo_inurba_marseille","lat":43.28458,"lon":5.35889,"is_reserved":false,"is_disabled":false,"rental_uris":{"android":"levelo://app?vid=606ea610-deb9-42ea-a645-5e04730bb63d","ios":"levelo://app?vid=606ea610-deb9-42ea-a645-5e04730bb63d"},"vehicle_type_id":"4","last_reported":1744032080,"current_range_meters":16000,"station_id":"ce4bhah2rcd13ifvqei0","pricing_plan_id":"cebpf4jnsgd1na2vs0mg"},{"bike_id":"67f9198a-5c42-4888-8679-ed9fff871b15","system_id":"levelo_inurba_marseille","lat":43.25102,"lon":5.40325,"is_reserved":false,"is_disabled":false,"rental_uris":{"android":"levelo://app?vid=67f9198a-5c42-4888-8679-ed9fff871b15","ios":"levelo://app?vid=67f9198a-5c42-4888-8679-ed9fff871b15"},"vehicle_type_id":"4","last_reported":1744032080,"current_range_meters":16000,"station_id":"ce4bhlh2rcd13ifvqgig","pricing_plan_id":"cebpf4jnsgd1na2vs0mg"},{"bike_id":"93e3fd92-d65f-4f36-ba40-a3e5476ebc87","system_id":"levelo_inurba_marseille","lat":43.30688,"lon":5.36595,"is_reserved":false,"is_disabled":false,"rental_uris":{"android":"levelo://app?vid=93e3fd92-d65f-4f36-ba40-a3e5476ebc87","ios":"levelo://app?vid=93e3fd92-d65f-4f36-ba40-a3e5476ebc87"},"vehicle_type_id":"4","last_reported":1744032080,"current_range_meters":16400,"station_id":"","pricing_plan_id":"cebpf4jnsgd1na2vs0mg"},{"bike_id":"90dca841-5ca5-4f17-9011-e82e4a20f083","system_id":"levelo_inurba_marseille","lat":43.29567,"lon":5.39967,"is_reserved":false,"is_disabled":false,"rental_uris":{"android":"levelo://app?vid=90dca841-5ca5-4f17-9011-e82e4a20f083","ios":"levelo://app?vid=90dca841-5ca5-4f17-9011-e82e4a20f083"},"vehicle_type_id":"4","last_reported":1744032080,"current_range_meters":16000,"station_id":"ce4bh312rcd13ifvqdj0","pricing_plan_id":"cebpf4jnsgd1na2vs0mg"},{"bike_id":"d94c749a-049f-46bd-b99f-252d4f10b4de","system_id":"levelo_inurba_marseille","lat":43.30914,"lon":5.36887,"is_reserved":false,"is_disabled":false,"rental_uris":{"android":"levelo://app?vid=d94c749a-049f-46bd-b99f-252d4f10b4de","ios":"levelo://app?vid=d94c749a-049f-46bd-b99f-252d4f10b4de"},"vehicle_type_id":"4","last_reported":1744032080,"current_range_meters":16400,"station_id":"ce4bgn92rcd13ifvqbvg","pricing_plan_id":"cebpf4jnsgd1na2vs0mg"},{"bike_id":"140bcc9c-7a15-47b1-a546-a2322d7111c7","system_id":"levelo_inurba_marseille","lat":43.31272,"lon":5.36948,"is_reserved":false,"is_disabled":false,"rental_uris":{"android":"levelo://app?vid=140bcc9c-7a15-47b1-a546-a2322d7111c7","ios":"levelo://app?vid=140bcc9c-7a15-47b1-a546-a2322d7111c7"},"vehicle_type_id":"4","last_reported":1744032080,"current_range_meters":16400,"station_id":"ce4bgl92rcd13ifvqbq0","pricing_plan_id":"cebpf4jnsgd1na2vs0mg"},{"bike_id":"68d1cc33-0218-451e-8e10-d32225c21263","system_id":"levelo_inurba_marseille","lat":43.23154,"lon":5.43696,"is_reserved":false,"is_disabled":true,"rental_uris":{"android":"levelo://app?vid=68d1cc33-0218-451e-8e10-d32225c21263","ios":"levelo://app?vid=68d1cc33-0218-451e-8e10-d32225c21263"},"vehicle_type_id":"4","last_reported":1744032080,"current_range_meters":16400,"station_id":"ce4bhmp2rcd13ifvqgog","pricing_plan_id":"cebpf4jnsgd1na2vs0mg"},{"bike_id":"cd8e6ed4-8fbd-441d-9af3-022ebd94bc10","system_id":"levelo_inurba_marseille","lat":43.30547,"lon":5.36541,"is_reserved":false,"is_disabled":false,"rental_uris":{"android":"levelo://app?vid=cd8e6ed4-8fbd-441d-9af3-022ebd94bc10","ios":"levelo://app?vid=cd8e6ed4-8fbd-441d-9af3-022ebd94bc10"},"vehicle_type_id":"4","last_reported":1744032080,"current_range_meters":16400,"station_id":"ce4bgs12rcd13ifvqcag","pricing_plan_id":"cebpf4jnsgd1na2vs0mg"},{"bike_id":"4e7856fd-1121-4895-ac45-838f693e5e86","system_id":"levelo_inurba_marseille","lat":43.31696,"lon":5.40452,"is_reserved":false,"is_disabled":false,"rental_uris":{"android":"levelo://app?vid=4e7856fd-1121-4895-ac45-838f693e5e86","ios":"levelo://app?vid=4e7856fd-1121-4895-ac45-838f693e5e86"},"vehicle_type_id":"4","last_reported":1744032080,"current_range_meters":16800,"station_id":"ce4bh012rcd13ifvqd00","pricing_plan_id":"cebpf4jnsgd1na2vs0mg"},{"bike_id":"58d98650-dc24-4a18-b3a5-afcc92186fca","system_id":"levelo_inurba_marseille","lat":43.28475,"lon":5.38533,"is_reserved":false,"is_disabled":false,"rental_uris":{"android":"levelo://app?vid=58d98650-dc24-4a18-b3a5-afcc92186fca","ios":"levelo://app?vid=58d98650-dc24-4a18-b3a5-afcc92186fca"},"vehicle_type_id":"4","last_reported":1744032080,"current_range_meters":16800,"station_id":"ce4bh8p2rcd13ifvqeb0","pricing_plan_id":"cebpf4jnsgd1na2vs0mg"},{"bike_id":"2f48ec57-d212-4e94-8bdf-81b7a8f04386","system_id":"levelo_inurba_marseille","lat":43.27209,"lon":5.39192,"is_reserved":false,"is_disabled":true,"rental_uris":{"android":"levelo://app?vid=2f48ec57-d212-4e94-8bdf-81b7a8f04386","ios":"levelo://app?vid=2f48ec57-d212-4e94-8bdf-81b7a8f04386"},"vehicle_type_id":"4","last_reported":1744032080,"current_range_meters":16800,"station_id":"ce4bhhp2rcd13ifvqfm0","pricing_plan_id":"cebpf4jnsgd1na2vs0mg"},{"bike_id":"f7ca4b30-e7d0-48eb-925a-fb767126bfcd","system_id":"levelo_inurba_marseille","lat":43.32538,"lon":5.41461,"is_reserved":false,"is_disabled":false,"rental_uris":{"android":"levelo://app?vid=f7ca4b30-e7d0-48eb-925a-fb767126bfcd","ios":"levelo://app?vid=f7ca4b30-e7d0-48eb-925a-fb767126bfcd"},"vehicle_type_id":"4","last_reported":1744032080,"current_range_meters":16800,"station_id":"ce4bhq12rcd13ifvqhhg","pricing_plan_id":"cebpf4jnsgd1na2vs0mg"},{"bike_id":"7a935817-47e2-4cb3-8324-a647fdf3a140","system_id":"levelo_inurba_marseille","lat":43.2954,"lon":5.38546,"is_reserved":false,"is_disabled":true,"rental_uris":{"android":"levelo://app?vid=7a935817-47e2-4cb3-8324-a647fdf3a140","ios":"levelo://app?vid=7a935817-47e2-4cb3-8324-a647fdf3a140"},"vehicle_type_id":"4","last_reported":1744032080,"current_range_meters":16800,"station_id":"ce4bgih2rcd13ifvqba0","pricing_plan_id":"cebpf4jnsgd1na2vs0mg"},{"bike_id":"d93adbd5-3eb6-4b0a-bfd2-cacd5c680a3a","system_id":"levelo_inurba_marseille","lat":43.32475,"lon":5.36576,"is_reserved":false,"is_disabled":false,"rental_uris":{"android":"levelo://app?vid=d93adbd5-3eb6-4b0a-bfd2-cacd5c680a3a","ios":"levelo://app?vid=d93adbd5-3eb6-4b0a-bfd2-cacd5c680a3a"},"vehicle_type_id":"4","last_reported":1744032080,"current_range_meters":16800,"station_id":"ce4bhs12rcd13ifvqhvg","pricing_plan_id":"cebpf4jnsgd1na2vs0mg"},{"bike_id":"ddd1f951-b98e-4ccf-a0b6-c3f1c917aeba","system_id":"levelo_inurba_marseille","lat":43.27911,"lon":5.3958,"is_reserved":false,"is_disabled":false,"rental_uris":{"android":"levelo://app?vid=ddd1f951-b98e-4ccf-a0b6-c3f1c917aeba","ios":"levelo://app?vid=ddd1f951-b98e-4ccf-a0b6-c3f1c917aeba"},"vehicle_type_id":"4","last_reported":1744032080,"current_range_meters":16800,"station_id":"ce4bhf92rcd13ifvqf40","pricing_plan_id":"cebpf4jnsgd1na2vs0mg"},{"bike_id":"17c5adfe-8770-447d-8f39-e4237eb20018","system_id":"levelo_inurba_marseille","lat":43.29578,"lon":5.39975,"is_reserved":false,"is_disabled":false,"rental_uris":{"android":"levelo://app?vid=17c5adfe-8770-447d-8f39-e4237eb20018","ios":"levelo://app?vid=17c5adfe-8770-447d-8f39-e4237eb20018"},"vehicle_type_id":"4","last_reported":1744032080,"current_range_meters":16800,"station_id":"ce4bh312rcd13ifvqdj0","pricing_plan_id":"cebpf4jnsgd1na2vs0mg"},{"bike_id":"3e602309-c2cc-49c9-984b-ceb6bc2fb252","system_id":"levelo_inurba_marseille","lat":43.30565,"lon":5.36524,"is_reserved":false,"is_disabled":false,"rental_uris":{"android":"levelo://app?vid=3e602309-c2cc-49c9-984b-ceb6bc2fb252","ios":"levelo://app?vid=3e602309-c2cc-49c9-984b-ceb6bc2fb252"},"vehicle_type_id":"4","last_reported":1744032080,"current_range_meters":16800,"station_id":"ce4bgs12rcd13ifvqcag","pricing_plan_id":"cebpf4jnsgd1na2vs0mg"},{"bike_id":"a2b55975-55e4-4a3f-8af7-2c27ff45ed68","system_id":"levelo_inurba_marseille","lat":43.2816,"lon":5.4264,"is_reserved":false,"is_disabled":true,"rental_uris":{"android":"levelo://app?vid=a2b55975-55e4-4a3f-8af7-2c27ff45ed68","ios":"levelo://app?vid=a2b55975-55e4-4a3f-8af7-2c27ff45ed68"},"vehicle_type_id":"4","last_reported":1744032080,"current_range_meters":17200,"station_id":"ce4bhnh2rcd13ifvqgug","pricing_plan_id":"cebpf4jnsgd1na2vs0mg"},{"bike_id":"14c5945b-9f21-4257-953d-5dccdef6b204","system_id":"levelo_inurba_marseille","lat":43.30088,"lon":5.39103,"is_reserved":false,"is_disabled":false,"rental_uris":{"android":"levelo://app?vid=14c5945b-9f21-4257-953d-5dccdef6b204","ios":"levelo://app?vid=14c5945b-9f21-4257-953d-5dccdef6b204"},"vehicle_type_id":"4","last_reported":1744032080,"current_range_meters":17200,"station_id":"ce4bh192rcd13ifvqdb0","pricing_plan_id":"cebpf4jnsgd1na2vs0mg"},{"bike_id":"b837d99a-d8d1-44d2-a150-9bcbd3c08a56","system_id":"levelo_inurba_marseille","lat":43.300467,"lon":5.380803,"is_reserved":false,"is_disabled":false,"rental_uris":{"android":"levelo://app?vid=b837d99a-d8d1-44d2-a150-9bcbd3c08a56","ios":"levelo://app?vid=b837d99a-d8d1-44d2-a150-9bcbd3c08a56"},"vehicle_type_id":"4","last_reported":1744032080,"current_range_meters":17200,"station_id":"","pricing_plan_id":"cebpf4jnsgd1na2vs0mg"},{"bike_id":"9e0829d0-dc9c-45ad-978e-48b61761a490","system_id":"levelo_inurba_marseille","lat":43.30961,"lon":5.39023,"is_reserved":false,"is_disabled":false,"rental_uris":{"android":"levelo://app?vid=9e0829d0-dc9c-45ad-978e-48b61761a490","ios":"levelo://app?vid=9e0829d0-dc9c-45ad-978e-48b61761a490"},"vehicle_type_id":"4","last_reported":1744032080,"current_range_meters":17200,"station_id":"ce4bgup2rcd13ifvqco0","pricing_plan_id":"cebpf4jnsgd1na2vs0mg"},{"bike_id":"737cf36e-6ed6-4154-baf7-0c9f340f3341","system_id":"levelo_inurba_marseille","lat":43.27058,"lon":5.40265,"is_reserved":false,"is_disabled":false,"rental_uris":{"android":"levelo://app?vid=737cf36e-6ed6-4154-baf7-0c9f340f3341","ios":"levelo://app?vid=737cf36e-6ed6-4154-baf7-0c9f340f3341"},"vehicle_type_id":"4","last_reported":1744032080,"current_range_meters":17200,"station_id":"ce4bhk92rcd13ifvqgc0","pricing_plan_id":"cebpf4jnsgd1na2vs0mg"},{"bike_id":"351863ca-8a8c-44f1-9dd7-49fd8388172d","system_id":"levelo_inurba_marseille","lat":43.24167,"lon":5.39733,"is_reserved":false,"is_disabled":false,"rental_uris":{"android":"levelo://app?vid=351863ca-8a8c-44f1-9dd7-49fd8388172d","ios":"levelo://app?vid=351863ca-8a8c-44f1-9dd7-49fd8388172d"},"vehicle_type_id":"4","last_reported":1744032080,"current_range_meters":17200,"station_id":"ce4bhn12rcd13ifvqgpg","pricing_plan_id":"cebpf4jnsgd1na2vs0mg"},{"bike_id":"d01814b3-39f1-4bf5-905f-07c6028f7394","system_id":"levelo_inurba_marseille","lat":43.321039,"lon":5.36785,"is_reserved":false,"is_disabled":false,"rental_uris":{"android":"levelo://app?vid=d01814b3-39f1-4bf5-905f-07c6028f7394","ios":"levelo://app?vid=d01814b3-39f1-4bf5-905f-07c6028f7394"},"vehicle_type_id":"4","last_reported":1744032080,"current_range_meters":17200,"station_id":"ce4bhrh2rcd13ifvqhug","pricing_plan_id":"cebpf4jnsgd1na2vs0mg"},{"bike_id":"45d83681-f2eb-4a39-a20c-4022ba893ea0","system_id":"levelo_inurba_marseille","lat":43.33904,"lon":5.39205,"is_reserved":false,"is_disabled":false,"rental_uris":{"android":"levelo://app?vid=45d83681-f2eb-4a39-a20c-4022ba893ea0","ios":"levelo://app?vid=45d83681-f2eb-4a39-a20c-4022ba893ea0"},"vehicle_type_id":"4","last_reported":1744032080,"current_range_meters":17200,"station_id":"","pricing_plan_id":"cebpf4jnsgd1na2vs0mg"},{"bike_id":"f21807a9-fd41-4226-b9cc-ce755d6c8f33","system_id":"levelo_inurba_marseille","lat":43.29921,"lon":5.38171,"is_reserved":false,"is_disabled":false,"rental_uris":{"android":"levelo://app?vid=f21807a9-fd41-4226-b9cc-ce755d6c8f33","ios":"levelo://app?vid=f21807a9-fd41-4226-b9cc-ce755d6c8f33"},"vehicle_type_id":"4","last_reported":1744032080,"current_range_meters":17600,"station_id":"ce4bgj12rcd13ifvqbc0","pricing_plan_id":"cebpf4jnsgd1na2vs0mg"},{"bike_id":"ab6c53c8-681b-48e6-a559-c2428cd47a01","system_id":"levelo_inurba_marseille","lat":43.309914,"lon":5.400783,"is_reserved":false,"is_disabled":false,"rental_uris":{"android":"levelo://app?vid=ab6c53c8-681b-48e6-a559-c2428cd47a01","ios":"levelo://app?vid=ab6c53c8-681b-48e6-a559-c2428cd47a01"},"vehicle_type_id":"4","last_reported":1744032080,"current_range_meters":17600,"station_id":"ce4bgvp2rcd13ifvqct0","pricing_plan_id":"cebpf4jnsgd1na2vs0mg"},{"bike_id":"365a018e-b6de-4cd4-9126-985bd6ab0ef5","system_id":"levelo_inurba_marseille","lat":43.31224,"lon":5.36862,"is_reserved":false,"is_disabled":false,"rental_uris":{"android":"levelo://app?vid=365a018e-b6de-4cd4-9126-985bd6ab0ef5","ios":"levelo://app?vid=365a018e-b6de-4cd4-9126-985bd6ab0ef5"},"vehicle_type_id":"4","last_reported":1744032080,"current_range_meters":17600,"station_id":"ce4bgl92rcd13ifvqbq0","pricing_plan_id":"cebpf4jnsgd1na2vs0mg"},{"bike_id":"42e6755b-c215-490b-8924-ba8fa3518eea","system_id":"levelo_inurba_marseille","lat":43.30556,"lon":5.36518,"is_reserved":false,"is_disabled":false,"rental_uris":{"android":"levelo://app?vid=42e6755b-c215-490b-8924-ba8fa3518eea","ios":"levelo://app?vid=42e6755b-c215-490b-8924-ba8fa3518eea"},"vehicle_type_id":"4","last_reported":1744032080,"current_range_meters":17600,"station_id":"ce4bgs12rcd13ifvqcag","pricing_plan_id":"cebpf4jnsgd1na2vs0mg"},{"bike_id":"146fa8b6-40cf-43e4-a7a4-c1d798d01cb9","system_id":"levelo_inurba_marseille","lat":43.31679,"lon":5.40474,"is_reserved":false,"is_disabled":false,"rental_uris":{"android":"levelo://app?vid=146fa8b6-40cf-43e4-a7a4-c1d798d01cb9","ios":"levelo://app?vid=146fa8b6-40cf-43e4-a7a4-c1d798d01cb9"},"vehicle_type_id":"4","last_reported":1744032080,"current_range_meters":17600,"station_id":"ce4bh012rcd13ifvqd00","pricing_plan_id":"cebpf4jnsgd1na2vs0mg"},{"bike_id":"23331dd4-d9a7-4730-8185-bbcdf9d130e8","system_id":"levelo_inurba_marseille","lat":43.32054,"lon":5.41548,"is_reserved":false,"is_disabled":false,"rental_uris":{"android":"levelo://app?vid=23331dd4-d9a7-4730-8185-bbcdf9d130e8","ios":"levelo://app?vid=23331dd4-d9a7-4730-8185-bbcdf9d130e8"},"vehicle_type_id":"4","last_reported":1744032080,"current_range_meters":17600,"station_id":"ce4bhq92rcd13ifvqhkg","pricing_plan_id":"cebpf4jnsgd1na2vs0mg"},{"bike_id":"5f9d16aa-61b1-4636-8345-61a4681dbeec","system_id":"levelo_inurba_marseille","lat":43.30537,"lon":5.36515,"is_reserved":false,"is_disabled":false,"rental_uris":{"android":"levelo://app?vid=5f9d16aa-61b1-4636-8345-61a4681dbeec","ios":"levelo://app?vid=5f9d16aa-61b1-4636-8345-61a4681dbeec"},"vehicle_type_id":"4","last_reported":1744032080,"current_range_meters":18000,"station_id":"ce4bgs12rcd13ifvqcag","pricing_plan_id":"cebpf4jnsgd1na2vs0mg"},{"bike_id":"2a3afb7f-837b-42db-8abb-5e1223a0f332","system_id":"levelo_inurba_marseille","lat":43.30129,"lon":5.39869,"is_reserved":false,"is_disabled":false,"rental_uris":{"android":"levelo://app?vid=2a3afb7f-837b-42db-8abb-5e1223a0f332","ios":"levelo://app?vid=2a3afb7f-837b-42db-8abb-5e1223a0f332"},"vehicle_type_id":"4","last_reported":1744032080,"current_range_meters":18000,"station_id":"ce4bh0h2rcd13ifvqd40","pricing_plan_id":"cebpf4jnsgd1na2vs0mg"},{"bike_id":"ada02e36-0999-4c9b-8c72-19cfd12b6522","system_id":"levelo_inurba_marseille","lat":43.29904,"lon":5.38156,"is_reserved":false,"is_disabled":false,"rental_uris":{"android":"levelo://app?vid=ada02e36-0999-4c9b-8c72-19cfd12b6522","ios":"levelo://app?vid=ada02e36-0999-4c9b-8c72-19cfd12b6522"},"vehicle_type_id":"4","last_reported":1744032080,"current_range_meters":18000,"station_id":"ce4bgj12rcd13ifvqbc0","pricing_plan_id":"cebpf4jnsgd1na2vs0mg"},{"bike_id":"aeba91d2-98aa-4036-81b1-0b8e63dbd882","system_id":"levelo_inurba_marseille","lat":43.2501,"lon":5.38915,"is_reserved":false,"is_disabled":false,"rental_uris":{"android":"levelo://app?vid=aeba91d2-98aa-4036-81b1-0b8e63dbd882","ios":"levelo://app?vid=aeba91d2-98aa-4036-81b1-0b8e63dbd882"},"vehicle_type_id":"4","last_reported":1744032080,"current_range_meters":18000,"station_id":"ce4bhgp2rcd13ifvqfd0","pricing_plan_id":"cebpf4jnsgd1na2vs0mg"},{"bike_id":"272093f4-f480-4b8f-8151-390c7cf42196","system_id":"levelo_inurba_marseille","lat":43.3169,"lon":5.4048,"is_reserved":false,"is_disabled":false,"rental_uris":{"android":"levelo://app?vid=272093f4-f480-4b8f-8151-390c7cf42196","ios":"levelo://app?vid=272093f4-f480-4b8f-8151-390c7cf42196"},"vehicle_type_id":"4","last_reported":1744032080,"current_range_meters":17600,"station_id":"ce4bh012rcd13ifvqd00","pricing_plan_id":"cebpf4jnsgd1na2vs0mg"},{"bike_id":"5963202a-9c08-4e04-9f07-c30eb7aa3bbe","system_id":"levelo_inurba_marseille","lat":43.31267,"lon":5.36838,"is_reserved":false,"is_disabled":false,"rental_uris":{"android":"levelo://app?vid=5963202a-9c08-4e04-9f07-c30eb7aa3bbe","ios":"levelo://app?vid=5963202a-9c08-4e04-9f07-c30eb7aa3bbe"},"vehicle_type_id":"4","last_reported":1744032080,"current_range_meters":18000,"station_id":"ce4bgl92rcd13ifvqbq0","pricing_plan_id":"cebpf4jnsgd1na2vs0mg"},{"bike_id":"d752b5c1-fdcf-4864-9a6e-c3cb8dab3734","system_id":"levelo_inurba_marseille","lat":43.30555,"lon":5.36579,"is_reserved":false,"is_disabled":false,"rental_uris":{"android":"levelo://app?vid=d752b5c1-fdcf-4864-9a6e-c3cb8dab3734","ios":"levelo://app?vid=d752b5c1-fdcf-4864-9a6e-c3cb8dab3734"},"vehicle_type_id":"4","last_reported":1744032080,"current_range_meters":18000,"station_id":"ce4bgs12rcd13ifvqcag","pricing_plan_id":"cebpf4jnsgd1na2vs0mg"},{"bike_id":"d1393b3d-c104-4413-ac99-b86ed35a44aa","system_id":"levelo_inurba_marseille","lat":43.30922,"lon":5.40146,"is_reserved":false,"is_disabled":false,"rental_uris":{"android":"levelo://app?vid=d1393b3d-c104-4413-ac99-b86ed35a44aa","ios":"levelo://app?vid=d1393b3d-c104-4413-ac99-b86ed35a44aa"},"vehicle_type_id":"4","last_reported":1744032080,"current_range_meters":18800,"station_id":"ce4bgvp2rcd13ifvqct0","pricing_plan_id":"cebpf4jnsgd1na2vs0mg"},{"bike_id":"092f4687-4460-42d6-a153-6e24fdcce946","system_id":"levelo_inurba_marseille","lat":43.26501,"lon":5.39545,"is_reserved":false,"is_disabled":false,"rental_uris":{"android":"levelo://app?vid=092f4687-4460-42d6-a153-6e24fdcce946","ios":"levelo://app?vid=092f4687-4460-42d6-a153-6e24fdcce946"},"vehicle_type_id":"4","last_reported":1744032080,"current_range_meters":18800,"station_id":"ce4bhi12rcd13ifvqfq0","pricing_plan_id":"cebpf4jnsgd1na2vs0mg"},{"bike_id":"1a2dfc46-5110-4d3e-ba6c-614a8cb08df6","system_id":"levelo_inurba_marseille","lat":43.21192,"lon":5.35075,"is_reserved":false,"is_disabled":false,"rental_uris":{"android":"levelo://app?vid=1a2dfc46-5110-4d3e-ba6c-614a8cb08df6","ios":"levelo://app?vid=1a2dfc46-5110-4d3e-ba6c-614a8cb08df6"},"vehicle_type_id":"4","last_reported":1744032080,"current_range_meters":18800,"station_id":"st_cvj6sg6p6f1abm77japg","pricing_plan_id":"cebpf4jnsgd1na2vs0mg"},{"bike_id":"e260dbe9-beec-4274-a548-61028f95b1da","system_id":"levelo_inurba_marseille","lat":43.29005,"lon":5.35613,"is_reserved":false,"is_disabled":false,"rental_uris":{"android":"levelo://app?vid=e260dbe9-beec-4274-a548-61028f95b1da","ios":"levelo://app?vid=e260dbe9-beec-4274-a548-61028f95b1da"},"vehicle_type_id":"4","last_reported":1744032080,"current_range_meters":18800,"station_id":"ce4bhb92rcd13ifvqen0","pricing_plan_id":"cebpf4jnsgd1na2vs0mg"},{"bike_id":"d41a164c-6af8-4344-bffb-3b3c38a6d184","system_id":"levelo_inurba_marseille","lat":43.30546,"lon":5.36542,"is_reserved":false,"is_disabled":true,"rental_uris":{"android":"levelo://app?vid=d41a164c-6af8-4344-bffb-3b3c38a6d184","ios":"levelo://app?vid=d41a164c-6af8-4344-bffb-3b3c38a6d184"},"vehicle_type_id":"4","last_reported":1744032080,"current_range_meters":18800,"station_id":"ce4bgs12rcd13ifvqcag","pricing_plan_id":"cebpf4jnsgd1na2vs0mg"},{"bike_id":"fbe27213-9351-4c47-8819-a8eeb6a2201b","system_id":"levelo_inurba_marseille","lat":43.28413,"lon":5.37524,"is_reserved":false,"is_disabled":false,"rental_uris":{"android":"levelo://app?vid=fbe27213-9351-4c47-8819-a8eeb6a2201b","ios":"levelo://app?vid=fbe27213-9351-4c47-8819-a8eeb6a2201b"},"vehicle_type_id":"4","last_reported":1744032080,"current_range_meters":18800,"station_id":"ce4bh412rcd13ifvqds0","pricing_plan_id":"cebpf4jnsgd1na2vs0mg"},{"bike_id":"8747f183-ed33-42b5-adf9-ac976864e418","system_id":"levelo_inurba_marseille","lat":43.313567,"lon":5.367323,"is_reserved":false,"is_disabled":false,"rental_uris":{"android":"levelo://app?vid=8747f183-ed33-42b5-adf9-ac976864e418","ios":"levelo://app?vid=8747f183-ed33-42b5-adf9-ac976864e418"},"vehicle_type_id":"4","last_reported":1744032080,"current_range_meters":18800,"station_id":"ce4bh492rcd13ifvqdug","pricing_plan_id":"cebpf4jnsgd1na2vs0mg"},{"bike_id":"d69ff3c5-a78c-43f6-abf4-82dbd880d413","system_id":"levelo_inurba_marseille","lat":43.3053,"lon":5.36551,"is_reserved":false,"is_disabled":false,"rental_uris":{"android":"levelo://app?vid=d69ff3c5-a78c-43f6-abf4-82dbd880d413","ios":"levelo://app?vid=d69ff3c5-a78c-43f6-abf4-82dbd880d413"},"vehicle_type_id":"4","last_reported":1744032080,"current_range_meters":18800,"station_id":"ce4bgs12rcd13ifvqcag","pricing_plan_id":"cebpf4jnsgd1na2vs0mg"},{"bike_id":"af24e20d-cd14-47b0-8e42-24aa1cee57db","system_id":"levelo_inurba_marseille","lat":43.27496,"lon":5.42455,"is_reserved":false,"is_disabled":false,"rental_uris":{"android":"levelo://app?vid=af24e20d-cd14-47b0-8e42-24aa1cee57db","ios":"levelo://app?vid=af24e20d-cd14-47b0-8e42-24aa1cee57db"},"vehicle_type_id":"4","last_reported":1744032080,"current_range_meters":18800,"station_id":"ce4bhn92rcd13ifvqgrg","pricing_plan_id":"cebpf4jnsgd1na2vs0mg"},{"bike_id":"a31d4f8f-790c-4692-9560-b52cede71e74","system_id":"levelo_inurba_marseille","lat":43.30917,"lon":5.3687,"is_reserved":false,"is_disabled":false,"rental_uris":{"android":"levelo://app?vid=a31d4f8f-790c-4692-9560-b52cede71e74","ios":"levelo://app?vid=a31d4f8f-790c-4692-9560-b52cede71e74"},"vehicle_type_id":"4","last_reported":1744032080,"current_range_meters":19200,"station_id":"ce4bgn92rcd13ifvqbvg","pricing_plan_id":"cebpf4jnsgd1na2vs0mg"},{"bike_id":"b01766d2-97b6-42a3-b5ed-7239a08ca989","system_id":"levelo_inurba_marseille","lat":43.30599,"lon":5.37228,"is_reserved":false,"is_disabled":false,"rental_uris":{"android":"levelo://app?vid=b01766d2-97b6-42a3-b5ed-7239a08ca989","ios":"levelo://app?vid=b01766d2-97b6-42a3-b5ed-7239a08ca989"},"vehicle_type_id":"4","last_reported":1744032080,"current_range_meters":19200,"station_id":"ce4bgqh2rcd13ifvqc4g","pricing_plan_id":"cebpf4jnsgd1na2vs0mg"},{"bike_id":"bc2de91d-e1f6-45e3-8cfe-38230312ef6a","system_id":"levelo_inurba_marseille","lat":43.30805,"lon":5.38152,"is_reserved":false,"is_disabled":true,"rental_uris":{"android":"levelo://app?vid=bc2de91d-e1f6-45e3-8cfe-38230312ef6a","ios":"levelo://app?vid=bc2de91d-e1f6-45e3-8cfe-38230312ef6a"},"vehicle_type_id":"4","last_reported":1744032080,"current_range_meters":19200,"station_id":"ce4bgt12rcd13ifvqce0","pricing_plan_id":"cebpf4jnsgd1na2vs0mg"},{"bike_id":"a9477f50-3832-4e91-8daa-8325a4fecec7","system_id":"levelo_inurba_marseille","lat":43.25815,"lon":5.39433,"is_reserved":false,"is_disabled":false,"rental_uris":{"android":"levelo://app?vid=a9477f50-3832-4e91-8daa-8325a4fecec7","ios":"levelo://app?vid=a9477f50-3832-4e91-8daa-8325a4fecec7"},"vehicle_type_id":"4","last_reported":1744032080,"current_range_meters":19200,"station_id":"ce4bhip2rcd13ifvqft0","pricing_plan_id":"cebpf4jnsgd1na2vs0mg"},{"bike_id":"473e0814-9744-41ad-88ac-4e3b79f01bf3","system_id":"levelo_inurba_marseille","lat":43.31204,"lon":5.3685,"is_reserved":false,"is_disabled":false,"rental_uris":{"android":"levelo://app?vid=473e0814-9744-41ad-88ac-4e3b79f01bf3","ios":"levelo://app?vid=473e0814-9744-41ad-88ac-4e3b79f01bf3"},"vehicle_type_id":"4","last_reported":1744032080,"current_range_meters":19600,"station_id":"ce4bgl92rcd13ifvqbq0","pricing_plan_id":"cebpf4jnsgd1na2vs0mg"},{"bike_id":"e81c0a1e-c1ae-4f64-8699-956c39d96f89","system_id":"levelo_inurba_marseille","lat":43.3043,"lon":5.3889,"is_reserved":false,"is_disabled":false,"rental_uris":{"android":"levelo://app?vid=e81c0a1e-c1ae-4f64-8699-956c39d96f89","ios":"levelo://app?vid=e81c0a1e-c1ae-4f64-8699-956c39d96f89"},"vehicle_type_id":"4","last_reported":1744032080,"current_range_meters":19200,"station_id":"ce4bgk12rcd13ifvqbi0","pricing_plan_id":"cebpf4jnsgd1na2vs0mg"},{"bike_id":"17616d88-e007-409b-8545-6e7fd73429ec","system_id":"levelo_inurba_marseille","lat":43.27369,"lon":5.36259,"is_reserved":false,"is_disabled":false,"rental_uris":{"android":"levelo://app?vid=17616d88-e007-409b-8545-6e7fd73429ec","ios":"levelo://app?vid=17616d88-e007-409b-8545-6e7fd73429ec"},"vehicle_type_id":"4","last_reported":1744032080,"current_range_meters":19600,"station_id":"ce4bhbh2rcd13ifvqeo0","pricing_plan_id":"cebpf4jnsgd1na2vs0mg"},{"bike_id":"67f5402e-84ba-4cca-bae1-1308d8bfce95","system_id":"levelo_inurba_marseille","lat":43.323602,"lon":5.367558,"is_reserved":false,"is_disabled":false,"rental_uris":{"android":"levelo://app?vid=67f5402e-84ba-4cca-bae1-1308d8bfce95","ios":"levelo://app?vid=67f5402e-84ba-4cca-bae1-1308d8bfce95"},"vehicle_type_id":"4","last_reported":1744032080,"current_range_meters":19600,"station_id":"ce4bhsh2rcd13ifvqi2g","pricing_plan_id":"cebpf4jnsgd1na2vs0mg"},{"bike_id":"00d712dd-f4ae-44ac-974b-eb382812dbc3","system_id":"levelo_inurba_marseille","lat":43.30159,"lon":5.38083,"is_reserved":false,"is_disabled":false,"rental_uris":{"android":"levelo://app?vid=00d712dd-f4ae-44ac-974b-eb382812dbc3","ios":"levelo://app?vid=00d712dd-f4ae-44ac-974b-eb382812dbc3"},"vehicle_type_id":"4","last_reported":1744032080,"current_range_meters":19600,"station_id":"ce4bgjp2rcd13ifvqbh0","pricing_plan_id":"cebpf4jnsgd1na2vs0mg"},{"bike_id":"7fd6ab25-e74f-4c7c-8ca8-6e7f685d3498","system_id":"levelo_inurba_marseille","lat":43.25083,"lon":5.3952,"is_reserved":false,"is_disabled":false,"rental_uris":{"android":"levelo://app?vid=7fd6ab25-e74f-4c7c-8ca8-6e7f685d3498","ios":"levelo://app?vid=7fd6ab25-e74f-4c7c-8ca8-6e7f685d3498"},"vehicle_type_id":"4","last_reported":1744032080,"current_range_meters":19600,"station_id":"ce4bhm12rcd13ifvqgkg","pricing_plan_id":"cebpf4jnsgd1na2vs0mg"},{"bike_id":"1ca7d0c4-b7aa-4350-ad9f-4e24c2ba029a","system_id":"levelo_inurba_marseille","lat":43.30367,"lon":5.42497,"is_reserved":false,"is_disabled":true,"rental_uris":{"android":"levelo://app?vid=1ca7d0c4-b7aa-4350-ad9f-4e24c2ba029a","ios":"levelo://app?vid=1ca7d0c4-b7aa-4350-ad9f-4e24c2ba029a"},"vehicle_type_id":"4","last_reported":1744032080,"current_range_meters":20000,"station_id":"ce4bhoh2rcd13ifvqh6g","pricing_plan_id":"cebpf4jnsgd1na2vs0mg"},{"bike_id":"c607b5aa-76bd-4697-b9c6-7e21c3c57c7e","system_id":"levelo_inurba_marseille","lat":43.21195,"lon":5.35076,"is_reserved":false,"is_disabled":false,"rental_uris":{"android":"levelo://app?vid=c607b5aa-76bd-4697-b9c6-7e21c3c57c7e","ios":"levelo://app?vid=c607b5aa-76bd-4697-b9c6-7e21c3c57c7e"},"vehicle_type_id":"4","last_reported":1744032080,"current_range_meters":20000,"station_id":"st_cvj6sg6p6f1abm77japg","pricing_plan_id":"cebpf4jnsgd1na2vs0mg"},{"bike_id":"cd43cdc7-c5e2-4f24-aab0-478f8b8d671b","system_id":"levelo_inurba_marseille","lat":43.32468,"lon":5.36573,"is_reserved":false,"is_disabled":false,"rental_uris":{"android":"levelo://app?vid=cd43cdc7-c5e2-4f24-aab0-478f8b8d671b","ios":"levelo://app?vid=cd43cdc7-c5e2-4f24-aab0-478f8b8d671b"},"vehicle_type_id":"4","last_reported":1744032080,"current_range_meters":20000,"station_id":"ce4bhs12rcd13ifvqhvg","pricing_plan_id":"cebpf4jnsgd1na2vs0mg"},{"bike_id":"302b0c63-344c-4e0d-b6e7-6cb2af7663da","system_id":"levelo_inurba_marseille","lat":43.269481,"lon":5.386409,"is_reserved":false,"is_disabled":true,"rental_uris":{"android":"levelo://app?vid=302b0c63-344c-4e0d-b6e7-6cb2af7663da","ios":"levelo://app?vid=302b0c63-344c-4e0d-b6e7-6cb2af7663da"},"vehicle_type_id":"4","last_reported":1744032080,"current_range_meters":20000,"station_id":"ce4bhh92rcd13ifvqfh0","pricing_plan_id":"cebpf4jnsgd1na2vs0mg"},{"bike_id":"7b8c0e4e-0f9c-42c9-9a8f-d609708f2fa4","system_id":"levelo_inurba_marseille","lat":43.25114,"lon":5.40321,"is_reserved":false,"is_disabled":false,"rental_uris":{"android":"levelo://app?vid=7b8c0e4e-0f9c-42c9-9a8f-d609708f2fa4","ios":"levelo://app?vid=7b8c0e4e-0f9c-42c9-9a8f-d609708f2fa4"},"vehicle_type_id":"4","last_reported":1744032080,"current_range_meters":20000,"station_id":"ce4bhlh2rcd13ifvqgig","pricing_plan_id":"cebpf4jnsgd1na2vs0mg"},{"bike_id":"f88d52bd-908d-4adf-973a-a744389759a8","system_id":"levelo_inurba_marseille","lat":43.30425,"lon":5.39759,"is_reserved":false,"is_disabled":false,"rental_uris":{"android":"levelo://app?vid=f88d52bd-908d-4adf-973a-a744389759a8","ios":"levelo://app?vid=f88d52bd-908d-4adf-973a-a744389759a8"},"vehicle_type_id":"4","last_reported":1744032080,"current_range_meters":20000,"station_id":"ce4bh092rcd13ifvqd20","pricing_plan_id":"cebpf4jnsgd1na2vs0mg"},{"bike_id":"0b79af7e-fc82-45f4-b2c8-88dd5a1079c2","system_id":"levelo_inurba_marseille","lat":43.29519,"lon":5.37515,"is_reserved":false,"is_disabled":false,"rental_uris":{"android":"levelo://app?vid=0b79af7e-fc82-45f4-b2c8-88dd5a1079c2","ios":"levelo://app?vid=0b79af7e-fc82-45f4-b2c8-88dd5a1079c2"},"vehicle_type_id":"4","last_reported":1744032080,"current_range_meters":19600,"station_id":"ce4bgkp2rcd13ifvqbmg","pricing_plan_id":"cebpf4jnsgd1na2vs0mg"},{"bike_id":"e98a8f7d-c408-439c-9806-9d7cbdb42495","system_id":"levelo_inurba_marseille","lat":43.23148,"lon":5.43728,"is_reserved":false,"is_disabled":false,"rental_uris":{"android":"levelo://app?vid=e98a8f7d-c408-439c-9806-9d7cbdb42495","ios":"levelo://app?vid=e98a8f7d-c408-439c-9806-9d7cbdb42495"},"vehicle_type_id":"4","last_reported":1744032080,"current_range_meters":20000,"station_id":"ce4bhmp2rcd13ifvqgog","pricing_plan_id":"cebpf4jnsgd1na2vs0mg"},{"bike_id":"0a5c92c2-45c3-4662-9a25-70eff0851127","system_id":"levelo_inurba_marseille","lat":43.296,"lon":5.37711,"is_reserved":false,"is_disabled":false,"rental_uris":{"android":"levelo://app?vid=0a5c92c2-45c3-4662-9a25-70eff0851127","ios":"levelo://app?vid=0a5c92c2-45c3-4662-9a25-70eff0851127"},"vehicle_type_id":"4","last_reported":1744032080,"current_range_meters":20400,"station_id":"ce4bgi92rcd13ifvqb90","pricing_plan_id":"cebpf4jnsgd1na2vs0mg"},{"bike_id":"3ffe50bc-c485-4a0d-af72-22b290d163ac","system_id":"levelo_inurba_marseille","lat":43.27371,"lon":5.36258,"is_reserved":false,"is_disabled":false,"rental_uris":{"android":"levelo://app?vid=3ffe50bc-c485-4a0d-af72-22b290d163ac","ios":"levelo://app?vid=3ffe50bc-c485-4a0d-af72-22b290d163ac"},"vehicle_type_id":"4","last_reported":1744032080,"current_range_meters":20400,"station_id":"ce4bhbh2rcd13ifvqeo0","pricing_plan_id":"cebpf4jnsgd1na2vs0mg"},{"bike_id":"29a8c825-1f58-4ce7-9507-22531b4c6183","system_id":"levelo_inurba_marseille","lat":43.320395,"lon":5.415602,"is_reserved":false,"is_disabled":false,"rental_uris":{"android":"levelo://app?vid=29a8c825-1f58-4ce7-9507-22531b4c6183","ios":"levelo://app?vid=29a8c825-1f58-4ce7-9507-22531b4c6183"},"vehicle_type_id":"4","last_reported":1744032080,"current_range_meters":20400,"station_id":"ce4bhq92rcd13ifvqhkg","pricing_plan_id":"cebpf4jnsgd1na2vs0mg"},{"bike_id":"45f6b4dc-5cb4-4f06-8cc9-1f7573531098","system_id":"levelo_inurba_marseille","lat":43.2793,"lon":5.39599,"is_reserved":false,"is_disabled":false,"rental_uris":{"android":"levelo://app?vid=45f6b4dc-5cb4-4f06-8cc9-1f7573531098","ios":"levelo://app?vid=45f6b4dc-5cb4-4f06-8cc9-1f7573531098"},"vehicle_type_id":"4","last_reported":1744032080,"current_range_meters":20400,"station_id":"ce4bhf92rcd13ifvqf40","pricing_plan_id":"cebpf4jnsgd1na2vs0mg"},{"bike_id":"b770feac-3e5b-4ebb-81d8-d2e8e094d8e6","system_id":"levelo_inurba_marseille","lat":43.31363,"lon":5.38488,"is_reserved":false,"is_disabled":false,"rental_uris":{"android":"levelo://app?vid=b770feac-3e5b-4ebb-81d8-d2e8e094d8e6","ios":"levelo://app?vid=b770feac-3e5b-4ebb-81d8-d2e8e094d8e6"},"vehicle_type_id":"4","last_reported":1744032080,"current_range_meters":20000,"station_id":"ce4bgt92rcd13ifvqcf0","pricing_plan_id":"cebpf4jnsgd1na2vs0mg"},{"bike_id":"21ee9111-5812-402a-b103-f41a4dd53d6b","system_id":"levelo_inurba_marseille","lat":43.23968,"lon":5.36632,"is_reserved":false,"is_disabled":false,"rental_uris":{"android":"levelo://app?vid=21ee9111-5812-402a-b103-f41a4dd53d6b","ios":"levelo://app?vid=21ee9111-5812-402a-b103-f41a4dd53d6b"},"vehicle_type_id":"4","last_reported":1744032080,"current_range_meters":23200,"station_id":"ce4bhi12rcd13ifvqfp0","pricing_plan_id":"cebpf4jnsgd1na2vs0mg"},{"bike_id":"79e58362-38ab-498c-a3af-9ac95622d36c","system_id":"levelo_inurba_marseille","lat":43.30357,"lon":5.41853,"is_reserved":false,"is_disabled":false,"rental_uris":{"android":"levelo://app?vid=79e58362-38ab-498c-a3af-9ac95622d36c","ios":"levelo://app?vid=79e58362-38ab-498c-a3af-9ac95622d36c"},"vehicle_type_id":"4","last_reported":1744032080,"current_range_meters":20800,"station_id":"ce4bhop2rcd13ifvqh7g","pricing_plan_id":"cebpf4jnsgd1na2vs0mg"},{"bike_id":"07b29ea8-032a-4fd0-bfeb-d3ea69ca1db5","system_id":"levelo_inurba_marseille","lat":43.30536,"lon":5.36522,"is_reserved":false,"is_disabled":false,"rental_uris":{"android":"levelo://app?vid=07b29ea8-032a-4fd0-bfeb-d3ea69ca1db5","ios":"levelo://app?vid=07b29ea8-032a-4fd0-bfeb-d3ea69ca1db5"},"vehicle_type_id":"4","last_reported":1744032080,"current_range_meters":20800,"station_id":"ce4bgs12rcd13ifvqcag","pricing_plan_id":"cebpf4jnsgd1na2vs0mg"},{"bike_id":"fe6782eb-2b55-4907-adb3-9b8269deeeac","system_id":"levelo_inurba_marseille","lat":43.32479,"lon":5.36576,"is_reserved":false,"is_disabled":false,"rental_uris":{"android":"levelo://app?vid=fe6782eb-2b55-4907-adb3-9b8269deeeac","ios":"levelo://app?vid=fe6782eb-2b55-4907-adb3-9b8269deeeac"},"vehicle_type_id":"4","last_reported":1744032080,"current_range_meters":20800,"station_id":"ce4bhs12rcd13ifvqhvg","pricing_plan_id":"cebpf4jnsgd1na2vs0mg"},{"bike_id":"a83c310a-cbbd-43de-b5d4-85de0b22ce95","system_id":"levelo_inurba_marseille","lat":43.29596,"lon":5.38094,"is_reserved":false,"is_disabled":false,"rental_uris":{"android":"levelo://app?vid=a83c310a-cbbd-43de-b5d4-85de0b22ce95","ios":"levelo://app?vid=a83c310a-cbbd-43de-b5d4-85de0b22ce95"},"vehicle_type_id":"4","last_reported":1744032080,"current_range_meters":20800,"station_id":"ce4bgl12rcd13ifvqbo0","pricing_plan_id":"cebpf4jnsgd1na2vs0mg"},{"bike_id":"61d8f36a-22a5-4fe4-86f5-e89c83f1c555","system_id":"levelo_inurba_marseille","lat":43.31313,"lon":5.36734,"is_reserved":false,"is_disabled":false,"rental_uris":{"android":"levelo://app?vid=61d8f36a-22a5-4fe4-86f5-e89c83f1c555","ios":"levelo://app?vid=61d8f36a-22a5-4fe4-86f5-e89c83f1c555"},"vehicle_type_id":"4","last_reported":1744032080,"current_range_meters":20800,"station_id":"ce4bgr92rcd13ifvqc6g","pricing_plan_id":"cebpf4jnsgd1na2vs0mg"},{"bike_id":"107d7ec3-7961-4e6e-a4bf-d7fc57ab1620","system_id":"levelo_inurba_marseille","lat":43.25119,"lon":5.40315,"is_reserved":false,"is_disabled":false,"rental_uris":{"android":"levelo://app?vid=107d7ec3-7961-4e6e-a4bf-d7fc57ab1620","ios":"levelo://app?vid=107d7ec3-7961-4e6e-a4bf-d7fc57ab1620"},"vehicle_type_id":"4","last_reported":1744032080,"current_range_meters":20800,"station_id":"ce4bhlh2rcd13ifvqgig","pricing_plan_id":"cebpf4jnsgd1na2vs0mg"},{"bike_id":"47d483d5-4dd8-4eb9-a072-42a50b1abe9b","system_id":"levelo_inurba_marseille","lat":43.307953,"lon":5.381449,"is_reserved":false,"is_disabled":false,"rental_uris":{"android":"levelo://app?vid=47d483d5-4dd8-4eb9-a072-42a50b1abe9b","ios":"levelo://app?vid=47d483d5-4dd8-4eb9-a072-42a50b1abe9b"},"vehicle_type_id":"4","last_reported":1744032080,"current_range_meters":20800,"station_id":"ce4bgt12rcd13ifvqce0","pricing_plan_id":"cebpf4jnsgd1na2vs0mg"},{"bike_id":"724babbb-e4c8-4c4e-9a07-62ae6dca5eb0","system_id":"levelo_inurba_marseille","lat":43.29623,"lon":5.37149,"is_reserved":false,"is_disabled":false,"rental_uris":{"android":"levelo://app?vid=724babbb-e4c8-4c4e-9a07-62ae6dca5eb0","ios":"levelo://app?vid=724babbb-e4c8-4c4e-9a07-62ae6dca5eb0"},"vehicle_type_id":"4","last_reported":1744032080,"current_range_meters":20800,"station_id":"ce4bgnh2rcd13ifvqc0g","pricing_plan_id":"cebpf4jnsgd1na2vs0mg"},{"bike_id":"230b73a5-e986-4f1f-933c-dca4f2cf61af","system_id":"levelo_inurba_marseille","lat":43.34714,"lon":5.34716,"is_reserved":false,"is_disabled":true,"rental_uris":{"android":"levelo://app?vid=230b73a5-e986-4f1f-933c-dca4f2cf61af","ios":"levelo://app?vid=230b73a5-e986-4f1f-933c-dca4f2cf61af"},