{"last_updated":1728068854,"ttl":60,"version":"2.2","data":{"bikes":[{"bike_id":"a6584d5f-e475-4344-88b3-4b74b81e2792","system_id":"levelo_inurba_marseille","lat":43.28269,"lon":5.35062,"is_reserved":false,"is_disabled":false,"rental_uris":{"android":"levelo://app?vid=a6584d5f-e475-4344-88b3-4b74b81e2792","ios":"levelo://app?vid=a6584d5f-e475-4344-88b3-4b74b81e2792"},"vehicle_type_id":"4","last_reported":1728068854,"current_range_meters":20000,"station_id":"ce4bhbp2rcd13ifvqerg","pricing_plan_id":"cebpf4jnsgd1na2vs0mg"},{"bike_id":"f77cce39-2615-4dc3-a759-997bacca9b32","system_id":"levelo_inurba_marseille","lat":43.30601,"lon":5.37226,"is_reserved":false,"is_disabled":false,"rental_uris":{"android":"levelo://app?vid=f77cce39-2615-4dc3-a759-997bacca9b32","ios":"levelo://app?vid=f77cce39-2615-4dc3-a759-997bacca9b32"},"vehicle_type_id":"4","last_reported":1728068854,"current_range_meters":35200,"station_id":"ce4bgqh2rcd13ifvqc4g","pricing_plan_id":"cebpf4jnsgd1na2vs0mg"},{"bike_id":"0ab31a2b-100e-46ba-8518-e3de7fc7122e","system_id":"levelo_inurba_marseille","lat":43.33754,"lon":5.37446,"is_reserved":false,"is_disabled":false,"rental_uris":{"android":"levelo://app?vid=0ab31a2b-100e-46ba-8518-e3de7fc7122e","ios":"levelo://app?vid=0ab31a2b-100e-46ba-8518-e3de7fc7122e"},"vehicle_type_id":"4","last_reported":1728068854,"current_range_meters":36000,"station_id":"","pricing_plan_id":"cebpf4jnsgd1na2vs0mg"},{"bike_id":"b81a95a6-23bc-4be8-b1e8-619044ffcb37","system_id":"levelo_inurba_marseille","lat":43.26805,"lon":5.40274,"is_reserved":false,"is_disabled":false,"rental_uris":{"android":"levelo://app?vid=b81a95a6-23bc-4be8-b1e8-619044ffcb37","ios":"levelo://app?vid=b81a95a6-23bc-4be8-b1e8-619044ffcb37"},"vehicle_type_id":"4","last_reported":1728068854,"current_range_meters":17600,"station_id":"ce501612rcd8frsf0b60","pricing_plan_id":"cebpf4jnsgd1na2vs0mg"},{"bike_id":"13e88bbf-308f-4308-ba1c-88d8b50c01ca","system_id":"levelo_inurba_marseille","lat":43.30528,"lon":5.36705,"is_reserved":false,"is_disabled":false,"rental_uris":{"android":"levelo://app?vid=13e88bbf-308f-4308-ba1c-88d8b50c01ca","ios":"levelo://app?vid=13e88bbf-308f-4308-ba1c-88d8b50c01ca"},"vehicle_type_id":"4","last_reported":1728068854,"current_range_meters":36400,"station_id":"ce4bgrp2rcd13ifvqc9g","pricing_plan_id":"cebpf4jnsgd1na2vs0mg"},{"bike_id":"756088e4-bd38-4606-aa6f-cbbf1461af00","system_id":"levelo_inurba_marseille","lat":43.22936,"lon":5.35378,"is_reserved":false,"is_disabled":false,"rental_uris":{"android":"levelo://app?vid=756088e4-bd38-4606-aa6f-cbbf1461af00","ios":"levelo://app?vid=756088e4-bd38-4606-aa6f-cbbf1461af00"},"vehicle_type_id":"4","last_reported":1728068854,"current_range_meters":10800,"station_id":"cpo3532slgdg3j2ikp40","pricing_plan_id":"cebpf4jnsgd1na2vs0mg"},{"bike_id":"9d98ae51-d73c-42df-b4e2-8cf7d228306f","system_id":"levelo_inurba_marseille","lat":43.29269,"lon":5.38447,"is_reserved":false,"is_disabled":false,"rental_uris":{"android":"levelo://app?vid=9d98ae51-d73c-42df-b4e2-8cf7d228306f","ios":"levelo://app?vid=9d98ae51-d73c-42df-b4e2-8cf7d228306f"},"vehicle_type_id":"4","last_reported":1728068854,"current_range_meters":11600,"station_id":"ce4bh692rcd13ifvqea0","pricing_plan_id":"cebpf4jnsgd1na2vs0mg"},{"bike_id":"4bedad2d-71df-4ec8-8484-2826e4bbd9d4","system_id":"levelo_inurba_marseille","lat":43.23962,"lon":5.3663,"is_reserved":false,"is_disabled":false,"rental_uris":{"android":"levelo://app?vid=4bedad2d-71df-4ec8-8484-2826e4bbd9d4","ios":"levelo://app?vid=4bedad2d-71df-4ec8-8484-2826e4bbd9d4"},"vehicle_type_id":"4","last_reported":1728068854,"current_range_meters":31200,"station_id":"ce4bhi12rcd13ifvqfp0","pricing_plan_id":"cebpf4jnsgd1na2vs0mg"},{"bike_id":"008bed76-d47c-49b7-a801-9213cc1a809d","system_id":"levelo_inurba_marseille","lat":43.28413,"lon":5.37513,"is_reserved":false,"is_disabled":false,"rental_uris":{"android":"levelo://app?vid=008bed76-d47c-49b7-a801-9213cc1a809d","ios":"levelo://app?vid=008bed76-d47c-49b7-a801-9213cc1a809d"},"vehicle_type_id":"4","last_reported":1728068854,"current_range_meters":4800,"station_id":"ce4bh412rcd13ifvqds0","pricing_plan_id":"cebpf4jnsgd1na2vs0mg"},{"bike_id":"999e7d6a-0eaa-49fc-b5b5-5c0b9e60f5bd","system_id":"levelo_inurba_marseille","lat":43.29261,"lon":5.38446,"is_reserved":false,"is_disabled":false,"rental_uris":{"android":"levelo://app?vid=999e7d6a-0eaa-49fc-b5b5-5c0b9e60f5bd","ios":"levelo://app?vid=999e7d6a-0eaa-49fc-b5b5-5c0b9e60f5bd"},"vehicle_type_id":"4","last_reported":1728068854,"current_range_meters":32800,"station_id":"ce4bh692rcd13ifvqea0","pricing_plan_id":"cebpf4jnsgd1na2vs0mg"},{"bike_id":"3a74dda4-0a1a-4ac4-aac0-761768113f7e","system_id":"levelo_inurba_marseille","lat":43.26945,"lon":5.40262,"is_reserved":false,"is_disabled":false,"rental_uris":{"android":"levelo://app?vid=3a74dda4-0a1a-4ac4-aac0-761768113f7e","ios":"levelo://app?vid=3a74dda4-0a1a-4ac4-aac0-761768113f7e"},"vehicle_type_id":"4","last_reported":1728068854,"current_range_meters":16000,"station_id":"cjm6bp8fraef2m0cb0m0","pricing_plan_id":"cebpf4jnsgd1na2vs0mg"},{"bike_id":"0ef5a15f-c2d8-4cce-89f1-3bf5ef13fcd0","system_id":"levelo_inurba_marseille","lat":43.28409,"lon":5.37514,"is_reserved":false,"is_disabled":false,"rental_uris":{"android":"levelo://app?vid=0ef5a15f-c2d8-4cce-89f1-3bf5ef13fcd0","ios":"levelo://app?vid=0ef5a15f-c2d8-4cce-89f1-3bf5ef13fcd0"},"vehicle_type_id":"4","last_reported":1728068854,"current_range_meters":38800,"station_id":"ce4bh412rcd13ifvqds0","pricing_plan_id":"cebpf4jnsgd1na2vs0mg"},{"bike_id":"110625c0-3ccb-4830-944e-2d5768ae2557","system_id":"levelo_inurba_marseille","lat":43.29897,"lon":5.38892,"is_reserved":false,"is_disabled":false,"rental_uris":{"android":"levelo://app?vid=110625c0-3ccb-4830-944e-2d5768ae2557","ios":"levelo://app?vid=110625c0-3ccb-4830-944e-2d5768ae2557"},"vehicle_type_id":"4","last_reported":1728068854,"current_range_meters":28800,"station_id":"ce4bh392rcd13ifvqdl0","pricing_plan_id":"cebpf4jnsgd1na2vs0mg"},{"bike_id":"bee762be-eb76-4bbd-aa9e-2341fdcea420","system_id":"levelo_inurba_marseille","lat":43.233856,"lon":5.399248,"is_reserved":false,"is_disabled":false,"rental_uris":{"android":"levelo://app?vid=bee762be-eb76-4bbd-aa9e-2341fdcea420","ios":"levelo://app?vid=bee762be-eb76-4bbd-aa9e-2341fdcea420"},"vehicle_type_id":"4","last_reported":1728068854,"current_range_meters":8000,"station_id":"ce4bhn12rcd13ifvqgqg","pricing_plan_id":"cebpf4jnsgd1na2vs0mg"},{"bike_id":"71d19e1e-e95f-43ed-8c2f-d459ed0b1e73","system_id":"levelo_inurba_marseille","lat":43.2732,"lon":5.39078,"is_reserved":false,"is_disabled":false,"rental_uris":{"android":"levelo://app?vid=71d19e1e-e95f-43ed-8c2f-d459ed0b1e73","ios":"levelo://app?vid=71d19e1e-e95f-43ed-8c2f-d459ed0b1e73"},"vehicle_type_id":"4","last_reported":1728068854,"current_range_meters":17600,"station_id":"ce4bhgp2rcd13ifvqfe0","pricing_plan_id":"cebpf4jnsgd1na2vs0mg"},{"bike_id":"d983aaf9-861f-473f-b198-cf08e31cd0ce","system_id":"levelo_inurba_marseille","lat":43.287018,"lon":5.363915,"is_reserved":false,"is_disabled":false,"rental_uris":{"android":"levelo://app?vid=d983aaf9-861f-473f-b198-cf08e31cd0ce","ios":"levelo://app?vid=d983aaf9-861f-473f-b198-cf08e31cd0ce"},"vehicle_type_id":"4","last_reported":1728068854,"current_range_meters":9600,"station_id":"ce4bhah2rcd13ifvqej0","pricing_plan_id":"cebpf4jnsgd1na2vs0mg"},{"bike_id":"5d4b69ce-b612-4ed4-b50e-6aac8aab730c","system_id":"levelo_inurba_marseille","lat":43.26679,"lon":5.38274,"is_reserved":false,"is_disabled":false,"rental_uris":{"android":"levelo://app?vid=5d4b69ce-b612-4ed4-b50e-6aac8aab730c","ios":"levelo://app?vid=5d4b69ce-b612-4ed4-b50e-6aac8aab730c"},"vehicle_type_id":"4","last_reported":1728068854,"current_range_meters":8400,"station_id":"ce4bhg92rcd13ifvqf90","pricing_plan_id":"cebpf4jnsgd1na2vs0mg"},{"bike_id":"79e59e68-e526-4efb-abc9-6eefeb734e29","system_id":"levelo_inurba_marseille","lat":43.29715,"lon":5.36611,"is_reserved":false,"is_disabled":false,"rental_uris":{"android":"levelo://app?vid=79e59e68-e526-4efb-abc9-6eefeb734e29","ios":"levelo://app?vid=79e59e68-e526-4efb-abc9-6eefeb734e29"},"vehicle_type_id":"4","last_reported":1728068854,"current_range_meters":38000,"station_id":"ce4bgn12rcd13ifvqbt0","pricing_plan_id":"cebpf4jnsgd1na2vs0mg"},{"bike_id":"6f8c9a52-4cfe-4704-9f27-6b893dc8592a","system_id":"levelo_inurba_marseille","lat":43.29425,"lon":5.38622,"is_reserved":false,"is_disabled":false,"rental_uris":{"android":"levelo://app?vid=6f8c9a52-4cfe-4704-9f27-6b893dc8592a","ios":"levelo://app?vid=6f8c9a52-4cfe-4704-9f27-6b893dc8592a"},"vehicle_type_id":"4","last_reported":1728068854,"current_range_meters":32800,"station_id":"ce4bh2h2rcd13ifvqdh0","pricing_plan_id":"cebpf4jnsgd1na2vs0mg"},{"bike_id":"53d26f8a-59e3-4094-bf35-ae6b2bb5e8d2","system_id":"levelo_inurba_marseille","lat":43.26203,"lon":5.37935,"is_reserved":false,"is_disabled":false,"rental_uris":{"android":"levelo://app?vid=53d26f8a-59e3-4094-bf35-ae6b2bb5e8d2","ios":"levelo://app?vid=53d26f8a-59e3-4094-bf35-ae6b2bb5e8d2"},"vehicle_type_id":"4","last_reported":1728068854,"current_range_meters":23200,"station_id":"ce4bhjp2rcd13ifvqg90","pricing_plan_id":"cebpf4jnsgd1na2vs0mg"},{"bike_id":"1fd30415-2cb8-437a-803c-caf2cd514903","system_id":"levelo_inurba_marseille","lat":43.31277,"lon":5.40174,"is_reserved":false,"is_disabled":false,"rental_uris":{"android":"levelo://app?vid=1fd30415-2cb8-437a-803c-caf2cd514903","ios":"levelo://app?vid=1fd30415-2cb8-437a-803c-caf2cd514903"},"vehicle_type_id":"4","last_reported":1728068854,"current_range_meters":8400,"station_id":"ce4bh092rcd13ifvqd30","pricing_plan_id":"cebpf4jnsgd1na2vs0mg"},{"bike_id":"1f6dc2ab-b9f1-41fc-9db5-5be5c717eba0","system_id":"levelo_inurba_marseille","lat":43.2954,"lon":5.37498,"is_reserved":false,"is_disabled":false,"rental_uris":{"android":"levelo://app?vid=1f6dc2ab-b9f1-41fc-9db5-5be5c717eba0","ios":"levelo://app?vid=1f6dc2ab-b9f1-41fc-9db5-5be5c717eba0"},"vehicle_type_id":"4","last_reported":1728068854,"current_range_meters":13600,"station_id":"ce4bgkp2rcd13ifvqbmg","pricing_plan_id":"cebpf4jnsgd1na2vs0mg"},{"bike_id":"5257bc58-7f86-4691-bfd8-4409f576b50a","system_id":"levelo_inurba_marseille","lat":43.295746,"lon":5.375692,"is_reserved":false,"is_disabled":false,"rental_uris":{"android":"levelo://app?vid=5257bc58-7f86-4691-bfd8-4409f576b50a","ios":"levelo://app?vid=5257bc58-7f86-4691-bfd8-4409f576b50a"},"vehicle_type_id":"4","last_reported":1728068854,"current_range_meters":36000,"station_id":"","pricing_plan_id":"cebpf4jnsgd1na2vs0mg"},{"bike_id":"01a382e9-45a0-4a7c-8f0f-af2d0f2a108e","system_id":"levelo_inurba_marseille","lat":43.30857,"lon":5.37463,"is_reserved":false,"is_disabled":false,"rental_uris":{"android":"levelo://app?vid=01a382e9-45a0-4a7c-8f0f-af2d0f2a108e","ios":"levelo://app?vid=01a382e9-45a0-4a7c-8f0f-af2d0f2a108e"},"vehicle_type_id":"4","last_reported":1728068854,"current_range_meters":4400,"station_id":"","pricing_plan_id":"cebpf4jnsgd1na2vs0mg"},{"bike_id":"953bdfb7-f708-4023-9d7e-ef7182228dcf","system_id":"levelo_inurba_marseille","lat":43.29269,"lon":5.36846,"is_reserved":false,"is_disabled":false,"rental_uris":{"android":"levelo://app?vid=953bdfb7-f708-4023-9d7e-ef7182228dcf","ios":"levelo://app?vid=953bdfb7-f708-4023-9d7e-ef7182228dcf"},"vehicle_type_id":"4","last_reported":1728068854,"current_range_meters":38800,"station_id":"ce4bhbp2rcd13ifvqesg","pricing_plan_id":"cebpf4jnsgd1na2vs0mg"},{"bike_id":"14804e3f-bee4-48da-a265-1775ea274a4c","system_id":"levelo_inurba_marseille","lat":43.29442,"lon":5.39751,"is_reserved":false,"is_disabled":false,"rental_uris":{"android":"levelo://app?vid=14804e3f-bee4-48da-a265-1775ea274a4c","ios":"levelo://app?vid=14804e3f-bee4-48da-a265-1775ea274a4c"},"vehicle_type_id":"4","last_reported":1728068854,"current_range_meters":36800,"station_id":"ce4bh3h2rcd13ifvqdo0","pricing_plan_id":"cebpf4jnsgd1na2vs0mg"},{"bike_id":"e6b2df58-b4a0-4aec-933d-a62e42f34d34","system_id":"levelo_inurba_marseille","lat":43.33723,"lon":5.39199,"is_reserved":false,"is_disabled":false,"rental_uris":{"android":"levelo://app?vid=e6b2df58-b4a0-4aec-933d-a62e42f34d34","ios":"levelo://app?vid=e6b2df58-b4a0-4aec-933d-a62e42f34d34"},"vehicle_type_id":"4","last_reported":1728068854,"current_range_meters":18000,"station_id":"ce4bhr92rcd13ifvqhsg","pricing_plan_id":"cebpf4jnsgd1na2vs0mg"},{"bike_id":"df892804-c629-40f9-b1c8-52cc5708ca1b","system_id":"levelo_inurba_marseille","lat":43.2798,"lon":5.38744,"is_reserved":false,"is_disabled":false,"rental_uris":{"android":"levelo://app?vid=df892804-c629-40f9-b1c8-52cc5708ca1b","ios":"levelo://app?vid=df892804-c629-40f9-b1c8-52cc5708ca1b"},"vehicle_type_id":"4","last_reported":1728068854,"current_range_meters":7200,"station_id":"ce4bhg12rcd13ifvqf80","pricing_plan_id":"cebpf4jnsgd1na2vs0mg"},{"bike_id":"d77938b7-ff1e-465c-a8b9-4b07085a5cc9","system_id":"levelo_inurba_marseille","lat":43.2307,"lon":5.35496,"is_reserved":false,"is_disabled":false,"rental_uris":{"android":"levelo://app?vid=d77938b7-ff1e-465c-a8b9-4b07085a5cc9","ios":"levelo://app?vid=d77938b7-ff1e-465c-a8b9-4b07085a5cc9"},"vehicle_type_id":"4","last_reported":1728068854,"current_range_meters":18000,"station_id":"cpo3342slgdg3j2ifvpg","pricing_plan_id":"cebpf4jnsgd1na2vs0mg"},{"bike_id":"36825e2c-6cf0-4a5a-a5e1-9436b2ad47c8","system_id":"levelo_inurba_marseille","lat":43.290314,"lon":5.375602,"is_reserved":false,"is_disabled":false,"rental_uris":{"android":"levelo://app?vid=36825e2c-6cf0-4a5a-a5e1-9436b2ad47c8","ios":"levelo://app?vid=36825e2c-6cf0-4a5a-a5e1-9436b2ad47c8"},"vehicle_type_id":"4","last_reported":1728068854,"current_range_meters":26800,"station_id":"ce4bh692rcd13ifvqe90","pricing_plan_id":"cebpf4jnsgd1na2vs0mg"},{"bike_id":"5a38c3d8-e731-491b-9811-d57c2f9e42b7","system_id":"levelo_inurba_marseille","lat":43.27964,"lon":5.38756,"is_reserved":false,"is_disabled":false,"rental_uris":{"android":"levelo://app?vid=5a38c3d8-e731-491b-9811-d57c2f9e42b7","ios":"levelo://app?vid=5a38c3d8-e731-491b-9811-d57c2f9e42b7"},"vehicle_type_id":"4","last_reported":1728068854,"current_range_meters":9200,"station_id":"ce4bhg12rcd13ifvqf80","pricing_plan_id":"cebpf4jnsgd1na2vs0mg"},{"bike_id":"566a9cf0-f209-4c9f-9e1e-a43a024de395","system_id":"levelo_inurba_marseille","lat":43.27382,"lon":5.36264,"is_reserved":false,"is_disabled":false,"rental_uris":{"android":"levelo://app?vid=566a9cf0-f209-4c9f-9e1e-a43a024de395","ios":"levelo://app?vid=566a9cf0-f209-4c9f-9e1e-a43a024de395"},"vehicle_type_id":"4","last_reported":1728068854,"current_range_meters":24800,"station_id":"ce4bhbh2rcd13ifvqeo0","pricing_plan_id":"cebpf4jnsgd1na2vs0mg"},{"bike_id":"54d09a39-e79d-434c-8a05-a8f2660c6a94","system_id":"levelo_inurba_marseille","lat":43.299,"lon":5.43668,"is_reserved":false,"is_disabled":false,"rental_uris":{"android":"levelo://app?vid=54d09a39-e79d-434c-8a05-a8f2660c6a94","ios":"levelo://app?vid=54d09a39-e79d-434c-8a05-a8f2660c6a94"},"vehicle_type_id":"4","last_reported":1728068854,"current_range_meters":15200,"station_id":"ce4bhpp2rcd13ifvqhfg","pricing_plan_id":"cebpf4jnsgd1na2vs0mg"},{"bike_id":"6acf263d-6277-47a9-a98b-35b7f7dea564","system_id":"levelo_inurba_marseille","lat":43.3266,"lon":5.40996,"is_reserved":false,"is_disabled":false,"rental_uris":{"android":"levelo://app?vid=6acf263d-6277-47a9-a98b-35b7f7dea564","ios":"levelo://app?vid=6acf263d-6277-47a9-a98b-35b7f7dea564"},"vehicle_type_id":"4","last_reported":1728068854,"current_range_meters":13600,"station_id":"ce4bhpp2rcd13ifvqhgg","pricing_plan_id":"cebpf4jnsgd1na2vs0mg"},{"bike_id":"967c0fd4-5f64-4043-a558-03c32ef88558","system_id":"levelo_inurba_marseille","lat":43.26682,"lon":5.38265,"is_reserved":false,"is_disabled":false,"rental_uris":{"android":"levelo://app?vid=967c0fd4-5f64-4043-a558-03c32ef88558","ios":"levelo://app?vid=967c0fd4-5f64-4043-a558-03c32ef88558"},"vehicle_type_id":"4","last_reported":1728068854,"current_range_meters":32400,"station_id":"ce4bhg92rcd13ifvqf90","pricing_plan_id":"cebpf4jnsgd1na2vs0mg"},{"bike_id":"100326a3-91ba-4a23-bde7-ae389c763c24","system_id":"levelo_inurba_marseille","lat":43.28059,"lon":5.40056,"is_reserved":false,"is_disabled":false,"rental_uris":{"android":"levelo://app?vid=100326a3-91ba-4a23-bde7-ae389c763c24","ios":"levelo://app?vid=100326a3-91ba-4a23-bde7-ae389c763c24"},"vehicle_type_id":"4","last_reported":1728068854,"current_range_meters":7200,"station_id":"ce4bho12rcd13ifvqh2g","pricing_plan_id":"cebpf4jnsgd1na2vs0mg"},{"bike_id":"a2757abc-4224-428a-a673-690954ea5d2d","system_id":"levelo_inurba_marseille","lat":43.25006,"lon":5.38197,"is_reserved":false,"is_disabled":false,"rental_uris":{"android":"levelo://app?vid=a2757abc-4224-428a-a673-690954ea5d2d","ios":"levelo://app?vid=a2757abc-4224-428a-a673-690954ea5d2d"},"vehicle_type_id":"4","last_reported":1728068854,"current_range_meters":24800,"station_id":"","pricing_plan_id":"cebpf4jnsgd1na2vs0mg"},{"bike_id":"a4721277-157e-42b9-87f0-290a3d401919","system_id":"levelo_inurba_marseille","lat":43.2594,"lon":5.40904,"is_reserved":false,"is_disabled":false,"rental_uris":{"android":"levelo://app?vid=a4721277-157e-42b9-87f0-290a3d401919","ios":"levelo://app?vid=a4721277-157e-42b9-87f0-290a3d401919"},"vehicle_type_id":"4","last_reported":1728068854,"current_range_meters":38800,"station_id":"ce4bhm92rcd13ifvqglg","pricing_plan_id":"cebpf4jnsgd1na2vs0mg"},{"bike_id":"c45e5d4c-14d9-4190-b449-e261f0f115e2","system_id":"levelo_inurba_marseille","lat":43.24069,"lon":5.37768,"is_reserved":false,"is_disabled":false,"rental_uris":{"android":"levelo://app?vid=c45e5d4c-14d9-4190-b449-e261f0f115e2","ios":"levelo://app?vid=c45e5d4c-14d9-4190-b449-e261f0f115e2"},"vehicle_type_id":"4","last_reported":1728068854,"current_range_meters":17600,"station_id":"ce4bhnp2rcd13ifvqgvg","pricing_plan_id":"cebpf4jnsgd1na2vs0mg"},{"bike_id":"c6e6f6cf-c9b2-4d89-a487-0cded3e2cdd6","system_id":"levelo_inurba_marseille","lat":43.26681,"lon":5.38278,"is_reserved":false,"is_disabled":false,"rental_uris":{"android":"levelo://app?vid=c6e6f6cf-c9b2-4d89-a487-0cded3e2cdd6","ios":"levelo://app?vid=c6e6f6cf-c9b2-4d89-a487-0cded3e2cdd6"},"vehicle_type_id":"4","last_reported":1728068854,"current_range_meters":28400,"station_id":"ce4bhg92rcd13ifvqf90","pricing_plan_id":"cebpf4jnsgd1na2vs0mg"},{"bike_id":"6102bacc-0bb3-4c79-854a-2d4ec81b21c1","system_id":"levelo_inurba_marseille","lat":43.31718,"lon":5.42405,"is_reserved":false,"is_disabled":false,"rental_uris":{"android":"levelo://app?vid=6102bacc-0bb3-4c79-854a-2d4ec81b21c1","ios":"levelo://app?vid=6102bacc-0bb3-4c79-854a-2d4ec81b21c1"},"vehicle_type_id":"4","last_reported":1728068854,"current_range_meters":39200,"station_id":"ce4bhp92rcd13ifvqhbg","pricing_plan_id":"cebpf4jnsgd1na2vs0mg"},{"bike_id":"6f9ea692-b854-4466-8783-f86828c11080","system_id":"levelo_inurba_marseille","lat":43.32549,"lon":5.41449,"is_reserved":false,"is_disabled":false,"rental_uris":{"android":"levelo://app?vid=6f9ea692-b854-4466-8783-f86828c11080","ios":"levelo://app?vid=6f9ea692-b854-4466-8783-f86828c11080"},"vehicle_type_id":"4","last_reported":1728068854,"current_range_meters":38800,"station_id":"ce4bhq12rcd13ifvqhhg","pricing_plan_id":"cebpf4jnsgd1na2vs0mg"},{"bike_id":"f32b44f0-9c97-4462-a4c3-f502bc53880c","system_id":"levelo_inurba_marseille","lat":43.301398,"lon":5.38788,"is_reserved":false,"is_disabled":false,"rental_uris":{"android":"levelo://app?vid=f32b44f0-9c97-4462-a4c3-f502bc53880c","ios":"levelo://app?vid=f32b44f0-9c97-4462-a4c3-f502bc53880c"},"vehicle_type_id":"4","last_reported":1728068854,"current_range_meters":29600,"station_id":"ce4bghh2rcd13ifvqb60","pricing_plan_id":"cebpf4jnsgd1na2vs0mg"},{"bike_id":"e76dc3b1-b555-4d34-b606-b7a0364700bd","system_id":"levelo_inurba_marseille","lat":43.29555,"lon":5.42276,"is_reserved":false,"is_disabled":false,"rental_uris":{"android":"levelo://app?vid=e76dc3b1-b555-4d34-b606-b7a0364700bd","ios":"levelo://app?vid=e76dc3b1-b555-4d34-b606-b7a0364700bd"},"vehicle_type_id":"4","last_reported":1728068854,"current_range_meters":35600,"station_id":"ce4bhph2rcd13ifvqhdg","pricing_plan_id":"cebpf4jnsgd1na2vs0mg"},{"bike_id":"385358fd-261c-476b-a640-111820911bbd","system_id":"levelo_inurba_marseille","lat":43.29425,"lon":5.38622,"is_reserved":false,"is_disabled":false,"rental_uris":{"android":"levelo://app?vid=385358fd-261c-476b-a640-111820911bbd","ios":"levelo://app?vid=385358fd-261c-476b-a640-111820911bbd"},"vehicle_type_id":"4","last_reported":1728068854,"current_range_meters":7200,"station_id":"ce4bh2h2rcd13ifvqdh0","pricing_plan_id":"cebpf4jnsgd1na2vs0mg"},{"bike_id":"1e0b4da8-3e42-4b71-b6f8-15ee6c6e390a","system_id":"levelo_inurba_marseille","lat":43.29531,"lon":5.39026,"is_reserved":false,"is_disabled":false,"rental_uris":{"android":"levelo://app?vid=1e0b4da8-3e42-4b71-b6f8-15ee6c6e390a","ios":"levelo://app?vid=1e0b4da8-3e42-4b71-b6f8-15ee6c6e390a"},"vehicle_type_id":"4","last_reported":1728068854,"current_range_meters":28000,"station_id":"ce4bh3p2rcd13ifvqdp0","pricing_plan_id":"cebpf4jnsgd1na2vs0mg"},{"bike_id":"69d483b6-f86b-4303-8b60-489304ffe44e","system_id":"levelo_inurba_marseille","lat":43.307855,"lon":5.396048,"is_reserved":false,"is_disabled":false,"rental_uris":{"android":"levelo://app?vid=69d483b6-f86b-4303-8b60-489304ffe44e","ios":"levelo://app?vid=69d483b6-f86b-4303-8b60-489304ffe44e"},"vehicle_type_id":"4","last_reported":1728068854,"current_range_meters":32800,"station_id":"","pricing_plan_id":"cebpf4jnsgd1na2vs0mg"},{"bike_id":"e08c062f-61a2-493a-875d-6e296e2965d6","system_id":"levelo_inurba_marseille","lat":43.33754,"lon":5.37441,"is_reserved":false,"is_disabled":false,"rental_uris":{"android":"levelo://app?vid=e08c062f-61a2-493a-875d-6e296e2965d6","ios":"levelo://app?vid=e08c062f-61a2-493a-875d-6e296e2965d6"},"vehicle_type_id":"4","last_reported":1728068854,"current_range_meters":33200,"station_id":"","pricing_plan_id":"cebpf4jnsgd1na2vs0mg"},{"bike_id":"b871d3e1-c5d5-4d1f-8267-43a325f41cf2","system_id":"levelo_inurba_marseille","lat":43.25085,"lon":5.39513,"is_reserved":false,"is_disabled":false,"rental_uris":{"android":"levelo://app?vid=b871d3e1-c5d5-4d1f-8267-43a325f41cf2","ios":"levelo://app?vid=b871d3e1-c5d5-4d1f-8267-43a325f41cf2"},"vehicle_type_id":"4","last_reported":1728068854,"current_range_meters":38800,"station_id":"ce4bhm12rcd13ifvqgkg","pricing_plan_id":"cebpf4jnsgd1na2vs0mg"},{"bike_id":"c2751a07-e5b3-4e0d-b06c-2f77d3d703d0","system_id":"levelo_inurba_marseille","lat":43.27434,"lon":5.39418,"is_reserved":false,"is_disabled":false,"rental_uris":{"android":"levelo://app?vid=c2751a07-e5b3-4e0d-b06c-2f77d3d703d0","ios":"levelo://app?vid=c2751a07-e5b3-4e0d-b06c-2f77d3d703d0"},"vehicle_type_id":"4","last_reported":1728068854,"current_range_meters":5600,"station_id":"ce4bhdp2rcd13ifvqf20","pricing_plan_id":"cebpf4jnsgd1na2vs0mg"},{"bike_id":"fea49b89-1414-4f4f-9ca7-842214a26870","system_id":"levelo_inurba_marseille","lat":43.32286,"lon":5.38277,"is_reserved":false,"is_disabled":false,"rental_uris":{"android":"levelo://app?vid=fea49b89-1414-4f4f-9ca7-842214a26870","ios":"levelo://app?vid=fea49b89-1414-4f4f-9ca7-842214a26870"},"vehicle_type_id":"4","last_reported":1728068854,"current_range_meters":6800,"station_id":"ce4bhr12rcd13ifvqhqg","pricing_plan_id":"cebpf4jnsgd1na2vs0mg"},{"bike_id":"fcfb42de-cde1-4ec3-8e89-f197fdfcc1a8","system_id":"levelo_inurba_marseille","lat":43.23965,"lon":5.36637,"is_reserved":false,"is_disabled":false,"rental_uris":{"android":"levelo://app?vid=fcfb42de-cde1-4ec3-8e89-f197fdfcc1a8","ios":"levelo://app?vid=fcfb42de-cde1-4ec3-8e89-f197fdfcc1a8"},"vehicle_type_id":"4","last_reported":1728068854,"current_range_meters":13600,"station_id":"ce4bhi12rcd13ifvqfp0","pricing_plan_id":"cebpf4jnsgd1na2vs0mg"},{"bike_id":"633d2344-d99e-4174-b6fb-920c3267e701","system_id":"levelo_inurba_marseille","lat":43.33724,"lon":5.39184,"is_reserved":false,"is_disabled":false,"rental_uris":{"android":"levelo://app?vid=633d2344-d99e-4174-b6fb-920c3267e701","ios":"levelo://app?vid=633d2344-d99e-4174-b6fb-920c3267e701"},"vehicle_type_id":"4","last_reported":1728068854,"current_range_meters":24800,"station_id":"ce4bhr92rcd13ifvqhsg","pricing_plan_id":"cebpf4jnsgd1na2vs0mg"},{"bike_id":"fa73d4fc-9273-491f-8c3c-226a857b90b3","system_id":"levelo_inurba_marseille","lat":43.25868,"lon":5.39897,"is_reserved":false,"is_disabled":false,"rental_uris":{"android":"levelo://app?vid=fa73d4fc-9273-491f-8c3c-226a857b90b3","ios":"levelo://app?vid=fa73d4fc-9273-491f-8c3c-226a857b90b3"},"vehicle_type_id":"4","last_reported":1728068854,"current_range_meters":2800,"station_id":"ce4bhl92rcd13ifvqghg","pricing_plan_id":"cebpf4jnsgd1na2vs0mg"},{"bike_id":"2a1aec11-0bac-412a-a761-20cf504c8482","system_id":"levelo_inurba_marseille","lat":43.25824,"lon":5.39441,"is_reserved":false,"is_disabled":false,"rental_uris":{"android":"levelo://app?vid=2a1aec11-0bac-412a-a761-20cf504c8482","ios":"levelo://app?vid=2a1aec11-0bac-412a-a761-20cf504c8482"},"vehicle_type_id":"4","last_reported":1728068854,"current_range_meters":38400,"station_id":"ce4bhip2rcd13ifvqft0","pricing_plan_id":"cebpf4jnsgd1na2vs0mg"},{"bike_id":"fd872ba7-9877-4e67-9269-d8995abba644","system_id":"levelo_inurba_marseille","lat":43.22941,"lon":5.35377,"is_reserved":false,"is_disabled":false,"rental_uris":{"android":"levelo://app?vid=fd872ba7-9877-4e67-9269-d8995abba644","ios":"levelo://app?vid=fd872ba7-9877-4e67-9269-d8995abba644"},"vehicle_type_id":"4","last_reported":1728068854,"current_range_meters":18800,"station_id":"cpo3532slgdg3j2ikp40","pricing_plan_id":"cebpf4jnsgd1na2vs0mg"},{"bike_id":"fe069c0c-ab7e-4066-b369-24f70f595c37","system_id":"levelo_inurba_marseille","lat":43.32478,"lon":5.36554,"is_reserved":false,"is_disabled":false,"rental_uris":{"android":"levelo://app?vid=fe069c0c-ab7e-4066-b369-24f70f595c37","ios":"levelo://app?vid=fe069c0c-ab7e-4066-b369-24f70f595c37"},"vehicle_type_id":"4","last_reported":1728068854,"current_range_meters":10000,"station_id":"ce4bhs12rcd13ifvqhvg","pricing_plan_id":"cebpf4jnsgd1na2vs0mg"},{"bike_id":"e7f80985-9a2f-41f6-abdc-be1f66388472","system_id":"levelo_inurba_marseille","lat":43.28479,"lon":5.38417,"is_reserved":false,"is_disabled":false,"rental_uris":{"android":"levelo://app?vid=e7f80985-9a2f-41f6-abdc-be1f66388472","ios":"levelo://app?vid=e7f80985-9a2f-41f6-abdc-be1f66388472"},"vehicle_type_id":"4","last_reported":1728068854,"current_range_meters":22400,"station_id":"ce4bh512rcd13ifvqe3g","pricing_plan_id":"cebpf4jnsgd1na2vs0mg"},{"bike_id":"2dc9288a-1277-41f2-9e0b-345a0cccfda9","system_id":"levelo_inurba_marseille","lat":43.29272,"lon":5.38452,"is_reserved":false,"is_disabled":false,"rental_uris":{"android":"levelo://app?vid=2dc9288a-1277-41f2-9e0b-345a0cccfda9","ios":"levelo://app?vid=2dc9288a-1277-41f2-9e0b-345a0cccfda9"},"vehicle_type_id":"4","last_reported":1728068854,"current_range_meters":10800,"station_id":"ce4bh692rcd13ifvqea0","pricing_plan_id":"cebpf4jnsgd1na2vs0mg"},{"bike_id":"8cee4c47-573c-43eb-98d2-d6b64ccf65ab","system_id":"levelo_inurba_marseille","lat":43.29535,"lon":5.38553,"is_reserved":false,"is_disabled":false,"rental_uris":{"android":"levelo://app?vid=8cee4c47-573c-43eb-98d2-d6b64ccf65ab","ios":"levelo://app?vid=8cee4c47-573c-43eb-98d2-d6b64ccf65ab"},"vehicle_type_id":"4","last_reported":1728068854,"current_range_meters":16800,"station_id":"ce4bgih2rcd13ifvqba0","pricing_plan_id":"cebpf4jnsgd1na2vs0mg"},{"bike_id":"07253c43-450c-4c42-b280-c60fd8a46055","system_id":"levelo_inurba_marseille","lat":43.2694,"lon":5.4025,"is_reserved":false,"is_disabled":false,"rental_uris":{"android":"levelo://app?vid=07253c43-450c-4c42-b280-c60fd8a46055","ios":"levelo://app?vid=07253c43-450c-4c42-b280-c60fd8a46055"},"vehicle_type_id":"4","last_reported":1728068854,"current_range_meters":9200,"station_id":"cjm6bp8fraef2m0cb0m0","pricing_plan_id":"cebpf4jnsgd1na2vs0mg"},{"bike_id":"4f99918b-1c7e-4d91-9dc8-4da1e2c01d5a","system_id":"levelo_inurba_marseille","lat":43.29279,"lon":5.38444,"is_reserved":false,"is_disabled":false,"rental_uris":{"android":"levelo://app?vid=4f99918b-1c7e-4d91-9dc8-4da1e2c01d5a","ios":"levelo://app?vid=4f99918b-1c7e-4d91-9dc8-4da1e2c01d5a"},"vehicle_type_id":"4","last_reported":1728068854,"current_range_meters":20000,"station_id":"ce4bh692rcd13ifvqea0","pricing_plan_id":"cebpf4jnsgd1na2vs0mg"},{"bike_id":"08940f39-ab60-457a-9c36-a2c725e902cf","system_id":"levelo_inurba_marseille","lat":43.295349,"lon":5.375067,"is_reserved":false,"is_disabled":false,"rental_uris":{"android":"levelo://app?vid=08940f39-ab60-457a-9c36-a2c725e902cf","ios":"levelo://app?vid=08940f39-ab60-457a-9c36-a2c725e902cf"},"vehicle_type_id":"4","last_reported":1728068854,"current_range_meters":38800,"station_id":"ce4bgkp2rcd13ifvqbmg","pricing_plan_id":"cebpf4jnsgd1na2vs0mg"},{"bike_id":"14011dc0-be86-44ad-84f7-c52acee24b76","system_id":"levelo_inurba_marseille","lat":43.24805,"lon":5.37457,"is_reserved":false,"is_disabled":false,"rental_uris":{"android":"levelo://app?vid=14011dc0-be86-44ad-84f7-c52acee24b76","ios":"levelo://app?vid=14011dc0-be86-44ad-84f7-c52acee24b76"},"vehicle_type_id":"4","last_reported":1728068854,"current_range_meters":27200,"station_id":"ce4bhgh2rcd13ifvqfb0","pricing_plan_id":"cebpf4jnsgd1na2vs0mg"},{"bike_id":"66c1eb46-9cd4-413f-b538-4d6572cce1e9","system_id":"levelo_inurba_marseille","lat":43.26933,"lon":5.40255,"is_reserved":false,"is_disabled":false,"rental_uris":{"android":"levelo://app?vid=66c1eb46-9cd4-413f-b538-4d6572cce1e9","ios":"levelo://app?vid=66c1eb46-9cd4-413f-b538-4d6572cce1e9"},"vehicle_type_id":"4","last_reported":1728068854,"current_range_meters":30000,"station_id":"cjm6bp8fraef2m0cb0m0","pricing_plan_id":"cebpf4jnsgd1na2vs0mg"},{"bike_id":"fcb6779e-c3a3-4f21-afc4-e2690e9039d6","system_id":"levelo_inurba_marseille","lat":43.29529,"lon":5.38536,"is_reserved":false,"is_disabled":false,"rental_uris":{"android":"levelo://app?vid=fcb6779e-c3a3-4f21-afc4-e2690e9039d6","ios":"levelo://app?vid=fcb6779e-c3a3-4f21-afc4-e2690e9039d6"},"vehicle_type_id":"4","last_reported":1728068854,"current_range_meters":3200,"station_id":"ce4bgih2rcd13ifvqba0","pricing_plan_id":"cebpf4jnsgd1na2vs0mg"},{"bike_id":"50e6aeb8-7e25-4c09-9781-24c9f5d23dff","system_id":"levelo_inurba_marseille","lat":43.33759,"lon":5.37441,"is_reserved":false,"is_disabled":false,"rental_uris":{"android":"levelo://app?vid=50e6aeb8-7e25-4c09-9781-24c9f5d23dff","ios":"levelo://app?vid=50e6aeb8-7e25-4c09-9781-24c9f5d23dff"},"vehicle_type_id":"4","last_reported":1728068854,"current_range_meters":30800,"station_id":"","pricing_plan_id":"cebpf4jnsgd1na2vs0mg"},{"bike_id":"11f57a0c-fdaf-4449-964b-42463a6c66a3","system_id":"levelo_inurba_marseille","lat":43.26943,"lon":5.40256,"is_reserved":false,"is_disabled":false,"rental_uris":{"android":"levelo://app?vid=11f57a0c-fdaf-4449-964b-42463a6c66a3","ios":"levelo://app?vid=11f57a0c-fdaf-4449-964b-42463a6c66a3"},"vehicle_type_id":"4","last_reported":1728068854,"current_range_meters":9200,"station_id":"cjm6bp8fraef2m0cb0m0","pricing_plan_id":"cebpf4jnsgd1na2vs0mg"},{"bike_id":"db6d3114-5e27-4869-bbbf-86348f43961f","system_id":"levelo_inurba_marseille","lat":43.29559,"lon":5.42288,"is_reserved":false,"is_disabled":false,"rental_uris":{"android":"levelo://app?vid=db6d3114-5e27-4869-bbbf-86348f43961f","ios":"levelo://app?vid=db6d3114-5e27-4869-bbbf-86348f43961f"},"vehicle_type_id":"4","last_reported":1728068854,"current_range_meters":7200,"station_id":"ce4bhph2rcd13ifvqhdg","pricing_plan_id":"cebpf4jnsgd1na2vs0mg"},{"bike_id":"4621d503-1b23-4d12-a2e6-a552c2908699","system_id":"levelo_inurba_marseille","lat":43.2926,"lon":5.38434,"is_reserved":false,"is_disabled":false,"rental_uris":{"android":"levelo://app?vid=4621d503-1b23-4d12-a2e6-a552c2908699","ios":"levelo://app?vid=4621d503-1b23-4d12-a2e6-a552c2908699"},"vehicle_type_id":"4","last_reported":1728068854,"current_range_meters":17600,"station_id":"ce4bh692rcd13ifvqea0","pricing_plan_id":"cebpf4jnsgd1na2vs0mg"},{"bike_id":"c5958ce6-5d3e-492a-9490-0973cb8f8dd9","system_id":"levelo_inurba_marseille","lat":43.31076,"lon":5.38363,"is_reserved":false,"is_disabled":false,"rental_uris":{"android":"levelo://app?vid=c5958ce6-5d3e-492a-9490-0973cb8f8dd9","ios":"levelo://app?vid=c5958ce6-5d3e-492a-9490-0973cb8f8dd9"},"vehicle_type_id":"4","last_reported":1728068854,"current_range_meters":25600,"station_id":"ce4bgv92rcd13ifvqcr0","pricing_plan_id":"cebpf4jnsgd1na2vs0mg"},{"bike_id":"29023954-f636-40f8-9a06-79c3154103b2","system_id":"levelo_inurba_marseille","lat":43.29373,"lon":5.37845,"is_reserved":false,"is_disabled":false,"rental_uris":{"android":"levelo://app?vid=29023954-f636-40f8-9a06-79c3154103b2","ios":"levelo://app?vid=29023954-f636-40f8-9a06-79c3154103b2"},"vehicle_type_id":"4","last_reported":1728068854,"current_range_meters":13600,"station_id":"ce4bgjh2rcd13ifvqbf0","pricing_plan_id":"cebpf4jnsgd1na2vs0mg"},{"bike_id":"53f8447d-2525-4d32-adc9-1cf597c8d796","system_id":"levelo_inurba_marseille","lat":43.31711,"lon":5.43702,"is_reserved":false,"is_disabled":false,"rental_uris":{"android":"levelo://app?vid=53f8447d-2525-4d32-adc9-1cf597c8d796","ios":"levelo://app?vid=53f8447d-2525-4d32-adc9-1cf597c8d796"},"vehicle_type_id":"4","last_reported":1728068854,"current_range_meters":6800,"station_id":"ce4bhp92rcd13ifvqhcg","pricing_plan_id":"cebpf4jnsgd1na2vs0mg"},{"bike_id":"f61fbce7-5e4a-4db5-bcac-681d600a9028","system_id":"levelo_inurba_marseille","lat":43.29267,"lon":5.38446,"is_reserved":false,"is_disabled":false,"rental_uris":{"android":"levelo://app?vid=f61fbce7-5e4a-4db5-bcac-681d600a9028","ios":"levelo://app?vid=f61fbce7-5e4a-4db5-bcac-681d600a9028"},"vehicle_type_id":"4","last_reported":1728068854,"current_range_meters":4400,"station_id":"ce4bh692rcd13ifvqea0","pricing_plan_id":"cebpf4jnsgd1na2vs0mg"},{"bike_id":"89ad34f9-0959-439e-a4a6-80e966f03857","system_id":"levelo_inurba_marseille","lat":43.30888,"lon":5.3965,"is_reserved":false,"is_disabled":false,"rental_uris":{"android":"levelo://app?vid=89ad34f9-0959-439e-a4a6-80e966f03857","ios":"levelo://app?vid=89ad34f9-0959-439e-a4a6-80e966f03857"},"vehicle_type_id":"4","last_reported":1728068854,"current_range_meters":17200,"station_id":"ce4bh012rcd13ifvqcv0","pricing_plan_id":"cebpf4jnsgd1na2vs0mg"},{"bike_id":"a8274e66-f619-465e-9f11-083eca5b8b64","system_id":"levelo_inurba_marseille","lat":43.30804,"lon":5.43523,"is_reserved":false,"is_disabled":false,"rental_uris":{"android":"levelo://app?vid=a8274e66-f619-465e-9f11-083eca5b8b64","ios":"levelo://app?vid=a8274e66-f619-465e-9f11-083eca5b8b64"},"vehicle_type_id":"4","last_reported":1728068854,"current_range_meters":14800,"station_id":"ce4bhph2rcd13ifvqheg","pricing_plan_id":"cebpf4jnsgd1na2vs0mg"},{"bike_id":"fd07ebea-989f-4e7f-a0b6-52e6df947727","system_id":"levelo_inurba_marseille","lat":43.279771,"lon":5.424414,"is_reserved":false,"is_disabled":false,"rental_uris":{"android":"levelo://app?vid=fd07ebea-989f-4e7f-a0b6-52e6df947727","ios":"levelo://app?vid=fd07ebea-989f-4e7f-a0b6-52e6df947727"},"vehicle_type_id":"4","last_reported":1728068854,"current_range_meters":26800,"station_id":"ce4bhnh2rcd13ifvqgug","pricing_plan_id":"cebpf4jnsgd1na2vs0mg"},{"bike_id":"548205ab-0a1c-4c6d-902c-0d10b077ef23","system_id":"levelo_inurba_marseille","lat":43.28364,"lon":5.38102,"is_reserved":false,"is_disabled":false,"rental_uris":{"android":"levelo://app?vid=548205ab-0a1c-4c6d-902c-0d10b077ef23","ios":"levelo://app?vid=548205ab-0a1c-4c6d-902c-0d10b077ef23"},"vehicle_type_id":"4","last_reported":1728068854,"current_range_meters":11200,"station_id":"ce4bh412rcd13ifvqdr0","pricing_plan_id":"cebpf4jnsgd1na2vs0mg"},{"bike_id":"b1c12d54-56a1-4dfa-ad2b-047a56831720","system_id":"levelo_inurba_marseille","lat":43.3089,"lon":5.39648,"is_reserved":false,"is_disabled":false,"rental_uris":{"android":"levelo://app?vid=b1c12d54-56a1-4dfa-ad2b-047a56831720","ios":"levelo://app?vid=b1c12d54-56a1-4dfa-ad2b-047a56831720"},"vehicle_type_id":"4","last_reported":1728068854,"current_range_meters":35200,"station_id":"ce4bh012rcd13ifvqcv0","pricing_plan_id":"cebpf4jnsgd1na2vs0mg"},{"bike_id":"bb5f5452-4b9b-417d-b148-b396a874f3d9","system_id":"levelo_inurba_marseille","lat":43.33762,"lon":5.37431,"is_reserved":false,"is_disabled":false,"rental_uris":{"android":"levelo://app?vid=bb5f5452-4b9b-417d-b148-b396a874f3d9","ios":"levelo://app?vid=bb5f5452-4b9b-417d-b148-b396a874f3d9"},"vehicle_type_id":"4","last_reported":1728068854,"current_range_meters":36000,"station_id":"","pricing_plan_id":"cebpf4jnsgd1na2vs0mg"},{"bike_id":"0d9d982e-d354-4d32-8814-b4a48f15b196","system_id":"levelo_inurba_marseille","lat":43.3054,"lon":5.36707,"is_reserved":false,"is_disabled":false,"rental_uris":{"android":"levelo://app?vid=0d9d982e-d354-4d32-8814-b4a48f15b196","ios":"levelo://app?vid=0d9d982e-d354-4d32-8814-b4a48f15b196"},"vehicle_type_id":"4","last_reported":1728068854,"current_range_meters":37600,"station_id":"ce4bgrp2rcd13ifvqc9g","pricing_plan_id":"cebpf4jnsgd1na2vs0mg"},{"bike_id":"3843d70f-2ba2-46c8-893c-77d4c227ea9d","system_id":"levelo_inurba_marseille","lat":43.26552,"lon":5.3729,"is_reserved":false,"is_disabled":false,"rental_uris":{"android":"levelo://app?vid=3843d70f-2ba2-46c8-893c-77d4c227ea9d","ios":"levelo://app?vid=3843d70f-2ba2-46c8-893c-77d4c227ea9d"},"vehicle_type_id":"4","last_reported":1728068854,"current_range_meters":38800,"station_id":"ce4bhg12rcd13ifvqf70","pricing_plan_id":"cebpf4jnsgd1na2vs0mg"},{"bike_id":"d7a0298f-5c2b-438d-ab05-5d6a7ac83160","system_id":"levelo_inurba_marseille","lat":43.30804,"lon":5.43527,"is_reserved":false,"is_disabled":false,"rental_uris":{"android":"levelo://app?vid=d7a0298f-5c2b-438d-ab05-5d6a7ac83160","ios":"levelo://app?vid=d7a0298f-5c2b-438d-ab05-5d6a7ac83160"},"vehicle_type_id":"4","last_reported":1728068854,"current_range_meters":38800,"station_id":"ce4bhph2rcd13ifvqheg","pricing_plan_id":"cebpf4jnsgd1na2vs0mg"},{"bike_id":"35b5a319-9fe2-4f55-9026-94259c580f03","system_id":"levelo_inurba_marseille","lat":43.29806,"lon":5.38091,"is_reserved":false,"is_disabled":false,"rental_uris":{"android":"levelo://app?vid=35b5a319-9fe2-4f55-9026-94259c580f03","ios":"levelo://app?vid=35b5a319-9fe2-4f55-9026-94259c580f03"},"vehicle_type_id":"4","last_reported":1728068854,"current_range_meters":35600,"station_id":"ce4bgip2rcd13ifvqbb0","pricing_plan_id":"cebpf4jnsgd1na2vs0mg"},{"bike_id":"20e605e1-f023-4b59-b3e5-1a38152c69fd","system_id":"levelo_inurba_marseille","lat":43.231812,"lon":5.39981,"is_reserved":false,"is_disabled":false,"rental_uris":{"android":"levelo://app?vid=20e605e1-f023-4b59-b3e5-1a38152c69fd","ios":"levelo://app?vid=20e605e1-f023-4b59-b3e5-1a38152c69fd"},"vehicle_type_id":"4","last_reported":1728068854,"current_range_meters":2800,"station_id":"ce4bhn12rcd13ifvqgqg","pricing_plan_id":"cebpf4jnsgd1na2vs0mg"},{"bike_id":"bef112e6-30fe-4308-b6e7-4d5cc9514c56","system_id":"levelo_inurba_marseille","lat":43.31886,"lon":5.40739,"is_reserved":false,"is_disabled":false,"rental_uris":{"android":"levelo://app?vid=bef112e6-30fe-4308-b6e7-4d5cc9514c56","ios":"levelo://app?vid=bef112e6-30fe-4308-b6e7-4d5cc9514c56"},"vehicle_type_id":"4","last_reported":1728068854,"current_range_meters":28000,"station_id":"ce4bhq12rcd13ifvqhig","pricing_plan_id":"cebpf4jnsgd1na2vs0mg"},{"bike_id":"43fc5487-6973-4fc7-a12f-6a97ffe8a3ce","system_id":"levelo_inurba_marseille","lat":43.2511,"lon":5.40328,"is_reserved":false,"is_disabled":false,"rental_uris":{"android":"levelo://app?vid=43fc5487-6973-4fc7-a12f-6a97ffe8a3ce","ios":"levelo://app?vid=43fc5487-6973-4fc7-a12f-6a97ffe8a3ce"},"vehicle_type_id":"4","last_reported":1728068854,"current_range_meters":38800,"station_id":"ce4bhlh2rcd13ifvqgig","pricing_plan_id":"cebpf4jnsgd1na2vs0mg"},{"bike_id":"3fcdd958-2c10-49f4-b6f7-c4fd7b720ca0","system_id":"levelo_inurba_marseille","lat":43.27498,"lon":5.42452,"is_reserved":false,"is_disabled":false,"rental_uris":{"android":"levelo://app?vid=3fcdd958-2c10-49f4-b6f7-c4fd7b720ca0","ios":"levelo://app?vid=3fcdd958-2c10-49f4-b6f7-c4fd7b720ca0"},"vehicle_type_id":"4","last_reported":1728068854,"current_range_meters":33600,"station_id":"ce4bhn92rcd13ifvqgrg","pricing_plan_id":"cebpf4jnsgd1na2vs0mg"},{"bike_id":"6d327387-4bf8-4d2c-884e-e981b2ce0f88","system_id":"levelo_inurba_marseille","lat":43.255493,"lon":5.37674,"is_reserved":false,"is_disabled":false,"rental_uris":{"android":"levelo://app?vid=6d327387-4bf8-4d2c-884e-e981b2ce0f88","ios":"levelo://app?vid=6d327387-4bf8-4d2c-884e-e981b2ce0f88"},"vehicle_type_id":"4","last_reported":1728068854,"current_range_meters":20000,"station_id":"","pricing_plan_id":"cebpf4jnsgd1na2vs0mg"},{"bike_id":"0f76c3cf-eb33-4925-9dc6-554015dcf61d","system_id":"levelo_inurba_marseille","lat":43.31361,"lon":5.38494,"is_reserved":false,"is_disabled":false,"rental_uris":{"android":"levelo://app?vid=0f76c3cf-eb33-4925-9dc6-554015dcf61d","ios":"levelo://app?vid=0f76c3cf-eb33-4925-9dc6-554015dcf61d"},"vehicle_type_id":"4","last_reported":1728068854,"current_range_meters":37600,"station_id":"ce4bgt92rcd13ifvqcf0","pricing_plan_id":"cebpf4jnsgd1na2vs0mg"},{"bike_id":"149df3d4-2bac-4b47-b0b0-caa020d5e1f5","system_id":"levelo_inurba_marseille","lat":43.2293,"lon":5.35379,"is_reserved":false,"is_disabled":false,"rental_uris":{"android":"levelo://app?vid=149df3d4-2bac-4b47-b0b0-caa020d5e1f5","ios":"levelo://app?vid=149df3d4-2bac-4b47-b0b0-caa020d5e1f5"},"vehicle_type_id":"4","last_reported":1728068854,"current_range_meters":19200,"station_id":"cpo3532slgdg3j2ikp40","pricing_plan_id":"cebpf4jnsgd1na2vs0mg"},{"bike_id":"4860def7-e1c9-4f41-b3bb-cd540a792012","system_id":"levelo_inurba_marseille","lat":43.27903,"lon":5.38008,"is_reserved":false,"is_disabled":false,"rental_uris":{"android":"levelo://app?vid=4860def7-e1c9-4f41-b3bb-cd540a792012","ios":"levelo://app?vid=4860def7-e1c9-4f41-b3bb-cd540a792012"},"vehicle_type_id":"4","last_reported":1728068854,"current_range_meters":23200,"station_id":"ce4bhf92rcd13ifvqf50","pricing_plan_id":"cebpf4jnsgd1na2vs0mg"},{"bike_id":"4222d6dc-f7d3-4168-86c5-1a07162228df","system_id":"levelo_inurba_marseille","lat":43.30311,"lon":5.36898,"is_reserved":false,"is_disabled":false,"rental_uris":{"android":"levelo://app?vid=4222d6dc-f7d3-4168-86c5-1a07162228df","ios":"levelo://app?vid=4222d6dc-f7d3-4168-86c5-1a07162228df"},"vehicle_type_id":"4","last_reported":1728068854,"current_range_meters":4400,"station_id":"ce4bgqh2rcd13ifvqc5g","pricing_plan_id":"cebpf4jnsgd1na2vs0mg"},{"bike_id":"77c59eab-5250-44c4-be86-099c0defe9c4","system_id":"levelo_inurba_marseille","lat":43.33753,"lon":5.37441,"is_reserved":false,"is_disabled":false,"rental_uris":{"android":"levelo://app?vid=77c59eab-5250-44c4-be86-099c0defe9c4","ios":"levelo://app?vid=77c59eab-5250-44c4-be86-099c0defe9c4"},"vehicle_type_id":"4","last_reported":1728068854,"current_range_meters":29600,"station_id":"","pricing_plan_id":"cebpf4jnsgd1na2vs0mg"},{"bike_id":"3ce15da0-eca3-48ee-9f90-7a0dd4564c63","system_id":"levelo_inurba_marseille","lat":43.30872,"lon":5.39669,"is_reserved":false,"is_disabled":false,"rental_uris":{"android":"levelo://app?vid=3ce15da0-eca3-48ee-9f90-7a0dd4564c63","ios":"levelo://app?vid=3ce15da0-eca3-48ee-9f90-7a0dd4564c63"},"vehicle_type_id":"4","last_reported":1728068854,"current_range_meters":4000,"station_id":"ce4bh012rcd13ifvqcv0","pricing_plan_id":"cebpf4jnsgd1na2vs0mg"},{"bike_id":"ada7479d-2eb9-4779-a791-8f453fccb20e","system_id":"levelo_inurba_marseille","lat":43.26189,"lon":5.37452,"is_reserved":false,"is_disabled":false,"rental_uris":{"android":"levelo://app?vid=ada7479d-2eb9-4779-a791-8f453fccb20e","ios":"levelo://app?vid=ada7479d-2eb9-4779-a791-8f453fccb20e"},"vehicle_type_id":"4","last_reported":1728068854,"current_range_meters":32000,"station_id":"ce4bhgp2rcd13ifvqfc0","pricing_plan_id":"cebpf4jnsgd1na2vs0mg"},{"bike_id":"655c7a70-a9e9-4bdb-90df-3dd326718d46","system_id":"levelo_inurba_marseille","lat":43.24674,"lon":5.3816,"is_reserved":false,"is_disabled":false,"rental_uris":{"android":"levelo://app?vid=655c7a70-a9e9-4bdb-90df-3dd326718d46","ios":"levelo://app?vid=655c7a70-a9e9-4bdb-90df-3dd326718d46"},"vehicle_type_id":"4","last_reported":1728068854,"current_range_meters":24800,"station_id":"ce4bhih2rcd13ifvqfr0","pricing_plan_id":"cebpf4jnsgd1na2vs0mg"},{"bike_id":"6e4404fe-9f2c-4094-b7ac-6438d3421190","system_id":"levelo_inurba_marseille","lat":43.25827,"lon":5.39436,"is_reserved":false,"is_disabled":false,"rental_uris":{"android":"levelo://app?vid=6e4404fe-9f2c-4094-b7ac-6438d3421190","ios":"levelo://app?vid=6e4404fe-9f2c-4094-b7ac-6438d3421190"},"vehicle_type_id":"4","last_reported":1728068854,"current_range_meters":39200,"station_id":"ce4bhip2rcd13ifvqft0","pricing_plan_id":"cebpf4jnsgd1na2vs0mg"},{"bike_id":"84b07b81-8a90-4e9c-96ec-461a75726f5b","system_id":"levelo_inurba_marseille","lat":43.32001,"lon":5.38157,"is_reserved":false,"is_disabled":false,"rental_uris":{"android":"levelo://app?vid=84b07b81-8a90-4e9c-96ec-461a75726f5b","ios":"levelo://app?vid=84b07b81-8a90-4e9c-96ec-461a75726f5b"},"vehicle_type_id":"4","last_reported":1728068854,"current_range_meters":9600,"station_id":"ce4bhr12rcd13ifvqhpg","pricing_plan_id":"cebpf4jnsgd1na2vs0mg"},{"bike_id":"36339d43-f6f6-4e32-b5c4-a4e7d5beb167","system_id":"levelo_inurba_marseille","lat":43.29258,"lon":5.38435,"is_reserved":false,"is_disabled":false,"rental_uris":{"android":"levelo://app?vid=36339d43-f6f6-4e32-b5c4-a4e7d5beb167","ios":"levelo://app?vid=36339d43-f6f6-4e32-b5c4-a4e7d5beb167"},"vehicle_type_id":"4","last_reported":1728068854,"current_range_meters":24400,"station_id":"ce4bh692rcd13ifvqea0","pricing_plan_id":"cebpf4jnsgd1na2vs0mg"},{"bike_id":"85e54d5b-e79f-4d47-8b7a-00f1ee70bc75","system_id":"levelo_inurba_marseille","lat":43.30807,"lon":5.38151,"is_reserved":false,"is_disabled":false,"rental_uris":{"android":"levelo://app?vid=85e54d5b-e79f-4d47-8b7a-00f1ee70bc75","ios":"levelo://app?vid=85e54d5b-e79f-4d47-8b7a-00f1ee70bc75"},"vehicle_type_id":"4","last_reported":1728068854,"current_range_meters":38800,"station_id":"ce4bgt12rcd13ifvqce0","pricing_plan_id":"cebpf4jnsgd1na2vs0mg"},{"bike_id":"32ceac28-dacd-4d4c-9c55-d75f7e6d1aa1","system_id":"levelo_inurba_marseille","lat":43.30802,"lon":5.43519,"is_reserved":false,"is_disabled":false,"rental_uris":{"android":"levelo://app?vid=32ceac28-dacd-4d4c-9c55-d75f7e6d1aa1","ios":"levelo://app?vid=32ceac28-dacd-4d4c-9c55-d75f7e6d1aa1"},"vehicle_type_id":"4","last_reported":1728068854,"current_range_meters":14000,"station_id":"ce4bhph2rcd13ifvqheg","pricing_plan_id":"cebpf4jnsgd1na2vs0mg"},{"bike_id":"6e2c38be-e35a-475a-91fd-1dac86e07926","system_id":"levelo_inurba_marseille","lat":43.29277,"lon":5.40114,"is_reserved":false,"is_disabled":false,"rental_uris":{"android":"levelo://app?vid=6e2c38be-e35a-475a-91fd-1dac86e07926","ios":"levelo://app?vid=6e2c38be-e35a-475a-91fd-1dac86e07926"},"vehicle_type_id":"4","last_reported":1728068854,"current_range_meters":8000,"station_id":"ce4bh312rcd13ifvqdk0","pricing_plan_id":"cebpf4jnsgd1na2vs0mg"},{"bike_id":"4d41a0cb-534e-450f-8a11-96b61cd62597","system_id":"levelo_inurba_marseille","lat":43.26193,"lon":5.37453,"is_reserved":false,"is_disabled":false,"rental_uris":{"android":"levelo://app?vid=4d41a0cb-534e-450f-8a11-96b61cd62597","ios":"levelo://app?vid=4d41a0cb-534e-450f-8a11-96b61cd62597"},"vehicle_type_id":"4","last_reported":1728068854,"current_range_meters":32400,"station_id":"ce4bhgp2rcd13ifvqfc0","pricing_plan_id":"cebpf4jnsgd1na2vs0mg"},{"bike_id":"b417a8d0-1fac-4a2b-9294-35cea48e57c1","system_id":"levelo_inurba_marseille","lat":43.33026,"lon":5.3905,"is_reserved":false,"is_disabled":false,"rental_uris":{"android":"levelo://app?vid=b417a8d0-1fac-4a2b-9294-35cea48e57c1","ios":"levelo://app?vid=b417a8d0-1fac-4a2b-9294-35cea48e57c1"},"vehicle_type_id":"4","last_reported":1728068854,"current_range_meters":30400,"station_id":"ce4bhr92rcd13ifvqhrg","pricing_plan_id":"cebpf4jnsgd1na2vs0mg"},{"bike_id":"a02a935a-10a8-46de-bf61-e6f06b368e7d","system_id":"levelo_inurba_marseille","lat":43.29553,"lon":5.42293,"is_reserved":false,"is_disabled":false,"rental_uris":{"android":"levelo://app?vid=a02a935a-10a8-46de-bf61-e6f06b368e7d","ios":"levelo://app?vid=a02a935a-10a8-46de-bf61-e6f06b368e7d"},"vehicle_type_id":"4","last_reported":1728068854,"current_range_meters":14400,"station_id":"ce4bhph2rcd13ifvqhdg","pricing_plan_id":"cebpf4jnsgd1na2vs0mg"},{"bike_id":"95410061-1cbb-4b0f-a936-fdb52e4b0704","system_id":"levelo_inurba_marseille","lat":43.30538,"lon":5.36734,"is_reserved":false,"is_disabled":false,"rental_uris":{"android":"levelo://app?vid=95410061-1cbb-4b0f-a936-fdb52e4b0704","ios":"levelo://app?vid=95410061-1cbb-4b0f-a936-fdb52e4b0704"},"vehicle_type_id":"4","last_reported":1728068854,"current_range_meters":21600,"station_id":"ce4bgrp2rcd13ifvqc9g","pricing_plan_id":"cebpf4jnsgd1na2vs0mg"},{"bike_id":"f8e44668-8761-471f-bbfa-8544b22702e5","system_id":"levelo_inurba_marseille","lat":43.26674,"lon":5.38278,"is_reserved":false,"is_disabled":false,"rental_uris":{"android":"levelo://app?vid=f8e44668-8761-471f-bbfa-8544b22702e5","ios":"levelo://app?vid=f8e44668-8761-471f-bbfa-8544b22702e5"},"vehicle_type_id":"4","last_reported":1728068854,"current_range_meters":28000,"station_id":"ce4bhg92rcd13ifvqf90","pricing_plan_id":"cebpf4jnsgd1na2vs0mg"},{"bike_id":"cc0fd201-520c-4c3a-a411-16b312cbc079","system_id":"levelo_inurba_marseille","lat":43.31077,"lon":5.38356,"is_reserved":false,"is_disabled":false,"rental_uris":{"android":"levelo://app?vid=cc0fd201-520c-4c3a-a411-16b312cbc079","ios":"levelo://app?vid=cc0fd201-520c-4c3a-a411-16b312cbc079"},"vehicle_type_id":"4","last_reported":1728068854,"current_range_meters":4000,"station_id":"ce4bgv92rcd13ifvqcr0","pricing_plan_id":"cebpf4jnsgd1na2vs0mg"},{"bike_id":"bbfcab3d-20be-4eda-9bfd-9f9c246be632","system_id":"levelo_inurba_marseille","lat":43.27326,"lon":5.39085,"is_reserved":false,"is_disabled":false,"rental_uris":{"android":"levelo://app?vid=bbfcab3d-20be-4eda-9bfd-9f9c246be632","ios":"levelo://app?vid=bbfcab3d-20be-4eda-9bfd-9f9c246be632"},"vehicle_type_id":"4","last_reported":1728068854,"current_range_meters":14400,"station_id":"ce4bhgp2rcd13ifvqfe0","pricing_plan_id":"cebpf4jnsgd1na2vs0mg"},{"bike_id":"40d06fe3-f04e-4b1d-aa0a-ab5a9e47d06f","system_id":"levelo_inurba_marseille","lat":43.27315,"lon":5.3908,"is_reserved":false,"is_disabled":false,"rental_uris":{"android":"levelo://app?vid=40d06fe3-f04e-4b1d-aa0a-ab5a9e47d06f","ios":"levelo://app?vid=40d06fe3-f04e-4b1d-aa0a-ab5a9e47d06f"},"vehicle_type_id":"4","last_reported":1728068854,"current_range_meters":21600,"station_id":"ce4bhgp2rcd13ifvqfe0","pricing_plan_id":"cebpf4jnsgd1na2vs0mg"},{"bike_id":"4678cfbb-7321-4eb5-857a-c089439e2478","system_id":"levelo_inurba_marseille","lat":43.25829,"lon":5.39436,"is_reserved":false,"is_disabled":false,"rental_uris":{"android":"levelo://app?vid=4678cfbb-7321-4eb5-857a-c089439e2478","ios":"levelo://app?vid=4678cfbb-7321-4eb5-857a-c089439e2478"},"vehicle_type_id":"4","last_reported":1728068854,"current_range_meters":11200,"station_id":"ce4bhip2rcd13ifvqft0","pricing_plan_id":"cebpf4jnsgd1na2vs0mg"},{"bike_id":"1dfd8e34-8527-4709-aac5-4df0669d081e","system_id":"levelo_inurba_marseille","lat":43.31331,"lon":5.39694,"is_reserved":false,"is_disabled":false,"rental_uris":{"android":"levelo://app?vid=1dfd8e34-8527-4709-aac5-4df0669d081e","ios":"levelo://app?vid=1dfd8e34-8527-4709-aac5-4df0669d081e"},"vehicle_type_id":"4","last_reported":1728068854,"current_range_meters":7200,"station_id":"ce4bgvp2rcd13ifvqcu0","pricing_plan_id":"cebpf4jnsgd1na2vs0mg"},{"bike_id":"f1abb1c7-6e38-43ed-9eb1-4b047ea196c8","system_id":"levelo_inurba_marseille","lat":43.26942,"lon":5.40249,"is_reserved":false,"is_disabled":false,"rental_uris":{"android":"levelo://app?vid=f1abb1c7-6e38-43ed-9eb1-4b047ea196c8","ios":"levelo://app?vid=f1abb1c7-6e38-43ed-9eb1-4b047ea196c8"},"vehicle_type_id":"4","last_reported":1728068854,"current_range_meters":9600,"station_id":"cjm6bp8fraef2m0cb0m0","pricing_plan_id":"cebpf4jnsgd1na2vs0mg"},{"bike_id":"8fd61f2f-8d6c-417b-9563-c6008dd9cdc8","system_id":"levelo_inurba_marseille","lat":43.30932,"lon":5.40142,"is_reserved":false,"is_disabled":false,"rental_uris":{"android":"levelo://app?vid=8fd61f2f-8d6c-417b-9563-c6008dd9cdc8","ios":"levelo://app?vid=8fd61f2f-8d6c-417b-9563-c6008dd9cdc8"},"vehicle_type_id":"4","last_reported":1728068854,"current_range_meters":30400,"station_id":"ce4bgvp2rcd13ifvqct0","pricing_plan_id":"cebpf4jnsgd1na2vs0mg"},{"bike_id":"d9513a24-3235-43a7-b9a5-1c5cfe37603f","system_id":"levelo_inurba_marseille","lat":43.23056,"lon":5.35493,"is_reserved":false,"is_disabled":false,"rental_uris":{"android":"levelo://app?vid=d9513a24-3235-43a7-b9a5-1c5cfe37603f","ios":"levelo://app?vid=d9513a24-3235-43a7-b9a5-1c5cfe37603f"},"vehicle_type_id":"4","last_reported":1728068854,"current_range_meters":24400,"station_id":"cpo3342slgdg3j2ifvpg","pricing_plan_id":"cebpf4jnsgd1na2vs0mg"},{"bike_id":"009d6d0e-c1a8-4ddc-b330-ebf04e9c45b9","system_id":"levelo_inurba_marseille","lat":43.29903,"lon":5.43679,"is_reserved":false,"is_disabled":false,"rental_uris":{"android":"levelo://app?vid=009d6d0e-c1a8-4ddc-b330-ebf04e9c45b9","ios":"levelo://app?vid=009d6d0e-c1a8-4ddc-b330-ebf04e9c45b9"},"vehicle_type_id":"4","last_reported":1728068854,"current_range_meters":25200,"station_id":"ce4bhpp2rcd13ifvqhfg","pricing_plan_id":"cebpf4jnsgd1na2vs0mg"},{"bike_id":"6f0b926f-c4d8-4b91-ba6b-877410cc0161","system_id":"levelo_inurba_marseille","lat":43.3137,"lon":5.38494,"is_reserved":false,"is_disabled":false,"rental_uris":{"android":"levelo://app?vid=6f0b926f-c4d8-4b91-ba6b-877410cc0161","ios":"levelo://app?vid=6f0b926f-c4d8-4b91-ba6b-877410cc0161"},"vehicle_type_id":"4","last_reported":1728068854,"current_range_meters":33600,"station_id":"ce4bgt92rcd13ifvqcf0","pricing_plan_id":"cebpf4jnsgd1na2vs0mg"},{"bike_id":"bc4d5d9a-b5f1-44e8-ae44-491287faee08","system_id":"levelo_inurba_marseille","lat":43.30808,"lon":5.38149,"is_reserved":false,"is_disabled":false,"rental_uris":{"android":"levelo://app?vid=bc4d5d9a-b5f1-44e8-ae44-491287faee08","ios":"levelo://app?vid=bc4d5d9a-b5f1-44e8-ae44-491287faee08"},"vehicle_type_id":"4","last_reported":1728068854,"current_range_meters":38800,"station_id":"ce4bgt12rcd13ifvqce0","pricing_plan_id":"cebpf4jnsgd1na2vs0mg"},{"bike_id":"4e0c83a2-b0c3-4894-8559-e509681998d3","system_id":"levelo_inurba_marseille","lat":43.31129,"lon":5.38324,"is_reserved":false,"is_disabled":false,"rental_uris":{"android":"levelo://app?vid=4e0c83a2-b0c3-4894-8559-e509681998d3","ios":"levelo://app?vid=4e0c83a2-b0c3-4894-8559-e509681998d3"},"vehicle_type_id":"4","last_reported":1728068854,"current_range_meters":20800,"station_id":"","pricing_plan_id":"cebpf4jnsgd1na2vs0mg"},{"bike_id":"c2f21302-0bda-4485-a5df-98d1ef9f2991","system_id":"levelo_inurba_marseille","lat":43.23946,"lon":5.38285,"is_reserved":false,"is_disabled":false,"rental_uris":{"android":"levelo://app?vid=c2f21302-0bda-4485-a5df-98d1ef9f2991","ios":"levelo://app?vid=c2f21302-0bda-4485-a5df-98d1ef9f2991"},"vehicle_type_id":"4","last_reported":1728068854,"current_range_meters":24800,"station_id":"","pricing_plan_id":"cebpf4jnsgd1na2vs0mg"},{"bike_id":"947da4f6-4682-4ebc-ae50-4412c266ae35","system_id":"levelo_inurba_marseille","lat":43.27305,"lon":5.39075,"is_reserved":false,"is_disabled":false,"rental_uris":{"android":"levelo://app?vid=947da4f6-4682-4ebc-ae50-4412c266ae35","ios":"levelo://app?vid=947da4f6-4682-4ebc-ae50-4412c266ae35"},"vehicle_type_id":"4","last_reported":1728068854,"current_range_meters":16400,"station_id":"ce4bhgp2rcd13ifvqfe0","pricing_plan_id":"cebpf4jnsgd1na2vs0mg"},{"bike_id":"c606b102-fea7-4f28-9c0a-70d284453f0e","system_id":"levelo_inurba_marseille","lat":43.2792,"lon":5.39579,"is_reserved":false,"is_disabled":false,"rental_uris":{"android":"levelo://app?vid=c606b102-fea7-4f28-9c0a-70d284453f0e","ios":"levelo://app?vid=c606b102-fea7-4f28-9c0a-70d284453f0e"},"vehicle_type_id":"4","last_reported":1728068854,"current_range_meters":18800,"station_id":"ce4bhf92rcd13ifvqf40","pricing_plan_id":"cebpf4jnsgd1na2vs0mg"},{"bike_id":"f033dadc-fd08-47ab-9223-5c481877bf26","system_id":"levelo_inurba_marseille","lat":43.29265,"lon":5.38446,"is_reserved":false,"is_disabled":false,"rental_uris":{"android":"levelo://app?vid=f033dadc-fd08-47ab-9223-5c481877bf26","ios":"levelo://app?vid=f033dadc-fd08-47ab-9223-5c481877bf26"},"vehicle_type_id":"4","last_reported":1728068854,"current_range_meters":29600,"station_id":"ce4bh692rcd13ifvqea0","pricing_plan_id":"cebpf4jnsgd1na2vs0mg"},{"bike_id":"745956e2-85a4-4e28-8a9f-f9dc9abb062e","system_id":"levelo_inurba_marseille","lat":43.28789,"lon":5.37363,"is_reserved":false,"is_disabled":false,"rental_uris":{"android":"levelo://app?vid=745956e2-85a4-4e28-8a9f-f9dc9abb062e","ios":"levelo://app?vid=745956e2-85a4-4e28-8a9f-f9dc9abb062e"},"vehicle_type_id":"4","last_reported":1728068854,"current_range_meters":36000,"station_id":"","pricing_plan_id":"cebpf4jnsgd1na2vs0mg"},{"bike_id":"d02bc3b4-38cb-4f0f-90ef-e29540a9182c","system_id":"levelo_inurba_marseille","lat":43.30541,"lon":5.36719,"is_reserved":false,"is_disabled":false,"rental_uris":{"android":"levelo://app?vid=d02bc3b4-38cb-4f0f-90ef-e29540a9182c","ios":"levelo://app?vid=d02bc3b4-38cb-4f0f-90ef-e29540a9182c"},"vehicle_type_id":"4","last_reported":1728068854,"current_range_meters":4800,"station_id":"ce4bgrp2rcd13ifvqc9g","pricing_plan_id":"cebpf4jnsgd1na2vs0mg"},{"bike_id":"4e5012d3-097e-4752-930f-fc706eefd5c7","system_id":"levelo_inurba_marseille","lat":43.26951,"lon":5.40252,"is_reserved":false,"is_disabled":false,"rental_uris":{"android":"levelo://app?vid=4e5012d3-097e-4752-930f-fc706eefd5c7","ios":"levelo://app?vid=4e5012d3-097e-4752-930f-fc706eefd5c7"},"vehicle_type_id":"4","last_reported":1728068854,"current_range_meters":8400,"station_id":"cjm6bp8fraef2m0cb0m0","pricing_plan_id":"cebpf4jnsgd1na2vs0mg"},{"bike_id":"aa6ea80f-d3cc-43e6-a69f-38faa11735ba","system_id":"levelo_inurba_marseille","lat":43.23972,"lon":5.36632,"is_reserved":false,"is_disabled":false,"rental_uris":{"android":"levelo://app?vid=aa6ea80f-d3cc-43e6-a69f-38faa11735ba","ios":"levelo://app?vid=aa6ea80f-d3cc-43e6-a69f-38faa11735ba"},"vehicle_type_id":"4","last_reported":1728068854,"current_range_meters":22000,"station_id":"ce4bhi12rcd13ifvqfp0","pricing_plan_id":"cebpf4jnsgd1na2vs0mg"},{"bike_id":"fd67db3d-cfc6-4457-99c9-b1cfb05a9bdf","system_id":"levelo_inurba_marseille","lat":43.23065,"lon":5.35496,"is_reserved":false,"is_disabled":false,"rental_uris":{"android":"levelo://app?vid=fd67db3d-cfc6-4457-99c9-b1cfb05a9bdf","ios":"levelo://app?vid=fd67db3d-cfc6-4457-99c9-b1cfb05a9bdf"},"vehicle_type_id":"4","last_reported":1728068854,"current_range_meters":20000,"station_id":"cpo3342slgdg3j2ifvpg","pricing_plan_id":"cebpf4jnsgd1na2vs0mg"},{"bike_id":"aa5001f8-40e0-4c83-bfed-eb0a81941210","system_id":"levelo_inurba_marseille","lat":43.31088,"lon":5.42421,"is_reserved":false,"is_disabled":false,"rental_uris":{"android":"levelo://app?vid=aa5001f8-40e0-4c83-bfed-eb0a81941210","ios":"levelo://app?vid=aa5001f8-40e0-4c83-bfed-eb0a81941210"},"vehicle_type_id":"4","last_reported":1728068854,"current_range_meters":14800,"station_id":"ce4bhp92rcd13ifvqhag","pricing_plan_id":"cebpf4jnsgd1na2vs0mg"},{"bike_id":"e2e815c2-794c-4449-b805-3fd2c780c476","system_id":"levelo_inurba_marseille","lat":43.30097,"lon":5.39084,"is_reserved":false,"is_disabled":false,"rental_uris":{"android":"levelo://app?vid=e2e815c2-794c-4449-b805-3fd2c780c476","ios":"levelo://app?vid=e2e815c2-794c-4449-b805-3fd2c780c476"},"vehicle_type_id":"4","last_reported":1728068854,"current_range_meters":6400,"station_id":"ce4bh192rcd13ifvqdb0","pricing_plan_id":"cebpf4jnsgd1na2vs0mg"},{"bike_id":"5f4c9bac-ba7c-469b-98b4-1652824bb9db","system_id":"levelo_inurba_marseille","lat":43.31488,"lon":5.37308,"is_reserved":false,"is_disabled":false,"rental_uris":{"android":"levelo://app?vid=5f4c9bac-ba7c-469b-98b4-1652824bb9db","ios":"levelo://app?vid=5f4c9bac-ba7c-469b-98b4-1652824bb9db"},"vehicle_type_id":"4","last_reported":1728068854,"current_range_meters":38800,"station_id":"ce4bgt12rcd13ifvqcd0","pricing_plan_id":"cebpf4jnsgd1na2vs0mg"},{"bike_id":"4cb4c3f3-c33c-400a-8369-a1349767975d","system_id":"levelo_inurba_marseille","lat":43.30246,"lon":5.40063,"is_reserved":false,"is_disabled":false,"rental_uris":{"android":"levelo://app?vid=4cb4c3f3-c33c-400a-8369-a1349767975d","ios":"levelo://app?vid=4cb4c3f3-c33c-400a-8369-a1349767975d"},"vehicle_type_id":"4","last_reported":1728068854,"current_range_meters":9600,"station_id":"ce4bgvh2rcd13ifvqcs0","pricing_plan_id":"cebpf4jnsgd1na2vs0mg"},{"bike_id":"1189ec7d-da1a-44a7-8a59-369de327d3fb","system_id":"levelo_inurba_marseille","lat":43.2797,"lon":5.38748,"is_reserved":false,"is_disabled":false,"rental_uris":{"android":"levelo://app?vid=1189ec7d-da1a-44a7-8a59-369de327d3fb","ios":"levelo://app?vid=1189ec7d-da1a-44a7-8a59-369de327d3fb"},"vehicle_type_id":"4","last_reported":1728068854,"current_range_meters":17600,"station_id":"ce4bhg12rcd13ifvqf80","pricing_plan_id":"cebpf4jnsgd1na2vs0mg"},{"bike_id":"1c44dc7c-30dc-4a09-9ae4-3f2896244ba6","system_id":"levelo_inurba_marseille","lat":43.283431,"lon":5.385026,"is_reserved":false,"is_disabled":false,"rental_uris":{"android":"levelo://app?vid=1c44dc7c-30dc-4a09-9ae4-3f2896244ba6","ios":"levelo://app?vid=1c44dc7c-30dc-4a09-9ae4-3f2896244ba6"},"vehicle_type_id":"4","last_reported":1728068854,"current_range_meters":38400,"station_id":"ce4bh292rcd13ifvqdg0","pricing_plan_id":"cebpf4jnsgd1na2vs0mg"},{"bike_id":"bdefae95-7cc5-4880-bfcb-b1af39586be0","system_id":"levelo_inurba_marseille","lat":43.32664,"lon":5.40985,"is_reserved":false,"is_disabled":false,"rental_uris":{"android":"levelo://app?vid=bdefae95-7cc5-4880-bfcb-b1af39586be0","ios":"levelo://app?vid=bdefae95-7cc5-4880-bfcb-b1af39586be0"},"vehicle_type_id":"4","last_reported":1728068854,"current_range_meters":37600,"station_id":"ce4bhpp2rcd13ifvqhgg","pricing_plan_id":"cebpf4jnsgd1na2vs0mg"},{"bike_id":"b2cb626a-fb67-4bab-aaa9-9f950bca3d9d","system_id":"levelo_inurba_marseille","lat":43.279114,"lon":5.395722,"is_reserved":false,"is_disabled":false,"rental_uris":{"android":"levelo://app?vid=b2cb626a-fb67-4bab-aaa9-9f950bca3d9d","ios":"levelo://app?vid=b2cb626a-fb67-4bab-aaa9-9f950bca3d9d"},"vehicle_type_id":"4","last_reported":1728068854,"current_range_meters":8400,"station_id":"ce4bhf92rcd13ifvqf40","pricing_plan_id":"cebpf4jnsgd1na2vs0mg"},{"bike_id":"269a967e-458a-4785-b90b-57d9c33541b4","system_id":"levelo_inurba_marseille","lat":43.28654,"lon":5.38561,"is_reserved":false,"is_disabled":false,"rental_uris":{"android":"levelo://app?vid=269a967e-458a-4785-b90b-57d9c33541b4","ios":"levelo://app?vid=269a967e-458a-4785-b90b-57d9c33541b4"},"vehicle_type_id":"4","last_reported":1728068854,"current_range_meters":38800,"station_id":"","pricing_plan_id":"cebpf4jnsgd1na2vs0mg"},{"bike_id":"2cb667a2-6112-4066-93fc-260c73b3e2bd","system_id":"levelo_inurba_marseille","lat":43.27315,"lon":5.39081,"is_reserved":false,"is_disabled":false,"rental_uris":{"android":"levelo://app?vid=2cb667a2-6112-4066-93fc-260c73b3e2bd","ios":"levelo://app?vid=2cb667a2-6112-4066-93fc-260c73b3e2bd"},"vehicle_type_id":"4","last_reported":1728068854,"current_range_meters":26800,"station_id":"ce4bhgp2rcd13ifvqfe0","pricing_plan_id":"cebpf4jnsgd1na2vs0mg"},{"bike_id":"68e4c86a-9142-49b1-a50a-6f6c32cc8163","system_id":"levelo_inurba_marseille","lat":43.292419,"lon":5.401009,"is_reserved":false,"is_disabled":false,"rental_uris":{"android":"levelo://app?vid=68e4c86a-9142-49b1-a50a-6f6c32cc8163","ios":"levelo://app?vid=68e4c86a-9142-49b1-a50a-6f6c32cc8163"},"vehicle_type_id":"4","last_reported":1728068854,"current_range_meters":23200,"station_id":"ce4bh312rcd13ifvqdk0","pricing_plan_id":"cebpf4jnsgd1na2vs0mg"},{"bike_id":"460b5f59-e13e-4ea3-be8c-9fa8d6ffc453","system_id":"levelo_inurba_marseille","lat":43.30539,"lon":5.3672,"is_reserved":false,"is_disabled":false,"rental_uris":{"android":"levelo://app?vid=460b5f59-e13e-4ea3-be8c-9fa8d6ffc453","ios":"levelo://app?vid=460b5f59-e13e-4ea3-be8c-9fa8d6ffc453"},"vehicle_type_id":"4","last_reported":1728068854,"current_range_meters":38400,"station_id":"ce4bgrp2rcd13ifvqc9g","pricing_plan_id":"cebpf4jnsgd1na2vs0mg"},{"bike_id":"1e9e701f-fb8e-430e-be7f-54907f1b9076","system_id":"levelo_inurba_marseille","lat":43.33023,"lon":5.39043,"is_reserved":false,"is_disabled":false,"rental_uris":{"android":"levelo://app?vid=1e9e701f-fb8e-430e-be7f-54907f1b9076","ios":"levelo://app?vid=1e9e701f-fb8e-430e-be7f-54907f1b9076"},"vehicle_type_id":"4","last_reported":1728068854,"current_range_meters":22800,"station_id":"ce4bhr92rcd13ifvqhrg","pricing_plan_id":"cebpf4jnsgd1na2vs0mg"},{"bike_id":"26f290bb-1447-4f43-ab6d-1590e2a06a4b","system_id":"levelo_inurba_marseille","lat":43.31451,"lon":5.37377,"is_reserved":false,"is_disabled":false,"rental_uris":{"android":"levelo://app?vid=26f290bb-1447-4f43-ab6d-1590e2a06a4b","ios":"levelo://app?vid=26f290bb-1447-4f43-ab6d-1590e2a06a4b"},"vehicle_type_id":"4","last_reported":1728068854,"current_range_meters":38000,"station_id":"ce4bgt12rcd13ifvqcd0","pricing_plan_id":"cebpf4jnsgd1na2vs0mg"},{"bike_id":"b5691231-a4c6-493e-b8a8-c13ef37861c2","system_id":"levelo_inurba_marseille","lat":43.29884,"lon":5.38909,"is_reserved":false,"is_disabled":false,"rental_uris":{"android":"levelo://app?vid=b5691231-a4c6-493e-b8a8-c13ef37861c2","ios":"levelo://app?vid=b5691231-a4c6-493e-b8a8-c13ef37861c2"},"vehicle_type_id":"4","last_reported":1728068854,"current_range_meters":39200,"station_id":"ce4bh392rcd13ifvqdl0","pricing_plan_id":"cebpf4jnsgd1na2vs0mg"},{"bike_id":"598532b2-38d1-49a5-b30a-e59e73e10c17","system_id":"levelo_inurba_marseille","lat":43.30311,"lon":5.3795,"is_reserved":false,"is_disabled":false,"rental_uris":{"android":"levelo://app?vid=598532b2-38d1-49a5-b30a-e59e73e10c17","ios":"levelo://app?vid=598532b2-38d1-49a5-b30a-e59e73e10c17"},"vehicle_type_id":"4","last_reported":1728068854,"current_range_meters":8800,"station_id":"ce4bh2h2rcd13ifvqdh0","pricing_plan_id":"cebpf4jnsgd1na2vs0mg"},{"bike_id":"fa3f76f8-87f2-4837-b47a-0c0c78c31b8f","system_id":"levelo_inurba_marseille","lat":43.30129,"lon":5.38778,"is_reserved":false,"is_disabled":false,"rental_uris":{"android":"levelo://app?vid=fa3f76f8-87f2-4837-b47a-0c0c78c31b8f","ios":"levelo://app?vid=fa3f76f8-87f2-4837-b47a-0c0c78c31b8f"},"vehicle_type_id":"4","last_reported":1728068854,"current_range_meters":12400,"station_id":"ce4bghh2rcd13ifvqb60","pricing_plan_id":"cebpf4jnsgd1na2vs0mg"},{"bike_id":"6b62de41-b893-4b2c-9b52-2aa787c1c52a","system_id":"levelo_inurba_marseille","lat":43.25872,"lon":5.39895,"is_reserved":false,"is_disabled":false,"rental_uris":{"android":"levelo://app?vid=6b62de41-b893-4b2c-9b52-2aa787c1c52a","ios":"levelo://app?vid=6b62de41-b893-4b2c-9b52-2aa787c1c52a"},"vehicle_type_id":"4","last_reported":1728068854,"current_range_meters":3200,"station_id":"ce4bhl92rcd13ifvqghg","pricing_plan_id":"cebpf4jnsgd1na2vs0mg"},{"bike_id":"e2b62f7b-f163-4ce0-a035-e5fe5a9f421d","system_id":"levelo_inurba_marseille","lat":43.28041,"lon":5.3695,"is_reserved":false,"is_disabled":false,"rental_uris":{"android":"levelo://app?vid=e2b62f7b-f163-4ce0-a035-e5fe5a9f421d","ios":"levelo://app?vid=e2b62f7b-f163-4ce0-a035-e5fe5a9f421d"},"vehicle_type_id":"4","last_reported":1728068854,"current_range_meters":10800,"station_id":"ce4bha12rcd13ifvqef0","pricing_plan_id":"cebpf4jnsgd1na2vs0mg"},{"bike_id":"56f53b8b-890b-49c8-9833-a36290a5ebe1","system_id":"levelo_inurba_marseille","lat":43.31083,"lon":5.42437,"is_reserved":false,"is_disabled":false,"rental_uris":{"android":"levelo://app?vid=56f53b8b-890b-49c8-9833-a36290a5ebe1","ios":"levelo://app?vid=56f53b8b-890b-49c8-9833-a36290a5ebe1"},"vehicle_type_id":"4","last_reported":1728068854,"current_range_meters":30400,"station_id":"ce4bhp92rcd13ifvqhag","pricing_plan_id":"cebpf4jnsgd1na2vs0mg"},{"bike_id":"8e9456cd-432b-400e-b329-f20608f8ec48","system_id":"levelo_inurba_marseille","lat":43.26946,"lon":5.4025,"is_reserved":false,"is_disabled":false,"rental_uris":{"android":"levelo://app?vid=8e9456cd-432b-400e-b329-f20608f8ec48","ios":"levelo://app?vid=8e9456cd-432b-400e-b329-f20608f8ec48"},"vehicle_type_id":"4","last_reported":1728068854,"current_range_meters":5600,"station_id":"cjm6bp8fraef2m0cb0m0","pricing_plan_id":"cebpf4jnsgd1na2vs0mg"},{"bike_id":"5b0a6d7f-c426-454a-82ad-28e2608bee63","system_id":"levelo_inurba_marseille","lat":43.32294,"lon":5.38666,"is_reserved":false,"is_disabled":false,"rental_uris":{"android":"levelo://app?vid=5b0a6d7f-c426-454a-82ad-28e2608bee63","ios":"levelo://app?vid=5b0a6d7f-c426-454a-82ad-28e2608bee63"},"vehicle_type_id":"4","last_reported":1728068854,"current_range_meters":24400,"station_id":"","pricing_plan_id":"cebpf4jnsgd1na2vs0mg"},{"bike_id":"5d6a3dd2-7257-4f4e-b2b2-b94a54b9ea10","system_id":"levelo_inurba_marseille","lat":43.29519,"lon":5.39049,"is_reserved":false,"is_disabled":false,"rental_uris":{"android":"levelo://app?vid=5d6a3dd2-7257-4f4e-b2b2-b94a54b9ea10","ios":"levelo://app?vid=5d6a3dd2-7257-4f4e-b2b2-b94a54b9ea10"},"vehicle_type_id":"4","last_reported":1728068854,"current_range_meters":38800,"station_id":"ce4bh3p2rcd13ifvqdp0","pricing_plan_id":"cebpf4jnsgd1na2vs0mg"},{"bike_id":"31f21c41-14f9-4f51-a8d2-4f4ee68ada86","system_id":"levelo_inurba_marseille","lat":43.31528,"lon":5.38033,"is_reserved":false,"is_disabled":false,"rental_uris":{"android":"levelo://app?vid=31f21c41-14f9-4f51-a8d2-4f4ee68ada86","ios":"levelo://app?vid=31f21c41-14f9-4f51-a8d2-4f4ee68ada86"},"vehicle_type_id":"4","last_reported":1728068854,"current_range_meters":13600,"station_id":"ce4bhsp2rcd13ifvqi50","pricing_plan_id":"cebpf4jnsgd1na2vs0mg"},{"bike_id":"fc833b04-2b6d-4307-b922-54fb42d700de","system_id":"levelo_inurba_marseille","lat":43.32332,"lon":5.40618,"is_reserved":false,"is_disabled":false,"rental_uris":{"android":"levelo://app?vid=fc833b04-2b6d-4307-b922-54fb42d700de","ios":"levelo://app?vid=fc833b04-2b6d-4307-b922-54fb42d700de"},"vehicle_type_id":"4","last_reported":1728068854,"current_range_meters":32000,"station_id":"ce4bhq92rcd13ifvqhjg","pricing_plan_id":"cebpf4jnsgd1na2vs0mg"},{"bike_id":"ba2d981f-00e6-46a6-ac90-e7b530595ed1","system_id":"levelo_inurba_marseille","lat":43.2848,"lon":5.384096,"is_reserved":false,"is_disabled":false,"rental_uris":{"android":"levelo://app?vid=ba2d981f-00e6-46a6-ac90-e7b530595ed1","ios":"levelo://app?vid=ba2d981f-00e6-46a6-ac90-e7b530595ed1"},"vehicle_type_id":"4","last_reported":1728068854,"current_range_meters":4800,"station_id":"ce4bh512rcd13ifvqe3g","pricing_plan_id":"cebpf4jnsgd1na2vs0mg"},{"bike_id":"19c2c618-2c07-48c7-a973-23612d81f7df","system_id":"levelo_inurba_marseille","lat":43.25844,"lon":5.39425,"is_reserved":false,"is_disabled":false,"rental_uris":{"android":"levelo://app?vid=19c2c618-2c07-48c7-a973-23612d81f7df","ios":"levelo://app?vid=19c2c618-2c07-48c7-a973-23612d81f7df"},"vehicle_type_id":"4","last_reported":1728068854,"current_range_meters":39200,"station_id":"ce4bhip2rcd13ifvqft0","pricing_plan_id":"cebpf4jnsgd1na2vs0mg"},{"bike_id":"666bc129-da48-43b6-859c-bfc1c5948593","system_id":"levelo_inurba_marseille","lat":43.31694,"lon":5.38181,"is_reserved":false,"is_disabled":false,"rental_uris":{"android":"levelo://app?vid=666bc129-da48-43b6-859c-bfc1c5948593","ios":"levelo://app?vid=666bc129-da48-43b6-859c-bfc1c5948593"},"vehicle_type_id":"4","last_reported":1728068854,"current_range_meters":32000,"station_id":"","pricing_plan_id":"cebpf4jnsgd1na2vs0mg"},{"bike_id":"c8e9ddc4-9d24-46c2-a0cd-6c24a5907698","system_id":"levelo_inurba_marseille","lat":43.3112,"lon":5.3777,"is_reserved":false,"is_disabled":false,"rental_uris":{"android":"levelo://app?vid=c8e9ddc4-9d24-46c2-a0cd-6c24a5907698","ios":"levelo://app?vid=c8e9ddc4-9d24-46c2-a0cd-6c24a5907698"},"vehicle_type_id":"4","last_reported":1728068854,"current_range_meters":5600,"station_id":"ce4bgt92rcd13ifvqcg0","pricing_plan_id":"cebpf4jnsgd1na2vs0mg"},{"bike_id":"73f9ebab-bf61-4991-b2e5-05aed5203d4c","system_id":"levelo_inurba_marseille","lat":43.28077,"lon":5.39661,"is_reserved":false,"is_disabled":false,"rental_uris":{"android":"levelo://app?vid=73f9ebab-bf61-4991-b2e5-05aed5203d4c","ios":"levelo://app?vid=73f9ebab-bf61-4991-b2e5-05aed5203d4c"},"vehicle_type_id":"4","last_reported":1728068854,"current_range_meters":3600,"station_id":"ce4bho12rcd13ifvqh2g","pricing_plan_id":"cebpf4jnsgd1na2vs0mg"},{"bike_id":"e3a55123-dd31-4c6a-9a44-7e5a51c0f0eb","system_id":"levelo_inurba_marseille","lat":43.25114,"lon":5.40319,"is_reserved":false,"is_disabled":false,"rental_uris":{"android":"levelo://app?vid=e3a55123-dd31-4c6a-9a44-7e5a51c0f0eb","ios":"levelo://app?vid=e3a55123-dd31-4c6a-9a44-7e5a51c0f0eb"},"vehicle_type_id":"4","last_reported":1728068854,"current_range_meters":14000,"station_id":"ce4bhlh2rcd13ifvqgig","pricing_plan_id":"cebpf4jnsgd1na2vs0mg"},{"bike_id":"b6a817d8-5787-46a3-898e-0b46c75fc481","system_id":"levelo_inurba_marseille","lat":43.32965,"lon":5.40344,"is_reserved":false,"is_disabled":false,"rental_uris":{"android":"levelo://app?vid=b6a817d8-5787-46a3-898e-0b46c75fc481","ios":"levelo://app?vid=b6a817d8-5787-46a3-898e-0b46c75fc481"},"vehicle_type_id":"4","last_reported":1728068854,"current_range_meters":9600,"station_id":"","pricing_plan_id":"cebpf4jnsgd1na2vs0mg"},{"bike_id":"f35af2f2-c70a-45cc-8de3-b6ad0f1bf21c","system_id":"levelo_inurba_marseille","lat":43.29419,"lon":5.38622,"is_reserved":false,"is_disabled":false,"rental_uris":{"android":"levelo://app?vid=f35af2f2-c70a-45cc-8de3-b6ad0f1bf21c","ios":"levelo://app?vid=f35af2f2-c70a-45cc-8de3-b6ad0f1bf21c"},"vehicle_type_id":"4","last_reported":1728068854,"current_range_meters":14400,"station_id":"ce4bh2h2rcd13ifvqdh0","pricing_plan_id":"cebpf4jnsgd1na2vs0mg"},{"bike_id":"76f7e8b6-c021-4c3c-be96-8deaa11c2513","system_id":"levelo_inurba_marseille","lat":43.2694,"lon":5.40252,"is_reserved":false,"is_disabled":false,"rental_uris":{"android":"levelo://app?vid=76f7e8b6-c021-4c3c-be96-8deaa11c2513","ios":"levelo://app?vid=76f7e8b6-c021-4c3c-be96-8deaa11c2513"},"vehicle_type_id":"4","last_reported":1728068854,"current_range_meters":8000,"station_id":"cjm6bp8fraef2m0cb0m0","pricing_plan_id":"cebpf4jnsgd1na2vs0mg"},{"bike_id":"121efd40-82f7-4950-84e3-4b0ff9081b7f","system_id":"levelo_inurba_marseille","lat":43.27176,"lon":5.40992,"is_reserved":false,"is_disabled":false,"rental_uris":{"android":"levelo://app?vid=121efd40-82f7-4950-84e3-4b0ff9081b7f","ios":"levelo://app?vid=121efd40-82f7-4950-84e3-4b0ff9081b7f"},"vehicle_type_id":"4","last_reported":1728068854,"current_range_meters":4000,"station_id":"ce4bhl12rcd13ifvqgf0","pricing_plan_id":"cebpf4jnsgd1na2vs0mg"},{"bike_id":"64bd957e-b978-44cb-a85c-928d627d24ec","system_id":"levelo_inurba_marseille","lat":43.35424,"lon":5.35869,"is_reserved":false,"is_disabled":false,"rental_uris":{"android":"levelo://app?vid=64bd957e-b978-44cb-a85c-928d627d24ec","ios":"levelo://app?vid=64bd957e-b978-44cb-a85c-928d627d24ec"},"vehicle_type_id":"4","last_reported":1728068854,"current_range_meters":11200,"station_id":"","pricing_plan_id":"cebpf4jnsgd1na2vs0mg"},{"bike_id":"69dbc4a2-6bac-4c49-87cd-3d9605ef5ea9","system_id":"levelo_inurba_marseille","lat":43.32437,"lon":5.40339,"is_reserved":false,"is_disabled":false,"rental_uris":{"android":"levelo://app?vid=69dbc4a2-6bac-4c49-87cd-3d9605ef5ea9","ios":"levelo://app?vid=69dbc4a2-6bac-4c49-87cd-3d9605ef5ea9"},"vehicle_type_id":"4","last_reported":1728068854,"current_range_meters":25600,"station_id":"","pricing_plan_id":"cebpf4jnsgd1na2vs0mg"},{"bike_id":"0818cb9d-3c4a-4ce8-8696-a1a96c49d275","system_id":"levelo_inurba_marseille","lat":43.32491,"lon":5.3656,"is_reserved":false,"is_disabled":false,"rental_uris":{"android":"levelo://app?vid=0818cb9d-3c4a-4ce8-8696-a1a96c49d275","ios":"levelo://app?vid=0818cb9d-3c4a-4ce8-8696-a1a96c49d275"},"vehicle_type_id":"4","last_reported":1728068854,"current_range_meters":18800,"station_id":"ce4bhs12rcd13ifvqhvg","pricing_plan_id":"cebpf4jnsgd1na2vs0mg"},{"bike_id":"3e69c136-f50e-4b21-956a-1a59a7fd1896","system_id":"levelo_inurba_marseille","lat":43.26943,"lon":5.4025,"is_reserved":false,"is_disabled":false,"rental_uris":{"android":"levelo://app?vid=3e69c136-f50e-4b21-956a-1a59a7fd1896","ios":"levelo://app?vid=3e69c136-f50e-4b21-956a-1a59a7fd1896"},"vehicle_type_id":"4","last_reported":1728068854,"current_range_meters":8000,"station_id":"cjm6bp8fraef2m0cb0m0","pricing_plan_id":"cebpf4jnsgd1na2vs0mg"},{"bike_id":"4a79b7f5-df06-47d9-894a-c23c245e5186","system_id":"levelo_inurba_marseille","lat":43.29562,"lon":5.42283,"is_reserved":false,"is_disabled":false,"rental_uris":{"android":"levelo://app?vid=4a79b7f5-df06-47d9-894a-c23c245e5186","ios":"levelo://app?vid=4a79b7f5-df06-47d9-894a-c23c245e5186"},"vehicle_type_id":"4","last_reported":1728068854,"current_range_meters":6800,"station_id":"ce4bhph2rcd13ifvqhdg","pricing_plan_id":"cebpf4jnsgd1na2vs0mg"},{"bike_id":"32242c56-871c-43e9-886b-ffb4c5d66c0e","system_id":"levelo_inurba_marseille","lat":43.25932,"lon":5.40915,"is_reserved":false,"is_disabled":false,"rental_uris":{"android":"levelo://app?vid=32242c56-871c-43e9-886b-ffb4c5d66c0e","ios":"levelo://app?vid=32242c56-871c-43e9-886b-ffb4c5d66c0e"},"vehicle_type_id":"4","last_reported":1728068854,"current_range_meters":16000,"station_id":"ce4bhm92rcd13ifvqglg","pricing_plan_id":"cebpf4jnsgd1na2vs0mg"},{"bike_id":"f43a4892-c720-4054-a74b-d896b9116c2e","system_id":"levelo_inurba_marseille","lat":43.26684,"lon":5.3827,"is_reserved":false,"is_disabled":false,"rental_uris":{"android":"levelo://app?vid=f43a4892-c720-4054-a74b-d896b9116c2e","ios":"levelo://app?vid=f43a4892-c720-4054-a74b-d896b9116c2e"},"vehicle_type_id":"4","last_reported":1728068854,"current_range_meters":36800,"station_id":"ce4bhg92rcd13ifvqf90","pricing_plan_id":"cebpf4jnsgd1na2vs0mg"},{"bike_id":"539d5c80-36c9-4189-a1ed-70516f0346c4","system_id":"levelo_inurba_marseille","lat":43.28276,"lon":5.35084,"is_reserved":false,"is_disabled":false,"rental_uris":{"android":"levelo://app?vid=539d5c80-36c9-4189-a1ed-70516f0346c4","ios":"levelo://app?vid=539d5c80-36c9-4189-a1ed-70516f0346c4"},"vehicle_type_id":"4","last_reported":1728068854,"current_range_meters":28400,"station_id":"ce4bhbp2rcd13ifvqerg","pricing_plan_id":"cebpf4jnsgd1na2vs0mg"},{"bike_id":"a3d3e661-81e3-4529-bc48-1f2e3bc5ef17","system_id":"levelo_inurba_marseille","lat":43.25867,"lon":5.39898,"is_reserved":false,"is_disabled":false,"rental_uris":{"android":"levelo://app?vid=a3d3e661-81e3-4529-bc48-1f2e3bc5ef17","ios":"levelo://app?vid=a3d3e661-81e3-4529-bc48-1f2e3bc5ef17"},"vehicle_type_id":"4","last_reported":1728068854,"current_range_meters":8000,"station_id":"ce4bhl92rcd13ifvqghg","pricing_plan_id":"cebpf4jnsgd1na2vs0mg"},{"bike_id":"6d679b6b-38e0-4f37-8caf-d0dfb3677fc5","system_id":"levelo_inurba_marseille","lat":43.2293,"lon":5.35381,"is_reserved":false,"is_disabled":false,"rental_uris":{"android":"levelo://app?vid=6d679b6b-38e0-4f37-8caf-d0dfb3677fc5","ios":"levelo://app?vid=6d679b6b-38e0-4f37-8caf-d0dfb3677fc5"},"vehicle_type_id":"4","last_reported":1728068854,"current_range_meters":17200,"station_id":"cpo3532slgdg3j2ikp40","pricing_plan_id":"cebpf4jnsgd1na2vs0mg"},{"bike_id":"8285f8e1-fce8-48c0-8651-00b542d235fe","system_id":"levelo_inurba_marseille","lat":43.26943,"lon":5.40262,"is_reserved":false,"is_disabled":false,"rental_uris":{"android":"levelo://app?vid=8285f8e1-fce8-48c0-8651-00b542d235fe","ios":"levelo://app?vid=8285f8e1-fce8-48c0-8651-00b542d235fe"},"vehicle_type_id":"4","last_reported":1728068854,"current_range_meters":35200,"station_id":"cjm6bp8fraef2m0cb0m0","pricing_plan_id":"cebpf4jnsgd1na2vs0mg"},{"bike_id":"42715632-e225-47f3-813c-9451f24e5700","system_id":"levelo_inurba_marseille","lat":43.23192,"lon":5.35546,"is_reserved":false,"is_disabled":false,"rental_uris":{"android":"levelo://app?vid=42715632-e225-47f3-813c-9451f24e5700","ios":"levelo://app?vid=42715632-e225-47f3-813c-9451f24e5700"},"vehicle_type_id":"4","last_reported":1728068854,"current_range_meters":11600,"station_id":"ce4bhu92rcd13ifvqi70","pricing_plan_id":"cebpf4jnsgd1na2vs0mg"},{"bike_id":"9923cdb0-297a-4a3f-9cde-146bf08288d3","system_id":"levelo_inurba_marseille","lat":43.26556,"lon":5.37286,"is_reserved":false,"is_disabled":false,"rental_uris":{"android":"levelo://app?vid=9923cdb0-297a-4a3f-9cde-146bf08288d3","ios":"levelo://app?vid=9923cdb0-297a-4a3f-9cde-146bf08288d3"},"vehicle_type_id":"4","last_reported":1728068854,"current_range_meters":38800,"station_id":"ce4bhg12rcd13ifvqf70","pricing_plan_id":"cebpf4jnsgd1na2vs0mg"},{"bike_id":"ed0afaed-f916-4854-994b-95ae46c87002","system_id":"levelo_inurba_marseille","lat":43.24672,"lon":5.38158,"is_reserved":false,"is_disabled":false,"rental_uris":{"android":"levelo://app?vid=ed0afaed-f916-4854-994b-95ae46c87002","ios":"levelo://app?vid=ed0afaed-f916-4854-994b-95ae46c87002"},"vehicle_type_id":"4","last_reported":1728068854,"current_range_meters":3600,"station_id":"ce4bhih2rcd13ifvqfr0","pricing_plan_id":"cebpf4jnsgd1na2vs0mg"},{"bike_id":"9c6ceacf-46aa-4972-8a1c-69fbeaf93293","system_id":"levelo_inurba_marseille","lat":43.31759,"lon":5.39026,"is_reserved":false,"is_disabled":false,"rental_uris":{"android":"levelo://app?vid=9c6ceacf-46aa-4972-8a1c-69fbeaf93293","ios":"levelo://app?vid=9c6ceacf-46aa-4972-8a1c-69fbeaf93293"},"vehicle_type_id":"4","last_reported":1728068854,"current_range_meters":10800,"station_id":"ce4bhqp2rcd13ifvqhng","pricing_plan_id":"cebpf4jnsgd1na2vs0mg"},{"bike_id":"b4823bd5-ee5e-44db-8629-6e8e7182b7a4","system_id":"levelo_inurba_marseille","lat":43.26943,"lon":5.40255,"is_reserved":false,"is_disabled":false,"rental_uris":{"android":"levelo://app?vid=b4823bd5-ee5e-44db-8629-6e8e7182b7a4","ios":"levelo://app?vid=b4823bd5-ee5e-44db-8629-6e8e7182b7a4"},"vehicle_type_id":"4","last_reported":1728068854,"current_range_meters":14400,"station_id":"cjm6bp8fraef2m0cb0m0","pricing_plan_id":"cebpf4jnsgd1na2vs0mg"},{"bike_id":"58f49a2d-05cf-4ce6-b81a-dd9fe3c5595b","system_id":"levelo_inurba_marseille","lat":43.279663,"lon":5.387539,"is_reserved":false,"is_disabled":false,"rental_uris":{"android":"levelo://app?vid=58f49a2d-05cf-4ce6-b81a-dd9fe3c5595b","ios":"levelo://app?vid=58f49a2d-05cf-4ce6-b81a-dd9fe3c5595b"},"vehicle_type_id":"4","last_reported":1728068854,"current_range_meters":32400,"station_id":"ce4bhg12rcd13ifvqf80","pricing_plan_id":"cebpf4jnsgd1na2vs0mg"},{"bike_id":"7141f598-ca7d-4427-9337-017db0ab278c","system_id":"levelo_inurba_marseille","lat":43.27056,"lon":5.40265,"is_reserved":false,"is_disabled":false,"rental_uris":{"android":"levelo://app?vid=7141f598-ca7d-4427-9337-017db0ab278c","ios":"levelo://app?vid=7141f598-ca7d-4427-9337-017db0ab278c"},"vehicle_type_id":"4","last_reported":1728068854,"current_range_meters":3600,"station_id":"ce4bhk92rcd13ifvqgc0","pricing_plan_id":"cebpf4jnsgd1na2vs0mg"},{"bike_id":"79c2c732-6c62-4bd9-96a7-1e2da37e28ea","system_id":"levelo_inurba_marseille","lat":43.26947,"lon":5.40254,"is_reserved":false,"is_disabled":false,"rental_uris":{"android":"levelo://app?vid=79c2c732-6c62-4bd9-96a7-1e2da37e28ea","ios":"levelo://app?vid=79c2c732-6c62-4bd9-96a7-1e2da37e28ea"},"vehicle_type_id":"4","last_reported":1728068854,"current_range_meters":10000,"station_id":"cjm6bp8fraef2m0cb0m0","pricing_plan_id":"cebpf4jnsgd1na2vs0mg"},{"bike_id":"100a1ff1-9e83-4c63-985a-2e7314c6847f","system_id":"levelo_inurba_marseille","lat":43.29269,"lon":5.38453,"is_reserved":false,"is_disabled":false,"rental_uris":{"android":"levelo://app?vid=100a1ff1-9e83-4c63-985a-2e7314c6847f","ios":"levelo://app?vid=100a1ff1-9e83-4c63-985a-2e7314c6847f"},"vehicle_type_id":"4","last_reported":1728068854,"current_range_meters":24400,"station_id":"ce4bh692rcd13ifvqea0","pricing_plan_id":"cebpf4jnsgd1na2vs0mg"},{"bike_id":"44004f1e-4d2b-4e9a-b6b3-1d31be9eaf2f","system_id":"levelo_inurba_marseille","lat":43.29296,"lon":5.37456,"is_reserved":false,"is_disabled":false,"rental_uris":{"android":"levelo://app?vid=44004f1e-4d2b-4e9a-b6b3-1d31be9eaf2f","ios":"levelo://app?vid=44004f1e-4d2b-4e9a-b6b3-1d31be9eaf2f"},"vehicle_type_id":"4","last_reported":1728068854,"current_range_meters":31200,"station_id":"ce4bgi12rcd13ifvqb70","pricing_plan_id":"cebpf4jnsgd1na2vs0mg"},{"bike_id":"4c8d332e-0289-4f39-a113-33f1ffaaf367","system_id":"levelo_inurba_marseille","lat":43.26945,"lon":5.40254,"is_reserved":false,"is_disabled":false,"rental_uris":{"android":"levelo://app?vid=4c8d332e-0289-4f39-a113-33f1ffaaf367","ios":"levelo://app?vid=4c8d332e-0289-4f39-a113-33f1ffaaf367"},"vehicle_type_id":"4","last_reported":1728068854,"current_range_meters":25200,"station_id":"cjm6bp8fraef2m0cb0m0","pricing_plan_id":"cebpf4jnsgd1na2vs0mg"},{"bike_id":"f791d285-e796-472d-a2e8-a373dd52bfca","system_id":"levelo_inurba_marseille","lat":43.25087,"lon":5.39514,"is_reserved":false,"is_disabled":false,"rental_uris":{"android":"levelo://app?vid=f791d285-e796-472d-a2e8-a373dd52bfca","ios":"levelo://app?vid=f791d285-e796-472d-a2e8-a373dd52bfca"},"vehicle_type_id":"4","last_reported":1728068854,"current_range_meters":39200,"station_id":"ce4bhm12rcd13ifvqgkg","pricing_plan_id":"cebpf4jnsgd1na2vs0mg"},{"bike_id":"e315600c-3ff8-4893-abe5-0c310d48465d","system_id":"levelo_inurba_marseille","lat":43.33756,"lon":5.3743,"is_reserved":false,"is_disabled":false,"rental_uris":{"android":"levelo://app?vid=e315600c-3ff8-4893-abe5-0c310d48465d","ios":"levelo://app?vid=e315600c-3ff8-4893-abe5-0c310d48465d"},"vehicle_type_id":"4","last_reported":1728068854,"current_range_meters":36800,"station_id":"","pricing_plan_id":"cebpf4jnsgd1na2vs0mg"},{"bike_id":"b791cdb0-446b-400c-9f6d-a092c514a36e","system_id":"levelo_inurba_marseille","lat":43.26204,"lon":5.37934,"is_reserved":false,"is_disabled":false,"rental_uris":{"android":"levelo://app?vid=b791cdb0-446b-400c-9f6d-a092c514a36e","ios":"levelo://app?vid=b791cdb0-446b-400c-9f6d-a092c514a36e"},"vehicle_type_id":"4","last_reported":1728068854,"current_range_meters":36400,"station_id":"ce4bhjp2rcd13ifvqg90","pricing_plan_id":"cebpf4jnsgd1na2vs0mg"},{"bike_id":"623beadf-0772-4d7a-8a54-38ea0ec91779","system_id":"levelo_inurba_marseille","lat":43.28108,"lon":5.37837,"is_reserved":false,"is_disabled":false,"rental_uris":{"android":"levelo://app?vid=623beadf-0772-4d7a-8a54-38ea0ec91779","ios":"levelo://app?vid=623beadf-0772-4d7a-8a54-38ea0ec91779"},"vehicle_type_id":"4","last_reported":1728068854,"current_range_meters":38000,"station_id":"ce4bha12rcd13ifvqee0","pricing_plan_id":"cebpf4jnsgd1na2vs0mg"},{"bike_id":"59578713-9dcd-47fb-9319-f5ea088d4ec6","system_id":"levelo_inurba_marseille","lat":43.27214,"lon":5.39181,"is_reserved":false,"is_disabled":false,"rental_uris":{"android":"levelo://app?vid=59578713-9dcd-47fb-9319-f5ea088d4ec6","ios":"levelo://app?vid=59578713-9dcd-47fb-9319-f5ea088d4ec6"},"vehicle_type_id":"4","last_reported":1728068854,"current_range_meters":37600,"station_id":"ce4bhhp2rcd13ifvqfm0","pricing_plan_id":"cebpf4jnsgd1na2vs0mg"},{"bike_id":"41971d72-4217-4805-b13f-df3a7e636d3d","system_id":"levelo_inurba_marseille","lat":43.29267,"lon":5.38443,"is_reserved":false,"is_disabled":false,"rental_uris":{"android":"levelo://app?vid=41971d72-4217-4805-b13f-df3a7e636d3d","ios":"levelo://app?vid=41971d72-4217-4805-b13f-df3a7e636d3d"},"vehicle_type_id":"4","last_reported":1728068854,"current_range_meters":38000,"station_id":"ce4bh692rcd13ifvqea0","pricing_plan_id":"cebpf4jnsgd1na2vs0mg"},{"bike_id":"27723f96-4adc-4620-b4bb-362667e7be8d","system_id":"levelo_inurba_marseille","lat":43.27938,"lon":5.4105,"is_reserved":false,"is_disabled":false,"rental_uris":{"android":"levelo://app?vid=27723f96-4adc-4620-b4bb-362667e7be8d","ios":"levelo://app?vid=27723f96-4adc-4620-b4bb-362667e7be8d"},"vehicle_type_id":"4","last_reported":1728068854,"current_range_meters":11600,"station_id":"ce4bhnp2rcd13ifvqh0g","pricing_plan_id":"cebpf4jnsgd1na2vs0mg"},{"bike_id":"0125b840-2a50-4aad-afec-ea2211d7e78e","system_id":"levelo_inurba_marseille","lat":43.25836,"lon":5.39424,"is_reserved":false,"is_disabled":false,"rental_uris":{"android":"levelo://app?vid=0125b840-2a50-4aad-afec-ea2211d7e78e","ios":"levelo://app?vid=0125b840-2a50-4aad-afec-ea2211d7e78e"},"vehicle_type_id":"4","last_reported":1728068854,"current_range_meters":38800,"station_id":"ce4bhip2rcd13ifvqft0","pricing_plan_id":"cebpf4jnsgd1na2vs0mg"},{"bike_id":"314b21c1-4eab-41fd-8e0d-f57fdd119404","system_id":"levelo_inurba_marseille","lat":43.30556,"lon":5.38428,"is_reserved":false,"is_disabled":false,"rental_uris":{"android":"levelo://app?vid=314b21c1-4eab-41fd-8e0d-f57fdd119404","ios":"levelo://app?vid=314b21c1-4eab-41fd-8e0d-f57fdd119404"},"vehicle_type_id":"4","last_reported":1728068854,"current_range_meters":19200,"station_id":"ce4bgg92rcd13ifvqb30","pricing_plan_id":"cebpf4jnsgd1na2vs0mg"},{"bike_id":"82a83339-ad52-482e-aa36-5f12a706f0cd","system_id":"levelo_inurba_marseille","lat":43.3244,"lon":5.40322,"is_reserved":false,"is_disabled":false,"rental_uris":{"android":"levelo://app?vid=82a83339-ad52-482e-aa36-5f12a706f0cd","ios":"levelo://app?vid=82a83339-ad52-482e-aa36-5f12a706f0cd"},"vehicle_type_id":"4","last_reported":1728068854,"current_range_meters":10800,"station_id":"ce4bhq92rcd13ifvqhjg","pricing_plan_id":"cebpf4jnsgd1na2vs0mg"},{"bike_id":"740aa9b1-bf7f-495f-b4b6-8c44676bc674","system_id":"levelo_inurba_marseille","lat":43.33754,"lon":5.37441,"is_reserved":false,"is_disabled":false,"rental_uris":{"android":"levelo://app?vid=740aa9b1-bf7f-495f-b4b6-8c44676bc674","ios":"levelo://app?vid=740aa9b1-bf7f-495f-b4b6-8c44676bc674"},"vehicle_type_id":"4","last_reported":1728068854,"current_range_meters":6800,"station_id":"","pricing_plan_id":"cebpf4jnsgd1na2vs0mg"},{"bike_id":"c1a33bf3-8da2-4bb5-9ed6-1336e6b315b7","system_id":"levelo_inurba_marseille","lat":43.25112,"lon":5.4032,"is_reserved":false,"is_disabled":false,"rental_uris":{"android":"levelo://app?vid=c1a33bf3-8da2-4bb5-9ed6-1336e6b315b7","ios":"levelo://app?vid=c1a33bf3-8da2-4bb5-9ed6-1336e6b315b7"},"vehicle_type_id":"4","last_reported":1728068854,"current_range_meters":38800,"station_id":"ce4bhlh2rcd13ifvqgig","pricing_plan_id":"cebpf4jnsgd1na2vs0mg"},{"bike_id":"77b9203a-0842-4b45-acd8-ada92dfc3441","system_id":"levelo_inurba_marseille","lat":43.29913,"lon":5.38188,"is_reserved":false,"is_disabled":false,"rental_uris":{"android":"levelo://app?vid=77b9203a-0842-4b45-acd8-ada92dfc3441","ios":"levelo://app?vid=77b9203a-0842-4b45-acd8-ada92dfc3441"},"vehicle_type_id":"4","last_reported":1728068854,"current_range_meters":16800,"station_id":"ce4bgj12rcd13ifvqbc0","pricing_plan_id":"cebpf4jnsgd1na2vs0mg"},{"bike_id":"8c61526c-2d67-4b1a-8f32-0018924d753f","system_id":"levelo_inurba_marseille","lat":43.337444,"lon":5.374475,"is_reserved":false,"is_disabled":false,"rental_uris":{"android":"levelo://app?vid=8c61526c-2d67-4b1a-8f32-0018924d753f","ios":"levelo://app?vid=8c61526c-2d67-4b1a-8f32-0018924d753f"},"vehicle_type_id":"4","last_reported":1728068854,"current_range_meters":38000,"station_id":"","pricing_plan_id":"cebpf4jnsgd1na2vs0mg"},{"bike_id":"3eab87de-e0e9-41e1-ac1b-ee4a6b359056","system_id":"levelo_inurba_marseille","lat":43.30354,"lon":5.41883,"is_reserved":false,"is_disabled":false,"rental_uris":{"android":"levelo://app?vid=3eab87de-e0e9-41e1-ac1b-ee4a6b359056","ios":"levelo://app?vid=3eab87de-e0e9-41e1-ac1b-ee4a6b359056"},"vehicle_type_id":"4","last_reported":1728068854,"current_range_meters":24400,"station_id":"ce4bhop2rcd13ifvqh7g","pricing_plan_id":"cebpf4jnsgd1na2vs0mg"},{"bike_id":"93e3ebbc-2e8c-4207-85a4-3d2740dc5d42","system_id":"levelo_inurba_marseille","lat":43.30811,"lon":5.38159,"is_reserved":false,"is_disabled":false,"rental_uris":{"android":"levelo://app?vid=93e3ebbc-2e8c-4207-85a4-3d2740dc5d42","ios":"levelo://app?vid=93e3ebbc-2e8c-4207-85a4-3d2740dc5d42"},"vehicle_type_id":"4","last_reported":1728068854,"current_range_meters":38800,"station_id":"ce4bgt12rcd13ifvqce0","pricing_plan_id":"cebpf4jnsgd1na2vs0mg"},{"bike_id":"07275201-8e7a-45f4-a4bd-8587084835d5","system_id":"levelo_inurba_marseille","lat":43.23968,"lon":5.36629,"is_reserved":false,"is_disabled":false,"rental_uris":{"android":"levelo://app?vid=07275201-8e7a-45f4-a4bd-8587084835d5","ios":"levelo://app?vid=07275201-8e7a-45f4-a4bd-8587084835d5"},"vehicle_type_id":"4","last_reported":1728068854,"current_range_meters":30400,"station_id":"ce4bhi12rcd13ifvqfp0","pricing_plan_id":"cebpf4jnsgd1na2vs0mg"},{"bike_id":"dd8b6d2d-0481-485d-9adb-c7ea9b4fd545","system_id":"levelo_inurba_marseille","lat":43.29581,"lon":5.3674,"is_reserved":false,"is_disabled":false,"rental_uris":{"android":"levelo://app?vid=dd8b6d2d-0481-485d-9adb-c7ea9b4fd545","ios":"levelo://app?vid=dd8b6d2d-0481-485d-9adb-c7ea9b4fd545"},"vehicle_type_id":"4","last_reported":1728068854,"current_range_meters":2000,"station_id":"ce4bgph2rcd13ifvqc2g","pricing_plan_id":"cebpf4jnsgd1na2vs0mg"},{"bike_id":"5c6cba79-53d8-4d43-b09c-ea8671e5c505","system_id":"levelo_inurba_marseille","lat":43.28348,"lon":5.38096,"is_reserved":false,"is_disabled":false,"rental_uris":{"android":"levelo://app?vid=5c6cba79-53d8-4d43-b09c-ea8671e5c505","ios":"levelo://app?vid=5c6cba79-53d8-4d43-b09c-ea8671e5c505"},"vehicle_type_id":"4","last_reported":1728068854,"current_range_meters":20800,"station_id":"ce4bh412rcd13ifvqdr0","pricing_plan_id":"cebpf4jnsgd1na2vs0mg"},{"bike_id":"6b315d99-3ae8-4acd-8c24-9531c7a83eb8","system_id":"levelo_inurba_marseille","lat":43.23063,"lon":5.35493,"is_reserved":false,"is_disabled":false,"rental_uris":{"android":"levelo://app?vid=6b315d99-3ae8-4acd-8c24-9531c7a83eb8","ios":"levelo://app?vid=6b315d99-3ae8-4acd-8c24-9531c7a83eb8"},"vehicle_type_id":"4","last_reported":1728068854,"current_range_meters":17600,"station_id":"cpo3342slgdg3j2ifvpg","pricing_plan_id":"cebpf4jnsgd1na2vs0mg"},{"bike_id":"d26e4c8e-6154-43fe-9bb3-8cfbcdb85e0a","system_id":"levelo_inurba_marseille","lat":43.30333,"lon":5.37048,"is_reserved":false,"is_disabled":false,"rental_uris":{"android":"levelo://app?vid=d26e4c8e-6154-43fe-9bb3-8cfbcdb85e0a","ios":"levelo://app?vid=d26e4c8e-6154-43fe-9bb3-8cfbcdb85e0a"},"vehicle_type_id":"4","last_reported":1728068854,"current_range_meters":6400,"station_id":"","pricing_plan_id":"cebpf4jnsgd1na2vs0mg"},{"bike_id":"55188226-ff9f-45e8-99b6-3c0c54d286d9","system_id":"levelo_inurba_marseille","lat":43.28447,"lon":5.36647,"is_reserved":false,"is_disabled":false,"rental_uris":{"android":"levelo://app?vid=55188226-ff9f-45e8-99b6-3c0c54d286d9","ios":"levelo://app?vid=55188226-ff9f-45e8-99b6-3c0c54d286d9"},"vehicle_type_id":"4","last_reported":1728068854,"current_range_meters":6800,"station_id":"ce4bhbp2rcd13ifvqerg","pricing_plan_id":"cebpf4jnsgd1na2vs0mg"},{"bike_id":"97e85cfc-bb84-4013-b85e-b899d35f2807","system_id":"levelo_inurba_marseille","lat":43.2583,"lon":5.3944,"is_reserved":false,"is_disabled":false,"rental_uris":{"android":"levelo://app?vid=97e85cfc-bb84-4013-b85e-b899d35f2807","ios":"levelo://app?vid=97e85cfc-bb84-4013-b85e-b899d35f2807"},"vehicle_type_id":"4","last_reported":1728068854,"current_range_meters":26000,"station_id":"ce4bhip2rcd13ifvqft0","pricing_plan_id":"cebpf4jnsgd1na2vs0mg"},{"bike_id":"4de0a847-f5af-4d09-841a-6948ba2f5686","system_id":"levelo_inurba_marseille","lat":43.29411,"lon":5.38632,"is_reserved":false,"is_disabled":false,"rental_uris":{"android":"levelo://app?vid=4de0a847-f5af-4d09-841a-6948ba2f5686","ios":"levelo://app?vid=4de0a847-f5af-4d09-841a-6948ba2f5686"},"vehicle_type_id":"4","last_reported":1728068854,"current_range_meters":17600,"station_id":"ce4bh2h2rcd13ifvqdh0","pricing_plan_id":"cebpf4jnsgd1na2vs0mg"},{"bike_id":"eb32e389-a23c-42ba-b86d-6b9975ebd6f7","system_id":"levelo_inurba_marseille","lat":43.29261,"lon":5.38449,"is_reserved":false,"is_disabled":false,"rental_uris":{"android":"levelo://app?vid=eb32e389-a23c-42ba-b86d-6b9975ebd6f7","ios":"levelo://app?vid=eb32e389-a23c-42ba-b86d-6b9975ebd6f7"},"vehicle_type_id":"4","last_reported":1728068854,"current_range_meters":38800,"station_id":"ce4bh692rcd13ifvqea0","pricing_plan_id":"cebpf4jnsgd1na2vs0mg"},{"bike_id":"41a0967d-0666-4ada-acd8-e3b629b3b4f5","system_id":"levelo_inurba_marseille","lat":43.29425,"lon":5.38629,"is_reserved":false,"is_disabled":false,"rental_uris":{"android":"levelo://app?vid=41a0967d-0666-4ada-acd8-e3b629b3b4f5","ios":"levelo://app?vid=41a0967d-0666-4ada-acd8-e3b629b3b4f5"},"vehicle_type_id":"4","last_reported":1728068854,"current_range_meters":3600,"station_id":"ce4bh2h2rcd13ifvqdh0","pricing_plan_id":"cebpf4jnsgd1na2vs0mg"},{"bike_id":"d9c8b702-c9c1-48d0-8625-f038a9a49a2c","system_id":"levelo_inurba_marseille","lat":43.272,"lon":5.3918,"is_reserved":false,"is_disabled":false,"rental_uris":{"android":"levelo://app?vid=d9c8b702-c9c1-48d0-8625-f038a9a49a2c","ios":"levelo://app?vid=d9c8b702-c9c1-48d0-8625-f038a9a49a2c"},"vehicle_type_id":"4","last_reported":1728068854,"current_range_meters":16000,"station_id":"ce4bhhp2rcd13ifvqfm0","pricing_plan_id":"cebpf4jnsgd1na2vs0mg"},{"bike_id":"494916b0-fee1-4e86-b069-1122dcc64125","system_id":"levelo_inurba_marseille","lat":43.27386,"lon":5.36262,"is_reserved":false,"is_disabled":false,"rental_uris":{"android":"levelo://app?vid=494916b0-fee1-4e86-b069-1122dcc64125","ios":"levelo://app?vid=494916b0-fee1-4e86-b069-1122dcc64125"},"vehicle_type_id":"4","last_reported":1728068854,"current_range_meters":38800,"station_id":"ce4bhbh2rcd13ifvqeo0","pricing_plan_id":"cebpf4jnsgd1na2vs0mg"},{"bike_id":"d8ee3252-e387-4dfd-b5d9-ab06c9351bc3","system_id":"levelo_inurba_marseille","lat":43.27913,"lon":5.39573,"is_reserved":false,"is_disabled":false,"rental_uris":{"android":"levelo://app?vid=d8ee3252-e387-4dfd-b5d9-ab06c9351bc3","ios":"levelo://app?vid=d8ee3252-e387-4dfd-b5d9-ab06c9351bc3"},"vehicle_type_id":"4","last_reported":1728068854,"current_range_meters":6800,"station_id":"ce4bhf92rcd13ifvqf40","pricing_plan_id":"cebpf4jnsgd1na2vs0mg"},{"bike_id":"9a4212d4-dfbb-45d0-9670-69900c1c2395","system_id":"levelo_inurba_marseille","lat":43.31738,"lon":5.37167,"is_reserved":false,"is_disabled":false,"rental_uris":{"android":"levelo://app?vid=9a4212d4-dfbb-45d0-9670-69900c1c2395","ios":"levelo://app?vid=9a4212d4-dfbb-45d0-9670-69900c1c2395"},"vehicle_type_id":"4","last_reported":1728068854,"current_range_meters":16000,"station_id":"","pricing_plan_id":"cebpf4jnsgd1na2vs0mg"},{"bike_id":"295b9d02-e7cc-4e75-a370-38983a4a6eef","system_id":"levelo_inurba_marseille","lat":43.26491,"lon":5.39548,"is_reserved":false,"is_disabled":false,"rental_uris":{"android":"levelo://app?vid=295b9d02-e7cc-4e75-a370-38983a4a6eef","ios":"levelo://app?vid=295b9d02-e7cc-4e75-a370-38983a4a6eef"},"vehicle_type_id":"4","last_reported":1728068854,"current_range_meters":2000,"station_id":"ce4bhi12rcd13ifvqfq0","pricing_plan_id":"cebpf4jnsgd1na2vs0mg"},{"bike_id":"d8add84b-2ddd-4c20-9126-6b1b6277fe09","system_id":"levelo_inurba_marseille","lat":43.30561,"lon":5.3842,"is_reserved":false,"is_disabled":false,"rental_uris":{"android":"levelo://app?vid=d8add84b-2ddd-4c20-9126-6b1b6277fe09","ios":"levelo://app?vid=d8add84b-2ddd-4c20-9126-6b1b6277fe09"},"vehicle_type_id":"4","last_reported":1728068854,"current_range_meters":24800,"station_id":"ce4bgg92rcd13ifvqb30","pricing_plan_id":"cebpf4jnsgd1na2vs0mg"},{"bike_id":"87dbcfac-a352-4e9a-b02f-707f526fd230","system_id":"levelo_inurba_marseille","lat":43.33765,"lon":5.37442,"is_reserved":false,"is_disabled":false,"rental_uris":{"android":"levelo://app?vid=87dbcfac-a352-4e9a-b02f-707f526fd230","ios":"levelo://app?vid=87dbcfac-a352-4e9a-b02f-707f526fd230"},"vehicle_type_id":"4","last_reported":1728068854,"current_range_meters":35600,"station_id":"","pricing_plan_id":"cebpf4jnsgd1na2vs0mg"},{"bike_id":"b1e82195-8737-4b91-8d76-5ccf5899abaf","system_id":"levelo_inurba_marseille","lat":43.28792,"lon":5.36107,"is_reserved":false,"is_disabled":false,"rental_uris":{"android":"levelo://app?vid=b1e82195-8737-4b91-8d76-5ccf5899abaf","ios":"levelo://app?vid=b1e82195-8737-4b91-8d76-5ccf5899abaf"},