{"last_updated":1741806486,"ttl":60,"version":"2.2","data":{"bikes":[{"bike_id":"c10a83c6-dc80-4751-85f3-444271103fbd","system_id":"levelo_inurba_marseille","lat":43.30437,"lon":5.38902,"is_reserved":false,"is_disabled":false,"rental_uris":{"android":"levelo://app?vid=c10a83c6-dc80-4751-85f3-444271103fbd","ios":"levelo://app?vid=c10a83c6-dc80-4751-85f3-444271103fbd"},"vehicle_type_id":"4","last_reported":1741806486,"current_range_meters":2800,"station_id":"ce4bgk12rcd13ifvqbi0","pricing_plan_id":"cebpf4jnsgd1na2vs0mg"},{"bike_id":"7a185360-4617-454f-a8a2-dab35d53d806","system_id":"levelo_inurba_marseille","lat":43.30912,"lon":5.36839,"is_reserved":false,"is_disabled":false,"rental_uris":{"android":"levelo://app?vid=7a185360-4617-454f-a8a2-dab35d53d806","ios":"levelo://app?vid=7a185360-4617-454f-a8a2-dab35d53d806"},"vehicle_type_id":"4","last_reported":1741806486,"current_range_meters":2800,"station_id":"ce4bgn92rcd13ifvqbvg","pricing_plan_id":"cebpf4jnsgd1na2vs0mg"},{"bike_id":"76c97533-47f3-48a7-8af7-3323e9f0e267","system_id":"levelo_inurba_marseille","lat":43.29308,"lon":5.37174,"is_reserved":false,"is_disabled":false,"rental_uris":{"android":"levelo://app?vid=76c97533-47f3-48a7-8af7-3323e9f0e267","ios":"levelo://app?vid=76c97533-47f3-48a7-8af7-3323e9f0e267"},"vehicle_type_id":"4","last_reported":1741806486,"current_range_meters":2800,"station_id":"ce4bgh92rcd13ifvqb40","pricing_plan_id":"cebpf4jnsgd1na2vs0mg"},{"bike_id":"85050481-3de3-4fe0-9f34-8feb579a7d5b","system_id":"levelo_inurba_marseille","lat":43.30906,"lon":5.36865,"is_reserved":false,"is_disabled":false,"rental_uris":{"android":"levelo://app?vid=85050481-3de3-4fe0-9f34-8feb579a7d5b","ios":"levelo://app?vid=85050481-3de3-4fe0-9f34-8feb579a7d5b"},"vehicle_type_id":"4","last_reported":1741806486,"current_range_meters":3200,"station_id":"ce4bgn92rcd13ifvqbvg","pricing_plan_id":"cebpf4jnsgd1na2vs0mg"},{"bike_id":"bf2feb02-4272-4476-92f9-9420844c4078","system_id":"levelo_inurba_marseille","lat":43.312066,"lon":5.376637,"is_reserved":false,"is_disabled":false,"rental_uris":{"android":"levelo://app?vid=bf2feb02-4272-4476-92f9-9420844c4078","ios":"levelo://app?vid=bf2feb02-4272-4476-92f9-9420844c4078"},"vehicle_type_id":"4","last_reported":1741806486,"current_range_meters":3200,"station_id":"","pricing_plan_id":"cebpf4jnsgd1na2vs0mg"},{"bike_id":"cf6a2efc-c6ce-46ec-a531-ef29c34cd3c5","system_id":"levelo_inurba_marseille","lat":43.29966,"lon":5.38498,"is_reserved":false,"is_disabled":false,"rental_uris":{"android":"levelo://app?vid=cf6a2efc-c6ce-46ec-a531-ef29c34cd3c5","ios":"levelo://app?vid=cf6a2efc-c6ce-46ec-a531-ef29c34cd3c5"},"vehicle_type_id":"4","last_reported":1741806486,"current_range_meters":3200,"station_id":"ce4bgj92rcd13ifvqbd0","pricing_plan_id":"cebpf4jnsgd1na2vs0mg"},{"bike_id":"173ee4af-7bb4-4190-99d3-18d3258b3b1a","system_id":"levelo_inurba_marseille","lat":43.28718,"lon":5.37939,"is_reserved":false,"is_disabled":false,"rental_uris":{"android":"levelo://app?vid=173ee4af-7bb4-4190-99d3-18d3258b3b1a","ios":"levelo://app?vid=173ee4af-7bb4-4190-99d3-18d3258b3b1a"},"vehicle_type_id":"4","last_reported":1741806486,"current_range_meters":3600,"station_id":"ce4bh9p2rcd13ifvqec0","pricing_plan_id":"cebpf4jnsgd1na2vs0mg"},{"bike_id":"8d148f9c-d435-4123-bd0e-8d7ebd73846f","system_id":"levelo_inurba_marseille","lat":43.27059,"lon":5.40262,"is_reserved":false,"is_disabled":true,"rental_uris":{"android":"levelo://app?vid=8d148f9c-d435-4123-bd0e-8d7ebd73846f","ios":"levelo://app?vid=8d148f9c-d435-4123-bd0e-8d7ebd73846f"},"vehicle_type_id":"4","last_reported":1741806486,"current_range_meters":3600,"station_id":"ce4bhk92rcd13ifvqgc0","pricing_plan_id":"cebpf4jnsgd1na2vs0mg"},{"bike_id":"23dc0a7a-ba20-46d2-a451-961ef46474f1","system_id":"levelo_inurba_marseille","lat":43.3177,"lon":5.39049,"is_reserved":false,"is_disabled":false,"rental_uris":{"android":"levelo://app?vid=23dc0a7a-ba20-46d2-a451-961ef46474f1","ios":"levelo://app?vid=23dc0a7a-ba20-46d2-a451-961ef46474f1"},"vehicle_type_id":"4","last_reported":1741806486,"current_range_meters":3600,"station_id":"ce4bhqp2rcd13ifvqhng","pricing_plan_id":"cebpf4jnsgd1na2vs0mg"},{"bike_id":"8d4bf0a4-cd38-4e92-8c90-69533c6f2a5d","system_id":"levelo_inurba_marseille","lat":43.23961,"lon":5.36631,"is_reserved":false,"is_disabled":false,"rental_uris":{"android":"levelo://app?vid=8d4bf0a4-cd38-4e92-8c90-69533c6f2a5d","ios":"levelo://app?vid=8d4bf0a4-cd38-4e92-8c90-69533c6f2a5d"},"vehicle_type_id":"4","last_reported":1741806486,"current_range_meters":3600,"station_id":"ce4bhi12rcd13ifvqfp0","pricing_plan_id":"cebpf4jnsgd1na2vs0mg"},{"bike_id":"9fe21b90-6a1e-483c-8834-3a978a62df9f","system_id":"levelo_inurba_marseille","lat":43.29547,"lon":5.36294,"is_reserved":false,"is_disabled":false,"rental_uris":{"android":"levelo://app?vid=9fe21b90-6a1e-483c-8834-3a978a62df9f","ios":"levelo://app?vid=9fe21b90-6a1e-483c-8834-3a978a62df9f"},"vehicle_type_id":"4","last_reported":1741806486,"current_range_meters":4000,"station_id":"","pricing_plan_id":"cebpf4jnsgd1na2vs0mg"},{"bike_id":"8f761f8c-86c2-4111-84cb-d97e54fdae1f","system_id":"levelo_inurba_marseille","lat":43.27952,"lon":5.3878,"is_reserved":false,"is_disabled":false,"rental_uris":{"android":"levelo://app?vid=8f761f8c-86c2-4111-84cb-d97e54fdae1f","ios":"levelo://app?vid=8f761f8c-86c2-4111-84cb-d97e54fdae1f"},"vehicle_type_id":"4","last_reported":1741806486,"current_range_meters":4000,"station_id":"ce4bhg12rcd13ifvqf80","pricing_plan_id":"cebpf4jnsgd1na2vs0mg"},{"bike_id":"9b778ef1-6cba-475a-983e-c5eaf24d28aa","system_id":"levelo_inurba_marseille","lat":43.29025,"lon":5.3864,"is_reserved":false,"is_disabled":false,"rental_uris":{"android":"levelo://app?vid=9b778ef1-6cba-475a-983e-c5eaf24d28aa","ios":"levelo://app?vid=9b778ef1-6cba-475a-983e-c5eaf24d28aa"},"vehicle_type_id":"4","last_reported":1741806486,"current_range_meters":4400,"station_id":"ce4bh4p2rcd13ifvqe0g","pricing_plan_id":"cebpf4jnsgd1na2vs0mg"},{"bike_id":"3ac58610-dd0a-4f93-a584-06dc9aabeb64","system_id":"levelo_inurba_marseille","lat":43.29811,"lon":5.38082,"is_reserved":false,"is_disabled":false,"rental_uris":{"android":"levelo://app?vid=3ac58610-dd0a-4f93-a584-06dc9aabeb64","ios":"levelo://app?vid=3ac58610-dd0a-4f93-a584-06dc9aabeb64"},"vehicle_type_id":"4","last_reported":1741806486,"current_range_meters":4000,"station_id":"ce4bgip2rcd13ifvqbb0","pricing_plan_id":"cebpf4jnsgd1na2vs0mg"},{"bike_id":"c5ede2a7-446d-45c0-822c-0083901af476","system_id":"levelo_inurba_marseille","lat":43.3042,"lon":5.41274,"is_reserved":false,"is_disabled":false,"rental_uris":{"android":"levelo://app?vid=c5ede2a7-446d-45c0-822c-0083901af476","ios":"levelo://app?vid=c5ede2a7-446d-45c0-822c-0083901af476"},"vehicle_type_id":"4","last_reported":1741806486,"current_range_meters":4000,"station_id":"ce4bhop2rcd13ifvqh8g","pricing_plan_id":"cebpf4jnsgd1na2vs0mg"},{"bike_id":"37d8323f-5506-43a6-98b3-b75a854b3abd","system_id":"levelo_inurba_marseille","lat":43.29319,"lon":5.37446,"is_reserved":false,"is_disabled":false,"rental_uris":{"android":"levelo://app?vid=37d8323f-5506-43a6-98b3-b75a854b3abd","ios":"levelo://app?vid=37d8323f-5506-43a6-98b3-b75a854b3abd"},"vehicle_type_id":"4","last_reported":1741806486,"current_range_meters":4000,"station_id":"ce4bgi12rcd13ifvqb70","pricing_plan_id":"cebpf4jnsgd1na2vs0mg"},{"bike_id":"f8cba09b-b584-4f67-aa35-ccc634391380","system_id":"levelo_inurba_marseille","lat":43.29526,"lon":5.39405,"is_reserved":false,"is_disabled":false,"rental_uris":{"android":"levelo://app?vid=f8cba09b-b584-4f67-aa35-ccc634391380","ios":"levelo://app?vid=f8cba09b-b584-4f67-aa35-ccc634391380"},"vehicle_type_id":"4","last_reported":1741806486,"current_range_meters":4000,"station_id":"ce4bh292rcd13ifvqdf0","pricing_plan_id":"cebpf4jnsgd1na2vs0mg"},{"bike_id":"73ec5b48-643f-485f-a254-9a90befd3a79","system_id":"levelo_inurba_marseille","lat":43.26558,"lon":5.39009,"is_reserved":false,"is_disabled":true,"rental_uris":{"android":"levelo://app?vid=73ec5b48-643f-485f-a254-9a90befd3a79","ios":"levelo://app?vid=73ec5b48-643f-485f-a254-9a90befd3a79"},"vehicle_type_id":"4","last_reported":1741806486,"current_range_meters":4000,"station_id":"ce4bhe12rcd13ifvqf30","pricing_plan_id":"cebpf4jnsgd1na2vs0mg"},{"bike_id":"eb6ab594-c847-4c87-8d26-84e29234e60d","system_id":"levelo_inurba_marseille","lat":43.29306,"lon":5.37172,"is_reserved":false,"is_disabled":false,"rental_uris":{"android":"levelo://app?vid=eb6ab594-c847-4c87-8d26-84e29234e60d","ios":"levelo://app?vid=eb6ab594-c847-4c87-8d26-84e29234e60d"},"vehicle_type_id":"4","last_reported":1741806486,"current_range_meters":4000,"station_id":"ce4bgh92rcd13ifvqb40","pricing_plan_id":"cebpf4jnsgd1na2vs0mg"},{"bike_id":"80771939-f406-42f7-81c5-33180fd8a338","system_id":"levelo_inurba_marseille","lat":43.2318,"lon":5.35563,"is_reserved":false,"is_disabled":false,"rental_uris":{"android":"levelo://app?vid=80771939-f406-42f7-81c5-33180fd8a338","ios":"levelo://app?vid=80771939-f406-42f7-81c5-33180fd8a338"},"vehicle_type_id":"4","last_reported":1741806486,"current_range_meters":4000,"station_id":"ce4bhu92rcd13ifvqi70","pricing_plan_id":"cebpf4jnsgd1na2vs0mg"},{"bike_id":"ed23e01d-5469-4fb4-a908-367c871decd4","system_id":"levelo_inurba_marseille","lat":43.28418,"lon":5.37506,"is_reserved":false,"is_disabled":false,"rental_uris":{"android":"levelo://app?vid=ed23e01d-5469-4fb4-a908-367c871decd4","ios":"levelo://app?vid=ed23e01d-5469-4fb4-a908-367c871decd4"},"vehicle_type_id":"4","last_reported":1741806486,"current_range_meters":4000,"station_id":"ce4bh412rcd13ifvqds0","pricing_plan_id":"cebpf4jnsgd1na2vs0mg"},{"bike_id":"5be62f5c-b4d5-490f-97d7-7d11c616d8af","system_id":"levelo_inurba_marseille","lat":43.2306,"lon":5.35502,"is_reserved":false,"is_disabled":false,"rental_uris":{"android":"levelo://app?vid=5be62f5c-b4d5-490f-97d7-7d11c616d8af","ios":"levelo://app?vid=5be62f5c-b4d5-490f-97d7-7d11c616d8af"},"vehicle_type_id":"4","last_reported":1741806486,"current_range_meters":4000,"station_id":"cpo3342slgdg3j2ifvpg","pricing_plan_id":"cebpf4jnsgd1na2vs0mg"},{"bike_id":"a98dc99a-c4d4-408b-8fcc-1469f1acf40f","system_id":"levelo_inurba_marseille","lat":43.2997,"lon":5.38494,"is_reserved":false,"is_disabled":false,"rental_uris":{"android":"levelo://app?vid=a98dc99a-c4d4-408b-8fcc-1469f1acf40f","ios":"levelo://app?vid=a98dc99a-c4d4-408b-8fcc-1469f1acf40f"},"vehicle_type_id":"4","last_reported":1741806486,"current_range_meters":4400,"station_id":"ce4bgj92rcd13ifvqbd0","pricing_plan_id":"cebpf4jnsgd1na2vs0mg"},{"bike_id":"af14698a-cf7a-4dd7-be69-b92d07c3898e","system_id":"levelo_inurba_marseille","lat":43.29875,"lon":5.39736,"is_reserved":false,"is_disabled":false,"rental_uris":{"android":"levelo://app?vid=af14698a-cf7a-4dd7-be69-b92d07c3898e","ios":"levelo://app?vid=af14698a-cf7a-4dd7-be69-b92d07c3898e"},"vehicle_type_id":"4","last_reported":1741806486,"current_range_meters":4400,"station_id":"ce4bh0h2rcd13ifvqd50","pricing_plan_id":"cebpf4jnsgd1na2vs0mg"},{"bike_id":"6ad86d5a-76fb-46d5-a748-0ff75bbbed78","system_id":"levelo_inurba_marseille","lat":43.31322,"lon":5.397,"is_reserved":false,"is_disabled":false,"rental_uris":{"android":"levelo://app?vid=6ad86d5a-76fb-46d5-a748-0ff75bbbed78","ios":"levelo://app?vid=6ad86d5a-76fb-46d5-a748-0ff75bbbed78"},"vehicle_type_id":"4","last_reported":1741806486,"current_range_meters":4400,"station_id":"ce4bgvp2rcd13ifvqcu0","pricing_plan_id":"cebpf4jnsgd1na2vs0mg"},{"bike_id":"2714d703-0653-4f83-9f2f-5d24f5ce775b","system_id":"levelo_inurba_marseille","lat":43.2974,"lon":5.393875,"is_reserved":false,"is_disabled":false,"rental_uris":{"android":"levelo://app?vid=2714d703-0653-4f83-9f2f-5d24f5ce775b","ios":"levelo://app?vid=2714d703-0653-4f83-9f2f-5d24f5ce775b"},"vehicle_type_id":"4","last_reported":1741806486,"current_range_meters":4400,"station_id":"","pricing_plan_id":"cebpf4jnsgd1na2vs0mg"},{"bike_id":"45d8d7b0-29eb-4eaf-9ec9-00efd0738f1e","system_id":"levelo_inurba_marseille","lat":43.31229,"lon":5.37513,"is_reserved":false,"is_disabled":false,"rental_uris":{"android":"levelo://app?vid=45d8d7b0-29eb-4eaf-9ec9-00efd0738f1e","ios":"levelo://app?vid=45d8d7b0-29eb-4eaf-9ec9-00efd0738f1e"},"vehicle_type_id":"4","last_reported":1741806486,"current_range_meters":4400,"station_id":"","pricing_plan_id":"cebpf4jnsgd1na2vs0mg"},{"bike_id":"f01e6c17-15d1-4df9-b3b1-b364d750db6d","system_id":"levelo_inurba_marseille","lat":43.23148,"lon":5.43715,"is_reserved":false,"is_disabled":false,"rental_uris":{"android":"levelo://app?vid=f01e6c17-15d1-4df9-b3b1-b364d750db6d","ios":"levelo://app?vid=f01e6c17-15d1-4df9-b3b1-b364d750db6d"},"vehicle_type_id":"4","last_reported":1741806486,"current_range_meters":4400,"station_id":"ce4bhmp2rcd13ifvqgog","pricing_plan_id":"cebpf4jnsgd1na2vs0mg"},{"bike_id":"47144f5d-3ba0-40e3-a1c4-8b006d686920","system_id":"levelo_inurba_marseille","lat":43.24552,"lon":5.39523,"is_reserved":false,"is_disabled":false,"rental_uris":{"android":"levelo://app?vid=47144f5d-3ba0-40e3-a1c4-8b006d686920","ios":"levelo://app?vid=47144f5d-3ba0-40e3-a1c4-8b006d686920"},"vehicle_type_id":"4","last_reported":1741806486,"current_range_meters":4800,"station_id":"ce4bhlp2rcd13ifvqgjg","pricing_plan_id":"cebpf4jnsgd1na2vs0mg"},{"bike_id":"1ff133a6-1746-4d11-8a55-2d2b5368fc4a","system_id":"levelo_inurba_marseille","lat":43.23157,"lon":5.43704,"is_reserved":false,"is_disabled":false,"rental_uris":{"android":"levelo://app?vid=1ff133a6-1746-4d11-8a55-2d2b5368fc4a","ios":"levelo://app?vid=1ff133a6-1746-4d11-8a55-2d2b5368fc4a"},"vehicle_type_id":"4","last_reported":1741806486,"current_range_meters":4800,"station_id":"ce4bhmp2rcd13ifvqgog","pricing_plan_id":"cebpf4jnsgd1na2vs0mg"},{"bike_id":"b979f8d9-ed79-4c93-bb1f-1891f45a0fba","system_id":"levelo_inurba_marseille","lat":43.28436,"lon":5.35948,"is_reserved":false,"is_disabled":false,"rental_uris":{"android":"levelo://app?vid=b979f8d9-ed79-4c93-bb1f-1891f45a0fba","ios":"levelo://app?vid=b979f8d9-ed79-4c93-bb1f-1891f45a0fba"},"vehicle_type_id":"4","last_reported":1741806486,"current_range_meters":4800,"station_id":"","pricing_plan_id":"cebpf4jnsgd1na2vs0mg"},{"bike_id":"dd275044-4bce-4102-9af8-30a6b4e524b8","system_id":"levelo_inurba_marseille","lat":43.28408,"lon":5.37513,"is_reserved":false,"is_disabled":false,"rental_uris":{"android":"levelo://app?vid=dd275044-4bce-4102-9af8-30a6b4e524b8","ios":"levelo://app?vid=dd275044-4bce-4102-9af8-30a6b4e524b8"},"vehicle_type_id":"4","last_reported":1741806486,"current_range_meters":4800,"station_id":"ce4bh412rcd13ifvqds0","pricing_plan_id":"cebpf4jnsgd1na2vs0mg"},{"bike_id":"5ef941de-03a1-44f9-8a79-25d34abd73f6","system_id":"levelo_inurba_marseille","lat":43.29801,"lon":5.38103,"is_reserved":false,"is_disabled":false,"rental_uris":{"android":"levelo://app?vid=5ef941de-03a1-44f9-8a79-25d34abd73f6","ios":"levelo://app?vid=5ef941de-03a1-44f9-8a79-25d34abd73f6"},"vehicle_type_id":"4","last_reported":1741806486,"current_range_meters":4800,"station_id":"ce4bgip2rcd13ifvqbb0","pricing_plan_id":"cebpf4jnsgd1na2vs0mg"},{"bike_id":"0e13eaa4-9218-468c-aab4-9d42b806daeb","system_id":"levelo_inurba_marseille","lat":43.307922,"lon":5.381465,"is_reserved":false,"is_disabled":false,"rental_uris":{"android":"levelo://app?vid=0e13eaa4-9218-468c-aab4-9d42b806daeb","ios":"levelo://app?vid=0e13eaa4-9218-468c-aab4-9d42b806daeb"},"vehicle_type_id":"4","last_reported":1741806486,"current_range_meters":4800,"station_id":"ce4bgt12rcd13ifvqce0","pricing_plan_id":"cebpf4jnsgd1na2vs0mg"},{"bike_id":"ad021d60-84ef-4e41-948a-2808e9aa91dd","system_id":"levelo_inurba_marseille","lat":43.290329,"lon":5.38657,"is_reserved":false,"is_disabled":false,"rental_uris":{"android":"levelo://app?vid=ad021d60-84ef-4e41-948a-2808e9aa91dd","ios":"levelo://app?vid=ad021d60-84ef-4e41-948a-2808e9aa91dd"},"vehicle_type_id":"4","last_reported":1741806486,"current_range_meters":4800,"station_id":"ce4bh4p2rcd13ifvqe0g","pricing_plan_id":"cebpf4jnsgd1na2vs0mg"},{"bike_id":"94eb9559-8c4f-4d60-98ac-469a5ce58b64","system_id":"levelo_inurba_marseille","lat":43.2465,"lon":5.38889,"is_reserved":false,"is_disabled":false,"rental_uris":{"android":"levelo://app?vid=94eb9559-8c4f-4d60-98ac-469a5ce58b64","ios":"levelo://app?vid=94eb9559-8c4f-4d60-98ac-469a5ce58b64"},"vehicle_type_id":"4","last_reported":1741806486,"current_range_meters":4800,"station_id":"ce4bhg12rcd13ifvqf60","pricing_plan_id":"cebpf4jnsgd1na2vs0mg"},{"bike_id":"523a3762-bc8f-465d-8e64-b7a01ef6a625","system_id":"levelo_inurba_marseille","lat":43.29186,"lon":5.35808,"is_reserved":false,"is_disabled":false,"rental_uris":{"android":"levelo://app?vid=523a3762-bc8f-465d-8e64-b7a01ef6a625","ios":"levelo://app?vid=523a3762-bc8f-465d-8e64-b7a01ef6a625"},"vehicle_type_id":"4","last_reported":1741806486,"current_range_meters":4800,"station_id":"ce4bhb12rcd13ifvqel0","pricing_plan_id":"cebpf4jnsgd1na2vs0mg"},{"bike_id":"3fb6d860-70ed-4da6-9846-d48a7423dc2b","system_id":"levelo_inurba_marseille","lat":43.29941,"lon":5.36558,"is_reserved":false,"is_disabled":false,"rental_uris":{"android":"levelo://app?vid=3fb6d860-70ed-4da6-9846-d48a7423dc2b","ios":"levelo://app?vid=3fb6d860-70ed-4da6-9846-d48a7423dc2b"},"vehicle_type_id":"4","last_reported":1741806486,"current_range_meters":5600,"station_id":"ce4bgm92rcd13ifvqbr0","pricing_plan_id":"cebpf4jnsgd1na2vs0mg"},{"bike_id":"8447b2d4-400b-4f74-8048-25cf7f1ca261","system_id":"levelo_inurba_marseille","lat":43.23183,"lon":5.39987,"is_reserved":false,"is_disabled":false,"rental_uris":{"android":"levelo://app?vid=8447b2d4-400b-4f74-8048-25cf7f1ca261","ios":"levelo://app?vid=8447b2d4-400b-4f74-8048-25cf7f1ca261"},"vehicle_type_id":"4","last_reported":1741806486,"current_range_meters":5600,"station_id":"ce4bhn12rcd13ifvqgqg","pricing_plan_id":"cebpf4jnsgd1na2vs0mg"},{"bike_id":"cd6b953a-b188-4b21-a6e2-662b83139bc3","system_id":"levelo_inurba_marseille","lat":43.29528,"lon":5.39414,"is_reserved":false,"is_disabled":false,"rental_uris":{"android":"levelo://app?vid=cd6b953a-b188-4b21-a6e2-662b83139bc3","ios":"levelo://app?vid=cd6b953a-b188-4b21-a6e2-662b83139bc3"},"vehicle_type_id":"4","last_reported":1741806486,"current_range_meters":5600,"station_id":"ce4bh292rcd13ifvqdf0","pricing_plan_id":"cebpf4jnsgd1na2vs0mg"},{"bike_id":"2a8abf73-9a49-44da-8f3f-23b922ee4d9a","system_id":"levelo_inurba_marseille","lat":43.30889,"lon":5.39651,"is_reserved":false,"is_disabled":false,"rental_uris":{"android":"levelo://app?vid=2a8abf73-9a49-44da-8f3f-23b922ee4d9a","ios":"levelo://app?vid=2a8abf73-9a49-44da-8f3f-23b922ee4d9a"},"vehicle_type_id":"4","last_reported":1741806486,"current_range_meters":5600,"station_id":"ce4bh012rcd13ifvqcv0","pricing_plan_id":"cebpf4jnsgd1na2vs0mg"},{"bike_id":"89f5252d-ca6b-4c4a-8924-1e95cb6ec267","system_id":"levelo_inurba_marseille","lat":43.239637,"lon":5.366293,"is_reserved":false,"is_disabled":false,"rental_uris":{"android":"levelo://app?vid=89f5252d-ca6b-4c4a-8924-1e95cb6ec267","ios":"levelo://app?vid=89f5252d-ca6b-4c4a-8924-1e95cb6ec267"},"vehicle_type_id":"4","last_reported":1741806486,"current_range_meters":5600,"station_id":"ce4bhi12rcd13ifvqfp0","pricing_plan_id":"cebpf4jnsgd1na2vs0mg"},{"bike_id":"fab5d3a8-c10a-4e69-8360-d850cc9f0881","system_id":"levelo_inurba_marseille","lat":43.33177,"lon":5.39447,"is_reserved":false,"is_disabled":false,"rental_uris":{"android":"levelo://app?vid=fab5d3a8-c10a-4e69-8360-d850cc9f0881","ios":"levelo://app?vid=fab5d3a8-c10a-4e69-8360-d850cc9f0881"},"vehicle_type_id":"4","last_reported":1741806486,"current_range_meters":5600,"station_id":"","pricing_plan_id":"cebpf4jnsgd1na2vs0mg"},{"bike_id":"58d1b5b3-d322-4418-97d0-3066ec3d9afc","system_id":"levelo_inurba_marseille","lat":43.232,"lon":5.35552,"is_reserved":false,"is_disabled":false,"rental_uris":{"android":"levelo://app?vid=58d1b5b3-d322-4418-97d0-3066ec3d9afc","ios":"levelo://app?vid=58d1b5b3-d322-4418-97d0-3066ec3d9afc"},"vehicle_type_id":"4","last_reported":1741806486,"current_range_meters":5600,"station_id":"ce4bhu92rcd13ifvqi70","pricing_plan_id":"cebpf4jnsgd1na2vs0mg"},{"bike_id":"7897ed63-4f21-4db4-b932-6ec1073d9ede","system_id":"levelo_inurba_marseille","lat":43.24995,"lon":5.38928,"is_reserved":false,"is_disabled":false,"rental_uris":{"android":"levelo://app?vid=7897ed63-4f21-4db4-b932-6ec1073d9ede","ios":"levelo://app?vid=7897ed63-4f21-4db4-b932-6ec1073d9ede"},"vehicle_type_id":"4","last_reported":1741806486,"current_range_meters":6000,"station_id":"ce4bhgp2rcd13ifvqfd0","pricing_plan_id":"cebpf4jnsgd1na2vs0mg"},{"bike_id":"6d00e3ad-461d-46dc-a418-2daa9b3fc079","system_id":"levelo_inurba_marseille","lat":43.24075,"lon":5.37739,"is_reserved":false,"is_disabled":false,"rental_uris":{"android":"levelo://app?vid=6d00e3ad-461d-46dc-a418-2daa9b3fc079","ios":"levelo://app?vid=6d00e3ad-461d-46dc-a418-2daa9b3fc079"},"vehicle_type_id":"4","last_reported":1741806486,"current_range_meters":6000,"station_id":"ce4bhnp2rcd13ifvqgvg","pricing_plan_id":"cebpf4jnsgd1na2vs0mg"},{"bike_id":"21c763d3-ed9d-428d-8a01-ae3af6de39fb","system_id":"levelo_inurba_marseille","lat":43.33077,"lon":5.3894,"is_reserved":false,"is_disabled":false,"rental_uris":{"android":"levelo://app?vid=21c763d3-ed9d-428d-8a01-ae3af6de39fb","ios":"levelo://app?vid=21c763d3-ed9d-428d-8a01-ae3af6de39fb"},"vehicle_type_id":"4","last_reported":1741806486,"current_range_meters":6000,"station_id":"","pricing_plan_id":"cebpf4jnsgd1na2vs0mg"},{"bike_id":"7c25226e-9ca8-4a5f-af3f-246f6b1df853","system_id":"levelo_inurba_marseille","lat":43.2308,"lon":5.35478,"is_reserved":false,"is_disabled":false,"rental_uris":{"android":"levelo://app?vid=7c25226e-9ca8-4a5f-af3f-246f6b1df853","ios":"levelo://app?vid=7c25226e-9ca8-4a5f-af3f-246f6b1df853"},"vehicle_type_id":"4","last_reported":1741806486,"current_range_meters":6000,"station_id":"cpo3342slgdg3j2ifvpg","pricing_plan_id":"cebpf4jnsgd1na2vs0mg"},{"bike_id":"f96d9a83-918f-4943-ba3e-dc728904373c","system_id":"levelo_inurba_marseille","lat":43.29419,"lon":5.38632,"is_reserved":false,"is_disabled":false,"rental_uris":{"android":"levelo://app?vid=f96d9a83-918f-4943-ba3e-dc728904373c","ios":"levelo://app?vid=f96d9a83-918f-4943-ba3e-dc728904373c"},"vehicle_type_id":"4","last_reported":1741806486,"current_range_meters":6000,"station_id":"ce4bh2h2rcd13ifvqdh0","pricing_plan_id":"cebpf4jnsgd1na2vs0mg"},{"bike_id":"5536a3fc-185e-4f2c-8946-37d1937668a5","system_id":"levelo_inurba_marseille","lat":43.30536,"lon":5.38422,"is_reserved":false,"is_disabled":false,"rental_uris":{"android":"levelo://app?vid=5536a3fc-185e-4f2c-8946-37d1937668a5","ios":"levelo://app?vid=5536a3fc-185e-4f2c-8946-37d1937668a5"},"vehicle_type_id":"4","last_reported":1741806486,"current_range_meters":6000,"station_id":"ce4bgg92rcd13ifvqb30","pricing_plan_id":"cebpf4jnsgd1na2vs0mg"},{"bike_id":"a5a47bc8-fe31-4d42-a04a-969e2b0b54a4","system_id":"levelo_inurba_marseille","lat":43.30221,"lon":5.39464,"is_reserved":false,"is_disabled":false,"rental_uris":{"android":"levelo://app?vid=a5a47bc8-fe31-4d42-a04a-969e2b0b54a4","ios":"levelo://app?vid=a5a47bc8-fe31-4d42-a04a-969e2b0b54a4"},"vehicle_type_id":"4","last_reported":1741806486,"current_range_meters":6000,"station_id":"ce4bh0p2rcd13ifvqd70","pricing_plan_id":"cebpf4jnsgd1na2vs0mg"},{"bike_id":"53bbc677-f662-4a74-ab20-889cce9f6bff","system_id":"levelo_inurba_marseille","lat":43.23188,"lon":5.39987,"is_reserved":false,"is_disabled":false,"rental_uris":{"android":"levelo://app?vid=53bbc677-f662-4a74-ab20-889cce9f6bff","ios":"levelo://app?vid=53bbc677-f662-4a74-ab20-889cce9f6bff"},"vehicle_type_id":"4","last_reported":1741806486,"current_range_meters":6400,"station_id":"ce4bhn12rcd13ifvqgqg","pricing_plan_id":"cebpf4jnsgd1na2vs0mg"},{"bike_id":"03198267-b21a-4894-99e1-b55fb461ec23","system_id":"levelo_inurba_marseille","lat":43.28352,"lon":5.38108,"is_reserved":false,"is_disabled":false,"rental_uris":{"android":"levelo://app?vid=03198267-b21a-4894-99e1-b55fb461ec23","ios":"levelo://app?vid=03198267-b21a-4894-99e1-b55fb461ec23"},"vehicle_type_id":"4","last_reported":1741806486,"current_range_meters":6400,"station_id":"ce4bh412rcd13ifvqdr0","pricing_plan_id":"cebpf4jnsgd1na2vs0mg"},{"bike_id":"1854a2b1-dc9f-46ca-8083-0288aa952550","system_id":"levelo_inurba_marseille","lat":43.31356,"lon":5.38498,"is_reserved":false,"is_disabled":false,"rental_uris":{"android":"levelo://app?vid=1854a2b1-dc9f-46ca-8083-0288aa952550","ios":"levelo://app?vid=1854a2b1-dc9f-46ca-8083-0288aa952550"},"vehicle_type_id":"4","last_reported":1741806486,"current_range_meters":6400,"station_id":"ce4bgt92rcd13ifvqcf0","pricing_plan_id":"cebpf4jnsgd1na2vs0mg"},{"bike_id":"ddc4e18c-8f32-414f-b54d-dab0f725381f","system_id":"levelo_inurba_marseille","lat":43.30891,"lon":5.39642,"is_reserved":false,"is_disabled":false,"rental_uris":{"android":"levelo://app?vid=ddc4e18c-8f32-414f-b54d-dab0f725381f","ios":"levelo://app?vid=ddc4e18c-8f32-414f-b54d-dab0f725381f"},"vehicle_type_id":"4","last_reported":1741806486,"current_range_meters":6400,"station_id":"ce4bh012rcd13ifvqcv0","pricing_plan_id":"cebpf4jnsgd1na2vs0mg"},{"bike_id":"b8785a4d-9125-4dcf-9521-8aa540b40cb4","system_id":"levelo_inurba_marseille","lat":43.24791,"lon":5.37474,"is_reserved":false,"is_disabled":false,"rental_uris":{"android":"levelo://app?vid=b8785a4d-9125-4dcf-9521-8aa540b40cb4","ios":"levelo://app?vid=b8785a4d-9125-4dcf-9521-8aa540b40cb4"},"vehicle_type_id":"4","last_reported":1741806486,"current_range_meters":6400,"station_id":"ce4bhgh2rcd13ifvqfb0","pricing_plan_id":"cebpf4jnsgd1na2vs0mg"},{"bike_id":"548caab8-1d2c-4b84-963b-f8217af52e80","system_id":"levelo_inurba_marseille","lat":43.29046,"lon":5.37554,"is_reserved":false,"is_disabled":true,"rental_uris":{"android":"levelo://app?vid=548caab8-1d2c-4b84-963b-f8217af52e80","ios":"levelo://app?vid=548caab8-1d2c-4b84-963b-f8217af52e80"},"vehicle_type_id":"4","last_reported":1741806486,"current_range_meters":6400,"station_id":"ce4bh692rcd13ifvqe90","pricing_plan_id":"cebpf4jnsgd1na2vs0mg"},{"bike_id":"f640465e-8c9e-425a-8e36-08d8d5201bf6","system_id":"levelo_inurba_marseille","lat":43.23194,"lon":5.35535,"is_reserved":false,"is_disabled":false,"rental_uris":{"android":"levelo://app?vid=f640465e-8c9e-425a-8e36-08d8d5201bf6","ios":"levelo://app?vid=f640465e-8c9e-425a-8e36-08d8d5201bf6"},"vehicle_type_id":"4","last_reported":1741806486,"current_range_meters":6400,"station_id":"ce4bhu92rcd13ifvqi70","pricing_plan_id":"cebpf4jnsgd1na2vs0mg"},{"bike_id":"5eef5338-ff8a-466a-999e-0f162b00ff22","system_id":"levelo_inurba_marseille","lat":43.24547,"lon":5.39534,"is_reserved":false,"is_disabled":false,"rental_uris":{"android":"levelo://app?vid=5eef5338-ff8a-466a-999e-0f162b00ff22","ios":"levelo://app?vid=5eef5338-ff8a-466a-999e-0f162b00ff22"},"vehicle_type_id":"4","last_reported":1741806486,"current_range_meters":6400,"station_id":"ce4bhlp2rcd13ifvqgjg","pricing_plan_id":"cebpf4jnsgd1na2vs0mg"},{"bike_id":"4842aa1d-bfa9-45d0-b715-b6d91aa65720","system_id":"levelo_inurba_marseille","lat":43.29267,"lon":5.38433,"is_reserved":false,"is_disabled":false,"rental_uris":{"android":"levelo://app?vid=4842aa1d-bfa9-45d0-b715-b6d91aa65720","ios":"levelo://app?vid=4842aa1d-bfa9-45d0-b715-b6d91aa65720"},"vehicle_type_id":"4","last_reported":1741806486,"current_range_meters":6400,"station_id":"ce4bh692rcd13ifvqea0","pricing_plan_id":"cebpf4jnsgd1na2vs0mg"},{"bike_id":"c47abed3-463e-4702-b23e-85563cf7923d","system_id":"levelo_inurba_marseille","lat":43.31084,"lon":5.42423,"is_reserved":false,"is_disabled":false,"rental_uris":{"android":"levelo://app?vid=c47abed3-463e-4702-b23e-85563cf7923d","ios":"levelo://app?vid=c47abed3-463e-4702-b23e-85563cf7923d"},"vehicle_type_id":"4","last_reported":1741806486,"current_range_meters":6800,"station_id":"ce4bhp92rcd13ifvqhag","pricing_plan_id":"cebpf4jnsgd1na2vs0mg"},{"bike_id":"047a57cc-3a5d-448c-826e-0db94cb6239c","system_id":"levelo_inurba_marseille","lat":43.28665,"lon":5.36372,"is_reserved":false,"is_disabled":false,"rental_uris":{"android":"levelo://app?vid=047a57cc-3a5d-448c-826e-0db94cb6239c","ios":"levelo://app?vid=047a57cc-3a5d-448c-826e-0db94cb6239c"},"vehicle_type_id":"4","last_reported":1741806486,"current_range_meters":6400,"station_id":"ce4bhah2rcd13ifvqej0","pricing_plan_id":"cebpf4jnsgd1na2vs0mg"},{"bike_id":"0413bf20-894d-4a93-a797-b6134ae0d72f","system_id":"levelo_inurba_marseille","lat":43.33047,"lon":5.390448,"is_reserved":false,"is_disabled":false,"rental_uris":{"android":"levelo://app?vid=0413bf20-894d-4a93-a797-b6134ae0d72f","ios":"levelo://app?vid=0413bf20-894d-4a93-a797-b6134ae0d72f"},"vehicle_type_id":"4","last_reported":1741806486,"current_range_meters":6800,"station_id":"ce4bhr92rcd13ifvqhrg","pricing_plan_id":"cebpf4jnsgd1na2vs0mg"},{"bike_id":"5b80e5c7-ad0c-456c-9698-5bb1c39e09be","system_id":"levelo_inurba_marseille","lat":43.29376,"lon":5.37853,"is_reserved":false,"is_disabled":false,"rental_uris":{"android":"levelo://app?vid=5b80e5c7-ad0c-456c-9698-5bb1c39e09be","ios":"levelo://app?vid=5b80e5c7-ad0c-456c-9698-5bb1c39e09be"},"vehicle_type_id":"4","last_reported":1741806486,"current_range_meters":7200,"station_id":"ce4bgjh2rcd13ifvqbf0","pricing_plan_id":"cebpf4jnsgd1na2vs0mg"},{"bike_id":"793b22ce-b12c-4df9-8db0-0bbf3982157e","system_id":"levelo_inurba_marseille","lat":43.3032,"lon":5.39211,"is_reserved":false,"is_disabled":false,"rental_uris":{"android":"levelo://app?vid=793b22ce-b12c-4df9-8db0-0bbf3982157e","ios":"levelo://app?vid=793b22ce-b12c-4df9-8db0-0bbf3982157e"},"vehicle_type_id":"4","last_reported":1741806486,"current_range_meters":6800,"station_id":"ce4bgkh2rcd13ifvqbk0","pricing_plan_id":"cebpf4jnsgd1na2vs0mg"},{"bike_id":"491686d9-e8bc-421b-b9e5-1ce7fb48454d","system_id":"levelo_inurba_marseille","lat":43.29236,"lon":5.37508,"is_reserved":false,"is_disabled":false,"rental_uris":{"android":"levelo://app?vid=491686d9-e8bc-421b-b9e5-1ce7fb48454d","ios":"levelo://app?vid=491686d9-e8bc-421b-b9e5-1ce7fb48454d"},"vehicle_type_id":"4","last_reported":1741806486,"current_range_meters":6800,"station_id":"cki0cbj6b192h4jlfktg","pricing_plan_id":"cebpf4jnsgd1na2vs0mg"},{"bike_id":"d5c6aead-0b4b-49f9-954e-22cf9b9962ba","system_id":"levelo_inurba_marseille","lat":43.31701,"lon":5.37752,"is_reserved":false,"is_disabled":false,"rental_uris":{"android":"levelo://app?vid=d5c6aead-0b4b-49f9-954e-22cf9b9962ba","ios":"levelo://app?vid=d5c6aead-0b4b-49f9-954e-22cf9b9962ba"},"vehicle_type_id":"4","last_reported":1741806486,"current_range_meters":6800,"station_id":"ce4bgth2rcd13ifvqch0","pricing_plan_id":"cebpf4jnsgd1na2vs0mg"},{"bike_id":"29787d47-4407-4140-bead-3f8699d9c1ea","system_id":"levelo_inurba_marseille","lat":43.29263,"lon":5.38459,"is_reserved":false,"is_disabled":false,"rental_uris":{"android":"levelo://app?vid=29787d47-4407-4140-bead-3f8699d9c1ea","ios":"levelo://app?vid=29787d47-4407-4140-bead-3f8699d9c1ea"},"vehicle_type_id":"4","last_reported":1741806486,"current_range_meters":6800,"station_id":"ce4bh692rcd13ifvqea0","pricing_plan_id":"cebpf4jnsgd1na2vs0mg"},{"bike_id":"1014bd52-360c-4243-b8f6-a17ddbb56a81","system_id":"levelo_inurba_marseille","lat":43.28004,"lon":5.41662,"is_reserved":false,"is_disabled":false,"rental_uris":{"android":"levelo://app?vid=1014bd52-360c-4243-b8f6-a17ddbb56a81","ios":"levelo://app?vid=1014bd52-360c-4243-b8f6-a17ddbb56a81"},"vehicle_type_id":"4","last_reported":1741806486,"current_range_meters":6800,"station_id":"ce4bho12rcd13ifvqh1g","pricing_plan_id":"cebpf4jnsgd1na2vs0mg"},{"bike_id":"241d79a7-8164-4ee5-8d3f-2565e2e0b3e8","system_id":"levelo_inurba_marseille","lat":43.31371,"lon":5.37973,"is_reserved":false,"is_disabled":false,"rental_uris":{"android":"levelo://app?vid=241d79a7-8164-4ee5-8d3f-2565e2e0b3e8","ios":"levelo://app?vid=241d79a7-8164-4ee5-8d3f-2565e2e0b3e8"},"vehicle_type_id":"4","last_reported":1741806486,"current_range_meters":6800,"station_id":"","pricing_plan_id":"cebpf4jnsgd1na2vs0mg"},{"bike_id":"8dd79aea-40cd-4b14-bd62-24eb98ee883f","system_id":"levelo_inurba_marseille","lat":43.26362,"lon":5.40139,"is_reserved":false,"is_disabled":false,"rental_uris":{"android":"levelo://app?vid=8dd79aea-40cd-4b14-bd62-24eb98ee883f","ios":"levelo://app?vid=8dd79aea-40cd-4b14-bd62-24eb98ee883f"},"vehicle_type_id":"4","last_reported":1741806486,"current_range_meters":6800,"station_id":"","pricing_plan_id":"cebpf4jnsgd1na2vs0mg"},{"bike_id":"1bb5dae5-2cdb-43ae-b04c-dad911982ded","system_id":"levelo_inurba_marseille","lat":43.25116,"lon":5.40325,"is_reserved":false,"is_disabled":false,"rental_uris":{"android":"levelo://app?vid=1bb5dae5-2cdb-43ae-b04c-dad911982ded","ios":"levelo://app?vid=1bb5dae5-2cdb-43ae-b04c-dad911982ded"},"vehicle_type_id":"4","last_reported":1741806486,"current_range_meters":6800,"station_id":"ce4bhlh2rcd13ifvqgig","pricing_plan_id":"cebpf4jnsgd1na2vs0mg"},{"bike_id":"95c4f609-4057-4688-9b5c-93c1039e1099","system_id":"levelo_inurba_marseille","lat":43.24552,"lon":5.39524,"is_reserved":false,"is_disabled":false,"rental_uris":{"android":"levelo://app?vid=95c4f609-4057-4688-9b5c-93c1039e1099","ios":"levelo://app?vid=95c4f609-4057-4688-9b5c-93c1039e1099"},"vehicle_type_id":"4","last_reported":1741806486,"current_range_meters":6800,"station_id":"ce4bhlp2rcd13ifvqgjg","pricing_plan_id":"cebpf4jnsgd1na2vs0mg"},{"bike_id":"a58f07f0-b33f-4953-ab0c-f29dc5595b36","system_id":"levelo_inurba_marseille","lat":43.29026,"lon":5.3814,"is_reserved":false,"is_disabled":true,"rental_uris":{"android":"levelo://app?vid=a58f07f0-b33f-4953-ab0c-f29dc5595b36","ios":"levelo://app?vid=a58f07f0-b33f-4953-ab0c-f29dc5595b36"},"vehicle_type_id":"4","last_reported":1741806486,"current_range_meters":7200,"station_id":"ce4bh4p2rcd13ifvqe1g","pricing_plan_id":"cebpf4jnsgd1na2vs0mg"},{"bike_id":"fb34a484-872c-43ca-87c3-e65731015eb0","system_id":"levelo_inurba_marseille","lat":43.27231,"lon":5.40971,"is_reserved":false,"is_disabled":false,"rental_uris":{"android":"levelo://app?vid=fb34a484-872c-43ca-87c3-e65731015eb0","ios":"levelo://app?vid=fb34a484-872c-43ca-87c3-e65731015eb0"},"vehicle_type_id":"4","last_reported":1741806486,"current_range_meters":7200,"station_id":"","pricing_plan_id":"cebpf4jnsgd1na2vs0mg"},{"bike_id":"415e7a31-245d-4ead-9f33-dad092a04302","system_id":"levelo_inurba_marseille","lat":43.23062,"lon":5.35488,"is_reserved":false,"is_disabled":false,"rental_uris":{"android":"levelo://app?vid=415e7a31-245d-4ead-9f33-dad092a04302","ios":"levelo://app?vid=415e7a31-245d-4ead-9f33-dad092a04302"},"vehicle_type_id":"4","last_reported":1741806486,"current_range_meters":7200,"station_id":"cpo3342slgdg3j2ifvpg","pricing_plan_id":"cebpf4jnsgd1na2vs0mg"},{"bike_id":"2214eca3-ab97-4506-b860-b288639ca218","system_id":"levelo_inurba_marseille","lat":43.28663,"lon":5.36347,"is_reserved":false,"is_disabled":false,"rental_uris":{"android":"levelo://app?vid=2214eca3-ab97-4506-b860-b288639ca218","ios":"levelo://app?vid=2214eca3-ab97-4506-b860-b288639ca218"},"vehicle_type_id":"4","last_reported":1741806486,"current_range_meters":6000,"station_id":"ce4bhah2rcd13ifvqej0","pricing_plan_id":"cebpf4jnsgd1na2vs0mg"},{"bike_id":"f1c0d483-c580-4378-87bc-d11122fe1b18","system_id":"levelo_inurba_marseille","lat":43.29268,"lon":5.38451,"is_reserved":false,"is_disabled":true,"rental_uris":{"android":"levelo://app?vid=f1c0d483-c580-4378-87bc-d11122fe1b18","ios":"levelo://app?vid=f1c0d483-c580-4378-87bc-d11122fe1b18"},"vehicle_type_id":"4","last_reported":1741806486,"current_range_meters":7200,"station_id":"ce4bh692rcd13ifvqea0","pricing_plan_id":"cebpf4jnsgd1na2vs0mg"},{"bike_id":"da440fc7-ae9a-4b21-83c8-a8e662a14c16","system_id":"levelo_inurba_marseille","lat":43.25485,"lon":5.37654,"is_reserved":false,"is_disabled":true,"rental_uris":{"android":"levelo://app?vid=da440fc7-ae9a-4b21-83c8-a8e662a14c16","ios":"levelo://app?vid=da440fc7-ae9a-4b21-83c8-a8e662a14c16"},"vehicle_type_id":"4","last_reported":1741806486,"current_range_meters":7200,"station_id":"ce4bhh12rcd13ifvqff0","pricing_plan_id":"cebpf4jnsgd1na2vs0mg"},{"bike_id":"6487222c-c71e-47a5-ad88-93e08ff70bd9","system_id":"levelo_inurba_marseille","lat":43.28352,"lon":5.38108,"is_reserved":false,"is_disabled":false,"rental_uris":{"android":"levelo://app?vid=6487222c-c71e-47a5-ad88-93e08ff70bd9","ios":"levelo://app?vid=6487222c-c71e-47a5-ad88-93e08ff70bd9"},"vehicle_type_id":"4","last_reported":1741806486,"current_range_meters":7200,"station_id":"ce4bh412rcd13ifvqdr0","pricing_plan_id":"cebpf4jnsgd1na2vs0mg"},{"bike_id":"2d53a75d-876d-46ef-b452-e895eb247b89","system_id":"levelo_inurba_marseille","lat":43.30208,"lon":5.39463,"is_reserved":false,"is_disabled":false,"rental_uris":{"android":"levelo://app?vid=2d53a75d-876d-46ef-b452-e895eb247b89","ios":"levelo://app?vid=2d53a75d-876d-46ef-b452-e895eb247b89"},"vehicle_type_id":"4","last_reported":1741806486,"current_range_meters":7200,"station_id":"ce4bh0p2rcd13ifvqd70","pricing_plan_id":"cebpf4jnsgd1na2vs0mg"},{"bike_id":"4477a564-448e-4e63-956c-1454e04801b6","system_id":"levelo_inurba_marseille","lat":43.3044,"lon":5.38885,"is_reserved":false,"is_disabled":false,"rental_uris":{"android":"levelo://app?vid=4477a564-448e-4e63-956c-1454e04801b6","ios":"levelo://app?vid=4477a564-448e-4e63-956c-1454e04801b6"},"vehicle_type_id":"4","last_reported":1741806486,"current_range_meters":7200,"station_id":"ce4bgk12rcd13ifvqbi0","pricing_plan_id":"cebpf4jnsgd1na2vs0mg"},{"bike_id":"83ce6271-ffa3-4e21-8aee-eef24c3cb1c8","system_id":"levelo_inurba_marseille","lat":43.25866,"lon":5.39902,"is_reserved":false,"is_disabled":false,"rental_uris":{"android":"levelo://app?vid=83ce6271-ffa3-4e21-8aee-eef24c3cb1c8","ios":"levelo://app?vid=83ce6271-ffa3-4e21-8aee-eef24c3cb1c8"},"vehicle_type_id":"4","last_reported":1741806486,"current_range_meters":7200,"station_id":"ce4bhl92rcd13ifvqghg","pricing_plan_id":"cebpf4jnsgd1na2vs0mg"},{"bike_id":"985ba300-542a-4309-8532-765e28bc8981","system_id":"levelo_inurba_marseille","lat":43.30828,"lon":5.36948,"is_reserved":false,"is_disabled":false,"rental_uris":{"android":"levelo://app?vid=985ba300-542a-4309-8532-765e28bc8981","ios":"levelo://app?vid=985ba300-542a-4309-8532-765e28bc8981"},"vehicle_type_id":"4","last_reported":1741806486,"current_range_meters":7200,"station_id":"","pricing_plan_id":"cebpf4jnsgd1na2vs0mg"},{"bike_id":"e12be538-6dde-4604-98c7-f66a323a5270","system_id":"levelo_inurba_marseille","lat":43.2306,"lon":5.35491,"is_reserved":false,"is_disabled":false,"rental_uris":{"android":"levelo://app?vid=e12be538-6dde-4604-98c7-f66a323a5270","ios":"levelo://app?vid=e12be538-6dde-4604-98c7-f66a323a5270"},"vehicle_type_id":"4","last_reported":1741806486,"current_range_meters":7200,"station_id":"cpo3342slgdg3j2ifvpg","pricing_plan_id":"cebpf4jnsgd1na2vs0mg"},{"bike_id":"feb4b9df-ca5a-441d-8892-405597e7da99","system_id":"levelo_inurba_marseille","lat":43.23052,"lon":5.35499,"is_reserved":false,"is_disabled":false,"rental_uris":{"android":"levelo://app?vid=feb4b9df-ca5a-441d-8892-405597e7da99","ios":"levelo://app?vid=feb4b9df-ca5a-441d-8892-405597e7da99"},"vehicle_type_id":"4","last_reported":1741806486,"current_range_meters":7200,"station_id":"cpo3342slgdg3j2ifvpg","pricing_plan_id":"cebpf4jnsgd1na2vs0mg"},{"bike_id":"3f282989-42ee-44e8-a645-e045c3fae184","system_id":"levelo_inurba_marseille","lat":43.2962,"lon":5.3717,"is_reserved":false,"is_disabled":false,"rental_uris":{"android":"levelo://app?vid=3f282989-42ee-44e8-a645-e045c3fae184","ios":"levelo://app?vid=3f282989-42ee-44e8-a645-e045c3fae184"},"vehicle_type_id":"4","last_reported":1741806486,"current_range_meters":8400,"station_id":"ce4bgnh2rcd13ifvqc0g","pricing_plan_id":"cebpf4jnsgd1na2vs0mg"},{"bike_id":"ed596a7c-cda2-45ef-b25e-62c3bde0748a","system_id":"levelo_inurba_marseille","lat":43.24996,"lon":5.38924,"is_reserved":false,"is_disabled":false,"rental_uris":{"android":"levelo://app?vid=ed596a7c-cda2-45ef-b25e-62c3bde0748a","ios":"levelo://app?vid=ed596a7c-cda2-45ef-b25e-62c3bde0748a"},"vehicle_type_id":"4","last_reported":1741806486,"current_range_meters":8000,"station_id":"ce4bhgp2rcd13ifvqfd0","pricing_plan_id":"cebpf4jnsgd1na2vs0mg"},{"bike_id":"efab6700-508c-45e7-a250-bfb1d4670a97","system_id":"levelo_inurba_marseille","lat":43.31323,"lon":5.39707,"is_reserved":false,"is_disabled":false,"rental_uris":{"android":"levelo://app?vid=efab6700-508c-45e7-a250-bfb1d4670a97","ios":"levelo://app?vid=efab6700-508c-45e7-a250-bfb1d4670a97"},"vehicle_type_id":"4","last_reported":1741806486,"current_range_meters":8000,"station_id":"ce4bgvp2rcd13ifvqcu0","pricing_plan_id":"cebpf4jnsgd1na2vs0mg"},{"bike_id":"72de4c85-7223-490f-9219-5d9d46436df5","system_id":"levelo_inurba_marseille","lat":43.33164,"lon":5.39443,"is_reserved":false,"is_disabled":false,"rental_uris":{"android":"levelo://app?vid=72de4c85-7223-490f-9219-5d9d46436df5","ios":"levelo://app?vid=72de4c85-7223-490f-9219-5d9d46436df5"},"vehicle_type_id":"4","last_reported":1741806486,"current_range_meters":8000,"station_id":"","pricing_plan_id":"cebpf4jnsgd1na2vs0mg"},{"bike_id":"86f9f19c-681c-4714-b59d-f5798e2ac606","system_id":"levelo_inurba_marseille","lat":43.27196,"lon":5.4098,"is_reserved":false,"is_disabled":false,"rental_uris":{"android":"levelo://app?vid=86f9f19c-681c-4714-b59d-f5798e2ac606","ios":"levelo://app?vid=86f9f19c-681c-4714-b59d-f5798e2ac606"},"vehicle_type_id":"4","last_reported":1741806486,"current_range_meters":8000,"station_id":"ce4bhl12rcd13ifvqgf0","pricing_plan_id":"cebpf4jnsgd1na2vs0mg"},{"bike_id":"3877b083-ed6b-4ce2-b65b-9131cda4166e","system_id":"levelo_inurba_marseille","lat":43.29021,"lon":5.3812,"is_reserved":false,"is_disabled":false,"rental_uris":{"android":"levelo://app?vid=3877b083-ed6b-4ce2-b65b-9131cda4166e","ios":"levelo://app?vid=3877b083-ed6b-4ce2-b65b-9131cda4166e"},"vehicle_type_id":"4","last_reported":1741806486,"current_range_meters":8000,"station_id":"ce4bh4p2rcd13ifvqe1g","pricing_plan_id":"cebpf4jnsgd1na2vs0mg"},{"bike_id":"9db9c49f-21ae-4268-9b2a-51a2fc366dc9","system_id":"levelo_inurba_marseille","lat":43.29007,"lon":5.368657,"is_reserved":false,"is_disabled":false,"rental_uris":{"android":"levelo://app?vid=9db9c49f-21ae-4268-9b2a-51a2fc366dc9","ios":"levelo://app?vid=9db9c49f-21ae-4268-9b2a-51a2fc366dc9"},"vehicle_type_id":"4","last_reported":1741806486,"current_range_meters":8000,"station_id":"ce4bhap2rcd13ifvqek0","pricing_plan_id":"cebpf4jnsgd1na2vs0mg"},{"bike_id":"a01bb465-601b-45ea-a57f-991eeaa334fb","system_id":"levelo_inurba_marseille","lat":43.28678,"lon":5.38663,"is_reserved":false,"is_disabled":false,"rental_uris":{"android":"levelo://app?vid=a01bb465-601b-45ea-a57f-991eeaa334fb","ios":"levelo://app?vid=a01bb465-601b-45ea-a57f-991eeaa334fb"},"vehicle_type_id":"4","last_reported":1741806486,"current_range_meters":8000,"station_id":"ce4bh492rcd13ifvqdug","pricing_plan_id":"cebpf4jnsgd1na2vs0mg"},{"bike_id":"f0b77c38-1b7e-4ab3-9c62-552cff203eee","system_id":"levelo_inurba_marseille","lat":43.25829,"lon":5.39429,"is_reserved":false,"is_disabled":false,"rental_uris":{"android":"levelo://app?vid=f0b77c38-1b7e-4ab3-9c62-552cff203eee","ios":"levelo://app?vid=f0b77c38-1b7e-4ab3-9c62-552cff203eee"},"vehicle_type_id":"4","last_reported":1741806486,"current_range_meters":8400,"station_id":"ce4bhip2rcd13ifvqft0","pricing_plan_id":"cebpf4jnsgd1na2vs0mg"},{"bike_id":"b5cc8f39-c01a-433b-9f81-444b0cc2df68","system_id":"levelo_inurba_marseille","lat":43.26575,"lon":5.38995,"is_reserved":false,"is_disabled":false,"rental_uris":{"android":"levelo://app?vid=b5cc8f39-c01a-433b-9f81-444b0cc2df68","ios":"levelo://app?vid=b5cc8f39-c01a-433b-9f81-444b0cc2df68"},"vehicle_type_id":"4","last_reported":1741806486,"current_range_meters":8000,"station_id":"ce4bhe12rcd13ifvqf30","pricing_plan_id":"cebpf4jnsgd1na2vs0mg"},{"bike_id":"a2a8c046-a406-4f40-9459-4fb4f5f7e71a","system_id":"levelo_inurba_marseille","lat":43.265057,"lon":5.390913,"is_reserved":false,"is_disabled":false,"rental_uris":{"android":"levelo://app?vid=a2a8c046-a406-4f40-9459-4fb4f5f7e71a","ios":"levelo://app?vid=a2a8c046-a406-4f40-9459-4fb4f5f7e71a"},"vehicle_type_id":"4","last_reported":1741806486,"current_range_meters":8000,"station_id":"ce4bhip2rcd13ifvqft0","pricing_plan_id":"cebpf4jnsgd1na2vs0mg"},{"bike_id":"7a187301-a7c5-4037-8f37-5b7c3770439a","system_id":"levelo_inurba_marseille","lat":43.29794,"lon":5.38135,"is_reserved":false,"is_disabled":false,"rental_uris":{"android":"levelo://app?vid=7a187301-a7c5-4037-8f37-5b7c3770439a","ios":"levelo://app?vid=7a187301-a7c5-4037-8f37-5b7c3770439a"},"vehicle_type_id":"4","last_reported":1741806486,"current_range_meters":8000,"station_id":"ce4bgip2rcd13ifvqbb0","pricing_plan_id":"cebpf4jnsgd1na2vs0mg"},{"bike_id":"05388ace-665a-4114-a828-939b708a2589","system_id":"levelo_inurba_marseille","lat":43.23183,"lon":5.39988,"is_reserved":false,"is_disabled":false,"rental_uris":{"android":"levelo://app?vid=05388ace-665a-4114-a828-939b708a2589","ios":"levelo://app?vid=05388ace-665a-4114-a828-939b708a2589"},"vehicle_type_id":"4","last_reported":1741806486,"current_range_meters":8000,"station_id":"ce4bhn12rcd13ifvqgqg","pricing_plan_id":"cebpf4jnsgd1na2vs0mg"},{"bike_id":"cf16dec3-3347-40cc-be03-a3cd79c5b809","system_id":"levelo_inurba_marseille","lat":43.29418,"lon":5.38634,"is_reserved":false,"is_disabled":false,"rental_uris":{"android":"levelo://app?vid=cf16dec3-3347-40cc-be03-a3cd79c5b809","ios":"levelo://app?vid=cf16dec3-3347-40cc-be03-a3cd79c5b809"},"vehicle_type_id":"4","last_reported":1741806486,"current_range_meters":8000,"station_id":"ce4bh2h2rcd13ifvqdh0","pricing_plan_id":"cebpf4jnsgd1na2vs0mg"},{"bike_id":"0c35096b-cdf6-486b-aa23-eb8aa749dacd","system_id":"levelo_inurba_marseille","lat":43.31072,"lon":5.38344,"is_reserved":false,"is_disabled":false,"rental_uris":{"android":"levelo://app?vid=0c35096b-cdf6-486b-aa23-eb8aa749dacd","ios":"levelo://app?vid=0c35096b-cdf6-486b-aa23-eb8aa749dacd"},"vehicle_type_id":"4","last_reported":1741806486,"current_range_meters":8400,"station_id":"ce4bgv92rcd13ifvqcr0","pricing_plan_id":"cebpf4jnsgd1na2vs0mg"},{"bike_id":"2931d81f-abb3-45b8-9224-dc3fce2fae31","system_id":"levelo_inurba_marseille","lat":43.32387,"lon":5.36692,"is_reserved":false,"is_disabled":false,"rental_uris":{"android":"levelo://app?vid=2931d81f-abb3-45b8-9224-dc3fce2fae31","ios":"levelo://app?vid=2931d81f-abb3-45b8-9224-dc3fce2fae31"},"vehicle_type_id":"4","last_reported":1741806486,"current_range_meters":8400,"station_id":"ce4bhsh2rcd13ifvqi2g","pricing_plan_id":"cebpf4jnsgd1na2vs0mg"},{"bike_id":"4bd1d516-27fc-4a7a-a82b-0dd452c88ab3","system_id":"levelo_inurba_marseille","lat":43.27501,"lon":5.42445,"is_reserved":false,"is_disabled":false,"rental_uris":{"android":"levelo://app?vid=4bd1d516-27fc-4a7a-a82b-0dd452c88ab3","ios":"levelo://app?vid=4bd1d516-27fc-4a7a-a82b-0dd452c88ab3"},"vehicle_type_id":"4","last_reported":1741806486,"current_range_meters":8400,"station_id":"ce4bhn92rcd13ifvqgrg","pricing_plan_id":"cebpf4jnsgd1na2vs0mg"},{"bike_id":"9b9a2ee3-efd2-44e9-97ae-9a4b19ec3ff6","system_id":"levelo_inurba_marseille","lat":43.2926,"lon":5.37632,"is_reserved":false,"is_disabled":false,"rental_uris":{"android":"levelo://app?vid=9b9a2ee3-efd2-44e9-97ae-9a4b19ec3ff6","ios":"levelo://app?vid=9b9a2ee3-efd2-44e9-97ae-9a4b19ec3ff6"},"vehicle_type_id":"4","last_reported":1741806486,"current_range_meters":8400,"station_id":"ce4bgi12rcd13ifvqb80","pricing_plan_id":"cebpf4jnsgd1na2vs0mg"},{"bike_id":"c4df4535-7d31-495a-82fb-c042b3676ebe","system_id":"levelo_inurba_marseille","lat":43.32345,"lon":5.40625,"is_reserved":false,"is_disabled":false,"rental_uris":{"android":"levelo://app?vid=c4df4535-7d31-495a-82fb-c042b3676ebe","ios":"levelo://app?vid=c4df4535-7d31-495a-82fb-c042b3676ebe"},"vehicle_type_id":"4","last_reported":1741806486,"current_range_meters":8400,"station_id":"ce4bhq92rcd13ifvqhjg","pricing_plan_id":"cebpf4jnsgd1na2vs0mg"},{"bike_id":"636e5dd0-2505-46b3-a251-5d1c9b02a0a7","system_id":"levelo_inurba_marseille","lat":43.29918,"lon":5.3814,"is_reserved":false,"is_disabled":false,"rental_uris":{"android":"levelo://app?vid=636e5dd0-2505-46b3-a251-5d1c9b02a0a7","ios":"levelo://app?vid=636e5dd0-2505-46b3-a251-5d1c9b02a0a7"},"vehicle_type_id":"4","last_reported":1741806486,"current_range_meters":8400,"station_id":"ce4bgj12rcd13ifvqbc0","pricing_plan_id":"cebpf4jnsgd1na2vs0mg"},{"bike_id":"ed99b5a4-565a-48f2-a378-7a7756ae714a","system_id":"levelo_inurba_marseille","lat":43.24544,"lon":5.39523,"is_reserved":false,"is_disabled":false,"rental_uris":{"android":"levelo://app?vid=ed99b5a4-565a-48f2-a378-7a7756ae714a","ios":"levelo://app?vid=ed99b5a4-565a-48f2-a378-7a7756ae714a"},"vehicle_type_id":"4","last_reported":1741806486,"current_range_meters":8400,"station_id":"ce4bhlp2rcd13ifvqgjg","pricing_plan_id":"cebpf4jnsgd1na2vs0mg"},{"bike_id":"c1883f69-20d3-4090-b7ad-cadabe4aa4fd","system_id":"levelo_inurba_marseille","lat":43.25868,"lon":5.39899,"is_reserved":false,"is_disabled":false,"rental_uris":{"android":"levelo://app?vid=c1883f69-20d3-4090-b7ad-cadabe4aa4fd","ios":"levelo://app?vid=c1883f69-20d3-4090-b7ad-cadabe4aa4fd"},"vehicle_type_id":"4","last_reported":1741806486,"current_range_meters":8400,"station_id":"ce4bhl92rcd13ifvqghg","pricing_plan_id":"cebpf4jnsgd1na2vs0mg"},{"bike_id":"c967c8d4-9c34-403d-819c-2907716cb172","system_id":"levelo_inurba_marseille","lat":43.31116,"lon":5.37771,"is_reserved":false,"is_disabled":false,"rental_uris":{"android":"levelo://app?vid=c967c8d4-9c34-403d-819c-2907716cb172","ios":"levelo://app?vid=c967c8d4-9c34-403d-819c-2907716cb172"},"vehicle_type_id":"4","last_reported":1741806486,"current_range_meters":8400,"station_id":"ce4bgt92rcd13ifvqcg0","pricing_plan_id":"cebpf4jnsgd1na2vs0mg"},{"bike_id":"66045fb5-9617-4f1d-8d01-96efa06c588b","system_id":"levelo_inurba_marseille","lat":43.29334,"lon":5.37092,"is_reserved":false,"is_disabled":false,"rental_uris":{"android":"levelo://app?vid=66045fb5-9617-4f1d-8d01-96efa06c588b","ios":"levelo://app?vid=66045fb5-9617-4f1d-8d01-96efa06c588b"},"vehicle_type_id":"4","last_reported":1741806486,"current_range_meters":8800,"station_id":"","pricing_plan_id":"cebpf4jnsgd1na2vs0mg"},{"bike_id":"058385e1-5fb7-45d6-a2f7-25ef6aa0f251","system_id":"levelo_inurba_marseille","lat":43.25002,"lon":5.38921,"is_reserved":false,"is_disabled":false,"rental_uris":{"android":"levelo://app?vid=058385e1-5fb7-45d6-a2f7-25ef6aa0f251","ios":"levelo://app?vid=058385e1-5fb7-45d6-a2f7-25ef6aa0f251"},"vehicle_type_id":"4","last_reported":1741806486,"current_range_meters":8800,"station_id":"ce4bhgp2rcd13ifvqfd0","pricing_plan_id":"cebpf4jnsgd1na2vs0mg"},{"bike_id":"8b81d60b-5885-4ec4-8c6d-ff9abb4a1514","system_id":"levelo_inurba_marseille","lat":43.27847,"lon":5.39202,"is_reserved":false,"is_disabled":false,"rental_uris":{"android":"levelo://app?vid=8b81d60b-5885-4ec4-8c6d-ff9abb4a1514","ios":"levelo://app?vid=8b81d60b-5885-4ec4-8c6d-ff9abb4a1514"},"vehicle_type_id":"4","last_reported":1741806486,"current_range_meters":8800,"station_id":"ce4bhjp2rcd13ifvqga0","pricing_plan_id":"cebpf4jnsgd1na2vs0mg"},{"bike_id":"385dd9cb-1d33-48e9-8250-88818c623a92","system_id":"levelo_inurba_marseille","lat":43.26063,"lon":5.39372,"is_reserved":false,"is_disabled":false,"rental_uris":{"android":"levelo://app?vid=385dd9cb-1d33-48e9-8250-88818c623a92","ios":"levelo://app?vid=385dd9cb-1d33-48e9-8250-88818c623a92"},"vehicle_type_id":"4","last_reported":1741806486,"current_range_meters":8800,"station_id":"ce4bhh92rcd13ifvqfj0","pricing_plan_id":"cebpf4jnsgd1na2vs0mg"},{"bike_id":"b9ef607e-fa91-40d6-951e-75aad2302aad","system_id":"levelo_inurba_marseille","lat":43.29533,"lon":5.38542,"is_reserved":false,"is_disabled":false,"rental_uris":{"android":"levelo://app?vid=b9ef607e-fa91-40d6-951e-75aad2302aad","ios":"levelo://app?vid=b9ef607e-fa91-40d6-951e-75aad2302aad"},"vehicle_type_id":"4","last_reported":1741806486,"current_range_meters":8800,"station_id":"ce4bgih2rcd13ifvqba0","pricing_plan_id":"cebpf4jnsgd1na2vs0mg"},{"bike_id":"29845dc5-37a0-4fe4-ad83-a244b4c5c8a7","system_id":"levelo_inurba_marseille","lat":43.28152,"lon":5.42663,"is_reserved":false,"is_disabled":false,"rental_uris":{"android":"levelo://app?vid=29845dc5-37a0-4fe4-ad83-a244b4c5c8a7","ios":"levelo://app?vid=29845dc5-37a0-4fe4-ad83-a244b4c5c8a7"},"vehicle_type_id":"4","last_reported":1741806486,"current_range_meters":8800,"station_id":"ce4bhnh2rcd13ifvqgug","pricing_plan_id":"cebpf4jnsgd1na2vs0mg"},{"bike_id":"8dee66dd-a753-4e90-9df0-a75f60b0d66f","system_id":"levelo_inurba_marseille","lat":43.28566,"lon":5.42501,"is_reserved":false,"is_disabled":false,"rental_uris":{"android":"levelo://app?vid=8dee66dd-a753-4e90-9df0-a75f60b0d66f","ios":"levelo://app?vid=8dee66dd-a753-4e90-9df0-a75f60b0d66f"},"vehicle_type_id":"4","last_reported":1741806486,"current_range_meters":8800,"station_id":"","pricing_plan_id":"cebpf4jnsgd1na2vs0mg"},{"bike_id":"83224bb8-6587-4311-a15c-507d5eda2ac7","system_id":"levelo_inurba_marseille","lat":43.30135,"lon":5.39859,"is_reserved":false,"is_disabled":false,"rental_uris":{"android":"levelo://app?vid=83224bb8-6587-4311-a15c-507d5eda2ac7","ios":"levelo://app?vid=83224bb8-6587-4311-a15c-507d5eda2ac7"},"vehicle_type_id":"4","last_reported":1741806486,"current_range_meters":8800,"station_id":"ce4bh0h2rcd13ifvqd40","pricing_plan_id":"cebpf4jnsgd1na2vs0mg"},{"bike_id":"00afd6f3-d744-4853-9368-fbeaa4c8fd09","system_id":"levelo_inurba_marseille","lat":43.31331,"lon":5.39691,"is_reserved":false,"is_disabled":false,"rental_uris":{"android":"levelo://app?vid=00afd6f3-d744-4853-9368-fbeaa4c8fd09","ios":"levelo://app?vid=00afd6f3-d744-4853-9368-fbeaa4c8fd09"},"vehicle_type_id":"4","last_reported":1741806486,"current_range_meters":8800,"station_id":"ce4bgvp2rcd13ifvqcu0","pricing_plan_id":"cebpf4jnsgd1na2vs0mg"},{"bike_id":"b70ce7ef-8969-4901-8934-5513f8055e43","system_id":"levelo_inurba_marseille","lat":43.27835,"lon":5.39192,"is_reserved":false,"is_disabled":false,"rental_uris":{"android":"levelo://app?vid=b70ce7ef-8969-4901-8934-5513f8055e43","ios":"levelo://app?vid=b70ce7ef-8969-4901-8934-5513f8055e43"},"vehicle_type_id":"4","last_reported":1741806486,"current_range_meters":8800,"station_id":"ce4bhjp2rcd13ifvqga0","pricing_plan_id":"cebpf4jnsgd1na2vs0mg"},{"bike_id":"03fcef79-f017-4d15-a10d-891c5cd96db2","system_id":"levelo_inurba_marseille","lat":43.2306,"lon":5.35491,"is_reserved":false,"is_disabled":false,"rental_uris":{"android":"levelo://app?vid=03fcef79-f017-4d15-a10d-891c5cd96db2","ios":"levelo://app?vid=03fcef79-f017-4d15-a10d-891c5cd96db2"},"vehicle_type_id":"4","last_reported":1741806486,"current_range_meters":8800,"station_id":"cpo3342slgdg3j2ifvpg","pricing_plan_id":"cebpf4jnsgd1na2vs0mg"},{"bike_id":"f829a819-671e-4b71-9c22-56c5f8047725","system_id":"levelo_inurba_marseille","lat":43.3234,"lon":5.36571,"is_reserved":false,"is_disabled":false,"rental_uris":{"android":"levelo://app?vid=f829a819-671e-4b71-9c22-56c5f8047725","ios":"levelo://app?vid=f829a819-671e-4b71-9c22-56c5f8047725"},"vehicle_type_id":"4","last_reported":1741806486,"current_range_meters":8800,"station_id":"","pricing_plan_id":"cebpf4jnsgd1na2vs0mg"},{"bike_id":"7b0bb834-a106-42e8-a213-74637ab9b337","system_id":"levelo_inurba_marseille","lat":43.27835,"lon":5.39207,"is_reserved":false,"is_disabled":false,"rental_uris":{"android":"levelo://app?vid=7b0bb834-a106-42e8-a213-74637ab9b337","ios":"levelo://app?vid=7b0bb834-a106-42e8-a213-74637ab9b337"},"vehicle_type_id":"4","last_reported":1741806486,"current_range_meters":9200,"station_id":"ce4bhjp2rcd13ifvqga0","pricing_plan_id":"cebpf4jnsgd1na2vs0mg"},{"bike_id":"d1e50db5-7e88-4e01-bfc2-d93a9254c171","system_id":"levelo_inurba_marseille","lat":43.23964,"lon":5.36638,"is_reserved":false,"is_disabled":false,"rental_uris":{"android":"levelo://app?vid=d1e50db5-7e88-4e01-bfc2-d93a9254c171","ios":"levelo://app?vid=d1e50db5-7e88-4e01-bfc2-d93a9254c171"},"vehicle_type_id":"4","last_reported":1741806486,"current_range_meters":9200,"station_id":"ce4bhi12rcd13ifvqfp0","pricing_plan_id":"cebpf4jnsgd1na2vs0mg"},{"bike_id":"f076f6f7-e4b4-48be-92db-c2ec27c500f6","system_id":"levelo_inurba_marseille","lat":43.23191,"lon":5.40029,"is_reserved":false,"is_disabled":false,"rental_uris":{"android":"levelo://app?vid=f076f6f7-e4b4-48be-92db-c2ec27c500f6","ios":"levelo://app?vid=f076f6f7-e4b4-48be-92db-c2ec27c500f6"},"vehicle_type_id":"4","last_reported":1741806486,"current_range_meters":9200,"station_id":"ce4bhn12rcd13ifvqgqg","pricing_plan_id":"cebpf4jnsgd1na2vs0mg"},{"bike_id":"ea665875-cfab-4d56-94c3-21383a0a9845","system_id":"levelo_inurba_marseille","lat":43.29801,"lon":5.40393,"is_reserved":false,"is_disabled":false,"rental_uris":{"android":"levelo://app?vid=ea665875-cfab-4d56-94c3-21383a0a9845","ios":"levelo://app?vid=ea665875-cfab-4d56-94c3-21383a0a9845"},"vehicle_type_id":"4","last_reported":1741806486,"current_range_meters":10000,"station_id":"ce4bh112rcd13ifvqd90","pricing_plan_id":"cebpf4jnsgd1na2vs0mg"},{"bike_id":"8c97ad8b-abfa-412e-8a91-72b94da39ac5","system_id":"levelo_inurba_marseille","lat":43.31711,"lon":5.42406,"is_reserved":false,"is_disabled":false,"rental_uris":{"android":"levelo://app?vid=8c97ad8b-abfa-412e-8a91-72b94da39ac5","ios":"levelo://app?vid=8c97ad8b-abfa-412e-8a91-72b94da39ac5"},"vehicle_type_id":"4","last_reported":1741806486,"current_range_meters":9200,"station_id":"ce4bhp92rcd13ifvqhbg","pricing_plan_id":"cebpf4jnsgd1na2vs0mg"},{"bike_id":"707f97a7-32db-422b-bfa8-ef8d193a1bb4","system_id":"levelo_inurba_marseille","lat":43.22932,"lon":5.35378,"is_reserved":false,"is_disabled":false,"rental_uris":{"android":"levelo://app?vid=707f97a7-32db-422b-bfa8-ef8d193a1bb4","ios":"levelo://app?vid=707f97a7-32db-422b-bfa8-ef8d193a1bb4"},"vehicle_type_id":"4","last_reported":1741806486,"current_range_meters":9200,"station_id":"cpo3532slgdg3j2ikp40","pricing_plan_id":"cebpf4jnsgd1na2vs0mg"},{"bike_id":"aeca8d61-61f7-41ab-a0ef-f49a44bca5c8","system_id":"levelo_inurba_marseille","lat":43.29013,"lon":5.35565,"is_reserved":false,"is_disabled":true,"rental_uris":{"android":"levelo://app?vid=aeca8d61-61f7-41ab-a0ef-f49a44bca5c8","ios":"levelo://app?vid=aeca8d61-61f7-41ab-a0ef-f49a44bca5c8"},"vehicle_type_id":"4","last_reported":1741806486,"current_range_meters":9200,"station_id":"ce4bhb92rcd13ifvqen0","pricing_plan_id":"cebpf4jnsgd1na2vs0mg"},{"bike_id":"ba24594a-7700-4799-b6f2-d711d1af9e8a","system_id":"levelo_inurba_marseille","lat":43.29028,"lon":5.38651,"is_reserved":false,"is_disabled":false,"rental_uris":{"android":"levelo://app?vid=ba24594a-7700-4799-b6f2-d711d1af9e8a","ios":"levelo://app?vid=ba24594a-7700-4799-b6f2-d711d1af9e8a"},"vehicle_type_id":"4","last_reported":1741806486,"current_range_meters":9200,"station_id":"ce4bh4p2rcd13ifvqe0g","pricing_plan_id":"cebpf4jnsgd1na2vs0mg"},{"bike_id":"2f942e46-7da9-4810-803f-d599c2a3d7af","system_id":"levelo_inurba_marseille","lat":43.30128,"lon":5.38779,"is_reserved":false,"is_disabled":false,"rental_uris":{"android":"levelo://app?vid=2f942e46-7da9-4810-803f-d599c2a3d7af","ios":"levelo://app?vid=2f942e46-7da9-4810-803f-d599c2a3d7af"},"vehicle_type_id":"4","last_reported":1741806486,"current_range_meters":9200,"station_id":"ce4bghh2rcd13ifvqb60","pricing_plan_id":"cebpf4jnsgd1na2vs0mg"},{"bike_id":"8d93327b-4c27-4905-8185-af00d21521bf","system_id":"levelo_inurba_marseille","lat":43.28418,"lon":5.37508,"is_reserved":false,"is_disabled":false,"rental_uris":{"android":"levelo://app?vid=8d93327b-4c27-4905-8185-af00d21521bf","ios":"levelo://app?vid=8d93327b-4c27-4905-8185-af00d21521bf"},"vehicle_type_id":"4","last_reported":1741806486,"current_range_meters":9200,"station_id":"ce4bh412rcd13ifvqds0","pricing_plan_id":"cebpf4jnsgd1na2vs0mg"},{"bike_id":"6190eac7-4d69-4aee-8885-569caf678aef","system_id":"levelo_inurba_marseille","lat":43.25772,"lon":5.41093,"is_reserved":false,"is_disabled":false,"rental_uris":{"android":"levelo://app?vid=6190eac7-4d69-4aee-8885-569caf678aef","ios":"levelo://app?vid=6190eac7-4d69-4aee-8885-569caf678aef"},"vehicle_type_id":"4","last_reported":1741806486,"current_range_meters":9200,"station_id":"ce4bhkp2rcd13ifvqgd0","pricing_plan_id":"cebpf4jnsgd1na2vs0mg"},{"bike_id":"6a33e1fa-b9b4-449a-9f45-921a95bb6e00","system_id":"levelo_inurba_marseille","lat":43.28683,"lon":5.3868,"is_reserved":false,"is_disabled":false,"rental_uris":{"android":"levelo://app?vid=6a33e1fa-b9b4-449a-9f45-921a95bb6e00","ios":"levelo://app?vid=6a33e1fa-b9b4-449a-9f45-921a95bb6e00"},"vehicle_type_id":"4","last_reported":1741806486,"current_range_meters":9200,"station_id":"ce4bh492rcd13ifvqdug","pricing_plan_id":"cebpf4jnsgd1na2vs0mg"},{"bike_id":"459fa484-6061-4cf3-8db3-46e1a48f28e2","system_id":"levelo_inurba_marseille","lat":43.29538,"lon":5.38547,"is_reserved":false,"is_disabled":false,"rental_uris":{"android":"levelo://app?vid=459fa484-6061-4cf3-8db3-46e1a48f28e2","ios":"levelo://app?vid=459fa484-6061-4cf3-8db3-46e1a48f28e2"},"vehicle_type_id":"4","last_reported":1741806486,"current_range_meters":9600,"station_id":"ce4bgih2rcd13ifvqba0","pricing_plan_id":"cebpf4jnsgd1na2vs0mg"},{"bike_id":"a4ce6389-69c8-41eb-a2cb-27e113df5153","system_id":"levelo_inurba_marseille","lat":43.28615,"lon":5.35091,"is_reserved":false,"is_disabled":false,"rental_uris":{"android":"levelo://app?vid=a4ce6389-69c8-41eb-a2cb-27e113df5153","ios":"levelo://app?vid=a4ce6389-69c8-41eb-a2cb-27e113df5153"},"vehicle_type_id":"4","last_reported":1741806486,"current_range_meters":9600,"station_id":"ce4bhch2rcd13ifvqeug","pricing_plan_id":"cebpf4jnsgd1na2vs0mg"},{"bike_id":"36bddcdc-c411-46a0-8ac4-4b0f8a44c7c1","system_id":"levelo_inurba_marseille","lat":43.29033,"lon":5.38642,"is_reserved":false,"is_disabled":false,"rental_uris":{"android":"levelo://app?vid=36bddcdc-c411-46a0-8ac4-4b0f8a44c7c1","ios":"levelo://app?vid=36bddcdc-c411-46a0-8ac4-4b0f8a44c7c1"},"vehicle_type_id":"4","last_reported":1741806486,"current_range_meters":9600,"station_id":"ce4bh4p2rcd13ifvqe0g","pricing_plan_id":"cebpf4jnsgd1na2vs0mg"},{"bike_id":"fbf18425-256c-43c4-8e97-eb510980f875","system_id":"levelo_inurba_marseille","lat":43.31994,"lon":5.38168,"is_reserved":false,"is_disabled":false,"rental_uris":{"android":"levelo://app?vid=fbf18425-256c-43c4-8e97-eb510980f875","ios":"levelo://app?vid=fbf18425-256c-43c4-8e97-eb510980f875"},"vehicle_type_id":"4","last_reported":1741806486,"current_range_meters":9600,"station_id":"ce4bhr12rcd13ifvqhpg","pricing_plan_id":"cebpf4jnsgd1na2vs0mg"},{"bike_id":"661414a8-1ef2-47ae-a4f8-4e3c5fadc427","system_id":"levelo_inurba_marseille","lat":43.2997,"lon":5.38494,"is_reserved":false,"is_disabled":false,"rental_uris":{"android":"levelo://app?vid=661414a8-1ef2-47ae-a4f8-4e3c5fadc427","ios":"levelo://app?vid=661414a8-1ef2-47ae-a4f8-4e3c5fadc427"},"vehicle_type_id":"4","last_reported":1741806486,"current_range_meters":9600,"station_id":"ce4bgj92rcd13ifvqbd0","pricing_plan_id":"cebpf4jnsgd1na2vs0mg"},{"bike_id":"155c08d1-5734-4d7a-86d3-c8fab9e9945a","system_id":"levelo_inurba_marseille","lat":43.29424,"lon":5.38628,"is_reserved":false,"is_disabled":false,"rental_uris":{"android":"levelo://app?vid=155c08d1-5734-4d7a-86d3-c8fab9e9945a","ios":"levelo://app?vid=155c08d1-5734-4d7a-86d3-c8fab9e9945a"},"vehicle_type_id":"4","last_reported":1741806486,"current_range_meters":9600,"station_id":"ce4bh2h2rcd13ifvqdh0","pricing_plan_id":"cebpf4jnsgd1na2vs0mg"},{"bike_id":"485f1510-a973-46b6-8b2d-6d22ffc60cae","system_id":"levelo_inurba_marseille","lat":43.24168,"lon":5.36409,"is_reserved":false,"is_disabled":false,"rental_uris":{"android":"levelo://app?vid=485f1510-a973-46b6-8b2d-6d22ffc60cae","ios":"levelo://app?vid=485f1510-a973-46b6-8b2d-6d22ffc60cae"},"vehicle_type_id":"4","last_reported":1741806486,"current_range_meters":9600,"station_id":"cpo36qri1sfpv3e86is0","pricing_plan_id":"cebpf4jnsgd1na2vs0mg"},{"bike_id":"fa0439ea-acb9-4949-aa51-5b9140054544","system_id":"levelo_inurba_marseille","lat":43.3013,"lon":5.39854,"is_reserved":false,"is_disabled":false,"rental_uris":{"android":"levelo://app?vid=fa0439ea-acb9-4949-aa51-5b9140054544","ios":"levelo://app?vid=fa0439ea-acb9-4949-aa51-5b9140054544"},"vehicle_type_id":"4","last_reported":1741806486,"current_range_meters":9600,"station_id":"ce4bh0h2rcd13ifvqd40","pricing_plan_id":"cebpf4jnsgd1na2vs0mg"},{"bike_id":"ec5d08ce-934d-49b5-9a73-c20b44942d11","system_id":"levelo_inurba_marseille","lat":43.31429,"lon":5.37513,"is_reserved":false,"is_disabled":false,"rental_uris":{"android":"levelo://app?vid=ec5d08ce-934d-49b5-9a73-c20b44942d11","ios":"levelo://app?vid=ec5d08ce-934d-49b5-9a73-c20b44942d11"},"vehicle_type_id":"4","last_reported":1741806486,"current_range_meters":9600,"station_id":"","pricing_plan_id":"cebpf4jnsgd1na2vs0mg"},{"bike_id":"9b5074ce-d66f-46e2-8cef-48745c51281b","system_id":"levelo_inurba_marseille","lat":43.30882,"lon":5.39651,"is_reserved":false,"is_disabled":false,"rental_uris":{"android":"levelo://app?vid=9b5074ce-d66f-46e2-8cef-48745c51281b","ios":"levelo://app?vid=9b5074ce-d66f-46e2-8cef-48745c51281b"},"vehicle_type_id":"4","last_reported":1741806486,"current_range_meters":9600,"station_id":"ce4bh012rcd13ifvqcv0","pricing_plan_id":"cebpf4jnsgd1na2vs0mg"},{"bike_id":"c16477d5-7793-4073-b158-0eaf5052f2dc","system_id":"levelo_inurba_marseille","lat":43.28296,"lon":5.4324,"is_reserved":false,"is_disabled":false,"rental_uris":{"android":"levelo://app?vid=c16477d5-7793-4073-b158-0eaf5052f2dc","ios":"levelo://app?vid=c16477d5-7793-4073-b158-0eaf5052f2dc"},"vehicle_type_id":"4","last_reported":1741806486,"current_range_meters":9600,"station_id":"","pricing_plan_id":"cebpf4jnsgd1na2vs0mg"},{"bike_id":"65b3e6ee-260e-4a65-a75b-07984abceef3","system_id":"levelo_inurba_marseille","lat":43.33016,"lon":5.39037,"is_reserved":false,"is_disabled":false,"rental_uris":{"android":"levelo://app?vid=65b3e6ee-260e-4a65-a75b-07984abceef3","ios":"levelo://app?vid=65b3e6ee-260e-4a65-a75b-07984abceef3"},"vehicle_type_id":"4","last_reported":1741806486,"current_range_meters":9600,"station_id":"ce4bhr92rcd13ifvqhrg","pricing_plan_id":"cebpf4jnsgd1na2vs0mg"},{"bike_id":"f82b5a4a-3803-4ccc-a27e-93c32c4ac78b","system_id":"levelo_inurba_marseille","lat":43.30418,"lon":5.41293,"is_reserved":false,"is_disabled":false,"rental_uris":{"android":"levelo://app?vid=f82b5a4a-3803-4ccc-a27e-93c32c4ac78b","ios":"levelo://app?vid=f82b5a4a-3803-4ccc-a27e-93c32c4ac78b"},"vehicle_type_id":"4","last_reported":1741806486,"current_range_meters":9600,"station_id":"ce4bhop2rcd13ifvqh8g","pricing_plan_id":"cebpf4jnsgd1na2vs0mg"},{"bike_id":"1bb0937d-9ba1-4ef6-b9f0-674b69c5806f","system_id":"levelo_inurba_marseille","lat":43.29519,"lon":5.39413,"is_reserved":false,"is_disabled":false,"rental_uris":{"android":"levelo://app?vid=1bb0937d-9ba1-4ef6-b9f0-674b69c5806f","ios":"levelo://app?vid=1bb0937d-9ba1-4ef6-b9f0-674b69c5806f"},"vehicle_type_id":"4","last_reported":1741806486,"current_range_meters":9600,"station_id":"ce4bh292rcd13ifvqdf0","pricing_plan_id":"cebpf4jnsgd1na2vs0mg"},{"bike_id":"12d8c0d4-6abc-4053-9c8c-690abca02735","system_id":"levelo_inurba_marseille","lat":43.31245,"lon":5.37468,"is_reserved":false,"is_disabled":false,"rental_uris":{"android":"levelo://app?vid=12d8c0d4-6abc-4053-9c8c-690abca02735","ios":"levelo://app?vid=12d8c0d4-6abc-4053-9c8c-690abca02735"},"vehicle_type_id":"4","last_reported":1741806486,"current_range_meters":9600,"station_id":"","pricing_plan_id":"cebpf4jnsgd1na2vs0mg"},{"bike_id":"e59dfd2a-6724-4e77-b6b3-0f0dfc37aab3","system_id":"levelo_inurba_marseille","lat":43.30796,"lon":5.38177,"is_reserved":false,"is_disabled":false,"rental_uris":{"android":"levelo://app?vid=e59dfd2a-6724-4e77-b6b3-0f0dfc37aab3","ios":"levelo://app?vid=e59dfd2a-6724-4e77-b6b3-0f0dfc37aab3"},"vehicle_type_id":"4","last_reported":1741806486,"current_range_meters":9600,"station_id":"ce4bgt12rcd13ifvqce0","pricing_plan_id":"cebpf4jnsgd1na2vs0mg"},{"bike_id":"f6846384-ea02-48a1-b433-64ceaa1a0775","system_id":"levelo_inurba_marseille","lat":43.29875,"lon":5.39742,"is_reserved":false,"is_disabled":false,"rental_uris":{"android":"levelo://app?vid=f6846384-ea02-48a1-b433-64ceaa1a0775","ios":"levelo://app?vid=f6846384-ea02-48a1-b433-64ceaa1a0775"},"vehicle_type_id":"4","last_reported":1741806486,"current_range_meters":9600,"station_id":"ce4bh0h2rcd13ifvqd50","pricing_plan_id":"cebpf4jnsgd1na2vs0mg"},{"bike_id":"0a995a9a-6122-4f4b-b298-a8b06cbca7e2","system_id":"levelo_inurba_marseille","lat":43.25008,"lon":5.38917,"is_reserved":false,"is_disabled":false,"rental_uris":{"android":"levelo://app?vid=0a995a9a-6122-4f4b-b298-a8b06cbca7e2","ios":"levelo://app?vid=0a995a9a-6122-4f4b-b298-a8b06cbca7e2"},"vehicle_type_id":"4","last_reported":1741806486,"current_range_meters":10000,"station_id":"ce4bhgp2rcd13ifvqfd0","pricing_plan_id":"cebpf4jnsgd1na2vs0mg"},{"bike_id":"46f2e81a-8d75-4b81-a3ee-d46e23c0fa4e","system_id":"levelo_inurba_marseille","lat":43.24549,"lon":5.39524,"is_reserved":false,"is_disabled":false,"rental_uris":{"android":"levelo://app?vid=46f2e81a-8d75-4b81-a3ee-d46e23c0fa4e","ios":"levelo://app?vid=46f2e81a-8d75-4b81-a3ee-d46e23c0fa4e"},"vehicle_type_id":"4","last_reported":1741806486,"current_range_meters":10000,"station_id":"ce4bhlp2rcd13ifvqgjg","pricing_plan_id":"cebpf4jnsgd1na2vs0mg"},{"bike_id":"f83b1590-73f8-4900-a667-6c005eb9b249","system_id":"levelo_inurba_marseille","lat":43.29568,"lon":5.39966,"is_reserved":false,"is_disabled":false,"rental_uris":{"android":"levelo://app?vid=f83b1590-73f8-4900-a667-6c005eb9b249","ios":"levelo://app?vid=f83b1590-73f8-4900-a667-6c005eb9b249"},"vehicle_type_id":"4","last_reported":1741806486,"current_range_meters":10000,"station_id":"ce4bh312rcd13ifvqdj0","pricing_plan_id":"cebpf4jnsgd1na2vs0mg"},{"bike_id":"20719e7d-e656-4d2f-a019-3cbf98c17c5e","system_id":"levelo_inurba_marseille","lat":43.28606,"lon":5.35126,"is_reserved":false,"is_disabled":false,"rental_uris":{"android":"levelo://app?vid=20719e7d-e656-4d2f-a019-3cbf98c17c5e","ios":"levelo://app?vid=20719e7d-e656-4d2f-a019-3cbf98c17c5e"},"vehicle_type_id":"4","last_reported":1741806486,"current_range_meters":10000,"station_id":"ce4bhch2rcd13ifvqeug","pricing_plan_id":"cebpf4jnsgd1na2vs0mg"},{"bike_id":"55fe5d5a-17ad-4e56-ad62-6cc28a264c81","system_id":"levelo_inurba_marseille","lat":43.25008,"lon":5.38913,"is_reserved":false,"is_disabled":false,"rental_uris":{"android":"levelo://app?vid=55fe5d5a-17ad-4e56-ad62-6cc28a264c81","ios":"levelo://app?vid=55fe5d5a-17ad-4e56-ad62-6cc28a264c81"},"vehicle_type_id":"4","last_reported":1741806486,"current_range_meters":10000,"station_id":"ce4bhgp2rcd13ifvqfd0","pricing_plan_id":"cebpf4jnsgd1na2vs0mg"},{"bike_id":"600a8b1d-91ce-4fc9-92cd-846d63d5cb51","system_id":"levelo_inurba_marseille","lat":43.25005,"lon":5.38929,"is_reserved":false,"is_disabled":false,"rental_uris":{"android":"levelo://app?vid=600a8b1d-91ce-4fc9-92cd-846d63d5cb51","ios":"levelo://app?vid=600a8b1d-91ce-4fc9-92cd-846d63d5cb51"},"vehicle_type_id":"4","last_reported":1741806486,"current_range_meters":10000,"station_id":"ce4bhgp2rcd13ifvqfd0","pricing_plan_id":"cebpf4jnsgd1na2vs0mg"},{"bike_id":"c3146783-7b76-4cda-9f46-61d646aced27","system_id":"levelo_inurba_marseille","lat":43.27174,"lon":5.41001,"is_reserved":false,"is_disabled":false,"rental_uris":{"android":"levelo://app?vid=c3146783-7b76-4cda-9f46-61d646aced27","ios":"levelo://app?vid=c3146783-7b76-4cda-9f46-61d646aced27"},"vehicle_type_id":"4","last_reported":1741806486,"current_range_meters":10000,"station_id":"ce4bhl12rcd13ifvqgf0","pricing_plan_id":"cebpf4jnsgd1na2vs0mg"},{"bike_id":"8d1409ad-59a0-4593-b568-484e24bb137c","system_id":"levelo_inurba_marseille","lat":43.30949,"lon":5.3903,"is_reserved":false,"is_disabled":false,"rental_uris":{"android":"levelo://app?vid=8d1409ad-59a0-4593-b568-484e24bb137c","ios":"levelo://app?vid=8d1409ad-59a0-4593-b568-484e24bb137c"},"vehicle_type_id":"4","last_reported":1741806486,"current_range_meters":10000,"station_id":"ce4bgup2rcd13ifvqco0","pricing_plan_id":"cebpf4jnsgd1na2vs0mg"},{"bike_id":"013f9f0a-a5f3-4139-8086-451cb3895860","system_id":"levelo_inurba_marseille","lat":43.29723,"lon":5.36598,"is_reserved":false,"is_disabled":false,"rental_uris":{"android":"levelo://app?vid=013f9f0a-a5f3-4139-8086-451cb3895860","ios":"levelo://app?vid=013f9f0a-a5f3-4139-8086-451cb3895860"},"vehicle_type_id":"4","last_reported":1741806486,"current_range_meters":10000,"station_id":"ce4bgn12rcd13ifvqbt0","pricing_plan_id":"cebpf4jnsgd1na2vs0mg"},{"bike_id":"7d4aedfe-c4d1-46e1-9530-386849f612f8","system_id":"levelo_inurba_marseille","lat":43.30374,"lon":5.4247,"is_reserved":false,"is_disabled":false,"rental_uris":{"android":"levelo://app?vid=7d4aedfe-c4d1-46e1-9530-386849f612f8","ios":"levelo://app?vid=7d4aedfe-c4d1-46e1-9530-386849f612f8"},"vehicle_type_id":"4","last_reported":1741806486,"current_range_meters":10000,"station_id":"ce4bghh2rcd13ifvqb60","pricing_plan_id":"cebpf4jnsgd1na2vs0mg"},{"bike_id":"58162fa4-21cd-4f49-aab7-1f0e64f7ff45","system_id":"levelo_inurba_marseille","lat":43.29272,"lon":5.38433,"is_reserved":false,"is_disabled":false,"rental_uris":{"android":"levelo://app?vid=58162fa4-21cd-4f49-aab7-1f0e64f7ff45","ios":"levelo://app?vid=58162fa4-21cd-4f49-aab7-1f0e64f7ff45"},"vehicle_type_id":"4","last_reported":1741806486,"current_range_meters":10000,"station_id":"ce4bh692rcd13ifvqea0","pricing_plan_id":"cebpf4jnsgd1na2vs0mg"},{"bike_id":"2d16443d-ed2e-4c48-af94-4deffe2479f1","system_id":"levelo_inurba_marseille","lat":43.25002,"lon":5.3892,"is_reserved":false,"is_disabled":false,"rental_uris":{"android":"levelo://app?vid=2d16443d-ed2e-4c48-af94-4deffe2479f1","ios":"levelo://app?vid=2d16443d-ed2e-4c48-af94-4deffe2479f1"},"vehicle_type_id":"4","last_reported":1741806486,"current_range_meters":10000,"station_id":"ce4bhgp2rcd13ifvqfd0","pricing_plan_id":"cebpf4jnsgd1na2vs0mg"},{"bike_id":"3baf227d-0be9-4b96-8721-684a3fb14c35","system_id":"levelo_inurba_marseille","lat":43.31794,"lon":5.37371,"is_reserved":false,"is_disabled":false,"rental_uris":{"android":"levelo://app?vid=3baf227d-0be9-4b96-8721-684a3fb14c35","ios":"levelo://app?vid=3baf227d-0be9-4b96-8721-684a3fb14c35"},"vehicle_type_id":"4","last_reported":1741806486,"current_range_meters":10800,"station_id":"","pricing_plan_id":"cebpf4jnsgd1na2vs0mg"},{"bike_id":"f0913e64-6fb5-4284-9427-bdb038a3c3b1","system_id":"levelo_inurba_marseille","lat":43.301256,"lon":5.398553,"is_reserved":false,"is_disabled":false,"rental_uris":{"android":"levelo://app?vid=f0913e64-6fb5-4284-9427-bdb038a3c3b1","ios":"levelo://app?vid=f0913e64-6fb5-4284-9427-bdb038a3c3b1"},"vehicle_type_id":"4","last_reported":1741806486,"current_range_meters":12000,"station_id":"ce4bgqh2rcd13ifvqc4g","pricing_plan_id":"cebpf4jnsgd1na2vs0mg"},{"bike_id":"76580da9-3c70-4717-8fe8-38c7f0716e43","system_id":"levelo_inurba_marseille","lat":43.29047,"lon":5.35914,"is_reserved":false,"is_disabled":false,"rental_uris":{"android":"levelo://app?vid=76580da9-3c70-4717-8fe8-38c7f0716e43","ios":"levelo://app?vid=76580da9-3c70-4717-8fe8-38c7f0716e43"},"vehicle_type_id":"4","last_reported":1741806486,"current_range_meters":10800,"station_id":"ce4bha92rcd13ifvqeg0","pricing_plan_id":"cebpf4jnsgd1na2vs0mg"},{"bike_id":"92d43dae-3551-41d5-8a85-36f0642a11da","system_id":"levelo_inurba_marseille","lat":43.29602,"lon":5.38097,"is_reserved":false,"is_disabled":false,"rental_uris":{"android":"levelo://app?vid=92d43dae-3551-41d5-8a85-36f0642a11da","ios":"levelo://app?vid=92d43dae-3551-41d5-8a85-36f0642a11da"},"vehicle_type_id":"4","last_reported":1741806486,"current_range_meters":10800,"station_id":"ce4bgl12rcd13ifvqbo0","pricing_plan_id":"cebpf4jnsgd1na2vs0mg"},{"bike_id":"df6b060b-9f9e-4288-bcc1-ae0d53050642","system_id":"levelo_inurba_marseille","lat":43.22933,"lon":5.35383,"is_reserved":false,"is_disabled":false,"rental_uris":{"android":"levelo://app?vid=df6b060b-9f9e-4288-bcc1-ae0d53050642","ios":"levelo://app?vid=df6b060b-9f9e-4288-bcc1-ae0d53050642"},"vehicle_type_id":"4","last_reported":1741806486,"current_range_meters":10800,"station_id":"cpo3532slgdg3j2ikp40","pricing_plan_id":"cebpf4jnsgd1na2vs0mg"},{"bike_id":"fb74e460-e68c-46ea-9226-e3dda7469d28","system_id":"levelo_inurba_marseille","lat":43.2738,"lon":5.36258,"is_reserved":false,"is_disabled":false,"rental_uris":{"android":"levelo://app?vid=fb74e460-e68c-46ea-9226-e3dda7469d28","ios":"levelo://app?vid=fb74e460-e68c-46ea-9226-e3dda7469d28"},"vehicle_type_id":"4","last_reported":1741806486,"current_range_meters":11600,"station_id":"ce4bhbh2rcd13ifvqeo0","pricing_plan_id":"cebpf4jnsgd1na2vs0mg"},{"bike_id":"9f25a6ad-433a-45b0-a0d0-4a619d769e26","system_id":"levelo_inurba_marseille","lat":43.23189,"lon":5.35553,"is_reserved":false,"is_disabled":false,"rental_uris":{"android":"levelo://app?vid=9f25a6ad-433a-45b0-a0d0-4a619d769e26","ios":"levelo://app?vid=9f25a6ad-433a-45b0-a0d0-4a619d769e26"},"vehicle_type_id":"4","last_reported":1741806486,"current_range_meters":10800,"station_id":"ce4bhu92rcd13ifvqi70","pricing_plan_id":"cebpf4jnsgd1na2vs0mg"},{"bike_id":"6dbc9b4a-c5a1-4dbf-a00f-5bb7462d2694","system_id":"levelo_inurba_marseille","lat":43.28117,"lon":5.39826,"is_reserved":false,"is_disabled":false,"rental_uris":{"android":"levelo://app?vid=6dbc9b4a-c5a1-4dbf-a00f-5bb7462d2694","ios":"levelo://app?vid=6dbc9b4a-c5a1-4dbf-a00f-5bb7462d2694"},"vehicle_type_id":"4","last_reported":1741806486,"current_range_meters":10800,"station_id":"","pricing_plan_id":"cebpf4jnsgd1na2vs0mg"},{"bike_id":"94affc77-30ac-48de-a211-d3d73be13d70","system_id":"levelo_inurba_marseille","lat":43.30316,"lon":5.39194,"is_reserved":false,"is_disabled":false,"rental_uris":{"android":"levelo://app?vid=94affc77-30ac-48de-a211-d3d73be13d70","ios":"levelo://app?vid=94affc77-30ac-48de-a211-d3d73be13d70"},"vehicle_type_id":"4","last_reported":1741806486,"current_range_meters":10800,"station_id":"ce4bgkh2rcd13ifvqbk0","pricing_plan_id":"cebpf4jnsgd1na2vs0mg"},{"bike_id":"f89b9f3b-9595-4d0e-acf5-ac5f650bb50c","system_id":"levelo_inurba_marseille","lat":43.30378,"lon":5.42489,"is_reserved":false,"is_disabled":false,"rental_uris":{"android":"levelo://app?vid=f89b9f3b-9595-4d0e-acf5-ac5f650bb50c","ios":"levelo://app?vid=f89b9f3b-9595-4d0e-acf5-ac5f650bb50c"},"vehicle_type_id":"4","last_reported":1741806486,"current_range_meters":10800,"station_id":"ce4bghh2rcd13ifvqb60","pricing_plan_id":"cebpf4jnsgd1na2vs0mg"},{"bike_id":"c1fab519-f420-4d38-9054-53dc0fe15ea9","system_id":"levelo_inurba_marseille","lat":43.31115,"lon":5.37773,"is_reserved":false,"is_disabled":false,"rental_uris":{"android":"levelo://app?vid=c1fab519-f420-4d38-9054-53dc0fe15ea9","ios":"levelo://app?vid=c1fab519-f420-4d38-9054-53dc0fe15ea9"},"vehicle_type_id":"4","last_reported":1741806486,"current_range_meters":10800,"station_id":"ce4bgt92rcd13ifvqcg0","pricing_plan_id":"cebpf4jnsgd1na2vs0mg"},{"bike_id":"f0e00383-10fd-4560-9cc0-637635cea08d","system_id":"levelo_inurba_marseille","lat":43.30308,"lon":5.36921,"is_reserved":false,"is_disabled":false,"rental_uris":{"android":"levelo://app?vid=f0e00383-10fd-4560-9cc0-637635cea08d","ios":"levelo://app?vid=f0e00383-10fd-4560-9cc0-637635cea08d"},"vehicle_type_id":"4","last_reported":1741806486,"current_range_meters":10800,"station_id":"ce4bgqh2rcd13ifvqc5g","pricing_plan_id":"cebpf4jnsgd1na2vs0mg"},{"bike_id":"e8907d90-2a92-4a6d-9b9b-22d7efc182a6","system_id":"levelo_inurba_marseille","lat":43.301493,"lon":5.380791,"is_reserved":false,"is_disabled":false,"rental_uris":{"android":"levelo://app?vid=e8907d90-2a92-4a6d-9b9b-22d7efc182a6","ios":"levelo://app?vid=e8907d90-2a92-4a6d-9b9b-22d7efc182a6"},"vehicle_type_id":"4","last_reported":1741806486,"current_range_meters":10800,"station_id":"ce4bha92rcd13ifvqeh0","pricing_plan_id":"cebpf4jnsgd1na2vs0mg"},{"bike_id":"6c83aba9-eb1e-4e35-add9-1ed6c49a74fd","system_id":"levelo_inurba_marseille","lat":43.28027,"lon":5.41643,"is_reserved":false,"is_disabled":false,"rental_uris":{"android":"levelo://app?vid=6c83aba9-eb1e-4e35-add9-1ed6c49a74fd","ios":"levelo://app?vid=6c83aba9-eb1e-4e35-add9-1ed6c49a74fd"},"vehicle_type_id":"4","last_reported":1741806486,"current_range_meters":10800,"station_id":"ce4bho12rcd13ifvqh1g","pricing_plan_id":"cebpf4jnsgd1na2vs0mg"},{"bike_id":"2c38836d-acd2-4af2-af25-f9f40fe9106b","system_id":"levelo_inurba_marseille","lat":43.29632,"lon":5.4063,"is_reserved":false,"is_disabled":false,"rental_uris":{"android":"levelo://app?vid=2c38836d-acd2-4af2-af25-f9f40fe9106b","ios":"levelo://app?vid=2c38836d-acd2-4af2-af25-f9f40fe9106b"},"vehicle_type_id":"4","last_reported":1741806486,"current_range_meters":11600,"station_id":"ce4bh0h2rcd13ifvqd60","pricing_plan_id":"cebpf4jnsgd1na2vs0mg"},{"bike_id":"f2ee747f-c996-4c41-b815-ac9913b5b0ef","system_id":"levelo_inurba_marseille","lat":43.31447,"lon":5.37571,"is_reserved":false,"is_disabled":false,"rental_uris":{"android":"levelo://app?vid=f2ee747f-c996-4c41-b815-ac9913b5b0ef","ios":"levelo://app?vid=f2ee747f-c996-4c41-b815-ac9913b5b0ef"},"vehicle_type_id":"4","last_reported":1741806486,"current_range_meters":10800,"station_id":"","pricing_plan_id":"cebpf4jnsgd1na2vs0mg"},{"bike_id":"8c25ebae-476e-46e9-b505-692058b7ab14","system_id":"levelo_inurba_marseille","lat":43.29583,"lon":5.42233,"is_reserved":false,"is_disabled":false,"rental_uris":{"android":"levelo://app?vid=8c25ebae-476e-46e9-b505-692058b7ab14","ios":"levelo://app?vid=8c25ebae-476e-46e9-b505-692058b7ab14"},"vehicle_type_id":"4","last_reported":1741806486,"current_range_meters":11200,"station_id":"","pricing_plan_id":"cebpf4jnsgd1na2vs0mg"},{"bike_id":"9c9b4fe2-0c24-4e47-8858-2d4973e49f79","system_id":"levelo_inurba_marseille","lat":43.27566,"lon":5.38404,"is_reserved":false,"is_disabled":false,"rental_uris":{"android":"levelo://app?vid=9c9b4fe2-0c24-4e47-8858-2d4973e49f79","ios":"levelo://app?vid=9c9b4fe2-0c24-4e47-8858-2d4973e49f79"},"vehicle_type_id":"4","last_reported":1741806486,"current_range_meters":11200,"station_id":"ce4bhh92rcd13ifvqfi0","pricing_plan_id":"cebpf4jnsgd1na2vs0mg"},{"bike_id":"4ba92e91-2340-474d-9340-f7b21657d567","system_id":"levelo_inurba_marseille","lat":43.26558,"lon":5.3902,"is_reserved":false,"is_disabled":false,"rental_uris":{"android":"levelo://app?vid=4ba92e91-2340-474d-9340-f7b21657d567","ios":"levelo://app?vid=4ba92e91-2340-474d-9340-f7b21657d567"},"vehicle_type_id":"4","last_reported":1741806486,"current_range_meters":11200,"station_id":"ce4bhe12rcd13ifvqf30","pricing_plan_id":"cebpf4jnsgd1na2vs0mg"},{"bike_id":"b2b315e5-6fdc-498c-b1f7-a495411e31b6","system_id":"levelo_inurba_marseille","lat":43.30876,"lon":5.39662,"is_reserved":false,"is_disabled":false,"rental_uris":{"android":"levelo://app?vid=b2b315e5-6fdc-498c-b1f7-a495411e31b6","ios":"levelo://app?vid=b2b315e5-6fdc-498c-b1f7-a495411e31b6"},"vehicle_type_id":"4","last_reported":1741806486,"current_range_meters":11200,"station_id":"ce4bh012rcd13ifvqcv0","pricing_plan_id":"cebpf4jnsgd1na2vs0mg"},{"bike_id":"3ae9e98b-ef8d-4a60-90f4-c5c192f4512f","system_id":"levelo_inurba_marseille","lat":43.30134,"lon":5.387533,"is_reserved":false,"is_disabled":false,"rental_uris":{"android":"levelo://app?vid=3ae9e98b-ef8d-4a60-90f4-c5c192f4512f","ios":"levelo://app?vid=3ae9e98b-ef8d-4a60-90f4-c5c192f4512f"},"vehicle_type_id":"4","last_reported":1741806486,"current_range_meters":11200,"station_id":"ce4bghh2rcd13ifvqb60","pricing_plan_id":"cebpf4jnsgd1na2vs0mg"},{"bike_id":"27978618-6a05-41e9-b500-4c9c04aec95f","system_id":"levelo_inurba_marseille","lat":43.28156,"lon":5.42643,"is_reserved":false,"is_disabled":false,"rental_uris":{"android":"levelo://app?vid=27978618-6a05-41e9-b500-4c9c04aec95f","ios":"levelo://app?vid=27978618-6a05-41e9-b500-4c9c04aec95f"},"vehicle_type_id":"4","last_reported":1741806486,"current_range_meters":11200,"station_id":"ce4bhnh2rcd13ifvqgug","pricing_plan_id":"cebpf4jnsgd1na2vs0mg"},{"bike_id":"23667599-c39f-4b94-a83e-082050eb199c","system_id":"levelo_inurba_marseille","lat":43.28423,"lon":5.37506,"is_reserved":false,"is_disabled":false,"rental_uris":{"android":"levelo://app?vid=23667599-c39f-4b94-a83e-082050eb199c","ios":"levelo://app?vid=23667599-c39f-4b94-a83e-082050eb199c"},"vehicle_type_id":"4","last_reported":1741806486,"current_range_meters":11200,"station_id":"ce4bh412rcd13ifvqds0","pricing_plan_id":"cebpf4jnsgd1na2vs0mg"},{"bike_id":"6ee60008-6479-4bd4-a4a4-8bc38d1b7c18","system_id":"levelo_inurba_marseille","lat":43.2871,"lon":5.37943,"is_reserved":false,"is_disabled":false,"rental_uris":{"android":"levelo://app?vid=6ee60008-6479-4bd4-a4a4-8bc38d1b7c18","ios":"levelo://app?vid=6ee60008-6479-4bd4-a4a4-8bc38d1b7c18"},"vehicle_type_id":"4","last_reported":1741806486,"current_range_meters":11200,"station_id":"ce4bh9p2rcd13ifvqec0","pricing_plan_id":"cebpf4jnsgd1na2vs0mg"},{"bike_id":"c985f224-f9dc-464f-a18f-adfe226f7eec","system_id":"levelo_inurba_marseille","lat":43.29248,"lon":5.40912,"is_reserved":false,"is_disabled":false,"rental_uris":{"android":"levelo://app?vid=c985f224-f9dc-464f-a18f-adfe226f7eec","ios":"levelo://app?vid=c985f224-f9dc-464f-a18f-adfe226f7eec"},"vehicle_type_id":"4","last_reported":1741806486,"current_range_meters":11200,"station_id":"ce4bh192rcd13ifvqdc0","pricing_plan_id":"cebpf4jnsgd1na2vs0mg"},{"bike_id":"c2fdc035-3896-46f1-aee2-5294a5907071","system_id":"levelo_inurba_marseille","lat":43.25012,"lon":5.3894,"is_reserved":false,"is_disabled":false,"rental_uris":{"android":"levelo://app?vid=c2fdc035-3896-46f1-aee2-5294a5907071","ios":"levelo://app?vid=c2fdc035-3896-46f1-aee2-5294a5907071"},"vehicle_type_id":"4","last_reported":1741806486,"current_range_meters":11200,"station_id":"ce4bhgp2rcd13ifvqfd0","pricing_plan_id":"cebpf4jnsgd1na2vs0mg"},{"bike_id":"4a9749ff-9763-423f-bd26-59e79de25618","system_id":"levelo_inurba_marseille","lat":43.30412,"lon":5.41295,"is_reserved":false,"is_disabled":false,"rental_uris":{"android":"levelo://app?vid=4a9749ff-9763-423f-bd26-59e79de25618","ios":"levelo://app?vid=4a9749ff-9763-423f-bd26-59e79de25618"},"vehicle_type_id":"4","last_reported":1741806486,"current_range_meters":11600,"station_id":"ce4bhop2rcd13ifvqh8g","pricing_plan_id":"cebpf4jnsgd1na2vs0mg"},{"bike_id":"c8f5a7aa-328f-49c1-a785-9624fa888d07","system_id":"levelo_inurba_marseille","lat":43.24986,"lon":5.38868,"is_reserved":false,"is_disabled":false,"rental_uris":{"android":"levelo://app?vid=c8f5a7aa-328f-49c1-a785-9624fa888d07","ios":"levelo://app?vid=c8f5a7aa-328f-49c1-a785-9624fa888d07"},"vehicle_type_id":"4","last_reported":1741806486,"current_range_meters":11600,"station_id":"ce4bhgp2rcd13ifvqfd0","pricing_plan_id":"cebpf4jnsgd1na2vs0mg"},{"bike_id":"80904c37-4fe5-4957-8235-a48b45c8319a","system_id":"levelo_inurba_marseille","lat":43.29276,"lon":5.38439,"is_reserved":false,"is_disabled":false,"rental_uris":{"android":"levelo://app?vid=80904c37-4fe5-4957-8235-a48b45c8319a","ios":"levelo://app?vid=80904c37-4fe5-4957-8235-a48b45c8319a"},"vehicle_type_id":"4","last_reported":1741806486,"current_range_meters":11600,"station_id":"ce4bh692rcd13ifvqea0","pricing_plan_id":"cebpf4jnsgd1na2vs0mg"},{"bike_id":"9dc8ba98-3de9-4f14-81e1-9a5589e794de","system_id":"levelo_inurba_marseille","lat":43.25865,"lon":5.39907,"is_reserved":false,"is_disabled":true,"rental_uris":{"android":"levelo://app?vid=9dc8ba98-3de9-4f14-81e1-9a5589e794de","ios":"levelo://app?vid=9dc8ba98-3de9-4f14-81e1-9a5589e794de"},"vehicle_type_id":"4","last_reported":1741806486,"current_range_meters":12000,"station_id":"ce4bhl92rcd13ifvqghg","pricing_plan_id":"cebpf4jnsgd1na2vs0mg"},{"bike_id":"4ad9c640-704f-4648-a12d-b5105947d193","system_id":"levelo_inurba_marseille","lat":43.27798,"lon":5.40723,"is_reserved":false,"is_disabled":false,"rental_uris":{"android":"levelo://app?vid=4ad9c640-704f-4648-a12d-b5105947d193","ios":"levelo://app?vid=4ad9c640-704f-4648-a12d-b5105947d193"},"vehicle_type_id":"4","last_reported":1741806486,"current_range_meters":12000,"station_id":"ce4bhnh2rcd13ifvqgtg","pricing_plan_id":"cebpf4jnsgd1na2vs0mg"},{"bike_id":"46a916bd-57dd-4dd4-880a-f914dd2ac6e7","system_id":"levelo_inurba_marseille","lat":43.29418,"lon":5.38638,"is_reserved":false,"is_disabled":false,"rental_uris":{"android":"levelo://app?vid=46a916bd-57dd-4dd4-880a-f914dd2ac6e7","ios":"levelo://app?vid=46a916bd-57dd-4dd4-880a-f914dd2ac6e7"},"vehicle_type_id":"4","last_reported":1741806486,"current_range_meters":12000,"station_id":"ce4bh2h2rcd13ifvqdh0","pricing_plan_id":"cebpf4jnsgd1na2vs0mg"},{"bike_id":"c74c8b43-b09d-4809-b946-0045d210381f","system_id":"levelo_inurba_marseille","lat":43.29188,"lon":5.37148,"is_reserved":false,"is_disabled":false,"rental_uris":{"android":"levelo://app?vid=c74c8b43-b09d-4809-b946-0045d210381f","ios":"levelo://app?vid=c74c8b43-b09d-4809-b946-0045d210381f"},"vehicle_type_id":"4","last_reported":1741806486,"current_range_meters":12800,"station_id":"ce4bha92rcd13ifvqeh0","pricing_plan_id":"cebpf4jnsgd1na2vs0mg"},{"bike_id":"79397302-4916-493d-9bc0-e5035ae3c476","system_id":"levelo_inurba_marseille","lat":43.229328,"lon":5.353763,"is_reserved":false,"is_disabled":false,"rental_uris":{"android":"levelo://app?vid=79397302-4916-493d-9bc0-e5035ae3c476","ios":"levelo://app?vid=79397302-4916-493d-9bc0-e5035ae3c476"},"vehicle_type_id":"4","last_reported":1741806486,"current_range_meters":12000,"station_id":"cpo3532slgdg3j2ikp40","pricing_plan_id":"cebpf4jnsgd1na2vs0mg"},{"bike_id":"0234a9c0-0d92-4771-9dd1-5abbd3156dde","system_id":"levelo_inurba_marseille","lat":43.24084,"lon":5.37721,"is_reserved":false,"is_disabled":false,"rental_uris":{"android":"levelo://app?vid=0234a9c0-0d92-4771-9dd1-5abbd3156dde","ios":"levelo://app?vid=0234a9c0-0d92-4771-9dd1-5abbd3156dde"},"vehicle_type_id":"4","last_reported":1741806486,"current_range_meters":12000,"station_id":"ce4bhnp2rcd13ifvqgvg","pricing_plan_id":"cebpf4jnsgd1na2vs0mg"},{"bike_id":"8ca3f336-10d2-4fd1-806d-fe3fa7c2deb3","system_id":"levelo_inurba_marseille","lat":43.29418,"lon":5.38637,"is_reserved":false,"is_disabled":false,"rental_uris":{"android":"levelo://app?vid=8ca3f336-10d2-4fd1-806d-fe3fa7c2deb3","ios":"levelo://app?vid=8ca3f336-10d2-4fd1-806d-fe3fa7c2deb3"},"vehicle_type_id":"4","last_reported":1741806486,"current_range_meters":12000,"station_id":"ce4bh2h2rcd13ifvqdh0","pricing_plan_id":"cebpf4jnsgd1na2vs0mg"},{"bike_id":"5caedd70-37f9-45a5-b2cd-c11d383bdcad","system_id":"levelo_inurba_marseille","lat":43.31535,"lon":5.38021,"is_reserved":false,"is_disabled":false,"rental_uris":{"android":"levelo://app?vid=5caedd70-37f9-45a5-b2cd-c11d383bdcad","ios":"levelo://app?vid=5caedd70-37f9-45a5-b2cd-c11d383bdcad"},"vehicle_type_id":"4","last_reported":1741806486,"current_range_meters":12000,"station_id":"ce4bhsp2rcd13ifvqi50","pricing_plan_id":"cebpf4jnsgd1na2vs0mg"},{"bike_id":"37996f8a-2b96-403a-8e54-f3bc2ece191f","system_id":"levelo_inurba_marseille","lat":43.32539,"lon":5.41426,"is_reserved":false,"is_disabled":false,"rental_uris":{"android":"levelo://app?vid=37996f8a-2b96-403a-8e54-f3bc2ece191f","ios":"levelo://app?vid=37996f8a-2b96-403a-8e54-f3bc2ece191f"},"vehicle_type_id":"4","last_reported":1741806486,"current_range_meters":12400,"station_id":"ce4bhq12rcd13ifvqhhg","pricing_plan_id":"cebpf4jnsgd1na2vs0mg"},{"bike_id":"84c745ca-5d12-42b9-b34d-bc12e504d339","system_id":"levelo_inurba_marseille","lat":43.24663,"lon":5.38191,"is_reserved":false,"is_disabled":false,"rental_uris":{"android":"levelo://app?vid=84c745ca-5d12-42b9-b34d-bc12e504d339","ios":"levelo://app?vid=84c745ca-5d12-42b9-b34d-bc12e504d339"},"vehicle_type_id":"4","last_reported":1741806486,"current_range_meters":12400,"station_id":"ce4bhih2rcd13ifvqfr0","pricing_plan_id":"cebpf4jnsgd1na2vs0mg"},{"bike_id":"2c7213de-1d2d-4b17-ab38-ba3bb19fab23","system_id":"levelo_inurba_marseille","lat":43.28938,"lon":5.36647,"is_reserved":false,"is_disabled":false,"rental_uris":{"android":"levelo://app?vid=2c7213de-1d2d-4b17-ab38-ba3bb19fab23","ios":"levelo://app?vid=2c7213de-1d2d-4b17-ab38-ba3bb19fab23"},"vehicle_type_id":"4","last_reported":1741806486,"current_range_meters":12000,"station_id":"ce4bhap2rcd13ifvqek0","pricing_plan_id":"cebpf4jnsgd1na2vs0mg"},{"bike_id":"1930f967-913a-4047-a14d-1fd03fcab572","system_id":"levelo_inurba_marseille","lat":43.29534,"lon":5.3853,"is_reserved":false,"is_disabled":false,"rental_uris":{"android":"levelo://app?vid=1930f967-913a-4047-a14d-1fd03fcab572","ios":"levelo://app?vid=1930f967-913a-4047-a14d-1fd03fcab572"},"vehicle_type_id":"4","last_reported":1741806486,"current_range_meters":12400,"station_id":"ce4bgih2rcd13ifvqba0","pricing_plan_id":"cebpf4jnsgd1na2vs0mg"},{"bike_id":"4c607265-c996-4d9b-81fd-daa80dd99e32","system_id":"levelo_inurba_marseille","lat":43.28761,"lon":5.38419,"is_reserved":false,"is_disabled":false,"rental_uris":{"android":"levelo://app?vid=4c607265-c996-4d9b-81fd-daa80dd99e32","ios":"levelo://app?vid=4c607265-c996-4d9b-81fd-daa80dd99e32"},"vehicle_type_id":"4","last_reported":1741806486,"current_range_meters":12400,"station_id":"","pricing_plan_id":"cebpf4jnsgd1na2vs0mg"},{"bike_id":"984bba13-8d1b-492a-8711-e0ac9bd5515c","system_id":"levelo_inurba_marseille","lat":43.2407,"lon":5.37764,"is_reserved":false,"is_disabled":false,"rental_uris":{"android":"levelo://app?vid=984bba13-8d1b-492a-8711-e0ac9bd5515c","ios":"levelo://app?vid=984bba13-8d1b-492a-8711-e0ac9bd5515c"},"vehicle_type_id":"4","last_reported":1741806486,"current_range_meters":12000,"station_id":"ce4bhnp2rcd13ifvqgvg","pricing_plan_id":"cebpf4jnsgd1na2vs0mg"},{"bike_id":"e7b25e36-0a83-4dda-88d0-c2926bc1cbb4","system_id":"levelo_inurba_marseille","lat":43.29851,"lon":5.36287,"is_reserved":false,"is_disabled":true,"rental_uris":{"android":"levelo://app?vid=e7b25e36-0a83-4dda-88d0-c2926bc1cbb4","ios":"levelo://app?vid=e7b25e36-0a83-4dda-88d0-c2926bc1cbb4"},"vehicle_type_id":"4","last_reported":1741806486,"current_range_meters":12400,"station_id":"ce4bgpp2rcd13ifvqc3g","pricing_plan_id":"cebpf4jnsgd1na2vs0mg"},{"bike_id":"79e732be-e7d8-4dc9-8c8f-89d56717d799","system_id":"levelo_inurba_marseille","lat":43.29037,"lon":5.37549,"is_reserved":false,"is_disabled":true,"rental_uris":{"android":"levelo://app?vid=79e732be-e7d8-4dc9-8c8f-89d56717d799","ios":"levelo://app?vid=79e732be-e7d8-4dc9-8c8f-89d56717d799"},"vehicle_type_id":"4","last_reported":1741806486,"current_range_meters":12400,"station_id":"ce4bh692rcd13ifvqe90","pricing_plan_id":"cebpf4jnsgd1na2vs0mg"},{"bike_id":"45257f9c-85e8-4323-8aba-a9fd3a4ce341","system_id":"levelo_inurba_marseille","lat":43.24811,"lon":5.37449,"is_reserved":false,"is_disabled":false,"rental_uris":{"android":"levelo://app?vid=45257f9c-85e8-4323-8aba-a9fd3a4ce341","ios":"levelo://app?vid=45257f9c-85e8-4323-8aba-a9fd3a4ce341"},"vehicle_type_id":"4","last_reported":1741806486,"current_range_meters":12400,"station_id":"ce4bhgh2rcd13ifvqfb0","pricing_plan_id":"cebpf4jnsgd1na2vs0mg"},{"bike_id":"a0ab2518-13c3-47da-8deb-38ae2b28da06","system_id":"levelo_inurba_marseille","lat":43.29874,"lon":5.38903,"is_reserved":false,"is_disabled":false,"rental_uris":{"android":"levelo://app?vid=a0ab2518-13c3-47da-8deb-38ae2b28da06","ios":"levelo://app?vid=a0ab2518-13c3-47da-8deb-38ae2b28da06"},"vehicle_type_id":"4","last_reported":1741806486,"current_range_meters":12400,"station_id":"ce4bh392rcd13ifvqdl0","pricing_plan_id":"cebpf4jnsgd1na2vs0mg"},{"bike_id":"41ad375b-4359-40d7-adf7-b5f4553387d1","system_id":"levelo_inurba_marseille","lat":43.23151,"lon":5.43707,"is_reserved":false,"is_disabled":false,"rental_uris":{"android":"levelo://app?vid=41ad375b-4359-40d7-adf7-b5f4553387d1","ios":"levelo://app?vid=41ad375b-4359-40d7-adf7-b5f4553387d1"},"vehicle_type_id":"4","last_reported":1741806486,"current_range_meters":12800,"station_id":"ce4bhmp2rcd13ifvqgog","pricing_plan_id":"cebpf4jnsgd1na2vs0mg"},{"bike_id":"04b6b0f6-d318-40e6-a023-347d481d621c","system_id":"levelo_inurba_marseille","lat":43.29185,"lon":5.37557,"is_reserved":false,"is_disabled":false,"rental_uris":{"android":"levelo://app?vid=04b6b0f6-d318-40e6-a023-347d481d621c","ios":"levelo://app?vid=04b6b0f6-d318-40e6-a023-347d481d621c"},"vehicle_type_id":"4","last_reported":1741806486,"current_range_meters":12800,"station_id":"","pricing_plan_id":"cebpf4jnsgd1na2vs0mg"},{"bike_id":"3d4c5258-0fc3-4387-b6fc-d451214a33c6","system_id":"levelo_inurba_marseille","lat":43.29079,"lon":5.38162,"is_reserved":false,"is_disabled":false,"rental_uris":{"android":"levelo://app?vid=3d4c5258-0fc3-4387-b6fc-d451214a33c6","ios":"levelo://app?vid=3d4c5258-0fc3-4387-b6fc-d451214a33c6"},"vehicle_type_id":"4","last_reported":1741806486,"current_range_meters":12800,"station_id":"ce4bh512rcd13ifvqe2g","pricing_plan_id":"cebpf4jnsgd1na2vs0mg"},{"bike_id":"c83ae308-38e1-4906-930a-bf70378a2e66","system_id":"levelo_inurba_marseille","lat":43.2988,"lon":5.38907,"is_reserved":false,"is_disabled":false,"rental_uris":{"android":"levelo://app?vid=c83ae308-38e1-4906-930a-bf70378a2e66","ios":"levelo://app?vid=c83ae308-38e1-4906-930a-bf70378a2e66"},"vehicle_type_id":"4","last_reported":1741806486,"current_range_meters":12400,"station_id":"ce4bh392rcd13ifvqdl0","pricing_plan_id":"cebpf4jnsgd1na2vs0mg"},{"bike_id":"0420ab90-0203-49bc-a76d-8a5003ef7a7e","system_id":"levelo_inurba_marseille","lat":43.29971,"lon":5.38505,"is_reserved":false,"is_disabled":false,"rental_uris":{"android":"levelo://app?vid=0420ab90-0203-49bc-a76d-8a5003ef7a7e","ios":"levelo://app?vid=0420ab90-0203-49bc-a76d-8a5003ef7a7e"},"vehicle_type_id":"4","last_reported":1741806486,"current_range_meters":12800,"station_id":"ce4bgj92rcd13ifvqbd0","pricing_plan_id":"cebpf4jnsgd1na2vs0mg"},{"bike_id":"8dea7250-fd23-49b8-876a-06e693ab3c47","system_id":"levelo_inurba_marseille","lat":43.27495,"lon":5.42451,"is_reserved":false,"is_disabled":false,"rental_uris":{"android":"levelo://app?vid=8dea7250-fd23-49b8-876a-06e693ab3c47","ios":"levelo://app?vid=8dea7250-fd23-49b8-876a-06e693ab3c47"},"vehicle_type_id":"4","last_reported":1741806486,"current_range_meters":12800,"station_id":"ce4bhn92rcd13ifvqgrg","pricing_plan_id":"cebpf4jnsgd1na2vs0mg"},{"bike_id":"559d880c-413b-4bec-b478-ce00f72287ce","system_id":"levelo_inurba_marseille","lat":43.31707,"lon":5.37797,"is_reserved":false,"is_disabled":false,"rental_uris":{"android":"levelo://app?vid=559d880c-413b-4bec-b478-ce00f72287ce","ios":"levelo://app?vid=559d880c-413b-4bec-b478-ce00f72287ce"},"vehicle_type_id":"4","last_reported":1741806486,"current_range_meters":12800,"station_id":"ce4bgth2rcd13ifvqch0","pricing_plan_id":"cebpf4jnsgd1na2vs0mg"},{"bike_id":"582f5307-7d5c-4e76-87cc-422d6d584cd2","system_id":"levelo_inurba_marseille","lat":43.29274,"lon":5.38445,"is_reserved":false,"is_disabled":false,"rental_uris":{"android":"levelo://app?vid=582f5307-7d5c-4e76-87cc-422d6d584cd2","ios":"levelo://app?vid=582f5307-7d5c-4e76-87cc-422d6d584cd2"},"vehicle_type_id":"4","last_reported":1741806486,"current_range_meters":12800,"station_id":"ce4bh692rcd13ifvqea0","pricing_plan_id":"cebpf4jnsgd1na2vs0mg"},{"bike_id":"646e6216-4cc7-4290-ad26-2dd97fff7af1","system_id":"levelo_inurba_marseille","lat":43.25582,"lon":5.38233,"is_reserved":false,"is_disabled":false,"rental_uris":{"android":"levelo://app?vid=646e6216-4cc7-4290-ad26-2dd97fff7af1","ios":"levelo://app?vid=646e6216-4cc7-4290-ad26-2dd97fff7af1"},"vehicle_type_id":"4","last_reported":1741806486,"current_range_meters":12800,"station_id":"ce4bhih2rcd13ifvqfs0","pricing_plan_id":"cebpf4jnsgd1na2vs0mg"},{"bike_id":"86fc146c-4af9-49a2-9b65-b6b8fa03c722","system_id":"levelo_inurba_marseille","lat":43.29198,"lon":5.39307,"is_reserved":false,"is_disabled":false,"rental_uris":{"android":"levelo://app?vid=86fc146c-4af9-49a2-9b65-b6b8fa03c722","ios":"levelo://app?vid=86fc146c-4af9-49a2-9b65-b6b8fa03c722"},"vehicle_type_id":"4","last_reported":1741806486,"current_range_meters":12800,"station_id":"ce4bh192rcd13ifvqdd0","pricing_plan_id":"cebpf4jnsgd1na2vs0mg"},{"bike_id":"9334bf70-c015-48b6-b01a-f8c94ac61ae2","system_id":"levelo_inurba_marseille","lat":43.23152,"lon":5.43717,"is_reserved":false,"is_disabled":false,"rental_uris":{"android":"levelo://app?vid=9334bf70-c015-48b6-b01a-f8c94ac61ae2","ios":"levelo://app?vid=9334bf70-c015-48b6-b01a-f8c94ac61ae2"},"vehicle_type_id":"4","last_reported":1741806486,"current_range_meters":12800,"station_id":"ce4bhmp2rcd13ifvqgog","pricing_plan_id":"cebpf4jnsgd1na2vs0mg"},