{"last_updated":1753501955,"ttl":60,"version":"2.2","data":{"bikes":[{"bike_id":"c84d04af-88b1-453c-aaf4-b1c7066b5697","system_id":"levelo_inurba_marseille","lat":43.28613,"lon":5.35106,"is_reserved":false,"is_disabled":false,"rental_uris":{"android":"levelo://app?vid=c84d04af-88b1-453c-aaf4-b1c7066b5697","ios":"levelo://app?vid=c84d04af-88b1-453c-aaf4-b1c7066b5697"},"vehicle_type_id":"4","last_reported":1753501955,"current_range_meters":3600,"station_id":"ce4bhch2rcd13ifvqeug","pricing_plan_id":"cebpf4jnsgd1na2vs0mg"},{"bike_id":"88713064-73b6-47c5-8baf-21f8c90f1d38","system_id":"levelo_inurba_marseille","lat":43.30704,"lon":5.38205,"is_reserved":false,"is_disabled":false,"rental_uris":{"android":"levelo://app?vid=88713064-73b6-47c5-8baf-21f8c90f1d38","ios":"levelo://app?vid=88713064-73b6-47c5-8baf-21f8c90f1d38"},"vehicle_type_id":"4","last_reported":1753501955,"current_range_meters":3600,"station_id":"","pricing_plan_id":"cebpf4jnsgd1na2vs0mg"},{"bike_id":"d87b56f9-aec8-4c18-8340-d7aba9319bde","system_id":"levelo_inurba_marseille","lat":43.275009,"lon":5.396448,"is_reserved":false,"is_disabled":false,"rental_uris":{"android":"levelo://app?vid=d87b56f9-aec8-4c18-8340-d7aba9319bde","ios":"levelo://app?vid=d87b56f9-aec8-4c18-8340-d7aba9319bde"},"vehicle_type_id":"4","last_reported":1753501955,"current_range_meters":4000,"station_id":"","pricing_plan_id":"cebpf4jnsgd1na2vs0mg"},{"bike_id":"d6e67ec9-36a2-4615-bfd1-7c7dad1d0674","system_id":"levelo_inurba_marseille","lat":43.22511,"lon":5.34773,"is_reserved":false,"is_disabled":false,"rental_uris":{"android":"levelo://app?vid=d6e67ec9-36a2-4615-bfd1-7c7dad1d0674","ios":"levelo://app?vid=d6e67ec9-36a2-4615-bfd1-7c7dad1d0674"},"vehicle_type_id":"4","last_reported":1753501955,"current_range_meters":4000,"station_id":"st_cvj5dfep6f1abm77gieg","pricing_plan_id":"cebpf4jnsgd1na2vs0mg"},{"bike_id":"7d9b4259-de1e-4243-9beb-b1b1cc86be18","system_id":"levelo_inurba_marseille","lat":43.31065,"lon":5.38346,"is_reserved":false,"is_disabled":false,"rental_uris":{"android":"levelo://app?vid=7d9b4259-de1e-4243-9beb-b1b1cc86be18","ios":"levelo://app?vid=7d9b4259-de1e-4243-9beb-b1b1cc86be18"},"vehicle_type_id":"4","last_reported":1753501955,"current_range_meters":4000,"station_id":"ce4bgv92rcd13ifvqcr0","pricing_plan_id":"cebpf4jnsgd1na2vs0mg"},{"bike_id":"1964664b-ec88-4fe7-ab3a-fc6cc1add8f9","system_id":"levelo_inurba_marseille","lat":43.32354,"lon":5.40617,"is_reserved":false,"is_disabled":true,"rental_uris":{"android":"levelo://app?vid=1964664b-ec88-4fe7-ab3a-fc6cc1add8f9","ios":"levelo://app?vid=1964664b-ec88-4fe7-ab3a-fc6cc1add8f9"},"vehicle_type_id":"4","last_reported":1753501955,"current_range_meters":4000,"station_id":"ce4bhq92rcd13ifvqhjg","pricing_plan_id":"cebpf4jnsgd1na2vs0mg"},{"bike_id":"329aaba8-e959-45ba-932d-356c40c54d03","system_id":"levelo_inurba_marseille","lat":43.288614,"lon":5.393118,"is_reserved":false,"is_disabled":true,"rental_uris":{"android":"levelo://app?vid=329aaba8-e959-45ba-932d-356c40c54d03","ios":"levelo://app?vid=329aaba8-e959-45ba-932d-356c40c54d03"},"vehicle_type_id":"4","last_reported":1753501955,"current_range_meters":4000,"station_id":"ce4bh2p2rcd13ifvqdi0","pricing_plan_id":"cebpf4jnsgd1na2vs0mg"},{"bike_id":"85244870-de2e-4268-95b7-c2ed15b3c6be","system_id":"levelo_inurba_marseille","lat":43.29859,"lon":5.36801,"is_reserved":false,"is_disabled":false,"rental_uris":{"android":"levelo://app?vid=85244870-de2e-4268-95b7-c2ed15b3c6be","ios":"levelo://app?vid=85244870-de2e-4268-95b7-c2ed15b3c6be"},"vehicle_type_id":"4","last_reported":1753501955,"current_range_meters":4400,"station_id":"ce4bgr92rcd13ifvqc7g","pricing_plan_id":"cebpf4jnsgd1na2vs0mg"},{"bike_id":"d26a0748-108f-4358-9684-913cdd65a543","system_id":"levelo_inurba_marseille","lat":43.32326,"lon":5.40627,"is_reserved":false,"is_disabled":true,"rental_uris":{"android":"levelo://app?vid=d26a0748-108f-4358-9684-913cdd65a543","ios":"levelo://app?vid=d26a0748-108f-4358-9684-913cdd65a543"},"vehicle_type_id":"4","last_reported":1753501955,"current_range_meters":4400,"station_id":"ce4bhq92rcd13ifvqhjg","pricing_plan_id":"cebpf4jnsgd1na2vs0mg"},{"bike_id":"e87eec36-9502-45ce-a1b1-4233167cde1e","system_id":"levelo_inurba_marseille","lat":43.279134,"lon":5.395875,"is_reserved":false,"is_disabled":true,"rental_uris":{"android":"levelo://app?vid=e87eec36-9502-45ce-a1b1-4233167cde1e","ios":"levelo://app?vid=e87eec36-9502-45ce-a1b1-4233167cde1e"},"vehicle_type_id":"4","last_reported":1753501955,"current_range_meters":4400,"station_id":"ce4bhf92rcd13ifvqf40","pricing_plan_id":"cebpf4jnsgd1na2vs0mg"},{"bike_id":"fd4ba70a-7bfa-434e-8564-04bf25cc9f63","system_id":"levelo_inurba_marseille","lat":43.28107,"lon":5.44099,"is_reserved":false,"is_disabled":false,"rental_uris":{"android":"levelo://app?vid=fd4ba70a-7bfa-434e-8564-04bf25cc9f63","ios":"levelo://app?vid=fd4ba70a-7bfa-434e-8564-04bf25cc9f63"},"vehicle_type_id":"4","last_reported":1753501955,"current_range_meters":4800,"station_id":"","pricing_plan_id":"cebpf4jnsgd1na2vs0mg"},{"bike_id":"c7b92aee-e283-4928-8200-8fb47d23f351","system_id":"levelo_inurba_marseille","lat":43.28204,"lon":5.44312,"is_reserved":false,"is_disabled":false,"rental_uris":{"android":"levelo://app?vid=c7b92aee-e283-4928-8200-8fb47d23f351","ios":"levelo://app?vid=c7b92aee-e283-4928-8200-8fb47d23f351"},"vehicle_type_id":"4","last_reported":1753501955,"current_range_meters":5600,"station_id":"","pricing_plan_id":"cebpf4jnsgd1na2vs0mg"},{"bike_id":"1e15e3b0-3b9f-459e-ae2c-397f0367cf37","system_id":"levelo_inurba_marseille","lat":43.29969,"lon":5.38496,"is_reserved":false,"is_disabled":false,"rental_uris":{"android":"levelo://app?vid=1e15e3b0-3b9f-459e-ae2c-397f0367cf37","ios":"levelo://app?vid=1e15e3b0-3b9f-459e-ae2c-397f0367cf37"},"vehicle_type_id":"4","last_reported":1753501955,"current_range_meters":5600,"station_id":"ce4bgj92rcd13ifvqbd0","pricing_plan_id":"cebpf4jnsgd1na2vs0mg"},{"bike_id":"e19cd9bd-8f1f-4909-a624-5af678243303","system_id":"levelo_inurba_marseille","lat":43.29055,"lon":5.39875,"is_reserved":false,"is_disabled":false,"rental_uris":{"android":"levelo://app?vid=e19cd9bd-8f1f-4909-a624-5af678243303","ios":"levelo://app?vid=e19cd9bd-8f1f-4909-a624-5af678243303"},"vehicle_type_id":"4","last_reported":1753501955,"current_range_meters":5600,"station_id":"","pricing_plan_id":"cebpf4jnsgd1na2vs0mg"},{"bike_id":"7b8f0b84-b522-44ab-860c-924f0c398730","system_id":"levelo_inurba_marseille","lat":43.28173,"lon":5.42613,"is_reserved":false,"is_disabled":true,"rental_uris":{"android":"levelo://app?vid=7b8f0b84-b522-44ab-860c-924f0c398730","ios":"levelo://app?vid=7b8f0b84-b522-44ab-860c-924f0c398730"},"vehicle_type_id":"4","last_reported":1753501955,"current_range_meters":5600,"station_id":"ce4bhnh2rcd13ifvqgug","pricing_plan_id":"cebpf4jnsgd1na2vs0mg"},{"bike_id":"b93c0803-f824-4cb7-a4ed-57da1403b68e","system_id":"levelo_inurba_marseille","lat":43.325583,"lon":5.379059,"is_reserved":false,"is_disabled":true,"rental_uris":{"android":"levelo://app?vid=b93c0803-f824-4cb7-a4ed-57da1403b68e","ios":"levelo://app?vid=b93c0803-f824-4cb7-a4ed-57da1403b68e"},"vehicle_type_id":"4","last_reported":1753501955,"current_range_meters":5600,"station_id":"","pricing_plan_id":"cebpf4jnsgd1na2vs0mg"},{"bike_id":"49a25020-c17f-426d-a295-c677da1110b3","system_id":"levelo_inurba_marseille","lat":43.262157,"lon":5.374532,"is_reserved":false,"is_disabled":true,"rental_uris":{"android":"levelo://app?vid=49a25020-c17f-426d-a295-c677da1110b3","ios":"levelo://app?vid=49a25020-c17f-426d-a295-c677da1110b3"},"vehicle_type_id":"4","last_reported":1753501955,"current_range_meters":6000,"station_id":"ce4bhgp2rcd13ifvqfc0","pricing_plan_id":"cebpf4jnsgd1na2vs0mg"},{"bike_id":"8878372a-bf65-43e6-87a2-f77b2b383656","system_id":"levelo_inurba_marseille","lat":43.28705,"lon":5.39981,"is_reserved":false,"is_disabled":false,"rental_uris":{"android":"levelo://app?vid=8878372a-bf65-43e6-87a2-f77b2b383656","ios":"levelo://app?vid=8878372a-bf65-43e6-87a2-f77b2b383656"},"vehicle_type_id":"4","last_reported":1753501955,"current_range_meters":6000,"station_id":"ce4bho92rcd13ifvqh3g","pricing_plan_id":"cebpf4jnsgd1na2vs0mg"},{"bike_id":"51979a68-a8cc-400e-b7b9-cd8004031e65","system_id":"levelo_inurba_marseille","lat":43.22498,"lon":5.34771,"is_reserved":false,"is_disabled":false,"rental_uris":{"android":"levelo://app?vid=51979a68-a8cc-400e-b7b9-cd8004031e65","ios":"levelo://app?vid=51979a68-a8cc-400e-b7b9-cd8004031e65"},"vehicle_type_id":"4","last_reported":1753501955,"current_range_meters":6000,"station_id":"st_cvj5dfep6f1abm77gieg","pricing_plan_id":"cebpf4jnsgd1na2vs0mg"},{"bike_id":"40ebbf11-e969-4340-a336-815ea371ac5e","system_id":"levelo_inurba_marseille","lat":43.2868,"lon":5.38664,"is_reserved":false,"is_disabled":false,"rental_uris":{"android":"levelo://app?vid=40ebbf11-e969-4340-a336-815ea371ac5e","ios":"levelo://app?vid=40ebbf11-e969-4340-a336-815ea371ac5e"},"vehicle_type_id":"4","last_reported":1753501955,"current_range_meters":6400,"station_id":"ce4bh492rcd13ifvqdug","pricing_plan_id":"cebpf4jnsgd1na2vs0mg"},{"bike_id":"b2d9b512-461e-4c22-8160-83c7cfb0cdf8","system_id":"levelo_inurba_marseille","lat":43.279549,"lon":5.410495,"is_reserved":false,"is_disabled":true,"rental_uris":{"android":"levelo://app?vid=b2d9b512-461e-4c22-8160-83c7cfb0cdf8","ios":"levelo://app?vid=b2d9b512-461e-4c22-8160-83c7cfb0cdf8"},"vehicle_type_id":"4","last_reported":1753501955,"current_range_meters":6400,"station_id":"ce4bhnp2rcd13ifvqh0g","pricing_plan_id":"cebpf4jnsgd1na2vs0mg"},{"bike_id":"181c867f-2cf6-466e-96ee-413d90ec73e7","system_id":"levelo_inurba_marseille","lat":43.2978,"lon":5.39346,"is_reserved":false,"is_disabled":false,"rental_uris":{"android":"levelo://app?vid=181c867f-2cf6-466e-96ee-413d90ec73e7","ios":"levelo://app?vid=181c867f-2cf6-466e-96ee-413d90ec73e7"},"vehicle_type_id":"4","last_reported":1753501955,"current_range_meters":6400,"station_id":"chh1huq6cuj3fo74tm60","pricing_plan_id":"cebpf4jnsgd1na2vs0mg"},{"bike_id":"6f8510cb-e3c3-422b-8a9e-e94f7e59a282","system_id":"levelo_inurba_marseille","lat":43.24085,"lon":5.37744,"is_reserved":false,"is_disabled":false,"rental_uris":{"android":"levelo://app?vid=6f8510cb-e3c3-422b-8a9e-e94f7e59a282","ios":"levelo://app?vid=6f8510cb-e3c3-422b-8a9e-e94f7e59a282"},"vehicle_type_id":"4","last_reported":1753501955,"current_range_meters":6400,"station_id":"ce4bhnp2rcd13ifvqgvg","pricing_plan_id":"cebpf4jnsgd1na2vs0mg"},{"bike_id":"9b65ff34-eaf1-48b9-b780-7b72a753f296","system_id":"levelo_inurba_marseille","lat":43.27914,"lon":5.39578,"is_reserved":false,"is_disabled":false,"rental_uris":{"android":"levelo://app?vid=9b65ff34-eaf1-48b9-b780-7b72a753f296","ios":"levelo://app?vid=9b65ff34-eaf1-48b9-b780-7b72a753f296"},"vehicle_type_id":"4","last_reported":1753501955,"current_range_meters":6400,"station_id":"ce4bhf92rcd13ifvqf40","pricing_plan_id":"cebpf4jnsgd1na2vs0mg"},{"bike_id":"1e831606-6e16-47f8-b3af-71272dba83e0","system_id":"levelo_inurba_marseille","lat":43.28943,"lon":5.36635,"is_reserved":false,"is_disabled":false,"rental_uris":{"android":"levelo://app?vid=1e831606-6e16-47f8-b3af-71272dba83e0","ios":"levelo://app?vid=1e831606-6e16-47f8-b3af-71272dba83e0"},"vehicle_type_id":"4","last_reported":1753501955,"current_range_meters":6800,"station_id":"ce4bhap2rcd13ifvqek0","pricing_plan_id":"cebpf4jnsgd1na2vs0mg"},{"bike_id":"532bfd20-ded9-455a-bd78-ae5a649a80b8","system_id":"levelo_inurba_marseille","lat":43.30806,"lon":5.38163,"is_reserved":false,"is_disabled":false,"rental_uris":{"android":"levelo://app?vid=532bfd20-ded9-455a-bd78-ae5a649a80b8","ios":"levelo://app?vid=532bfd20-ded9-455a-bd78-ae5a649a80b8"},"vehicle_type_id":"4","last_reported":1753501955,"current_range_meters":6800,"station_id":"ce4bgt12rcd13ifvqce0","pricing_plan_id":"cebpf4jnsgd1na2vs0mg"},{"bike_id":"65fabc23-cf2a-4ca8-a868-9941476ce202","system_id":"levelo_inurba_marseille","lat":43.23635,"lon":5.362042,"is_reserved":false,"is_disabled":false,"rental_uris":{"android":"levelo://app?vid=65fabc23-cf2a-4ca8-a868-9941476ce202","ios":"levelo://app?vid=65fabc23-cf2a-4ca8-a868-9941476ce202"},"vehicle_type_id":"4","last_reported":1753501955,"current_range_meters":6800,"station_id":"","pricing_plan_id":"cebpf4jnsgd1na2vs0mg"},{"bike_id":"c021b298-a389-435e-84cd-8d26d9bcb513","system_id":"levelo_inurba_marseille","lat":43.29301,"lon":5.37442,"is_reserved":false,"is_disabled":false,"rental_uris":{"android":"levelo://app?vid=c021b298-a389-435e-84cd-8d26d9bcb513","ios":"levelo://app?vid=c021b298-a389-435e-84cd-8d26d9bcb513"},"vehicle_type_id":"4","last_reported":1753501955,"current_range_meters":6800,"station_id":"ce4bgi12rcd13ifvqb70","pricing_plan_id":"cebpf4jnsgd1na2vs0mg"},{"bike_id":"f28d2bb9-4217-4196-a573-ba6f4c172497","system_id":"levelo_inurba_marseille","lat":43.281529,"lon":5.361144,"is_reserved":false,"is_disabled":false,"rental_uris":{"android":"levelo://app?vid=f28d2bb9-4217-4196-a573-ba6f4c172497","ios":"levelo://app?vid=f28d2bb9-4217-4196-a573-ba6f4c172497"},"vehicle_type_id":"4","last_reported":1753501955,"current_range_meters":6800,"station_id":"","pricing_plan_id":"cebpf4jnsgd1na2vs0mg"},{"bike_id":"c341a747-ec18-47bc-8512-a86a147bb06f","system_id":"levelo_inurba_marseille","lat":43.287237,"lon":5.399939,"is_reserved":false,"is_disabled":false,"rental_uris":{"android":"levelo://app?vid=c341a747-ec18-47bc-8512-a86a147bb06f","ios":"levelo://app?vid=c341a747-ec18-47bc-8512-a86a147bb06f"},"vehicle_type_id":"4","last_reported":1753501955,"current_range_meters":6800,"station_id":"ce4bhbh2rcd13ifvqeo0","pricing_plan_id":"cebpf4jnsgd1na2vs0mg"},{"bike_id":"882618bf-6e93-4d61-a549-27a6fac31a49","system_id":"levelo_inurba_marseille","lat":43.28482,"lon":5.38417,"is_reserved":false,"is_disabled":false,"rental_uris":{"android":"levelo://app?vid=882618bf-6e93-4d61-a549-27a6fac31a49","ios":"levelo://app?vid=882618bf-6e93-4d61-a549-27a6fac31a49"},"vehicle_type_id":"4","last_reported":1753501955,"current_range_meters":6800,"station_id":"ce4bh512rcd13ifvqe3g","pricing_plan_id":"cebpf4jnsgd1na2vs0mg"},{"bike_id":"d5da345a-9f27-400d-8169-ec6f536378ae","system_id":"levelo_inurba_marseille","lat":43.25495,"lon":5.37642,"is_reserved":false,"is_disabled":false,"rental_uris":{"android":"levelo://app?vid=d5da345a-9f27-400d-8169-ec6f536378ae","ios":"levelo://app?vid=d5da345a-9f27-400d-8169-ec6f536378ae"},"vehicle_type_id":"4","last_reported":1753501955,"current_range_meters":6800,"station_id":"ce4bhh12rcd13ifvqff0","pricing_plan_id":"cebpf4jnsgd1na2vs0mg"},{"bike_id":"f01f1a20-5185-42d2-84c2-b3481238cb08","system_id":"levelo_inurba_marseille","lat":43.305778,"lon":5.372611,"is_reserved":false,"is_disabled":false,"rental_uris":{"android":"levelo://app?vid=f01f1a20-5185-42d2-84c2-b3481238cb08","ios":"levelo://app?vid=f01f1a20-5185-42d2-84c2-b3481238cb08"},"vehicle_type_id":"4","last_reported":1753501955,"current_range_meters":7200,"station_id":"ce4bgqh2rcd13ifvqc4g","pricing_plan_id":"cebpf4jnsgd1na2vs0mg"},{"bike_id":"04aa5f40-dcf4-48c8-b153-089426eae692","system_id":"levelo_inurba_marseille","lat":43.30116,"lon":5.39854,"is_reserved":false,"is_disabled":false,"rental_uris":{"android":"levelo://app?vid=04aa5f40-dcf4-48c8-b153-089426eae692","ios":"levelo://app?vid=04aa5f40-dcf4-48c8-b153-089426eae692"},"vehicle_type_id":"4","last_reported":1753501955,"current_range_meters":8000,"station_id":"ce4bh0h2rcd13ifvqd40","pricing_plan_id":"cebpf4jnsgd1na2vs0mg"},{"bike_id":"b213d83d-cd34-418c-924c-1a8970fdd817","system_id":"levelo_inurba_marseille","lat":43.30126,"lon":5.37422,"is_reserved":false,"is_disabled":true,"rental_uris":{"android":"levelo://app?vid=b213d83d-cd34-418c-924c-1a8970fdd817","ios":"levelo://app?vid=b213d83d-cd34-418c-924c-1a8970fdd817"},"vehicle_type_id":"4","last_reported":1753501955,"current_range_meters":8000,"station_id":"ce4bgs92rcd13ifvqcc0","pricing_plan_id":"cebpf4jnsgd1na2vs0mg"},{"bike_id":"fe02b32c-af1c-46e2-a193-a484607d4788","system_id":"levelo_inurba_marseille","lat":43.26501,"lon":5.39536,"is_reserved":false,"is_disabled":false,"rental_uris":{"android":"levelo://app?vid=fe02b32c-af1c-46e2-a193-a484607d4788","ios":"levelo://app?vid=fe02b32c-af1c-46e2-a193-a484607d4788"},"vehicle_type_id":"4","last_reported":1753501955,"current_range_meters":8000,"station_id":"ce4bhi12rcd13ifvqfq0","pricing_plan_id":"cebpf4jnsgd1na2vs0mg"},{"bike_id":"a1676a90-aeae-4e28-8472-3e88e730a66f","system_id":"levelo_inurba_marseille","lat":43.29054,"lon":5.43961,"is_reserved":false,"is_disabled":false,"rental_uris":{"android":"levelo://app?vid=a1676a90-aeae-4e28-8472-3e88e730a66f","ios":"levelo://app?vid=a1676a90-aeae-4e28-8472-3e88e730a66f"},"vehicle_type_id":"4","last_reported":1753501955,"current_range_meters":8400,"station_id":"","pricing_plan_id":"cebpf4jnsgd1na2vs0mg"},{"bike_id":"79731e34-e0c5-4fad-be4c-a79fac89bc09","system_id":"levelo_inurba_marseille","lat":43.28664,"lon":5.38676,"is_reserved":false,"is_disabled":true,"rental_uris":{"android":"levelo://app?vid=79731e34-e0c5-4fad-be4c-a79fac89bc09","ios":"levelo://app?vid=79731e34-e0c5-4fad-be4c-a79fac89bc09"},"vehicle_type_id":"4","last_reported":1753501955,"current_range_meters":8400,"station_id":"ce4bh492rcd13ifvqdug","pricing_plan_id":"cebpf4jnsgd1na2vs0mg"},{"bike_id":"ab18ad8f-5eb3-4500-abe1-f62e948a9104","system_id":"levelo_inurba_marseille","lat":43.22501,"lon":5.34786,"is_reserved":false,"is_disabled":false,"rental_uris":{"android":"levelo://app?vid=ab18ad8f-5eb3-4500-abe1-f62e948a9104","ios":"levelo://app?vid=ab18ad8f-5eb3-4500-abe1-f62e948a9104"},"vehicle_type_id":"4","last_reported":1753501955,"current_range_meters":8400,"station_id":"st_cvj5dfep6f1abm77gieg","pricing_plan_id":"cebpf4jnsgd1na2vs0mg"},{"bike_id":"7d09ca65-31b4-4f39-8e17-9dd292a03570","system_id":"levelo_inurba_marseille","lat":43.28347,"lon":5.38103,"is_reserved":false,"is_disabled":false,"rental_uris":{"android":"levelo://app?vid=7d09ca65-31b4-4f39-8e17-9dd292a03570","ios":"levelo://app?vid=7d09ca65-31b4-4f39-8e17-9dd292a03570"},"vehicle_type_id":"4","last_reported":1753501955,"current_range_meters":8400,"station_id":"ce4bh412rcd13ifvqdr0","pricing_plan_id":"cebpf4jnsgd1na2vs0mg"},{"bike_id":"5b94eff9-2e0f-4c0e-b3f6-ab7ca2eca31a","system_id":"levelo_inurba_marseille","lat":43.27376,"lon":5.3625,"is_reserved":false,"is_disabled":true,"rental_uris":{"android":"levelo://app?vid=5b94eff9-2e0f-4c0e-b3f6-ab7ca2eca31a","ios":"levelo://app?vid=5b94eff9-2e0f-4c0e-b3f6-ab7ca2eca31a"},"vehicle_type_id":"4","last_reported":1753501955,"current_range_meters":8400,"station_id":"ce4bhbh2rcd13ifvqeo0","pricing_plan_id":"cebpf4jnsgd1na2vs0mg"},{"bike_id":"76f9670f-02d3-43d4-ab45-d9885ba5c360","system_id":"levelo_inurba_marseille","lat":43.28851,"lon":5.39313,"is_reserved":false,"is_disabled":false,"rental_uris":{"android":"levelo://app?vid=76f9670f-02d3-43d4-ab45-d9885ba5c360","ios":"levelo://app?vid=76f9670f-02d3-43d4-ab45-d9885ba5c360"},"vehicle_type_id":"4","last_reported":1753501955,"current_range_meters":8400,"station_id":"ce4bh2p2rcd13ifvqdi0","pricing_plan_id":"cebpf4jnsgd1na2vs0mg"},{"bike_id":"ac7f3c2f-452c-4620-beb4-96f9c8da3434","system_id":"levelo_inurba_marseille","lat":43.30607,"lon":5.38536,"is_reserved":false,"is_disabled":false,"rental_uris":{"android":"levelo://app?vid=ac7f3c2f-452c-4620-beb4-96f9c8da3434","ios":"levelo://app?vid=ac7f3c2f-452c-4620-beb4-96f9c8da3434"},"vehicle_type_id":"4","last_reported":1753501955,"current_range_meters":8400,"station_id":"","pricing_plan_id":"cebpf4jnsgd1na2vs0mg"},{"bike_id":"c332dd65-e309-4522-9e19-3f557a659a6f","system_id":"levelo_inurba_marseille","lat":43.303305,"lon":5.390432,"is_reserved":false,"is_disabled":false,"rental_uris":{"android":"levelo://app?vid=c332dd65-e309-4522-9e19-3f557a659a6f","ios":"levelo://app?vid=c332dd65-e309-4522-9e19-3f557a659a6f"},"vehicle_type_id":"4","last_reported":1753501955,"current_range_meters":8400,"station_id":"","pricing_plan_id":"cebpf4jnsgd1na2vs0mg"},{"bike_id":"282bf4fa-8dd0-4bb6-bfb4-61e17c78e838","system_id":"levelo_inurba_marseille","lat":43.30249,"lon":5.4005,"is_reserved":false,"is_disabled":false,"rental_uris":{"android":"levelo://app?vid=282bf4fa-8dd0-4bb6-bfb4-61e17c78e838","ios":"levelo://app?vid=282bf4fa-8dd0-4bb6-bfb4-61e17c78e838"},"vehicle_type_id":"4","last_reported":1753501955,"current_range_meters":8400,"station_id":"ce4bgvh2rcd13ifvqcs0","pricing_plan_id":"cebpf4jnsgd1na2vs0mg"},{"bike_id":"89dcea3a-f7f7-44b2-9d2c-a3300861829d","system_id":"levelo_inurba_marseille","lat":43.278593,"lon":5.397305,"is_reserved":false,"is_disabled":false,"rental_uris":{"android":"levelo://app?vid=89dcea3a-f7f7-44b2-9d2c-a3300861829d","ios":"levelo://app?vid=89dcea3a-f7f7-44b2-9d2c-a3300861829d"},"vehicle_type_id":"4","last_reported":1753501955,"current_range_meters":8400,"station_id":"","pricing_plan_id":"cebpf4jnsgd1na2vs0mg"},{"bike_id":"3d93678c-a81c-4620-984f-403438ac187e","system_id":"levelo_inurba_marseille","lat":43.279014,"lon":5.427622,"is_reserved":false,"is_disabled":false,"rental_uris":{"android":"levelo://app?vid=3d93678c-a81c-4620-984f-403438ac187e","ios":"levelo://app?vid=3d93678c-a81c-4620-984f-403438ac187e"},"vehicle_type_id":"4","last_reported":1753501955,"current_range_meters":8400,"station_id":"","pricing_plan_id":"cebpf4jnsgd1na2vs0mg"},{"bike_id":"22a390ae-8984-4017-8fa8-3175df5e7f16","system_id":"levelo_inurba_marseille","lat":43.302603,"lon":5.400753,"is_reserved":false,"is_disabled":false,"rental_uris":{"android":"levelo://app?vid=22a390ae-8984-4017-8fa8-3175df5e7f16","ios":"levelo://app?vid=22a390ae-8984-4017-8fa8-3175df5e7f16"},"vehicle_type_id":"4","last_reported":1753501955,"current_range_meters":8400,"station_id":"ce4bgvh2rcd13ifvqcs0","pricing_plan_id":"cebpf4jnsgd1na2vs0mg"},{"bike_id":"6bb2ef45-92d7-483c-9633-db7367ddc00d","system_id":"levelo_inurba_marseille","lat":43.302594,"lon":5.400541,"is_reserved":false,"is_disabled":false,"rental_uris":{"android":"levelo://app?vid=6bb2ef45-92d7-483c-9633-db7367ddc00d","ios":"levelo://app?vid=6bb2ef45-92d7-483c-9633-db7367ddc00d"},"vehicle_type_id":"4","last_reported":1753501955,"current_range_meters":8400,"station_id":"ce4bgvh2rcd13ifvqcs0","pricing_plan_id":"cebpf4jnsgd1na2vs0mg"},{"bike_id":"5e996369-86ae-4816-8750-239b0e998170","system_id":"levelo_inurba_marseille","lat":43.2174,"lon":5.34593,"is_reserved":false,"is_disabled":false,"rental_uris":{"android":"levelo://app?vid=5e996369-86ae-4816-8750-239b0e998170","ios":"levelo://app?vid=5e996369-86ae-4816-8750-239b0e998170"},"vehicle_type_id":"4","last_reported":1753501955,"current_range_meters":8800,"station_id":"st_cvj6r9ubvosntc0bgbag","pricing_plan_id":"cebpf4jnsgd1na2vs0mg"},{"bike_id":"2cb156e7-0dd6-4356-8f3a-8a5ea9426834","system_id":"levelo_inurba_marseille","lat":43.28715,"lon":5.37937,"is_reserved":false,"is_disabled":false,"rental_uris":{"android":"levelo://app?vid=2cb156e7-0dd6-4356-8f3a-8a5ea9426834","ios":"levelo://app?vid=2cb156e7-0dd6-4356-8f3a-8a5ea9426834"},"vehicle_type_id":"4","last_reported":1753501955,"current_range_meters":6800,"station_id":"ce4bh9p2rcd13ifvqec0","pricing_plan_id":"cebpf4jnsgd1na2vs0mg"},{"bike_id":"1c31f24b-2b9e-48c3-b103-bffd32b92420","system_id":"levelo_inurba_marseille","lat":43.33527,"lon":5.40865,"is_reserved":false,"is_disabled":false,"rental_uris":{"android":"levelo://app?vid=1c31f24b-2b9e-48c3-b103-bffd32b92420","ios":"levelo://app?vid=1c31f24b-2b9e-48c3-b103-bffd32b92420"},"vehicle_type_id":"4","last_reported":1753501955,"current_range_meters":8800,"station_id":"","pricing_plan_id":"cebpf4jnsgd1na2vs0mg"},{"bike_id":"b8894c22-2090-4ae8-81cc-12a255a42e3d","system_id":"levelo_inurba_marseille","lat":43.29675,"lon":5.38728,"is_reserved":false,"is_disabled":true,"rental_uris":{"android":"levelo://app?vid=b8894c22-2090-4ae8-81cc-12a255a42e3d","ios":"levelo://app?vid=b8894c22-2090-4ae8-81cc-12a255a42e3d"},"vehicle_type_id":"4","last_reported":1753501955,"current_range_meters":8800,"station_id":"","pricing_plan_id":"cebpf4jnsgd1na2vs0mg"},{"bike_id":"f7623b57-5f88-4ef7-8535-1d8b44f90d27","system_id":"levelo_inurba_marseille","lat":43.224934,"lon":5.347791,"is_reserved":false,"is_disabled":false,"rental_uris":{"android":"levelo://app?vid=f7623b57-5f88-4ef7-8535-1d8b44f90d27","ios":"levelo://app?vid=f7623b57-5f88-4ef7-8535-1d8b44f90d27"},"vehicle_type_id":"4","last_reported":1753501955,"current_range_meters":8800,"station_id":"","pricing_plan_id":"cebpf4jnsgd1na2vs0mg"},{"bike_id":"ff30a5ee-0e9d-4bfa-a593-c7beaf9df463","system_id":"levelo_inurba_marseille","lat":43.33535,"lon":5.36212,"is_reserved":false,"is_disabled":false,"rental_uris":{"android":"levelo://app?vid=ff30a5ee-0e9d-4bfa-a593-c7beaf9df463","ios":"levelo://app?vid=ff30a5ee-0e9d-4bfa-a593-c7beaf9df463"},"vehicle_type_id":"4","last_reported":1753501955,"current_range_meters":8800,"station_id":"","pricing_plan_id":"cebpf4jnsgd1na2vs0mg"},{"bike_id":"f6be5df2-a7bd-4141-8071-a46835832a84","system_id":"levelo_inurba_marseille","lat":43.24806,"lon":5.37459,"is_reserved":false,"is_disabled":false,"rental_uris":{"android":"levelo://app?vid=f6be5df2-a7bd-4141-8071-a46835832a84","ios":"levelo://app?vid=f6be5df2-a7bd-4141-8071-a46835832a84"},"vehicle_type_id":"4","last_reported":1753501955,"current_range_meters":8400,"station_id":"ce4bhgh2rcd13ifvqfb0","pricing_plan_id":"cebpf4jnsgd1na2vs0mg"},{"bike_id":"465cf7cf-a03a-47ab-abe6-8f43755a449b","system_id":"levelo_inurba_marseille","lat":43.28844,"lon":5.39317,"is_reserved":false,"is_disabled":false,"rental_uris":{"android":"levelo://app?vid=465cf7cf-a03a-47ab-abe6-8f43755a449b","ios":"levelo://app?vid=465cf7cf-a03a-47ab-abe6-8f43755a449b"},"vehicle_type_id":"4","last_reported":1753501955,"current_range_meters":8800,"station_id":"ce4bh2p2rcd13ifvqdi0","pricing_plan_id":"cebpf4jnsgd1na2vs0mg"},{"bike_id":"0b74ce72-9ebb-4ab4-b06f-0b2471c980ce","system_id":"levelo_inurba_marseille","lat":43.30088,"lon":5.39083,"is_reserved":false,"is_disabled":false,"rental_uris":{"android":"levelo://app?vid=0b74ce72-9ebb-4ab4-b06f-0b2471c980ce","ios":"levelo://app?vid=0b74ce72-9ebb-4ab4-b06f-0b2471c980ce"},"vehicle_type_id":"4","last_reported":1753501955,"current_range_meters":8800,"station_id":"ce4bh192rcd13ifvqdb0","pricing_plan_id":"cebpf4jnsgd1na2vs0mg"},{"bike_id":"177981dd-3c05-4e3c-9a69-f569b35b5310","system_id":"levelo_inurba_marseille","lat":43.24555,"lon":5.39524,"is_reserved":false,"is_disabled":false,"rental_uris":{"android":"levelo://app?vid=177981dd-3c05-4e3c-9a69-f569b35b5310","ios":"levelo://app?vid=177981dd-3c05-4e3c-9a69-f569b35b5310"},"vehicle_type_id":"4","last_reported":1753501955,"current_range_meters":9200,"station_id":"ce4bhlp2rcd13ifvqgjg","pricing_plan_id":"cebpf4jnsgd1na2vs0mg"},{"bike_id":"4d0b98e0-a806-4f67-976e-b170c89d08d3","system_id":"levelo_inurba_marseille","lat":43.30248,"lon":5.40077,"is_reserved":false,"is_disabled":false,"rental_uris":{"android":"levelo://app?vid=4d0b98e0-a806-4f67-976e-b170c89d08d3","ios":"levelo://app?vid=4d0b98e0-a806-4f67-976e-b170c89d08d3"},"vehicle_type_id":"4","last_reported":1753501955,"current_range_meters":8800,"station_id":"ce4bgvh2rcd13ifvqcs0","pricing_plan_id":"cebpf4jnsgd1na2vs0mg"},{"bike_id":"c98440bb-dac9-4843-8b58-b8928d27d0bf","system_id":"levelo_inurba_marseille","lat":43.29795,"lon":5.38094,"is_reserved":false,"is_disabled":false,"rental_uris":{"android":"levelo://app?vid=c98440bb-dac9-4843-8b58-b8928d27d0bf","ios":"levelo://app?vid=c98440bb-dac9-4843-8b58-b8928d27d0bf"},"vehicle_type_id":"4","last_reported":1753501955,"current_range_meters":9200,"station_id":"ce4bgip2rcd13ifvqbb0","pricing_plan_id":"cebpf4jnsgd1na2vs0mg"},{"bike_id":"0939eecf-ab8e-4e0f-8dde-ab5f40cfd3cc","system_id":"levelo_inurba_marseille","lat":43.28409,"lon":5.35006,"is_reserved":false,"is_disabled":true,"rental_uris":{"android":"levelo://app?vid=0939eecf-ab8e-4e0f-8dde-ab5f40cfd3cc","ios":"levelo://app?vid=0939eecf-ab8e-4e0f-8dde-ab5f40cfd3cc"},"vehicle_type_id":"4","last_reported":1753501955,"current_range_meters":9200,"station_id":"ce4bhbh2rcd13ifvqepg","pricing_plan_id":"cebpf4jnsgd1na2vs0mg"},{"bike_id":"a2ccbf76-8c1a-4aef-814f-db130f867270","system_id":"levelo_inurba_marseille","lat":43.30973,"lon":5.37375,"is_reserved":false,"is_disabled":false,"rental_uris":{"android":"levelo://app?vid=a2ccbf76-8c1a-4aef-814f-db130f867270","ios":"levelo://app?vid=a2ccbf76-8c1a-4aef-814f-db130f867270"},"vehicle_type_id":"4","last_reported":1753501955,"current_range_meters":9200,"station_id":"","pricing_plan_id":"cebpf4jnsgd1na2vs0mg"},{"bike_id":"c8dc9712-a045-4d70-989b-83ececa57361","system_id":"levelo_inurba_marseille","lat":43.2847,"lon":5.384128,"is_reserved":false,"is_disabled":false,"rental_uris":{"android":"levelo://app?vid=c8dc9712-a045-4d70-989b-83ececa57361","ios":"levelo://app?vid=c8dc9712-a045-4d70-989b-83ececa57361"},"vehicle_type_id":"4","last_reported":1753501955,"current_range_meters":9600,"station_id":"ce4bh512rcd13ifvqe3g","pricing_plan_id":"cebpf4jnsgd1na2vs0mg"},{"bike_id":"903350dd-ee3e-4369-8601-96805ce0d468","system_id":"levelo_inurba_marseille","lat":43.30988,"lon":5.390196,"is_reserved":false,"is_disabled":true,"rental_uris":{"android":"levelo://app?vid=903350dd-ee3e-4369-8601-96805ce0d468","ios":"levelo://app?vid=903350dd-ee3e-4369-8601-96805ce0d468"},"vehicle_type_id":"4","last_reported":1753501955,"current_range_meters":9600,"station_id":"ce4bgup2rcd13ifvqco0","pricing_plan_id":"cebpf4jnsgd1na2vs0mg"},{"bike_id":"3de4c8b4-a250-4819-8f42-2ecf8c45b170","system_id":"levelo_inurba_marseille","lat":43.29874,"lon":5.3975,"is_reserved":false,"is_disabled":false,"rental_uris":{"android":"levelo://app?vid=3de4c8b4-a250-4819-8f42-2ecf8c45b170","ios":"levelo://app?vid=3de4c8b4-a250-4819-8f42-2ecf8c45b170"},"vehicle_type_id":"4","last_reported":1753501955,"current_range_meters":9600,"station_id":"ce4bh0h2rcd13ifvqd50","pricing_plan_id":"cebpf4jnsgd1na2vs0mg"},{"bike_id":"96539dd0-0f96-4ac5-b9b3-14b233b89122","system_id":"levelo_inurba_marseille","lat":43.28713,"lon":5.39985,"is_reserved":false,"is_disabled":false,"rental_uris":{"android":"levelo://app?vid=96539dd0-0f96-4ac5-b9b3-14b233b89122","ios":"levelo://app?vid=96539dd0-0f96-4ac5-b9b3-14b233b89122"},"vehicle_type_id":"4","last_reported":1753501955,"current_range_meters":9600,"station_id":"ce4bho92rcd13ifvqh3g","pricing_plan_id":"cebpf4jnsgd1na2vs0mg"},{"bike_id":"c33ca5fe-1b5e-4a19-9aa5-840ad46394e0","system_id":"levelo_inurba_marseille","lat":43.29729,"lon":5.37649,"is_reserved":false,"is_disabled":true,"rental_uris":{"android":"levelo://app?vid=c33ca5fe-1b5e-4a19-9aa5-840ad46394e0","ios":"levelo://app?vid=c33ca5fe-1b5e-4a19-9aa5-840ad46394e0"},"vehicle_type_id":"4","last_reported":1753501955,"current_range_meters":9600,"station_id":"ce4bgkh2rcd13ifvqbl0","pricing_plan_id":"cebpf4jnsgd1na2vs0mg"},{"bike_id":"2e791062-9e6a-4a1a-9c40-edf913003214","system_id":"levelo_inurba_marseille","lat":43.323353,"lon":5.40623,"is_reserved":false,"is_disabled":false,"rental_uris":{"android":"levelo://app?vid=2e791062-9e6a-4a1a-9c40-edf913003214","ios":"levelo://app?vid=2e791062-9e6a-4a1a-9c40-edf913003214"},"vehicle_type_id":"4","last_reported":1753501955,"current_range_meters":9600,"station_id":"ce4bhq92rcd13ifvqhjg","pricing_plan_id":"cebpf4jnsgd1na2vs0mg"},{"bike_id":"f6498196-7ee3-4ab0-bc04-8e549d655f83","system_id":"levelo_inurba_marseille","lat":43.29309,"lon":5.37169,"is_reserved":false,"is_disabled":false,"rental_uris":{"android":"levelo://app?vid=f6498196-7ee3-4ab0-bc04-8e549d655f83","ios":"levelo://app?vid=f6498196-7ee3-4ab0-bc04-8e549d655f83"},"vehicle_type_id":"4","last_reported":1753501955,"current_range_meters":9200,"station_id":"ce4bgh92rcd13ifvqb40","pricing_plan_id":"cebpf4jnsgd1na2vs0mg"},{"bike_id":"35ee41ab-1155-4c5d-a3ff-d1e05b86be8c","system_id":"levelo_inurba_marseille","lat":43.31071,"lon":5.40123,"is_reserved":false,"is_disabled":true,"rental_uris":{"android":"levelo://app?vid=35ee41ab-1155-4c5d-a3ff-d1e05b86be8c","ios":"levelo://app?vid=35ee41ab-1155-4c5d-a3ff-d1e05b86be8c"},"vehicle_type_id":"4","last_reported":1753501955,"current_range_meters":9600,"station_id":"","pricing_plan_id":"cebpf4jnsgd1na2vs0mg"},{"bike_id":"f844a339-7d37-4629-b9b3-2ab886c95711","system_id":"levelo_inurba_marseille","lat":43.258555,"lon":5.399179,"is_reserved":false,"is_disabled":true,"rental_uris":{"android":"levelo://app?vid=f844a339-7d37-4629-b9b3-2ab886c95711","ios":"levelo://app?vid=f844a339-7d37-4629-b9b3-2ab886c95711"},"vehicle_type_id":"4","last_reported":1753501955,"current_range_meters":10000,"station_id":"ce4bhl92rcd13ifvqghg","pricing_plan_id":"cebpf4jnsgd1na2vs0mg"},{"bike_id":"2e8e7fa4-47bc-4567-b903-96abfb4fdf66","system_id":"levelo_inurba_marseille","lat":43.2928,"lon":5.44596,"is_reserved":false,"is_disabled":false,"rental_uris":{"android":"levelo://app?vid=2e8e7fa4-47bc-4567-b903-96abfb4fdf66","ios":"levelo://app?vid=2e8e7fa4-47bc-4567-b903-96abfb4fdf66"},"vehicle_type_id":"4","last_reported":1753501955,"current_range_meters":10000,"station_id":"","pricing_plan_id":"cebpf4jnsgd1na2vs0mg"},{"bike_id":"2d82e278-cb4c-4b59-b6a8-321cc8436dad","system_id":"levelo_inurba_marseille","lat":43.29297,"lon":5.37447,"is_reserved":false,"is_disabled":false,"rental_uris":{"android":"levelo://app?vid=2d82e278-cb4c-4b59-b6a8-321cc8436dad","ios":"levelo://app?vid=2d82e278-cb4c-4b59-b6a8-321cc8436dad"},"vehicle_type_id":"4","last_reported":1753501955,"current_range_meters":9600,"station_id":"ce4bgi12rcd13ifvqb70","pricing_plan_id":"cebpf4jnsgd1na2vs0mg"},{"bike_id":"490fd0a3-3ae2-4135-acff-5c94025f5f04","system_id":"levelo_inurba_marseille","lat":43.279196,"lon":5.395775,"is_reserved":false,"is_disabled":true,"rental_uris":{"android":"levelo://app?vid=490fd0a3-3ae2-4135-acff-5c94025f5f04","ios":"levelo://app?vid=490fd0a3-3ae2-4135-acff-5c94025f5f04"},"vehicle_type_id":"4","last_reported":1753501955,"current_range_meters":10000,"station_id":"ce4bhf92rcd13ifvqf40","pricing_plan_id":"cebpf4jnsgd1na2vs0mg"},{"bike_id":"04d6cdd5-5582-46ca-8f5a-f546962f07c6","system_id":"levelo_inurba_marseille","lat":43.2887,"lon":5.37877,"is_reserved":false,"is_disabled":false,"rental_uris":{"android":"levelo://app?vid=04d6cdd5-5582-46ca-8f5a-f546962f07c6","ios":"levelo://app?vid=04d6cdd5-5582-46ca-8f5a-f546962f07c6"},"vehicle_type_id":"4","last_reported":1753501955,"current_range_meters":10000,"station_id":"","pricing_plan_id":"cebpf4jnsgd1na2vs0mg"},{"bike_id":"6755382c-76dd-4587-baf5-a4b43a86610a","system_id":"levelo_inurba_marseille","lat":43.240784,"lon":5.377419,"is_reserved":false,"is_disabled":false,"rental_uris":{"android":"levelo://app?vid=6755382c-76dd-4587-baf5-a4b43a86610a","ios":"levelo://app?vid=6755382c-76dd-4587-baf5-a4b43a86610a"},"vehicle_type_id":"4","last_reported":1753501955,"current_range_meters":10000,"station_id":"ce4bhnp2rcd13ifvqgvg","pricing_plan_id":"cebpf4jnsgd1na2vs0mg"},{"bike_id":"8cbb8f7f-9095-4ea2-b7c0-3cb05502a868","system_id":"levelo_inurba_marseille","lat":43.28875,"lon":5.3715,"is_reserved":false,"is_disabled":false,"rental_uris":{"android":"levelo://app?vid=8cbb8f7f-9095-4ea2-b7c0-3cb05502a868","ios":"levelo://app?vid=8cbb8f7f-9095-4ea2-b7c0-3cb05502a868"},"vehicle_type_id":"4","last_reported":1753501955,"current_range_meters":10000,"station_id":"","pricing_plan_id":"cebpf4jnsgd1na2vs0mg"},{"bike_id":"5440a182-b760-4205-92c8-d9ab0a9c67c8","system_id":"levelo_inurba_marseille","lat":43.28426,"lon":5.34995,"is_reserved":false,"is_disabled":true,"rental_uris":{"android":"levelo://app?vid=5440a182-b760-4205-92c8-d9ab0a9c67c8","ios":"levelo://app?vid=5440a182-b760-4205-92c8-d9ab0a9c67c8"},"vehicle_type_id":"4","last_reported":1753501955,"current_range_meters":10800,"station_id":"ce4bhbh2rcd13ifvqepg","pricing_plan_id":"cebpf4jnsgd1na2vs0mg"},{"bike_id":"f1215a87-34bc-492a-af0e-45637cb2773e","system_id":"levelo_inurba_marseille","lat":43.292467,"lon":5.409086,"is_reserved":false,"is_disabled":false,"rental_uris":{"android":"levelo://app?vid=f1215a87-34bc-492a-af0e-45637cb2773e","ios":"levelo://app?vid=f1215a87-34bc-492a-af0e-45637cb2773e"},"vehicle_type_id":"4","last_reported":1753501955,"current_range_meters":10800,"station_id":"ce4bh192rcd13ifvqdc0","pricing_plan_id":"cebpf4jnsgd1na2vs0mg"},{"bike_id":"078febbd-6d49-4abf-8b46-d33f87f8da46","system_id":"levelo_inurba_marseille","lat":43.25452,"lon":5.38007,"is_reserved":false,"is_disabled":false,"rental_uris":{"android":"levelo://app?vid=078febbd-6d49-4abf-8b46-d33f87f8da46","ios":"levelo://app?vid=078febbd-6d49-4abf-8b46-d33f87f8da46"},"vehicle_type_id":"4","last_reported":1753501955,"current_range_meters":10800,"station_id":"","pricing_plan_id":"cebpf4jnsgd1na2vs0mg"},{"bike_id":"591fb768-7e78-4b54-88b5-e73a5af76b19","system_id":"levelo_inurba_marseille","lat":43.22955,"lon":5.35339,"is_reserved":false,"is_disabled":false,"rental_uris":{"android":"levelo://app?vid=591fb768-7e78-4b54-88b5-e73a5af76b19","ios":"levelo://app?vid=591fb768-7e78-4b54-88b5-e73a5af76b19"},"vehicle_type_id":"4","last_reported":1753501955,"current_range_meters":10800,"station_id":"cpo3532slgdg3j2ikp40","pricing_plan_id":"cebpf4jnsgd1na2vs0mg"},{"bike_id":"ccca3042-9358-40fc-ac03-e327e01c225f","system_id":"levelo_inurba_marseille","lat":43.233034,"lon":5.361089,"is_reserved":false,"is_disabled":false,"rental_uris":{"android":"levelo://app?vid=ccca3042-9358-40fc-ac03-e327e01c225f","ios":"levelo://app?vid=ccca3042-9358-40fc-ac03-e327e01c225f"},"vehicle_type_id":"4","last_reported":1753501955,"current_range_meters":10800,"station_id":"","pricing_plan_id":"cebpf4jnsgd1na2vs0mg"},{"bike_id":"c017b4de-074c-46ed-bc0a-5b7912813135","system_id":"levelo_inurba_marseille","lat":43.26103,"lon":5.37252,"is_reserved":false,"is_disabled":false,"rental_uris":{"android":"levelo://app?vid=c017b4de-074c-46ed-bc0a-5b7912813135","ios":"levelo://app?vid=c017b4de-074c-46ed-bc0a-5b7912813135"},"vehicle_type_id":"4","last_reported":1753501955,"current_range_meters":10800,"station_id":"","pricing_plan_id":"cebpf4jnsgd1na2vs0mg"},{"bike_id":"de0d96be-6c69-4f11-937e-fd9949b146c2","system_id":"levelo_inurba_marseille","lat":43.29708,"lon":5.36571,"is_reserved":false,"is_disabled":false,"rental_uris":{"android":"levelo://app?vid=de0d96be-6c69-4f11-937e-fd9949b146c2","ios":"levelo://app?vid=de0d96be-6c69-4f11-937e-fd9949b146c2"},"vehicle_type_id":"4","last_reported":1753501955,"current_range_meters":10800,"station_id":"ce4bgn12rcd13ifvqbt0","pricing_plan_id":"cebpf4jnsgd1na2vs0mg"},{"bike_id":"79079a9a-8322-4f6c-a9e6-9aba90ee17ba","system_id":"levelo_inurba_marseille","lat":43.33728,"lon":5.37454,"is_reserved":false,"is_disabled":false,"rental_uris":{"android":"levelo://app?vid=79079a9a-8322-4f6c-a9e6-9aba90ee17ba","ios":"levelo://app?vid=79079a9a-8322-4f6c-a9e6-9aba90ee17ba"},"vehicle_type_id":"4","last_reported":1753501955,"current_range_meters":10800,"station_id":"","pricing_plan_id":"cebpf4jnsgd1na2vs0mg"},{"bike_id":"4e6e6044-20e5-44fc-87b5-2b41e2616d90","system_id":"levelo_inurba_marseille","lat":43.301496,"lon":5.398659,"is_reserved":false,"is_disabled":true,"rental_uris":{"android":"levelo://app?vid=4e6e6044-20e5-44fc-87b5-2b41e2616d90","ios":"levelo://app?vid=4e6e6044-20e5-44fc-87b5-2b41e2616d90"},"vehicle_type_id":"4","last_reported":1753501955,"current_range_meters":10800,"station_id":"ce4bh0h2rcd13ifvqd40","pricing_plan_id":"cebpf4jnsgd1na2vs0mg"},{"bike_id":"421db1c8-c66c-4175-82a7-0ee065df7ba2","system_id":"levelo_inurba_marseille","lat":43.27055,"lon":5.40262,"is_reserved":false,"is_disabled":false,"rental_uris":{"android":"levelo://app?vid=421db1c8-c66c-4175-82a7-0ee065df7ba2","ios":"levelo://app?vid=421db1c8-c66c-4175-82a7-0ee065df7ba2"},"vehicle_type_id":"4","last_reported":1753501955,"current_range_meters":11200,"station_id":"ce4bhk92rcd13ifvqgc0","pricing_plan_id":"cebpf4jnsgd1na2vs0mg"},{"bike_id":"d83c957c-7060-40bf-ba76-99af91d79f08","system_id":"levelo_inurba_marseille","lat":43.28575,"lon":5.394914,"is_reserved":false,"is_disabled":false,"rental_uris":{"android":"levelo://app?vid=d83c957c-7060-40bf-ba76-99af91d79f08","ios":"levelo://app?vid=d83c957c-7060-40bf-ba76-99af91d79f08"},"vehicle_type_id":"4","last_reported":1753501955,"current_range_meters":11200,"station_id":"ce4bh292rcd13ifvqdg0","pricing_plan_id":"cebpf4jnsgd1na2vs0mg"},{"bike_id":"a3fe9995-2e3e-423b-9540-429a92fa997e","system_id":"levelo_inurba_marseille","lat":43.30177,"lon":5.37205,"is_reserved":false,"is_disabled":false,"rental_uris":{"android":"levelo://app?vid=a3fe9995-2e3e-423b-9540-429a92fa997e","ios":"levelo://app?vid=a3fe9995-2e3e-423b-9540-429a92fa997e"},"vehicle_type_id":"4","last_reported":1753501955,"current_range_meters":11200,"station_id":"","pricing_plan_id":"cebpf4jnsgd1na2vs0mg"},{"bike_id":"14290dc3-0ecb-4c09-bf2e-6db4a8e35188","system_id":"levelo_inurba_marseille","lat":43.243989,"lon":5.3706,"is_reserved":false,"is_disabled":false,"rental_uris":{"android":"levelo://app?vid=14290dc3-0ecb-4c09-bf2e-6db4a8e35188","ios":"levelo://app?vid=14290dc3-0ecb-4c09-bf2e-6db4a8e35188"},"vehicle_type_id":"4","last_reported":1753501955,"current_range_meters":11200,"station_id":"ce4bhhh2rcd13ifvqfk0","pricing_plan_id":"cebpf4jnsgd1na2vs0mg"},{"bike_id":"33976e3d-53c0-4185-846b-4b84207e0d06","system_id":"levelo_inurba_marseille","lat":43.322825,"lon":5.382797,"is_reserved":false,"is_disabled":false,"rental_uris":{"android":"levelo://app?vid=33976e3d-53c0-4185-846b-4b84207e0d06","ios":"levelo://app?vid=33976e3d-53c0-4185-846b-4b84207e0d06"},"vehicle_type_id":"4","last_reported":1753501955,"current_range_meters":11200,"station_id":"ce4bhr12rcd13ifvqhqg","pricing_plan_id":"cebpf4jnsgd1na2vs0mg"},{"bike_id":"44dd49d0-ee46-43b9-9770-ee74a62ddcb7","system_id":"levelo_inurba_marseille","lat":43.310791,"lon":5.383511,"is_reserved":false,"is_disabled":false,"rental_uris":{"android":"levelo://app?vid=44dd49d0-ee46-43b9-9770-ee74a62ddcb7","ios":"levelo://app?vid=44dd49d0-ee46-43b9-9770-ee74a62ddcb7"},"vehicle_type_id":"4","last_reported":1753501955,"current_range_meters":11600,"station_id":"ce4bgv92rcd13ifvqcr0","pricing_plan_id":"cebpf4jnsgd1na2vs0mg"},{"bike_id":"bf5dc847-8618-43ac-89c5-509d432811df","system_id":"levelo_inurba_marseille","lat":43.287027,"lon":5.374126,"is_reserved":false,"is_disabled":false,"rental_uris":{"android":"levelo://app?vid=bf5dc847-8618-43ac-89c5-509d432811df","ios":"levelo://app?vid=bf5dc847-8618-43ac-89c5-509d432811df"},"vehicle_type_id":"4","last_reported":1753501955,"current_range_meters":11600,"station_id":"ce4bh3p2rcd13ifvqdq0","pricing_plan_id":"cebpf4jnsgd1na2vs0mg"},{"bike_id":"773b48d4-858e-46f9-8819-6029f415d049","system_id":"levelo_inurba_marseille","lat":43.31219,"lon":5.3686,"is_reserved":false,"is_disabled":true,"rental_uris":{"android":"levelo://app?vid=773b48d4-858e-46f9-8819-6029f415d049","ios":"levelo://app?vid=773b48d4-858e-46f9-8819-6029f415d049"},"vehicle_type_id":"4","last_reported":1753501955,"current_range_meters":11600,"station_id":"ce4bgl92rcd13ifvqbq0","pricing_plan_id":"cebpf4jnsgd1na2vs0mg"},{"bike_id":"4878cf6d-5d8c-46c7-9c7f-8504713d84db","system_id":"levelo_inurba_marseille","lat":43.3106,"lon":5.38346,"is_reserved":false,"is_disabled":false,"rental_uris":{"android":"levelo://app?vid=4878cf6d-5d8c-46c7-9c7f-8504713d84db","ios":"levelo://app?vid=4878cf6d-5d8c-46c7-9c7f-8504713d84db"},"vehicle_type_id":"4","last_reported":1753501955,"current_range_meters":11600,"station_id":"ce4bgv92rcd13ifvqcr0","pricing_plan_id":"cebpf4jnsgd1na2vs0mg"},{"bike_id":"080898b1-d9d2-40ed-bb41-b1a8dde1f5a9","system_id":"levelo_inurba_marseille","lat":43.28575,"lon":5.36732,"is_reserved":false,"is_disabled":false,"rental_uris":{"android":"levelo://app?vid=080898b1-d9d2-40ed-bb41-b1a8dde1f5a9","ios":"levelo://app?vid=080898b1-d9d2-40ed-bb41-b1a8dde1f5a9"},"vehicle_type_id":"4","last_reported":1753501955,"current_range_meters":11600,"station_id":"","pricing_plan_id":"cebpf4jnsgd1na2vs0mg"},{"bike_id":"c54b8f05-7913-4da3-ae76-4264f55e6528","system_id":"levelo_inurba_marseille","lat":43.313569,"lon":5.384922,"is_reserved":false,"is_disabled":false,"rental_uris":{"android":"levelo://app?vid=c54b8f05-7913-4da3-ae76-4264f55e6528","ios":"levelo://app?vid=c54b8f05-7913-4da3-ae76-4264f55e6528"},"vehicle_type_id":"4","last_reported":1753501955,"current_range_meters":11600,"station_id":"ce4bgt92rcd13ifvqcf0","pricing_plan_id":"cebpf4jnsgd1na2vs0mg"},{"bike_id":"9bb32344-605b-44ea-aa2a-94e1b611494e","system_id":"levelo_inurba_marseille","lat":43.24359,"lon":5.37101,"is_reserved":false,"is_disabled":false,"rental_uris":{"android":"levelo://app?vid=9bb32344-605b-44ea-aa2a-94e1b611494e","ios":"levelo://app?vid=9bb32344-605b-44ea-aa2a-94e1b611494e"},"vehicle_type_id":"4","last_reported":1753501955,"current_range_meters":11600,"station_id":"ce4bhhh2rcd13ifvqfk0","pricing_plan_id":"cebpf4jnsgd1na2vs0mg"},{"bike_id":"25c3dd8d-76d3-45ee-b27b-1617d2cf7bdf","system_id":"levelo_inurba_marseille","lat":43.30866,"lon":5.3964,"is_reserved":false,"is_disabled":false,"rental_uris":{"android":"levelo://app?vid=25c3dd8d-76d3-45ee-b27b-1617d2cf7bdf","ios":"levelo://app?vid=25c3dd8d-76d3-45ee-b27b-1617d2cf7bdf"},"vehicle_type_id":"4","last_reported":1753501955,"current_range_meters":12000,"station_id":"ce4bh012rcd13ifvqcv0","pricing_plan_id":"cebpf4jnsgd1na2vs0mg"},{"bike_id":"43cf4049-15dd-4e8c-88a8-61cd8dc10bf5","system_id":"levelo_inurba_marseille","lat":43.33246,"lon":5.37902,"is_reserved":false,"is_disabled":false,"rental_uris":{"android":"levelo://app?vid=43cf4049-15dd-4e8c-88a8-61cd8dc10bf5","ios":"levelo://app?vid=43cf4049-15dd-4e8c-88a8-61cd8dc10bf5"},"vehicle_type_id":"4","last_reported":1753501955,"current_range_meters":12000,"station_id":"","pricing_plan_id":"cebpf4jnsgd1na2vs0mg"},{"bike_id":"eeeb9218-8042-4cbd-95a4-0834de564d28","system_id":"levelo_inurba_marseille","lat":43.21718,"lon":5.34636,"is_reserved":false,"is_disabled":true,"rental_uris":{"android":"levelo://app?vid=eeeb9218-8042-4cbd-95a4-0834de564d28","ios":"levelo://app?vid=eeeb9218-8042-4cbd-95a4-0834de564d28"},"vehicle_type_id":"4","last_reported":1753501955,"current_range_meters":12000,"station_id":"st_cvj6r9ubvosntc0bgbag","pricing_plan_id":"cebpf4jnsgd1na2vs0mg"},{"bike_id":"06efbd2a-fcca-4784-aa74-70f8fdbdc82d","system_id":"levelo_inurba_marseille","lat":43.2927,"lon":5.36832,"is_reserved":false,"is_disabled":true,"rental_uris":{"android":"levelo://app?vid=06efbd2a-fcca-4784-aa74-70f8fdbdc82d","ios":"levelo://app?vid=06efbd2a-fcca-4784-aa74-70f8fdbdc82d"},"vehicle_type_id":"4","last_reported":1753501955,"current_range_meters":12000,"station_id":"ce4bhbp2rcd13ifvqesg","pricing_plan_id":"cebpf4jnsgd1na2vs0mg"},{"bike_id":"02eb341a-2c80-41b7-af00-aee86e209066","system_id":"levelo_inurba_marseille","lat":43.30804,"lon":5.38152,"is_reserved":false,"is_disabled":false,"rental_uris":{"android":"levelo://app?vid=02eb341a-2c80-41b7-af00-aee86e209066","ios":"levelo://app?vid=02eb341a-2c80-41b7-af00-aee86e209066"},"vehicle_type_id":"4","last_reported":1753501955,"current_range_meters":12400,"station_id":"ce4bgt12rcd13ifvqce0","pricing_plan_id":"cebpf4jnsgd1na2vs0mg"},{"bike_id":"21a22bc7-65fe-4b97-a005-517b211a0b98","system_id":"levelo_inurba_marseille","lat":43.23056,"lon":5.35491,"is_reserved":false,"is_disabled":false,"rental_uris":{"android":"levelo://app?vid=21a22bc7-65fe-4b97-a005-517b211a0b98","ios":"levelo://app?vid=21a22bc7-65fe-4b97-a005-517b211a0b98"},"vehicle_type_id":"4","last_reported":1753501955,"current_range_meters":12400,"station_id":"cpo3342slgdg3j2ifvpg","pricing_plan_id":"cebpf4jnsgd1na2vs0mg"},{"bike_id":"520b4f98-60fb-49a4-b66e-a1051615bd51","system_id":"levelo_inurba_marseille","lat":43.310644,"lon":5.383506,"is_reserved":false,"is_disabled":false,"rental_uris":{"android":"levelo://app?vid=520b4f98-60fb-49a4-b66e-a1051615bd51","ios":"levelo://app?vid=520b4f98-60fb-49a4-b66e-a1051615bd51"},"vehicle_type_id":"4","last_reported":1753501955,"current_range_meters":12400,"station_id":"ce4bgv92rcd13ifvqcr0","pricing_plan_id":"cebpf4jnsgd1na2vs0mg"},{"bike_id":"127b6b72-bfb2-485f-b579-b67c1ffbea0b","system_id":"levelo_inurba_marseille","lat":43.290311,"lon":5.399895,"is_reserved":false,"is_disabled":true,"rental_uris":{"android":"levelo://app?vid=127b6b72-bfb2-485f-b579-b67c1ffbea0b","ios":"levelo://app?vid=127b6b72-bfb2-485f-b579-b67c1ffbea0b"},"vehicle_type_id":"4","last_reported":1753501955,"current_range_meters":12400,"station_id":"ce4bh392rcd13ifvqdm0","pricing_plan_id":"cebpf4jnsgd1na2vs0mg"},{"bike_id":"812d5501-ea65-4715-aa4b-8239dd8992be","system_id":"levelo_inurba_marseille","lat":43.262147,"lon":5.374594,"is_reserved":false,"is_disabled":true,"rental_uris":{"android":"levelo://app?vid=812d5501-ea65-4715-aa4b-8239dd8992be","ios":"levelo://app?vid=812d5501-ea65-4715-aa4b-8239dd8992be"},"vehicle_type_id":"4","last_reported":1753501955,"current_range_meters":12400,"station_id":"ce4bhgp2rcd13ifvqfc0","pricing_plan_id":"cebpf4jnsgd1na2vs0mg"},{"bike_id":"8213ce97-aab7-49d1-aa65-2e50de265035","system_id":"levelo_inurba_marseille","lat":43.283681,"lon":5.386414,"is_reserved":false,"is_disabled":false,"rental_uris":{"android":"levelo://app?vid=8213ce97-aab7-49d1-aa65-2e50de265035","ios":"levelo://app?vid=8213ce97-aab7-49d1-aa65-2e50de265035"},"vehicle_type_id":"4","last_reported":1753501955,"current_range_meters":12400,"station_id":"ce4bh492rcd13ifvqdvg","pricing_plan_id":"cebpf4jnsgd1na2vs0mg"},{"bike_id":"37edb889-f2b1-4e0e-9841-76c4a3c5c0ae","system_id":"levelo_inurba_marseille","lat":43.31067,"lon":5.38346,"is_reserved":false,"is_disabled":false,"rental_uris":{"android":"levelo://app?vid=37edb889-f2b1-4e0e-9841-76c4a3c5c0ae","ios":"levelo://app?vid=37edb889-f2b1-4e0e-9841-76c4a3c5c0ae"},"vehicle_type_id":"4","last_reported":1753501955,"current_range_meters":12400,"station_id":"ce4bgv92rcd13ifvqcr0","pricing_plan_id":"cebpf4jnsgd1na2vs0mg"},{"bike_id":"5ab7798c-0e5a-445a-baf5-2e9bea2306a1","system_id":"levelo_inurba_marseille","lat":43.29275,"lon":5.4014,"is_reserved":false,"is_disabled":false,"rental_uris":{"android":"levelo://app?vid=5ab7798c-0e5a-445a-baf5-2e9bea2306a1","ios":"levelo://app?vid=5ab7798c-0e5a-445a-baf5-2e9bea2306a1"},"vehicle_type_id":"4","last_reported":1753501955,"current_range_meters":12800,"station_id":"ce4bh312rcd13ifvqdk0","pricing_plan_id":"cebpf4jnsgd1na2vs0mg"},{"bike_id":"22dca147-1260-44d8-822d-d9d1d50cce31","system_id":"levelo_inurba_marseille","lat":43.27465,"lon":5.39587,"is_reserved":false,"is_disabled":false,"rental_uris":{"android":"levelo://app?vid=22dca147-1260-44d8-822d-d9d1d50cce31","ios":"levelo://app?vid=22dca147-1260-44d8-822d-d9d1d50cce31"},"vehicle_type_id":"4","last_reported":1753501955,"current_range_meters":12800,"station_id":"","pricing_plan_id":"cebpf4jnsgd1na2vs0mg"},{"bike_id":"421d320b-a726-49bd-9838-f0b1b4790043","system_id":"levelo_inurba_marseille","lat":43.26776,"lon":5.39421,"is_reserved":false,"is_disabled":false,"rental_uris":{"android":"levelo://app?vid=421d320b-a726-49bd-9838-f0b1b4790043","ios":"levelo://app?vid=421d320b-a726-49bd-9838-f0b1b4790043"},"vehicle_type_id":"4","last_reported":1753501955,"current_range_meters":12400,"station_id":"ce4bhh12rcd13ifvqfg0","pricing_plan_id":"cebpf4jnsgd1na2vs0mg"},{"bike_id":"67610d18-9e11-4fec-899d-dd0340049fca","system_id":"levelo_inurba_marseille","lat":43.28357,"lon":5.38103,"is_reserved":false,"is_disabled":false,"rental_uris":{"android":"levelo://app?vid=67610d18-9e11-4fec-899d-dd0340049fca","ios":"levelo://app?vid=67610d18-9e11-4fec-899d-dd0340049fca"},"vehicle_type_id":"4","last_reported":1753501955,"current_range_meters":12800,"station_id":"ce4bh412rcd13ifvqdr0","pricing_plan_id":"cebpf4jnsgd1na2vs0mg"},{"bike_id":"378521b9-2f88-49b6-9620-86cb628eab29","system_id":"levelo_inurba_marseille","lat":43.271735,"lon":5.409975,"is_reserved":false,"is_disabled":false,"rental_uris":{"android":"levelo://app?vid=378521b9-2f88-49b6-9620-86cb628eab29","ios":"levelo://app?vid=378521b9-2f88-49b6-9620-86cb628eab29"},"vehicle_type_id":"4","last_reported":1753501955,"current_range_meters":12800,"station_id":"ce4bhl12rcd13ifvqgf0","pricing_plan_id":"cebpf4jnsgd1na2vs0mg"},{"bike_id":"2c1451e1-d7ce-43b9-aa82-426ee8261907","system_id":"levelo_inurba_marseille","lat":43.310649,"lon":5.383489,"is_reserved":false,"is_disabled":false,"rental_uris":{"android":"levelo://app?vid=2c1451e1-d7ce-43b9-aa82-426ee8261907","ios":"levelo://app?vid=2c1451e1-d7ce-43b9-aa82-426ee8261907"},"vehicle_type_id":"4","last_reported":1753501955,"current_range_meters":12800,"station_id":"ce4bgv92rcd13ifvqcr0","pricing_plan_id":"cebpf4jnsgd1na2vs0mg"},{"bike_id":"436fe95d-b330-48c3-93df-d3c7001c90c1","system_id":"levelo_inurba_marseille","lat":43.29875,"lon":5.39766,"is_reserved":false,"is_disabled":false,"rental_uris":{"android":"levelo://app?vid=436fe95d-b330-48c3-93df-d3c7001c90c1","ios":"levelo://app?vid=436fe95d-b330-48c3-93df-d3c7001c90c1"},"vehicle_type_id":"4","last_reported":1753501955,"current_range_meters":12800,"station_id":"ce4bh0h2rcd13ifvqd50","pricing_plan_id":"cebpf4jnsgd1na2vs0mg"},{"bike_id":"c82b3329-4d29-4704-aa6b-d318ceb69b66","system_id":"levelo_inurba_marseille","lat":43.29292,"lon":5.37456,"is_reserved":false,"is_disabled":false,"rental_uris":{"android":"levelo://app?vid=c82b3329-4d29-4704-aa6b-d318ceb69b66","ios":"levelo://app?vid=c82b3329-4d29-4704-aa6b-d318ceb69b66"},"vehicle_type_id":"4","last_reported":1753501955,"current_range_meters":13600,"station_id":"ce4bgi12rcd13ifvqb70","pricing_plan_id":"cebpf4jnsgd1na2vs0mg"},{"bike_id":"d79b409f-ca1b-43df-9348-1c6665f1fc25","system_id":"levelo_inurba_marseille","lat":43.22502,"lon":5.34772,"is_reserved":false,"is_disabled":false,"rental_uris":{"android":"levelo://app?vid=d79b409f-ca1b-43df-9348-1c6665f1fc25","ios":"levelo://app?vid=d79b409f-ca1b-43df-9348-1c6665f1fc25"},"vehicle_type_id":"4","last_reported":1753501955,"current_range_meters":13600,"station_id":"st_cvj5dfep6f1abm77gieg","pricing_plan_id":"cebpf4jnsgd1na2vs0mg"},{"bike_id":"970ce0d9-2c80-445a-b6ab-c8eb3acdf2c4","system_id":"levelo_inurba_marseille","lat":43.262286,"lon":5.404728,"is_reserved":false,"is_disabled":false,"rental_uris":{"android":"levelo://app?vid=970ce0d9-2c80-445a-b6ab-c8eb3acdf2c4","ios":"levelo://app?vid=970ce0d9-2c80-445a-b6ab-c8eb3acdf2c4"},"vehicle_type_id":"4","last_reported":1753501955,"current_range_meters":13600,"station_id":"ce4bhmh2rcd13ifvqgmg","pricing_plan_id":"cebpf4jnsgd1na2vs0mg"},{"bike_id":"de99b14c-9afd-4bdd-bc56-50354c110c3d","system_id":"levelo_inurba_marseille","lat":43.25467,"lon":5.37687,"is_reserved":false,"is_disabled":false,"rental_uris":{"android":"levelo://app?vid=de99b14c-9afd-4bdd-bc56-50354c110c3d","ios":"levelo://app?vid=de99b14c-9afd-4bdd-bc56-50354c110c3d"},"vehicle_type_id":"4","last_reported":1753501955,"current_range_meters":14000,"station_id":"","pricing_plan_id":"cebpf4jnsgd1na2vs0mg"},{"bike_id":"97dad215-8898-4a4b-bb79-9cb61af4dc64","system_id":"levelo_inurba_marseille","lat":43.299368,"lon":5.365224,"is_reserved":false,"is_disabled":false,"rental_uris":{"android":"levelo://app?vid=97dad215-8898-4a4b-bb79-9cb61af4dc64","ios":"levelo://app?vid=97dad215-8898-4a4b-bb79-9cb61af4dc64"},"vehicle_type_id":"4","last_reported":1753501955,"current_range_meters":14000,"station_id":"ce4bgm92rcd13ifvqbr0","pricing_plan_id":"cebpf4jnsgd1na2vs0mg"},{"bike_id":"a7928c20-e426-4d56-be6c-24e8cea40a03","system_id":"levelo_inurba_marseille","lat":43.28655,"lon":5.36339,"is_reserved":false,"is_disabled":false,"rental_uris":{"android":"levelo://app?vid=a7928c20-e426-4d56-be6c-24e8cea40a03","ios":"levelo://app?vid=a7928c20-e426-4d56-be6c-24e8cea40a03"},"vehicle_type_id":"4","last_reported":1753501955,"current_range_meters":14000,"station_id":"ce4bhah2rcd13ifvqej0","pricing_plan_id":"cebpf4jnsgd1na2vs0mg"},{"bike_id":"7528e0ee-3254-4380-8007-ffef61e356ca","system_id":"levelo_inurba_marseille","lat":43.265587,"lon":5.372926,"is_reserved":false,"is_disabled":false,"rental_uris":{"android":"levelo://app?vid=7528e0ee-3254-4380-8007-ffef61e356ca","ios":"levelo://app?vid=7528e0ee-3254-4380-8007-ffef61e356ca"},"vehicle_type_id":"4","last_reported":1753501955,"current_range_meters":14000,"station_id":"ce4bhg12rcd13ifvqf70","pricing_plan_id":"cebpf4jnsgd1na2vs0mg"},{"bike_id":"c26f1b4d-11e7-4aaa-8fd1-0c8a6e22bd7c","system_id":"levelo_inurba_marseille","lat":43.30125,"lon":5.38788,"is_reserved":false,"is_disabled":true,"rental_uris":{"android":"levelo://app?vid=c26f1b4d-11e7-4aaa-8fd1-0c8a6e22bd7c","ios":"levelo://app?vid=c26f1b4d-11e7-4aaa-8fd1-0c8a6e22bd7c"},"vehicle_type_id":"4","last_reported":1753501955,"current_range_meters":14000,"station_id":"ce4bghh2rcd13ifvqb60","pricing_plan_id":"cebpf4jnsgd1na2vs0mg"},{"bike_id":"fe8da530-6dd1-4443-bfaa-ef22be4b2e93","system_id":"levelo_inurba_marseille","lat":43.30787,"lon":5.38165,"is_reserved":false,"is_disabled":false,"rental_uris":{"android":"levelo://app?vid=fe8da530-6dd1-4443-bfaa-ef22be4b2e93","ios":"levelo://app?vid=fe8da530-6dd1-4443-bfaa-ef22be4b2e93"},"vehicle_type_id":"4","last_reported":1753501955,"current_range_meters":14000,"station_id":"ce4bgt12rcd13ifvqce0","pricing_plan_id":"cebpf4jnsgd1na2vs0mg"},{"bike_id":"57755280-973c-4ff3-9c25-8f15e2c5b510","system_id":"levelo_inurba_marseille","lat":43.31872,"lon":5.37373,"is_reserved":false,"is_disabled":false,"rental_uris":{"android":"levelo://app?vid=57755280-973c-4ff3-9c25-8f15e2c5b510","ios":"levelo://app?vid=57755280-973c-4ff3-9c25-8f15e2c5b510"},"vehicle_type_id":"4","last_reported":1753501955,"current_range_meters":14400,"station_id":"","pricing_plan_id":"cebpf4jnsgd1na2vs0mg"},{"bike_id":"d4018e41-ab4d-4081-b032-49f6dc3cff78","system_id":"levelo_inurba_marseille","lat":43.30299,"lon":5.39211,"is_reserved":false,"is_disabled":false,"rental_uris":{"android":"levelo://app?vid=d4018e41-ab4d-4081-b032-49f6dc3cff78","ios":"levelo://app?vid=d4018e41-ab4d-4081-b032-49f6dc3cff78"},"vehicle_type_id":"4","last_reported":1753501955,"current_range_meters":14000,"station_id":"ce4bgkh2rcd13ifvqbk0","pricing_plan_id":"cebpf4jnsgd1na2vs0mg"},{"bike_id":"f2c0d178-a474-46a0-b002-379a7a30c411","system_id":"levelo_inurba_marseille","lat":43.29392,"lon":5.3761,"is_reserved":false,"is_disabled":false,"rental_uris":{"android":"levelo://app?vid=f2c0d178-a474-46a0-b002-379a7a30c411","ios":"levelo://app?vid=f2c0d178-a474-46a0-b002-379a7a30c411"},"vehicle_type_id":"4","last_reported":1753501955,"current_range_meters":14400,"station_id":"","pricing_plan_id":"cebpf4jnsgd1na2vs0mg"},{"bike_id":"7beabfe9-90b9-4879-9d59-b7cae8ca3b4c","system_id":"levelo_inurba_marseille","lat":43.28723,"lon":5.37382,"is_reserved":false,"is_disabled":false,"rental_uris":{"android":"levelo://app?vid=7beabfe9-90b9-4879-9d59-b7cae8ca3b4c","ios":"levelo://app?vid=7beabfe9-90b9-4879-9d59-b7cae8ca3b4c"},"vehicle_type_id":"4","last_reported":1753501955,"current_range_meters":14400,"station_id":"ce4bh3p2rcd13ifvqdq0","pricing_plan_id":"cebpf4jnsgd1na2vs0mg"},{"bike_id":"847b44c9-efab-4746-8937-dcebf1206fff","system_id":"levelo_inurba_marseille","lat":43.262158,"lon":5.374459,"is_reserved":false,"is_disabled":true,"rental_uris":{"android":"levelo://app?vid=847b44c9-efab-4746-8937-dcebf1206fff","ios":"levelo://app?vid=847b44c9-efab-4746-8937-dcebf1206fff"},"vehicle_type_id":"4","last_reported":1753501955,"current_range_meters":14400,"station_id":"ce4bhgp2rcd13ifvqfc0","pricing_plan_id":"cebpf4jnsgd1na2vs0mg"},{"bike_id":"ec74f06a-40dc-4c39-a0cb-57d6f568a4e5","system_id":"levelo_inurba_marseille","lat":43.22928,"lon":5.35374,"is_reserved":false,"is_disabled":false,"rental_uris":{"android":"levelo://app?vid=ec74f06a-40dc-4c39-a0cb-57d6f568a4e5","ios":"levelo://app?vid=ec74f06a-40dc-4c39-a0cb-57d6f568a4e5"},"vehicle_type_id":"4","last_reported":1753501955,"current_range_meters":14400,"station_id":"cpo3532slgdg3j2ikp40","pricing_plan_id":"cebpf4jnsgd1na2vs0mg"},{"bike_id":"01bd889a-c26a-4c6d-8037-874a6be73fc7","system_id":"levelo_inurba_marseille","lat":43.29241,"lon":5.3667,"is_reserved":false,"is_disabled":true,"rental_uris":{"android":"levelo://app?vid=01bd889a-c26a-4c6d-8037-874a6be73fc7","ios":"levelo://app?vid=01bd889a-c26a-4c6d-8037-874a6be73fc7"},"vehicle_type_id":"4","last_reported":1753501955,"current_range_meters":14400,"station_id":"","pricing_plan_id":"cebpf4jnsgd1na2vs0mg"},{"bike_id":"0574be29-517b-4942-b3cc-ba6b7cf9246f","system_id":"levelo_inurba_marseille","lat":43.28412,"lon":5.375196,"is_reserved":false,"is_disabled":false,"rental_uris":{"android":"levelo://app?vid=0574be29-517b-4942-b3cc-ba6b7cf9246f","ios":"levelo://app?vid=0574be29-517b-4942-b3cc-ba6b7cf9246f"},"vehicle_type_id":"4","last_reported":1753501955,"current_range_meters":14400,"station_id":"ce4bh412rcd13ifvqds0","pricing_plan_id":"cebpf4jnsgd1na2vs0mg"},{"bike_id":"9ffcf728-09a3-45a6-b52c-bf0aa6ab94e0","system_id":"levelo_inurba_marseille","lat":43.30867,"lon":5.39646,"is_reserved":false,"is_disabled":false,"rental_uris":{"android":"levelo://app?vid=9ffcf728-09a3-45a6-b52c-bf0aa6ab94e0","ios":"levelo://app?vid=9ffcf728-09a3-45a6-b52c-bf0aa6ab94e0"},"vehicle_type_id":"4","last_reported":1753501955,"current_range_meters":14400,"station_id":"ce4bh012rcd13ifvqcv0","pricing_plan_id":"cebpf4jnsgd1na2vs0mg"},{"bike_id":"cdd229ea-c762-465a-a1a8-dc511ddf636c","system_id":"levelo_inurba_marseille","lat":43.29897,"lon":5.39733,"is_reserved":false,"is_disabled":false,"rental_uris":{"android":"levelo://app?vid=cdd229ea-c762-465a-a1a8-dc511ddf636c","ios":"levelo://app?vid=cdd229ea-c762-465a-a1a8-dc511ddf636c"},"vehicle_type_id":"4","last_reported":1753501955,"current_range_meters":14400,"station_id":"ce4bh0h2rcd13ifvqd50","pricing_plan_id":"cebpf4jnsgd1na2vs0mg"},{"bike_id":"aa632672-07c4-406e-a279-ed15c5fe82b0","system_id":"levelo_inurba_marseille","lat":43.30798,"lon":5.3816,"is_reserved":false,"is_disabled":false,"rental_uris":{"android":"levelo://app?vid=aa632672-07c4-406e-a279-ed15c5fe82b0","ios":"levelo://app?vid=aa632672-07c4-406e-a279-ed15c5fe82b0"},"vehicle_type_id":"4","last_reported":1753501955,"current_range_meters":14400,"station_id":"ce4bgt12rcd13ifvqce0","pricing_plan_id":"cebpf4jnsgd1na2vs0mg"},{"bike_id":"6ab0b13c-2ff1-417a-acfd-489d6800d4c9","system_id":"levelo_inurba_marseille","lat":43.27381,"lon":5.36259,"is_reserved":false,"is_disabled":true,"rental_uris":{"android":"levelo://app?vid=6ab0b13c-2ff1-417a-acfd-489d6800d4c9","ios":"levelo://app?vid=6ab0b13c-2ff1-417a-acfd-489d6800d4c9"},"vehicle_type_id":"4","last_reported":1753501955,"current_range_meters":14400,"station_id":"ce4bhbh2rcd13ifvqeo0","pricing_plan_id":"cebpf4jnsgd1na2vs0mg"},{"bike_id":"09b7f600-cb1e-4ea0-adc2-9c3dcb778794","system_id":"levelo_inurba_marseille","lat":43.22495,"lon":5.34802,"is_reserved":false,"is_disabled":false,"rental_uris":{"android":"levelo://app?vid=09b7f600-cb1e-4ea0-adc2-9c3dcb778794","ios":"levelo://app?vid=09b7f600-cb1e-4ea0-adc2-9c3dcb778794"},"vehicle_type_id":"4","last_reported":1753501955,"current_range_meters":14800,"station_id":"st_cvj5dfep6f1abm77gieg","pricing_plan_id":"cebpf4jnsgd1na2vs0mg"},{"bike_id":"7f7a4770-cb44-4cbe-afee-f7531a238fa9","system_id":"levelo_inurba_marseille","lat":43.225059,"lon":5.347842,"is_reserved":false,"is_disabled":false,"rental_uris":{"android":"levelo://app?vid=7f7a4770-cb44-4cbe-afee-f7531a238fa9","ios":"levelo://app?vid=7f7a4770-cb44-4cbe-afee-f7531a238fa9"},"vehicle_type_id":"4","last_reported":1753501955,"current_range_meters":14800,"station_id":"st_cvj5dfep6f1abm77gieg","pricing_plan_id":"cebpf4jnsgd1na2vs0mg"},{"bike_id":"8fe402e9-b507-4ef6-8ee8-45e4c9792699","system_id":"levelo_inurba_marseille","lat":43.33606,"lon":5.41021,"is_reserved":false,"is_disabled":false,"rental_uris":{"android":"levelo://app?vid=8fe402e9-b507-4ef6-8ee8-45e4c9792699","ios":"levelo://app?vid=8fe402e9-b507-4ef6-8ee8-45e4c9792699"},"vehicle_type_id":"4","last_reported":1753501955,"current_range_meters":14800,"station_id":"ce4bhqh2rcd13ifvqhmg","pricing_plan_id":"cebpf4jnsgd1na2vs0mg"},{"bike_id":"79c18c56-b30c-4608-9a0a-80d993aa3c28","system_id":"levelo_inurba_marseille","lat":43.30499,"lon":5.37902,"is_reserved":false,"is_disabled":false,"rental_uris":{"android":"levelo://app?vid=79c18c56-b30c-4608-9a0a-80d993aa3c28","ios":"levelo://app?vid=79c18c56-b30c-4608-9a0a-80d993aa3c28"},"vehicle_type_id":"4","last_reported":1753501955,"current_range_meters":14400,"station_id":"ce4bgup2rcd13ifvqcn0","pricing_plan_id":"cebpf4jnsgd1na2vs0mg"},{"bike_id":"f932ef2c-02f4-48af-89bd-b74a727f814c","system_id":"levelo_inurba_marseille","lat":43.28101,"lon":5.37831,"is_reserved":false,"is_disabled":false,"rental_uris":{"android":"levelo://app?vid=f932ef2c-02f4-48af-89bd-b74a727f814c","ios":"levelo://app?vid=f932ef2c-02f4-48af-89bd-b74a727f814c"},"vehicle_type_id":"4","last_reported":1753501955,"current_range_meters":14800,"station_id":"ce4bha12rcd13ifvqee0","pricing_plan_id":"cebpf4jnsgd1na2vs0mg"},{"bike_id":"09447d92-0522-480e-b6b5-24959949ccf9","system_id":"levelo_inurba_marseille","lat":43.324169,"lon":5.367837,"is_reserved":false,"is_disabled":false,"rental_uris":{"android":"levelo://app?vid=09447d92-0522-480e-b6b5-24959949ccf9","ios":"levelo://app?vid=09447d92-0522-480e-b6b5-24959949ccf9"},"vehicle_type_id":"4","last_reported":1753501955,"current_range_meters":15200,"station_id":"","pricing_plan_id":"cebpf4jnsgd1na2vs0mg"},{"bike_id":"b5aab1b5-818a-4dfd-b7ae-70df5639e329","system_id":"levelo_inurba_marseille","lat":43.27065,"lon":5.42279,"is_reserved":false,"is_disabled":false,"rental_uris":{"android":"levelo://app?vid=b5aab1b5-818a-4dfd-b7ae-70df5639e329","ios":"levelo://app?vid=b5aab1b5-818a-4dfd-b7ae-70df5639e329"},"vehicle_type_id":"4","last_reported":1753501955,"current_range_meters":15200,"station_id":"ce4bhk92rcd13ifvqgb0","pricing_plan_id":"cebpf4jnsgd1na2vs0mg"},{"bike_id":"9bff4c30-7d52-4173-88ba-afd3702b54f6","system_id":"levelo_inurba_marseille","lat":43.279971,"lon":5.416589,"is_reserved":false,"is_disabled":false,"rental_uris":{"android":"levelo://app?vid=9bff4c30-7d52-4173-88ba-afd3702b54f6","ios":"levelo://app?vid=9bff4c30-7d52-4173-88ba-afd3702b54f6"},"vehicle_type_id":"4","last_reported":1753501955,"current_range_meters":15200,"station_id":"ce4bho12rcd13ifvqh1g","pricing_plan_id":"cebpf4jnsgd1na2vs0mg"},{"bike_id":"6b0334f3-82c8-42ff-9c63-4f263704c07a","system_id":"levelo_inurba_marseille","lat":43.310715,"lon":5.383538,"is_reserved":false,"is_disabled":false,"rental_uris":{"android":"levelo://app?vid=6b0334f3-82c8-42ff-9c63-4f263704c07a","ios":"levelo://app?vid=6b0334f3-82c8-42ff-9c63-4f263704c07a"},"vehicle_type_id":"4","last_reported":1753501955,"current_range_meters":15200,"station_id":"ce4bgv92rcd13ifvqcr0","pricing_plan_id":"cebpf4jnsgd1na2vs0mg"},{"bike_id":"c58eefdf-cf11-4962-93d9-3a4a1f3bdf88","system_id":"levelo_inurba_marseille","lat":43.284145,"lon":5.375287,"is_reserved":false,"is_disabled":false,"rental_uris":{"android":"levelo://app?vid=c58eefdf-cf11-4962-93d9-3a4a1f3bdf88","ios":"levelo://app?vid=c58eefdf-cf11-4962-93d9-3a4a1f3bdf88"},"vehicle_type_id":"4","last_reported":1753501955,"current_range_meters":15200,"station_id":"ce4bh412rcd13ifvqds0","pricing_plan_id":"cebpf4jnsgd1na2vs0mg"},{"bike_id":"015ae95b-d649-4c1e-81e8-ebfec98009c5","system_id":"levelo_inurba_marseille","lat":43.240823,"lon":5.37742,"is_reserved":false,"is_disabled":false,"rental_uris":{"android":"levelo://app?vid=015ae95b-d649-4c1e-81e8-ebfec98009c5","ios":"levelo://app?vid=015ae95b-d649-4c1e-81e8-ebfec98009c5"},"vehicle_type_id":"4","last_reported":1753501955,"current_range_meters":15200,"station_id":"ce4bhnp2rcd13ifvqgvg","pricing_plan_id":"cebpf4jnsgd1na2vs0mg"},{"bike_id":"68801fee-efc8-485b-a110-a36431796a83","system_id":"levelo_inurba_marseille","lat":43.295656,"lon":5.375087,"is_reserved":false,"is_disabled":true,"rental_uris":{"android":"levelo://app?vid=68801fee-efc8-485b-a110-a36431796a83","ios":"levelo://app?vid=68801fee-efc8-485b-a110-a36431796a83"},"vehicle_type_id":"4","last_reported":1753501955,"current_range_meters":16000,"station_id":"ce4bgh92rcd13ifvqb50","pricing_plan_id":"cebpf4jnsgd1na2vs0mg"},{"bike_id":"8b6b3c5b-3779-41c3-ad6d-a655a33b4b9e","system_id":"levelo_inurba_marseille","lat":43.2416,"lon":5.36401,"is_reserved":false,"is_disabled":false,"rental_uris":{"android":"levelo://app?vid=8b6b3c5b-3779-41c3-ad6d-a655a33b4b9e","ios":"levelo://app?vid=8b6b3c5b-3779-41c3-ad6d-a655a33b4b9e"},"vehicle_type_id":"4","last_reported":1753501955,"current_range_meters":16000,"station_id":"cpo36qri1sfpv3e86is0","pricing_plan_id":"cebpf4jnsgd1na2vs0mg"},{"bike_id":"b4379486-9354-4e07-9fc8-c50680c4e14e","system_id":"levelo_inurba_marseille","lat":43.28338,"lon":5.38117,"is_reserved":false,"is_disabled":false,"rental_uris":{"android":"levelo://app?vid=b4379486-9354-4e07-9fc8-c50680c4e14e","ios":"levelo://app?vid=b4379486-9354-4e07-9fc8-c50680c4e14e"},"vehicle_type_id":"4","last_reported":1753501955,"current_range_meters":16000,"station_id":"ce4bh412rcd13ifvqdr0","pricing_plan_id":"cebpf4jnsgd1na2vs0mg"},{"bike_id":"27e8f606-5cf5-4b7d-8d19-86ff29939c7a","system_id":"levelo_inurba_marseille","lat":43.322897,"lon":5.382819,"is_reserved":false,"is_disabled":false,"rental_uris":{"android":"levelo://app?vid=27e8f606-5cf5-4b7d-8d19-86ff29939c7a","ios":"levelo://app?vid=27e8f606-5cf5-4b7d-8d19-86ff29939c7a"},"vehicle_type_id":"4","last_reported":1753501955,"current_range_meters":16000,"station_id":"ce4bhr12rcd13ifvqhqg","pricing_plan_id":"cebpf4jnsgd1na2vs0mg"},{"bike_id":"152247a2-6f09-485f-acf9-4f6bd27a046c","system_id":"levelo_inurba_marseille","lat":43.28155,"lon":5.42634,"is_reserved":false,"is_disabled":false,"rental_uris":{"android":"levelo://app?vid=152247a2-6f09-485f-acf9-4f6bd27a046c","ios":"levelo://app?vid=152247a2-6f09-485f-acf9-4f6bd27a046c"},"vehicle_type_id":"4","last_reported":1753501955,"current_range_meters":16000,"station_id":"ce4bhnh2rcd13ifvqgug","pricing_plan_id":"cebpf4jnsgd1na2vs0mg"},{"bike_id":"03bba1a7-31ad-469c-a156-122090301876","system_id":"levelo_inurba_marseille","lat":43.31161,"lon":5.38716,"is_reserved":false,"is_disabled":false,"rental_uris":{"android":"levelo://app?vid=03bba1a7-31ad-469c-a156-122090301876","ios":"levelo://app?vid=03bba1a7-31ad-469c-a156-122090301876"},"vehicle_type_id":"4","last_reported":1753501955,"current_range_meters":16800,"station_id":"ce4bgv12rcd13ifvqcp0","pricing_plan_id":"cebpf4jnsgd1na2vs0mg"},{"bike_id":"1855cbe1-5a05-480e-9057-6e9b3976dbbe","system_id":"levelo_inurba_marseille","lat":43.33722,"lon":5.39205,"is_reserved":false,"is_disabled":false,"rental_uris":{"android":"levelo://app?vid=1855cbe1-5a05-480e-9057-6e9b3976dbbe","ios":"levelo://app?vid=1855cbe1-5a05-480e-9057-6e9b3976dbbe"},"vehicle_type_id":"4","last_reported":1753501955,"current_range_meters":16000,"station_id":"ce4bhr92rcd13ifvqhsg","pricing_plan_id":"cebpf4jnsgd1na2vs0mg"},{"bike_id":"99938384-2779-4389-9a1c-4b06450d69be","system_id":"levelo_inurba_marseille","lat":43.27218,"lon":5.39198,"is_reserved":false,"is_disabled":true,"rental_uris":{"android":"levelo://app?vid=99938384-2779-4389-9a1c-4b06450d69be","ios":"levelo://app?vid=99938384-2779-4389-9a1c-4b06450d69be"},"vehicle_type_id":"4","last_reported":1753501955,"current_range_meters":16000,"station_id":"ce4bhhp2rcd13ifvqfm0","pricing_plan_id":"cebpf4jnsgd1na2vs0mg"},{"bike_id":"fceea9bc-7762-4e38-a909-58372215e3a9","system_id":"levelo_inurba_marseille","lat":43.31352,"lon":5.38499,"is_reserved":false,"is_disabled":false,"rental_uris":{"android":"levelo://app?vid=fceea9bc-7762-4e38-a909-58372215e3a9","ios":"levelo://app?vid=fceea9bc-7762-4e38-a909-58372215e3a9"},"vehicle_type_id":"4","last_reported":1753501955,"current_range_meters":16000,"station_id":"ce4bgt92rcd13ifvqcf0","pricing_plan_id":"cebpf4jnsgd1na2vs0mg"},{"bike_id":"ad91e1f3-4395-4b2a-ae55-1856eedba2be","system_id":"levelo_inurba_marseille","lat":43.28692,"lon":5.39972,"is_reserved":false,"is_disabled":false,"rental_uris":{"android":"levelo://app?vid=ad91e1f3-4395-4b2a-ae55-1856eedba2be","ios":"levelo://app?vid=ad91e1f3-4395-4b2a-ae55-1856eedba2be"},"vehicle_type_id":"4","last_reported":1753501955,"current_range_meters":16000,"station_id":"ce4bho92rcd13ifvqh3g","pricing_plan_id":"cebpf4jnsgd1na2vs0mg"},{"bike_id":"f9132ae1-6ae2-4272-b24a-43c4aace7eb6","system_id":"levelo_inurba_marseille","lat":43.3126,"lon":5.40198,"is_reserved":false,"is_disabled":false,"rental_uris":{"android":"levelo://app?vid=f9132ae1-6ae2-4272-b24a-43c4aace7eb6","ios":"levelo://app?vid=f9132ae1-6ae2-4272-b24a-43c4aace7eb6"},"vehicle_type_id":"4","last_reported":1753501955,"current_range_meters":16000,"station_id":"ce4bh092rcd13ifvqd30","pricing_plan_id":"cebpf4jnsgd1na2vs0mg"},{"bike_id":"843f308c-e661-42bb-b9e7-c0331e577038","system_id":"levelo_inurba_marseille","lat":43.31067,"lon":5.38361,"is_reserved":false,"is_disabled":false,"rental_uris":{"android":"levelo://app?vid=843f308c-e661-42bb-b9e7-c0331e577038","ios":"levelo://app?vid=843f308c-e661-42bb-b9e7-c0331e577038"},"vehicle_type_id":"4","last_reported":1753501955,"current_range_meters":16000,"station_id":"ce4bgv92rcd13ifvqcr0","pricing_plan_id":"cebpf4jnsgd1na2vs0mg"},{"bike_id":"8f4ca69e-9621-4ffd-91af-41f939f5f71e","system_id":"levelo_inurba_marseille","lat":43.23957,"lon":5.36626,"is_reserved":false,"is_disabled":false,"rental_uris":{"android":"levelo://app?vid=8f4ca69e-9621-4ffd-91af-41f939f5f71e","ios":"levelo://app?vid=8f4ca69e-9621-4ffd-91af-41f939f5f71e"},"vehicle_type_id":"4","last_reported":1753501955,"current_range_meters":16400,"station_id":"ce4bhi12rcd13ifvqfp0","pricing_plan_id":"cebpf4jnsgd1na2vs0mg"},{"bike_id":"c3c2652b-f2d7-4ed4-89ec-9559feb01451","system_id":"levelo_inurba_marseille","lat":43.29226,"lon":5.360481,"is_reserved":false,"is_disabled":true,"rental_uris":{"android":"levelo://app?vid=c3c2652b-f2d7-4ed4-89ec-9559feb01451","ios":"levelo://app?vid=c3c2652b-f2d7-4ed4-89ec-9559feb01451"},"vehicle_type_id":"4","last_reported":1753501955,"current_range_meters":16400,"station_id":"ce4bhbh2rcd13ifvqeqg","pricing_plan_id":"cebpf4jnsgd1na2vs0mg"},{"bike_id":"b44e0ef0-448d-42e7-b8ce-9c7edd8e1cfe","system_id":"levelo_inurba_marseille","lat":43.28151,"lon":5.42645,"is_reserved":false,"is_disabled":false,"rental_uris":{"android":"levelo://app?vid=b44e0ef0-448d-42e7-b8ce-9c7edd8e1cfe","ios":"levelo://app?vid=b44e0ef0-448d-42e7-b8ce-9c7edd8e1cfe"},"vehicle_type_id":"4","last_reported":1753501955,"current_range_meters":16400,"station_id":"ce4bhnh2rcd13ifvqgug","pricing_plan_id":"cebpf4jnsgd1na2vs0mg"},{"bike_id":"5e2fe5ca-2f26-4b3f-b274-f494f83ba309","system_id":"levelo_inurba_marseille","lat":43.28704,"lon":5.37399,"is_reserved":false,"is_disabled":false,"rental_uris":{"android":"levelo://app?vid=5e2fe5ca-2f26-4b3f-b274-f494f83ba309","ios":"levelo://app?vid=5e2fe5ca-2f26-4b3f-b274-f494f83ba309"},"vehicle_type_id":"4","last_reported":1753501955,"current_range_meters":16400,"station_id":"ce4bh3p2rcd13ifvqdq0","pricing_plan_id":"cebpf4jnsgd1na2vs0mg"},{"bike_id":"b5c7f071-a026-45b8-8531-421b35957a32","system_id":"levelo_inurba_marseille","lat":43.296474,"lon":5.393556,"is_reserved":false,"is_disabled":false,"rental_uris":{"android":"levelo://app?vid=b5c7f071-a026-45b8-8531-421b35957a32","ios":"levelo://app?vid=b5c7f071-a026-45b8-8531-421b35957a32"},"vehicle_type_id":"4","last_reported":1753501955,"current_range_meters":16400,"station_id":"","pricing_plan_id":"cebpf4jnsgd1na2vs0mg"},{"bike_id":"c3b53303-9018-4d5a-91fe-ce0c3b3be56d","system_id":"levelo_inurba_marseille","lat":43.28614,"lon":5.37061,"is_reserved":false,"is_disabled":false,"rental_uris":{"android":"levelo://app?vid=c3b53303-9018-4d5a-91fe-ce0c3b3be56d","ios":"levelo://app?vid=c3b53303-9018-4d5a-91fe-ce0c3b3be56d"},"vehicle_type_id":"4","last_reported":1753501955,"current_range_meters":16400,"station_id":"ce4bht12rcd13ifvqi60","pricing_plan_id":"cebpf4jnsgd1na2vs0mg"},{"bike_id":"d1ef1c13-40f7-47d7-ab0e-8e4ae1254ac5","system_id":"levelo_inurba_marseille","lat":43.32338,"lon":5.36719,"is_reserved":false,"is_disabled":false,"rental_uris":{"android":"levelo://app?vid=d1ef1c13-40f7-47d7-ab0e-8e4ae1254ac5","ios":"levelo://app?vid=d1ef1c13-40f7-47d7-ab0e-8e4ae1254ac5"},"vehicle_type_id":"4","last_reported":1753501955,"current_range_meters":16400,"station_id":"ce4bhsh2rcd13ifvqi2g","pricing_plan_id":"cebpf4jnsgd1na2vs0mg"},{"bike_id":"ab975228-d1ba-4531-b5ff-bdc393588a7f","system_id":"levelo_inurba_marseille","lat":43.30603,"lon":5.37226,"is_reserved":false,"is_disabled":false,"rental_uris":{"android":"levelo://app?vid=ab975228-d1ba-4531-b5ff-bdc393588a7f","ios":"levelo://app?vid=ab975228-d1ba-4531-b5ff-bdc393588a7f"},"vehicle_type_id":"4","last_reported":1753501955,"current_range_meters":16400,"station_id":"ce4bgqh2rcd13ifvqc4g","pricing_plan_id":"cebpf4jnsgd1na2vs0mg"},{"bike_id":"5d11fc68-b0be-4ebf-87d9-4cb6a3f0b870","system_id":"levelo_inurba_marseille","lat":43.30537,"lon":5.38432,"is_reserved":false,"is_disabled":false,"rental_uris":{"android":"levelo://app?vid=5d11fc68-b0be-4ebf-87d9-4cb6a3f0b870","ios":"levelo://app?vid=5d11fc68-b0be-4ebf-87d9-4cb6a3f0b870"},"vehicle_type_id":"4","last_reported":1753501955,"current_range_meters":16800,"station_id":"ce4bgg92rcd13ifvqb30","pricing_plan_id":"cebpf4jnsgd1na2vs0mg"},{"bike_id":"1d45adb4-6195-47f2-8dd3-0be1f636037f","system_id":"levelo_inurba_marseille","lat":43.28154,"lon":5.42629,"is_reserved":false,"is_disabled":false,"rental_uris":{"android":"levelo://app?vid=1d45adb4-6195-47f2-8dd3-0be1f636037f","ios":"levelo://app?vid=1d45adb4-6195-47f2-8dd3-0be1f636037f"},"vehicle_type_id":"4","last_reported":1753501955,"current_range_meters":16800,"station_id":"ce4bhnh2rcd13ifvqgug","pricing_plan_id":"cebpf4jnsgd1na2vs0mg"},{"bike_id":"d592fb10-edb9-4fb7-a04f-a8e72ee0f037","system_id":"levelo_inurba_marseille","lat":43.28154,"lon":5.4264,"is_reserved":false,"is_disabled":false,"rental_uris":{"android":"levelo://app?vid=d592fb10-edb9-4fb7-a04f-a8e72ee0f037","ios":"levelo://app?vid=d592fb10-edb9-4fb7-a04f-a8e72ee0f037"},"vehicle_type_id":"4","last_reported":1753501955,"current_range_meters":16800,"station_id":"ce4bhnh2rcd13ifvqgug","pricing_plan_id":"cebpf4jnsgd1na2vs0mg"},{"bike_id":"1e5c96a6-9d0f-4d5f-85ef-5a5f8ac0317a","system_id":"levelo_inurba_marseille","lat":43.334547,"lon":5.391428,"is_reserved":false,"is_disabled":false,"rental_uris":{"android":"levelo://app?vid=1e5c96a6-9d0f-4d5f-85ef-5a5f8ac0317a","ios":"levelo://app?vid=1e5c96a6-9d0f-4d5f-85ef-5a5f8ac0317a"},"vehicle_type_id":"4","last_reported":1753501955,"current_range_meters":16800,"station_id":"","pricing_plan_id":"cebpf4jnsgd1na2vs0mg"},{"bike_id":"7254aad9-4b7a-44b4-89bb-4f6b7cb10520","system_id":"levelo_inurba_marseille","lat":43.26071,"lon":5.39385,"is_reserved":false,"is_disabled":false,"rental_uris":{"android":"levelo://app?vid=7254aad9-4b7a-44b4-89bb-4f6b7cb10520","ios":"levelo://app?vid=7254aad9-4b7a-44b4-89bb-4f6b7cb10520"},"vehicle_type_id":"4","last_reported":1753501955,"current_range_meters":16800,"station_id":"ce4bhh92rcd13ifvqfj0","pricing_plan_id":"cebpf4jnsgd1na2vs0mg"},{"bike_id":"c1ca13a9-7216-4338-9451-5f978e0ae33b","system_id":"levelo_inurba_marseille","lat":43.3055,"lon":5.3845,"is_reserved":false,"is_disabled":true,"rental_uris":{"android":"levelo://app?vid=c1ca13a9-7216-4338-9451-5f978e0ae33b","ios":"levelo://app?vid=c1ca13a9-7216-4338-9451-5f978e0ae33b"},"vehicle_type_id":"4","last_reported":1753501955,"current_range_meters":16800,"station_id":"ce4bgg92rcd13ifvqb30","pricing_plan_id":"cebpf4jnsgd1na2vs0mg"},{"bike_id":"83e6f275-f182-4f88-81fb-6476cf5d4aa5","system_id":"levelo_inurba_marseille","lat":43.30874,"lon":5.39639,"is_reserved":false,"is_disabled":false,"rental_uris":{"android":"levelo://app?vid=83e6f275-f182-4f88-81fb-6476cf5d4aa5","ios":"levelo://app?vid=83e6f275-f182-4f88-81fb-6476cf5d4aa5"},"vehicle_type_id":"4","last_reported":1753501955,"current_range_meters":16800,"station_id":"ce4bh012rcd13ifvqcv0","pricing_plan_id":"cebpf4jnsgd1na2vs0mg"},{"bike_id":"20424831-2201-4d3c-8027-3c541a36d8b1","system_id":"levelo_inurba_marseille","lat":43.28884,"lon":5.37129,"is_reserved":false,"is_disabled":false,"rental_uris":{"android":"levelo://app?vid=20424831-2201-4d3c-8027-3c541a36d8b1","ios":"levelo://app?vid=20424831-2201-4d3c-8027-3c541a36d8b1"},"vehicle_type_id":"4","last_reported":1753501955,"current_range_meters":16800,"station_id":"","pricing_plan_id":"cebpf4jnsgd1na2vs0mg"},{"bike_id":"a1d5115b-997f-44a5-8b4b-21cb29757407","system_id":"levelo_inurba_marseille","lat":43.312277,"lon":5.373161,"is_reserved":false,"is_disabled":false,"rental_uris":{"android":"levelo://app?vid=a1d5115b-997f-44a5-8b4b-21cb29757407","ios":"levelo://app?vid=a1d5115b-997f-44a5-8b4b-21cb29757407"},"vehicle_type_id":"4","last_reported":1753501955,"current_range_meters":16800,"station_id":"","pricing_plan_id":"cebpf4jnsgd1na2vs0mg"},{"bike_id":"36e6bf97-6485-443c-94bf-9c9cb3f33000","system_id":"levelo_inurba_marseille","lat":43.28275,"lon":5.35078,"is_reserved":false,"is_disabled":true,"rental_uris":{"android":"levelo://app?vid=36e6bf97-6485-443c-94bf-9c9cb3f33000","ios":"levelo://app?vid=36e6bf97-6485-443c-94bf-9c9cb3f33000"},"vehicle_type_id":"4","last_reported":1753501955,"current_range_meters":16800,"station_id":"ce4bhbp2rcd13ifvqerg","pricing_plan_id":"cebpf4jnsgd1na2vs0mg"},{"bike_id":"2703e0a4-7218-4353-b33c-9609c06a5516","system_id":"levelo_inurba_marseille","lat":43.27489,"lon":5.42467,"is_reserved":false,"is_disabled":false,"rental_uris":{"android":"levelo://app?vid=2703e0a4-7218-4353-b33c-9609c06a5516","ios":"levelo://app?vid=2703e0a4-7218-4353-b33c-9609c06a5516"},"vehicle_type_id":"4","last_reported":1753501955,"current_range_meters":17200,"station_id":"ce4bhn92rcd13ifvqgrg","pricing_plan_id":"cebpf4jnsgd1na2vs0mg"},{"bike_id":"238390e8-3a2f-43aa-ae07-18b7138ab742","system_id":"levelo_inurba_marseille","lat":43.2396,"lon":5.36642,"is_reserved":false,"is_disabled":false,"rental_uris":{"android":"levelo://app?vid=238390e8-3a2f-43aa-ae07-18b7138ab742","ios":"levelo://app?vid=238390e8-3a2f-43aa-ae07-18b7138ab742"},"vehicle_type_id":"4","last_reported":1753501955,"current_range_meters":17200,"station_id":"ce4bhi12rcd13ifvqfp0","pricing_plan_id":"cebpf4jnsgd1na2vs0mg"},{"bike_id":"febfb0dd-62aa-4333-8aa6-5a2dfd2c5e17","system_id":"levelo_inurba_marseille","lat":43.33156,"lon":5.35975,"is_reserved":false,"is_disabled":false,"rental_uris":{"android":"levelo://app?vid=febfb0dd-62aa-4333-8aa6-5a2dfd2c5e17","ios":"levelo://app?vid=febfb0dd-62aa-4333-8aa6-5a2dfd2c5e17"},"vehicle_type_id":"4","last_reported":1753501955,"current_range_meters":17200,"station_id":"","pricing_plan_id":"cebpf4jnsgd1na2vs0mg"},{"bike_id":"4f069cb2-e85f-44ab-8659-b3444c19b657","system_id":"levelo_inurba_marseille","lat":43.23185,"lon":5.3556,"is_reserved":false,"is_disabled":false,"rental_uris":{"android":"levelo://app?vid=4f069cb2-e85f-44ab-8659-b3444c19b657","ios":"levelo://app?vid=4f069cb2-e85f-44ab-8659-b3444c19b657"},"vehicle_type_id":"4","last_reported":1753501955,"current_range_meters":17200,"station_id":"ce4bhu92rcd13ifvqi70","pricing_plan_id":"cebpf4jnsgd1na2vs0mg"},{"bike_id":"61cd7fe3-237f-4708-afc7-dd8a81b4454c","system_id":"levelo_inurba_marseille","lat":43.229309,"lon":5.353723,"is_reserved":false,"is_disabled":false,"rental_uris":{"android":"levelo://app?vid=61cd7fe3-237f-4708-afc7-dd8a81b4454c","ios":"levelo://app?vid=61cd7fe3-237f-4708-afc7-dd8a81b4454c"},"vehicle_type_id":"4","last_reported":1753501955,"current_range_meters":17200,"station_id":"cpo3532slgdg3j2ikp40","pricing_plan_id":"cebpf4jnsgd1na2vs0mg"},{"bike_id":"43dbc09e-d0e4-4ddb-bafe-4f55874d23a9","system_id":"levelo_inurba_marseille","lat":43.3022,"lon":5.38242,"is_reserved":false,"is_disabled":false,"rental_uris":{"android":"levelo://app?vid=43dbc09e-d0e4-4ddb-bafe-4f55874d23a9","ios":"levelo://app?vid=43dbc09e-d0e4-4ddb-bafe-4f55874d23a9"},"vehicle_type_id":"4","last_reported":1753501955,"current_range_meters":17200,"station_id":"","pricing_plan_id":"cebpf4jnsgd1na2vs0mg"},{"bike_id":"6b34aaa6-58a0-46fb-bc50-6499601beb64","system_id":"levelo_inurba_marseille","lat":43.2251,"lon":5.34769,"is_reserved":false,"is_disabled":false,"rental_uris":{"android":"levelo://app?vid=6b34aaa6-58a0-46fb-bc50-6499601beb64","ios":"levelo://app?vid=6b34aaa6-58a0-46fb-bc50-6499601beb64"},"vehicle_type_id":"4","last_reported":1753501955,"current_range_meters":17200,"station_id":"st_cvj5dfep6f1abm77gieg","pricing_plan_id":"cebpf4jnsgd1na2vs0mg"},{"bike_id":"8487f269-40b2-4c5a-8dd3-4a92c89bfeff","system_id":"levelo_inurba_marseille","lat":43.299125,"lon":5.374738,"is_reserved":false,"is_disabled":true,"rental_uris":{"android":"levelo://app?vid=8487f269-40b2-4c5a-8dd3-4a92c89bfeff","ios":"levelo://app?vid=8487f269-40b2-4c5a-8dd3-4a92c89bfeff"},"vehicle_type_id":"4","last_reported":1753501955,"current_range_meters":17200,"station_id":"ce4bgjh2rcd13ifvqbg0","pricing_plan_id":"cebpf4jnsgd1na2vs0mg"},{"bike_id":"7e65c5ea-0429-45f5-a396-bd32e67f0744","system_id":"levelo_inurba_marseille","lat":43.33461,"lon":5.4004,"is_reserved":false,"is_disabled":false,"rental_uris":{"android":"levelo://app?vid=7e65c5ea-0429-45f5-a396-bd32e67f0744","ios":"levelo://app?vid=7e65c5ea-0429-45f5-a396-bd32e67f0744"},"vehicle_type_id":"4","last_reported":1753501955,"current_range_meters":17200,"station_id":"","pricing_plan_id":"cebpf4jnsgd1na2vs0mg"},{"bike_id":"c955e182-4838-4943-8360-dd58958aee37","system_id":"levelo_inurba_marseille","lat":43.30941,"lon":5.40138,"is_reserved":false,"is_disabled":false,"rental_uris":{"android":"levelo://app?vid=c955e182-4838-4943-8360-dd58958aee37","ios":"levelo://app?vid=c955e182-4838-4943-8360-dd58958aee37"},"vehicle_type_id":"4","last_reported":1753501955,"current_range_meters":17200,"station_id":"ce4bgvp2rcd13ifvqct0","pricing_plan_id":"cebpf4jnsgd1na2vs0mg"},{"bike_id":"725317c6-351b-43e5-b68d-45c3db010ac3","system_id":"levelo_inurba_marseille","lat":43.28158,"lon":5.42631,"is_reserved":false,"is_disabled":false,"rental_uris":{"android":"levelo://app?vid=725317c6-351b-43e5-b68d-45c3db010ac3","ios":"levelo://app?vid=725317c6-351b-43e5-b68d-45c3db010ac3"},"vehicle_type_id":"4","last_reported":1753501955,"current_range_meters":17600,"station_id":"ce4bhnh2rcd13ifvqgug","pricing_plan_id":"cebpf4jnsgd1na2vs0mg"},{"bike_id":"ecb1a541-452e-4924-8cdd-4fda085c67c8","system_id":"levelo_inurba_marseille","lat":43.2845,"lon":5.35892,"is_reserved":false,"is_disabled":false,"rental_uris":{"android":"levelo://app?vid=ecb1a541-452e-4924-8cdd-4fda085c67c8","ios":"levelo://app?vid=ecb1a541-452e-4924-8cdd-4fda085c67c8"},"vehicle_type_id":"4","last_reported":1753501955,"current_range_meters":17600,"station_id":"ce4bhah2rcd13ifvqei0","pricing_plan_id":"cebpf4jnsgd1na2vs0mg"},{"bike_id":"a05343f6-5345-451e-92c9-8d14b4ec04eb","system_id":"levelo_inurba_marseille","lat":43.314919,"lon":5.373082,"is_reserved":false,"is_disabled":true,"rental_uris":{"android":"levelo://app?vid=a05343f6-5345-451e-92c9-8d14b4ec04eb","ios":"levelo://app?vid=a05343f6-5345-451e-92c9-8d14b4ec04eb"},"vehicle_type_id":"4","last_reported":1753501955,"current_range_meters":17600,"station_id":"","pricing_plan_id":"cebpf4jnsgd1na2vs0mg"},{"bike_id":"551a047e-a7ef-4c04-aa54-32bf2e2fac20","system_id":"levelo_inurba_marseille","lat":43.304496,"lon":5.423523,"is_reserved":false,"is_disabled":false,"rental_uris":{"android":"levelo://app?vid=551a047e-a7ef-4c04-aa54-32bf2e2fac20","ios":"levelo://app?vid=551a047e-a7ef-4c04-aa54-32bf2e2fac20"},"vehicle_type_id":"4","last_reported":1753501955,"current_range_meters":17600,"station_id":"ce4bhoh2rcd13ifvqh6g","pricing_plan_id":"cebpf4jnsgd1na2vs0mg"},{"bike_id":"ba0f16c0-3055-471e-a6c5-bc14ed0b4038","system_id":"levelo_inurba_marseille","lat":43.30323,"lon":5.40462,"is_reserved":false,"is_disabled":false,"rental_uris":{"android":"levelo://app?vid=ba0f16c0-3055-471e-a6c5-bc14ed0b4038","ios":"levelo://app?vid=ba0f16c0-3055-471e-a6c5-bc14ed0b4038"},"vehicle_type_id":"4","last_reported":1753501955,"current_range_meters":17600,"station_id":"ce4bh012rcd13ifvqd10","pricing_plan_id":"cebpf4jnsgd1na2vs0mg"},{"bike_id":"c16b128a-b8ba-492e-87bd-adc49339a1c1","system_id":"levelo_inurba_marseille","lat":43.31068,"lon":5.38349,"is_reserved":false,"is_disabled":false,"rental_uris":{"android":"levelo://app?vid=c16b128a-b8ba-492e-87bd-adc49339a1c1","ios":"levelo://app?vid=c16b128a-b8ba-492e-87bd-adc49339a1c1"},"vehicle_type_id":"4","last_reported":1753501955,"current_range_meters":17600,"station_id":"ce4bgv92rcd13ifvqcr0","pricing_plan_id":"cebpf4jnsgd1na2vs0mg"},{"bike_id":"0a1197d6-783f-45df-a657-40c3bd37c2ae","system_id":"levelo_inurba_marseille","lat":43.313591,"lon":5.384963,"is_reserved":false,"is_disabled":false,"rental_uris":{"android":"levelo://app?vid=0a1197d6-783f-45df-a657-40c3bd37c2ae","ios":"levelo://app?vid=0a1197d6-783f-45df-a657-40c3bd37c2ae"},"vehicle_type_id":"4","last_reported":1753501955,"current_range_meters":17600,"station_id":"ce4bgt92rcd13ifvqcf0","pricing_plan_id":"cebpf4jnsgd1na2vs0mg"},{"bike_id":"83b7f6a5-9944-4e51-aee6-c62f09fca00a","system_id":"levelo_inurba_marseille","lat":43.26778,"lon":5.39429,"is_reserved":false,"is_disabled":false,"rental_uris":{"android":"levelo://app?vid=83b7f6a5-9944-4e51-aee6-c62f09fca00a","ios":"levelo://app?vid=83b7f6a5-9944-4e51-aee6-c62f09fca00a"},"vehicle_type_id":"4","last_reported":1753501955,"current_range_meters":17600,"station_id":"ce4bhh12rcd13ifvqfg0","pricing_plan_id":"cebpf4jnsgd1na2vs0mg"},{"bike_id":"5fc666d4-7509-40b3-b359-a141ffaa9f74","system_id":"levelo_inurba_marseille","lat":43.275007,"lon":5.424623,"is_reserved":false,"is_disabled":false,"rental_uris":{"android":"levelo://app?vid=5fc666d4-7509-40b3-b359-a141ffaa9f74","ios":"levelo://app?vid=5fc666d4-7509-40b3-b359-a141ffaa9f74"},"vehicle_type_id":"4","last_reported":1753501955,"current_range_meters":18000,"station_id":"ce4bhn92rcd13ifvqgrg","pricing_plan_id":"cebpf4jnsgd1na2vs0mg"},{"bike_id":"a6163d10-cb41-4b4a-a2f0-ffc1f9744bc3","system_id":"levelo_inurba_marseille","lat":43.31336,"lon":5.38532,"is_reserved":false,"is_disabled":false,"rental_uris":{"android":"levelo://app?vid=a6163d10-cb41-4b4a-a2f0-ffc1f9744bc3","ios":"levelo://app?vid=a6163d10-cb41-4b4a-a2f0-ffc1f9744bc3"},"vehicle_type_id":"4","last_reported":1753501955,"current_range_meters":18000,"station_id":"ce4bgt92rcd13ifvqcf0","pricing_plan_id":"cebpf4jnsgd1na2vs0mg"},{"bike_id":"5755474e-02c9-4021-909b-c23a2b0cf77d","system_id":"levelo_inurba_marseille","lat":43.23144,"lon":5.43715,"is_reserved":false,"is_disabled":false,"rental_uris":{"android":"levelo://app?vid=5755474e-02c9-4021-909b-c23a2b0cf77d","ios":"levelo://app?vid=5755474e-02c9-4021-909b-c23a2b0cf77d"},"vehicle_type_id":"4","last_reported":1753501955,"current_range_meters":17600,"station_id":"ce4bhmp2rcd13ifvqgog","pricing_plan_id":"cebpf4jnsgd1na2vs0mg"},{"bike_id":"22fb4a68-6b7c-48ba-8180-ba736e05bfcc","system_id":"levelo_inurba_marseille","lat":43.26724,"lon":5.37667,"is_reserved":false,"is_disabled":false,"rental_uris":{"android":"levelo://app?vid=22fb4a68-6b7c-48ba-8180-ba736e05bfcc","ios":"levelo://app?vid=22fb4a68-6b7c-48ba-8180-ba736e05bfcc"},"vehicle_type_id":"4","last_reported":1753501955,"current_range_meters":18000,"station_id":"","pricing_plan_id":"cebpf4jnsgd1na2vs0mg"},{"bike_id":"17aa2c45-c857-423f-9f41-4a0fa9f6f0b0","system_id":"levelo_inurba_marseille","lat":43.31354,"lon":5.38508,"is_reserved":false,"is_disabled":false,"rental_uris":{"android":"levelo://app?vid=17aa2c45-c857-423f-9f41-4a0fa9f6f0b0","ios":"levelo://app?vid=17aa2c45-c857-423f-9f41-4a0fa9f6f0b0"},"vehicle_type_id":"4","last_reported":1753501955,"current_range_meters":18000,"station_id":"ce4bgt92rcd13ifvqcf0","pricing_plan_id":"cebpf4jnsgd1na2vs0mg"},{"bike_id":"bc768416-3253-4b4d-864d-9fcf3e000154","system_id":"levelo_inurba_marseille","lat":43.30367,"lon":5.42478,"is_reserved":false,"is_disabled":false,"rental_uris":{"android":"levelo://app?vid=bc768416-3253-4b4d-864d-9fcf3e000154","ios":"levelo://app?vid=bc768416-3253-4b4d-864d-9fcf3e000154"},"vehicle_type_id":"4","last_reported":1753501955,"current_range_meters":18000,"station_id":"ce4bhoh2rcd13ifvqh6g","pricing_plan_id":"cebpf4jnsgd1na2vs0mg"},{"bike_id":"8d638062-b729-4ab6-a2cd-3ffb748369e4","system_id":"levelo_inurba_marseille","lat":43.30541,"lon":5.36931,"is_reserved":false,"is_disabled":false,"rental_uris":{"android":"levelo://app?vid=8d638062-b729-4ab6-a2cd-3ffb748369e4","ios":"levelo://app?vid=8d638062-b729-4ab6-a2cd-3ffb748369e4"},"vehicle_type_id":"4","last_reported":1753501955,"current_range_meters":18000,"station_id":"","pricing_plan_id":"cebpf4jnsgd1na2vs0mg"},{"bike_id":"cd5c1352-d0db-4d44-b91e-5cdbdfbc041f","system_id":"levelo_inurba_marseille","lat":43.28842,"lon":5.39316,"is_reserved":false,"is_disabled":false,"rental_uris":{"android":"levelo://app?vid=cd5c1352-d0db-4d44-b91e-5cdbdfbc041f","ios":"levelo://app?vid=cd5c1352-d0db-4d44-b91e-5cdbdfbc041f"},"vehicle_type_id":"4","last_reported":1753501955,"current_range_meters":18000,"station_id":"ce4bh2p2rcd13ifvqdi0","pricing_plan_id":"cebpf4jnsgd1na2vs0mg"},{"bike_id":"d3269d35-fd73-4dea-9e0f-9d77773ffb34","system_id":"levelo_inurba_marseille","lat":43.28449,"lon":5.35897,"is_reserved":false,"is_disabled":false,"rental_uris":{"android":"levelo://app?vid=d3269d35-fd73-4dea-9e0f-9d77773ffb34","ios":"levelo://app?vid=d3269d35-fd73-4dea-9e0f-9d77773ffb34"},"vehicle_type_id":"4","last_reported":1753501955,"current_range_meters":18000,"station_id":"ce4bhah2rcd13ifvqei0","pricing_plan_id":"cebpf4jnsgd1na2vs0mg"},{"bike_id":"25f3e258-0c7a-499b-b187-4c4dddf45bcd","system_id":"levelo_inurba_marseille","lat":43.29258,"lon":5.36848,"is_reserved":false,"is_disabled":true,"rental_uris":{"android":"levelo://app?vid=25f3e258-0c7a-499b-b187-4c4dddf45bcd","ios":"levelo://app?vid=25f3e258-0c7a-499b-b187-4c4dddf45bcd"},"vehicle_type_id":"4","last_reported":1753501955,"current_range_meters":18000,"station_id":"ce4bhbp2rcd13ifvqesg","pricing_plan_id":"cebpf4jnsgd1na2vs0mg"},{"bike_id":"20958b00-1757-46f4-b566-babd7f94d862","system_id":"levelo_inurba_marseille","lat":43.24665,"lon":5.3815,"is_reserved":false,"is_disabled":false,"rental_uris":{"android":"levelo://app?vid=20958b00-1757-46f4-b566-babd7f94d862","ios":"levelo://app?vid=20958b00-1757-46f4-b566-babd7f94d862"},"vehicle_type_id":"4","last_reported":1753501955,"current_range_meters":18000,"station_id":"ce4bhih2rcd13ifvqfr0","pricing_plan_id":"cebpf4jnsgd1na2vs0mg"},{"bike_id":"b06283d0-bfee-4d10-993a-2b7ca7bb1953","system_id":"levelo_inurba_marseille","lat":43.25491,"lon":5.37645,"is_reserved":false,"is_disabled":false,"rental_uris":{"android":"levelo://app?vid=b06283d0-bfee-4d10-993a-2b7ca7bb1953","ios":"levelo://app?vid=b06283d0-bfee-4d10-993a-2b7ca7bb1953"},"vehicle_type_id":"4","last_reported":1753501955,"current_range_meters":20800,"station_id":"ce4bhh12rcd13ifvqff0","pricing_plan_id":"cebpf4jnsgd1na2vs0mg"},{"bike_id":"6249b594-9952-40bc-b8a1-caf06fd62beb","system_id":"levelo_inurba_marseille","lat":43.30139,"lon":5.3742,"is_reserved":false,"is_disabled":false,"rental_uris":{"android":"levelo://app?vid=6249b594-9952-40bc-b8a1-caf06fd62beb","ios":"levelo://app?vid=6249b594-9952-40bc-b8a1-caf06fd62beb"},"vehicle_type_id":"4","last_reported":1753501955,"current_range_meters":18000,"station_id":"ce4bgs92rcd13ifvqcc0","pricing_plan_id":"cebpf4jnsgd1na2vs0mg"},{"bike_id":"6672cf7e-63d9-41b0-8ff0-2ad8d8fefb19","system_id":"levelo_inurba_marseille","lat":43.31756,"lon":5.39027,"is_reserved":false,"is_disabled":false,"rental_uris":{"android":"levelo://app?vid=6672cf7e-63d9-41b0-8ff0-2ad8d8fefb19","ios":"levelo://app?vid=6672cf7e-63d9-41b0-8ff0-2ad8d8fefb19"},"vehicle_type_id":"4","last_reported":1753501955,"current_range_meters":18000,"station_id":"ce4bhqp2rcd13ifvqhng","pricing_plan_id":"cebpf4jnsgd1na2vs0mg"},{"bike_id":"a6bfb3b9-c546-437c-8448-eba894baddca","system_id":"levelo_inurba_marseille","lat":43.310696,"lon":5.383533,"is_reserved":false,"is_disabled":false,"rental_uris":{"android":"levelo://app?vid=a6bfb3b9-c546-437c-8448-eba894baddca","ios":"levelo://app?vid=a6bfb3b9-c546-437c-8448-eba894baddca"},"vehicle_type_id":"4","last_reported":1753501955,"current_range_meters":18800,"station_id":"ce4bgv92rcd13ifvqcr0","pricing_plan_id":"cebpf4jnsgd1na2vs0mg"},{"bike_id":"00bd26d4-f128-4308-874a-9850ad5e1380","system_id":"levelo_inurba_marseille","lat":43.337634,"lon":5.374825,"is_reserved":false,"is_disabled":false,"rental_uris":{"android":"levelo://app?vid=00bd26d4-f128-4308-874a-9850ad5e1380","ios":"levelo://app?vid=00bd26d4-f128-4308-874a-9850ad5e1380"},"vehicle_type_id":"4","last_reported":1753501955,"current_range_meters":18800,"station_id":"","pricing_plan_id":"cebpf4jnsgd1na2vs0mg"},{"bike_id":"4abe3d73-a41d-41d3-9cd5-ca38a8a7e35d","system_id":"levelo_inurba_marseille","lat":43.278053,"lon":5.407036,"is_reserved":false,"is_disabled":false,"rental_uris":{"android":"levelo://app?vid=4abe3d73-a41d-41d3-9cd5-ca38a8a7e35d","ios":"levelo://app?vid=4abe3d73-a41d-41d3-9cd5-ca38a8a7e35d"},"vehicle_type_id":"4","last_reported":1753501955,"current_range_meters":18800,"station_id":"ce4bhnh2rcd13ifvqgtg","pricing_plan_id":"cebpf4jnsgd1na2vs0mg"},{"bike_id":"8362c329-d292-4c5c-95e6-bd7045291b1e","system_id":"levelo_inurba_marseille","lat":43.296748,"lon":5.372876,"is_reserved":false,"is_disabled":true,"rental_uris":{"android":"levelo://app?vid=8362c329-d292-4c5c-95e6-bd7045291b1e","ios":"levelo://app?vid=8362c329-d292-4c5c-95e6-bd7045291b1e"},"vehicle_type_id":"4","last_reported":1753501955,"current_range_meters":18800,"station_id":"ce4bgk12rcd13ifvqbj0","pricing_plan_id":"cebpf4jnsgd1na2vs0mg"},{"bike_id":"a61ebb22-87a3-4f29-bcec-6d0e01489abe","system_id":"levelo_inurba_marseille","lat":43.30273,"lon":5.40046,"is_reserved":false,"is_disabled":false,"rental_uris":{"android":"levelo://app?vid=a61ebb22-87a3-4f29-bcec-6d0e01489abe","ios":"levelo://app?vid=a61ebb22-87a3-4f29-bcec-6d0e01489abe"},"vehicle_type_id":"4","last_reported":1753501955,"current_range_meters":18800,"station_id":"ce4bgvh2rcd13ifvqcs0","pricing_plan_id":"cebpf4jnsgd1na2vs0mg"},{"bike_id":"a0f4c9cb-36e5-4b83-9aaf-945e03cc00e2","system_id":"levelo_inurba_marseille","lat":43.2871,"lon":5.39968,"is_reserved":false,"is_disabled":false,"rental_uris":{"android":"levelo://app?vid=a0f4c9cb-36e5-4b83-9aaf-945e03cc00e2","ios":"levelo://app?vid=a0f4c9cb-36e5-4b83-9aaf-945e03cc00e2"},"vehicle_type_id":"4","last_reported":1753501955,"current_range_meters":18800,"station_id":"ce4bho92rcd13ifvqh3g","pricing_plan_id":"cebpf4jnsgd1na2vs0mg"},{"bike_id":"a7da2507-e354-4838-8e19-5746cc5423ef","system_id":"levelo_inurba_marseille","lat":43.28834,"lon":5.35839,"is_reserved":false,"is_disabled":true,"rental_uris":{"android":"levelo://app?vid=a7da2507-e354-4838-8e19-5746cc5423ef","ios":"levelo://app?vid=a7da2507-e354-4838-8e19-5746cc5423ef"},"vehicle_type_id":"4","last_reported":1753501955,"current_range_meters":18800,"station_id":"ce4bhb12rcd13ifvqem0","pricing_plan_id":"cebpf4jnsgd1na2vs0mg"},{"bike_id":"5807cbdd-25cb-4d16-b9bc-ae0cd7616274","system_id":"levelo_inurba_marseille","lat":43.24539,"lon":5.39514,"is_reserved":false,"is_disabled":false,"rental_uris":{"android":"levelo://app?vid=5807cbdd-25cb-4d16-b9bc-ae0cd7616274","ios":"levelo://app?vid=5807cbdd-25cb-4d16-b9bc-ae0cd7616274"},"vehicle_type_id":"4","last_reported":1753501955,"current_range_meters":19200,"station_id":"ce4bhlp2rcd13ifvqgjg","pricing_plan_id":"cebpf4jnsgd1na2vs0mg"},{"bike_id":"2dfe5d41-4214-4b38-bc50-4014400f8f4e","system_id":"levelo_inurba_marseille","lat":43.25914,"lon":5.39904,"is_reserved":false,"is_disabled":false,"rental_uris":{"android":"levelo://app?vid=2dfe5d41-4214-4b38-bc50-4014400f8f4e","ios":"levelo://app?vid=2dfe5d41-4214-4b38-bc50-4014400f8f4e"},"vehicle_type_id":"4","last_reported":1753501955,"current_range_meters":19200,"station_id":"","pricing_plan_id":"cebpf4jnsgd1na2vs0mg"},{"bike_id":"c5794c7a-bb35-409f-9175-7d8933c8fd68","system_id":"levelo_inurba_marseille","lat":43.31111,"lon":5.3962,"is_reserved":false,"is_disabled":false,"rental_uris":{"android":"levelo://app?vid=c5794c7a-bb35-409f-9175-7d8933c8fd68","ios":"levelo://app?vid=c5794c7a-bb35-409f-9175-7d8933c8fd68"},