{"last_updated":1699772841,"ttl":30,"version":"2.2","data":{"bikes":[{"bike_id":"0714a2b5-d6d7-4501-9614-be245ffa29b2","system_id":"levelo_inurba_marseille","lat":43.31491,"lon":5.37302,"is_reserved":false,"is_disabled":false,"rental_uris":{"android":"levelo://app?vid=0714a2b5-d6d7-4501-9614-be245ffa29b2","ios":"levelo://app?vid=0714a2b5-d6d7-4501-9614-be245ffa29b2"},"vehicle_type_id":"4","last_reported":1699772841,"current_range_meters":30400,"station_id":"ce4bgt12rcd13ifvqcd0","pricing_plan_id":"free"},{"bike_id":"31fd90d7-358c-4601-863e-3d10e55bc0e2","system_id":"levelo_inurba_marseille","lat":43.314811,"lon":5.373104,"is_reserved":false,"is_disabled":false,"rental_uris":{"android":"levelo://app?vid=31fd90d7-358c-4601-863e-3d10e55bc0e2","ios":"levelo://app?vid=31fd90d7-358c-4601-863e-3d10e55bc0e2"},"vehicle_type_id":"4","last_reported":1699772841,"current_range_meters":14800,"station_id":"ce4bgt12rcd13ifvqcd0","pricing_plan_id":"free"},{"bike_id":"7bad2d53-a792-46fb-b6b2-1390b0613487","system_id":"levelo_inurba_marseille","lat":43.309039,"lon":5.371797,"is_reserved":false,"is_disabled":false,"rental_uris":{"android":"levelo://app?vid=7bad2d53-a792-46fb-b6b2-1390b0613487","ios":"levelo://app?vid=7bad2d53-a792-46fb-b6b2-1390b0613487"},"vehicle_type_id":"4","last_reported":1699772841,"current_range_meters":7600,"station_id":"ce4bguh2rcd13ifvqckg","pricing_plan_id":"free"},{"bike_id":"6de27ae7-7d5d-40f1-8137-b2f7c517f567","system_id":"levelo_inurba_marseille","lat":43.309039,"lon":5.371797,"is_reserved":false,"is_disabled":false,"rental_uris":{"android":"levelo://app?vid=6de27ae7-7d5d-40f1-8137-b2f7c517f567","ios":"levelo://app?vid=6de27ae7-7d5d-40f1-8137-b2f7c517f567"},"vehicle_type_id":"4","last_reported":1699772841,"current_range_meters":31600,"station_id":"ce4bguh2rcd13ifvqckg","pricing_plan_id":"free"},{"bike_id":"550579a5-dcf5-412c-ad72-af7b51c70b03","system_id":"levelo_inurba_marseille","lat":43.309039,"lon":5.371797,"is_reserved":false,"is_disabled":false,"rental_uris":{"android":"levelo://app?vid=550579a5-dcf5-412c-ad72-af7b51c70b03","ios":"levelo://app?vid=550579a5-dcf5-412c-ad72-af7b51c70b03"},"vehicle_type_id":"4","last_reported":1699772841,"current_range_meters":31600,"station_id":"ce4bguh2rcd13ifvqckg","pricing_plan_id":"free"},{"bike_id":"2a0ced69-5c8a-40d3-b476-4cc31ee80063","system_id":"levelo_inurba_marseille","lat":43.305456,"lon":5.366955,"is_reserved":false,"is_disabled":false,"rental_uris":{"android":"levelo://app?vid=2a0ced69-5c8a-40d3-b476-4cc31ee80063","ios":"levelo://app?vid=2a0ced69-5c8a-40d3-b476-4cc31ee80063"},"vehicle_type_id":"4","last_reported":1699772841,"current_range_meters":31200,"station_id":"ce4bgrp2rcd13ifvqc9g","pricing_plan_id":"free"},{"bike_id":"67b5fc20-e117-4a39-bfea-4617b74bf86c","system_id":"levelo_inurba_marseille","lat":43.305445,"lon":5.367131,"is_reserved":false,"is_disabled":false,"rental_uris":{"android":"levelo://app?vid=67b5fc20-e117-4a39-bfea-4617b74bf86c","ios":"levelo://app?vid=67b5fc20-e117-4a39-bfea-4617b74bf86c"},"vehicle_type_id":"4","last_reported":1699772841,"current_range_meters":25600,"station_id":"ce4bgrp2rcd13ifvqc9g","pricing_plan_id":"free"},{"bike_id":"7b883aae-c8c7-4406-b7e6-bb0b06f918ab","system_id":"levelo_inurba_marseille","lat":43.305439,"lon":5.365385,"is_reserved":false,"is_disabled":false,"rental_uris":{"android":"levelo://app?vid=7b883aae-c8c7-4406-b7e6-bb0b06f918ab","ios":"levelo://app?vid=7b883aae-c8c7-4406-b7e6-bb0b06f918ab"},"vehicle_type_id":"4","last_reported":1699772841,"current_range_meters":27600,"station_id":"ce4bgs12rcd13ifvqcag","pricing_plan_id":"free"},{"bike_id":"28619d59-ffc7-49b9-8ddb-e451710f05eb","system_id":"levelo_inurba_marseille","lat":43.30544,"lon":5.36535,"is_reserved":false,"is_disabled":false,"rental_uris":{"android":"levelo://app?vid=28619d59-ffc7-49b9-8ddb-e451710f05eb","ios":"levelo://app?vid=28619d59-ffc7-49b9-8ddb-e451710f05eb"},"vehicle_type_id":"4","last_reported":1699772841,"current_range_meters":24800,"station_id":"ce4bgs12rcd13ifvqcag","pricing_plan_id":"free"},{"bike_id":"308cc65d-6c90-44b0-af5e-26ff0f873c1c","system_id":"levelo_inurba_marseille","lat":43.305435,"lon":5.365305,"is_reserved":false,"is_disabled":false,"rental_uris":{"android":"levelo://app?vid=308cc65d-6c90-44b0-af5e-26ff0f873c1c","ios":"levelo://app?vid=308cc65d-6c90-44b0-af5e-26ff0f873c1c"},"vehicle_type_id":"4","last_reported":1699772841,"current_range_meters":17200,"station_id":"ce4bgs12rcd13ifvqcag","pricing_plan_id":"free"},{"bike_id":"1398e931-fb3c-4c94-bea0-5c253fd48e45","system_id":"levelo_inurba_marseille","lat":43.305714,"lon":5.365633,"is_reserved":false,"is_disabled":false,"rental_uris":{"android":"levelo://app?vid=1398e931-fb3c-4c94-bea0-5c253fd48e45","ios":"levelo://app?vid=1398e931-fb3c-4c94-bea0-5c253fd48e45"},"vehicle_type_id":"4","last_reported":1699772841,"current_range_meters":18800,"station_id":"ce4bgs12rcd13ifvqcag","pricing_plan_id":"free"},{"bike_id":"1fd9544a-2007-4312-b4cc-eaeca1c0f1a9","system_id":"levelo_inurba_marseille","lat":43.305714,"lon":5.365633,"is_reserved":false,"is_disabled":false,"rental_uris":{"android":"levelo://app?vid=1fd9544a-2007-4312-b4cc-eaeca1c0f1a9","ios":"levelo://app?vid=1fd9544a-2007-4312-b4cc-eaeca1c0f1a9"},"vehicle_type_id":"4","last_reported":1699772841,"current_range_meters":27600,"station_id":"ce4bgs12rcd13ifvqcag","pricing_plan_id":"free"},{"bike_id":"d898fc2b-3eda-46d8-b10d-9d6a0b30af95","system_id":"levelo_inurba_marseille","lat":43.305706,"lon":5.365654,"is_reserved":false,"is_disabled":false,"rental_uris":{"android":"levelo://app?vid=d898fc2b-3eda-46d8-b10d-9d6a0b30af95","ios":"levelo://app?vid=d898fc2b-3eda-46d8-b10d-9d6a0b30af95"},"vehicle_type_id":"4","last_reported":1699772841,"current_range_meters":29200,"station_id":"ce4bgs12rcd13ifvqcag","pricing_plan_id":"free"},{"bike_id":"d0ab7cad-c2a3-457b-8e5b-e7b7dce93cf1","system_id":"levelo_inurba_marseille","lat":43.305706,"lon":5.365654,"is_reserved":false,"is_disabled":false,"rental_uris":{"android":"levelo://app?vid=d0ab7cad-c2a3-457b-8e5b-e7b7dce93cf1","ios":"levelo://app?vid=d0ab7cad-c2a3-457b-8e5b-e7b7dce93cf1"},"vehicle_type_id":"4","last_reported":1699772841,"current_range_meters":26400,"station_id":"ce4bgs12rcd13ifvqcag","pricing_plan_id":"free"},{"bike_id":"76b359af-c20b-45d0-a1df-78f4c9a6553a","system_id":"levelo_inurba_marseille","lat":43.305706,"lon":5.365654,"is_reserved":false,"is_disabled":false,"rental_uris":{"android":"levelo://app?vid=76b359af-c20b-45d0-a1df-78f4c9a6553a","ios":"levelo://app?vid=76b359af-c20b-45d0-a1df-78f4c9a6553a"},"vehicle_type_id":"4","last_reported":1699772841,"current_range_meters":15600,"station_id":"ce4bgs12rcd13ifvqcag","pricing_plan_id":"free"},{"bike_id":"26c6f35e-5efb-416b-8f04-5d98fa06093e","system_id":"levelo_inurba_marseille","lat":43.305943,"lon":5.372297,"is_reserved":false,"is_disabled":false,"rental_uris":{"android":"levelo://app?vid=26c6f35e-5efb-416b-8f04-5d98fa06093e","ios":"levelo://app?vid=26c6f35e-5efb-416b-8f04-5d98fa06093e"},"vehicle_type_id":"4","last_reported":1699772841,"current_range_meters":29600,"station_id":"ce4bgqh2rcd13ifvqc4g","pricing_plan_id":"free"},{"bike_id":"57053367-5328-4d78-8951-737f56b37ed9","system_id":"levelo_inurba_marseille","lat":43.319924,"lon":5.373389,"is_reserved":false,"is_disabled":false,"rental_uris":{"android":"levelo://app?vid=57053367-5328-4d78-8951-737f56b37ed9","ios":"levelo://app?vid=57053367-5328-4d78-8951-737f56b37ed9"},"vehicle_type_id":"4","last_reported":1699772841,"current_range_meters":15600,"station_id":"","pricing_plan_id":"free"},{"bike_id":"376f9c62-bfe6-4a65-827f-6dad0f919a97","system_id":"levelo_inurba_marseille","lat":43.317075,"lon":5.377367,"is_reserved":false,"is_disabled":false,"rental_uris":{"android":"levelo://app?vid=376f9c62-bfe6-4a65-827f-6dad0f919a97","ios":"levelo://app?vid=376f9c62-bfe6-4a65-827f-6dad0f919a97"},"vehicle_type_id":"4","last_reported":1699772841,"current_range_meters":15200,"station_id":"ce4bgth2rcd13ifvqch0","pricing_plan_id":"free"},{"bike_id":"a6966d37-fdb6-4a9e-9d84-f3e69daa40de","system_id":"levelo_inurba_marseille","lat":43.317075,"lon":5.377367,"is_reserved":false,"is_disabled":false,"rental_uris":{"android":"levelo://app?vid=a6966d37-fdb6-4a9e-9d84-f3e69daa40de","ios":"levelo://app?vid=a6966d37-fdb6-4a9e-9d84-f3e69daa40de"},"vehicle_type_id":"4","last_reported":1699772841,"current_range_meters":28800,"station_id":"ce4bgth2rcd13ifvqch0","pricing_plan_id":"free"},{"bike_id":"2bc62703-d3d0-4adf-8fcf-eab26ac973b6","system_id":"levelo_inurba_marseille","lat":43.317075,"lon":5.377367,"is_reserved":false,"is_disabled":false,"rental_uris":{"android":"levelo://app?vid=2bc62703-d3d0-4adf-8fcf-eab26ac973b6","ios":"levelo://app?vid=2bc62703-d3d0-4adf-8fcf-eab26ac973b6"},"vehicle_type_id":"4","last_reported":1699772841,"current_range_meters":30000,"station_id":"ce4bgth2rcd13ifvqch0","pricing_plan_id":"free"},{"bike_id":"94e917af-4d1f-4161-b297-0a40a42ba135","system_id":"levelo_inurba_marseille","lat":43.317075,"lon":5.377367,"is_reserved":false,"is_disabled":false,"rental_uris":{"android":"levelo://app?vid=94e917af-4d1f-4161-b297-0a40a42ba135","ios":"levelo://app?vid=94e917af-4d1f-4161-b297-0a40a42ba135"},"vehicle_type_id":"4","last_reported":1699772841,"current_range_meters":30800,"station_id":"ce4bgth2rcd13ifvqch0","pricing_plan_id":"free"},{"bike_id":"1130b399-1d7e-4082-ade3-61d6d1d300db","system_id":"levelo_inurba_marseille","lat":43.303046,"lon":5.368981,"is_reserved":false,"is_disabled":false,"rental_uris":{"android":"levelo://app?vid=1130b399-1d7e-4082-ade3-61d6d1d300db","ios":"levelo://app?vid=1130b399-1d7e-4082-ade3-61d6d1d300db"},"vehicle_type_id":"4","last_reported":1699772841,"current_range_meters":29600,"station_id":"ce4bgqh2rcd13ifvqc5g","pricing_plan_id":"free"},{"bike_id":"55654bd7-d722-4f25-8751-24d22bafbfdd","system_id":"levelo_inurba_marseille","lat":43.3019,"lon":5.36609,"is_reserved":false,"is_disabled":false,"rental_uris":{"android":"levelo://app?vid=55654bd7-d722-4f25-8751-24d22bafbfdd","ios":"levelo://app?vid=55654bd7-d722-4f25-8751-24d22bafbfdd"},"vehicle_type_id":"4","last_reported":1699772841,"current_range_meters":28800,"station_id":"ce4bgrh2rcd13ifvqc8g","pricing_plan_id":"free"},{"bike_id":"f5d7923d-c0e3-4fbd-8c6e-7645d55b1746","system_id":"levelo_inurba_marseille","lat":43.301832,"lon":5.366106,"is_reserved":false,"is_disabled":false,"rental_uris":{"android":"levelo://app?vid=f5d7923d-c0e3-4fbd-8c6e-7645d55b1746","ios":"levelo://app?vid=f5d7923d-c0e3-4fbd-8c6e-7645d55b1746"},"vehicle_type_id":"4","last_reported":1699772841,"current_range_meters":29200,"station_id":"ce4bgrh2rcd13ifvqc8g","pricing_plan_id":"free"},{"bike_id":"a26a672c-8f86-40f5-9e8e-9856cf399a24","system_id":"levelo_inurba_marseille","lat":43.308043,"lon":5.381566,"is_reserved":false,"is_disabled":false,"rental_uris":{"android":"levelo://app?vid=a26a672c-8f86-40f5-9e8e-9856cf399a24","ios":"levelo://app?vid=a26a672c-8f86-40f5-9e8e-9856cf399a24"},"vehicle_type_id":"4","last_reported":1699772841,"current_range_meters":24000,"station_id":"ce4bgt12rcd13ifvqce0","pricing_plan_id":"free"},{"bike_id":"8bb2657a-d499-427e-a1f7-deb47cb05c6f","system_id":"levelo_inurba_marseille","lat":43.304606,"lon":5.379026,"is_reserved":false,"is_disabled":false,"rental_uris":{"android":"levelo://app?vid=8bb2657a-d499-427e-a1f7-deb47cb05c6f","ios":"levelo://app?vid=8bb2657a-d499-427e-a1f7-deb47cb05c6f"},"vehicle_type_id":"4","last_reported":1699772841,"current_range_meters":25200,"station_id":"ce4bgup2rcd13ifvqcn0","pricing_plan_id":"free"},{"bike_id":"22b650b1-22a9-4cb1-892b-fc635ad16fc9","system_id":"levelo_inurba_marseille","lat":43.304687,"lon":5.378968,"is_reserved":false,"is_disabled":false,"rental_uris":{"android":"levelo://app?vid=22b650b1-22a9-4cb1-892b-fc635ad16fc9","ios":"levelo://app?vid=22b650b1-22a9-4cb1-892b-fc635ad16fc9"},"vehicle_type_id":"4","last_reported":1699772841,"current_range_meters":31200,"station_id":"ce4bgup2rcd13ifvqcn0","pricing_plan_id":"free"},{"bike_id":"793a4be0-9d4c-4a82-926e-3e326c1ebf36","system_id":"levelo_inurba_marseille","lat":43.304606,"lon":5.379026,"is_reserved":false,"is_disabled":false,"rental_uris":{"android":"levelo://app?vid=793a4be0-9d4c-4a82-926e-3e326c1ebf36","ios":"levelo://app?vid=793a4be0-9d4c-4a82-926e-3e326c1ebf36"},"vehicle_type_id":"4","last_reported":1699772841,"current_range_meters":30800,"station_id":"ce4bgup2rcd13ifvqcn0","pricing_plan_id":"free"},{"bike_id":"6f7da8a8-ff17-49e7-b004-d155331dd92a","system_id":"levelo_inurba_marseille","lat":43.304606,"lon":5.379026,"is_reserved":false,"is_disabled":false,"rental_uris":{"android":"levelo://app?vid=6f7da8a8-ff17-49e7-b004-d155331dd92a","ios":"levelo://app?vid=6f7da8a8-ff17-49e7-b004-d155331dd92a"},"vehicle_type_id":"4","last_reported":1699772841,"current_range_meters":26400,"station_id":"ce4bgup2rcd13ifvqcn0","pricing_plan_id":"free"},{"bike_id":"8ef52193-4a3c-4256-8c92-d02dc1148f05","system_id":"levelo_inurba_marseille","lat":43.324794,"lon":5.365556,"is_reserved":false,"is_disabled":false,"rental_uris":{"android":"levelo://app?vid=8ef52193-4a3c-4256-8c92-d02dc1148f05","ios":"levelo://app?vid=8ef52193-4a3c-4256-8c92-d02dc1148f05"},"vehicle_type_id":"4","last_reported":1699772841,"current_range_meters":8800,"station_id":"ce4bhs12rcd13ifvqhvg","pricing_plan_id":"free"},{"bike_id":"3819deec-fe3d-41c7-8346-2b107cb07054","system_id":"levelo_inurba_marseille","lat":43.315237,"lon":5.383797,"is_reserved":false,"is_disabled":false,"rental_uris":{"android":"levelo://app?vid=3819deec-fe3d-41c7-8346-2b107cb07054","ios":"levelo://app?vid=3819deec-fe3d-41c7-8346-2b107cb07054"},"vehicle_type_id":"4","last_reported":1699772841,"current_range_meters":0,"station_id":"","pricing_plan_id":"free"},{"bike_id":"69166d53-ec8e-4a0a-864c-7a29f7650dd8","system_id":"levelo_inurba_marseille","lat":43.321172,"lon":5.380081,"is_reserved":false,"is_disabled":false,"rental_uris":{"android":"levelo://app?vid=69166d53-ec8e-4a0a-864c-7a29f7650dd8","ios":"levelo://app?vid=69166d53-ec8e-4a0a-864c-7a29f7650dd8"},"vehicle_type_id":"4","last_reported":1699772841,"current_range_meters":15600,"station_id":"","pricing_plan_id":"free"},{"bike_id":"c0985fbd-c500-46c9-aae5-e6275d5bf15c","system_id":"levelo_inurba_marseille","lat":43.31991,"lon":5.38149,"is_reserved":false,"is_disabled":false,"rental_uris":{"android":"levelo://app?vid=c0985fbd-c500-46c9-aae5-e6275d5bf15c","ios":"levelo://app?vid=c0985fbd-c500-46c9-aae5-e6275d5bf15c"},"vehicle_type_id":"4","last_reported":1699772841,"current_range_meters":18000,"station_id":"ce4bhr12rcd13ifvqhpg","pricing_plan_id":"free"},{"bike_id":"a5bf0937-2ae8-4ff5-a635-54ed67a21f39","system_id":"levelo_inurba_marseille","lat":43.319935,"lon":5.381699,"is_reserved":false,"is_disabled":false,"rental_uris":{"android":"levelo://app?vid=a5bf0937-2ae8-4ff5-a635-54ed67a21f39","ios":"levelo://app?vid=a5bf0937-2ae8-4ff5-a635-54ed67a21f39"},"vehicle_type_id":"4","last_reported":1699772841,"current_range_meters":31200,"station_id":"ce4bhr12rcd13ifvqhpg","pricing_plan_id":"free"},{"bike_id":"13d78257-2559-4a10-97b8-aaa7032179bc","system_id":"levelo_inurba_marseille","lat":43.319975,"lon":5.381519,"is_reserved":false,"is_disabled":false,"rental_uris":{"android":"levelo://app?vid=13d78257-2559-4a10-97b8-aaa7032179bc","ios":"levelo://app?vid=13d78257-2559-4a10-97b8-aaa7032179bc"},"vehicle_type_id":"4","last_reported":1699772841,"current_range_meters":1600,"station_id":"","pricing_plan_id":"free"},{"bike_id":"a2ad6fae-2f10-44d6-9235-2d0cd2faacab","system_id":"levelo_inurba_marseille","lat":43.313571,"lon":5.384829,"is_reserved":false,"is_disabled":false,"rental_uris":{"android":"levelo://app?vid=a2ad6fae-2f10-44d6-9235-2d0cd2faacab","ios":"levelo://app?vid=a2ad6fae-2f10-44d6-9235-2d0cd2faacab"},"vehicle_type_id":"4","last_reported":1699772841,"current_range_meters":30400,"station_id":"ce4bgt92rcd13ifvqcf0","pricing_plan_id":"free"},{"bike_id":"988e2f2a-7489-4bd2-8e35-1b6f04bf7bf6","system_id":"levelo_inurba_marseille","lat":43.313571,"lon":5.384829,"is_reserved":false,"is_disabled":false,"rental_uris":{"android":"levelo://app?vid=988e2f2a-7489-4bd2-8e35-1b6f04bf7bf6","ios":"levelo://app?vid=988e2f2a-7489-4bd2-8e35-1b6f04bf7bf6"},"vehicle_type_id":"4","last_reported":1699772841,"current_range_meters":29200,"station_id":"ce4bgt92rcd13ifvqcf0","pricing_plan_id":"free"},{"bike_id":"a9c938cf-63ee-4917-8361-966f42545def","system_id":"levelo_inurba_marseille","lat":43.299373,"lon":5.365404,"is_reserved":false,"is_disabled":false,"rental_uris":{"android":"levelo://app?vid=a9c938cf-63ee-4917-8361-966f42545def","ios":"levelo://app?vid=a9c938cf-63ee-4917-8361-966f42545def"},"vehicle_type_id":"4","last_reported":1699772841,"current_range_meters":31200,"station_id":"ce4bgm92rcd13ifvqbr0","pricing_plan_id":"free"},{"bike_id":"81e32c9d-828b-4c5f-b38c-e7a5089fb4b1","system_id":"levelo_inurba_marseille","lat":43.29931,"lon":5.365433,"is_reserved":false,"is_disabled":false,"rental_uris":{"android":"levelo://app?vid=81e32c9d-828b-4c5f-b38c-e7a5089fb4b1","ios":"levelo://app?vid=81e32c9d-828b-4c5f-b38c-e7a5089fb4b1"},"vehicle_type_id":"4","last_reported":1699772841,"current_range_meters":27600,"station_id":"ce4bgm92rcd13ifvqbr0","pricing_plan_id":"free"},{"bike_id":"9996b107-38f2-45a8-b8ef-87754a298feb","system_id":"levelo_inurba_marseille","lat":43.29954,"lon":5.37177,"is_reserved":false,"is_disabled":false,"rental_uris":{"android":"levelo://app?vid=9996b107-38f2-45a8-b8ef-87754a298feb","ios":"levelo://app?vid=9996b107-38f2-45a8-b8ef-87754a298feb"},"vehicle_type_id":"4","last_reported":1699772841,"current_range_meters":18400,"station_id":"ce4bgr92rcd13ifvqc7g","pricing_plan_id":"free"},{"bike_id":"6f165245-3cc1-47e0-b1e0-77ebf2e97e65","system_id":"levelo_inurba_marseille","lat":43.305364,"lon":5.384119,"is_reserved":false,"is_disabled":false,"rental_uris":{"android":"levelo://app?vid=6f165245-3cc1-47e0-b1e0-77ebf2e97e65","ios":"levelo://app?vid=6f165245-3cc1-47e0-b1e0-77ebf2e97e65"},"vehicle_type_id":"4","last_reported":1699772841,"current_range_meters":30800,"station_id":"ce4bgg92rcd13ifvqb30","pricing_plan_id":"free"},{"bike_id":"8950f55a-e75d-4fac-9a7c-f529bc0580a5","system_id":"levelo_inurba_marseille","lat":43.320464,"lon":5.384144,"is_reserved":false,"is_disabled":false,"rental_uris":{"android":"levelo://app?vid=8950f55a-e75d-4fac-9a7c-f529bc0580a5","ios":"levelo://app?vid=8950f55a-e75d-4fac-9a7c-f529bc0580a5"},"vehicle_type_id":"4","last_reported":1699772841,"current_range_meters":10400,"station_id":"","pricing_plan_id":"free"},{"bike_id":"de86e3d1-a596-40c7-ba28-8077c5a08266","system_id":"levelo_inurba_marseille","lat":43.31172,"lon":5.38711,"is_reserved":false,"is_disabled":false,"rental_uris":{"android":"levelo://app?vid=de86e3d1-a596-40c7-ba28-8077c5a08266","ios":"levelo://app?vid=de86e3d1-a596-40c7-ba28-8077c5a08266"},"vehicle_type_id":"4","last_reported":1699772841,"current_range_meters":30000,"station_id":"ce4bgv12rcd13ifvqcp0","pricing_plan_id":"free"},{"bike_id":"8d180331-480f-479d-83e6-46d16a66097f","system_id":"levelo_inurba_marseille","lat":43.311722,"lon":5.387247,"is_reserved":false,"is_disabled":false,"rental_uris":{"android":"levelo://app?vid=8d180331-480f-479d-83e6-46d16a66097f","ios":"levelo://app?vid=8d180331-480f-479d-83e6-46d16a66097f"},"vehicle_type_id":"4","last_reported":1699772841,"current_range_meters":28000,"station_id":"ce4bgv12rcd13ifvqcp0","pricing_plan_id":"free"},{"bike_id":"5d33c8da-15bc-40fe-b4eb-1d8d6465f82b","system_id":"levelo_inurba_marseille","lat":43.297794,"lon":5.370888,"is_reserved":false,"is_disabled":false,"rental_uris":{"android":"levelo://app?vid=5d33c8da-15bc-40fe-b4eb-1d8d6465f82b","ios":"levelo://app?vid=5d33c8da-15bc-40fe-b4eb-1d8d6465f82b"},"vehicle_type_id":"4","last_reported":1699772841,"current_range_meters":22000,"station_id":"ce4bgop2rcd13ifvqc1g","pricing_plan_id":"free"},{"bike_id":"e1523b02-de8a-4f5c-b928-8af056930c35","system_id":"levelo_inurba_marseille","lat":43.328371,"lon":5.366909,"is_reserved":false,"is_disabled":false,"rental_uris":{"android":"levelo://app?vid=e1523b02-de8a-4f5c-b928-8af056930c35","ios":"levelo://app?vid=e1523b02-de8a-4f5c-b928-8af056930c35"},"vehicle_type_id":"4","last_reported":1699772841,"current_range_meters":6800,"station_id":"ce4bhs92rcd13ifvqi0g","pricing_plan_id":"free"},{"bike_id":"3acec72d-dace-40d0-ba68-5a09713c41d7","system_id":"levelo_inurba_marseille","lat":43.297163,"lon":5.365866,"is_reserved":false,"is_disabled":false,"rental_uris":{"android":"levelo://app?vid=3acec72d-dace-40d0-ba68-5a09713c41d7","ios":"levelo://app?vid=3acec72d-dace-40d0-ba68-5a09713c41d7"},"vehicle_type_id":"4","last_reported":1699772841,"current_range_meters":28000,"station_id":"ce4bgn12rcd13ifvqbt0","pricing_plan_id":"free"},{"bike_id":"c1509f39-4313-42f4-ade0-998212a91056","system_id":"levelo_inurba_marseille","lat":43.296828,"lon":5.372842,"is_reserved":false,"is_disabled":false,"rental_uris":{"android":"levelo://app?vid=c1509f39-4313-42f4-ade0-998212a91056","ios":"levelo://app?vid=c1509f39-4313-42f4-ade0-998212a91056"},"vehicle_type_id":"4","last_reported":1699772841,"current_range_meters":31200,"station_id":"ce4bgk12rcd13ifvqbj0","pricing_plan_id":"free"},{"bike_id":"d447991a-59b4-4778-a190-7d2b0920a414","system_id":"levelo_inurba_marseille","lat":43.32215,"lon":5.38613,"is_reserved":false,"is_disabled":false,"rental_uris":{"android":"levelo://app?vid=d447991a-59b4-4778-a190-7d2b0920a414","ios":"levelo://app?vid=d447991a-59b4-4778-a190-7d2b0920a414"},"vehicle_type_id":"4","last_reported":1699772841,"current_range_meters":17600,"station_id":"","pricing_plan_id":"free"},{"bike_id":"408e1bba-ac1b-479c-ad30-32026784c873","system_id":"levelo_inurba_marseille","lat":43.2966,"lon":5.37463,"is_reserved":false,"is_disabled":false,"rental_uris":{"android":"levelo://app?vid=408e1bba-ac1b-479c-ad30-32026784c873","ios":"levelo://app?vid=408e1bba-ac1b-479c-ad30-32026784c873"},"vehicle_type_id":"4","last_reported":1699772841,"current_range_meters":12800,"station_id":"","pricing_plan_id":"free"},{"bike_id":"00128090-6f59-490f-9c23-28d56ddfebd2","system_id":"levelo_inurba_marseille","lat":43.299028,"lon":5.381509,"is_reserved":false,"is_disabled":false,"rental_uris":{"android":"levelo://app?vid=00128090-6f59-490f-9c23-28d56ddfebd2","ios":"levelo://app?vid=00128090-6f59-490f-9c23-28d56ddfebd2"},"vehicle_type_id":"4","last_reported":1699772841,"current_range_meters":31600,"station_id":"ce4bgj12rcd13ifvqbc0","pricing_plan_id":"free"},{"bike_id":"67666d06-b522-43ec-9311-267b85d5c931","system_id":"levelo_inurba_marseille","lat":43.30948,"lon":5.39034,"is_reserved":false,"is_disabled":false,"rental_uris":{"android":"levelo://app?vid=67666d06-b522-43ec-9311-267b85d5c931","ios":"levelo://app?vid=67666d06-b522-43ec-9311-267b85d5c931"},"vehicle_type_id":"4","last_reported":1699772841,"current_range_meters":0,"station_id":"ce4bgup2rcd13ifvqco0","pricing_plan_id":"free"},{"bike_id":"6b583532-044b-4dd1-8122-06bfbbbbbb2a","system_id":"levelo_inurba_marseille","lat":43.296935,"lon":5.376544,"is_reserved":false,"is_disabled":false,"rental_uris":{"android":"levelo://app?vid=6b583532-044b-4dd1-8122-06bfbbbbbb2a","ios":"levelo://app?vid=6b583532-044b-4dd1-8122-06bfbbbbbb2a"},"vehicle_type_id":"4","last_reported":1699772841,"current_range_meters":25600,"station_id":"ce4bgkh2rcd13ifvqbl0","pricing_plan_id":"free"},{"bike_id":"ee16c8e6-4080-4f1f-8d1e-e70a79ffc07f","system_id":"levelo_inurba_marseille","lat":43.317557,"lon":5.390173,"is_reserved":false,"is_disabled":false,"rental_uris":{"android":"levelo://app?vid=ee16c8e6-4080-4f1f-8d1e-e70a79ffc07f","ios":"levelo://app?vid=ee16c8e6-4080-4f1f-8d1e-e70a79ffc07f"},"vehicle_type_id":"4","last_reported":1699772841,"current_range_meters":31600,"station_id":"ce4bhqp2rcd13ifvqhng","pricing_plan_id":"free"},{"bike_id":"b895c862-71d5-45b0-a93a-2984fba6e59b","system_id":"levelo_inurba_marseille","lat":43.317557,"lon":5.390173,"is_reserved":false,"is_disabled":false,"rental_uris":{"android":"levelo://app?vid=b895c862-71d5-45b0-a93a-2984fba6e59b","ios":"levelo://app?vid=b895c862-71d5-45b0-a93a-2984fba6e59b"},"vehicle_type_id":"4","last_reported":1699772841,"current_range_meters":31600,"station_id":"ce4bhqp2rcd13ifvqhng","pricing_plan_id":"free"},{"bike_id":"86b77831-73b2-483e-9b0e-cc137d4a3525","system_id":"levelo_inurba_marseille","lat":43.317557,"lon":5.390173,"is_reserved":false,"is_disabled":false,"rental_uris":{"android":"levelo://app?vid=86b77831-73b2-483e-9b0e-cc137d4a3525","ios":"levelo://app?vid=86b77831-73b2-483e-9b0e-cc137d4a3525"},"vehicle_type_id":"4","last_reported":1699772841,"current_range_meters":31200,"station_id":"ce4bhqp2rcd13ifvqhng","pricing_plan_id":"free"},{"bike_id":"feff7d8e-9456-4b4b-b917-4f91bb23e023","system_id":"levelo_inurba_marseille","lat":43.3175,"lon":5.39022,"is_reserved":false,"is_disabled":false,"rental_uris":{"android":"levelo://app?vid=feff7d8e-9456-4b4b-b917-4f91bb23e023","ios":"levelo://app?vid=feff7d8e-9456-4b4b-b917-4f91bb23e023"},"vehicle_type_id":"4","last_reported":1699772841,"current_range_meters":16000,"station_id":"","pricing_plan_id":"free"},{"bike_id":"6eb543ca-2cb1-49ae-a045-513302c5e6e5","system_id":"levelo_inurba_marseille","lat":43.317557,"lon":5.390173,"is_reserved":false,"is_disabled":false,"rental_uris":{"android":"levelo://app?vid=6eb543ca-2cb1-49ae-a045-513302c5e6e5","ios":"levelo://app?vid=6eb543ca-2cb1-49ae-a045-513302c5e6e5"},"vehicle_type_id":"4","last_reported":1699772841,"current_range_meters":31600,"station_id":"ce4bhqp2rcd13ifvqhng","pricing_plan_id":"free"},{"bike_id":"166ef7ba-4285-4098-bfd4-05bdadebbd76","system_id":"levelo_inurba_marseille","lat":43.295748,"lon":5.37522,"is_reserved":false,"is_disabled":false,"rental_uris":{"android":"levelo://app?vid=166ef7ba-4285-4098-bfd4-05bdadebbd76","ios":"levelo://app?vid=166ef7ba-4285-4098-bfd4-05bdadebbd76"},"vehicle_type_id":"4","last_reported":1699772841,"current_range_meters":27600,"station_id":"ce4bgh92rcd13ifvqb50","pricing_plan_id":"free"},{"bike_id":"69fb20b8-cbaa-4fab-a51c-f1e2a595a44d","system_id":"levelo_inurba_marseille","lat":43.298037,"lon":5.381066,"is_reserved":false,"is_disabled":false,"rental_uris":{"android":"levelo://app?vid=69fb20b8-cbaa-4fab-a51c-f1e2a595a44d","ios":"levelo://app?vid=69fb20b8-cbaa-4fab-a51c-f1e2a595a44d"},"vehicle_type_id":"4","last_reported":1699772841,"current_range_meters":30000,"station_id":"ce4bgip2rcd13ifvqbb0","pricing_plan_id":"free"},{"bike_id":"c78b0710-f41f-4b15-993f-3660ae388124","system_id":"levelo_inurba_marseille","lat":43.304274,"lon":5.388873,"is_reserved":false,"is_disabled":false,"rental_uris":{"android":"levelo://app?vid=c78b0710-f41f-4b15-993f-3660ae388124","ios":"levelo://app?vid=c78b0710-f41f-4b15-993f-3660ae388124"},"vehicle_type_id":"4","last_reported":1699772841,"current_range_meters":27600,"station_id":"ce4bgk12rcd13ifvqbi0","pricing_plan_id":"free"},{"bike_id":"c6098ff6-7247-4b4e-adb8-a5329818d5ab","system_id":"levelo_inurba_marseille","lat":43.296091,"lon":5.377151,"is_reserved":false,"is_disabled":false,"rental_uris":{"android":"levelo://app?vid=c6098ff6-7247-4b4e-adb8-a5329818d5ab","ios":"levelo://app?vid=c6098ff6-7247-4b4e-adb8-a5329818d5ab"},"vehicle_type_id":"4","last_reported":1699772841,"current_range_meters":29600,"station_id":"ce4bgi92rcd13ifvqb90","pricing_plan_id":"free"},{"bike_id":"fec79ae4-27a3-4592-9b41-60dacc8967b0","system_id":"levelo_inurba_marseille","lat":43.296263,"lon":5.377094,"is_reserved":false,"is_disabled":false,"rental_uris":{"android":"levelo://app?vid=fec79ae4-27a3-4592-9b41-60dacc8967b0","ios":"levelo://app?vid=fec79ae4-27a3-4592-9b41-60dacc8967b0"},"vehicle_type_id":"4","last_reported":1699772841,"current_range_meters":25600,"station_id":"ce4bgi92rcd13ifvqb90","pricing_plan_id":"free"},{"bike_id":"6e50e984-6ebf-49a4-a2ab-ad86c0282cb2","system_id":"levelo_inurba_marseille","lat":43.312794,"lon":5.393906,"is_reserved":false,"is_disabled":false,"rental_uris":{"android":"levelo://app?vid=6e50e984-6ebf-49a4-a2ab-ad86c0282cb2","ios":"levelo://app?vid=6e50e984-6ebf-49a4-a2ab-ad86c0282cb2"},"vehicle_type_id":"4","last_reported":1699772841,"current_range_meters":0,"station_id":"","pricing_plan_id":"free"},{"bike_id":"cac38876-f965-4609-8821-27555dd0a4df","system_id":"levelo_inurba_marseille","lat":43.29285,"lon":5.36855,"is_reserved":false,"is_disabled":false,"rental_uris":{"android":"levelo://app?vid=cac38876-f965-4609-8821-27555dd0a4df","ios":"levelo://app?vid=cac38876-f965-4609-8821-27555dd0a4df"},"vehicle_type_id":"4","last_reported":1699772841,"current_range_meters":28400,"station_id":"ce4bhbp2rcd13ifvqesg","pricing_plan_id":"free"},{"bike_id":"1f2edeec-835f-4188-b75a-b19c37bb1dac","system_id":"levelo_inurba_marseille","lat":43.30109,"lon":5.3894,"is_reserved":false,"is_disabled":false,"rental_uris":{"android":"levelo://app?vid=1f2edeec-835f-4188-b75a-b19c37bb1dac","ios":"levelo://app?vid=1f2edeec-835f-4188-b75a-b19c37bb1dac"},"vehicle_type_id":"4","last_reported":1699772841,"current_range_meters":2400,"station_id":"","pricing_plan_id":"free"},{"bike_id":"b7dca916-ef6c-457d-9e6e-299c541d3638","system_id":"levelo_inurba_marseille","lat":43.2936,"lon":5.37835,"is_reserved":false,"is_disabled":false,"rental_uris":{"android":"levelo://app?vid=b7dca916-ef6c-457d-9e6e-299c541d3638","ios":"levelo://app?vid=b7dca916-ef6c-457d-9e6e-299c541d3638"},"vehicle_type_id":"4","last_reported":1699772841,"current_range_meters":25200,"station_id":"ce4bgjh2rcd13ifvqbf0","pricing_plan_id":"free"},{"bike_id":"21a2e846-bcf4-45c6-9991-564616152f56","system_id":"levelo_inurba_marseille","lat":43.292311,"lon":5.360731,"is_reserved":false,"is_disabled":false,"rental_uris":{"android":"levelo://app?vid=21a2e846-bcf4-45c6-9991-564616152f56","ios":"levelo://app?vid=21a2e846-bcf4-45c6-9991-564616152f56"},"vehicle_type_id":"4","last_reported":1699772841,"current_range_meters":14800,"station_id":"ce4bhbh2rcd13ifvqeqg","pricing_plan_id":"free"},{"bike_id":"271eac3b-7212-4db6-880e-2b260a5522f1","system_id":"levelo_inurba_marseille","lat":43.292311,"lon":5.360731,"is_reserved":false,"is_disabled":false,"rental_uris":{"android":"levelo://app?vid=271eac3b-7212-4db6-880e-2b260a5522f1","ios":"levelo://app?vid=271eac3b-7212-4db6-880e-2b260a5522f1"},"vehicle_type_id":"4","last_reported":1699772841,"current_range_meters":31600,"station_id":"ce4bhbh2rcd13ifvqeqg","pricing_plan_id":"free"},{"bike_id":"721d2daf-e14c-4987-914c-99b76467732f","system_id":"levelo_inurba_marseille","lat":43.298694,"lon":5.389054,"is_reserved":false,"is_disabled":false,"rental_uris":{"android":"levelo://app?vid=721d2daf-e14c-4987-914c-99b76467732f","ios":"levelo://app?vid=721d2daf-e14c-4987-914c-99b76467732f"},"vehicle_type_id":"4","last_reported":1699772841,"current_range_meters":22400,"station_id":"ce4bh392rcd13ifvqdl0","pricing_plan_id":"free"},{"bike_id":"6554ea47-994b-414f-808c-a433e44531e7","system_id":"levelo_inurba_marseille","lat":43.298764,"lon":5.388973,"is_reserved":false,"is_disabled":false,"rental_uris":{"android":"levelo://app?vid=6554ea47-994b-414f-808c-a433e44531e7","ios":"levelo://app?vid=6554ea47-994b-414f-808c-a433e44531e7"},"vehicle_type_id":"4","last_reported":1699772841,"current_range_meters":28800,"station_id":"ce4bh392rcd13ifvqdl0","pricing_plan_id":"free"},{"bike_id":"409f3f39-d2bf-4f72-998c-1cf17d35dadd","system_id":"levelo_inurba_marseille","lat":43.309047,"lon":5.396551,"is_reserved":false,"is_disabled":false,"rental_uris":{"android":"levelo://app?vid=409f3f39-d2bf-4f72-998c-1cf17d35dadd","ios":"levelo://app?vid=409f3f39-d2bf-4f72-998c-1cf17d35dadd"},"vehicle_type_id":"4","last_reported":1699772841,"current_range_meters":25200,"station_id":"ce4bh012rcd13ifvqcv0","pricing_plan_id":"free"},{"bike_id":"1d179540-e428-453f-a33d-db013dd8a85b","system_id":"levelo_inurba_marseille","lat":43.309047,"lon":5.396551,"is_reserved":false,"is_disabled":false,"rental_uris":{"android":"levelo://app?vid=1d179540-e428-453f-a33d-db013dd8a85b","ios":"levelo://app?vid=1d179540-e428-453f-a33d-db013dd8a85b"},"vehicle_type_id":"4","last_reported":1699772841,"current_range_meters":25200,"station_id":"ce4bh012rcd13ifvqcv0","pricing_plan_id":"free"},{"bike_id":"9560c379-4853-40b6-aba6-3e6355194224","system_id":"levelo_inurba_marseille","lat":43.30881,"lon":5.396259,"is_reserved":false,"is_disabled":false,"rental_uris":{"android":"levelo://app?vid=9560c379-4853-40b6-aba6-3e6355194224","ios":"levelo://app?vid=9560c379-4853-40b6-aba6-3e6355194224"},"vehicle_type_id":"4","last_reported":1699772841,"current_range_meters":31200,"station_id":"ce4bh012rcd13ifvqcv0","pricing_plan_id":"free"},{"bike_id":"e0541e9c-ecaa-47c0-9225-d79308a2b8e5","system_id":"levelo_inurba_marseille","lat":43.309047,"lon":5.396551,"is_reserved":false,"is_disabled":false,"rental_uris":{"android":"levelo://app?vid=e0541e9c-ecaa-47c0-9225-d79308a2b8e5","ios":"levelo://app?vid=e0541e9c-ecaa-47c0-9225-d79308a2b8e5"},"vehicle_type_id":"4","last_reported":1699772841,"current_range_meters":20800,"station_id":"ce4bh012rcd13ifvqcv0","pricing_plan_id":"free"},{"bike_id":"d983fb1e-0c7e-43b5-b493-204eebf99e07","system_id":"levelo_inurba_marseille","lat":43.308795,"lon":5.39627,"is_reserved":false,"is_disabled":false,"rental_uris":{"android":"levelo://app?vid=d983fb1e-0c7e-43b5-b493-204eebf99e07","ios":"levelo://app?vid=d983fb1e-0c7e-43b5-b493-204eebf99e07"},"vehicle_type_id":"4","last_reported":1699772841,"current_range_meters":21600,"station_id":"","pricing_plan_id":"free"},{"bike_id":"599ed252-0c21-4737-af2d-9cc63897e29d","system_id":"levelo_inurba_marseille","lat":43.309038,"lon":5.396546,"is_reserved":false,"is_disabled":false,"rental_uris":{"android":"levelo://app?vid=599ed252-0c21-4737-af2d-9cc63897e29d","ios":"levelo://app?vid=599ed252-0c21-4737-af2d-9cc63897e29d"},"vehicle_type_id":"4","last_reported":1699772841,"current_range_meters":31200,"station_id":"ce4bh012rcd13ifvqcv0","pricing_plan_id":"free"},{"bike_id":"173fa19f-be95-4252-9c41-a51cd0cc5b5f","system_id":"levelo_inurba_marseille","lat":43.31329,"lon":5.3969,"is_reserved":false,"is_disabled":false,"rental_uris":{"android":"levelo://app?vid=173fa19f-be95-4252-9c41-a51cd0cc5b5f","ios":"levelo://app?vid=173fa19f-be95-4252-9c41-a51cd0cc5b5f"},"vehicle_type_id":"4","last_reported":1699772841,"current_range_meters":23600,"station_id":"ce4bgvp2rcd13ifvqcu0","pricing_plan_id":"free"},{"bike_id":"1f297e5d-0403-4c4d-94f3-7973f4f8d5b8","system_id":"levelo_inurba_marseille","lat":43.2919,"lon":5.35803,"is_reserved":false,"is_disabled":false,"rental_uris":{"android":"levelo://app?vid=1f297e5d-0403-4c4d-94f3-7973f4f8d5b8","ios":"levelo://app?vid=1f297e5d-0403-4c4d-94f3-7973f4f8d5b8"},"vehicle_type_id":"4","last_reported":1699772841,"current_range_meters":30000,"station_id":"ce4bhb12rcd13ifvqel0","pricing_plan_id":"free"},{"bike_id":"fc5e01a8-0846-4c8d-b6bc-eb17c75bfbcf","system_id":"levelo_inurba_marseille","lat":43.31328,"lon":5.39692,"is_reserved":false,"is_disabled":false,"rental_uris":{"android":"levelo://app?vid=fc5e01a8-0846-4c8d-b6bc-eb17c75bfbcf","ios":"levelo://app?vid=fc5e01a8-0846-4c8d-b6bc-eb17c75bfbcf"},"vehicle_type_id":"4","last_reported":1699772841,"current_range_meters":30400,"station_id":"ce4bgvp2rcd13ifvqcu0","pricing_plan_id":"free"},{"bike_id":"313dd4a7-00cd-4a51-97c2-2bc4a19f8416","system_id":"levelo_inurba_marseille","lat":43.31329,"lon":5.39692,"is_reserved":false,"is_disabled":false,"rental_uris":{"android":"levelo://app?vid=313dd4a7-00cd-4a51-97c2-2bc4a19f8416","ios":"levelo://app?vid=313dd4a7-00cd-4a51-97c2-2bc4a19f8416"},"vehicle_type_id":"4","last_reported":1699772841,"current_range_meters":30000,"station_id":"ce4bgvp2rcd13ifvqcu0","pricing_plan_id":"free"},{"bike_id":"013446d5-7c42-414a-a517-2f1ee1409282","system_id":"levelo_inurba_marseille","lat":43.31326,"lon":5.39695,"is_reserved":false,"is_disabled":false,"rental_uris":{"android":"levelo://app?vid=013446d5-7c42-414a-a517-2f1ee1409282","ios":"levelo://app?vid=013446d5-7c42-414a-a517-2f1ee1409282"},"vehicle_type_id":"4","last_reported":1699772841,"current_range_meters":23600,"station_id":"ce4bgvp2rcd13ifvqcu0","pricing_plan_id":"free"},{"bike_id":"7c0838e6-a4d4-46eb-bc44-9b58ec1e90ee","system_id":"levelo_inurba_marseille","lat":43.31324,"lon":5.39696,"is_reserved":false,"is_disabled":false,"rental_uris":{"android":"levelo://app?vid=7c0838e6-a4d4-46eb-bc44-9b58ec1e90ee","ios":"levelo://app?vid=7c0838e6-a4d4-46eb-bc44-9b58ec1e90ee"},"vehicle_type_id":"4","last_reported":1699772841,"current_range_meters":24800,"station_id":"ce4bgvp2rcd13ifvqcu0","pricing_plan_id":"free"},{"bike_id":"54c2015a-8c0c-4d00-9b37-c79646c26110","system_id":"levelo_inurba_marseille","lat":43.313307,"lon":5.397004,"is_reserved":false,"is_disabled":false,"rental_uris":{"android":"levelo://app?vid=54c2015a-8c0c-4d00-9b37-c79646c26110","ios":"levelo://app?vid=54c2015a-8c0c-4d00-9b37-c79646c26110"},"vehicle_type_id":"4","last_reported":1699772841,"current_range_meters":6400,"station_id":"","pricing_plan_id":"free"},{"bike_id":"ab189b97-195f-4baf-a3be-9fc0b51ac8a9","system_id":"levelo_inurba_marseille","lat":43.3132,"lon":5.39702,"is_reserved":false,"is_disabled":false,"rental_uris":{"android":"levelo://app?vid=ab189b97-195f-4baf-a3be-9fc0b51ac8a9","ios":"levelo://app?vid=ab189b97-195f-4baf-a3be-9fc0b51ac8a9"},"vehicle_type_id":"4","last_reported":1699772841,"current_range_meters":24000,"station_id":"ce4bgvp2rcd13ifvqcu0","pricing_plan_id":"free"},{"bike_id":"7720e762-6d0e-41e2-b93e-80a3d0582715","system_id":"levelo_inurba_marseille","lat":43.294162,"lon":5.386292,"is_reserved":false,"is_disabled":false,"rental_uris":{"android":"levelo://app?vid=7720e762-6d0e-41e2-b93e-80a3d0582715","ios":"levelo://app?vid=7720e762-6d0e-41e2-b93e-80a3d0582715"},"vehicle_type_id":"4","last_reported":1699772841,"current_range_meters":28000,"station_id":"ce4bh2h2rcd13ifvqdh0","pricing_plan_id":"free"},{"bike_id":"a0540e5c-bb0e-4720-b321-648d0b0822d9","system_id":"levelo_inurba_marseille","lat":43.304274,"lon":5.397513,"is_reserved":false,"is_disabled":false,"rental_uris":{"android":"levelo://app?vid=a0540e5c-bb0e-4720-b321-648d0b0822d9","ios":"levelo://app?vid=a0540e5c-bb0e-4720-b321-648d0b0822d9"},"vehicle_type_id":"4","last_reported":1699772841,"current_range_meters":28800,"station_id":"ce4bh092rcd13ifvqd20","pricing_plan_id":"free"},{"bike_id":"c4b94cf7-4c8c-4e3b-bf23-3033ed569b39","system_id":"levelo_inurba_marseille","lat":43.290104,"lon":5.356111,"is_reserved":false,"is_disabled":false,"rental_uris":{"android":"levelo://app?vid=c4b94cf7-4c8c-4e3b-bf23-3033ed569b39","ios":"levelo://app?vid=c4b94cf7-4c8c-4e3b-bf23-3033ed569b39"},"vehicle_type_id":"4","last_reported":1699772841,"current_range_meters":31600,"station_id":"ce4bhb92rcd13ifvqen0","pricing_plan_id":"free"},{"bike_id":"e41fc5d7-fce3-415e-a9f2-33fb0064c99a","system_id":"levelo_inurba_marseille","lat":43.295305,"lon":5.390356,"is_reserved":false,"is_disabled":false,"rental_uris":{"android":"levelo://app?vid=e41fc5d7-fce3-415e-a9f2-33fb0064c99a","ios":"levelo://app?vid=e41fc5d7-fce3-415e-a9f2-33fb0064c99a"},"vehicle_type_id":"4","last_reported":1699772841,"current_range_meters":27600,"station_id":"ce4bh3p2rcd13ifvqdp0","pricing_plan_id":"free"},{"bike_id":"3ce855c2-5ea4-4f15-a71c-9659a00c30d1","system_id":"levelo_inurba_marseille","lat":43.29782,"lon":5.39351,"is_reserved":false,"is_disabled":false,"rental_uris":{"android":"levelo://app?vid=3ce855c2-5ea4-4f15-a71c-9659a00c30d1","ios":"levelo://app?vid=3ce855c2-5ea4-4f15-a71c-9659a00c30d1"},"vehicle_type_id":"4","last_reported":1699772841,"current_range_meters":25600,"station_id":"chh1huq6cuj3fo74tm60","pricing_plan_id":"free"},{"bike_id":"eaea4368-c42e-4d29-bdcf-f6b7a85a1021","system_id":"levelo_inurba_marseille","lat":43.31251,"lon":5.40147,"is_reserved":false,"is_disabled":false,"rental_uris":{"android":"levelo://app?vid=eaea4368-c42e-4d29-bdcf-f6b7a85a1021","ios":"levelo://app?vid=eaea4368-c42e-4d29-bdcf-f6b7a85a1021"},"vehicle_type_id":"4","last_reported":1699772841,"current_range_meters":15600,"station_id":"ce4bh092rcd13ifvqd30","pricing_plan_id":"free"},{"bike_id":"7069865c-8ec8-421f-9325-ef00e54b0fd0","system_id":"levelo_inurba_marseille","lat":43.312609,"lon":5.401662,"is_reserved":false,"is_disabled":false,"rental_uris":{"android":"levelo://app?vid=7069865c-8ec8-421f-9325-ef00e54b0fd0","ios":"levelo://app?vid=7069865c-8ec8-421f-9325-ef00e54b0fd0"},"vehicle_type_id":"4","last_reported":1699772841,"current_range_meters":30800,"station_id":"ce4bh092rcd13ifvqd30","pricing_plan_id":"free"},{"bike_id":"8d0e7d5a-a5e3-4a7e-b28e-96d761caf723","system_id":"levelo_inurba_marseille","lat":43.31282,"lon":5.401668,"is_reserved":false,"is_disabled":false,"rental_uris":{"android":"levelo://app?vid=8d0e7d5a-a5e3-4a7e-b28e-96d761caf723","ios":"levelo://app?vid=8d0e7d5a-a5e3-4a7e-b28e-96d761caf723"},"vehicle_type_id":"4","last_reported":1699772841,"current_range_meters":30000,"station_id":"ce4bh092rcd13ifvqd30","pricing_plan_id":"free"},{"bike_id":"0f4f5a74-c459-47a6-9034-b0e42af42ed6","system_id":"levelo_inurba_marseille","lat":43.312609,"lon":5.401662,"is_reserved":false,"is_disabled":false,"rental_uris":{"android":"levelo://app?vid=0f4f5a74-c459-47a6-9034-b0e42af42ed6","ios":"levelo://app?vid=0f4f5a74-c459-47a6-9034-b0e42af42ed6"},"vehicle_type_id":"4","last_reported":1699772841,"current_range_meters":31200,"station_id":"ce4bh092rcd13ifvqd30","pricing_plan_id":"free"},{"bike_id":"8e8be408-3a3b-4ecf-ab7d-db5a7ae7b3f4","system_id":"levelo_inurba_marseille","lat":43.312785,"lon":5.401685,"is_reserved":false,"is_disabled":false,"rental_uris":{"android":"levelo://app?vid=8e8be408-3a3b-4ecf-ab7d-db5a7ae7b3f4","ios":"levelo://app?vid=8e8be408-3a3b-4ecf-ab7d-db5a7ae7b3f4"},"vehicle_type_id":"4","last_reported":1699772841,"current_range_meters":27600,"station_id":"ce4bh092rcd13ifvqd30","pricing_plan_id":"free"},{"bike_id":"601bb4d0-a048-4dff-940d-587323168e63","system_id":"levelo_inurba_marseille","lat":43.30927,"lon":5.40138,"is_reserved":false,"is_disabled":false,"rental_uris":{"android":"levelo://app?vid=601bb4d0-a048-4dff-940d-587323168e63","ios":"levelo://app?vid=601bb4d0-a048-4dff-940d-587323168e63"},"vehicle_type_id":"4","last_reported":1699772841,"current_range_meters":14000,"station_id":"ce4bgvp2rcd13ifvqct0","pricing_plan_id":"free"},{"bike_id":"f691344a-50b1-4798-bf1d-7392f5e2759c","system_id":"levelo_inurba_marseille","lat":43.309371,"lon":5.401449,"is_reserved":false,"is_disabled":false,"rental_uris":{"android":"levelo://app?vid=f691344a-50b1-4798-bf1d-7392f5e2759c","ios":"levelo://app?vid=f691344a-50b1-4798-bf1d-7392f5e2759c"},"vehicle_type_id":"4","last_reported":1699772841,"current_range_meters":28400,"station_id":"ce4bgvp2rcd13ifvqct0","pricing_plan_id":"free"},{"bike_id":"c0f81438-5037-4c1a-8b76-ce72bc1f5c4a","system_id":"levelo_inurba_marseille","lat":43.309325,"lon":5.40141,"is_reserved":false,"is_disabled":false,"rental_uris":{"android":"levelo://app?vid=c0f81438-5037-4c1a-8b76-ce72bc1f5c4a","ios":"levelo://app?vid=c0f81438-5037-4c1a-8b76-ce72bc1f5c4a"},"vehicle_type_id":"4","last_reported":1699772841,"current_range_meters":28400,"station_id":"ce4bgvp2rcd13ifvqct0","pricing_plan_id":"free"},{"bike_id":"1539ee41-2957-465a-92a3-e6dbd951ebc1","system_id":"levelo_inurba_marseille","lat":43.30928,"lon":5.40141,"is_reserved":false,"is_disabled":false,"rental_uris":{"android":"levelo://app?vid=1539ee41-2957-465a-92a3-e6dbd951ebc1","ios":"levelo://app?vid=1539ee41-2957-465a-92a3-e6dbd951ebc1"},"vehicle_type_id":"4","last_reported":1699772841,"current_range_meters":31200,"station_id":"ce4bgvp2rcd13ifvqct0","pricing_plan_id":"free"},{"bike_id":"47e37ac2-294e-40c4-844d-4cc07b31771b","system_id":"levelo_inurba_marseille","lat":43.30931,"lon":5.401429,"is_reserved":false,"is_disabled":false,"rental_uris":{"android":"levelo://app?vid=47e37ac2-294e-40c4-844d-4cc07b31771b","ios":"levelo://app?vid=47e37ac2-294e-40c4-844d-4cc07b31771b"},"vehicle_type_id":"4","last_reported":1699772841,"current_range_meters":19200,"station_id":"ce4bgvp2rcd13ifvqct0","pricing_plan_id":"free"},{"bike_id":"462b297a-7583-44cf-b96e-46379e7cf040","system_id":"levelo_inurba_marseille","lat":43.309293,"lon":5.401429,"is_reserved":false,"is_disabled":false,"rental_uris":{"android":"levelo://app?vid=462b297a-7583-44cf-b96e-46379e7cf040","ios":"levelo://app?vid=462b297a-7583-44cf-b96e-46379e7cf040"},"vehicle_type_id":"4","last_reported":1699772841,"current_range_meters":31200,"station_id":"ce4bgvp2rcd13ifvqct0","pricing_plan_id":"free"},{"bike_id":"5ea13516-e705-4375-b063-528a8d99d9f2","system_id":"levelo_inurba_marseille","lat":43.309371,"lon":5.401449,"is_reserved":false,"is_disabled":false,"rental_uris":{"android":"levelo://app?vid=5ea13516-e705-4375-b063-528a8d99d9f2","ios":"levelo://app?vid=5ea13516-e705-4375-b063-528a8d99d9f2"},"vehicle_type_id":"4","last_reported":1699772841,"current_range_meters":25600,"station_id":"ce4bgvp2rcd13ifvqct0","pricing_plan_id":"free"},{"bike_id":"04f823b7-d956-486e-ab4f-95d83a608ce7","system_id":"levelo_inurba_marseille","lat":43.309371,"lon":5.401449,"is_reserved":false,"is_disabled":false,"rental_uris":{"android":"levelo://app?vid=04f823b7-d956-486e-ab4f-95d83a608ce7","ios":"levelo://app?vid=04f823b7-d956-486e-ab4f-95d83a608ce7"},"vehicle_type_id":"4","last_reported":1699772841,"current_range_meters":29600,"station_id":"ce4bgvp2rcd13ifvqct0","pricing_plan_id":"free"},{"bike_id":"1797437f-dd8b-49e7-906f-c4d182889cfc","system_id":"levelo_inurba_marseille","lat":43.309371,"lon":5.401449,"is_reserved":false,"is_disabled":false,"rental_uris":{"android":"levelo://app?vid=1797437f-dd8b-49e7-906f-c4d182889cfc","ios":"levelo://app?vid=1797437f-dd8b-49e7-906f-c4d182889cfc"},"vehicle_type_id":"4","last_reported":1699772841,"current_range_meters":25600,"station_id":"ce4bgvp2rcd13ifvqct0","pricing_plan_id":"free"},{"bike_id":"aba5de7d-3918-464c-b43e-d3777013d99d","system_id":"levelo_inurba_marseille","lat":43.309371,"lon":5.401449,"is_reserved":false,"is_disabled":false,"rental_uris":{"android":"levelo://app?vid=aba5de7d-3918-464c-b43e-d3777013d99d","ios":"levelo://app?vid=aba5de7d-3918-464c-b43e-d3777013d99d"},"vehicle_type_id":"4","last_reported":1699772841,"current_range_meters":29600,"station_id":"ce4bgvp2rcd13ifvqct0","pricing_plan_id":"free"},{"bike_id":"9516bea0-980f-4069-940a-6400bc4cad62","system_id":"levelo_inurba_marseille","lat":43.309371,"lon":5.401449,"is_reserved":false,"is_disabled":false,"rental_uris":{"android":"levelo://app?vid=9516bea0-980f-4069-940a-6400bc4cad62","ios":"levelo://app?vid=9516bea0-980f-4069-940a-6400bc4cad62"},"vehicle_type_id":"4","last_reported":1699772841,"current_range_meters":30000,"station_id":"ce4bgvp2rcd13ifvqct0","pricing_plan_id":"free"},{"bike_id":"1fe4eea9-e9b1-4eec-a425-6616c56c856f","system_id":"levelo_inurba_marseille","lat":43.306412,"lon":5.401035,"is_reserved":false,"is_disabled":false,"rental_uris":{"android":"levelo://app?vid=1fe4eea9-e9b1-4eec-a425-6616c56c856f","ios":"levelo://app?vid=1fe4eea9-e9b1-4eec-a425-6616c56c856f"},"vehicle_type_id":"4","last_reported":1699772841,"current_range_meters":31600,"station_id":"ce4bh112rcd13ifvqda0","pricing_plan_id":"free"},{"bike_id":"fda95fd6-7932-445d-b394-81373726a0f4","system_id":"levelo_inurba_marseille","lat":43.30642,"lon":5.401031,"is_reserved":false,"is_disabled":false,"rental_uris":{"android":"levelo://app?vid=fda95fd6-7932-445d-b394-81373726a0f4","ios":"levelo://app?vid=fda95fd6-7932-445d-b394-81373726a0f4"},"vehicle_type_id":"4","last_reported":1699772841,"current_range_meters":31200,"station_id":"ce4bh112rcd13ifvqda0","pricing_plan_id":"free"},{"bike_id":"bc2caf35-cb38-4a33-8d66-05bfb18b5657","system_id":"levelo_inurba_marseille","lat":43.309295,"lon":5.40146,"is_reserved":false,"is_disabled":false,"rental_uris":{"android":"levelo://app?vid=bc2caf35-cb38-4a33-8d66-05bfb18b5657","ios":"levelo://app?vid=bc2caf35-cb38-4a33-8d66-05bfb18b5657"},"vehicle_type_id":"4","last_reported":1699772841,"current_range_meters":16800,"station_id":"ce4bgvp2rcd13ifvqct0","pricing_plan_id":"free"},{"bike_id":"aaa7d48e-0fa8-46bd-8c22-21a4e5928530","system_id":"levelo_inurba_marseille","lat":43.306412,"lon":5.401035,"is_reserved":false,"is_disabled":false,"rental_uris":{"android":"levelo://app?vid=aaa7d48e-0fa8-46bd-8c22-21a4e5928530","ios":"levelo://app?vid=aaa7d48e-0fa8-46bd-8c22-21a4e5928530"},"vehicle_type_id":"4","last_reported":1699772841,"current_range_meters":31600,"station_id":"ce4bh112rcd13ifvqda0","pricing_plan_id":"free"},{"bike_id":"881ac259-fdd4-4544-989d-5537ec504001","system_id":"levelo_inurba_marseille","lat":43.30642,"lon":5.401031,"is_reserved":false,"is_disabled":false,"rental_uris":{"android":"levelo://app?vid=881ac259-fdd4-4544-989d-5537ec504001","ios":"levelo://app?vid=881ac259-fdd4-4544-989d-5537ec504001"},"vehicle_type_id":"4","last_reported":1699772841,"current_range_meters":28400,"station_id":"ce4bh112rcd13ifvqda0","pricing_plan_id":"free"},{"bike_id":"ca294246-a90c-4591-897b-48ebb9c78199","system_id":"levelo_inurba_marseille","lat":43.301117,"lon":5.398795,"is_reserved":false,"is_disabled":false,"rental_uris":{"android":"levelo://app?vid=ca294246-a90c-4591-897b-48ebb9c78199","ios":"levelo://app?vid=ca294246-a90c-4591-897b-48ebb9c78199"},"vehicle_type_id":"4","last_reported":1699772841,"current_range_meters":8000,"station_id":"ce4bh0h2rcd13ifvqd40","pricing_plan_id":"free"},{"bike_id":"4fcd6969-d073-4555-b031-34f4c4fec1dd","system_id":"levelo_inurba_marseille","lat":43.306412,"lon":5.401035,"is_reserved":false,"is_disabled":false,"rental_uris":{"android":"levelo://app?vid=4fcd6969-d073-4555-b031-34f4c4fec1dd","ios":"levelo://app?vid=4fcd6969-d073-4555-b031-34f4c4fec1dd"},"vehicle_type_id":"4","last_reported":1699772841,"current_range_meters":11600,"station_id":"ce4bh112rcd13ifvqda0","pricing_plan_id":"free"},{"bike_id":"743f3bc5-43c9-45a3-8965-b67b169c6c30","system_id":"levelo_inurba_marseille","lat":43.30513,"lon":5.40077,"is_reserved":false,"is_disabled":false,"rental_uris":{"android":"levelo://app?vid=743f3bc5-43c9-45a3-8965-b67b169c6c30","ios":"levelo://app?vid=743f3bc5-43c9-45a3-8965-b67b169c6c30"},"vehicle_type_id":"4","last_reported":1699772841,"current_range_meters":8400,"station_id":"","pricing_plan_id":"free"},{"bike_id":"0ba76634-83ab-4ae2-956c-75edd8dd6ad8","system_id":"levelo_inurba_marseille","lat":43.28727,"lon":5.36078,"is_reserved":false,"is_disabled":false,"rental_uris":{"android":"levelo://app?vid=0ba76634-83ab-4ae2-956c-75edd8dd6ad8","ios":"levelo://app?vid=0ba76634-83ab-4ae2-956c-75edd8dd6ad8"},"vehicle_type_id":"4","last_reported":1699772841,"current_range_meters":5200,"station_id":"cki0cbj6b192h4jlfktg","pricing_plan_id":"free"},{"bike_id":"71f88df4-e774-4d97-b967-d5394a875906","system_id":"levelo_inurba_marseille","lat":43.28727,"lon":5.36078,"is_reserved":false,"is_disabled":false,"rental_uris":{"android":"levelo://app?vid=71f88df4-e774-4d97-b967-d5394a875906","ios":"levelo://app?vid=71f88df4-e774-4d97-b967-d5394a875906"},"vehicle_type_id":"4","last_reported":1699772841,"current_range_meters":32000,"station_id":"cki0cbj6b192h4jlfktg","pricing_plan_id":"free"},{"bike_id":"c42f3e40-127f-4887-bc42-f14618d548f0","system_id":"levelo_inurba_marseille","lat":43.295194,"lon":5.39397,"is_reserved":false,"is_disabled":false,"rental_uris":{"android":"levelo://app?vid=c42f3e40-127f-4887-bc42-f14618d548f0","ios":"levelo://app?vid=c42f3e40-127f-4887-bc42-f14618d548f0"},"vehicle_type_id":"4","last_reported":1699772841,"current_range_meters":29600,"station_id":"ce4bh292rcd13ifvqdf0","pricing_plan_id":"free"},{"bike_id":"50f8b893-0d71-4930-9e16-901f5d0d766c","system_id":"levelo_inurba_marseille","lat":43.29038,"lon":5.386388,"is_reserved":false,"is_disabled":false,"rental_uris":{"android":"levelo://app?vid=50f8b893-0d71-4930-9e16-901f5d0d766c","ios":"levelo://app?vid=50f8b893-0d71-4930-9e16-901f5d0d766c"},"vehicle_type_id":"4","last_reported":1699772841,"current_range_meters":17200,"station_id":"ce4bh4p2rcd13ifvqe0g","pricing_plan_id":"free"},{"bike_id":"9d2f2e49-7e59-4690-b496-1cbf9ca11688","system_id":"levelo_inurba_marseille","lat":43.30251,"lon":5.40055,"is_reserved":false,"is_disabled":false,"rental_uris":{"android":"levelo://app?vid=9d2f2e49-7e59-4690-b496-1cbf9ca11688","ios":"levelo://app?vid=9d2f2e49-7e59-4690-b496-1cbf9ca11688"},"vehicle_type_id":"4","last_reported":1699772841,"current_range_meters":31200,"station_id":"ce4bgvh2rcd13ifvqcs0","pricing_plan_id":"free"},{"bike_id":"46e5b569-0aea-4769-beee-1be1ded4f2a8","system_id":"levelo_inurba_marseille","lat":43.30257,"lon":5.4006,"is_reserved":false,"is_disabled":false,"rental_uris":{"android":"levelo://app?vid=46e5b569-0aea-4769-beee-1be1ded4f2a8","ios":"levelo://app?vid=46e5b569-0aea-4769-beee-1be1ded4f2a8"},"vehicle_type_id":"4","last_reported":1699772841,"current_range_meters":21600,"station_id":"ce4bgvh2rcd13ifvqcs0","pricing_plan_id":"free"},{"bike_id":"731033a2-6d55-4472-a2af-6fe71d0a2e50","system_id":"levelo_inurba_marseille","lat":43.30253,"lon":5.40058,"is_reserved":false,"is_disabled":false,"rental_uris":{"android":"levelo://app?vid=731033a2-6d55-4472-a2af-6fe71d0a2e50","ios":"levelo://app?vid=731033a2-6d55-4472-a2af-6fe71d0a2e50"},"vehicle_type_id":"4","last_reported":1699772841,"current_range_meters":27200,"station_id":"ce4bgvh2rcd13ifvqcs0","pricing_plan_id":"free"},{"bike_id":"4dc854e2-11c2-4cb4-9dfa-d322c0402e88","system_id":"levelo_inurba_marseille","lat":43.29034,"lon":5.3865,"is_reserved":false,"is_disabled":false,"rental_uris":{"android":"levelo://app?vid=4dc854e2-11c2-4cb4-9dfa-d322c0402e88","ios":"levelo://app?vid=4dc854e2-11c2-4cb4-9dfa-d322c0402e88"},"vehicle_type_id":"4","last_reported":1699772841,"current_range_meters":26800,"station_id":"ce4bh4p2rcd13ifvqe0g","pricing_plan_id":"free"},{"bike_id":"3b5891b6-4d0a-4afd-9e83-d03474ceb728","system_id":"levelo_inurba_marseille","lat":43.302759,"lon":5.400793,"is_reserved":false,"is_disabled":false,"rental_uris":{"android":"levelo://app?vid=3b5891b6-4d0a-4afd-9e83-d03474ceb728","ios":"levelo://app?vid=3b5891b6-4d0a-4afd-9e83-d03474ceb728"},"vehicle_type_id":"4","last_reported":1699772841,"current_range_meters":29200,"station_id":"ce4bgvh2rcd13ifvqcs0","pricing_plan_id":"free"},{"bike_id":"61082ff5-d83c-4d03-99b5-d9283f379a99","system_id":"levelo_inurba_marseille","lat":43.302759,"lon":5.400793,"is_reserved":false,"is_disabled":false,"rental_uris":{"android":"levelo://app?vid=61082ff5-d83c-4d03-99b5-d9283f379a99","ios":"levelo://app?vid=61082ff5-d83c-4d03-99b5-d9283f379a99"},"vehicle_type_id":"4","last_reported":1699772841,"current_range_meters":31200,"station_id":"ce4bgvh2rcd13ifvqcs0","pricing_plan_id":"free"},{"bike_id":"20065e28-63b5-49fd-8bda-4f488a826029","system_id":"levelo_inurba_marseille","lat":43.30257,"lon":5.4007,"is_reserved":false,"is_disabled":false,"rental_uris":{"android":"levelo://app?vid=20065e28-63b5-49fd-8bda-4f488a826029","ios":"levelo://app?vid=20065e28-63b5-49fd-8bda-4f488a826029"},"vehicle_type_id":"4","last_reported":1699772841,"current_range_meters":26800,"station_id":"ce4bgvh2rcd13ifvqcs0","pricing_plan_id":"free"},{"bike_id":"a36c42f0-31f6-4776-919a-6e5f675caef7","system_id":"levelo_inurba_marseille","lat":43.302759,"lon":5.400793,"is_reserved":false,"is_disabled":false,"rental_uris":{"android":"levelo://app?vid=a36c42f0-31f6-4776-919a-6e5f675caef7","ios":"levelo://app?vid=a36c42f0-31f6-4776-919a-6e5f675caef7"},"vehicle_type_id":"4","last_reported":1699772841,"current_range_meters":24800,"station_id":"ce4bgvh2rcd13ifvqcs0","pricing_plan_id":"free"},{"bike_id":"42d5e417-09c2-4405-add5-d6e0158c88dc","system_id":"levelo_inurba_marseille","lat":43.30255,"lon":5.400708,"is_reserved":false,"is_disabled":false,"rental_uris":{"android":"levelo://app?vid=42d5e417-09c2-4405-add5-d6e0158c88dc","ios":"levelo://app?vid=42d5e417-09c2-4405-add5-d6e0158c88dc"},"vehicle_type_id":"4","last_reported":1699772841,"current_range_meters":26800,"station_id":"ce4bgvh2rcd13ifvqcs0","pricing_plan_id":"free"},{"bike_id":"755c1b59-f233-40c3-b2ae-92e5e74d8a11","system_id":"levelo_inurba_marseille","lat":43.302759,"lon":5.400793,"is_reserved":false,"is_disabled":false,"rental_uris":{"android":"levelo://app?vid=755c1b59-f233-40c3-b2ae-92e5e74d8a11","ios":"levelo://app?vid=755c1b59-f233-40c3-b2ae-92e5e74d8a11"},"vehicle_type_id":"4","last_reported":1699772841,"current_range_meters":31600,"station_id":"ce4bgvh2rcd13ifvqcs0","pricing_plan_id":"free"},{"bike_id":"45675d66-35cb-4665-8cf1-2b2eff2590e1","system_id":"levelo_inurba_marseille","lat":43.302581,"lon":5.400811,"is_reserved":false,"is_disabled":false,"rental_uris":{"android":"levelo://app?vid=45675d66-35cb-4665-8cf1-2b2eff2590e1","ios":"levelo://app?vid=45675d66-35cb-4665-8cf1-2b2eff2590e1"},"vehicle_type_id":"4","last_reported":1699772841,"current_range_meters":30000,"station_id":"ce4bgvh2rcd13ifvqcs0","pricing_plan_id":"free"},{"bike_id":"6e4aadc6-e2a9-40fa-9733-a3faf048184b","system_id":"levelo_inurba_marseille","lat":43.302759,"lon":5.400793,"is_reserved":false,"is_disabled":false,"rental_uris":{"android":"levelo://app?vid=6e4aadc6-e2a9-40fa-9733-a3faf048184b","ios":"levelo://app?vid=6e4aadc6-e2a9-40fa-9733-a3faf048184b"},"vehicle_type_id":"4","last_reported":1699772841,"current_range_meters":20400,"station_id":"ce4bgvh2rcd13ifvqcs0","pricing_plan_id":"free"},{"bike_id":"10c3658b-4879-46c4-9c64-c9f6b65a4980","system_id":"levelo_inurba_marseille","lat":43.316484,"lon":5.404262,"is_reserved":false,"is_disabled":false,"rental_uris":{"android":"levelo://app?vid=10c3658b-4879-46c4-9c64-c9f6b65a4980","ios":"levelo://app?vid=10c3658b-4879-46c4-9c64-c9f6b65a4980"},"vehicle_type_id":"4","last_reported":1699772841,"current_range_meters":30000,"station_id":"ce4bh012rcd13ifvqd00","pricing_plan_id":"free"},{"bike_id":"e1f2aa7e-c7dc-446f-b510-3a3a0c205417","system_id":"levelo_inurba_marseille","lat":43.31644,"lon":5.4043,"is_reserved":false,"is_disabled":false,"rental_uris":{"android":"levelo://app?vid=e1f2aa7e-c7dc-446f-b510-3a3a0c205417","ios":"levelo://app?vid=e1f2aa7e-c7dc-446f-b510-3a3a0c205417"},"vehicle_type_id":"4","last_reported":1699772841,"current_range_meters":26800,"station_id":"ce4bh012rcd13ifvqd00","pricing_plan_id":"free"},{"bike_id":"a1b39922-14c9-4573-8801-fb57b34fa119","system_id":"levelo_inurba_marseille","lat":43.316517,"lon":5.404375,"is_reserved":false,"is_disabled":false,"rental_uris":{"android":"levelo://app?vid=a1b39922-14c9-4573-8801-fb57b34fa119","ios":"levelo://app?vid=a1b39922-14c9-4573-8801-fb57b34fa119"},"vehicle_type_id":"4","last_reported":1699772841,"current_range_meters":30400,"station_id":"ce4bh012rcd13ifvqd00","pricing_plan_id":"free"},{"bike_id":"2de87aec-a4e7-42f2-a2a7-b182a0652196","system_id":"levelo_inurba_marseille","lat":43.31646,"lon":5.40434,"is_reserved":false,"is_disabled":false,"rental_uris":{"android":"levelo://app?vid=2de87aec-a4e7-42f2-a2a7-b182a0652196","ios":"levelo://app?vid=2de87aec-a4e7-42f2-a2a7-b182a0652196"},"vehicle_type_id":"4","last_reported":1699772841,"current_range_meters":29200,"station_id":"ce4bh012rcd13ifvqd00","pricing_plan_id":"free"},{"bike_id":"7b515ad7-8382-468f-8226-53251379577f","system_id":"levelo_inurba_marseille","lat":43.31647,"lon":5.404373,"is_reserved":false,"is_disabled":false,"rental_uris":{"android":"levelo://app?vid=7b515ad7-8382-468f-8226-53251379577f","ios":"levelo://app?vid=7b515ad7-8382-468f-8226-53251379577f"},"vehicle_type_id":"4","last_reported":1699772841,"current_range_meters":10800,"station_id":"ce4bh012rcd13ifvqd00","pricing_plan_id":"free"},{"bike_id":"e57449c2-d088-47cf-8bf2-271593713c89","system_id":"levelo_inurba_marseille","lat":43.328576,"lon":5.398841,"is_reserved":false,"is_disabled":false,"rental_uris":{"android":"levelo://app?vid=e57449c2-d088-47cf-8bf2-271593713c89","ios":"levelo://app?vid=e57449c2-d088-47cf-8bf2-271593713c89"},"vehicle_type_id":"4","last_reported":1699772841,"current_range_meters":5200,"station_id":"","pricing_plan_id":"free"},{"bike_id":"e247165b-34f2-4b94-bf65-9db047e64375","system_id":"levelo_inurba_marseille","lat":43.292082,"lon":5.393227,"is_reserved":false,"is_disabled":false,"rental_uris":{"android":"levelo://app?vid=e247165b-34f2-4b94-bf65-9db047e64375","ios":"levelo://app?vid=e247165b-34f2-4b94-bf65-9db047e64375"},"vehicle_type_id":"4","last_reported":1699772841,"current_range_meters":30800,"station_id":"ce4bh192rcd13ifvqdd0","pricing_plan_id":"free"},{"bike_id":"73cee2a9-1dd0-4049-a19a-7b8b9d690143","system_id":"levelo_inurba_marseille","lat":43.291994,"lon":5.392907,"is_reserved":false,"is_disabled":false,"rental_uris":{"android":"levelo://app?vid=73cee2a9-1dd0-4049-a19a-7b8b9d690143","ios":"levelo://app?vid=73cee2a9-1dd0-4049-a19a-7b8b9d690143"},"vehicle_type_id":"4","last_reported":1699772841,"current_range_meters":30000,"station_id":"ce4bh192rcd13ifvqdd0","pricing_plan_id":"free"},{"bike_id":"fcbc09d0-a56e-44b1-8f38-8e6d5183a315","system_id":"levelo_inurba_marseille","lat":43.294314,"lon":5.397498,"is_reserved":false,"is_disabled":false,"rental_uris":{"android":"levelo://app?vid=fcbc09d0-a56e-44b1-8f38-8e6d5183a315","ios":"levelo://app?vid=fcbc09d0-a56e-44b1-8f38-8e6d5183a315"},"vehicle_type_id":"4","last_reported":1699772841,"current_range_meters":27200,"station_id":"ce4bh3h2rcd13ifvqdo0","pricing_plan_id":"free"},{"bike_id":"da2a4076-eb32-4a7c-974a-b1513619f5bb","system_id":"levelo_inurba_marseille","lat":43.294314,"lon":5.397498,"is_reserved":false,"is_disabled":false,"rental_uris":{"android":"levelo://app?vid=da2a4076-eb32-4a7c-974a-b1513619f5bb","ios":"levelo://app?vid=da2a4076-eb32-4a7c-974a-b1513619f5bb"},"vehicle_type_id":"4","last_reported":1699772841,"current_range_meters":28800,"station_id":"ce4bh3h2rcd13ifvqdo0","pricing_plan_id":"free"},{"bike_id":"668f3b8b-5568-40c9-bdba-842f1492b355","system_id":"levelo_inurba_marseille","lat":43.295713,"lon":5.399639,"is_reserved":false,"is_disabled":false,"rental_uris":{"android":"levelo://app?vid=668f3b8b-5568-40c9-bdba-842f1492b355","ios":"levelo://app?vid=668f3b8b-5568-40c9-bdba-842f1492b355"},"vehicle_type_id":"4","last_reported":1699772841,"current_range_meters":28000,"station_id":"ce4bh312rcd13ifvqdj0","pricing_plan_id":"free"},{"bike_id":"dbf9ae63-dcdb-40b8-8e30-e8cd72f23f04","system_id":"levelo_inurba_marseille","lat":43.29573,"lon":5.3998,"is_reserved":false,"is_disabled":false,"rental_uris":{"android":"levelo://app?vid=dbf9ae63-dcdb-40b8-8e30-e8cd72f23f04","ios":"levelo://app?vid=dbf9ae63-dcdb-40b8-8e30-e8cd72f23f04"},"vehicle_type_id":"4","last_reported":1699772841,"current_range_meters":15200,"station_id":"ce4bh312rcd13ifvqdj0","pricing_plan_id":"free"},{"bike_id":"af8958e4-6d20-4165-af2e-1de4e3cc023e","system_id":"levelo_inurba_marseille","lat":43.295713,"lon":5.399639,"is_reserved":false,"is_disabled":false,"rental_uris":{"android":"levelo://app?vid=af8958e4-6d20-4165-af2e-1de4e3cc023e","ios":"levelo://app?vid=af8958e4-6d20-4165-af2e-1de4e3cc023e"},"vehicle_type_id":"4","last_reported":1699772841,"current_range_meters":30400,"station_id":"ce4bh312rcd13ifvqdj0","pricing_plan_id":"free"},{"bike_id":"8c9c22bd-fd23-4088-af6f-edeb1358f6ff","system_id":"levelo_inurba_marseille","lat":43.286595,"lon":5.386795,"is_reserved":false,"is_disabled":false,"rental_uris":{"android":"levelo://app?vid=8c9c22bd-fd23-4088-af6f-edeb1358f6ff","ios":"levelo://app?vid=8c9c22bd-fd23-4088-af6f-edeb1358f6ff"},"vehicle_type_id":"4","last_reported":1699772841,"current_range_meters":23200,"station_id":"ce4bh492rcd13ifvqdug","pricing_plan_id":"free"},{"bike_id":"cbfa83f2-9b8b-4245-ad19-8a87782a2866","system_id":"levelo_inurba_marseille","lat":43.286726,"lon":5.38659,"is_reserved":false,"is_disabled":false,"rental_uris":{"android":"levelo://app?vid=cbfa83f2-9b8b-4245-ad19-8a87782a2866","ios":"levelo://app?vid=cbfa83f2-9b8b-4245-ad19-8a87782a2866"},"vehicle_type_id":"4","last_reported":1699772841,"current_range_meters":31200,"station_id":"ce4bh492rcd13ifvqdug","pricing_plan_id":"free"},{"bike_id":"95316cb1-4881-4213-8e57-a96ac18bed73","system_id":"levelo_inurba_marseille","lat":43.28665,"lon":5.38657,"is_reserved":false,"is_disabled":false,"rental_uris":{"android":"levelo://app?vid=95316cb1-4881-4213-8e57-a96ac18bed73","ios":"levelo://app?vid=95316cb1-4881-4213-8e57-a96ac18bed73"},"vehicle_type_id":"4","last_reported":1699772841,"current_range_meters":30400,"station_id":"ce4bh492rcd13ifvqdug","pricing_plan_id":"free"},{"bike_id":"08295c26-f27a-4ede-85e5-385b363c2964","system_id":"levelo_inurba_marseille","lat":43.319179,"lon":5.407725,"is_reserved":false,"is_disabled":false,"rental_uris":{"android":"levelo://app?vid=08295c26-f27a-4ede-85e5-385b363c2964","ios":"levelo://app?vid=08295c26-f27a-4ede-85e5-385b363c2964"},"vehicle_type_id":"4","last_reported":1699772841,"current_range_meters":31600,"station_id":"ce4bhq12rcd13ifvqhig","pricing_plan_id":"free"},{"bike_id":"c9982d22-c49f-43d9-bfbb-1ef6adfe757a","system_id":"levelo_inurba_marseille","lat":43.319179,"lon":5.407725,"is_reserved":false,"is_disabled":false,"rental_uris":{"android":"levelo://app?vid=c9982d22-c49f-43d9-bfbb-1ef6adfe757a","ios":"levelo://app?vid=c9982d22-c49f-43d9-bfbb-1ef6adfe757a"},"vehicle_type_id":"4","last_reported":1699772841,"current_range_meters":31600,"station_id":"ce4bhq12rcd13ifvqhig","pricing_plan_id":"free"},{"bike_id":"9a265459-d13d-48fa-981b-2a0faf09f29a","system_id":"levelo_inurba_marseille","lat":43.319179,"lon":5.407725,"is_reserved":false,"is_disabled":false,"rental_uris":{"android":"levelo://app?vid=9a265459-d13d-48fa-981b-2a0faf09f29a","ios":"levelo://app?vid=9a265459-d13d-48fa-981b-2a0faf09f29a"},"vehicle_type_id":"4","last_reported":1699772841,"current_range_meters":14800,"station_id":"ce4bhq12rcd13ifvqhig","pricing_plan_id":"free"},{"bike_id":"4ceb9844-97ef-48a3-b818-6ef9565de886","system_id":"levelo_inurba_marseille","lat":43.319179,"lon":5.407725,"is_reserved":false,"is_disabled":false,"rental_uris":{"android":"levelo://app?vid=4ceb9844-97ef-48a3-b818-6ef9565de886","ios":"levelo://app?vid=4ceb9844-97ef-48a3-b818-6ef9565de886"},"vehicle_type_id":"4","last_reported":1699772841,"current_range_meters":22800,"station_id":"ce4bhq12rcd13ifvqhig","pricing_plan_id":"free"},{"bike_id":"030625bd-f8ba-4389-9944-df2973894a22","system_id":"levelo_inurba_marseille","lat":43.325731,"lon":5.404186,"is_reserved":false,"is_disabled":false,"rental_uris":{"android":"levelo://app?vid=030625bd-f8ba-4389-9944-df2973894a22","ios":"levelo://app?vid=030625bd-f8ba-4389-9944-df2973894a22"},"vehicle_type_id":"4","last_reported":1699772841,"current_range_meters":800,"station_id":"","pricing_plan_id":"free"},{"bike_id":"f0f283f2-bb6c-4724-afe8-19f46cefa39d","system_id":"levelo_inurba_marseille","lat":43.318969,"lon":5.407404,"is_reserved":false,"is_disabled":false,"rental_uris":{"android":"levelo://app?vid=f0f283f2-bb6c-4724-afe8-19f46cefa39d","ios":"levelo://app?vid=f0f283f2-bb6c-4724-afe8-19f46cefa39d"},"vehicle_type_id":"4","last_reported":1699772841,"current_range_meters":30000,"station_id":"ce4bhq12rcd13ifvqhig","pricing_plan_id":"free"},{"bike_id":"92905be3-3ac9-48a9-81f5-f31dfa311c3b","system_id":"levelo_inurba_marseille","lat":43.33717,"lon":5.391857,"is_reserved":false,"is_disabled":false,"rental_uris":{"android":"levelo://app?vid=92905be3-3ac9-48a9-81f5-f31dfa311c3b","ios":"levelo://app?vid=92905be3-3ac9-48a9-81f5-f31dfa311c3b"},"vehicle_type_id":"4","last_reported":1699772841,"current_range_meters":27600,"station_id":"ce4bhr92rcd13ifvqhsg","pricing_plan_id":"free"},{"bike_id":"4059a96c-410f-44e5-aa76-510671624795","system_id":"levelo_inurba_marseille","lat":43.323464,"lon":5.406297,"is_reserved":false,"is_disabled":false,"rental_uris":{"android":"levelo://app?vid=4059a96c-410f-44e5-aa76-510671624795","ios":"levelo://app?vid=4059a96c-410f-44e5-aa76-510671624795"},"vehicle_type_id":"4","last_reported":1699772841,"current_range_meters":26400,"station_id":"ce4bhq92rcd13ifvqhjg","pricing_plan_id":"free"},{"bike_id":"0ea42eb7-d94a-4ce4-b101-6b35a0334432","system_id":"levelo_inurba_marseille","lat":43.323464,"lon":5.406297,"is_reserved":false,"is_disabled":false,"rental_uris":{"android":"levelo://app?vid=0ea42eb7-d94a-4ce4-b101-6b35a0334432","ios":"levelo://app?vid=0ea42eb7-d94a-4ce4-b101-6b35a0334432"},"vehicle_type_id":"4","last_reported":1699772841,"current_range_meters":31600,"station_id":"ce4bhq92rcd13ifvqhjg","pricing_plan_id":"free"},{"bike_id":"27511aab-823c-465b-826c-e631eb925b28","system_id":"levelo_inurba_marseille","lat":43.33717,"lon":5.391857,"is_reserved":false,"is_disabled":false,"rental_uris":{"android":"levelo://app?vid=27511aab-823c-465b-826c-e631eb925b28","ios":"levelo://app?vid=27511aab-823c-465b-826c-e631eb925b28"},"vehicle_type_id":"4","last_reported":1699772841,"current_range_meters":28800,"station_id":"ce4bhr92rcd13ifvqhsg","pricing_plan_id":"free"},{"bike_id":"8f73f349-a272-4ad6-b8fd-7b017ee1ab31","system_id":"levelo_inurba_marseille","lat":43.337168,"lon":5.391825,"is_reserved":false,"is_disabled":false,"rental_uris":{"android":"levelo://app?vid=8f73f349-a272-4ad6-b8fd-7b017ee1ab31","ios":"levelo://app?vid=8f73f349-a272-4ad6-b8fd-7b017ee1ab31"},"vehicle_type_id":"4","last_reported":1699772841,"current_range_meters":30400,"station_id":"ce4bhr92rcd13ifvqhsg","pricing_plan_id":"free"},{"bike_id":"2d6bfc90-8552-49bc-9eee-fb25468d5f09","system_id":"levelo_inurba_marseille","lat":43.269319,"lon":5.389397,"is_reserved":false,"is_disabled":false,"rental_uris":{"android":"levelo://app?vid=2d6bfc90-8552-49bc-9eee-fb25468d5f09","ios":"levelo://app?vid=2d6bfc90-8552-49bc-9eee-fb25468d5f09"},"vehicle_type_id":"4","last_reported":1699772841,"current_range_meters":30000,"station_id":"ce4bhhh2rcd13ifvqfl0","pricing_plan_id":"free"},{"bike_id":"cd91dd56-5fc2-4595-a9dd-faf2c2c2f4ed","system_id":"levelo_inurba_marseille","lat":43.297946,"lon":5.404063,"is_reserved":false,"is_disabled":false,"rental_uris":{"android":"levelo://app?vid=cd91dd56-5fc2-4595-a9dd-faf2c2c2f4ed","ios":"levelo://app?vid=cd91dd56-5fc2-4595-a9dd-faf2c2c2f4ed"},"vehicle_type_id":"4","last_reported":1699772841,"current_range_meters":28800,"station_id":"ce4bh112rcd13ifvqd90","pricing_plan_id":"free"},{"bike_id":"00f01b95-0b73-421a-8c3f-52a182516947","system_id":"levelo_inurba_marseille","lat":43.288501,"lon":5.393087,"is_reserved":false,"is_disabled":false,"rental_uris":{"android":"levelo://app?vid=00f01b95-0b73-421a-8c3f-52a182516947","ios":"levelo://app?vid=00f01b95-0b73-421a-8c3f-52a182516947"},"vehicle_type_id":"4","last_reported":1699772841,"current_range_meters":11600,"station_id":"ce4bh2p2rcd13ifvqdi0","pricing_plan_id":"free"},{"bike_id":"06c8ad5f-0759-4884-8404-c067bc5aa5ed","system_id":"levelo_inurba_marseille","lat":43.288402,"lon":5.393349,"is_reserved":false,"is_disabled":false,"rental_uris":{"android":"levelo://app?vid=06c8ad5f-0759-4884-8404-c067bc5aa5ed","ios":"levelo://app?vid=06c8ad5f-0759-4884-8404-c067bc5aa5ed"},"vehicle_type_id":"4","last_reported":1699772841,"current_range_meters":4000,"station_id":"ce4bh2p2rcd13ifvqdi0","pricing_plan_id":"free"},{"bike_id":"c0b84f05-658f-41e3-bf4b-7026f7f00ed3","system_id":"levelo_inurba_marseille","lat":43.288501,"lon":5.393087,"is_reserved":false,"is_disabled":false,"rental_uris":{"android":"levelo://app?vid=c0b84f05-658f-41e3-bf4b-7026f7f00ed3","ios":"levelo://app?vid=c0b84f05-658f-41e3-bf4b-7026f7f00ed3"},"vehicle_type_id":"4","last_reported":1699772841,"current_range_meters":22800,"station_id":"ce4bh2p2rcd13ifvqdi0","pricing_plan_id":"free"},{"bike_id":"f7d75e3a-30ea-4ace-8378-4dd76d77ca6c","system_id":"levelo_inurba_marseille","lat":43.28835,"lon":5.393397,"is_reserved":false,"is_disabled":false,"rental_uris":{"android":"levelo://app?vid=f7d75e3a-30ea-4ace-8378-4dd76d77ca6c","ios":"levelo://app?vid=f7d75e3a-30ea-4ace-8378-4dd76d77ca6c"},"vehicle_type_id":"4","last_reported":1699772841,"current_range_meters":30000,"station_id":"","pricing_plan_id":"free"},{"bike_id":"8c52ac7b-9993-44ba-8918-b89fdf9d424e","system_id":"levelo_inurba_marseille","lat":43.288353,"lon":5.393462,"is_reserved":false,"is_disabled":false,"rental_uris":{"android":"levelo://app?vid=8c52ac7b-9993-44ba-8918-b89fdf9d424e","ios":"levelo://app?vid=8c52ac7b-9993-44ba-8918-b89fdf9d424e"},"vehicle_type_id":"4","last_reported":1699772841,"current_range_meters":31200,"station_id":"","pricing_plan_id":"free"},{"bike_id":"909e4e0a-6a68-4489-aa00-ca7912026232","system_id":"levelo_inurba_marseille","lat":43.288501,"lon":5.393087,"is_reserved":false,"is_disabled":false,"rental_uris":{"android":"levelo://app?vid=909e4e0a-6a68-4489-aa00-ca7912026232","ios":"levelo://app?vid=909e4e0a-6a68-4489-aa00-ca7912026232"},"vehicle_type_id":"4","last_reported":1699772841,"current_range_meters":29600,"station_id":"ce4bh2p2rcd13ifvqdi0","pricing_plan_id":"free"},{"bike_id":"bfabb695-6f85-47ee-97fb-e81604c4a605","system_id":"levelo_inurba_marseille","lat":43.289363,"lon":5.396322,"is_reserved":false,"is_disabled":false,"rental_uris":{"android":"levelo://app?vid=bfabb695-6f85-47ee-97fb-e81604c4a605","ios":"levelo://app?vid=bfabb695-6f85-47ee-97fb-e81604c4a605"},"vehicle_type_id":"4","last_reported":1699772841,"current_range_meters":31600,"station_id":"ce4bh3h2rcd13ifvqdn0","pricing_plan_id":"free"},{"bike_id":"f1d34adf-d5cb-4419-96a0-604ec3c995d0","system_id":"levelo_inurba_marseille","lat":43.289363,"lon":5.396322,"is_reserved":false,"is_disabled":false,"rental_uris":{"android":"levelo://app?vid=f1d34adf-d5cb-4419-96a0-604ec3c995d0","ios":"levelo://app?vid=f1d34adf-d5cb-4419-96a0-604ec3c995d0"},"vehicle_type_id":"4","last_reported":1699772841,"current_range_meters":27200,"station_id":"ce4bh3h2rcd13ifvqdn0","pricing_plan_id":"free"},{"bike_id":"694cc18d-6823-481a-9d09-67d990c2d197","system_id":"levelo_inurba_marseille","lat":43.324289,"lon":5.407562,"is_reserved":false,"is_disabled":false,"rental_uris":{"android":"levelo://app?vid=694cc18d-6823-481a-9d09-67d990c2d197","ios":"levelo://app?vid=694cc18d-6823-481a-9d09-67d990c2d197"},"vehicle_type_id":"4","last_reported":1699772841,"current_range_meters":0,"station_id":"","pricing_plan_id":"free"},{"bike_id":"432ad7c0-c091-4db3-bee6-1975f7d19759","system_id":"levelo_inurba_marseille","lat":43.292724,"lon":5.401131,"is_reserved":false,"is_disabled":false,"rental_uris":{"android":"levelo://app?vid=432ad7c0-c091-4db3-bee6-1975f7d19759","ios":"levelo://app?vid=432ad7c0-c091-4db3-bee6-1975f7d19759"},"vehicle_type_id":"4","last_reported":1699772841,"current_range_meters":25600,"station_id":"ce4bh312rcd13ifvqdk0","pricing_plan_id":"free"},{"bike_id":"cf4444bc-a8a7-4c52-9c6d-d70a42b0c5b9","system_id":"levelo_inurba_marseille","lat":43.292724,"lon":5.401131,"is_reserved":false,"is_disabled":false,"rental_uris":{"android":"levelo://app?vid=cf4444bc-a8a7-4c52-9c6d-d70a42b0c5b9","ios":"levelo://app?vid=cf4444bc-a8a7-4c52-9c6d-d70a42b0c5b9"},"vehicle_type_id":"4","last_reported":1699772841,"current_range_meters":28800,"station_id":"ce4bh312rcd13ifvqdk0","pricing_plan_id":"free"},{"bike_id":"d40f8495-fd01-4e6a-b2e9-49fbec0045ed","system_id":"levelo_inurba_marseille","lat":43.292724,"lon":5.401131,"is_reserved":false,"is_disabled":false,"rental_uris":{"android":"levelo://app?vid=d40f8495-fd01-4e6a-b2e9-49fbec0045ed","ios":"levelo://app?vid=d40f8495-fd01-4e6a-b2e9-49fbec0045ed"},"vehicle_type_id":"4","last_reported":1699772841,"current_range_meters":27200,"station_id":"ce4bh312rcd13ifvqdk0","pricing_plan_id":"free"},{"bike_id":"5264d2c9-03b7-4c92-a6e0-746066e53d27","system_id":"levelo_inurba_marseille","lat":43.282754,"lon":5.350519,"is_reserved":false,"is_disabled":false,"rental_uris":{"android":"levelo://app?vid=5264d2c9-03b7-4c92-a6e0-746066e53d27","ios":"levelo://app?vid=5264d2c9-03b7-4c92-a6e0-746066e53d27"},"vehicle_type_id":"4","last_reported":1699772841,"current_range_meters":23200,"station_id":"ce4bhbp2rcd13ifvqerg","pricing_plan_id":"free"},{"bike_id":"12306468-1d20-416c-9379-1f5e2b1e7e90","system_id":"levelo_inurba_marseille","lat":43.280382,"lon":5.369291,"is_reserved":false,"is_disabled":false,"rental_uris":{"android":"levelo://app?vid=12306468-1d20-416c-9379-1f5e2b1e7e90","ios":"levelo://app?vid=12306468-1d20-416c-9379-1f5e2b1e7e90"},"vehicle_type_id":"4","last_reported":1699772841,"current_range_meters":30800,"station_id":"ce4bha12rcd13ifvqef0","pricing_plan_id":"free"},{"bike_id":"a8865373-4942-421b-be93-97e2a9367cce","system_id":"levelo_inurba_marseille","lat":43.28039,"lon":5.369297,"is_reserved":false,"is_disabled":false,"rental_uris":{"android":"levelo://app?vid=a8865373-4942-421b-be93-97e2a9367cce","ios":"levelo://app?vid=a8865373-4942-421b-be93-97e2a9367cce"},"vehicle_type_id":"4","last_reported":1699772841,"current_range_meters":23200,"station_id":"ce4bha12rcd13ifvqef0","pricing_plan_id":"free"},{"bike_id":"f1a93f85-0e79-46e3-a658-b31ac797422d","system_id":"levelo_inurba_marseille","lat":43.28039,"lon":5.369297,"is_reserved":false,"is_disabled":false,"rental_uris":{"android":"levelo://app?vid=f1a93f85-0e79-46e3-a658-b31ac797422d","ios":"levelo://app?vid=f1a93f85-0e79-46e3-a658-b31ac797422d"},"vehicle_type_id":"4","last_reported":1699772841,"current_range_meters":10400,"station_id":"ce4bha12rcd13ifvqef0","pricing_plan_id":"free"},{"bike_id":"fb1c5c17-dc7a-425a-8091-857d6e9cde1f","system_id":"levelo_inurba_marseille","lat":43.290414,"lon":5.399569,"is_reserved":false,"is_disabled":false,"rental_uris":{"android":"levelo://app?vid=fb1c5c17-dc7a-425a-8091-857d6e9cde1f","ios":"levelo://app?vid=fb1c5c17-dc7a-425a-8091-857d6e9cde1f"},"vehicle_type_id":"4","last_reported":1699772841,"current_range_meters":0,"station_id":"ce4bh392rcd13ifvqdm0","pricing_plan_id":"free"},{"bike_id":"c9a81dd2-fae8-4325-b501-4012c0511cf5","system_id":"levelo_inurba_marseille","lat":43.290403,"lon":5.399564,"is_reserved":false,"is_disabled":false,"rental_uris":{"android":"levelo://app?vid=c9a81dd2-fae8-4325-b501-4012c0511cf5","ios":"levelo://app?vid=c9a81dd2-fae8-4325-b501-4012c0511cf5"},"vehicle_type_id":"4","last_reported":1699772841,"current_range_meters":14000,"station_id":"ce4bh392rcd13ifvqdm0","pricing_plan_id":"free"},{"bike_id":"381f479f-98e3-420f-a35b-8f63d09ecba7","system_id":"levelo_inurba_marseille","lat":43.290422,"lon":5.399602,"is_reserved":false,"is_disabled":false,"rental_uris":{"android":"levelo://app?vid=381f479f-98e3-420f-a35b-8f63d09ecba7","ios":"levelo://app?vid=381f479f-98e3-420f-a35b-8f63d09ecba7"},"vehicle_type_id":"4","last_reported":1699772841,"current_range_meters":22400,"station_id":"ce4bh392rcd13ifvqdm0","pricing_plan_id":"free"},{"bike_id":"306e4c5f-b4f0-4876-ad06-b1c9a3a9d055","system_id":"levelo_inurba_marseille","lat":43.290462,"lon":5.399659,"is_reserved":false,"is_disabled":false,"rental_uris":{"android":"levelo://app?vid=306e4c5f-b4f0-4876-ad06-b1c9a3a9d055","ios":"levelo://app?vid=306e4c5f-b4f0-4876-ad06-b1c9a3a9d055"},"vehicle_type_id":"4","last_reported":1699772841,"current_range_meters":31200,"station_id":"ce4bh392rcd13ifvqdm0","pricing_plan_id":"free"},{"bike_id":"d4f75060-cd9a-4da8-84f5-a57e25c2d749","system_id":"levelo_inurba_marseille","lat":43.290375,"lon":5.399629,"is_reserved":false,"is_disabled":false,"rental_uris":{"android":"levelo://app?vid=d4f75060-cd9a-4da8-84f5-a57e25c2d749","ios":"levelo://app?vid=d4f75060-cd9a-4da8-84f5-a57e25c2d749"},"vehicle_type_id":"4","last_reported":1699772841,"current_range_meters":20000,"station_id":"ce4bh392rcd13ifvqdm0","pricing_plan_id":"free"},{"bike_id":"11d835ba-f3bc-48e1-8084-82db41bd4665","system_id":"levelo_inurba_marseille","lat":43.29631,"lon":5.40592,"is_reserved":false,"is_disabled":false,"rental_uris":{"android":"levelo://app?vid=11d835ba-f3bc-48e1-8084-82db41bd4665","ios":"levelo://app?vid=11d835ba-f3bc-48e1-8084-82db41bd4665"},"vehicle_type_id":"4","last_reported":1699772841,"current_range_meters":18800,"station_id":"ce4bh0h2rcd13ifvqd60","pricing_plan_id":"free"},{"bike_id":"5306ffd9-a094-49ea-b40e-2e0f9981ff7f","system_id":"levelo_inurba_marseille","lat":43.29023,"lon":5.39975,"is_reserved":false,"is_disabled":false,"rental_uris":{"android":"levelo://app?vid=5306ffd9-a094-49ea-b40e-2e0f9981ff7f","ios":"levelo://app?vid=5306ffd9-a094-49ea-b40e-2e0f9981ff7f"},"vehicle_type_id":"4","last_reported":1699772841,"current_range_meters":15600,"station_id":"ce4bh392rcd13ifvqdm0","pricing_plan_id":"free"},{"bike_id":"df3d9d92-b15f-4045-b142-6498f570e1a8","system_id":"levelo_inurba_marseille","lat":43.290274,"lon":5.399814,"is_reserved":false,"is_disabled":false,"rental_uris":{"android":"levelo://app?vid=df3d9d92-b15f-4045-b142-6498f570e1a8","ios":"levelo://app?vid=df3d9d92-b15f-4045-b142-6498f570e1a8"},"vehicle_type_id":"4","last_reported":1699772841,"current_range_meters":31200,"station_id":"ce4bh392rcd13ifvqdm0","pricing_plan_id":"free"},{"bike_id":"84fdd310-b6c4-4824-ba30-a8673539b410","system_id":"levelo_inurba_marseille","lat":43.296263,"lon":5.40601,"is_reserved":false,"is_disabled":false,"rental_uris":{"android":"levelo://app?vid=84fdd310-b6c4-4824-ba30-a8673539b410","ios":"levelo://app?vid=84fdd310-b6c4-4824-ba30-a8673539b410"},"vehicle_type_id":"4","last_reported":1699772841,"current_range_meters":31600,"station_id":"ce4bh0h2rcd13ifvqd60","pricing_plan_id":"free"},{"bike_id":"32e623fb-2eb6-4cc5-a8c3-b24b93bd5b47","system_id":"levelo_inurba_marseille","lat":43.29634,"lon":5.40602,"is_reserved":false,"is_disabled":false,"rental_uris":{"android":"levelo://app?vid=32e623fb-2eb6-4cc5-a8c3-b24b93bd5b47","ios":"levelo://app?vid=32e623fb-2eb6-4cc5-a8c3-b24b93bd5b47"},"vehicle_type_id":"4","last_reported":1699772841,"current_range_meters":25600,"station_id":"ce4bh0h2rcd13ifvqd60","pricing_plan_id":"free"},{"bike_id":"b35e6659-d289-4c23-b25c-c0be4cd11147","system_id":"levelo_inurba_marseille","lat":43.296263,"lon":5.40601,"is_reserved":false,"is_disabled":false,"rental_uris":{"android":"levelo://app?vid=b35e6659-d289-4c23-b25c-c0be4cd11147","ios":"levelo://app?vid=b35e6659-d289-4c23-b25c-c0be4cd11147"},"vehicle_type_id":"4","last_reported":1699772841,"current_range_meters":31600,"station_id":"ce4bh0h2rcd13ifvqd60","pricing_plan_id":"free"},{"bike_id":"a768ff31-9420-49af-8976-d82b3c109387","system_id":"levelo_inurba_marseille","lat":43.296263,"lon":5.40601,"is_reserved":false,"is_disabled":false,"rental_uris":{"android":"levelo://app?vid=a768ff31-9420-49af-8976-d82b3c109387","ios":"levelo://app?vid=a768ff31-9420-49af-8976-d82b3c109387"},"vehicle_type_id":"4","last_reported":1699772841,"current_range_meters":26800,"station_id":"ce4bh0h2rcd13ifvqd60","pricing_plan_id":"free"},{"bike_id":"c5269fde-c094-4163-a2ac-a6350e774e3c","system_id":"levelo_inurba_marseille","lat":43.323447,"lon":5.41003,"is_reserved":false,"is_disabled":false,"rental_uris":{"android":"levelo://app?vid=c5269fde-c094-4163-a2ac-a6350e774e3c","ios":"levelo://app?vid=c5269fde-c094-4163-a2ac-a6350e774e3c"},"vehicle_type_id":"4","last_reported":1699772841,"current_range_meters":2400,"station_id":"","pricing_plan_id":"free"},{"bike_id":"a7a718c5-ee63-4243-a2aa-d5332bbd0e52","system_id":"levelo_inurba_marseille","lat":43.284462,"lon":5.392121,"is_reserved":false,"is_disabled":false,"rental_uris":{"android":"levelo://app?vid=a7a718c5-ee63-4243-a2aa-d5332bbd0e52","ios":"levelo://app?vid=a7a718c5-ee63-4243-a2aa-d5332bbd0e52"},"vehicle_type_id":"4","last_reported":1699772841,"current_range_meters":27200,"station_id":"ce4bhoh2rcd13ifvqh5g","pricing_plan_id":"free"},{"bike_id":"6e534761-3576-4110-a8ab-96e356afd9bb","system_id":"levelo_inurba_marseille","lat":43.28566,"lon":5.39502,"is_reserved":false,"is_disabled":false,"rental_uris":{"android":"levelo://app?vid=6e534761-3576-4110-a8ab-96e356afd9bb","ios":"levelo://app?vid=6e534761-3576-4110-a8ab-96e356afd9bb"},"vehicle_type_id":"4","last_reported":1699772841,"current_range_meters":26000,"station_id":"ce4bh292rcd13ifvqdg0","pricing_plan_id":"free"},{"bike_id":"f9b238b3-ce91-46fe-a65f-e1771ef13ae2","system_id":"levelo_inurba_marseille","lat":43.28573,"lon":5.394992,"is_reserved":false,"is_disabled":false,"rental_uris":{"android":"levelo://app?vid=f9b238b3-ce91-46fe-a65f-e1771ef13ae2","ios":"levelo://app?vid=f9b238b3-ce91-46fe-a65f-e1771ef13ae2"},"vehicle_type_id":"4","last_reported":1699772841,"current_range_meters":16000,"station_id":"ce4bh292rcd13ifvqdg0","pricing_plan_id":"free"},{"bike_id":"432fcd52-b05c-480a-b322-fdd40c40bc73","system_id":"levelo_inurba_marseille","lat":43.326605,"lon":5.409903,"is_reserved":false,"is_disabled":false,"rental_uris":{"android":"levelo://app?vid=432fcd52-b05c-480a-b322-fdd40c40bc73","ios":"levelo://app?vid=432fcd52-b05c-480a-b322-fdd40c40bc73"},"vehicle_type_id":"4","last_reported":1699772841,"current_range_meters":29200,"station_id":"ce4bhpp2rcd13ifvqhgg","pricing_plan_id":"free"},{"bike_id":"bee3532d-37c5-4101-870a-5a61bd21bd3b","system_id":"levelo_inurba_marseille","lat":43.304188,"lon":5.412904,"is_reserved":false,"is_disabled":false,"rental_uris":{"android":"levelo://app?vid=bee3532d-37c5-4101-870a-5a61bd21bd3b","ios":"levelo://app?vid=bee3532d-37c5-4101-870a-5a61bd21bd3b"},"vehicle_type_id":"4","last_reported":1699772841,"current_range_meters":30400,"station_id":"ce4bhop2rcd13ifvqh8g","pricing_plan_id":"free"},{"bike_id":"51e46aad-dfc3-4443-8816-a5e3d0c00f46","system_id":"levelo_inurba_marseille","lat":43.304188,"lon":5.412904,"is_reserved":false,"is_disabled":false,"rental_uris":{"android":"levelo://app?vid=51e46aad-dfc3-4443-8816-a5e3d0c00f46","ios":"levelo://app?vid=51e46aad-dfc3-4443-8816-a5e3d0c00f46"},"vehicle_type_id":"4","last_reported":1699772841,"current_range_meters":26000,"station_id":"ce4bhop2rcd13ifvqh8g","pricing_plan_id":"free"},{"bike_id":"8753fbf8-8786-4ee7-8f02-556c941e2086","system_id":"levelo_inurba_marseille","lat":43.304188,"lon":5.412904,"is_reserved":false,"is_disabled":false,"rental_uris":{"android":"levelo://app?vid=8753fbf8-8786-4ee7-8f02-556c941e2086","ios":"levelo://app?vid=8753fbf8-8786-4ee7-8f02-556c941e2086"},"vehicle_type_id":"4","last_reported":1699772841,"current_range_meters":31600,"station_id":"ce4bhop2rcd13ifvqh8g","pricing_plan_id":"free"},{"bike_id":"5e9c99ea-9137-41c6-a0e7-03f126e9dc5d","system_id":"levelo_inurba_marseille","lat":43.279087,"lon":5.380114,"is_reserved":false,"is_disabled":false,"rental_uris":{"android":"levelo://app?vid=5e9c99ea-9137-41c6-a0e7-03f126e9dc5d","ios":"levelo://app?vid=5e9c99ea-9137-41c6-a0e7-03f126e9dc5d"},"vehicle_type_id":"4","last_reported":1699772841,"current_range_meters":28800,"station_id":"ce4bhf92rcd13ifvqf50","pricing_plan_id":"free"},{"bike_id":"e8c48250-3110-44db-a25d-3084fdc7cb9b","system_id":"levelo_inurba_marseille","lat":43.287154,"lon":5.399979,"is_reserved":false,"is_disabled":false,"rental_uris":{"android":"levelo://app?vid=e8c48250-3110-44db-a25d-3084fdc7cb9b","ios":"levelo://app?vid=e8c48250-3110-44db-a25d-3084fdc7cb9b"},"vehicle_type_id":"4","last_reported":1699772841,"current_range_meters":29600,"station_id":"ce4bho92rcd13ifvqh3g","pricing_plan_id":"free"},{"bike_id":"c78d03d8-236a-4d8f-818e-15c919a561ec","system_id":"levelo_inurba_marseille","lat":43.287154,"lon":5.399979,"is_reserved":false,"is_disabled":false,"rental_uris":{"android":"levelo://app?vid=c78d03d8-236a-4d8f-818e-15c919a561ec","ios":"levelo://app?vid=c78d03d8-236a-4d8f-818e-15c919a561ec"},"vehicle_type_id":"4","last_reported":1699772841,"current_range_meters":4400,"station_id":"ce4bho92rcd13ifvqh3g","pricing_plan_id":"free"},{"bike_id":"855d09b6-1447-4482-b3fb-08c06bbd637e","system_id":"levelo_inurba_marseille","lat":43.287154,"lon":5.399979,"is_reserved":false,"is_disabled":false,"rental_uris":{"android":"levelo://app?vid=855d09b6-1447-4482-b3fb-08c06bbd637e","ios":"levelo://app?vid=855d09b6-1447-4482-b3fb-08c06bbd637e"},"vehicle_type_id":"4","last_reported":1699772841,"current_range_meters":15200,"station_id":"ce4bho92rcd13ifvqh3g","pricing_plan_id":"free"},{"bike_id":"a36a9051-984a-464e-aaec-5508f330eefa","system_id":"levelo_inurba_marseille","lat":43.287154,"lon":5.399979,"is_reserved":false,"is_disabled":false,"rental_uris":{"android":"levelo://app?vid=a36a9051-984a-464e-aaec-5508f330eefa","ios":"levelo://app?vid=a36a9051-984a-464e-aaec-5508f330eefa"},"vehicle_type_id":"4","last_reported":1699772841,"current_range_meters":28800,"station_id":"ce4bho92rcd13ifvqh3g","pricing_plan_id":"free"},{"bike_id":"13232b23-3628-4f2e-aff4-0fa342936717","system_id":"levelo_inurba_marseille","lat":43.287154,"lon":5.399979,"is_reserved":false,"is_disabled":false,"rental_uris":{"android":"levelo://app?vid=13232b23-3628-4f2e-aff4-0fa342936717","ios":"levelo://app?vid=13232b23-3628-4f2e-aff4-0fa342936717"},"vehicle_type_id":"4","last_reported":1699772841,"current_range_meters":10400,"station_id":"ce4bho92rcd13ifvqh3g","pricing_plan_id":"free"},{"bike_id":"feca28d2-7019-4e39-96be-d7938cc29597","system_id":"levelo_inurba_marseille","lat":43.32435,"lon":5.4137,"is_reserved":false,"is_disabled":false,"rental_uris":{"android":"levelo://app?vid=feca28d2-7019-4e39-96be-d7938cc29597","ios":"levelo://app?vid=feca28d2-7019-4e39-96be-d7938cc29597"},"vehicle_type_id":"4","last_reported":1699772841,"current_range_meters":18400,"station_id":"","pricing_plan_id":"free"},{"bike_id":"312e4ef3-b6b9-4265-8aa6-a822548e80ee","system_id":"levelo_inurba_marseille","lat":43.320045,"lon":5.415046,"is_reserved":false,"is_disabled":false,"rental_uris":{"android":"levelo://app?vid=312e4ef3-b6b9-4265-8aa6-a822548e80ee","ios":"levelo://app?vid=312e4ef3-b6b9-4265-8aa6-a822548e80ee"},"vehicle_type_id":"4","last_reported":1699772841,"current_range_meters":23600,"station_id":"ce4bhq92rcd13ifvqhkg","pricing_plan_id":"free"},{"bike_id":"88d0d1e9-c471-49d1-8778-7693699a7adc","system_id":"levelo_inurba_marseille","lat":43.279742,"lon":5.38744,"is_reserved":false,"is_disabled":false,"rental_uris":{"android":"levelo://app?vid=88d0d1e9-c471-49d1-8778-7693699a7adc","ios":"levelo://app?vid=88d0d1e9-c471-49d1-8778-7693699a7adc"},"vehicle_type_id":"4","last_reported":1699772841,"current_range_meters":31600,"station_id":"ce4bhg12rcd13ifvqf80","pricing_plan_id":"free"},{"bike_id":"d9e9ee34-133c-47f1-a184-e85055e680c0","system_id":"levelo_inurba_marseille","lat":43.279742,"lon":5.38744,"is_reserved":false,"is_disabled":false,"rental_uris":{"android":"levelo://app?vid=d9e9ee34-133c-47f1-a184-e85055e680c0","ios":"levelo://app?vid=d9e9ee34-133c-47f1-a184-e85055e680c0"},"vehicle_type_id":"4","last_reported":1699772841,"current_range_meters":27600,"station_id":"ce4bhg12rcd13ifvqf80","pricing_plan_id":"free"},{"bike_id":"cbfb428b-2688-4fa3-a6b6-cc6e65173eaa","system_id":"levelo_inurba_marseille","lat":43.279742,"lon":5.38744,"is_reserved":false,"is_disabled":false,"rental_uris":{"android":"levelo://app?vid=cbfb428b-2688-4fa3-a6b6-cc6e65173eaa","ios":"levelo://app?vid=cbfb428b-2688-4fa3-a6b6-cc6e65173eaa"},"vehicle_type_id":"4","last_reported":1699772841,"current_range_meters":30800,"station_id":"ce4bhg12rcd13ifvqf80","pricing_plan_id":"free"},{"bike_id":"4da7f432-0155-408b-8ec6-786c976dc9ac","system_id":"levelo_inurba_marseille","lat":43.279742,"lon":5.38744,"is_reserved":false,"is_disabled":false,"rental_uris":{"android":"levelo://app?vid=4da7f432-0155-408b-8ec6-786c976dc9ac","ios":"levelo://app?vid=4da7f432-0155-408b-8ec6-786c976dc9ac"},"vehicle_type_id":"4","last_reported":1699772841,"current_range_meters":28800,"station_id":"ce4bhg12rcd13ifvqf80","pricing_plan_id":"free"},{"bike_id":"0779d43e-fe69-423b-a527-8860d39e5292","system_id":"levelo_inurba_marseille","lat":43.279742,"lon":5.38744,"is_reserved":false,"is_disabled":false,"rental_uris":{"android":"levelo://app?vid=0779d43e-fe69-423b-a527-8860d39e5292","ios":"levelo://app?vid=0779d43e-fe69-423b-a527-8860d39e5292"},"vehicle_type_id":"4","last_reported":1699772841,"current_range_meters":31600,"station_id":"ce4bhg12rcd13ifvqf80","pricing_plan_id":"free"},{"bike_id":"a39b0790-082e-48cf-b1eb-b4c0e2dc2675","system_id":"levelo_inurba_marseille","lat":43.279742,"lon":5.38744,"is_reserved":false,"is_disabled":false,"rental_uris":{"android":"levelo://app?vid=a39b0790-082e-48cf-b1eb-b4c0e2dc2675","ios":"levelo://app?vid=a39b0790-082e-48cf-b1eb-b4c0e2dc2675"},"vehicle_type_id":"4","last_reported":1699772841,"current_range_meters":28800,"station_id":"ce4bhg12rcd13ifvqf80","pricing_plan_id":"free"},{"bike_id":"a9d56fa8-9aa6-41c4-b7af-6df95e957368","system_id":"levelo_inurba_marseille","lat":43.320488,"lon":5.415738,"is_reserved":false,"is_disabled":false,"rental_uris":{"android":"levelo://app?vid=a9d56fa8-9aa6-41c4-b7af-6df95e957368","ios":"levelo://app?vid=a9d56fa8-9aa6-41c4-b7af-6df95e957368"},"vehicle_type_id":"4","last_reported":1699772841,"current_range_meters":25600,"station_id":"ce4bhq92rcd13ifvqhkg","pricing_plan_id":"free"},{"bike_id":"51e39558-6fce-4d4a-807a-0fa0031da8af","system_id":"levelo_inurba_marseille","lat":43.292571,"lon":5.409107,"is_reserved":false,"is_disabled":false,"rental_uris":{"android":"levelo://app?vid=51e39558-6fce-4d4a-807a-0fa0031da8af","ios":"levelo://app?vid=51e39558-6fce-4d4a-807a-0fa0031da8af"},"vehicle_type_id":"4","last_reported":1699772841,"current_range_meters":28000,"station_id":"ce4bh192rcd13ifvqdc0","pricing_plan_id":"free"},{"bike_id":"48c00647-4111-4a89-8f4b-6cf4b68213f2","system_id":"levelo_inurba_marseille","lat":43.292569,"lon":5.409107,"is_reserved":false,"is_disabled":false,"rental_uris":{"android":"levelo://app?vid=48c00647-4111-4a89-8f4b-6cf4b68213f2","ios":"levelo://app?vid=48c00647-4111-4a89-8f4b-6cf4b68213f2"},"vehicle_type_id":"4","last_reported":1699772841,"current_range_meters":29200,"station_id":"ce4bh192rcd13ifvqdc0","pricing_plan_id":"free"},{"bike_id":"1175369e-2db2-41fb-94dc-5c32f20abd64","system_id":"levelo_inurba_marseille","lat":43.2926,"lon":5.40914,"is_reserved":false,"is_disabled":false,"rental_uris":{"android":"levelo://app?vid=1175369e-2db2-41fb-94dc-5c32f20abd64","ios":"levelo://app?vid=1175369e-2db2-41fb-94dc-5c32f20abd64"},"vehicle_type_id":"4","last_reported":1699772841,"current_range_meters":31200,"station_id":"ce4bh192rcd13ifvqdc0","pricing_plan_id":"free"},{"bike_id":"06b94600-95a5-4ab7-8bc0-a183d84abc7e","system_id":"levelo_inurba_marseille","lat":43.292569,"lon":5.409107,"is_reserved":false,"is_disabled":false,"rental_uris":{"android":"levelo://app?vid=06b94600-95a5-4ab7-8bc0-a183d84abc7e","ios":"levelo://app?vid=06b94600-95a5-4ab7-8bc0-a183d84abc7e"},"vehicle_type_id":"4","last_reported":1699772841,"current_range_meters":31600,"station_id":"ce4bh192rcd13ifvqdc0","pricing_plan_id":"free"},{"bike_id":"e4a19567-06a0-4d1b-98ea-632ee0682def","system_id":"levelo_inurba_marseille","lat":43.276179,"lon":5.361009,"is_reserved":false,"is_disabled":false,"rental_uris":{"android":"levelo://app?vid=e4a19567-06a0-4d1b-98ea-632ee0682def","ios":"levelo://app?vid=e4a19567-06a0-4d1b-98ea-632ee0682def"},"vehicle_type_id":"4","last_reported":1699772841,"current_range_meters":22000,"station_id":"ce4bgj92rcd13ifvqbe0","pricing_plan_id":"free"},{"bike_id":"85e9b556-fd01-44a1-a96b-a6581d302ffa","system_id":"levelo_inurba_marseille","lat":43.325233,"lon":5.414318,"is_reserved":false,"is_disabled":false,"rental_uris":{"android":"levelo://app?vid=85e9b556-fd01-44a1-a96b-a6581d302ffa","ios":"levelo://app?vid=85e9b556-fd01-44a1-a96b-a6581d302ffa"},"vehicle_type_id":"4","last_reported":1699772841,"current_range_meters":30400,"station_id":"ce4bhq12rcd13ifvqhhg","pricing_plan_id":"free"},{"bike_id":"3ba97417-810b-4ddb-bd2d-96fba8f7873c","system_id":"levelo_inurba_marseille","lat":43.27614,"lon":5.3612,"is_reserved":false,"is_disabled":false,"rental_uris":{"android":"levelo://app?vid=3ba97417-810b-4ddb-bd2d-96fba8f7873c","ios":"levelo://app?vid=3ba97417-810b-4ddb-bd2d-96fba8f7873c"},"vehicle_type_id":"4","last_reported":1699772841,"current_range_meters":27600,"station_id":"ce4bgj92rcd13ifvqbe0","pricing_plan_id":"free"},{"bike_id":"9b317e32-ce46-4553-8b47-f8ff080d430a","system_id":"levelo_inurba_marseille","lat":43.27611,"lon":5.361143,"is_reserved":false,"is_disabled":false,"rental_uris":{"android":"levelo://app?vid=9b317e32-ce46-4553-8b47-f8ff080d430a","ios":"levelo://app?vid=9b317e32-ce46-4553-8b47-f8ff080d430a"},"vehicle_type_id":"4","last_reported":1699772841,"current_range_meters":6400,"station_id":"ce4bgj92rcd13ifvqbe0","pricing_plan_id":"free"},{"bike_id":"ff1d36f2-94a1-4cf2-9aa0-202365e5981d","system_id":"levelo_inurba_marseille","lat":43.280784,"lon":5.396622,"is_reserved":false,"is_disabled":false,"rental_uris":{"android":"levelo://app?vid=ff1d36f2-94a1-4cf2-9aa0-202365e5981d","ios":"levelo://app?vid=ff1d36f2-94a1-4cf2-9aa0-202365e5981d"},"vehicle_type_id":"4","last_reported":1699772841,"current_range_meters":31600,"station_id":"ce4bho12rcd13ifvqh2g","pricing_plan_id":"free"},{"bike_id":"9e646433-ac65-43e2-9dad-e9efdc502b21","system_id":"levelo_inurba_marseille","lat":43.303837,"lon":5.418724,"is_reserved":false,"is_disabled":false,"rental_uris":{"android":"levelo://app?vid=9e646433-ac65-43e2-9dad-e9efdc502b21","ios":"levelo://app?vid=9e646433-ac65-43e2-9dad-e9efdc502b21"},"vehicle_type_id":"4","last_reported":1699772841,"current_range_meters":17600,"station_id":"ce4bhop2rcd13ifvqh7g","pricing_plan_id":"free"},{"bike_id":"15c91628-062a-4eb5-ac4b-f4e032f82faa","system_id":"levelo_inurba_marseille","lat":43.278288,"lon":5.392054,"is_reserved":false,"is_disabled":false,"rental_uris":{"android":"levelo://app?vid=15c91628-062a-4eb5-ac4b-f4e032f82faa","ios":"levelo://app?vid=15c91628-062a-4eb5-ac4b-f4e032f82faa"},"vehicle_type_id":"4","last_reported":1699772841,"current_range_meters":22000,"station_id":"ce4bhjp2rcd13ifvqga0","pricing_plan_id":"free"},{"bike_id":"cc611fd9-094b-4b4e-a5e7-61d8177b473a","system_id":"levelo_inurba_marseille","lat":43.273613,"lon":5.362705,"is_reserved":false,"is_disabled":false,"rental_uris":{"android":"levelo://app?vid=cc611fd9-094b-4b4e-a5e7-61d8177b473a","ios":"levelo://app?vid=cc611fd9-094b-4b4e-a5e7-61d8177b473a"},"vehicle_type_id":"4","last_reported":1699772841,"current_range_meters":30400,"station_id":"ce4bhbh2rcd13ifvqeo0","pricing_plan_id":"free"},{"bike_id":"087ae938-5fe8-462b-b10d-05b58d1a973d","system_id":"levelo_inurba_marseille","lat":43.275625,"lon":5.384392,"is_reserved":false,"is_disabled":false,"rental_uris":{"android":"levelo://app?vid=087ae938-5fe8-462b-b10d-05b58d1a973d","ios":"levelo://app?vid=087ae938-5fe8-462b-b10d-05b58d1a973d"},"vehicle_type_id":"4","last_reported":1699772841,"current_range_meters":29600,"station_id":"ce4bhh92rcd13ifvqfi0","pricing_plan_id":"free"},{"bike_id":"74426711-c575-43c1-be92-c3d5c7022cad","system_id":"levelo_inurba_marseille","lat":43.275625,"lon":5.384392,"is_reserved":false,"is_disabled":false,"rental_uris":{"android":"levelo://app?vid=74426711-c575-43c1-be92-c3d5c7022cad","ios":"levelo://app?vid=74426711-c575-43c1-be92-c3d5c7022cad"},"vehicle_type_id":"4","last_reported":1699772841,"current_range_meters":27600,"station_id":"ce4bhh92rcd13ifvqfi0","pricing_plan_id":"free"},{"bike_id":"a9bdb548-b338-43ad-a2a2-3e3fe9cd0e15","system_id":"levelo_inurba_marseille","lat":43.275646,"lon":5.384199,"is_reserved":false,"is_disabled":false,"rental_uris":{"android":"levelo://app?vid=a9bdb548-b338-43ad-a2a2-3e3fe9cd0e15","ios":"levelo://app?vid=a9bdb548-b338-43ad-a2a2-3e3fe9cd0e15"},"vehicle_type_id":"4","last_reported":1699772841,"current_range_meters":3600,"station_id":"ce4bhh92rcd13ifvqfi0","pricing_plan_id":"free"},{"bike_id":"a12eacc9-6ef0-4d00-a12b-649165e5ce92","system_id":"levelo_inurba_marseille","lat":43.33612,"lon":5.410321,"is_reserved":false,"is_disabled":false,"rental_uris":{"android":"levelo://app?vid=a12eacc9-6ef0-4d00-a12b-649165e5ce92","ios":"levelo://app?vid=a12eacc9-6ef0-4d00-a12b-649165e5ce92"},"vehicle_type_id":"4","last_reported":1699772841,"current_range_meters":26800,"station_id":"ce4bhqh2rcd13ifvqhmg","pricing_plan_id":"free"},{"bike_id":"68ffca5c-f92e-4d2b-b812-3edfa190d5ea","system_id":"levelo_inurba_marseille","lat":43.278275,"lon":5.396505,"is_reserved":false,"is_disabled":false,"rental_uris":{"android":"levelo://app?vid=68ffca5c-f92e-4d2b-b812-3edfa190d5ea","ios":"levelo://app?vid=68ffca5c-f92e-4d2b-b812-3edfa190d5ea"},