{"last_updated":1768807237,"ttl":60,"version":"2.2","data":{"bikes":[{"bike_id":"1ec247ef-5ae2-4481-a8f1-83d49de262d8","system_id":"levelo_inurba_marseille","lat":43.255809,"lon":5.38246,"is_reserved":false,"is_disabled":false,"rental_uris":{"android":"levelo://app?vid=1ec247ef-5ae2-4481-a8f1-83d49de262d8","ios":"levelo://app?vid=1ec247ef-5ae2-4481-a8f1-83d49de262d8"},"vehicle_type_id":"4","last_reported":1768807238,"current_range_meters":2800,"station_id":"ce4bhih2rcd13ifvqfs0","pricing_plan_id":"cebpf4jnsgd1na2vs0mg"},{"bike_id":"6116392c-6b86-47a5-bcc7-c95cae236d34","system_id":"levelo_inurba_marseille","lat":43.27807,"lon":5.40704,"is_reserved":false,"is_disabled":false,"rental_uris":{"android":"levelo://app?vid=6116392c-6b86-47a5-bcc7-c95cae236d34","ios":"levelo://app?vid=6116392c-6b86-47a5-bcc7-c95cae236d34"},"vehicle_type_id":"4","last_reported":1768807238,"current_range_meters":2800,"station_id":"ce4bhnh2rcd13ifvqgtg","pricing_plan_id":"cebpf4jnsgd1na2vs0mg"},{"bike_id":"b28a97c3-16e4-4be8-8147-34db1e170408","system_id":"levelo_inurba_marseille","lat":43.28141,"lon":5.42643,"is_reserved":false,"is_disabled":false,"rental_uris":{"android":"levelo://app?vid=b28a97c3-16e4-4be8-8147-34db1e170408","ios":"levelo://app?vid=b28a97c3-16e4-4be8-8147-34db1e170408"},"vehicle_type_id":"4","last_reported":1768807238,"current_range_meters":2800,"station_id":"ce4bhnh2rcd13ifvqgug","pricing_plan_id":"cebpf4jnsgd1na2vs0mg"},{"bike_id":"24f4f6b5-16e1-41d7-a45d-98cc2eeca008","system_id":"levelo_inurba_marseille","lat":43.30622,"lon":5.40127,"is_reserved":false,"is_disabled":true,"rental_uris":{"android":"levelo://app?vid=24f4f6b5-16e1-41d7-a45d-98cc2eeca008","ios":"levelo://app?vid=24f4f6b5-16e1-41d7-a45d-98cc2eeca008"},"vehicle_type_id":"4","last_reported":1768807238,"current_range_meters":2800,"station_id":"ce4bh112rcd13ifvqda0","pricing_plan_id":"cebpf4jnsgd1na2vs0mg"},{"bike_id":"2d060480-4076-4ee0-b2c8-9a6123da7b4a","system_id":"levelo_inurba_marseille","lat":43.30485,"lon":5.37901,"is_reserved":false,"is_disabled":false,"rental_uris":{"android":"levelo://app?vid=2d060480-4076-4ee0-b2c8-9a6123da7b4a","ios":"levelo://app?vid=2d060480-4076-4ee0-b2c8-9a6123da7b4a"},"vehicle_type_id":"4","last_reported":1768807238,"current_range_meters":2800,"station_id":"ce4bgup2rcd13ifvqcn0","pricing_plan_id":"cebpf4jnsgd1na2vs0mg"},{"bike_id":"bf443dfe-f19a-49ca-ab0a-ace202cd3776","system_id":"levelo_inurba_marseille","lat":43.301384,"lon":5.374265,"is_reserved":false,"is_disabled":false,"rental_uris":{"android":"levelo://app?vid=bf443dfe-f19a-49ca-ab0a-ace202cd3776","ios":"levelo://app?vid=bf443dfe-f19a-49ca-ab0a-ace202cd3776"},"vehicle_type_id":"4","last_reported":1768807238,"current_range_meters":2800,"station_id":"ce4bgs92rcd13ifvqcc0","pricing_plan_id":"cebpf4jnsgd1na2vs0mg"},{"bike_id":"d75d6a8b-66aa-4deb-820e-ef260a5410b0","system_id":"levelo_inurba_marseille","lat":43.23171,"lon":5.40002,"is_reserved":false,"is_disabled":false,"rental_uris":{"android":"levelo://app?vid=d75d6a8b-66aa-4deb-820e-ef260a5410b0","ios":"levelo://app?vid=d75d6a8b-66aa-4deb-820e-ef260a5410b0"},"vehicle_type_id":"4","last_reported":1768807238,"current_range_meters":2800,"station_id":"ce4bhn12rcd13ifvqgqg","pricing_plan_id":"cebpf4jnsgd1na2vs0mg"},{"bike_id":"bcb6fd23-eb51-4278-a994-eb47185edae8","system_id":"levelo_inurba_marseille","lat":43.29602,"lon":5.37888,"is_reserved":false,"is_disabled":false,"rental_uris":{"android":"levelo://app?vid=bcb6fd23-eb51-4278-a994-eb47185edae8","ios":"levelo://app?vid=bcb6fd23-eb51-4278-a994-eb47185edae8"},"vehicle_type_id":"4","last_reported":1768807238,"current_range_meters":2800,"station_id":"","pricing_plan_id":"cebpf4jnsgd1na2vs0mg"},{"bike_id":"86a72b00-2bcd-490d-9cb1-515e8f72de07","system_id":"levelo_inurba_marseille","lat":43.253414,"lon":5.421658,"is_reserved":false,"is_disabled":false,"rental_uris":{"android":"levelo://app?vid=86a72b00-2bcd-490d-9cb1-515e8f72de07","ios":"levelo://app?vid=86a72b00-2bcd-490d-9cb1-515e8f72de07"},"vehicle_type_id":"4","last_reported":1768807238,"current_range_meters":2800,"station_id":"st_d2m65c5bi1j21697t3ng","pricing_plan_id":"cebpf4jnsgd1na2vs0mg"},{"bike_id":"bd6b7033-d838-49d2-9f9e-c7224fde7095","system_id":"levelo_inurba_marseille","lat":43.24676,"lon":5.38157,"is_reserved":false,"is_disabled":false,"rental_uris":{"android":"levelo://app?vid=bd6b7033-d838-49d2-9f9e-c7224fde7095","ios":"levelo://app?vid=bd6b7033-d838-49d2-9f9e-c7224fde7095"},"vehicle_type_id":"4","last_reported":1768807238,"current_range_meters":2800,"station_id":"ce4bhih2rcd13ifvqfr0","pricing_plan_id":"cebpf4jnsgd1na2vs0mg"},{"bike_id":"3edcb619-e140-4ca7-af08-f551c6a288f3","system_id":"levelo_inurba_marseille","lat":43.28508,"lon":5.48367,"is_reserved":false,"is_disabled":false,"rental_uris":{"android":"levelo://app?vid=3edcb619-e140-4ca7-af08-f551c6a288f3","ios":"levelo://app?vid=3edcb619-e140-4ca7-af08-f551c6a288f3"},"vehicle_type_id":"4","last_reported":1768807238,"current_range_meters":3200,"station_id":"","pricing_plan_id":"cebpf4jnsgd1na2vs0mg"},{"bike_id":"d311ffc7-6d26-41ec-96e5-fc35ec52cdc7","system_id":"levelo_inurba_marseille","lat":43.32352,"lon":5.36725,"is_reserved":false,"is_disabled":false,"rental_uris":{"android":"levelo://app?vid=d311ffc7-6d26-41ec-96e5-fc35ec52cdc7","ios":"levelo://app?vid=d311ffc7-6d26-41ec-96e5-fc35ec52cdc7"},"vehicle_type_id":"4","last_reported":1768807238,"current_range_meters":3200,"station_id":"ce4bhsh2rcd13ifvqi2g","pricing_plan_id":"cebpf4jnsgd1na2vs0mg"},{"bike_id":"7eded3b1-4745-4b4d-b80d-d88da3addd51","system_id":"levelo_inurba_marseille","lat":43.27615,"lon":5.36119,"is_reserved":false,"is_disabled":false,"rental_uris":{"android":"levelo://app?vid=7eded3b1-4745-4b4d-b80d-d88da3addd51","ios":"levelo://app?vid=7eded3b1-4745-4b4d-b80d-d88da3addd51"},"vehicle_type_id":"4","last_reported":1768807238,"current_range_meters":3200,"station_id":"ce4bgj92rcd13ifvqbe0","pricing_plan_id":"cebpf4jnsgd1na2vs0mg"},{"bike_id":"d0b29b07-5102-4e6f-97b9-23723e4c0614","system_id":"levelo_inurba_marseille","lat":43.284805,"lon":5.483929,"is_reserved":false,"is_disabled":false,"rental_uris":{"android":"levelo://app?vid=d0b29b07-5102-4e6f-97b9-23723e4c0614","ios":"levelo://app?vid=d0b29b07-5102-4e6f-97b9-23723e4c0614"},"vehicle_type_id":"4","last_reported":1768807238,"current_range_meters":3200,"station_id":"","pricing_plan_id":"cebpf4jnsgd1na2vs0mg"},{"bike_id":"dcdc45fb-a6f8-4920-809f-953ac5f2957b","system_id":"levelo_inurba_marseille","lat":43.26529,"lon":5.39007,"is_reserved":false,"is_disabled":false,"rental_uris":{"android":"levelo://app?vid=dcdc45fb-a6f8-4920-809f-953ac5f2957b","ios":"levelo://app?vid=dcdc45fb-a6f8-4920-809f-953ac5f2957b"},"vehicle_type_id":"4","last_reported":1768807238,"current_range_meters":3200,"station_id":"ce4bhe12rcd13ifvqf30","pricing_plan_id":"cebpf4jnsgd1na2vs0mg"},{"bike_id":"562feb0e-e7fa-4040-9a58-524311c899ba","system_id":"levelo_inurba_marseille","lat":43.29184,"lon":5.35826,"is_reserved":false,"is_disabled":true,"rental_uris":{"android":"levelo://app?vid=562feb0e-e7fa-4040-9a58-524311c899ba","ios":"levelo://app?vid=562feb0e-e7fa-4040-9a58-524311c899ba"},"vehicle_type_id":"4","last_reported":1768807238,"current_range_meters":3600,"station_id":"ce4bhb12rcd13ifvqel0","pricing_plan_id":"cebpf4jnsgd1na2vs0mg"},{"bike_id":"6e6668ca-b731-4a0f-96be-569ad39a25a1","system_id":"levelo_inurba_marseille","lat":43.23152,"lon":5.43723,"is_reserved":false,"is_disabled":false,"rental_uris":{"android":"levelo://app?vid=6e6668ca-b731-4a0f-96be-569ad39a25a1","ios":"levelo://app?vid=6e6668ca-b731-4a0f-96be-569ad39a25a1"},"vehicle_type_id":"4","last_reported":1768807238,"current_range_meters":3600,"station_id":"ce4bhmp2rcd13ifvqgog","pricing_plan_id":"cebpf4jnsgd1na2vs0mg"},{"bike_id":"3fcd7be5-9e86-4360-8db1-236a81bdedf0","system_id":"levelo_inurba_marseille","lat":43.26024,"lon":5.39688,"is_reserved":false,"is_disabled":false,"rental_uris":{"android":"levelo://app?vid=3fcd7be5-9e86-4360-8db1-236a81bdedf0","ios":"levelo://app?vid=3fcd7be5-9e86-4360-8db1-236a81bdedf0"},"vehicle_type_id":"4","last_reported":1768807238,"current_range_meters":3600,"station_id":"","pricing_plan_id":"cebpf4jnsgd1na2vs0mg"},{"bike_id":"facd135e-5d16-41e6-9df2-8346db37bc1b","system_id":"levelo_inurba_marseille","lat":43.26951,"lon":5.38651,"is_reserved":false,"is_disabled":false,"rental_uris":{"android":"levelo://app?vid=facd135e-5d16-41e6-9df2-8346db37bc1b","ios":"levelo://app?vid=facd135e-5d16-41e6-9df2-8346db37bc1b"},"vehicle_type_id":"4","last_reported":1768807238,"current_range_meters":3600,"station_id":"ce4bhh92rcd13ifvqfh0","pricing_plan_id":"cebpf4jnsgd1na2vs0mg"},{"bike_id":"0097fcec-3ef8-4a54-a633-d601d851c5c2","system_id":"levelo_inurba_marseille","lat":43.24945,"lon":5.40498,"is_reserved":false,"is_disabled":false,"rental_uris":{"android":"levelo://app?vid=0097fcec-3ef8-4a54-a633-d601d851c5c2","ios":"levelo://app?vid=0097fcec-3ef8-4a54-a633-d601d851c5c2"},"vehicle_type_id":"4","last_reported":1768807238,"current_range_meters":3600,"station_id":"st_d2ngiaodas8pm72gd1h0","pricing_plan_id":"cebpf4jnsgd1na2vs0mg"},{"bike_id":"ee944490-322d-4e82-9fc0-1f3cfa45072a","system_id":"levelo_inurba_marseille","lat":43.28864,"lon":5.42523,"is_reserved":false,"is_disabled":false,"rental_uris":{"android":"levelo://app?vid=ee944490-322d-4e82-9fc0-1f3cfa45072a","ios":"levelo://app?vid=ee944490-322d-4e82-9fc0-1f3cfa45072a"},"vehicle_type_id":"4","last_reported":1768807238,"current_range_meters":3600,"station_id":"st_d3b462108ojc7389ooeg","pricing_plan_id":"cebpf4jnsgd1na2vs0mg"},{"bike_id":"724da048-f937-4446-a0b2-3f881c76c59a","system_id":"levelo_inurba_marseille","lat":43.28152,"lon":5.42634,"is_reserved":false,"is_disabled":false,"rental_uris":{"android":"levelo://app?vid=724da048-f937-4446-a0b2-3f881c76c59a","ios":"levelo://app?vid=724da048-f937-4446-a0b2-3f881c76c59a"},"vehicle_type_id":"4","last_reported":1768807238,"current_range_meters":4000,"station_id":"ce4bhnh2rcd13ifvqgug","pricing_plan_id":"cebpf4jnsgd1na2vs0mg"},{"bike_id":"f9650e24-8048-44b3-9275-13d881c210a3","system_id":"levelo_inurba_marseille","lat":43.30288,"lon":5.37702,"is_reserved":false,"is_disabled":false,"rental_uris":{"android":"levelo://app?vid=f9650e24-8048-44b3-9275-13d881c210a3","ios":"levelo://app?vid=f9650e24-8048-44b3-9275-13d881c210a3"},"vehicle_type_id":"4","last_reported":1768807238,"current_range_meters":4000,"station_id":"ce4bguh2rcd13ifvqcj0","pricing_plan_id":"cebpf4jnsgd1na2vs0mg"},{"bike_id":"2e4ee5e8-6d91-467b-8480-688c2671b88d","system_id":"levelo_inurba_marseille","lat":43.27815,"lon":5.4071,"is_reserved":false,"is_disabled":false,"rental_uris":{"android":"levelo://app?vid=2e4ee5e8-6d91-467b-8480-688c2671b88d","ios":"levelo://app?vid=2e4ee5e8-6d91-467b-8480-688c2671b88d"},"vehicle_type_id":"4","last_reported":1768807238,"current_range_meters":4400,"station_id":"ce4bhnh2rcd13ifvqgtg","pricing_plan_id":"cebpf4jnsgd1na2vs0mg"},{"bike_id":"53e0bc5e-52f1-46b1-96cb-8299b2270205","system_id":"levelo_inurba_marseille","lat":43.27966,"lon":5.38673,"is_reserved":false,"is_disabled":false,"rental_uris":{"android":"levelo://app?vid=53e0bc5e-52f1-46b1-96cb-8299b2270205","ios":"levelo://app?vid=53e0bc5e-52f1-46b1-96cb-8299b2270205"},"vehicle_type_id":"4","last_reported":1768807238,"current_range_meters":4400,"station_id":"","pricing_plan_id":"cebpf4jnsgd1na2vs0mg"},{"bike_id":"53e3bdc2-3350-4597-b889-679f95ce65f7","system_id":"levelo_inurba_marseille","lat":43.284725,"lon":5.384184,"is_reserved":false,"is_disabled":false,"rental_uris":{"android":"levelo://app?vid=53e3bdc2-3350-4597-b889-679f95ce65f7","ios":"levelo://app?vid=53e3bdc2-3350-4597-b889-679f95ce65f7"},"vehicle_type_id":"4","last_reported":1768807238,"current_range_meters":4400,"station_id":"","pricing_plan_id":"cebpf4jnsgd1na2vs0mg"},{"bike_id":"ff839314-dbe7-407b-b40a-0a369c1d2176","system_id":"levelo_inurba_marseille","lat":43.29243,"lon":5.38456,"is_reserved":false,"is_disabled":false,"rental_uris":{"android":"levelo://app?vid=ff839314-dbe7-407b-b40a-0a369c1d2176","ios":"levelo://app?vid=ff839314-dbe7-407b-b40a-0a369c1d2176"},"vehicle_type_id":"4","last_reported":1768807238,"current_range_meters":4400,"station_id":"ce4bh692rcd13ifvqea0","pricing_plan_id":"cebpf4jnsgd1na2vs0mg"},{"bike_id":"24160edd-d39f-4289-876a-e9144f93a2c6","system_id":"levelo_inurba_marseille","lat":43.32341,"lon":5.36736,"is_reserved":false,"is_disabled":false,"rental_uris":{"android":"levelo://app?vid=24160edd-d39f-4289-876a-e9144f93a2c6","ios":"levelo://app?vid=24160edd-d39f-4289-876a-e9144f93a2c6"},"vehicle_type_id":"4","last_reported":1768807238,"current_range_meters":4400,"station_id":"ce4bhsh2rcd13ifvqi2g","pricing_plan_id":"cebpf4jnsgd1na2vs0mg"},{"bike_id":"6355e7aa-a5cc-4172-b776-1eb210d2dfc4","system_id":"levelo_inurba_marseille","lat":43.31231,"lon":5.36851,"is_reserved":false,"is_disabled":false,"rental_uris":{"android":"levelo://app?vid=6355e7aa-a5cc-4172-b776-1eb210d2dfc4","ios":"levelo://app?vid=6355e7aa-a5cc-4172-b776-1eb210d2dfc4"},"vehicle_type_id":"4","last_reported":1768807238,"current_range_meters":4400,"station_id":"ce4bgl92rcd13ifvqbq0","pricing_plan_id":"cebpf4jnsgd1na2vs0mg"},{"bike_id":"6f14ae8d-8959-4661-a35e-ffbf6c793c91","system_id":"levelo_inurba_marseille","lat":43.24395,"lon":5.37075,"is_reserved":false,"is_disabled":false,"rental_uris":{"android":"levelo://app?vid=6f14ae8d-8959-4661-a35e-ffbf6c793c91","ios":"levelo://app?vid=6f14ae8d-8959-4661-a35e-ffbf6c793c91"},"vehicle_type_id":"4","last_reported":1768807238,"current_range_meters":4400,"station_id":"ce4bhhh2rcd13ifvqfk0","pricing_plan_id":"cebpf4jnsgd1na2vs0mg"},{"bike_id":"c6b7d41c-17d5-4d4d-98f7-04f5d62108df","system_id":"levelo_inurba_marseille","lat":43.225563,"lon":5.416261,"is_reserved":false,"is_disabled":true,"rental_uris":{"android":"levelo://app?vid=c6b7d41c-17d5-4d4d-98f7-04f5d62108df","ios":"levelo://app?vid=c6b7d41c-17d5-4d4d-98f7-04f5d62108df"},"vehicle_type_id":"4","last_reported":1768807238,"current_range_meters":4400,"station_id":"st_d2o4gvlbi1j2169b742g","pricing_plan_id":"cebpf4jnsgd1na2vs0mg"},{"bike_id":"e6930391-011a-4703-b893-52cbf2211c23","system_id":"levelo_inurba_marseille","lat":43.27495,"lon":5.424509,"is_reserved":false,"is_disabled":false,"rental_uris":{"android":"levelo://app?vid=e6930391-011a-4703-b893-52cbf2211c23","ios":"levelo://app?vid=e6930391-011a-4703-b893-52cbf2211c23"},"vehicle_type_id":"4","last_reported":1768807238,"current_range_meters":4400,"station_id":"ce4bhn92rcd13ifvqgrg","pricing_plan_id":"cebpf4jnsgd1na2vs0mg"},{"bike_id":"5845b659-1597-4bd4-93db-e8640e3da170","system_id":"levelo_inurba_marseille","lat":43.23183,"lon":5.39986,"is_reserved":false,"is_disabled":false,"rental_uris":{"android":"levelo://app?vid=5845b659-1597-4bd4-93db-e8640e3da170","ios":"levelo://app?vid=5845b659-1597-4bd4-93db-e8640e3da170"},"vehicle_type_id":"4","last_reported":1768807238,"current_range_meters":4800,"station_id":"ce4bhn12rcd13ifvqgqg","pricing_plan_id":"cebpf4jnsgd1na2vs0mg"},{"bike_id":"0105de79-43a8-4de9-af65-6d3d110a6400","system_id":"levelo_inurba_marseille","lat":43.2415,"lon":5.39722,"is_reserved":false,"is_disabled":false,"rental_uris":{"android":"levelo://app?vid=0105de79-43a8-4de9-af65-6d3d110a6400","ios":"levelo://app?vid=0105de79-43a8-4de9-af65-6d3d110a6400"},"vehicle_type_id":"4","last_reported":1768807238,"current_range_meters":4800,"station_id":"ce4bhn12rcd13ifvqgpg","pricing_plan_id":"cebpf4jnsgd1na2vs0mg"},{"bike_id":"c55653aa-3b40-49b8-ab2e-4981db381d01","system_id":"levelo_inurba_marseille","lat":43.27994,"lon":5.41657,"is_reserved":false,"is_disabled":false,"rental_uris":{"android":"levelo://app?vid=c55653aa-3b40-49b8-ab2e-4981db381d01","ios":"levelo://app?vid=c55653aa-3b40-49b8-ab2e-4981db381d01"},"vehicle_type_id":"4","last_reported":1768807238,"current_range_meters":4800,"station_id":"ce4bho12rcd13ifvqh1g","pricing_plan_id":"cebpf4jnsgd1na2vs0mg"},{"bike_id":"266e48ea-908e-4dc8-855a-c7fc287a6fac","system_id":"levelo_inurba_marseille","lat":43.3027,"lon":5.37719,"is_reserved":false,"is_disabled":false,"rental_uris":{"android":"levelo://app?vid=266e48ea-908e-4dc8-855a-c7fc287a6fac","ios":"levelo://app?vid=266e48ea-908e-4dc8-855a-c7fc287a6fac"},"vehicle_type_id":"4","last_reported":1768807238,"current_range_meters":4800,"station_id":"ce4bguh2rcd13ifvqcj0","pricing_plan_id":"cebpf4jnsgd1na2vs0mg"},{"bike_id":"0d22e0b2-9835-4954-ace9-28bb1fa65f28","system_id":"levelo_inurba_marseille","lat":43.2622,"lon":5.40449,"is_reserved":false,"is_disabled":false,"rental_uris":{"android":"levelo://app?vid=0d22e0b2-9835-4954-ace9-28bb1fa65f28","ios":"levelo://app?vid=0d22e0b2-9835-4954-ace9-28bb1fa65f28"},"vehicle_type_id":"4","last_reported":1768807238,"current_range_meters":4800,"station_id":"ce4bhmh2rcd13ifvqgmg","pricing_plan_id":"cebpf4jnsgd1na2vs0mg"},{"bike_id":"02bf7a4c-8844-41f4-9ad9-8ab41f7538c4","system_id":"levelo_inurba_marseille","lat":43.30954,"lon":5.39026,"is_reserved":false,"is_disabled":true,"rental_uris":{"android":"levelo://app?vid=02bf7a4c-8844-41f4-9ad9-8ab41f7538c4","ios":"levelo://app?vid=02bf7a4c-8844-41f4-9ad9-8ab41f7538c4"},"vehicle_type_id":"4","last_reported":1768807238,"current_range_meters":4800,"station_id":"ce4bgup2rcd13ifvqco0","pricing_plan_id":"cebpf4jnsgd1na2vs0mg"},{"bike_id":"3e2432c6-9eec-4860-ba04-28dbee8a3fe6","system_id":"levelo_inurba_marseille","lat":43.274798,"lon":5.424502,"is_reserved":false,"is_disabled":false,"rental_uris":{"android":"levelo://app?vid=3e2432c6-9eec-4860-ba04-28dbee8a3fe6","ios":"levelo://app?vid=3e2432c6-9eec-4860-ba04-28dbee8a3fe6"},"vehicle_type_id":"4","last_reported":1768807238,"current_range_meters":4800,"station_id":"ce4bhn92rcd13ifvqgrg","pricing_plan_id":"cebpf4jnsgd1na2vs0mg"},{"bike_id":"7ed2335c-3cab-4623-bd6e-78e04818d501","system_id":"levelo_inurba_marseille","lat":43.29605,"lon":5.38106,"is_reserved":false,"is_disabled":false,"rental_uris":{"android":"levelo://app?vid=7ed2335c-3cab-4623-bd6e-78e04818d501","ios":"levelo://app?vid=7ed2335c-3cab-4623-bd6e-78e04818d501"},"vehicle_type_id":"4","last_reported":1768807238,"current_range_meters":4800,"station_id":"ce4bgl12rcd13ifvqbo0","pricing_plan_id":"cebpf4jnsgd1na2vs0mg"},{"bike_id":"12048038-0e60-4261-a543-9a31dab12442","system_id":"levelo_inurba_marseille","lat":43.25571,"lon":5.38237,"is_reserved":false,"is_disabled":false,"rental_uris":{"android":"levelo://app?vid=12048038-0e60-4261-a543-9a31dab12442","ios":"levelo://app?vid=12048038-0e60-4261-a543-9a31dab12442"},"vehicle_type_id":"4","last_reported":1768807238,"current_range_meters":4800,"station_id":"ce4bhih2rcd13ifvqfs0","pricing_plan_id":"cebpf4jnsgd1na2vs0mg"},{"bike_id":"2091c1b3-0a43-4c1c-a608-8d3f80cb3d25","system_id":"levelo_inurba_marseille","lat":43.27567,"lon":5.38416,"is_reserved":false,"is_disabled":false,"rental_uris":{"android":"levelo://app?vid=2091c1b3-0a43-4c1c-a608-8d3f80cb3d25","ios":"levelo://app?vid=2091c1b3-0a43-4c1c-a608-8d3f80cb3d25"},"vehicle_type_id":"4","last_reported":1768807238,"current_range_meters":4800,"station_id":"ce4bhh92rcd13ifvqfi0","pricing_plan_id":"cebpf4jnsgd1na2vs0mg"},{"bike_id":"ffca010b-03ed-4be6-931c-938494bc3dcd","system_id":"levelo_inurba_marseille","lat":43.28869,"lon":5.42516,"is_reserved":false,"is_disabled":false,"rental_uris":{"android":"levelo://app?vid=ffca010b-03ed-4be6-931c-938494bc3dcd","ios":"levelo://app?vid=ffca010b-03ed-4be6-931c-938494bc3dcd"},"vehicle_type_id":"4","last_reported":1768807238,"current_range_meters":4800,"station_id":"st_d3b462108ojc7389ooeg","pricing_plan_id":"cebpf4jnsgd1na2vs0mg"},{"bike_id":"4b9a361f-4864-477a-8210-ddf8cba2ef8f","system_id":"levelo_inurba_marseille","lat":43.301536,"lon":5.380854,"is_reserved":false,"is_disabled":false,"rental_uris":{"android":"levelo://app?vid=4b9a361f-4864-477a-8210-ddf8cba2ef8f","ios":"levelo://app?vid=4b9a361f-4864-477a-8210-ddf8cba2ef8f"},"vehicle_type_id":"4","last_reported":1768807238,"current_range_meters":4800,"station_id":"ce4bgjp2rcd13ifvqbh0","pricing_plan_id":"cebpf4jnsgd1na2vs0mg"},{"bike_id":"2b38c1fe-7b40-40b3-a3f9-5013de1a9ac2","system_id":"levelo_inurba_marseille","lat":43.26194,"lon":5.37443,"is_reserved":false,"is_disabled":false,"rental_uris":{"android":"levelo://app?vid=2b38c1fe-7b40-40b3-a3f9-5013de1a9ac2","ios":"levelo://app?vid=2b38c1fe-7b40-40b3-a3f9-5013de1a9ac2"},"vehicle_type_id":"4","last_reported":1768807238,"current_range_meters":5600,"station_id":"ce4bhgp2rcd13ifvqfc0","pricing_plan_id":"cebpf4jnsgd1na2vs0mg"},{"bike_id":"d2e09b08-74a4-4d06-8ec0-688eef749fe6","system_id":"levelo_inurba_marseille","lat":43.31212,"lon":5.36881,"is_reserved":false,"is_disabled":false,"rental_uris":{"android":"levelo://app?vid=d2e09b08-74a4-4d06-8ec0-688eef749fe6","ios":"levelo://app?vid=d2e09b08-74a4-4d06-8ec0-688eef749fe6"},"vehicle_type_id":"4","last_reported":1768807238,"current_range_meters":5600,"station_id":"ce4bgl92rcd13ifvqbq0","pricing_plan_id":"cebpf4jnsgd1na2vs0mg"},{"bike_id":"ec747ca0-b9d7-4e7b-989b-4594dccafe2b","system_id":"levelo_inurba_marseille","lat":43.31879,"lon":5.40734,"is_reserved":false,"is_disabled":false,"rental_uris":{"android":"levelo://app?vid=ec747ca0-b9d7-4e7b-989b-4594dccafe2b","ios":"levelo://app?vid=ec747ca0-b9d7-4e7b-989b-4594dccafe2b"},"vehicle_type_id":"4","last_reported":1768807238,"current_range_meters":5600,"station_id":"ce4bhq12rcd13ifvqhig","pricing_plan_id":"cebpf4jnsgd1na2vs0mg"},{"bike_id":"ec84f853-3c1e-432f-84f1-c7932f803205","system_id":"levelo_inurba_marseille","lat":43.2447,"lon":5.42528,"is_reserved":false,"is_disabled":false,"rental_uris":{"android":"levelo://app?vid=ec84f853-3c1e-432f-84f1-c7932f803205","ios":"levelo://app?vid=ec84f853-3c1e-432f-84f1-c7932f803205"},"vehicle_type_id":"4","last_reported":1768807238,"current_range_meters":5600,"station_id":"st_d4a3vfp97mjs738cd8kg","pricing_plan_id":"cebpf4jnsgd1na2vs0mg"},{"bike_id":"ab74dafd-bdde-4806-9312-7ac8c28f3c12","system_id":"levelo_inurba_marseille","lat":43.28859,"lon":5.42517,"is_reserved":false,"is_disabled":false,"rental_uris":{"android":"levelo://app?vid=ab74dafd-bdde-4806-9312-7ac8c28f3c12","ios":"levelo://app?vid=ab74dafd-bdde-4806-9312-7ac8c28f3c12"},"vehicle_type_id":"4","last_reported":1768807238,"current_range_meters":5600,"station_id":"st_d3b462108ojc7389ooeg","pricing_plan_id":"cebpf4jnsgd1na2vs0mg"},{"bike_id":"f105a622-1eec-4225-9e46-e84e6e6b6073","system_id":"levelo_inurba_marseille","lat":43.24806,"lon":5.37484,"is_reserved":false,"is_disabled":false,"rental_uris":{"android":"levelo://app?vid=f105a622-1eec-4225-9e46-e84e6e6b6073","ios":"levelo://app?vid=f105a622-1eec-4225-9e46-e84e6e6b6073"},"vehicle_type_id":"4","last_reported":1768807238,"current_range_meters":5600,"station_id":"ce4bhgh2rcd13ifvqfb0","pricing_plan_id":"cebpf4jnsgd1na2vs0mg"},{"bike_id":"80dd23a5-0dde-4636-a849-634c5c6760f9","system_id":"levelo_inurba_marseille","lat":43.240727,"lon":5.377545,"is_reserved":false,"is_disabled":false,"rental_uris":{"android":"levelo://app?vid=80dd23a5-0dde-4636-a849-634c5c6760f9","ios":"levelo://app?vid=80dd23a5-0dde-4636-a849-634c5c6760f9"},"vehicle_type_id":"4","last_reported":1768807238,"current_range_meters":5600,"station_id":"ce4bhnp2rcd13ifvqgvg","pricing_plan_id":"cebpf4jnsgd1na2vs0mg"},{"bike_id":"86a73c35-d3bb-4224-a5a0-4632402e0290","system_id":"levelo_inurba_marseille","lat":43.30912,"lon":5.36841,"is_reserved":false,"is_disabled":false,"rental_uris":{"android":"levelo://app?vid=86a73c35-d3bb-4224-a5a0-4632402e0290","ios":"levelo://app?vid=86a73c35-d3bb-4224-a5a0-4632402e0290"},"vehicle_type_id":"4","last_reported":1768807238,"current_range_meters":5600,"station_id":"ce4bgn92rcd13ifvqbvg","pricing_plan_id":"cebpf4jnsgd1na2vs0mg"},{"bike_id":"da3c4aca-37e7-4c63-a18e-04f09b3ed01f","system_id":"levelo_inurba_marseille","lat":43.27943,"lon":5.41049,"is_reserved":false,"is_disabled":false,"rental_uris":{"android":"levelo://app?vid=da3c4aca-37e7-4c63-a18e-04f09b3ed01f","ios":"levelo://app?vid=da3c4aca-37e7-4c63-a18e-04f09b3ed01f"},"vehicle_type_id":"4","last_reported":1768807238,"current_range_meters":5600,"station_id":"","pricing_plan_id":"cebpf4jnsgd1na2vs0mg"},{"bike_id":"f85f4c33-1265-4e47-befa-9150dd174599","system_id":"levelo_inurba_marseille","lat":43.30279,"lon":5.377,"is_reserved":false,"is_disabled":false,"rental_uris":{"android":"levelo://app?vid=f85f4c33-1265-4e47-befa-9150dd174599","ios":"levelo://app?vid=f85f4c33-1265-4e47-befa-9150dd174599"},"vehicle_type_id":"4","last_reported":1768807238,"current_range_meters":5600,"station_id":"ce4bguh2rcd13ifvqcj0","pricing_plan_id":"cebpf4jnsgd1na2vs0mg"},{"bike_id":"0865f93e-fc5d-48f3-91dd-84e0bc3b8386","system_id":"levelo_inurba_marseille","lat":43.28718,"lon":5.37937,"is_reserved":false,"is_disabled":false,"rental_uris":{"android":"levelo://app?vid=0865f93e-fc5d-48f3-91dd-84e0bc3b8386","ios":"levelo://app?vid=0865f93e-fc5d-48f3-91dd-84e0bc3b8386"},"vehicle_type_id":"4","last_reported":1768807238,"current_range_meters":5600,"station_id":"ce4bh9p2rcd13ifvqec0","pricing_plan_id":"cebpf4jnsgd1na2vs0mg"},{"bike_id":"4a28a0a5-92a3-4f41-871e-f75bf8fb68f3","system_id":"levelo_inurba_marseille","lat":43.30386,"lon":5.40974,"is_reserved":false,"is_disabled":false,"rental_uris":{"android":"levelo://app?vid=4a28a0a5-92a3-4f41-871e-f75bf8fb68f3","ios":"levelo://app?vid=4a28a0a5-92a3-4f41-871e-f75bf8fb68f3"},"vehicle_type_id":"4","last_reported":1768807238,"current_range_meters":5600,"station_id":"","pricing_plan_id":"cebpf4jnsgd1na2vs0mg"},{"bike_id":"5cafc65a-336d-461b-9c9b-24020b0d2e9d","system_id":"levelo_inurba_marseille","lat":43.335353,"lon":5.37454,"is_reserved":false,"is_disabled":false,"rental_uris":{"android":"levelo://app?vid=5cafc65a-336d-461b-9c9b-24020b0d2e9d","ios":"levelo://app?vid=5cafc65a-336d-461b-9c9b-24020b0d2e9d"},"vehicle_type_id":"4","last_reported":1768807238,"current_range_meters":5600,"station_id":"st_d46tts09ee8s73dlu43g","pricing_plan_id":"cebpf4jnsgd1na2vs0mg"},{"bike_id":"e67e42fe-b68e-4d43-9d57-582dc6eaf5d9","system_id":"levelo_inurba_marseille","lat":43.25549,"lon":5.38242,"is_reserved":false,"is_disabled":false,"rental_uris":{"android":"levelo://app?vid=e67e42fe-b68e-4d43-9d57-582dc6eaf5d9","ios":"levelo://app?vid=e67e42fe-b68e-4d43-9d57-582dc6eaf5d9"},"vehicle_type_id":"4","last_reported":1768807238,"current_range_meters":6000,"station_id":"ce4bhih2rcd13ifvqfs0","pricing_plan_id":"cebpf4jnsgd1na2vs0mg"},{"bike_id":"405bacf0-7d07-4ec7-aad7-72e1c5147c0f","system_id":"levelo_inurba_marseille","lat":43.30147,"lon":5.37434,"is_reserved":false,"is_disabled":false,"rental_uris":{"android":"levelo://app?vid=405bacf0-7d07-4ec7-aad7-72e1c5147c0f","ios":"levelo://app?vid=405bacf0-7d07-4ec7-aad7-72e1c5147c0f"},"vehicle_type_id":"4","last_reported":1768807238,"current_range_meters":6000,"station_id":"ce4bgs92rcd13ifvqcc0","pricing_plan_id":"cebpf4jnsgd1na2vs0mg"},{"bike_id":"52d76d5a-c8fd-4dbd-b507-0ab60f5b55ae","system_id":"levelo_inurba_marseille","lat":43.25539,"lon":5.43232,"is_reserved":false,"is_disabled":false,"rental_uris":{"android":"levelo://app?vid=52d76d5a-c8fd-4dbd-b507-0ab60f5b55ae","ios":"levelo://app?vid=52d76d5a-c8fd-4dbd-b507-0ab60f5b55ae"},"vehicle_type_id":"4","last_reported":1768807238,"current_range_meters":6000,"station_id":"","pricing_plan_id":"cebpf4jnsgd1na2vs0mg"},{"bike_id":"5cccdad3-57e0-40c4-bb97-5effe42d761a","system_id":"levelo_inurba_marseille","lat":43.24814,"lon":5.37462,"is_reserved":false,"is_disabled":false,"rental_uris":{"android":"levelo://app?vid=5cccdad3-57e0-40c4-bb97-5effe42d761a","ios":"levelo://app?vid=5cccdad3-57e0-40c4-bb97-5effe42d761a"},"vehicle_type_id":"4","last_reported":1768807238,"current_range_meters":6000,"station_id":"ce4bhgh2rcd13ifvqfb0","pricing_plan_id":"cebpf4jnsgd1na2vs0mg"},{"bike_id":"4471b153-47fa-489c-846a-d53b16f561e8","system_id":"levelo_inurba_marseille","lat":43.26192,"lon":5.37447,"is_reserved":false,"is_disabled":false,"rental_uris":{"android":"levelo://app?vid=4471b153-47fa-489c-846a-d53b16f561e8","ios":"levelo://app?vid=4471b153-47fa-489c-846a-d53b16f561e8"},"vehicle_type_id":"4","last_reported":1768807238,"current_range_meters":6000,"station_id":"ce4bhgp2rcd13ifvqfc0","pricing_plan_id":"cebpf4jnsgd1na2vs0mg"},{"bike_id":"02ab98c5-1cd1-4d33-a034-5f5e1f65b38a","system_id":"levelo_inurba_marseille","lat":43.284824,"lon":5.483931,"is_reserved":false,"is_disabled":false,"rental_uris":{"android":"levelo://app?vid=02ab98c5-1cd1-4d33-a034-5f5e1f65b38a","ios":"levelo://app?vid=02ab98c5-1cd1-4d33-a034-5f5e1f65b38a"},"vehicle_type_id":"4","last_reported":1768807238,"current_range_meters":6000,"station_id":"","pricing_plan_id":"cebpf4jnsgd1na2vs0mg"},{"bike_id":"a7d220a3-384d-46c4-8936-6188e8dec959","system_id":"levelo_inurba_marseille","lat":43.27493,"lon":5.42452,"is_reserved":false,"is_disabled":false,"rental_uris":{"android":"levelo://app?vid=a7d220a3-384d-46c4-8936-6188e8dec959","ios":"levelo://app?vid=a7d220a3-384d-46c4-8936-6188e8dec959"},"vehicle_type_id":"4","last_reported":1768807238,"current_range_meters":6000,"station_id":"ce4bhn92rcd13ifvqgrg","pricing_plan_id":"cebpf4jnsgd1na2vs0mg"},{"bike_id":"9d4e52fe-5fd6-47e1-841a-1b3079f7fe1d","system_id":"levelo_inurba_marseille","lat":43.309,"lon":5.36873,"is_reserved":false,"is_disabled":false,"rental_uris":{"android":"levelo://app?vid=9d4e52fe-5fd6-47e1-841a-1b3079f7fe1d","ios":"levelo://app?vid=9d4e52fe-5fd6-47e1-841a-1b3079f7fe1d"},"vehicle_type_id":"4","last_reported":1768807238,"current_range_meters":6400,"station_id":"ce4bgn92rcd13ifvqbvg","pricing_plan_id":"cebpf4jnsgd1na2vs0mg"},{"bike_id":"5037036f-188b-4c9c-9f7e-772a64c012d7","system_id":"levelo_inurba_marseille","lat":43.24179,"lon":5.3973,"is_reserved":false,"is_disabled":false,"rental_uris":{"android":"levelo://app?vid=5037036f-188b-4c9c-9f7e-772a64c012d7","ios":"levelo://app?vid=5037036f-188b-4c9c-9f7e-772a64c012d7"},"vehicle_type_id":"4","last_reported":1768807238,"current_range_meters":6400,"station_id":"ce4bhn12rcd13ifvqgpg","pricing_plan_id":"cebpf4jnsgd1na2vs0mg"},{"bike_id":"438013c3-0248-4134-a704-438cc438d66c","system_id":"levelo_inurba_marseille","lat":43.24069,"lon":5.37762,"is_reserved":false,"is_disabled":false,"rental_uris":{"android":"levelo://app?vid=438013c3-0248-4134-a704-438cc438d66c","ios":"levelo://app?vid=438013c3-0248-4134-a704-438cc438d66c"},"vehicle_type_id":"4","last_reported":1768807238,"current_range_meters":6400,"station_id":"ce4bhnp2rcd13ifvqgvg","pricing_plan_id":"cebpf4jnsgd1na2vs0mg"},{"bike_id":"f760a7b1-29a2-400f-be88-26a576d0ed33","system_id":"levelo_inurba_marseille","lat":43.22563,"lon":5.41629,"is_reserved":false,"is_disabled":false,"rental_uris":{"android":"levelo://app?vid=f760a7b1-29a2-400f-be88-26a576d0ed33","ios":"levelo://app?vid=f760a7b1-29a2-400f-be88-26a576d0ed33"},"vehicle_type_id":"4","last_reported":1768807238,"current_range_meters":6400,"station_id":"st_d2o4gvlbi1j2169b742g","pricing_plan_id":"cebpf4jnsgd1na2vs0mg"},{"bike_id":"3e1b0ae8-bc2e-47bc-9eec-b1e55fd276e4","system_id":"levelo_inurba_marseille","lat":43.284821,"lon":5.483872,"is_reserved":false,"is_disabled":false,"rental_uris":{"android":"levelo://app?vid=3e1b0ae8-bc2e-47bc-9eec-b1e55fd276e4","ios":"levelo://app?vid=3e1b0ae8-bc2e-47bc-9eec-b1e55fd276e4"},"vehicle_type_id":"4","last_reported":1768807238,"current_range_meters":6400,"station_id":"st_d3svhcjqgbts73a3dn0g","pricing_plan_id":"cebpf4jnsgd1na2vs0mg"},{"bike_id":"997bd131-bc4b-4ed3-be50-234bd23db618","system_id":"levelo_inurba_marseille","lat":43.237826,"lon":5.366271,"is_reserved":false,"is_disabled":false,"rental_uris":{"android":"levelo://app?vid=997bd131-bc4b-4ed3-be50-234bd23db618","ios":"levelo://app?vid=997bd131-bc4b-4ed3-be50-234bd23db618"},"vehicle_type_id":"4","last_reported":1768807238,"current_range_meters":6400,"station_id":"st_d3nk18o9ro0c73en2l3g","pricing_plan_id":"cebpf4jnsgd1na2vs0mg"},{"bike_id":"5b68e1e1-3b58-44f2-bc51-da2bbba3342f","system_id":"levelo_inurba_marseille","lat":43.32535,"lon":5.41423,"is_reserved":false,"is_disabled":false,"rental_uris":{"android":"levelo://app?vid=5b68e1e1-3b58-44f2-bc51-da2bbba3342f","ios":"levelo://app?vid=5b68e1e1-3b58-44f2-bc51-da2bbba3342f"},"vehicle_type_id":"4","last_reported":1768807238,"current_range_meters":6400,"station_id":"ce4bhq12rcd13ifvqhhg","pricing_plan_id":"cebpf4jnsgd1na2vs0mg"},{"bike_id":"d19cfc42-b2b1-43d1-b130-a67d6f4e20e0","system_id":"levelo_inurba_marseille","lat":43.31914,"lon":5.40097,"is_reserved":false,"is_disabled":false,"rental_uris":{"android":"levelo://app?vid=d19cfc42-b2b1-43d1-b130-a67d6f4e20e0","ios":"levelo://app?vid=d19cfc42-b2b1-43d1-b130-a67d6f4e20e0"},"vehicle_type_id":"4","last_reported":1768807238,"current_range_meters":6400,"station_id":"","pricing_plan_id":"cebpf4jnsgd1na2vs0mg"},{"bike_id":"d61d55f2-38b3-47bf-8db3-dd8829f32d8f","system_id":"levelo_inurba_marseille","lat":43.285362,"lon":5.440996,"is_reserved":false,"is_disabled":false,"rental_uris":{"android":"levelo://app?vid=d61d55f2-38b3-47bf-8db3-dd8829f32d8f","ios":"levelo://app?vid=d61d55f2-38b3-47bf-8db3-dd8829f32d8f"},"vehicle_type_id":"4","last_reported":1768807238,"current_range_meters":6400,"station_id":"st_d3j3df2ikq2c7380ej80","pricing_plan_id":"cebpf4jnsgd1na2vs0mg"},{"bike_id":"a54d5df4-8e04-455c-aff5-6470c2bee2e4","system_id":"levelo_inurba_marseille","lat":43.27972,"lon":5.38525,"is_reserved":false,"is_disabled":false,"rental_uris":{"android":"levelo://app?vid=a54d5df4-8e04-455c-aff5-6470c2bee2e4","ios":"levelo://app?vid=a54d5df4-8e04-455c-aff5-6470c2bee2e4"},"vehicle_type_id":"4","last_reported":1768807238,"current_range_meters":6800,"station_id":"","pricing_plan_id":"cebpf4jnsgd1na2vs0mg"},{"bike_id":"e3ab7fbc-a543-4ce6-8bfb-a545434b1568","system_id":"levelo_inurba_marseille","lat":43.28854,"lon":5.42518,"is_reserved":false,"is_disabled":false,"rental_uris":{"android":"levelo://app?vid=e3ab7fbc-a543-4ce6-8bfb-a545434b1568","ios":"levelo://app?vid=e3ab7fbc-a543-4ce6-8bfb-a545434b1568"},"vehicle_type_id":"4","last_reported":1768807238,"current_range_meters":6800,"station_id":"st_d3b462108ojc7389ooeg","pricing_plan_id":"cebpf4jnsgd1na2vs0mg"},{"bike_id":"456fa838-bde1-41a1-bacb-725c5d31c7ed","system_id":"levelo_inurba_marseille","lat":43.27385,"lon":5.362456,"is_reserved":false,"is_disabled":false,"rental_uris":{"android":"levelo://app?vid=456fa838-bde1-41a1-bacb-725c5d31c7ed","ios":"levelo://app?vid=456fa838-bde1-41a1-bacb-725c5d31c7ed"},"vehicle_type_id":"4","last_reported":1768807238,"current_range_meters":6800,"station_id":"ce4bhbh2rcd13ifvqeo0","pricing_plan_id":"cebpf4jnsgd1na2vs0mg"},{"bike_id":"ba07251e-69c5-4418-ace3-7cd844e33077","system_id":"levelo_inurba_marseille","lat":43.27813,"lon":5.40727,"is_reserved":false,"is_disabled":false,"rental_uris":{"android":"levelo://app?vid=ba07251e-69c5-4418-ace3-7cd844e33077","ios":"levelo://app?vid=ba07251e-69c5-4418-ace3-7cd844e33077"},"vehicle_type_id":"4","last_reported":1768807238,"current_range_meters":6800,"station_id":"ce4bhnh2rcd13ifvqgtg","pricing_plan_id":"cebpf4jnsgd1na2vs0mg"},{"bike_id":"3685f9e3-08c8-45d7-ab98-5f889efb34b2","system_id":"levelo_inurba_marseille","lat":43.25876,"lon":5.39911,"is_reserved":false,"is_disabled":false,"rental_uris":{"android":"levelo://app?vid=3685f9e3-08c8-45d7-ab98-5f889efb34b2","ios":"levelo://app?vid=3685f9e3-08c8-45d7-ab98-5f889efb34b2"},"vehicle_type_id":"4","last_reported":1768807238,"current_range_meters":6800,"station_id":"ce4bhl92rcd13ifvqghg","pricing_plan_id":"cebpf4jnsgd1na2vs0mg"},{"bike_id":"825dbe6a-05ff-42c5-b686-988034ec5c97","system_id":"levelo_inurba_marseille","lat":43.27933,"lon":5.41057,"is_reserved":false,"is_disabled":true,"rental_uris":{"android":"levelo://app?vid=825dbe6a-05ff-42c5-b686-988034ec5c97","ios":"levelo://app?vid=825dbe6a-05ff-42c5-b686-988034ec5c97"},"vehicle_type_id":"4","last_reported":1768807238,"current_range_meters":6800,"station_id":"ce4bhnp2rcd13ifvqh0g","pricing_plan_id":"cebpf4jnsgd1na2vs0mg"},{"bike_id":"e0b3d136-4efd-4410-be5e-53b3cc12c4c3","system_id":"levelo_inurba_marseille","lat":43.26051,"lon":5.38654,"is_reserved":false,"is_disabled":false,"rental_uris":{"android":"levelo://app?vid=e0b3d136-4efd-4410-be5e-53b3cc12c4c3","ios":"levelo://app?vid=e0b3d136-4efd-4410-be5e-53b3cc12c4c3"},"vehicle_type_id":"4","last_reported":1768807238,"current_range_meters":6800,"station_id":"","pricing_plan_id":"cebpf4jnsgd1na2vs0mg"},{"bike_id":"72b30b6c-3304-4fc5-ada7-97d560e4947a","system_id":"levelo_inurba_marseille","lat":43.26952,"lon":5.38638,"is_reserved":false,"is_disabled":false,"rental_uris":{"android":"levelo://app?vid=72b30b6c-3304-4fc5-ada7-97d560e4947a","ios":"levelo://app?vid=72b30b6c-3304-4fc5-ada7-97d560e4947a"},"vehicle_type_id":"4","last_reported":1768807238,"current_range_meters":6800,"station_id":"ce4bhh92rcd13ifvqfh0","pricing_plan_id":"cebpf4jnsgd1na2vs0mg"},{"bike_id":"d6a5286c-a8f1-4c48-bd44-cb6cde170fbe","system_id":"levelo_inurba_marseille","lat":43.30106,"lon":5.3907,"is_reserved":false,"is_disabled":true,"rental_uris":{"android":"levelo://app?vid=d6a5286c-a8f1-4c48-bd44-cb6cde170fbe","ios":"levelo://app?vid=d6a5286c-a8f1-4c48-bd44-cb6cde170fbe"},"vehicle_type_id":"4","last_reported":1768807238,"current_range_meters":6800,"station_id":"ce4bh192rcd13ifvqdb0","pricing_plan_id":"cebpf4jnsgd1na2vs0mg"},{"bike_id":"9ea71dd4-557a-49eb-872d-de0717506d64","system_id":"levelo_inurba_marseille","lat":43.23195,"lon":5.35543,"is_reserved":false,"is_disabled":false,"rental_uris":{"android":"levelo://app?vid=9ea71dd4-557a-49eb-872d-de0717506d64","ios":"levelo://app?vid=9ea71dd4-557a-49eb-872d-de0717506d64"},"vehicle_type_id":"4","last_reported":1768807238,"current_range_meters":6800,"station_id":"ce4bhu92rcd13ifvqi70","pricing_plan_id":"cebpf4jnsgd1na2vs0mg"},{"bike_id":"cd88f81b-1cab-4915-876d-fa0f361d7d59","system_id":"levelo_inurba_marseille","lat":43.26932,"lon":5.3891,"is_reserved":false,"is_disabled":false,"rental_uris":{"android":"levelo://app?vid=cd88f81b-1cab-4915-876d-fa0f361d7d59","ios":"levelo://app?vid=cd88f81b-1cab-4915-876d-fa0f361d7d59"},"vehicle_type_id":"4","last_reported":1768807238,"current_range_meters":6800,"station_id":"ce4bhhh2rcd13ifvqfl0","pricing_plan_id":"cebpf4jnsgd1na2vs0mg"},{"bike_id":"99eb7f6e-7d47-4fe7-a5ad-44af0b5818fb","system_id":"levelo_inurba_marseille","lat":43.24086,"lon":5.39708,"is_reserved":false,"is_disabled":false,"rental_uris":{"android":"levelo://app?vid=99eb7f6e-7d47-4fe7-a5ad-44af0b5818fb","ios":"levelo://app?vid=99eb7f6e-7d47-4fe7-a5ad-44af0b5818fb"},"vehicle_type_id":"4","last_reported":1768807238,"current_range_meters":6800,"station_id":"","pricing_plan_id":"cebpf4jnsgd1na2vs0mg"},{"bike_id":"9e956125-d135-4c5b-a672-b787c5ecd852","system_id":"levelo_inurba_marseille","lat":43.24169,"lon":5.39724,"is_reserved":false,"is_disabled":false,"rental_uris":{"android":"levelo://app?vid=9e956125-d135-4c5b-a672-b787c5ecd852","ios":"levelo://app?vid=9e956125-d135-4c5b-a672-b787c5ecd852"},"vehicle_type_id":"4","last_reported":1768807238,"current_range_meters":6800,"station_id":"ce4bhn12rcd13ifvqgpg","pricing_plan_id":"cebpf4jnsgd1na2vs0mg"},{"bike_id":"84d602b3-8943-4780-bcf1-164d29a27b66","system_id":"levelo_inurba_marseille","lat":43.28472,"lon":5.48423,"is_reserved":false,"is_disabled":false,"rental_uris":{"android":"levelo://app?vid=84d602b3-8943-4780-bcf1-164d29a27b66","ios":"levelo://app?vid=84d602b3-8943-4780-bcf1-164d29a27b66"},"vehicle_type_id":"4","last_reported":1768807238,"current_range_meters":6800,"station_id":"","pricing_plan_id":"cebpf4jnsgd1na2vs0mg"},{"bike_id":"1d845d40-bee8-4284-affc-9030247b1e56","system_id":"levelo_inurba_marseille","lat":43.22926,"lon":5.35398,"is_reserved":false,"is_disabled":false,"rental_uris":{"android":"levelo://app?vid=1d845d40-bee8-4284-affc-9030247b1e56","ios":"levelo://app?vid=1d845d40-bee8-4284-affc-9030247b1e56"},"vehicle_type_id":"4","last_reported":1768807238,"current_range_meters":6800,"station_id":"cpo3532slgdg3j2ikp40","pricing_plan_id":"cebpf4jnsgd1na2vs0mg"},{"bike_id":"d6ab83d9-f0e3-4bdf-a1c4-652a184696f5","system_id":"levelo_inurba_marseille","lat":43.22925,"lon":5.35382,"is_reserved":false,"is_disabled":false,"rental_uris":{"android":"levelo://app?vid=d6ab83d9-f0e3-4bdf-a1c4-652a184696f5","ios":"levelo://app?vid=d6ab83d9-f0e3-4bdf-a1c4-652a184696f5"},"vehicle_type_id":"4","last_reported":1768807238,"current_range_meters":6800,"station_id":"cpo3532slgdg3j2ikp40","pricing_plan_id":"cebpf4jnsgd1na2vs0mg"},{"bike_id":"188c635f-31eb-4e45-b29f-e748801ba7a3","system_id":"levelo_inurba_marseille","lat":43.28481,"lon":5.483879,"is_reserved":false,"is_disabled":false,"rental_uris":{"android":"levelo://app?vid=188c635f-31eb-4e45-b29f-e748801ba7a3","ios":"levelo://app?vid=188c635f-31eb-4e45-b29f-e748801ba7a3"},"vehicle_type_id":"4","last_reported":1768807238,"current_range_meters":6800,"station_id":"st_d3svhcjqgbts73a3dn0g","pricing_plan_id":"cebpf4jnsgd1na2vs0mg"},{"bike_id":"4bf53cb5-2317-45c3-a7c2-af03b84cb9b6","system_id":"levelo_inurba_marseille","lat":43.29031,"lon":5.39954,"is_reserved":false,"is_disabled":false,"rental_uris":{"android":"levelo://app?vid=4bf53cb5-2317-45c3-a7c2-af03b84cb9b6","ios":"levelo://app?vid=4bf53cb5-2317-45c3-a7c2-af03b84cb9b6"},"vehicle_type_id":"4","last_reported":1768807238,"current_range_meters":6800,"station_id":"ce4bh392rcd13ifvqdm0","pricing_plan_id":"cebpf4jnsgd1na2vs0mg"},{"bike_id":"fdaffa99-0f84-4230-8947-ab7e8618f38e","system_id":"levelo_inurba_marseille","lat":43.29251,"lon":5.38431,"is_reserved":false,"is_disabled":true,"rental_uris":{"android":"levelo://app?vid=fdaffa99-0f84-4230-8947-ab7e8618f38e","ios":"levelo://app?vid=fdaffa99-0f84-4230-8947-ab7e8618f38e"},"vehicle_type_id":"4","last_reported":1768807238,"current_range_meters":6800,"station_id":"ce4bh692rcd13ifvqea0","pricing_plan_id":"cebpf4jnsgd1na2vs0mg"},{"bike_id":"e5fa7911-c5d0-40ce-84d8-e6ed65676aea","system_id":"levelo_inurba_marseille","lat":43.32721,"lon":5.39239,"is_reserved":false,"is_disabled":false,"rental_uris":{"android":"levelo://app?vid=e5fa7911-c5d0-40ce-84d8-e6ed65676aea","ios":"levelo://app?vid=e5fa7911-c5d0-40ce-84d8-e6ed65676aea"},"vehicle_type_id":"4","last_reported":1768807238,"current_range_meters":7200,"station_id":"","pricing_plan_id":"cebpf4jnsgd1na2vs0mg"},{"bike_id":"edbdf6e9-2547-490c-a2bd-1ef1e295ef67","system_id":"levelo_inurba_marseille","lat":43.27204,"lon":5.39169,"is_reserved":false,"is_disabled":false,"rental_uris":{"android":"levelo://app?vid=edbdf6e9-2547-490c-a2bd-1ef1e295ef67","ios":"levelo://app?vid=edbdf6e9-2547-490c-a2bd-1ef1e295ef67"},"vehicle_type_id":"4","last_reported":1768807238,"current_range_meters":7200,"station_id":"ce4bhhp2rcd13ifvqfm0","pricing_plan_id":"cebpf4jnsgd1na2vs0mg"},{"bike_id":"18dac61a-1dea-47ed-a42c-a887573968cf","system_id":"levelo_inurba_marseille","lat":43.31225,"lon":5.36862,"is_reserved":false,"is_disabled":false,"rental_uris":{"android":"levelo://app?vid=18dac61a-1dea-47ed-a42c-a887573968cf","ios":"levelo://app?vid=18dac61a-1dea-47ed-a42c-a887573968cf"},"vehicle_type_id":"4","last_reported":1768807238,"current_range_meters":7200,"station_id":"ce4bgl92rcd13ifvqbq0","pricing_plan_id":"cebpf4jnsgd1na2vs0mg"},{"bike_id":"0975f492-1758-4813-958c-364296bfbee6","system_id":"levelo_inurba_marseille","lat":43.26071,"lon":5.39387,"is_reserved":false,"is_disabled":false,"rental_uris":{"android":"levelo://app?vid=0975f492-1758-4813-958c-364296bfbee6","ios":"levelo://app?vid=0975f492-1758-4813-958c-364296bfbee6"},"vehicle_type_id":"4","last_reported":1768807238,"current_range_meters":7200,"station_id":"ce4bhh92rcd13ifvqfj0","pricing_plan_id":"cebpf4jnsgd1na2vs0mg"},{"bike_id":"1606f888-b4dc-4200-b20c-005f9a7c7417","system_id":"levelo_inurba_marseille","lat":43.22949,"lon":5.3542,"is_reserved":false,"is_disabled":false,"rental_uris":{"android":"levelo://app?vid=1606f888-b4dc-4200-b20c-005f9a7c7417","ios":"levelo://app?vid=1606f888-b4dc-4200-b20c-005f9a7c7417"},"vehicle_type_id":"4","last_reported":1768807238,"current_range_meters":7200,"station_id":"cpo3532slgdg3j2ikp40","pricing_plan_id":"cebpf4jnsgd1na2vs0mg"},{"bike_id":"da5ec0dc-b428-4d22-9b7d-d9f0923ad17e","system_id":"levelo_inurba_marseille","lat":43.29634,"lon":5.371526,"is_reserved":false,"is_disabled":true,"rental_uris":{"android":"levelo://app?vid=da5ec0dc-b428-4d22-9b7d-d9f0923ad17e","ios":"levelo://app?vid=da5ec0dc-b428-4d22-9b7d-d9f0923ad17e"},"vehicle_type_id":"4","last_reported":1768807238,"current_range_meters":7200,"station_id":"ce4bgnh2rcd13ifvqc0g","pricing_plan_id":"cebpf4jnsgd1na2vs0mg"},{"bike_id":"6cf01478-fde2-46e6-bdc7-d20cd609786f","system_id":"levelo_inurba_marseille","lat":43.28485,"lon":5.38536,"is_reserved":false,"is_disabled":false,"rental_uris":{"android":"levelo://app?vid=6cf01478-fde2-46e6-bdc7-d20cd609786f","ios":"levelo://app?vid=6cf01478-fde2-46e6-bdc7-d20cd609786f"},"vehicle_type_id":"4","last_reported":1768807238,"current_range_meters":7200,"station_id":"ce4bh8p2rcd13ifvqeb0","pricing_plan_id":"cebpf4jnsgd1na2vs0mg"},{"bike_id":"76bd8662-78d2-416e-bd1f-dbf6b13bf763","system_id":"levelo_inurba_marseille","lat":43.269411,"lon":5.402473,"is_reserved":false,"is_disabled":false,"rental_uris":{"android":"levelo://app?vid=76bd8662-78d2-416e-bd1f-dbf6b13bf763","ios":"levelo://app?vid=76bd8662-78d2-416e-bd1f-dbf6b13bf763"},"vehicle_type_id":"4","last_reported":1768807238,"current_range_meters":7200,"station_id":"cjm6bp8fraef2m0cb0m0","pricing_plan_id":"cebpf4jnsgd1na2vs0mg"},{"bike_id":"0fd21be0-2047-4c19-93b0-3d78a043614b","system_id":"levelo_inurba_marseille","lat":43.237877,"lon":5.366261,"is_reserved":false,"is_disabled":false,"rental_uris":{"android":"levelo://app?vid=0fd21be0-2047-4c19-93b0-3d78a043614b","ios":"levelo://app?vid=0fd21be0-2047-4c19-93b0-3d78a043614b"},"vehicle_type_id":"4","last_reported":1768807238,"current_range_meters":7200,"station_id":"st_d3nk18o9ro0c73en2l3g","pricing_plan_id":"cebpf4jnsgd1na2vs0mg"},{"bike_id":"fb7817f6-7b60-4696-bc75-85863f9fb047","system_id":"levelo_inurba_marseille","lat":43.3095,"lon":5.39059,"is_reserved":false,"is_disabled":false,"rental_uris":{"android":"levelo://app?vid=fb7817f6-7b60-4696-bc75-85863f9fb047","ios":"levelo://app?vid=fb7817f6-7b60-4696-bc75-85863f9fb047"},"vehicle_type_id":"4","last_reported":1768807238,"current_range_meters":7200,"station_id":"ce4bgup2rcd13ifvqco0","pricing_plan_id":"cebpf4jnsgd1na2vs0mg"},{"bike_id":"80b40564-d8ca-4fba-94c7-74b7e6e95b0e","system_id":"levelo_inurba_marseille","lat":43.30541,"lon":5.36549,"is_reserved":false,"is_disabled":false,"rental_uris":{"android":"levelo://app?vid=80b40564-d8ca-4fba-94c7-74b7e6e95b0e","ios":"levelo://app?vid=80b40564-d8ca-4fba-94c7-74b7e6e95b0e"},"vehicle_type_id":"4","last_reported":1768807238,"current_range_meters":7200,"station_id":"ce4bgs12rcd13ifvqcag","pricing_plan_id":"cebpf4jnsgd1na2vs0mg"},{"bike_id":"44d80ca6-dac0-4000-97a2-ac8fa224bc0e","system_id":"levelo_inurba_marseille","lat":43.28762,"lon":5.37136,"is_reserved":false,"is_disabled":false,"rental_uris":{"android":"levelo://app?vid=44d80ca6-dac0-4000-97a2-ac8fa224bc0e","ios":"levelo://app?vid=44d80ca6-dac0-4000-97a2-ac8fa224bc0e"},"vehicle_type_id":"4","last_reported":1768807238,"current_range_meters":7200,"station_id":"","pricing_plan_id":"cebpf4jnsgd1na2vs0mg"},{"bike_id":"fe3537f1-1d4c-4143-a77a-736bd352bfa8","system_id":"levelo_inurba_marseille","lat":43.27495,"lon":5.42467,"is_reserved":false,"is_disabled":false,"rental_uris":{"android":"levelo://app?vid=fe3537f1-1d4c-4143-a77a-736bd352bfa8","ios":"levelo://app?vid=fe3537f1-1d4c-4143-a77a-736bd352bfa8"},"vehicle_type_id":"4","last_reported":1768807238,"current_range_meters":7200,"station_id":"ce4bhn92rcd13ifvqgrg","pricing_plan_id":"cebpf4jnsgd1na2vs0mg"},{"bike_id":"1837b76f-55b2-4942-aef4-b0d299ab4019","system_id":"levelo_inurba_marseille","lat":43.25221,"lon":5.38037,"is_reserved":false,"is_disabled":false,"rental_uris":{"android":"levelo://app?vid=1837b76f-55b2-4942-aef4-b0d299ab4019","ios":"levelo://app?vid=1837b76f-55b2-4942-aef4-b0d299ab4019"},"vehicle_type_id":"4","last_reported":1768807238,"current_range_meters":7200,"station_id":"","pricing_plan_id":"cebpf4jnsgd1na2vs0mg"},{"bike_id":"c17fb97b-ae07-4c98-a543-c0e22027b693","system_id":"levelo_inurba_marseille","lat":43.24387,"lon":5.37049,"is_reserved":false,"is_disabled":false,"rental_uris":{"android":"levelo://app?vid=c17fb97b-ae07-4c98-a543-c0e22027b693","ios":"levelo://app?vid=c17fb97b-ae07-4c98-a543-c0e22027b693"},"vehicle_type_id":"4","last_reported":1768807238,"current_range_meters":7200,"station_id":"ce4bhhh2rcd13ifvqfk0","pricing_plan_id":"cebpf4jnsgd1na2vs0mg"},{"bike_id":"1532d42e-38ab-4af0-9974-bda480cde4fa","system_id":"levelo_inurba_marseille","lat":43.27066,"lon":5.383053,"is_reserved":false,"is_disabled":false,"rental_uris":{"android":"levelo://app?vid=1532d42e-38ab-4af0-9974-bda480cde4fa","ios":"levelo://app?vid=1532d42e-38ab-4af0-9974-bda480cde4fa"},"vehicle_type_id":"4","last_reported":1768807238,"current_range_meters":7200,"station_id":"st_d3n2fo6cfp8s73cte1j0","pricing_plan_id":"cebpf4jnsgd1na2vs0mg"},{"bike_id":"5eefd0e5-1448-42dc-8eaf-3c714e4d44d5","system_id":"levelo_inurba_marseille","lat":43.30472,"lon":5.37911,"is_reserved":false,"is_disabled":false,"rental_uris":{"android":"levelo://app?vid=5eefd0e5-1448-42dc-8eaf-3c714e4d44d5","ios":"levelo://app?vid=5eefd0e5-1448-42dc-8eaf-3c714e4d44d5"},"vehicle_type_id":"4","last_reported":1768807238,"current_range_meters":7200,"station_id":"ce4bgup2rcd13ifvqcn0","pricing_plan_id":"cebpf4jnsgd1na2vs0mg"},{"bike_id":"2e431c17-a707-4959-8809-13671a3f74be","system_id":"levelo_inurba_marseille","lat":43.27056,"lon":5.40261,"is_reserved":false,"is_disabled":false,"rental_uris":{"android":"levelo://app?vid=2e431c17-a707-4959-8809-13671a3f74be","ios":"levelo://app?vid=2e431c17-a707-4959-8809-13671a3f74be"},"vehicle_type_id":"4","last_reported":1768807238,"current_range_meters":7200,"station_id":"ce4bhk92rcd13ifvqgc0","pricing_plan_id":"cebpf4jnsgd1na2vs0mg"},{"bike_id":"44bafebb-5a01-4f03-9498-2194feee2b6a","system_id":"levelo_inurba_marseille","lat":43.28348,"lon":5.38098,"is_reserved":false,"is_disabled":false,"rental_uris":{"android":"levelo://app?vid=44bafebb-5a01-4f03-9498-2194feee2b6a","ios":"levelo://app?vid=44bafebb-5a01-4f03-9498-2194feee2b6a"},"vehicle_type_id":"4","last_reported":1768807238,"current_range_meters":8000,"station_id":"ce4bh412rcd13ifvqdr0","pricing_plan_id":"cebpf4jnsgd1na2vs0mg"},{"bike_id":"a9cdf974-4322-4744-b774-7480af4d3eeb","system_id":"levelo_inurba_marseille","lat":43.27992,"lon":5.41667,"is_reserved":false,"is_disabled":false,"rental_uris":{"android":"levelo://app?vid=a9cdf974-4322-4744-b774-7480af4d3eeb","ios":"levelo://app?vid=a9cdf974-4322-4744-b774-7480af4d3eeb"},"vehicle_type_id":"4","last_reported":1768807238,"current_range_meters":8000,"station_id":"ce4bho12rcd13ifvqh1g","pricing_plan_id":"cebpf4jnsgd1na2vs0mg"},{"bike_id":"ec1861e3-cf5e-47e7-9bee-92fe639b30f4","system_id":"levelo_inurba_marseille","lat":43.24547,"lon":5.39534,"is_reserved":false,"is_disabled":false,"rental_uris":{"android":"levelo://app?vid=ec1861e3-cf5e-47e7-9bee-92fe639b30f4","ios":"levelo://app?vid=ec1861e3-cf5e-47e7-9bee-92fe639b30f4"},"vehicle_type_id":"4","last_reported":1768807238,"current_range_meters":8000,"station_id":"ce4bhlp2rcd13ifvqgjg","pricing_plan_id":"cebpf4jnsgd1na2vs0mg"},{"bike_id":"681232eb-8730-4455-bfaa-f9a1ecc3ac98","system_id":"levelo_inurba_marseille","lat":43.24778,"lon":5.37449,"is_reserved":false,"is_disabled":false,"rental_uris":{"android":"levelo://app?vid=681232eb-8730-4455-bfaa-f9a1ecc3ac98","ios":"levelo://app?vid=681232eb-8730-4455-bfaa-f9a1ecc3ac98"},"vehicle_type_id":"4","last_reported":1768807238,"current_range_meters":8000,"station_id":"ce4bhgh2rcd13ifvqfb0","pricing_plan_id":"cebpf4jnsgd1na2vs0mg"},{"bike_id":"a793b43a-2f1a-44e5-b8fd-5c578f863f85","system_id":"levelo_inurba_marseille","lat":43.31756,"lon":5.38998,"is_reserved":false,"is_disabled":false,"rental_uris":{"android":"levelo://app?vid=a793b43a-2f1a-44e5-b8fd-5c578f863f85","ios":"levelo://app?vid=a793b43a-2f1a-44e5-b8fd-5c578f863f85"},"vehicle_type_id":"4","last_reported":1768807238,"current_range_meters":8000,"station_id":"ce4bhqp2rcd13ifvqhng","pricing_plan_id":"cebpf4jnsgd1na2vs0mg"},{"bike_id":"f06f3afa-a365-4e1c-9db1-40ea36194125","system_id":"levelo_inurba_marseille","lat":43.33759,"lon":5.374511,"is_reserved":false,"is_disabled":false,"rental_uris":{"android":"levelo://app?vid=f06f3afa-a365-4e1c-9db1-40ea36194125","ios":"levelo://app?vid=f06f3afa-a365-4e1c-9db1-40ea36194125"},"vehicle_type_id":"4","last_reported":1768807238,"current_range_meters":8000,"station_id":"","pricing_plan_id":"cebpf4jnsgd1na2vs0mg"},{"bike_id":"f105bb30-5feb-43b7-adae-39f585dd1cca","system_id":"levelo_inurba_marseille","lat":43.28602,"lon":5.35126,"is_reserved":false,"is_disabled":true,"rental_uris":{"android":"levelo://app?vid=f105bb30-5feb-43b7-adae-39f585dd1cca","ios":"levelo://app?vid=f105bb30-5feb-43b7-adae-39f585dd1cca"},"vehicle_type_id":"4","last_reported":1768807238,"current_range_meters":8000,"station_id":"ce4bhch2rcd13ifvqeug","pricing_plan_id":"cebpf4jnsgd1na2vs0mg"},{"bike_id":"f6dee482-e963-4223-be46-6a1a82c523df","system_id":"levelo_inurba_marseille","lat":43.24166,"lon":5.39685,"is_reserved":false,"is_disabled":false,"rental_uris":{"android":"levelo://app?vid=f6dee482-e963-4223-be46-6a1a82c523df","ios":"levelo://app?vid=f6dee482-e963-4223-be46-6a1a82c523df"},"vehicle_type_id":"4","last_reported":1768807238,"current_range_meters":8000,"station_id":"ce4bhn12rcd13ifvqgpg","pricing_plan_id":"cebpf4jnsgd1na2vs0mg"},{"bike_id":"c3633228-22c1-48b6-a73d-2db8665cea58","system_id":"levelo_inurba_marseille","lat":43.27812,"lon":5.40718,"is_reserved":false,"is_disabled":false,"rental_uris":{"android":"levelo://app?vid=c3633228-22c1-48b6-a73d-2db8665cea58","ios":"levelo://app?vid=c3633228-22c1-48b6-a73d-2db8665cea58"},"vehicle_type_id":"4","last_reported":1768807238,"current_range_meters":8000,"station_id":"ce4bhnh2rcd13ifvqgtg","pricing_plan_id":"cebpf4jnsgd1na2vs0mg"},{"bike_id":"ef88c352-189d-4372-beb9-7002182fbb2b","system_id":"levelo_inurba_marseille","lat":43.27997,"lon":5.39998,"is_reserved":false,"is_disabled":false,"rental_uris":{"android":"levelo://app?vid=ef88c352-189d-4372-beb9-7002182fbb2b","ios":"levelo://app?vid=ef88c352-189d-4372-beb9-7002182fbb2b"},"vehicle_type_id":"4","last_reported":1768807238,"current_range_meters":8000,"station_id":"ce4bho92rcd13ifvqh4g","pricing_plan_id":"cebpf4jnsgd1na2vs0mg"},{"bike_id":"7022c4ed-cd88-4afe-941f-0dc852474938","system_id":"levelo_inurba_marseille","lat":43.30777,"lon":5.37657,"is_reserved":false,"is_disabled":false,"rental_uris":{"android":"levelo://app?vid=7022c4ed-cd88-4afe-941f-0dc852474938","ios":"levelo://app?vid=7022c4ed-cd88-4afe-941f-0dc852474938"},"vehicle_type_id":"4","last_reported":1768807238,"current_range_meters":8000,"station_id":"ce4bgv92rcd13ifvqcq0","pricing_plan_id":"cebpf4jnsgd1na2vs0mg"},{"bike_id":"13c7565e-579a-4d8c-8e4a-79f4880e8378","system_id":"levelo_inurba_marseille","lat":43.2535,"lon":5.37991,"is_reserved":false,"is_disabled":false,"rental_uris":{"android":"levelo://app?vid=13c7565e-579a-4d8c-8e4a-79f4880e8378","ios":"levelo://app?vid=13c7565e-579a-4d8c-8e4a-79f4880e8378"},"vehicle_type_id":"4","last_reported":1768807238,"current_range_meters":8000,"station_id":"","pricing_plan_id":"cebpf4jnsgd1na2vs0mg"},{"bike_id":"3019b242-daef-4adc-9001-a765b1be88a4","system_id":"levelo_inurba_marseille","lat":43.28542,"lon":5.44094,"is_reserved":false,"is_disabled":false,"rental_uris":{"android":"levelo://app?vid=3019b242-daef-4adc-9001-a765b1be88a4","ios":"levelo://app?vid=3019b242-daef-4adc-9001-a765b1be88a4"},"vehicle_type_id":"4","last_reported":1768807238,"current_range_meters":8000,"station_id":"st_d3j3df2ikq2c7380ej80","pricing_plan_id":"cebpf4jnsgd1na2vs0mg"},{"bike_id":"85e5b6f5-3fad-4389-a62d-0d5edd813f11","system_id":"levelo_inurba_marseille","lat":43.26558,"lon":5.4033,"is_reserved":false,"is_disabled":false,"rental_uris":{"android":"levelo://app?vid=85e5b6f5-3fad-4389-a62d-0d5edd813f11","ios":"levelo://app?vid=85e5b6f5-3fad-4389-a62d-0d5edd813f11"},"vehicle_type_id":"4","last_reported":1768807238,"current_range_meters":8000,"station_id":"ce4bhmp2rcd13ifvqgng","pricing_plan_id":"cebpf4jnsgd1na2vs0mg"},{"bike_id":"bbe519d1-7d24-4dfc-8eea-7f3e8bf5a4b8","system_id":"levelo_inurba_marseille","lat":43.24171,"lon":5.39734,"is_reserved":false,"is_disabled":false,"rental_uris":{"android":"levelo://app?vid=bbe519d1-7d24-4dfc-8eea-7f3e8bf5a4b8","ios":"levelo://app?vid=bbe519d1-7d24-4dfc-8eea-7f3e8bf5a4b8"},"vehicle_type_id":"4","last_reported":1768807238,"current_range_meters":8000,"station_id":"ce4bhn12rcd13ifvqgpg","pricing_plan_id":"cebpf4jnsgd1na2vs0mg"},{"bike_id":"544bcdbb-4ade-4e28-8d58-bd0ce6c900eb","system_id":"levelo_inurba_marseille","lat":43.25332,"lon":5.42175,"is_reserved":false,"is_disabled":false,"rental_uris":{"android":"levelo://app?vid=544bcdbb-4ade-4e28-8d58-bd0ce6c900eb","ios":"levelo://app?vid=544bcdbb-4ade-4e28-8d58-bd0ce6c900eb"},"vehicle_type_id":"4","last_reported":1768807238,"current_range_meters":8000,"station_id":"st_d2m65c5bi1j21697t3ng","pricing_plan_id":"cebpf4jnsgd1na2vs0mg"},{"bike_id":"d8999c0a-9a4a-412e-88da-07f799da7dc3","system_id":"levelo_inurba_marseille","lat":43.28472,"lon":5.38577,"is_reserved":false,"is_disabled":false,"rental_uris":{"android":"levelo://app?vid=d8999c0a-9a4a-412e-88da-07f799da7dc3","ios":"levelo://app?vid=d8999c0a-9a4a-412e-88da-07f799da7dc3"},"vehicle_type_id":"4","last_reported":1768807238,"current_range_meters":8400,"station_id":"ce4bh8p2rcd13ifvqeb0","pricing_plan_id":"cebpf4jnsgd1na2vs0mg"},{"bike_id":"017ac6ba-5de6-4940-8209-8a79986e4549","system_id":"levelo_inurba_marseille","lat":43.2926,"lon":5.38452,"is_reserved":false,"is_disabled":true,"rental_uris":{"android":"levelo://app?vid=017ac6ba-5de6-4940-8209-8a79986e4549","ios":"levelo://app?vid=017ac6ba-5de6-4940-8209-8a79986e4549"},"vehicle_type_id":"4","last_reported":1768807238,"current_range_meters":8400,"station_id":"ce4bh692rcd13ifvqea0","pricing_plan_id":"cebpf4jnsgd1na2vs0mg"},{"bike_id":"09105b5f-3c1b-4262-b05c-2ed28916e5be","system_id":"levelo_inurba_marseille","lat":43.25338,"lon":5.4217,"is_reserved":false,"is_disabled":false,"rental_uris":{"android":"levelo://app?vid=09105b5f-3c1b-4262-b05c-2ed28916e5be","ios":"levelo://app?vid=09105b5f-3c1b-4262-b05c-2ed28916e5be"},"vehicle_type_id":"4","last_reported":1768807238,"current_range_meters":8400,"station_id":"st_d2m65c5bi1j21697t3ng","pricing_plan_id":"cebpf4jnsgd1na2vs0mg"},{"bike_id":"016900bc-5ac6-4330-ab84-4d755560128b","system_id":"levelo_inurba_marseille","lat":43.279459,"lon":5.399408,"is_reserved":false,"is_disabled":false,"rental_uris":{"android":"levelo://app?vid=016900bc-5ac6-4330-ab84-4d755560128b","ios":"levelo://app?vid=016900bc-5ac6-4330-ab84-4d755560128b"},"vehicle_type_id":"4","last_reported":1768807238,"current_range_meters":8400,"station_id":"","pricing_plan_id":"cebpf4jnsgd1na2vs0mg"},{"bike_id":"0b0bd9e8-0e91-4cd7-8087-c13549508128","system_id":"levelo_inurba_marseille","lat":43.28482,"lon":5.44095,"is_reserved":false,"is_disabled":false,"rental_uris":{"android":"levelo://app?vid=0b0bd9e8-0e91-4cd7-8087-c13549508128","ios":"levelo://app?vid=0b0bd9e8-0e91-4cd7-8087-c13549508128"},"vehicle_type_id":"4","last_reported":1768807238,"current_range_meters":8400,"station_id":"","pricing_plan_id":"cebpf4jnsgd1na2vs0mg"},{"bike_id":"5e7df9d7-418f-4368-a954-d50fe151d8de","system_id":"levelo_inurba_marseille","lat":43.229324,"lon":5.353675,"is_reserved":false,"is_disabled":false,"rental_uris":{"android":"levelo://app?vid=5e7df9d7-418f-4368-a954-d50fe151d8de","ios":"levelo://app?vid=5e7df9d7-418f-4368-a954-d50fe151d8de"},"vehicle_type_id":"4","last_reported":1768807238,"current_range_meters":8400,"station_id":"cpo3532slgdg3j2ikp40","pricing_plan_id":"cebpf4jnsgd1na2vs0mg"},{"bike_id":"c37d9fed-e659-4634-9d60-2e7a3e1f2e5b","system_id":"levelo_inurba_marseille","lat":43.283421,"lon":5.381006,"is_reserved":false,"is_disabled":false,"rental_uris":{"android":"levelo://app?vid=c37d9fed-e659-4634-9d60-2e7a3e1f2e5b","ios":"levelo://app?vid=c37d9fed-e659-4634-9d60-2e7a3e1f2e5b"},"vehicle_type_id":"4","last_reported":1768807238,"current_range_meters":8400,"station_id":"ce4bh412rcd13ifvqdr0","pricing_plan_id":"cebpf4jnsgd1na2vs0mg"},{"bike_id":"536f7c96-4167-4be5-8a94-92113cb642f7","system_id":"levelo_inurba_marseille","lat":43.22568,"lon":5.41636,"is_reserved":false,"is_disabled":false,"rental_uris":{"android":"levelo://app?vid=536f7c96-4167-4be5-8a94-92113cb642f7","ios":"levelo://app?vid=536f7c96-4167-4be5-8a94-92113cb642f7"},"vehicle_type_id":"4","last_reported":1768807238,"current_range_meters":8400,"station_id":"st_d2o4gvlbi1j2169b742g","pricing_plan_id":"cebpf4jnsgd1na2vs0mg"},{"bike_id":"7dbbcfab-8796-4f78-b67c-fb95c692bb9a","system_id":"levelo_inurba_marseille","lat":43.25195,"lon":5.40079,"is_reserved":false,"is_disabled":false,"rental_uris":{"android":"levelo://app?vid=7dbbcfab-8796-4f78-b67c-fb95c692bb9a","ios":"levelo://app?vid=7dbbcfab-8796-4f78-b67c-fb95c692bb9a"},"vehicle_type_id":"4","last_reported":1768807238,"current_range_meters":8400,"station_id":"","pricing_plan_id":"cebpf4jnsgd1na2vs0mg"},{"bike_id":"643a0bb3-7f00-438c-b64a-14f811a7652b","system_id":"levelo_inurba_marseille","lat":43.29697,"lon":5.37777,"is_reserved":false,"is_disabled":false,"rental_uris":{"android":"levelo://app?vid=643a0bb3-7f00-438c-b64a-14f811a7652b","ios":"levelo://app?vid=643a0bb3-7f00-438c-b64a-14f811a7652b"},"vehicle_type_id":"4","last_reported":1768807238,"current_range_meters":8400,"station_id":"","pricing_plan_id":"cebpf4jnsgd1na2vs0mg"},{"bike_id":"40ec9b3e-8a68-4f21-9a1a-c3df8cc32599","system_id":"levelo_inurba_marseille","lat":43.24112,"lon":5.37713,"is_reserved":false,"is_disabled":false,"rental_uris":{"android":"levelo://app?vid=40ec9b3e-8a68-4f21-9a1a-c3df8cc32599","ios":"levelo://app?vid=40ec9b3e-8a68-4f21-9a1a-c3df8cc32599"},"vehicle_type_id":"4","last_reported":1768807238,"current_range_meters":8400,"station_id":"ce4bhnp2rcd13ifvqgvg","pricing_plan_id":"cebpf4jnsgd1na2vs0mg"},{"bike_id":"2090a1bd-4d02-4c60-92de-1961961aca62","system_id":"levelo_inurba_marseille","lat":43.28673,"lon":5.38668,"is_reserved":false,"is_disabled":true,"rental_uris":{"android":"levelo://app?vid=2090a1bd-4d02-4c60-92de-1961961aca62","ios":"levelo://app?vid=2090a1bd-4d02-4c60-92de-1961961aca62"},"vehicle_type_id":"4","last_reported":1768807238,"current_range_meters":8400,"station_id":"ce4bh492rcd13ifvqdug","pricing_plan_id":"cebpf4jnsgd1na2vs0mg"},{"bike_id":"abf30d9a-8f0c-4626-8dc8-b0faa0cf4d72","system_id":"levelo_inurba_marseille","lat":43.24944,"lon":5.40482,"is_reserved":false,"is_disabled":false,"rental_uris":{"android":"levelo://app?vid=abf30d9a-8f0c-4626-8dc8-b0faa0cf4d72","ios":"levelo://app?vid=abf30d9a-8f0c-4626-8dc8-b0faa0cf4d72"},"vehicle_type_id":"4","last_reported":1768807238,"current_range_meters":8400,"station_id":"st_d2ngiaodas8pm72gd1h0","pricing_plan_id":"cebpf4jnsgd1na2vs0mg"},{"bike_id":"39986b42-6fc7-4edf-9358-88a0b6d42b5f","system_id":"levelo_inurba_marseille","lat":43.30156,"lon":5.38101,"is_reserved":false,"is_disabled":false,"rental_uris":{"android":"levelo://app?vid=39986b42-6fc7-4edf-9358-88a0b6d42b5f","ios":"levelo://app?vid=39986b42-6fc7-4edf-9358-88a0b6d42b5f"},"vehicle_type_id":"4","last_reported":1768807238,"current_range_meters":8400,"station_id":"ce4bgjp2rcd13ifvqbh0","pricing_plan_id":"cebpf4jnsgd1na2vs0mg"},{"bike_id":"791ccb0c-3ea6-4f65-9436-65087a5f1af6","system_id":"levelo_inurba_marseille","lat":43.33753,"lon":5.37462,"is_reserved":false,"is_disabled":false,"rental_uris":{"android":"levelo://app?vid=791ccb0c-3ea6-4f65-9436-65087a5f1af6","ios":"levelo://app?vid=791ccb0c-3ea6-4f65-9436-65087a5f1af6"},"vehicle_type_id":"4","last_reported":1768807238,"current_range_meters":8400,"station_id":"","pricing_plan_id":"cebpf4jnsgd1na2vs0mg"},{"bike_id":"d3636923-d529-4805-a8bd-d6d3ddc3aec2","system_id":"levelo_inurba_marseille","lat":43.29023,"lon":5.39962,"is_reserved":false,"is_disabled":true,"rental_uris":{"android":"levelo://app?vid=d3636923-d529-4805-a8bd-d6d3ddc3aec2","ios":"levelo://app?vid=d3636923-d529-4805-a8bd-d6d3ddc3aec2"},"vehicle_type_id":"4","last_reported":1768807238,"current_range_meters":8400,"station_id":"ce4bh392rcd13ifvqdm0","pricing_plan_id":"cebpf4jnsgd1na2vs0mg"},{"bike_id":"f6adf0c1-f5b5-44a2-95f0-fade2e340101","system_id":"levelo_inurba_marseille","lat":43.278123,"lon":5.407208,"is_reserved":false,"is_disabled":false,"rental_uris":{"android":"levelo://app?vid=f6adf0c1-f5b5-44a2-95f0-fade2e340101","ios":"levelo://app?vid=f6adf0c1-f5b5-44a2-95f0-fade2e340101"},"vehicle_type_id":"4","last_reported":1768807238,"current_range_meters":8400,"station_id":"ce4bhnh2rcd13ifvqgtg","pricing_plan_id":"cebpf4jnsgd1na2vs0mg"},{"bike_id":"7890d8a9-a5ee-4c6a-9a9c-ecbe6e802b3b","system_id":"levelo_inurba_marseille","lat":43.28,"lon":5.40009,"is_reserved":false,"is_disabled":false,"rental_uris":{"android":"levelo://app?vid=7890d8a9-a5ee-4c6a-9a9c-ecbe6e802b3b","ios":"levelo://app?vid=7890d8a9-a5ee-4c6a-9a9c-ecbe6e802b3b"},"vehicle_type_id":"4","last_reported":1768807238,"current_range_meters":8800,"station_id":"ce4bho92rcd13ifvqh4g","pricing_plan_id":"cebpf4jnsgd1na2vs0mg"},{"bike_id":"5c17b88d-8827-4f96-b5ec-2c1841b5b322","system_id":"levelo_inurba_marseille","lat":43.31662,"lon":5.40401,"is_reserved":false,"is_disabled":false,"rental_uris":{"android":"levelo://app?vid=5c17b88d-8827-4f96-b5ec-2c1841b5b322","ios":"levelo://app?vid=5c17b88d-8827-4f96-b5ec-2c1841b5b322"},"vehicle_type_id":"4","last_reported":1768807238,"current_range_meters":8800,"station_id":"","pricing_plan_id":"cebpf4jnsgd1na2vs0mg"},{"bike_id":"f8bf59b4-3e23-4e90-bc70-5ee15a6c83c2","system_id":"levelo_inurba_marseille","lat":43.25341,"lon":5.42173,"is_reserved":false,"is_disabled":false,"rental_uris":{"android":"levelo://app?vid=f8bf59b4-3e23-4e90-bc70-5ee15a6c83c2","ios":"levelo://app?vid=f8bf59b4-3e23-4e90-bc70-5ee15a6c83c2"},"vehicle_type_id":"4","last_reported":1768807238,"current_range_meters":8800,"station_id":"st_d2m65c5bi1j21697t3ng","pricing_plan_id":"cebpf4jnsgd1na2vs0mg"},{"bike_id":"58fcb4ec-9c17-42cd-9134-f379e029a9fd","system_id":"levelo_inurba_marseille","lat":43.30159,"lon":5.37972,"is_reserved":false,"is_disabled":false,"rental_uris":{"android":"levelo://app?vid=58fcb4ec-9c17-42cd-9134-f379e029a9fd","ios":"levelo://app?vid=58fcb4ec-9c17-42cd-9134-f379e029a9fd"},"vehicle_type_id":"4","last_reported":1768807238,"current_range_meters":8800,"station_id":"","pricing_plan_id":"cebpf4jnsgd1na2vs0mg"},{"bike_id":"a701194d-0cc5-497a-93ea-f1faca1626fe","system_id":"levelo_inurba_marseille","lat":43.26529,"lon":5.40328,"is_reserved":false,"is_disabled":false,"rental_uris":{"android":"levelo://app?vid=a701194d-0cc5-497a-93ea-f1faca1626fe","ios":"levelo://app?vid=a701194d-0cc5-497a-93ea-f1faca1626fe"},"vehicle_type_id":"4","last_reported":1768807238,"current_range_meters":8800,"station_id":"ce4bhmp2rcd13ifvqgng","pricing_plan_id":"cebpf4jnsgd1na2vs0mg"},{"bike_id":"4cdfadb1-1bf3-4d49-ad80-a271fd97b4c1","system_id":"levelo_inurba_marseille","lat":43.33758,"lon":5.37493,"is_reserved":false,"is_disabled":false,"rental_uris":{"android":"levelo://app?vid=4cdfadb1-1bf3-4d49-ad80-a271fd97b4c1","ios":"levelo://app?vid=4cdfadb1-1bf3-4d49-ad80-a271fd97b4c1"},"vehicle_type_id":"4","last_reported":1768807238,"current_range_meters":8800,"station_id":"","pricing_plan_id":"cebpf4jnsgd1na2vs0mg"},{"bike_id":"0cf1f2c5-376b-41dc-bc01-878c31e518a5","system_id":"levelo_inurba_marseille","lat":43.28152,"lon":5.42644,"is_reserved":false,"is_disabled":false,"rental_uris":{"android":"levelo://app?vid=0cf1f2c5-376b-41dc-bc01-878c31e518a5","ios":"levelo://app?vid=0cf1f2c5-376b-41dc-bc01-878c31e518a5"},"vehicle_type_id":"4","last_reported":1768807238,"current_range_meters":8800,"station_id":"ce4bhnh2rcd13ifvqgug","pricing_plan_id":"cebpf4jnsgd1na2vs0mg"},{"bike_id":"6eabd888-c6a1-4aa4-b081-69393e8da4b6","system_id":"levelo_inurba_marseille","lat":43.27808,"lon":5.40709,"is_reserved":false,"is_disabled":false,"rental_uris":{"android":"levelo://app?vid=6eabd888-c6a1-4aa4-b081-69393e8da4b6","ios":"levelo://app?vid=6eabd888-c6a1-4aa4-b081-69393e8da4b6"},"vehicle_type_id":"4","last_reported":1768807238,"current_range_meters":8800,"station_id":"ce4bhnh2rcd13ifvqgtg","pricing_plan_id":"cebpf4jnsgd1na2vs0mg"},{"bike_id":"f70a59b4-29fe-4c71-a82c-c9b428830b98","system_id":"levelo_inurba_marseille","lat":43.24065,"lon":5.37759,"is_reserved":false,"is_disabled":false,"rental_uris":{"android":"levelo://app?vid=f70a59b4-29fe-4c71-a82c-c9b428830b98","ios":"levelo://app?vid=f70a59b4-29fe-4c71-a82c-c9b428830b98"},"vehicle_type_id":"4","last_reported":1768807238,"current_range_meters":8800,"station_id":"ce4bhnp2rcd13ifvqgvg","pricing_plan_id":"cebpf4jnsgd1na2vs0mg"},{"bike_id":"6735a20a-0321-423c-a55a-4ecf97e291d0","system_id":"levelo_inurba_marseille","lat":43.22925,"lon":5.35379,"is_reserved":false,"is_disabled":false,"rental_uris":{"android":"levelo://app?vid=6735a20a-0321-423c-a55a-4ecf97e291d0","ios":"levelo://app?vid=6735a20a-0321-423c-a55a-4ecf97e291d0"},"vehicle_type_id":"4","last_reported":1768807238,"current_range_meters":8800,"station_id":"cpo3532slgdg3j2ikp40","pricing_plan_id":"cebpf4jnsgd1na2vs0mg"},{"bike_id":"676b108a-8631-463b-ac20-0a121b44cff0","system_id":"levelo_inurba_marseille","lat":43.264946,"lon":5.395401,"is_reserved":false,"is_disabled":false,"rental_uris":{"android":"levelo://app?vid=676b108a-8631-463b-ac20-0a121b44cff0","ios":"levelo://app?vid=676b108a-8631-463b-ac20-0a121b44cff0"},"vehicle_type_id":"4","last_reported":1768807238,"current_range_meters":8800,"station_id":"ce4bhi12rcd13ifvqfq0","pricing_plan_id":"cebpf4jnsgd1na2vs0mg"},{"bike_id":"86c3f0b8-2cd4-4a60-9cca-42812eafe40e","system_id":"levelo_inurba_marseille","lat":43.281613,"lon":5.426301,"is_reserved":false,"is_disabled":false,"rental_uris":{"android":"levelo://app?vid=86c3f0b8-2cd4-4a60-9cca-42812eafe40e","ios":"levelo://app?vid=86c3f0b8-2cd4-4a60-9cca-42812eafe40e"},"vehicle_type_id":"4","last_reported":1768807238,"current_range_meters":8800,"station_id":"ce4bhnh2rcd13ifvqgug","pricing_plan_id":"cebpf4jnsgd1na2vs0mg"},{"bike_id":"564fb158-816d-4e9e-84aa-3da9e8b12e86","system_id":"levelo_inurba_marseille","lat":43.25584,"lon":5.38244,"is_reserved":false,"is_disabled":false,"rental_uris":{"android":"levelo://app?vid=564fb158-816d-4e9e-84aa-3da9e8b12e86","ios":"levelo://app?vid=564fb158-816d-4e9e-84aa-3da9e8b12e86"},"vehicle_type_id":"4","last_reported":1768807238,"current_range_meters":8800,"station_id":"ce4bhih2rcd13ifvqfs0","pricing_plan_id":"cebpf4jnsgd1na2vs0mg"},{"bike_id":"1bae9140-ff17-4e53-90ce-59eb9d8c1a5d","system_id":"levelo_inurba_marseille","lat":43.27998,"lon":5.41667,"is_reserved":false,"is_disabled":false,"rental_uris":{"android":"levelo://app?vid=1bae9140-ff17-4e53-90ce-59eb9d8c1a5d","ios":"levelo://app?vid=1bae9140-ff17-4e53-90ce-59eb9d8c1a5d"},"vehicle_type_id":"4","last_reported":1768807238,"current_range_meters":8800,"station_id":"ce4bho12rcd13ifvqh1g","pricing_plan_id":"cebpf4jnsgd1na2vs0mg"},{"bike_id":"027b52b7-3f46-47b2-a774-98ddf53ee027","system_id":"levelo_inurba_marseille","lat":43.23193,"lon":5.39973,"is_reserved":false,"is_disabled":false,"rental_uris":{"android":"levelo://app?vid=027b52b7-3f46-47b2-a774-98ddf53ee027","ios":"levelo://app?vid=027b52b7-3f46-47b2-a774-98ddf53ee027"},"vehicle_type_id":"4","last_reported":1768807238,"current_range_meters":8800,"station_id":"ce4bhn12rcd13ifvqgqg","pricing_plan_id":"cebpf4jnsgd1na2vs0mg"},{"bike_id":"a6d9e2b7-402d-4aa8-8cc8-52f796bcf7a7","system_id":"levelo_inurba_marseille","lat":43.29596,"lon":5.38106,"is_reserved":false,"is_disabled":false,"rental_uris":{"android":"levelo://app?vid=a6d9e2b7-402d-4aa8-8cc8-52f796bcf7a7","ios":"levelo://app?vid=a6d9e2b7-402d-4aa8-8cc8-52f796bcf7a7"},"vehicle_type_id":"4","last_reported":1768807238,"current_range_meters":8800,"station_id":"ce4bgl12rcd13ifvqbo0","pricing_plan_id":"cebpf4jnsgd1na2vs0mg"},{"bike_id":"de6c90fb-dd51-4e08-9dbd-a70160fc9495","system_id":"levelo_inurba_marseille","lat":43.26388,"lon":5.41037,"is_reserved":false,"is_disabled":false,"rental_uris":{"android":"levelo://app?vid=de6c90fb-dd51-4e08-9dbd-a70160fc9495","ios":"levelo://app?vid=de6c90fb-dd51-4e08-9dbd-a70160fc9495"},"vehicle_type_id":"4","last_reported":1768807238,"current_range_meters":9200,"station_id":"st_d4e5ca6na9uc73bfl5fg","pricing_plan_id":"cebpf4jnsgd1na2vs0mg"},{"bike_id":"e1093d92-684f-463f-9907-089eedd95fa6","system_id":"levelo_inurba_marseille","lat":43.24177,"lon":5.39724,"is_reserved":false,"is_disabled":false,"rental_uris":{"android":"levelo://app?vid=e1093d92-684f-463f-9907-089eedd95fa6","ios":"levelo://app?vid=e1093d92-684f-463f-9907-089eedd95fa6"},"vehicle_type_id":"4","last_reported":1768807238,"current_range_meters":9200,"station_id":"ce4bhn12rcd13ifvqgpg","pricing_plan_id":"cebpf4jnsgd1na2vs0mg"},{"bike_id":"5993e2ef-a9ab-45d2-826c-ed7d952584cd","system_id":"levelo_inurba_marseille","lat":43.337546,"lon":5.374427,"is_reserved":false,"is_disabled":false,"rental_uris":{"android":"levelo://app?vid=5993e2ef-a9ab-45d2-826c-ed7d952584cd","ios":"levelo://app?vid=5993e2ef-a9ab-45d2-826c-ed7d952584cd"},"vehicle_type_id":"4","last_reported":1768807238,"current_range_meters":9200,"station_id":"","pricing_plan_id":"cebpf4jnsgd1na2vs0mg"},{"bike_id":"7c6df23a-2034-4556-a426-ef6f0d837e29","system_id":"levelo_inurba_marseille","lat":43.29759,"lon":5.42783,"is_reserved":false,"is_disabled":false,"rental_uris":{"android":"levelo://app?vid=7c6df23a-2034-4556-a426-ef6f0d837e29","ios":"levelo://app?vid=7c6df23a-2034-4556-a426-ef6f0d837e29"},"vehicle_type_id":"4","last_reported":1768807238,"current_range_meters":9200,"station_id":"st_d3md5207bmas73dh9klg","pricing_plan_id":"cebpf4jnsgd1na2vs0mg"},{"bike_id":"484705cd-b20d-4716-8e33-beec169a25e2","system_id":"levelo_inurba_marseille","lat":43.29037,"lon":5.37558,"is_reserved":false,"is_disabled":false,"rental_uris":{"android":"levelo://app?vid=484705cd-b20d-4716-8e33-beec169a25e2","ios":"levelo://app?vid=484705cd-b20d-4716-8e33-beec169a25e2"},"vehicle_type_id":"4","last_reported":1768807238,"current_range_meters":9200,"station_id":"ce4bh692rcd13ifvqe90","pricing_plan_id":"cebpf4jnsgd1na2vs0mg"},{"bike_id":"816bb8a8-f8c1-4c2c-800a-b75b4245f3eb","system_id":"levelo_inurba_marseille","lat":43.26946,"lon":5.3958,"is_reserved":false,"is_disabled":false,"rental_uris":{"android":"levelo://app?vid=816bb8a8-f8c1-4c2c-800a-b75b4245f3eb","ios":"levelo://app?vid=816bb8a8-f8c1-4c2c-800a-b75b4245f3eb"},"vehicle_type_id":"4","last_reported":1768807238,"current_range_meters":9200,"station_id":"","pricing_plan_id":"cebpf4jnsgd1na2vs0mg"},{"bike_id":"d816586a-894c-424b-aac9-ef0daf69ea76","system_id":"levelo_inurba_marseille","lat":43.30571,"lon":5.36719,"is_reserved":false,"is_disabled":false,"rental_uris":{"android":"levelo://app?vid=d816586a-894c-424b-aac9-ef0daf69ea76","ios":"levelo://app?vid=d816586a-894c-424b-aac9-ef0daf69ea76"},"vehicle_type_id":"4","last_reported":1768807238,"current_range_meters":9200,"station_id":"ce4bgrp2rcd13ifvqc9g","pricing_plan_id":"cebpf4jnsgd1na2vs0mg"},{"bike_id":"5cbbbed7-1b78-4268-8b83-0756dccd4250","system_id":"levelo_inurba_marseille","lat":43.24955,"lon":5.40456,"is_reserved":false,"is_disabled":false,"rental_uris":{"android":"levelo://app?vid=5cbbbed7-1b78-4268-8b83-0756dccd4250","ios":"levelo://app?vid=5cbbbed7-1b78-4268-8b83-0756dccd4250"},"vehicle_type_id":"4","last_reported":1768807238,"current_range_meters":9200,"station_id":"st_d2ngiaodas8pm72gd1h0","pricing_plan_id":"cebpf4jnsgd1na2vs0mg"},{"bike_id":"2831a061-e9b4-47ba-9a70-aab9b88d5714","system_id":"levelo_inurba_marseille","lat":43.321074,"lon":5.367552,"is_reserved":false,"is_disabled":false,"rental_uris":{"android":"levelo://app?vid=2831a061-e9b4-47ba-9a70-aab9b88d5714","ios":"levelo://app?vid=2831a061-e9b4-47ba-9a70-aab9b88d5714"},"vehicle_type_id":"4","last_reported":1768807238,"current_range_meters":9200,"station_id":"ce4bhrh2rcd13ifvqhug","pricing_plan_id":"cebpf4jnsgd1na2vs0mg"},{"bike_id":"c5db7ad0-3b21-4d0f-bf57-74ba050038f7","system_id":"levelo_inurba_marseille","lat":43.27057,"lon":5.38308,"is_reserved":false,"is_disabled":false,"rental_uris":{"android":"levelo://app?vid=c5db7ad0-3b21-4d0f-bf57-74ba050038f7","ios":"levelo://app?vid=c5db7ad0-3b21-4d0f-bf57-74ba050038f7"},"vehicle_type_id":"4","last_reported":1768807238,"current_range_meters":9200,"station_id":"st_d3n2fo6cfp8s73cte1j0","pricing_plan_id":"cebpf4jnsgd1na2vs0mg"},{"bike_id":"22082c15-ecce-4cbe-939e-5e9c10f2ba84","system_id":"levelo_inurba_marseille","lat":43.31722,"lon":5.42419,"is_reserved":false,"is_disabled":false,"rental_uris":{"android":"levelo://app?vid=22082c15-ecce-4cbe-939e-5e9c10f2ba84","ios":"levelo://app?vid=22082c15-ecce-4cbe-939e-5e9c10f2ba84"},"vehicle_type_id":"4","last_reported":1768807238,"current_range_meters":9200,"station_id":"ce4bhp92rcd13ifvqhbg","pricing_plan_id":"cebpf4jnsgd1na2vs0mg"},{"bike_id":"2d7efe21-47b1-4bf3-a4fd-2dff75e156c5","system_id":"levelo_inurba_marseille","lat":43.217387,"lon":5.346013,"is_reserved":false,"is_disabled":false,"rental_uris":{"android":"levelo://app?vid=2d7efe21-47b1-4bf3-a4fd-2dff75e156c5","ios":"levelo://app?vid=2d7efe21-47b1-4bf3-a4fd-2dff75e156c5"},"vehicle_type_id":"4","last_reported":1768807238,"current_range_meters":9200,"station_id":"st_cvj6r9ubvosntc0bgbag","pricing_plan_id":"cebpf4jnsgd1na2vs0mg"},{"bike_id":"0f3a19af-39a2-4082-bd8e-26d337f54773","system_id":"levelo_inurba_marseille","lat":43.28869,"lon":5.42514,"is_reserved":false,"is_disabled":false,"rental_uris":{"android":"levelo://app?vid=0f3a19af-39a2-4082-bd8e-26d337f54773","ios":"levelo://app?vid=0f3a19af-39a2-4082-bd8e-26d337f54773"},"vehicle_type_id":"4","last_reported":1768807238,"current_range_meters":9200,"station_id":"st_d3b462108ojc7389ooeg","pricing_plan_id":"cebpf4jnsgd1na2vs0mg"},{"bike_id":"e2ef0d85-7e9e-4699-945b-3bd5ff257a37","system_id":"levelo_inurba_marseille","lat":43.31144,"lon":5.37972,"is_reserved":false,"is_disabled":false,"rental_uris":{"android":"levelo://app?vid=e2ef0d85-7e9e-4699-945b-3bd5ff257a37","ios":"levelo://app?vid=e2ef0d85-7e9e-4699-945b-3bd5ff257a37"},"vehicle_type_id":"4","last_reported":1768807238,"current_range_meters":9200,"station_id":"","pricing_plan_id":"cebpf4jnsgd1na2vs0mg"},{"bike_id":"760dca37-a904-42a9-b08c-dcd355cb4e4d","system_id":"levelo_inurba_marseille","lat":43.279818,"lon":5.400223,"is_reserved":false,"is_disabled":false,"rental_uris":{"android":"levelo://app?vid=760dca37-a904-42a9-b08c-dcd355cb4e4d","ios":"levelo://app?vid=760dca37-a904-42a9-b08c-dcd355cb4e4d"},"vehicle_type_id":"4","last_reported":1768807238,"current_range_meters":9600,"station_id":"ce4bho92rcd13ifvqh4g","pricing_plan_id":"cebpf4jnsgd1na2vs0mg"},{"bike_id":"f28bbbe7-b2a8-49f8-8684-c9339be15046","system_id":"levelo_inurba_marseille","lat":43.31454,"lon":5.36904,"is_reserved":false,"is_disabled":false,"rental_uris":{"android":"levelo://app?vid=f28bbbe7-b2a8-49f8-8684-c9339be15046","ios":"levelo://app?vid=f28bbbe7-b2a8-49f8-8684-c9339be15046"},"vehicle_type_id":"4","last_reported":1768807238,"current_range_meters":9600,"station_id":"","pricing_plan_id":"cebpf4jnsgd1na2vs0mg"},{"bike_id":"66f91a12-33e3-4149-a87e-5bf1a2aa6ac6","system_id":"levelo_inurba_marseille","lat":43.29723,"lon":5.37697,"is_reserved":false,"is_disabled":false,"rental_uris":{"android":"levelo://app?vid=66f91a12-33e3-4149-a87e-5bf1a2aa6ac6","ios":"levelo://app?vid=66f91a12-33e3-4149-a87e-5bf1a2aa6ac6"},"vehicle_type_id":"4","last_reported":1768807238,"current_range_meters":9600,"station_id":"ce4bgkh2rcd13ifvqbl0","pricing_plan_id":"cebpf4jnsgd1na2vs0mg"},{"bike_id":"87f35a5d-485c-42c0-a0d6-d17c180ada41","system_id":"levelo_inurba_marseille","lat":43.24172,"lon":5.36377,"is_reserved":false,"is_disabled":false,"rental_uris":{"android":"levelo://app?vid=87f35a5d-485c-42c0-a0d6-d17c180ada41","ios":"levelo://app?vid=87f35a5d-485c-42c0-a0d6-d17c180ada41"},"vehicle_type_id":"4","last_reported":1768807238,"current_range_meters":9600,"station_id":"cpo36qri1sfpv3e86is0","pricing_plan_id":"cebpf4jnsgd1na2vs0mg"},{"bike_id":"f15b1f46-8371-48f1-8aa3-d6a3ebdd2129","system_id":"levelo_inurba_marseille","lat":43.25818,"lon":5.39442,"is_reserved":false,"is_disabled":false,"rental_uris":{"android":"levelo://app?vid=f15b1f46-8371-48f1-8aa3-d6a3ebdd2129","ios":"levelo://app?vid=f15b1f46-8371-48f1-8aa3-d6a3ebdd2129"},"vehicle_type_id":"4","last_reported":1768807238,"current_range_meters":9600,"station_id":"ce4bhip2rcd13ifvqft0","pricing_plan_id":"cebpf4jnsgd1na2vs0mg"},{"bike_id":"6dbd3745-ce81-4e97-a7a0-fa0184775e48","system_id":"levelo_inurba_marseille","lat":43.24471,"lon":5.42576,"is_reserved":false,"is_disabled":false,"rental_uris":{"android":"levelo://app?vid=6dbd3745-ce81-4e97-a7a0-fa0184775e48","ios":"levelo://app?vid=6dbd3745-ce81-4e97-a7a0-fa0184775e48"},"vehicle_type_id":"4","last_reported":1768807238,"current_range_meters":9600,"station_id":"st_d4a3vfp97mjs738cd8kg","pricing_plan_id":"cebpf4jnsgd1na2vs0mg"},{"bike_id":"a18875b2-7fec-46fb-be96-0954e45585f5","system_id":"levelo_inurba_marseille","lat":43.27948,"lon":5.41051,"is_reserved":false,"is_disabled":false,"rental_uris":{"android":"levelo://app?vid=a18875b2-7fec-46fb-be96-0954e45585f5","ios":"levelo://app?vid=a18875b2-7fec-46fb-be96-0954e45585f5"},"vehicle_type_id":"4","last_reported":1768807238,"current_range_meters":9600,"station_id":"ce4bhnp2rcd13ifvqh0g","pricing_plan_id":"cebpf4jnsgd1na2vs0mg"},{"bike_id":"87a54c48-d7ac-433a-ae3b-f1377c77482d","system_id":"levelo_inurba_marseille","lat":43.3155,"lon":5.38016,"is_reserved":false,"is_disabled":false,"rental_uris":{"android":"levelo://app?vid=87a54c48-d7ac-433a-ae3b-f1377c77482d","ios":"levelo://app?vid=87a54c48-d7ac-433a-ae3b-f1377c77482d"},"vehicle_type_id":"4","last_reported":1768807238,"current_range_meters":9600,"station_id":"ce4bhsp2rcd13ifvqi50","pricing_plan_id":"cebpf4jnsgd1na2vs0mg"},{"bike_id":"cb678858-b1a7-4e4e-81a9-d91d3b4d50e3","system_id":"levelo_inurba_marseille","lat":43.25336,"lon":5.42181,"is_reserved":false,"is_disabled":false,"rental_uris":{"android":"levelo://app?vid=cb678858-b1a7-4e4e-81a9-d91d3b4d50e3","ios":"levelo://app?vid=cb678858-b1a7-4e4e-81a9-d91d3b4d50e3"},"vehicle_type_id":"4","last_reported":1768807238,"current_range_meters":9600,"station_id":"st_d2m65c5bi1j21697t3ng","pricing_plan_id":"cebpf4jnsgd1na2vs0mg"},{"bike_id":"80b5b6ec-0d84-4f18-8da8-d8ab913ec870","system_id":"levelo_inurba_marseille","lat":43.27896,"lon":5.37409,"is_reserved":false,"is_disabled":false,"rental_uris":{"android":"levelo://app?vid=80b5b6ec-0d84-4f18-8da8-d8ab913ec870","ios":"levelo://app?vid=80b5b6ec-0d84-4f18-8da8-d8ab913ec870"},"vehicle_type_id":"4","last_reported":1768807238,"current_range_meters":9600,"station_id":"","pricing_plan_id":"cebpf4jnsgd1na2vs0mg"},{"bike_id":"5e47478e-2bb2-4617-945e-678ef1fb8faf","system_id":"levelo_inurba_marseille","lat":43.29752,"lon":5.42776,"is_reserved":false,"is_disabled":false,"rental_uris":{"android":"levelo://app?vid=5e47478e-2bb2-4617-945e-678ef1fb8faf","ios":"levelo://app?vid=5e47478e-2bb2-4617-945e-678ef1fb8faf"},"vehicle_type_id":"4","last_reported":1768807238,"current_range_meters":9600,"station_id":"st_d3md5207bmas73dh9klg","pricing_plan_id":"cebpf4jnsgd1na2vs0mg"},{"bike_id":"9731fe98-eff6-423c-9230-04d49ef1e664","system_id":"levelo_inurba_marseille","lat":43.24462,"lon":5.42543,"is_reserved":false,"is_disabled":false,"rental_uris":{"android":"levelo://app?vid=9731fe98-eff6-423c-9230-04d49ef1e664","ios":"levelo://app?vid=9731fe98-eff6-423c-9230-04d49ef1e664"},"vehicle_type_id":"4","last_reported":1768807238,"current_range_meters":10000,"station_id":"st_d4a3vfp97mjs738cd8kg","pricing_plan_id":"cebpf4jnsgd1na2vs0mg"},{"bike_id":"1ba022bd-cfe7-45b8-b77d-6bcccf037b41","system_id":"levelo_inurba_marseille","lat":43.314834,"lon":5.373022,"is_reserved":false,"is_disabled":false,"rental_uris":{"android":"levelo://app?vid=1ba022bd-cfe7-45b8-b77d-6bcccf037b41","ios":"levelo://app?vid=1ba022bd-cfe7-45b8-b77d-6bcccf037b41"},"vehicle_type_id":"4","last_reported":1768807238,"current_range_meters":10000,"station_id":"ce4bgt12rcd13ifvqcd0","pricing_plan_id":"cebpf4jnsgd1na2vs0mg"},{"bike_id":"f9dc3e16-2a68-4cd6-a051-94f73f8c584d","system_id":"levelo_inurba_marseille","lat":43.278208,"lon":5.407158,"is_reserved":false,"is_disabled":false,"rental_uris":{"android":"levelo://app?vid=f9dc3e16-2a68-4cd6-a051-94f73f8c584d","ios":"levelo://app?vid=f9dc3e16-2a68-4cd6-a051-94f73f8c584d"},"vehicle_type_id":"4","last_reported":1768807238,"current_range_meters":10000,"station_id":"ce4bhnh2rcd13ifvqgtg","pricing_plan_id":"cebpf4jnsgd1na2vs0mg"},{"bike_id":"15fa7938-6e9d-4ff0-8c10-f0e05689a462","system_id":"levelo_inurba_marseille","lat":43.331624,"lon":5.376924,"is_reserved":false,"is_disabled":false,"rental_uris":{"android":"levelo://app?vid=15fa7938-6e9d-4ff0-8c10-f0e05689a462","ios":"levelo://app?vid=15fa7938-6e9d-4ff0-8c10-f0e05689a462"},"vehicle_type_id":"4","last_reported":1768807238,"current_range_meters":10000,"station_id":"st_d46cu089ee8s73dldbu0","pricing_plan_id":"cebpf4jnsgd1na2vs0mg"},{"bike_id":"784bf8ae-0097-45a5-89e6-e9987ffc4672","system_id":"levelo_inurba_marseille","lat":43.24171,"lon":5.39729,"is_reserved":false,"is_disabled":false,"rental_uris":{"android":"levelo://app?vid=784bf8ae-0097-45a5-89e6-e9987ffc4672","ios":"levelo://app?vid=784bf8ae-0097-45a5-89e6-e9987ffc4672"},"vehicle_type_id":"4","last_reported":1768807238,"current_range_meters":10000,"station_id":"ce4bhn12rcd13ifvqgpg","pricing_plan_id":"cebpf4jnsgd1na2vs0mg"},{"bike_id":"f02a6d56-5cc6-441d-b096-ec037e71ba0d","system_id":"levelo_inurba_marseille","lat":43.29093,"lon":5.3895,"is_reserved":false,"is_disabled":false,"rental_uris":{"android":"levelo://app?vid=f02a6d56-5cc6-441d-b096-ec037e71ba0d","ios":"levelo://app?vid=f02a6d56-5cc6-441d-b096-ec037e71ba0d"},"vehicle_type_id":"4","last_reported":1768807238,"current_range_meters":10000,"station_id":"","pricing_plan_id":"cebpf4jnsgd1na2vs0mg"},{"bike_id":"257237c4-ad17-4c5c-bd8c-33a3d3f05dc6","system_id":"levelo_inurba_marseille","lat":43.285338,"lon":5.440969,"is_reserved":false,"is_disabled":false,"rental_uris":{"android":"levelo://app?vid=257237c4-ad17-4c5c-bd8c-33a3d3f05dc6","ios":"levelo://app?vid=257237c4-ad17-4c5c-bd8c-33a3d3f05dc6"},"vehicle_type_id":"4","last_reported":1768807238,"current_range_meters":10000,"station_id":"st_d3j3df2ikq2c7380ej80","pricing_plan_id":"cebpf4jnsgd1na2vs0mg"},{"bike_id":"6d1196a4-8ca8-4ebb-8e96-11e5c5ee3837","system_id":"levelo_inurba_marseille","lat":43.28349,"lon":5.38097,"is_reserved":false,"is_disabled":false,"rental_uris":{"android":"levelo://app?vid=6d1196a4-8ca8-4ebb-8e96-11e5c5ee3837","ios":"levelo://app?vid=6d1196a4-8ca8-4ebb-8e96-11e5c5ee3837"},"vehicle_type_id":"4","last_reported":1768807238,"current_range_meters":10000,"station_id":"ce4bh412rcd13ifvqdr0","pricing_plan_id":"cebpf4jnsgd1na2vs0mg"},{"bike_id":"79ee09ef-c9ef-45df-873b-2180e772469b","system_id":"levelo_inurba_marseille","lat":43.26228,"lon":5.38826,"is_reserved":false,"is_disabled":false,"rental_uris":{"android":"levelo://app?vid=79ee09ef-c9ef-45df-873b-2180e772469b","ios":"levelo://app?vid=79ee09ef-c9ef-45df-873b-2180e772469b"},"vehicle_type_id":"4","last_reported":1768807238,"current_range_meters":10000,"station_id":"","pricing_plan_id":"cebpf4jnsgd1na2vs0mg"},{"bike_id":"78aa8ab7-857a-4eb3-8420-e1306e947450","system_id":"levelo_inurba_marseille","lat":43.30467,"lon":5.37907,"is_reserved":false,"is_disabled":false,"rental_uris":{"android":"levelo://app?vid=78aa8ab7-857a-4eb3-8420-e1306e947450","ios":"levelo://app?vid=78aa8ab7-857a-4eb3-8420-e1306e947450"},"vehicle_type_id":"4","last_reported":1768807238,"current_range_meters":10000,"station_id":"ce4bgup2rcd13ifvqcn0","pricing_plan_id":"cebpf4jnsgd1na2vs0mg"},{"bike_id":"16102d87-29b2-4de5-8cea-0bb67fc5788e","system_id":"levelo_inurba_marseille","lat":43.296,"lon":5.38112,"is_reserved":false,"is_disabled":false,"rental_uris":{"android":"levelo://app?vid=16102d87-29b2-4de5-8cea-0bb67fc5788e","ios":"levelo://app?vid=16102d87-29b2-4de5-8cea-0bb67fc5788e"},"vehicle_type_id":"4","last_reported":1768807238,"current_range_meters":10000,"station_id":"ce4bgl12rcd13ifvqbo0","pricing_plan_id":"cebpf4jnsgd1na2vs0mg"},{"bike_id":"a230c296-8f76-4461-85f3-cef961a68cae","system_id":"levelo_inurba_marseille","lat":43.28147,"lon":5.43152,"is_reserved":false,"is_disabled":false,"rental_uris":{"android":"levelo://app?vid=a230c296-8f76-4461-85f3-cef961a68cae","ios":"levelo://app?vid=a230c296-8f76-4461-85f3-cef961a68cae"},"vehicle_type_id":"4","last_reported":1768807238,"current_range_meters":10000,"station_id":"","pricing_plan_id":"cebpf4jnsgd1na2vs0mg"},{"bike_id":"ea64526a-5533-47b9-9c09-5171f3da77ab","system_id":"levelo_inurba_marseille","lat":43.28894,"lon":5.42973,"is_reserved":false,"is_disabled":false,"rental_uris":{"android":"levelo://app?vid=ea64526a-5533-47b9-9c09-5171f3da77ab","ios":"levelo://app?vid=ea64526a-5533-47b9-9c09-5171f3da77ab"},"vehicle_type_id":"4","last_reported":1768807238,"current_range_meters":10000,"station_id":"","pricing_plan_id":"cebpf4jnsgd1na2vs0mg"},{"bike_id":"a9b667f5-aed0-4379-8434-74bca43648a7","system_id":"levelo_inurba_marseille","lat":43.26564,"lon":5.372897,"is_reserved":false,"is_disabled":false,"rental_uris":{"android":"levelo://app?vid=a9b667f5-aed0-4379-8434-74bca43648a7","ios":"levelo://app?vid=a9b667f5-aed0-4379-8434-74bca43648a7"},"vehicle_type_id":"4","last_reported":1768807238,"current_range_meters":10800,"station_id":"ce4bhg12rcd13ifvqf70","pricing_plan_id":"cebpf4jnsgd1na2vs0mg"},{"bike_id":"0c250cd0-6f0a-4492-8c3a-6d60fb5f5d61","system_id":"levelo_inurba_marseille","lat":43.31044,"lon":5.3718,"is_reserved":false,"is_disabled":false,"rental_uris":{"android":"levelo://app?vid=0c250cd0-6f0a-4492-8c3a-6d60fb5f5d61","ios":"levelo://app?vid=0c250cd0-6f0a-4492-8c3a-6d60fb5f5d61"},"vehicle_type_id":"4","last_reported":1768807238,"current_range_meters":10800,"station_id":"st_d4kl2rp97mjs73e7tdfg","pricing_plan_id":"cebpf4jnsgd1na2vs0mg"},{"bike_id":"fe068e4e-5726-4387-b759-602413089295","system_id":"levelo_inurba_marseille","lat":43.26061,"lon":5.39401,"is_reserved":false,"is_disabled":false,"rental_uris":{"android":"levelo://app?vid=fe068e4e-5726-4387-b759-602413089295","ios":"levelo://app?vid=fe068e4e-5726-4387-b759-602413089295"},"vehicle_type_id":"4","last_reported":1768807238,"current_range_meters":10800,"station_id":"ce4bhh92rcd13ifvqfj0","pricing_plan_id":"cebpf4jnsgd1na2vs0mg"},{"bike_id":"8bc5911e-e7fc-49e5-87c3-fd8fb417263b","system_id":"levelo_inurba_marseille","lat":43.30692,"lon":5.36577,"is_reserved":false,"is_disabled":false,"rental_uris":{"android":"levelo://app?vid=8bc5911e-e7fc-49e5-87c3-fd8fb417263b","ios":"levelo://app?vid=8bc5911e-e7fc-49e5-87c3-fd8fb417263b"},"vehicle_type_id":"4","last_reported":1768807238,"current_range_meters":10800,"station_id":"","pricing_plan_id":"cebpf4jnsgd1na2vs0mg"},{"bike_id":"bde3b441-c3bb-42c1-b29c-636d570a72c4","system_id":"levelo_inurba_marseille","lat":43.2621,"lon":5.40478,"is_reserved":false,"is_disabled":false,"rental_uris":{"android":"levelo://app?vid=bde3b441-c3bb-42c1-b29c-636d570a72c4","ios":"levelo://app?vid=bde3b441-c3bb-42c1-b29c-636d570a72c4"},"vehicle_type_id":"4","last_reported":1768807238,"current_range_meters":10800,"station_id":"ce4bhmh2rcd13ifvqgmg","pricing_plan_id":"cebpf4jnsgd1na2vs0mg"},{"bike_id":"98b7c4bc-df41-4591-92d4-d03ff0b10e8b","system_id":"levelo_inurba_marseille","lat":43.30109,"lon":5.43122,"is_reserved":false,"is_disabled":false,"rental_uris":{"android":"levelo://app?vid=98b7c4bc-df41-4591-92d4-d03ff0b10e8b","ios":"levelo://app?vid=98b7c4bc-df41-4591-92d4-d03ff0b10e8b"},"vehicle_type_id":"4","last_reported":1768807238,"current_range_meters":10800,"station_id":"st_d3js3co5814s73ftftug","pricing_plan_id":"cebpf4jnsgd1na2vs0mg"},{"bike_id":"897afa57-164c-4cfc-901d-614d477f19fd","system_id":"levelo_inurba_marseille","lat":43.29726,"lon":5.37376,"is_reserved":false,"is_disabled":false,"rental_uris":{"android":"levelo://app?vid=897afa57-164c-4cfc-901d-614d477f19fd","ios":"levelo://app?vid=897afa57-164c-4cfc-901d-614d477f19fd"},"vehicle_type_id":"4","last_reported":1768807238,"current_range_meters":10800,"station_id":"","pricing_plan_id":"cebpf4jnsgd1na2vs0mg"},{"bike_id":"4d5a34c4-5f2e-4ef5-bb82-35f550258ee1","system_id":"levelo_inurba_marseille","lat":43.26056,"lon":5.39374,"is_reserved":false,"is_disabled":false,"rental_uris":{"android":"levelo://app?vid=4d5a34c4-5f2e-4ef5-bb82-35f550258ee1","ios":"levelo://app?vid=4d5a34c4-5f2e-4ef5-bb82-35f550258ee1"},"vehicle_type_id":"4","last_reported":1768807238,"current_range_meters":10800,"station_id":"ce4bhh92rcd13ifvqfj0","pricing_plan_id":"cebpf4jnsgd1na2vs0mg"},{"bike_id":"d81ef32a-a56b-4784-81ce-01a9faf82e78","system_id":"levelo_inurba_marseille","lat":43.24937,"lon":5.40515,"is_reserved":false,"is_disabled":false,"rental_uris":{"android":"levelo://app?vid=d81ef32a-a56b-4784-81ce-01a9faf82e78","ios":"levelo://app?vid=d81ef32a-a56b-4784-81ce-01a9faf82e78"},"vehicle_type_id":"4","last_reported":1768807238,"current_range_meters":10800,"station_id":"st_d2ngiaodas8pm72gd1h0","pricing_plan_id":"cebpf4jnsgd1na2vs0mg"},{"bike_id":"aad2f2a1-05d5-483b-af83-ed9a3138acee","system_id":"levelo_inurba_marseille","lat":43.24139,"lon":5.39714,"is_reserved":false,"is_disabled":false,"rental_uris":{"android":"levelo://app?vid=aad2f2a1-05d5-483b-af83-ed9a3138acee","ios":"levelo://app?vid=aad2f2a1-05d5-483b-af83-ed9a3138acee"},"vehicle_type_id":"4","last_reported":1768807238,"current_range_meters":10800,"station_id":"ce4bhn12rcd13ifvqgpg","pricing_plan_id":"cebpf4jnsgd1na2vs0mg"},{"bike_id":"d37fbd57-975a-458d-86c1-4646adc5d0a1","system_id":"levelo_inurba_marseille","lat":43.26003,"lon":5.41753,"is_reserved":false,"is_disabled":false,"rental_uris":{"android":"levelo://app?vid=d37fbd57-975a-458d-86c1-4646adc5d0a1","ios":"levelo://app?vid=d37fbd57-975a-458d-86c1-4646adc5d0a1"},"vehicle_type_id":"4","last_reported":1768807238,"current_range_meters":10800,"station_id":"","pricing_plan_id":"cebpf4jnsgd1na2vs0mg"},{"bike_id":"7f328901-e2af-49d9-8454-9b1d548120d1","system_id":"levelo_inurba_marseille","lat":43.27045,"lon":5.38299,"is_reserved":false,"is_disabled":false,"rental_uris":{"android":"levelo://app?vid=7f328901-e2af-49d9-8454-9b1d548120d1","ios":"levelo://app?vid=7f328901-e2af-49d9-8454-9b1d548120d1"},"vehicle_type_id":"4","last_reported":1768807238,"current_range_meters":10800,"station_id":"st_d3n2fo6cfp8s73cte1j0","pricing_plan_id":"cebpf4jnsgd1na2vs0mg"},{"bike_id":"9d95eb10-4e17-432a-a3f0-5f1ade05818c","system_id":"levelo_inurba_marseille","lat":43.29785,"lon":5.38112,"is_reserved":false,"is_disabled":true,"rental_uris":{"android":"levelo://app?vid=9d95eb10-4e17-432a-a3f0-5f1ade05818c","ios":"levelo://app?vid=9d95eb10-4e17-432a-a3f0-5f1ade05818c"},"vehicle_type_id":"4","last_reported":1768807238,"current_range_meters":10800,"station_id":"ce4bgip2rcd13ifvqbb0","pricing_plan_id":"cebpf4jnsgd1na2vs0mg"},{"bike_id":"da057940-cca2-41e8-bcfd-561ab09e1218","system_id":"levelo_inurba_marseille","lat":43.28698,"lon":5.38974,"is_reserved":false,"is_disabled":false,"rental_uris":{"android":"levelo://app?vid=da057940-cca2-41e8-bcfd-561ab09e1218","ios":"levelo://app?vid=da057940-cca2-41e8-bcfd-561ab09e1218"},"vehicle_type_id":"4","last_reported":1768807238,"current_range_meters":10800,"station_id":"","pricing_plan_id":"cebpf4jnsgd1na2vs0mg"},{"bike_id":"59976ec8-c2a7-4cc0-bf57-cc6d440be4fd","system_id":"levelo_inurba_marseille","lat":43.2656,"lon":5.39008,"is_reserved":false,"is_disabled":false,"rental_uris":{"android":"levelo://app?vid=59976ec8-c2a7-4cc0-bf57-cc6d440be4fd","ios":"levelo://app?vid=59976ec8-c2a7-4cc0-bf57-cc6d440be4fd"},"vehicle_type_id":"4","last_reported":1768807238,"current_range_meters":11200,"station_id":"ce4bhe12rcd13ifvqf30","pricing_plan_id":"cebpf4jnsgd1na2vs0mg"},{"bike_id":"361494c3-cd3d-450c-9015-a2ad0304dbbd","system_id":"levelo_inurba_marseille","lat":43.27968,"lon":5.41653,"is_reserved":false,"is_disabled":false,"rental_uris":{"android":"levelo://app?vid=361494c3-cd3d-450c-9015-a2ad0304dbbd","ios":"levelo://app?vid=361494c3-cd3d-450c-9015-a2ad0304dbbd"},"vehicle_type_id":"4","last_reported":1768807238,"current_range_meters":11200,"station_id":"ce4bho12rcd13ifvqh1g","pricing_plan_id":"cebpf4jnsgd1na2vs0mg"},{"bike_id":"b88f9dc4-a95b-4a2f-a61d-1b3d786e47bc","system_id":"levelo_inurba_marseille","lat":43.26071,"lon":5.39402,"is_reserved":false,"is_disabled":false,"rental_uris":{"android":"levelo://app?vid=b88f9dc4-a95b-4a2f-a61d-1b3d786e47bc","ios":"levelo://app?vid=b88f9dc4-a95b-4a2f-a61d-1b3d786e47bc"},"vehicle_type_id":"4","last_reported":1768807238,"current_range_meters":11200,"station_id":"ce4bhh92rcd13ifvqfj0","pricing_plan_id":"cebpf4jnsgd1na2vs0mg"},{"bike_id":"c688b8fe-f6e2-45f3-b346-bdabef56e39e","system_id":"levelo_inurba_marseille","lat":43.25346,"lon":5.4218,"is_reserved":false,"is_disabled":false,"rental_uris":{"android":"levelo://app?vid=c688b8fe-f6e2-45f3-b346-bdabef56e39e","ios":"levelo://app?vid=c688b8fe-f6e2-45f3-b346-bdabef56e39e"},"vehicle_type_id":"4","last_reported":1768807238,"current_range_meters":11200,"station_id":"st_d2m65c5bi1j21697t3ng","pricing_plan_id":"cebpf4jnsgd1na2vs0mg"},{"bike_id":"c70f476b-d797-4426-846c-5e24e60f6d24","system_id":"levelo_inurba_marseille","lat":43.26563,"lon":5.389985,"is_reserved":false,"is_disabled":false,"rental_uris":{"android":"levelo://app?vid=c70f476b-d797-4426-846c-5e24e60f6d24","ios":"levelo://app?vid=c70f476b-d797-4426-846c-5e24e60f6d24"},"vehicle_type_id":"4","last_reported":1768807238,"current_range_meters":11200,"station_id":"ce4bhe12rcd13ifvqf30","pricing_plan_id":"cebpf4jnsgd1na2vs0mg"},{"bike_id":"4fa3edc5-5736-4185-b67a-9c469436760d","system_id":"levelo_inurba_marseille","lat":43.30266,"lon":5.43429,"is_reserved":false,"is_disabled":false,"rental_uris":{"android":"levelo://app?vid=4fa3edc5-5736-4185-b67a-9c469436760d","ios":"levelo://app?vid=4fa3edc5-5736-4185-b67a-9c469436760d"},"vehicle_type_id":"4","last_reported":1768807238,"current_range_meters":11200,"station_id":"","pricing_plan_id":"cebpf4jnsgd1na2vs0mg"},{"bike_id":"9f8a798f-f95b-4979-8eb8-4ed719f4c356","system_id":"levelo_inurba_marseille","lat":43.303164,"lon":5.369206,"is_reserved":false,"is_disabled":false,"rental_uris":{"android":"levelo://app?vid=9f8a798f-f95b-4979-8eb8-4ed719f4c356","ios":"levelo://app?vid=9f8a798f-f95b-4979-8eb8-4ed719f4c356"},"vehicle_type_id":"4","last_reported":1768807238,"current_range_meters":11200,"station_id":"ce4bgqh2rcd13ifvqc5g","pricing_plan_id":"cebpf4jnsgd1na2vs0mg"},{"bike_id":"586dfadf-e81a-4fc2-a454-26b1964d327d","system_id":"levelo_inurba_marseille","lat":43.32347,"lon":5.36753,"is_reserved":false,"is_disabled":false,"rental_uris":{"android":"levelo://app?vid=586dfadf-e81a-4fc2-a454-26b1964d327d","ios":"levelo://app?vid=586dfadf-e81a-4fc2-a454-26b1964d327d"},"vehicle_type_id":"4","last_reported":1768807238,"current_range_meters":11200,"station_id":"ce4bhsh2rcd13ifvqi2g","pricing_plan_id":"cebpf4jnsgd1na2vs0mg"},{"bike_id":"94a28a6d-b0f3-400f-920d-834cf012e5ce","system_id":"levelo_inurba_marseille","lat":43.25817,"lon":5.39427,"is_reserved":false,"is_disabled":false,"rental_uris":{"android":"levelo://app?vid=94a28a6d-b0f3-400f-920d-834cf012e5ce","ios":"levelo://app?vid=94a28a6d-b0f3-400f-920d-834cf012e5ce"},"vehicle_type_id":"4","last_reported":1768807238,"current_range_meters":11200,"station_id":"ce4bhip2rcd13ifvqft0","pricing_plan_id":"cebpf4jnsgd1na2vs0mg"},