{"last_updated":1732025381,"ttl":60,"version":"2.2","data":{"bikes":[{"bike_id":"cacde89c-5086-4b87-8bcd-a2b586b3345d","system_id":"levelo_inurba_marseille","lat":43.3015,"lon":5.38103,"is_reserved":false,"is_disabled":true,"rental_uris":{"android":"levelo://app?vid=cacde89c-5086-4b87-8bcd-a2b586b3345d","ios":"levelo://app?vid=cacde89c-5086-4b87-8bcd-a2b586b3345d"},"vehicle_type_id":"4","last_reported":1732025382,"current_range_meters":38800,"station_id":"ce4bgjp2rcd13ifvqbh0","pricing_plan_id":"cebpf4jnsgd1na2vs0mg"},{"bike_id":"2e9bab8e-ab55-4691-9848-dd507e5d945b","system_id":"levelo_inurba_marseille","lat":43.25495,"lon":5.37648,"is_reserved":false,"is_disabled":false,"rental_uris":{"android":"levelo://app?vid=2e9bab8e-ab55-4691-9848-dd507e5d945b","ios":"levelo://app?vid=2e9bab8e-ab55-4691-9848-dd507e5d945b"},"vehicle_type_id":"4","last_reported":1732025382,"current_range_meters":39200,"station_id":"ce4bhh12rcd13ifvqff0","pricing_plan_id":"cebpf4jnsgd1na2vs0mg"},{"bike_id":"27971e87-04ee-40c0-a144-7cf2f341bd45","system_id":"levelo_inurba_marseille","lat":43.29419,"lon":5.38617,"is_reserved":false,"is_disabled":false,"rental_uris":{"android":"levelo://app?vid=27971e87-04ee-40c0-a144-7cf2f341bd45","ios":"levelo://app?vid=27971e87-04ee-40c0-a144-7cf2f341bd45"},"vehicle_type_id":"4","last_reported":1732025382,"current_range_meters":28400,"station_id":"ce4bh2h2rcd13ifvqdh0","pricing_plan_id":"cebpf4jnsgd1na2vs0mg"},{"bike_id":"f14bd313-241e-47af-9295-341aef8f037a","system_id":"levelo_inurba_marseille","lat":43.27488,"lon":5.42449,"is_reserved":false,"is_disabled":false,"rental_uris":{"android":"levelo://app?vid=f14bd313-241e-47af-9295-341aef8f037a","ios":"levelo://app?vid=f14bd313-241e-47af-9295-341aef8f037a"},"vehicle_type_id":"4","last_reported":1732025382,"current_range_meters":27600,"station_id":"ce4bhn92rcd13ifvqgrg","pricing_plan_id":"cebpf4jnsgd1na2vs0mg"},{"bike_id":"56b1e23a-a8b6-4eed-a858-f200a5a0a62a","system_id":"levelo_inurba_marseille","lat":43.23148,"lon":5.43727,"is_reserved":false,"is_disabled":false,"rental_uris":{"android":"levelo://app?vid=56b1e23a-a8b6-4eed-a858-f200a5a0a62a","ios":"levelo://app?vid=56b1e23a-a8b6-4eed-a858-f200a5a0a62a"},"vehicle_type_id":"4","last_reported":1732025382,"current_range_meters":38400,"station_id":"ce4bhmp2rcd13ifvqgog","pricing_plan_id":"cebpf4jnsgd1na2vs0mg"},{"bike_id":"bb9ea763-6e93-4922-b0c2-ce9421dca49b","system_id":"levelo_inurba_marseille","lat":43.25932,"lon":5.40911,"is_reserved":false,"is_disabled":true,"rental_uris":{"android":"levelo://app?vid=bb9ea763-6e93-4922-b0c2-ce9421dca49b","ios":"levelo://app?vid=bb9ea763-6e93-4922-b0c2-ce9421dca49b"},"vehicle_type_id":"4","last_reported":1732025382,"current_range_meters":0,"station_id":"ce4bhm92rcd13ifvqglg","pricing_plan_id":"cebpf4jnsgd1na2vs0mg"},{"bike_id":"696dad62-b035-4843-b522-aad62f104751","system_id":"levelo_inurba_marseille","lat":43.34141,"lon":5.40923,"is_reserved":false,"is_disabled":false,"rental_uris":{"android":"levelo://app?vid=696dad62-b035-4843-b522-aad62f104751","ios":"levelo://app?vid=696dad62-b035-4843-b522-aad62f104751"},"vehicle_type_id":"4","last_reported":1732025382,"current_range_meters":25200,"station_id":"ce4bhqh2rcd13ifvqhlg","pricing_plan_id":"cebpf4jnsgd1na2vs0mg"},{"bike_id":"88ec678b-ecf3-4d70-b617-4cb5f3e2902d","system_id":"levelo_inurba_marseille","lat":43.29848,"lon":5.36288,"is_reserved":false,"is_disabled":false,"rental_uris":{"android":"levelo://app?vid=88ec678b-ecf3-4d70-b617-4cb5f3e2902d","ios":"levelo://app?vid=88ec678b-ecf3-4d70-b617-4cb5f3e2902d"},"vehicle_type_id":"4","last_reported":1732025382,"current_range_meters":17600,"station_id":"ce4bgpp2rcd13ifvqc3g","pricing_plan_id":"cebpf4jnsgd1na2vs0mg"},{"bike_id":"d1558629-886b-4ba1-9023-1c47fc01e49c","system_id":"levelo_inurba_marseille","lat":43.32474,"lon":5.36566,"is_reserved":false,"is_disabled":false,"rental_uris":{"android":"levelo://app?vid=d1558629-886b-4ba1-9023-1c47fc01e49c","ios":"levelo://app?vid=d1558629-886b-4ba1-9023-1c47fc01e49c"},"vehicle_type_id":"4","last_reported":1732025382,"current_range_meters":28400,"station_id":"ce4bhs12rcd13ifvqhvg","pricing_plan_id":"cebpf4jnsgd1na2vs0mg"},{"bike_id":"57e77ac8-34ec-43b5-a39b-336eccbba646","system_id":"levelo_inurba_marseille","lat":43.337444,"lon":5.374475,"is_reserved":false,"is_disabled":false,"rental_uris":{"android":"levelo://app?vid=57e77ac8-34ec-43b5-a39b-336eccbba646","ios":"levelo://app?vid=57e77ac8-34ec-43b5-a39b-336eccbba646"},"vehicle_type_id":"4","last_reported":1732025382,"current_range_meters":38000,"station_id":"","pricing_plan_id":"cebpf4jnsgd1na2vs0mg"},{"bike_id":"bd9ed099-582b-409c-b781-8c5bed8b30c8","system_id":"levelo_inurba_marseille","lat":43.29802,"lon":5.38101,"is_reserved":false,"is_disabled":false,"rental_uris":{"android":"levelo://app?vid=bd9ed099-582b-409c-b781-8c5bed8b30c8","ios":"levelo://app?vid=bd9ed099-582b-409c-b781-8c5bed8b30c8"},"vehicle_type_id":"4","last_reported":1732025382,"current_range_meters":24800,"station_id":"ce4bgip2rcd13ifvqbb0","pricing_plan_id":"cebpf4jnsgd1na2vs0mg"},{"bike_id":"ab8b3dcb-d33d-4854-a37e-2243fffa6f29","system_id":"levelo_inurba_marseille","lat":43.30155,"lon":5.38079,"is_reserved":false,"is_disabled":false,"rental_uris":{"android":"levelo://app?vid=ab8b3dcb-d33d-4854-a37e-2243fffa6f29","ios":"levelo://app?vid=ab8b3dcb-d33d-4854-a37e-2243fffa6f29"},"vehicle_type_id":"4","last_reported":1732025382,"current_range_meters":34800,"station_id":"ce4bgjp2rcd13ifvqbh0","pricing_plan_id":"cebpf4jnsgd1na2vs0mg"},{"bike_id":"045e4c5f-fd8d-464c-ba14-d131fac4aa19","system_id":"levelo_inurba_marseille","lat":43.29029,"lon":5.39986,"is_reserved":false,"is_disabled":false,"rental_uris":{"android":"levelo://app?vid=045e4c5f-fd8d-464c-ba14-d131fac4aa19","ios":"levelo://app?vid=045e4c5f-fd8d-464c-ba14-d131fac4aa19"},"vehicle_type_id":"4","last_reported":1732025382,"current_range_meters":8000,"station_id":"ce4bh392rcd13ifvqdm0","pricing_plan_id":"cebpf4jnsgd1na2vs0mg"},{"bike_id":"0ea93326-5034-4b5e-97b8-0a33b4d38611","system_id":"levelo_inurba_marseille","lat":43.30152,"lon":5.38103,"is_reserved":false,"is_disabled":true,"rental_uris":{"android":"levelo://app?vid=0ea93326-5034-4b5e-97b8-0a33b4d38611","ios":"levelo://app?vid=0ea93326-5034-4b5e-97b8-0a33b4d38611"},"vehicle_type_id":"4","last_reported":1732025382,"current_range_meters":0,"station_id":"ce4bgjp2rcd13ifvqbh0","pricing_plan_id":"cebpf4jnsgd1na2vs0mg"},{"bike_id":"4da0d7ae-4ac3-4b4f-9fda-e97bef6cd5ed","system_id":"levelo_inurba_marseille","lat":43.29989,"lon":5.3718,"is_reserved":false,"is_disabled":false,"rental_uris":{"android":"levelo://app?vid=4da0d7ae-4ac3-4b4f-9fda-e97bef6cd5ed","ios":"levelo://app?vid=4da0d7ae-4ac3-4b4f-9fda-e97bef6cd5ed"},"vehicle_type_id":"4","last_reported":1732025382,"current_range_meters":39200,"station_id":"ce4bgr92rcd13ifvqc7g","pricing_plan_id":"cebpf4jnsgd1na2vs0mg"},{"bike_id":"2b36ced2-cd93-4f1e-bab4-b1fdac9aeaf6","system_id":"levelo_inurba_marseille","lat":43.303246,"lon":5.404317,"is_reserved":false,"is_disabled":false,"rental_uris":{"android":"levelo://app?vid=2b36ced2-cd93-4f1e-bab4-b1fdac9aeaf6","ios":"levelo://app?vid=2b36ced2-cd93-4f1e-bab4-b1fdac9aeaf6"},"vehicle_type_id":"4","last_reported":1732025382,"current_range_meters":27600,"station_id":"ce4bh012rcd13ifvqd10","pricing_plan_id":"cebpf4jnsgd1na2vs0mg"},{"bike_id":"ec9e033d-d985-48fe-a702-ee6ff7947932","system_id":"levelo_inurba_marseille","lat":43.26555,"lon":5.37285,"is_reserved":false,"is_disabled":false,"rental_uris":{"android":"levelo://app?vid=ec9e033d-d985-48fe-a702-ee6ff7947932","ios":"levelo://app?vid=ec9e033d-d985-48fe-a702-ee6ff7947932"},"vehicle_type_id":"4","last_reported":1732025382,"current_range_meters":30800,"station_id":"ce4bhg12rcd13ifvqf70","pricing_plan_id":"cebpf4jnsgd1na2vs0mg"},{"bike_id":"b1879da0-4952-4a10-8d90-fd2192536eda","system_id":"levelo_inurba_marseille","lat":43.23154,"lon":5.43719,"is_reserved":false,"is_disabled":false,"rental_uris":{"android":"levelo://app?vid=b1879da0-4952-4a10-8d90-fd2192536eda","ios":"levelo://app?vid=b1879da0-4952-4a10-8d90-fd2192536eda"},"vehicle_type_id":"4","last_reported":1732025382,"current_range_meters":39200,"station_id":"ce4bhmp2rcd13ifvqgog","pricing_plan_id":"cebpf4jnsgd1na2vs0mg"},{"bike_id":"a42947c2-80f2-4295-b755-4aed96b147a2","system_id":"levelo_inurba_marseille","lat":43.31167,"lon":5.38727,"is_reserved":false,"is_disabled":false,"rental_uris":{"android":"levelo://app?vid=a42947c2-80f2-4295-b755-4aed96b147a2","ios":"levelo://app?vid=a42947c2-80f2-4295-b755-4aed96b147a2"},"vehicle_type_id":"4","last_reported":1732025382,"current_range_meters":36400,"station_id":"ce4bgv12rcd13ifvqcp0","pricing_plan_id":"cebpf4jnsgd1na2vs0mg"},{"bike_id":"31e0f2e5-7a97-4e9d-a2e0-e7ac86565714","system_id":"levelo_inurba_marseille","lat":43.301476,"lon":5.375221,"is_reserved":false,"is_disabled":false,"rental_uris":{"android":"levelo://app?vid=31e0f2e5-7a97-4e9d-a2e0-e7ac86565714","ios":"levelo://app?vid=31e0f2e5-7a97-4e9d-a2e0-e7ac86565714"},"vehicle_type_id":"4","last_reported":1732025382,"current_range_meters":37600,"station_id":"","pricing_plan_id":"cebpf4jnsgd1na2vs0mg"},{"bike_id":"c85666ef-4eaa-47a5-b89b-259bc40468c0","system_id":"levelo_inurba_marseille","lat":43.33024,"lon":5.39037,"is_reserved":false,"is_disabled":true,"rental_uris":{"android":"levelo://app?vid=c85666ef-4eaa-47a5-b89b-259bc40468c0","ios":"levelo://app?vid=c85666ef-4eaa-47a5-b89b-259bc40468c0"},"vehicle_type_id":"4","last_reported":1732025382,"current_range_meters":2000,"station_id":"ce4bhr92rcd13ifvqhrg","pricing_plan_id":"cebpf4jnsgd1na2vs0mg"},{"bike_id":"d01ce73b-17bb-475f-a47d-dba68d64132c","system_id":"levelo_inurba_marseille","lat":43.31226,"lon":5.36867,"is_reserved":false,"is_disabled":false,"rental_uris":{"android":"levelo://app?vid=d01ce73b-17bb-475f-a47d-dba68d64132c","ios":"levelo://app?vid=d01ce73b-17bb-475f-a47d-dba68d64132c"},"vehicle_type_id":"4","last_reported":1732025382,"current_range_meters":33600,"station_id":"ce4bgl92rcd13ifvqbq0","pricing_plan_id":"cebpf4jnsgd1na2vs0mg"},{"bike_id":"ccebe5cf-2c1f-4616-9818-dd870a925438","system_id":"levelo_inurba_marseille","lat":43.31886,"lon":5.40741,"is_reserved":false,"is_disabled":false,"rental_uris":{"android":"levelo://app?vid=ccebe5cf-2c1f-4616-9818-dd870a925438","ios":"levelo://app?vid=ccebe5cf-2c1f-4616-9818-dd870a925438"},"vehicle_type_id":"4","last_reported":1732025382,"current_range_meters":38800,"station_id":"ce4bhq12rcd13ifvqhig","pricing_plan_id":"cebpf4jnsgd1na2vs0mg"},{"bike_id":"82d7fedd-7631-4155-8a97-4b794d46f2d7","system_id":"levelo_inurba_marseille","lat":43.29707,"lon":5.366,"is_reserved":false,"is_disabled":false,"rental_uris":{"android":"levelo://app?vid=82d7fedd-7631-4155-8a97-4b794d46f2d7","ios":"levelo://app?vid=82d7fedd-7631-4155-8a97-4b794d46f2d7"},"vehicle_type_id":"4","last_reported":1732025382,"current_range_meters":9600,"station_id":"ce4bgn12rcd13ifvqbt0","pricing_plan_id":"cebpf4jnsgd1na2vs0mg"},{"bike_id":"6cd7b50d-b764-4c8a-a1e1-8711453a0e0d","system_id":"levelo_inurba_marseille","lat":43.29803,"lon":5.38087,"is_reserved":false,"is_disabled":false,"rental_uris":{"android":"levelo://app?vid=6cd7b50d-b764-4c8a-a1e1-8711453a0e0d","ios":"levelo://app?vid=6cd7b50d-b764-4c8a-a1e1-8711453a0e0d"},"vehicle_type_id":"4","last_reported":1732025382,"current_range_meters":38000,"station_id":"ce4bgip2rcd13ifvqbb0","pricing_plan_id":"cebpf4jnsgd1na2vs0mg"},{"bike_id":"4f17ca83-5b56-46c8-9eb1-44219ca2b9a0","system_id":"levelo_inurba_marseille","lat":43.29838,"lon":5.38346,"is_reserved":false,"is_disabled":false,"rental_uris":{"android":"levelo://app?vid=4f17ca83-5b56-46c8-9eb1-44219ca2b9a0","ios":"levelo://app?vid=4f17ca83-5b56-46c8-9eb1-44219ca2b9a0"},"vehicle_type_id":"4","last_reported":1732025382,"current_range_meters":22400,"station_id":"","pricing_plan_id":"cebpf4jnsgd1na2vs0mg"},{"bike_id":"d9b39b2f-08ad-4db7-9e1a-dd255edfa61f","system_id":"levelo_inurba_marseille","lat":43.29258,"lon":5.38442,"is_reserved":false,"is_disabled":false,"rental_uris":{"android":"levelo://app?vid=d9b39b2f-08ad-4db7-9e1a-dd255edfa61f","ios":"levelo://app?vid=d9b39b2f-08ad-4db7-9e1a-dd255edfa61f"},"vehicle_type_id":"4","last_reported":1732025382,"current_range_meters":38800,"station_id":"ce4bh692rcd13ifvqea0","pricing_plan_id":"cebpf4jnsgd1na2vs0mg"},{"bike_id":"e558fbe9-1349-4b04-9ba5-017d39440129","system_id":"levelo_inurba_marseille","lat":43.3016,"lon":5.3809,"is_reserved":false,"is_disabled":false,"rental_uris":{"android":"levelo://app?vid=e558fbe9-1349-4b04-9ba5-017d39440129","ios":"levelo://app?vid=e558fbe9-1349-4b04-9ba5-017d39440129"},"vehicle_type_id":"4","last_reported":1732025382,"current_range_meters":18800,"station_id":"ce4bgjp2rcd13ifvqbh0","pricing_plan_id":"cebpf4jnsgd1na2vs0mg"},{"bike_id":"1f28c99d-f14b-46b1-a2cd-f1a94e16d3c4","system_id":"levelo_inurba_marseille","lat":43.30554,"lon":5.36534,"is_reserved":false,"is_disabled":false,"rental_uris":{"android":"levelo://app?vid=1f28c99d-f14b-46b1-a2cd-f1a94e16d3c4","ios":"levelo://app?vid=1f28c99d-f14b-46b1-a2cd-f1a94e16d3c4"},"vehicle_type_id":"4","last_reported":1732025382,"current_range_meters":12400,"station_id":"ce4bgs12rcd13ifvqcag","pricing_plan_id":"cebpf4jnsgd1na2vs0mg"},{"bike_id":"dbccf259-6580-4077-8f20-0e17b25252ff","system_id":"levelo_inurba_marseille","lat":43.298,"lon":5.38102,"is_reserved":false,"is_disabled":false,"rental_uris":{"android":"levelo://app?vid=dbccf259-6580-4077-8f20-0e17b25252ff","ios":"levelo://app?vid=dbccf259-6580-4077-8f20-0e17b25252ff"},"vehicle_type_id":"4","last_reported":1732025382,"current_range_meters":37600,"station_id":"ce4bgip2rcd13ifvqbb0","pricing_plan_id":"cebpf4jnsgd1na2vs0mg"},{"bike_id":"76d72dcf-598b-4e03-868c-0f860d5babbd","system_id":"levelo_inurba_marseille","lat":43.29711,"lon":5.37704,"is_reserved":false,"is_disabled":false,"rental_uris":{"android":"levelo://app?vid=76d72dcf-598b-4e03-868c-0f860d5babbd","ios":"levelo://app?vid=76d72dcf-598b-4e03-868c-0f860d5babbd"},"vehicle_type_id":"4","last_reported":1732025382,"current_range_meters":26000,"station_id":"ce4bgkh2rcd13ifvqbl0","pricing_plan_id":"cebpf4jnsgd1na2vs0mg"},{"bike_id":"02d39492-c26b-4108-b60e-00dc0361c13e","system_id":"levelo_inurba_marseille","lat":43.2979,"lon":5.38099,"is_reserved":false,"is_disabled":false,"rental_uris":{"android":"levelo://app?vid=02d39492-c26b-4108-b60e-00dc0361c13e","ios":"levelo://app?vid=02d39492-c26b-4108-b60e-00dc0361c13e"},"vehicle_type_id":"4","last_reported":1732025382,"current_range_meters":27600,"station_id":"ce4bgip2rcd13ifvqbb0","pricing_plan_id":"cebpf4jnsgd1na2vs0mg"},{"bike_id":"1341a828-b981-4198-a789-8a5791ca7539","system_id":"levelo_inurba_marseille","lat":43.25006,"lon":5.3892,"is_reserved":false,"is_disabled":false,"rental_uris":{"android":"levelo://app?vid=1341a828-b981-4198-a789-8a5791ca7539","ios":"levelo://app?vid=1341a828-b981-4198-a789-8a5791ca7539"},"vehicle_type_id":"4","last_reported":1732025382,"current_range_meters":36400,"station_id":"ce4bhgp2rcd13ifvqfd0","pricing_plan_id":"cebpf4jnsgd1na2vs0mg"},{"bike_id":"2eb8bf07-c314-407a-b867-b5ba00bca695","system_id":"levelo_inurba_marseille","lat":43.30088,"lon":5.39076,"is_reserved":false,"is_disabled":false,"rental_uris":{"android":"levelo://app?vid=2eb8bf07-c314-407a-b867-b5ba00bca695","ios":"levelo://app?vid=2eb8bf07-c314-407a-b867-b5ba00bca695"},"vehicle_type_id":"4","last_reported":1732025382,"current_range_meters":38000,"station_id":"ce4bh192rcd13ifvqdb0","pricing_plan_id":"cebpf4jnsgd1na2vs0mg"},{"bike_id":"e3511c0c-eb2b-4100-bb2d-c5ebcd644bea","system_id":"levelo_inurba_marseille","lat":43.23956,"lon":5.36636,"is_reserved":false,"is_disabled":true,"rental_uris":{"android":"levelo://app?vid=e3511c0c-eb2b-4100-bb2d-c5ebcd644bea","ios":"levelo://app?vid=e3511c0c-eb2b-4100-bb2d-c5ebcd644bea"},"vehicle_type_id":"4","last_reported":1732025382,"current_range_meters":36000,"station_id":"ce4bhi12rcd13ifvqfp0","pricing_plan_id":"cebpf4jnsgd1na2vs0mg"},{"bike_id":"7dc2540e-5c15-49cc-843d-b22dafd2ded0","system_id":"levelo_inurba_marseille","lat":43.33768,"lon":5.37434,"is_reserved":false,"is_disabled":false,"rental_uris":{"android":"levelo://app?vid=7dc2540e-5c15-49cc-843d-b22dafd2ded0","ios":"levelo://app?vid=7dc2540e-5c15-49cc-843d-b22dafd2ded0"},"vehicle_type_id":"4","last_reported":1732025382,"current_range_meters":38400,"station_id":"","pricing_plan_id":"cebpf4jnsgd1na2vs0mg"},{"bike_id":"5917a06d-1a89-42ee-9c96-70b3e49f2520","system_id":"levelo_inurba_marseille","lat":43.3169,"lon":5.40484,"is_reserved":false,"is_disabled":true,"rental_uris":{"android":"levelo://app?vid=5917a06d-1a89-42ee-9c96-70b3e49f2520","ios":"levelo://app?vid=5917a06d-1a89-42ee-9c96-70b3e49f2520"},"vehicle_type_id":"4","last_reported":1732025382,"current_range_meters":11600,"station_id":"ce4bh012rcd13ifvqd00","pricing_plan_id":"cebpf4jnsgd1na2vs0mg"},{"bike_id":"5195aaa3-79fd-44d1-b376-61518cfba24b","system_id":"levelo_inurba_marseille","lat":43.26564,"lon":5.39045,"is_reserved":false,"is_disabled":false,"rental_uris":{"android":"levelo://app?vid=5195aaa3-79fd-44d1-b376-61518cfba24b","ios":"levelo://app?vid=5195aaa3-79fd-44d1-b376-61518cfba24b"},"vehicle_type_id":"4","last_reported":1732025382,"current_range_meters":30000,"station_id":"ce4bhe12rcd13ifvqf30","pricing_plan_id":"cebpf4jnsgd1na2vs0mg"},{"bike_id":"f2d61e6d-f81d-4bda-a7f4-edbc7137df41","system_id":"levelo_inurba_marseille","lat":43.29632,"lon":5.40601,"is_reserved":false,"is_disabled":false,"rental_uris":{"android":"levelo://app?vid=f2d61e6d-f81d-4bda-a7f4-edbc7137df41","ios":"levelo://app?vid=f2d61e6d-f81d-4bda-a7f4-edbc7137df41"},"vehicle_type_id":"4","last_reported":1732025382,"current_range_meters":15200,"station_id":"ce4bh0h2rcd13ifvqd60","pricing_plan_id":"cebpf4jnsgd1na2vs0mg"},{"bike_id":"d68a992d-a759-476b-bd80-c515009a15ba","system_id":"levelo_inurba_marseille","lat":43.29274,"lon":5.4014,"is_reserved":false,"is_disabled":false,"rental_uris":{"android":"levelo://app?vid=d68a992d-a759-476b-bd80-c515009a15ba","ios":"levelo://app?vid=d68a992d-a759-476b-bd80-c515009a15ba"},"vehicle_type_id":"4","last_reported":1732025382,"current_range_meters":28800,"station_id":"ce4bh312rcd13ifvqdk0","pricing_plan_id":"cebpf4jnsgd1na2vs0mg"},{"bike_id":"58837c9a-bbda-4a4c-a9ee-8e1c75c4820d","system_id":"levelo_inurba_marseille","lat":43.30132,"lon":5.38783,"is_reserved":false,"is_disabled":false,"rental_uris":{"android":"levelo://app?vid=58837c9a-bbda-4a4c-a9ee-8e1c75c4820d","ios":"levelo://app?vid=58837c9a-bbda-4a4c-a9ee-8e1c75c4820d"},"vehicle_type_id":"4","last_reported":1732025382,"current_range_meters":19200,"station_id":"ce4bghh2rcd13ifvqb60","pricing_plan_id":"cebpf4jnsgd1na2vs0mg"},{"bike_id":"e4200a2f-51c9-4a2d-93c0-970a40d32e47","system_id":"levelo_inurba_marseille","lat":43.30157,"lon":5.38084,"is_reserved":false,"is_disabled":false,"rental_uris":{"android":"levelo://app?vid=e4200a2f-51c9-4a2d-93c0-970a40d32e47","ios":"levelo://app?vid=e4200a2f-51c9-4a2d-93c0-970a40d32e47"},"vehicle_type_id":"4","last_reported":1732025382,"current_range_meters":38800,"station_id":"ce4bgjp2rcd13ifvqbh0","pricing_plan_id":"cebpf4jnsgd1na2vs0mg"},{"bike_id":"51bc58c7-b629-426b-af70-57bb2ca63019","system_id":"levelo_inurba_marseille","lat":43.2962,"lon":5.37732,"is_reserved":false,"is_disabled":false,"rental_uris":{"android":"levelo://app?vid=51bc58c7-b629-426b-af70-57bb2ca63019","ios":"levelo://app?vid=51bc58c7-b629-426b-af70-57bb2ca63019"},"vehicle_type_id":"4","last_reported":1732025382,"current_range_meters":39200,"station_id":"ce4bgi92rcd13ifvqb90","pricing_plan_id":"cebpf4jnsgd1na2vs0mg"},{"bike_id":"1f33ec5c-c70a-47e4-9c77-b1376cc566e9","system_id":"levelo_inurba_marseille","lat":43.28852,"lon":5.35857,"is_reserved":false,"is_disabled":false,"rental_uris":{"android":"levelo://app?vid=1f33ec5c-c70a-47e4-9c77-b1376cc566e9","ios":"levelo://app?vid=1f33ec5c-c70a-47e4-9c77-b1376cc566e9"},"vehicle_type_id":"4","last_reported":1732025382,"current_range_meters":28000,"station_id":"ce4bhb12rcd13ifvqem0","pricing_plan_id":"cebpf4jnsgd1na2vs0mg"},{"bike_id":"2a6e3bd3-2962-4bca-bdae-e6807c60ac0a","system_id":"levelo_inurba_marseille","lat":43.32039,"lon":5.4157,"is_reserved":false,"is_disabled":false,"rental_uris":{"android":"levelo://app?vid=2a6e3bd3-2962-4bca-bdae-e6807c60ac0a","ios":"levelo://app?vid=2a6e3bd3-2962-4bca-bdae-e6807c60ac0a"},"vehicle_type_id":"4","last_reported":1732025382,"current_range_meters":39200,"station_id":"ce4bhq92rcd13ifvqhkg","pricing_plan_id":"cebpf4jnsgd1na2vs0mg"},{"bike_id":"3f095bc8-9af8-4b0b-a298-157d8e949f36","system_id":"levelo_inurba_marseille","lat":43.27654,"lon":5.38918,"is_reserved":false,"is_disabled":false,"rental_uris":{"android":"levelo://app?vid=3f095bc8-9af8-4b0b-a298-157d8e949f36","ios":"levelo://app?vid=3f095bc8-9af8-4b0b-a298-157d8e949f36"},"vehicle_type_id":"4","last_reported":1732025382,"current_range_meters":6400,"station_id":"ce4bhi12rcd13ifvqfo0","pricing_plan_id":"cebpf4jnsgd1na2vs0mg"},{"bike_id":"1da9f889-ea67-465b-92d2-794cb7593068","system_id":"levelo_inurba_marseille","lat":43.28466,"lon":5.38413,"is_reserved":false,"is_disabled":false,"rental_uris":{"android":"levelo://app?vid=1da9f889-ea67-465b-92d2-794cb7593068","ios":"levelo://app?vid=1da9f889-ea67-465b-92d2-794cb7593068"},"vehicle_type_id":"4","last_reported":1732025382,"current_range_meters":30800,"station_id":"ce4bh512rcd13ifvqe3g","pricing_plan_id":"cebpf4jnsgd1na2vs0mg"},{"bike_id":"90a61bb8-2c5c-4c88-8028-f52b1c4df300","system_id":"levelo_inurba_marseille","lat":43.25502,"lon":5.37651,"is_reserved":false,"is_disabled":false,"rental_uris":{"android":"levelo://app?vid=90a61bb8-2c5c-4c88-8028-f52b1c4df300","ios":"levelo://app?vid=90a61bb8-2c5c-4c88-8028-f52b1c4df300"},"vehicle_type_id":"4","last_reported":1732025382,"current_range_meters":24800,"station_id":"ce4bhh12rcd13ifvqff0","pricing_plan_id":"cebpf4jnsgd1na2vs0mg"},{"bike_id":"88901e5c-eefe-4726-a965-0f600a356892","system_id":"levelo_inurba_marseille","lat":43.29715,"lon":5.37691,"is_reserved":false,"is_disabled":false,"rental_uris":{"android":"levelo://app?vid=88901e5c-eefe-4726-a965-0f600a356892","ios":"levelo://app?vid=88901e5c-eefe-4726-a965-0f600a356892"},"vehicle_type_id":"4","last_reported":1732025382,"current_range_meters":12800,"station_id":"ce4bgkh2rcd13ifvqbl0","pricing_plan_id":"cebpf4jnsgd1na2vs0mg"},{"bike_id":"d674a550-723f-4e20-a0c2-89aa344c2ade","system_id":"levelo_inurba_marseille","lat":43.28208,"lon":5.44391,"is_reserved":false,"is_disabled":false,"rental_uris":{"android":"levelo://app?vid=d674a550-723f-4e20-a0c2-89aa344c2ade","ios":"levelo://app?vid=d674a550-723f-4e20-a0c2-89aa344c2ade"},"vehicle_type_id":"4","last_reported":1732025382,"current_range_meters":2000,"station_id":"","pricing_plan_id":"cebpf4jnsgd1na2vs0mg"},{"bike_id":"f542b112-204e-4422-a866-9c7f8c2c4c4d","system_id":"levelo_inurba_marseille","lat":43.31494,"lon":5.37307,"is_reserved":false,"is_disabled":false,"rental_uris":{"android":"levelo://app?vid=f542b112-204e-4422-a866-9c7f8c2c4c4d","ios":"levelo://app?vid=f542b112-204e-4422-a866-9c7f8c2c4c4d"},"vehicle_type_id":"4","last_reported":1732025382,"current_range_meters":36800,"station_id":"ce4bgt12rcd13ifvqcd0","pricing_plan_id":"cebpf4jnsgd1na2vs0mg"},{"bike_id":"3ab7c33b-3bf5-407f-99c8-512b3882f47b","system_id":"levelo_inurba_marseille","lat":43.23963,"lon":5.36637,"is_reserved":false,"is_disabled":false,"rental_uris":{"android":"levelo://app?vid=3ab7c33b-3bf5-407f-99c8-512b3882f47b","ios":"levelo://app?vid=3ab7c33b-3bf5-407f-99c8-512b3882f47b"},"vehicle_type_id":"4","last_reported":1732025382,"current_range_meters":28400,"station_id":"ce4bhi12rcd13ifvqfp0","pricing_plan_id":"cebpf4jnsgd1na2vs0mg"},{"bike_id":"6e4700da-2223-4213-b156-7eedfb193e83","system_id":"levelo_inurba_marseille","lat":43.23191,"lon":5.35554,"is_reserved":false,"is_disabled":false,"rental_uris":{"android":"levelo://app?vid=6e4700da-2223-4213-b156-7eedfb193e83","ios":"levelo://app?vid=6e4700da-2223-4213-b156-7eedfb193e83"},"vehicle_type_id":"4","last_reported":1732025382,"current_range_meters":4000,"station_id":"ce4bhu92rcd13ifvqi70","pricing_plan_id":"cebpf4jnsgd1na2vs0mg"},{"bike_id":"736a9e28-9d44-4d20-87d3-cde0293b61e8","system_id":"levelo_inurba_marseille","lat":43.3169,"lon":5.40466,"is_reserved":false,"is_disabled":false,"rental_uris":{"android":"levelo://app?vid=736a9e28-9d44-4d20-87d3-cde0293b61e8","ios":"levelo://app?vid=736a9e28-9d44-4d20-87d3-cde0293b61e8"},"vehicle_type_id":"4","last_reported":1732025382,"current_range_meters":27600,"station_id":"ce4bh012rcd13ifvqd00","pricing_plan_id":"cebpf4jnsgd1na2vs0mg"},{"bike_id":"76b26817-8a0e-47d4-9818-68227ec46540","system_id":"levelo_inurba_marseille","lat":43.29067,"lon":5.37156,"is_reserved":false,"is_disabled":true,"rental_uris":{"android":"levelo://app?vid=76b26817-8a0e-47d4-9818-68227ec46540","ios":"levelo://app?vid=76b26817-8a0e-47d4-9818-68227ec46540"},"vehicle_type_id":"4","last_reported":1732025382,"current_range_meters":36800,"station_id":"ce4bh5p2rcd13ifvqe4g","pricing_plan_id":"cebpf4jnsgd1na2vs0mg"},{"bike_id":"bd4a772f-74de-4528-ae45-171c28be203c","system_id":"levelo_inurba_marseille","lat":43.30487,"lon":5.3935,"is_reserved":false,"is_disabled":false,"rental_uris":{"android":"levelo://app?vid=bd4a772f-74de-4528-ae45-171c28be203c","ios":"levelo://app?vid=bd4a772f-74de-4528-ae45-171c28be203c"},"vehicle_type_id":"4","last_reported":1732025382,"current_range_meters":22800,"station_id":"ce4bhop2rcd13ifvqh8g","pricing_plan_id":"cebpf4jnsgd1na2vs0mg"},{"bike_id":"ec46118f-a8f4-4167-a4ab-95437a0cf605","system_id":"levelo_inurba_marseille","lat":43.2707,"lon":5.42276,"is_reserved":false,"is_disabled":false,"rental_uris":{"android":"levelo://app?vid=ec46118f-a8f4-4167-a4ab-95437a0cf605","ios":"levelo://app?vid=ec46118f-a8f4-4167-a4ab-95437a0cf605"},"vehicle_type_id":"4","last_reported":1732025382,"current_range_meters":29600,"station_id":"ce4bhk92rcd13ifvqgb0","pricing_plan_id":"cebpf4jnsgd1na2vs0mg"},{"bike_id":"31e6bd0b-c283-428e-a60e-39ea0d752798","system_id":"levelo_inurba_marseille","lat":43.26213,"lon":5.37442,"is_reserved":false,"is_disabled":false,"rental_uris":{"android":"levelo://app?vid=31e6bd0b-c283-428e-a60e-39ea0d752798","ios":"levelo://app?vid=31e6bd0b-c283-428e-a60e-39ea0d752798"},"vehicle_type_id":"4","last_reported":1732025382,"current_range_meters":13600,"station_id":"ce4bhgp2rcd13ifvqfc0","pricing_plan_id":"cebpf4jnsgd1na2vs0mg"},{"bike_id":"0f4629d0-9c4e-46ba-8547-c2b217229133","system_id":"levelo_inurba_marseille","lat":43.337444,"lon":5.374475,"is_reserved":false,"is_disabled":false,"rental_uris":{"android":"levelo://app?vid=0f4629d0-9c4e-46ba-8547-c2b217229133","ios":"levelo://app?vid=0f4629d0-9c4e-46ba-8547-c2b217229133"},"vehicle_type_id":"4","last_reported":1732025382,"current_range_meters":38800,"station_id":"ce4bh0h2rcd13ifvqd50","pricing_plan_id":"cebpf4jnsgd1na2vs0mg"},{"bike_id":"c830acf8-56cc-4fde-bd4a-7419e3d363d7","system_id":"levelo_inurba_marseille","lat":43.29265,"lon":5.38441,"is_reserved":false,"is_disabled":false,"rental_uris":{"android":"levelo://app?vid=c830acf8-56cc-4fde-bd4a-7419e3d363d7","ios":"levelo://app?vid=c830acf8-56cc-4fde-bd4a-7419e3d363d7"},"vehicle_type_id":"4","last_reported":1732025382,"current_range_meters":32400,"station_id":"ce4bh692rcd13ifvqea0","pricing_plan_id":"cebpf4jnsgd1na2vs0mg"},{"bike_id":"e21e70fc-e354-431d-98b8-1fce583f2d1c","system_id":"levelo_inurba_marseille","lat":43.2767,"lon":5.38865,"is_reserved":false,"is_disabled":false,"rental_uris":{"android":"levelo://app?vid=e21e70fc-e354-431d-98b8-1fce583f2d1c","ios":"levelo://app?vid=e21e70fc-e354-431d-98b8-1fce583f2d1c"},"vehicle_type_id":"4","last_reported":1732025382,"current_range_meters":17600,"station_id":"ce4bhi12rcd13ifvqfo0","pricing_plan_id":"cebpf4jnsgd1na2vs0mg"},{"bike_id":"c965d922-041e-4314-8721-46b1ef5413d3","system_id":"levelo_inurba_marseille","lat":43.26203,"lon":5.37929,"is_reserved":false,"is_disabled":false,"rental_uris":{"android":"levelo://app?vid=c965d922-041e-4314-8721-46b1ef5413d3","ios":"levelo://app?vid=c965d922-041e-4314-8721-46b1ef5413d3"},"vehicle_type_id":"4","last_reported":1732025382,"current_range_meters":38800,"station_id":"ce4bhjp2rcd13ifvqg90","pricing_plan_id":"cebpf4jnsgd1na2vs0mg"},{"bike_id":"e01ff489-e7f8-44a9-9b0e-754d01c7f72d","system_id":"levelo_inurba_marseille","lat":43.29076,"lon":5.37175,"is_reserved":false,"is_disabled":false,"rental_uris":{"android":"levelo://app?vid=e01ff489-e7f8-44a9-9b0e-754d01c7f72d","ios":"levelo://app?vid=e01ff489-e7f8-44a9-9b0e-754d01c7f72d"},"vehicle_type_id":"4","last_reported":1732025382,"current_range_meters":38400,"station_id":"ce4bh5p2rcd13ifvqe4g","pricing_plan_id":"cebpf4jnsgd1na2vs0mg"},{"bike_id":"bc249293-6395-4334-b84a-652f70f197fc","system_id":"levelo_inurba_marseille","lat":43.27629,"lon":5.42644,"is_reserved":false,"is_disabled":true,"rental_uris":{"android":"levelo://app?vid=bc249293-6395-4334-b84a-652f70f197fc","ios":"levelo://app?vid=bc249293-6395-4334-b84a-652f70f197fc"},"vehicle_type_id":"4","last_reported":1732025382,"current_range_meters":0,"station_id":"","pricing_plan_id":"cebpf4jnsgd1na2vs0mg"},{"bike_id":"e4b2cfa8-3cc3-4977-a40d-b99b2f591b29","system_id":"levelo_inurba_marseille","lat":43.29264,"lon":5.38436,"is_reserved":false,"is_disabled":false,"rental_uris":{"android":"levelo://app?vid=e4b2cfa8-3cc3-4977-a40d-b99b2f591b29","ios":"levelo://app?vid=e4b2cfa8-3cc3-4977-a40d-b99b2f591b29"},"vehicle_type_id":"4","last_reported":1732025382,"current_range_meters":38800,"station_id":"ce4bh692rcd13ifvqea0","pricing_plan_id":"cebpf4jnsgd1na2vs0mg"},{"bike_id":"5d99237c-43fd-4199-9b06-53d7207472aa","system_id":"levelo_inurba_marseille","lat":43.31699,"lon":5.37742,"is_reserved":false,"is_disabled":false,"rental_uris":{"android":"levelo://app?vid=5d99237c-43fd-4199-9b06-53d7207472aa","ios":"levelo://app?vid=5d99237c-43fd-4199-9b06-53d7207472aa"},"vehicle_type_id":"4","last_reported":1732025382,"current_range_meters":25200,"station_id":"ce4bgth2rcd13ifvqch0","pricing_plan_id":"cebpf4jnsgd1na2vs0mg"},{"bike_id":"be1dd5f8-91fc-4786-8461-76cd869dae13","system_id":"levelo_inurba_marseille","lat":43.31982,"lon":5.41584,"is_reserved":false,"is_disabled":true,"rental_uris":{"android":"levelo://app?vid=be1dd5f8-91fc-4786-8461-76cd869dae13","ios":"levelo://app?vid=be1dd5f8-91fc-4786-8461-76cd869dae13"},"vehicle_type_id":"4","last_reported":1732025382,"current_range_meters":25600,"station_id":"","pricing_plan_id":"cebpf4jnsgd1na2vs0mg"},{"bike_id":"84d777cb-1af6-4064-bcd5-955f27bffe2a","system_id":"levelo_inurba_marseille","lat":43.28102,"lon":5.37845,"is_reserved":false,"is_disabled":false,"rental_uris":{"android":"levelo://app?vid=84d777cb-1af6-4064-bcd5-955f27bffe2a","ios":"levelo://app?vid=84d777cb-1af6-4064-bcd5-955f27bffe2a"},"vehicle_type_id":"4","last_reported":1732025382,"current_range_meters":26800,"station_id":"ce4bha12rcd13ifvqee0","pricing_plan_id":"cebpf4jnsgd1na2vs0mg"},{"bike_id":"35e74e42-a783-49cd-884d-8a241590c517","system_id":"levelo_inurba_marseille","lat":43.29551,"lon":5.4228,"is_reserved":false,"is_disabled":false,"rental_uris":{"android":"levelo://app?vid=35e74e42-a783-49cd-884d-8a241590c517","ios":"levelo://app?vid=35e74e42-a783-49cd-884d-8a241590c517"},"vehicle_type_id":"4","last_reported":1732025382,"current_range_meters":39200,"station_id":"ce4bhph2rcd13ifvqhdg","pricing_plan_id":"cebpf4jnsgd1na2vs0mg"},{"bike_id":"ee5ad2bc-dd93-4a60-9deb-ff629596020e","system_id":"levelo_inurba_marseille","lat":43.24171,"lon":5.3973,"is_reserved":false,"is_disabled":false,"rental_uris":{"android":"levelo://app?vid=ee5ad2bc-dd93-4a60-9deb-ff629596020e","ios":"levelo://app?vid=ee5ad2bc-dd93-4a60-9deb-ff629596020e"},"vehicle_type_id":"4","last_reported":1732025382,"current_range_meters":38800,"station_id":"ce4bhn12rcd13ifvqgpg","pricing_plan_id":"cebpf4jnsgd1na2vs0mg"},{"bike_id":"35114f41-e371-4dc4-a460-06d37579febc","system_id":"levelo_inurba_marseille","lat":43.29793,"lon":5.38112,"is_reserved":false,"is_disabled":false,"rental_uris":{"android":"levelo://app?vid=35114f41-e371-4dc4-a460-06d37579febc","ios":"levelo://app?vid=35114f41-e371-4dc4-a460-06d37579febc"},"vehicle_type_id":"4","last_reported":1732025382,"current_range_meters":33600,"station_id":"ce4bgip2rcd13ifvqbb0","pricing_plan_id":"cebpf4jnsgd1na2vs0mg"},{"bike_id":"2c084798-5644-42ff-8b65-902cda8c1766","system_id":"levelo_inurba_marseille","lat":43.30926,"lon":5.40146,"is_reserved":false,"is_disabled":false,"rental_uris":{"android":"levelo://app?vid=2c084798-5644-42ff-8b65-902cda8c1766","ios":"levelo://app?vid=2c084798-5644-42ff-8b65-902cda8c1766"},"vehicle_type_id":"4","last_reported":1732025382,"current_range_meters":20800,"station_id":"ce4bgvp2rcd13ifvqct0","pricing_plan_id":"cebpf4jnsgd1na2vs0mg"},{"bike_id":"e5e2248a-03d3-4b07-b4f7-fd61796e9419","system_id":"levelo_inurba_marseille","lat":43.2997,"lon":5.38082,"is_reserved":false,"is_disabled":true,"rental_uris":{"android":"levelo://app?vid=e5e2248a-03d3-4b07-b4f7-fd61796e9419","ios":"levelo://app?vid=e5e2248a-03d3-4b07-b4f7-fd61796e9419"},"vehicle_type_id":"4","last_reported":1732025382,"current_range_meters":0,"station_id":"","pricing_plan_id":"cebpf4jnsgd1na2vs0mg"},{"bike_id":"e47a3c13-f72d-4907-90c3-fad9ec308d02","system_id":"levelo_inurba_marseille","lat":43.28663,"lon":5.38664,"is_reserved":false,"is_disabled":false,"rental_uris":{"android":"levelo://app?vid=e47a3c13-f72d-4907-90c3-fad9ec308d02","ios":"levelo://app?vid=e47a3c13-f72d-4907-90c3-fad9ec308d02"},"vehicle_type_id":"4","last_reported":1732025382,"current_range_meters":38800,"station_id":"ce4bh492rcd13ifvqdug","pricing_plan_id":"cebpf4jnsgd1na2vs0mg"},{"bike_id":"b01c82fc-23fc-43c2-9f6d-9173f45043c6","system_id":"levelo_inurba_marseille","lat":43.33599,"lon":5.41035,"is_reserved":false,"is_disabled":false,"rental_uris":{"android":"levelo://app?vid=b01c82fc-23fc-43c2-9f6d-9173f45043c6","ios":"levelo://app?vid=b01c82fc-23fc-43c2-9f6d-9173f45043c6"},"vehicle_type_id":"4","last_reported":1732025382,"current_range_meters":6800,"station_id":"ce4bhqh2rcd13ifvqhmg","pricing_plan_id":"cebpf4jnsgd1na2vs0mg"},{"bike_id":"3593ee49-3616-4cc6-a1da-bdf5d3e7063d","system_id":"levelo_inurba_marseille","lat":43.30152,"lon":5.38084,"is_reserved":false,"is_disabled":false,"rental_uris":{"android":"levelo://app?vid=3593ee49-3616-4cc6-a1da-bdf5d3e7063d","ios":"levelo://app?vid=3593ee49-3616-4cc6-a1da-bdf5d3e7063d"},"vehicle_type_id":"4","last_reported":1732025382,"current_range_meters":19600,"station_id":"ce4bgjp2rcd13ifvqbh0","pricing_plan_id":"cebpf4jnsgd1na2vs0mg"},{"bike_id":"6060058b-38b6-45b5-8a09-d5cf2d7f2013","system_id":"levelo_inurba_marseille","lat":43.29779,"lon":5.39336,"is_reserved":false,"is_disabled":false,"rental_uris":{"android":"levelo://app?vid=6060058b-38b6-45b5-8a09-d5cf2d7f2013","ios":"levelo://app?vid=6060058b-38b6-45b5-8a09-d5cf2d7f2013"},"vehicle_type_id":"4","last_reported":1732025382,"current_range_meters":16800,"station_id":"chh1huq6cuj3fo74tm60","pricing_plan_id":"cebpf4jnsgd1na2vs0mg"},{"bike_id":"cfbed237-c79f-4f65-b311-be4997dd399e","system_id":"levelo_inurba_marseille","lat":43.27206,"lon":5.39192,"is_reserved":false,"is_disabled":true,"rental_uris":{"android":"levelo://app?vid=cfbed237-c79f-4f65-b311-be4997dd399e","ios":"levelo://app?vid=cfbed237-c79f-4f65-b311-be4997dd399e"},"vehicle_type_id":"4","last_reported":1732025382,"current_range_meters":0,"station_id":"ce4bhhp2rcd13ifvqfm0","pricing_plan_id":"cebpf4jnsgd1na2vs0mg"},{"bike_id":"5fe20d58-65ac-4c8a-b149-a2e6de20044d","system_id":"levelo_inurba_marseille","lat":43.29373,"lon":5.37849,"is_reserved":false,"is_disabled":true,"rental_uris":{"android":"levelo://app?vid=5fe20d58-65ac-4c8a-b149-a2e6de20044d","ios":"levelo://app?vid=5fe20d58-65ac-4c8a-b149-a2e6de20044d"},"vehicle_type_id":"4","last_reported":1732025382,"current_range_meters":33200,"station_id":"ce4bgjh2rcd13ifvqbf0","pricing_plan_id":"cebpf4jnsgd1na2vs0mg"},{"bike_id":"3da71fd3-0d93-4696-8595-22035816c5ec","system_id":"levelo_inurba_marseille","lat":43.28722,"lon":5.36089,"is_reserved":false,"is_disabled":false,"rental_uris":{"android":"levelo://app?vid=3da71fd3-0d93-4696-8595-22035816c5ec","ios":"levelo://app?vid=3da71fd3-0d93-4696-8595-22035816c5ec"},"vehicle_type_id":"4","last_reported":1732025382,"current_range_meters":10800,"station_id":"cki0cbj6b192h4jlfktg","pricing_plan_id":"cebpf4jnsgd1na2vs0mg"},{"bike_id":"7289239c-a3b0-403c-b810-a6e7cb8c855e","system_id":"levelo_inurba_marseille","lat":43.29032,"lon":5.37561,"is_reserved":false,"is_disabled":true,"rental_uris":{"android":"levelo://app?vid=7289239c-a3b0-403c-b810-a6e7cb8c855e","ios":"levelo://app?vid=7289239c-a3b0-403c-b810-a6e7cb8c855e"},"vehicle_type_id":"4","last_reported":1732025382,"current_range_meters":37600,"station_id":"ce4bh692rcd13ifvqe90","pricing_plan_id":"cebpf4jnsgd1na2vs0mg"},{"bike_id":"c84fdc91-8b77-49c6-815e-27a830cc2078","system_id":"levelo_inurba_marseille","lat":43.29029,"lon":5.37561,"is_reserved":false,"is_disabled":false,"rental_uris":{"android":"levelo://app?vid=c84fdc91-8b77-49c6-815e-27a830cc2078","ios":"levelo://app?vid=c84fdc91-8b77-49c6-815e-27a830cc2078"},"vehicle_type_id":"4","last_reported":1732025382,"current_range_meters":19200,"station_id":"ce4bh692rcd13ifvqe90","pricing_plan_id":"cebpf4jnsgd1na2vs0mg"},{"bike_id":"d14483f0-c0ad-46b1-ac17-f4c19b85857b","system_id":"levelo_inurba_marseille","lat":43.33021,"lon":5.39035,"is_reserved":false,"is_disabled":false,"rental_uris":{"android":"levelo://app?vid=d14483f0-c0ad-46b1-ac17-f4c19b85857b","ios":"levelo://app?vid=d14483f0-c0ad-46b1-ac17-f4c19b85857b"},"vehicle_type_id":"4","last_reported":1732025382,"current_range_meters":12800,"station_id":"ce4bhr92rcd13ifvqhrg","pricing_plan_id":"cebpf4jnsgd1na2vs0mg"},{"bike_id":"1ff970a9-d231-4bbd-92a9-fc25fa1a5bc7","system_id":"levelo_inurba_marseille","lat":43.30153,"lon":5.38086,"is_reserved":false,"is_disabled":false,"rental_uris":{"android":"levelo://app?vid=1ff970a9-d231-4bbd-92a9-fc25fa1a5bc7","ios":"levelo://app?vid=1ff970a9-d231-4bbd-92a9-fc25fa1a5bc7"},"vehicle_type_id":"4","last_reported":1732025382,"current_range_meters":37600,"station_id":"ce4bgjp2rcd13ifvqbh0","pricing_plan_id":"cebpf4jnsgd1na2vs0mg"},{"bike_id":"f1888b1a-22ac-4f8d-8a07-bea9e3e6d605","system_id":"levelo_inurba_marseille","lat":43.3091,"lon":5.36857,"is_reserved":false,"is_disabled":true,"rental_uris":{"android":"levelo://app?vid=f1888b1a-22ac-4f8d-8a07-bea9e3e6d605","ios":"levelo://app?vid=f1888b1a-22ac-4f8d-8a07-bea9e3e6d605"},"vehicle_type_id":"4","last_reported":1732025382,"current_range_meters":1200,"station_id":"ce4bgn92rcd13ifvqbvg","pricing_plan_id":"cebpf4jnsgd1na2vs0mg"},{"bike_id":"b967642a-4386-4389-a89d-fd7f06a35604","system_id":"levelo_inurba_marseille","lat":43.28721,"lon":5.36088,"is_reserved":false,"is_disabled":false,"rental_uris":{"android":"levelo://app?vid=b967642a-4386-4389-a89d-fd7f06a35604","ios":"levelo://app?vid=b967642a-4386-4389-a89d-fd7f06a35604"},"vehicle_type_id":"4","last_reported":1732025382,"current_range_meters":8400,"station_id":"cki0cbj6b192h4jlfktg","pricing_plan_id":"cebpf4jnsgd1na2vs0mg"},{"bike_id":"24b2c3eb-8b9b-40a7-8aad-177c7a5a5f47","system_id":"levelo_inurba_marseille","lat":43.26934,"lon":5.38909,"is_reserved":false,"is_disabled":true,"rental_uris":{"android":"levelo://app?vid=24b2c3eb-8b9b-40a7-8aad-177c7a5a5f47","ios":"levelo://app?vid=24b2c3eb-8b9b-40a7-8aad-177c7a5a5f47"},"vehicle_type_id":"4","last_reported":1732025382,"current_range_meters":0,"station_id":"ce4bhhh2rcd13ifvqfl0","pricing_plan_id":"cebpf4jnsgd1na2vs0mg"},{"bike_id":"b80bc086-241e-444a-883b-f0b9cbe142b6","system_id":"levelo_inurba_marseille","lat":43.3015,"lon":5.38089,"is_reserved":false,"is_disabled":false,"rental_uris":{"android":"levelo://app?vid=b80bc086-241e-444a-883b-f0b9cbe142b6","ios":"levelo://app?vid=b80bc086-241e-444a-883b-f0b9cbe142b6"},"vehicle_type_id":"4","last_reported":1732025382,"current_range_meters":38800,"station_id":"ce4bgjp2rcd13ifvqbh0","pricing_plan_id":"cebpf4jnsgd1na2vs0mg"},{"bike_id":"0c21866d-64a6-48bd-84ec-2cdb016bb953","system_id":"levelo_inurba_marseille","lat":43.24385,"lon":5.37066,"is_reserved":false,"is_disabled":true,"rental_uris":{"android":"levelo://app?vid=0c21866d-64a6-48bd-84ec-2cdb016bb953","ios":"levelo://app?vid=0c21866d-64a6-48bd-84ec-2cdb016bb953"},"vehicle_type_id":"4","last_reported":1732025382,"current_range_meters":0,"station_id":"ce4bhhh2rcd13ifvqfk0","pricing_plan_id":"cebpf4jnsgd1na2vs0mg"},{"bike_id":"6b63788c-aa6e-48f1-bdf6-6825439f0077","system_id":"levelo_inurba_marseille","lat":43.322632,"lon":5.406497,"is_reserved":false,"is_disabled":false,"rental_uris":{"android":"levelo://app?vid=6b63788c-aa6e-48f1-bdf6-6825439f0077","ios":"levelo://app?vid=6b63788c-aa6e-48f1-bdf6-6825439f0077"},"vehicle_type_id":"4","last_reported":1732025382,"current_range_meters":38400,"station_id":"ce4bhq92rcd13ifvqhjg","pricing_plan_id":"cebpf4jnsgd1na2vs0mg"},{"bike_id":"9b4d52a8-a22b-418c-a556-65afaca3a235","system_id":"levelo_inurba_marseille","lat":43.337444,"lon":5.374475,"is_reserved":false,"is_disabled":false,"rental_uris":{"android":"levelo://app?vid=9b4d52a8-a22b-418c-a556-65afaca3a235","ios":"levelo://app?vid=9b4d52a8-a22b-418c-a556-65afaca3a235"},"vehicle_type_id":"4","last_reported":1732025382,"current_range_meters":37600,"station_id":"","pricing_plan_id":"cebpf4jnsgd1na2vs0mg"},{"bike_id":"0f3ece26-4a8b-42e2-bf99-8ffb37ae1603","system_id":"levelo_inurba_marseille","lat":43.3009,"lon":5.39087,"is_reserved":false,"is_disabled":false,"rental_uris":{"android":"levelo://app?vid=0f3ece26-4a8b-42e2-bf99-8ffb37ae1603","ios":"levelo://app?vid=0f3ece26-4a8b-42e2-bf99-8ffb37ae1603"},"vehicle_type_id":"4","last_reported":1732025382,"current_range_meters":38800,"station_id":"ce4bh192rcd13ifvqdb0","pricing_plan_id":"cebpf4jnsgd1na2vs0mg"},{"bike_id":"7c048259-3d75-46eb-81aa-57dbdc1c4651","system_id":"levelo_inurba_marseille","lat":43.29159,"lon":5.37162,"is_reserved":false,"is_disabled":false,"rental_uris":{"android":"levelo://app?vid=7c048259-3d75-46eb-81aa-57dbdc1c4651","ios":"levelo://app?vid=7c048259-3d75-46eb-81aa-57dbdc1c4651"},"vehicle_type_id":"4","last_reported":1732025382,"current_range_meters":28000,"station_id":"ce4bha92rcd13ifvqeh0","pricing_plan_id":"cebpf4jnsgd1na2vs0mg"},{"bike_id":"d6e54eb8-b569-4670-b12b-fc7e345ccec9","system_id":"levelo_inurba_marseille","lat":43.29729,"lon":5.37689,"is_reserved":false,"is_disabled":false,"rental_uris":{"android":"levelo://app?vid=d6e54eb8-b569-4670-b12b-fc7e345ccec9","ios":"levelo://app?vid=d6e54eb8-b569-4670-b12b-fc7e345ccec9"},"vehicle_type_id":"4","last_reported":1732025382,"current_range_meters":36800,"station_id":"ce4bgkh2rcd13ifvqbl0","pricing_plan_id":"cebpf4jnsgd1na2vs0mg"},{"bike_id":"d1b604a8-334d-4cfc-ba9c-720d8061c18c","system_id":"levelo_inurba_marseille","lat":43.30603,"lon":5.37226,"is_reserved":false,"is_disabled":false,"rental_uris":{"android":"levelo://app?vid=d1b604a8-334d-4cfc-ba9c-720d8061c18c","ios":"levelo://app?vid=d1b604a8-334d-4cfc-ba9c-720d8061c18c"},"vehicle_type_id":"4","last_reported":1732025382,"current_range_meters":39200,"station_id":"ce4bgqh2rcd13ifvqc4g","pricing_plan_id":"cebpf4jnsgd1na2vs0mg"},{"bike_id":"e2a6d742-00d6-4119-b9fb-17d3333b2d00","system_id":"levelo_inurba_marseille","lat":43.29622,"lon":5.37149,"is_reserved":false,"is_disabled":false,"rental_uris":{"android":"levelo://app?vid=e2a6d742-00d6-4119-b9fb-17d3333b2d00","ios":"levelo://app?vid=e2a6d742-00d6-4119-b9fb-17d3333b2d00"},"vehicle_type_id":"4","last_reported":1732025382,"current_range_meters":22800,"station_id":"ce4bgnh2rcd13ifvqc0g","pricing_plan_id":"cebpf4jnsgd1na2vs0mg"},{"bike_id":"3b0c545d-4cf2-4e15-900f-03b6156ee277","system_id":"levelo_inurba_marseille","lat":43.30911,"lon":5.36856,"is_reserved":false,"is_disabled":false,"rental_uris":{"android":"levelo://app?vid=3b0c545d-4cf2-4e15-900f-03b6156ee277","ios":"levelo://app?vid=3b0c545d-4cf2-4e15-900f-03b6156ee277"},"vehicle_type_id":"4","last_reported":1732025382,"current_range_meters":36000,"station_id":"ce4bgn92rcd13ifvqbvg","pricing_plan_id":"cebpf4jnsgd1na2vs0mg"},{"bike_id":"b18b3eec-37af-4241-97ff-2731448f3e3c","system_id":"levelo_inurba_marseille","lat":43.26778,"lon":5.39415,"is_reserved":false,"is_disabled":false,"rental_uris":{"android":"levelo://app?vid=b18b3eec-37af-4241-97ff-2731448f3e3c","ios":"levelo://app?vid=b18b3eec-37af-4241-97ff-2731448f3e3c"},"vehicle_type_id":"4","last_reported":1732025382,"current_range_meters":37600,"station_id":"ce4bhh12rcd13ifvqfg0","pricing_plan_id":"cebpf4jnsgd1na2vs0mg"},{"bike_id":"420f9daf-b4aa-41a1-9550-191825645734","system_id":"levelo_inurba_marseille","lat":43.28344,"lon":5.38109,"is_reserved":false,"is_disabled":false,"rental_uris":{"android":"levelo://app?vid=420f9daf-b4aa-41a1-9550-191825645734","ios":"levelo://app?vid=420f9daf-b4aa-41a1-9550-191825645734"},"vehicle_type_id":"4","last_reported":1732025382,"current_range_meters":14800,"station_id":"ce4bh412rcd13ifvqdr0","pricing_plan_id":"cebpf4jnsgd1na2vs0mg"},{"bike_id":"fb93105b-c526-4283-a079-1ca5dd5c36e0","system_id":"levelo_inurba_marseille","lat":43.27678,"lon":5.38889,"is_reserved":false,"is_disabled":false,"rental_uris":{"android":"levelo://app?vid=fb93105b-c526-4283-a079-1ca5dd5c36e0","ios":"levelo://app?vid=fb93105b-c526-4283-a079-1ca5dd5c36e0"},"vehicle_type_id":"4","last_reported":1732025382,"current_range_meters":38400,"station_id":"ce4bhi12rcd13ifvqfo0","pricing_plan_id":"cebpf4jnsgd1na2vs0mg"},{"bike_id":"34c09a03-c73e-4f79-8ce4-32aed29e1c04","system_id":"levelo_inurba_marseille","lat":43.27997,"lon":5.4166,"is_reserved":false,"is_disabled":false,"rental_uris":{"android":"levelo://app?vid=34c09a03-c73e-4f79-8ce4-32aed29e1c04","ios":"levelo://app?vid=34c09a03-c73e-4f79-8ce4-32aed29e1c04"},"vehicle_type_id":"4","last_reported":1732025382,"current_range_meters":38400,"station_id":"ce4bho12rcd13ifvqh1g","pricing_plan_id":"cebpf4jnsgd1na2vs0mg"},{"bike_id":"1462f68e-113f-431d-9d5b-f4d7f987f2b8","system_id":"levelo_inurba_marseille","lat":43.28483,"lon":5.38433,"is_reserved":false,"is_disabled":true,"rental_uris":{"android":"levelo://app?vid=1462f68e-113f-431d-9d5b-f4d7f987f2b8","ios":"levelo://app?vid=1462f68e-113f-431d-9d5b-f4d7f987f2b8"},"vehicle_type_id":"4","last_reported":1732025382,"current_range_meters":14400,"station_id":"ce4bh512rcd13ifvqe3g","pricing_plan_id":"cebpf4jnsgd1na2vs0mg"},{"bike_id":"92265e91-c501-4b60-9c87-ba6c845ad6b3","system_id":"levelo_inurba_marseille","lat":43.23147,"lon":5.43716,"is_reserved":false,"is_disabled":false,"rental_uris":{"android":"levelo://app?vid=92265e91-c501-4b60-9c87-ba6c845ad6b3","ios":"levelo://app?vid=92265e91-c501-4b60-9c87-ba6c845ad6b3"},"vehicle_type_id":"4","last_reported":1732025382,"current_range_meters":3200,"station_id":"ce4bhmp2rcd13ifvqgog","pricing_plan_id":"cebpf4jnsgd1na2vs0mg"},{"bike_id":"b9f521ff-4210-48a8-86f2-695a4551af32","system_id":"levelo_inurba_marseille","lat":43.29164,"lon":5.37151,"is_reserved":false,"is_disabled":true,"rental_uris":{"android":"levelo://app?vid=b9f521ff-4210-48a8-86f2-695a4551af32","ios":"levelo://app?vid=b9f521ff-4210-48a8-86f2-695a4551af32"},"vehicle_type_id":"4","last_reported":1732025382,"current_range_meters":11600,"station_id":"ce4bha92rcd13ifvqeh0","pricing_plan_id":"cebpf4jnsgd1na2vs0mg"},{"bike_id":"0b733133-03c9-4766-961e-92b775b50bbc","system_id":"levelo_inurba_marseille","lat":43.28193,"lon":5.44263,"is_reserved":false,"is_disabled":true,"rental_uris":{"android":"levelo://app?vid=0b733133-03c9-4766-961e-92b775b50bbc","ios":"levelo://app?vid=0b733133-03c9-4766-961e-92b775b50bbc"},"vehicle_type_id":"4","last_reported":1732025382,"current_range_meters":0,"station_id":"","pricing_plan_id":"cebpf4jnsgd1na2vs0mg"},{"bike_id":"8d471145-9812-4737-9ffa-fa0497cf1b6c","system_id":"levelo_inurba_marseille","lat":43.29226,"lon":5.36066,"is_reserved":false,"is_disabled":false,"rental_uris":{"android":"levelo://app?vid=8d471145-9812-4737-9ffa-fa0497cf1b6c","ios":"levelo://app?vid=8d471145-9812-4737-9ffa-fa0497cf1b6c"},"vehicle_type_id":"4","last_reported":1732025382,"current_range_meters":35200,"station_id":"ce4bhbh2rcd13ifvqeqg","pricing_plan_id":"cebpf4jnsgd1na2vs0mg"},{"bike_id":"b5023e77-685c-4095-9285-63360c917af5","system_id":"levelo_inurba_marseille","lat":43.30132,"lon":5.38783,"is_reserved":false,"is_disabled":false,"rental_uris":{"android":"levelo://app?vid=b5023e77-685c-4095-9285-63360c917af5","ios":"levelo://app?vid=b5023e77-685c-4095-9285-63360c917af5"},"vehicle_type_id":"4","last_reported":1732025382,"current_range_meters":30800,"station_id":"ce4bghh2rcd13ifvqb60","pricing_plan_id":"cebpf4jnsgd1na2vs0mg"},{"bike_id":"4cba050b-d851-4ee5-8ce0-ea7f25d9c27b","system_id":"levelo_inurba_marseille","lat":43.27489,"lon":5.42459,"is_reserved":false,"is_disabled":false,"rental_uris":{"android":"levelo://app?vid=4cba050b-d851-4ee5-8ce0-ea7f25d9c27b","ios":"levelo://app?vid=4cba050b-d851-4ee5-8ce0-ea7f25d9c27b"},"vehicle_type_id":"4","last_reported":1732025382,"current_range_meters":36800,"station_id":"ce4bhn92rcd13ifvqgrg","pricing_plan_id":"cebpf4jnsgd1na2vs0mg"},{"bike_id":"c4c95739-ad31-423c-a98a-2aaceff657a2","system_id":"levelo_inurba_marseille","lat":43.30947,"lon":5.3906,"is_reserved":false,"is_disabled":true,"rental_uris":{"android":"levelo://app?vid=c4c95739-ad31-423c-a98a-2aaceff657a2","ios":"levelo://app?vid=c4c95739-ad31-423c-a98a-2aaceff657a2"},"vehicle_type_id":"4","last_reported":1732025382,"current_range_meters":11200,"station_id":"ce4bgup2rcd13ifvqco0","pricing_plan_id":"cebpf4jnsgd1na2vs0mg"},{"bike_id":"b4caa59e-6697-4b30-9137-ba6859b305d0","system_id":"levelo_inurba_marseille","lat":43.27657,"lon":5.38922,"is_reserved":false,"is_disabled":false,"rental_uris":{"android":"levelo://app?vid=b4caa59e-6697-4b30-9137-ba6859b305d0","ios":"levelo://app?vid=b4caa59e-6697-4b30-9137-ba6859b305d0"},"vehicle_type_id":"4","last_reported":1732025382,"current_range_meters":28400,"station_id":"ce4bhi12rcd13ifvqfo0","pricing_plan_id":"cebpf4jnsgd1na2vs0mg"},{"bike_id":"7a62bdc9-e634-46ba-b613-31b659662f35","system_id":"levelo_inurba_marseille","lat":43.2781,"lon":5.40714,"is_reserved":false,"is_disabled":false,"rental_uris":{"android":"levelo://app?vid=7a62bdc9-e634-46ba-b613-31b659662f35","ios":"levelo://app?vid=7a62bdc9-e634-46ba-b613-31b659662f35"},"vehicle_type_id":"4","last_reported":1732025382,"current_range_meters":38800,"station_id":"ce4bhnh2rcd13ifvqgtg","pricing_plan_id":"cebpf4jnsgd1na2vs0mg"},{"bike_id":"e65461e3-d425-4dee-a20c-933c7023442e","system_id":"levelo_inurba_marseille","lat":43.30248,"lon":5.40072,"is_reserved":false,"is_disabled":true,"rental_uris":{"android":"levelo://app?vid=e65461e3-d425-4dee-a20c-933c7023442e","ios":"levelo://app?vid=e65461e3-d425-4dee-a20c-933c7023442e"},"vehicle_type_id":"4","last_reported":1732025382,"current_range_meters":38000,"station_id":"ce4bgvh2rcd13ifvqcs0","pricing_plan_id":"cebpf4jnsgd1na2vs0mg"},{"bike_id":"a1f9ada8-aeea-40ef-a14f-05d3f72398e4","system_id":"levelo_inurba_marseille","lat":43.24546,"lon":5.39522,"is_reserved":false,"is_disabled":false,"rental_uris":{"android":"levelo://app?vid=a1f9ada8-aeea-40ef-a14f-05d3f72398e4","ios":"levelo://app?vid=a1f9ada8-aeea-40ef-a14f-05d3f72398e4"},"vehicle_type_id":"4","last_reported":1732025382,"current_range_meters":14000,"station_id":"ce4bhlp2rcd13ifvqgjg","pricing_plan_id":"cebpf4jnsgd1na2vs0mg"},{"bike_id":"7732a2f0-6d08-4371-8cdb-c3da37c32aea","system_id":"levelo_inurba_marseille","lat":43.27668,"lon":5.38882,"is_reserved":false,"is_disabled":false,"rental_uris":{"android":"levelo://app?vid=7732a2f0-6d08-4371-8cdb-c3da37c32aea","ios":"levelo://app?vid=7732a2f0-6d08-4371-8cdb-c3da37c32aea"},"vehicle_type_id":"4","last_reported":1732025382,"current_range_meters":32000,"station_id":"ce4bhi12rcd13ifvqfo0","pricing_plan_id":"cebpf4jnsgd1na2vs0mg"},{"bike_id":"8632ca3c-32d7-4c27-b845-d08c678d0faf","system_id":"levelo_inurba_marseille","lat":43.29878,"lon":5.37137,"is_reserved":false,"is_disabled":false,"rental_uris":{"android":"levelo://app?vid=8632ca3c-32d7-4c27-b845-d08c678d0faf","ios":"levelo://app?vid=8632ca3c-32d7-4c27-b845-d08c678d0faf"},"vehicle_type_id":"4","last_reported":1732025382,"current_range_meters":21600,"station_id":"ce4bgr92rcd13ifvqc7g","pricing_plan_id":"cebpf4jnsgd1na2vs0mg"},{"bike_id":"bf616fda-0885-4bcf-8258-bc47aa3041a1","system_id":"levelo_inurba_marseille","lat":43.32478,"lon":5.36567,"is_reserved":false,"is_disabled":false,"rental_uris":{"android":"levelo://app?vid=bf616fda-0885-4bcf-8258-bc47aa3041a1","ios":"levelo://app?vid=bf616fda-0885-4bcf-8258-bc47aa3041a1"},"vehicle_type_id":"4","last_reported":1732025382,"current_range_meters":38800,"station_id":"ce4bhs12rcd13ifvqhvg","pricing_plan_id":"cebpf4jnsgd1na2vs0mg"},{"bike_id":"ab241146-8d68-400b-9cef-354922087bca","system_id":"levelo_inurba_marseille","lat":43.26556,"lon":5.37285,"is_reserved":false,"is_disabled":false,"rental_uris":{"android":"levelo://app?vid=ab241146-8d68-400b-9cef-354922087bca","ios":"levelo://app?vid=ab241146-8d68-400b-9cef-354922087bca"},"vehicle_type_id":"4","last_reported":1732025382,"current_range_meters":8400,"station_id":"ce4bhg12rcd13ifvqf70","pricing_plan_id":"cebpf4jnsgd1na2vs0mg"},{"bike_id":"128608f4-9988-45f2-8b4c-013c8b8fe75d","system_id":"levelo_inurba_marseille","lat":43.28032,"lon":5.36958,"is_reserved":false,"is_disabled":false,"rental_uris":{"android":"levelo://app?vid=128608f4-9988-45f2-8b4c-013c8b8fe75d","ios":"levelo://app?vid=128608f4-9988-45f2-8b4c-013c8b8fe75d"},"vehicle_type_id":"4","last_reported":1732025382,"current_range_meters":28000,"station_id":"ce4bha12rcd13ifvqef0","pricing_plan_id":"cebpf4jnsgd1na2vs0mg"},{"bike_id":"20d43469-0b35-4110-9c40-be0f1a781705","system_id":"levelo_inurba_marseille","lat":43.26208,"lon":5.37449,"is_reserved":false,"is_disabled":false,"rental_uris":{"android":"levelo://app?vid=20d43469-0b35-4110-9c40-be0f1a781705","ios":"levelo://app?vid=20d43469-0b35-4110-9c40-be0f1a781705"},"vehicle_type_id":"4","last_reported":1732025382,"current_range_meters":27200,"station_id":"ce4bhgp2rcd13ifvqfc0","pricing_plan_id":"cebpf4jnsgd1na2vs0mg"},{"bike_id":"218b372f-fe88-4325-8035-22b8ac792ee5","system_id":"levelo_inurba_marseille","lat":43.25496,"lon":5.37651,"is_reserved":false,"is_disabled":false,"rental_uris":{"android":"levelo://app?vid=218b372f-fe88-4325-8035-22b8ac792ee5","ios":"levelo://app?vid=218b372f-fe88-4325-8035-22b8ac792ee5"},"vehicle_type_id":"4","last_reported":1732025382,"current_range_meters":26800,"station_id":"ce4bhh12rcd13ifvqff0","pricing_plan_id":"cebpf4jnsgd1na2vs0mg"},{"bike_id":"f34c365c-22c3-4859-ae3e-c26c7079b980","system_id":"levelo_inurba_marseille","lat":43.25709,"lon":5.41123,"is_reserved":false,"is_disabled":false,"rental_uris":{"android":"levelo://app?vid=f34c365c-22c3-4859-ae3e-c26c7079b980","ios":"levelo://app?vid=f34c365c-22c3-4859-ae3e-c26c7079b980"},"vehicle_type_id":"4","last_reported":1732025382,"current_range_meters":36000,"station_id":"ce4bhkp2rcd13ifvqgd0","pricing_plan_id":"cebpf4jnsgd1na2vs0mg"},{"bike_id":"fd9355b8-435e-4e3c-b160-c6f108996a7e","system_id":"levelo_inurba_marseille","lat":43.28937,"lon":5.36381,"is_reserved":false,"is_disabled":false,"rental_uris":{"android":"levelo://app?vid=fd9355b8-435e-4e3c-b160-c6f108996a7e","ios":"levelo://app?vid=fd9355b8-435e-4e3c-b160-c6f108996a7e"},"vehicle_type_id":"4","last_reported":1732025382,"current_range_meters":18800,"station_id":"ce4bhc92rcd13ifvqetg","pricing_plan_id":"cebpf4jnsgd1na2vs0mg"},{"bike_id":"9f1dfffb-1213-4f6e-84d3-a2f0789a9ef3","system_id":"levelo_inurba_marseille","lat":43.27623,"lon":5.35881,"is_reserved":false,"is_disabled":true,"rental_uris":{"android":"levelo://app?vid=9f1dfffb-1213-4f6e-84d3-a2f0789a9ef3","ios":"levelo://app?vid=9f1dfffb-1213-4f6e-84d3-a2f0789a9ef3"},"vehicle_type_id":"4","last_reported":1732025382,"current_range_meters":0,"station_id":"","pricing_plan_id":"cebpf4jnsgd1na2vs0mg"},{"bike_id":"8dfe3502-1a44-41d0-93ec-2f8847296f61","system_id":"levelo_inurba_marseille","lat":43.29191,"lon":5.35804,"is_reserved":false,"is_disabled":true,"rental_uris":{"android":"levelo://app?vid=8dfe3502-1a44-41d0-93ec-2f8847296f61","ios":"levelo://app?vid=8dfe3502-1a44-41d0-93ec-2f8847296f61"},"vehicle_type_id":"4","last_reported":1732025382,"current_range_meters":38800,"station_id":"ce4bhb12rcd13ifvqel0","pricing_plan_id":"cebpf4jnsgd1na2vs0mg"},{"bike_id":"954054ad-77ac-46c3-a1b5-c8fc266a522b","system_id":"levelo_inurba_marseille","lat":43.31725,"lon":5.42397,"is_reserved":false,"is_disabled":false,"rental_uris":{"android":"levelo://app?vid=954054ad-77ac-46c3-a1b5-c8fc266a522b","ios":"levelo://app?vid=954054ad-77ac-46c3-a1b5-c8fc266a522b"},"vehicle_type_id":"4","last_reported":1732025382,"current_range_meters":39200,"station_id":"ce4bhp92rcd13ifvqhbg","pricing_plan_id":"cebpf4jnsgd1na2vs0mg"},{"bike_id":"88afe45d-a755-4b19-a86a-100b8f2f0492","system_id":"levelo_inurba_marseille","lat":43.30639,"lon":5.40087,"is_reserved":false,"is_disabled":false,"rental_uris":{"android":"levelo://app?vid=88afe45d-a755-4b19-a86a-100b8f2f0492","ios":"levelo://app?vid=88afe45d-a755-4b19-a86a-100b8f2f0492"},"vehicle_type_id":"4","last_reported":1732025382,"current_range_meters":37600,"station_id":"ce4bh112rcd13ifvqda0","pricing_plan_id":"cebpf4jnsgd1na2vs0mg"},{"bike_id":"a068dc40-1862-43fc-975c-c8329fcb1c80","system_id":"levelo_inurba_marseille","lat":43.27318,"lon":5.39101,"is_reserved":false,"is_disabled":true,"rental_uris":{"android":"levelo://app?vid=a068dc40-1862-43fc-975c-c8329fcb1c80","ios":"levelo://app?vid=a068dc40-1862-43fc-975c-c8329fcb1c80"},"vehicle_type_id":"4","last_reported":1732025382,"current_range_meters":1600,"station_id":"ce4bhgp2rcd13ifvqfe0","pricing_plan_id":"cebpf4jnsgd1na2vs0mg"},{"bike_id":"9c4a655e-2680-4a60-a844-6a2ea62fb4b1","system_id":"levelo_inurba_marseille","lat":43.26061,"lon":5.39403,"is_reserved":false,"is_disabled":true,"rental_uris":{"android":"levelo://app?vid=9c4a655e-2680-4a60-a844-6a2ea62fb4b1","ios":"levelo://app?vid=9c4a655e-2680-4a60-a844-6a2ea62fb4b1"},"vehicle_type_id":"4","last_reported":1732025382,"current_range_meters":28400,"station_id":"ce4bhh92rcd13ifvqfj0","pricing_plan_id":"cebpf4jnsgd1na2vs0mg"},{"bike_id":"2d983866-913c-4390-ae48-1873d10c9730","system_id":"levelo_inurba_marseille","lat":43.24813,"lon":5.37458,"is_reserved":false,"is_disabled":true,"rental_uris":{"android":"levelo://app?vid=2d983866-913c-4390-ae48-1873d10c9730","ios":"levelo://app?vid=2d983866-913c-4390-ae48-1873d10c9730"},"vehicle_type_id":"4","last_reported":1732025382,"current_range_meters":16000,"station_id":"ce4bhgh2rcd13ifvqfb0","pricing_plan_id":"cebpf4jnsgd1na2vs0mg"},{"bike_id":"8fd18ae9-aed3-411f-9c2d-95d6ae12c81e","system_id":"levelo_inurba_marseille","lat":43.2958,"lon":5.37519,"is_reserved":false,"is_disabled":false,"rental_uris":{"android":"levelo://app?vid=8fd18ae9-aed3-411f-9c2d-95d6ae12c81e","ios":"levelo://app?vid=8fd18ae9-aed3-411f-9c2d-95d6ae12c81e"},"vehicle_type_id":"4","last_reported":1732025382,"current_range_meters":36800,"station_id":"ce4bgh92rcd13ifvqb50","pricing_plan_id":"cebpf4jnsgd1na2vs0mg"},{"bike_id":"1d47055d-2baa-4f8f-bc1a-37d92c8f8dc9","system_id":"levelo_inurba_marseille","lat":43.30949,"lon":5.39042,"is_reserved":false,"is_disabled":false,"rental_uris":{"android":"levelo://app?vid=1d47055d-2baa-4f8f-bc1a-37d92c8f8dc9","ios":"levelo://app?vid=1d47055d-2baa-4f8f-bc1a-37d92c8f8dc9"},"vehicle_type_id":"4","last_reported":1732025382,"current_range_meters":31200,"station_id":"ce4bgup2rcd13ifvqco0","pricing_plan_id":"cebpf4jnsgd1na2vs0mg"},{"bike_id":"4a4dbfcd-935f-4a88-a88e-6e91279672c7","system_id":"levelo_inurba_marseille","lat":43.2972,"lon":5.37685,"is_reserved":false,"is_disabled":false,"rental_uris":{"android":"levelo://app?vid=4a4dbfcd-935f-4a88-a88e-6e91279672c7","ios":"levelo://app?vid=4a4dbfcd-935f-4a88-a88e-6e91279672c7"},"vehicle_type_id":"4","last_reported":1732025382,"current_range_meters":35200,"station_id":"ce4bgkh2rcd13ifvqbl0","pricing_plan_id":"cebpf4jnsgd1na2vs0mg"},{"bike_id":"88196073-5d79-4eef-8b98-5b6c67eee457","system_id":"levelo_inurba_marseille","lat":43.31083,"lon":5.4243,"is_reserved":false,"is_disabled":true,"rental_uris":{"android":"levelo://app?vid=88196073-5d79-4eef-8b98-5b6c67eee457","ios":"levelo://app?vid=88196073-5d79-4eef-8b98-5b6c67eee457"},"vehicle_type_id":"4","last_reported":1732025382,"current_range_meters":16400,"station_id":"ce4bhp92rcd13ifvqhag","pricing_plan_id":"cebpf4jnsgd1na2vs0mg"},{"bike_id":"0d3fddb3-866d-4429-b4bd-8f3b498b5dc4","system_id":"levelo_inurba_marseille","lat":43.29781,"lon":5.37099,"is_reserved":false,"is_disabled":false,"rental_uris":{"android":"levelo://app?vid=0d3fddb3-866d-4429-b4bd-8f3b498b5dc4","ios":"levelo://app?vid=0d3fddb3-866d-4429-b4bd-8f3b498b5dc4"},"vehicle_type_id":"4","last_reported":1732025382,"current_range_meters":34800,"station_id":"ce4bgop2rcd13ifvqc1g","pricing_plan_id":"cebpf4jnsgd1na2vs0mg"},{"bike_id":"bbbe3566-4304-403c-a1a2-bc6d010201ca","system_id":"levelo_inurba_marseille","lat":43.32474,"lon":5.36558,"is_reserved":false,"is_disabled":false,"rental_uris":{"android":"levelo://app?vid=bbbe3566-4304-403c-a1a2-bc6d010201ca","ios":"levelo://app?vid=bbbe3566-4304-403c-a1a2-bc6d010201ca"},"vehicle_type_id":"4","last_reported":1732025382,"current_range_meters":4400,"station_id":"ce4bhs12rcd13ifvqhvg","pricing_plan_id":"cebpf4jnsgd1na2vs0mg"},{"bike_id":"26aa3350-5741-42f6-b56b-c117d943bdc0","system_id":"levelo_inurba_marseille","lat":43.32539,"lon":5.41449,"is_reserved":false,"is_disabled":false,"rental_uris":{"android":"levelo://app?vid=26aa3350-5741-42f6-b56b-c117d943bdc0","ios":"levelo://app?vid=26aa3350-5741-42f6-b56b-c117d943bdc0"},"vehicle_type_id":"4","last_reported":1732025382,"current_range_meters":37600,"station_id":"ce4bhq12rcd13ifvqhhg","pricing_plan_id":"cebpf4jnsgd1na2vs0mg"},{"bike_id":"4430c7fe-75c4-4750-ade5-2860cae79f17","system_id":"levelo_inurba_marseille","lat":43.23148,"lon":5.43706,"is_reserved":false,"is_disabled":false,"rental_uris":{"android":"levelo://app?vid=4430c7fe-75c4-4750-ade5-2860cae79f17","ios":"levelo://app?vid=4430c7fe-75c4-4750-ade5-2860cae79f17"},"vehicle_type_id":"4","last_reported":1732025382,"current_range_meters":38800,"station_id":"ce4bhmp2rcd13ifvqgog","pricing_plan_id":"cebpf4jnsgd1na2vs0mg"},{"bike_id":"4a42bb08-86c4-4bc3-be0b-2fc5774e84e1","system_id":"levelo_inurba_marseille","lat":43.308044,"lon":5.396108,"is_reserved":false,"is_disabled":false,"rental_uris":{"android":"levelo://app?vid=4a42bb08-86c4-4bc3-be0b-2fc5774e84e1","ios":"levelo://app?vid=4a42bb08-86c4-4bc3-be0b-2fc5774e84e1"},"vehicle_type_id":"4","last_reported":1732025382,"current_range_meters":8000,"station_id":"ce4bh012rcd13ifvqcv0","pricing_plan_id":"cebpf4jnsgd1na2vs0mg"},{"bike_id":"e264033a-f915-4b27-a08a-2f42cfcf052a","system_id":"levelo_inurba_marseille","lat":43.33762,"lon":5.37435,"is_reserved":false,"is_disabled":false,"rental_uris":{"android":"levelo://app?vid=e264033a-f915-4b27-a08a-2f42cfcf052a","ios":"levelo://app?vid=e264033a-f915-4b27-a08a-2f42cfcf052a"},"vehicle_type_id":"4","last_reported":1732025382,"current_range_meters":32000,"station_id":"","pricing_plan_id":"cebpf4jnsgd1na2vs0mg"},{"bike_id":"affc6a42-c87f-4640-9297-4a4ea6bc3ad3","system_id":"levelo_inurba_marseille","lat":43.29557,"lon":5.42288,"is_reserved":false,"is_disabled":false,"rental_uris":{"android":"levelo://app?vid=affc6a42-c87f-4640-9297-4a4ea6bc3ad3","ios":"levelo://app?vid=affc6a42-c87f-4640-9297-4a4ea6bc3ad3"},"vehicle_type_id":"4","last_reported":1732025382,"current_range_meters":38800,"station_id":"ce4bhph2rcd13ifvqhdg","pricing_plan_id":"cebpf4jnsgd1na2vs0mg"},{"bike_id":"e3340ae6-dc2a-4b66-bdeb-841501ccc4a3","system_id":"levelo_inurba_marseille","lat":43.30099,"lon":5.39073,"is_reserved":false,"is_disabled":false,"rental_uris":{"android":"levelo://app?vid=e3340ae6-dc2a-4b66-bdeb-841501ccc4a3","ios":"levelo://app?vid=e3340ae6-dc2a-4b66-bdeb-841501ccc4a3"},"vehicle_type_id":"4","last_reported":1732025382,"current_range_meters":36800,"station_id":"ce4bh192rcd13ifvqdb0","pricing_plan_id":"cebpf4jnsgd1na2vs0mg"},{"bike_id":"118619b4-9a02-4081-be66-00f72c211c19","system_id":"levelo_inurba_marseille","lat":43.27666,"lon":5.3887,"is_reserved":false,"is_disabled":false,"rental_uris":{"android":"levelo://app?vid=118619b4-9a02-4081-be66-00f72c211c19","ios":"levelo://app?vid=118619b4-9a02-4081-be66-00f72c211c19"},"vehicle_type_id":"4","last_reported":1732025382,"current_range_meters":38000,"station_id":"ce4bhi12rcd13ifvqfo0","pricing_plan_id":"cebpf4jnsgd1na2vs0mg"},{"bike_id":"123862ba-68e2-48f6-a477-31ab9dae8bd5","system_id":"levelo_inurba_marseille","lat":43.337444,"lon":5.374475,"is_reserved":false,"is_disabled":true,"rental_uris":{"android":"levelo://app?vid=123862ba-68e2-48f6-a477-31ab9dae8bd5","ios":"levelo://app?vid=123862ba-68e2-48f6-a477-31ab9dae8bd5"},"vehicle_type_id":"4","last_reported":1732025382,"current_range_meters":16000,"station_id":"","pricing_plan_id":"cebpf4jnsgd1na2vs0mg"},{"bike_id":"25ddf417-8230-4dbc-b38a-2b2cb1ba9d73","system_id":"levelo_inurba_marseille","lat":43.30285,"lon":5.37713,"is_reserved":false,"is_disabled":false,"rental_uris":{"android":"levelo://app?vid=25ddf417-8230-4dbc-b38a-2b2cb1ba9d73","ios":"levelo://app?vid=25ddf417-8230-4dbc-b38a-2b2cb1ba9d73"},"vehicle_type_id":"4","last_reported":1732025382,"current_range_meters":38400,"station_id":"ce4bguh2rcd13ifvqcj0","pricing_plan_id":"cebpf4jnsgd1na2vs0mg"},{"bike_id":"3c880f4e-66d1-48ae-bc71-5a418335d036","system_id":"levelo_inurba_marseille","lat":43.2955,"lon":5.42286,"is_reserved":false,"is_disabled":false,"rental_uris":{"android":"levelo://app?vid=3c880f4e-66d1-48ae-bc71-5a418335d036","ios":"levelo://app?vid=3c880f4e-66d1-48ae-bc71-5a418335d036"},"vehicle_type_id":"4","last_reported":1732025382,"current_range_meters":28400,"station_id":"ce4bhph2rcd13ifvqhdg","pricing_plan_id":"cebpf4jnsgd1na2vs0mg"},{"bike_id":"dca1e3b4-ac31-4cc1-83b6-04cae1bfbad2","system_id":"levelo_inurba_marseille","lat":43.27619,"lon":5.36109,"is_reserved":false,"is_disabled":false,"rental_uris":{"android":"levelo://app?vid=dca1e3b4-ac31-4cc1-83b6-04cae1bfbad2","ios":"levelo://app?vid=dca1e3b4-ac31-4cc1-83b6-04cae1bfbad2"},"vehicle_type_id":"4","last_reported":1732025382,"current_range_meters":10800,"station_id":"ce4bgj92rcd13ifvqbe0","pricing_plan_id":"cebpf4jnsgd1na2vs0mg"},{"bike_id":"c0414705-628e-4ecb-a390-6a6747dfe975","system_id":"levelo_inurba_marseille","lat":43.30445,"lon":5.36752,"is_reserved":false,"is_disabled":false,"rental_uris":{"android":"levelo://app?vid=c0414705-628e-4ecb-a390-6a6747dfe975","ios":"levelo://app?vid=c0414705-628e-4ecb-a390-6a6747dfe975"},"vehicle_type_id":"4","last_reported":1732025382,"current_range_meters":36000,"station_id":"","pricing_plan_id":"cebpf4jnsgd1na2vs0mg"},{"bike_id":"82b0d54c-2a7f-4f37-8989-121c374f3bd7","system_id":"levelo_inurba_marseille","lat":43.29903,"lon":5.38144,"is_reserved":false,"is_disabled":false,"rental_uris":{"android":"levelo://app?vid=82b0d54c-2a7f-4f37-8989-121c374f3bd7","ios":"levelo://app?vid=82b0d54c-2a7f-4f37-8989-121c374f3bd7"},"vehicle_type_id":"4","last_reported":1732025382,"current_range_meters":33200,"station_id":"ce4bgj12rcd13ifvqbc0","pricing_plan_id":"cebpf4jnsgd1na2vs0mg"},{"bike_id":"ec93ac56-7bc0-4cdf-815b-5a5b3f95e7c4","system_id":"levelo_inurba_marseille","lat":43.30544,"lon":5.36543,"is_reserved":false,"is_disabled":false,"rental_uris":{"android":"levelo://app?vid=ec93ac56-7bc0-4cdf-815b-5a5b3f95e7c4","ios":"levelo://app?vid=ec93ac56-7bc0-4cdf-815b-5a5b3f95e7c4"},"vehicle_type_id":"4","last_reported":1732025382,"current_range_meters":18800,"station_id":"ce4bgs12rcd13ifvqcag","pricing_plan_id":"cebpf4jnsgd1na2vs0mg"},{"bike_id":"efaa20f7-d2fb-4778-9ca3-b17e9193d440","system_id":"levelo_inurba_marseille","lat":43.33712,"lon":5.39177,"is_reserved":false,"is_disabled":false,"rental_uris":{"android":"levelo://app?vid=efaa20f7-d2fb-4778-9ca3-b17e9193d440","ios":"levelo://app?vid=efaa20f7-d2fb-4778-9ca3-b17e9193d440"},"vehicle_type_id":"4","last_reported":1732025382,"current_range_meters":38400,"station_id":"ce4bhr92rcd13ifvqhsg","pricing_plan_id":"cebpf4jnsgd1na2vs0mg"},{"bike_id":"4b1089fa-7b1e-4c9e-b4cc-042056d6026b","system_id":"levelo_inurba_marseille","lat":43.30209,"lon":5.39463,"is_reserved":false,"is_disabled":true,"rental_uris":{"android":"levelo://app?vid=4b1089fa-7b1e-4c9e-b4cc-042056d6026b","ios":"levelo://app?vid=4b1089fa-7b1e-4c9e-b4cc-042056d6026b"},"vehicle_type_id":"4","last_reported":1732025382,"current_range_meters":28000,"station_id":"ce4bh0p2rcd13ifvqd70","pricing_plan_id":"cebpf4jnsgd1na2vs0mg"},{"bike_id":"0af1d6ed-805a-43d7-b758-720642084494","system_id":"levelo_inurba_marseille","lat":43.32547,"lon":5.41448,"is_reserved":false,"is_disabled":false,"rental_uris":{"android":"levelo://app?vid=0af1d6ed-805a-43d7-b758-720642084494","ios":"levelo://app?vid=0af1d6ed-805a-43d7-b758-720642084494"},"vehicle_type_id":"4","last_reported":1732025382,"current_range_meters":17600,"station_id":"ce4bhq12rcd13ifvqhhg","pricing_plan_id":"cebpf4jnsgd1na2vs0mg"},{"bike_id":"d5d93423-8b59-49ff-a38f-f9112bad0624","system_id":"levelo_inurba_marseille","lat":43.23153,"lon":5.43707,"is_reserved":false,"is_disabled":true,"rental_uris":{"android":"levelo://app?vid=d5d93423-8b59-49ff-a38f-f9112bad0624","ios":"levelo://app?vid=d5d93423-8b59-49ff-a38f-f9112bad0624"},"vehicle_type_id":"4","last_reported":1732025382,"current_range_meters":18000,"station_id":"ce4bhmp2rcd13ifvqgog","pricing_plan_id":"cebpf4jnsgd1na2vs0mg"},{"bike_id":"e2f6a0a8-eb6e-492e-a17f-6bde58b9d768","system_id":"levelo_inurba_marseille","lat":43.29849,"lon":5.36276,"is_reserved":false,"is_disabled":false,"rental_uris":{"android":"levelo://app?vid=e2f6a0a8-eb6e-492e-a17f-6bde58b9d768","ios":"levelo://app?vid=e2f6a0a8-eb6e-492e-a17f-6bde58b9d768"},"vehicle_type_id":"4","last_reported":1732025382,"current_range_meters":36800,"station_id":"ce4bgpp2rcd13ifvqc3g","pricing_plan_id":"cebpf4jnsgd1na2vs0mg"},{"bike_id":"cda5d921-6da1-47fc-a138-92315e85d6fc","system_id":"levelo_inurba_marseille","lat":43.28077,"lon":5.39648,"is_reserved":false,"is_disabled":false,"rental_uris":{"android":"levelo://app?vid=cda5d921-6da1-47fc-a138-92315e85d6fc","ios":"levelo://app?vid=cda5d921-6da1-47fc-a138-92315e85d6fc"},"vehicle_type_id":"4","last_reported":1732025382,"current_range_meters":38800,"station_id":"ce4bho12rcd13ifvqh2g","pricing_plan_id":"cebpf4jnsgd1na2vs0mg"},{"bike_id":"fbf50743-a751-4d22-8d7f-9047b9d72787","system_id":"levelo_inurba_marseille","lat":43.33325,"lon":5.41873,"is_reserved":false,"is_disabled":false,"rental_uris":{"android":"levelo://app?vid=fbf50743-a751-4d22-8d7f-9047b9d72787","ios":"levelo://app?vid=fbf50743-a751-4d22-8d7f-9047b9d72787"},"vehicle_type_id":"4","last_reported":1732025382,"current_range_meters":27600,"station_id":"","pricing_plan_id":"cebpf4jnsgd1na2vs0mg"},{"bike_id":"0606d9a5-6a08-44ff-bae7-2c9775f261f2","system_id":"levelo_inurba_marseille","lat":43.2904,"lon":5.3995,"is_reserved":false,"is_disabled":false,"rental_uris":{"android":"levelo://app?vid=0606d9a5-6a08-44ff-bae7-2c9775f261f2","ios":"levelo://app?vid=0606d9a5-6a08-44ff-bae7-2c9775f261f2"},"vehicle_type_id":"4","last_reported":1732025382,"current_range_meters":18800,"station_id":"ce4bh392rcd13ifvqdm0","pricing_plan_id":"cebpf4jnsgd1na2vs0mg"},{"bike_id":"76f56c68-3a3a-4e2a-b27a-a67a2d3d30c6","system_id":"levelo_inurba_marseille","lat":43.30155,"lon":5.38083,"is_reserved":false,"is_disabled":false,"rental_uris":{"android":"levelo://app?vid=76f56c68-3a3a-4e2a-b27a-a67a2d3d30c6","ios":"levelo://app?vid=76f56c68-3a3a-4e2a-b27a-a67a2d3d30c6"},"vehicle_type_id":"4","last_reported":1732025382,"current_range_meters":9600,"station_id":"ce4bgjp2rcd13ifvqbh0","pricing_plan_id":"cebpf4jnsgd1na2vs0mg"},{"bike_id":"5beecc67-d5bb-4e45-bd2b-b33e48ba2e6d","system_id":"levelo_inurba_marseille","lat":43.29183,"lon":5.35803,"is_reserved":false,"is_disabled":false,"rental_uris":{"android":"levelo://app?vid=5beecc67-d5bb-4e45-bd2b-b33e48ba2e6d","ios":"levelo://app?vid=5beecc67-d5bb-4e45-bd2b-b33e48ba2e6d"},"vehicle_type_id":"4","last_reported":1732025382,"current_range_meters":38800,"station_id":"ce4bhb12rcd13ifvqel0","pricing_plan_id":"cebpf4jnsgd1na2vs0mg"},{"bike_id":"823376cc-de15-4f61-9ede-6051b11b07d4","system_id":"levelo_inurba_marseille","lat":43.32036,"lon":5.41565,"is_reserved":false,"is_disabled":false,"rental_uris":{"android":"levelo://app?vid=823376cc-de15-4f61-9ede-6051b11b07d4","ios":"levelo://app?vid=823376cc-de15-4f61-9ede-6051b11b07d4"},"vehicle_type_id":"4","last_reported":1732025382,"current_range_meters":38800,"station_id":"ce4bhq92rcd13ifvqhkg","pricing_plan_id":"cebpf4jnsgd1na2vs0mg"},{"bike_id":"1ea9d202-7235-44ff-a808-1a87a3b9cfc1","system_id":"levelo_inurba_marseille","lat":43.25575,"lon":5.3824,"is_reserved":false,"is_disabled":false,"rental_uris":{"android":"levelo://app?vid=1ea9d202-7235-44ff-a808-1a87a3b9cfc1","ios":"levelo://app?vid=1ea9d202-7235-44ff-a808-1a87a3b9cfc1"},"vehicle_type_id":"4","last_reported":1732025382,"current_range_meters":15200,"station_id":"ce4bhih2rcd13ifvqfs0","pricing_plan_id":"cebpf4jnsgd1na2vs0mg"},{"bike_id":"d7b8e98b-7823-4af9-88bb-4e0450f2eba8","system_id":"levelo_inurba_marseille","lat":43.29974,"lon":5.38486,"is_reserved":false,"is_disabled":false,"rental_uris":{"android":"levelo://app?vid=d7b8e98b-7823-4af9-88bb-4e0450f2eba8","ios":"levelo://app?vid=d7b8e98b-7823-4af9-88bb-4e0450f2eba8"},"vehicle_type_id":"4","last_reported":1732025382,"current_range_meters":32800,"station_id":"ce4bgj92rcd13ifvqbd0","pricing_plan_id":"cebpf4jnsgd1na2vs0mg"},{"bike_id":"befd4fe4-a59b-405d-b479-acece378b2f2","system_id":"levelo_inurba_marseille","lat":43.26028,"lon":5.37551,"is_reserved":false,"is_disabled":false,"rental_uris":{"android":"levelo://app?vid=befd4fe4-a59b-405d-b479-acece378b2f2","ios":"levelo://app?vid=befd4fe4-a59b-405d-b479-acece378b2f2"},"vehicle_type_id":"4","last_reported":1732025382,"current_range_meters":27200,"station_id":"ce4bhgh2rcd13ifvqfa0","pricing_plan_id":"cebpf4jnsgd1na2vs0mg"},{"bike_id":"ec741505-8dd9-4072-9dfb-be4ddc149da6","system_id":"levelo_inurba_marseille","lat":43.28095,"lon":5.37837,"is_reserved":false,"is_disabled":false,"rental_uris":{"android":"levelo://app?vid=ec741505-8dd9-4072-9dfb-be4ddc149da6","ios":"levelo://app?vid=ec741505-8dd9-4072-9dfb-be4ddc149da6"},"vehicle_type_id":"4","last_reported":1732025382,"current_range_meters":12000,"station_id":"ce4bha12rcd13ifvqee0","pricing_plan_id":"cebpf4jnsgd1na2vs0mg"},{"bike_id":"e724f48d-7831-4a53-bd1c-2ddf0f9a9faa","system_id":"levelo_inurba_marseille","lat":43.30306,"lon":5.36908,"is_reserved":false,"is_disabled":false,"rental_uris":{"android":"levelo://app?vid=e724f48d-7831-4a53-bd1c-2ddf0f9a9faa","ios":"levelo://app?vid=e724f48d-7831-4a53-bd1c-2ddf0f9a9faa"},"vehicle_type_id":"4","last_reported":1732025382,"current_range_meters":8000,"station_id":"ce4bgqh2rcd13ifvqc5g","pricing_plan_id":"cebpf4jnsgd1na2vs0mg"},{"bike_id":"29860f8d-356a-4715-b755-e109046695d2","system_id":"levelo_inurba_marseille","lat":43.25862,"lon":5.399,"is_reserved":false,"is_disabled":true,"rental_uris":{"android":"levelo://app?vid=29860f8d-356a-4715-b755-e109046695d2","ios":"levelo://app?vid=29860f8d-356a-4715-b755-e109046695d2"},"vehicle_type_id":"4","last_reported":1732025382,"current_range_meters":2000,"station_id":"ce4bhl92rcd13ifvqghg","pricing_plan_id":"cebpf4jnsgd1na2vs0mg"},{"bike_id":"d2cd61e5-ddea-400d-806b-2d0378e6417b","system_id":"levelo_inurba_marseille","lat":43.30539,"lon":5.36547,"is_reserved":false,"is_disabled":false,"rental_uris":{"android":"levelo://app?vid=d2cd61e5-ddea-400d-806b-2d0378e6417b","ios":"levelo://app?vid=d2cd61e5-ddea-400d-806b-2d0378e6417b"},"vehicle_type_id":"4","last_reported":1732025382,"current_range_meters":8000,"station_id":"ce4bgs12rcd13ifvqcag","pricing_plan_id":"cebpf4jnsgd1na2vs0mg"},{"bike_id":"03d81797-2d3e-41fb-83d2-92ced9838d9a","system_id":"levelo_inurba_marseille","lat":43.26808,"lon":5.40266,"is_reserved":false,"is_disabled":false,"rental_uris":{"android":"levelo://app?vid=03d81797-2d3e-41fb-83d2-92ced9838d9a","ios":"levelo://app?vid=03d81797-2d3e-41fb-83d2-92ced9838d9a"},"vehicle_type_id":"4","last_reported":1732025382,"current_range_meters":36000,"station_id":"ce501612rcd8frsf0b60","pricing_plan_id":"cebpf4jnsgd1na2vs0mg"},{"bike_id":"bea33c6f-298f-40b3-b388-db8f4ac8987a","system_id":"levelo_inurba_marseille","lat":43.23158,"lon":5.43705,"is_reserved":false,"is_disabled":false,"rental_uris":{"android":"levelo://app?vid=bea33c6f-298f-40b3-b388-db8f4ac8987a","ios":"levelo://app?vid=bea33c6f-298f-40b3-b388-db8f4ac8987a"},"vehicle_type_id":"4","last_reported":1732025382,"current_range_meters":22400,"station_id":"ce4bhmp2rcd13ifvqgog","pricing_plan_id":"cebpf4jnsgd1na2vs0mg"},{"bike_id":"d7028eda-98d4-40fd-ba8f-c40bdfde1457","system_id":"levelo_inurba_marseille","lat":43.27566,"lon":5.38418,"is_reserved":false,"is_disabled":false,"rental_uris":{"android":"levelo://app?vid=d7028eda-98d4-40fd-ba8f-c40bdfde1457","ios":"levelo://app?vid=d7028eda-98d4-40fd-ba8f-c40bdfde1457"},"vehicle_type_id":"4","last_reported":1732025382,"current_range_meters":36400,"station_id":"ce4bhh92rcd13ifvqfi0","pricing_plan_id":"cebpf4jnsgd1na2vs0mg"},{"bike_id":"0a5a60ac-404d-484a-b3c8-3f60e722bf85","system_id":"levelo_inurba_marseille","lat":43.28269,"lon":5.35068,"is_reserved":false,"is_disabled":false,"rental_uris":{"android":"levelo://app?vid=0a5a60ac-404d-484a-b3c8-3f60e722bf85","ios":"levelo://app?vid=0a5a60ac-404d-484a-b3c8-3f60e722bf85"},"vehicle_type_id":"4","last_reported":1732025382,"current_range_meters":24800,"station_id":"ce4bhbp2rcd13ifvqerg","pricing_plan_id":"cebpf4jnsgd1na2vs0mg"},{"bike_id":"2910f69a-6dac-4d69-a60d-e4f1b8cce200","system_id":"levelo_inurba_marseille","lat":43.2781,"lon":5.40721,"is_reserved":false,"is_disabled":true,"rental_uris":{"android":"levelo://app?vid=2910f69a-6dac-4d69-a60d-e4f1b8cce200","ios":"levelo://app?vid=2910f69a-6dac-4d69-a60d-e4f1b8cce200"},"vehicle_type_id":"4","last_reported":1732025382,"current_range_meters":19200,"station_id":"ce4bhnh2rcd13ifvqgtg","pricing_plan_id":"cebpf4jnsgd1na2vs0mg"},{"bike_id":"3d4a8a11-cd8e-4217-a130-2b8f97253671","system_id":"levelo_inurba_marseille","lat":43.30275,"lon":5.37711,"is_reserved":false,"is_disabled":false,"rental_uris":{"android":"levelo://app?vid=3d4a8a11-cd8e-4217-a130-2b8f97253671","ios":"levelo://app?vid=3d4a8a11-cd8e-4217-a130-2b8f97253671"},"vehicle_type_id":"4","last_reported":1732025382,"current_range_meters":38800,"station_id":"ce4bguh2rcd13ifvqcj0","pricing_plan_id":"cebpf4jnsgd1na2vs0mg"},{"bike_id":"383a8639-4e31-4933-ac58-884f683c2a66","system_id":"levelo_inurba_marseille","lat":43.268005,"lon":5.402682,"is_reserved":false,"is_disabled":false,"rental_uris":{"android":"levelo://app?vid=383a8639-4e31-4933-ac58-884f683c2a66","ios":"levelo://app?vid=383a8639-4e31-4933-ac58-884f683c2a66"},"vehicle_type_id":"4","last_reported":1732025382,"current_range_meters":30000,"station_id":"ce501612rcd8frsf0b60","pricing_plan_id":"cebpf4jnsgd1na2vs0mg"},{"bike_id":"4b6ed403-efdd-4ab1-b72d-fbfd8d37fff6","system_id":"levelo_inurba_marseille","lat":43.27538,"lon":5.35996,"is_reserved":false,"is_disabled":false,"rental_uris":{"android":"levelo://app?vid=4b6ed403-efdd-4ab1-b72d-fbfd8d37fff6","ios":"levelo://app?vid=4b6ed403-efdd-4ab1-b72d-fbfd8d37fff6"},"vehicle_type_id":"4","last_reported":1732025382,"current_range_meters":31200,"station_id":"ce4bgj92rcd13ifvqbe0","pricing_plan_id":"cebpf4jnsgd1na2vs0mg"},{"bike_id":"85782696-36f2-4c33-98b6-2d88f8670e2c","system_id":"levelo_inurba_marseille","lat":43.31081,"lon":5.42429,"is_reserved":false,"is_disabled":false,"rental_uris":{"android":"levelo://app?vid=85782696-36f2-4c33-98b6-2d88f8670e2c","ios":"levelo://app?vid=85782696-36f2-4c33-98b6-2d88f8670e2c"},"vehicle_type_id":"4","last_reported":1732025382,"current_range_meters":36000,"station_id":"ce4bhp92rcd13ifvqhag","pricing_plan_id":"cebpf4jnsgd1na2vs0mg"},{"bike_id":"800fea11-f496-4c18-9208-f2888c95692c","system_id":"levelo_inurba_marseille","lat":43.31221,"lon":5.36848,"is_reserved":false,"is_disabled":false,"rental_uris":{"android":"levelo://app?vid=800fea11-f496-4c18-9208-f2888c95692c","ios":"levelo://app?vid=800fea11-f496-4c18-9208-f2888c95692c"},"vehicle_type_id":"4","last_reported":1732025382,"current_range_meters":30800,"station_id":"ce4bgl92rcd13ifvqbq0","pricing_plan_id":"cebpf4jnsgd1na2vs0mg"},{"bike_id":"73f7e3ea-ec32-493a-85e2-e04e1909b2dd","system_id":"levelo_inurba_marseille","lat":43.27618,"lon":5.36112,"is_reserved":false,"is_disabled":false,"rental_uris":{"android":"levelo://app?vid=73f7e3ea-ec32-493a-85e2-e04e1909b2dd","ios":"levelo://app?vid=73f7e3ea-ec32-493a-85e2-e04e1909b2dd"},"vehicle_type_id":"4","last_reported":1732025382,"current_range_meters":24000,"station_id":"ce4bgj92rcd13ifvqbe0","pricing_plan_id":"cebpf4jnsgd1na2vs0mg"},{"bike_id":"c46435fb-ac45-4251-8f82-c93eda02ef2f","system_id":"levelo_inurba_marseille","lat":43.311602,"lon":5.425233,"is_reserved":false,"is_disabled":false,"rental_uris":{"android":"levelo://app?vid=c46435fb-ac45-4251-8f82-c93eda02ef2f","ios":"levelo://app?vid=c46435fb-ac45-4251-8f82-c93eda02ef2f"},"vehicle_type_id":"4","last_reported":1732025382,"current_range_meters":2000,"station_id":"","pricing_plan_id":"cebpf4jnsgd1na2vs0mg"},{"bike_id":"d3908787-94bf-4b04-a064-a2292f12dff7","system_id":"levelo_inurba_marseille","lat":43.29791,"lon":5.371,"is_reserved":false,"is_disabled":false,"rental_uris":{"android":"levelo://app?vid=d3908787-94bf-4b04-a064-a2292f12dff7","ios":"levelo://app?vid=d3908787-94bf-4b04-a064-a2292f12dff7"},"vehicle_type_id":"4","last_reported":1732025382,"current_range_meters":37600,"station_id":"ce4bgop2rcd13ifvqc1g","pricing_plan_id":"cebpf4jnsgd1na2vs0mg"},{"bike_id":"ac9d2f49-8491-4f64-8df3-f15847cdf648","system_id":"levelo_inurba_marseille","lat":43.29899,"lon":5.38125,"is_reserved":false,"is_disabled":false,"rental_uris":{"android":"levelo://app?vid=ac9d2f49-8491-4f64-8df3-f15847cdf648","ios":"levelo://app?vid=ac9d2f49-8491-4f64-8df3-f15847cdf648"},"vehicle_type_id":"4","last_reported":1732025382,"current_range_meters":38400,"station_id":"ce4bgj12rcd13ifvqbc0","pricing_plan_id":"cebpf4jnsgd1na2vs0mg"},{"bike_id":"92450c3d-2142-44c9-8454-b2bb1dfc77ff","system_id":"levelo_inurba_marseille","lat":43.23194,"lon":5.35555,"is_reserved":false,"is_disabled":false,"rental_uris":{"android":"levelo://app?vid=92450c3d-2142-44c9-8454-b2bb1dfc77ff","ios":"levelo://app?vid=92450c3d-2142-44c9-8454-b2bb1dfc77ff"},"vehicle_type_id":"4","last_reported":1732025382,"current_range_meters":16000,"station_id":"ce4bhu92rcd13ifvqi70","pricing_plan_id":"cebpf4jnsgd1na2vs0mg"},{"bike_id":"7e35deb2-0950-494e-a5fc-48886e723f0a","system_id":"levelo_inurba_marseille","lat":43.290368,"lon":5.37561,"is_reserved":false,"is_disabled":true,"rental_uris":{"android":"levelo://app?vid=7e35deb2-0950-494e-a5fc-48886e723f0a","ios":"levelo://app?vid=7e35deb2-0950-494e-a5fc-48886e723f0a"},"vehicle_type_id":"4","last_reported":1732025382,"current_range_meters":9200,"station_id":"ce4bh692rcd13ifvqe90","pricing_plan_id":"cebpf4jnsgd1na2vs0mg"},{"bike_id":"ff85a80a-3abd-403e-a44a-3ee19d93258a","system_id":"levelo_inurba_marseille","lat":43.2984,"lon":5.36267,"is_reserved":false,"is_disabled":false,"rental_uris":{"android":"levelo://app?vid=ff85a80a-3abd-403e-a44a-3ee19d93258a","ios":"levelo://app?vid=ff85a80a-3abd-403e-a44a-3ee19d93258a"},"vehicle_type_id":"4","last_reported":1732025382,"current_range_meters":31200,"station_id":"ce4bgpp2rcd13ifvqc3g","pricing_plan_id":"cebpf4jnsgd1na2vs0mg"},{"bike_id":"d482b473-8011-43d1-9203-ef428f8af553","system_id":"levelo_inurba_marseille","lat":43.2955,"lon":5.42285,"is_reserved":false,"is_disabled":false,"rental_uris":{"android":"levelo://app?vid=d482b473-8011-43d1-9203-ef428f8af553","ios":"levelo://app?vid=d482b473-8011-43d1-9203-ef428f8af553"},"vehicle_type_id":"4","last_reported":1732025382,"current_range_meters":38800,"station_id":"ce4bhph2rcd13ifvqhdg","pricing_plan_id":"cebpf4jnsgd1na2vs0mg"},{"bike_id":"fc44be30-7343-489c-a2ca-c4815855d3da","system_id":"levelo_inurba_marseille","lat":43.30121,"lon":5.387298,"is_reserved":false,"is_disabled":false,"rental_uris":{"android":"levelo://app?vid=fc44be30-7343-489c-a2ca-c4815855d3da","ios":"levelo://app?vid=fc44be30-7343-489c-a2ca-c4815855d3da"},"vehicle_type_id":"4","last_reported":1732025382,"current_range_meters":6000,"station_id":"ce4bghh2rcd13ifvqb60","pricing_plan_id":"cebpf4jnsgd1na2vs0mg"},{"bike_id":"39fe7f4c-753f-4ff2-8898-a7e615c9b6d8","system_id":"levelo_inurba_marseille","lat":43.28615,"lon":5.35107,"is_reserved":false,"is_disabled":false,"rental_uris":{"android":"levelo://app?vid=39fe7f4c-753f-4ff2-8898-a7e615c9b6d8","ios":"levelo://app?vid=39fe7f4c-753f-4ff2-8898-a7e615c9b6d8"},"vehicle_type_id":"4","last_reported":1732025382,"current_range_meters":6800,"station_id":"ce4bhch2rcd13ifvqeug","pricing_plan_id":"cebpf4jnsgd1na2vs0mg"},{"bike_id":"cde5eb04-35f5-4971-aec4-8004f9b2dcd9","system_id":"levelo_inurba_marseille","lat":43.28265,"lon":5.35078,"is_reserved":false,"is_disabled":true,"rental_uris":{"android":"levelo://app?vid=cde5eb04-35f5-4971-aec4-8004f9b2dcd9","ios":"levelo://app?vid=cde5eb04-35f5-4971-aec4-8004f9b2dcd9"},"vehicle_type_id":"4","last_reported":1732025382,"current_range_meters":33200,"station_id":"ce4bhbp2rcd13ifvqerg","pricing_plan_id":"cebpf4jnsgd1na2vs0mg"},{"bike_id":"e63fa20f-859b-43dc-995d-a32935dd2a71","system_id":"levelo_inurba_marseille","lat":43.27615,"lon":5.36101,"is_reserved":false,"is_disabled":false,"rental_uris":{"android":"levelo://app?vid=e63fa20f-859b-43dc-995d-a32935dd2a71","ios":"levelo://app?vid=e63fa20f-859b-43dc-995d-a32935dd2a71"},"vehicle_type_id":"4","last_reported":1732025382,"current_range_meters":18000,"station_id":"ce4bgj92rcd13ifvqbe0","pricing_plan_id":"cebpf4jnsgd1na2vs0mg"},{"bike_id":"eb5715a2-f06e-4d72-936c-50403c2467fd","system_id":"levelo_inurba_marseille","lat":43.31712,"lon":5.37742,"is_reserved":false,"is_disabled":false,"rental_uris":{"android":"levelo://app?vid=eb5715a2-f06e-4d72-936c-50403c2467fd","ios":"levelo://app?vid=eb5715a2-f06e-4d72-936c-50403c2467fd"},"vehicle_type_id":"4","last_reported":1732025382,"current_range_meters":4000,"station_id":"ce4bgth2rcd13ifvqch0","pricing_plan_id":"cebpf4jnsgd1na2vs0mg"},{"bike_id":"ac7e81f3-809f-4d21-8101-a6b5b1a9cc82","system_id":"levelo_inurba_marseille","lat":43.28709,"lon":5.37942,"is_reserved":false,"is_disabled":false,"rental_uris":{"android":"levelo://app?vid=ac7e81f3-809f-4d21-8101-a6b5b1a9cc82","ios":"levelo://app?vid=ac7e81f3-809f-4d21-8101-a6b5b1a9cc82"},"vehicle_type_id":"4","last_reported":1732025382,"current_range_meters":3200,"station_id":"ce4bh9p2rcd13ifvqec0","pricing_plan_id":"cebpf4jnsgd1na2vs0mg"},{"bike_id":"8900f549-cd7c-47eb-8777-83d4c4a7c47f","system_id":"levelo_inurba_marseille","lat":43.34138,"lon":5.40908,"is_reserved":false,"is_disabled":false,"rental_uris":{"android":"levelo://app?vid=8900f549-cd7c-47eb-8777-83d4c4a7c47f","ios":"levelo://app?vid=8900f549-cd7c-47eb-8777-83d4c4a7c47f"},"vehicle_type_id":"4","last_reported":1732025382,"current_range_meters":37600,"station_id":"ce4bhqh2rcd13ifvqhlg","pricing_plan_id":"cebpf4jnsgd1na2vs0mg"},{"bike_id":"da055520-40df-4bed-8530-3dec55320e10","system_id":"levelo_inurba_marseille","lat":43.30907,"lon":5.37219,"is_reserved":false,"is_disabled":false,"rental_uris":{"android":"levelo://app?vid=da055520-40df-4bed-8530-3dec55320e10","ios":"levelo://app?vid=da055520-40df-4bed-8530-3dec55320e10"},"vehicle_type_id":"4","last_reported":1732025382,"current_range_meters":26000,"station_id":"ce4bguh2rcd13ifvqckg","pricing_plan_id":"cebpf4jnsgd1na2vs0mg"},{"bike_id":"0e2bbe61-8f31-47ba-b582-6a82d0b052e0","system_id":"levelo_inurba_marseille","lat":43.29026,"lon":5.38365,"is_reserved":false,"is_disabled":false,"rental_uris":{"android":"levelo://app?vid=0e2bbe61-8f31-47ba-b582-6a82d0b052e0","ios":"levelo://app?vid=0e2bbe61-8f31-47ba-b582-6a82d0b052e0"},"vehicle_type_id":"4","last_reported":1732025382,"current_range_meters":28400,"station_id":"ce4bgip2rcd13ifvqbb0","pricing_plan_id":"cebpf4jnsgd1na2vs0mg"},{"bike_id":"c3bc0f64-f384-48a7-9517-04f95522a7e3","system_id":"levelo_inurba_marseille","lat":43.318242,"lon":5.37611,"is_reserved":false,"is_disabled":true,"rental_uris":{"android":"levelo://app?vid=c3bc0f64-f384-48a7-9517-04f95522a7e3","ios":"levelo://app?vid=c3bc0f64-f384-48a7-9517-04f95522a7e3"},"vehicle_type_id":"4","last_reported":1732025382,"current_range_meters":15200,"station_id":"","pricing_plan_id":"cebpf4jnsgd1na2vs0mg"},{"bike_id":"0f7d3f82-6b41-4aca-b79e-c6aaeac6d97f","system_id":"levelo_inurba_marseille","lat":43.30542,"lon":5.36708,"is_reserved":false,"is_disabled":false,"rental_uris":{"android":"levelo://app?vid=0f7d3f82-6b41-4aca-b79e-c6aaeac6d97f","ios":"levelo://app?vid=0f7d3f82-6b41-4aca-b79e-c6aaeac6d97f"},"vehicle_type_id":"4","last_reported":1732025382,"current_range_meters":38800,"station_id":"ce4bgrp2rcd13ifvqc9g","pricing_plan_id":"cebpf4jnsgd1na2vs0mg"},{"bike_id":"5418acad-e3ab-4b98-be4a-6d179037d4b7","system_id":"levelo_inurba_marseille","lat":43.2749,"lon":5.42457,"is_reserved":false,"is_disabled":false,"rental_uris":{"android":"levelo://app?vid=5418acad-e3ab-4b98-be4a-6d179037d4b7","ios":"levelo://app?vid=5418acad-e3ab-4b98-be4a-6d179037d4b7"},"vehicle_type_id":"4","last_reported":1732025382,"current_range_meters":16400,"station_id":"ce4bhn92rcd13ifvqgrg","pricing_plan_id":"cebpf4jnsgd1na2vs0mg"},{"bike_id":"a75d9edd-797a-4f9a-b7b7-a7c9fe9ba8d2","system_id":"levelo_inurba_marseille","lat":43.30906,"lon":5.36855,"is_reserved":false,"is_disabled":false,"rental_uris":{"android":"levelo://app?vid=a75d9edd-797a-4f9a-b7b7-a7c9fe9ba8d2","ios":"levelo://app?vid=a75d9edd-797a-4f9a-b7b7-a7c9fe9ba8d2"},"vehicle_type_id":"4","last_reported":1732025382,"current_range_meters":38800,"station_id":"ce4bgn92rcd13ifvqbvg","pricing_plan_id":"cebpf4jnsgd1na2vs0mg"},{"bike_id":"76d06047-6022-43bd-b1fc-c4ae5ef0c8b9","system_id":"levelo_inurba_marseille","lat":43.30275,"lon":5.37703,"is_reserved":false,"is_disabled":false,"rental_uris":{"android":"levelo://app?vid=76d06047-6022-43bd-b1fc-c4ae5ef0c8b9","ios":"levelo://app?vid=76d06047-6022-43bd-b1fc-c4ae5ef0c8b9"},"vehicle_type_id":"4","last_reported":1732025382,"current_range_meters":38800,"station_id":"ce4bguh2rcd13ifvqcj0","pricing_plan_id":"cebpf4jnsgd1na2vs0mg"},{"bike_id":"5ae5f703-f94e-4ebd-b048-7ec71bfb894e","system_id":"levelo_inurba_marseille","lat":43.29262,"lon":5.38453,"is_reserved":false,"is_disabled":false,"rental_uris":{"android":"levelo://app?vid=5ae5f703-f94e-4ebd-b048-7ec71bfb894e","ios":"levelo://app?vid=5ae5f703-f94e-4ebd-b048-7ec71bfb894e"},"vehicle_type_id":"4","last_reported":1732025382,"current_range_meters":38800,"station_id":"ce4bh692rcd13ifvqea0","pricing_plan_id":"cebpf4jnsgd1na2vs0mg"},{"bike_id":"2a3f869d-0a54-43c6-b1fd-6f4c781866fe","system_id":"levelo_inurba_marseille","lat":43.29977,"lon":5.37182,"is_reserved":false,"is_disabled":false,"rental_uris":{"android":"levelo://app?vid=2a3f869d-0a54-43c6-b1fd-6f4c781866fe","ios":"levelo://app?vid=2a3f869d-0a54-43c6-b1fd-6f4c781866fe"},"vehicle_type_id":"4","last_reported":1732025382,"current_range_meters":27600,"station_id":"ce4bgr92rcd13ifvqc7g","pricing_plan_id":"cebpf4jnsgd1na2vs0mg"},{"bike_id":"729f081d-5184-4f31-801f-2b41f23e3a17","system_id":"levelo_inurba_marseille","lat":43.33114,"lon":5.38222,"is_reserved":false,"is_disabled":true,"rental_uris":{"android":"levelo://app?vid=729f081d-5184-4f31-801f-2b41f23e3a17","ios":"levelo://app?vid=729f081d-5184-4f31-801f-2b41f23e3a17"},"vehicle_type_id":"4","last_reported":1732025382,"current_range_meters":34000,"station_id":"","pricing_plan_id":"cebpf4jnsgd1na2vs0mg"},{"bike_id":"638f8d00-ceb3-4062-9f5f-ca647d7df496","system_id":"levelo_inurba_marseille","lat":43.27418,"lon":5.39416,"is_reserved":false,"is_disabled":false,"rental_uris":{"android":"levelo://app?vid=638f8d00-ceb3-4062-9f5f-ca647d7df496","ios":"levelo://app?vid=638f8d00-ceb3-4062-9f5f-ca647d7df496"},"vehicle_type_id":"4","last_reported":1732025382,"current_range_meters":30400,"station_id":"ce4bhdp2rcd13ifvqf20","pricing_plan_id":"cebpf4jnsgd1na2vs0mg"},{"bike_id":"25d784e2-bad5-4648-8abc-849445b4c4c8","system_id":"levelo_inurba_marseille","lat":43.24082,"lon":5.37734,"is_reserved":false,"is_disabled":false,"rental_uris":{"android":"levelo://app?vid=25d784e2-bad5-4648-8abc-849445b4c4c8","ios":"levelo://app?vid=25d784e2-bad5-4648-8abc-849445b4c4c8"},"vehicle_type_id":"4","last_reported":1732025382,"current_range_meters":38400,"station_id":"ce4bhnp2rcd13ifvqgvg","pricing_plan_id":"cebpf4jnsgd1na2vs0mg"},{"bike_id":"487900ec-fce8-4796-bba3-374b1b5f8117","system_id":"levelo_inurba_marseille","lat":43.2907,"lon":5.37169,"is_reserved":false,"is_disabled":false,"rental_uris":{"android":"levelo://app?vid=487900ec-fce8-4796-bba3-374b1b5f8117","ios":"levelo://app?vid=487900ec-fce8-4796-bba3-374b1b5f8117"},"vehicle_type_id":"4","last_reported":1732025382,"current_range_meters":38800,"station_id":"ce4bh5p2rcd13ifvqe4g","pricing_plan_id":"cebpf4jnsgd1na2vs0mg"},{"bike_id":"b321c3f8-cfeb-49c2-9411-946d91e0b750","system_id":"levelo_inurba_marseille","lat":43.2956,"lon":5.42281,"is_reserved":false,"is_disabled":false,"rental_uris":{"android":"levelo://app?vid=b321c3f8-cfeb-49c2-9411-946d91e0b750","ios":"levelo://app?vid=b321c3f8-cfeb-49c2-9411-946d91e0b750"},"vehicle_type_id":"4","last_reported":1732025382,"current_range_meters":17600,"station_id":"ce4bhph2rcd13ifvqhdg","pricing_plan_id":"cebpf4jnsgd1na2vs0mg"},{"bike_id":"fe329a77-e269-4bcf-a39a-93ffd701de4f","system_id":"levelo_inurba_marseille","lat":43.31223,"lon":5.36863,"is_reserved":false,"is_disabled":false,"rental_uris":{"android":"levelo://app?vid=fe329a77-e269-4bcf-a39a-93ffd701de4f","ios":"levelo://app?vid=fe329a77-e269-4bcf-a39a-93ffd701de4f"},"vehicle_type_id":"4","last_reported":1732025382,"current_range_meters":16800,"station_id":"ce4bgl92rcd13ifvqbq0","pricing_plan_id":"cebpf4jnsgd1na2vs0mg"},{"bike_id":"22c26796-98c3-49c3-9484-10b5e9cc2eb9","system_id":"levelo_inurba_marseille","lat":43.29613,"lon":5.37726,"is_reserved":false,"is_disabled":false,"rental_uris":{"android":"levelo://app?vid=22c26796-98c3-49c3-9484-10b5e9cc2eb9","ios":"levelo://app?vid=22c26796-98c3-49c3-9484-10b5e9cc2eb9"},"vehicle_type_id":"4","last_reported":1732025382,"current_range_meters":29600,"station_id":"ce4bgi92rcd13ifvqb90","pricing_plan_id":"cebpf4jnsgd1na2vs0mg"},{"bike_id":"3d25d818-80cf-415a-996a-afc2d01ce97b","system_id":"levelo_inurba_marseille","lat":43.27792,"lon":5.40721,"is_reserved":false,"is_disabled":false,"rental_uris":{"android":"levelo://app?vid=3d25d818-80cf-415a-996a-afc2d01ce97b","ios":"levelo://app?vid=3d25d818-80cf-415a-996a-afc2d01ce97b"},"vehicle_type_id":"4","last_reported":1732025382,"current_range_meters":16000,"station_id":"ce4bhnh2rcd13ifvqgtg","pricing_plan_id":"cebpf4jnsgd1na2vs0mg"},{"bike_id":"dedebdd2-49f9-4684-8717-873da2e93054","system_id":"levelo_inurba_marseille","lat":43.23152,"lon":5.43718,"is_reserved":false,"is_disabled":false,"rental_uris":{"android":"levelo://app?vid=dedebdd2-49f9-4684-8717-873da2e93054","ios":"levelo://app?vid=dedebdd2-49f9-4684-8717-873da2e93054"},"vehicle_type_id":"4","last_reported":1732025382,"current_range_meters":8000,"station_id":"ce4bhmp2rcd13ifvqgog","pricing_plan_id":"cebpf4jnsgd1na2vs0mg"},{"bike_id":"64ed23a0-3533-4dca-8fb9-650aaf2586c1","system_id":"levelo_inurba_marseille","lat":43.31721,"lon":5.42406,"is_reserved":false,"is_disabled":false,"rental_uris":{"android":"levelo://app?vid=64ed23a0-3533-4dca-8fb9-650aaf2586c1","ios":"levelo://app?vid=64ed23a0-3533-4dca-8fb9-650aaf2586c1"},"vehicle_type_id":"4","last_reported":1732025382,"current_range_meters":38800,"station_id":"ce4bhp92rcd13ifvqhbg","pricing_plan_id":"cebpf4jnsgd1na2vs0mg"},{"bike_id":"a3878ebc-550b-4ec0-938b-c585a00654cd","system_id":"levelo_inurba_marseille","lat":43.23152,"lon":5.43717,"is_reserved":false,"is_disabled":true,"rental_uris":{"android":"levelo://app?vid=a3878ebc-550b-4ec0-938b-c585a00654cd","ios":"levelo://app?vid=a3878ebc-550b-4ec0-938b-c585a00654cd"},"vehicle_type_id":"4","last_reported":1732025382,"current_range_meters":0,"station_id":"ce4bhmp2rcd13ifvqgog","pricing_plan_id":"cebpf4jnsgd1na2vs0mg"},{"bike_id":"5fbaf450-90c7-416c-a9b6-8e3b3003c75c","system_id":"levelo_inurba_marseille","lat":43.32482,"lon":5.36576,"is_reserved":false,"is_disabled":false,"rental_uris":{"android":"levelo://app?vid=5fbaf450-90c7-416c-a9b6-8e3b3003c75c","ios":"levelo://app?vid=5fbaf450-90c7-416c-a9b6-8e3b3003c75c"},"vehicle_type_id":"4","last_reported":1732025382,"current_range_meters":38800,"station_id":"ce4bhs12rcd13ifvqhvg","pricing_plan_id":"cebpf4jnsgd1na2vs0mg"},{"bike_id":"488f48bf-45d0-40dc-ad32-4c76bb242e0f","system_id":"levelo_inurba_marseille","lat":43.30133,"lon":5.3878,"is_reserved":false,"is_disabled":false,"rental_uris":{"android":"levelo://app?vid=488f48bf-45d0-40dc-ad32-4c76bb242e0f","ios":"levelo://app?vid=488f48bf-45d0-40dc-ad32-4c76bb242e0f"},"vehicle_type_id":"4","last_reported":1732025382,"current_range_meters":6800,"station_id":"ce4bghh2rcd13ifvqb60","pricing_plan_id":"cebpf4jnsgd1na2vs0mg"},{"bike_id":"b5ff4bfd-07c2-46be-9a25-bf98376c1d09","system_id":"levelo_inurba_marseille","lat":43.30522,"lon":5.36715,"is_reserved":false,"is_disabled":false,"rental_uris":{"android":"levelo://app?vid=b5ff4bfd-07c2-46be-9a25-bf98376c1d09","ios":"levelo://app?vid=b5ff4bfd-07c2-46be-9a25-bf98376c1d09"},"vehicle_type_id":"4","last_reported":1732025382,"current_range_meters":6800,"station_id":"ce4bgrp2rcd13ifvqc9g","pricing_plan_id":"cebpf4jnsgd1na2vs0mg"},{"bike_id":"be208cb2-e56a-4de5-9e5d-46bd1e56fed0","system_id":"levelo_inurba_marseille","lat":43.29787,"lon":5.38109,"is_reserved":false,"is_disabled":false,"rental_uris":{"android":"levelo://app?vid=be208cb2-e56a-4de5-9e5d-46bd1e56fed0","ios":"levelo://app?vid=be208cb2-e56a-4de5-9e5d-46bd1e56fed0"},"vehicle_type_id":"4","last_reported":1732025382,"current_range_meters":36000,"station_id":"ce4bgip2rcd13ifvqbb0","pricing_plan_id":"cebpf4jnsgd1na2vs0mg"},{"bike_id":"62e6d7c5-dcbf-4261-9c5e-4d74d094030f","system_id":"levelo_inurba_marseille","lat":43.29167,"lon":5.37165,"is_reserved":false,"is_disabled":false,"rental_uris":{"android":"levelo://app?vid=62e6d7c5-dcbf-4261-9c5e-4d74d094030f","ios":"levelo://app?vid=62e6d7c5-dcbf-4261-9c5e-4d74d094030f"},"vehicle_type_id":"4","last_reported":1732025382,"current_range_meters":38800,"station_id":"ce4bha92rcd13ifvqeh0","pricing_plan_id":"cebpf4jnsgd1na2vs0mg"},{"bike_id":"6fad3aed-55cd-4c54-b4c1-f7ce9c631195","system_id":"levelo_inurba_marseille","lat":43.29779,"lon":5.38123,"is_reserved":false,"is_disabled":true,"rental_uris":{"android":"levelo://app?vid=6fad3aed-55cd-4c54-b4c1-f7ce9c631195","ios":"levelo://app?vid=6fad3aed-55cd-4c54-b4c1-f7ce9c631195"},"vehicle_type_id":"4","last_reported":1732025382,"current_range_meters":32000,"station_id":"ce4bgip2rcd13ifvqbb0","pricing_plan_id":"cebpf4jnsgd1na2vs0mg"},{"bike_id":"39f331e2-b8f7-4352-bff3-214d7fcd5695","system_id":"levelo_inurba_marseille","lat":43.23146,"lon":5.43714,"is_reserved":false,"is_disabled":false,"rental_uris":{"android":"levelo://app?vid=39f331e2-b8f7-4352-bff3-214d7fcd5695","ios":"levelo://app?vid=39f331e2-b8f7-4352-bff3-214d7fcd5695"},"vehicle_type_id":"4","last_reported":1732025382,"current_range_meters":38400,"station_id":"ce4bhmp2rcd13ifvqgog","pricing_plan_id":"cebpf4jnsgd1na2vs0mg"},{"bike_id":"8b3601dd-844a-4847-baf3-c4b7e38fcb75","system_id":"levelo_inurba_marseille","lat":43.2762,"lon":5.36112,"is_reserved":false,"is_disabled":false,"rental_uris":{"android":"levelo://app?vid=8b3601dd-844a-4847-baf3-c4b7e38fcb75","ios":"levelo://app?vid=8b3601dd-844a-4847-baf3-c4b7e38fcb75"},