{"last_updated":1747452734,"ttl":60,"version":"2.2","data":{"bikes":[{"bike_id":"a32794a8-9a99-427b-8d35-6fffdcdfd16e","system_id":"levelo_inurba_marseille","lat":43.217445,"lon":5.346173,"is_reserved":false,"is_disabled":false,"rental_uris":{"android":"levelo://app?vid=a32794a8-9a99-427b-8d35-6fffdcdfd16e","ios":"levelo://app?vid=a32794a8-9a99-427b-8d35-6fffdcdfd16e"},"vehicle_type_id":"4","last_reported":1747452734,"current_range_meters":2800,"station_id":"st_cvj6r9ubvosntc0bgbag","pricing_plan_id":"cebpf4jnsgd1na2vs0mg"},{"bike_id":"45fce2e2-839c-4c77-bf55-55905978b238","system_id":"levelo_inurba_marseille","lat":43.292112,"lon":5.360596,"is_reserved":false,"is_disabled":true,"rental_uris":{"android":"levelo://app?vid=45fce2e2-839c-4c77-bf55-55905978b238","ios":"levelo://app?vid=45fce2e2-839c-4c77-bf55-55905978b238"},"vehicle_type_id":"4","last_reported":1747452734,"current_range_meters":3200,"station_id":"ce4bhbh2rcd13ifvqeqg","pricing_plan_id":"cebpf4jnsgd1na2vs0mg"},{"bike_id":"ca85e6ef-58a3-48e8-995f-f1e5178839fd","system_id":"levelo_inurba_marseille","lat":43.30251,"lon":5.40065,"is_reserved":false,"is_disabled":false,"rental_uris":{"android":"levelo://app?vid=ca85e6ef-58a3-48e8-995f-f1e5178839fd","ios":"levelo://app?vid=ca85e6ef-58a3-48e8-995f-f1e5178839fd"},"vehicle_type_id":"4","last_reported":1747452734,"current_range_meters":3200,"station_id":"ce4bgvh2rcd13ifvqcs0","pricing_plan_id":"cebpf4jnsgd1na2vs0mg"},{"bike_id":"7d467072-29c1-44d0-be76-7629bde323d1","system_id":"levelo_inurba_marseille","lat":43.30342,"lon":5.365866,"is_reserved":false,"is_disabled":false,"rental_uris":{"android":"levelo://app?vid=7d467072-29c1-44d0-be76-7629bde323d1","ios":"levelo://app?vid=7d467072-29c1-44d0-be76-7629bde323d1"},"vehicle_type_id":"4","last_reported":1747452734,"current_range_meters":4000,"station_id":"","pricing_plan_id":"cebpf4jnsgd1na2vs0mg"},{"bike_id":"aec5af64-5758-4d49-b2f9-eff089336aac","system_id":"levelo_inurba_marseille","lat":43.280908,"lon":5.396596,"is_reserved":false,"is_disabled":false,"rental_uris":{"android":"levelo://app?vid=aec5af64-5758-4d49-b2f9-eff089336aac","ios":"levelo://app?vid=aec5af64-5758-4d49-b2f9-eff089336aac"},"vehicle_type_id":"4","last_reported":1747452734,"current_range_meters":3600,"station_id":"ce4bho12rcd13ifvqh2g","pricing_plan_id":"cebpf4jnsgd1na2vs0mg"},{"bike_id":"2abba726-19c7-4c71-a019-5238cdf2ebd7","system_id":"levelo_inurba_marseille","lat":43.304102,"lon":5.4129,"is_reserved":false,"is_disabled":false,"rental_uris":{"android":"levelo://app?vid=2abba726-19c7-4c71-a019-5238cdf2ebd7","ios":"levelo://app?vid=2abba726-19c7-4c71-a019-5238cdf2ebd7"},"vehicle_type_id":"4","last_reported":1747452734,"current_range_meters":4000,"station_id":"ce4bhop2rcd13ifvqh8g","pricing_plan_id":"cebpf4jnsgd1na2vs0mg"},{"bike_id":"7eb7be2d-3eec-4648-b495-0d532492ed4d","system_id":"levelo_inurba_marseille","lat":43.23189,"lon":5.355563,"is_reserved":false,"is_disabled":false,"rental_uris":{"android":"levelo://app?vid=7eb7be2d-3eec-4648-b495-0d532492ed4d","ios":"levelo://app?vid=7eb7be2d-3eec-4648-b495-0d532492ed4d"},"vehicle_type_id":"4","last_reported":1747452734,"current_range_meters":3600,"station_id":"ce4bhu92rcd13ifvqi70","pricing_plan_id":"cebpf4jnsgd1na2vs0mg"},{"bike_id":"f3e8f26f-834b-477c-9c43-3c0faff351b3","system_id":"levelo_inurba_marseille","lat":43.30706,"lon":5.40084,"is_reserved":false,"is_disabled":true,"rental_uris":{"android":"levelo://app?vid=f3e8f26f-834b-477c-9c43-3c0faff351b3","ios":"levelo://app?vid=f3e8f26f-834b-477c-9c43-3c0faff351b3"},"vehicle_type_id":"4","last_reported":1747452734,"current_range_meters":3600,"station_id":"ce4bh112rcd13ifvqda0","pricing_plan_id":"cebpf4jnsgd1na2vs0mg"},{"bike_id":"da36a3f9-3171-4d1c-85c5-8d3c32a7bc01","system_id":"levelo_inurba_marseille","lat":43.311225,"lon":5.377609,"is_reserved":false,"is_disabled":false,"rental_uris":{"android":"levelo://app?vid=da36a3f9-3171-4d1c-85c5-8d3c32a7bc01","ios":"levelo://app?vid=da36a3f9-3171-4d1c-85c5-8d3c32a7bc01"},"vehicle_type_id":"4","last_reported":1747452734,"current_range_meters":4000,"station_id":"ce4bgt92rcd13ifvqcg0","pricing_plan_id":"cebpf4jnsgd1na2vs0mg"},{"bike_id":"64f4fdd9-cce9-4108-aa69-c088330c0773","system_id":"levelo_inurba_marseille","lat":43.30903,"lon":5.40175,"is_reserved":false,"is_disabled":false,"rental_uris":{"android":"levelo://app?vid=64f4fdd9-cce9-4108-aa69-c088330c0773","ios":"levelo://app?vid=64f4fdd9-cce9-4108-aa69-c088330c0773"},"vehicle_type_id":"4","last_reported":1747452734,"current_range_meters":4000,"station_id":"ce4bgvp2rcd13ifvqct0","pricing_plan_id":"cebpf4jnsgd1na2vs0mg"},{"bike_id":"ec82b09f-348b-46ef-919d-f478aa787858","system_id":"levelo_inurba_marseille","lat":43.22921,"lon":5.3539,"is_reserved":false,"is_disabled":false,"rental_uris":{"android":"levelo://app?vid=ec82b09f-348b-46ef-919d-f478aa787858","ios":"levelo://app?vid=ec82b09f-348b-46ef-919d-f478aa787858"},"vehicle_type_id":"4","last_reported":1747452734,"current_range_meters":4400,"station_id":"cpo3532slgdg3j2ikp40","pricing_plan_id":"cebpf4jnsgd1na2vs0mg"},{"bike_id":"c395aea5-4c2d-41cc-b839-9a9c86f56d36","system_id":"levelo_inurba_marseille","lat":43.23188,"lon":5.399863,"is_reserved":false,"is_disabled":false,"rental_uris":{"android":"levelo://app?vid=c395aea5-4c2d-41cc-b839-9a9c86f56d36","ios":"levelo://app?vid=c395aea5-4c2d-41cc-b839-9a9c86f56d36"},"vehicle_type_id":"4","last_reported":1747452734,"current_range_meters":4400,"station_id":"ce4bhn12rcd13ifvqgqg","pricing_plan_id":"cebpf4jnsgd1na2vs0mg"},{"bike_id":"deb72f86-18c7-4059-b066-9e7105249bc3","system_id":"levelo_inurba_marseille","lat":43.3266,"lon":5.41005,"is_reserved":false,"is_disabled":false,"rental_uris":{"android":"levelo://app?vid=deb72f86-18c7-4059-b066-9e7105249bc3","ios":"levelo://app?vid=deb72f86-18c7-4059-b066-9e7105249bc3"},"vehicle_type_id":"4","last_reported":1747452734,"current_range_meters":4800,"station_id":"ce4bhpp2rcd13ifvqhgg","pricing_plan_id":"cebpf4jnsgd1na2vs0mg"},{"bike_id":"8e67f6d6-5f08-43a6-916b-04de74ab2485","system_id":"levelo_inurba_marseille","lat":43.31074,"lon":5.383499,"is_reserved":false,"is_disabled":true,"rental_uris":{"android":"levelo://app?vid=8e67f6d6-5f08-43a6-916b-04de74ab2485","ios":"levelo://app?vid=8e67f6d6-5f08-43a6-916b-04de74ab2485"},"vehicle_type_id":"4","last_reported":1747452734,"current_range_meters":4800,"station_id":"ce4bgv92rcd13ifvqcr0","pricing_plan_id":"cebpf4jnsgd1na2vs0mg"},{"bike_id":"5098123d-b36f-482a-a74d-7b81fd65e534","system_id":"levelo_inurba_marseille","lat":43.23965,"lon":5.366337,"is_reserved":false,"is_disabled":false,"rental_uris":{"android":"levelo://app?vid=5098123d-b36f-482a-a74d-7b81fd65e534","ios":"levelo://app?vid=5098123d-b36f-482a-a74d-7b81fd65e534"},"vehicle_type_id":"4","last_reported":1747452734,"current_range_meters":4800,"station_id":"ce4bhi12rcd13ifvqfp0","pricing_plan_id":"cebpf4jnsgd1na2vs0mg"},{"bike_id":"0a519a3e-95e2-4039-88c7-dd045a5d2f9f","system_id":"levelo_inurba_marseille","lat":43.27908,"lon":5.395823,"is_reserved":false,"is_disabled":false,"rental_uris":{"android":"levelo://app?vid=0a519a3e-95e2-4039-88c7-dd045a5d2f9f","ios":"levelo://app?vid=0a519a3e-95e2-4039-88c7-dd045a5d2f9f"},"vehicle_type_id":"4","last_reported":1747452734,"current_range_meters":4800,"station_id":"ce4bhf92rcd13ifvqf40","pricing_plan_id":"cebpf4jnsgd1na2vs0mg"},{"bike_id":"ec2cf44a-d2ce-40ed-aaeb-ddb24e07b8b0","system_id":"levelo_inurba_marseille","lat":43.231905,"lon":5.399783,"is_reserved":false,"is_disabled":false,"rental_uris":{"android":"levelo://app?vid=ec2cf44a-d2ce-40ed-aaeb-ddb24e07b8b0","ios":"levelo://app?vid=ec2cf44a-d2ce-40ed-aaeb-ddb24e07b8b0"},"vehicle_type_id":"4","last_reported":1747452734,"current_range_meters":4800,"station_id":"ce4bhn12rcd13ifvqgqg","pricing_plan_id":"cebpf4jnsgd1na2vs0mg"},{"bike_id":"a4254f33-dfdc-4beb-9ee4-21271a8a3aac","system_id":"levelo_inurba_marseille","lat":43.304109,"lon":5.412894,"is_reserved":false,"is_disabled":true,"rental_uris":{"android":"levelo://app?vid=a4254f33-dfdc-4beb-9ee4-21271a8a3aac","ios":"levelo://app?vid=a4254f33-dfdc-4beb-9ee4-21271a8a3aac"},"vehicle_type_id":"4","last_reported":1747452734,"current_range_meters":4800,"station_id":"ce4bhop2rcd13ifvqh8g","pricing_plan_id":"cebpf4jnsgd1na2vs0mg"},{"bike_id":"4006d22a-42fc-42b6-a799-114700bf22c7","system_id":"levelo_inurba_marseille","lat":43.30235,"lon":5.40087,"is_reserved":false,"is_disabled":false,"rental_uris":{"android":"levelo://app?vid=4006d22a-42fc-42b6-a799-114700bf22c7","ios":"levelo://app?vid=4006d22a-42fc-42b6-a799-114700bf22c7"},"vehicle_type_id":"4","last_reported":1747452734,"current_range_meters":5600,"station_id":"ce4bgvh2rcd13ifvqcs0","pricing_plan_id":"cebpf4jnsgd1na2vs0mg"},{"bike_id":"60314231-0f09-4c54-bd05-d7ba937eaedb","system_id":"levelo_inurba_marseille","lat":43.27928,"lon":5.39592,"is_reserved":false,"is_disabled":false,"rental_uris":{"android":"levelo://app?vid=60314231-0f09-4c54-bd05-d7ba937eaedb","ios":"levelo://app?vid=60314231-0f09-4c54-bd05-d7ba937eaedb"},"vehicle_type_id":"4","last_reported":1747452734,"current_range_meters":5600,"station_id":"ce4bhf92rcd13ifvqf40","pricing_plan_id":"cebpf4jnsgd1na2vs0mg"},{"bike_id":"d93d0c6d-be90-4a1f-bc81-4d02d1453c4b","system_id":"levelo_inurba_marseille","lat":43.22497,"lon":5.34787,"is_reserved":false,"is_disabled":false,"rental_uris":{"android":"levelo://app?vid=d93d0c6d-be90-4a1f-bc81-4d02d1453c4b","ios":"levelo://app?vid=d93d0c6d-be90-4a1f-bc81-4d02d1453c4b"},"vehicle_type_id":"4","last_reported":1747452734,"current_range_meters":5600,"station_id":"st_cvj5dfep6f1abm77gieg","pricing_plan_id":"cebpf4jnsgd1na2vs0mg"},{"bike_id":"7938e038-163e-4d49-9eae-d2a5c2894b40","system_id":"levelo_inurba_marseille","lat":43.27934,"lon":5.38721,"is_reserved":false,"is_disabled":true,"rental_uris":{"android":"levelo://app?vid=7938e038-163e-4d49-9eae-d2a5c2894b40","ios":"levelo://app?vid=7938e038-163e-4d49-9eae-d2a5c2894b40"},"vehicle_type_id":"4","last_reported":1747452734,"current_range_meters":6000,"station_id":"ce4bhg12rcd13ifvqf80","pricing_plan_id":"cebpf4jnsgd1na2vs0mg"},{"bike_id":"c43a58fc-765e-406d-b0e8-87f6c11c793d","system_id":"levelo_inurba_marseille","lat":43.287046,"lon":5.399828,"is_reserved":false,"is_disabled":false,"rental_uris":{"android":"levelo://app?vid=c43a58fc-765e-406d-b0e8-87f6c11c793d","ios":"levelo://app?vid=c43a58fc-765e-406d-b0e8-87f6c11c793d"},"vehicle_type_id":"4","last_reported":1747452734,"current_range_meters":6000,"station_id":"ce4bho92rcd13ifvqh3g","pricing_plan_id":"cebpf4jnsgd1na2vs0mg"},{"bike_id":"360640c1-bed8-49a0-96d7-f19089c8c22d","system_id":"levelo_inurba_marseille","lat":43.28458,"lon":5.35907,"is_reserved":false,"is_disabled":false,"rental_uris":{"android":"levelo://app?vid=360640c1-bed8-49a0-96d7-f19089c8c22d","ios":"levelo://app?vid=360640c1-bed8-49a0-96d7-f19089c8c22d"},"vehicle_type_id":"4","last_reported":1747452734,"current_range_meters":6000,"station_id":"ce4bhah2rcd13ifvqei0","pricing_plan_id":"cebpf4jnsgd1na2vs0mg"},{"bike_id":"5729cd4c-3e35-4895-a3b4-83634e5617ca","system_id":"levelo_inurba_marseille","lat":43.2677,"lon":5.39422,"is_reserved":false,"is_disabled":false,"rental_uris":{"android":"levelo://app?vid=5729cd4c-3e35-4895-a3b4-83634e5617ca","ios":"levelo://app?vid=5729cd4c-3e35-4895-a3b4-83634e5617ca"},"vehicle_type_id":"4","last_reported":1747452734,"current_range_meters":6000,"station_id":"ce4bhh12rcd13ifvqfg0","pricing_plan_id":"cebpf4jnsgd1na2vs0mg"},{"bike_id":"7786eff1-4b33-41f4-ad74-a0685c7b3640","system_id":"levelo_inurba_marseille","lat":43.296529,"lon":5.393667,"is_reserved":false,"is_disabled":false,"rental_uris":{"android":"levelo://app?vid=7786eff1-4b33-41f4-ad74-a0685c7b3640","ios":"levelo://app?vid=7786eff1-4b33-41f4-ad74-a0685c7b3640"},"vehicle_type_id":"4","last_reported":1747452734,"current_range_meters":6000,"station_id":"","pricing_plan_id":"cebpf4jnsgd1na2vs0mg"},{"bike_id":"06e20113-a5f1-4fe5-b188-f647ff408cc7","system_id":"levelo_inurba_marseille","lat":43.276914,"lon":5.419602,"is_reserved":false,"is_disabled":false,"rental_uris":{"android":"levelo://app?vid=06e20113-a5f1-4fe5-b188-f647ff408cc7","ios":"levelo://app?vid=06e20113-a5f1-4fe5-b188-f647ff408cc7"},"vehicle_type_id":"4","last_reported":1747452734,"current_range_meters":6400,"station_id":"","pricing_plan_id":"cebpf4jnsgd1na2vs0mg"},{"bike_id":"3370fae6-4399-4402-b942-3b5175177338","system_id":"levelo_inurba_marseille","lat":43.292516,"lon":5.4414,"is_reserved":false,"is_disabled":false,"rental_uris":{"android":"levelo://app?vid=3370fae6-4399-4402-b942-3b5175177338","ios":"levelo://app?vid=3370fae6-4399-4402-b942-3b5175177338"},"vehicle_type_id":"4","last_reported":1747452734,"current_range_meters":6400,"station_id":"","pricing_plan_id":"cebpf4jnsgd1na2vs0mg"},{"bike_id":"b297b32b-72f1-47a4-9e2e-44162528f5e1","system_id":"levelo_inurba_marseille","lat":43.2293,"lon":5.35388,"is_reserved":false,"is_disabled":false,"rental_uris":{"android":"levelo://app?vid=b297b32b-72f1-47a4-9e2e-44162528f5e1","ios":"levelo://app?vid=b297b32b-72f1-47a4-9e2e-44162528f5e1"},"vehicle_type_id":"4","last_reported":1747452734,"current_range_meters":6400,"station_id":"cpo3532slgdg3j2ikp40","pricing_plan_id":"cebpf4jnsgd1na2vs0mg"},{"bike_id":"b8915dc3-7c9d-4ef5-a46f-679bfa0b8479","system_id":"levelo_inurba_marseille","lat":43.30636,"lon":5.40104,"is_reserved":false,"is_disabled":false,"rental_uris":{"android":"levelo://app?vid=b8915dc3-7c9d-4ef5-a46f-679bfa0b8479","ios":"levelo://app?vid=b8915dc3-7c9d-4ef5-a46f-679bfa0b8479"},"vehicle_type_id":"4","last_reported":1747452734,"current_range_meters":6400,"station_id":"ce4bh112rcd13ifvqda0","pricing_plan_id":"cebpf4jnsgd1na2vs0mg"},{"bike_id":"a030eabf-a6d2-4350-bcc4-b00985ea9216","system_id":"levelo_inurba_marseille","lat":43.31754,"lon":5.40469,"is_reserved":false,"is_disabled":false,"rental_uris":{"android":"levelo://app?vid=a030eabf-a6d2-4350-bcc4-b00985ea9216","ios":"levelo://app?vid=a030eabf-a6d2-4350-bcc4-b00985ea9216"},"vehicle_type_id":"4","last_reported":1747452734,"current_range_meters":6400,"station_id":"","pricing_plan_id":"cebpf4jnsgd1na2vs0mg"},{"bike_id":"b4b7b148-cc4b-409c-a19c-3d61035f85b8","system_id":"levelo_inurba_marseille","lat":43.28716,"lon":5.36093,"is_reserved":false,"is_disabled":false,"rental_uris":{"android":"levelo://app?vid=b4b7b148-cc4b-409c-a19c-3d61035f85b8","ios":"levelo://app?vid=b4b7b148-cc4b-409c-a19c-3d61035f85b8"},"vehicle_type_id":"4","last_reported":1747452734,"current_range_meters":6400,"station_id":"cki0cbj6b192h4jlfktg","pricing_plan_id":"cebpf4jnsgd1na2vs0mg"},{"bike_id":"ec12742a-6e05-4cdd-b969-14bccca73071","system_id":"levelo_inurba_marseille","lat":43.24544,"lon":5.39525,"is_reserved":false,"is_disabled":false,"rental_uris":{"android":"levelo://app?vid=ec12742a-6e05-4cdd-b969-14bccca73071","ios":"levelo://app?vid=ec12742a-6e05-4cdd-b969-14bccca73071"},"vehicle_type_id":"4","last_reported":1747452734,"current_range_meters":6800,"station_id":"ce4bhlp2rcd13ifvqgjg","pricing_plan_id":"cebpf4jnsgd1na2vs0mg"},{"bike_id":"d06a81f7-6bbe-4687-bfbe-932949dc466c","system_id":"levelo_inurba_marseille","lat":43.26118,"lon":5.387497,"is_reserved":false,"is_disabled":false,"rental_uris":{"android":"levelo://app?vid=d06a81f7-6bbe-4687-bfbe-932949dc466c","ios":"levelo://app?vid=d06a81f7-6bbe-4687-bfbe-932949dc466c"},"vehicle_type_id":"4","last_reported":1747452734,"current_range_meters":6800,"station_id":"","pricing_plan_id":"cebpf4jnsgd1na2vs0mg"},{"bike_id":"a76d2f21-b36a-4f25-9312-26b1ccc6c2df","system_id":"levelo_inurba_marseille","lat":43.24393,"lon":5.37107,"is_reserved":false,"is_disabled":false,"rental_uris":{"android":"levelo://app?vid=a76d2f21-b36a-4f25-9312-26b1ccc6c2df","ios":"levelo://app?vid=a76d2f21-b36a-4f25-9312-26b1ccc6c2df"},"vehicle_type_id":"4","last_reported":1747452734,"current_range_meters":6800,"station_id":"ce4bhhh2rcd13ifvqfk0","pricing_plan_id":"cebpf4jnsgd1na2vs0mg"},{"bike_id":"2e74be5f-20f2-44a2-bc00-047bfe1be06d","system_id":"levelo_inurba_marseille","lat":43.278133,"lon":5.40726,"is_reserved":false,"is_disabled":true,"rental_uris":{"android":"levelo://app?vid=2e74be5f-20f2-44a2-bc00-047bfe1be06d","ios":"levelo://app?vid=2e74be5f-20f2-44a2-bc00-047bfe1be06d"},"vehicle_type_id":"4","last_reported":1747452734,"current_range_meters":7200,"station_id":"ce4bhnh2rcd13ifvqgtg","pricing_plan_id":"cebpf4jnsgd1na2vs0mg"},{"bike_id":"a7fd0861-fa86-48c1-a42f-40fb1b26955e","system_id":"levelo_inurba_marseille","lat":43.27997,"lon":5.41669,"is_reserved":false,"is_disabled":false,"rental_uris":{"android":"levelo://app?vid=a7fd0861-fa86-48c1-a42f-40fb1b26955e","ios":"levelo://app?vid=a7fd0861-fa86-48c1-a42f-40fb1b26955e"},"vehicle_type_id":"4","last_reported":1747452734,"current_range_meters":8000,"station_id":"ce4bho12rcd13ifvqh1g","pricing_plan_id":"cebpf4jnsgd1na2vs0mg"},{"bike_id":"b15acf99-a4c0-4a0e-8ffe-93213d16b527","system_id":"levelo_inurba_marseille","lat":43.354559,"lon":5.357256,"is_reserved":false,"is_disabled":false,"rental_uris":{"android":"levelo://app?vid=b15acf99-a4c0-4a0e-8ffe-93213d16b527","ios":"levelo://app?vid=b15acf99-a4c0-4a0e-8ffe-93213d16b527"},"vehicle_type_id":"4","last_reported":1747452734,"current_range_meters":7200,"station_id":"","pricing_plan_id":"cebpf4jnsgd1na2vs0mg"},{"bike_id":"e64e4484-2db6-41f4-beb8-e0c0ae1263cd","system_id":"levelo_inurba_marseille","lat":43.285233,"lon":5.430361,"is_reserved":false,"is_disabled":false,"rental_uris":{"android":"levelo://app?vid=e64e4484-2db6-41f4-beb8-e0c0ae1263cd","ios":"levelo://app?vid=e64e4484-2db6-41f4-beb8-e0c0ae1263cd"},"vehicle_type_id":"4","last_reported":1747452734,"current_range_meters":7200,"station_id":"","pricing_plan_id":"cebpf4jnsgd1na2vs0mg"},{"bike_id":"345cffa0-29b1-4e14-91c8-8f581afe5ee4","system_id":"levelo_inurba_marseille","lat":43.2919,"lon":5.39331,"is_reserved":false,"is_disabled":true,"rental_uris":{"android":"levelo://app?vid=345cffa0-29b1-4e14-91c8-8f581afe5ee4","ios":"levelo://app?vid=345cffa0-29b1-4e14-91c8-8f581afe5ee4"},"vehicle_type_id":"4","last_reported":1747452734,"current_range_meters":7200,"station_id":"ce4bh192rcd13ifvqdd0","pricing_plan_id":"cebpf4jnsgd1na2vs0mg"},{"bike_id":"b89a24e6-5078-471a-88fa-2c70cdf078ca","system_id":"levelo_inurba_marseille","lat":43.310089,"lon":5.375606,"is_reserved":false,"is_disabled":false,"rental_uris":{"android":"levelo://app?vid=b89a24e6-5078-471a-88fa-2c70cdf078ca","ios":"levelo://app?vid=b89a24e6-5078-471a-88fa-2c70cdf078ca"},"vehicle_type_id":"4","last_reported":1747452734,"current_range_meters":7200,"station_id":"","pricing_plan_id":"cebpf4jnsgd1na2vs0mg"},{"bike_id":"829e1fee-09c0-485d-8379-ad5f41ac531e","system_id":"levelo_inurba_marseille","lat":43.27493,"lon":5.42438,"is_reserved":false,"is_disabled":false,"rental_uris":{"android":"levelo://app?vid=829e1fee-09c0-485d-8379-ad5f41ac531e","ios":"levelo://app?vid=829e1fee-09c0-485d-8379-ad5f41ac531e"},"vehicle_type_id":"4","last_reported":1747452734,"current_range_meters":6800,"station_id":"ce4bhn92rcd13ifvqgrg","pricing_plan_id":"cebpf4jnsgd1na2vs0mg"},{"bike_id":"662c704c-262b-45ad-934a-11f31825a2ce","system_id":"levelo_inurba_marseille","lat":43.2937,"lon":5.37838,"is_reserved":false,"is_disabled":false,"rental_uris":{"android":"levelo://app?vid=662c704c-262b-45ad-934a-11f31825a2ce","ios":"levelo://app?vid=662c704c-262b-45ad-934a-11f31825a2ce"},"vehicle_type_id":"4","last_reported":1747452734,"current_range_meters":7200,"station_id":"","pricing_plan_id":"cebpf4jnsgd1na2vs0mg"},{"bike_id":"84b45034-1112-4b8c-9fd0-be0d7587baf5","system_id":"levelo_inurba_marseille","lat":43.27941,"lon":5.410597,"is_reserved":false,"is_disabled":false,"rental_uris":{"android":"levelo://app?vid=84b45034-1112-4b8c-9fd0-be0d7587baf5","ios":"levelo://app?vid=84b45034-1112-4b8c-9fd0-be0d7587baf5"},"vehicle_type_id":"4","last_reported":1747452734,"current_range_meters":7200,"station_id":"ce4bhnp2rcd13ifvqh0g","pricing_plan_id":"cebpf4jnsgd1na2vs0mg"},{"bike_id":"c0b9fd4f-e181-46ce-b0bf-f5119973334f","system_id":"levelo_inurba_marseille","lat":43.33771,"lon":5.37424,"is_reserved":false,"is_disabled":false,"rental_uris":{"android":"levelo://app?vid=c0b9fd4f-e181-46ce-b0bf-f5119973334f","ios":"levelo://app?vid=c0b9fd4f-e181-46ce-b0bf-f5119973334f"},"vehicle_type_id":"4","last_reported":1747452734,"current_range_meters":7200,"station_id":"","pricing_plan_id":"cebpf4jnsgd1na2vs0mg"},{"bike_id":"579b1277-7d59-4577-8c20-92b892b84b08","system_id":"levelo_inurba_marseille","lat":43.258648,"lon":5.398996,"is_reserved":false,"is_disabled":false,"rental_uris":{"android":"levelo://app?vid=579b1277-7d59-4577-8c20-92b892b84b08","ios":"levelo://app?vid=579b1277-7d59-4577-8c20-92b892b84b08"},"vehicle_type_id":"4","last_reported":1747452734,"current_range_meters":8000,"station_id":"ce4bhl92rcd13ifvqghg","pricing_plan_id":"cebpf4jnsgd1na2vs0mg"},{"bike_id":"0a91310c-ba07-4746-b08c-598b0123d73f","system_id":"levelo_inurba_marseille","lat":43.30883,"lon":5.39651,"is_reserved":false,"is_disabled":false,"rental_uris":{"android":"levelo://app?vid=0a91310c-ba07-4746-b08c-598b0123d73f","ios":"levelo://app?vid=0a91310c-ba07-4746-b08c-598b0123d73f"},"vehicle_type_id":"4","last_reported":1747452734,"current_range_meters":8000,"station_id":"ce4bh012rcd13ifvqcv0","pricing_plan_id":"cebpf4jnsgd1na2vs0mg"},{"bike_id":"8af5297e-324c-4cdb-818b-2e5aa9c744fa","system_id":"levelo_inurba_marseille","lat":43.30484,"lon":5.38948,"is_reserved":false,"is_disabled":false,"rental_uris":{"android":"levelo://app?vid=8af5297e-324c-4cdb-818b-2e5aa9c744fa","ios":"levelo://app?vid=8af5297e-324c-4cdb-818b-2e5aa9c744fa"},"vehicle_type_id":"4","last_reported":1747452734,"current_range_meters":8000,"station_id":"","pricing_plan_id":"cebpf4jnsgd1na2vs0mg"},{"bike_id":"7438a3dc-7e35-453e-ba33-c11c46a43ab5","system_id":"levelo_inurba_marseille","lat":43.33718,"lon":5.39206,"is_reserved":false,"is_disabled":false,"rental_uris":{"android":"levelo://app?vid=7438a3dc-7e35-453e-ba33-c11c46a43ab5","ios":"levelo://app?vid=7438a3dc-7e35-453e-ba33-c11c46a43ab5"},"vehicle_type_id":"4","last_reported":1747452734,"current_range_meters":8400,"station_id":"ce4bhr92rcd13ifvqhsg","pricing_plan_id":"cebpf4jnsgd1na2vs0mg"},{"bike_id":"108a7c7c-26f2-4a38-ad85-3fea870e173d","system_id":"levelo_inurba_marseille","lat":43.251069,"lon":5.403263,"is_reserved":false,"is_disabled":false,"rental_uris":{"android":"levelo://app?vid=108a7c7c-26f2-4a38-ad85-3fea870e173d","ios":"levelo://app?vid=108a7c7c-26f2-4a38-ad85-3fea870e173d"},"vehicle_type_id":"4","last_reported":1747452734,"current_range_meters":8000,"station_id":"ce4bhlh2rcd13ifvqgig","pricing_plan_id":"cebpf4jnsgd1na2vs0mg"},{"bike_id":"02288632-79f4-483c-92bd-91cd61a950da","system_id":"levelo_inurba_marseille","lat":43.296417,"lon":5.36215,"is_reserved":false,"is_disabled":false,"rental_uris":{"android":"levelo://app?vid=02288632-79f4-483c-92bd-91cd61a950da","ios":"levelo://app?vid=02288632-79f4-483c-92bd-91cd61a950da"},"vehicle_type_id":"4","last_reported":1747452734,"current_range_meters":8000,"station_id":"","pricing_plan_id":"cebpf4jnsgd1na2vs0mg"},{"bike_id":"f8bef29a-1c6c-4a23-8f6a-4b760357c234","system_id":"levelo_inurba_marseille","lat":43.292583,"lon":5.409049,"is_reserved":false,"is_disabled":false,"rental_uris":{"android":"levelo://app?vid=f8bef29a-1c6c-4a23-8f6a-4b760357c234","ios":"levelo://app?vid=f8bef29a-1c6c-4a23-8f6a-4b760357c234"},"vehicle_type_id":"4","last_reported":1747452734,"current_range_meters":8000,"station_id":"ce4bh192rcd13ifvqdc0","pricing_plan_id":"cebpf4jnsgd1na2vs0mg"},{"bike_id":"9cabd100-f0f6-4bb0-aa08-6de77e2d3d4e","system_id":"levelo_inurba_marseille","lat":43.28167,"lon":5.4259,"is_reserved":false,"is_disabled":false,"rental_uris":{"android":"levelo://app?vid=9cabd100-f0f6-4bb0-aa08-6de77e2d3d4e","ios":"levelo://app?vid=9cabd100-f0f6-4bb0-aa08-6de77e2d3d4e"},"vehicle_type_id":"4","last_reported":1747452734,"current_range_meters":8000,"station_id":"ce4bhnh2rcd13ifvqgug","pricing_plan_id":"cebpf4jnsgd1na2vs0mg"},{"bike_id":"a866e083-b3d9-4a72-a457-f99f34c46039","system_id":"levelo_inurba_marseille","lat":43.231951,"lon":5.399699,"is_reserved":false,"is_disabled":false,"rental_uris":{"android":"levelo://app?vid=a866e083-b3d9-4a72-a457-f99f34c46039","ios":"levelo://app?vid=a866e083-b3d9-4a72-a457-f99f34c46039"},"vehicle_type_id":"4","last_reported":1747452734,"current_range_meters":8000,"station_id":"ce4bhn12rcd13ifvqgqg","pricing_plan_id":"cebpf4jnsgd1na2vs0mg"},{"bike_id":"648461a1-a83a-4e41-bdb1-8a2457a377db","system_id":"levelo_inurba_marseille","lat":43.28722,"lon":5.36094,"is_reserved":false,"is_disabled":false,"rental_uris":{"android":"levelo://app?vid=648461a1-a83a-4e41-bdb1-8a2457a377db","ios":"levelo://app?vid=648461a1-a83a-4e41-bdb1-8a2457a377db"},"vehicle_type_id":"4","last_reported":1747452734,"current_range_meters":8000,"station_id":"cki0cbj6b192h4jlfktg","pricing_plan_id":"cebpf4jnsgd1na2vs0mg"},{"bike_id":"d7c28a5b-bfdb-4b24-bdb4-045314a2e674","system_id":"levelo_inurba_marseille","lat":43.34045,"lon":5.374992,"is_reserved":false,"is_disabled":false,"rental_uris":{"android":"levelo://app?vid=d7c28a5b-bfdb-4b24-bdb4-045314a2e674","ios":"levelo://app?vid=d7c28a5b-bfdb-4b24-bdb4-045314a2e674"},"vehicle_type_id":"4","last_reported":1747452734,"current_range_meters":8000,"station_id":"","pricing_plan_id":"cebpf4jnsgd1na2vs0mg"},{"bike_id":"6d36ce03-b344-4b5e-9465-9800cf819cb5","system_id":"levelo_inurba_marseille","lat":43.211931,"lon":5.350768,"is_reserved":false,"is_disabled":false,"rental_uris":{"android":"levelo://app?vid=6d36ce03-b344-4b5e-9465-9800cf819cb5","ios":"levelo://app?vid=6d36ce03-b344-4b5e-9465-9800cf819cb5"},"vehicle_type_id":"4","last_reported":1747452734,"current_range_meters":8000,"station_id":"st_cvj6sg6p6f1abm77japg","pricing_plan_id":"cebpf4jnsgd1na2vs0mg"},{"bike_id":"4a07484a-afe5-412c-b3c0-444a3bb6c3c7","system_id":"levelo_inurba_marseille","lat":43.32661,"lon":5.40993,"is_reserved":false,"is_disabled":false,"rental_uris":{"android":"levelo://app?vid=4a07484a-afe5-412c-b3c0-444a3bb6c3c7","ios":"levelo://app?vid=4a07484a-afe5-412c-b3c0-444a3bb6c3c7"},"vehicle_type_id":"4","last_reported":1747452734,"current_range_meters":8400,"station_id":"ce4bhpp2rcd13ifvqhgg","pricing_plan_id":"cebpf4jnsgd1na2vs0mg"},{"bike_id":"94f0c13c-e647-4c7a-bbee-c165d50fd6d6","system_id":"levelo_inurba_marseille","lat":43.24166,"lon":5.3641,"is_reserved":false,"is_disabled":false,"rental_uris":{"android":"levelo://app?vid=94f0c13c-e647-4c7a-bbee-c165d50fd6d6","ios":"levelo://app?vid=94f0c13c-e647-4c7a-bbee-c165d50fd6d6"},"vehicle_type_id":"4","last_reported":1747452734,"current_range_meters":8400,"station_id":"cpo36qri1sfpv3e86is0","pricing_plan_id":"cebpf4jnsgd1na2vs0mg"},{"bike_id":"f0f7ca87-7ffb-46bd-ab65-ff44d1578193","system_id":"levelo_inurba_marseille","lat":43.32319,"lon":5.40652,"is_reserved":false,"is_disabled":false,"rental_uris":{"android":"levelo://app?vid=f0f7ca87-7ffb-46bd-ab65-ff44d1578193","ios":"levelo://app?vid=f0f7ca87-7ffb-46bd-ab65-ff44d1578193"},"vehicle_type_id":"4","last_reported":1747452734,"current_range_meters":8400,"station_id":"ce4bhq92rcd13ifvqhjg","pricing_plan_id":"cebpf4jnsgd1na2vs0mg"},{"bike_id":"561530f7-a199-4334-abd4-ed9e3568d697","system_id":"levelo_inurba_marseille","lat":43.29515,"lon":5.39049,"is_reserved":false,"is_disabled":false,"rental_uris":{"android":"levelo://app?vid=561530f7-a199-4334-abd4-ed9e3568d697","ios":"levelo://app?vid=561530f7-a199-4334-abd4-ed9e3568d697"},"vehicle_type_id":"4","last_reported":1747452734,"current_range_meters":8000,"station_id":"ce4bh3p2rcd13ifvqdp0","pricing_plan_id":"cebpf4jnsgd1na2vs0mg"},{"bike_id":"14840cde-cb2f-425a-a53d-0e3063d2ef0b","system_id":"levelo_inurba_marseille","lat":43.30154,"lon":5.38021,"is_reserved":false,"is_disabled":true,"rental_uris":{"android":"levelo://app?vid=14840cde-cb2f-425a-a53d-0e3063d2ef0b","ios":"levelo://app?vid=14840cde-cb2f-425a-a53d-0e3063d2ef0b"},"vehicle_type_id":"4","last_reported":1747452734,"current_range_meters":8400,"station_id":"","pricing_plan_id":"cebpf4jnsgd1na2vs0mg"},{"bike_id":"9d29eb8a-633f-4a3f-bd84-0754a56c14c4","system_id":"levelo_inurba_marseille","lat":43.32438,"lon":5.366,"is_reserved":false,"is_disabled":false,"rental_uris":{"android":"levelo://app?vid=9d29eb8a-633f-4a3f-bd84-0754a56c14c4","ios":"levelo://app?vid=9d29eb8a-633f-4a3f-bd84-0754a56c14c4"},"vehicle_type_id":"4","last_reported":1747452734,"current_range_meters":8400,"station_id":"ce4bhs12rcd13ifvqhvg","pricing_plan_id":"cebpf4jnsgd1na2vs0mg"},{"bike_id":"28a358fb-048a-4086-811f-95d871ad4f62","system_id":"levelo_inurba_marseille","lat":43.312557,"lon":5.412015,"is_reserved":false,"is_disabled":false,"rental_uris":{"android":"levelo://app?vid=28a358fb-048a-4086-811f-95d871ad4f62","ios":"levelo://app?vid=28a358fb-048a-4086-811f-95d871ad4f62"},"vehicle_type_id":"4","last_reported":1747452734,"current_range_meters":8400,"station_id":"","pricing_plan_id":"cebpf4jnsgd1na2vs0mg"},{"bike_id":"4609076a-6d41-42eb-9d87-f98d829ffd68","system_id":"levelo_inurba_marseille","lat":43.287104,"lon":5.399978,"is_reserved":false,"is_disabled":false,"rental_uris":{"android":"levelo://app?vid=4609076a-6d41-42eb-9d87-f98d829ffd68","ios":"levelo://app?vid=4609076a-6d41-42eb-9d87-f98d829ffd68"},"vehicle_type_id":"4","last_reported":1747452734,"current_range_meters":8800,"station_id":"ce4bho92rcd13ifvqh3g","pricing_plan_id":"cebpf4jnsgd1na2vs0mg"},{"bike_id":"5bd7c68d-bffc-45e6-bca1-d02bf7a1c1bb","system_id":"levelo_inurba_marseille","lat":43.25869,"lon":5.398951,"is_reserved":false,"is_disabled":false,"rental_uris":{"android":"levelo://app?vid=5bd7c68d-bffc-45e6-bca1-d02bf7a1c1bb","ios":"levelo://app?vid=5bd7c68d-bffc-45e6-bca1-d02bf7a1c1bb"},"vehicle_type_id":"4","last_reported":1747452734,"current_range_meters":8800,"station_id":"ce4bhl92rcd13ifvqghg","pricing_plan_id":"cebpf4jnsgd1na2vs0mg"},{"bike_id":"7a82acff-6b22-4ef7-a791-a420705624f3","system_id":"levelo_inurba_marseille","lat":43.231821,"lon":5.399854,"is_reserved":false,"is_disabled":false,"rental_uris":{"android":"levelo://app?vid=7a82acff-6b22-4ef7-a791-a420705624f3","ios":"levelo://app?vid=7a82acff-6b22-4ef7-a791-a420705624f3"},"vehicle_type_id":"4","last_reported":1747452734,"current_range_meters":8800,"station_id":"ce4bhn12rcd13ifvqgqg","pricing_plan_id":"cebpf4jnsgd1na2vs0mg"},{"bike_id":"3d6b5b36-a314-45fa-8bc0-68e5f98a5dde","system_id":"levelo_inurba_marseille","lat":43.229325,"lon":5.353941,"is_reserved":false,"is_disabled":false,"rental_uris":{"android":"levelo://app?vid=3d6b5b36-a314-45fa-8bc0-68e5f98a5dde","ios":"levelo://app?vid=3d6b5b36-a314-45fa-8bc0-68e5f98a5dde"},"vehicle_type_id":"4","last_reported":1747452734,"current_range_meters":8800,"station_id":"cpo3532slgdg3j2ikp40","pricing_plan_id":"cebpf4jnsgd1na2vs0mg"},{"bike_id":"5deb8060-b584-45ba-8ee7-be227a41b5a4","system_id":"levelo_inurba_marseille","lat":43.24666,"lon":5.38162,"is_reserved":false,"is_disabled":false,"rental_uris":{"android":"levelo://app?vid=5deb8060-b584-45ba-8ee7-be227a41b5a4","ios":"levelo://app?vid=5deb8060-b584-45ba-8ee7-be227a41b5a4"},"vehicle_type_id":"4","last_reported":1747452734,"current_range_meters":8800,"station_id":"ce4bhih2rcd13ifvqfr0","pricing_plan_id":"cebpf4jnsgd1na2vs0mg"},{"bike_id":"6bf2a9b0-c523-4b1e-b2f9-8999e65339bf","system_id":"levelo_inurba_marseille","lat":43.298712,"lon":5.397382,"is_reserved":false,"is_disabled":false,"rental_uris":{"android":"levelo://app?vid=6bf2a9b0-c523-4b1e-b2f9-8999e65339bf","ios":"levelo://app?vid=6bf2a9b0-c523-4b1e-b2f9-8999e65339bf"},"vehicle_type_id":"4","last_reported":1747452734,"current_range_meters":8800,"station_id":"ce4bh0h2rcd13ifvqd50","pricing_plan_id":"cebpf4jnsgd1na2vs0mg"},{"bike_id":"6cd5c425-f8ac-4068-b8ea-a8bfbef29ee5","system_id":"levelo_inurba_marseille","lat":43.249928,"lon":5.379496,"is_reserved":false,"is_disabled":false,"rental_uris":{"android":"levelo://app?vid=6cd5c425-f8ac-4068-b8ea-a8bfbef29ee5","ios":"levelo://app?vid=6cd5c425-f8ac-4068-b8ea-a8bfbef29ee5"},"vehicle_type_id":"4","last_reported":1747452734,"current_range_meters":8800,"station_id":"","pricing_plan_id":"cebpf4jnsgd1na2vs0mg"},{"bike_id":"f3b1a435-7ed8-43ea-bf76-4f3e5880364b","system_id":"levelo_inurba_marseille","lat":43.24166,"lon":5.39717,"is_reserved":false,"is_disabled":false,"rental_uris":{"android":"levelo://app?vid=f3b1a435-7ed8-43ea-bf76-4f3e5880364b","ios":"levelo://app?vid=f3b1a435-7ed8-43ea-bf76-4f3e5880364b"},"vehicle_type_id":"4","last_reported":1747452734,"current_range_meters":9200,"station_id":"ce4bhn12rcd13ifvqgpg","pricing_plan_id":"cebpf4jnsgd1na2vs0mg"},{"bike_id":"2f181daa-622f-4028-9466-fd2f9ebba4cc","system_id":"levelo_inurba_marseille","lat":43.28907,"lon":5.4498,"is_reserved":false,"is_disabled":false,"rental_uris":{"android":"levelo://app?vid=2f181daa-622f-4028-9466-fd2f9ebba4cc","ios":"levelo://app?vid=2f181daa-622f-4028-9466-fd2f9ebba4cc"},"vehicle_type_id":"4","last_reported":1747452734,"current_range_meters":8800,"station_id":"","pricing_plan_id":"cebpf4jnsgd1na2vs0mg"},{"bike_id":"a488853e-8708-42f9-a9f1-40f4dc62e03d","system_id":"levelo_inurba_marseille","lat":43.30588,"lon":5.37321,"is_reserved":false,"is_disabled":false,"rental_uris":{"android":"levelo://app?vid=a488853e-8708-42f9-a9f1-40f4dc62e03d","ios":"levelo://app?vid=a488853e-8708-42f9-a9f1-40f4dc62e03d"},"vehicle_type_id":"4","last_reported":1747452734,"current_range_meters":8800,"station_id":"","pricing_plan_id":"cebpf4jnsgd1na2vs0mg"},{"bike_id":"8cf75296-6b59-4787-bf18-cfee7fac28e0","system_id":"levelo_inurba_marseille","lat":43.241705,"lon":5.397157,"is_reserved":false,"is_disabled":false,"rental_uris":{"android":"levelo://app?vid=8cf75296-6b59-4787-bf18-cfee7fac28e0","ios":"levelo://app?vid=8cf75296-6b59-4787-bf18-cfee7fac28e0"},"vehicle_type_id":"4","last_reported":1747452734,"current_range_meters":8800,"station_id":"ce4bhn12rcd13ifvqgpg","pricing_plan_id":"cebpf4jnsgd1na2vs0mg"},{"bike_id":"38134588-529f-480a-b8d3-95e70d6e6fb9","system_id":"levelo_inurba_marseille","lat":43.217487,"lon":5.346199,"is_reserved":false,"is_disabled":true,"rental_uris":{"android":"levelo://app?vid=38134588-529f-480a-b8d3-95e70d6e6fb9","ios":"levelo://app?vid=38134588-529f-480a-b8d3-95e70d6e6fb9"},"vehicle_type_id":"4","last_reported":1747452734,"current_range_meters":8800,"station_id":"st_cvj6r9ubvosntc0bgbag","pricing_plan_id":"cebpf4jnsgd1na2vs0mg"},{"bike_id":"b83840fc-e8b5-4516-afbe-00694cb37051","system_id":"levelo_inurba_marseille","lat":43.24381,"lon":5.37069,"is_reserved":false,"is_disabled":false,"rental_uris":{"android":"levelo://app?vid=b83840fc-e8b5-4516-afbe-00694cb37051","ios":"levelo://app?vid=b83840fc-e8b5-4516-afbe-00694cb37051"},"vehicle_type_id":"4","last_reported":1747452734,"current_range_meters":8800,"station_id":"ce4bhhh2rcd13ifvqfk0","pricing_plan_id":"cebpf4jnsgd1na2vs0mg"},{"bike_id":"25102c3b-2fbb-400c-8820-f98bbff5bece","system_id":"levelo_inurba_marseille","lat":43.27907,"lon":5.39577,"is_reserved":false,"is_disabled":false,"rental_uris":{"android":"levelo://app?vid=25102c3b-2fbb-400c-8820-f98bbff5bece","ios":"levelo://app?vid=25102c3b-2fbb-400c-8820-f98bbff5bece"},"vehicle_type_id":"4","last_reported":1747452734,"current_range_meters":8800,"station_id":"ce4bhf92rcd13ifvqf40","pricing_plan_id":"cebpf4jnsgd1na2vs0mg"},{"bike_id":"b4739fba-8f8a-432e-854e-c3c600c35848","system_id":"levelo_inurba_marseille","lat":43.28688,"lon":5.37387,"is_reserved":false,"is_disabled":false,"rental_uris":{"android":"levelo://app?vid=b4739fba-8f8a-432e-854e-c3c600c35848","ios":"levelo://app?vid=b4739fba-8f8a-432e-854e-c3c600c35848"},"vehicle_type_id":"4","last_reported":1747452734,"current_range_meters":9200,"station_id":"ce4bh3p2rcd13ifvqdq0","pricing_plan_id":"cebpf4jnsgd1na2vs0mg"},{"bike_id":"cc997091-761a-4004-b43e-d05e1c15efff","system_id":"levelo_inurba_marseille","lat":43.23187,"lon":5.399909,"is_reserved":false,"is_disabled":false,"rental_uris":{"android":"levelo://app?vid=cc997091-761a-4004-b43e-d05e1c15efff","ios":"levelo://app?vid=cc997091-761a-4004-b43e-d05e1c15efff"},"vehicle_type_id":"4","last_reported":1747452734,"current_range_meters":9200,"station_id":"ce4bhn12rcd13ifvqgqg","pricing_plan_id":"cebpf4jnsgd1na2vs0mg"},{"bike_id":"44b99538-fb26-4f4c-9469-128b12406ff3","system_id":"levelo_inurba_marseille","lat":43.28662,"lon":5.36353,"is_reserved":false,"is_disabled":false,"rental_uris":{"android":"levelo://app?vid=44b99538-fb26-4f4c-9469-128b12406ff3","ios":"levelo://app?vid=44b99538-fb26-4f4c-9469-128b12406ff3"},"vehicle_type_id":"4","last_reported":1747452734,"current_range_meters":9200,"station_id":"ce4bhah2rcd13ifvqej0","pricing_plan_id":"cebpf4jnsgd1na2vs0mg"},{"bike_id":"df1489cf-3e66-45ec-afb3-55480261aa28","system_id":"levelo_inurba_marseille","lat":43.27059,"lon":5.40279,"is_reserved":false,"is_disabled":false,"rental_uris":{"android":"levelo://app?vid=df1489cf-3e66-45ec-afb3-55480261aa28","ios":"levelo://app?vid=df1489cf-3e66-45ec-afb3-55480261aa28"},"vehicle_type_id":"4","last_reported":1747452734,"current_range_meters":9200,"station_id":"ce4bhk92rcd13ifvqgc0","pricing_plan_id":"cebpf4jnsgd1na2vs0mg"},{"bike_id":"5cf74a5b-3237-4306-8708-835ce896cf40","system_id":"levelo_inurba_marseille","lat":43.319914,"lon":5.381694,"is_reserved":false,"is_disabled":false,"rental_uris":{"android":"levelo://app?vid=5cf74a5b-3237-4306-8708-835ce896cf40","ios":"levelo://app?vid=5cf74a5b-3237-4306-8708-835ce896cf40"},"vehicle_type_id":"4","last_reported":1747452734,"current_range_meters":9200,"station_id":"ce4bhr12rcd13ifvqhpg","pricing_plan_id":"cebpf4jnsgd1na2vs0mg"},{"bike_id":"3e480d2f-8011-45e8-bab5-26452b394142","system_id":"levelo_inurba_marseille","lat":43.28686,"lon":5.36357,"is_reserved":false,"is_disabled":false,"rental_uris":{"android":"levelo://app?vid=3e480d2f-8011-45e8-bab5-26452b394142","ios":"levelo://app?vid=3e480d2f-8011-45e8-bab5-26452b394142"},"vehicle_type_id":"4","last_reported":1747452734,"current_range_meters":9200,"station_id":"ce4bhah2rcd13ifvqej0","pricing_plan_id":"cebpf4jnsgd1na2vs0mg"},{"bike_id":"79b0f212-a412-4d78-9698-18a7ce0ce6cd","system_id":"levelo_inurba_marseille","lat":43.233604,"lon":5.36071,"is_reserved":false,"is_disabled":false,"rental_uris":{"android":"levelo://app?vid=79b0f212-a412-4d78-9698-18a7ce0ce6cd","ios":"levelo://app?vid=79b0f212-a412-4d78-9698-18a7ce0ce6cd"},"vehicle_type_id":"4","last_reported":1747452734,"current_range_meters":9600,"station_id":"","pricing_plan_id":"cebpf4jnsgd1na2vs0mg"},{"bike_id":"ad5f9cf6-9c88-49f6-b4d6-7ea60bde5bb4","system_id":"levelo_inurba_marseille","lat":43.30873,"lon":5.39663,"is_reserved":false,"is_disabled":false,"rental_uris":{"android":"levelo://app?vid=ad5f9cf6-9c88-49f6-b4d6-7ea60bde5bb4","ios":"levelo://app?vid=ad5f9cf6-9c88-49f6-b4d6-7ea60bde5bb4"},"vehicle_type_id":"4","last_reported":1747452734,"current_range_meters":9600,"station_id":"ce4bh012rcd13ifvqcv0","pricing_plan_id":"cebpf4jnsgd1na2vs0mg"},{"bike_id":"3ffcec4a-cc56-47e3-8ab2-b32fcdc71194","system_id":"levelo_inurba_marseille","lat":43.30956,"lon":5.40145,"is_reserved":false,"is_disabled":false,"rental_uris":{"android":"levelo://app?vid=3ffcec4a-cc56-47e3-8ab2-b32fcdc71194","ios":"levelo://app?vid=3ffcec4a-cc56-47e3-8ab2-b32fcdc71194"},"vehicle_type_id":"4","last_reported":1747452734,"current_range_meters":9600,"station_id":"ce4bgvp2rcd13ifvqct0","pricing_plan_id":"cebpf4jnsgd1na2vs0mg"},{"bike_id":"6703ef7e-3b9b-45e9-b913-6dddeb13651d","system_id":"levelo_inurba_marseille","lat":43.279482,"lon":5.387138,"is_reserved":false,"is_disabled":false,"rental_uris":{"android":"levelo://app?vid=6703ef7e-3b9b-45e9-b913-6dddeb13651d","ios":"levelo://app?vid=6703ef7e-3b9b-45e9-b913-6dddeb13651d"},"vehicle_type_id":"4","last_reported":1747452734,"current_range_meters":10000,"station_id":"ce4bhg12rcd13ifvqf80","pricing_plan_id":"cebpf4jnsgd1na2vs0mg"},{"bike_id":"4ec7cb77-fc92-4a56-aa01-090b31685a05","system_id":"levelo_inurba_marseille","lat":43.29248,"lon":5.40886,"is_reserved":false,"is_disabled":false,"rental_uris":{"android":"levelo://app?vid=4ec7cb77-fc92-4a56-aa01-090b31685a05","ios":"levelo://app?vid=4ec7cb77-fc92-4a56-aa01-090b31685a05"},"vehicle_type_id":"4","last_reported":1747452734,"current_range_meters":9200,"station_id":"ce4bh192rcd13ifvqdc0","pricing_plan_id":"cebpf4jnsgd1na2vs0mg"},{"bike_id":"4627f3d1-17fd-49b2-9a60-3f90cc9b16e5","system_id":"levelo_inurba_marseille","lat":43.3169,"lon":5.43707,"is_reserved":false,"is_disabled":false,"rental_uris":{"android":"levelo://app?vid=4627f3d1-17fd-49b2-9a60-3f90cc9b16e5","ios":"levelo://app?vid=4627f3d1-17fd-49b2-9a60-3f90cc9b16e5"},"vehicle_type_id":"4","last_reported":1747452734,"current_range_meters":9600,"station_id":"ce4bhp92rcd13ifvqhcg","pricing_plan_id":"cebpf4jnsgd1na2vs0mg"},{"bike_id":"0a0babc2-26c5-42ba-a79e-338dfe361b88","system_id":"levelo_inurba_marseille","lat":43.24049,"lon":5.37769,"is_reserved":false,"is_disabled":false,"rental_uris":{"android":"levelo://app?vid=0a0babc2-26c5-42ba-a79e-338dfe361b88","ios":"levelo://app?vid=0a0babc2-26c5-42ba-a79e-338dfe361b88"},"vehicle_type_id":"4","last_reported":1747452734,"current_range_meters":9600,"station_id":"ce4bhnp2rcd13ifvqgvg","pricing_plan_id":"cebpf4jnsgd1na2vs0mg"},{"bike_id":"c42eb6c9-abfc-48f4-912e-2ed38fd920d9","system_id":"levelo_inurba_marseille","lat":43.28443,"lon":5.35903,"is_reserved":false,"is_disabled":false,"rental_uris":{"android":"levelo://app?vid=c42eb6c9-abfc-48f4-912e-2ed38fd920d9","ios":"levelo://app?vid=c42eb6c9-abfc-48f4-912e-2ed38fd920d9"},"vehicle_type_id":"4","last_reported":1747452734,"current_range_meters":9600,"station_id":"ce4bhah2rcd13ifvqei0","pricing_plan_id":"cebpf4jnsgd1na2vs0mg"},{"bike_id":"af4d8ae5-b5e3-4ba4-bb1f-49c4a5ed79fd","system_id":"levelo_inurba_marseille","lat":43.28912,"lon":5.44973,"is_reserved":false,"is_disabled":false,"rental_uris":{"android":"levelo://app?vid=af4d8ae5-b5e3-4ba4-bb1f-49c4a5ed79fd","ios":"levelo://app?vid=af4d8ae5-b5e3-4ba4-bb1f-49c4a5ed79fd"},"vehicle_type_id":"4","last_reported":1747452734,"current_range_meters":9600,"station_id":"","pricing_plan_id":"cebpf4jnsgd1na2vs0mg"},{"bike_id":"0d577db5-b352-42aa-bc77-8fa6c8e22a8b","system_id":"levelo_inurba_marseille","lat":43.27961,"lon":5.38712,"is_reserved":false,"is_disabled":false,"rental_uris":{"android":"levelo://app?vid=0d577db5-b352-42aa-bc77-8fa6c8e22a8b","ios":"levelo://app?vid=0d577db5-b352-42aa-bc77-8fa6c8e22a8b"},"vehicle_type_id":"4","last_reported":1747452734,"current_range_meters":9600,"station_id":"ce4bhg12rcd13ifvqf80","pricing_plan_id":"cebpf4jnsgd1na2vs0mg"},{"bike_id":"a0efa2ff-065b-49c3-8196-e9faf8c2efdb","system_id":"levelo_inurba_marseille","lat":43.28461,"lon":5.35898,"is_reserved":false,"is_disabled":false,"rental_uris":{"android":"levelo://app?vid=a0efa2ff-065b-49c3-8196-e9faf8c2efdb","ios":"levelo://app?vid=a0efa2ff-065b-49c3-8196-e9faf8c2efdb"},"vehicle_type_id":"4","last_reported":1747452734,"current_range_meters":9600,"station_id":"ce4bhah2rcd13ifvqei0","pricing_plan_id":"cebpf4jnsgd1na2vs0mg"},{"bike_id":"71abf16d-0037-4503-8336-9084f9a4a4ec","system_id":"levelo_inurba_marseille","lat":43.309306,"lon":5.401504,"is_reserved":false,"is_disabled":false,"rental_uris":{"android":"levelo://app?vid=71abf16d-0037-4503-8336-9084f9a4a4ec","ios":"levelo://app?vid=71abf16d-0037-4503-8336-9084f9a4a4ec"},"vehicle_type_id":"4","last_reported":1747452734,"current_range_meters":9600,"station_id":"ce4bgvp2rcd13ifvqct0","pricing_plan_id":"cebpf4jnsgd1na2vs0mg"},{"bike_id":"bd444cd5-f32e-4a92-b2cb-b72f6429bc23","system_id":"levelo_inurba_marseille","lat":43.317139,"lon":5.377758,"is_reserved":false,"is_disabled":false,"rental_uris":{"android":"levelo://app?vid=bd444cd5-f32e-4a92-b2cb-b72f6429bc23","ios":"levelo://app?vid=bd444cd5-f32e-4a92-b2cb-b72f6429bc23"},"vehicle_type_id":"4","last_reported":1747452734,"current_range_meters":10000,"station_id":"ce4bgth2rcd13ifvqch0","pricing_plan_id":"cebpf4jnsgd1na2vs0mg"},{"bike_id":"4bb33cf8-ba2b-4943-9e07-00506ea3cdca","system_id":"levelo_inurba_marseille","lat":43.2481,"lon":5.374598,"is_reserved":false,"is_disabled":false,"rental_uris":{"android":"levelo://app?vid=4bb33cf8-ba2b-4943-9e07-00506ea3cdca","ios":"levelo://app?vid=4bb33cf8-ba2b-4943-9e07-00506ea3cdca"},"vehicle_type_id":"4","last_reported":1747452734,"current_range_meters":10000,"station_id":"ce4bhgh2rcd13ifvqfb0","pricing_plan_id":"cebpf4jnsgd1na2vs0mg"},{"bike_id":"2cc2b20a-8425-4ef8-bc31-db5defc154e5","system_id":"levelo_inurba_marseille","lat":43.25114,"lon":5.40323,"is_reserved":false,"is_disabled":false,"rental_uris":{"android":"levelo://app?vid=2cc2b20a-8425-4ef8-bc31-db5defc154e5","ios":"levelo://app?vid=2cc2b20a-8425-4ef8-bc31-db5defc154e5"},"vehicle_type_id":"4","last_reported":1747452734,"current_range_meters":10000,"station_id":"ce4bhlh2rcd13ifvqgig","pricing_plan_id":"cebpf4jnsgd1na2vs0mg"},{"bike_id":"f7c31dd2-47f7-46c3-a769-ecda17b690c7","system_id":"levelo_inurba_marseille","lat":43.313561,"lon":5.367169,"is_reserved":false,"is_disabled":true,"rental_uris":{"android":"levelo://app?vid=f7c31dd2-47f7-46c3-a769-ecda17b690c7","ios":"levelo://app?vid=f7c31dd2-47f7-46c3-a769-ecda17b690c7"},"vehicle_type_id":"4","last_reported":1747452734,"current_range_meters":10000,"station_id":"ce4bgr92rcd13ifvqc6g","pricing_plan_id":"cebpf4jnsgd1na2vs0mg"},{"bike_id":"fd36f2b2-ab3f-4773-a649-0c532c529c78","system_id":"levelo_inurba_marseille","lat":43.265528,"lon":5.372995,"is_reserved":false,"is_disabled":false,"rental_uris":{"android":"levelo://app?vid=fd36f2b2-ab3f-4773-a649-0c532c529c78","ios":"levelo://app?vid=fd36f2b2-ab3f-4773-a649-0c532c529c78"},"vehicle_type_id":"4","last_reported":1747452734,"current_range_meters":10000,"station_id":"ce4bhg12rcd13ifvqf70","pricing_plan_id":"cebpf4jnsgd1na2vs0mg"},{"bike_id":"09672746-a858-4b2b-a2b6-6bb3133618d3","system_id":"levelo_inurba_marseille","lat":43.286195,"lon":5.351064,"is_reserved":false,"is_disabled":true,"rental_uris":{"android":"levelo://app?vid=09672746-a858-4b2b-a2b6-6bb3133618d3","ios":"levelo://app?vid=09672746-a858-4b2b-a2b6-6bb3133618d3"},"vehicle_type_id":"4","last_reported":1747452734,"current_range_meters":10800,"station_id":"ce4bhch2rcd13ifvqeug","pricing_plan_id":"cebpf4jnsgd1na2vs0mg"},{"bike_id":"a0e9d505-cf02-46ac-8830-1ac6326a531c","system_id":"levelo_inurba_marseille","lat":43.286949,"lon":5.399857,"is_reserved":false,"is_disabled":false,"rental_uris":{"android":"levelo://app?vid=a0e9d505-cf02-46ac-8830-1ac6326a531c","ios":"levelo://app?vid=a0e9d505-cf02-46ac-8830-1ac6326a531c"},"vehicle_type_id":"4","last_reported":1747452734,"current_range_meters":10000,"station_id":"ce4bho92rcd13ifvqh3g","pricing_plan_id":"cebpf4jnsgd1na2vs0mg"},{"bike_id":"8a61a1bc-5a2c-4409-b911-e09287002183","system_id":"levelo_inurba_marseille","lat":43.309937,"lon":5.379345,"is_reserved":false,"is_disabled":false,"rental_uris":{"android":"levelo://app?vid=8a61a1bc-5a2c-4409-b911-e09287002183","ios":"levelo://app?vid=8a61a1bc-5a2c-4409-b911-e09287002183"},"vehicle_type_id":"4","last_reported":1747452734,"current_range_meters":10000,"station_id":"","pricing_plan_id":"cebpf4jnsgd1na2vs0mg"},{"bike_id":"9615d0e9-e752-4326-bafd-a97374849ae6","system_id":"levelo_inurba_marseille","lat":43.284084,"lon":5.375253,"is_reserved":false,"is_disabled":false,"rental_uris":{"android":"levelo://app?vid=9615d0e9-e752-4326-bafd-a97374849ae6","ios":"levelo://app?vid=9615d0e9-e752-4326-bafd-a97374849ae6"},"vehicle_type_id":"4","last_reported":1747452734,"current_range_meters":10000,"station_id":"ce4bh412rcd13ifvqds0","pricing_plan_id":"cebpf4jnsgd1na2vs0mg"},{"bike_id":"04a399ff-d171-455a-9dfd-cc7951e5353a","system_id":"levelo_inurba_marseille","lat":43.28716,"lon":5.36098,"is_reserved":false,"is_disabled":false,"rental_uris":{"android":"levelo://app?vid=04a399ff-d171-455a-9dfd-cc7951e5353a","ios":"levelo://app?vid=04a399ff-d171-455a-9dfd-cc7951e5353a"},"vehicle_type_id":"4","last_reported":1747452734,"current_range_meters":10800,"station_id":"cki0cbj6b192h4jlfktg","pricing_plan_id":"cebpf4jnsgd1na2vs0mg"},{"bike_id":"f29a82b1-b1c6-469a-ad31-486669e75362","system_id":"levelo_inurba_marseille","lat":43.282031,"lon":5.390571,"is_reserved":false,"is_disabled":false,"rental_uris":{"android":"levelo://app?vid=f29a82b1-b1c6-469a-ad31-486669e75362","ios":"levelo://app?vid=f29a82b1-b1c6-469a-ad31-486669e75362"},"vehicle_type_id":"4","last_reported":1747452734,"current_range_meters":10800,"station_id":"","pricing_plan_id":"cebpf4jnsgd1na2vs0mg"},{"bike_id":"f353be5c-4d23-4a48-9cad-8c96299b174e","system_id":"levelo_inurba_marseille","lat":43.286922,"lon":5.400034,"is_reserved":false,"is_disabled":false,"rental_uris":{"android":"levelo://app?vid=f353be5c-4d23-4a48-9cad-8c96299b174e","ios":"levelo://app?vid=f353be5c-4d23-4a48-9cad-8c96299b174e"},"vehicle_type_id":"4","last_reported":1747452734,"current_range_meters":10800,"station_id":"ce4bho92rcd13ifvqh3g","pricing_plan_id":"cebpf4jnsgd1na2vs0mg"},{"bike_id":"b8f48a03-1b3c-4f41-b74c-2b637af725d5","system_id":"levelo_inurba_marseille","lat":43.304259,"lon":5.397454,"is_reserved":false,"is_disabled":true,"rental_uris":{"android":"levelo://app?vid=b8f48a03-1b3c-4f41-b74c-2b637af725d5","ios":"levelo://app?vid=b8f48a03-1b3c-4f41-b74c-2b637af725d5"},"vehicle_type_id":"4","last_reported":1747452734,"current_range_meters":11200,"station_id":"ce4bh092rcd13ifvqd20","pricing_plan_id":"cebpf4jnsgd1na2vs0mg"},{"bike_id":"af44d4a3-d6a4-4f2a-9ee4-ed38f31a9dc5","system_id":"levelo_inurba_marseille","lat":43.248015,"lon":5.374551,"is_reserved":false,"is_disabled":false,"rental_uris":{"android":"levelo://app?vid=af44d4a3-d6a4-4f2a-9ee4-ed38f31a9dc5","ios":"levelo://app?vid=af44d4a3-d6a4-4f2a-9ee4-ed38f31a9dc5"},"vehicle_type_id":"4","last_reported":1747452734,"current_range_meters":11200,"station_id":"ce4bhgh2rcd13ifvqfb0","pricing_plan_id":"cebpf4jnsgd1na2vs0mg"},{"bike_id":"8c096d36-b301-47ce-bf2e-0dfaa371183c","system_id":"levelo_inurba_marseille","lat":43.32286,"lon":5.38282,"is_reserved":false,"is_disabled":false,"rental_uris":{"android":"levelo://app?vid=8c096d36-b301-47ce-bf2e-0dfaa371183c","ios":"levelo://app?vid=8c096d36-b301-47ce-bf2e-0dfaa371183c"},"vehicle_type_id":"4","last_reported":1747452734,"current_range_meters":11600,"station_id":"ce4bhr12rcd13ifvqhqg","pricing_plan_id":"cebpf4jnsgd1na2vs0mg"},{"bike_id":"248354d9-319a-4fda-a327-9b1e5e28cf99","system_id":"levelo_inurba_marseille","lat":43.29542,"lon":5.37492,"is_reserved":false,"is_disabled":true,"rental_uris":{"android":"levelo://app?vid=248354d9-319a-4fda-a327-9b1e5e28cf99","ios":"levelo://app?vid=248354d9-319a-4fda-a327-9b1e5e28cf99"},"vehicle_type_id":"4","last_reported":1747452734,"current_range_meters":11200,"station_id":"ce4bgkp2rcd13ifvqbmg","pricing_plan_id":"cebpf4jnsgd1na2vs0mg"},{"bike_id":"b6722871-ecb9-4532-8e24-3cb5e6fa1809","system_id":"levelo_inurba_marseille","lat":43.27205,"lon":5.391938,"is_reserved":false,"is_disabled":false,"rental_uris":{"android":"levelo://app?vid=b6722871-ecb9-4532-8e24-3cb5e6fa1809","ios":"levelo://app?vid=b6722871-ecb9-4532-8e24-3cb5e6fa1809"},"vehicle_type_id":"4","last_reported":1747452734,"current_range_meters":11200,"station_id":"ce4bhhp2rcd13ifvqfm0","pricing_plan_id":"cebpf4jnsgd1na2vs0mg"},{"bike_id":"6b22d085-5486-4c2f-8819-3b8733106875","system_id":"levelo_inurba_marseille","lat":43.292752,"lon":5.401471,"is_reserved":false,"is_disabled":false,"rental_uris":{"android":"levelo://app?vid=6b22d085-5486-4c2f-8819-3b8733106875","ios":"levelo://app?vid=6b22d085-5486-4c2f-8819-3b8733106875"},"vehicle_type_id":"4","last_reported":1747452734,"current_range_meters":11600,"station_id":"ce4bh312rcd13ifvqdk0","pricing_plan_id":"cebpf4jnsgd1na2vs0mg"},{"bike_id":"e5a2b069-efb7-48e5-8628-944f65ddff23","system_id":"levelo_inurba_marseille","lat":43.284138,"lon":5.375218,"is_reserved":false,"is_disabled":false,"rental_uris":{"android":"levelo://app?vid=e5a2b069-efb7-48e5-8628-944f65ddff23","ios":"levelo://app?vid=e5a2b069-efb7-48e5-8628-944f65ddff23"},"vehicle_type_id":"4","last_reported":1747452734,"current_range_meters":11600,"station_id":"ce4bh412rcd13ifvqds0","pricing_plan_id":"cebpf4jnsgd1na2vs0mg"},{"bike_id":"7f0f0eb1-eb6a-48f0-b4c4-ba8877209c3a","system_id":"levelo_inurba_marseille","lat":43.27207,"lon":5.36524,"is_reserved":false,"is_disabled":false,"rental_uris":{"android":"levelo://app?vid=7f0f0eb1-eb6a-48f0-b4c4-ba8877209c3a","ios":"levelo://app?vid=7f0f0eb1-eb6a-48f0-b4c4-ba8877209c3a"},"vehicle_type_id":"4","last_reported":1747452734,"current_range_meters":12000,"station_id":"","pricing_plan_id":"cebpf4jnsgd1na2vs0mg"},{"bike_id":"c462edac-629f-47ae-91a1-fc91820cc32c","system_id":"levelo_inurba_marseille","lat":43.29307,"lon":5.37167,"is_reserved":false,"is_disabled":true,"rental_uris":{"android":"levelo://app?vid=c462edac-629f-47ae-91a1-fc91820cc32c","ios":"levelo://app?vid=c462edac-629f-47ae-91a1-fc91820cc32c"},"vehicle_type_id":"4","last_reported":1747452734,"current_range_meters":12000,"station_id":"ce4bgh92rcd13ifvqb40","pricing_plan_id":"cebpf4jnsgd1na2vs0mg"},{"bike_id":"51b14f2c-a860-4537-9033-48a7ce05506e","system_id":"levelo_inurba_marseille","lat":43.3093,"lon":5.401399,"is_reserved":false,"is_disabled":false,"rental_uris":{"android":"levelo://app?vid=51b14f2c-a860-4537-9033-48a7ce05506e","ios":"levelo://app?vid=51b14f2c-a860-4537-9033-48a7ce05506e"},"vehicle_type_id":"4","last_reported":1747452734,"current_range_meters":12000,"station_id":"ce4bgvp2rcd13ifvqct0","pricing_plan_id":"cebpf4jnsgd1na2vs0mg"},{"bike_id":"b172ece0-93c6-494c-a97d-ea053cc8e9b6","system_id":"levelo_inurba_marseille","lat":43.262233,"lon":5.404585,"is_reserved":false,"is_disabled":false,"rental_uris":{"android":"levelo://app?vid=b172ece0-93c6-494c-a97d-ea053cc8e9b6","ios":"levelo://app?vid=b172ece0-93c6-494c-a97d-ea053cc8e9b6"},"vehicle_type_id":"4","last_reported":1747452734,"current_range_meters":12000,"station_id":"ce4bhmh2rcd13ifvqgmg","pricing_plan_id":"cebpf4jnsgd1na2vs0mg"},{"bike_id":"31dcd562-34df-4d82-9fd1-d12daa491b3c","system_id":"levelo_inurba_marseille","lat":43.26561,"lon":5.39048,"is_reserved":false,"is_disabled":false,"rental_uris":{"android":"levelo://app?vid=31dcd562-34df-4d82-9fd1-d12daa491b3c","ios":"levelo://app?vid=31dcd562-34df-4d82-9fd1-d12daa491b3c"},"vehicle_type_id":"4","last_reported":1747452734,"current_range_meters":12000,"station_id":"ce4bhe12rcd13ifvqf30","pricing_plan_id":"cebpf4jnsgd1na2vs0mg"},{"bike_id":"9ab80c09-a66e-490c-af4e-4ca4b7dc42ea","system_id":"levelo_inurba_marseille","lat":43.29152,"lon":5.37991,"is_reserved":false,"is_disabled":false,"rental_uris":{"android":"levelo://app?vid=9ab80c09-a66e-490c-af4e-4ca4b7dc42ea","ios":"levelo://app?vid=9ab80c09-a66e-490c-af4e-4ca4b7dc42ea"},"vehicle_type_id":"4","last_reported":1747452734,"current_range_meters":12000,"station_id":"","pricing_plan_id":"cebpf4jnsgd1na2vs0mg"},{"bike_id":"ab6ea088-36b9-4853-9cb2-123cb287e172","system_id":"levelo_inurba_marseille","lat":43.26565,"lon":5.390179,"is_reserved":false,"is_disabled":false,"rental_uris":{"android":"levelo://app?vid=ab6ea088-36b9-4853-9cb2-123cb287e172","ios":"levelo://app?vid=ab6ea088-36b9-4853-9cb2-123cb287e172"},"vehicle_type_id":"4","last_reported":1747452734,"current_range_meters":12400,"station_id":"ce4bhe12rcd13ifvqf30","pricing_plan_id":"cebpf4jnsgd1na2vs0mg"},{"bike_id":"b04bd58d-ab68-46b4-9085-1ddf540e912e","system_id":"levelo_inurba_marseille","lat":43.240858,"lon":5.377467,"is_reserved":false,"is_disabled":true,"rental_uris":{"android":"levelo://app?vid=b04bd58d-ab68-46b4-9085-1ddf540e912e","ios":"levelo://app?vid=b04bd58d-ab68-46b4-9085-1ddf540e912e"},"vehicle_type_id":"4","last_reported":1747452734,"current_range_meters":12800,"station_id":"ce4bhnp2rcd13ifvqgvg","pricing_plan_id":"cebpf4jnsgd1na2vs0mg"},{"bike_id":"38a97f6a-447e-4d05-8f73-76d5a713a0ca","system_id":"levelo_inurba_marseille","lat":43.28665,"lon":5.38652,"is_reserved":false,"is_disabled":false,"rental_uris":{"android":"levelo://app?vid=38a97f6a-447e-4d05-8f73-76d5a713a0ca","ios":"levelo://app?vid=38a97f6a-447e-4d05-8f73-76d5a713a0ca"},"vehicle_type_id":"4","last_reported":1747452734,"current_range_meters":12400,"station_id":"ce4bh492rcd13ifvqdug","pricing_plan_id":"cebpf4jnsgd1na2vs0mg"},{"bike_id":"31b89f00-75f1-4490-aeef-60fc737d9aba","system_id":"levelo_inurba_marseille","lat":43.2865,"lon":5.36378,"is_reserved":false,"is_disabled":false,"rental_uris":{"android":"levelo://app?vid=31b89f00-75f1-4490-aeef-60fc737d9aba","ios":"levelo://app?vid=31b89f00-75f1-4490-aeef-60fc737d9aba"},"vehicle_type_id":"4","last_reported":1747452734,"current_range_meters":12800,"station_id":"ce4bhah2rcd13ifvqej0","pricing_plan_id":"cebpf4jnsgd1na2vs0mg"},{"bike_id":"852ea9ac-6507-488a-87c5-b27d54b34b2e","system_id":"levelo_inurba_marseille","lat":43.281587,"lon":5.426515,"is_reserved":false,"is_disabled":false,"rental_uris":{"android":"levelo://app?vid=852ea9ac-6507-488a-87c5-b27d54b34b2e","ios":"levelo://app?vid=852ea9ac-6507-488a-87c5-b27d54b34b2e"},"vehicle_type_id":"4","last_reported":1747452734,"current_range_meters":12800,"station_id":"ce4bhnh2rcd13ifvqgug","pricing_plan_id":"cebpf4jnsgd1na2vs0mg"},{"bike_id":"6da655b8-0421-4e8a-ae32-6637af746f6a","system_id":"levelo_inurba_marseille","lat":43.268189,"lon":5.411076,"is_reserved":false,"is_disabled":false,"rental_uris":{"android":"levelo://app?vid=6da655b8-0421-4e8a-ae32-6637af746f6a","ios":"levelo://app?vid=6da655b8-0421-4e8a-ae32-6637af746f6a"},"vehicle_type_id":"4","last_reported":1747452734,"current_range_meters":12800,"station_id":"","pricing_plan_id":"cebpf4jnsgd1na2vs0mg"},{"bike_id":"aeca2e96-8dc6-4af9-a31e-df7f2249e0ec","system_id":"levelo_inurba_marseille","lat":43.279756,"lon":5.387449,"is_reserved":false,"is_disabled":false,"rental_uris":{"android":"levelo://app?vid=aeca2e96-8dc6-4af9-a31e-df7f2249e0ec","ios":"levelo://app?vid=aeca2e96-8dc6-4af9-a31e-df7f2249e0ec"},"vehicle_type_id":"4","last_reported":1747452734,"current_range_meters":13600,"station_id":"ce4bhg12rcd13ifvqf80","pricing_plan_id":"cebpf4jnsgd1na2vs0mg"},{"bike_id":"755e2a9b-d57b-44d4-a01d-9d083097cd79","system_id":"levelo_inurba_marseille","lat":43.29893,"lon":5.43659,"is_reserved":false,"is_disabled":false,"rental_uris":{"android":"levelo://app?vid=755e2a9b-d57b-44d4-a01d-9d083097cd79","ios":"levelo://app?vid=755e2a9b-d57b-44d4-a01d-9d083097cd79"},"vehicle_type_id":"4","last_reported":1747452734,"current_range_meters":12800,"station_id":"ce4bhpp2rcd13ifvqhfg","pricing_plan_id":"cebpf4jnsgd1na2vs0mg"},{"bike_id":"e8bbf833-52dd-4a6e-8d69-dd8510f62837","system_id":"levelo_inurba_marseille","lat":43.292695,"lon":5.401651,"is_reserved":false,"is_disabled":false,"rental_uris":{"android":"levelo://app?vid=e8bbf833-52dd-4a6e-8d69-dd8510f62837","ios":"levelo://app?vid=e8bbf833-52dd-4a6e-8d69-dd8510f62837"},"vehicle_type_id":"4","last_reported":1747452734,"current_range_meters":14000,"station_id":"ce4bh312rcd13ifvqdk0","pricing_plan_id":"cebpf4jnsgd1na2vs0mg"},{"bike_id":"b8e6468b-87db-4ff6-8122-ef13bf5b7c8c","system_id":"levelo_inurba_marseille","lat":43.31384,"lon":5.37923,"is_reserved":false,"is_disabled":false,"rental_uris":{"android":"levelo://app?vid=b8e6468b-87db-4ff6-8122-ef13bf5b7c8c","ios":"levelo://app?vid=b8e6468b-87db-4ff6-8122-ef13bf5b7c8c"},"vehicle_type_id":"4","last_reported":1747452734,"current_range_meters":13600,"station_id":"","pricing_plan_id":"cebpf4jnsgd1na2vs0mg"},{"bike_id":"a0af3bfb-b2d7-4a69-ba04-7a6d5675a899","system_id":"levelo_inurba_marseille","lat":43.32559,"lon":5.41446,"is_reserved":false,"is_disabled":false,"rental_uris":{"android":"levelo://app?vid=a0af3bfb-b2d7-4a69-ba04-7a6d5675a899","ios":"levelo://app?vid=a0af3bfb-b2d7-4a69-ba04-7a6d5675a899"},"vehicle_type_id":"4","last_reported":1747452734,"current_range_meters":14000,"station_id":"ce4bhq12rcd13ifvqhhg","pricing_plan_id":"cebpf4jnsgd1na2vs0mg"},{"bike_id":"dd9dd267-41f5-4198-8766-2a88eaf87064","system_id":"levelo_inurba_marseille","lat":43.29029,"lon":5.38642,"is_reserved":false,"is_disabled":true,"rental_uris":{"android":"levelo://app?vid=dd9dd267-41f5-4198-8766-2a88eaf87064","ios":"levelo://app?vid=dd9dd267-41f5-4198-8766-2a88eaf87064"},"vehicle_type_id":"4","last_reported":1747452734,"current_range_meters":14400,"station_id":"ce4bh4p2rcd13ifvqe0g","pricing_plan_id":"cebpf4jnsgd1na2vs0mg"},{"bike_id":"a4d7457e-a382-4ab7-9876-e9ba20692ec9","system_id":"levelo_inurba_marseille","lat":43.319901,"lon":5.381661,"is_reserved":false,"is_disabled":false,"rental_uris":{"android":"levelo://app?vid=a4d7457e-a382-4ab7-9876-e9ba20692ec9","ios":"levelo://app?vid=a4d7457e-a382-4ab7-9876-e9ba20692ec9"},"vehicle_type_id":"4","last_reported":1747452734,"current_range_meters":14000,"station_id":"ce4bhr12rcd13ifvqhpg","pricing_plan_id":"cebpf4jnsgd1na2vs0mg"},{"bike_id":"c96873c1-07ae-4fa5-9d39-77223fea8e8c","system_id":"levelo_inurba_marseille","lat":43.24081,"lon":5.37751,"is_reserved":false,"is_disabled":false,"rental_uris":{"android":"levelo://app?vid=c96873c1-07ae-4fa5-9d39-77223fea8e8c","ios":"levelo://app?vid=c96873c1-07ae-4fa5-9d39-77223fea8e8c"},"vehicle_type_id":"4","last_reported":1747452734,"current_range_meters":14400,"station_id":"ce4bhnp2rcd13ifvqgvg","pricing_plan_id":"cebpf4jnsgd1na2vs0mg"},{"bike_id":"844e0845-2667-404b-9f3a-f80940d0cad3","system_id":"levelo_inurba_marseille","lat":43.248115,"lon":5.374627,"is_reserved":false,"is_disabled":false,"rental_uris":{"android":"levelo://app?vid=844e0845-2667-404b-9f3a-f80940d0cad3","ios":"levelo://app?vid=844e0845-2667-404b-9f3a-f80940d0cad3"},"vehicle_type_id":"4","last_reported":1747452734,"current_range_meters":15200,"station_id":"ce4bhgh2rcd13ifvqfb0","pricing_plan_id":"cebpf4jnsgd1na2vs0mg"},{"bike_id":"c8c23b94-3bb2-4142-ae6e-7544f49c1642","system_id":"levelo_inurba_marseille","lat":43.30542,"lon":5.38436,"is_reserved":false,"is_disabled":true,"rental_uris":{"android":"levelo://app?vid=c8c23b94-3bb2-4142-ae6e-7544f49c1642","ios":"levelo://app?vid=c8c23b94-3bb2-4142-ae6e-7544f49c1642"},"vehicle_type_id":"4","last_reported":1747452734,"current_range_meters":14800,"station_id":"ce4bgg92rcd13ifvqb30","pricing_plan_id":"cebpf4jnsgd1na2vs0mg"},{"bike_id":"ff73f50f-d4f6-452f-b8c5-c3e016c11039","system_id":"levelo_inurba_marseille","lat":43.265702,"lon":5.390138,"is_reserved":false,"is_disabled":false,"rental_uris":{"android":"levelo://app?vid=ff73f50f-d4f6-452f-b8c5-c3e016c11039","ios":"levelo://app?vid=ff73f50f-d4f6-452f-b8c5-c3e016c11039"},"vehicle_type_id":"4","last_reported":1747452734,"current_range_meters":15200,"station_id":"ce4bhe12rcd13ifvqf30","pricing_plan_id":"cebpf4jnsgd1na2vs0mg"},{"bike_id":"fe4c54f7-24a2-4fe5-95d5-3af432396c0c","system_id":"levelo_inurba_marseille","lat":43.31489,"lon":5.37302,"is_reserved":false,"is_disabled":false,"rental_uris":{"android":"levelo://app?vid=fe4c54f7-24a2-4fe5-95d5-3af432396c0c","ios":"levelo://app?vid=fe4c54f7-24a2-4fe5-95d5-3af432396c0c"},"vehicle_type_id":"4","last_reported":1747452734,"current_range_meters":15200,"station_id":"ce4bgt12rcd13ifvqcd0","pricing_plan_id":"cebpf4jnsgd1na2vs0mg"},{"bike_id":"dd8c66ca-d773-4748-bce1-7bf7f85dfaca","system_id":"levelo_inurba_marseille","lat":43.306494,"lon":5.400934,"is_reserved":false,"is_disabled":false,"rental_uris":{"android":"levelo://app?vid=dd8c66ca-d773-4748-bce1-7bf7f85dfaca","ios":"levelo://app?vid=dd8c66ca-d773-4748-bce1-7bf7f85dfaca"},"vehicle_type_id":"4","last_reported":1747452734,"current_range_meters":15200,"station_id":"ce4bh112rcd13ifvqda0","pricing_plan_id":"cebpf4jnsgd1na2vs0mg"},{"bike_id":"42eac522-2e20-4d8d-b587-077295089741","system_id":"levelo_inurba_marseille","lat":43.315,"lon":5.373027,"is_reserved":false,"is_disabled":false,"rental_uris":{"android":"levelo://app?vid=42eac522-2e20-4d8d-b587-077295089741","ios":"levelo://app?vid=42eac522-2e20-4d8d-b587-077295089741"},"vehicle_type_id":"4","last_reported":1747452734,"current_range_meters":16000,"station_id":"ce4bgt12rcd13ifvqcd0","pricing_plan_id":"cebpf4jnsgd1na2vs0mg"},{"bike_id":"7138af59-1380-475f-9add-da10355761e2","system_id":"levelo_inurba_marseille","lat":43.269384,"lon":5.402739,"is_reserved":false,"is_disabled":true,"rental_uris":{"android":"levelo://app?vid=7138af59-1380-475f-9add-da10355761e2","ios":"levelo://app?vid=7138af59-1380-475f-9add-da10355761e2"},"vehicle_type_id":"4","last_reported":1747452734,"current_range_meters":16000,"station_id":"cjm6bp8fraef2m0cb0m0","pricing_plan_id":"cebpf4jnsgd1na2vs0mg"},{"bike_id":"bca2b894-5f02-46c9-a49b-e0c4d6d30e19","system_id":"levelo_inurba_marseille","lat":43.30928,"lon":5.4018,"is_reserved":false,"is_disabled":false,"rental_uris":{"android":"levelo://app?vid=bca2b894-5f02-46c9-a49b-e0c4d6d30e19","ios":"levelo://app?vid=bca2b894-5f02-46c9-a49b-e0c4d6d30e19"},"vehicle_type_id":"4","last_reported":1747452734,"current_range_meters":16000,"station_id":"ce4bgvp2rcd13ifvqct0","pricing_plan_id":"cebpf4jnsgd1na2vs0mg"},{"bike_id":"d9b504ee-8007-4760-a4a1-f54f52b040ce","system_id":"levelo_inurba_marseille","lat":43.302624,"lon":5.37313,"is_reserved":false,"is_disabled":false,"rental_uris":{"android":"levelo://app?vid=d9b504ee-8007-4760-a4a1-f54f52b040ce","ios":"levelo://app?vid=d9b504ee-8007-4760-a4a1-f54f52b040ce"},"vehicle_type_id":"4","last_reported":1747452734,"current_range_meters":16000,"station_id":"","pricing_plan_id":"cebpf4jnsgd1na2vs0mg"},{"bike_id":"0c4898f8-23a1-4833-9367-ff04ac788076","system_id":"levelo_inurba_marseille","lat":43.26574,"lon":5.39004,"is_reserved":false,"is_disabled":false,"rental_uris":{"android":"levelo://app?vid=0c4898f8-23a1-4833-9367-ff04ac788076","ios":"levelo://app?vid=0c4898f8-23a1-4833-9367-ff04ac788076"},"vehicle_type_id":"4","last_reported":1747452734,"current_range_meters":16000,"station_id":"ce4bhe12rcd13ifvqf30","pricing_plan_id":"cebpf4jnsgd1na2vs0mg"},{"bike_id":"838936c3-57df-4d22-8fd7-ed39b0a3f5c2","system_id":"levelo_inurba_marseille","lat":43.30225,"lon":5.40024,"is_reserved":false,"is_disabled":false,"rental_uris":{"android":"levelo://app?vid=838936c3-57df-4d22-8fd7-ed39b0a3f5c2","ios":"levelo://app?vid=838936c3-57df-4d22-8fd7-ed39b0a3f5c2"},"vehicle_type_id":"4","last_reported":1747452734,"current_range_meters":16000,"station_id":"ce4bgvh2rcd13ifvqcs0","pricing_plan_id":"cebpf4jnsgd1na2vs0mg"},{"bike_id":"f87dd3b1-97d4-4b4a-b25a-b0178c885da9","system_id":"levelo_inurba_marseille","lat":43.29435,"lon":5.39752,"is_reserved":false,"is_disabled":false,"rental_uris":{"android":"levelo://app?vid=f87dd3b1-97d4-4b4a-b25a-b0178c885da9","ios":"levelo://app?vid=f87dd3b1-97d4-4b4a-b25a-b0178c885da9"},"vehicle_type_id":"4","last_reported":1747452734,"current_range_meters":16000,"station_id":"ce4bh3h2rcd13ifvqdo0","pricing_plan_id":"cebpf4jnsgd1na2vs0mg"},{"bike_id":"0090c50d-82c3-4298-9051-a17de2ceeb09","system_id":"levelo_inurba_marseille","lat":43.3047,"lon":5.37912,"is_reserved":false,"is_disabled":false,"rental_uris":{"android":"levelo://app?vid=0090c50d-82c3-4298-9051-a17de2ceeb09","ios":"levelo://app?vid=0090c50d-82c3-4298-9051-a17de2ceeb09"},"vehicle_type_id":"4","last_reported":1747452734,"current_range_meters":16000,"station_id":"ce4bgup2rcd13ifvqcn0","pricing_plan_id":"cebpf4jnsgd1na2vs0mg"},{"bike_id":"aafe78a6-692c-4e55-8bb8-4da8ee7b3518","system_id":"levelo_inurba_marseille","lat":43.28698,"lon":5.4,"is_reserved":false,"is_disabled":false,"rental_uris":{"android":"levelo://app?vid=aafe78a6-692c-4e55-8bb8-4da8ee7b3518","ios":"levelo://app?vid=aafe78a6-692c-4e55-8bb8-4da8ee7b3518"},"vehicle_type_id":"4","last_reported":1747452734,"current_range_meters":16400,"station_id":"ce4bho92rcd13ifvqh3g","pricing_plan_id":"cebpf4jnsgd1na2vs0mg"},{"bike_id":"a3cba1fe-11f4-4caf-9a36-1259eee4c804","system_id":"levelo_inurba_marseille","lat":43.29804,"lon":5.37044,"is_reserved":false,"is_disabled":false,"rental_uris":{"android":"levelo://app?vid=a3cba1fe-11f4-4caf-9a36-1259eee4c804","ios":"levelo://app?vid=a3cba1fe-11f4-4caf-9a36-1259eee4c804"},"vehicle_type_id":"4","last_reported":1747452734,"current_range_meters":16400,"station_id":"ce4bgop2rcd13ifvqc1g","pricing_plan_id":"cebpf4jnsgd1na2vs0mg"},{"bike_id":"28d37157-3a16-4629-aaa7-a3c6699ba32f","system_id":"levelo_inurba_marseille","lat":43.26592,"lon":5.390338,"is_reserved":false,"is_disabled":false,"rental_uris":{"android":"levelo://app?vid=28d37157-3a16-4629-aaa7-a3c6699ba32f","ios":"levelo://app?vid=28d37157-3a16-4629-aaa7-a3c6699ba32f"},"vehicle_type_id":"4","last_reported":1747452734,"current_range_meters":16400,"station_id":"ce4bhe12rcd13ifvqf30","pricing_plan_id":"cebpf4jnsgd1na2vs0mg"},{"bike_id":"dd39e91a-7659-4bd3-a14e-b42e260e5132","system_id":"levelo_inurba_marseille","lat":43.323623,"lon":5.388789,"is_reserved":false,"is_disabled":false,"rental_uris":{"android":"levelo://app?vid=dd39e91a-7659-4bd3-a14e-b42e260e5132","ios":"levelo://app?vid=dd39e91a-7659-4bd3-a14e-b42e260e5132"},"vehicle_type_id":"4","last_reported":1747452734,"current_range_meters":16400,"station_id":"ce4bhqp2rcd13ifvqhog","pricing_plan_id":"cebpf4jnsgd1na2vs0mg"},{"bike_id":"e131e685-e134-45f3-b108-446e40511ca5","system_id":"levelo_inurba_marseille","lat":43.28724,"lon":5.36107,"is_reserved":false,"is_disabled":false,"rental_uris":{"android":"levelo://app?vid=e131e685-e134-45f3-b108-446e40511ca5","ios":"levelo://app?vid=e131e685-e134-45f3-b108-446e40511ca5"},"vehicle_type_id":"4","last_reported":1747452734,"current_range_meters":16400,"station_id":"cki0cbj6b192h4jlfktg","pricing_plan_id":"cebpf4jnsgd1na2vs0mg"},{"bike_id":"1f78044e-a916-475f-a505-222ade0c1f19","system_id":"levelo_inurba_marseille","lat":43.31118,"lon":5.37759,"is_reserved":false,"is_disabled":false,"rental_uris":{"android":"levelo://app?vid=1f78044e-a916-475f-a505-222ade0c1f19","ios":"levelo://app?vid=1f78044e-a916-475f-a505-222ade0c1f19"},"vehicle_type_id":"4","last_reported":1747452734,"current_range_meters":16400,"station_id":"ce4bgt92rcd13ifvqcg0","pricing_plan_id":"cebpf4jnsgd1na2vs0mg"},{"bike_id":"685ce79d-3aea-4635-b93e-231a345a759b","system_id":"levelo_inurba_marseille","lat":43.319979,"lon":5.381634,"is_reserved":false,"is_disabled":false,"rental_uris":{"android":"levelo://app?vid=685ce79d-3aea-4635-b93e-231a345a759b","ios":"levelo://app?vid=685ce79d-3aea-4635-b93e-231a345a759b"},"vehicle_type_id":"4","last_reported":1747452734,"current_range_meters":16400,"station_id":"ce4bhr12rcd13ifvqhpg","pricing_plan_id":"cebpf4jnsgd1na2vs0mg"},{"bike_id":"3f1f80f2-74b8-4b50-8e33-883290c5e268","system_id":"levelo_inurba_marseille","lat":43.23183,"lon":5.39995,"is_reserved":false,"is_disabled":false,"rental_uris":{"android":"levelo://app?vid=3f1f80f2-74b8-4b50-8e33-883290c5e268","ios":"levelo://app?vid=3f1f80f2-74b8-4b50-8e33-883290c5e268"},"vehicle_type_id":"4","last_reported":1747452734,"current_range_meters":16400,"station_id":"ce4bhn12rcd13ifvqgqg","pricing_plan_id":"cebpf4jnsgd1na2vs0mg"},{"bike_id":"5859aa69-92a8-4d08-a554-05f544a7c60e","system_id":"levelo_inurba_marseille","lat":43.24394,"lon":5.37083,"is_reserved":false,"is_disabled":false,"rental_uris":{"android":"levelo://app?vid=5859aa69-92a8-4d08-a554-05f544a7c60e","ios":"levelo://app?vid=5859aa69-92a8-4d08-a554-05f544a7c60e"},"vehicle_type_id":"4","last_reported":1747452734,"current_range_meters":16400,"station_id":"ce4bhhh2rcd13ifvqfk0","pricing_plan_id":"cebpf4jnsgd1na2vs0mg"},{"bike_id":"712f1c4d-f153-4002-ad59-f4eda49ba117","system_id":"levelo_inurba_marseille","lat":43.231867,"lon":5.399846,"is_reserved":false,"is_disabled":false,"rental_uris":{"android":"levelo://app?vid=712f1c4d-f153-4002-ad59-f4eda49ba117","ios":"levelo://app?vid=712f1c4d-f153-4002-ad59-f4eda49ba117"},"vehicle_type_id":"4","last_reported":1747452734,"current_range_meters":16800,"station_id":"ce4bhn12rcd13ifvqgqg","pricing_plan_id":"cebpf4jnsgd1na2vs0mg"},{"bike_id":"080da10f-73c7-4342-93c6-97e1aeac391e","system_id":"levelo_inurba_marseille","lat":43.239563,"lon":5.366275,"is_reserved":false,"is_disabled":true,"rental_uris":{"android":"levelo://app?vid=080da10f-73c7-4342-93c6-97e1aeac391e","ios":"levelo://app?vid=080da10f-73c7-4342-93c6-97e1aeac391e"},"vehicle_type_id":"4","last_reported":1747452734,"current_range_meters":16800,"station_id":"ce4bhi12rcd13ifvqfp0","pricing_plan_id":"cebpf4jnsgd1na2vs0mg"},{"bike_id":"d6823399-2013-4d54-9448-71dc92332025","system_id":"levelo_inurba_marseille","lat":43.308,"lon":5.38164,"is_reserved":false,"is_disabled":false,"rental_uris":{"android":"levelo://app?vid=d6823399-2013-4d54-9448-71dc92332025","ios":"levelo://app?vid=d6823399-2013-4d54-9448-71dc92332025"},"vehicle_type_id":"4","last_reported":1747452734,"current_range_meters":16400,"station_id":"ce4bgt12rcd13ifvqce0","pricing_plan_id":"cebpf4jnsgd1na2vs0mg"},{"bike_id":"4780a3b7-4f2f-4d1d-bb55-8c575bef1fd3","system_id":"levelo_inurba_marseille","lat":43.323575,"lon":5.40595,"is_reserved":false,"is_disabled":false,"rental_uris":{"android":"levelo://app?vid=4780a3b7-4f2f-4d1d-bb55-8c575bef1fd3","ios":"levelo://app?vid=4780a3b7-4f2f-4d1d-bb55-8c575bef1fd3"},"vehicle_type_id":"4","last_reported":1747452734,"current_range_meters":16800,"station_id":"ce4bhq92rcd13ifvqhjg","pricing_plan_id":"cebpf4jnsgd1na2vs0mg"},{"bike_id":"32ec5a9f-ba0d-4d6d-ba18-8446403a4522","system_id":"levelo_inurba_marseille","lat":43.28276,"lon":5.35071,"is_reserved":false,"is_disabled":true,"rental_uris":{"android":"levelo://app?vid=32ec5a9f-ba0d-4d6d-ba18-8446403a4522","ios":"levelo://app?vid=32ec5a9f-ba0d-4d6d-ba18-8446403a4522"},"vehicle_type_id":"4","last_reported":1747452734,"current_range_meters":16800,"station_id":"ce4bhbp2rcd13ifvqerg","pricing_plan_id":"cebpf4jnsgd1na2vs0mg"},{"bike_id":"86c832c5-9a03-4a84-82ff-03a412f37003","system_id":"levelo_inurba_marseille","lat":43.303199,"lon":5.404473,"is_reserved":false,"is_disabled":false,"rental_uris":{"android":"levelo://app?vid=86c832c5-9a03-4a84-82ff-03a412f37003","ios":"levelo://app?vid=86c832c5-9a03-4a84-82ff-03a412f37003"},"vehicle_type_id":"4","last_reported":1747452734,"current_range_meters":16800,"station_id":"ce4bh012rcd13ifvqd10","pricing_plan_id":"cebpf4jnsgd1na2vs0mg"},{"bike_id":"465ca380-6a0b-4a53-aac8-6d66ff8ad361","system_id":"levelo_inurba_marseille","lat":43.279192,"lon":5.395876,"is_reserved":false,"is_disabled":false,"rental_uris":{"android":"levelo://app?vid=465ca380-6a0b-4a53-aac8-6d66ff8ad361","ios":"levelo://app?vid=465ca380-6a0b-4a53-aac8-6d66ff8ad361"},"vehicle_type_id":"4","last_reported":1747452734,"current_range_meters":16800,"station_id":"ce4bhf92rcd13ifvqf40","pricing_plan_id":"cebpf4jnsgd1na2vs0mg"},{"bike_id":"194f17c8-93f0-4ff7-9d7b-60238225a3ec","system_id":"levelo_inurba_marseille","lat":43.261601,"lon":5.42079,"is_reserved":false,"is_disabled":false,"rental_uris":{"android":"levelo://app?vid=194f17c8-93f0-4ff7-9d7b-60238225a3ec","ios":"levelo://app?vid=194f17c8-93f0-4ff7-9d7b-60238225a3ec"},"vehicle_type_id":"4","last_reported":1747452734,"current_range_meters":16800,"station_id":"","pricing_plan_id":"cebpf4jnsgd1na2vs0mg"},{"bike_id":"78440c17-fbe9-4d77-95f8-1c1592c3d408","system_id":"levelo_inurba_marseille","lat":43.290247,"lon":5.381401,"is_reserved":false,"is_disabled":true,"rental_uris":{"android":"levelo://app?vid=78440c17-fbe9-4d77-95f8-1c1592c3d408","ios":"levelo://app?vid=78440c17-fbe9-4d77-95f8-1c1592c3d408"},"vehicle_type_id":"4","last_reported":1747452734,"current_range_meters":16800,"station_id":"ce4bh4p2rcd13ifvqe1g","pricing_plan_id":"cebpf4jnsgd1na2vs0mg"},{"bike_id":"78338216-0a2b-4e99-8b78-cff8b95a208b","system_id":"levelo_inurba_marseille","lat":43.23572,"lon":5.4033,"is_reserved":false,"is_disabled":false,"rental_uris":{"android":"levelo://app?vid=78338216-0a2b-4e99-8b78-cff8b95a208b","ios":"levelo://app?vid=78338216-0a2b-4e99-8b78-cff8b95a208b"},"vehicle_type_id":"4","last_reported":1747452734,"current_range_meters":17200,"station_id":"","pricing_plan_id":"cebpf4jnsgd1na2vs0mg"},{"bike_id":"79f89832-f9a8-4a23-a4f7-88a9cbc43f00","system_id":"levelo_inurba_marseille","lat":43.30234,"lon":5.40047,"is_reserved":false,"is_disabled":false,"rental_uris":{"android":"levelo://app?vid=79f89832-f9a8-4a23-a4f7-88a9cbc43f00","ios":"levelo://app?vid=79f89832-f9a8-4a23-a4f7-88a9cbc43f00"},"vehicle_type_id":"4","last_reported":1747452734,"current_range_meters":17200,"station_id":"ce4bgvh2rcd13ifvqcs0","pricing_plan_id":"cebpf4jnsgd1na2vs0mg"},{"bike_id":"70fee472-8240-4097-ba7f-33fe96fcac86","system_id":"levelo_inurba_marseille","lat":43.241759,"lon":5.397155,"is_reserved":false,"is_disabled":true,"rental_uris":{"android":"levelo://app?vid=70fee472-8240-4097-ba7f-33fe96fcac86","ios":"levelo://app?vid=70fee472-8240-4097-ba7f-33fe96fcac86"},"vehicle_type_id":"4","last_reported":1747452734,"current_range_meters":17200,"station_id":"ce4bhn12rcd13ifvqgpg","pricing_plan_id":"cebpf4jnsgd1na2vs0mg"},{"bike_id":"68ee3009-64a1-448f-9ea4-b92afbdf610e","system_id":"levelo_inurba_marseille","lat":43.27824,"lon":5.39209,"is_reserved":false,"is_disabled":false,"rental_uris":{"android":"levelo://app?vid=68ee3009-64a1-448f-9ea4-b92afbdf610e","ios":"levelo://app?vid=68ee3009-64a1-448f-9ea4-b92afbdf610e"},"vehicle_type_id":"4","last_reported":1747452734,"current_range_meters":17200,"station_id":"ce4bhjp2rcd13ifvqga0","pricing_plan_id":"cebpf4jnsgd1na2vs0mg"},{"bike_id":"6959522a-bd59-4233-a378-b798da685450","system_id":"levelo_inurba_marseille","lat":43.241644,"lon":5.363917,"is_reserved":false,"is_disabled":false,"rental_uris":{"android":"levelo://app?vid=6959522a-bd59-4233-a378-b798da685450","ios":"levelo://app?vid=6959522a-bd59-4233-a378-b798da685450"},"vehicle_type_id":"4","last_reported":1747452734,"current_range_meters":17200,"station_id":"cpo36qri1sfpv3e86is0","pricing_plan_id":"cebpf4jnsgd1na2vs0mg"},{"bike_id":"ca850a98-a37e-4dbb-bcbd-8b76b4444a40","system_id":"levelo_inurba_marseille","lat":43.30902,"lon":5.39644,"is_reserved":false,"is_disabled":false,"rental_uris":{"android":"levelo://app?vid=ca850a98-a37e-4dbb-bcbd-8b76b4444a40","ios":"levelo://app?vid=ca850a98-a37e-4dbb-bcbd-8b76b4444a40"},"vehicle_type_id":"4","last_reported":1747452734,"current_range_meters":17600,"station_id":"ce4bh012rcd13ifvqcv0","pricing_plan_id":"cebpf4jnsgd1na2vs0mg"},{"bike_id":"f14ff356-705b-4c10-9776-0a9fbf94763f","system_id":"levelo_inurba_marseille","lat":43.282088,"lon":5.390494,"is_reserved":false,"is_disabled":false,"rental_uris":{"android":"levelo://app?vid=f14ff356-705b-4c10-9776-0a9fbf94763f","ios":"levelo://app?vid=f14ff356-705b-4c10-9776-0a9fbf94763f"},"vehicle_type_id":"4","last_reported":1747452734,"current_range_meters":17600,"station_id":"","pricing_plan_id":"cebpf4jnsgd1na2vs0mg"},{"bike_id":"a60091fb-67be-4143-adba-b952efda2e80","system_id":"levelo_inurba_marseille","lat":43.23181,"lon":5.39997,"is_reserved":false,"is_disabled":false,"rental_uris":{"android":"levelo://app?vid=a60091fb-67be-4143-adba-b952efda2e80","ios":"levelo://app?vid=a60091fb-67be-4143-adba-b952efda2e80"},"vehicle_type_id":"4","last_reported":1747452734,"current_range_meters":17600,"station_id":"ce4bhn12rcd13ifvqgqg","pricing_plan_id":"cebpf4jnsgd1na2vs0mg"},{"bike_id":"eeba79b8-1813-484e-b68c-4c7a8dea3f27","system_id":"levelo_inurba_marseille","lat":43.300152,"lon":5.372284,"is_reserved":false,"is_disabled":false,"rental_uris":{"android":"levelo://app?vid=eeba79b8-1813-484e-b68c-4c7a8dea3f27","ios":"levelo://app?vid=eeba79b8-1813-484e-b68c-4c7a8dea3f27"},"vehicle_type_id":"4","last_reported":1747452734,"current_range_meters":17600,"station_id":"","pricing_plan_id":"cebpf4jnsgd1na2vs0mg"},{"bike_id":"e335c809-d011-47c6-9bb0-783ebe71968b","system_id":"levelo_inurba_marseille","lat":43.325433,"lon":5.41433,"is_reserved":false,"is_disabled":false,"rental_uris":{"android":"levelo://app?vid=e335c809-d011-47c6-9bb0-783ebe71968b","ios":"levelo://app?vid=e335c809-d011-47c6-9bb0-783ebe71968b"},"vehicle_type_id":"4","last_reported":1747452734,"current_range_meters":17600,"station_id":"ce4bhq12rcd13ifvqhhg","pricing_plan_id":"cebpf4jnsgd1na2vs0mg"},{"bike_id":"ffacb92f-e7c4-4fb2-af44-92ebc0f906c1","system_id":"levelo_inurba_marseille","lat":43.30887,"lon":5.396553,"is_reserved":false,"is_disabled":false,"rental_uris":{"android":"levelo://app?vid=ffacb92f-e7c4-4fb2-af44-92ebc0f906c1","ios":"levelo://app?vid=ffacb92f-e7c4-4fb2-af44-92ebc0f906c1"},"vehicle_type_id":"4","last_reported":1747452734,"current_range_meters":17600,"station_id":"ce4bh012rcd13ifvqcv0","pricing_plan_id":"cebpf4jnsgd1na2vs0mg"},{"bike_id":"23b2467f-eeda-44af-8c9b-9dfae9f54074","system_id":"levelo_inurba_marseille","lat":43.2994,"lon":5.36519,"is_reserved":false,"is_disabled":false,"rental_uris":{"android":"levelo://app?vid=23b2467f-eeda-44af-8c9b-9dfae9f54074","ios":"levelo://app?vid=23b2467f-eeda-44af-8c9b-9dfae9f54074"},"vehicle_type_id":"4","last_reported":1747452734,"current_range_meters":17600,"station_id":"ce4bgm92rcd13ifvqbr0","pricing_plan_id":"cebpf4jnsgd1na2vs0mg"},{"bike_id":"efd0c986-76dc-485b-8a83-afbcec4f2a16","system_id":"levelo_inurba_marseille","lat":43.23826,"lon":5.37336,"is_reserved":false,"is_disabled":false,"rental_uris":{"android":"levelo://app?vid=efd0c986-76dc-485b-8a83-afbcec4f2a16","ios":"levelo://app?vid=efd0c986-76dc-485b-8a83-afbcec4f2a16"},"vehicle_type_id":"4","last_reported":1747452734,"current_range_meters":17600,"station_id":"","pricing_plan_id":"cebpf4jnsgd1na2vs0mg"},{"bike_id":"f0fd5797-c342-4c32-8182-108683970633","system_id":"levelo_inurba_marseille","lat":43.30256,"lon":5.4005,"is_reserved":false,"is_disabled":false,"rental_uris":{"android":"levelo://app?vid=f0fd5797-c342-4c32-8182-108683970633","ios":"levelo://app?vid=f0fd5797-c342-4c32-8182-108683970633"},"vehicle_type_id":"4","last_reported":1747452734,"current_range_meters":17200,"station_id":"ce4bgvh2rcd13ifvqcs0","pricing_plan_id":"cebpf4jnsgd1na2vs0mg"},{"bike_id":"edd12218-8475-4e8d-b63e-0814f4946c70","system_id":"levelo_inurba_marseille","lat":43.32336,"lon":5.406274,"is_reserved":false,"is_disabled":false,"rental_uris":{"android":"levelo://app?vid=edd12218-8475-4e8d-b63e-0814f4946c70","ios":"levelo://app?vid=edd12218-8475-4e8d-b63e-0814f4946c70"},"vehicle_type_id":"4","last_reported":1747452734,"current_range_meters":18000,"station_id":"ce4bhq92rcd13ifvqhjg","pricing_plan_id":"cebpf4jnsgd1na2vs0mg"},{"bike_id":"b26a0dd7-cbdc-4ab7-8def-31c4b88b224a","system_id":"levelo_inurba_marseille","lat":43.31207,"lon":5.39267,"is_reserved":false,"is_disabled":false,"rental_uris":{"android":"levelo://app?vid=b26a0dd7-cbdc-4ab7-8def-31c4b88b224a","ios":"levelo://app?vid=b26a0dd7-cbdc-4ab7-8def-31c4b88b224a"},"vehicle_type_id":"4","last_reported":1747452734,"current_range_meters":18800,"station_id":"","pricing_plan_id":"cebpf4jnsgd1na2vs0mg"},{"bike_id":"89052c1b-e95c-422c-8ad1-9f017da0c226","system_id":"levelo_inurba_marseille","lat":43.286646,"lon":5.363502,"is_reserved":false,"is_disabled":false,"rental_uris":{"android":"levelo://app?vid=89052c1b-e95c-422c-8ad1-9f017da0c226","ios":"levelo://app?vid=89052c1b-e95c-422c-8ad1-9f017da0c226"},"vehicle_type_id":"4","last_reported":1747452734,"current_range_meters":18000,"station_id":"ce4bhah2rcd13ifvqej0","pricing_plan_id":"cebpf4jnsgd1na2vs0mg"},{"bike_id":"2df91c1e-bae9-4f77-8ed6-a464e92c0f2d","system_id":"levelo_inurba_marseille","lat":43.28422,"lon":5.392107,"is_reserved":false,"is_disabled":false,"rental_uris":{"android":"levelo://app?vid=2df91c1e-bae9-4f77-8ed6-a464e92c0f2d","ios":"levelo://app?vid=2df91c1e-bae9-4f77-8ed6-a464e92c0f2d"},"vehicle_type_id":"4","last_reported":1747452734,"current_range_meters":18000,"station_id":"ce4bhoh2rcd13ifvqh5g","pricing_plan_id":"cebpf4jnsgd1na2vs0mg"},{"bike_id":"680ad79b-8e27-425b-b231-fcdfb6e8e2ae","system_id":"levelo_inurba_marseille","lat":43.286671,"lon":5.363451,"is_reserved":false,"is_disabled":false,"rental_uris":{"android":"levelo://app?vid=680ad79b-8e27-425b-b231-fcdfb6e8e2ae","ios":"levelo://app?vid=680ad79b-8e27-425b-b231-fcdfb6e8e2ae"},"vehicle_type_id":"4","last_reported":1747452734,"current_range_meters":18000,"station_id":"ce4bhah2rcd13ifvqej0","pricing_plan_id":"cebpf4jnsgd1na2vs0mg"},{"bike_id":"ea85b944-994c-4259-bb8a-f30ee3f8e132","system_id":"levelo_inurba_marseille","lat":43.30335,"lon":5.392347,"is_reserved":false,"is_disabled":false,"rental_uris":{"android":"levelo://app?vid=ea85b944-994c-4259-bb8a-f30ee3f8e132","ios":"levelo://app?vid=ea85b944-994c-4259-bb8a-f30ee3f8e132"},"vehicle_type_id":"4","last_reported":1747452734,"current_range_meters":18000,"station_id":"ce4bgkh2rcd13ifvqbk0","pricing_plan_id":"cebpf4jnsgd1na2vs0mg"},{"bike_id":"3767d503-54e2-4eb9-93cc-013f82ca0161","system_id":"levelo_inurba_marseille","lat":43.29758,"lon":5.4601,"is_reserved":false,"is_disabled":false,"rental_uris":{"android":"levelo://app?vid=3767d503-54e2-4eb9-93cc-013f82ca0161","ios":"levelo://app?vid=3767d503-54e2-4eb9-93cc-013f82ca0161"},"vehicle_type_id":"4","last_reported":1747452734,"current_range_meters":18000,"station_id":"","pricing_plan_id":"cebpf4jnsgd1na2vs0mg"},{"bike_id":"d55f9225-e6ff-4e45-92e4-2cc2ba495a7c","system_id":"levelo_inurba_marseille","lat":43.308633,"lon":5.382708,"is_reserved":false,"is_disabled":false,"rental_uris":{"android":"levelo://app?vid=d55f9225-e6ff-4e45-92e4-2cc2ba495a7c","ios":"levelo://app?vid=d55f9225-e6ff-4e45-92e4-2cc2ba495a7c"},"vehicle_type_id":"4","last_reported":1747452734,"current_range_meters":18000,"station_id":"","pricing_plan_id":"cebpf4jnsgd1na2vs0mg"},{"bike_id":"296481d9-ac5b-41e5-b3a7-2556863503ea","system_id":"levelo_inurba_marseille","lat":43.29899,"lon":5.43688,"is_reserved":false,"is_disabled":false,"rental_uris":{"android":"levelo://app?vid=296481d9-ac5b-41e5-b3a7-2556863503ea","ios":"levelo://app?vid=296481d9-ac5b-41e5-b3a7-2556863503ea"},"vehicle_type_id":"4","last_reported":1747452734,"current_range_meters":18000,"station_id":"ce4bhpp2rcd13ifvqhfg","pricing_plan_id":"cebpf4jnsgd1na2vs0mg"},{"bike_id":"6f7a4d76-1c80-4b93-8ac3-7a90d7068e36","system_id":"levelo_inurba_marseille","lat":43.29938,"lon":5.37622,"is_reserved":false,"is_disabled":true,"rental_uris":{"android":"levelo://app?vid=6f7a4d76-1c80-4b93-8ac3-7a90d7068e36","ios":"levelo://app?vid=6f7a4d76-1c80-4b93-8ac3-7a90d7068e36"},"vehicle_type_id":"4","last_reported":1747452734,"current_range_meters":18000,"station_id":"","pricing_plan_id":"cebpf4jnsgd1na2vs0mg"},{"bike_id":"36e412fc-5676-428c-8273-57542e182c3f","system_id":"levelo_inurba_marseille","lat":43.306479,"lon":5.400813,"is_reserved":false,"is_disabled":false,"rental_uris":{"android":"levelo://app?vid=36e412fc-5676-428c-8273-57542e182c3f","ios":"levelo://app?vid=36e412fc-5676-428c-8273-57542e182c3f"},"vehicle_type_id":"4","last_reported":1747452734,"current_range_meters":17600,"station_id":"ce4bh112rcd13ifvqda0","pricing_plan_id":"cebpf4jnsgd1na2vs0mg"},{"bike_id":"340a4fe5-eac8-4a55-b2c3-9be6dff0317a","system_id":"levelo_inurba_marseille","lat":43.30247,"lon":5.40085,"is_reserved":false,"is_disabled":false,"rental_uris":{"android":"levelo://app?vid=340a4fe5-eac8-4a55-b2c3-9be6dff0317a","ios":"levelo://app?vid=340a4fe5-eac8-4a55-b2c3-9be6dff0317a"},"vehicle_type_id":"4","last_reported":1747452734,"current_range_meters":18000,"station_id":"ce4bgvh2rcd13ifvqcs0","pricing_plan_id":"cebpf4jnsgd1na2vs0mg"},{"bike_id":"4966fac8-6666-4093-b4f2-55757c54b7ef","system_id":"levelo_inurba_marseille","lat":43.27951,"lon":5.38699,"is_reserved":false,"is_disabled":false,"rental_uris":{"android":"levelo://app?vid=4966fac8-6666-4093-b4f2-55757c54b7ef","ios":"levelo://app?vid=4966fac8-6666-4093-b4f2-55757c54b7ef"},"vehicle_type_id":"4","last_reported":1747452734,"current_range_meters":18000,"station_id":"ce4bhg12rcd13ifvqf80","pricing_plan_id":"cebpf4jnsgd1na2vs0mg"},{"bike_id":"b071020f-c99f-46ed-97ba-db34ed9f69b9","system_id":"levelo_inurba_marseille","lat":43.32997,"lon":5.438695,"is_reserved":false,"is_disabled":false,"rental_uris":{"android":"levelo://app?vid=b071020f-c99f-46ed-97ba-db34ed9f69b9","ios":"levelo://app?vid=b071020f-c99f-46ed-97ba-db34ed9f69b9"},"vehicle_type_id":"4","last_reported":1747452734,"current_range_meters":19200,"station_id":"","pricing_plan_id":"cebpf4jnsgd1na2vs0mg"},{"bike_id":"6fcfd778-53a8-4a73-9e9b-098ea75e4fbe","system_id":"levelo_inurba_marseille","lat":43.27068,"lon":5.42279,"is_reserved":false,"is_disabled":true,"rental_uris":{"android":"levelo://app?vid=6fcfd778-53a8-4a73-9e9b-098ea75e4fbe","ios":"levelo://app?vid=6fcfd778-53a8-4a73-9e9b-098ea75e4fbe"},"vehicle_type_id":"4","last_reported":1747452734,"current_range_meters":18800,"station_id":"ce4bhk92rcd13ifvqgb0","pricing_plan_id":"cebpf4jnsgd1na2vs0mg"},{"bike_id":"ab6aa951-7625-44e7-b6b7-6f24e470d046","system_id":"levelo_inurba_marseille","lat":43.317074,"lon":5.377516,"is_reserved":false,"is_disabled":false,"rental_uris":{"android":"levelo://app?vid=ab6aa951-7625-44e7-b6b7-6f24e470d046","ios":"levelo://app?vid=ab6aa951-7625-44e7-b6b7-6f24e470d046"},"vehicle_type_id":"4","last_reported":1747452734,"current_range_meters":18000,"station_id":"ce4bgth2rcd13ifvqch0","pricing_plan_id":"cebpf4jnsgd1na2vs0mg"},{"bike_id":"cbf5a926-a14e-49e1-ac53-9e81acb40398","system_id":"levelo_inurba_marseille","lat":43.248109,"lon":5.374595,"is_reserved":false,"is_disabled":false,"rental_uris":{"android":"levelo://app?vid=cbf5a926-a14e-49e1-ac53-9e81acb40398","ios":"levelo://app?vid=cbf5a926-a14e-49e1-ac53-9e81acb40398"},"vehicle_type_id":"4","last_reported":1747452734,"current_range_meters":18800,"station_id":"ce4bhgh2rcd13ifvqfb0","pricing_plan_id":"cebpf4jnsgd1na2vs0mg"},{"bike_id":"ead797de-c09c-4be8-9b1a-317c3cd70450","system_id":"levelo_inurba_marseille","lat":43.31171,"lon":5.38726,"is_reserved":false,"is_disabled":false,"rental_uris":{"android":"levelo://app?vid=ead797de-c09c-4be8-9b1a-317c3cd70450","ios":"levelo://app?vid=ead797de-c09c-4be8-9b1a-317c3cd70450"},"vehicle_type_id":"4","last_reported":1747452734,"current_range_meters":18000,"station_id":"ce4bgv12rcd13ifvqcp0","pricing_plan_id":"cebpf4jnsgd1na2vs0mg"},{"bike_id":"ae379463-bd7d-46a1-9335-5d1bd7e44759","system_id":"levelo_inurba_marseille","lat":43.30739,"lon":5.42464,"is_reserved":false,"is_disabled":true,"rental_uris":{"android":"levelo://app?vid=ae379463-bd7d-46a1-9335-5d1bd7e44759","ios":"levelo://app?vid=ae379463-bd7d-46a1-9335-5d1bd7e44759"},"vehicle_type_id":"4","last_reported":1747452734,"current_range_meters":18800,"station_id":"st_cvj6ca6bvosntc0bfgr0","pricing_plan_id":"cebpf4jnsgd1na2vs0mg"},{"bike_id":"392869e9-ed4a-4455-841c-24d69bd07e03","system_id":"levelo_inurba_marseille","lat":43.250913,"lon":5.395145,"is_reserved":false,"is_disabled":false,"rental_uris":{"android":"levelo://app?vid=392869e9-ed4a-4455-841c-24d69bd07e03","ios":"levelo://app?vid=392869e9-ed4a-4455-841c-24d69bd07e03"},"vehicle_type_id":"4","last_reported":1747452734,"current_range_meters":18800,"station_id":"ce4bhm12rcd13ifvqgkg","pricing_plan_id":"cebpf4jnsgd1na2vs0mg"},{"bike_id":"cabd019c-cb2b-473a-8649-041e5b90387f","system_id":"levelo_inurba_marseille","lat":43.255696,"lon":5.382416,"is_reserved":false,"is_disabled":true,"rental_uris":{"android":"levelo://app?vid=cabd019c-cb2b-473a-8649-041e5b90387f","ios":"levelo://app?vid=cabd019c-cb2b-473a-8649-041e5b90387f"},"vehicle_type_id":"4","last_reported":1747452734,"current_range_meters":18800,"station_id":"ce4bhih2rcd13ifvqfs0","pricing_plan_id":"cebpf4jnsgd1na2vs0mg"},{"bike_id":"5e6b40b8-d296-4bf0-afc5-64afa04a82e7","system_id":"levelo_inurba_marseille","lat":43.30954,"lon":5.40476,"is_reserved":false,"is_disabled":false,"rental_uris":{"android":"levelo://app?vid=5e6b40b8-d296-4bf0-afc5-64afa04a82e7","ios":"levelo://app?vid=5e6b40b8-d296-4bf0-afc5-64afa04a82e7"},"vehicle_type_id":"4","last_reported":1747452734,"current_range_meters":18800,"station_id":"","pricing_plan_id":"cebpf4jnsgd1na2vs0mg"},{"bike_id":"699d068d-8fbb-40ec-9df0-b007af55d5b2","system_id":"levelo_inurba_marseille","lat":43.32345,"lon":5.40608,"is_reserved":false,"is_disabled":false,"rental_uris":{"android":"levelo://app?vid=699d068d-8fbb-40ec-9df0-b007af55d5b2","ios":"levelo://app?vid=699d068d-8fbb-40ec-9df0-b007af55d5b2"},"vehicle_type_id":"4","last_reported":1747452734,"current_range_meters":19200,"station_id":"ce4bhq92rcd13ifvqhjg","pricing_plan_id":"cebpf4jnsgd1na2vs0mg"},{"bike_id":"6cc6e4c8-8c85-4b94-86d2-be3d819c5558","system_id":"levelo_inurba_marseille","lat":43.292534,"lon":5.409201,"is_reserved":false,"is_disabled":false,"rental_uris":{"android":"levelo://app?vid=6cc6e4c8-8c85-4b94-86d2-be3d819c5558","ios":"levelo://app?vid=6cc6e4c8-8c85-4b94-86d2-be3d819c5558"},"vehicle_type_id":"4","last_reported":1747452734,"current_range_meters":18800,"station_id":"ce4bh192rcd13ifvqdc0","pricing_plan_id":"cebpf4jnsgd1na2vs0mg"},{"bike_id":"6ccfee9b-95d9-4d50-a485-40713109e31a","system_id":"levelo_inurba_marseille","lat":43.231898,"lon":5.399786,"is_reserved":false,"is_disabled":false,"rental_uris":{"android":"levelo://app?vid=6ccfee9b-95d9-4d50-a485-40713109e31a","ios":"levelo://app?vid=6ccfee9b-95d9-4d50-a485-40713109e31a"},"vehicle_type_id":"4","last_reported":1747452734,"current_range_meters":19200,"station_id":"ce4bhn12rcd13ifvqgqg","pricing_plan_id":"cebpf4jnsgd1na2vs0mg"},{"bike_id":"8268a799-2bb7-4ed9-81d2-101dc9206646","system_id":"levelo_inurba_marseille","lat":43.25131,"lon":5.4034,"is_reserved":false,"is_disabled":false,"rental_uris":{"android":"levelo://app?vid=8268a799-2bb7-4ed9-81d2-101dc9206646","ios":"levelo://app?vid=8268a799-2bb7-4ed9-81d2-101dc9206646"},"vehicle_type_id":"4","last_reported":1747452734,"current_range_meters":19200,"station_id":"ce4bhlh2rcd13ifvqgig","pricing_plan_id":"cebpf4jnsgd1na2vs0mg"},{"bike_id":"3eb6b8ed-6f3e-4cd0-be44-7414bacfa2f9","system_id":"levelo_inurba_marseille","lat":43.303234,"lon":5.386036,"is_reserved":false,"is_disabled":true,"rental_uris":{"android":"levelo://app?vid=3eb6b8ed-6f3e-4cd0-be44-7414bacfa2f9","ios":"levelo://app?vid=3eb6b8ed-6f3e-4cd0-be44-7414bacfa2f9"},"vehicle_type_id":"4","last_reported":1747452734,"current_range_meters":19200,"station_id":"","pricing_plan_id":"cebpf4jnsgd1na2vs0mg"},{"bike_id":"c734f66f-5037-47ce-b476-1761c5a56348","system_id":"levelo_inurba_marseille","lat":43.305413,"lon":5.367622,"is_reserved":false,"is_disabled":false,"rental_uris":{"android":"levelo://app?vid=c734f66f-5037-47ce-b476-1761c5a56348","ios":"levelo://app?vid=c734f66f-5037-47ce-b476-1761c5a56348"},"vehicle_type_id":"4","last_reported":1747452734,"current_range_meters":19200,"station_id":"ce4bgrp2rcd13ifvqc9g","pricing_plan_id":"cebpf4jnsgd1na2vs0mg"},{"bike_id":"6d4856a2-270a-456c-acd2-ce98be99da41","system_id":"levelo_inurba_marseille","lat":43.284805,"lon":5.384295,"is_reserved":false,"is_disabled":true,"rental_uris":{"android":"levelo://app?vid=6d4856a2-270a-456c-acd2-ce98be99da41","ios":"levelo://app?vid=6d4856a2-270a-456c-acd2-ce98be99da41"},"vehicle_type_id":"4","last_reported":1747452734,"current_range_meters":19600,"station_id":"ce4bh512rcd13ifvqe3g","pricing_plan_id":"cebpf4jnsgd1na2vs0mg"},{"bike_id":"a89ef3f0-3fcc-4f75-a1fa-dffb133acf8f","system_id":"levelo_inurba_marseille","lat":43.30263,"lon":5.40432,"is_reserved":false,"is_disabled":false,"rental_uris":{"android":"levelo://app?vid=a89ef3f0-3fcc-4f75-a1fa-dffb133acf8f","ios":"levelo://app?vid=a89ef3f0-3fcc-4f75-a1fa-dffb133acf8f"},"vehicle_type_id":"4","last_reported":1747452734,"current_range_meters":19200,"station_id":"ce4bh012rcd13ifvqd10","pricing_plan_id":"cebpf4jnsgd1na2vs0mg"},{"bike_id":"fcaeefda-0dda-417a-bcc1-0a4dbdcf45c9","system_id":"levelo_inurba_marseille","lat":43.270721,"lon":5.422762,"is_reserved":false,"is_disabled":false,"rental_uris":{"android":"levelo://app?vid=fcaeefda-0dda-417a-bcc1-0a4dbdcf45c9","ios":"levelo://app?vid=fcaeefda-0dda-417a-bcc1-0a4dbdcf45c9"},"vehicle_type_id":"4","last_reported":1747452734,"current_range_meters":19200,"station_id":"ce4bhk92rcd13ifvqgb0","pricing_plan_id":"cebpf4jnsgd1na2vs0mg"},{"bike_id":"f587f719-cf5b-47b9-a008-0776df33f44c","system_id":"levelo_inurba_marseille","lat":43.29571,"lon":5.39968,"is_reserved":false,"is_disabled":false,"rental_uris":{"android":"levelo://app?vid=f587f719-cf5b-47b9-a008-0776df33f44c","ios":"levelo://app?vid=f587f719-cf5b-47b9-a008-0776df33f44c"},"vehicle_type_id":"4","last_reported":1747452734,"current_range_meters":18800,"station_id":"ce4bh312rcd13ifvqdj0","pricing_plan_id":"cebpf4jnsgd1na2vs0mg"},{"bike_id":"5b22c96d-1b61-436e-a53c-3fef0e6c3965","system_id":"levelo_inurba_marseille","lat":43.30951,"lon":5.40157,"is_reserved":false,"is_disabled":false,"rental_uris":{"android":"levelo://app?vid=5b22c96d-1b61-436e-a53c-3fef0e6c3965","ios":"levelo://app?vid=5b22c96d-1b61-436e-a53c-3fef0e6c3965"},"vehicle_type_id":"4","last_reported":1747452734,"current_range_meters":19200,"station_id":"ce4bgvp2rcd13ifvqct0","pricing_plan_id":"cebpf4jnsgd1na2vs0mg"},{"bike_id":"bb064e1d-8afd-4edf-97ec-376107650d6a","system_id":"levelo_inurba_marseille","lat":43.282798,"lon":5.350622,"is_reserved":false,"is_disabled":false,"rental_uris":{"android":"levelo://app?vid=bb064e1d-8afd-4edf-97ec-376107650d6a","ios":"levelo://app?vid=bb064e1d-8afd-4edf-97ec-376107650d6a"},"vehicle_type_id":"4","last_reported":1747452734,"current_range_meters":19600,"station_id":"ce4bhbp2rcd13ifvqerg","pricing_plan_id":"cebpf4jnsgd1na2vs0mg"},{"bike_id":"e1291dda-99b5-4759-85d1-03c344292341","system_id":"levelo_inurba_marseille","lat":43.317651,"lon":5.390193,"is_reserved":false,"is_disabled":false,"rental_uris":{"android":"levelo://app?vid=e1291dda-99b5-4759-85d1-03c344292341","ios":"levelo://app?vid=e1291dda-99b5-4759-85d1-03c344292341"},"vehicle_type_id":"4","last_reported":1747452734,"current_range_meters":19600,"station_id":"ce4bhqp2rcd13ifvqhng","pricing_plan_id":"cebpf4jnsgd1na2vs0mg"},{"bike_id":"f30a9611-cada-44fd-b78d-eb49cd053e3f","system_id":"levelo_inurba_marseille","lat":43.316905,"lon":5.404667,"is_reserved":false,"is_disabled":false,"rental_uris":{"android":"levelo://app?vid=f30a9611-cada-44fd-b78d-eb49cd053e3f","ios":"levelo://app?vid=f30a9611-cada-44fd-b78d-eb49cd053e3f"},"vehicle_type_id":"4","last_reported":1747452734,"current_range_meters":20000,"station_id":"ce4bh012rcd13ifvqd00","pricing_plan_id":"cebpf4jnsgd1na2vs0mg"},{"bike_id":"978b6893-0652-4fdd-acc0-87ab82fb9f0c","system_id":"levelo_inurba_marseille","lat":43.24537,"lon":5.39534,"is_reserved":false,"is_disabled":false,"rental_uris":{"android":"levelo://app?vid=978b6893-0652-4fdd-acc0-87ab82fb9f0c","ios":"levelo://app?vid=978b6893-0652-4fdd-acc0-87ab82fb9f0c"},"vehicle_type_id":"4","last_reported":1747452734,"current_range_meters":19600,"station_id":"ce4bhlp2rcd13ifvqgjg","pricing_plan_id":"cebpf4jnsgd1na2vs0mg"},{"bike_id":"b58a1e47-a8fe-44d9-868c-9c409c7156f2","system_id":"levelo_inurba_marseille","lat":43.26083,"lon":5.3939,"is_reserved":false,"is_disabled":false,"rental_uris":{"android":"levelo://app?vid=b58a1e47-a8fe-44d9-868c-9c409c7156f2","ios":"levelo://app?vid=b58a1e47-a8fe-44d9-868c-9c409c7156f2"},"vehicle_type_id":"4","last_reported":1747452734,"current_range_meters":19600,"station_id":"ce4bhh92rcd13ifvqfj0","pricing_plan_id":"cebpf4jnsgd1na2vs0mg"},{"bike_id":"3eacf02e-f6f6-4d58-9549-81b9dd836990","system_id":"levelo_inurba_marseille","lat":43.308887,"lon":5.396519,"is_reserved":false,"is_disabled":false,"rental_uris":{"android":"levelo://app?vid=3eacf02e-f6f6-4d58-9549-81b9dd836990","ios":"levelo://app?vid=3eacf02e-f6f6-4d58-9549-81b9dd836990"},"vehicle_type_id":"4","last_reported":1747452734,"current_range_meters":19600,"station_id":"ce4bh012rcd13ifvqcv0","pricing_plan_id":"cebpf4jnsgd1na2vs0mg"},{"bike_id":"bbab3762-7d26-4330-894f-81087414b67c","system_id":"levelo_inurba_marseille","lat":43.29722,"lon":5.37701,"is_reserved":false,"is_disabled":false,"rental_uris":{"android":"levelo://app?vid=bbab3762-7d26-4330-894f-81087414b67c","ios":"levelo://app?vid=bbab3762-7d26-4330-894f-81087414b67c"},"vehicle_type_id":"4","last_reported":1747452734,"current_range_meters":19200,"station_id":"ce4bgkh2rcd13ifvqbl0","pricing_plan_id":"cebpf4jnsgd1na2vs0mg"},