{"last_updated":1740546573,"ttl":60,"version":"2.2","data":{"bikes":[{"bike_id":"8f89c3da-d029-416f-b05a-3efd53c0dc63","system_id":"levelo_inurba_marseille","lat":43.23148,"lon":5.43711,"is_reserved":false,"is_disabled":false,"rental_uris":{"android":"levelo://app?vid=8f89c3da-d029-416f-b05a-3efd53c0dc63","ios":"levelo://app?vid=8f89c3da-d029-416f-b05a-3efd53c0dc63"},"vehicle_type_id":"4","last_reported":1740546573,"current_range_meters":3600,"station_id":"ce4bhmp2rcd13ifvqgog","pricing_plan_id":"cebpf4jnsgd1na2vs0mg"},{"bike_id":"a20f4f86-8a37-41be-bf41-963fa04395e3","system_id":"levelo_inurba_marseille","lat":43.29033,"lon":5.38651,"is_reserved":false,"is_disabled":true,"rental_uris":{"android":"levelo://app?vid=a20f4f86-8a37-41be-bf41-963fa04395e3","ios":"levelo://app?vid=a20f4f86-8a37-41be-bf41-963fa04395e3"},"vehicle_type_id":"4","last_reported":1740546573,"current_range_meters":3200,"station_id":"ce4bh4p2rcd13ifvqe0g","pricing_plan_id":"cebpf4jnsgd1na2vs0mg"},{"bike_id":"322c0db9-e580-4b56-9659-2338e6a758a3","system_id":"levelo_inurba_marseille","lat":43.3048,"lon":5.382,"is_reserved":false,"is_disabled":false,"rental_uris":{"android":"levelo://app?vid=322c0db9-e580-4b56-9659-2338e6a758a3","ios":"levelo://app?vid=322c0db9-e580-4b56-9659-2338e6a758a3"},"vehicle_type_id":"4","last_reported":1740546573,"current_range_meters":3600,"station_id":"","pricing_plan_id":"cebpf4jnsgd1na2vs0mg"},{"bike_id":"71f606a5-4879-4b26-9ccd-1543fb1a6ec7","system_id":"levelo_inurba_marseille","lat":43.28381,"lon":5.38992,"is_reserved":false,"is_disabled":false,"rental_uris":{"android":"levelo://app?vid=71f606a5-4879-4b26-9ccd-1543fb1a6ec7","ios":"levelo://app?vid=71f606a5-4879-4b26-9ccd-1543fb1a6ec7"},"vehicle_type_id":"4","last_reported":1740546573,"current_range_meters":3600,"station_id":"","pricing_plan_id":"cebpf4jnsgd1na2vs0mg"},{"bike_id":"755a0161-62b4-4833-ab12-ccd6ceb6dd1f","system_id":"levelo_inurba_marseille","lat":43.30927,"lon":5.40144,"is_reserved":false,"is_disabled":true,"rental_uris":{"android":"levelo://app?vid=755a0161-62b4-4833-ab12-ccd6ceb6dd1f","ios":"levelo://app?vid=755a0161-62b4-4833-ab12-ccd6ceb6dd1f"},"vehicle_type_id":"4","last_reported":1740546573,"current_range_meters":3600,"station_id":"ce4bgvp2rcd13ifvqct0","pricing_plan_id":"cebpf4jnsgd1na2vs0mg"},{"bike_id":"c04c80a9-6198-4c00-92dc-f743d67e6647","system_id":"levelo_inurba_marseille","lat":43.25825,"lon":5.39441,"is_reserved":false,"is_disabled":false,"rental_uris":{"android":"levelo://app?vid=c04c80a9-6198-4c00-92dc-f743d67e6647","ios":"levelo://app?vid=c04c80a9-6198-4c00-92dc-f743d67e6647"},"vehicle_type_id":"4","last_reported":1740546573,"current_range_meters":4000,"station_id":"ce4bhip2rcd13ifvqft0","pricing_plan_id":"cebpf4jnsgd1na2vs0mg"},{"bike_id":"da634367-acad-40de-ac7c-eb1fe9e9f106","system_id":"levelo_inurba_marseille","lat":43.2872,"lon":5.37388,"is_reserved":false,"is_disabled":true,"rental_uris":{"android":"levelo://app?vid=da634367-acad-40de-ac7c-eb1fe9e9f106","ios":"levelo://app?vid=da634367-acad-40de-ac7c-eb1fe9e9f106"},"vehicle_type_id":"4","last_reported":1740546573,"current_range_meters":4400,"station_id":"ce4bh3p2rcd13ifvqdq0","pricing_plan_id":"cebpf4jnsgd1na2vs0mg"},{"bike_id":"d04a60af-99db-41a5-8e95-2195e4925071","system_id":"levelo_inurba_marseille","lat":43.3065,"lon":5.40085,"is_reserved":false,"is_disabled":false,"rental_uris":{"android":"levelo://app?vid=d04a60af-99db-41a5-8e95-2195e4925071","ios":"levelo://app?vid=d04a60af-99db-41a5-8e95-2195e4925071"},"vehicle_type_id":"4","last_reported":1740546573,"current_range_meters":4400,"station_id":"ce4bh112rcd13ifvqda0","pricing_plan_id":"cebpf4jnsgd1na2vs0mg"},{"bike_id":"b13858bb-7c44-42c9-9f81-cd83b80c4cec","system_id":"levelo_inurba_marseille","lat":43.26215,"lon":5.40454,"is_reserved":false,"is_disabled":false,"rental_uris":{"android":"levelo://app?vid=b13858bb-7c44-42c9-9f81-cd83b80c4cec","ios":"levelo://app?vid=b13858bb-7c44-42c9-9f81-cd83b80c4cec"},"vehicle_type_id":"4","last_reported":1740546573,"current_range_meters":4400,"station_id":"ce4bhmh2rcd13ifvqgmg","pricing_plan_id":"cebpf4jnsgd1na2vs0mg"},{"bike_id":"1a4bcd74-ed23-4a70-a22b-d25f8dc188a0","system_id":"levelo_inurba_marseille","lat":43.30544,"lon":5.36555,"is_reserved":false,"is_disabled":false,"rental_uris":{"android":"levelo://app?vid=1a4bcd74-ed23-4a70-a22b-d25f8dc188a0","ios":"levelo://app?vid=1a4bcd74-ed23-4a70-a22b-d25f8dc188a0"},"vehicle_type_id":"4","last_reported":1740546573,"current_range_meters":4400,"station_id":"ce4bgs12rcd13ifvqcag","pricing_plan_id":"cebpf4jnsgd1na2vs0mg"},{"bike_id":"a029797b-26aa-43f7-a644-1e5542062099","system_id":"levelo_inurba_marseille","lat":43.309375,"lon":5.401616,"is_reserved":false,"is_disabled":true,"rental_uris":{"android":"levelo://app?vid=a029797b-26aa-43f7-a644-1e5542062099","ios":"levelo://app?vid=a029797b-26aa-43f7-a644-1e5542062099"},"vehicle_type_id":"4","last_reported":1740546573,"current_range_meters":4800,"station_id":"ce4bgvp2rcd13ifvqct0","pricing_plan_id":"cebpf4jnsgd1na2vs0mg"},{"bike_id":"a61f933f-88ee-4967-a812-5f51c33c76e0","system_id":"levelo_inurba_marseille","lat":43.2508,"lon":5.3952,"is_reserved":false,"is_disabled":false,"rental_uris":{"android":"levelo://app?vid=a61f933f-88ee-4967-a812-5f51c33c76e0","ios":"levelo://app?vid=a61f933f-88ee-4967-a812-5f51c33c76e0"},"vehicle_type_id":"4","last_reported":1740546573,"current_range_meters":5600,"station_id":"ce4bhm12rcd13ifvqgkg","pricing_plan_id":"cebpf4jnsgd1na2vs0mg"},{"bike_id":"44ba910d-a4ee-4290-bbbc-10c3adcda074","system_id":"levelo_inurba_marseille","lat":43.28068,"lon":5.39653,"is_reserved":false,"is_disabled":false,"rental_uris":{"android":"levelo://app?vid=44ba910d-a4ee-4290-bbbc-10c3adcda074","ios":"levelo://app?vid=44ba910d-a4ee-4290-bbbc-10c3adcda074"},"vehicle_type_id":"4","last_reported":1740546573,"current_range_meters":5600,"station_id":"ce4bho12rcd13ifvqh2g","pricing_plan_id":"cebpf4jnsgd1na2vs0mg"},{"bike_id":"0ca81608-f491-428e-8676-572d859eb79c","system_id":"levelo_inurba_marseille","lat":43.23189,"lon":5.39976,"is_reserved":false,"is_disabled":false,"rental_uris":{"android":"levelo://app?vid=0ca81608-f491-428e-8676-572d859eb79c","ios":"levelo://app?vid=0ca81608-f491-428e-8676-572d859eb79c"},"vehicle_type_id":"4","last_reported":1740546573,"current_range_meters":5600,"station_id":"ce4bhn12rcd13ifvqgqg","pricing_plan_id":"cebpf4jnsgd1na2vs0mg"},{"bike_id":"1c8236a9-96fb-443c-bf9a-d26ed00cc14f","system_id":"levelo_inurba_marseille","lat":43.2466,"lon":5.38162,"is_reserved":false,"is_disabled":false,"rental_uris":{"android":"levelo://app?vid=1c8236a9-96fb-443c-bf9a-d26ed00cc14f","ios":"levelo://app?vid=1c8236a9-96fb-443c-bf9a-d26ed00cc14f"},"vehicle_type_id":"4","last_reported":1740546573,"current_range_meters":5600,"station_id":"ce4bhih2rcd13ifvqfr0","pricing_plan_id":"cebpf4jnsgd1na2vs0mg"},{"bike_id":"a9022f95-a821-4418-9fdb-4217ac1f8889","system_id":"levelo_inurba_marseille","lat":43.23189,"lon":5.39981,"is_reserved":false,"is_disabled":false,"rental_uris":{"android":"levelo://app?vid=a9022f95-a821-4418-9fdb-4217ac1f8889","ios":"levelo://app?vid=a9022f95-a821-4418-9fdb-4217ac1f8889"},"vehicle_type_id":"4","last_reported":1740546573,"current_range_meters":6000,"station_id":"ce4bhn12rcd13ifvqgqg","pricing_plan_id":"cebpf4jnsgd1na2vs0mg"},{"bike_id":"3329f2ab-f4e6-48ac-85b5-2c3f7261a92f","system_id":"levelo_inurba_marseille","lat":43.28672,"lon":5.36324,"is_reserved":false,"is_disabled":true,"rental_uris":{"android":"levelo://app?vid=3329f2ab-f4e6-48ac-85b5-2c3f7261a92f","ios":"levelo://app?vid=3329f2ab-f4e6-48ac-85b5-2c3f7261a92f"},"vehicle_type_id":"4","last_reported":1740546573,"current_range_meters":6000,"station_id":"ce4bhah2rcd13ifvqej0","pricing_plan_id":"cebpf4jnsgd1na2vs0mg"},{"bike_id":"17150a21-63a8-4df4-92e7-b364b699a6c6","system_id":"levelo_inurba_marseille","lat":43.2319,"lon":5.39964,"is_reserved":false,"is_disabled":true,"rental_uris":{"android":"levelo://app?vid=17150a21-63a8-4df4-92e7-b364b699a6c6","ios":"levelo://app?vid=17150a21-63a8-4df4-92e7-b364b699a6c6"},"vehicle_type_id":"4","last_reported":1740546573,"current_range_meters":4800,"station_id":"ce4bhn12rcd13ifvqgqg","pricing_plan_id":"cebpf4jnsgd1na2vs0mg"},{"bike_id":"cbb3e626-4da7-428e-aa2d-03e52e1e0b23","system_id":"levelo_inurba_marseille","lat":43.282732,"lon":5.350628,"is_reserved":false,"is_disabled":false,"rental_uris":{"android":"levelo://app?vid=cbb3e626-4da7-428e-aa2d-03e52e1e0b23","ios":"levelo://app?vid=cbb3e626-4da7-428e-aa2d-03e52e1e0b23"},"vehicle_type_id":"4","last_reported":1740546573,"current_range_meters":6400,"station_id":"ce4bhbp2rcd13ifvqerg","pricing_plan_id":"cebpf4jnsgd1na2vs0mg"},{"bike_id":"d554166c-e878-4fb7-8b1a-75f6a37dddda","system_id":"levelo_inurba_marseille","lat":43.27186,"lon":5.40986,"is_reserved":false,"is_disabled":false,"rental_uris":{"android":"levelo://app?vid=d554166c-e878-4fb7-8b1a-75f6a37dddda","ios":"levelo://app?vid=d554166c-e878-4fb7-8b1a-75f6a37dddda"},"vehicle_type_id":"4","last_reported":1740546573,"current_range_meters":6400,"station_id":"ce4bhl12rcd13ifvqgf0","pricing_plan_id":"cebpf4jnsgd1na2vs0mg"},{"bike_id":"f0f74fbc-eeb3-4967-b4b8-49d762bb5054","system_id":"levelo_inurba_marseille","lat":43.337444,"lon":5.374475,"is_reserved":false,"is_disabled":false,"rental_uris":{"android":"levelo://app?vid=f0f74fbc-eeb3-4967-b4b8-49d762bb5054","ios":"levelo://app?vid=f0f74fbc-eeb3-4967-b4b8-49d762bb5054"},"vehicle_type_id":"4","last_reported":1740546573,"current_range_meters":3600,"station_id":"","pricing_plan_id":"cebpf4jnsgd1na2vs0mg"},{"bike_id":"2dc58ce1-f020-4c22-ae22-5bcea8107785","system_id":"levelo_inurba_marseille","lat":43.28452,"lon":5.35894,"is_reserved":false,"is_disabled":false,"rental_uris":{"android":"levelo://app?vid=2dc58ce1-f020-4c22-ae22-5bcea8107785","ios":"levelo://app?vid=2dc58ce1-f020-4c22-ae22-5bcea8107785"},"vehicle_type_id":"4","last_reported":1740546573,"current_range_meters":6400,"station_id":"ce4bhah2rcd13ifvqei0","pricing_plan_id":"cebpf4jnsgd1na2vs0mg"},{"bike_id":"ad15a503-e243-4704-8cbb-77d92c75e1d9","system_id":"levelo_inurba_marseille","lat":43.28428,"lon":5.39171,"is_reserved":false,"is_disabled":true,"rental_uris":{"android":"levelo://app?vid=ad15a503-e243-4704-8cbb-77d92c75e1d9","ios":"levelo://app?vid=ad15a503-e243-4704-8cbb-77d92c75e1d9"},"vehicle_type_id":"4","last_reported":1740546573,"current_range_meters":6400,"station_id":"ce4bhoh2rcd13ifvqh5g","pricing_plan_id":"cebpf4jnsgd1na2vs0mg"},{"bike_id":"b0319319-1ae3-4867-bf81-d240c9f190cb","system_id":"levelo_inurba_marseille","lat":43.28618,"lon":5.3509,"is_reserved":false,"is_disabled":false,"rental_uris":{"android":"levelo://app?vid=b0319319-1ae3-4867-bf81-d240c9f190cb","ios":"levelo://app?vid=b0319319-1ae3-4867-bf81-d240c9f190cb"},"vehicle_type_id":"4","last_reported":1740546573,"current_range_meters":6400,"station_id":"ce4bhch2rcd13ifvqeug","pricing_plan_id":"cebpf4jnsgd1na2vs0mg"},{"bike_id":"93314a5f-aa4d-406e-ad4a-24ef7dfbc2d4","system_id":"levelo_inurba_marseille","lat":43.2873,"lon":5.3607,"is_reserved":false,"is_disabled":false,"rental_uris":{"android":"levelo://app?vid=93314a5f-aa4d-406e-ad4a-24ef7dfbc2d4","ios":"levelo://app?vid=93314a5f-aa4d-406e-ad4a-24ef7dfbc2d4"},"vehicle_type_id":"4","last_reported":1740546573,"current_range_meters":6800,"station_id":"cki0cbj6b192h4jlfktg","pricing_plan_id":"cebpf4jnsgd1na2vs0mg"},{"bike_id":"66613f8e-b400-438d-83dc-9aed1edc478d","system_id":"levelo_inurba_marseille","lat":43.28623,"lon":5.35097,"is_reserved":false,"is_disabled":false,"rental_uris":{"android":"levelo://app?vid=66613f8e-b400-438d-83dc-9aed1edc478d","ios":"levelo://app?vid=66613f8e-b400-438d-83dc-9aed1edc478d"},"vehicle_type_id":"4","last_reported":1740546573,"current_range_meters":6800,"station_id":"ce4bhch2rcd13ifvqeug","pricing_plan_id":"cebpf4jnsgd1na2vs0mg"},{"bike_id":"8f1d4600-78a5-4659-8a3c-759cb0ac741b","system_id":"levelo_inurba_marseille","lat":43.27838,"lon":5.39204,"is_reserved":false,"is_disabled":false,"rental_uris":{"android":"levelo://app?vid=8f1d4600-78a5-4659-8a3c-759cb0ac741b","ios":"levelo://app?vid=8f1d4600-78a5-4659-8a3c-759cb0ac741b"},"vehicle_type_id":"4","last_reported":1740546573,"current_range_meters":7200,"station_id":"ce4bhjp2rcd13ifvqga0","pricing_plan_id":"cebpf4jnsgd1na2vs0mg"},{"bike_id":"eb1339d7-ed3d-4599-ae83-058aba55aac1","system_id":"levelo_inurba_marseille","lat":43.26566,"lon":5.39028,"is_reserved":false,"is_disabled":false,"rental_uris":{"android":"levelo://app?vid=eb1339d7-ed3d-4599-ae83-058aba55aac1","ios":"levelo://app?vid=eb1339d7-ed3d-4599-ae83-058aba55aac1"},"vehicle_type_id":"4","last_reported":1740546573,"current_range_meters":6800,"station_id":"ce4bhe12rcd13ifvqf30","pricing_plan_id":"cebpf4jnsgd1na2vs0mg"},{"bike_id":"5d16d1bf-f6ed-4f5b-bb86-2af7c04f4aef","system_id":"levelo_inurba_marseille","lat":43.25709,"lon":5.41107,"is_reserved":false,"is_disabled":false,"rental_uris":{"android":"levelo://app?vid=5d16d1bf-f6ed-4f5b-bb86-2af7c04f4aef","ios":"levelo://app?vid=5d16d1bf-f6ed-4f5b-bb86-2af7c04f4aef"},"vehicle_type_id":"4","last_reported":1740546573,"current_range_meters":6800,"station_id":"ce4bhkp2rcd13ifvqgd0","pricing_plan_id":"cebpf4jnsgd1na2vs0mg"},{"bike_id":"756989b1-c347-4776-bce4-8b7b90a36817","system_id":"levelo_inurba_marseille","lat":43.23199,"lon":5.39978,"is_reserved":false,"is_disabled":false,"rental_uris":{"android":"levelo://app?vid=756989b1-c347-4776-bce4-8b7b90a36817","ios":"levelo://app?vid=756989b1-c347-4776-bce4-8b7b90a36817"},"vehicle_type_id":"4","last_reported":1740546573,"current_range_meters":7200,"station_id":"ce4bhn12rcd13ifvqgqg","pricing_plan_id":"cebpf4jnsgd1na2vs0mg"},{"bike_id":"04fed40f-6366-4adc-8110-34cd72fc4be4","system_id":"levelo_inurba_marseille","lat":43.28457,"lon":5.35885,"is_reserved":false,"is_disabled":false,"rental_uris":{"android":"levelo://app?vid=04fed40f-6366-4adc-8110-34cd72fc4be4","ios":"levelo://app?vid=04fed40f-6366-4adc-8110-34cd72fc4be4"},"vehicle_type_id":"4","last_reported":1740546573,"current_range_meters":7200,"station_id":"ce4bhah2rcd13ifvqei0","pricing_plan_id":"cebpf4jnsgd1na2vs0mg"},{"bike_id":"d7578910-027c-4702-b434-efb6814955b0","system_id":"levelo_inurba_marseille","lat":43.251206,"lon":5.403176,"is_reserved":false,"is_disabled":false,"rental_uris":{"android":"levelo://app?vid=d7578910-027c-4702-b434-efb6814955b0","ios":"levelo://app?vid=d7578910-027c-4702-b434-efb6814955b0"},"vehicle_type_id":"4","last_reported":1740546573,"current_range_meters":7200,"station_id":"ce4bhlh2rcd13ifvqgig","pricing_plan_id":"cebpf4jnsgd1na2vs0mg"},{"bike_id":"4c959a55-5b84-41c0-8925-bae68115dd55","system_id":"levelo_inurba_marseille","lat":43.30415,"lon":5.41298,"is_reserved":false,"is_disabled":false,"rental_uris":{"android":"levelo://app?vid=4c959a55-5b84-41c0-8925-bae68115dd55","ios":"levelo://app?vid=4c959a55-5b84-41c0-8925-bae68115dd55"},"vehicle_type_id":"4","last_reported":1740546573,"current_range_meters":7200,"station_id":"ce4bhop2rcd13ifvqh8g","pricing_plan_id":"cebpf4jnsgd1na2vs0mg"},{"bike_id":"e84aba14-8678-4c9d-aedc-4fc48e21e259","system_id":"levelo_inurba_marseille","lat":43.28374,"lon":5.38618,"is_reserved":false,"is_disabled":false,"rental_uris":{"android":"levelo://app?vid=e84aba14-8678-4c9d-aedc-4fc48e21e259","ios":"levelo://app?vid=e84aba14-8678-4c9d-aedc-4fc48e21e259"},"vehicle_type_id":"4","last_reported":1740546573,"current_range_meters":7200,"station_id":"ce4bh492rcd13ifvqdvg","pricing_plan_id":"cebpf4jnsgd1na2vs0mg"},{"bike_id":"691ddeef-4494-4822-85aa-63587a56215a","system_id":"levelo_inurba_marseille","lat":43.31236,"lon":5.36835,"is_reserved":false,"is_disabled":false,"rental_uris":{"android":"levelo://app?vid=691ddeef-4494-4822-85aa-63587a56215a","ios":"levelo://app?vid=691ddeef-4494-4822-85aa-63587a56215a"},"vehicle_type_id":"4","last_reported":1740546573,"current_range_meters":6800,"station_id":"ce4bgl92rcd13ifvqbq0","pricing_plan_id":"cebpf4jnsgd1na2vs0mg"},{"bike_id":"5e6e4180-b546-4423-88ea-57e8daca70d7","system_id":"levelo_inurba_marseille","lat":43.29564,"lon":5.3999,"is_reserved":false,"is_disabled":false,"rental_uris":{"android":"levelo://app?vid=5e6e4180-b546-4423-88ea-57e8daca70d7","ios":"levelo://app?vid=5e6e4180-b546-4423-88ea-57e8daca70d7"},"vehicle_type_id":"4","last_reported":1740546573,"current_range_meters":7200,"station_id":"ce4bh312rcd13ifvqdj0","pricing_plan_id":"cebpf4jnsgd1na2vs0mg"},{"bike_id":"e264b1c0-3f7e-40b8-b594-10934ce0a734","system_id":"levelo_inurba_marseille","lat":43.28709,"lon":5.39968,"is_reserved":false,"is_disabled":false,"rental_uris":{"android":"levelo://app?vid=e264b1c0-3f7e-40b8-b594-10934ce0a734","ios":"levelo://app?vid=e264b1c0-3f7e-40b8-b594-10934ce0a734"},"vehicle_type_id":"4","last_reported":1740546573,"current_range_meters":8000,"station_id":"ce4bho92rcd13ifvqh3g","pricing_plan_id":"cebpf4jnsgd1na2vs0mg"},{"bike_id":"70656a71-7b5b-49e4-a2ca-c422d39a1205","system_id":"levelo_inurba_marseille","lat":43.270706,"lon":5.422771,"is_reserved":false,"is_disabled":false,"rental_uris":{"android":"levelo://app?vid=70656a71-7b5b-49e4-a2ca-c422d39a1205","ios":"levelo://app?vid=70656a71-7b5b-49e4-a2ca-c422d39a1205"},"vehicle_type_id":"4","last_reported":1740546573,"current_range_meters":8400,"station_id":"ce4bhk92rcd13ifvqgb0","pricing_plan_id":"cebpf4jnsgd1na2vs0mg"},{"bike_id":"d49ccfa8-beec-4372-b332-01749217cbcd","system_id":"levelo_inurba_marseille","lat":43.31995,"lon":5.38138,"is_reserved":false,"is_disabled":true,"rental_uris":{"android":"levelo://app?vid=d49ccfa8-beec-4372-b332-01749217cbcd","ios":"levelo://app?vid=d49ccfa8-beec-4372-b332-01749217cbcd"},"vehicle_type_id":"4","last_reported":1740546573,"current_range_meters":8400,"station_id":"ce4bhr12rcd13ifvqhpg","pricing_plan_id":"cebpf4jnsgd1na2vs0mg"},{"bike_id":"7e4c5f60-9589-40fb-9b5e-9fd52f99aca1","system_id":"levelo_inurba_marseille","lat":43.28376,"lon":5.38636,"is_reserved":false,"is_disabled":false,"rental_uris":{"android":"levelo://app?vid=7e4c5f60-9589-40fb-9b5e-9fd52f99aca1","ios":"levelo://app?vid=7e4c5f60-9589-40fb-9b5e-9fd52f99aca1"},"vehicle_type_id":"4","last_reported":1740546573,"current_range_meters":8400,"station_id":"ce4bh492rcd13ifvqdvg","pricing_plan_id":"cebpf4jnsgd1na2vs0mg"},{"bike_id":"b8056528-61d4-45d9-b2dd-e6ab8ef50c51","system_id":"levelo_inurba_marseille","lat":43.3127,"lon":5.40177,"is_reserved":false,"is_disabled":false,"rental_uris":{"android":"levelo://app?vid=b8056528-61d4-45d9-b2dd-e6ab8ef50c51","ios":"levelo://app?vid=b8056528-61d4-45d9-b2dd-e6ab8ef50c51"},"vehicle_type_id":"4","last_reported":1740546573,"current_range_meters":8800,"station_id":"ce4bh092rcd13ifvqd30","pricing_plan_id":"cebpf4jnsgd1na2vs0mg"},{"bike_id":"6e7dc168-d384-462a-9e48-e7eb22ec3d79","system_id":"levelo_inurba_marseille","lat":43.28269,"lon":5.3507,"is_reserved":false,"is_disabled":false,"rental_uris":{"android":"levelo://app?vid=6e7dc168-d384-462a-9e48-e7eb22ec3d79","ios":"levelo://app?vid=6e7dc168-d384-462a-9e48-e7eb22ec3d79"},"vehicle_type_id":"4","last_reported":1740546573,"current_range_meters":8400,"station_id":"ce4bhbp2rcd13ifvqerg","pricing_plan_id":"cebpf4jnsgd1na2vs0mg"},{"bike_id":"c0103b3d-a816-4d6f-9ace-685925eb6cf2","system_id":"levelo_inurba_marseille","lat":43.28277,"lon":5.35071,"is_reserved":false,"is_disabled":false,"rental_uris":{"android":"levelo://app?vid=c0103b3d-a816-4d6f-9ace-685925eb6cf2","ios":"levelo://app?vid=c0103b3d-a816-4d6f-9ace-685925eb6cf2"},"vehicle_type_id":"4","last_reported":1740546573,"current_range_meters":8400,"station_id":"ce4bhbp2rcd13ifvqerg","pricing_plan_id":"cebpf4jnsgd1na2vs0mg"},{"bike_id":"e5c275a2-a964-47d8-9489-ed1126cf4cef","system_id":"levelo_inurba_marseille","lat":43.29614,"lon":5.37905,"is_reserved":false,"is_disabled":false,"rental_uris":{"android":"levelo://app?vid=e5c275a2-a964-47d8-9489-ed1126cf4cef","ios":"levelo://app?vid=e5c275a2-a964-47d8-9489-ed1126cf4cef"},"vehicle_type_id":"4","last_reported":1740546573,"current_range_meters":8400,"station_id":"","pricing_plan_id":"cebpf4jnsgd1na2vs0mg"},{"bike_id":"601d9d1a-b924-4349-8cfa-62d99997e8fb","system_id":"levelo_inurba_marseille","lat":43.232,"lon":5.39985,"is_reserved":false,"is_disabled":false,"rental_uris":{"android":"levelo://app?vid=601d9d1a-b924-4349-8cfa-62d99997e8fb","ios":"levelo://app?vid=601d9d1a-b924-4349-8cfa-62d99997e8fb"},"vehicle_type_id":"4","last_reported":1740546573,"current_range_meters":8400,"station_id":"ce4bhn12rcd13ifvqgqg","pricing_plan_id":"cebpf4jnsgd1na2vs0mg"},{"bike_id":"819e0f18-63cc-4aec-8172-6a0b68df1f78","system_id":"levelo_inurba_marseille","lat":43.23965,"lon":5.36633,"is_reserved":false,"is_disabled":false,"rental_uris":{"android":"levelo://app?vid=819e0f18-63cc-4aec-8172-6a0b68df1f78","ios":"levelo://app?vid=819e0f18-63cc-4aec-8172-6a0b68df1f78"},"vehicle_type_id":"4","last_reported":1740546573,"current_range_meters":8400,"station_id":"ce4bhi12rcd13ifvqfp0","pricing_plan_id":"cebpf4jnsgd1na2vs0mg"},{"bike_id":"ae8a19c6-d644-4dc9-829e-8caf6b1d2af0","system_id":"levelo_inurba_marseille","lat":43.27218,"lon":5.39184,"is_reserved":false,"is_disabled":true,"rental_uris":{"android":"levelo://app?vid=ae8a19c6-d644-4dc9-829e-8caf6b1d2af0","ios":"levelo://app?vid=ae8a19c6-d644-4dc9-829e-8caf6b1d2af0"},"vehicle_type_id":"4","last_reported":1740546573,"current_range_meters":8400,"station_id":"ce4bhhp2rcd13ifvqfm0","pricing_plan_id":"cebpf4jnsgd1na2vs0mg"},{"bike_id":"435ce878-0ba6-4013-bd40-4e989bd2ba5a","system_id":"levelo_inurba_marseille","lat":43.30799,"lon":5.38156,"is_reserved":false,"is_disabled":false,"rental_uris":{"android":"levelo://app?vid=435ce878-0ba6-4013-bd40-4e989bd2ba5a","ios":"levelo://app?vid=435ce878-0ba6-4013-bd40-4e989bd2ba5a"},"vehicle_type_id":"4","last_reported":1740546573,"current_range_meters":8400,"station_id":"ce4bgt12rcd13ifvqce0","pricing_plan_id":"cebpf4jnsgd1na2vs0mg"},{"bike_id":"7c45866a-bd99-4c12-9747-66203f12a96e","system_id":"levelo_inurba_marseille","lat":43.2313,"lon":5.35505,"is_reserved":false,"is_disabled":false,"rental_uris":{"android":"levelo://app?vid=7c45866a-bd99-4c12-9747-66203f12a96e","ios":"levelo://app?vid=7c45866a-bd99-4c12-9747-66203f12a96e"},"vehicle_type_id":"4","last_reported":1740546573,"current_range_meters":8400,"station_id":"","pricing_plan_id":"cebpf4jnsgd1na2vs0mg"},{"bike_id":"43ac663c-c64e-48a9-99b2-d86c9807fdf6","system_id":"levelo_inurba_marseille","lat":43.28414,"lon":5.3751,"is_reserved":false,"is_disabled":false,"rental_uris":{"android":"levelo://app?vid=43ac663c-c64e-48a9-99b2-d86c9807fdf6","ios":"levelo://app?vid=43ac663c-c64e-48a9-99b2-d86c9807fdf6"},"vehicle_type_id":"4","last_reported":1740546573,"current_range_meters":8400,"station_id":"ce4bh412rcd13ifvqds0","pricing_plan_id":"cebpf4jnsgd1na2vs0mg"},{"bike_id":"09a58a03-56f4-486c-a6f7-468f3332eea8","system_id":"levelo_inurba_marseille","lat":43.24538,"lon":5.39527,"is_reserved":false,"is_disabled":false,"rental_uris":{"android":"levelo://app?vid=09a58a03-56f4-486c-a6f7-468f3332eea8","ios":"levelo://app?vid=09a58a03-56f4-486c-a6f7-468f3332eea8"},"vehicle_type_id":"4","last_reported":1740546573,"current_range_meters":8400,"station_id":"ce4bhlp2rcd13ifvqgjg","pricing_plan_id":"cebpf4jnsgd1na2vs0mg"},{"bike_id":"b33978f7-7190-4fd6-910f-bb510fe1c5a7","system_id":"levelo_inurba_marseille","lat":43.2318,"lon":5.39981,"is_reserved":false,"is_disabled":false,"rental_uris":{"android":"levelo://app?vid=b33978f7-7190-4fd6-910f-bb510fe1c5a7","ios":"levelo://app?vid=b33978f7-7190-4fd6-910f-bb510fe1c5a7"},"vehicle_type_id":"4","last_reported":1740546573,"current_range_meters":8800,"station_id":"ce4bhn12rcd13ifvqgqg","pricing_plan_id":"cebpf4jnsgd1na2vs0mg"},{"bike_id":"c3d6f099-50dc-4ace-9e4f-4859fb8f64fe","system_id":"levelo_inurba_marseille","lat":43.32288,"lon":5.38251,"is_reserved":false,"is_disabled":false,"rental_uris":{"android":"levelo://app?vid=c3d6f099-50dc-4ace-9e4f-4859fb8f64fe","ios":"levelo://app?vid=c3d6f099-50dc-4ace-9e4f-4859fb8f64fe"},"vehicle_type_id":"4","last_reported":1740546573,"current_range_meters":8800,"station_id":"ce4bhr12rcd13ifvqhqg","pricing_plan_id":"cebpf4jnsgd1na2vs0mg"},{"bike_id":"b4af0b81-2f5c-4a39-b920-a8c83a777a9d","system_id":"levelo_inurba_marseille","lat":43.30336,"lon":5.40438,"is_reserved":false,"is_disabled":false,"rental_uris":{"android":"levelo://app?vid=b4af0b81-2f5c-4a39-b920-a8c83a777a9d","ios":"levelo://app?vid=b4af0b81-2f5c-4a39-b920-a8c83a777a9d"},"vehicle_type_id":"4","last_reported":1740546573,"current_range_meters":8800,"station_id":"ce4bh012rcd13ifvqd10","pricing_plan_id":"cebpf4jnsgd1na2vs0mg"},{"bike_id":"cbfa7cec-60a2-46ff-8558-0aab6b269dd8","system_id":"levelo_inurba_marseille","lat":43.28433,"lon":5.39191,"is_reserved":false,"is_disabled":false,"rental_uris":{"android":"levelo://app?vid=cbfa7cec-60a2-46ff-8558-0aab6b269dd8","ios":"levelo://app?vid=cbfa7cec-60a2-46ff-8558-0aab6b269dd8"},"vehicle_type_id":"4","last_reported":1740546573,"current_range_meters":8800,"station_id":"ce4bhoh2rcd13ifvqh5g","pricing_plan_id":"cebpf4jnsgd1na2vs0mg"},{"bike_id":"fd27a87b-beed-48d0-9c1f-b1fb51341453","system_id":"levelo_inurba_marseille","lat":43.27619,"lon":5.36095,"is_reserved":false,"is_disabled":true,"rental_uris":{"android":"levelo://app?vid=fd27a87b-beed-48d0-9c1f-b1fb51341453","ios":"levelo://app?vid=fd27a87b-beed-48d0-9c1f-b1fb51341453"},"vehicle_type_id":"4","last_reported":1740546573,"current_range_meters":8800,"station_id":"ce4bgj92rcd13ifvqbe0","pricing_plan_id":"cebpf4jnsgd1na2vs0mg"},{"bike_id":"43d63f8a-f3b7-4d7c-be3c-996582d0e403","system_id":"levelo_inurba_marseille","lat":43.284219,"lon":5.375229,"is_reserved":false,"is_disabled":false,"rental_uris":{"android":"levelo://app?vid=43d63f8a-f3b7-4d7c-be3c-996582d0e403","ios":"levelo://app?vid=43d63f8a-f3b7-4d7c-be3c-996582d0e403"},"vehicle_type_id":"4","last_reported":1740546573,"current_range_meters":8800,"station_id":"ce4bh412rcd13ifvqds0","pricing_plan_id":"cebpf4jnsgd1na2vs0mg"},{"bike_id":"f2a87237-f624-4bf7-ad01-90df07b15d25","system_id":"levelo_inurba_marseille","lat":43.28422,"lon":5.37519,"is_reserved":false,"is_disabled":false,"rental_uris":{"android":"levelo://app?vid=f2a87237-f624-4bf7-ad01-90df07b15d25","ios":"levelo://app?vid=f2a87237-f624-4bf7-ad01-90df07b15d25"},"vehicle_type_id":"4","last_reported":1740546573,"current_range_meters":8800,"station_id":"ce4bh412rcd13ifvqds0","pricing_plan_id":"cebpf4jnsgd1na2vs0mg"},{"bike_id":"fa0fd479-49df-47e5-9d21-fe77857465d8","system_id":"levelo_inurba_marseille","lat":43.23966,"lon":5.36632,"is_reserved":false,"is_disabled":false,"rental_uris":{"android":"levelo://app?vid=fa0fd479-49df-47e5-9d21-fe77857465d8","ios":"levelo://app?vid=fa0fd479-49df-47e5-9d21-fe77857465d8"},"vehicle_type_id":"4","last_reported":1740546573,"current_range_meters":8800,"station_id":"ce4bhi12rcd13ifvqfp0","pricing_plan_id":"cebpf4jnsgd1na2vs0mg"},{"bike_id":"e9e390b6-ca19-408b-9906-6e45392167f3","system_id":"levelo_inurba_marseille","lat":43.30891,"lon":5.39643,"is_reserved":false,"is_disabled":false,"rental_uris":{"android":"levelo://app?vid=e9e390b6-ca19-408b-9906-6e45392167f3","ios":"levelo://app?vid=e9e390b6-ca19-408b-9906-6e45392167f3"},"vehicle_type_id":"4","last_reported":1740546573,"current_range_meters":8800,"station_id":"ce4bh012rcd13ifvqcv0","pricing_plan_id":"cebpf4jnsgd1na2vs0mg"},{"bike_id":"1b5babbf-39b7-47e3-a262-ddaeb5384d40","system_id":"levelo_inurba_marseille","lat":43.310737,"lon":5.383581,"is_reserved":false,"is_disabled":false,"rental_uris":{"android":"levelo://app?vid=1b5babbf-39b7-47e3-a262-ddaeb5384d40","ios":"levelo://app?vid=1b5babbf-39b7-47e3-a262-ddaeb5384d40"},"vehicle_type_id":"4","last_reported":1740546573,"current_range_meters":8800,"station_id":"ce4bgv92rcd13ifvqcr0","pricing_plan_id":"cebpf4jnsgd1na2vs0mg"},{"bike_id":"0f53dfe5-69a9-4b91-a6d9-ad65c664ac2d","system_id":"levelo_inurba_marseille","lat":43.28445,"lon":5.39166,"is_reserved":false,"is_disabled":false,"rental_uris":{"android":"levelo://app?vid=0f53dfe5-69a9-4b91-a6d9-ad65c664ac2d","ios":"levelo://app?vid=0f53dfe5-69a9-4b91-a6d9-ad65c664ac2d"},"vehicle_type_id":"4","last_reported":1740546573,"current_range_meters":9600,"station_id":"ce4bhoh2rcd13ifvqh5g","pricing_plan_id":"cebpf4jnsgd1na2vs0mg"},{"bike_id":"0f1f3b76-2791-4f0f-845e-300b9a8eb89b","system_id":"levelo_inurba_marseille","lat":43.23172,"lon":5.35601,"is_reserved":false,"is_disabled":false,"rental_uris":{"android":"levelo://app?vid=0f1f3b76-2791-4f0f-845e-300b9a8eb89b","ios":"levelo://app?vid=0f1f3b76-2791-4f0f-845e-300b9a8eb89b"},"vehicle_type_id":"4","last_reported":1740546573,"current_range_meters":9600,"station_id":"ce4bhu92rcd13ifvqi70","pricing_plan_id":"cebpf4jnsgd1na2vs0mg"},{"bike_id":"7ce94ac4-8de9-4d22-ab59-fafd5d4ddae0","system_id":"levelo_inurba_marseille","lat":43.27998,"lon":5.40005,"is_reserved":false,"is_disabled":false,"rental_uris":{"android":"levelo://app?vid=7ce94ac4-8de9-4d22-ab59-fafd5d4ddae0","ios":"levelo://app?vid=7ce94ac4-8de9-4d22-ab59-fafd5d4ddae0"},"vehicle_type_id":"4","last_reported":1740546573,"current_range_meters":9200,"station_id":"ce4bho92rcd13ifvqh4g","pricing_plan_id":"cebpf4jnsgd1na2vs0mg"},{"bike_id":"9f6b1a57-8b18-4910-92c4-7c3c71b26e15","system_id":"levelo_inurba_marseille","lat":43.23353,"lon":5.36003,"is_reserved":false,"is_disabled":false,"rental_uris":{"android":"levelo://app?vid=9f6b1a57-8b18-4910-92c4-7c3c71b26e15","ios":"levelo://app?vid=9f6b1a57-8b18-4910-92c4-7c3c71b26e15"},"vehicle_type_id":"4","last_reported":1740546573,"current_range_meters":9600,"station_id":"","pricing_plan_id":"cebpf4jnsgd1na2vs0mg"},{"bike_id":"81f5a0ac-9fbc-4093-9829-7c67f70cb06b","system_id":"levelo_inurba_marseille","lat":43.31367,"lon":5.38507,"is_reserved":false,"is_disabled":false,"rental_uris":{"android":"levelo://app?vid=81f5a0ac-9fbc-4093-9829-7c67f70cb06b","ios":"levelo://app?vid=81f5a0ac-9fbc-4093-9829-7c67f70cb06b"},"vehicle_type_id":"4","last_reported":1740546573,"current_range_meters":9200,"station_id":"ce4bgt92rcd13ifvqcf0","pricing_plan_id":"cebpf4jnsgd1na2vs0mg"},{"bike_id":"0755804b-e938-4970-a1f5-1ee40c67f3e0","system_id":"levelo_inurba_marseille","lat":43.24057,"lon":5.37754,"is_reserved":false,"is_disabled":false,"rental_uris":{"android":"levelo://app?vid=0755804b-e938-4970-a1f5-1ee40c67f3e0","ios":"levelo://app?vid=0755804b-e938-4970-a1f5-1ee40c67f3e0"},"vehicle_type_id":"4","last_reported":1740546573,"current_range_meters":9200,"station_id":"ce4bhnp2rcd13ifvqgvg","pricing_plan_id":"cebpf4jnsgd1na2vs0mg"},{"bike_id":"a1ca3ad0-4f52-4569-bb87-4293f6934d8b","system_id":"levelo_inurba_marseille","lat":43.23213,"lon":5.35551,"is_reserved":false,"is_disabled":false,"rental_uris":{"android":"levelo://app?vid=a1ca3ad0-4f52-4569-bb87-4293f6934d8b","ios":"levelo://app?vid=a1ca3ad0-4f52-4569-bb87-4293f6934d8b"},"vehicle_type_id":"4","last_reported":1740546573,"current_range_meters":9200,"station_id":"ce4bhu92rcd13ifvqi70","pricing_plan_id":"cebpf4jnsgd1na2vs0mg"},{"bike_id":"37f282dd-3c82-4a6a-9579-52ba7e01751c","system_id":"levelo_inurba_marseille","lat":43.31537,"lon":5.38037,"is_reserved":false,"is_disabled":false,"rental_uris":{"android":"levelo://app?vid=37f282dd-3c82-4a6a-9579-52ba7e01751c","ios":"levelo://app?vid=37f282dd-3c82-4a6a-9579-52ba7e01751c"},"vehicle_type_id":"4","last_reported":1740546573,"current_range_meters":9200,"station_id":"ce4bhsp2rcd13ifvqi50","pricing_plan_id":"cebpf4jnsgd1na2vs0mg"},{"bike_id":"4517a58a-a34f-4dc3-9421-e5703e6f0505","system_id":"levelo_inurba_marseille","lat":43.2872,"lon":5.39981,"is_reserved":false,"is_disabled":false,"rental_uris":{"android":"levelo://app?vid=4517a58a-a34f-4dc3-9421-e5703e6f0505","ios":"levelo://app?vid=4517a58a-a34f-4dc3-9421-e5703e6f0505"},"vehicle_type_id":"4","last_reported":1740546573,"current_range_meters":9600,"station_id":"ce4bho92rcd13ifvqh3g","pricing_plan_id":"cebpf4jnsgd1na2vs0mg"},{"bike_id":"e93c7e29-0d01-4887-aaa1-1b6f0519e5f6","system_id":"levelo_inurba_marseille","lat":43.29868,"lon":5.39722,"is_reserved":false,"is_disabled":false,"rental_uris":{"android":"levelo://app?vid=e93c7e29-0d01-4887-aaa1-1b6f0519e5f6","ios":"levelo://app?vid=e93c7e29-0d01-4887-aaa1-1b6f0519e5f6"},"vehicle_type_id":"4","last_reported":1740546573,"current_range_meters":9600,"station_id":"ce4bh0h2rcd13ifvqd50","pricing_plan_id":"cebpf4jnsgd1na2vs0mg"},{"bike_id":"05f51bd6-bf8c-4b6c-ba2f-d7bf7cec3006","system_id":"levelo_inurba_marseille","lat":43.23188,"lon":5.35567,"is_reserved":false,"is_disabled":false,"rental_uris":{"android":"levelo://app?vid=05f51bd6-bf8c-4b6c-ba2f-d7bf7cec3006","ios":"levelo://app?vid=05f51bd6-bf8c-4b6c-ba2f-d7bf7cec3006"},"vehicle_type_id":"4","last_reported":1740546573,"current_range_meters":9600,"station_id":"ce4bhu92rcd13ifvqi70","pricing_plan_id":"cebpf4jnsgd1na2vs0mg"},{"bike_id":"dc2de3e1-5643-4555-b8af-4964503af4b0","system_id":"levelo_inurba_marseille","lat":43.31062,"lon":5.38346,"is_reserved":false,"is_disabled":false,"rental_uris":{"android":"levelo://app?vid=dc2de3e1-5643-4555-b8af-4964503af4b0","ios":"levelo://app?vid=dc2de3e1-5643-4555-b8af-4964503af4b0"},"vehicle_type_id":"4","last_reported":1740546573,"current_range_meters":9600,"station_id":"ce4bgv92rcd13ifvqcr0","pricing_plan_id":"cebpf4jnsgd1na2vs0mg"},{"bike_id":"311d5b44-1afe-4b90-a52b-db2ba906e440","system_id":"levelo_inurba_marseille","lat":43.28418,"lon":5.35006,"is_reserved":false,"is_disabled":false,"rental_uris":{"android":"levelo://app?vid=311d5b44-1afe-4b90-a52b-db2ba906e440","ios":"levelo://app?vid=311d5b44-1afe-4b90-a52b-db2ba906e440"},"vehicle_type_id":"4","last_reported":1740546573,"current_range_meters":9600,"station_id":"ce4bhbh2rcd13ifvqepg","pricing_plan_id":"cebpf4jnsgd1na2vs0mg"},{"bike_id":"13301daf-0444-439c-90f5-309514bd90a4","system_id":"levelo_inurba_marseille","lat":43.31512,"lon":5.38048,"is_reserved":false,"is_disabled":false,"rental_uris":{"android":"levelo://app?vid=13301daf-0444-439c-90f5-309514bd90a4","ios":"levelo://app?vid=13301daf-0444-439c-90f5-309514bd90a4"},"vehicle_type_id":"4","last_reported":1740546573,"current_range_meters":9600,"station_id":"ce4bhsp2rcd13ifvqi50","pricing_plan_id":"cebpf4jnsgd1na2vs0mg"},{"bike_id":"344b9ada-dc13-401b-99db-124646ed697f","system_id":"levelo_inurba_marseille","lat":43.28832,"lon":5.35853,"is_reserved":false,"is_disabled":false,"rental_uris":{"android":"levelo://app?vid=344b9ada-dc13-401b-99db-124646ed697f","ios":"levelo://app?vid=344b9ada-dc13-401b-99db-124646ed697f"},"vehicle_type_id":"4","last_reported":1740546573,"current_range_meters":9600,"station_id":"ce4bhb12rcd13ifvqem0","pricing_plan_id":"cebpf4jnsgd1na2vs0mg"},{"bike_id":"e4bb741a-3e2b-448b-8ec8-90a45754a10f","system_id":"levelo_inurba_marseille","lat":43.28713,"lon":5.3998,"is_reserved":false,"is_disabled":false,"rental_uris":{"android":"levelo://app?vid=e4bb741a-3e2b-448b-8ec8-90a45754a10f","ios":"levelo://app?vid=e4bb741a-3e2b-448b-8ec8-90a45754a10f"},"vehicle_type_id":"4","last_reported":1740546573,"current_range_meters":9600,"station_id":"ce4bho92rcd13ifvqh3g","pricing_plan_id":"cebpf4jnsgd1na2vs0mg"},{"bike_id":"25255681-d668-4957-b49d-3fba4d0fc5e1","system_id":"levelo_inurba_marseille","lat":43.27885,"lon":5.3801,"is_reserved":false,"is_disabled":false,"rental_uris":{"android":"levelo://app?vid=25255681-d668-4957-b49d-3fba4d0fc5e1","ios":"levelo://app?vid=25255681-d668-4957-b49d-3fba4d0fc5e1"},"vehicle_type_id":"4","last_reported":1740546573,"current_range_meters":9600,"station_id":"ce4bhf92rcd13ifvqf50","pricing_plan_id":"cebpf4jnsgd1na2vs0mg"},{"bike_id":"e7234b8e-3807-4b4c-852c-4a3fe63998d8","system_id":"levelo_inurba_marseille","lat":43.2883,"lon":5.35843,"is_reserved":false,"is_disabled":false,"rental_uris":{"android":"levelo://app?vid=e7234b8e-3807-4b4c-852c-4a3fe63998d8","ios":"levelo://app?vid=e7234b8e-3807-4b4c-852c-4a3fe63998d8"},"vehicle_type_id":"4","last_reported":1740546573,"current_range_meters":10000,"station_id":"ce4bhb12rcd13ifvqem0","pricing_plan_id":"cebpf4jnsgd1na2vs0mg"},{"bike_id":"92bd2633-38be-469b-bbe7-19ac09fd6398","system_id":"levelo_inurba_marseille","lat":43.25128,"lon":5.40309,"is_reserved":false,"is_disabled":false,"rental_uris":{"android":"levelo://app?vid=92bd2633-38be-469b-bbe7-19ac09fd6398","ios":"levelo://app?vid=92bd2633-38be-469b-bbe7-19ac09fd6398"},"vehicle_type_id":"4","last_reported":1740546573,"current_range_meters":10000,"station_id":"ce4bhlh2rcd13ifvqgig","pricing_plan_id":"cebpf4jnsgd1na2vs0mg"},{"bike_id":"f5232ca0-a0ea-4b65-9be9-c58c9ab586fb","system_id":"levelo_inurba_marseille","lat":43.28156,"lon":5.42636,"is_reserved":false,"is_disabled":false,"rental_uris":{"android":"levelo://app?vid=f5232ca0-a0ea-4b65-9be9-c58c9ab586fb","ios":"levelo://app?vid=f5232ca0-a0ea-4b65-9be9-c58c9ab586fb"},"vehicle_type_id":"4","last_reported":1740546573,"current_range_meters":10000,"station_id":"ce4bhnh2rcd13ifvqgug","pricing_plan_id":"cebpf4jnsgd1na2vs0mg"},{"bike_id":"549eba66-470c-49fc-9bda-650ecb397aed","system_id":"levelo_inurba_marseille","lat":43.28601,"lon":5.38118,"is_reserved":false,"is_disabled":true,"rental_uris":{"android":"levelo://app?vid=549eba66-470c-49fc-9bda-650ecb397aed","ios":"levelo://app?vid=549eba66-470c-49fc-9bda-650ecb397aed"},"vehicle_type_id":"4","last_reported":1740546573,"current_range_meters":10000,"station_id":"","pricing_plan_id":"cebpf4jnsgd1na2vs0mg"},{"bike_id":"7634ce39-22f6-4028-9e45-c9bd6b9ffa5a","system_id":"levelo_inurba_marseille","lat":43.28565,"lon":5.39493,"is_reserved":false,"is_disabled":false,"rental_uris":{"android":"levelo://app?vid=7634ce39-22f6-4028-9e45-c9bd6b9ffa5a","ios":"levelo://app?vid=7634ce39-22f6-4028-9e45-c9bd6b9ffa5a"},"vehicle_type_id":"4","last_reported":1740546573,"current_range_meters":10000,"station_id":"ce4bh292rcd13ifvqdg0","pricing_plan_id":"cebpf4jnsgd1na2vs0mg"},{"bike_id":"4bcee7f2-7a8a-43dd-853c-163df9362300","system_id":"levelo_inurba_marseille","lat":43.27978,"lon":5.39973,"is_reserved":false,"is_disabled":false,"rental_uris":{"android":"levelo://app?vid=4bcee7f2-7a8a-43dd-853c-163df9362300","ios":"levelo://app?vid=4bcee7f2-7a8a-43dd-853c-163df9362300"},"vehicle_type_id":"4","last_reported":1740546573,"current_range_meters":10000,"station_id":"ce4bho92rcd13ifvqh4g","pricing_plan_id":"cebpf4jnsgd1na2vs0mg"},{"bike_id":"d534939d-a650-4bb8-b29b-6d7330a505b1","system_id":"levelo_inurba_marseille","lat":43.28702,"lon":5.39979,"is_reserved":false,"is_disabled":false,"rental_uris":{"android":"levelo://app?vid=d534939d-a650-4bb8-b29b-6d7330a505b1","ios":"levelo://app?vid=d534939d-a650-4bb8-b29b-6d7330a505b1"},"vehicle_type_id":"4","last_reported":1740546573,"current_range_meters":10000,"station_id":"ce4bho92rcd13ifvqh3g","pricing_plan_id":"cebpf4jnsgd1na2vs0mg"},{"bike_id":"9f410218-3040-4e5d-995c-1587f208b52e","system_id":"levelo_inurba_marseille","lat":43.2781,"lon":5.40738,"is_reserved":false,"is_disabled":false,"rental_uris":{"android":"levelo://app?vid=9f410218-3040-4e5d-995c-1587f208b52e","ios":"levelo://app?vid=9f410218-3040-4e5d-995c-1587f208b52e"},"vehicle_type_id":"4","last_reported":1740546573,"current_range_meters":10000,"station_id":"ce4bhnh2rcd13ifvqgtg","pricing_plan_id":"cebpf4jnsgd1na2vs0mg"},{"bike_id":"a5668e0b-4dcd-4429-94e5-3c03768d9bb3","system_id":"levelo_inurba_marseille","lat":43.29039,"lon":5.39955,"is_reserved":false,"is_disabled":false,"rental_uris":{"android":"levelo://app?vid=a5668e0b-4dcd-4429-94e5-3c03768d9bb3","ios":"levelo://app?vid=a5668e0b-4dcd-4429-94e5-3c03768d9bb3"},"vehicle_type_id":"4","last_reported":1740546573,"current_range_meters":10000,"station_id":"ce4bh392rcd13ifvqdm0","pricing_plan_id":"cebpf4jnsgd1na2vs0mg"},{"bike_id":"dcdfafc4-ad04-4f03-b713-a44cb5c77c53","system_id":"levelo_inurba_marseille","lat":43.29555,"lon":5.39952,"is_reserved":false,"is_disabled":true,"rental_uris":{"android":"levelo://app?vid=dcdfafc4-ad04-4f03-b713-a44cb5c77c53","ios":"levelo://app?vid=dcdfafc4-ad04-4f03-b713-a44cb5c77c53"},"vehicle_type_id":"4","last_reported":1740546573,"current_range_meters":10800,"station_id":"ce4bh312rcd13ifvqdj0","pricing_plan_id":"cebpf4jnsgd1na2vs0mg"},{"bike_id":"bb197dcb-4af2-40a1-b597-f15826b08c4b","system_id":"levelo_inurba_marseille","lat":43.31349,"lon":5.38517,"is_reserved":false,"is_disabled":false,"rental_uris":{"android":"levelo://app?vid=bb197dcb-4af2-40a1-b597-f15826b08c4b","ios":"levelo://app?vid=bb197dcb-4af2-40a1-b597-f15826b08c4b"},"vehicle_type_id":"4","last_reported":1740546573,"current_range_meters":10800,"station_id":"ce4bgt92rcd13ifvqcf0","pricing_plan_id":"cebpf4jnsgd1na2vs0mg"},{"bike_id":"ef43e7bb-6fd0-457c-a593-1d12bb6179f7","system_id":"levelo_inurba_marseille","lat":43.30646,"lon":5.40081,"is_reserved":false,"is_disabled":false,"rental_uris":{"android":"levelo://app?vid=ef43e7bb-6fd0-457c-a593-1d12bb6179f7","ios":"levelo://app?vid=ef43e7bb-6fd0-457c-a593-1d12bb6179f7"},"vehicle_type_id":"4","last_reported":1740546573,"current_range_meters":10000,"station_id":"ce4bh112rcd13ifvqda0","pricing_plan_id":"cebpf4jnsgd1na2vs0mg"},{"bike_id":"62aba03d-465e-4478-a054-d828e4250577","system_id":"levelo_inurba_marseille","lat":43.28267,"lon":5.35084,"is_reserved":false,"is_disabled":false,"rental_uris":{"android":"levelo://app?vid=62aba03d-465e-4478-a054-d828e4250577","ios":"levelo://app?vid=62aba03d-465e-4478-a054-d828e4250577"},"vehicle_type_id":"4","last_reported":1740546573,"current_range_meters":10800,"station_id":"ce4bhbp2rcd13ifvqerg","pricing_plan_id":"cebpf4jnsgd1na2vs0mg"},{"bike_id":"7c8aaa9b-e43a-43de-8b4f-a531a44d3724","system_id":"levelo_inurba_marseille","lat":43.27949,"lon":5.41038,"is_reserved":false,"is_disabled":false,"rental_uris":{"android":"levelo://app?vid=7c8aaa9b-e43a-43de-8b4f-a531a44d3724","ios":"levelo://app?vid=7c8aaa9b-e43a-43de-8b4f-a531a44d3724"},"vehicle_type_id":"4","last_reported":1740546573,"current_range_meters":10800,"station_id":"ce4bhnp2rcd13ifvqh0g","pricing_plan_id":"cebpf4jnsgd1na2vs0mg"},{"bike_id":"6b286004-f086-4023-9675-02a95f8e917b","system_id":"levelo_inurba_marseille","lat":43.30946,"lon":5.3903,"is_reserved":false,"is_disabled":true,"rental_uris":{"android":"levelo://app?vid=6b286004-f086-4023-9675-02a95f8e917b","ios":"levelo://app?vid=6b286004-f086-4023-9675-02a95f8e917b"},"vehicle_type_id":"4","last_reported":1740546573,"current_range_meters":11200,"station_id":"ce4bgup2rcd13ifvqco0","pricing_plan_id":"cebpf4jnsgd1na2vs0mg"},{"bike_id":"b007f058-4163-4bbe-ba13-50835769bd43","system_id":"levelo_inurba_marseille","lat":43.31713,"lon":5.43713,"is_reserved":false,"is_disabled":false,"rental_uris":{"android":"levelo://app?vid=b007f058-4163-4bbe-ba13-50835769bd43","ios":"levelo://app?vid=b007f058-4163-4bbe-ba13-50835769bd43"},"vehicle_type_id":"4","last_reported":1740546573,"current_range_meters":10800,"station_id":"ce4bhp92rcd13ifvqhcg","pricing_plan_id":"cebpf4jnsgd1na2vs0mg"},{"bike_id":"b5ef496e-edc2-4cce-8437-d1b23ff8eaed","system_id":"levelo_inurba_marseille","lat":43.31168,"lon":5.38712,"is_reserved":false,"is_disabled":false,"rental_uris":{"android":"levelo://app?vid=b5ef496e-edc2-4cce-8437-d1b23ff8eaed","ios":"levelo://app?vid=b5ef496e-edc2-4cce-8437-d1b23ff8eaed"},"vehicle_type_id":"4","last_reported":1740546573,"current_range_meters":10800,"station_id":"ce4bgv12rcd13ifvqcp0","pricing_plan_id":"cebpf4jnsgd1na2vs0mg"},{"bike_id":"2cbc35b5-e249-4e17-a6c3-4f15da01fe6b","system_id":"levelo_inurba_marseille","lat":43.25733,"lon":5.41091,"is_reserved":false,"is_disabled":false,"rental_uris":{"android":"levelo://app?vid=2cbc35b5-e249-4e17-a6c3-4f15da01fe6b","ios":"levelo://app?vid=2cbc35b5-e249-4e17-a6c3-4f15da01fe6b"},"vehicle_type_id":"4","last_reported":1740546573,"current_range_meters":11200,"station_id":"ce4bhkp2rcd13ifvqgd0","pricing_plan_id":"cebpf4jnsgd1na2vs0mg"},{"bike_id":"009622b0-3048-4fd8-bee7-5cfebd96bfb4","system_id":"levelo_inurba_marseille","lat":43.25038,"lon":5.39568,"is_reserved":false,"is_disabled":false,"rental_uris":{"android":"levelo://app?vid=009622b0-3048-4fd8-bee7-5cfebd96bfb4","ios":"levelo://app?vid=009622b0-3048-4fd8-bee7-5cfebd96bfb4"},"vehicle_type_id":"4","last_reported":1740546573,"current_range_meters":11200,"station_id":"","pricing_plan_id":"cebpf4jnsgd1na2vs0mg"},{"bike_id":"ddcbdb05-f1e6-45e2-b34f-57d7fd020824","system_id":"levelo_inurba_marseille","lat":43.31169,"lon":5.38708,"is_reserved":false,"is_disabled":false,"rental_uris":{"android":"levelo://app?vid=ddcbdb05-f1e6-45e2-b34f-57d7fd020824","ios":"levelo://app?vid=ddcbdb05-f1e6-45e2-b34f-57d7fd020824"},"vehicle_type_id":"4","last_reported":1740546573,"current_range_meters":11200,"station_id":"ce4bgv12rcd13ifvqcp0","pricing_plan_id":"cebpf4jnsgd1na2vs0mg"},{"bike_id":"85710084-a931-47e8-ab4c-1f19a337f065","system_id":"levelo_inurba_marseille","lat":43.29165,"lon":5.38614,"is_reserved":false,"is_disabled":false,"rental_uris":{"android":"levelo://app?vid=85710084-a931-47e8-ab4c-1f19a337f065","ios":"levelo://app?vid=85710084-a931-47e8-ab4c-1f19a337f065"},"vehicle_type_id":"4","last_reported":1740546573,"current_range_meters":11200,"station_id":"","pricing_plan_id":"cebpf4jnsgd1na2vs0mg"},{"bike_id":"6d868570-4a79-4602-b067-8f69145b3a5c","system_id":"levelo_inurba_marseille","lat":43.27807,"lon":5.40711,"is_reserved":false,"is_disabled":false,"rental_uris":{"android":"levelo://app?vid=6d868570-4a79-4602-b067-8f69145b3a5c","ios":"levelo://app?vid=6d868570-4a79-4602-b067-8f69145b3a5c"},"vehicle_type_id":"4","last_reported":1740546573,"current_range_meters":11200,"station_id":"ce4bhnh2rcd13ifvqgtg","pricing_plan_id":"cebpf4jnsgd1na2vs0mg"},{"bike_id":"1f6bbfe9-aae7-43d5-a4ef-153399ef3f5f","system_id":"levelo_inurba_marseille","lat":43.32291,"lon":5.38844,"is_reserved":false,"is_disabled":false,"rental_uris":{"android":"levelo://app?vid=1f6bbfe9-aae7-43d5-a4ef-153399ef3f5f","ios":"levelo://app?vid=1f6bbfe9-aae7-43d5-a4ef-153399ef3f5f"},"vehicle_type_id":"4","last_reported":1740546573,"current_range_meters":11200,"station_id":"","pricing_plan_id":"cebpf4jnsgd1na2vs0mg"},{"bike_id":"28c3c768-a907-4c23-bf24-a49a1e1e5bae","system_id":"levelo_inurba_marseille","lat":43.29184,"lon":5.38393,"is_reserved":false,"is_disabled":false,"rental_uris":{"android":"levelo://app?vid=28c3c768-a907-4c23-bf24-a49a1e1e5bae","ios":"levelo://app?vid=28c3c768-a907-4c23-bf24-a49a1e1e5bae"},"vehicle_type_id":"4","last_reported":1740546573,"current_range_meters":11200,"station_id":"","pricing_plan_id":"cebpf4jnsgd1na2vs0mg"},{"bike_id":"d0801915-0de0-4f9d-9726-750b42c06614","system_id":"levelo_inurba_marseille","lat":43.32112,"lon":5.36772,"is_reserved":false,"is_disabled":false,"rental_uris":{"android":"levelo://app?vid=d0801915-0de0-4f9d-9726-750b42c06614","ios":"levelo://app?vid=d0801915-0de0-4f9d-9726-750b42c06614"},"vehicle_type_id":"4","last_reported":1740546573,"current_range_meters":11200,"station_id":"ce4bhrh2rcd13ifvqhug","pricing_plan_id":"cebpf4jnsgd1na2vs0mg"},{"bike_id":"94c8a369-487e-4729-98d9-9c7a116328cd","system_id":"levelo_inurba_marseille","lat":43.26801,"lon":5.40246,"is_reserved":false,"is_disabled":false,"rental_uris":{"android":"levelo://app?vid=94c8a369-487e-4729-98d9-9c7a116328cd","ios":"levelo://app?vid=94c8a369-487e-4729-98d9-9c7a116328cd"},"vehicle_type_id":"4","last_reported":1740546573,"current_range_meters":11600,"station_id":"ce501612rcd8frsf0b60","pricing_plan_id":"cebpf4jnsgd1na2vs0mg"},{"bike_id":"263b89b7-340a-47a2-b446-1235e81c65ac","system_id":"levelo_inurba_marseille","lat":43.30231,"lon":5.40029,"is_reserved":false,"is_disabled":false,"rental_uris":{"android":"levelo://app?vid=263b89b7-340a-47a2-b446-1235e81c65ac","ios":"levelo://app?vid=263b89b7-340a-47a2-b446-1235e81c65ac"},"vehicle_type_id":"4","last_reported":1740546573,"current_range_meters":11600,"station_id":"ce4bgvh2rcd13ifvqcs0","pricing_plan_id":"cebpf4jnsgd1na2vs0mg"},{"bike_id":"0a089428-bbf6-4308-bf3d-1d45254d436e","system_id":"levelo_inurba_marseille","lat":43.25089,"lon":5.39512,"is_reserved":false,"is_disabled":false,"rental_uris":{"android":"levelo://app?vid=0a089428-bbf6-4308-bf3d-1d45254d436e","ios":"levelo://app?vid=0a089428-bbf6-4308-bf3d-1d45254d436e"},"vehicle_type_id":"4","last_reported":1740546573,"current_range_meters":11600,"station_id":"ce4bhm12rcd13ifvqgkg","pricing_plan_id":"cebpf4jnsgd1na2vs0mg"},{"bike_id":"d8194821-a6dc-48be-8daf-fce5f22f5f0e","system_id":"levelo_inurba_marseille","lat":43.28665,"lon":5.363444,"is_reserved":false,"is_disabled":false,"rental_uris":{"android":"levelo://app?vid=d8194821-a6dc-48be-8daf-fce5f22f5f0e","ios":"levelo://app?vid=d8194821-a6dc-48be-8daf-fce5f22f5f0e"},"vehicle_type_id":"4","last_reported":1740546573,"current_range_meters":11600,"station_id":"ce4bhah2rcd13ifvqej0","pricing_plan_id":"cebpf4jnsgd1na2vs0mg"},{"bike_id":"d9b1bbe6-7852-4729-9be6-dbd5e1000d90","system_id":"levelo_inurba_marseille","lat":43.28365,"lon":5.38619,"is_reserved":false,"is_disabled":false,"rental_uris":{"android":"levelo://app?vid=d9b1bbe6-7852-4729-9be6-dbd5e1000d90","ios":"levelo://app?vid=d9b1bbe6-7852-4729-9be6-dbd5e1000d90"},"vehicle_type_id":"4","last_reported":1740546573,"current_range_meters":11600,"station_id":"ce4bh492rcd13ifvqdvg","pricing_plan_id":"cebpf4jnsgd1na2vs0mg"},{"bike_id":"960f2ba3-e440-4e76-8d2f-9f13a224dcf3","system_id":"levelo_inurba_marseille","lat":43.28085,"lon":5.39668,"is_reserved":false,"is_disabled":false,"rental_uris":{"android":"levelo://app?vid=960f2ba3-e440-4e76-8d2f-9f13a224dcf3","ios":"levelo://app?vid=960f2ba3-e440-4e76-8d2f-9f13a224dcf3"},"vehicle_type_id":"4","last_reported":1740546573,"current_range_meters":11600,"station_id":"ce4bho12rcd13ifvqh2g","pricing_plan_id":"cebpf4jnsgd1na2vs0mg"},{"bike_id":"51316f82-966e-483b-a199-c35a3316c870","system_id":"levelo_inurba_marseille","lat":43.2656,"lon":5.3729,"is_reserved":false,"is_disabled":false,"rental_uris":{"android":"levelo://app?vid=51316f82-966e-483b-a199-c35a3316c870","ios":"levelo://app?vid=51316f82-966e-483b-a199-c35a3316c870"},"vehicle_type_id":"4","last_reported":1740546573,"current_range_meters":11600,"station_id":"ce4bhg12rcd13ifvqf70","pricing_plan_id":"cebpf4jnsgd1na2vs0mg"},{"bike_id":"6f0898ca-1c6f-43fb-9cc7-a6f6c795f765","system_id":"levelo_inurba_marseille","lat":43.24536,"lon":5.3953,"is_reserved":false,"is_disabled":false,"rental_uris":{"android":"levelo://app?vid=6f0898ca-1c6f-43fb-9cc7-a6f6c795f765","ios":"levelo://app?vid=6f0898ca-1c6f-43fb-9cc7-a6f6c795f765"},"vehicle_type_id":"4","last_reported":1740546573,"current_range_meters":11600,"station_id":"ce4bhlp2rcd13ifvqgjg","pricing_plan_id":"cebpf4jnsgd1na2vs0mg"},{"bike_id":"08c01866-a764-4945-a045-cd29291dd22a","system_id":"levelo_inurba_marseille","lat":43.30329,"lon":5.40437,"is_reserved":false,"is_disabled":false,"rental_uris":{"android":"levelo://app?vid=08c01866-a764-4945-a045-cd29291dd22a","ios":"levelo://app?vid=08c01866-a764-4945-a045-cd29291dd22a"},"vehicle_type_id":"4","last_reported":1740546573,"current_range_meters":12000,"station_id":"ce4bh012rcd13ifvqd10","pricing_plan_id":"cebpf4jnsgd1na2vs0mg"},{"bike_id":"404d7168-3055-4397-84b9-2494f4fddb5e","system_id":"levelo_inurba_marseille","lat":43.30886,"lon":5.39656,"is_reserved":false,"is_disabled":false,"rental_uris":{"android":"levelo://app?vid=404d7168-3055-4397-84b9-2494f4fddb5e","ios":"levelo://app?vid=404d7168-3055-4397-84b9-2494f4fddb5e"},"vehicle_type_id":"4","last_reported":1740546573,"current_range_meters":12000,"station_id":"ce4bh012rcd13ifvqcv0","pricing_plan_id":"cebpf4jnsgd1na2vs0mg"},{"bike_id":"b6a4cfb9-fdd3-4bf6-9402-2e45d150b5a9","system_id":"levelo_inurba_marseille","lat":43.31762,"lon":5.3902,"is_reserved":false,"is_disabled":false,"rental_uris":{"android":"levelo://app?vid=b6a4cfb9-fdd3-4bf6-9402-2e45d150b5a9","ios":"levelo://app?vid=b6a4cfb9-fdd3-4bf6-9402-2e45d150b5a9"},"vehicle_type_id":"4","last_reported":1740546573,"current_range_meters":12000,"station_id":"ce4bhqp2rcd13ifvqhng","pricing_plan_id":"cebpf4jnsgd1na2vs0mg"},{"bike_id":"f754b620-6f47-4247-8043-3ccef62258e4","system_id":"levelo_inurba_marseille","lat":43.29881,"lon":5.39727,"is_reserved":false,"is_disabled":false,"rental_uris":{"android":"levelo://app?vid=f754b620-6f47-4247-8043-3ccef62258e4","ios":"levelo://app?vid=f754b620-6f47-4247-8043-3ccef62258e4"},"vehicle_type_id":"4","last_reported":1740546573,"current_range_meters":12000,"station_id":"ce4bh0h2rcd13ifvqd50","pricing_plan_id":"cebpf4jnsgd1na2vs0mg"},{"bike_id":"707d2abc-f6e4-4c9a-a0bd-f86c44aa822d","system_id":"levelo_inurba_marseille","lat":43.28282,"lon":5.3507,"is_reserved":false,"is_disabled":false,"rental_uris":{"android":"levelo://app?vid=707d2abc-f6e4-4c9a-a0bd-f86c44aa822d","ios":"levelo://app?vid=707d2abc-f6e4-4c9a-a0bd-f86c44aa822d"},"vehicle_type_id":"4","last_reported":1740546573,"current_range_meters":12000,"station_id":"ce4bhbp2rcd13ifvqerg","pricing_plan_id":"cebpf4jnsgd1na2vs0mg"},{"bike_id":"dfd23175-6a62-4c95-a53c-9500be447999","system_id":"levelo_inurba_marseille","lat":43.24065,"lon":5.37756,"is_reserved":false,"is_disabled":false,"rental_uris":{"android":"levelo://app?vid=dfd23175-6a62-4c95-a53c-9500be447999","ios":"levelo://app?vid=dfd23175-6a62-4c95-a53c-9500be447999"},"vehicle_type_id":"4","last_reported":1740546573,"current_range_meters":12000,"station_id":"ce4bhnp2rcd13ifvqgvg","pricing_plan_id":"cebpf4jnsgd1na2vs0mg"},{"bike_id":"a8692879-7eca-4d99-8e8d-c7aaad0f16fb","system_id":"levelo_inurba_marseille","lat":43.24806,"lon":5.37449,"is_reserved":false,"is_disabled":false,"rental_uris":{"android":"levelo://app?vid=a8692879-7eca-4d99-8e8d-c7aaad0f16fb","ios":"levelo://app?vid=a8692879-7eca-4d99-8e8d-c7aaad0f16fb"},"vehicle_type_id":"4","last_reported":1740546573,"current_range_meters":12400,"station_id":"ce4bhgh2rcd13ifvqfb0","pricing_plan_id":"cebpf4jnsgd1na2vs0mg"},{"bike_id":"be6c8724-7af3-4554-89a2-f2ab10eaeb46","system_id":"levelo_inurba_marseille","lat":43.30872,"lon":5.39627,"is_reserved":false,"is_disabled":false,"rental_uris":{"android":"levelo://app?vid=be6c8724-7af3-4554-89a2-f2ab10eaeb46","ios":"levelo://app?vid=be6c8724-7af3-4554-89a2-f2ab10eaeb46"},"vehicle_type_id":"4","last_reported":1740546573,"current_range_meters":12400,"station_id":"ce4bh012rcd13ifvqcv0","pricing_plan_id":"cebpf4jnsgd1na2vs0mg"},{"bike_id":"67ee95a1-160f-49c1-b11e-b3640680cd0d","system_id":"levelo_inurba_marseille","lat":43.32109,"lon":5.36778,"is_reserved":false,"is_disabled":false,"rental_uris":{"android":"levelo://app?vid=67ee95a1-160f-49c1-b11e-b3640680cd0d","ios":"levelo://app?vid=67ee95a1-160f-49c1-b11e-b3640680cd0d"},"vehicle_type_id":"4","last_reported":1740546573,"current_range_meters":12400,"station_id":"ce4bhrh2rcd13ifvqhug","pricing_plan_id":"cebpf4jnsgd1na2vs0mg"},{"bike_id":"237fc719-744f-48a1-a4af-7254838604fb","system_id":"levelo_inurba_marseille","lat":43.29203,"lon":5.39323,"is_reserved":false,"is_disabled":false,"rental_uris":{"android":"levelo://app?vid=237fc719-744f-48a1-a4af-7254838604fb","ios":"levelo://app?vid=237fc719-744f-48a1-a4af-7254838604fb"},"vehicle_type_id":"4","last_reported":1740546573,"current_range_meters":12800,"station_id":"ce4bh192rcd13ifvqdd0","pricing_plan_id":"cebpf4jnsgd1na2vs0mg"},{"bike_id":"94af3076-c8aa-41a7-b396-c0fe68bb6a60","system_id":"levelo_inurba_marseille","lat":43.31282,"lon":5.40173,"is_reserved":false,"is_disabled":false,"rental_uris":{"android":"levelo://app?vid=94af3076-c8aa-41a7-b396-c0fe68bb6a60","ios":"levelo://app?vid=94af3076-c8aa-41a7-b396-c0fe68bb6a60"},"vehicle_type_id":"4","last_reported":1740546573,"current_range_meters":12400,"station_id":"ce4bh092rcd13ifvqd30","pricing_plan_id":"cebpf4jnsgd1na2vs0mg"},{"bike_id":"60577a67-a71c-49c7-a3d3-a6d09ddf27b8","system_id":"levelo_inurba_marseille","lat":43.28416,"lon":5.37514,"is_reserved":false,"is_disabled":false,"rental_uris":{"android":"levelo://app?vid=60577a67-a71c-49c7-a3d3-a6d09ddf27b8","ios":"levelo://app?vid=60577a67-a71c-49c7-a3d3-a6d09ddf27b8"},"vehicle_type_id":"4","last_reported":1740546573,"current_range_meters":12800,"station_id":"ce4bh412rcd13ifvqds0","pricing_plan_id":"cebpf4jnsgd1na2vs0mg"},{"bike_id":"3095d205-57ae-414b-b535-89d6f7c8e370","system_id":"levelo_inurba_marseille","lat":43.28958,"lon":5.36548,"is_reserved":false,"is_disabled":false,"rental_uris":{"android":"levelo://app?vid=3095d205-57ae-414b-b535-89d6f7c8e370","ios":"levelo://app?vid=3095d205-57ae-414b-b535-89d6f7c8e370"},"vehicle_type_id":"4","last_reported":1740546573,"current_range_meters":12800,"station_id":"","pricing_plan_id":"cebpf4jnsgd1na2vs0mg"},{"bike_id":"78478cef-43d2-4961-afc3-36124209df6e","system_id":"levelo_inurba_marseille","lat":43.2838,"lon":5.38621,"is_reserved":false,"is_disabled":false,"rental_uris":{"android":"levelo://app?vid=78478cef-43d2-4961-afc3-36124209df6e","ios":"levelo://app?vid=78478cef-43d2-4961-afc3-36124209df6e"},"vehicle_type_id":"4","last_reported":1740546573,"current_range_meters":12800,"station_id":"ce4bh492rcd13ifvqdvg","pricing_plan_id":"cebpf4jnsgd1na2vs0mg"},{"bike_id":"6eb96f3f-f79b-4545-ad63-c0e6f7e9e474","system_id":"levelo_inurba_marseille","lat":43.29255,"lon":5.40904,"is_reserved":false,"is_disabled":false,"rental_uris":{"android":"levelo://app?vid=6eb96f3f-f79b-4545-ad63-c0e6f7e9e474","ios":"levelo://app?vid=6eb96f3f-f79b-4545-ad63-c0e6f7e9e474"},"vehicle_type_id":"4","last_reported":1740546573,"current_range_meters":13600,"station_id":"ce4bh192rcd13ifvqdc0","pricing_plan_id":"cebpf4jnsgd1na2vs0mg"},{"bike_id":"bb953524-1b92-4c01-b6f7-6c8d4a329874","system_id":"levelo_inurba_marseille","lat":43.28276,"lon":5.35077,"is_reserved":false,"is_disabled":false,"rental_uris":{"android":"levelo://app?vid=bb953524-1b92-4c01-b6f7-6c8d4a329874","ios":"levelo://app?vid=bb953524-1b92-4c01-b6f7-6c8d4a329874"},"vehicle_type_id":"4","last_reported":1740546573,"current_range_meters":13600,"station_id":"ce4bhbp2rcd13ifvqerg","pricing_plan_id":"cebpf4jnsgd1na2vs0mg"},{"bike_id":"14da5b8d-a35a-4c7d-aa17-4ca1672b8b84","system_id":"levelo_inurba_marseille","lat":43.28738,"lon":5.36075,"is_reserved":false,"is_disabled":false,"rental_uris":{"android":"levelo://app?vid=14da5b8d-a35a-4c7d-aa17-4ca1672b8b84","ios":"levelo://app?vid=14da5b8d-a35a-4c7d-aa17-4ca1672b8b84"},"vehicle_type_id":"4","last_reported":1740546573,"current_range_meters":13600,"station_id":"cki0cbj6b192h4jlfktg","pricing_plan_id":"cebpf4jnsgd1na2vs0mg"},{"bike_id":"daf11c2b-f621-49a6-9132-098ef985992e","system_id":"levelo_inurba_marseille","lat":43.25393,"lon":5.4186,"is_reserved":false,"is_disabled":false,"rental_uris":{"android":"levelo://app?vid=daf11c2b-f621-49a6-9132-098ef985992e","ios":"levelo://app?vid=daf11c2b-f621-49a6-9132-098ef985992e"},"vehicle_type_id":"4","last_reported":1740546573,"current_range_meters":13600,"station_id":"","pricing_plan_id":"cebpf4jnsgd1na2vs0mg"},{"bike_id":"0b2f5009-1e4e-4593-8abd-b74dc1937c26","system_id":"levelo_inurba_marseille","lat":43.232,"lon":5.39966,"is_reserved":false,"is_disabled":false,"rental_uris":{"android":"levelo://app?vid=0b2f5009-1e4e-4593-8abd-b74dc1937c26","ios":"levelo://app?vid=0b2f5009-1e4e-4593-8abd-b74dc1937c26"},"vehicle_type_id":"4","last_reported":1740546573,"current_range_meters":14000,"station_id":"ce4bhn12rcd13ifvqgqg","pricing_plan_id":"cebpf4jnsgd1na2vs0mg"},{"bike_id":"c0ed74a2-e2a8-41f0-9b03-a680909f2682","system_id":"levelo_inurba_marseille","lat":43.27937,"lon":5.41043,"is_reserved":false,"is_disabled":false,"rental_uris":{"android":"levelo://app?vid=c0ed74a2-e2a8-41f0-9b03-a680909f2682","ios":"levelo://app?vid=c0ed74a2-e2a8-41f0-9b03-a680909f2682"},"vehicle_type_id":"4","last_reported":1740546573,"current_range_meters":14000,"station_id":"ce4bhnp2rcd13ifvqh0g","pricing_plan_id":"cebpf4jnsgd1na2vs0mg"},{"bike_id":"8db8acd5-98e2-4787-9085-e1f905a7152f","system_id":"levelo_inurba_marseille","lat":43.28711,"lon":5.37376,"is_reserved":false,"is_disabled":false,"rental_uris":{"android":"levelo://app?vid=8db8acd5-98e2-4787-9085-e1f905a7152f","ios":"levelo://app?vid=8db8acd5-98e2-4787-9085-e1f905a7152f"},"vehicle_type_id":"4","last_reported":1740546573,"current_range_meters":14400,"station_id":"ce4bh3p2rcd13ifvqdq0","pricing_plan_id":"cebpf4jnsgd1na2vs0mg"},{"bike_id":"202d5551-8bb9-40c9-9462-5f200f6aec74","system_id":"levelo_inurba_marseille","lat":43.2845,"lon":5.39173,"is_reserved":false,"is_disabled":false,"rental_uris":{"android":"levelo://app?vid=202d5551-8bb9-40c9-9462-5f200f6aec74","ios":"levelo://app?vid=202d5551-8bb9-40c9-9462-5f200f6aec74"},"vehicle_type_id":"4","last_reported":1740546573,"current_range_meters":14400,"station_id":"ce4bhoh2rcd13ifvqh5g","pricing_plan_id":"cebpf4jnsgd1na2vs0mg"},{"bike_id":"013c533e-c991-49dd-ac74-d8803d35e56c","system_id":"levelo_inurba_marseille","lat":43.285843,"lon":5.397461,"is_reserved":false,"is_disabled":false,"rental_uris":{"android":"levelo://app?vid=013c533e-c991-49dd-ac74-d8803d35e56c","ios":"levelo://app?vid=013c533e-c991-49dd-ac74-d8803d35e56c"},"vehicle_type_id":"4","last_reported":1740546573,"current_range_meters":14400,"station_id":"ce4bh292rcd13ifvqdg0","pricing_plan_id":"cebpf4jnsgd1na2vs0mg"},{"bike_id":"2285c932-96d2-4e25-b5ab-a9d3a942aa52","system_id":"levelo_inurba_marseille","lat":43.32275,"lon":5.38274,"is_reserved":false,"is_disabled":false,"rental_uris":{"android":"levelo://app?vid=2285c932-96d2-4e25-b5ab-a9d3a942aa52","ios":"levelo://app?vid=2285c932-96d2-4e25-b5ab-a9d3a942aa52"},"vehicle_type_id":"4","last_reported":1740546573,"current_range_meters":14400,"station_id":"ce4bhr12rcd13ifvqhqg","pricing_plan_id":"cebpf4jnsgd1na2vs0mg"},{"bike_id":"12451835-3853-43ca-a98e-147997a5e2b1","system_id":"levelo_inurba_marseille","lat":43.28472,"lon":5.35879,"is_reserved":false,"is_disabled":false,"rental_uris":{"android":"levelo://app?vid=12451835-3853-43ca-a98e-147997a5e2b1","ios":"levelo://app?vid=12451835-3853-43ca-a98e-147997a5e2b1"},"vehicle_type_id":"4","last_reported":1740546573,"current_range_meters":14400,"station_id":"ce4bhah2rcd13ifvqei0","pricing_plan_id":"cebpf4jnsgd1na2vs0mg"},{"bike_id":"56c90c05-21dd-4258-af01-641c62e92e64","system_id":"levelo_inurba_marseille","lat":43.28649,"lon":5.35091,"is_reserved":false,"is_disabled":false,"rental_uris":{"android":"levelo://app?vid=56c90c05-21dd-4258-af01-641c62e92e64","ios":"levelo://app?vid=56c90c05-21dd-4258-af01-641c62e92e64"},"vehicle_type_id":"4","last_reported":1740546573,"current_range_meters":14400,"station_id":"ce4bhch2rcd13ifvqeug","pricing_plan_id":"cebpf4jnsgd1na2vs0mg"},{"bike_id":"b426a55b-6079-4410-bdcf-64a0360c349f","system_id":"levelo_inurba_marseille","lat":43.28423,"lon":5.34987,"is_reserved":false,"is_disabled":false,"rental_uris":{"android":"levelo://app?vid=b426a55b-6079-4410-bdcf-64a0360c349f","ios":"levelo://app?vid=b426a55b-6079-4410-bdcf-64a0360c349f"},"vehicle_type_id":"4","last_reported":1740546573,"current_range_meters":14400,"station_id":"ce4bhbh2rcd13ifvqepg","pricing_plan_id":"cebpf4jnsgd1na2vs0mg"},{"bike_id":"7c4112af-4220-42f6-98e8-9f0ad4c08842","system_id":"levelo_inurba_marseille","lat":43.28416,"lon":5.37509,"is_reserved":false,"is_disabled":false,"rental_uris":{"android":"levelo://app?vid=7c4112af-4220-42f6-98e8-9f0ad4c08842","ios":"levelo://app?vid=7c4112af-4220-42f6-98e8-9f0ad4c08842"},"vehicle_type_id":"4","last_reported":1740546573,"current_range_meters":14400,"station_id":"ce4bh412rcd13ifvqds0","pricing_plan_id":"cebpf4jnsgd1na2vs0mg"},{"bike_id":"d87b78e1-3377-48df-a130-991f4ba63b5b","system_id":"levelo_inurba_marseille","lat":43.29921,"lon":5.39739,"is_reserved":false,"is_disabled":false,"rental_uris":{"android":"levelo://app?vid=d87b78e1-3377-48df-a130-991f4ba63b5b","ios":"levelo://app?vid=d87b78e1-3377-48df-a130-991f4ba63b5b"},"vehicle_type_id":"4","last_reported":1740546573,"current_range_meters":14400,"station_id":"","pricing_plan_id":"cebpf4jnsgd1na2vs0mg"},{"bike_id":"f240de7b-0068-4fca-a36e-d80ef8cdda6e","system_id":"levelo_inurba_marseille","lat":43.31518,"lon":5.3805,"is_reserved":false,"is_disabled":false,"rental_uris":{"android":"levelo://app?vid=f240de7b-0068-4fca-a36e-d80ef8cdda6e","ios":"levelo://app?vid=f240de7b-0068-4fca-a36e-d80ef8cdda6e"},"vehicle_type_id":"4","last_reported":1740546573,"current_range_meters":14400,"station_id":"ce4bhsp2rcd13ifvqi50","pricing_plan_id":"cebpf4jnsgd1na2vs0mg"},{"bike_id":"0d2c85bc-9757-499e-8d71-b093d0d3dee8","system_id":"levelo_inurba_marseille","lat":43.28372,"lon":5.38642,"is_reserved":false,"is_disabled":false,"rental_uris":{"android":"levelo://app?vid=0d2c85bc-9757-499e-8d71-b093d0d3dee8","ios":"levelo://app?vid=0d2c85bc-9757-499e-8d71-b093d0d3dee8"},"vehicle_type_id":"4","last_reported":1740546573,"current_range_meters":14400,"station_id":"ce4bh492rcd13ifvqdvg","pricing_plan_id":"cebpf4jnsgd1na2vs0mg"},{"bike_id":"e9bf8700-43e9-4ad9-bd52-ca2f22661089","system_id":"levelo_inurba_marseille","lat":43.28474,"lon":5.3588,"is_reserved":false,"is_disabled":false,"rental_uris":{"android":"levelo://app?vid=e9bf8700-43e9-4ad9-bd52-ca2f22661089","ios":"levelo://app?vid=e9bf8700-43e9-4ad9-bd52-ca2f22661089"},"vehicle_type_id":"4","last_reported":1740546573,"current_range_meters":15200,"station_id":"ce4bhah2rcd13ifvqei0","pricing_plan_id":"cebpf4jnsgd1na2vs0mg"},{"bike_id":"7e082406-6073-4384-8018-e6bedfa22b7f","system_id":"levelo_inurba_marseille","lat":43.28841,"lon":5.3583,"is_reserved":false,"is_disabled":false,"rental_uris":{"android":"levelo://app?vid=7e082406-6073-4384-8018-e6bedfa22b7f","ios":"levelo://app?vid=7e082406-6073-4384-8018-e6bedfa22b7f"},"vehicle_type_id":"4","last_reported":1740546573,"current_range_meters":14800,"station_id":"ce4bhb12rcd13ifvqem0","pricing_plan_id":"cebpf4jnsgd1na2vs0mg"},{"bike_id":"7fcde7d0-6ee8-4684-b803-59f3b19e21eb","system_id":"levelo_inurba_marseille","lat":43.28401,"lon":5.37503,"is_reserved":false,"is_disabled":false,"rental_uris":{"android":"levelo://app?vid=7fcde7d0-6ee8-4684-b803-59f3b19e21eb","ios":"levelo://app?vid=7fcde7d0-6ee8-4684-b803-59f3b19e21eb"},"vehicle_type_id":"4","last_reported":1740546573,"current_range_meters":15200,"station_id":"ce4bh412rcd13ifvqds0","pricing_plan_id":"cebpf4jnsgd1na2vs0mg"},{"bike_id":"134ae0c0-4a2e-43fe-ac00-96839d582905","system_id":"levelo_inurba_marseille","lat":43.30296,"lon":5.39188,"is_reserved":false,"is_disabled":false,"rental_uris":{"android":"levelo://app?vid=134ae0c0-4a2e-43fe-ac00-96839d582905","ios":"levelo://app?vid=134ae0c0-4a2e-43fe-ac00-96839d582905"},"vehicle_type_id":"4","last_reported":1740546573,"current_range_meters":15200,"station_id":"ce4bgkh2rcd13ifvqbk0","pricing_plan_id":"cebpf4jnsgd1na2vs0mg"},{"bike_id":"35574852-253b-4bbe-a6e3-ee31965d9ec8","system_id":"levelo_inurba_marseille","lat":43.32371,"lon":5.38881,"is_reserved":false,"is_disabled":false,"rental_uris":{"android":"levelo://app?vid=35574852-253b-4bbe-a6e3-ee31965d9ec8","ios":"levelo://app?vid=35574852-253b-4bbe-a6e3-ee31965d9ec8"},"vehicle_type_id":"4","last_reported":1740546573,"current_range_meters":15200,"station_id":"ce4bhqp2rcd13ifvqhog","pricing_plan_id":"cebpf4jnsgd1na2vs0mg"},{"bike_id":"1f8fd212-6e49-4507-86eb-4c1e4b5c63bb","system_id":"levelo_inurba_marseille","lat":43.284376,"lon":5.391817,"is_reserved":false,"is_disabled":false,"rental_uris":{"android":"levelo://app?vid=1f8fd212-6e49-4507-86eb-4c1e4b5c63bb","ios":"levelo://app?vid=1f8fd212-6e49-4507-86eb-4c1e4b5c63bb"},"vehicle_type_id":"4","last_reported":1740546573,"current_range_meters":15200,"station_id":"ce4bhoh2rcd13ifvqh5g","pricing_plan_id":"cebpf4jnsgd1na2vs0mg"},{"bike_id":"40bd775e-5ce3-4948-be2f-acfa8e48e7a0","system_id":"levelo_inurba_marseille","lat":43.2863,"lon":5.35106,"is_reserved":false,"is_disabled":false,"rental_uris":{"android":"levelo://app?vid=40bd775e-5ce3-4948-be2f-acfa8e48e7a0","ios":"levelo://app?vid=40bd775e-5ce3-4948-be2f-acfa8e48e7a0"},"vehicle_type_id":"4","last_reported":1740546573,"current_range_meters":15200,"station_id":"ce4bhch2rcd13ifvqeug","pricing_plan_id":"cebpf4jnsgd1na2vs0mg"},{"bike_id":"026bb17a-b7c5-4bbe-aede-f50b82b9247c","system_id":"levelo_inurba_marseille","lat":43.33013,"lon":5.39049,"is_reserved":false,"is_disabled":false,"rental_uris":{"android":"levelo://app?vid=026bb17a-b7c5-4bbe-aede-f50b82b9247c","ios":"levelo://app?vid=026bb17a-b7c5-4bbe-aede-f50b82b9247c"},"vehicle_type_id":"4","last_reported":1740546573,"current_range_meters":16000,"station_id":"ce4bhr92rcd13ifvqhrg","pricing_plan_id":"cebpf4jnsgd1na2vs0mg"},{"bike_id":"e67d3df4-e9e9-46b7-9755-b18ab6573d62","system_id":"levelo_inurba_marseille","lat":43.26804,"lon":5.40248,"is_reserved":false,"is_disabled":false,"rental_uris":{"android":"levelo://app?vid=e67d3df4-e9e9-46b7-9755-b18ab6573d62","ios":"levelo://app?vid=e67d3df4-e9e9-46b7-9755-b18ab6573d62"},"vehicle_type_id":"4","last_reported":1740546573,"current_range_meters":16000,"station_id":"ce501612rcd8frsf0b60","pricing_plan_id":"cebpf4jnsgd1na2vs0mg"},{"bike_id":"bd2cf869-b817-4f2f-8947-5c9f4784b0df","system_id":"levelo_inurba_marseille","lat":43.3036,"lon":5.41877,"is_reserved":false,"is_disabled":false,"rental_uris":{"android":"levelo://app?vid=bd2cf869-b817-4f2f-8947-5c9f4784b0df","ios":"levelo://app?vid=bd2cf869-b817-4f2f-8947-5c9f4784b0df"},"vehicle_type_id":"4","last_reported":1740546573,"current_range_meters":16000,"station_id":"ce4bhop2rcd13ifvqh7g","pricing_plan_id":"cebpf4jnsgd1na2vs0mg"},{"bike_id":"25411262-23d1-41bb-a382-a545d4af1ec3","system_id":"levelo_inurba_marseille","lat":43.25107,"lon":5.40325,"is_reserved":false,"is_disabled":false,"rental_uris":{"android":"levelo://app?vid=25411262-23d1-41bb-a382-a545d4af1ec3","ios":"levelo://app?vid=25411262-23d1-41bb-a382-a545d4af1ec3"},"vehicle_type_id":"4","last_reported":1740546573,"current_range_meters":16000,"station_id":"ce4bhlh2rcd13ifvqgig","pricing_plan_id":"cebpf4jnsgd1na2vs0mg"},{"bike_id":"1a856f10-c5bc-4b12-a5aa-06d011bd52a2","system_id":"levelo_inurba_marseille","lat":43.27839,"lon":5.40701,"is_reserved":false,"is_disabled":false,"rental_uris":{"android":"levelo://app?vid=1a856f10-c5bc-4b12-a5aa-06d011bd52a2","ios":"levelo://app?vid=1a856f10-c5bc-4b12-a5aa-06d011bd52a2"},"vehicle_type_id":"4","last_reported":1740546573,"current_range_meters":16400,"station_id":"ce4bhnh2rcd13ifvqgtg","pricing_plan_id":"cebpf4jnsgd1na2vs0mg"},{"bike_id":"fde45cd7-bd70-4a47-bce2-2f25876d5b12","system_id":"levelo_inurba_marseille","lat":43.2848,"lon":5.38421,"is_reserved":false,"is_disabled":false,"rental_uris":{"android":"levelo://app?vid=fde45cd7-bd70-4a47-bce2-2f25876d5b12","ios":"levelo://app?vid=fde45cd7-bd70-4a47-bce2-2f25876d5b12"},"vehicle_type_id":"4","last_reported":1740546573,"current_range_meters":16400,"station_id":"ce4bh512rcd13ifvqe3g","pricing_plan_id":"cebpf4jnsgd1na2vs0mg"},{"bike_id":"4303e72d-c309-440e-990e-397e2de97f27","system_id":"levelo_inurba_marseille","lat":43.28849,"lon":5.35836,"is_reserved":false,"is_disabled":false,"rental_uris":{"android":"levelo://app?vid=4303e72d-c309-440e-990e-397e2de97f27","ios":"levelo://app?vid=4303e72d-c309-440e-990e-397e2de97f27"},"vehicle_type_id":"4","last_reported":1740546573,"current_range_meters":16000,"station_id":"ce4bhb12rcd13ifvqem0","pricing_plan_id":"cebpf4jnsgd1na2vs0mg"},{"bike_id":"02028f5d-7181-4e7f-80ba-abb06cf96801","system_id":"levelo_inurba_marseille","lat":43.28415,"lon":5.35,"is_reserved":false,"is_disabled":false,"rental_uris":{"android":"levelo://app?vid=02028f5d-7181-4e7f-80ba-abb06cf96801","ios":"levelo://app?vid=02028f5d-7181-4e7f-80ba-abb06cf96801"},"vehicle_type_id":"4","last_reported":1740546573,"current_range_meters":16000,"station_id":"ce4bhbh2rcd13ifvqepg","pricing_plan_id":"cebpf4jnsgd1na2vs0mg"},{"bike_id":"b7d3c0bb-7d03-4d09-a6c9-12107485a8da","system_id":"levelo_inurba_marseille","lat":43.31993,"lon":5.38131,"is_reserved":false,"is_disabled":false,"rental_uris":{"android":"levelo://app?vid=b7d3c0bb-7d03-4d09-a6c9-12107485a8da","ios":"levelo://app?vid=b7d3c0bb-7d03-4d09-a6c9-12107485a8da"},"vehicle_type_id":"4","last_reported":1740546573,"current_range_meters":16000,"station_id":"ce4bhr12rcd13ifvqhpg","pricing_plan_id":"cebpf4jnsgd1na2vs0mg"},{"bike_id":"18730abb-cb2f-4488-bd8a-8d191cf255bd","system_id":"levelo_inurba_marseille","lat":43.24081,"lon":5.37755,"is_reserved":false,"is_disabled":false,"rental_uris":{"android":"levelo://app?vid=18730abb-cb2f-4488-bd8a-8d191cf255bd","ios":"levelo://app?vid=18730abb-cb2f-4488-bd8a-8d191cf255bd"},"vehicle_type_id":"4","last_reported":1740546573,"current_range_meters":16000,"station_id":"ce4bhnp2rcd13ifvqgvg","pricing_plan_id":"cebpf4jnsgd1na2vs0mg"},{"bike_id":"620faf8f-9860-4e84-b6cd-4559a0b9a89c","system_id":"levelo_inurba_marseille","lat":43.32484,"lon":5.36542,"is_reserved":false,"is_disabled":false,"rental_uris":{"android":"levelo://app?vid=620faf8f-9860-4e84-b6cd-4559a0b9a89c","ios":"levelo://app?vid=620faf8f-9860-4e84-b6cd-4559a0b9a89c"},"vehicle_type_id":"4","last_reported":1740546573,"current_range_meters":16000,"station_id":"ce4bhs12rcd13ifvqhvg","pricing_plan_id":"cebpf4jnsgd1na2vs0mg"},{"bike_id":"ad9571bc-5194-4f71-90ef-f1cb0835f36e","system_id":"levelo_inurba_marseille","lat":43.25483,"lon":5.37667,"is_reserved":false,"is_disabled":true,"rental_uris":{"android":"levelo://app?vid=ad9571bc-5194-4f71-90ef-f1cb0835f36e","ios":"levelo://app?vid=ad9571bc-5194-4f71-90ef-f1cb0835f36e"},"vehicle_type_id":"4","last_reported":1740546573,"current_range_meters":16000,"station_id":"ce4bhh12rcd13ifvqff0","pricing_plan_id":"cebpf4jnsgd1na2vs0mg"},{"bike_id":"25e3ee6e-5b8b-4463-b327-cce8ca0cd74b","system_id":"levelo_inurba_marseille","lat":43.30145,"lon":5.38065,"is_reserved":false,"is_disabled":false,"rental_uris":{"android":"levelo://app?vid=25e3ee6e-5b8b-4463-b327-cce8ca0cd74b","ios":"levelo://app?vid=25e3ee6e-5b8b-4463-b327-cce8ca0cd74b"},"vehicle_type_id":"4","last_reported":1740546573,"current_range_meters":16000,"station_id":"ce4bgjp2rcd13ifvqbh0","pricing_plan_id":"cebpf4jnsgd1na2vs0mg"},{"bike_id":"1ca5b1d5-5a53-46dd-b1b2-e83fd71df428","system_id":"levelo_inurba_marseille","lat":43.27944,"lon":5.41061,"is_reserved":false,"is_disabled":false,"rental_uris":{"android":"levelo://app?vid=1ca5b1d5-5a53-46dd-b1b2-e83fd71df428","ios":"levelo://app?vid=1ca5b1d5-5a53-46dd-b1b2-e83fd71df428"},"vehicle_type_id":"4","last_reported":1740546573,"current_range_meters":16400,"station_id":"ce4bhnp2rcd13ifvqh0g","pricing_plan_id":"cebpf4jnsgd1na2vs0mg"},{"bike_id":"00ed27c2-66ec-48a6-a97d-b4f8857ddc06","system_id":"levelo_inurba_marseille","lat":43.28292,"lon":5.35087,"is_reserved":false,"is_disabled":false,"rental_uris":{"android":"levelo://app?vid=00ed27c2-66ec-48a6-a97d-b4f8857ddc06","ios":"levelo://app?vid=00ed27c2-66ec-48a6-a97d-b4f8857ddc06"},"vehicle_type_id":"4","last_reported":1740546573,"current_range_meters":16000,"station_id":"ce4bhbp2rcd13ifvqerg","pricing_plan_id":"cebpf4jnsgd1na2vs0mg"},{"bike_id":"b65eca50-3ad3-44cf-8461-21bab0d9d9a8","system_id":"levelo_inurba_marseille","lat":43.26558,"lon":5.37262,"is_reserved":false,"is_disabled":false,"rental_uris":{"android":"levelo://app?vid=b65eca50-3ad3-44cf-8461-21bab0d9d9a8","ios":"levelo://app?vid=b65eca50-3ad3-44cf-8461-21bab0d9d9a8"},"vehicle_type_id":"4","last_reported":1740546573,"current_range_meters":16400,"station_id":"ce4bhg12rcd13ifvqf70","pricing_plan_id":"cebpf4jnsgd1na2vs0mg"},{"bike_id":"00673b30-f766-48bd-8224-f23f2f1a7173","system_id":"levelo_inurba_marseille","lat":43.27987,"lon":5.41658,"is_reserved":false,"is_disabled":false,"rental_uris":{"android":"levelo://app?vid=00673b30-f766-48bd-8224-f23f2f1a7173","ios":"levelo://app?vid=00673b30-f766-48bd-8224-f23f2f1a7173"},"vehicle_type_id":"4","last_reported":1740546573,"current_range_meters":16400,"station_id":"ce4bho12rcd13ifvqh1g","pricing_plan_id":"cebpf4jnsgd1na2vs0mg"},{"bike_id":"f20ebf5b-c147-4c0e-877d-056eb7b6ba4e","system_id":"levelo_inurba_marseille","lat":43.28077,"lon":5.39649,"is_reserved":false,"is_disabled":false,"rental_uris":{"android":"levelo://app?vid=f20ebf5b-c147-4c0e-877d-056eb7b6ba4e","ios":"levelo://app?vid=f20ebf5b-c147-4c0e-877d-056eb7b6ba4e"},"vehicle_type_id":"4","last_reported":1740546573,"current_range_meters":16400,"station_id":"ce4bho12rcd13ifvqh2g","pricing_plan_id":"cebpf4jnsgd1na2vs0mg"},{"bike_id":"9e248750-f2e3-4798-bc43-baef3df9b2c4","system_id":"levelo_inurba_marseille","lat":43.255806,"lon":5.382273,"is_reserved":false,"is_disabled":false,"rental_uris":{"android":"levelo://app?vid=9e248750-f2e3-4798-bc43-baef3df9b2c4","ios":"levelo://app?vid=9e248750-f2e3-4798-bc43-baef3df9b2c4"},"vehicle_type_id":"4","last_reported":1740546573,"current_range_meters":16400,"station_id":"ce4bhih2rcd13ifvqfs0","pricing_plan_id":"cebpf4jnsgd1na2vs0mg"},{"bike_id":"ddb8900e-cb80-4333-bdeb-b80e38c92454","system_id":"levelo_inurba_marseille","lat":43.32271,"lon":5.38303,"is_reserved":false,"is_disabled":false,"rental_uris":{"android":"levelo://app?vid=ddb8900e-cb80-4333-bdeb-b80e38c92454","ios":"levelo://app?vid=ddb8900e-cb80-4333-bdeb-b80e38c92454"},"vehicle_type_id":"4","last_reported":1740546573,"current_range_meters":16400,"station_id":"ce4bhr12rcd13ifvqhqg","pricing_plan_id":"cebpf4jnsgd1na2vs0mg"},{"bike_id":"f66913d8-adc8-4497-b81a-8613461ae8a9","system_id":"levelo_inurba_marseille","lat":43.28415,"lon":5.34986,"is_reserved":false,"is_disabled":false,"rental_uris":{"android":"levelo://app?vid=f66913d8-adc8-4497-b81a-8613461ae8a9","ios":"levelo://app?vid=f66913d8-adc8-4497-b81a-8613461ae8a9"},"vehicle_type_id":"4","last_reported":1740546573,"current_range_meters":16400,"station_id":"ce4bhbh2rcd13ifvqepg","pricing_plan_id":"cebpf4jnsgd1na2vs0mg"},{"bike_id":"d22dc0c0-1bfe-4bf5-90e1-538c8b2c5e57","system_id":"levelo_inurba_marseille","lat":43.279506,"lon":5.410493,"is_reserved":false,"is_disabled":false,"rental_uris":{"android":"levelo://app?vid=d22dc0c0-1bfe-4bf5-90e1-538c8b2c5e57","ios":"levelo://app?vid=d22dc0c0-1bfe-4bf5-90e1-538c8b2c5e57"},"vehicle_type_id":"4","last_reported":1740546573,"current_range_meters":16800,"station_id":"ce4bhnp2rcd13ifvqh0g","pricing_plan_id":"cebpf4jnsgd1na2vs0mg"},{"bike_id":"bb618483-866c-477f-85d5-a72c0545fccd","system_id":"levelo_inurba_marseille","lat":43.27571,"lon":5.38408,"is_reserved":false,"is_disabled":false,"rental_uris":{"android":"levelo://app?vid=bb618483-866c-477f-85d5-a72c0545fccd","ios":"levelo://app?vid=bb618483-866c-477f-85d5-a72c0545fccd"},"vehicle_type_id":"4","last_reported":1740546573,"current_range_meters":16400,"station_id":"ce4bhh92rcd13ifvqfi0","pricing_plan_id":"cebpf4jnsgd1na2vs0mg"},{"bike_id":"bbcdf53d-c082-4dce-8834-eae420f0cfb1","system_id":"levelo_inurba_marseille","lat":43.31219,"lon":5.36848,"is_reserved":false,"is_disabled":false,"rental_uris":{"android":"levelo://app?vid=bbcdf53d-c082-4dce-8834-eae420f0cfb1","ios":"levelo://app?vid=bbcdf53d-c082-4dce-8834-eae420f0cfb1"},"vehicle_type_id":"4","last_reported":1740546573,"current_range_meters":16400,"station_id":"ce4bgl92rcd13ifvqbq0","pricing_plan_id":"cebpf4jnsgd1na2vs0mg"},{"bike_id":"916aa339-0162-4b55-82ed-426844246e01","system_id":"levelo_inurba_marseille","lat":43.28426,"lon":5.39174,"is_reserved":false,"is_disabled":false,"rental_uris":{"android":"levelo://app?vid=916aa339-0162-4b55-82ed-426844246e01","ios":"levelo://app?vid=916aa339-0162-4b55-82ed-426844246e01"},"vehicle_type_id":"4","last_reported":1740546573,"current_range_meters":16400,"station_id":"ce4bhoh2rcd13ifvqh5g","pricing_plan_id":"cebpf4jnsgd1na2vs0mg"},{"bike_id":"b196e3fe-fced-4e6c-8983-78e64578be87","system_id":"levelo_inurba_marseille","lat":43.28054,"lon":5.36984,"is_reserved":false,"is_disabled":false,"rental_uris":{"android":"levelo://app?vid=b196e3fe-fced-4e6c-8983-78e64578be87","ios":"levelo://app?vid=b196e3fe-fced-4e6c-8983-78e64578be87"},"vehicle_type_id":"4","last_reported":1740546573,"current_range_meters":16800,"station_id":"ce4bha12rcd13ifvqef0","pricing_plan_id":"cebpf4jnsgd1na2vs0mg"},{"bike_id":"c5bce55d-639a-4e10-850d-58dcca117d41","system_id":"levelo_inurba_marseille","lat":43.28443,"lon":5.35897,"is_reserved":false,"is_disabled":false,"rental_uris":{"android":"levelo://app?vid=c5bce55d-639a-4e10-850d-58dcca117d41","ios":"levelo://app?vid=c5bce55d-639a-4e10-850d-58dcca117d41"},"vehicle_type_id":"4","last_reported":1740546573,"current_range_meters":16800,"station_id":"ce4bhah2rcd13ifvqei0","pricing_plan_id":"cebpf4jnsgd1na2vs0mg"},{"bike_id":"8fcd4c9e-f8cf-477e-8c66-3e84c5e6919b","system_id":"levelo_inurba_marseille","lat":43.25863,"lon":5.39907,"is_reserved":false,"is_disabled":false,"rental_uris":{"android":"levelo://app?vid=8fcd4c9e-f8cf-477e-8c66-3e84c5e6919b","ios":"levelo://app?vid=8fcd4c9e-f8cf-477e-8c66-3e84c5e6919b"},"vehicle_type_id":"4","last_reported":1740546573,"current_range_meters":16800,"station_id":"ce4bhl92rcd13ifvqghg","pricing_plan_id":"cebpf4jnsgd1na2vs0mg"},{"bike_id":"c13dadc1-dfe6-4bc3-ba49-747fa1ec330f","system_id":"levelo_inurba_marseille","lat":43.29218,"lon":5.35783,"is_reserved":false,"is_disabled":false,"rental_uris":{"android":"levelo://app?vid=c13dadc1-dfe6-4bc3-ba49-747fa1ec330f","ios":"levelo://app?vid=c13dadc1-dfe6-4bc3-ba49-747fa1ec330f"},"vehicle_type_id":"4","last_reported":1740546573,"current_range_meters":16800,"station_id":"ce4bhb12rcd13ifvqel0","pricing_plan_id":"cebpf4jnsgd1na2vs0mg"},{"bike_id":"3fefd632-ceb6-4e6f-ac3b-6af1be92e2b5","system_id":"levelo_inurba_marseille","lat":43.23219,"lon":5.39991,"is_reserved":false,"is_disabled":false,"rental_uris":{"android":"levelo://app?vid=3fefd632-ceb6-4e6f-ac3b-6af1be92e2b5","ios":"levelo://app?vid=3fefd632-ceb6-4e6f-ac3b-6af1be92e2b5"},"vehicle_type_id":"4","last_reported":1740546573,"current_range_meters":16800,"station_id":"ce4bhn12rcd13ifvqgqg","pricing_plan_id":"cebpf4jnsgd1na2vs0mg"},{"bike_id":"04b17830-3c9d-49a3-8254-3247c395e42f","system_id":"levelo_inurba_marseille","lat":43.32372,"lon":5.38885,"is_reserved":false,"is_disabled":false,"rental_uris":{"android":"levelo://app?vid=04b17830-3c9d-49a3-8254-3247c395e42f","ios":"levelo://app?vid=04b17830-3c9d-49a3-8254-3247c395e42f"},"vehicle_type_id":"4","last_reported":1740546573,"current_range_meters":16800,"station_id":"","pricing_plan_id":"cebpf4jnsgd1na2vs0mg"},{"bike_id":"1f392b43-505d-4096-a785-e45d52cd76e2","system_id":"levelo_inurba_marseille","lat":43.31169,"lon":5.38696,"is_reserved":false,"is_disabled":false,"rental_uris":{"android":"levelo://app?vid=1f392b43-505d-4096-a785-e45d52cd76e2","ios":"levelo://app?vid=1f392b43-505d-4096-a785-e45d52cd76e2"},"vehicle_type_id":"4","last_reported":1740546573,"current_range_meters":16800,"station_id":"ce4bgv12rcd13ifvqcp0","pricing_plan_id":"cebpf4jnsgd1na2vs0mg"},{"bike_id":"887df3c0-4297-4c99-b501-bb1932af0e38","system_id":"levelo_inurba_marseille","lat":43.284173,"lon":5.375187,"is_reserved":false,"is_disabled":false,"rental_uris":{"android":"levelo://app?vid=887df3c0-4297-4c99-b501-bb1932af0e38","ios":"levelo://app?vid=887df3c0-4297-4c99-b501-bb1932af0e38"},"vehicle_type_id":"4","last_reported":1740546573,"current_range_meters":16800,"station_id":"ce4bh412rcd13ifvqds0","pricing_plan_id":"cebpf4jnsgd1na2vs0mg"},{"bike_id":"6773949e-9f7e-4d3d-9355-4fe8052a754c","system_id":"levelo_inurba_marseille","lat":43.25097,"lon":5.39529,"is_reserved":false,"is_disabled":false,"rental_uris":{"android":"levelo://app?vid=6773949e-9f7e-4d3d-9355-4fe8052a754c","ios":"levelo://app?vid=6773949e-9f7e-4d3d-9355-4fe8052a754c"},"vehicle_type_id":"4","last_reported":1740546573,"current_range_meters":16800,"station_id":"ce4bhm12rcd13ifvqgkg","pricing_plan_id":"cebpf4jnsgd1na2vs0mg"},{"bike_id":"e89a8881-729d-4720-ac5d-3caf37d685e1","system_id":"levelo_inurba_marseille","lat":43.29259,"lon":5.40913,"is_reserved":false,"is_disabled":false,"rental_uris":{"android":"levelo://app?vid=e89a8881-729d-4720-ac5d-3caf37d685e1","ios":"levelo://app?vid=e89a8881-729d-4720-ac5d-3caf37d685e1"},"vehicle_type_id":"4","last_reported":1740546573,"current_range_meters":16800,"station_id":"ce4bh192rcd13ifvqdc0","pricing_plan_id":"cebpf4jnsgd1na2vs0mg"},{"bike_id":"41bcbd39-dc6c-4708-80c1-49116771c9e4","system_id":"levelo_inurba_marseille","lat":43.28942,"lon":5.36669,"is_reserved":false,"is_disabled":false,"rental_uris":{"android":"levelo://app?vid=41bcbd39-dc6c-4708-80c1-49116771c9e4","ios":"levelo://app?vid=41bcbd39-dc6c-4708-80c1-49116771c9e4"},"vehicle_type_id":"4","last_reported":1740546573,"current_range_meters":16800,"station_id":"ce4bhap2rcd13ifvqek0","pricing_plan_id":"cebpf4jnsgd1na2vs0mg"},{"bike_id":"18d91dd3-a6d6-42bb-9845-81420b3a9d8b","system_id":"levelo_inurba_marseille","lat":43.30412,"lon":5.41292,"is_reserved":false,"is_disabled":false,"rental_uris":{"android":"levelo://app?vid=18d91dd3-a6d6-42bb-9845-81420b3a9d8b","ios":"levelo://app?vid=18d91dd3-a6d6-42bb-9845-81420b3a9d8b"},"vehicle_type_id":"4","last_reported":1740546573,"current_range_meters":17200,"station_id":"ce4bhop2rcd13ifvqh8g","pricing_plan_id":"cebpf4jnsgd1na2vs0mg"},{"bike_id":"b7c09535-9389-45fc-8971-cbc7b7282bc9","system_id":"levelo_inurba_marseille","lat":43.2509,"lon":5.39525,"is_reserved":false,"is_disabled":false,"rental_uris":{"android":"levelo://app?vid=b7c09535-9389-45fc-8971-cbc7b7282bc9","ios":"levelo://app?vid=b7c09535-9389-45fc-8971-cbc7b7282bc9"},"vehicle_type_id":"4","last_reported":1740546573,"current_range_meters":17200,"station_id":"ce4bhm12rcd13ifvqgkg","pricing_plan_id":"cebpf4jnsgd1na2vs0mg"},{"bike_id":"8eae58ae-89bd-445d-bda4-d953222b55f1","system_id":"levelo_inurba_marseille","lat":43.28035,"lon":5.36944,"is_reserved":false,"is_disabled":false,"rental_uris":{"android":"levelo://app?vid=8eae58ae-89bd-445d-bda4-d953222b55f1","ios":"levelo://app?vid=8eae58ae-89bd-445d-bda4-d953222b55f1"},"vehicle_type_id":"4","last_reported":1740546573,"current_range_meters":17200,"station_id":"ce4bha12rcd13ifvqef0","pricing_plan_id":"cebpf4jnsgd1na2vs0mg"},{"bike_id":"297c01ed-c0eb-4a34-a7f4-6afd3cf94550","system_id":"levelo_inurba_marseille","lat":43.28662,"lon":5.36316,"is_reserved":false,"is_disabled":false,"rental_uris":{"android":"levelo://app?vid=297c01ed-c0eb-4a34-a7f4-6afd3cf94550","ios":"levelo://app?vid=297c01ed-c0eb-4a34-a7f4-6afd3cf94550"},"vehicle_type_id":"4","last_reported":1740546573,"current_range_meters":17200,"station_id":"ce4bhah2rcd13ifvqej0","pricing_plan_id":"cebpf4jnsgd1na2vs0mg"},{"bike_id":"b54c0c77-a568-4419-8a53-721954a3d5ef","system_id":"levelo_inurba_marseille","lat":43.27646,"lon":5.41599,"is_reserved":false,"is_disabled":false,"rental_uris":{"android":"levelo://app?vid=b54c0c77-a568-4419-8a53-721954a3d5ef","ios":"levelo://app?vid=b54c0c77-a568-4419-8a53-721954a3d5ef"},"vehicle_type_id":"4","last_reported":1740546573,"current_range_meters":17200,"station_id":"","pricing_plan_id":"cebpf4jnsgd1na2vs0mg"},{"bike_id":"17973595-0627-4cbe-be09-6d52168568c1","system_id":"levelo_inurba_marseille","lat":43.27822,"lon":5.40724,"is_reserved":false,"is_disabled":false,"rental_uris":{"android":"levelo://app?vid=17973595-0627-4cbe-be09-6d52168568c1","ios":"levelo://app?vid=17973595-0627-4cbe-be09-6d52168568c1"},"vehicle_type_id":"4","last_reported":1740546573,"current_range_meters":17200,"station_id":"ce4bhnh2rcd13ifvqgtg","pricing_plan_id":"cebpf4jnsgd1na2vs0mg"},{"bike_id":"d79740e8-2b58-4dab-9092-7c075618d6db","system_id":"levelo_inurba_marseille","lat":43.23194,"lon":5.39978,"is_reserved":false,"is_disabled":false,"rental_uris":{"android":"levelo://app?vid=d79740e8-2b58-4dab-9092-7c075618d6db","ios":"levelo://app?vid=d79740e8-2b58-4dab-9092-7c075618d6db"},"vehicle_type_id":"4","last_reported":1740546573,"current_range_meters":17200,"station_id":"ce4bhn12rcd13ifvqgqg","pricing_plan_id":"cebpf4jnsgd1na2vs0mg"},{"bike_id":"32bb8c7a-ab19-4c77-8d28-996ecaf5e45c","system_id":"levelo_inurba_marseille","lat":43.27067,"lon":5.40252,"is_reserved":false,"is_disabled":false,"rental_uris":{"android":"levelo://app?vid=32bb8c7a-ab19-4c77-8d28-996ecaf5e45c","ios":"levelo://app?vid=32bb8c7a-ab19-4c77-8d28-996ecaf5e45c"},"vehicle_type_id":"4","last_reported":1740546573,"current_range_meters":17200,"station_id":"ce4bhk92rcd13ifvqgc0","pricing_plan_id":"cebpf4jnsgd1na2vs0mg"},{"bike_id":"ec382969-8abc-4dda-8766-f6bd2b74d60d","system_id":"levelo_inurba_marseille","lat":43.30318,"lon":5.40438,"is_reserved":false,"is_disabled":false,"rental_uris":{"android":"levelo://app?vid=ec382969-8abc-4dda-8766-f6bd2b74d60d","ios":"levelo://app?vid=ec382969-8abc-4dda-8766-f6bd2b74d60d"},"vehicle_type_id":"4","last_reported":1740546573,"current_range_meters":17200,"station_id":"ce4bh012rcd13ifvqd10","pricing_plan_id":"cebpf4jnsgd1na2vs0mg"},{"bike_id":"d0eed576-967a-4a22-90f0-1b8c0372f57a","system_id":"levelo_inurba_marseille","lat":43.24999,"lon":5.38946,"is_reserved":false,"is_disabled":false,"rental_uris":{"android":"levelo://app?vid=d0eed576-967a-4a22-90f0-1b8c0372f57a","ios":"levelo://app?vid=d0eed576-967a-4a22-90f0-1b8c0372f57a"},"vehicle_type_id":"4","last_reported":1740546573,"current_range_meters":17600,"station_id":"ce4bhgp2rcd13ifvqfd0","pricing_plan_id":"cebpf4jnsgd1na2vs0mg"},{"bike_id":"ba704842-fd39-47ee-9c77-398423f94f2b","system_id":"levelo_inurba_marseille","lat":43.23202,"lon":5.39964,"is_reserved":false,"is_disabled":false,"rental_uris":{"android":"levelo://app?vid=ba704842-fd39-47ee-9c77-398423f94f2b","ios":"levelo://app?vid=ba704842-fd39-47ee-9c77-398423f94f2b"},"vehicle_type_id":"4","last_reported":1740546573,"current_range_meters":17600,"station_id":"ce4bhn12rcd13ifvqgqg","pricing_plan_id":"cebpf4jnsgd1na2vs0mg"},{"bike_id":"bc62e208-91a3-44a0-81ee-14d6d3effecc","system_id":"levelo_inurba_marseille","lat":43.30807,"lon":5.38152,"is_reserved":false,"is_disabled":false,"rental_uris":{"android":"levelo://app?vid=bc62e208-91a3-44a0-81ee-14d6d3effecc","ios":"levelo://app?vid=bc62e208-91a3-44a0-81ee-14d6d3effecc"},"vehicle_type_id":"4","last_reported":1740546573,"current_range_meters":18000,"station_id":"ce4bgt12rcd13ifvqce0","pricing_plan_id":"cebpf4jnsgd1na2vs0mg"},{"bike_id":"5e3125b7-1249-4539-be08-f7d78a6eb0d2","system_id":"levelo_inurba_marseille","lat":43.3041,"lon":5.41288,"is_reserved":false,"is_disabled":false,"rental_uris":{"android":"levelo://app?vid=5e3125b7-1249-4539-be08-f7d78a6eb0d2","ios":"levelo://app?vid=5e3125b7-1249-4539-be08-f7d78a6eb0d2"},"vehicle_type_id":"4","last_reported":1740546573,"current_range_meters":17600,"station_id":"ce4bhop2rcd13ifvqh8g","pricing_plan_id":"cebpf4jnsgd1na2vs0mg"},{"bike_id":"25e44305-cdf8-45a2-b99d-1933e72b60ad","system_id":"levelo_inurba_marseille","lat":43.2992,"lon":5.38141,"is_reserved":false,"is_disabled":true,"rental_uris":{"android":"levelo://app?vid=25e44305-cdf8-45a2-b99d-1933e72b60ad","ios":"levelo://app?vid=25e44305-cdf8-45a2-b99d-1933e72b60ad"},"vehicle_type_id":"4","last_reported":1740546573,"current_range_meters":17600,"station_id":"ce4bgj12rcd13ifvqbc0","pricing_plan_id":"cebpf4jnsgd1na2vs0mg"},{"bike_id":"16bf6e0c-f538-4d41-bd12-b8d8e1de75fd","system_id":"levelo_inurba_marseille","lat":43.28279,"lon":5.35074,"is_reserved":false,"is_disabled":false,"rental_uris":{"android":"levelo://app?vid=16bf6e0c-f538-4d41-bd12-b8d8e1de75fd","ios":"levelo://app?vid=16bf6e0c-f538-4d41-bd12-b8d8e1de75fd"},"vehicle_type_id":"4","last_reported":1740546573,"current_range_meters":17600,"station_id":"ce4bhbp2rcd13ifvqerg","pricing_plan_id":"cebpf4jnsgd1na2vs0mg"},{"bike_id":"c653bffd-d711-4c0b-9be3-ba0ded1a55f8","system_id":"levelo_inurba_marseille","lat":43.27961,"lon":5.41033,"is_reserved":false,"is_disabled":false,"rental_uris":{"android":"levelo://app?vid=c653bffd-d711-4c0b-9be3-ba0ded1a55f8","ios":"levelo://app?vid=c653bffd-d711-4c0b-9be3-ba0ded1a55f8"},"vehicle_type_id":"4","last_reported":1740546573,"current_range_meters":17600,"station_id":"ce4bhnp2rcd13ifvqh0g","pricing_plan_id":"cebpf4jnsgd1na2vs0mg"},{"bike_id":"e4ded31d-3090-414a-9a7e-a3255a7fbf87","system_id":"levelo_inurba_marseille","lat":43.30644,"lon":5.40058,"is_reserved":false,"is_disabled":false,"rental_uris":{"android":"levelo://app?vid=e4ded31d-3090-414a-9a7e-a3255a7fbf87","ios":"levelo://app?vid=e4ded31d-3090-414a-9a7e-a3255a7fbf87"},"vehicle_type_id":"4","last_reported":1740546573,"current_range_meters":17600,"station_id":"ce4bh112rcd13ifvqda0","pricing_plan_id":"cebpf4jnsgd1na2vs0mg"},{"bike_id":"0561577e-2525-455e-92b8-6da786fc4574","system_id":"levelo_inurba_marseille","lat":43.28189,"lon":5.42655,"is_reserved":false,"is_disabled":false,"rental_uris":{"android":"levelo://app?vid=0561577e-2525-455e-92b8-6da786fc4574","ios":"levelo://app?vid=0561577e-2525-455e-92b8-6da786fc4574"},"vehicle_type_id":"4","last_reported":1740546573,"current_range_meters":17600,"station_id":"ce4bhnh2rcd13ifvqgug","pricing_plan_id":"cebpf4jnsgd1na2vs0mg"},{"bike_id":"658e10dc-9ec8-4c82-a86c-f0d37535b96d","system_id":"levelo_inurba_marseille","lat":43.23178,"lon":5.39991,"is_reserved":false,"is_disabled":false,"rental_uris":{"android":"levelo://app?vid=658e10dc-9ec8-4c82-a86c-f0d37535b96d","ios":"levelo://app?vid=658e10dc-9ec8-4c82-a86c-f0d37535b96d"},"vehicle_type_id":"4","last_reported":1740546573,"current_range_meters":17600,"station_id":"ce4bhn12rcd13ifvqgqg","pricing_plan_id":"cebpf4jnsgd1na2vs0mg"},{"bike_id":"c3d0fefa-5db4-49bd-a964-1a22da440d36","system_id":"levelo_inurba_marseille","lat":43.269559,"lon":5.386313,"is_reserved":false,"is_disabled":true,"rental_uris":{"android":"levelo://app?vid=c3d0fefa-5db4-49bd-a964-1a22da440d36","ios":"levelo://app?vid=c3d0fefa-5db4-49bd-a964-1a22da440d36"},"vehicle_type_id":"4","last_reported":1740546573,"current_range_meters":17600,"station_id":"","pricing_plan_id":"cebpf4jnsgd1na2vs0mg"},{"bike_id":"f9eed1e4-1895-44e2-8624-cc9551693ed5","system_id":"levelo_inurba_marseille","lat":43.2985,"lon":5.36291,"is_reserved":false,"is_disabled":false,"rental_uris":{"android":"levelo://app?vid=f9eed1e4-1895-44e2-8624-cc9551693ed5","ios":"levelo://app?vid=f9eed1e4-1895-44e2-8624-cc9551693ed5"},"vehicle_type_id":"4","last_reported":1740546573,"current_range_meters":18000,"station_id":"ce4bgpp2rcd13ifvqc3g","pricing_plan_id":"cebpf4jnsgd1na2vs0mg"},{"bike_id":"e1da3068-d17a-4b0d-9656-dc7b9b10b789","system_id":"levelo_inurba_marseille","lat":43.28719,"lon":5.37942,"is_reserved":false,"is_disabled":false,"rental_uris":{"android":"levelo://app?vid=e1da3068-d17a-4b0d-9656-dc7b9b10b789","ios":"levelo://app?vid=e1da3068-d17a-4b0d-9656-dc7b9b10b789"},"vehicle_type_id":"4","last_reported":1740546573,"current_range_meters":18000,"station_id":"ce4bh9p2rcd13ifvqec0","pricing_plan_id":"cebpf4jnsgd1na2vs0mg"},{"bike_id":"1bd422cb-b0ff-4b77-bdca-898a5b637934","system_id":"levelo_inurba_marseille","lat":43.29792,"lon":5.39351,"is_reserved":false,"is_disabled":false,"rental_uris":{"android":"levelo://app?vid=1bd422cb-b0ff-4b77-bdca-898a5b637934","ios":"levelo://app?vid=1bd422cb-b0ff-4b77-bdca-898a5b637934"},"vehicle_type_id":"4","last_reported":1740546573,"current_range_meters":18800,"station_id":"chh1huq6cuj3fo74tm60","pricing_plan_id":"cebpf4jnsgd1na2vs0mg"},{"bike_id":"d52ff10c-830b-41de-bfb8-72473cca5ff4","system_id":"levelo_inurba_marseille","lat":43.26496,"lon":5.39547,"is_reserved":false,"is_disabled":false,"rental_uris":{"android":"levelo://app?vid=d52ff10c-830b-41de-bfb8-72473cca5ff4","ios":"levelo://app?vid=d52ff10c-830b-41de-bfb8-72473cca5ff4"},"vehicle_type_id":"4","last_reported":1740546573,"current_range_meters":18000,"station_id":"ce4bhi12rcd13ifvqfq0","pricing_plan_id":"cebpf4jnsgd1na2vs0mg"},{"bike_id":"670eeeda-bd5b-4a16-9e2d-cc46304f3519","system_id":"levelo_inurba_marseille","lat":43.2571,"lon":5.41121,"is_reserved":false,"is_disabled":false,"rental_uris":{"android":"levelo://app?vid=670eeeda-bd5b-4a16-9e2d-cc46304f3519","ios":"levelo://app?vid=670eeeda-bd5b-4a16-9e2d-cc46304f3519"},"vehicle_type_id":"4","last_reported":1740546573,"current_range_meters":18000,"station_id":"ce4bhkp2rcd13ifvqgd0","pricing_plan_id":"cebpf4jnsgd1na2vs0mg"},{"bike_id":"9eb63fb4-7dd1-4ed8-8c98-37f9165028cf","system_id":"levelo_inurba_marseille","lat":43.31754,"lon":5.39015,"is_reserved":false,"is_disabled":false,"rental_uris":{"android":"levelo://app?vid=9eb63fb4-7dd1-4ed8-8c98-37f9165028cf","ios":"levelo://app?vid=9eb63fb4-7dd1-4ed8-8c98-37f9165028cf"},"vehicle_type_id":"4","last_reported":1740546573,"current_range_meters":18000,"station_id":"ce4bhqp2rcd13ifvqhng","pricing_plan_id":"cebpf4jnsgd1na2vs0mg"},{"bike_id":"5414f22f-56c9-41d2-8c07-553e02debed7","system_id":"levelo_inurba_marseille","lat":43.29071,"lon":5.39972,"is_reserved":false,"is_disabled":false,"rental_uris":{"android":"levelo://app?vid=5414f22f-56c9-41d2-8c07-553e02debed7","ios":"levelo://app?vid=5414f22f-56c9-41d2-8c07-553e02debed7"},"vehicle_type_id":"4","last_reported":1740546573,"current_range_meters":18000,"station_id":"ce4bh392rcd13ifvqdm0","pricing_plan_id":"cebpf4jnsgd1na2vs0mg"},{"bike_id":"9ef6abe4-77b0-4f5c-a72a-8df5ca1aec1c","system_id":"levelo_inurba_marseille","lat":43.2886,"lon":5.3585,"is_reserved":false,"is_disabled":false,"rental_uris":{"android":"levelo://app?vid=9ef6abe4-77b0-4f5c-a72a-8df5ca1aec1c","ios":"levelo://app?vid=9ef6abe4-77b0-4f5c-a72a-8df5ca1aec1c"},"vehicle_type_id":"4","last_reported":1740546573,"current_range_meters":18000,"station_id":"ce4bhb12rcd13ifvqem0","pricing_plan_id":"cebpf4jnsgd1na2vs0mg"},{"bike_id":"59ba3116-8ed4-4641-a868-212e5527dea9","system_id":"levelo_inurba_marseille","lat":43.28454,"lon":5.35831,"is_reserved":false,"is_disabled":false,"rental_uris":{"android":"levelo://app?vid=59ba3116-8ed4-4641-a868-212e5527dea9","ios":"levelo://app?vid=59ba3116-8ed4-4641-a868-212e5527dea9"},"vehicle_type_id":"4","last_reported":1740546573,"current_range_meters":18000,"station_id":"ce4bhah2rcd13ifvqei0","pricing_plan_id":"cebpf4jnsgd1na2vs0mg"},{"bike_id":"1d6527a3-9828-4886-ba75-0208973b4ce2","system_id":"levelo_inurba_marseille","lat":43.28834,"lon":5.35833,"is_reserved":false,"is_disabled":false,"rental_uris":{"android":"levelo://app?vid=1d6527a3-9828-4886-ba75-0208973b4ce2","ios":"levelo://app?vid=1d6527a3-9828-4886-ba75-0208973b4ce2"},"vehicle_type_id":"4","last_reported":1740546573,"current_range_meters":18000,"station_id":"ce4bhb12rcd13ifvqem0","pricing_plan_id":"cebpf4jnsgd1na2vs0mg"},{"bike_id":"d52621a7-0a55-4e5b-8a76-da13389902cc","system_id":"levelo_inurba_marseille","lat":43.25312,"lon":5.42583,"is_reserved":false,"is_disabled":false,"rental_uris":{"android":"levelo://app?vid=d52621a7-0a55-4e5b-8a76-da13389902cc","ios":"levelo://app?vid=d52621a7-0a55-4e5b-8a76-da13389902cc"},"vehicle_type_id":"4","last_reported":1740546573,"current_range_meters":18000,"station_id":"","pricing_plan_id":"cebpf4jnsgd1na2vs0mg"},{"bike_id":"9e067b1d-7411-4ad9-a56e-5af74da6d03d","system_id":"levelo_inurba_marseille","lat":43.27913,"lon":5.3959,"is_reserved":false,"is_disabled":false,"rental_uris":{"android":"levelo://app?vid=9e067b1d-7411-4ad9-a56e-5af74da6d03d","ios":"levelo://app?vid=9e067b1d-7411-4ad9-a56e-5af74da6d03d"},"vehicle_type_id":"4","last_reported":1740546573,"current_range_meters":18000,"station_id":"ce4bhf92rcd13ifvqf40","pricing_plan_id":"cebpf4jnsgd1na2vs0mg"},{"bike_id":"07e3cf7f-8210-4088-8fa1-88f52b39e91a","system_id":"levelo_inurba_marseille","lat":43.27061,"lon":5.4026,"is_reserved":false,"is_disabled":false,"rental_uris":{"android":"levelo://app?vid=07e3cf7f-8210-4088-8fa1-88f52b39e91a","ios":"levelo://app?vid=07e3cf7f-8210-4088-8fa1-88f52b39e91a"},"vehicle_type_id":"4","last_reported":1740546573,"current_range_meters":18000,"station_id":"ce4bhk92rcd13ifvqgc0","pricing_plan_id":"cebpf4jnsgd1na2vs0mg"},{"bike_id":"4b61e751-82d0-43ba-9adf-2f5e0b129217","system_id":"levelo_inurba_marseille","lat":43.30861,"lon":5.39661,"is_reserved":false,"is_disabled":false,"rental_uris":{"android":"levelo://app?vid=4b61e751-82d0-43ba-9adf-2f5e0b129217","ios":"levelo://app?vid=4b61e751-82d0-43ba-9adf-2f5e0b129217"},"vehicle_type_id":"4","last_reported":1740546573,"current_range_meters":18800,"station_id":"ce4bh012rcd13ifvqcv0","pricing_plan_id":"cebpf4jnsgd1na2vs0mg"},{"bike_id":"87966182-3a23-4709-871c-f0e7149f4a40","system_id":"levelo_inurba_marseille","lat":43.30803,"lon":5.38126,"is_reserved":false,"is_disabled":false,"rental_uris":{"android":"levelo://app?vid=87966182-3a23-4709-871c-f0e7149f4a40","ios":"levelo://app?vid=87966182-3a23-4709-871c-f0e7149f4a40"},