{"last_updated":1730668059,"ttl":60,"version":"2.2","data":{"bikes":[{"bike_id":"daa5500f-6039-4d77-bf02-00710b3acec6","system_id":"levelo_inurba_marseille","lat":43.2593,"lon":5.40909,"is_reserved":false,"is_disabled":false,"rental_uris":{"android":"levelo://app?vid=daa5500f-6039-4d77-bf02-00710b3acec6","ios":"levelo://app?vid=daa5500f-6039-4d77-bf02-00710b3acec6"},"vehicle_type_id":"4","last_reported":1730668059,"current_range_meters":2800,"station_id":"ce4bhm92rcd13ifvqglg","pricing_plan_id":"cebpf4jnsgd1na2vs0mg"},{"bike_id":"18db7a38-fb1c-4f2b-a7d3-41ca5532cc0b","system_id":"levelo_inurba_marseille","lat":43.32333,"lon":5.40622,"is_reserved":false,"is_disabled":false,"rental_uris":{"android":"levelo://app?vid=18db7a38-fb1c-4f2b-a7d3-41ca5532cc0b","ios":"levelo://app?vid=18db7a38-fb1c-4f2b-a7d3-41ca5532cc0b"},"vehicle_type_id":"4","last_reported":1730668059,"current_range_meters":16800,"station_id":"ce4bhq92rcd13ifvqhjg","pricing_plan_id":"cebpf4jnsgd1na2vs0mg"},{"bike_id":"08885ec4-60fb-4ee7-a22f-1287f47e31a1","system_id":"levelo_inurba_marseille","lat":43.302439,"lon":5.400558,"is_reserved":false,"is_disabled":false,"rental_uris":{"android":"levelo://app?vid=08885ec4-60fb-4ee7-a22f-1287f47e31a1","ios":"levelo://app?vid=08885ec4-60fb-4ee7-a22f-1287f47e31a1"},"vehicle_type_id":"4","last_reported":1730668059,"current_range_meters":36800,"station_id":"ce4bgvh2rcd13ifvqcs0","pricing_plan_id":"cebpf4jnsgd1na2vs0mg"},{"bike_id":"d00abb61-0e57-498d-9b2a-8beda63b6fef","system_id":"levelo_inurba_marseille","lat":43.3089,"lon":5.39631,"is_reserved":false,"is_disabled":false,"rental_uris":{"android":"levelo://app?vid=d00abb61-0e57-498d-9b2a-8beda63b6fef","ios":"levelo://app?vid=d00abb61-0e57-498d-9b2a-8beda63b6fef"},"vehicle_type_id":"4","last_reported":1730668059,"current_range_meters":38800,"station_id":"ce4bh012rcd13ifvqcv0","pricing_plan_id":"cebpf4jnsgd1na2vs0mg"},{"bike_id":"e1a738f4-d190-4319-951b-0640d9a57607","system_id":"levelo_inurba_marseille","lat":43.33021,"lon":5.39038,"is_reserved":false,"is_disabled":false,"rental_uris":{"android":"levelo://app?vid=e1a738f4-d190-4319-951b-0640d9a57607","ios":"levelo://app?vid=e1a738f4-d190-4319-951b-0640d9a57607"},"vehicle_type_id":"4","last_reported":1730668059,"current_range_meters":8800,"station_id":"ce4bhr92rcd13ifvqhrg","pricing_plan_id":"cebpf4jnsgd1na2vs0mg"},{"bike_id":"84cd346e-b95a-41f9-83f2-f8ac21466dd6","system_id":"levelo_inurba_marseille","lat":43.29524,"lon":5.39401,"is_reserved":false,"is_disabled":false,"rental_uris":{"android":"levelo://app?vid=84cd346e-b95a-41f9-83f2-f8ac21466dd6","ios":"levelo://app?vid=84cd346e-b95a-41f9-83f2-f8ac21466dd6"},"vehicle_type_id":"4","last_reported":1730668059,"current_range_meters":38800,"station_id":"ce4bh292rcd13ifvqdf0","pricing_plan_id":"cebpf4jnsgd1na2vs0mg"},{"bike_id":"1400481a-d64a-45f2-94ac-6b422dab62e4","system_id":"levelo_inurba_marseille","lat":43.31333,"lon":5.39701,"is_reserved":false,"is_disabled":false,"rental_uris":{"android":"levelo://app?vid=1400481a-d64a-45f2-94ac-6b422dab62e4","ios":"levelo://app?vid=1400481a-d64a-45f2-94ac-6b422dab62e4"},"vehicle_type_id":"4","last_reported":1730668059,"current_range_meters":25600,"station_id":"ce4bgvp2rcd13ifvqcu0","pricing_plan_id":"cebpf4jnsgd1na2vs0mg"},{"bike_id":"e6268103-6b7e-4c70-8842-7524b6bd61e7","system_id":"levelo_inurba_marseille","lat":43.28353,"lon":5.38105,"is_reserved":false,"is_disabled":false,"rental_uris":{"android":"levelo://app?vid=e6268103-6b7e-4c70-8842-7524b6bd61e7","ios":"levelo://app?vid=e6268103-6b7e-4c70-8842-7524b6bd61e7"},"vehicle_type_id":"4","last_reported":1730668059,"current_range_meters":2800,"station_id":"ce4bh412rcd13ifvqdr0","pricing_plan_id":"cebpf4jnsgd1na2vs0mg"},{"bike_id":"3da35dce-79f8-44c4-8e97-0069b09975e5","system_id":"levelo_inurba_marseille","lat":43.28696,"lon":5.3998,"is_reserved":false,"is_disabled":false,"rental_uris":{"android":"levelo://app?vid=3da35dce-79f8-44c4-8e97-0069b09975e5","ios":"levelo://app?vid=3da35dce-79f8-44c4-8e97-0069b09975e5"},"vehicle_type_id":"4","last_reported":1730668059,"current_range_meters":37600,"station_id":"ce4bho92rcd13ifvqh3g","pricing_plan_id":"cebpf4jnsgd1na2vs0mg"},{"bike_id":"fcd81767-2dc7-4408-b5a4-0eadcf4a175a","system_id":"levelo_inurba_marseille","lat":43.31758,"lon":5.39026,"is_reserved":false,"is_disabled":false,"rental_uris":{"android":"levelo://app?vid=fcd81767-2dc7-4408-b5a4-0eadcf4a175a","ios":"levelo://app?vid=fcd81767-2dc7-4408-b5a4-0eadcf4a175a"},"vehicle_type_id":"4","last_reported":1730668059,"current_range_meters":38000,"station_id":"ce4bhqp2rcd13ifvqhng","pricing_plan_id":"cebpf4jnsgd1na2vs0mg"},{"bike_id":"66985a72-6dec-4528-bb13-5a4a46a040b6","system_id":"levelo_inurba_marseille","lat":43.25724,"lon":5.41107,"is_reserved":false,"is_disabled":false,"rental_uris":{"android":"levelo://app?vid=66985a72-6dec-4528-bb13-5a4a46a040b6","ios":"levelo://app?vid=66985a72-6dec-4528-bb13-5a4a46a040b6"},"vehicle_type_id":"4","last_reported":1730668059,"current_range_meters":28000,"station_id":"ce4bhkp2rcd13ifvqgd0","pricing_plan_id":"cebpf4jnsgd1na2vs0mg"},{"bike_id":"cfed3c61-83ce-4e3c-91b3-44166783dd8c","system_id":"levelo_inurba_marseille","lat":43.28354,"lon":5.38099,"is_reserved":false,"is_disabled":false,"rental_uris":{"android":"levelo://app?vid=cfed3c61-83ce-4e3c-91b3-44166783dd8c","ios":"levelo://app?vid=cfed3c61-83ce-4e3c-91b3-44166783dd8c"},"vehicle_type_id":"4","last_reported":1730668059,"current_range_meters":31200,"station_id":"ce4bh412rcd13ifvqdr0","pricing_plan_id":"cebpf4jnsgd1na2vs0mg"},{"bike_id":"f000d6ee-3311-4e0f-8f93-4332274a3604","system_id":"levelo_inurba_marseille","lat":43.25816,"lon":5.39426,"is_reserved":false,"is_disabled":false,"rental_uris":{"android":"levelo://app?vid=f000d6ee-3311-4e0f-8f93-4332274a3604","ios":"levelo://app?vid=f000d6ee-3311-4e0f-8f93-4332274a3604"},"vehicle_type_id":"4","last_reported":1730668059,"current_range_meters":38800,"station_id":"ce4bhip2rcd13ifvqft0","pricing_plan_id":"cebpf4jnsgd1na2vs0mg"},{"bike_id":"ac6007e9-3662-42df-bfad-f48b7dd146f0","system_id":"levelo_inurba_marseille","lat":43.26488,"lon":5.3955,"is_reserved":false,"is_disabled":false,"rental_uris":{"android":"levelo://app?vid=ac6007e9-3662-42df-bfad-f48b7dd146f0","ios":"levelo://app?vid=ac6007e9-3662-42df-bfad-f48b7dd146f0"},"vehicle_type_id":"4","last_reported":1730668059,"current_range_meters":24800,"station_id":"ce4bhi12rcd13ifvqfq0","pricing_plan_id":"cebpf4jnsgd1na2vs0mg"},{"bike_id":"9d595e5c-d7f5-4c7a-bb7a-8c04bcf3ac7b","system_id":"levelo_inurba_marseille","lat":43.30886,"lon":5.39638,"is_reserved":false,"is_disabled":false,"rental_uris":{"android":"levelo://app?vid=9d595e5c-d7f5-4c7a-bb7a-8c04bcf3ac7b","ios":"levelo://app?vid=9d595e5c-d7f5-4c7a-bb7a-8c04bcf3ac7b"},"vehicle_type_id":"4","last_reported":1730668059,"current_range_meters":26800,"station_id":"ce4bh012rcd13ifvqcv0","pricing_plan_id":"cebpf4jnsgd1na2vs0mg"},{"bike_id":"38e520d4-7fa0-4038-8595-0c1445c11904","system_id":"levelo_inurba_marseille","lat":43.28036,"lon":5.36942,"is_reserved":false,"is_disabled":false,"rental_uris":{"android":"levelo://app?vid=38e520d4-7fa0-4038-8595-0c1445c11904","ios":"levelo://app?vid=38e520d4-7fa0-4038-8595-0c1445c11904"},"vehicle_type_id":"4","last_reported":1730668059,"current_range_meters":38800,"station_id":"ce4bha12rcd13ifvqef0","pricing_plan_id":"cebpf4jnsgd1na2vs0mg"},{"bike_id":"03bce1ae-a6b8-4dff-9d2e-374e059c5f3b","system_id":"levelo_inurba_marseille","lat":43.29015,"lon":5.38133,"is_reserved":false,"is_disabled":false,"rental_uris":{"android":"levelo://app?vid=03bce1ae-a6b8-4dff-9d2e-374e059c5f3b","ios":"levelo://app?vid=03bce1ae-a6b8-4dff-9d2e-374e059c5f3b"},"vehicle_type_id":"4","last_reported":1730668059,"current_range_meters":37600,"station_id":"ce4bh4p2rcd13ifvqe1g","pricing_plan_id":"cebpf4jnsgd1na2vs0mg"},{"bike_id":"721971d4-8baf-40a2-96cb-944e0c652d93","system_id":"levelo_inurba_marseille","lat":43.28701,"lon":5.39981,"is_reserved":false,"is_disabled":false,"rental_uris":{"android":"levelo://app?vid=721971d4-8baf-40a2-96cb-944e0c652d93","ios":"levelo://app?vid=721971d4-8baf-40a2-96cb-944e0c652d93"},"vehicle_type_id":"4","last_reported":1730668059,"current_range_meters":8000,"station_id":"ce4bho92rcd13ifvqh3g","pricing_plan_id":"cebpf4jnsgd1na2vs0mg"},{"bike_id":"98976bc5-0c3c-4b6a-a85c-7ad74b2e8072","system_id":"levelo_inurba_marseille","lat":43.30803,"lon":5.43513,"is_reserved":false,"is_disabled":false,"rental_uris":{"android":"levelo://app?vid=98976bc5-0c3c-4b6a-a85c-7ad74b2e8072","ios":"levelo://app?vid=98976bc5-0c3c-4b6a-a85c-7ad74b2e8072"},"vehicle_type_id":"4","last_reported":1730668059,"current_range_meters":35600,"station_id":"ce4bhph2rcd13ifvqheg","pricing_plan_id":"cebpf4jnsgd1na2vs0mg"},{"bike_id":"4147bbfb-4b14-4aca-b782-8ec6c0473609","system_id":"levelo_inurba_marseille","lat":43.23596,"lon":5.40351,"is_reserved":false,"is_disabled":false,"rental_uris":{"android":"levelo://app?vid=4147bbfb-4b14-4aca-b782-8ec6c0473609","ios":"levelo://app?vid=4147bbfb-4b14-4aca-b782-8ec6c0473609"},"vehicle_type_id":"4","last_reported":1730668059,"current_range_meters":19200,"station_id":"","pricing_plan_id":"cebpf4jnsgd1na2vs0mg"},{"bike_id":"725dc78c-8fcc-492f-b124-788f84712d3a","system_id":"levelo_inurba_marseille","lat":43.27913,"lon":5.3801,"is_reserved":false,"is_disabled":false,"rental_uris":{"android":"levelo://app?vid=725dc78c-8fcc-492f-b124-788f84712d3a","ios":"levelo://app?vid=725dc78c-8fcc-492f-b124-788f84712d3a"},"vehicle_type_id":"4","last_reported":1730668059,"current_range_meters":8000,"station_id":"ce4bhf92rcd13ifvqf50","pricing_plan_id":"cebpf4jnsgd1na2vs0mg"},{"bike_id":"e1947fec-fd03-432f-b354-3f23097e35eb","system_id":"levelo_inurba_marseille","lat":43.28939,"lon":5.36389,"is_reserved":false,"is_disabled":false,"rental_uris":{"android":"levelo://app?vid=e1947fec-fd03-432f-b354-3f23097e35eb","ios":"levelo://app?vid=e1947fec-fd03-432f-b354-3f23097e35eb"},"vehicle_type_id":"4","last_reported":1730668059,"current_range_meters":16800,"station_id":"ce4bhc92rcd13ifvqetg","pricing_plan_id":"cebpf4jnsgd1na2vs0mg"},{"bike_id":"e34cb0e5-64fe-41ba-a20c-7021cdc7697f","system_id":"levelo_inurba_marseille","lat":43.279963,"lon":5.400105,"is_reserved":false,"is_disabled":false,"rental_uris":{"android":"levelo://app?vid=e34cb0e5-64fe-41ba-a20c-7021cdc7697f","ios":"levelo://app?vid=e34cb0e5-64fe-41ba-a20c-7021cdc7697f"},"vehicle_type_id":"4","last_reported":1730668059,"current_range_meters":38800,"station_id":"ce4bho92rcd13ifvqh4g","pricing_plan_id":"cebpf4jnsgd1na2vs0mg"},{"bike_id":"951a86b0-34d7-49cf-8185-35e052067ac1","system_id":"levelo_inurba_marseille","lat":43.28668,"lon":5.38659,"is_reserved":false,"is_disabled":false,"rental_uris":{"android":"levelo://app?vid=951a86b0-34d7-49cf-8185-35e052067ac1","ios":"levelo://app?vid=951a86b0-34d7-49cf-8185-35e052067ac1"},"vehicle_type_id":"4","last_reported":1730668059,"current_range_meters":40000,"station_id":"ce4bh492rcd13ifvqdug","pricing_plan_id":"cebpf4jnsgd1na2vs0mg"},{"bike_id":"085e82ad-9804-47b6-9ba5-6bbb40aaef5b","system_id":"levelo_inurba_marseille","lat":43.3088,"lon":5.39651,"is_reserved":false,"is_disabled":false,"rental_uris":{"android":"levelo://app?vid=085e82ad-9804-47b6-9ba5-6bbb40aaef5b","ios":"levelo://app?vid=085e82ad-9804-47b6-9ba5-6bbb40aaef5b"},"vehicle_type_id":"4","last_reported":1730668059,"current_range_meters":38800,"station_id":"ce4bh012rcd13ifvqcv0","pricing_plan_id":"cebpf4jnsgd1na2vs0mg"},{"bike_id":"db5d7aa3-0a2b-4c4a-ac97-c89e88e9cfa4","system_id":"levelo_inurba_marseille","lat":43.2905,"lon":5.3591,"is_reserved":false,"is_disabled":false,"rental_uris":{"android":"levelo://app?vid=db5d7aa3-0a2b-4c4a-ac97-c89e88e9cfa4","ios":"levelo://app?vid=db5d7aa3-0a2b-4c4a-ac97-c89e88e9cfa4"},"vehicle_type_id":"4","last_reported":1730668059,"current_range_meters":18800,"station_id":"ce4bha92rcd13ifvqeg0","pricing_plan_id":"cebpf4jnsgd1na2vs0mg"},{"bike_id":"6c348dfc-0d16-4e52-a122-f6876b86d262","system_id":"levelo_inurba_marseille","lat":43.29723,"lon":5.37681,"is_reserved":false,"is_disabled":false,"rental_uris":{"android":"levelo://app?vid=6c348dfc-0d16-4e52-a122-f6876b86d262","ios":"levelo://app?vid=6c348dfc-0d16-4e52-a122-f6876b86d262"},"vehicle_type_id":"4","last_reported":1730668059,"current_range_meters":38800,"station_id":"ce4bgkh2rcd13ifvqbl0","pricing_plan_id":"cebpf4jnsgd1na2vs0mg"},{"bike_id":"7a58bdc6-5db2-4543-b33d-6202d289b688","system_id":"levelo_inurba_marseille","lat":43.33722,"lon":5.3918,"is_reserved":false,"is_disabled":false,"rental_uris":{"android":"levelo://app?vid=7a58bdc6-5db2-4543-b33d-6202d289b688","ios":"levelo://app?vid=7a58bdc6-5db2-4543-b33d-6202d289b688"},"vehicle_type_id":"4","last_reported":1730668059,"current_range_meters":27200,"station_id":"ce4bhr92rcd13ifvqhsg","pricing_plan_id":"cebpf4jnsgd1na2vs0mg"},{"bike_id":"199d375f-a68b-4b66-abb5-ba773fd75a7c","system_id":"levelo_inurba_marseille","lat":43.3169,"lon":5.40463,"is_reserved":false,"is_disabled":false,"rental_uris":{"android":"levelo://app?vid=199d375f-a68b-4b66-abb5-ba773fd75a7c","ios":"levelo://app?vid=199d375f-a68b-4b66-abb5-ba773fd75a7c"},"vehicle_type_id":"4","last_reported":1730668059,"current_range_meters":39200,"station_id":"ce4bh012rcd13ifvqd00","pricing_plan_id":"cebpf4jnsgd1na2vs0mg"},{"bike_id":"bda216a2-3893-41a6-9f78-0b1e26f9cb98","system_id":"levelo_inurba_marseille","lat":43.33612,"lon":5.41026,"is_reserved":false,"is_disabled":false,"rental_uris":{"android":"levelo://app?vid=bda216a2-3893-41a6-9f78-0b1e26f9cb98","ios":"levelo://app?vid=bda216a2-3893-41a6-9f78-0b1e26f9cb98"},"vehicle_type_id":"4","last_reported":1730668059,"current_range_meters":26800,"station_id":"ce4bhqh2rcd13ifvqhmg","pricing_plan_id":"cebpf4jnsgd1na2vs0mg"},{"bike_id":"358014e6-fd06-48f2-a0cc-777e685d1418","system_id":"levelo_inurba_marseille","lat":43.31224,"lon":5.36857,"is_reserved":false,"is_disabled":false,"rental_uris":{"android":"levelo://app?vid=358014e6-fd06-48f2-a0cc-777e685d1418","ios":"levelo://app?vid=358014e6-fd06-48f2-a0cc-777e685d1418"},"vehicle_type_id":"4","last_reported":1730668059,"current_range_meters":37600,"station_id":"ce4bgl92rcd13ifvqbq0","pricing_plan_id":"cebpf4jnsgd1na2vs0mg"},{"bike_id":"1f7feafc-8065-42d3-af01-fe45b90edb39","system_id":"levelo_inurba_marseille","lat":43.24997,"lon":5.38928,"is_reserved":false,"is_disabled":false,"rental_uris":{"android":"levelo://app?vid=1f7feafc-8065-42d3-af01-fe45b90edb39","ios":"levelo://app?vid=1f7feafc-8065-42d3-af01-fe45b90edb39"},"vehicle_type_id":"4","last_reported":1730668059,"current_range_meters":9200,"station_id":"ce4bhgp2rcd13ifvqfd0","pricing_plan_id":"cebpf4jnsgd1na2vs0mg"},{"bike_id":"baea6945-ac3f-4195-a6a4-4b887db0844f","system_id":"levelo_inurba_marseille","lat":43.27067,"lon":5.42271,"is_reserved":false,"is_disabled":false,"rental_uris":{"android":"levelo://app?vid=baea6945-ac3f-4195-a6a4-4b887db0844f","ios":"levelo://app?vid=baea6945-ac3f-4195-a6a4-4b887db0844f"},"vehicle_type_id":"4","last_reported":1730668059,"current_range_meters":37600,"station_id":"ce4bhk92rcd13ifvqgb0","pricing_plan_id":"cebpf4jnsgd1na2vs0mg"},{"bike_id":"598535da-1e32-42e0-bd65-4ba25549dd70","system_id":"levelo_inurba_marseille","lat":43.31451,"lon":5.37386,"is_reserved":false,"is_disabled":false,"rental_uris":{"android":"levelo://app?vid=598535da-1e32-42e0-bd65-4ba25549dd70","ios":"levelo://app?vid=598535da-1e32-42e0-bd65-4ba25549dd70"},"vehicle_type_id":"4","last_reported":1730668059,"current_range_meters":28400,"station_id":"","pricing_plan_id":"cebpf4jnsgd1na2vs0mg"},{"bike_id":"2378f453-72a7-4eb2-ab3b-946285d406fd","system_id":"levelo_inurba_marseille","lat":43.29225,"lon":5.37721,"is_reserved":false,"is_disabled":false,"rental_uris":{"android":"levelo://app?vid=2378f453-72a7-4eb2-ab3b-946285d406fd","ios":"levelo://app?vid=2378f453-72a7-4eb2-ab3b-946285d406fd"},"vehicle_type_id":"4","last_reported":1730668059,"current_range_meters":11200,"station_id":"ce4bgi12rcd13ifvqb70","pricing_plan_id":"cebpf4jnsgd1na2vs0mg"},{"bike_id":"69c5828b-16b5-4e21-9a89-eb78828b437f","system_id":"levelo_inurba_marseille","lat":43.27075,"lon":5.42279,"is_reserved":false,"is_disabled":false,"rental_uris":{"android":"levelo://app?vid=69c5828b-16b5-4e21-9a89-eb78828b437f","ios":"levelo://app?vid=69c5828b-16b5-4e21-9a89-eb78828b437f"},"vehicle_type_id":"4","last_reported":1730668059,"current_range_meters":3200,"station_id":"ce4bhk92rcd13ifvqgb0","pricing_plan_id":"cebpf4jnsgd1na2vs0mg"},{"bike_id":"45e37847-060c-4fbe-958a-f63e7f57fa30","system_id":"levelo_inurba_marseille","lat":43.27069,"lon":5.42277,"is_reserved":false,"is_disabled":false,"rental_uris":{"android":"levelo://app?vid=45e37847-060c-4fbe-958a-f63e7f57fa30","ios":"levelo://app?vid=45e37847-060c-4fbe-958a-f63e7f57fa30"},"vehicle_type_id":"4","last_reported":1730668059,"current_range_meters":22800,"station_id":"ce4bhk92rcd13ifvqgb0","pricing_plan_id":"cebpf4jnsgd1na2vs0mg"},{"bike_id":"9f223478-460e-4c61-b4f2-20e23bd73f46","system_id":"levelo_inurba_marseille","lat":43.29515,"lon":5.394,"is_reserved":false,"is_disabled":false,"rental_uris":{"android":"levelo://app?vid=9f223478-460e-4c61-b4f2-20e23bd73f46","ios":"levelo://app?vid=9f223478-460e-4c61-b4f2-20e23bd73f46"},"vehicle_type_id":"4","last_reported":1730668059,"current_range_meters":38800,"station_id":"ce4bh292rcd13ifvqdf0","pricing_plan_id":"cebpf4jnsgd1na2vs0mg"},{"bike_id":"9c6a4c09-d997-448d-8062-9335e03a26ba","system_id":"levelo_inurba_marseille","lat":43.29224,"lon":5.37731,"is_reserved":false,"is_disabled":false,"rental_uris":{"android":"levelo://app?vid=9c6a4c09-d997-448d-8062-9335e03a26ba","ios":"levelo://app?vid=9c6a4c09-d997-448d-8062-9335e03a26ba"},"vehicle_type_id":"4","last_reported":1730668059,"current_range_meters":38000,"station_id":"ce4bgi12rcd13ifvqb70","pricing_plan_id":"cebpf4jnsgd1na2vs0mg"},{"bike_id":"8c0eb2b5-3b07-4476-8d7b-9509e4791f89","system_id":"levelo_inurba_marseille","lat":43.30305,"lon":5.39204,"is_reserved":false,"is_disabled":false,"rental_uris":{"android":"levelo://app?vid=8c0eb2b5-3b07-4476-8d7b-9509e4791f89","ios":"levelo://app?vid=8c0eb2b5-3b07-4476-8d7b-9509e4791f89"},"vehicle_type_id":"4","last_reported":1730668059,"current_range_meters":38800,"station_id":"ce4bgkh2rcd13ifvqbk0","pricing_plan_id":"cebpf4jnsgd1na2vs0mg"},{"bike_id":"c89ab191-b07a-439c-a401-b85e67263211","system_id":"levelo_inurba_marseille","lat":43.28935,"lon":5.38396,"is_reserved":false,"is_disabled":false,"rental_uris":{"android":"levelo://app?vid=c89ab191-b07a-439c-a401-b85e67263211","ios":"levelo://app?vid=c89ab191-b07a-439c-a401-b85e67263211"},"vehicle_type_id":"4","last_reported":1730668059,"current_range_meters":22800,"station_id":"ce4bh612rcd13ifvqe6g","pricing_plan_id":"cebpf4jnsgd1na2vs0mg"},{"bike_id":"69bf3018-6755-4457-ac0b-41f2fc7c2aa8","system_id":"levelo_inurba_marseille","lat":43.299746,"lon":5.371803,"is_reserved":false,"is_disabled":false,"rental_uris":{"android":"levelo://app?vid=69bf3018-6755-4457-ac0b-41f2fc7c2aa8","ios":"levelo://app?vid=69bf3018-6755-4457-ac0b-41f2fc7c2aa8"},"vehicle_type_id":"4","last_reported":1730668059,"current_range_meters":39200,"station_id":"ce4bgr92rcd13ifvqc7g","pricing_plan_id":"cebpf4jnsgd1na2vs0mg"},{"bike_id":"cb20430f-4fe0-4720-9a16-bf6b41da9b14","system_id":"levelo_inurba_marseille","lat":43.29415,"lon":5.38626,"is_reserved":false,"is_disabled":false,"rental_uris":{"android":"levelo://app?vid=cb20430f-4fe0-4720-9a16-bf6b41da9b14","ios":"levelo://app?vid=cb20430f-4fe0-4720-9a16-bf6b41da9b14"},"vehicle_type_id":"4","last_reported":1730668059,"current_range_meters":38000,"station_id":"ce4bh2h2rcd13ifvqdh0","pricing_plan_id":"cebpf4jnsgd1na2vs0mg"},{"bike_id":"acdc64f2-12f9-4086-9b0a-da9f545a5540","system_id":"levelo_inurba_marseille","lat":43.29196,"lon":5.39325,"is_reserved":false,"is_disabled":false,"rental_uris":{"android":"levelo://app?vid=acdc64f2-12f9-4086-9b0a-da9f545a5540","ios":"levelo://app?vid=acdc64f2-12f9-4086-9b0a-da9f545a5540"},"vehicle_type_id":"4","last_reported":1730668059,"current_range_meters":34800,"station_id":"ce4bh192rcd13ifvqdd0","pricing_plan_id":"cebpf4jnsgd1na2vs0mg"},{"bike_id":"7d1f25df-2b68-4f01-83bc-2906849b2161","system_id":"levelo_inurba_marseille","lat":43.29265,"lon":5.38449,"is_reserved":false,"is_disabled":false,"rental_uris":{"android":"levelo://app?vid=7d1f25df-2b68-4f01-83bc-2906849b2161","ios":"levelo://app?vid=7d1f25df-2b68-4f01-83bc-2906849b2161"},"vehicle_type_id":"4","last_reported":1730668059,"current_range_meters":19600,"station_id":"ce4bh692rcd13ifvqea0","pricing_plan_id":"cebpf4jnsgd1na2vs0mg"},{"bike_id":"a90da372-14a2-4c12-9544-f51bf7459731","system_id":"levelo_inurba_marseille","lat":43.30249,"lon":5.40051,"is_reserved":false,"is_disabled":false,"rental_uris":{"android":"levelo://app?vid=a90da372-14a2-4c12-9544-f51bf7459731","ios":"levelo://app?vid=a90da372-14a2-4c12-9544-f51bf7459731"},"vehicle_type_id":"4","last_reported":1730668059,"current_range_meters":38400,"station_id":"ce4bgvh2rcd13ifvqcs0","pricing_plan_id":"cebpf4jnsgd1na2vs0mg"},{"bike_id":"6ed71df9-9717-4ae2-92c9-2a4bddd7b946","system_id":"levelo_inurba_marseille","lat":43.33611,"lon":5.41024,"is_reserved":false,"is_disabled":false,"rental_uris":{"android":"levelo://app?vid=6ed71df9-9717-4ae2-92c9-2a4bddd7b946","ios":"levelo://app?vid=6ed71df9-9717-4ae2-92c9-2a4bddd7b946"},"vehicle_type_id":"4","last_reported":1730668059,"current_range_meters":38400,"station_id":"ce4bhqh2rcd13ifvqhmg","pricing_plan_id":"cebpf4jnsgd1na2vs0mg"},{"bike_id":"31e8f71b-a670-474a-a1c8-071c59dd8a5b","system_id":"levelo_inurba_marseille","lat":43.29527,"lon":5.38546,"is_reserved":false,"is_disabled":false,"rental_uris":{"android":"levelo://app?vid=31e8f71b-a670-474a-a1c8-071c59dd8a5b","ios":"levelo://app?vid=31e8f71b-a670-474a-a1c8-071c59dd8a5b"},"vehicle_type_id":"4","last_reported":1730668059,"current_range_meters":38800,"station_id":"ce4bgih2rcd13ifvqba0","pricing_plan_id":"cebpf4jnsgd1na2vs0mg"},{"bike_id":"a70c5b6a-99aa-4284-b650-968af180e27b","system_id":"levelo_inurba_marseille","lat":43.32366,"lon":5.38874,"is_reserved":false,"is_disabled":false,"rental_uris":{"android":"levelo://app?vid=a70c5b6a-99aa-4284-b650-968af180e27b","ios":"levelo://app?vid=a70c5b6a-99aa-4284-b650-968af180e27b"},"vehicle_type_id":"4","last_reported":1730668059,"current_range_meters":28400,"station_id":"ce4bhqp2rcd13ifvqhog","pricing_plan_id":"cebpf4jnsgd1na2vs0mg"},{"bike_id":"5824da99-26a0-47b5-9300-65c84b76189f","system_id":"levelo_inurba_marseille","lat":43.27175,"lon":5.40984,"is_reserved":false,"is_disabled":false,"rental_uris":{"android":"levelo://app?vid=5824da99-26a0-47b5-9300-65c84b76189f","ios":"levelo://app?vid=5824da99-26a0-47b5-9300-65c84b76189f"},"vehicle_type_id":"4","last_reported":1730668059,"current_range_meters":14400,"station_id":"ce4bhl12rcd13ifvqgf0","pricing_plan_id":"cebpf4jnsgd1na2vs0mg"},{"bike_id":"fe992ae4-ac79-4281-917d-e85d4fe4b5fa","system_id":"levelo_inurba_marseille","lat":43.28419,"lon":5.37519,"is_reserved":false,"is_disabled":false,"rental_uris":{"android":"levelo://app?vid=fe992ae4-ac79-4281-917d-e85d4fe4b5fa","ios":"levelo://app?vid=fe992ae4-ac79-4281-917d-e85d4fe4b5fa"},"vehicle_type_id":"4","last_reported":1730668059,"current_range_meters":30800,"station_id":"ce4bh412rcd13ifvqds0","pricing_plan_id":"cebpf4jnsgd1na2vs0mg"},{"bike_id":"7eda7bfe-0c5b-4987-9da0-a8aaf18a280a","system_id":"levelo_inurba_marseille","lat":43.27993,"lon":5.4166,"is_reserved":false,"is_disabled":false,"rental_uris":{"android":"levelo://app?vid=7eda7bfe-0c5b-4987-9da0-a8aaf18a280a","ios":"levelo://app?vid=7eda7bfe-0c5b-4987-9da0-a8aaf18a280a"},"vehicle_type_id":"4","last_reported":1730668059,"current_range_meters":35600,"station_id":"ce4bho12rcd13ifvqh1g","pricing_plan_id":"cebpf4jnsgd1na2vs0mg"},{"bike_id":"ebcfb78a-de02-4f73-b55b-f01aeb9a484d","system_id":"levelo_inurba_marseille","lat":43.293058,"lon":5.401687,"is_reserved":false,"is_disabled":false,"rental_uris":{"android":"levelo://app?vid=ebcfb78a-de02-4f73-b55b-f01aeb9a484d","ios":"levelo://app?vid=ebcfb78a-de02-4f73-b55b-f01aeb9a484d"},"vehicle_type_id":"4","last_reported":1730668059,"current_range_meters":3600,"station_id":"","pricing_plan_id":"cebpf4jnsgd1na2vs0mg"},{"bike_id":"75576e24-6890-4288-9aa5-db2804891d6f","system_id":"levelo_inurba_marseille","lat":43.26945,"lon":5.40245,"is_reserved":false,"is_disabled":false,"rental_uris":{"android":"levelo://app?vid=75576e24-6890-4288-9aa5-db2804891d6f","ios":"levelo://app?vid=75576e24-6890-4288-9aa5-db2804891d6f"},"vehicle_type_id":"4","last_reported":1730668059,"current_range_meters":36800,"station_id":"cjm6bp8fraef2m0cb0m0","pricing_plan_id":"cebpf4jnsgd1na2vs0mg"},{"bike_id":"bc06a247-2a81-4abe-ae86-31e66b2eeccb","system_id":"levelo_inurba_marseille","lat":43.29904,"lon":5.43656,"is_reserved":false,"is_disabled":false,"rental_uris":{"android":"levelo://app?vid=bc06a247-2a81-4abe-ae86-31e66b2eeccb","ios":"levelo://app?vid=bc06a247-2a81-4abe-ae86-31e66b2eeccb"},"vehicle_type_id":"4","last_reported":1730668059,"current_range_meters":14400,"station_id":"ce4bhpp2rcd13ifvqhfg","pricing_plan_id":"cebpf4jnsgd1na2vs0mg"},{"bike_id":"9f1d73ae-f88e-42f5-8c82-b051d0e932a6","system_id":"levelo_inurba_marseille","lat":43.304197,"lon":5.397483,"is_reserved":false,"is_disabled":false,"rental_uris":{"android":"levelo://app?vid=9f1d73ae-f88e-42f5-8c82-b051d0e932a6","ios":"levelo://app?vid=9f1d73ae-f88e-42f5-8c82-b051d0e932a6"},"vehicle_type_id":"4","last_reported":1730668059,"current_range_meters":24800,"station_id":"ce4bh092rcd13ifvqd20","pricing_plan_id":"cebpf4jnsgd1na2vs0mg"},{"bike_id":"3af0a465-9131-423c-a194-6a482122542b","system_id":"levelo_inurba_marseille","lat":43.30193,"lon":5.38951,"is_reserved":false,"is_disabled":false,"rental_uris":{"android":"levelo://app?vid=3af0a465-9131-423c-a194-6a482122542b","ios":"levelo://app?vid=3af0a465-9131-423c-a194-6a482122542b"},"vehicle_type_id":"4","last_reported":1730668059,"current_range_meters":30000,"station_id":"","pricing_plan_id":"cebpf4jnsgd1na2vs0mg"},{"bike_id":"b5a38dd7-6570-4c14-9258-47d6f21578e9","system_id":"levelo_inurba_marseille","lat":43.29714,"lon":5.36601,"is_reserved":false,"is_disabled":false,"rental_uris":{"android":"levelo://app?vid=b5a38dd7-6570-4c14-9258-47d6f21578e9","ios":"levelo://app?vid=b5a38dd7-6570-4c14-9258-47d6f21578e9"},"vehicle_type_id":"4","last_reported":1730668059,"current_range_meters":24000,"station_id":"ce4bgn12rcd13ifvqbt0","pricing_plan_id":"cebpf4jnsgd1na2vs0mg"},{"bike_id":"272c9abf-a133-4324-9208-08b126787068","system_id":"levelo_inurba_marseille","lat":43.27902,"lon":5.38005,"is_reserved":false,"is_disabled":false,"rental_uris":{"android":"levelo://app?vid=272c9abf-a133-4324-9208-08b126787068","ios":"levelo://app?vid=272c9abf-a133-4324-9208-08b126787068"},"vehicle_type_id":"4","last_reported":1730668059,"current_range_meters":38800,"station_id":"ce4bhf92rcd13ifvqf50","pricing_plan_id":"cebpf4jnsgd1na2vs0mg"},{"bike_id":"931c7ce7-0b8e-45c8-b8c4-2e528c075a18","system_id":"levelo_inurba_marseille","lat":43.30801,"lon":5.38197,"is_reserved":false,"is_disabled":false,"rental_uris":{"android":"levelo://app?vid=931c7ce7-0b8e-45c8-b8c4-2e528c075a18","ios":"levelo://app?vid=931c7ce7-0b8e-45c8-b8c4-2e528c075a18"},"vehicle_type_id":"4","last_reported":1730668059,"current_range_meters":37600,"station_id":"ce4bgt12rcd13ifvqce0","pricing_plan_id":"cebpf4jnsgd1na2vs0mg"},{"bike_id":"b8b8e78b-55ed-4a91-b7d6-8216533cb204","system_id":"levelo_inurba_marseille","lat":43.29684,"lon":5.37284,"is_reserved":false,"is_disabled":false,"rental_uris":{"android":"levelo://app?vid=b8b8e78b-55ed-4a91-b7d6-8216533cb204","ios":"levelo://app?vid=b8b8e78b-55ed-4a91-b7d6-8216533cb204"},"vehicle_type_id":"4","last_reported":1730668059,"current_range_meters":19200,"station_id":"ce4bgk12rcd13ifvqbj0","pricing_plan_id":"cebpf4jnsgd1na2vs0mg"},{"bike_id":"16f80d5a-857a-4485-a2d3-ea2e0a422bbb","system_id":"levelo_inurba_marseille","lat":43.30934,"lon":5.40145,"is_reserved":false,"is_disabled":false,"rental_uris":{"android":"levelo://app?vid=16f80d5a-857a-4485-a2d3-ea2e0a422bbb","ios":"levelo://app?vid=16f80d5a-857a-4485-a2d3-ea2e0a422bbb"},"vehicle_type_id":"4","last_reported":1730668059,"current_range_meters":38800,"station_id":"ce4bgvp2rcd13ifvqct0","pricing_plan_id":"cebpf4jnsgd1na2vs0mg"},{"bike_id":"7fa9e0db-d5db-4e00-9bab-71088473e9a3","system_id":"levelo_inurba_marseille","lat":43.28348,"lon":5.38095,"is_reserved":false,"is_disabled":false,"rental_uris":{"android":"levelo://app?vid=7fa9e0db-d5db-4e00-9bab-71088473e9a3","ios":"levelo://app?vid=7fa9e0db-d5db-4e00-9bab-71088473e9a3"},"vehicle_type_id":"4","last_reported":1730668059,"current_range_meters":33200,"station_id":"ce4bh412rcd13ifvqdr0","pricing_plan_id":"cebpf4jnsgd1na2vs0mg"},{"bike_id":"bebcfe3b-d335-4aba-868b-1d1dcf0a3ba3","system_id":"levelo_inurba_marseille","lat":43.27419,"lon":5.3941,"is_reserved":false,"is_disabled":false,"rental_uris":{"android":"levelo://app?vid=bebcfe3b-d335-4aba-868b-1d1dcf0a3ba3","ios":"levelo://app?vid=bebcfe3b-d335-4aba-868b-1d1dcf0a3ba3"},"vehicle_type_id":"4","last_reported":1730668059,"current_range_meters":38800,"station_id":"ce4bhdp2rcd13ifvqf20","pricing_plan_id":"cebpf4jnsgd1na2vs0mg"},{"bike_id":"5af32b3b-d3c5-4761-95bd-a51ac5c29c07","system_id":"levelo_inurba_marseille","lat":43.30882,"lon":5.37188,"is_reserved":false,"is_disabled":false,"rental_uris":{"android":"levelo://app?vid=5af32b3b-d3c5-4761-95bd-a51ac5c29c07","ios":"levelo://app?vid=5af32b3b-d3c5-4761-95bd-a51ac5c29c07"},"vehicle_type_id":"4","last_reported":1730668059,"current_range_meters":38800,"station_id":"ce4bguh2rcd13ifvqckg","pricing_plan_id":"cebpf4jnsgd1na2vs0mg"},{"bike_id":"616b9aee-021c-4bb7-b5b5-16444fc838e4","system_id":"levelo_inurba_marseille","lat":43.29418,"lon":5.38612,"is_reserved":false,"is_disabled":false,"rental_uris":{"android":"levelo://app?vid=616b9aee-021c-4bb7-b5b5-16444fc838e4","ios":"levelo://app?vid=616b9aee-021c-4bb7-b5b5-16444fc838e4"},"vehicle_type_id":"4","last_reported":1730668059,"current_range_meters":38800,"station_id":"ce4bh2h2rcd13ifvqdh0","pricing_plan_id":"cebpf4jnsgd1na2vs0mg"},{"bike_id":"e3368b33-0af2-4840-ba71-a14df39e04a9","system_id":"levelo_inurba_marseille","lat":43.29533,"lon":5.38537,"is_reserved":false,"is_disabled":false,"rental_uris":{"android":"levelo://app?vid=e3368b33-0af2-4840-ba71-a14df39e04a9","ios":"levelo://app?vid=e3368b33-0af2-4840-ba71-a14df39e04a9"},"vehicle_type_id":"4","last_reported":1730668059,"current_range_meters":18800,"station_id":"ce4bgih2rcd13ifvqba0","pricing_plan_id":"cebpf4jnsgd1na2vs0mg"},{"bike_id":"f453d8a2-14e2-497a-a14a-49c40244a6ee","system_id":"levelo_inurba_marseille","lat":43.25865,"lon":5.39901,"is_reserved":false,"is_disabled":false,"rental_uris":{"android":"levelo://app?vid=f453d8a2-14e2-497a-a14a-49c40244a6ee","ios":"levelo://app?vid=f453d8a2-14e2-497a-a14a-49c40244a6ee"},"vehicle_type_id":"4","last_reported":1730668059,"current_range_meters":19200,"station_id":"ce4bhl92rcd13ifvqghg","pricing_plan_id":"cebpf4jnsgd1na2vs0mg"},{"bike_id":"1eeb5c5c-a3a6-4ef6-a852-f083a9363eab","system_id":"levelo_inurba_marseille","lat":43.27068,"lon":5.42275,"is_reserved":false,"is_disabled":false,"rental_uris":{"android":"levelo://app?vid=1eeb5c5c-a3a6-4ef6-a852-f083a9363eab","ios":"levelo://app?vid=1eeb5c5c-a3a6-4ef6-a852-f083a9363eab"},"vehicle_type_id":"4","last_reported":1730668059,"current_range_meters":8800,"station_id":"ce4bhk92rcd13ifvqgb0","pricing_plan_id":"cebpf4jnsgd1na2vs0mg"},{"bike_id":"a2598aa5-9816-4e78-9749-c5763c54c5e6","system_id":"levelo_inurba_marseille","lat":43.30171,"lon":5.36607,"is_reserved":false,"is_disabled":false,"rental_uris":{"android":"levelo://app?vid=a2598aa5-9816-4e78-9749-c5763c54c5e6","ios":"levelo://app?vid=a2598aa5-9816-4e78-9749-c5763c54c5e6"},"vehicle_type_id":"4","last_reported":1730668059,"current_range_meters":37600,"station_id":"ce4bgrh2rcd13ifvqc8g","pricing_plan_id":"cebpf4jnsgd1na2vs0mg"},{"bike_id":"4e317739-b20f-4f8d-987b-ba9b04b0c4a9","system_id":"levelo_inurba_marseille","lat":43.28612,"lon":5.37057,"is_reserved":false,"is_disabled":false,"rental_uris":{"android":"levelo://app?vid=4e317739-b20f-4f8d-987b-ba9b04b0c4a9","ios":"levelo://app?vid=4e317739-b20f-4f8d-987b-ba9b04b0c4a9"},"vehicle_type_id":"4","last_reported":1730668059,"current_range_meters":38800,"station_id":"ce4bht12rcd13ifvqi60","pricing_plan_id":"cebpf4jnsgd1na2vs0mg"},{"bike_id":"7ce77be2-28e6-467f-9494-16f057502bba","system_id":"levelo_inurba_marseille","lat":43.28152,"lon":5.42642,"is_reserved":false,"is_disabled":false,"rental_uris":{"android":"levelo://app?vid=7ce77be2-28e6-467f-9494-16f057502bba","ios":"levelo://app?vid=7ce77be2-28e6-467f-9494-16f057502bba"},"vehicle_type_id":"4","last_reported":1730668059,"current_range_meters":3200,"station_id":"ce4bhnh2rcd13ifvqgug","pricing_plan_id":"cebpf4jnsgd1na2vs0mg"},{"bike_id":"e50fd69d-8268-4029-bf65-400af74520b3","system_id":"levelo_inurba_marseille","lat":43.28007,"lon":5.41665,"is_reserved":false,"is_disabled":false,"rental_uris":{"android":"levelo://app?vid=e50fd69d-8268-4029-bf65-400af74520b3","ios":"levelo://app?vid=e50fd69d-8268-4029-bf65-400af74520b3"},"vehicle_type_id":"4","last_reported":1730668059,"current_range_meters":12400,"station_id":"ce4bho12rcd13ifvqh1g","pricing_plan_id":"cebpf4jnsgd1na2vs0mg"},{"bike_id":"b535d7d2-7630-4884-8b57-c1d7e21ce967","system_id":"levelo_inurba_marseille","lat":43.29529,"lon":5.38537,"is_reserved":false,"is_disabled":false,"rental_uris":{"android":"levelo://app?vid=b535d7d2-7630-4884-8b57-c1d7e21ce967","ios":"levelo://app?vid=b535d7d2-7630-4884-8b57-c1d7e21ce967"},"vehicle_type_id":"4","last_reported":1730668059,"current_range_meters":38800,"station_id":"ce4bgih2rcd13ifvqba0","pricing_plan_id":"cebpf4jnsgd1na2vs0mg"},{"bike_id":"c385e55f-4b36-41d8-8174-34d47718674f","system_id":"levelo_inurba_marseille","lat":43.29531,"lon":5.38539,"is_reserved":false,"is_disabled":false,"rental_uris":{"android":"levelo://app?vid=c385e55f-4b36-41d8-8174-34d47718674f","ios":"levelo://app?vid=c385e55f-4b36-41d8-8174-34d47718674f"},"vehicle_type_id":"4","last_reported":1730668059,"current_range_meters":38800,"station_id":"ce4bgih2rcd13ifvqba0","pricing_plan_id":"cebpf4jnsgd1na2vs0mg"},{"bike_id":"f3542a6b-3eaa-46f0-b4d2-58992c330d1f","system_id":"levelo_inurba_marseille","lat":43.29899,"lon":5.43665,"is_reserved":false,"is_disabled":false,"rental_uris":{"android":"levelo://app?vid=f3542a6b-3eaa-46f0-b4d2-58992c330d1f","ios":"levelo://app?vid=f3542a6b-3eaa-46f0-b4d2-58992c330d1f"},"vehicle_type_id":"4","last_reported":1730668059,"current_range_meters":4000,"station_id":"ce4bhpp2rcd13ifvqhfg","pricing_plan_id":"cebpf4jnsgd1na2vs0mg"},{"bike_id":"3cdad684-1947-405c-bc67-ba936517febd","system_id":"levelo_inurba_marseille","lat":43.31333,"lon":5.396837,"is_reserved":false,"is_disabled":false,"rental_uris":{"android":"levelo://app?vid=3cdad684-1947-405c-bc67-ba936517febd","ios":"levelo://app?vid=3cdad684-1947-405c-bc67-ba936517febd"},"vehicle_type_id":"4","last_reported":1730668059,"current_range_meters":4800,"station_id":"ce4bgvp2rcd13ifvqcu0","pricing_plan_id":"cebpf4jnsgd1na2vs0mg"},{"bike_id":"3c073b0e-e7f9-4adb-9cbd-3464ac137f74","system_id":"levelo_inurba_marseille","lat":43.29194,"lon":5.35805,"is_reserved":false,"is_disabled":false,"rental_uris":{"android":"levelo://app?vid=3c073b0e-e7f9-4adb-9cbd-3464ac137f74","ios":"levelo://app?vid=3c073b0e-e7f9-4adb-9cbd-3464ac137f74"},"vehicle_type_id":"4","last_reported":1730668059,"current_range_meters":37600,"station_id":"ce4bhb12rcd13ifvqel0","pricing_plan_id":"cebpf4jnsgd1na2vs0mg"},{"bike_id":"4542e1a3-5515-414c-b4e7-f7fbeeb03c5e","system_id":"levelo_inurba_marseille","lat":43.24078,"lon":5.37763,"is_reserved":false,"is_disabled":false,"rental_uris":{"android":"levelo://app?vid=4542e1a3-5515-414c-b4e7-f7fbeeb03c5e","ios":"levelo://app?vid=4542e1a3-5515-414c-b4e7-f7fbeeb03c5e"},"vehicle_type_id":"4","last_reported":1730668059,"current_range_meters":16000,"station_id":"ce4bhnp2rcd13ifvqgvg","pricing_plan_id":"cebpf4jnsgd1na2vs0mg"},{"bike_id":"33f6555c-2637-4d7c-9ff9-8a6e91a19910","system_id":"levelo_inurba_marseille","lat":43.27179,"lon":5.40982,"is_reserved":false,"is_disabled":false,"rental_uris":{"android":"levelo://app?vid=33f6555c-2637-4d7c-9ff9-8a6e91a19910","ios":"levelo://app?vid=33f6555c-2637-4d7c-9ff9-8a6e91a19910"},"vehicle_type_id":"4","last_reported":1730668059,"current_range_meters":14400,"station_id":"ce4bhl12rcd13ifvqgf0","pricing_plan_id":"cebpf4jnsgd1na2vs0mg"},{"bike_id":"b3ec251f-24f4-482a-b204-71972a8c9fa0","system_id":"levelo_inurba_marseille","lat":43.30966,"lon":5.39042,"is_reserved":false,"is_disabled":false,"rental_uris":{"android":"levelo://app?vid=b3ec251f-24f4-482a-b204-71972a8c9fa0","ios":"levelo://app?vid=b3ec251f-24f4-482a-b204-71972a8c9fa0"},"vehicle_type_id":"4","last_reported":1730668059,"current_range_meters":35600,"station_id":"ce4bgup2rcd13ifvqco0","pricing_plan_id":"cebpf4jnsgd1na2vs0mg"},{"bike_id":"5145bf55-02c3-4ba4-99d0-1c276f90d766","system_id":"levelo_inurba_marseille","lat":43.29572,"lon":5.39966,"is_reserved":false,"is_disabled":false,"rental_uris":{"android":"levelo://app?vid=5145bf55-02c3-4ba4-99d0-1c276f90d766","ios":"levelo://app?vid=5145bf55-02c3-4ba4-99d0-1c276f90d766"},"vehicle_type_id":"4","last_reported":1730668059,"current_range_meters":34000,"station_id":"ce4bh312rcd13ifvqdj0","pricing_plan_id":"cebpf4jnsgd1na2vs0mg"},{"bike_id":"564a85c3-83c7-485c-9668-99d3d0a9eefa","system_id":"levelo_inurba_marseille","lat":43.29528,"lon":5.38539,"is_reserved":false,"is_disabled":false,"rental_uris":{"android":"levelo://app?vid=564a85c3-83c7-485c-9668-99d3d0a9eefa","ios":"levelo://app?vid=564a85c3-83c7-485c-9668-99d3d0a9eefa"},"vehicle_type_id":"4","last_reported":1730668059,"current_range_meters":28000,"station_id":"ce4bgih2rcd13ifvqba0","pricing_plan_id":"cebpf4jnsgd1na2vs0mg"},{"bike_id":"4d916b62-8bbd-40bf-8461-f3dd3e4562e6","system_id":"levelo_inurba_marseille","lat":43.31175,"lon":5.38707,"is_reserved":false,"is_disabled":false,"rental_uris":{"android":"levelo://app?vid=4d916b62-8bbd-40bf-8461-f3dd3e4562e6","ios":"levelo://app?vid=4d916b62-8bbd-40bf-8461-f3dd3e4562e6"},"vehicle_type_id":"4","last_reported":1730668059,"current_range_meters":38800,"station_id":"ce4bgv12rcd13ifvqcp0","pricing_plan_id":"cebpf4jnsgd1na2vs0mg"},{"bike_id":"9e78525d-2057-4a6e-966b-97b5a6ce05d8","system_id":"levelo_inurba_marseille","lat":43.29085,"lon":5.38133,"is_reserved":false,"is_disabled":false,"rental_uris":{"android":"levelo://app?vid=9e78525d-2057-4a6e-966b-97b5a6ce05d8","ios":"levelo://app?vid=9e78525d-2057-4a6e-966b-97b5a6ce05d8"},"vehicle_type_id":"4","last_reported":1730668059,"current_range_meters":37600,"station_id":"ce4bh512rcd13ifvqe2g","pricing_plan_id":"cebpf4jnsgd1na2vs0mg"},{"bike_id":"12e2a17d-b267-46ea-b046-7d399d7c3544","system_id":"levelo_inurba_marseille","lat":43.33725,"lon":5.39179,"is_reserved":false,"is_disabled":false,"rental_uris":{"android":"levelo://app?vid=12e2a17d-b267-46ea-b046-7d399d7c3544","ios":"levelo://app?vid=12e2a17d-b267-46ea-b046-7d399d7c3544"},"vehicle_type_id":"4","last_reported":1730668059,"current_range_meters":38800,"station_id":"ce4bhr92rcd13ifvqhsg","pricing_plan_id":"cebpf4jnsgd1na2vs0mg"},{"bike_id":"0bffcfb5-ffd4-4213-a282-83f8add00e34","system_id":"levelo_inurba_marseille","lat":43.29278,"lon":5.3844,"is_reserved":false,"is_disabled":false,"rental_uris":{"android":"levelo://app?vid=0bffcfb5-ffd4-4213-a282-83f8add00e34","ios":"levelo://app?vid=0bffcfb5-ffd4-4213-a282-83f8add00e34"},"vehicle_type_id":"4","last_reported":1730668059,"current_range_meters":33600,"station_id":"ce4bh692rcd13ifvqea0","pricing_plan_id":"cebpf4jnsgd1na2vs0mg"},{"bike_id":"1f2c4e8b-6322-4e6e-b8ea-72c9bc2f7939","system_id":"levelo_inurba_marseille","lat":43.26577,"lon":5.39006,"is_reserved":false,"is_disabled":false,"rental_uris":{"android":"levelo://app?vid=1f2c4e8b-6322-4e6e-b8ea-72c9bc2f7939","ios":"levelo://app?vid=1f2c4e8b-6322-4e6e-b8ea-72c9bc2f7939"},"vehicle_type_id":"4","last_reported":1730668059,"current_range_meters":38800,"station_id":"ce4bhe12rcd13ifvqf30","pricing_plan_id":"cebpf4jnsgd1na2vs0mg"},{"bike_id":"bd90c790-5898-4977-a67c-2585257242c7","system_id":"levelo_inurba_marseille","lat":43.30252,"lon":5.40067,"is_reserved":false,"is_disabled":false,"rental_uris":{"android":"levelo://app?vid=bd90c790-5898-4977-a67c-2585257242c7","ios":"levelo://app?vid=bd90c790-5898-4977-a67c-2585257242c7"},"vehicle_type_id":"4","last_reported":1730668059,"current_range_meters":20400,"station_id":"ce4bgvh2rcd13ifvqcs0","pricing_plan_id":"cebpf4jnsgd1na2vs0mg"},{"bike_id":"98a54168-3963-470d-b49f-12aa7485d560","system_id":"levelo_inurba_marseille","lat":43.29414,"lon":5.38629,"is_reserved":false,"is_disabled":false,"rental_uris":{"android":"levelo://app?vid=98a54168-3963-470d-b49f-12aa7485d560","ios":"levelo://app?vid=98a54168-3963-470d-b49f-12aa7485d560"},"vehicle_type_id":"4","last_reported":1730668059,"current_range_meters":38800,"station_id":"ce4bh2h2rcd13ifvqdh0","pricing_plan_id":"cebpf4jnsgd1na2vs0mg"},{"bike_id":"b8a27d33-0523-4800-a895-12050a0aebb0","system_id":"levelo_inurba_marseille","lat":43.28926,"lon":5.38387,"is_reserved":false,"is_disabled":false,"rental_uris":{"android":"levelo://app?vid=b8a27d33-0523-4800-a895-12050a0aebb0","ios":"levelo://app?vid=b8a27d33-0523-4800-a895-12050a0aebb0"},"vehicle_type_id":"4","last_reported":1730668059,"current_range_meters":36800,"station_id":"ce4bh612rcd13ifvqe6g","pricing_plan_id":"cebpf4jnsgd1na2vs0mg"},{"bike_id":"38c888c2-7327-4f91-bfff-ef5af8616e2a","system_id":"levelo_inurba_marseille","lat":43.29268,"lon":5.38446,"is_reserved":false,"is_disabled":false,"rental_uris":{"android":"levelo://app?vid=38c888c2-7327-4f91-bfff-ef5af8616e2a","ios":"levelo://app?vid=38c888c2-7327-4f91-bfff-ef5af8616e2a"},"vehicle_type_id":"4","last_reported":1730668059,"current_range_meters":24000,"station_id":"ce4bh692rcd13ifvqea0","pricing_plan_id":"cebpf4jnsgd1na2vs0mg"},{"bike_id":"d4472d20-9c4b-4c70-ad00-3a005519a429","system_id":"levelo_inurba_marseille","lat":43.35386,"lon":5.35715,"is_reserved":false,"is_disabled":false,"rental_uris":{"android":"levelo://app?vid=d4472d20-9c4b-4c70-ad00-3a005519a429","ios":"levelo://app?vid=d4472d20-9c4b-4c70-ad00-3a005519a429"},"vehicle_type_id":"4","last_reported":1730668059,"current_range_meters":12400,"station_id":"","pricing_plan_id":"cebpf4jnsgd1na2vs0mg"},{"bike_id":"6338020e-474a-4c99-b365-eea26fe54739","system_id":"levelo_inurba_marseille","lat":43.32284,"lon":5.38272,"is_reserved":false,"is_disabled":false,"rental_uris":{"android":"levelo://app?vid=6338020e-474a-4c99-b365-eea26fe54739","ios":"levelo://app?vid=6338020e-474a-4c99-b365-eea26fe54739"},"vehicle_type_id":"4","last_reported":1730668059,"current_range_meters":39200,"station_id":"ce4bhr12rcd13ifvqhqg","pricing_plan_id":"cebpf4jnsgd1na2vs0mg"},{"bike_id":"f23c62f0-5403-4d96-9600-def855fd3713","system_id":"levelo_inurba_marseille","lat":43.29515,"lon":5.39027,"is_reserved":false,"is_disabled":false,"rental_uris":{"android":"levelo://app?vid=f23c62f0-5403-4d96-9600-def855fd3713","ios":"levelo://app?vid=f23c62f0-5403-4d96-9600-def855fd3713"},"vehicle_type_id":"4","last_reported":1730668059,"current_range_meters":17600,"station_id":"ce4bh3p2rcd13ifvqdp0","pricing_plan_id":"cebpf4jnsgd1na2vs0mg"},{"bike_id":"d654e893-cc06-4152-b5e1-480855c6d7d0","system_id":"levelo_inurba_marseille","lat":43.29549,"lon":5.42277,"is_reserved":false,"is_disabled":false,"rental_uris":{"android":"levelo://app?vid=d654e893-cc06-4152-b5e1-480855c6d7d0","ios":"levelo://app?vid=d654e893-cc06-4152-b5e1-480855c6d7d0"},"vehicle_type_id":"4","last_reported":1730668059,"current_range_meters":24800,"station_id":"ce4bhph2rcd13ifvqhdg","pricing_plan_id":"cebpf4jnsgd1na2vs0mg"},{"bike_id":"14d63bfa-786a-4d8b-a903-efd4550403af","system_id":"levelo_inurba_marseille","lat":43.2894,"lon":5.36638,"is_reserved":false,"is_disabled":false,"rental_uris":{"android":"levelo://app?vid=14d63bfa-786a-4d8b-a903-efd4550403af","ios":"levelo://app?vid=14d63bfa-786a-4d8b-a903-efd4550403af"},"vehicle_type_id":"4","last_reported":1730668059,"current_range_meters":36800,"station_id":"ce4bhap2rcd13ifvqek0","pricing_plan_id":"cebpf4jnsgd1na2vs0mg"},{"bike_id":"d8c1bbaf-1153-46ec-89d9-099762db6924","system_id":"levelo_inurba_marseille","lat":43.3089,"lon":5.37186,"is_reserved":false,"is_disabled":false,"rental_uris":{"android":"levelo://app?vid=d8c1bbaf-1153-46ec-89d9-099762db6924","ios":"levelo://app?vid=d8c1bbaf-1153-46ec-89d9-099762db6924"},"vehicle_type_id":"4","last_reported":1730668059,"current_range_meters":33200,"station_id":"ce4bguh2rcd13ifvqckg","pricing_plan_id":"cebpf4jnsgd1na2vs0mg"},{"bike_id":"9590fcd8-990f-40e6-9308-a196638a7b22","system_id":"levelo_inurba_marseille","lat":43.26054,"lon":5.39389,"is_reserved":false,"is_disabled":false,"rental_uris":{"android":"levelo://app?vid=9590fcd8-990f-40e6-9308-a196638a7b22","ios":"levelo://app?vid=9590fcd8-990f-40e6-9308-a196638a7b22"},"vehicle_type_id":"4","last_reported":1730668059,"current_range_meters":27600,"station_id":"ce4bhh92rcd13ifvqfj0","pricing_plan_id":"cebpf4jnsgd1na2vs0mg"},{"bike_id":"f8833f7b-49c8-440c-b671-beb72799bdec","system_id":"levelo_inurba_marseille","lat":43.24983,"lon":5.37509,"is_reserved":false,"is_disabled":false,"rental_uris":{"android":"levelo://app?vid=f8833f7b-49c8-440c-b671-beb72799bdec","ios":"levelo://app?vid=f8833f7b-49c8-440c-b671-beb72799bdec"},"vehicle_type_id":"4","last_reported":1730668059,"current_range_meters":29600,"station_id":"","pricing_plan_id":"cebpf4jnsgd1na2vs0mg"},{"bike_id":"b4c26404-be14-4de0-97fe-975ad815c2aa","system_id":"levelo_inurba_marseille","lat":43.25499,"lon":5.37654,"is_reserved":false,"is_disabled":false,"rental_uris":{"android":"levelo://app?vid=b4c26404-be14-4de0-97fe-975ad815c2aa","ios":"levelo://app?vid=b4c26404-be14-4de0-97fe-975ad815c2aa"},"vehicle_type_id":"4","last_reported":1730668059,"current_range_meters":38800,"station_id":"ce4bhh12rcd13ifvqff0","pricing_plan_id":"cebpf4jnsgd1na2vs0mg"},{"bike_id":"e7453847-165d-4e50-a796-bedc702cb92c","system_id":"levelo_inurba_marseille","lat":43.29451,"lon":5.3976,"is_reserved":false,"is_disabled":false,"rental_uris":{"android":"levelo://app?vid=e7453847-165d-4e50-a796-bedc702cb92c","ios":"levelo://app?vid=e7453847-165d-4e50-a796-bedc702cb92c"},"vehicle_type_id":"4","last_reported":1730668059,"current_range_meters":9600,"station_id":"ce4bh3h2rcd13ifvqdo0","pricing_plan_id":"cebpf4jnsgd1na2vs0mg"},{"bike_id":"0d325674-1265-4898-b788-3f204d50c915","system_id":"levelo_inurba_marseille","lat":43.28449,"lon":5.35899,"is_reserved":false,"is_disabled":false,"rental_uris":{"android":"levelo://app?vid=0d325674-1265-4898-b788-3f204d50c915","ios":"levelo://app?vid=0d325674-1265-4898-b788-3f204d50c915"},"vehicle_type_id":"4","last_reported":1730668059,"current_range_meters":3200,"station_id":"ce4bhah2rcd13ifvqei0","pricing_plan_id":"cebpf4jnsgd1na2vs0mg"},{"bike_id":"d34e2da6-3d21-4a87-bc60-66261e2f3cba","system_id":"levelo_inurba_marseille","lat":43.30138,"lon":5.38784,"is_reserved":false,"is_disabled":false,"rental_uris":{"android":"levelo://app?vid=d34e2da6-3d21-4a87-bc60-66261e2f3cba","ios":"levelo://app?vid=d34e2da6-3d21-4a87-bc60-66261e2f3cba"},"vehicle_type_id":"4","last_reported":1730668059,"current_range_meters":37600,"station_id":"ce4bghh2rcd13ifvqb60","pricing_plan_id":"cebpf4jnsgd1na2vs0mg"},{"bike_id":"242a0727-8a2c-4d13-8f49-808281b6291c","system_id":"levelo_inurba_marseille","lat":43.30187,"lon":5.36624,"is_reserved":false,"is_disabled":false,"rental_uris":{"android":"levelo://app?vid=242a0727-8a2c-4d13-8f49-808281b6291c","ios":"levelo://app?vid=242a0727-8a2c-4d13-8f49-808281b6291c"},"vehicle_type_id":"4","last_reported":1730668059,"current_range_meters":25600,"station_id":"ce4bgrh2rcd13ifvqc8g","pricing_plan_id":"cebpf4jnsgd1na2vs0mg"},{"bike_id":"6343cda6-6330-478c-8080-96c31f72a038","system_id":"levelo_inurba_marseille","lat":43.29555,"lon":5.42295,"is_reserved":false,"is_disabled":false,"rental_uris":{"android":"levelo://app?vid=6343cda6-6330-478c-8080-96c31f72a038","ios":"levelo://app?vid=6343cda6-6330-478c-8080-96c31f72a038"},"vehicle_type_id":"4","last_reported":1730668059,"current_range_meters":38000,"station_id":"ce4bhph2rcd13ifvqhdg","pricing_plan_id":"cebpf4jnsgd1na2vs0mg"},{"bike_id":"ec044105-cccc-4633-bb60-ed36987011c3","system_id":"levelo_inurba_marseille","lat":43.27058,"lon":5.40255,"is_reserved":false,"is_disabled":false,"rental_uris":{"android":"levelo://app?vid=ec044105-cccc-4633-bb60-ed36987011c3","ios":"levelo://app?vid=ec044105-cccc-4633-bb60-ed36987011c3"},"vehicle_type_id":"4","last_reported":1730668059,"current_range_meters":8400,"station_id":"ce4bhk92rcd13ifvqgc0","pricing_plan_id":"cebpf4jnsgd1na2vs0mg"},{"bike_id":"2b4bbfed-255f-4cd0-bf8b-80e072c9cbe9","system_id":"levelo_inurba_marseille","lat":43.32105,"lon":5.3678,"is_reserved":false,"is_disabled":false,"rental_uris":{"android":"levelo://app?vid=2b4bbfed-255f-4cd0-bf8b-80e072c9cbe9","ios":"levelo://app?vid=2b4bbfed-255f-4cd0-bf8b-80e072c9cbe9"},"vehicle_type_id":"4","last_reported":1730668059,"current_range_meters":8800,"station_id":"ce4bhrh2rcd13ifvqhug","pricing_plan_id":"cebpf4jnsgd1na2vs0mg"},{"bike_id":"b5cc074e-2188-459d-8e7c-27bf21e159cd","system_id":"levelo_inurba_marseille","lat":43.28664,"lon":5.36351,"is_reserved":false,"is_disabled":false,"rental_uris":{"android":"levelo://app?vid=b5cc074e-2188-459d-8e7c-27bf21e159cd","ios":"levelo://app?vid=b5cc074e-2188-459d-8e7c-27bf21e159cd"},"vehicle_type_id":"4","last_reported":1730668059,"current_range_meters":28400,"station_id":"ce4bhah2rcd13ifvqej0","pricing_plan_id":"cebpf4jnsgd1na2vs0mg"},{"bike_id":"4787f151-5fe7-49f0-bc06-de5077be7235","system_id":"levelo_inurba_marseille","lat":43.286102,"lon":5.351075,"is_reserved":false,"is_disabled":false,"rental_uris":{"android":"levelo://app?vid=4787f151-5fe7-49f0-bc06-de5077be7235","ios":"levelo://app?vid=4787f151-5fe7-49f0-bc06-de5077be7235"},"vehicle_type_id":"4","last_reported":1730668059,"current_range_meters":33200,"station_id":"ce4bhch2rcd13ifvqeug","pricing_plan_id":"cebpf4jnsgd1na2vs0mg"},{"bike_id":"d76cbc23-515d-43bd-af0e-134e3c469824","system_id":"levelo_inurba_marseille","lat":43.29921,"lon":5.3747,"is_reserved":false,"is_disabled":false,"rental_uris":{"android":"levelo://app?vid=d76cbc23-515d-43bd-af0e-134e3c469824","ios":"levelo://app?vid=d76cbc23-515d-43bd-af0e-134e3c469824"},"vehicle_type_id":"4","last_reported":1730668059,"current_range_meters":38800,"station_id":"ce4bgjh2rcd13ifvqbg0","pricing_plan_id":"cebpf4jnsgd1na2vs0mg"},{"bike_id":"abb6da65-3dc2-49f7-b72f-461efda57767","system_id":"levelo_inurba_marseille","lat":43.28348,"lon":5.38107,"is_reserved":false,"is_disabled":false,"rental_uris":{"android":"levelo://app?vid=abb6da65-3dc2-49f7-b72f-461efda57767","ios":"levelo://app?vid=abb6da65-3dc2-49f7-b72f-461efda57767"},"vehicle_type_id":"4","last_reported":1730668059,"current_range_meters":35600,"station_id":"ce4bh412rcd13ifvqdr0","pricing_plan_id":"cebpf4jnsgd1na2vs0mg"},{"bike_id":"b0188bbe-1768-4046-ab6b-df66cd46594e","system_id":"levelo_inurba_marseille","lat":43.28465,"lon":5.35883,"is_reserved":false,"is_disabled":false,"rental_uris":{"android":"levelo://app?vid=b0188bbe-1768-4046-ab6b-df66cd46594e","ios":"levelo://app?vid=b0188bbe-1768-4046-ab6b-df66cd46594e"},"vehicle_type_id":"4","last_reported":1730668059,"current_range_meters":33200,"station_id":"ce4bhah2rcd13ifvqei0","pricing_plan_id":"cebpf4jnsgd1na2vs0mg"},{"bike_id":"a12b2879-a072-4f12-a569-137c3242cf14","system_id":"levelo_inurba_marseille","lat":43.27173,"lon":5.40993,"is_reserved":false,"is_disabled":false,"rental_uris":{"android":"levelo://app?vid=a12b2879-a072-4f12-a569-137c3242cf14","ios":"levelo://app?vid=a12b2879-a072-4f12-a569-137c3242cf14"},"vehicle_type_id":"4","last_reported":1730668059,"current_range_meters":14000,"station_id":"ce4bhl12rcd13ifvqgf0","pricing_plan_id":"cebpf4jnsgd1na2vs0mg"},{"bike_id":"f21348a8-a761-4ca5-8ad0-efb009b4de77","system_id":"levelo_inurba_marseille","lat":43.24545,"lon":5.39521,"is_reserved":false,"is_disabled":false,"rental_uris":{"android":"levelo://app?vid=f21348a8-a761-4ca5-8ad0-efb009b4de77","ios":"levelo://app?vid=f21348a8-a761-4ca5-8ad0-efb009b4de77"},"vehicle_type_id":"4","last_reported":1730668059,"current_range_meters":27200,"station_id":"ce4bhlp2rcd13ifvqgjg","pricing_plan_id":"cebpf4jnsgd1na2vs0mg"},{"bike_id":"81cbfe91-68c9-4a60-b933-5430cf549ffb","system_id":"levelo_inurba_marseille","lat":43.27991,"lon":5.41656,"is_reserved":false,"is_disabled":false,"rental_uris":{"android":"levelo://app?vid=81cbfe91-68c9-4a60-b933-5430cf549ffb","ios":"levelo://app?vid=81cbfe91-68c9-4a60-b933-5430cf549ffb"},"vehicle_type_id":"4","last_reported":1730668059,"current_range_meters":36800,"station_id":"ce4bho12rcd13ifvqh1g","pricing_plan_id":"cebpf4jnsgd1na2vs0mg"},{"bike_id":"60b44956-9029-465b-bff1-e2638a9b3ec0","system_id":"levelo_inurba_marseille","lat":43.28108,"lon":5.37829,"is_reserved":false,"is_disabled":false,"rental_uris":{"android":"levelo://app?vid=60b44956-9029-465b-bff1-e2638a9b3ec0","ios":"levelo://app?vid=60b44956-9029-465b-bff1-e2638a9b3ec0"},"vehicle_type_id":"4","last_reported":1730668059,"current_range_meters":36800,"station_id":"ce4bha12rcd13ifvqee0","pricing_plan_id":"cebpf4jnsgd1na2vs0mg"},{"bike_id":"c556f04d-a5be-4d49-ad15-6cb970cca7df","system_id":"levelo_inurba_marseille","lat":43.31722,"lon":5.42399,"is_reserved":false,"is_disabled":false,"rental_uris":{"android":"levelo://app?vid=c556f04d-a5be-4d49-ad15-6cb970cca7df","ios":"levelo://app?vid=c556f04d-a5be-4d49-ad15-6cb970cca7df"},"vehicle_type_id":"4","last_reported":1730668059,"current_range_meters":37600,"station_id":"ce4bhp92rcd13ifvqhbg","pricing_plan_id":"cebpf4jnsgd1na2vs0mg"},{"bike_id":"e11d5255-2ce6-4a68-8d0c-4cc6508d90bb","system_id":"levelo_inurba_marseille","lat":43.25724,"lon":5.41107,"is_reserved":false,"is_disabled":false,"rental_uris":{"android":"levelo://app?vid=e11d5255-2ce6-4a68-8d0c-4cc6508d90bb","ios":"levelo://app?vid=e11d5255-2ce6-4a68-8d0c-4cc6508d90bb"},"vehicle_type_id":"4","last_reported":1730668059,"current_range_meters":8400,"station_id":"ce4bhkp2rcd13ifvqgd0","pricing_plan_id":"cebpf4jnsgd1na2vs0mg"},{"bike_id":"dd65d5f4-0ea0-4676-8be9-c1ff6a745075","system_id":"levelo_inurba_marseille","lat":43.27671,"lon":5.3891,"is_reserved":false,"is_disabled":false,"rental_uris":{"android":"levelo://app?vid=dd65d5f4-0ea0-4676-8be9-c1ff6a745075","ios":"levelo://app?vid=dd65d5f4-0ea0-4676-8be9-c1ff6a745075"},"vehicle_type_id":"4","last_reported":1730668059,"current_range_meters":19200,"station_id":"ce4bhi12rcd13ifvqfo0","pricing_plan_id":"cebpf4jnsgd1na2vs0mg"},{"bike_id":"89b5db9e-d734-4d56-8435-3c882b9b96c6","system_id":"levelo_inurba_marseille","lat":43.28924,"lon":5.38389,"is_reserved":false,"is_disabled":false,"rental_uris":{"android":"levelo://app?vid=89b5db9e-d734-4d56-8435-3c882b9b96c6","ios":"levelo://app?vid=89b5db9e-d734-4d56-8435-3c882b9b96c6"},"vehicle_type_id":"4","last_reported":1730668059,"current_range_meters":34000,"station_id":"ce4bh612rcd13ifvqe6g","pricing_plan_id":"cebpf4jnsgd1na2vs0mg"},{"bike_id":"58937cbf-ce81-4e79-a196-4b6daa35f3e4","system_id":"levelo_inurba_marseille","lat":43.31487,"lon":5.37298,"is_reserved":false,"is_disabled":false,"rental_uris":{"android":"levelo://app?vid=58937cbf-ce81-4e79-a196-4b6daa35f3e4","ios":"levelo://app?vid=58937cbf-ce81-4e79-a196-4b6daa35f3e4"},"vehicle_type_id":"4","last_reported":1730668059,"current_range_meters":38800,"station_id":"ce4bgt12rcd13ifvqcd0","pricing_plan_id":"cebpf4jnsgd1na2vs0mg"},{"bike_id":"3dd46dbd-b1d1-47c8-a63a-3f5d34e36643","system_id":"levelo_inurba_marseille","lat":43.27993,"lon":5.41667,"is_reserved":false,"is_disabled":false,"rental_uris":{"android":"levelo://app?vid=3dd46dbd-b1d1-47c8-a63a-3f5d34e36643","ios":"levelo://app?vid=3dd46dbd-b1d1-47c8-a63a-3f5d34e36643"},"vehicle_type_id":"4","last_reported":1730668059,"current_range_meters":36800,"station_id":"ce4bho12rcd13ifvqh1g","pricing_plan_id":"cebpf4jnsgd1na2vs0mg"},{"bike_id":"12644395-bd0a-4bec-ae7c-fce198c89408","system_id":"levelo_inurba_marseille","lat":43.24383,"lon":5.37061,"is_reserved":false,"is_disabled":false,"rental_uris":{"android":"levelo://app?vid=12644395-bd0a-4bec-ae7c-fce198c89408","ios":"levelo://app?vid=12644395-bd0a-4bec-ae7c-fce198c89408"},"vehicle_type_id":"4","last_reported":1730668059,"current_range_meters":38000,"station_id":"ce4bhhh2rcd13ifvqfk0","pricing_plan_id":"cebpf4jnsgd1na2vs0mg"},{"bike_id":"35b13398-104a-4231-8e32-46092601ae4e","system_id":"levelo_inurba_marseille","lat":43.27942,"lon":5.41048,"is_reserved":false,"is_disabled":false,"rental_uris":{"android":"levelo://app?vid=35b13398-104a-4231-8e32-46092601ae4e","ios":"levelo://app?vid=35b13398-104a-4231-8e32-46092601ae4e"},"vehicle_type_id":"4","last_reported":1730668059,"current_range_meters":6400,"station_id":"ce4bhnp2rcd13ifvqh0g","pricing_plan_id":"cebpf4jnsgd1na2vs0mg"},{"bike_id":"52c87382-fa2b-4b96-89a5-f73605f11272","system_id":"levelo_inurba_marseille","lat":43.23845,"lon":5.38959,"is_reserved":false,"is_disabled":false,"rental_uris":{"android":"levelo://app?vid=52c87382-fa2b-4b96-89a5-f73605f11272","ios":"levelo://app?vid=52c87382-fa2b-4b96-89a5-f73605f11272"},"vehicle_type_id":"4","last_reported":1730668059,"current_range_meters":25200,"station_id":"","pricing_plan_id":"cebpf4jnsgd1na2vs0mg"},{"bike_id":"b14cf17d-2256-4f20-9c9a-577fdde90fc6","system_id":"levelo_inurba_marseille","lat":43.29266,"lon":5.38449,"is_reserved":false,"is_disabled":false,"rental_uris":{"android":"levelo://app?vid=b14cf17d-2256-4f20-9c9a-577fdde90fc6","ios":"levelo://app?vid=b14cf17d-2256-4f20-9c9a-577fdde90fc6"},"vehicle_type_id":"4","last_reported":1730668059,"current_range_meters":30000,"station_id":"ce4bh692rcd13ifvqea0","pricing_plan_id":"cebpf4jnsgd1na2vs0mg"},{"bike_id":"a43019a8-a760-4309-a043-c8c927a99dee","system_id":"levelo_inurba_marseille","lat":43.31061,"lon":5.3834,"is_reserved":false,"is_disabled":false,"rental_uris":{"android":"levelo://app?vid=a43019a8-a760-4309-a043-c8c927a99dee","ios":"levelo://app?vid=a43019a8-a760-4309-a043-c8c927a99dee"},"vehicle_type_id":"4","last_reported":1730668059,"current_range_meters":27600,"station_id":"ce4bgv92rcd13ifvqcr0","pricing_plan_id":"cebpf4jnsgd1na2vs0mg"},{"bike_id":"65b8cd1a-e70d-47e3-b20c-e805078513ec","system_id":"levelo_inurba_marseille","lat":43.23964,"lon":5.36633,"is_reserved":false,"is_disabled":false,"rental_uris":{"android":"levelo://app?vid=65b8cd1a-e70d-47e3-b20c-e805078513ec","ios":"levelo://app?vid=65b8cd1a-e70d-47e3-b20c-e805078513ec"},"vehicle_type_id":"4","last_reported":1730668059,"current_range_meters":30000,"station_id":"ce4bhi12rcd13ifvqfp0","pricing_plan_id":"cebpf4jnsgd1na2vs0mg"},{"bike_id":"739c9dca-9415-4b03-859b-1606e5caa095","system_id":"levelo_inurba_marseille","lat":43.34142,"lon":5.40909,"is_reserved":false,"is_disabled":false,"rental_uris":{"android":"levelo://app?vid=739c9dca-9415-4b03-859b-1606e5caa095","ios":"levelo://app?vid=739c9dca-9415-4b03-859b-1606e5caa095"},"vehicle_type_id":"4","last_reported":1730668059,"current_range_meters":38000,"station_id":"ce4bhqh2rcd13ifvqhlg","pricing_plan_id":"cebpf4jnsgd1na2vs0mg"},{"bike_id":"557deb37-af88-408b-a308-a5b284c3a2d7","system_id":"levelo_inurba_marseille","lat":43.26562,"lon":5.39004,"is_reserved":false,"is_disabled":false,"rental_uris":{"android":"levelo://app?vid=557deb37-af88-408b-a308-a5b284c3a2d7","ios":"levelo://app?vid=557deb37-af88-408b-a308-a5b284c3a2d7"},"vehicle_type_id":"4","last_reported":1730668059,"current_range_meters":38800,"station_id":"ce4bhe12rcd13ifvqf30","pricing_plan_id":"cebpf4jnsgd1na2vs0mg"},{"bike_id":"3a60b9fd-e436-4406-9d79-0669e4e382de","system_id":"levelo_inurba_marseille","lat":43.29165,"lon":5.37145,"is_reserved":false,"is_disabled":false,"rental_uris":{"android":"levelo://app?vid=3a60b9fd-e436-4406-9d79-0669e4e382de","ios":"levelo://app?vid=3a60b9fd-e436-4406-9d79-0669e4e382de"},"vehicle_type_id":"4","last_reported":1730668059,"current_range_meters":12400,"station_id":"ce4bha92rcd13ifvqeh0","pricing_plan_id":"cebpf4jnsgd1na2vs0mg"},{"bike_id":"1b80601b-8be3-4b0b-bcc4-eebb89de1629","system_id":"levelo_inurba_marseille","lat":43.25831,"lon":5.39427,"is_reserved":false,"is_disabled":false,"rental_uris":{"android":"levelo://app?vid=1b80601b-8be3-4b0b-bcc4-eebb89de1629","ios":"levelo://app?vid=1b80601b-8be3-4b0b-bcc4-eebb89de1629"},"vehicle_type_id":"4","last_reported":1730668059,"current_range_meters":33200,"station_id":"ce4bhip2rcd13ifvqft0","pricing_plan_id":"cebpf4jnsgd1na2vs0mg"},{"bike_id":"4c400716-bd42-4adf-b883-cc6ecb1b54e3","system_id":"levelo_inurba_marseille","lat":43.284778,"lon":5.385679,"is_reserved":false,"is_disabled":false,"rental_uris":{"android":"levelo://app?vid=4c400716-bd42-4adf-b883-cc6ecb1b54e3","ios":"levelo://app?vid=4c400716-bd42-4adf-b883-cc6ecb1b54e3"},"vehicle_type_id":"4","last_reported":1730668059,"current_range_meters":36000,"station_id":"ce4bh8p2rcd13ifvqeb0","pricing_plan_id":"cebpf4jnsgd1na2vs0mg"},{"bike_id":"fc01ac91-958f-424a-99ad-0c74a70e91dc","system_id":"levelo_inurba_marseille","lat":43.28405,"lon":5.3751,"is_reserved":false,"is_disabled":false,"rental_uris":{"android":"levelo://app?vid=fc01ac91-958f-424a-99ad-0c74a70e91dc","ios":"levelo://app?vid=fc01ac91-958f-424a-99ad-0c74a70e91dc"},"vehicle_type_id":"4","last_reported":1730668059,"current_range_meters":38800,"station_id":"ce4bh412rcd13ifvqds0","pricing_plan_id":"cebpf4jnsgd1na2vs0mg"},{"bike_id":"168886e7-81ac-4e64-ac55-a569484d654b","system_id":"levelo_inurba_marseille","lat":43.26805,"lon":5.40264,"is_reserved":false,"is_disabled":false,"rental_uris":{"android":"levelo://app?vid=168886e7-81ac-4e64-ac55-a569484d654b","ios":"levelo://app?vid=168886e7-81ac-4e64-ac55-a569484d654b"},"vehicle_type_id":"4","last_reported":1730668059,"current_range_meters":34000,"station_id":"ce501612rcd8frsf0b60","pricing_plan_id":"cebpf4jnsgd1na2vs0mg"},{"bike_id":"95e3f851-48ae-4212-a71d-5b0ac6a0798d","system_id":"levelo_inurba_marseille","lat":43.28675,"lon":5.38652,"is_reserved":false,"is_disabled":false,"rental_uris":{"android":"levelo://app?vid=95e3f851-48ae-4212-a71d-5b0ac6a0798d","ios":"levelo://app?vid=95e3f851-48ae-4212-a71d-5b0ac6a0798d"},"vehicle_type_id":"4","last_reported":1730668059,"current_range_meters":38800,"station_id":"ce4bh492rcd13ifvqdug","pricing_plan_id":"cebpf4jnsgd1na2vs0mg"},{"bike_id":"2df6f291-096d-459d-b928-e87b0c0efefb","system_id":"levelo_inurba_marseille","lat":43.26681,"lon":5.38272,"is_reserved":false,"is_disabled":false,"rental_uris":{"android":"levelo://app?vid=2df6f291-096d-459d-b928-e87b0c0efefb","ios":"levelo://app?vid=2df6f291-096d-459d-b928-e87b0c0efefb"},"vehicle_type_id":"4","last_reported":1730668059,"current_range_meters":33200,"station_id":"ce4bhg92rcd13ifvqf90","pricing_plan_id":"cebpf4jnsgd1na2vs0mg"},{"bike_id":"c8ff769d-3de8-4ba5-b126-ee1befb95d70","system_id":"levelo_inurba_marseille","lat":43.2386,"lon":5.38979,"is_reserved":false,"is_disabled":false,"rental_uris":{"android":"levelo://app?vid=c8ff769d-3de8-4ba5-b126-ee1befb95d70","ios":"levelo://app?vid=c8ff769d-3de8-4ba5-b126-ee1befb95d70"},"vehicle_type_id":"4","last_reported":1730668059,"current_range_meters":11600,"station_id":"","pricing_plan_id":"cebpf4jnsgd1na2vs0mg"},{"bike_id":"8c67d340-801d-46e5-b910-2f8aff3ff078","system_id":"levelo_inurba_marseille","lat":43.33319,"lon":5.37061,"is_reserved":false,"is_disabled":false,"rental_uris":{"android":"levelo://app?vid=8c67d340-801d-46e5-b910-2f8aff3ff078","ios":"levelo://app?vid=8c67d340-801d-46e5-b910-2f8aff3ff078"},"vehicle_type_id":"4","last_reported":1730668059,"current_range_meters":4000,"station_id":"","pricing_plan_id":"cebpf4jnsgd1na2vs0mg"},{"bike_id":"25100a09-57ed-4168-9d8e-21ca7605f21f","system_id":"levelo_inurba_marseille","lat":43.27905,"lon":5.39587,"is_reserved":false,"is_disabled":false,"rental_uris":{"android":"levelo://app?vid=25100a09-57ed-4168-9d8e-21ca7605f21f","ios":"levelo://app?vid=25100a09-57ed-4168-9d8e-21ca7605f21f"},"vehicle_type_id":"4","last_reported":1730668059,"current_range_meters":38800,"station_id":"ce4bhf92rcd13ifvqf40","pricing_plan_id":"cebpf4jnsgd1na2vs0mg"},{"bike_id":"55058f14-9ca9-431e-be66-1c549b35234d","system_id":"levelo_inurba_marseille","lat":43.29257,"lon":5.409,"is_reserved":false,"is_disabled":false,"rental_uris":{"android":"levelo://app?vid=55058f14-9ca9-431e-be66-1c549b35234d","ios":"levelo://app?vid=55058f14-9ca9-431e-be66-1c549b35234d"},"vehicle_type_id":"4","last_reported":1730668059,"current_range_meters":38000,"station_id":"ce4bh192rcd13ifvqdc0","pricing_plan_id":"cebpf4jnsgd1na2vs0mg"},{"bike_id":"8a6622b3-8d8a-4745-9a4e-f0dd34eaf266","system_id":"levelo_inurba_marseille","lat":43.279975,"lon":5.400051,"is_reserved":false,"is_disabled":false,"rental_uris":{"android":"levelo://app?vid=8a6622b3-8d8a-4745-9a4e-f0dd34eaf266","ios":"levelo://app?vid=8a6622b3-8d8a-4745-9a4e-f0dd34eaf266"},"vehicle_type_id":"4","last_reported":1730668059,"current_range_meters":38800,"station_id":"ce4bho92rcd13ifvqh4g","pricing_plan_id":"cebpf4jnsgd1na2vs0mg"},{"bike_id":"79f5032c-4427-40bb-bbad-7f35acb21ebc","system_id":"levelo_inurba_marseille","lat":43.32287,"lon":5.38273,"is_reserved":false,"is_disabled":false,"rental_uris":{"android":"levelo://app?vid=79f5032c-4427-40bb-bbad-7f35acb21ebc","ios":"levelo://app?vid=79f5032c-4427-40bb-bbad-7f35acb21ebc"},"vehicle_type_id":"4","last_reported":1730668059,"current_range_meters":30800,"station_id":"ce4bhr12rcd13ifvqhqg","pricing_plan_id":"cebpf4jnsgd1na2vs0mg"},{"bike_id":"488a49df-c9c8-4124-a350-5f746b788f43","system_id":"levelo_inurba_marseille","lat":43.27943,"lon":5.41038,"is_reserved":false,"is_disabled":false,"rental_uris":{"android":"levelo://app?vid=488a49df-c9c8-4124-a350-5f746b788f43","ios":"levelo://app?vid=488a49df-c9c8-4124-a350-5f746b788f43"},"vehicle_type_id":"4","last_reported":1730668059,"current_range_meters":24400,"station_id":"ce4bhnp2rcd13ifvqh0g","pricing_plan_id":"cebpf4jnsgd1na2vs0mg"},{"bike_id":"38d0560a-3fe8-4eeb-bac6-2cb7f8e2b987","system_id":"levelo_inurba_marseille","lat":43.30592,"lon":5.37221,"is_reserved":false,"is_disabled":false,"rental_uris":{"android":"levelo://app?vid=38d0560a-3fe8-4eeb-bac6-2cb7f8e2b987","ios":"levelo://app?vid=38d0560a-3fe8-4eeb-bac6-2cb7f8e2b987"},"vehicle_type_id":"4","last_reported":1730668059,"current_range_meters":38000,"station_id":"ce4bgqh2rcd13ifvqc4g","pricing_plan_id":"cebpf4jnsgd1na2vs0mg"},{"bike_id":"a22693e4-0adf-4f9e-bba6-8cb69985560f","system_id":"levelo_inurba_marseille","lat":43.2846,"lon":5.35865,"is_reserved":false,"is_disabled":false,"rental_uris":{"android":"levelo://app?vid=a22693e4-0adf-4f9e-bba6-8cb69985560f","ios":"levelo://app?vid=a22693e4-0adf-4f9e-bba6-8cb69985560f"},"vehicle_type_id":"4","last_reported":1730668059,"current_range_meters":39200,"station_id":"ce4bhah2rcd13ifvqei0","pricing_plan_id":"cebpf4jnsgd1na2vs0mg"},{"bike_id":"55a5ca7c-6af1-429c-9c94-9fa3bccda2bb","system_id":"levelo_inurba_marseille","lat":43.28343,"lon":5.38092,"is_reserved":false,"is_disabled":false,"rental_uris":{"android":"levelo://app?vid=55a5ca7c-6af1-429c-9c94-9fa3bccda2bb","ios":"levelo://app?vid=55a5ca7c-6af1-429c-9c94-9fa3bccda2bb"},"vehicle_type_id":"4","last_reported":1730668059,"current_range_meters":30000,"station_id":"ce4bh412rcd13ifvqdr0","pricing_plan_id":"cebpf4jnsgd1na2vs0mg"},{"bike_id":"7a8975a1-c523-47ba-83a1-459b86ea01d9","system_id":"levelo_inurba_marseille","lat":43.29189,"lon":5.39325,"is_reserved":false,"is_disabled":false,"rental_uris":{"android":"levelo://app?vid=7a8975a1-c523-47ba-83a1-459b86ea01d9","ios":"levelo://app?vid=7a8975a1-c523-47ba-83a1-459b86ea01d9"},"vehicle_type_id":"4","last_reported":1730668059,"current_range_meters":16400,"station_id":"ce4bh192rcd13ifvqdd0","pricing_plan_id":"cebpf4jnsgd1na2vs0mg"},{"bike_id":"bc8b9e03-fa2f-4c6f-9492-bef7a49bcb6e","system_id":"levelo_inurba_marseille","lat":43.25826,"lon":5.39426,"is_reserved":false,"is_disabled":false,"rental_uris":{"android":"levelo://app?vid=bc8b9e03-fa2f-4c6f-9492-bef7a49bcb6e","ios":"levelo://app?vid=bc8b9e03-fa2f-4c6f-9492-bef7a49bcb6e"},"vehicle_type_id":"4","last_reported":1730668059,"current_range_meters":33600,"station_id":"ce4bhip2rcd13ifvqft0","pricing_plan_id":"cebpf4jnsgd1na2vs0mg"},{"bike_id":"737e9747-c831-402d-a747-149225195082","system_id":"levelo_inurba_marseille","lat":43.31327,"lon":5.39696,"is_reserved":false,"is_disabled":false,"rental_uris":{"android":"levelo://app?vid=737e9747-c831-402d-a747-149225195082","ios":"levelo://app?vid=737e9747-c831-402d-a747-149225195082"},"vehicle_type_id":"4","last_reported":1730668059,"current_range_meters":30000,"station_id":"ce4bgvp2rcd13ifvqcu0","pricing_plan_id":"cebpf4jnsgd1na2vs0mg"},{"bike_id":"95bc0b05-14e9-4eb7-bd27-e0caffaee71d","system_id":"levelo_inurba_marseille","lat":43.32141,"lon":5.41078,"is_reserved":false,"is_disabled":false,"rental_uris":{"android":"levelo://app?vid=95bc0b05-14e9-4eb7-bd27-e0caffaee71d","ios":"levelo://app?vid=95bc0b05-14e9-4eb7-bd27-e0caffaee71d"},"vehicle_type_id":"4","last_reported":1730668059,"current_range_meters":6800,"station_id":"ce4bhq92rcd13ifvqhkg","pricing_plan_id":"cebpf4jnsgd1na2vs0mg"},{"bike_id":"51e33fc0-83bd-44be-a080-61bc9446f595","system_id":"levelo_inurba_marseille","lat":43.24998,"lon":5.38929,"is_reserved":false,"is_disabled":false,"rental_uris":{"android":"levelo://app?vid=51e33fc0-83bd-44be-a080-61bc9446f595","ios":"levelo://app?vid=51e33fc0-83bd-44be-a080-61bc9446f595"},"vehicle_type_id":"4","last_reported":1730668059,"current_range_meters":38800,"station_id":"ce4bhgp2rcd13ifvqfd0","pricing_plan_id":"cebpf4jnsgd1na2vs0mg"},{"bike_id":"d5324ca5-5a3a-4892-bb8c-7dbf331e6ea6","system_id":"levelo_inurba_marseille","lat":43.32491,"lon":5.36559,"is_reserved":false,"is_disabled":false,"rental_uris":{"android":"levelo://app?vid=d5324ca5-5a3a-4892-bb8c-7dbf331e6ea6","ios":"levelo://app?vid=d5324ca5-5a3a-4892-bb8c-7dbf331e6ea6"},"vehicle_type_id":"4","last_reported":1730668059,"current_range_meters":38800,"station_id":"ce4bhs12rcd13ifvqhvg","pricing_plan_id":"cebpf4jnsgd1na2vs0mg"},{"bike_id":"2f2ea378-4ead-470b-9874-5283887e2ee2","system_id":"levelo_inurba_marseille","lat":43.26574,"lon":5.3902,"is_reserved":false,"is_disabled":false,"rental_uris":{"android":"levelo://app?vid=2f2ea378-4ead-470b-9874-5283887e2ee2","ios":"levelo://app?vid=2f2ea378-4ead-470b-9874-5283887e2ee2"},"vehicle_type_id":"4","last_reported":1730668059,"current_range_meters":6800,"station_id":"ce4bhe12rcd13ifvqf30","pricing_plan_id":"cebpf4jnsgd1na2vs0mg"},{"bike_id":"8da67f8b-53e8-4934-9735-38d09238fa66","system_id":"levelo_inurba_marseille","lat":43.24075,"lon":5.37755,"is_reserved":false,"is_disabled":false,"rental_uris":{"android":"levelo://app?vid=8da67f8b-53e8-4934-9735-38d09238fa66","ios":"levelo://app?vid=8da67f8b-53e8-4934-9735-38d09238fa66"},"vehicle_type_id":"4","last_reported":1730668059,"current_range_meters":33200,"station_id":"ce4bhnp2rcd13ifvqgvg","pricing_plan_id":"cebpf4jnsgd1na2vs0mg"},{"bike_id":"c95bcd21-58c5-4a1f-8636-250e73cfe412","system_id":"levelo_inurba_marseille","lat":43.30102,"lon":5.39083,"is_reserved":false,"is_disabled":false,"rental_uris":{"android":"levelo://app?vid=c95bcd21-58c5-4a1f-8636-250e73cfe412","ios":"levelo://app?vid=c95bcd21-58c5-4a1f-8636-250e73cfe412"},"vehicle_type_id":"4","last_reported":1730668059,"current_range_meters":38400,"station_id":"ce4bh192rcd13ifvqdb0","pricing_plan_id":"cebpf4jnsgd1na2vs0mg"},{"bike_id":"7b8934ab-1a6b-4c2d-b5fa-40771c000556","system_id":"levelo_inurba_marseille","lat":43.27067,"lon":5.42273,"is_reserved":false,"is_disabled":false,"rental_uris":{"android":"levelo://app?vid=7b8934ab-1a6b-4c2d-b5fa-40771c000556","ios":"levelo://app?vid=7b8934ab-1a6b-4c2d-b5fa-40771c000556"},"vehicle_type_id":"4","last_reported":1730668059,"current_range_meters":20400,"station_id":"ce4bhk92rcd13ifvqgb0","pricing_plan_id":"cebpf4jnsgd1na2vs0mg"},{"bike_id":"cb8cbe74-bf02-4189-810a-cbe7a5df91d3","system_id":"levelo_inurba_marseille","lat":43.28369,"lon":5.38637,"is_reserved":false,"is_disabled":false,"rental_uris":{"android":"levelo://app?vid=cb8cbe74-bf02-4189-810a-cbe7a5df91d3","ios":"levelo://app?vid=cb8cbe74-bf02-4189-810a-cbe7a5df91d3"},"vehicle_type_id":"4","last_reported":1730668059,"current_range_meters":4000,"station_id":"ce4bh492rcd13ifvqdvg","pricing_plan_id":"cebpf4jnsgd1na2vs0mg"},{"bike_id":"832b60bc-0d06-41a3-b29c-3ff7d0f476e1","system_id":"levelo_inurba_marseille","lat":43.23195,"lon":5.35553,"is_reserved":false,"is_disabled":false,"rental_uris":{"android":"levelo://app?vid=832b60bc-0d06-41a3-b29c-3ff7d0f476e1","ios":"levelo://app?vid=832b60bc-0d06-41a3-b29c-3ff7d0f476e1"},"vehicle_type_id":"4","last_reported":1730668059,"current_range_meters":38800,"station_id":"ce4bhu92rcd13ifvqi70","pricing_plan_id":"cebpf4jnsgd1na2vs0mg"},{"bike_id":"f9fb44a8-1b67-4c9c-ab5a-c47ed3b4d290","system_id":"levelo_inurba_marseille","lat":43.28703,"lon":5.39981,"is_reserved":false,"is_disabled":false,"rental_uris":{"android":"levelo://app?vid=f9fb44a8-1b67-4c9c-ab5a-c47ed3b4d290","ios":"levelo://app?vid=f9fb44a8-1b67-4c9c-ab5a-c47ed3b4d290"},"vehicle_type_id":"4","last_reported":1730668059,"current_range_meters":37600,"station_id":"ce4bho92rcd13ifvqh3g","pricing_plan_id":"cebpf4jnsgd1na2vs0mg"},{"bike_id":"7580d83e-3d7c-46be-82b1-25f013a114af","system_id":"levelo_inurba_marseille","lat":43.31052,"lon":5.40085,"is_reserved":false,"is_disabled":false,"rental_uris":{"android":"levelo://app?vid=7580d83e-3d7c-46be-82b1-25f013a114af","ios":"levelo://app?vid=7580d83e-3d7c-46be-82b1-25f013a114af"},"vehicle_type_id":"4","last_reported":1730668059,"current_range_meters":23200,"station_id":"","pricing_plan_id":"cebpf4jnsgd1na2vs0mg"},{"bike_id":"ec3da517-820f-4df2-a88f-4d4350c394cf","system_id":"levelo_inurba_marseille","lat":43.29421,"lon":5.38619,"is_reserved":false,"is_disabled":false,"rental_uris":{"android":"levelo://app?vid=ec3da517-820f-4df2-a88f-4d4350c394cf","ios":"levelo://app?vid=ec3da517-820f-4df2-a88f-4d4350c394cf"},"vehicle_type_id":"4","last_reported":1730668059,"current_range_meters":38800,"station_id":"ce4bh2h2rcd13ifvqdh0","pricing_plan_id":"cebpf4jnsgd1na2vs0mg"},{"bike_id":"95176e65-2057-4dd1-bdba-201dc08b6b3e","system_id":"levelo_inurba_marseille","lat":43.26804,"lon":5.40265,"is_reserved":false,"is_disabled":false,"rental_uris":{"android":"levelo://app?vid=95176e65-2057-4dd1-bdba-201dc08b6b3e","ios":"levelo://app?vid=95176e65-2057-4dd1-bdba-201dc08b6b3e"},"vehicle_type_id":"4","last_reported":1730668059,"current_range_meters":37600,"station_id":"ce501612rcd8frsf0b60","pricing_plan_id":"cebpf4jnsgd1na2vs0mg"},{"bike_id":"c36500d8-3c1b-40b4-b412-de69c457b9cb","system_id":"levelo_inurba_marseille","lat":43.28104,"lon":5.41022,"is_reserved":false,"is_disabled":false,"rental_uris":{"android":"levelo://app?vid=c36500d8-3c1b-40b4-b412-de69c457b9cb","ios":"levelo://app?vid=c36500d8-3c1b-40b4-b412-de69c457b9cb"},"vehicle_type_id":"4","last_reported":1730668059,"current_range_meters":8800,"station_id":"","pricing_plan_id":"cebpf4jnsgd1na2vs0mg"},{"bike_id":"95296791-a591-4ff0-afa8-95caf4a09725","system_id":"levelo_inurba_marseille","lat":43.30961,"lon":5.39042,"is_reserved":false,"is_disabled":false,"rental_uris":{"android":"levelo://app?vid=95296791-a591-4ff0-afa8-95caf4a09725","ios":"levelo://app?vid=95296791-a591-4ff0-afa8-95caf4a09725"},"vehicle_type_id":"4","last_reported":1730668059,"current_range_meters":39200,"station_id":"ce4bgup2rcd13ifvqco0","pricing_plan_id":"cebpf4jnsgd1na2vs0mg"},{"bike_id":"bad43616-f641-4035-af13-2dce9f5a33b4","system_id":"levelo_inurba_marseille","lat":43.30883,"lon":5.37175,"is_reserved":false,"is_disabled":false,"rental_uris":{"android":"levelo://app?vid=bad43616-f641-4035-af13-2dce9f5a33b4","ios":"levelo://app?vid=bad43616-f641-4035-af13-2dce9f5a33b4"},"vehicle_type_id":"4","last_reported":1730668059,"current_range_meters":38800,"station_id":"ce4bguh2rcd13ifvqckg","pricing_plan_id":"cebpf4jnsgd1na2vs0mg"},{"bike_id":"24f1eb47-eb3e-41ef-a7ab-52d326ab4d91","system_id":"levelo_inurba_marseille","lat":43.3108,"lon":5.42425,"is_reserved":false,"is_disabled":false,"rental_uris":{"android":"levelo://app?vid=24f1eb47-eb3e-41ef-a7ab-52d326ab4d91","ios":"levelo://app?vid=24f1eb47-eb3e-41ef-a7ab-52d326ab4d91"},"vehicle_type_id":"4","last_reported":1730668059,"current_range_meters":24000,"station_id":"ce4bhp92rcd13ifvqhag","pricing_plan_id":"cebpf4jnsgd1na2vs0mg"},{"bike_id":"2f198e17-c1d9-44a9-a2a2-6c2ed86edf11","system_id":"levelo_inurba_marseille","lat":43.25115,"lon":5.40316,"is_reserved":false,"is_disabled":false,"rental_uris":{"android":"levelo://app?vid=2f198e17-c1d9-44a9-a2a2-6c2ed86edf11","ios":"levelo://app?vid=2f198e17-c1d9-44a9-a2a2-6c2ed86edf11"},"vehicle_type_id":"4","last_reported":1730668059,"current_range_meters":4000,"station_id":"ce4bhlh2rcd13ifvqgig","pricing_plan_id":"cebpf4jnsgd1na2vs0mg"},{"bike_id":"3a735f4a-9486-422a-b719-6ba035a5a00f","system_id":"levelo_inurba_marseille","lat":43.27175,"lon":5.4099,"is_reserved":false,"is_disabled":false,"rental_uris":{"android":"levelo://app?vid=3a735f4a-9486-422a-b719-6ba035a5a00f","ios":"levelo://app?vid=3a735f4a-9486-422a-b719-6ba035a5a00f"},"vehicle_type_id":"4","last_reported":1730668059,"current_range_meters":9200,"station_id":"ce4bhl12rcd13ifvqgf0","pricing_plan_id":"cebpf4jnsgd1na2vs0mg"},{"bike_id":"df6eaa86-03c9-400e-93d7-1c4171a03ee1","system_id":"levelo_inurba_marseille","lat":43.31327,"lon":5.39685,"is_reserved":false,"is_disabled":false,"rental_uris":{"android":"levelo://app?vid=df6eaa86-03c9-400e-93d7-1c4171a03ee1","ios":"levelo://app?vid=df6eaa86-03c9-400e-93d7-1c4171a03ee1"},"vehicle_type_id":"4","last_reported":1730668059,"current_range_meters":27200,"station_id":"ce4bgvp2rcd13ifvqcu0","pricing_plan_id":"cebpf4jnsgd1na2vs0mg"},{"bike_id":"580c00db-6f10-43b4-adc7-c7bc72e50856","system_id":"levelo_inurba_marseille","lat":43.30325,"lon":5.40443,"is_reserved":false,"is_disabled":false,"rental_uris":{"android":"levelo://app?vid=580c00db-6f10-43b4-adc7-c7bc72e50856","ios":"levelo://app?vid=580c00db-6f10-43b4-adc7-c7bc72e50856"},"vehicle_type_id":"4","last_reported":1730668059,"current_range_meters":38800,"station_id":"ce4bh012rcd13ifvqd10","pricing_plan_id":"cebpf4jnsgd1na2vs0mg"},{"bike_id":"07e3742d-2161-4edf-9c5a-456e12ab7829","system_id":"levelo_inurba_marseille","lat":43.31118,"lon":5.37764,"is_reserved":false,"is_disabled":false,"rental_uris":{"android":"levelo://app?vid=07e3742d-2161-4edf-9c5a-456e12ab7829","ios":"levelo://app?vid=07e3742d-2161-4edf-9c5a-456e12ab7829"},"vehicle_type_id":"4","last_reported":1730668059,"current_range_meters":7200,"station_id":"ce4bgt92rcd13ifvqcg0","pricing_plan_id":"cebpf4jnsgd1na2vs0mg"},{"bike_id":"9d2860fa-f3c0-49a6-812c-6468606aad12","system_id":"levelo_inurba_marseille","lat":43.29418,"lon":5.38628,"is_reserved":false,"is_disabled":false,"rental_uris":{"android":"levelo://app?vid=9d2860fa-f3c0-49a6-812c-6468606aad12","ios":"levelo://app?vid=9d2860fa-f3c0-49a6-812c-6468606aad12"},"vehicle_type_id":"4","last_reported":1730668059,"current_range_meters":38800,"station_id":"ce4bh2h2rcd13ifvqdh0","pricing_plan_id":"cebpf4jnsgd1na2vs0mg"},{"bike_id":"91260f79-08e8-486e-81cf-05fb9fb847d7","system_id":"levelo_inurba_marseille","lat":43.27675,"lon":5.38903,"is_reserved":false,"is_disabled":false,"rental_uris":{"android":"levelo://app?vid=91260f79-08e8-486e-81cf-05fb9fb847d7","ios":"levelo://app?vid=91260f79-08e8-486e-81cf-05fb9fb847d7"},"vehicle_type_id":"4","last_reported":1730668059,"current_range_meters":38000,"station_id":"ce4bhi12rcd13ifvqfo0","pricing_plan_id":"cebpf4jnsgd1na2vs0mg"},{"bike_id":"7df8200a-e9c0-4811-a190-4ab0e5fe4852","system_id":"levelo_inurba_marseille","lat":43.33608,"lon":5.41014,"is_reserved":false,"is_disabled":false,"rental_uris":{"android":"levelo://app?vid=7df8200a-e9c0-4811-a190-4ab0e5fe4852","ios":"levelo://app?vid=7df8200a-e9c0-4811-a190-4ab0e5fe4852"},"vehicle_type_id":"4","last_reported":1730668059,"current_range_meters":22800,"station_id":"ce4bhqh2rcd13ifvqhmg","pricing_plan_id":"cebpf4jnsgd1na2vs0mg"},{"bike_id":"4ec9dab5-73a1-43e8-8158-945aee934760","system_id":"levelo_inurba_marseille","lat":43.29265,"lon":5.38436,"is_reserved":false,"is_disabled":false,"rental_uris":{"android":"levelo://app?vid=4ec9dab5-73a1-43e8-8158-945aee934760","ios":"levelo://app?vid=4ec9dab5-73a1-43e8-8158-945aee934760"},"vehicle_type_id":"4","last_reported":1730668059,"current_range_meters":36000,"station_id":"ce4bh692rcd13ifvqea0","pricing_plan_id":"cebpf4jnsgd1na2vs0mg"},{"bike_id":"d74200e6-8722-4834-ae0b-188969c02116","system_id":"levelo_inurba_marseille","lat":43.30427,"lon":5.38883,"is_reserved":false,"is_disabled":false,"rental_uris":{"android":"levelo://app?vid=d74200e6-8722-4834-ae0b-188969c02116","ios":"levelo://app?vid=d74200e6-8722-4834-ae0b-188969c02116"},"vehicle_type_id":"4","last_reported":1730668059,"current_range_meters":38800,"station_id":"ce4bgk12rcd13ifvqbi0","pricing_plan_id":"cebpf4jnsgd1na2vs0mg"},{"bike_id":"a9fbbb7d-1f56-44aa-b117-d72e2cab64d1","system_id":"levelo_inurba_marseille","lat":43.2926,"lon":5.38439,"is_reserved":false,"is_disabled":false,"rental_uris":{"android":"levelo://app?vid=a9fbbb7d-1f56-44aa-b117-d72e2cab64d1","ios":"levelo://app?vid=a9fbbb7d-1f56-44aa-b117-d72e2cab64d1"},"vehicle_type_id":"4","last_reported":1730668059,"current_range_meters":32000,"station_id":"ce4bh692rcd13ifvqea0","pricing_plan_id":"cebpf4jnsgd1na2vs0mg"},{"bike_id":"d49eab38-7ea8-46ec-9331-cc74e18ed3bd","system_id":"levelo_inurba_marseille","lat":43.24659,"lon":5.38161,"is_reserved":false,"is_disabled":false,"rental_uris":{"android":"levelo://app?vid=d49eab38-7ea8-46ec-9331-cc74e18ed3bd","ios":"levelo://app?vid=d49eab38-7ea8-46ec-9331-cc74e18ed3bd"},"vehicle_type_id":"4","last_reported":1730668059,"current_range_meters":38800,"station_id":"ce4bhih2rcd13ifvqfr0","pricing_plan_id":"cebpf4jnsgd1na2vs0mg"},{"bike_id":"fcdd5933-89bc-4fad-bfde-3a40e0572351","system_id":"levelo_inurba_marseille","lat":43.3032,"lon":5.4044,"is_reserved":false,"is_disabled":false,"rental_uris":{"android":"levelo://app?vid=fcdd5933-89bc-4fad-bfde-3a40e0572351","ios":"levelo://app?vid=fcdd5933-89bc-4fad-bfde-3a40e0572351"},"vehicle_type_id":"4","last_reported":1730668059,"current_range_meters":38000,"station_id":"ce4bh012rcd13ifvqd10","pricing_plan_id":"cebpf4jnsgd1na2vs0mg"},{"bike_id":"c57463b3-7b53-4aaa-82ee-ce470bd6df2e","system_id":"levelo_inurba_marseille","lat":43.300854,"lon":5.390986,"is_reserved":false,"is_disabled":false,"rental_uris":{"android":"levelo://app?vid=c57463b3-7b53-4aaa-82ee-ce470bd6df2e","ios":"levelo://app?vid=c57463b3-7b53-4aaa-82ee-ce470bd6df2e"},"vehicle_type_id":"4","last_reported":1730668059,"current_range_meters":38000,"station_id":"ce4bh192rcd13ifvqdb0","pricing_plan_id":"cebpf4jnsgd1na2vs0mg"},{"bike_id":"08b50212-a0b5-4e30-a0f8-b1838d6fba4f","system_id":"levelo_inurba_marseille","lat":43.28927,"lon":5.38389,"is_reserved":false,"is_disabled":false,"rental_uris":{"android":"levelo://app?vid=08b50212-a0b5-4e30-a0f8-b1838d6fba4f","ios":"levelo://app?vid=08b50212-a0b5-4e30-a0f8-b1838d6fba4f"},"vehicle_type_id":"4","last_reported":1730668059,"current_range_meters":38800,"station_id":"ce4bh612rcd13ifvqe6g","pricing_plan_id":"cebpf4jnsgd1na2vs0mg"},{"bike_id":"a56fea18-a696-4007-a12a-ed30bd374916","system_id":"levelo_inurba_marseille","lat":43.29264,"lon":5.38443,"is_reserved":false,"is_disabled":false,"rental_uris":{"android":"levelo://app?vid=a56fea18-a696-4007-a12a-ed30bd374916","ios":"levelo://app?vid=a56fea18-a696-4007-a12a-ed30bd374916"},"vehicle_type_id":"4","last_reported":1730668059,"current_range_meters":38800,"station_id":"ce4bh692rcd13ifvqea0","pricing_plan_id":"cebpf4jnsgd1na2vs0mg"},{"bike_id":"fa649200-6745-4ffb-8508-e8297bb2a9dd","system_id":"levelo_inurba_marseille","lat":43.28939,"lon":5.36637,"is_reserved":false,"is_disabled":false,"rental_uris":{"android":"levelo://app?vid=fa649200-6745-4ffb-8508-e8297bb2a9dd","ios":"levelo://app?vid=fa649200-6745-4ffb-8508-e8297bb2a9dd"},"vehicle_type_id":"4","last_reported":1730668059,"current_range_meters":12800,"station_id":"ce4bhap2rcd13ifvqek0","pricing_plan_id":"cebpf4jnsgd1na2vs0mg"},{"bike_id":"643f0b74-3410-4b14-8f20-b5835e9acabc","system_id":"levelo_inurba_marseille","lat":43.28028,"lon":5.36948,"is_reserved":false,"is_disabled":false,"rental_uris":{"android":"levelo://app?vid=643f0b74-3410-4b14-8f20-b5835e9acabc","ios":"levelo://app?vid=643f0b74-3410-4b14-8f20-b5835e9acabc"},"vehicle_type_id":"4","last_reported":1730668059,"current_range_meters":35600,"station_id":"ce4bha12rcd13ifvqef0","pricing_plan_id":"cebpf4jnsgd1na2vs0mg"},{"bike_id":"92076b3b-01fa-412f-b9fe-8f2ce833c281","system_id":"levelo_inurba_marseille","lat":43.29181,"lon":5.39327,"is_reserved":false,"is_disabled":false,"rental_uris":{"android":"levelo://app?vid=92076b3b-01fa-412f-b9fe-8f2ce833c281","ios":"levelo://app?vid=92076b3b-01fa-412f-b9fe-8f2ce833c281"},"vehicle_type_id":"4","last_reported":1730668059,"current_range_meters":15200,"station_id":"ce4bh192rcd13ifvqdd0","pricing_plan_id":"cebpf4jnsgd1na2vs0mg"},{"bike_id":"f27cce01-0565-4e26-a6f2-ebdbee094f5e","system_id":"levelo_inurba_marseille","lat":43.29413,"lon":5.38629,"is_reserved":false,"is_disabled":false,"rental_uris":{"android":"levelo://app?vid=f27cce01-0565-4e26-a6f2-ebdbee094f5e","ios":"levelo://app?vid=f27cce01-0565-4e26-a6f2-ebdbee094f5e"},"vehicle_type_id":"4","last_reported":1730668059,"current_range_meters":38800,"station_id":"ce4bh2h2rcd13ifvqdh0","pricing_plan_id":"cebpf4jnsgd1na2vs0mg"},{"bike_id":"b6fedd1a-250c-46bc-8898-b78ca73c2072","system_id":"levelo_inurba_marseille","lat":43.29264,"lon":5.38438,"is_reserved":false,"is_disabled":false,"rental_uris":{"android":"levelo://app?vid=b6fedd1a-250c-46bc-8898-b78ca73c2072","ios":"levelo://app?vid=b6fedd1a-250c-46bc-8898-b78ca73c2072"},"vehicle_type_id":"4","last_reported":1730668059,"current_range_meters":26800,"station_id":"ce4bh692rcd13ifvqea0","pricing_plan_id":"cebpf4jnsgd1na2vs0mg"},{"bike_id":"3060e12c-0318-48df-8b3d-466aa19dbff5","system_id":"levelo_inurba_marseille","lat":43.30328,"lon":5.40439,"is_reserved":false,"is_disabled":false,"rental_uris":{"android":"levelo://app?vid=3060e12c-0318-48df-8b3d-466aa19dbff5","ios":"levelo://app?vid=3060e12c-0318-48df-8b3d-466aa19dbff5"},"vehicle_type_id":"4","last_reported":1730668059,"current_range_meters":27200,"station_id":"ce4bh012rcd13ifvqd10","pricing_plan_id":"cebpf4jnsgd1na2vs0mg"},{"bike_id":"571da7e4-b5d4-4b07-b67c-7f557ad7bb12","system_id":"levelo_inurba_marseille","lat":43.28033,"lon":5.36948,"is_reserved":false,"is_disabled":false,"rental_uris":{"android":"levelo://app?vid=571da7e4-b5d4-4b07-b67c-7f557ad7bb12","ios":"levelo://app?vid=571da7e4-b5d4-4b07-b67c-7f557ad7bb12"},"vehicle_type_id":"4","last_reported":1730668059,"current_range_meters":38800,"station_id":"ce4bha12rcd13ifvqef0","pricing_plan_id":"cebpf4jnsgd1na2vs0mg"},{"bike_id":"e54a9e25-ac9f-47a2-b6ce-8e7088772790","system_id":"levelo_inurba_marseille","lat":43.33019,"lon":5.39037,"is_reserved":false,"is_disabled":false,"rental_uris":{"android":"levelo://app?vid=e54a9e25-ac9f-47a2-b6ce-8e7088772790","ios":"levelo://app?vid=e54a9e25-ac9f-47a2-b6ce-8e7088772790"},"vehicle_type_id":"4","last_reported":1730668059,"current_range_meters":14800,"station_id":"ce4bhr92rcd13ifvqhrg","pricing_plan_id":"cebpf4jnsgd1na2vs0mg"},{"bike_id":"1974fd74-3dba-4353-901e-87c28577af74","system_id":"levelo_inurba_marseille","lat":43.29909,"lon":5.37473,"is_reserved":false,"is_disabled":false,"rental_uris":{"android":"levelo://app?vid=1974fd74-3dba-4353-901e-87c28577af74","ios":"levelo://app?vid=1974fd74-3dba-4353-901e-87c28577af74"},"vehicle_type_id":"4","last_reported":1730668059,"current_range_meters":38800,"station_id":"ce4bgjh2rcd13ifvqbg0","pricing_plan_id":"cebpf4jnsgd1na2vs0mg"},{"bike_id":"329d0a9a-38c3-4530-98be-d74ad035c8be","system_id":"levelo_inurba_marseille","lat":43.24083,"lon":5.37756,"is_reserved":false,"is_disabled":false,"rental_uris":{"android":"levelo://app?vid=329d0a9a-38c3-4530-98be-d74ad035c8be","ios":"levelo://app?vid=329d0a9a-38c3-4530-98be-d74ad035c8be"},"vehicle_type_id":"4","last_reported":1730668059,"current_range_meters":14800,"station_id":"ce4bhnp2rcd13ifvqgvg","pricing_plan_id":"cebpf4jnsgd1na2vs0mg"},{"bike_id":"995bbdf8-52c0-4121-b0a8-c6f5c3060245","system_id":"levelo_inurba_marseille","lat":43.25872,"lon":5.39896,"is_reserved":false,"is_disabled":false,"rental_uris":{"android":"levelo://app?vid=995bbdf8-52c0-4121-b0a8-c6f5c3060245","ios":"levelo://app?vid=995bbdf8-52c0-4121-b0a8-c6f5c3060245"},"vehicle_type_id":"4","last_reported":1730668059,"current_range_meters":21600,"station_id":"ce4bhl92rcd13ifvqghg","pricing_plan_id":"cebpf4jnsgd1na2vs0mg"},{"bike_id":"3f021583-0e65-40bc-8201-d19e27615a6e","system_id":"levelo_inurba_marseille","lat":43.30246,"lon":5.40063,"is_reserved":false,"is_disabled":false,"rental_uris":{"android":"levelo://app?vid=3f021583-0e65-40bc-8201-d19e27615a6e","ios":"levelo://app?vid=3f021583-0e65-40bc-8201-d19e27615a6e"},"vehicle_type_id":"4","last_reported":1730668059,"current_range_meters":17600,"station_id":"ce4bgvh2rcd13ifvqcs0","pricing_plan_id":"cebpf4jnsgd1na2vs0mg"},{"bike_id":"2fbd6a30-32e8-46a3-aeec-07004af69821","system_id":"levelo_inurba_marseille","lat":43.32337,"lon":5.40614,"is_reserved":false,"is_disabled":false,"rental_uris":{"android":"levelo://app?vid=2fbd6a30-32e8-46a3-aeec-07004af69821","ios":"levelo://app?vid=2fbd6a30-32e8-46a3-aeec-07004af69821"},"vehicle_type_id":"4","last_reported":1730668059,"current_range_meters":23200,"station_id":"ce4bhq92rcd13ifvqhjg","pricing_plan_id":"cebpf4jnsgd1na2vs0mg"},{"bike_id":"b7025435-eb3f-456a-8fb2-f639e2f34d1f","system_id":"levelo_inurba_marseille","lat":43.23179,"lon":5.39988,"is_reserved":false,"is_disabled":false,"rental_uris":{"android":"levelo://app?vid=b7025435-eb3f-456a-8fb2-f639e2f34d1f","ios":"levelo://app?vid=b7025435-eb3f-456a-8fb2-f639e2f34d1f"},"vehicle_type_id":"4","last_reported":1730668059,"current_range_meters":23200,"station_id":"ce4bhn12rcd13ifvqgqg","pricing_plan_id":"cebpf4jnsgd1na2vs0mg"},{"bike_id":"c45bdead-0b4b-4bc3-ae8d-a3a1eeb7c5ba","system_id":"levelo_inurba_marseille","lat":43.28454,"lon":5.35897,"is_reserved":false,"is_disabled":false,"rental_uris":{"android":"levelo://app?vid=c45bdead-0b4b-4bc3-ae8d-a3a1eeb7c5ba","ios":"levelo://app?vid=c45bdead-0b4b-4bc3-ae8d-a3a1eeb7c5ba"},"vehicle_type_id":"4","last_reported":1730668059,"current_range_meters":38800,"station_id":"ce4bhah2rcd13ifvqei0","pricing_plan_id":"cebpf4jnsgd1na2vs0mg"},{"bike_id":"4c891a83-029b-4718-828e-846535ee78e1","system_id":"levelo_inurba_marseille","lat":43.2866,"lon":5.36351,"is_reserved":false,"is_disabled":false,"rental_uris":{"android":"levelo://app?vid=4c891a83-029b-4718-828e-846535ee78e1","ios":"levelo://app?vid=4c891a83-029b-4718-828e-846535ee78e1"},"vehicle_type_id":"4","last_reported":1730668059,"current_range_meters":38800,"station_id":"ce4bhah2rcd13ifvqej0","pricing_plan_id":"cebpf4jnsgd1na2vs0mg"},{"bike_id":"a24c3a7a-c24a-499a-b3b8-67ebea875cbb","system_id":"levelo_inurba_marseille","lat":43.30547,"lon":5.36695,"is_reserved":false,"is_disabled":false,"rental_uris":{"android":"levelo://app?vid=a24c3a7a-c24a-499a-b3b8-67ebea875cbb","ios":"levelo://app?vid=a24c3a7a-c24a-499a-b3b8-67ebea875cbb"},"vehicle_type_id":"4","last_reported":1730668059,"current_range_meters":38800,"station_id":"ce4bgrp2rcd13ifvqc9g","pricing_plan_id":"cebpf4jnsgd1na2vs0mg"},{"bike_id":"ab9173ec-0645-441d-90af-326a5e948990","system_id":"levelo_inurba_marseille","lat":43.28342,"lon":5.38106,"is_reserved":false,"is_disabled":false,"rental_uris":{"android":"levelo://app?vid=ab9173ec-0645-441d-90af-326a5e948990","ios":"levelo://app?vid=ab9173ec-0645-441d-90af-326a5e948990"},"vehicle_type_id":"4","last_reported":1730668059,"current_range_meters":30800,"station_id":"ce4bh412rcd13ifvqdr0","pricing_plan_id":"cebpf4jnsgd1na2vs0mg"},{"bike_id":"0d2305bf-cad7-4f51-a7f4-06f39ed0c63c","system_id":"levelo_inurba_marseille","lat":43.297424,"lon":5.387384,"is_reserved":false,"is_disabled":false,"rental_uris":{"android":"levelo://app?vid=0d2305bf-cad7-4f51-a7f4-06f39ed0c63c","ios":"levelo://app?vid=0d2305bf-cad7-4f51-a7f4-06f39ed0c63c"},"vehicle_type_id":"4","last_reported":1730668059,"current_range_meters":22000,"station_id":"ce4bgv12rcd13ifvqcp0","pricing_plan_id":"cebpf4jnsgd1na2vs0mg"},{"bike_id":"db26f5ad-b2ef-45e2-bcad-4925a1d4e797","system_id":"levelo_inurba_marseille","lat":43.30133,"lon":5.39864,"is_reserved":false,"is_disabled":false,"rental_uris":{"android":"levelo://app?vid=db26f5ad-b2ef-45e2-bcad-4925a1d4e797","ios":"levelo://app?vid=db26f5ad-b2ef-45e2-bcad-4925a1d4e797"},"vehicle_type_id":"4","last_reported":1730668059,"current_range_meters":12400,"station_id":"ce4bh0h2rcd13ifvqd40","pricing_plan_id":"cebpf4jnsgd1na2vs0mg"},{"bike_id":"718d9ab7-5921-49b7-8148-169d6d564cef","system_id":"levelo_inurba_marseille","lat":43.287,"lon":5.37385,"is_reserved":false,"is_disabled":false,"rental_uris":{"android":"levelo://app?vid=718d9ab7-5921-49b7-8148-169d6d564cef","ios":"levelo://app?vid=718d9ab7-5921-49b7-8148-169d6d564cef"},"vehicle_type_id":"4","last_reported":1730668059,"current_range_meters":38800,"station_id":"ce4bh3p2rcd13ifvqdq0","pricing_plan_id":"cebpf4jnsgd1na2vs0mg"},{"bike_id":"83c8aea3-f49f-4499-a1f4-bc7c36113ead","system_id":"levelo_inurba_marseille","lat":43.28472,"lon":5.38426,"is_reserved":false,"is_disabled":false,"rental_uris":{"android":"levelo://app?vid=83c8aea3-f49f-4499-a1f4-bc7c36113ead","ios":"levelo://app?vid=83c8aea3-f49f-4499-a1f4-bc7c36113ead"},"vehicle_type_id":"4","last_reported":1730668059,"current_range_meters":3600,"station_id":"ce4bh512rcd13ifvqe3g","pricing_plan_id":"cebpf4jnsgd1na2vs0mg"},{"bike_id":"d5154aa7-9f6d-4f09-8dd7-076b92df9944","system_id":"levelo_inurba_marseille","lat":43.30954,"lon":5.39036,"is_reserved":false,"is_disabled":false,"rental_uris":{"android":"levelo://app?vid=d5154aa7-9f6d-4f09-8dd7-076b92df9944","ios":"levelo://app?vid=d5154aa7-9f6d-4f09-8dd7-076b92df9944"},"vehicle_type_id":"4","last_reported":1730668059,"current_range_meters":36800,"station_id":"ce4bgup2rcd13ifvqco0","pricing_plan_id":"cebpf4jnsgd1na2vs0mg"},{"bike_id":"00fec830-acb5-4b09-91f7-c6176b6375eb","system_id":"levelo_inurba_marseille","lat":43.28084,"lon":5.39656,"is_reserved":false,"is_disabled":false,"rental_uris":{"android":"levelo://app?vid=00fec830-acb5-4b09-91f7-c6176b6375eb","ios":"levelo://app?vid=00fec830-acb5-4b09-91f7-c6176b6375eb"},"vehicle_type_id":"4","last_reported":1730668059,"current_range_meters":22000,"station_id":"ce4bho12rcd13ifvqh2g","pricing_plan_id":"cebpf4jnsgd1na2vs0mg"},{"bike_id":"ad6b9979-2833-497c-ae59-5afeb88a87ce","system_id":"levelo_inurba_marseille","lat":43.32351,"lon":5.36741,"is_reserved":false,"is_disabled":false,"rental_uris":{"android":"levelo://app?vid=ad6b9979-2833-497c-ae59-5afeb88a87ce","ios":"levelo://app?vid=ad6b9979-2833-497c-ae59-5afeb88a87ce"},"vehicle_type_id":"4","last_reported":1730668059,"current_range_meters":38800,"station_id":"ce4bhsh2rcd13ifvqi2g","pricing_plan_id":"cebpf4jnsgd1na2vs0mg"},{"bike_id":"4c37402e-d84e-439b-8190-b6fa7aba4890","system_id":"levelo_inurba_marseille","lat":43.30591,"lon":5.3935,"is_reserved":false,"is_disabled":false,"rental_uris":{"android":"levelo://app?vid=4c37402e-d84e-439b-8190-b6fa7aba4890","ios":"levelo://app?vid=4c37402e-d84e-439b-8190-b6fa7aba4890"},"vehicle_type_id":"4","last_reported":1730668059,"current_range_meters":38400,"station_id":"ce4bh0p2rcd13ifvqd80","pricing_plan_id":"cebpf4jnsgd1na2vs0mg"},{"bike_id":"66a019b4-c5f6-4c92-9845-b4f6f6433871","system_id":"levelo_inurba_marseille","lat":43.28697,"lon":5.39986,"is_reserved":false,"is_disabled":false,"rental_uris":{"android":"levelo://app?vid=66a019b4-c5f6-4c92-9845-b4f6f6433871","ios":"levelo://app?vid=66a019b4-c5f6-4c92-9845-b4f6f6433871"},"vehicle_type_id":"4","last_reported":1730668059,"current_range_meters":38400,"station_id":"ce4bho92rcd13ifvqh3g","pricing_plan_id":"cebpf4jnsgd1na2vs0mg"},{"bike_id":"b44939f3-d8c5-4fe0-b15a-afc4e39e9275","system_id":"levelo_inurba_marseille","lat":43.27569,"lon":5.38419,"is_reserved":false,"is_disabled":false,"rental_uris":{"android":"levelo://app?vid=b44939f3-d8c5-4fe0-b15a-afc4e39e9275","ios":"levelo://app?vid=b44939f3-d8c5-4fe0-b15a-afc4e39e9275"},"vehicle_type_id":"4","last_reported":1730668059,"current_range_meters":36800,"station_id":"ce4bhh92rcd13ifvqfi0","pricing_plan_id":"cebpf4jnsgd1na2vs0mg"},{"bike_id":"1809f9e9-b0c3-4c30-9f7e-25f6a9a43e89","system_id":"levelo_inurba_marseille","lat":43.28933,"lon":5.39622,"is_reserved":false,"is_disabled":false,"rental_uris":{"android":"levelo://app?vid=1809f9e9-b0c3-4c30-9f7e-25f6a9a43e89","ios":"levelo://app?vid=1809f9e9-b0c3-4c30-9f7e-25f6a9a43e89"},"vehicle_type_id":"4","last_reported":1730668059,"current_range_meters":37600,"station_id":"ce4bh3h2rcd13ifvqdn0","pricing_plan_id":"cebpf4jnsgd1na2vs0mg"},{"bike_id":"9f897de5-c475-4cd1-ae2f-d0364984f88e","system_id":"levelo_inurba_marseille","lat":43.31325,"lon":5.39687,"is_reserved":false,"is_disabled":false,"rental_uris":{"android":"levelo://app?vid=9f897de5-c475-4cd1-ae2f-d0364984f88e","ios":"levelo://app?vid=9f897de5-c475-4cd1-ae2f-d0364984f88e"},"vehicle_type_id":"4","last_reported":1730668059,"current_range_meters":19600,"station_id":"ce4bgvp2rcd13ifvqcu0","pricing_plan_id":"cebpf4jnsgd1na2vs0mg"},{"bike_id":"428877d8-69fc-463f-973f-8d4d4aadb160","system_id":"levelo_inurba_marseille","lat":43.278,"lon":5.35505,"is_reserved":false,"is_disabled":false,"rental_uris":{"android":"levelo://app?vid=428877d8-69fc-463f-973f-8d4d4aadb160","ios":"levelo://app?vid=428877d8-69fc-463f-973f-8d4d4aadb160"},"vehicle_type_id":"4","last_reported":1730668059,"current_range_meters":30000,"station_id":"ce4bhg12rcd13ifvqf70","pricing_plan_id":"cebpf4jnsgd1na2vs0mg"},{"bike_id":"cbf371e3-fa62-41ab-8e49-c48635bf0599","system_id":"levelo_inurba_marseille","lat":43.28002,"lon":5.400152,"is_reserved":false,"is_disabled":false,"rental_uris":{"android":"levelo://app?vid=cbf371e3-fa62-41ab-8e49-c48635bf0599","ios":"levelo://app?vid=cbf371e3-fa62-41ab-8e49-c48635bf0599"},"vehicle_type_id":"4","last_reported":1730668059,"current_range_meters":38800,"station_id":"ce4bho92rcd13ifvqh4g","pricing_plan_id":"cebpf4jnsgd1na2vs0mg"},{"bike_id":"d82a0734-6a50-4380-b728-e06844fe66f8","system_id":"levelo_inurba_marseille","lat":43.28361,"lon":5.38627,"is_reserved":false,"is_disabled":false,"rental_uris":{"android":"levelo://app?vid=d82a0734-6a50-4380-b728-e06844fe66f8","ios":"levelo://app?vid=d82a0734-6a50-4380-b728-e06844fe66f8"},"vehicle_type_id":"4","last_reported":1730668059,"current_range_meters":18000,"station_id":"ce4bh492rcd13ifvqdvg","pricing_plan_id":"cebpf4jnsgd1na2vs0mg"},{"bike_id":"5229ac13-cebc-41be-a25c-1aa4b6823fd9","system_id":"levelo_inurba_marseille","lat":43.31083,"lon":5.4243,"is_reserved":false,"is_disabled":false,"rental_uris":{"android":"levelo://app?vid=5229ac13-cebc-41be-a25c-1aa4b6823fd9","ios":"levelo://app?vid=5229ac13-cebc-41be-a25c-1aa4b6823fd9"},"vehicle_type_id":"4","last_reported":1730668059,"current_range_meters":30800,"station_id":"ce4bhp92rcd13ifvqhag","pricing_plan_id":"cebpf4jnsgd1na2vs0mg"},{"bike_id":"22277462-ea58-4946-ba2c-ef08f6cd7659","system_id":"levelo_inurba_marseille","lat":43.2797,"lon":5.4105,"is_reserved":false,"is_disabled":false,"rental_uris":{"android":"levelo://app?vid=22277462-ea58-4946-ba2c-ef08f6cd7659","ios":"levelo://app?vid=22277462-ea58-4946-ba2c-ef08f6cd7659"},"vehicle_type_id":"4","last_reported":1730668059,"current_range_meters":15200,"station_id":"","pricing_plan_id":"cebpf4jnsgd1na2vs0mg"},