{"last_updated":1726311978,"ttl":30,"version":"2.2","data":{"bikes":[{"bike_id":"bc35aeaa-3e4d-43e6-9935-c8f1110a4b4c","system_id":"levelo_inurba_marseille","lat":43.30512,"lon":5.36709,"is_reserved":false,"is_disabled":false,"rental_uris":{"android":"levelo://app?vid=bc35aeaa-3e4d-43e6-9935-c8f1110a4b4c","ios":"levelo://app?vid=bc35aeaa-3e4d-43e6-9935-c8f1110a4b4c"},"vehicle_type_id":"4","last_reported":1726311978,"current_range_meters":33600,"station_id":"ce4bgrp2rcd13ifvqc9g","pricing_plan_id":"cebpf4jnsgd1na2vs0mg"},{"bike_id":"eb87fb95-d7e8-4523-9c3a-8580e30ec6d8","system_id":"levelo_inurba_marseille","lat":43.24395,"lon":5.37057,"is_reserved":false,"is_disabled":false,"rental_uris":{"android":"levelo://app?vid=eb87fb95-d7e8-4523-9c3a-8580e30ec6d8","ios":"levelo://app?vid=eb87fb95-d7e8-4523-9c3a-8580e30ec6d8"},"vehicle_type_id":"4","last_reported":1726311978,"current_range_meters":38000,"station_id":"ce4bhhh2rcd13ifvqfk0","pricing_plan_id":"cebpf4jnsgd1na2vs0mg"},{"bike_id":"436cf2d0-47d5-45b8-b9e9-e05936c9b5ce","system_id":"levelo_inurba_marseille","lat":43.30518,"lon":5.36549,"is_reserved":false,"is_disabled":false,"rental_uris":{"android":"levelo://app?vid=436cf2d0-47d5-45b8-b9e9-e05936c9b5ce","ios":"levelo://app?vid=436cf2d0-47d5-45b8-b9e9-e05936c9b5ce"},"vehicle_type_id":"4","last_reported":1726311978,"current_range_meters":40000,"station_id":"ce4bgs12rcd13ifvqcag","pricing_plan_id":"cebpf4jnsgd1na2vs0mg"},{"bike_id":"a78d21ec-8e84-4fcf-a72a-152d26b0acb7","system_id":"levelo_inurba_marseille","lat":43.30557,"lon":5.36559,"is_reserved":false,"is_disabled":false,"rental_uris":{"android":"levelo://app?vid=a78d21ec-8e84-4fcf-a72a-152d26b0acb7","ios":"levelo://app?vid=a78d21ec-8e84-4fcf-a72a-152d26b0acb7"},"vehicle_type_id":"4","last_reported":1726311978,"current_range_meters":21600,"station_id":"ce4bgs12rcd13ifvqcag","pricing_plan_id":"cebpf4jnsgd1na2vs0mg"},{"bike_id":"1433cc86-19c5-4d38-a0b5-c5c087739e0a","system_id":"levelo_inurba_marseille","lat":43.22928,"lon":5.3538,"is_reserved":false,"is_disabled":false,"rental_uris":{"android":"levelo://app?vid=1433cc86-19c5-4d38-a0b5-c5c087739e0a","ios":"levelo://app?vid=1433cc86-19c5-4d38-a0b5-c5c087739e0a"},"vehicle_type_id":"4","last_reported":1726311978,"current_range_meters":27200,"station_id":"cpo3532slgdg3j2ikp40","pricing_plan_id":"cebpf4jnsgd1na2vs0mg"},{"bike_id":"fa812e62-5a7a-4bc9-bad6-c22c286d9c5d","system_id":"levelo_inurba_marseille","lat":43.30454,"lon":5.3791,"is_reserved":false,"is_disabled":false,"rental_uris":{"android":"levelo://app?vid=fa812e62-5a7a-4bc9-bad6-c22c286d9c5d","ios":"levelo://app?vid=fa812e62-5a7a-4bc9-bad6-c22c286d9c5d"},"vehicle_type_id":"4","last_reported":1726311978,"current_range_meters":40000,"station_id":"ce4bgup2rcd13ifvqcn0","pricing_plan_id":"cebpf4jnsgd1na2vs0mg"},{"bike_id":"4c771e39-1953-427d-9832-5fbcac8c9060","system_id":"levelo_inurba_marseille","lat":43.27672,"lon":5.38877,"is_reserved":false,"is_disabled":false,"rental_uris":{"android":"levelo://app?vid=4c771e39-1953-427d-9832-5fbcac8c9060","ios":"levelo://app?vid=4c771e39-1953-427d-9832-5fbcac8c9060"},"vehicle_type_id":"4","last_reported":1726311978,"current_range_meters":6000,"station_id":"ce4bhi12rcd13ifvqfo0","pricing_plan_id":"cebpf4jnsgd1na2vs0mg"},{"bike_id":"84752de8-c1f1-4238-bc43-4100d21732f6","system_id":"levelo_inurba_marseille","lat":43.30538,"lon":5.38433,"is_reserved":false,"is_disabled":false,"rental_uris":{"android":"levelo://app?vid=84752de8-c1f1-4238-bc43-4100d21732f6","ios":"levelo://app?vid=84752de8-c1f1-4238-bc43-4100d21732f6"},"vehicle_type_id":"4","last_reported":1726311978,"current_range_meters":16400,"station_id":"ce4bgg92rcd13ifvqb30","pricing_plan_id":"cebpf4jnsgd1na2vs0mg"},{"bike_id":"083984dd-1abd-4a7d-84c6-e8ceb7b63abe","system_id":"levelo_inurba_marseille","lat":43.31094,"lon":5.37765,"is_reserved":false,"is_disabled":false,"rental_uris":{"android":"levelo://app?vid=083984dd-1abd-4a7d-84c6-e8ceb7b63abe","ios":"levelo://app?vid=083984dd-1abd-4a7d-84c6-e8ceb7b63abe"},"vehicle_type_id":"4","last_reported":1726311978,"current_range_meters":36800,"station_id":"ce4bgt92rcd13ifvqcg0","pricing_plan_id":"cebpf4jnsgd1na2vs0mg"},{"bike_id":"312c32aa-7767-4e9c-bdb0-d63bd304be96","system_id":"levelo_inurba_marseille","lat":43.30547,"lon":5.36487,"is_reserved":false,"is_disabled":false,"rental_uris":{"android":"levelo://app?vid=312c32aa-7767-4e9c-bdb0-d63bd304be96","ios":"levelo://app?vid=312c32aa-7767-4e9c-bdb0-d63bd304be96"},"vehicle_type_id":"4","last_reported":1726311978,"current_range_meters":24800,"station_id":"ce4bgs12rcd13ifvqcag","pricing_plan_id":"cebpf4jnsgd1na2vs0mg"},{"bike_id":"f2aab370-6e0a-414f-a9aa-b82870be9ba4","system_id":"levelo_inurba_marseille","lat":43.28609,"lon":5.35099,"is_reserved":false,"is_disabled":false,"rental_uris":{"android":"levelo://app?vid=f2aab370-6e0a-414f-a9aa-b82870be9ba4","ios":"levelo://app?vid=f2aab370-6e0a-414f-a9aa-b82870be9ba4"},"vehicle_type_id":"4","last_reported":1726311978,"current_range_meters":16800,"station_id":"ce4bhch2rcd13ifvqeug","pricing_plan_id":"cebpf4jnsgd1na2vs0mg"},{"bike_id":"656c27b4-466d-4156-9fb3-b9e329ecd7dd","system_id":"levelo_inurba_marseille","lat":43.26944,"lon":5.40248,"is_reserved":false,"is_disabled":false,"rental_uris":{"android":"levelo://app?vid=656c27b4-466d-4156-9fb3-b9e329ecd7dd","ios":"levelo://app?vid=656c27b4-466d-4156-9fb3-b9e329ecd7dd"},"vehicle_type_id":"4","last_reported":1726311978,"current_range_meters":18000,"station_id":"cjm6bp8fraef2m0cb0m0","pricing_plan_id":"cebpf4jnsgd1na2vs0mg"},{"bike_id":"9769237a-f4e8-4a9f-93a0-e8512c7ffb1d","system_id":"levelo_inurba_marseille","lat":43.33611,"lon":5.41023,"is_reserved":false,"is_disabled":false,"rental_uris":{"android":"levelo://app?vid=9769237a-f4e8-4a9f-93a0-e8512c7ffb1d","ios":"levelo://app?vid=9769237a-f4e8-4a9f-93a0-e8512c7ffb1d"},"vehicle_type_id":"4","last_reported":1726311978,"current_range_meters":39200,"station_id":"ce4bhqh2rcd13ifvqhmg","pricing_plan_id":"cebpf4jnsgd1na2vs0mg"},{"bike_id":"1950d08c-297f-43d4-a7b8-65b013c17f73","system_id":"levelo_inurba_marseille","lat":43.26682,"lon":5.38276,"is_reserved":false,"is_disabled":false,"rental_uris":{"android":"levelo://app?vid=1950d08c-297f-43d4-a7b8-65b013c17f73","ios":"levelo://app?vid=1950d08c-297f-43d4-a7b8-65b013c17f73"},"vehicle_type_id":"4","last_reported":1726311978,"current_range_meters":6800,"station_id":"ce4bhg92rcd13ifvqf90","pricing_plan_id":"cebpf4jnsgd1na2vs0mg"},{"bike_id":"adca8d97-4ed7-484e-a0ec-58e174128d33","system_id":"levelo_inurba_marseille","lat":43.29222,"lon":5.36055,"is_reserved":false,"is_disabled":false,"rental_uris":{"android":"levelo://app?vid=adca8d97-4ed7-484e-a0ec-58e174128d33","ios":"levelo://app?vid=adca8d97-4ed7-484e-a0ec-58e174128d33"},"vehicle_type_id":"4","last_reported":1726311978,"current_range_meters":38400,"station_id":"ce4bhbh2rcd13ifvqeqg","pricing_plan_id":"cebpf4jnsgd1na2vs0mg"},{"bike_id":"5c947e24-d492-4295-83aa-086d1450597b","system_id":"levelo_inurba_marseille","lat":43.29779,"lon":5.37099,"is_reserved":false,"is_disabled":false,"rental_uris":{"android":"levelo://app?vid=5c947e24-d492-4295-83aa-086d1450597b","ios":"levelo://app?vid=5c947e24-d492-4295-83aa-086d1450597b"},"vehicle_type_id":"4","last_reported":1726311978,"current_range_meters":19200,"station_id":"ce4bgop2rcd13ifvqc1g","pricing_plan_id":"cebpf4jnsgd1na2vs0mg"},{"bike_id":"57078c0b-9beb-4ca6-9619-12066e4ed91f","system_id":"levelo_inurba_marseille","lat":43.31756,"lon":5.39018,"is_reserved":false,"is_disabled":false,"rental_uris":{"android":"levelo://app?vid=57078c0b-9beb-4ca6-9619-12066e4ed91f","ios":"levelo://app?vid=57078c0b-9beb-4ca6-9619-12066e4ed91f"},"vehicle_type_id":"4","last_reported":1726311978,"current_range_meters":40000,"station_id":"ce4bhqp2rcd13ifvqhng","pricing_plan_id":"cebpf4jnsgd1na2vs0mg"},{"bike_id":"a725e6bd-2610-4052-aad1-4708c94b8d10","system_id":"levelo_inurba_marseille","lat":43.28272,"lon":5.35062,"is_reserved":false,"is_disabled":false,"rental_uris":{"android":"levelo://app?vid=a725e6bd-2610-4052-aad1-4708c94b8d10","ios":"levelo://app?vid=a725e6bd-2610-4052-aad1-4708c94b8d10"},"vehicle_type_id":"4","last_reported":1726311978,"current_range_meters":25200,"station_id":"ce4bhbp2rcd13ifvqerg","pricing_plan_id":"cebpf4jnsgd1na2vs0mg"},{"bike_id":"2a2fb6e6-cb77-48fb-886a-055cf28e030f","system_id":"levelo_inurba_marseille","lat":43.28264,"lon":5.35066,"is_reserved":false,"is_disabled":false,"rental_uris":{"android":"levelo://app?vid=2a2fb6e6-cb77-48fb-886a-055cf28e030f","ios":"levelo://app?vid=2a2fb6e6-cb77-48fb-886a-055cf28e030f"},"vehicle_type_id":"4","last_reported":1726311978,"current_range_meters":32000,"station_id":"ce4bhbp2rcd13ifvqerg","pricing_plan_id":"cebpf4jnsgd1na2vs0mg"},{"bike_id":"b57d008e-cedc-4b84-9bf6-15384cb281cd","system_id":"levelo_inurba_marseille","lat":43.29843,"lon":5.36276,"is_reserved":false,"is_disabled":false,"rental_uris":{"android":"levelo://app?vid=b57d008e-cedc-4b84-9bf6-15384cb281cd","ios":"levelo://app?vid=b57d008e-cedc-4b84-9bf6-15384cb281cd"},"vehicle_type_id":"4","last_reported":1726311978,"current_range_meters":38400,"station_id":"ce4bgpp2rcd13ifvqc3g","pricing_plan_id":"cebpf4jnsgd1na2vs0mg"},{"bike_id":"13ec4916-f0ea-4897-8afc-596425b42c42","system_id":"levelo_inurba_marseille","lat":43.23187,"lon":5.3556,"is_reserved":false,"is_disabled":false,"rental_uris":{"android":"levelo://app?vid=13ec4916-f0ea-4897-8afc-596425b42c42","ios":"levelo://app?vid=13ec4916-f0ea-4897-8afc-596425b42c42"},"vehicle_type_id":"4","last_reported":1726311978,"current_range_meters":28000,"station_id":"ce4bhu92rcd13ifvqi70","pricing_plan_id":"cebpf4jnsgd1na2vs0mg"},{"bike_id":"cb0eaffb-2812-4bc5-9ace-6454d6cac3eb","system_id":"levelo_inurba_marseille","lat":43.28617,"lon":5.35103,"is_reserved":false,"is_disabled":false,"rental_uris":{"android":"levelo://app?vid=cb0eaffb-2812-4bc5-9ace-6454d6cac3eb","ios":"levelo://app?vid=cb0eaffb-2812-4bc5-9ace-6454d6cac3eb"},"vehicle_type_id":"4","last_reported":1726311978,"current_range_meters":30000,"station_id":"ce4bhch2rcd13ifvqeug","pricing_plan_id":"cebpf4jnsgd1na2vs0mg"},{"bike_id":"a2360ee0-db48-4fec-8e3b-4fc7ef820ca3","system_id":"levelo_inurba_marseille","lat":43.29901,"lon":5.38148,"is_reserved":false,"is_disabled":false,"rental_uris":{"android":"levelo://app?vid=a2360ee0-db48-4fec-8e3b-4fc7ef820ca3","ios":"levelo://app?vid=a2360ee0-db48-4fec-8e3b-4fc7ef820ca3"},"vehicle_type_id":"4","last_reported":1726311978,"current_range_meters":32000,"station_id":"ce4bgj12rcd13ifvqbc0","pricing_plan_id":"cebpf4jnsgd1na2vs0mg"},{"bike_id":"3f1e932a-540c-4c5d-a4f8-ac49240977b8","system_id":"levelo_inurba_marseille","lat":43.24387,"lon":5.37054,"is_reserved":false,"is_disabled":false,"rental_uris":{"android":"levelo://app?vid=3f1e932a-540c-4c5d-a4f8-ac49240977b8","ios":"levelo://app?vid=3f1e932a-540c-4c5d-a4f8-ac49240977b8"},"vehicle_type_id":"4","last_reported":1726311978,"current_range_meters":40000,"station_id":"ce4bhhh2rcd13ifvqfk0","pricing_plan_id":"cebpf4jnsgd1na2vs0mg"},{"bike_id":"1b69e28d-b657-4802-b5dd-aa17fb5a768b","system_id":"levelo_inurba_marseille","lat":43.27131,"lon":5.42793,"is_reserved":false,"is_disabled":false,"rental_uris":{"android":"levelo://app?vid=1b69e28d-b657-4802-b5dd-aa17fb5a768b","ios":"levelo://app?vid=1b69e28d-b657-4802-b5dd-aa17fb5a768b"},"vehicle_type_id":"4","last_reported":1726311978,"current_range_meters":26800,"station_id":"","pricing_plan_id":"cebpf4jnsgd1na2vs0mg"},{"bike_id":"ed6ea6a8-7a12-489f-a3ff-5481318940c4","system_id":"levelo_inurba_marseille","lat":43.23185,"lon":5.39999,"is_reserved":false,"is_disabled":false,"rental_uris":{"android":"levelo://app?vid=ed6ea6a8-7a12-489f-a3ff-5481318940c4","ios":"levelo://app?vid=ed6ea6a8-7a12-489f-a3ff-5481318940c4"},"vehicle_type_id":"4","last_reported":1726311978,"current_range_meters":39200,"station_id":"ce4bhn12rcd13ifvqgqg","pricing_plan_id":"cebpf4jnsgd1na2vs0mg"},{"bike_id":"2ed5694e-985d-41ea-bbd0-42b6768db650","system_id":"levelo_inurba_marseille","lat":43.29103,"lon":5.38124,"is_reserved":false,"is_disabled":false,"rental_uris":{"android":"levelo://app?vid=2ed5694e-985d-41ea-bbd0-42b6768db650","ios":"levelo://app?vid=2ed5694e-985d-41ea-bbd0-42b6768db650"},"vehicle_type_id":"4","last_reported":1726311978,"current_range_meters":12400,"station_id":"ce4bh512rcd13ifvqe2g","pricing_plan_id":"cebpf4jnsgd1na2vs0mg"},{"bike_id":"995d3a7e-289e-4ebd-b785-9d2da426ad57","system_id":"levelo_inurba_marseille","lat":43.23193,"lon":5.35543,"is_reserved":false,"is_disabled":false,"rental_uris":{"android":"levelo://app?vid=995d3a7e-289e-4ebd-b785-9d2da426ad57","ios":"levelo://app?vid=995d3a7e-289e-4ebd-b785-9d2da426ad57"},"vehicle_type_id":"4","last_reported":1726311978,"current_range_meters":21600,"station_id":"ce4bhu92rcd13ifvqi70","pricing_plan_id":"cebpf4jnsgd1na2vs0mg"},{"bike_id":"74c67d55-8a5f-40c9-8066-d68354718f8c","system_id":"levelo_inurba_marseille","lat":43.23189,"lon":5.35555,"is_reserved":false,"is_disabled":false,"rental_uris":{"android":"levelo://app?vid=74c67d55-8a5f-40c9-8066-d68354718f8c","ios":"levelo://app?vid=74c67d55-8a5f-40c9-8066-d68354718f8c"},"vehicle_type_id":"4","last_reported":1726311978,"current_range_meters":26000,"station_id":"ce4bhu92rcd13ifvqi70","pricing_plan_id":"cebpf4jnsgd1na2vs0mg"},{"bike_id":"bbff06e8-e26c-4f4a-87c2-0dbc5a84f5ee","system_id":"levelo_inurba_marseille","lat":43.3055,"lon":5.36542,"is_reserved":false,"is_disabled":false,"rental_uris":{"android":"levelo://app?vid=bbff06e8-e26c-4f4a-87c2-0dbc5a84f5ee","ios":"levelo://app?vid=bbff06e8-e26c-4f4a-87c2-0dbc5a84f5ee"},"vehicle_type_id":"4","last_reported":1726311978,"current_range_meters":38800,"station_id":"ce4bgs12rcd13ifvqcag","pricing_plan_id":"cebpf4jnsgd1na2vs0mg"},{"bike_id":"24674f4b-bcb6-4d3e-a74d-7d8a6acb125c","system_id":"levelo_inurba_marseille","lat":43.24988,"lon":5.38938,"is_reserved":false,"is_disabled":false,"rental_uris":{"android":"levelo://app?vid=24674f4b-bcb6-4d3e-a74d-7d8a6acb125c","ios":"levelo://app?vid=24674f4b-bcb6-4d3e-a74d-7d8a6acb125c"},"vehicle_type_id":"4","last_reported":1726311978,"current_range_meters":28000,"station_id":"ce4bhgp2rcd13ifvqfd0","pricing_plan_id":"cebpf4jnsgd1na2vs0mg"},{"bike_id":"c810d6b7-9e0b-4807-98d4-ce8673d16f3c","system_id":"levelo_inurba_marseille","lat":43.29725,"lon":5.37905,"is_reserved":false,"is_disabled":false,"rental_uris":{"android":"levelo://app?vid=c810d6b7-9e0b-4807-98d4-ce8673d16f3c","ios":"levelo://app?vid=c810d6b7-9e0b-4807-98d4-ce8673d16f3c"},"vehicle_type_id":"4","last_reported":1726311978,"current_range_meters":38800,"station_id":"","pricing_plan_id":"cebpf4jnsgd1na2vs0mg"},{"bike_id":"5d4d196a-dcd3-401c-bbda-3dae8babdc01","system_id":"levelo_inurba_marseille","lat":43.26209,"lon":5.37925,"is_reserved":false,"is_disabled":false,"rental_uris":{"android":"levelo://app?vid=5d4d196a-dcd3-401c-bbda-3dae8babdc01","ios":"levelo://app?vid=5d4d196a-dcd3-401c-bbda-3dae8babdc01"},"vehicle_type_id":"4","last_reported":1726311978,"current_range_meters":30400,"station_id":"ce4bhjp2rcd13ifvqg90","pricing_plan_id":"cebpf4jnsgd1na2vs0mg"},{"bike_id":"ebf80336-abd3-469d-bae5-f37f1743b262","system_id":"levelo_inurba_marseille","lat":43.2987,"lon":5.39738,"is_reserved":false,"is_disabled":false,"rental_uris":{"android":"levelo://app?vid=ebf80336-abd3-469d-bae5-f37f1743b262","ios":"levelo://app?vid=ebf80336-abd3-469d-bae5-f37f1743b262"},"vehicle_type_id":"4","last_reported":1726311978,"current_range_meters":30400,"station_id":"ce4bh0h2rcd13ifvqd50","pricing_plan_id":"cebpf4jnsgd1na2vs0mg"},{"bike_id":"c00a267b-9f51-4707-9b6f-5420e973cb11","system_id":"levelo_inurba_marseille","lat":43.25724,"lon":5.41108,"is_reserved":false,"is_disabled":false,"rental_uris":{"android":"levelo://app?vid=c00a267b-9f51-4707-9b6f-5420e973cb11","ios":"levelo://app?vid=c00a267b-9f51-4707-9b6f-5420e973cb11"},"vehicle_type_id":"4","last_reported":1726311978,"current_range_meters":28800,"station_id":"ce4bhkp2rcd13ifvqgd0","pricing_plan_id":"cebpf4jnsgd1na2vs0mg"},{"bike_id":"e6bea8cd-bd1a-48c2-8a52-de5e2a98c0f4","system_id":"levelo_inurba_marseille","lat":43.25939,"lon":5.409,"is_reserved":false,"is_disabled":false,"rental_uris":{"android":"levelo://app?vid=e6bea8cd-bd1a-48c2-8a52-de5e2a98c0f4","ios":"levelo://app?vid=e6bea8cd-bd1a-48c2-8a52-de5e2a98c0f4"},"vehicle_type_id":"4","last_reported":1726311978,"current_range_meters":33200,"station_id":"ce4bhm92rcd13ifvqglg","pricing_plan_id":"cebpf4jnsgd1na2vs0mg"},{"bike_id":"9c28ec0f-4c95-4721-aa62-afca5f4a4fb7","system_id":"levelo_inurba_marseille","lat":43.30358,"lon":5.38016,"is_reserved":false,"is_disabled":false,"rental_uris":{"android":"levelo://app?vid=9c28ec0f-4c95-4721-aa62-afca5f4a4fb7","ios":"levelo://app?vid=9c28ec0f-4c95-4721-aa62-afca5f4a4fb7"},"vehicle_type_id":"4","last_reported":1726311978,"current_range_meters":9200,"station_id":"","pricing_plan_id":"cebpf4jnsgd1na2vs0mg"},{"bike_id":"44f09c39-e560-4787-855a-6c24192c7f7b","system_id":"levelo_inurba_marseille","lat":43.33027,"lon":5.39036,"is_reserved":false,"is_disabled":false,"rental_uris":{"android":"levelo://app?vid=44f09c39-e560-4787-855a-6c24192c7f7b","ios":"levelo://app?vid=44f09c39-e560-4787-855a-6c24192c7f7b"},"vehicle_type_id":"4","last_reported":1726311978,"current_range_meters":22400,"station_id":"ce4bhr92rcd13ifvqhrg","pricing_plan_id":"cebpf4jnsgd1na2vs0mg"},{"bike_id":"387e2495-1748-4ea7-b7db-3d25e02ef232","system_id":"levelo_inurba_marseille","lat":43.29004,"lon":5.35604,"is_reserved":false,"is_disabled":false,"rental_uris":{"android":"levelo://app?vid=387e2495-1748-4ea7-b7db-3d25e02ef232","ios":"levelo://app?vid=387e2495-1748-4ea7-b7db-3d25e02ef232"},"vehicle_type_id":"4","last_reported":1726311978,"current_range_meters":8800,"station_id":"ce4bhb92rcd13ifvqen0","pricing_plan_id":"cebpf4jnsgd1na2vs0mg"},{"bike_id":"5aafe54a-7674-46d1-89a0-9d31fda0c841","system_id":"levelo_inurba_marseille","lat":43.28407,"lon":5.37509,"is_reserved":false,"is_disabled":false,"rental_uris":{"android":"levelo://app?vid=5aafe54a-7674-46d1-89a0-9d31fda0c841","ios":"levelo://app?vid=5aafe54a-7674-46d1-89a0-9d31fda0c841"},"vehicle_type_id":"4","last_reported":1726311978,"current_range_meters":5600,"station_id":"ce4bh412rcd13ifvqds0","pricing_plan_id":"cebpf4jnsgd1na2vs0mg"},{"bike_id":"6df5c4d3-301d-4715-9fb9-e2b5fd259435","system_id":"levelo_inurba_marseille","lat":43.298591,"lon":5.362979,"is_reserved":false,"is_disabled":false,"rental_uris":{"android":"levelo://app?vid=6df5c4d3-301d-4715-9fb9-e2b5fd259435","ios":"levelo://app?vid=6df5c4d3-301d-4715-9fb9-e2b5fd259435"},"vehicle_type_id":"4","last_reported":1726311978,"current_range_meters":16800,"station_id":"ce4bgpp2rcd13ifvqc3g","pricing_plan_id":"cebpf4jnsgd1na2vs0mg"},{"bike_id":"7e862e61-75da-4e7f-8e5f-793a48533c82","system_id":"levelo_inurba_marseille","lat":43.24805,"lon":5.37454,"is_reserved":false,"is_disabled":false,"rental_uris":{"android":"levelo://app?vid=7e862e61-75da-4e7f-8e5f-793a48533c82","ios":"levelo://app?vid=7e862e61-75da-4e7f-8e5f-793a48533c82"},"vehicle_type_id":"4","last_reported":1726311978,"current_range_meters":10800,"station_id":"ce4bhgh2rcd13ifvqfb0","pricing_plan_id":"cebpf4jnsgd1na2vs0mg"},{"bike_id":"34721204-9cc8-4128-8304-5b698c26b1e6","system_id":"levelo_inurba_marseille","lat":43.23182,"lon":5.3998,"is_reserved":false,"is_disabled":false,"rental_uris":{"android":"levelo://app?vid=34721204-9cc8-4128-8304-5b698c26b1e6","ios":"levelo://app?vid=34721204-9cc8-4128-8304-5b698c26b1e6"},"vehicle_type_id":"4","last_reported":1726311978,"current_range_meters":39200,"station_id":"ce4bhn12rcd13ifvqgqg","pricing_plan_id":"cebpf4jnsgd1na2vs0mg"},{"bike_id":"7ed33938-c7db-4cac-9cdc-6edba2702770","system_id":"levelo_inurba_marseille","lat":43.31327,"lon":5.39693,"is_reserved":false,"is_disabled":false,"rental_uris":{"android":"levelo://app?vid=7ed33938-c7db-4cac-9cdc-6edba2702770","ios":"levelo://app?vid=7ed33938-c7db-4cac-9cdc-6edba2702770"},"vehicle_type_id":"4","last_reported":1726311978,"current_range_meters":22400,"station_id":"ce4bgvp2rcd13ifvqcu0","pricing_plan_id":"cebpf4jnsgd1na2vs0mg"},{"bike_id":"247b8361-551c-41cb-9119-0fa9e0121982","system_id":"levelo_inurba_marseille","lat":43.2808,"lon":5.39659,"is_reserved":false,"is_disabled":false,"rental_uris":{"android":"levelo://app?vid=247b8361-551c-41cb-9119-0fa9e0121982","ios":"levelo://app?vid=247b8361-551c-41cb-9119-0fa9e0121982"},"vehicle_type_id":"4","last_reported":1726311978,"current_range_meters":39200,"station_id":"ce4bho12rcd13ifvqh2g","pricing_plan_id":"cebpf4jnsgd1na2vs0mg"},{"bike_id":"ad723d0b-19fc-4bd0-8eec-a408c1d7f33b","system_id":"levelo_inurba_marseille","lat":43.25501,"lon":5.37653,"is_reserved":false,"is_disabled":false,"rental_uris":{"android":"levelo://app?vid=ad723d0b-19fc-4bd0-8eec-a408c1d7f33b","ios":"levelo://app?vid=ad723d0b-19fc-4bd0-8eec-a408c1d7f33b"},"vehicle_type_id":"4","last_reported":1726311978,"current_range_meters":33600,"station_id":"ce4bhh12rcd13ifvqff0","pricing_plan_id":"cebpf4jnsgd1na2vs0mg"},{"bike_id":"b3c64ca3-fb28-47f1-8c09-61986e06e763","system_id":"levelo_inurba_marseille","lat":43.29807,"lon":5.38099,"is_reserved":false,"is_disabled":false,"rental_uris":{"android":"levelo://app?vid=b3c64ca3-fb28-47f1-8c09-61986e06e763","ios":"levelo://app?vid=b3c64ca3-fb28-47f1-8c09-61986e06e763"},"vehicle_type_id":"4","last_reported":1726311978,"current_range_meters":38800,"station_id":"ce4bgip2rcd13ifvqbb0","pricing_plan_id":"cebpf4jnsgd1na2vs0mg"},{"bike_id":"151e20e5-6fd3-4eb4-a3da-5c2fa286920a","system_id":"levelo_inurba_marseille","lat":43.28415,"lon":5.34991,"is_reserved":false,"is_disabled":false,"rental_uris":{"android":"levelo://app?vid=151e20e5-6fd3-4eb4-a3da-5c2fa286920a","ios":"levelo://app?vid=151e20e5-6fd3-4eb4-a3da-5c2fa286920a"},"vehicle_type_id":"4","last_reported":1726311978,"current_range_meters":38400,"station_id":"ce4bhbh2rcd13ifvqepg","pricing_plan_id":"cebpf4jnsgd1na2vs0mg"},{"bike_id":"952ed40c-6248-4b56-93b4-2585d4b9d4bd","system_id":"levelo_inurba_marseille","lat":43.282727,"lon":5.350678,"is_reserved":false,"is_disabled":false,"rental_uris":{"android":"levelo://app?vid=952ed40c-6248-4b56-93b4-2585d4b9d4bd","ios":"levelo://app?vid=952ed40c-6248-4b56-93b4-2585d4b9d4bd"},"vehicle_type_id":"4","last_reported":1726311978,"current_range_meters":26000,"station_id":"ce4bhbp2rcd13ifvqerg","pricing_plan_id":"cebpf4jnsgd1na2vs0mg"},{"bike_id":"4537378f-d6c9-4baa-a653-6048ce9e324b","system_id":"levelo_inurba_marseille","lat":43.294451,"lon":5.397416,"is_reserved":false,"is_disabled":false,"rental_uris":{"android":"levelo://app?vid=4537378f-d6c9-4baa-a653-6048ce9e324b","ios":"levelo://app?vid=4537378f-d6c9-4baa-a653-6048ce9e324b"},"vehicle_type_id":"4","last_reported":1726311978,"current_range_meters":11200,"station_id":"ce4bhgh2rcd13ifvqfb0","pricing_plan_id":"cebpf4jnsgd1na2vs0mg"},{"bike_id":"cafedc60-9ced-443a-a21c-5b80420fa033","system_id":"levelo_inurba_marseille","lat":43.265376,"lon":5.390694,"is_reserved":false,"is_disabled":false,"rental_uris":{"android":"levelo://app?vid=cafedc60-9ced-443a-a21c-5b80420fa033","ios":"levelo://app?vid=cafedc60-9ced-443a-a21c-5b80420fa033"},"vehicle_type_id":"4","last_reported":1726311978,"current_range_meters":10000,"station_id":"ce4bhe12rcd13ifvqf30","pricing_plan_id":"cebpf4jnsgd1na2vs0mg"},{"bike_id":"46cc3877-36d1-49fa-ae53-704c9f61cf67","system_id":"levelo_inurba_marseille","lat":43.30462,"lon":5.37903,"is_reserved":false,"is_disabled":false,"rental_uris":{"android":"levelo://app?vid=46cc3877-36d1-49fa-ae53-704c9f61cf67","ios":"levelo://app?vid=46cc3877-36d1-49fa-ae53-704c9f61cf67"},"vehicle_type_id":"4","last_reported":1726311978,"current_range_meters":25600,"station_id":"ce4bgup2rcd13ifvqcn0","pricing_plan_id":"cebpf4jnsgd1na2vs0mg"},{"bike_id":"7d662bf7-8893-486a-8299-d974340c9a60","system_id":"levelo_inurba_marseille","lat":43.28456,"lon":5.35885,"is_reserved":false,"is_disabled":false,"rental_uris":{"android":"levelo://app?vid=7d662bf7-8893-486a-8299-d974340c9a60","ios":"levelo://app?vid=7d662bf7-8893-486a-8299-d974340c9a60"},"vehicle_type_id":"4","last_reported":1726311978,"current_range_meters":38800,"station_id":"ce4bhah2rcd13ifvqei0","pricing_plan_id":"cebpf4jnsgd1na2vs0mg"},{"bike_id":"3ff49cd6-2a38-448d-a324-90182f8f251b","system_id":"levelo_inurba_marseille","lat":43.305504,"lon":5.365285,"is_reserved":false,"is_disabled":false,"rental_uris":{"android":"levelo://app?vid=3ff49cd6-2a38-448d-a324-90182f8f251b","ios":"levelo://app?vid=3ff49cd6-2a38-448d-a324-90182f8f251b"},"vehicle_type_id":"4","last_reported":1726311978,"current_range_meters":26000,"station_id":"ce4bgs12rcd13ifvqcag","pricing_plan_id":"cebpf4jnsgd1na2vs0mg"},{"bike_id":"5e2bbf68-cab4-4116-9f80-5d0e95925c4a","system_id":"levelo_inurba_marseille","lat":43.231846,"lon":5.399898,"is_reserved":false,"is_disabled":false,"rental_uris":{"android":"levelo://app?vid=5e2bbf68-cab4-4116-9f80-5d0e95925c4a","ios":"levelo://app?vid=5e2bbf68-cab4-4116-9f80-5d0e95925c4a"},"vehicle_type_id":"4","last_reported":1726311978,"current_range_meters":8800,"station_id":"ce4bhn12rcd13ifvqgqg","pricing_plan_id":"cebpf4jnsgd1na2vs0mg"},{"bike_id":"eaf3218e-3b2a-4dde-9c15-99a6c4254e56","system_id":"levelo_inurba_marseille","lat":43.29893,"lon":5.43667,"is_reserved":false,"is_disabled":false,"rental_uris":{"android":"levelo://app?vid=eaf3218e-3b2a-4dde-9c15-99a6c4254e56","ios":"levelo://app?vid=eaf3218e-3b2a-4dde-9c15-99a6c4254e56"},"vehicle_type_id":"4","last_reported":1726311978,"current_range_meters":39200,"station_id":"ce4bhpp2rcd13ifvqhfg","pricing_plan_id":"cebpf4jnsgd1na2vs0mg"},{"bike_id":"083f80f9-af32-4b4b-98d9-51e7c9548087","system_id":"levelo_inurba_marseille","lat":43.32366,"lon":5.3888,"is_reserved":false,"is_disabled":false,"rental_uris":{"android":"levelo://app?vid=083f80f9-af32-4b4b-98d9-51e7c9548087","ios":"levelo://app?vid=083f80f9-af32-4b4b-98d9-51e7c9548087"},"vehicle_type_id":"4","last_reported":1726311978,"current_range_meters":11200,"station_id":"ce4bhqp2rcd13ifvqhog","pricing_plan_id":"cebpf4jnsgd1na2vs0mg"},{"bike_id":"16ca6d91-7513-415c-9a61-5d33eb8ad677","system_id":"levelo_inurba_marseille","lat":43.22934,"lon":5.35374,"is_reserved":false,"is_disabled":false,"rental_uris":{"android":"levelo://app?vid=16ca6d91-7513-415c-9a61-5d33eb8ad677","ios":"levelo://app?vid=16ca6d91-7513-415c-9a61-5d33eb8ad677"},"vehicle_type_id":"4","last_reported":1726311978,"current_range_meters":23200,"station_id":"cpo3532slgdg3j2ikp40","pricing_plan_id":"cebpf4jnsgd1na2vs0mg"},{"bike_id":"692071dd-4085-4553-ae0d-2bb21b33a2d8","system_id":"levelo_inurba_marseille","lat":43.24811,"lon":5.37469,"is_reserved":false,"is_disabled":false,"rental_uris":{"android":"levelo://app?vid=692071dd-4085-4553-ae0d-2bb21b33a2d8","ios":"levelo://app?vid=692071dd-4085-4553-ae0d-2bb21b33a2d8"},"vehicle_type_id":"4","last_reported":1726311978,"current_range_meters":4800,"station_id":"ce4bhgh2rcd13ifvqfb0","pricing_plan_id":"cebpf4jnsgd1na2vs0mg"},{"bike_id":"10cedbb4-1c1f-4b0e-acdf-6f0391c23bdc","system_id":"levelo_inurba_marseille","lat":43.28036,"lon":5.36934,"is_reserved":false,"is_disabled":false,"rental_uris":{"android":"levelo://app?vid=10cedbb4-1c1f-4b0e-acdf-6f0391c23bdc","ios":"levelo://app?vid=10cedbb4-1c1f-4b0e-acdf-6f0391c23bdc"},"vehicle_type_id":"4","last_reported":1726311978,"current_range_meters":6800,"station_id":"ce4bha12rcd13ifvqef0","pricing_plan_id":"cebpf4jnsgd1na2vs0mg"},{"bike_id":"971ff03d-2a2d-41c0-ac36-02885eb856b5","system_id":"levelo_inurba_marseille","lat":43.23965,"lon":5.36629,"is_reserved":false,"is_disabled":false,"rental_uris":{"android":"levelo://app?vid=971ff03d-2a2d-41c0-ac36-02885eb856b5","ios":"levelo://app?vid=971ff03d-2a2d-41c0-ac36-02885eb856b5"},"vehicle_type_id":"4","last_reported":1726311978,"current_range_meters":32800,"station_id":"ce4bhi12rcd13ifvqfp0","pricing_plan_id":"cebpf4jnsgd1na2vs0mg"},{"bike_id":"f4c36463-ddf2-4e8a-90a8-c12391e72ce0","system_id":"levelo_inurba_marseille","lat":43.28267,"lon":5.35076,"is_reserved":false,"is_disabled":false,"rental_uris":{"android":"levelo://app?vid=f4c36463-ddf2-4e8a-90a8-c12391e72ce0","ios":"levelo://app?vid=f4c36463-ddf2-4e8a-90a8-c12391e72ce0"},"vehicle_type_id":"4","last_reported":1726311978,"current_range_meters":38800,"station_id":"ce4bhbp2rcd13ifvqerg","pricing_plan_id":"cebpf4jnsgd1na2vs0mg"},{"bike_id":"ce45b02b-b167-4654-b305-eb82cd566863","system_id":"levelo_inurba_marseille","lat":43.23195,"lon":5.35561,"is_reserved":false,"is_disabled":false,"rental_uris":{"android":"levelo://app?vid=ce45b02b-b167-4654-b305-eb82cd566863","ios":"levelo://app?vid=ce45b02b-b167-4654-b305-eb82cd566863"},"vehicle_type_id":"4","last_reported":1726311978,"current_range_meters":26000,"station_id":"ce4bhu92rcd13ifvqi70","pricing_plan_id":"cebpf4jnsgd1na2vs0mg"},{"bike_id":"adcb2799-f98b-4211-8486-bfe52e35b9d0","system_id":"levelo_inurba_marseille","lat":43.30422,"lon":5.3975,"is_reserved":false,"is_disabled":false,"rental_uris":{"android":"levelo://app?vid=adcb2799-f98b-4211-8486-bfe52e35b9d0","ios":"levelo://app?vid=adcb2799-f98b-4211-8486-bfe52e35b9d0"},"vehicle_type_id":"4","last_reported":1726311978,"current_range_meters":40000,"station_id":"ce4bh092rcd13ifvqd20","pricing_plan_id":"cebpf4jnsgd1na2vs0mg"},{"bike_id":"51adb740-355f-428f-a237-f92dbb0c3374","system_id":"levelo_inurba_marseille","lat":43.30256,"lon":5.39698,"is_reserved":false,"is_disabled":false,"rental_uris":{"android":"levelo://app?vid=51adb740-355f-428f-a237-f92dbb0c3374","ios":"levelo://app?vid=51adb740-355f-428f-a237-f92dbb0c3374"},"vehicle_type_id":"4","last_reported":1726311978,"current_range_meters":28800,"station_id":"","pricing_plan_id":"cebpf4jnsgd1na2vs0mg"},{"bike_id":"920ab188-b742-46ff-82da-fa33f8f84c2e","system_id":"levelo_inurba_marseille","lat":43.23067,"lon":5.35496,"is_reserved":false,"is_disabled":false,"rental_uris":{"android":"levelo://app?vid=920ab188-b742-46ff-82da-fa33f8f84c2e","ios":"levelo://app?vid=920ab188-b742-46ff-82da-fa33f8f84c2e"},"vehicle_type_id":"4","last_reported":1726311978,"current_range_meters":25200,"station_id":"cpo3342slgdg3j2ifvpg","pricing_plan_id":"cebpf4jnsgd1na2vs0mg"},{"bike_id":"26db0265-0a91-4c66-8aa8-67a94f7eef0d","system_id":"levelo_inurba_marseille","lat":43.26937,"lon":5.40047,"is_reserved":false,"is_disabled":false,"rental_uris":{"android":"levelo://app?vid=26db0265-0a91-4c66-8aa8-67a94f7eef0d","ios":"levelo://app?vid=26db0265-0a91-4c66-8aa8-67a94f7eef0d"},"vehicle_type_id":"4","last_reported":1726311978,"current_range_meters":18000,"station_id":"","pricing_plan_id":"cebpf4jnsgd1na2vs0mg"},{"bike_id":"9b49fc06-69dc-4375-9bc8-2ab31283d424","system_id":"levelo_inurba_marseille","lat":43.299,"lon":5.43666,"is_reserved":false,"is_disabled":false,"rental_uris":{"android":"levelo://app?vid=9b49fc06-69dc-4375-9bc8-2ab31283d424","ios":"levelo://app?vid=9b49fc06-69dc-4375-9bc8-2ab31283d424"},"vehicle_type_id":"4","last_reported":1726311978,"current_range_meters":33200,"station_id":"ce4bhpp2rcd13ifvqhfg","pricing_plan_id":"cebpf4jnsgd1na2vs0mg"},{"bike_id":"4d75d199-02f1-485e-aa16-89176ed2c212","system_id":"levelo_inurba_marseille","lat":43.31165,"lon":5.39351,"is_reserved":false,"is_disabled":false,"rental_uris":{"android":"levelo://app?vid=4d75d199-02f1-485e-aa16-89176ed2c212","ios":"levelo://app?vid=4d75d199-02f1-485e-aa16-89176ed2c212"},"vehicle_type_id":"4","last_reported":1726311978,"current_range_meters":27200,"station_id":"","pricing_plan_id":"cebpf4jnsgd1na2vs0mg"},{"bike_id":"3052a5de-0f67-4c14-800e-1b952c8b850b","system_id":"levelo_inurba_marseille","lat":43.2508,"lon":5.39513,"is_reserved":false,"is_disabled":false,"rental_uris":{"android":"levelo://app?vid=3052a5de-0f67-4c14-800e-1b952c8b850b","ios":"levelo://app?vid=3052a5de-0f67-4c14-800e-1b952c8b850b"},"vehicle_type_id":"4","last_reported":1726311978,"current_range_meters":25600,"station_id":"ce4bhm12rcd13ifvqgkg","pricing_plan_id":"cebpf4jnsgd1na2vs0mg"},{"bike_id":"c7cd67a6-2f65-43e6-9e58-1489cab32866","system_id":"levelo_inurba_marseille","lat":43.24166,"lon":5.36395,"is_reserved":false,"is_disabled":false,"rental_uris":{"android":"levelo://app?vid=c7cd67a6-2f65-43e6-9e58-1489cab32866","ios":"levelo://app?vid=c7cd67a6-2f65-43e6-9e58-1489cab32866"},"vehicle_type_id":"4","last_reported":1726311978,"current_range_meters":38800,"station_id":"cpo36qri1sfpv3e86is0","pricing_plan_id":"cebpf4jnsgd1na2vs0mg"},{"bike_id":"1378d9b7-aa84-48e9-9c1b-9b129112f4dc","system_id":"levelo_inurba_marseille","lat":43.28617,"lon":5.35103,"is_reserved":false,"is_disabled":false,"rental_uris":{"android":"levelo://app?vid=1378d9b7-aa84-48e9-9c1b-9b129112f4dc","ios":"levelo://app?vid=1378d9b7-aa84-48e9-9c1b-9b129112f4dc"},"vehicle_type_id":"4","last_reported":1726311978,"current_range_meters":30000,"station_id":"ce4bhch2rcd13ifvqeug","pricing_plan_id":"cebpf4jnsgd1na2vs0mg"},{"bike_id":"29630ce8-9731-4825-b46c-649b98b42a5a","system_id":"levelo_inurba_marseille","lat":43.30152,"lon":5.38088,"is_reserved":false,"is_disabled":false,"rental_uris":{"android":"levelo://app?vid=29630ce8-9731-4825-b46c-649b98b42a5a","ios":"levelo://app?vid=29630ce8-9731-4825-b46c-649b98b42a5a"},"vehicle_type_id":"4","last_reported":1726311978,"current_range_meters":24400,"station_id":"ce4bgjp2rcd13ifvqbh0","pricing_plan_id":"cebpf4jnsgd1na2vs0mg"},{"bike_id":"a3a9dae5-ec07-44c5-a17c-64dff4681462","system_id":"levelo_inurba_marseille","lat":43.25499,"lon":5.37651,"is_reserved":false,"is_disabled":false,"rental_uris":{"android":"levelo://app?vid=a3a9dae5-ec07-44c5-a17c-64dff4681462","ios":"levelo://app?vid=a3a9dae5-ec07-44c5-a17c-64dff4681462"},"vehicle_type_id":"4","last_reported":1726311978,"current_range_meters":36000,"station_id":"ce4bhh12rcd13ifvqff0","pricing_plan_id":"cebpf4jnsgd1na2vs0mg"},{"bike_id":"02092a38-546f-4b64-9ad0-5742c060056e","system_id":"levelo_inurba_marseille","lat":43.29365,"lon":5.37854,"is_reserved":false,"is_disabled":false,"rental_uris":{"android":"levelo://app?vid=02092a38-546f-4b64-9ad0-5742c060056e","ios":"levelo://app?vid=02092a38-546f-4b64-9ad0-5742c060056e"},"vehicle_type_id":"4","last_reported":1726311978,"current_range_meters":40000,"station_id":"ce4bgjh2rcd13ifvqbf0","pricing_plan_id":"cebpf4jnsgd1na2vs0mg"},{"bike_id":"e00d038a-00c7-4258-ab4b-259bdb081cfd","system_id":"levelo_inurba_marseille","lat":43.23201,"lon":5.35547,"is_reserved":false,"is_disabled":false,"rental_uris":{"android":"levelo://app?vid=e00d038a-00c7-4258-ab4b-259bdb081cfd","ios":"levelo://app?vid=e00d038a-00c7-4258-ab4b-259bdb081cfd"},"vehicle_type_id":"4","last_reported":1726311978,"current_range_meters":36800,"station_id":"ce4bhu92rcd13ifvqi70","pricing_plan_id":"cebpf4jnsgd1na2vs0mg"},{"bike_id":"4f847161-8733-40c0-9d1a-924c211b3057","system_id":"levelo_inurba_marseille","lat":43.23194,"lon":5.35551,"is_reserved":false,"is_disabled":false,"rental_uris":{"android":"levelo://app?vid=4f847161-8733-40c0-9d1a-924c211b3057","ios":"levelo://app?vid=4f847161-8733-40c0-9d1a-924c211b3057"},"vehicle_type_id":"4","last_reported":1726311978,"current_range_meters":37600,"station_id":"ce4bhu92rcd13ifvqi70","pricing_plan_id":"cebpf4jnsgd1na2vs0mg"},{"bike_id":"6a0ba89f-d9cb-4b15-ad4d-931592dbcc7a","system_id":"levelo_inurba_marseille","lat":43.26912,"lon":5.40284,"is_reserved":false,"is_disabled":false,"rental_uris":{"android":"levelo://app?vid=6a0ba89f-d9cb-4b15-ad4d-931592dbcc7a","ios":"levelo://app?vid=6a0ba89f-d9cb-4b15-ad4d-931592dbcc7a"},"vehicle_type_id":"4","last_reported":1726311978,"current_range_meters":15200,"station_id":"cjm6bp8fraef2m0cb0m0","pricing_plan_id":"cebpf4jnsgd1na2vs0mg"},{"bike_id":"8ce4abbe-aae7-434c-b92a-9bec98856472","system_id":"levelo_inurba_marseille","lat":43.25577,"lon":5.38234,"is_reserved":false,"is_disabled":false,"rental_uris":{"android":"levelo://app?vid=8ce4abbe-aae7-434c-b92a-9bec98856472","ios":"levelo://app?vid=8ce4abbe-aae7-434c-b92a-9bec98856472"},"vehicle_type_id":"4","last_reported":1726311978,"current_range_meters":19600,"station_id":"ce4bhih2rcd13ifvqfs0","pricing_plan_id":"cebpf4jnsgd1na2vs0mg"},{"bike_id":"244e33f6-a964-44b0-b04c-47ca07c5fe68","system_id":"levelo_inurba_marseille","lat":43.31481,"lon":5.3731,"is_reserved":false,"is_disabled":false,"rental_uris":{"android":"levelo://app?vid=244e33f6-a964-44b0-b04c-47ca07c5fe68","ios":"levelo://app?vid=244e33f6-a964-44b0-b04c-47ca07c5fe68"},"vehicle_type_id":"4","last_reported":1726311978,"current_range_meters":24000,"station_id":"ce4bgt12rcd13ifvqcd0","pricing_plan_id":"cebpf4jnsgd1na2vs0mg"},{"bike_id":"02498970-47d0-4bb1-af00-8fd9bd03c741","system_id":"levelo_inurba_marseille","lat":43.301354,"lon":5.387772,"is_reserved":false,"is_disabled":false,"rental_uris":{"android":"levelo://app?vid=02498970-47d0-4bb1-af00-8fd9bd03c741","ios":"levelo://app?vid=02498970-47d0-4bb1-af00-8fd9bd03c741"},"vehicle_type_id":"4","last_reported":1726311978,"current_range_meters":38800,"station_id":"ce4bghh2rcd13ifvqb60","pricing_plan_id":"cebpf4jnsgd1na2vs0mg"},{"bike_id":"8acc2489-6139-4244-afff-2e0a167a395a","system_id":"levelo_inurba_marseille","lat":43.30545,"lon":5.36539,"is_reserved":false,"is_disabled":false,"rental_uris":{"android":"levelo://app?vid=8acc2489-6139-4244-afff-2e0a167a395a","ios":"levelo://app?vid=8acc2489-6139-4244-afff-2e0a167a395a"},"vehicle_type_id":"4","last_reported":1726311978,"current_range_meters":24800,"station_id":"ce4bgs12rcd13ifvqcag","pricing_plan_id":"cebpf4jnsgd1na2vs0mg"},{"bike_id":"c2faa373-4647-4564-9c87-b66a925a3ce9","system_id":"levelo_inurba_marseille","lat":43.27208,"lon":5.39189,"is_reserved":false,"is_disabled":false,"rental_uris":{"android":"levelo://app?vid=c2faa373-4647-4564-9c87-b66a925a3ce9","ios":"levelo://app?vid=c2faa373-4647-4564-9c87-b66a925a3ce9"},"vehicle_type_id":"4","last_reported":1726311978,"current_range_meters":30800,"station_id":"ce4bhhp2rcd13ifvqfm0","pricing_plan_id":"cebpf4jnsgd1na2vs0mg"},{"bike_id":"9e6b05d9-5b9e-4e8c-a7ed-a6aa23fe9a42","system_id":"levelo_inurba_marseille","lat":43.28608,"lon":5.35104,"is_reserved":false,"is_disabled":false,"rental_uris":{"android":"levelo://app?vid=9e6b05d9-5b9e-4e8c-a7ed-a6aa23fe9a42","ios":"levelo://app?vid=9e6b05d9-5b9e-4e8c-a7ed-a6aa23fe9a42"},"vehicle_type_id":"4","last_reported":1726311978,"current_range_meters":28400,"station_id":"ce4bhch2rcd13ifvqeug","pricing_plan_id":"cebpf4jnsgd1na2vs0mg"},{"bike_id":"7832068e-cb42-4de0-b6b2-e8ebbbbcfb22","system_id":"levelo_inurba_marseille","lat":43.23968,"lon":5.36635,"is_reserved":false,"is_disabled":false,"rental_uris":{"android":"levelo://app?vid=7832068e-cb42-4de0-b6b2-e8ebbbbcfb22","ios":"levelo://app?vid=7832068e-cb42-4de0-b6b2-e8ebbbbcfb22"},"vehicle_type_id":"4","last_reported":1726311978,"current_range_meters":40000,"station_id":"ce4bhi12rcd13ifvqfp0","pricing_plan_id":"cebpf4jnsgd1na2vs0mg"},{"bike_id":"5f73522a-6d77-4158-aee6-8c14f8a47df1","system_id":"levelo_inurba_marseille","lat":43.25582,"lon":5.38239,"is_reserved":false,"is_disabled":false,"rental_uris":{"android":"levelo://app?vid=5f73522a-6d77-4158-aee6-8c14f8a47df1","ios":"levelo://app?vid=5f73522a-6d77-4158-aee6-8c14f8a47df1"},"vehicle_type_id":"4","last_reported":1726311978,"current_range_meters":24000,"station_id":"ce4bhih2rcd13ifvqfs0","pricing_plan_id":"cebpf4jnsgd1na2vs0mg"},{"bike_id":"e235331f-296a-4f9e-a895-d2116fa3ab9b","system_id":"levelo_inurba_marseille","lat":43.25579,"lon":5.38235,"is_reserved":false,"is_disabled":false,"rental_uris":{"android":"levelo://app?vid=e235331f-296a-4f9e-a895-d2116fa3ab9b","ios":"levelo://app?vid=e235331f-296a-4f9e-a895-d2116fa3ab9b"},"vehicle_type_id":"4","last_reported":1726311978,"current_range_meters":14000,"station_id":"ce4bhih2rcd13ifvqfs0","pricing_plan_id":"cebpf4jnsgd1na2vs0mg"},{"bike_id":"a6e4fc3d-536c-413a-892a-6c2bea380f28","system_id":"levelo_inurba_marseille","lat":43.30782,"lon":5.3766,"is_reserved":false,"is_disabled":false,"rental_uris":{"android":"levelo://app?vid=a6e4fc3d-536c-413a-892a-6c2bea380f28","ios":"levelo://app?vid=a6e4fc3d-536c-413a-892a-6c2bea380f28"},"vehicle_type_id":"4","last_reported":1726311978,"current_range_meters":38400,"station_id":"ce4bgv92rcd13ifvqcq0","pricing_plan_id":"cebpf4jnsgd1na2vs0mg"},{"bike_id":"51efaa28-be78-438d-9593-a5c65646c0fd","system_id":"levelo_inurba_marseille","lat":43.25932,"lon":5.40909,"is_reserved":false,"is_disabled":false,"rental_uris":{"android":"levelo://app?vid=51efaa28-be78-438d-9593-a5c65646c0fd","ios":"levelo://app?vid=51efaa28-be78-438d-9593-a5c65646c0fd"},"vehicle_type_id":"4","last_reported":1726311978,"current_range_meters":34800,"station_id":"ce4bhm92rcd13ifvqglg","pricing_plan_id":"cebpf4jnsgd1na2vs0mg"},{"bike_id":"21f1670a-78a5-44cc-b6c0-5152ed0c65f9","system_id":"levelo_inurba_marseille","lat":43.2762,"lon":5.36112,"is_reserved":false,"is_disabled":false,"rental_uris":{"android":"levelo://app?vid=21f1670a-78a5-44cc-b6c0-5152ed0c65f9","ios":"levelo://app?vid=21f1670a-78a5-44cc-b6c0-5152ed0c65f9"},"vehicle_type_id":"4","last_reported":1726311978,"current_range_meters":39200,"station_id":"ce4bgj92rcd13ifvqbe0","pricing_plan_id":"cebpf4jnsgd1na2vs0mg"},{"bike_id":"a018f907-eb7a-4b5e-90dc-b0afc0b383c9","system_id":"levelo_inurba_marseille","lat":43.27493,"lon":5.42453,"is_reserved":false,"is_disabled":false,"rental_uris":{"android":"levelo://app?vid=a018f907-eb7a-4b5e-90dc-b0afc0b383c9","ios":"levelo://app?vid=a018f907-eb7a-4b5e-90dc-b0afc0b383c9"},"vehicle_type_id":"4","last_reported":1726311978,"current_range_meters":30400,"station_id":"ce4bhn92rcd13ifvqgrg","pricing_plan_id":"cebpf4jnsgd1na2vs0mg"},{"bike_id":"39088654-1493-49de-a50e-7af120c7f37c","system_id":"levelo_inurba_marseille","lat":43.2396,"lon":5.3663,"is_reserved":false,"is_disabled":false,"rental_uris":{"android":"levelo://app?vid=39088654-1493-49de-a50e-7af120c7f37c","ios":"levelo://app?vid=39088654-1493-49de-a50e-7af120c7f37c"},"vehicle_type_id":"4","last_reported":1726311978,"current_range_meters":38400,"station_id":"ce4bhi12rcd13ifvqfp0","pricing_plan_id":"cebpf4jnsgd1na2vs0mg"},{"bike_id":"486fb258-e430-4243-a710-d0d925b58ba5","system_id":"levelo_inurba_marseille","lat":43.30146,"lon":5.38079,"is_reserved":false,"is_disabled":false,"rental_uris":{"android":"levelo://app?vid=486fb258-e430-4243-a710-d0d925b58ba5","ios":"levelo://app?vid=486fb258-e430-4243-a710-d0d925b58ba5"},"vehicle_type_id":"4","last_reported":1726311978,"current_range_meters":12000,"station_id":"ce4bgjp2rcd13ifvqbh0","pricing_plan_id":"cebpf4jnsgd1na2vs0mg"},{"bike_id":"f1409f60-76f3-4334-898a-55e433cde666","system_id":"levelo_inurba_marseille","lat":43.26639,"lon":5.40186,"is_reserved":false,"is_disabled":false,"rental_uris":{"android":"levelo://app?vid=f1409f60-76f3-4334-898a-55e433cde666","ios":"levelo://app?vid=f1409f60-76f3-4334-898a-55e433cde666"},"vehicle_type_id":"4","last_reported":1726311978,"current_range_meters":33600,"station_id":"","pricing_plan_id":"cebpf4jnsgd1na2vs0mg"},{"bike_id":"eb53617c-6d10-4499-b162-720207b7d18c","system_id":"levelo_inurba_marseille","lat":43.245398,"lon":5.395002,"is_reserved":false,"is_disabled":false,"rental_uris":{"android":"levelo://app?vid=eb53617c-6d10-4499-b162-720207b7d18c","ios":"levelo://app?vid=eb53617c-6d10-4499-b162-720207b7d18c"},"vehicle_type_id":"4","last_reported":1726311978,"current_range_meters":38000,"station_id":"ce4bhlp2rcd13ifvqgjg","pricing_plan_id":"cebpf4jnsgd1na2vs0mg"},{"bike_id":"3b04105b-3d4a-4d6b-a0c7-58da2ab327f7","system_id":"levelo_inurba_marseille","lat":43.30148,"lon":5.38088,"is_reserved":false,"is_disabled":false,"rental_uris":{"android":"levelo://app?vid=3b04105b-3d4a-4d6b-a0c7-58da2ab327f7","ios":"levelo://app?vid=3b04105b-3d4a-4d6b-a0c7-58da2ab327f7"},"vehicle_type_id":"4","last_reported":1726311978,"current_range_meters":8400,"station_id":"ce4bgjp2rcd13ifvqbh0","pricing_plan_id":"cebpf4jnsgd1na2vs0mg"},{"bike_id":"5fb524c6-6782-40f2-8860-1e9e35f5431a","system_id":"levelo_inurba_marseille","lat":43.28364,"lon":5.38631,"is_reserved":false,"is_disabled":false,"rental_uris":{"android":"levelo://app?vid=5fb524c6-6782-40f2-8860-1e9e35f5431a","ios":"levelo://app?vid=5fb524c6-6782-40f2-8860-1e9e35f5431a"},"vehicle_type_id":"4","last_reported":1726311978,"current_range_meters":11600,"station_id":"ce4bh492rcd13ifvqdvg","pricing_plan_id":"cebpf4jnsgd1na2vs0mg"},{"bike_id":"65e5b031-2d11-490e-8cb1-ea54b9281d7d","system_id":"levelo_inurba_marseille","lat":43.29277,"lon":5.40124,"is_reserved":false,"is_disabled":false,"rental_uris":{"android":"levelo://app?vid=65e5b031-2d11-490e-8cb1-ea54b9281d7d","ios":"levelo://app?vid=65e5b031-2d11-490e-8cb1-ea54b9281d7d"},"vehicle_type_id":"4","last_reported":1726311978,"current_range_meters":24400,"station_id":"ce4bh312rcd13ifvqdk0","pricing_plan_id":"cebpf4jnsgd1na2vs0mg"},{"bike_id":"75c35499-0de6-41a0-acf5-7c9b58381038","system_id":"levelo_inurba_marseille","lat":43.23183,"lon":5.3998,"is_reserved":false,"is_disabled":false,"rental_uris":{"android":"levelo://app?vid=75c35499-0de6-41a0-acf5-7c9b58381038","ios":"levelo://app?vid=75c35499-0de6-41a0-acf5-7c9b58381038"},"vehicle_type_id":"4","last_reported":1726311978,"current_range_meters":39200,"station_id":"ce4bhn12rcd13ifvqgqg","pricing_plan_id":"cebpf4jnsgd1na2vs0mg"},{"bike_id":"dcc54b31-043c-40bb-84ac-9aaf3572e3ed","system_id":"levelo_inurba_marseille","lat":43.30546,"lon":5.36556,"is_reserved":false,"is_disabled":false,"rental_uris":{"android":"levelo://app?vid=dcc54b31-043c-40bb-84ac-9aaf3572e3ed","ios":"levelo://app?vid=dcc54b31-043c-40bb-84ac-9aaf3572e3ed"},"vehicle_type_id":"4","last_reported":1726311978,"current_range_meters":36800,"station_id":"ce4bgs12rcd13ifvqcag","pricing_plan_id":"cebpf4jnsgd1na2vs0mg"},{"bike_id":"8210403a-8f87-430b-90ca-48b1d5d34cf3","system_id":"levelo_inurba_marseille","lat":43.29031,"lon":5.37576,"is_reserved":false,"is_disabled":false,"rental_uris":{"android":"levelo://app?vid=8210403a-8f87-430b-90ca-48b1d5d34cf3","ios":"levelo://app?vid=8210403a-8f87-430b-90ca-48b1d5d34cf3"},"vehicle_type_id":"4","last_reported":1726311978,"current_range_meters":36800,"station_id":"ce4bh692rcd13ifvqe90","pricing_plan_id":"cebpf4jnsgd1na2vs0mg"},{"bike_id":"b81cea7b-ea15-4698-8d66-81e1496c6cd4","system_id":"levelo_inurba_marseille","lat":43.31755,"lon":5.39019,"is_reserved":false,"is_disabled":false,"rental_uris":{"android":"levelo://app?vid=b81cea7b-ea15-4698-8d66-81e1496c6cd4","ios":"levelo://app?vid=b81cea7b-ea15-4698-8d66-81e1496c6cd4"},"vehicle_type_id":"4","last_reported":1726311978,"current_range_meters":18800,"station_id":"ce4bhqp2rcd13ifvqhng","pricing_plan_id":"cebpf4jnsgd1na2vs0mg"},{"bike_id":"b645ac77-0d58-4fa9-8ad3-947af8bdb1d9","system_id":"levelo_inurba_marseille","lat":43.29901,"lon":5.43671,"is_reserved":false,"is_disabled":false,"rental_uris":{"android":"levelo://app?vid=b645ac77-0d58-4fa9-8ad3-947af8bdb1d9","ios":"levelo://app?vid=b645ac77-0d58-4fa9-8ad3-947af8bdb1d9"},"vehicle_type_id":"4","last_reported":1726311978,"current_range_meters":38400,"station_id":"ce4bhpp2rcd13ifvqhfg","pricing_plan_id":"cebpf4jnsgd1na2vs0mg"},{"bike_id":"20e87b61-b613-4db2-8324-83828666a8a5","system_id":"levelo_inurba_marseille","lat":43.29098,"lon":5.38121,"is_reserved":false,"is_disabled":false,"rental_uris":{"android":"levelo://app?vid=20e87b61-b613-4db2-8324-83828666a8a5","ios":"levelo://app?vid=20e87b61-b613-4db2-8324-83828666a8a5"},"vehicle_type_id":"4","last_reported":1726311978,"current_range_meters":31200,"station_id":"ce4bh512rcd13ifvqe2g","pricing_plan_id":"cebpf4jnsgd1na2vs0mg"},{"bike_id":"91d155a1-0e95-42f4-9cf2-24e586735a13","system_id":"levelo_inurba_marseille","lat":43.33725,"lon":5.39178,"is_reserved":false,"is_disabled":false,"rental_uris":{"android":"levelo://app?vid=91d155a1-0e95-42f4-9cf2-24e586735a13","ios":"levelo://app?vid=91d155a1-0e95-42f4-9cf2-24e586735a13"},"vehicle_type_id":"4","last_reported":1726311978,"current_range_meters":40000,"station_id":"ce4bhr92rcd13ifvqhsg","pricing_plan_id":"cebpf4jnsgd1na2vs0mg"},{"bike_id":"8de3b875-690f-46d0-9fe5-f28c32f38298","system_id":"levelo_inurba_marseille","lat":43.27895,"lon":5.38028,"is_reserved":false,"is_disabled":false,"rental_uris":{"android":"levelo://app?vid=8de3b875-690f-46d0-9fe5-f28c32f38298","ios":"levelo://app?vid=8de3b875-690f-46d0-9fe5-f28c32f38298"},"vehicle_type_id":"4","last_reported":1726311978,"current_range_meters":9600,"station_id":"ce4bhf92rcd13ifvqf50","pricing_plan_id":"cebpf4jnsgd1na2vs0mg"},{"bike_id":"d9931328-279b-40b1-88f7-9438094b8986","system_id":"levelo_inurba_marseille","lat":43.25501,"lon":5.37655,"is_reserved":false,"is_disabled":false,"rental_uris":{"android":"levelo://app?vid=d9931328-279b-40b1-88f7-9438094b8986","ios":"levelo://app?vid=d9931328-279b-40b1-88f7-9438094b8986"},"vehicle_type_id":"4","last_reported":1726311978,"current_range_meters":39200,"station_id":"ce4bhh12rcd13ifvqff0","pricing_plan_id":"cebpf4jnsgd1na2vs0mg"},{"bike_id":"23a55eff-686e-4ee7-943c-5bb1cacd94d3","system_id":"levelo_inurba_marseille","lat":43.27369,"lon":5.36244,"is_reserved":false,"is_disabled":false,"rental_uris":{"android":"levelo://app?vid=23a55eff-686e-4ee7-943c-5bb1cacd94d3","ios":"levelo://app?vid=23a55eff-686e-4ee7-943c-5bb1cacd94d3"},"vehicle_type_id":"4","last_reported":1726311978,"current_range_meters":16000,"station_id":"ce4bhbh2rcd13ifvqeo0","pricing_plan_id":"cebpf4jnsgd1na2vs0mg"},{"bike_id":"f6dd4168-8894-423f-8422-3152e0738d50","system_id":"levelo_inurba_marseille","lat":43.31721,"lon":5.42402,"is_reserved":false,"is_disabled":false,"rental_uris":{"android":"levelo://app?vid=f6dd4168-8894-423f-8422-3152e0738d50","ios":"levelo://app?vid=f6dd4168-8894-423f-8422-3152e0738d50"},"vehicle_type_id":"4","last_reported":1726311978,"current_range_meters":32800,"station_id":"ce4bhp92rcd13ifvqhbg","pricing_plan_id":"cebpf4jnsgd1na2vs0mg"},{"bike_id":"204711fb-e15c-43c7-9d9c-bbc1d0d42d99","system_id":"levelo_inurba_marseille","lat":43.30465,"lon":5.3791,"is_reserved":false,"is_disabled":false,"rental_uris":{"android":"levelo://app?vid=204711fb-e15c-43c7-9d9c-bbc1d0d42d99","ios":"levelo://app?vid=204711fb-e15c-43c7-9d9c-bbc1d0d42d99"},"vehicle_type_id":"4","last_reported":1726311978,"current_range_meters":32000,"station_id":"ce4bgup2rcd13ifvqcn0","pricing_plan_id":"cebpf4jnsgd1na2vs0mg"},{"bike_id":"8729cd72-4a8a-4db3-a342-e90efed76c76","system_id":"levelo_inurba_marseille","lat":43.30427,"lon":5.39751,"is_reserved":false,"is_disabled":false,"rental_uris":{"android":"levelo://app?vid=8729cd72-4a8a-4db3-a342-e90efed76c76","ios":"levelo://app?vid=8729cd72-4a8a-4db3-a342-e90efed76c76"},"vehicle_type_id":"4","last_reported":1726311978,"current_range_meters":16400,"station_id":"ce4bh092rcd13ifvqd20","pricing_plan_id":"cebpf4jnsgd1na2vs0mg"},{"bike_id":"a8408bc0-1ad0-4261-92e7-4324637d7c82","system_id":"levelo_inurba_marseille","lat":43.29011,"lon":5.35627,"is_reserved":false,"is_disabled":false,"rental_uris":{"android":"levelo://app?vid=a8408bc0-1ad0-4261-92e7-4324637d7c82","ios":"levelo://app?vid=a8408bc0-1ad0-4261-92e7-4324637d7c82"},"vehicle_type_id":"4","last_reported":1726311978,"current_range_meters":37600,"station_id":"ce4bhb92rcd13ifvqen0","pricing_plan_id":"cebpf4jnsgd1na2vs0mg"},{"bike_id":"0d9f035c-8e47-426d-8593-e2bc7f05f235","system_id":"levelo_inurba_marseille","lat":43.30451,"lon":5.36508,"is_reserved":false,"is_disabled":false,"rental_uris":{"android":"levelo://app?vid=0d9f035c-8e47-426d-8593-e2bc7f05f235","ios":"levelo://app?vid=0d9f035c-8e47-426d-8593-e2bc7f05f235"},"vehicle_type_id":"4","last_reported":1726311978,"current_range_meters":11200,"station_id":"","pricing_plan_id":"cebpf4jnsgd1na2vs0mg"},{"bike_id":"25f18187-4b35-4c65-a771-73d737ef7005","system_id":"levelo_inurba_marseille","lat":43.33022,"lon":5.3903,"is_reserved":false,"is_disabled":false,"rental_uris":{"android":"levelo://app?vid=25f18187-4b35-4c65-a771-73d737ef7005","ios":"levelo://app?vid=25f18187-4b35-4c65-a771-73d737ef7005"},"vehicle_type_id":"4","last_reported":1726311978,"current_range_meters":38400,"station_id":"ce4bhr92rcd13ifvqhrg","pricing_plan_id":"cebpf4jnsgd1na2vs0mg"},{"bike_id":"bee2b2eb-ca41-4dbc-b747-eff031d74362","system_id":"levelo_inurba_marseille","lat":43.3375,"lon":5.37448,"is_reserved":false,"is_disabled":false,"rental_uris":{"android":"levelo://app?vid=bee2b2eb-ca41-4dbc-b747-eff031d74362","ios":"levelo://app?vid=bee2b2eb-ca41-4dbc-b747-eff031d74362"},"vehicle_type_id":"4","last_reported":1726311978,"current_range_meters":15200,"station_id":"","pricing_plan_id":"cebpf4jnsgd1na2vs0mg"},{"bike_id":"5521d4fb-4f0d-447e-bad3-4982404b7d44","system_id":"levelo_inurba_marseille","lat":43.29616,"lon":5.37715,"is_reserved":false,"is_disabled":false,"rental_uris":{"android":"levelo://app?vid=5521d4fb-4f0d-447e-bad3-4982404b7d44","ios":"levelo://app?vid=5521d4fb-4f0d-447e-bad3-4982404b7d44"},"vehicle_type_id":"4","last_reported":1726311978,"current_range_meters":22000,"station_id":"ce4bgi92rcd13ifvqb90","pricing_plan_id":"cebpf4jnsgd1na2vs0mg"},{"bike_id":"4345b516-a306-4493-bcca-4babe60d5f33","system_id":"levelo_inurba_marseille","lat":43.298063,"lon":5.381153,"is_reserved":false,"is_disabled":false,"rental_uris":{"android":"levelo://app?vid=4345b516-a306-4493-bcca-4babe60d5f33","ios":"levelo://app?vid=4345b516-a306-4493-bcca-4babe60d5f33"},"vehicle_type_id":"4","last_reported":1726311978,"current_range_meters":26000,"station_id":"ce4bgip2rcd13ifvqbb0","pricing_plan_id":"cebpf4jnsgd1na2vs0mg"},{"bike_id":"7740e5ef-e555-42a9-b370-43d6e38180e8","system_id":"levelo_inurba_marseille","lat":43.26686,"lon":5.38276,"is_reserved":false,"is_disabled":false,"rental_uris":{"android":"levelo://app?vid=7740e5ef-e555-42a9-b370-43d6e38180e8","ios":"levelo://app?vid=7740e5ef-e555-42a9-b370-43d6e38180e8"},"vehicle_type_id":"4","last_reported":1726311978,"current_range_meters":34000,"station_id":"ce4bhg92rcd13ifvqf90","pricing_plan_id":"cebpf4jnsgd1na2vs0mg"},{"bike_id":"8f4b4484-53fc-4f85-8943-e3d97316949e","system_id":"levelo_inurba_marseille","lat":43.24994,"lon":5.3893,"is_reserved":false,"is_disabled":false,"rental_uris":{"android":"levelo://app?vid=8f4b4484-53fc-4f85-8943-e3d97316949e","ios":"levelo://app?vid=8f4b4484-53fc-4f85-8943-e3d97316949e"},"vehicle_type_id":"4","last_reported":1726311978,"current_range_meters":37600,"station_id":"ce4bhgp2rcd13ifvqfd0","pricing_plan_id":"cebpf4jnsgd1na2vs0mg"},{"bike_id":"10005c25-bdc9-4737-a161-1d7df8b95f68","system_id":"levelo_inurba_marseille","lat":43.30459,"lon":5.37907,"is_reserved":false,"is_disabled":false,"rental_uris":{"android":"levelo://app?vid=10005c25-bdc9-4737-a161-1d7df8b95f68","ios":"levelo://app?vid=10005c25-bdc9-4737-a161-1d7df8b95f68"},"vehicle_type_id":"4","last_reported":1726311978,"current_range_meters":13600,"station_id":"ce4bgup2rcd13ifvqcn0","pricing_plan_id":"cebpf4jnsgd1na2vs0mg"},{"bike_id":"4bef0603-01e1-496c-bd5e-0e25a9e5817e","system_id":"levelo_inurba_marseille","lat":43.30148,"lon":5.39839,"is_reserved":false,"is_disabled":false,"rental_uris":{"android":"levelo://app?vid=4bef0603-01e1-496c-bd5e-0e25a9e5817e","ios":"levelo://app?vid=4bef0603-01e1-496c-bd5e-0e25a9e5817e"},"vehicle_type_id":"4","last_reported":1726311978,"current_range_meters":27200,"station_id":"ce4bh0h2rcd13ifvqd40","pricing_plan_id":"cebpf4jnsgd1na2vs0mg"},{"bike_id":"f81c9c0a-c2a9-4feb-9288-9725e8c2c56f","system_id":"levelo_inurba_marseille","lat":43.23151,"lon":5.43713,"is_reserved":false,"is_disabled":false,"rental_uris":{"android":"levelo://app?vid=f81c9c0a-c2a9-4feb-9288-9725e8c2c56f","ios":"levelo://app?vid=f81c9c0a-c2a9-4feb-9288-9725e8c2c56f"},"vehicle_type_id":"4","last_reported":1726311978,"current_range_meters":35600,"station_id":"ce4bhmp2rcd13ifvqgog","pricing_plan_id":"cebpf4jnsgd1na2vs0mg"},{"bike_id":"8690c89e-d61f-4631-960b-0818529639d8","system_id":"levelo_inurba_marseille","lat":43.299,"lon":5.38152,"is_reserved":false,"is_disabled":false,"rental_uris":{"android":"levelo://app?vid=8690c89e-d61f-4631-960b-0818529639d8","ios":"levelo://app?vid=8690c89e-d61f-4631-960b-0818529639d8"},"vehicle_type_id":"4","last_reported":1726311978,"current_range_meters":33600,"station_id":"ce4bgj12rcd13ifvqbc0","pricing_plan_id":"cebpf4jnsgd1na2vs0mg"},{"bike_id":"f82b7809-0068-4a43-be6b-46ec85cbb6b9","system_id":"levelo_inurba_marseille","lat":43.30553,"lon":5.36537,"is_reserved":false,"is_disabled":false,"rental_uris":{"android":"levelo://app?vid=f82b7809-0068-4a43-be6b-46ec85cbb6b9","ios":"levelo://app?vid=f82b7809-0068-4a43-be6b-46ec85cbb6b9"},"vehicle_type_id":"4","last_reported":1726311978,"current_range_meters":38800,"station_id":"ce4bgs12rcd13ifvqcag","pricing_plan_id":"cebpf4jnsgd1na2vs0mg"},{"bike_id":"552ccea4-a0ab-4fa2-9015-1ea8da64cd61","system_id":"levelo_inurba_marseille","lat":43.25575,"lon":5.38233,"is_reserved":false,"is_disabled":false,"rental_uris":{"android":"levelo://app?vid=552ccea4-a0ab-4fa2-9015-1ea8da64cd61","ios":"levelo://app?vid=552ccea4-a0ab-4fa2-9015-1ea8da64cd61"},"vehicle_type_id":"4","last_reported":1726311978,"current_range_meters":6000,"station_id":"ce4bhih2rcd13ifvqfs0","pricing_plan_id":"cebpf4jnsgd1na2vs0mg"},{"bike_id":"b96b4673-6c2a-44e8-b4f8-71cb494238da","system_id":"levelo_inurba_marseille","lat":43.2509,"lon":5.39524,"is_reserved":false,"is_disabled":false,"rental_uris":{"android":"levelo://app?vid=b96b4673-6c2a-44e8-b4f8-71cb494238da","ios":"levelo://app?vid=b96b4673-6c2a-44e8-b4f8-71cb494238da"},"vehicle_type_id":"4","last_reported":1726311978,"current_range_meters":27600,"station_id":"ce4bhm12rcd13ifvqgkg","pricing_plan_id":"cebpf4jnsgd1na2vs0mg"},{"bike_id":"0982fb6a-cbe7-4033-ac7c-281723d984ed","system_id":"levelo_inurba_marseille","lat":43.30885,"lon":5.39649,"is_reserved":false,"is_disabled":false,"rental_uris":{"android":"levelo://app?vid=0982fb6a-cbe7-4033-ac7c-281723d984ed","ios":"levelo://app?vid=0982fb6a-cbe7-4033-ac7c-281723d984ed"},"vehicle_type_id":"4","last_reported":1726311978,"current_range_meters":12000,"station_id":"ce4bh012rcd13ifvqcv0","pricing_plan_id":"cebpf4jnsgd1na2vs0mg"},{"bike_id":"2b276a85-2602-4c8d-905d-0afc45341979","system_id":"levelo_inurba_marseille","lat":43.2962,"lon":5.37175,"is_reserved":false,"is_disabled":false,"rental_uris":{"android":"levelo://app?vid=2b276a85-2602-4c8d-905d-0afc45341979","ios":"levelo://app?vid=2b276a85-2602-4c8d-905d-0afc45341979"},"vehicle_type_id":"4","last_reported":1726311978,"current_range_meters":39200,"station_id":"ce4bgnh2rcd13ifvqc0g","pricing_plan_id":"cebpf4jnsgd1na2vs0mg"},{"bike_id":"0e31d9e5-079b-48ca-8604-869cd81fb0af","system_id":"levelo_inurba_marseille","lat":43.24808,"lon":5.37452,"is_reserved":false,"is_disabled":false,"rental_uris":{"android":"levelo://app?vid=0e31d9e5-079b-48ca-8604-869cd81fb0af","ios":"levelo://app?vid=0e31d9e5-079b-48ca-8604-869cd81fb0af"},"vehicle_type_id":"4","last_reported":1726311978,"current_range_meters":36400,"station_id":"ce4bhgh2rcd13ifvqfb0","pricing_plan_id":"cebpf4jnsgd1na2vs0mg"},{"bike_id":"ce70a22a-06ed-4f56-a13f-4b01cff9a4e7","system_id":"levelo_inurba_marseille","lat":43.30801,"lon":5.43529,"is_reserved":false,"is_disabled":false,"rental_uris":{"android":"levelo://app?vid=ce70a22a-06ed-4f56-a13f-4b01cff9a4e7","ios":"levelo://app?vid=ce70a22a-06ed-4f56-a13f-4b01cff9a4e7"},"vehicle_type_id":"4","last_reported":1726311978,"current_range_meters":38800,"station_id":"ce4bhph2rcd13ifvqheg","pricing_plan_id":"cebpf4jnsgd1na2vs0mg"},{"bike_id":"3275e4b1-5584-4c59-b3d9-e163da6a34fe","system_id":"levelo_inurba_marseille","lat":43.24671,"lon":5.38163,"is_reserved":false,"is_disabled":false,"rental_uris":{"android":"levelo://app?vid=3275e4b1-5584-4c59-b3d9-e163da6a34fe","ios":"levelo://app?vid=3275e4b1-5584-4c59-b3d9-e163da6a34fe"},"vehicle_type_id":"4","last_reported":1726311978,"current_range_meters":38800,"station_id":"ce4bhih2rcd13ifvqfr0","pricing_plan_id":"cebpf4jnsgd1na2vs0mg"},{"bike_id":"36ef4d47-4766-4cf5-a685-a670035a79f1","system_id":"levelo_inurba_marseille","lat":43.29934,"lon":5.3655,"is_reserved":false,"is_disabled":false,"rental_uris":{"android":"levelo://app?vid=36ef4d47-4766-4cf5-a685-a670035a79f1","ios":"levelo://app?vid=36ef4d47-4766-4cf5-a685-a670035a79f1"},"vehicle_type_id":"4","last_reported":1726311978,"current_range_meters":37600,"station_id":"ce4bgm92rcd13ifvqbr0","pricing_plan_id":"cebpf4jnsgd1na2vs0mg"},{"bike_id":"d85ab2af-d7ee-47c5-b97a-f55f599627be","system_id":"levelo_inurba_marseille","lat":43.24166,"lon":5.36392,"is_reserved":false,"is_disabled":false,"rental_uris":{"android":"levelo://app?vid=d85ab2af-d7ee-47c5-b97a-f55f599627be","ios":"levelo://app?vid=d85ab2af-d7ee-47c5-b97a-f55f599627be"},"vehicle_type_id":"4","last_reported":1726311978,"current_range_meters":36800,"station_id":"cpo36qri1sfpv3e86is0","pricing_plan_id":"cebpf4jnsgd1na2vs0mg"},{"bike_id":"53a2d874-293d-47cc-bdbd-a03b3468623b","system_id":"levelo_inurba_marseille","lat":43.29901,"lon":5.43674,"is_reserved":false,"is_disabled":false,"rental_uris":{"android":"levelo://app?vid=53a2d874-293d-47cc-bdbd-a03b3468623b","ios":"levelo://app?vid=53a2d874-293d-47cc-bdbd-a03b3468623b"},"vehicle_type_id":"4","last_reported":1726311978,"current_range_meters":9600,"station_id":"ce4bhpp2rcd13ifvqhfg","pricing_plan_id":"cebpf4jnsgd1na2vs0mg"},{"bike_id":"32aae29a-4a22-46f5-a8a5-378edbc33e4e","system_id":"levelo_inurba_marseille","lat":43.29602,"lon":5.37706,"is_reserved":false,"is_disabled":false,"rental_uris":{"android":"levelo://app?vid=32aae29a-4a22-46f5-a8a5-378edbc33e4e","ios":"levelo://app?vid=32aae29a-4a22-46f5-a8a5-378edbc33e4e"},"vehicle_type_id":"4","last_reported":1726311978,"current_range_meters":31200,"station_id":"ce4bgi92rcd13ifvqb90","pricing_plan_id":"cebpf4jnsgd1na2vs0mg"},{"bike_id":"efd434e6-1017-42dc-a03c-1c3d92ee3360","system_id":"levelo_inurba_marseille","lat":43.25499,"lon":5.37651,"is_reserved":false,"is_disabled":false,"rental_uris":{"android":"levelo://app?vid=efd434e6-1017-42dc-a03c-1c3d92ee3360","ios":"levelo://app?vid=efd434e6-1017-42dc-a03c-1c3d92ee3360"},"vehicle_type_id":"4","last_reported":1726311978,"current_range_meters":23200,"station_id":"ce4bhh12rcd13ifvqff0","pricing_plan_id":"cebpf4jnsgd1na2vs0mg"},{"bike_id":"d466ca20-2d21-4be8-96c2-1a877fbdc1cf","system_id":"levelo_inurba_marseille","lat":43.24081,"lon":5.37753,"is_reserved":false,"is_disabled":false,"rental_uris":{"android":"levelo://app?vid=d466ca20-2d21-4be8-96c2-1a877fbdc1cf","ios":"levelo://app?vid=d466ca20-2d21-4be8-96c2-1a877fbdc1cf"},"vehicle_type_id":"4","last_reported":1726311978,"current_range_meters":6800,"station_id":"ce4bhnp2rcd13ifvqgvg","pricing_plan_id":"cebpf4jnsgd1na2vs0mg"},{"bike_id":"bb7acf50-b6bc-4b2d-adf4-833abc23b24c","system_id":"levelo_inurba_marseille","lat":43.23194,"lon":5.35548,"is_reserved":false,"is_disabled":false,"rental_uris":{"android":"levelo://app?vid=bb7acf50-b6bc-4b2d-adf4-833abc23b24c","ios":"levelo://app?vid=bb7acf50-b6bc-4b2d-adf4-833abc23b24c"},"vehicle_type_id":"4","last_reported":1726311978,"current_range_meters":40000,"station_id":"ce4bhu92rcd13ifvqi70","pricing_plan_id":"cebpf4jnsgd1na2vs0mg"},{"bike_id":"f6de5503-3f64-4c45-a987-7e74ca5c7044","system_id":"levelo_inurba_marseille","lat":43.24168,"lon":5.36396,"is_reserved":false,"is_disabled":false,"rental_uris":{"android":"levelo://app?vid=f6de5503-3f64-4c45-a987-7e74ca5c7044","ios":"levelo://app?vid=f6de5503-3f64-4c45-a987-7e74ca5c7044"},"vehicle_type_id":"4","last_reported":1726311978,"current_range_meters":32800,"station_id":"cpo36qri1sfpv3e86is0","pricing_plan_id":"cebpf4jnsgd1na2vs0mg"},{"bike_id":"75e695dc-a3a1-4818-8368-05cd7a4d1286","system_id":"levelo_inurba_marseille","lat":43.31705,"lon":5.37724,"is_reserved":false,"is_disabled":false,"rental_uris":{"android":"levelo://app?vid=75e695dc-a3a1-4818-8368-05cd7a4d1286","ios":"levelo://app?vid=75e695dc-a3a1-4818-8368-05cd7a4d1286"},"vehicle_type_id":"4","last_reported":1726311978,"current_range_meters":25200,"station_id":"ce4bgth2rcd13ifvqch0","pricing_plan_id":"cebpf4jnsgd1na2vs0mg"},{"bike_id":"bc8be1fd-7bee-49c5-817c-184bdd69b536","system_id":"levelo_inurba_marseille","lat":43.27374,"lon":5.41942,"is_reserved":false,"is_disabled":false,"rental_uris":{"android":"levelo://app?vid=bc8be1fd-7bee-49c5-817c-184bdd69b536","ios":"levelo://app?vid=bc8be1fd-7bee-49c5-817c-184bdd69b536"},"vehicle_type_id":"4","last_reported":1726311978,"current_range_meters":30800,"station_id":"","pricing_plan_id":"cebpf4jnsgd1na2vs0mg"},{"bike_id":"12edca80-4470-4a5b-903b-dc7b60e8cb16","system_id":"levelo_inurba_marseille","lat":43.2937,"lon":5.37853,"is_reserved":false,"is_disabled":false,"rental_uris":{"android":"levelo://app?vid=12edca80-4470-4a5b-903b-dc7b60e8cb16","ios":"levelo://app?vid=12edca80-4470-4a5b-903b-dc7b60e8cb16"},"vehicle_type_id":"4","last_reported":1726311978,"current_range_meters":31200,"station_id":"ce4bgjh2rcd13ifvqbf0","pricing_plan_id":"cebpf4jnsgd1na2vs0mg"},{"bike_id":"b00e8040-9d29-4dfe-a52b-c76bccab6ef0","system_id":"levelo_inurba_marseille","lat":43.29703,"lon":5.36603,"is_reserved":false,"is_disabled":false,"rental_uris":{"android":"levelo://app?vid=b00e8040-9d29-4dfe-a52b-c76bccab6ef0","ios":"levelo://app?vid=b00e8040-9d29-4dfe-a52b-c76bccab6ef0"},"vehicle_type_id":"4","last_reported":1726311978,"current_range_meters":28400,"station_id":"ce4bgn12rcd13ifvqbt0","pricing_plan_id":"cebpf4jnsgd1na2vs0mg"},{"bike_id":"77c083ce-bbf3-44a2-b49a-8006dca40341","system_id":"levelo_inurba_marseille","lat":43.29848,"lon":5.36274,"is_reserved":false,"is_disabled":false,"rental_uris":{"android":"levelo://app?vid=77c083ce-bbf3-44a2-b49a-8006dca40341","ios":"levelo://app?vid=77c083ce-bbf3-44a2-b49a-8006dca40341"},"vehicle_type_id":"4","last_reported":1726311978,"current_range_meters":16400,"station_id":"ce4bgpp2rcd13ifvqc3g","pricing_plan_id":"cebpf4jnsgd1na2vs0mg"},{"bike_id":"65324b36-3c4c-494d-9935-269b5ae1677c","system_id":"levelo_inurba_marseille","lat":43.28847,"lon":5.35854,"is_reserved":false,"is_disabled":false,"rental_uris":{"android":"levelo://app?vid=65324b36-3c4c-494d-9935-269b5ae1677c","ios":"levelo://app?vid=65324b36-3c4c-494d-9935-269b5ae1677c"},"vehicle_type_id":"4","last_reported":1726311978,"current_range_meters":38800,"station_id":"ce4bhb12rcd13ifvqem0","pricing_plan_id":"cebpf4jnsgd1na2vs0mg"},{"bike_id":"d008cb99-abde-452f-827e-8789eee7795a","system_id":"levelo_inurba_marseille","lat":43.2718,"lon":5.4099,"is_reserved":false,"is_disabled":false,"rental_uris":{"android":"levelo://app?vid=d008cb99-abde-452f-827e-8789eee7795a","ios":"levelo://app?vid=d008cb99-abde-452f-827e-8789eee7795a"},"vehicle_type_id":"4","last_reported":1726311978,"current_range_meters":39200,"station_id":"ce4bhl12rcd13ifvqgf0","pricing_plan_id":"cebpf4jnsgd1na2vs0mg"},{"bike_id":"5b8d0983-a39e-42ef-b930-2c3695850d77","system_id":"levelo_inurba_marseille","lat":43.30154,"lon":5.38082,"is_reserved":false,"is_disabled":false,"rental_uris":{"android":"levelo://app?vid=5b8d0983-a39e-42ef-b930-2c3695850d77","ios":"levelo://app?vid=5b8d0983-a39e-42ef-b930-2c3695850d77"},"vehicle_type_id":"4","last_reported":1726311978,"current_range_meters":28000,"station_id":"ce4bgjp2rcd13ifvqbh0","pricing_plan_id":"cebpf4jnsgd1na2vs0mg"},{"bike_id":"55807bf5-ceff-4da6-a45b-fdc0d1dfb9b3","system_id":"levelo_inurba_marseille","lat":43.2849,"lon":5.38541,"is_reserved":false,"is_disabled":false,"rental_uris":{"android":"levelo://app?vid=55807bf5-ceff-4da6-a45b-fdc0d1dfb9b3","ios":"levelo://app?vid=55807bf5-ceff-4da6-a45b-fdc0d1dfb9b3"},"vehicle_type_id":"4","last_reported":1726311978,"current_range_meters":9200,"station_id":"ce4bh8p2rcd13ifvqeb0","pricing_plan_id":"cebpf4jnsgd1na2vs0mg"},{"bike_id":"3c0413d4-cfac-4751-b9e1-57b29b1c0d06","system_id":"levelo_inurba_marseille","lat":43.29017,"lon":5.38134,"is_reserved":false,"is_disabled":false,"rental_uris":{"android":"levelo://app?vid=3c0413d4-cfac-4751-b9e1-57b29b1c0d06","ios":"levelo://app?vid=3c0413d4-cfac-4751-b9e1-57b29b1c0d06"},"vehicle_type_id":"4","last_reported":1726311978,"current_range_meters":8400,"station_id":"ce4bh4p2rcd13ifvqe1g","pricing_plan_id":"cebpf4jnsgd1na2vs0mg"},{"bike_id":"81f1a965-ff8b-4d74-9682-ff18567684f9","system_id":"levelo_inurba_marseille","lat":43.33025,"lon":5.3904,"is_reserved":false,"is_disabled":false,"rental_uris":{"android":"levelo://app?vid=81f1a965-ff8b-4d74-9682-ff18567684f9","ios":"levelo://app?vid=81f1a965-ff8b-4d74-9682-ff18567684f9"},"vehicle_type_id":"4","last_reported":1726311978,"current_range_meters":38000,"station_id":"ce4bhr92rcd13ifvqhrg","pricing_plan_id":"cebpf4jnsgd1na2vs0mg"},{"bike_id":"b6a5802b-4786-42a9-9b22-5e0b280071e6","system_id":"levelo_inurba_marseille","lat":43.30486,"lon":5.36798,"is_reserved":false,"is_disabled":false,"rental_uris":{"android":"levelo://app?vid=b6a5802b-4786-42a9-9b22-5e0b280071e6","ios":"levelo://app?vid=b6a5802b-4786-42a9-9b22-5e0b280071e6"},"vehicle_type_id":"4","last_reported":1726311978,"current_range_meters":20400,"station_id":"","pricing_plan_id":"cebpf4jnsgd1na2vs0mg"},{"bike_id":"2c2448de-2bd8-43b6-b7b7-b3e21de71516","system_id":"levelo_inurba_marseille","lat":43.33759,"lon":5.37458,"is_reserved":false,"is_disabled":false,"rental_uris":{"android":"levelo://app?vid=2c2448de-2bd8-43b6-b7b7-b3e21de71516","ios":"levelo://app?vid=2c2448de-2bd8-43b6-b7b7-b3e21de71516"},"vehicle_type_id":"4","last_reported":1726311978,"current_range_meters":36000,"station_id":"","pricing_plan_id":"cebpf4jnsgd1na2vs0mg"},{"bike_id":"aa37188e-6d02-447c-9bd7-7efc9e857b6f","system_id":"levelo_inurba_marseille","lat":43.2439,"lon":5.37061,"is_reserved":false,"is_disabled":false,"rental_uris":{"android":"levelo://app?vid=aa37188e-6d02-447c-9bd7-7efc9e857b6f","ios":"levelo://app?vid=aa37188e-6d02-447c-9bd7-7efc9e857b6f"},"vehicle_type_id":"4","last_reported":1726311978,"current_range_meters":19600,"station_id":"ce4bhhh2rcd13ifvqfk0","pricing_plan_id":"cebpf4jnsgd1na2vs0mg"},{"bike_id":"9cbde55c-acba-414e-bbf2-6148fe526825","system_id":"levelo_inurba_marseille","lat":43.26676,"lon":5.38268,"is_reserved":false,"is_disabled":false,"rental_uris":{"android":"levelo://app?vid=9cbde55c-acba-414e-bbf2-6148fe526825","ios":"levelo://app?vid=9cbde55c-acba-414e-bbf2-6148fe526825"},"vehicle_type_id":"4","last_reported":1726311978,"current_range_meters":27600,"station_id":"ce4bhg92rcd13ifvqf90","pricing_plan_id":"cebpf4jnsgd1na2vs0mg"},{"bike_id":"2fd486d6-1f61-4b8b-a72d-30deb26f1a21","system_id":"levelo_inurba_marseille","lat":43.295807,"lon":5.367472,"is_reserved":false,"is_disabled":false,"rental_uris":{"android":"levelo://app?vid=2fd486d6-1f61-4b8b-a72d-30deb26f1a21","ios":"levelo://app?vid=2fd486d6-1f61-4b8b-a72d-30deb26f1a21"},"vehicle_type_id":"4","last_reported":1726311978,"current_range_meters":39200,"station_id":"ce4bgph2rcd13ifvqc2g","pricing_plan_id":"cebpf4jnsgd1na2vs0mg"},{"bike_id":"d63b08fd-7716-422a-94e4-8f1dfff5bb11","system_id":"levelo_inurba_marseille","lat":43.28616,"lon":5.35101,"is_reserved":false,"is_disabled":false,"rental_uris":{"android":"levelo://app?vid=d63b08fd-7716-422a-94e4-8f1dfff5bb11","ios":"levelo://app?vid=d63b08fd-7716-422a-94e4-8f1dfff5bb11"},"vehicle_type_id":"4","last_reported":1726311978,"current_range_meters":35600,"station_id":"ce4bhch2rcd13ifvqeug","pricing_plan_id":"cebpf4jnsgd1na2vs0mg"},{"bike_id":"c14b51b2-bf43-4357-aae5-c79ce5284397","system_id":"levelo_inurba_marseille","lat":43.29614,"lon":5.37717,"is_reserved":false,"is_disabled":false,"rental_uris":{"android":"levelo://app?vid=c14b51b2-bf43-4357-aae5-c79ce5284397","ios":"levelo://app?vid=c14b51b2-bf43-4357-aae5-c79ce5284397"},"vehicle_type_id":"4","last_reported":1726311978,"current_range_meters":25200,"station_id":"ce4bgi92rcd13ifvqb90","pricing_plan_id":"cebpf4jnsgd1na2vs0mg"},{"bike_id":"026a8105-a313-4bd8-96fb-a8d6d1b140a9","system_id":"levelo_inurba_marseille","lat":43.23196,"lon":5.35542,"is_reserved":false,"is_disabled":false,"rental_uris":{"android":"levelo://app?vid=026a8105-a313-4bd8-96fb-a8d6d1b140a9","ios":"levelo://app?vid=026a8105-a313-4bd8-96fb-a8d6d1b140a9"},"vehicle_type_id":"4","last_reported":1726311978,"current_range_meters":38400,"station_id":"ce4bhu92rcd13ifvqi70","pricing_plan_id":"cebpf4jnsgd1na2vs0mg"},{"bike_id":"f23dd4e3-f3f3-45d6-9b71-d038902c79ea","system_id":"levelo_inurba_marseille","lat":43.28487,"lon":5.38541,"is_reserved":false,"is_disabled":false,"rental_uris":{"android":"levelo://app?vid=f23dd4e3-f3f3-45d6-9b71-d038902c79ea","ios":"levelo://app?vid=f23dd4e3-f3f3-45d6-9b71-d038902c79ea"},"vehicle_type_id":"4","last_reported":1726311978,"current_range_meters":26000,"station_id":"ce4bh8p2rcd13ifvqeb0","pricing_plan_id":"cebpf4jnsgd1na2vs0mg"},{"bike_id":"bcf3cc13-0ef0-4ea1-a1a2-7244e004f9cf","system_id":"levelo_inurba_marseille","lat":43.28035,"lon":5.36945,"is_reserved":false,"is_disabled":false,"rental_uris":{"android":"levelo://app?vid=bcf3cc13-0ef0-4ea1-a1a2-7244e004f9cf","ios":"levelo://app?vid=bcf3cc13-0ef0-4ea1-a1a2-7244e004f9cf"},"vehicle_type_id":"4","last_reported":1726311978,"current_range_meters":32400,"station_id":"ce4bha12rcd13ifvqef0","pricing_plan_id":"cebpf4jnsgd1na2vs0mg"},{"bike_id":"e4e3df29-7f90-47e5-a316-43ee0269de75","system_id":"levelo_inurba_marseille","lat":43.27489,"lon":5.42463,"is_reserved":false,"is_disabled":false,"rental_uris":{"android":"levelo://app?vid=e4e3df29-7f90-47e5-a316-43ee0269de75","ios":"levelo://app?vid=e4e3df29-7f90-47e5-a316-43ee0269de75"},"vehicle_type_id":"4","last_reported":1726311978,"current_range_meters":35600,"station_id":"ce4bhk92rcd13ifvqgb0","pricing_plan_id":"cebpf4jnsgd1na2vs0mg"},{"bike_id":"9378e46c-90ff-48e5-9112-f5aafd156a5f","system_id":"levelo_inurba_marseille","lat":43.29555,"lon":5.42285,"is_reserved":false,"is_disabled":false,"rental_uris":{"android":"levelo://app?vid=9378e46c-90ff-48e5-9112-f5aafd156a5f","ios":"levelo://app?vid=9378e46c-90ff-48e5-9112-f5aafd156a5f"},"vehicle_type_id":"4","last_reported":1726311978,"current_range_meters":25600,"station_id":"ce4bhph2rcd13ifvqhdg","pricing_plan_id":"cebpf4jnsgd1na2vs0mg"},{"bike_id":"97d90c5d-4fc0-45f2-8853-2afdd4a98534","system_id":"levelo_inurba_marseille","lat":43.28412,"lon":5.37513,"is_reserved":false,"is_disabled":false,"rental_uris":{"android":"levelo://app?vid=97d90c5d-4fc0-45f2-8853-2afdd4a98534","ios":"levelo://app?vid=97d90c5d-4fc0-45f2-8853-2afdd4a98534"},"vehicle_type_id":"4","last_reported":1726311978,"current_range_meters":17600,"station_id":"ce4bh412rcd13ifvqds0","pricing_plan_id":"cebpf4jnsgd1na2vs0mg"},{"bike_id":"cb72976f-172f-44f6-8a55-4bbe72c5f072","system_id":"levelo_inurba_marseille","lat":43.30161,"lon":5.38086,"is_reserved":false,"is_disabled":false,"rental_uris":{"android":"levelo://app?vid=cb72976f-172f-44f6-8a55-4bbe72c5f072","ios":"levelo://app?vid=cb72976f-172f-44f6-8a55-4bbe72c5f072"},"vehicle_type_id":"4","last_reported":1726311978,"current_range_meters":38800,"station_id":"ce4bgjp2rcd13ifvqbh0","pricing_plan_id":"cebpf4jnsgd1na2vs0mg"},{"bike_id":"51b93f73-c647-4dd9-b993-0e72de9b0462","system_id":"levelo_inurba_marseille","lat":43.2829,"lon":5.39079,"is_reserved":false,"is_disabled":false,"rental_uris":{"android":"levelo://app?vid=51b93f73-c647-4dd9-b993-0e72de9b0462","ios":"levelo://app?vid=51b93f73-c647-4dd9-b993-0e72de9b0462"},"vehicle_type_id":"4","last_reported":1726311978,"current_range_meters":29600,"station_id":"","pricing_plan_id":"cebpf4jnsgd1na2vs0mg"},{"bike_id":"f68df17f-5733-4c2a-95c1-49b539707a08","system_id":"levelo_inurba_marseille","lat":43.24802,"lon":5.37452,"is_reserved":false,"is_disabled":false,"rental_uris":{"android":"levelo://app?vid=f68df17f-5733-4c2a-95c1-49b539707a08","ios":"levelo://app?vid=f68df17f-5733-4c2a-95c1-49b539707a08"},"vehicle_type_id":"4","last_reported":1726311978,"current_range_meters":23200,"station_id":"ce4bhgh2rcd13ifvqfb0","pricing_plan_id":"cebpf4jnsgd1na2vs0mg"},{"bike_id":"e7875c5c-1db6-4a52-a011-743d86c561cf","system_id":"levelo_inurba_marseille","lat":43.30426,"lon":5.39753,"is_reserved":false,"is_disabled":false,"rental_uris":{"android":"levelo://app?vid=e7875c5c-1db6-4a52-a011-743d86c561cf","ios":"levelo://app?vid=e7875c5c-1db6-4a52-a011-743d86c561cf"},"vehicle_type_id":"4","last_reported":1726311978,"current_range_meters":39200,"station_id":"ce4bh092rcd13ifvqd20","pricing_plan_id":"cebpf4jnsgd1na2vs0mg"},{"bike_id":"1a4afac7-4f04-413e-8457-62d98bd42198","system_id":"levelo_inurba_marseille","lat":43.2815,"lon":5.42643,"is_reserved":false,"is_disabled":false,"rental_uris":{"android":"levelo://app?vid=1a4afac7-4f04-413e-8457-62d98bd42198","ios":"levelo://app?vid=1a4afac7-4f04-413e-8457-62d98bd42198"},"vehicle_type_id":"4","last_reported":1726311978,"current_range_meters":9600,"station_id":"ce4bhnh2rcd13ifvqgug","pricing_plan_id":"cebpf4jnsgd1na2vs0mg"},{"bike_id":"c0eddc7a-23ca-409a-b561-9bdea12fe2c3","system_id":"levelo_inurba_marseille","lat":43.27613,"lon":5.36106,"is_reserved":false,"is_disabled":false,"rental_uris":{"android":"levelo://app?vid=c0eddc7a-23ca-409a-b561-9bdea12fe2c3","ios":"levelo://app?vid=c0eddc7a-23ca-409a-b561-9bdea12fe2c3"},"vehicle_type_id":"4","last_reported":1726311978,"current_range_meters":21600,"station_id":"ce4bgj92rcd13ifvqbe0","pricing_plan_id":"cebpf4jnsgd1na2vs0mg"},{"bike_id":"c9816ce6-6386-4cf5-aff7-64f4d38d46f5","system_id":"levelo_inurba_marseille","lat":43.26491,"lon":5.39541,"is_reserved":false,"is_disabled":false,"rental_uris":{"android":"levelo://app?vid=c9816ce6-6386-4cf5-aff7-64f4d38d46f5","ios":"levelo://app?vid=c9816ce6-6386-4cf5-aff7-64f4d38d46f5"},"vehicle_type_id":"4","last_reported":1726311978,"current_range_meters":35600,"station_id":"ce4bhi12rcd13ifvqfq0","pricing_plan_id":"cebpf4jnsgd1na2vs0mg"},{"bike_id":"3b441bdc-cc18-4301-bca1-4d7e1e1b705f","system_id":"levelo_inurba_marseille","lat":43.25501,"lon":5.3765,"is_reserved":false,"is_disabled":false,"rental_uris":{"android":"levelo://app?vid=3b441bdc-cc18-4301-bca1-4d7e1e1b705f","ios":"levelo://app?vid=3b441bdc-cc18-4301-bca1-4d7e1e1b705f"},"vehicle_type_id":"4","last_reported":1726311978,"current_range_meters":22800,"station_id":"ce4bhh12rcd13ifvqff0","pricing_plan_id":"cebpf4jnsgd1na2vs0mg"},{"bike_id":"cd746d53-7b31-403a-a6de-e911e0afac6b","system_id":"levelo_inurba_marseille","lat":43.29901,"lon":5.38139,"is_reserved":false,"is_disabled":false,"rental_uris":{"android":"levelo://app?vid=cd746d53-7b31-403a-a6de-e911e0afac6b","ios":"levelo://app?vid=cd746d53-7b31-403a-a6de-e911e0afac6b"},"vehicle_type_id":"4","last_reported":1726311978,"current_range_meters":39200,"station_id":"ce4bgj12rcd13ifvqbc0","pricing_plan_id":"cebpf4jnsgd1na2vs0mg"},{"bike_id":"31190d1b-410f-42b9-bc3c-43e52fb041c0","system_id":"levelo_inurba_marseille","lat":43.3046,"lon":5.37908,"is_reserved":false,"is_disabled":false,"rental_uris":{"android":"levelo://app?vid=31190d1b-410f-42b9-bc3c-43e52fb041c0","ios":"levelo://app?vid=31190d1b-410f-42b9-bc3c-43e52fb041c0"},"vehicle_type_id":"4","last_reported":1726311978,"current_range_meters":32000,"station_id":"ce4bgup2rcd13ifvqcn0","pricing_plan_id":"cebpf4jnsgd1na2vs0mg"},{"bike_id":"c4a48669-0dca-4829-afef-a2621639f240","system_id":"levelo_inurba_marseille","lat":43.28265,"lon":5.35075,"is_reserved":false,"is_disabled":false,"rental_uris":{"android":"levelo://app?vid=c4a48669-0dca-4829-afef-a2621639f240","ios":"levelo://app?vid=c4a48669-0dca-4829-afef-a2621639f240"},"vehicle_type_id":"4","last_reported":1726311978,"current_range_meters":38800,"station_id":"ce4bhbp2rcd13ifvqerg","pricing_plan_id":"cebpf4jnsgd1na2vs0mg"},{"bike_id":"d09aedb3-0212-456b-a0d7-0a019f75665d","system_id":"levelo_inurba_marseille","lat":43.23158,"lon":5.43697,"is_reserved":false,"is_disabled":false,"rental_uris":{"android":"levelo://app?vid=d09aedb3-0212-456b-a0d7-0a019f75665d","ios":"levelo://app?vid=d09aedb3-0212-456b-a0d7-0a019f75665d"},"vehicle_type_id":"4","last_reported":1726311978,"current_range_meters":38800,"station_id":"ce4bhmp2rcd13ifvqgog","pricing_plan_id":"cebpf4jnsgd1na2vs0mg"},{"bike_id":"b2e3c13f-e5d7-4801-ae89-c6a149b3cd8b","system_id":"levelo_inurba_marseille","lat":43.24086,"lon":5.37729,"is_reserved":false,"is_disabled":false,"rental_uris":{"android":"levelo://app?vid=b2e3c13f-e5d7-4801-ae89-c6a149b3cd8b","ios":"levelo://app?vid=b2e3c13f-e5d7-4801-ae89-c6a149b3cd8b"},"vehicle_type_id":"4","last_reported":1726311978,"current_range_meters":36800,"station_id":"ce4bhnp2rcd13ifvqgvg","pricing_plan_id":"cebpf4jnsgd1na2vs0mg"},{"bike_id":"10c3215d-3cf0-4efb-9ab1-64d15350ecfa","system_id":"levelo_inurba_marseille","lat":43.24177,"lon":5.39719,"is_reserved":false,"is_disabled":false,"rental_uris":{"android":"levelo://app?vid=10c3215d-3cf0-4efb-9ab1-64d15350ecfa","ios":"levelo://app?vid=10c3215d-3cf0-4efb-9ab1-64d15350ecfa"},"vehicle_type_id":"4","last_reported":1726311978,"current_range_meters":14800,"station_id":"ce4bhn12rcd13ifvqgpg","pricing_plan_id":"cebpf4jnsgd1na2vs0mg"},{"bike_id":"c24a1fdb-fb2a-4e3b-835d-ce0d09a255ce","system_id":"levelo_inurba_marseille","lat":43.2981,"lon":5.38091,"is_reserved":false,"is_disabled":false,"rental_uris":{"android":"levelo://app?vid=c24a1fdb-fb2a-4e3b-835d-ce0d09a255ce","ios":"levelo://app?vid=c24a1fdb-fb2a-4e3b-835d-ce0d09a255ce"},"vehicle_type_id":"4","last_reported":1726311978,"current_range_meters":40000,"station_id":"ce4bgip2rcd13ifvqbb0","pricing_plan_id":"cebpf4jnsgd1na2vs0mg"},{"bike_id":"82dec1e1-c024-4a59-b080-1ca526441f94","system_id":"levelo_inurba_marseille","lat":43.337612,"lon":5.374504,"is_reserved":false,"is_disabled":false,"rental_uris":{"android":"levelo://app?vid=82dec1e1-c024-4a59-b080-1ca526441f94","ios":"levelo://app?vid=82dec1e1-c024-4a59-b080-1ca526441f94"},"vehicle_type_id":"4","last_reported":1726311978,"current_range_meters":26800,"station_id":"","pricing_plan_id":"cebpf4jnsgd1na2vs0mg"},{"bike_id":"02269f0e-1758-473f-8a5c-764f1ddf9ddc","system_id":"levelo_inurba_marseille","lat":43.2318,"lon":5.39981,"is_reserved":false,"is_disabled":false,"rental_uris":{"android":"levelo://app?vid=02269f0e-1758-473f-8a5c-764f1ddf9ddc","ios":"levelo://app?vid=02269f0e-1758-473f-8a5c-764f1ddf9ddc"},"vehicle_type_id":"4","last_reported":1726311978,"current_range_meters":39200,"station_id":"ce4bhn12rcd13ifvqgqg","pricing_plan_id":"cebpf4jnsgd1na2vs0mg"},{"bike_id":"43412657-8f93-44d7-90fb-da7639962547","system_id":"levelo_inurba_marseille","lat":43.33723,"lon":5.39175,"is_reserved":false,"is_disabled":false,"rental_uris":{"android":"levelo://app?vid=43412657-8f93-44d7-90fb-da7639962547","ios":"levelo://app?vid=43412657-8f93-44d7-90fb-da7639962547"},"vehicle_type_id":"4","last_reported":1726311978,"current_range_meters":27200,"station_id":"ce4bhr92rcd13ifvqhsg","pricing_plan_id":"cebpf4jnsgd1na2vs0mg"},{"bike_id":"75e1c36c-8435-4626-9ac0-77f9c1a07520","system_id":"levelo_inurba_marseille","lat":43.287722,"lon":5.366079,"is_reserved":false,"is_disabled":false,"rental_uris":{"android":"levelo://app?vid=75e1c36c-8435-4626-9ac0-77f9c1a07520","ios":"levelo://app?vid=75e1c36c-8435-4626-9ac0-77f9c1a07520"},"vehicle_type_id":"4","last_reported":1726311978,"current_range_meters":36000,"station_id":"","pricing_plan_id":"cebpf4jnsgd1na2vs0mg"},{"bike_id":"dfff2dc0-6eb1-4788-a32c-3cdc14a5840b","system_id":"levelo_inurba_marseille","lat":43.3012,"lon":5.39881,"is_reserved":false,"is_disabled":false,"rental_uris":{"android":"levelo://app?vid=dfff2dc0-6eb1-4788-a32c-3cdc14a5840b","ios":"levelo://app?vid=dfff2dc0-6eb1-4788-a32c-3cdc14a5840b"},"vehicle_type_id":"4","last_reported":1726311978,"current_range_meters":16000,"station_id":"ce4bh0h2rcd13ifvqd40","pricing_plan_id":"cebpf4jnsgd1na2vs0mg"},{"bike_id":"0a06ff11-7a3d-4baf-81b1-64c96185d019","system_id":"levelo_inurba_marseille","lat":43.28397,"lon":5.37518,"is_reserved":false,"is_disabled":false,"rental_uris":{"android":"levelo://app?vid=0a06ff11-7a3d-4baf-81b1-64c96185d019","ios":"levelo://app?vid=0a06ff11-7a3d-4baf-81b1-64c96185d019"},"vehicle_type_id":"4","last_reported":1726311978,"current_range_meters":30800,"station_id":"ce4bh412rcd13ifvqds0","pricing_plan_id":"cebpf4jnsgd1na2vs0mg"},{"bike_id":"e70ea36b-5469-4e44-ae57-362d670d2868","system_id":"levelo_inurba_marseille","lat":43.29923,"lon":5.3748,"is_reserved":false,"is_disabled":false,"rental_uris":{"android":"levelo://app?vid=e70ea36b-5469-4e44-ae57-362d670d2868","ios":"levelo://app?vid=e70ea36b-5469-4e44-ae57-362d670d2868"},"vehicle_type_id":"4","last_reported":1726311978,"current_range_meters":26800,"station_id":"ce4bgjh2rcd13ifvqbg0","pricing_plan_id":"cebpf4jnsgd1na2vs0mg"},{"bike_id":"04352160-7c1d-41d9-b42f-eb5950269798","system_id":"levelo_inurba_marseille","lat":43.24388,"lon":5.3706,"is_reserved":false,"is_disabled":false,"rental_uris":{"android":"levelo://app?vid=04352160-7c1d-41d9-b42f-eb5950269798","ios":"levelo://app?vid=04352160-7c1d-41d9-b42f-eb5950269798"},"vehicle_type_id":"4","last_reported":1726311978,"current_range_meters":25200,"station_id":"ce4bhhh2rcd13ifvqfk0","pricing_plan_id":"cebpf4jnsgd1na2vs0mg"},{"bike_id":"0bd6e569-2de6-47a7-bbc9-4623ec1d9d5a","system_id":"levelo_inurba_marseille","lat":43.27056,"lon":5.40262,"is_reserved":false,"is_disabled":false,"rental_uris":{"android":"levelo://app?vid=0bd6e569-2de6-47a7-bbc9-4623ec1d9d5a","ios":"levelo://app?vid=0bd6e569-2de6-47a7-bbc9-4623ec1d9d5a"},"vehicle_type_id":"4","last_reported":1726311978,"current_range_meters":33600,"station_id":"ce4bhk92rcd13ifvqgc0","pricing_plan_id":"cebpf4jnsgd1na2vs0mg"},{"bike_id":"6d746e73-7306-44c6-8b16-f8928e1ba6a0","system_id":"levelo_inurba_marseille","lat":43.29575,"lon":5.36735,"is_reserved":false,"is_disabled":false,"rental_uris":{"android":"levelo://app?vid=6d746e73-7306-44c6-8b16-f8928e1ba6a0","ios":"levelo://app?vid=6d746e73-7306-44c6-8b16-f8928e1ba6a0"},"vehicle_type_id":"4","last_reported":1726311978,"current_range_meters":38000,"station_id":"ce4bgph2rcd13ifvqc2g","pricing_plan_id":"cebpf4jnsgd1na2vs0mg"},{"bike_id":"61e00977-be43-400f-99ea-3c33330f7657","system_id":"levelo_inurba_marseille","lat":43.25009,"lon":5.38913,"is_reserved":false,"is_disabled":false,"rental_uris":{"android":"levelo://app?vid=61e00977-be43-400f-99ea-3c33330f7657","ios":"levelo://app?vid=61e00977-be43-400f-99ea-3c33330f7657"},"vehicle_type_id":"4","last_reported":1726311978,"current_range_meters":20000,"station_id":"ce4bhgp2rcd13ifvqfd0","pricing_plan_id":"cebpf4jnsgd1na2vs0mg"},{"bike_id":"f34b735d-f80c-4966-9b6c-fe80bf7f1eb3","system_id":"levelo_inurba_marseille","lat":43.30467,"lon":5.37911,"is_reserved":false,"is_disabled":false,"rental_uris":{"android":"levelo://app?vid=f34b735d-f80c-4966-9b6c-fe80bf7f1eb3","ios":"levelo://app?vid=f34b735d-f80c-4966-9b6c-fe80bf7f1eb3"},"vehicle_type_id":"4","last_reported":1726311978,"current_range_meters":37600,"station_id":"ce4bgup2rcd13ifvqcn0","pricing_plan_id":"cebpf4jnsgd1na2vs0mg"},{"bike_id":"d1f38fcd-be46-4877-a9ac-34b365272c30","system_id":"levelo_inurba_marseille","lat":43.27099,"lon":5.43316,"is_reserved":false,"is_disabled":false,"rental_uris":{"android":"levelo://app?vid=d1f38fcd-be46-4877-a9ac-34b365272c30","ios":"levelo://app?vid=d1f38fcd-be46-4877-a9ac-34b365272c30"},"vehicle_type_id":"4","last_reported":1726311978,"current_range_meters":32800,"station_id":"","pricing_plan_id":"cebpf4jnsgd1na2vs0mg"},{"bike_id":"d0199a96-7800-4e06-821e-e2d714001171","system_id":"levelo_inurba_marseille","lat":43.33761,"lon":5.37445,"is_reserved":false,"is_disabled":false,"rental_uris":{"android":"levelo://app?vid=d0199a96-7800-4e06-821e-e2d714001171","ios":"levelo://app?vid=d0199a96-7800-4e06-821e-e2d714001171"},"vehicle_type_id":"4","last_reported":1726311978,"current_range_meters":33200,"station_id":"","pricing_plan_id":"cebpf4jnsgd1na2vs0mg"},{"bike_id":"92a59cc8-3cf7-46c8-bd6b-5823f8891a53","system_id":"levelo_inurba_marseille","lat":43.30182,"lon":5.3662,"is_reserved":false,"is_disabled":false,"rental_uris":{"android":"levelo://app?vid=92a59cc8-3cf7-46c8-bd6b-5823f8891a53","ios":"levelo://app?vid=92a59cc8-3cf7-46c8-bd6b-5823f8891a53"},"vehicle_type_id":"4","last_reported":1726311978,"current_range_meters":14000,"station_id":"ce4bgrh2rcd13ifvqc8g","pricing_plan_id":"cebpf4jnsgd1na2vs0mg"},{"bike_id":"fa49e1f9-9c49-4db5-afed-72daedf5707d","system_id":"levelo_inurba_marseille","lat":43.29899,"lon":5.38142,"is_reserved":false,"is_disabled":false,"rental_uris":{"android":"levelo://app?vid=fa49e1f9-9c49-4db5-afed-72daedf5707d","ios":"levelo://app?vid=fa49e1f9-9c49-4db5-afed-72daedf5707d"},"vehicle_type_id":"4","last_reported":1726311978,"current_range_meters":38000,"station_id":"ce4bgj12rcd13ifvqbc0","pricing_plan_id":"cebpf4jnsgd1na2vs0mg"},{"bike_id":"f9076aec-56e7-4b2e-a7b1-575337aca9d5","system_id":"levelo_inurba_marseille","lat":43.24167,"lon":5.36406,"is_reserved":false,"is_disabled":false,"rental_uris":{"android":"levelo://app?vid=f9076aec-56e7-4b2e-a7b1-575337aca9d5","ios":"levelo://app?vid=f9076aec-56e7-4b2e-a7b1-575337aca9d5"},"vehicle_type_id":"4","last_reported":1726311978,"current_range_meters":33600,"station_id":"cpo36qri1sfpv3e86is0","pricing_plan_id":"cebpf4jnsgd1na2vs0mg"},{"bike_id":"4bc7cf85-4ea6-4eff-9e63-c54e8f968251","system_id":"levelo_inurba_marseille","lat":43.30956,"lon":5.3904,"is_reserved":false,"is_disabled":false,"rental_uris":{"android":"levelo://app?vid=4bc7cf85-4ea6-4eff-9e63-c54e8f968251","ios":"levelo://app?vid=4bc7cf85-4ea6-4eff-9e63-c54e8f968251"},"vehicle_type_id":"4","last_reported":1726311978,"current_range_meters":16800,"station_id":"ce4bgup2rcd13ifvqco0","pricing_plan_id":"cebpf4jnsgd1na2vs0mg"},{"bike_id":"2ff0cdbe-adf5-4074-9470-656ccf7f57c6","system_id":"levelo_inurba_marseille","lat":43.23191,"lon":5.39977,"is_reserved":false,"is_disabled":false,"rental_uris":{"android":"levelo://app?vid=2ff0cdbe-adf5-4074-9470-656ccf7f57c6","ios":"levelo://app?vid=2ff0cdbe-adf5-4074-9470-656ccf7f57c6"},"vehicle_type_id":"4","last_reported":1726311978,"current_range_meters":39200,"station_id":"ce4bhn12rcd13ifvqgqg","pricing_plan_id":"cebpf4jnsgd1na2vs0mg"},{"bike_id":"9da3cfc3-76e1-45aa-bd84-0cc476fb2e0c","system_id":"levelo_inurba_marseille","lat":43.22924,"lon":5.35379,"is_reserved":false,"is_disabled":false,"rental_uris":{"android":"levelo://app?vid=9da3cfc3-76e1-45aa-bd84-0cc476fb2e0c","ios":"levelo://app?vid=9da3cfc3-76e1-45aa-bd84-0cc476fb2e0c"},"vehicle_type_id":"4","last_reported":1726311978,"current_range_meters":33600,"station_id":"cpo3532slgdg3j2ikp40","pricing_plan_id":"cebpf4jnsgd1na2vs0mg"},{"bike_id":"7fefff57-9245-4348-876e-0833340359e8","system_id":"levelo_inurba_marseille","lat":43.24179,"lon":5.39728,"is_reserved":false,"is_disabled":false,"rental_uris":{"android":"levelo://app?vid=7fefff57-9245-4348-876e-0833340359e8","ios":"levelo://app?vid=7fefff57-9245-4348-876e-0833340359e8"},"vehicle_type_id":"4","last_reported":1726311978,"current_range_meters":23200,"station_id":"ce4bhn12rcd13ifvqgpg","pricing_plan_id":"cebpf4jnsgd1na2vs0mg"},{"bike_id":"ea2c9a21-7a34-4b77-8f98-d5d721bf64ec","system_id":"levelo_inurba_marseille","lat":43.25496,"lon":5.37649,"is_reserved":false,"is_disabled":false,"rental_uris":{"android":"levelo://app?vid=ea2c9a21-7a34-4b77-8f98-d5d721bf64ec","ios":"levelo://app?vid=ea2c9a21-7a34-4b77-8f98-d5d721bf64ec"},"vehicle_type_id":"4","last_reported":1726311978,"current_range_meters":38800,"station_id":"ce4bhh12rcd13ifvqff0","pricing_plan_id":"cebpf4jnsgd1na2vs0mg"},{"bike_id":"103cf9f9-2f0a-447b-a31f-dbd4bc9e6e95","system_id":"levelo_inurba_marseille","lat":43.29554,"lon":5.42282,"is_reserved":false,"is_disabled":false,"rental_uris":{"android":"levelo://app?vid=103cf9f9-2f0a-447b-a31f-dbd4bc9e6e95","ios":"levelo://app?vid=103cf9f9-2f0a-447b-a31f-dbd4bc9e6e95"},"vehicle_type_id":"4","last_reported":1726311978,"current_range_meters":28000,"station_id":"ce4bhph2rcd13ifvqhdg","pricing_plan_id":"cebpf4jnsgd1na2vs0mg"},{"bike_id":"7eeb41d7-ac04-4e0b-8a11-4910c8407457","system_id":"levelo_inurba_marseille","lat":43.23191,"lon":5.39996,"is_reserved":false,"is_disabled":false,"rental_uris":{"android":"levelo://app?vid=7eeb41d7-ac04-4e0b-8a11-4910c8407457","ios":"levelo://app?vid=7eeb41d7-ac04-4e0b-8a11-4910c8407457"},"vehicle_type_id":"4","last_reported":1726311978,"current_range_meters":12400,"station_id":"ce4bhn12rcd13ifvqgqg","pricing_plan_id":"cebpf4jnsgd1na2vs0mg"},{"bike_id":"45d54e99-817d-44f4-bdb2-cbabdd58de29","system_id":"levelo_inurba_marseille","lat":43.29361,"lon":5.37874,"is_reserved":false,"is_disabled":false,"rental_uris":{"android":"levelo://app?vid=45d54e99-817d-44f4-bdb2-cbabdd58de29","ios":"levelo://app?vid=45d54e99-817d-44f4-bdb2-cbabdd58de29"},"vehicle_type_id":"4","last_reported":1726311978,"current_range_meters":28400,"station_id":"ce4bgjh2rcd13ifvqbf0","pricing_plan_id":"cebpf4jnsgd1na2vs0mg"},{"bike_id":"e43a76e7-162a-4b93-a2fb-06ae499c7eb1","system_id":"levelo_inurba_marseille","lat":43.29031,"lon":5.39966,"is_reserved":false,"is_disabled":false,"rental_uris":{"android":"levelo://app?vid=e43a76e7-162a-4b93-a2fb-06ae499c7eb1","ios":"levelo://app?vid=e43a76e7-162a-4b93-a2fb-06ae499c7eb1"},"vehicle_type_id":"4","last_reported":1726311978,"current_range_meters":35200,"station_id":"ce4bh392rcd13ifvqdm0","pricing_plan_id":"cebpf4jnsgd1na2vs0mg"},{"bike_id":"15a9ed03-9c5f-4b5a-b3f4-c5c4f763871c","system_id":"levelo_inurba_marseille","lat":43.28274,"lon":5.35077,"is_reserved":false,"is_disabled":false,"rental_uris":{"android":"levelo://app?vid=15a9ed03-9c5f-4b5a-b3f4-c5c4f763871c","ios":"levelo://app?vid=15a9ed03-9c5f-4b5a-b3f4-c5c4f763871c"},"vehicle_type_id":"4","last_reported":1726311978,"current_range_meters":40000,"station_id":"ce4bhbp2rcd13ifvqerg","pricing_plan_id":"cebpf4jnsgd1na2vs0mg"},{"bike_id":"aa640b84-93c8-4662-8c2a-4d14230c8b84","system_id":"levelo_inurba_marseille","lat":43.296205,"lon":5.376971,"is_reserved":false,"is_disabled":false,"rental_uris":{"android":"levelo://app?vid=aa640b84-93c8-4662-8c2a-4d14230c8b84","ios":"levelo://app?vid=aa640b84-93c8-4662-8c2a-4d14230c8b84"},"vehicle_type_id":"4","last_reported":1726311978,"current_range_meters":28400,"station_id":"ce4bgi92rcd13ifvqb90","pricing_plan_id":"cebpf4jnsgd1na2vs0mg"},{"bike_id":"9c4c1ca5-c293-44ad-aa42-0f03bb7c7359","system_id":"levelo_inurba_marseille","lat":43.254977,"lon":5.376503,"is_reserved":false,"is_disabled":false,"rental_uris":{"android":"levelo://app?vid=9c4c1ca5-c293-44ad-aa42-0f03bb7c7359","ios":"levelo://app?vid=9c4c1ca5-c293-44ad-aa42-0f03bb7c7359"},"vehicle_type_id":"4","last_reported":1726311978,"current_range_meters":20000,"station_id":"ce4bhh12rcd13ifvqff0","pricing_plan_id":"cebpf4jnsgd1na2vs0mg"},{"bike_id":"553ee0c6-4ebd-4f50-8bb6-423253f62e3f","system_id":"levelo_inurba_marseille","lat":43.26486,"lon":5.39556,"is_reserved":false,"is_disabled":false,"rental_uris":{"android":"levelo://app?vid=553ee0c6-4ebd-4f50-8bb6-423253f62e3f","ios":"levelo://app?vid=553ee0c6-4ebd-4f50-8bb6-423253f62e3f"},"vehicle_type_id":"4","last_reported":1726311978,"current_range_meters":30400,"station_id":"ce4bhi12rcd13ifvqfq0","pricing_plan_id":"cebpf4jnsgd1na2vs0mg"},{"bike_id":"9e29d4b2-747c-4f3b-9f50-ffb1424c0569","system_id":"levelo_inurba_marseille","lat":43.29047,"lon":5.35915,"is_reserved":false,"is_disabled":false,"rental_uris":{"android":"levelo://app?vid=9e29d4b2-747c-4f3b-9f50-ffb1424c0569","ios":"levelo://app?vid=9e29d4b2-747c-4f3b-9f50-ffb1424c0569"},"vehicle_type_id":"4","last_reported":1726311978,"current_range_meters":30800,"station_id":"ce4bha92rcd13ifvqeg0","pricing_plan_id":"cebpf4jnsgd1na2vs0mg"},{"bike_id":"7b70e336-12de-4782-ac63-d8edf94e3884","system_id":"levelo_inurba_marseille","lat":43.25566,"lon":5.38225,"is_reserved":false,"is_disabled":false,"rental_uris":{"android":"levelo://app?vid=7b70e336-12de-4782-ac63-d8edf94e3884","ios":"levelo://app?vid=7b70e336-12de-4782-ac63-d8edf94e3884"},"vehicle_type_id":"4","last_reported":1726311978,"current_range_meters":4000,"station_id":"ce4bhih2rcd13ifvqfs0","pricing_plan_id":"cebpf4jnsgd1na2vs0mg"},{"bike_id":"ac2924dc-acd5-48f7-91b6-0db213b6f5a5","system_id":"levelo_inurba_marseille","lat":43.29617,"lon":5.37725,"is_reserved":false,"is_disabled":false,"rental_uris":{"android":"levelo://app?vid=ac2924dc-acd5-48f7-91b6-0db213b6f5a5","ios":"levelo://app?vid=ac2924dc-acd5-48f7-91b6-0db213b6f5a5"},"vehicle_type_id":"4","last_reported":1726311978,"current_range_meters":37600,"station_id":"ce4bgi92rcd13ifvqb90","pricing_plan_id":"cebpf4jnsgd1na2vs0mg"},{"bike_id":"903648e1-d835-4d5e-8dd5-cde45dbfc59d","system_id":"levelo_inurba_marseille","lat":43.30462,"lon":5.37908,"is_reserved":false,"is_disabled":false,"rental_uris":{"android":"levelo://app?vid=903648e1-d835-4d5e-8dd5-cde45dbfc59d","ios":"levelo://app?vid=903648e1-d835-4d5e-8dd5-cde45dbfc59d"},"vehicle_type_id":"4","last_reported":1726311978,"current_range_meters":30000,"station_id":"ce4bgup2rcd13ifvqcn0","pricing_plan_id":"cebpf4jnsgd1na2vs0mg"},{"bike_id":"00d5a27e-e3b8-4286-8633-a5f523a6d2d8","system_id":"levelo_inurba_marseille","lat":43.26608,"lon":5.38808,"is_reserved":false,"is_disabled":false,"rental_uris":{"android":"levelo://app?vid=00d5a27e-e3b8-4286-8633-a5f523a6d2d8","ios":"levelo://app?vid=00d5a27e-e3b8-4286-8633-a5f523a6d2d8"},"vehicle_type_id":"4","last_reported":1726311978,"current_range_meters":29600,"station_id":"ce4bhe12rcd13ifvqf30","pricing_plan_id":"cebpf4jnsgd1na2vs0mg"},{"bike_id":"485510bb-69ce-4c31-8f39-86f19e899e8f","system_id":"levelo_inurba_marseille","lat":43.29104,"lon":5.3811,"is_reserved":false,"is_disabled":false,"rental_uris":{"android":"levelo://app?vid=485510bb-69ce-4c31-8f39-86f19e899e8f","ios":"levelo://app?vid=485510bb-69ce-4c31-8f39-86f19e899e8f"},"vehicle_type_id":"4","last_reported":1726311978,"current_range_meters":6800,"station_id":"ce4bh512rcd13ifvqe2g","pricing_plan_id":"cebpf4jnsgd1na2vs0mg"},{"bike_id":"ca9a5608-80b7-46cd-ae69-7bac36bced0c","system_id":"levelo_inurba_marseille","lat":43.27171,"lon":5.4099,"is_reserved":false,"is_disabled":false,"rental_uris":{"android":"levelo://app?vid=ca9a5608-80b7-46cd-ae69-7bac36bced0c","ios":"levelo://app?vid=ca9a5608-80b7-46cd-ae69-7bac36bced0c"},"vehicle_type_id":"4","last_reported":1726311978,"current_range_meters":38800,"station_id":"ce4bhl12rcd13ifvqgf0","pricing_plan_id":"cebpf4jnsgd1na2vs0mg"},{"bike_id":"b1f83fb8-067e-4176-84bd-684571da43bd","system_id":"levelo_inurba_marseille","lat":43.30884,"lon":5.39641,"is_reserved":false,"is_disabled":false,"rental_uris":{"android":"levelo://app?vid=b1f83fb8-067e-4176-84bd-684571da43bd","ios":"levelo://app?vid=b1f83fb8-067e-4176-84bd-684571da43bd"},"vehicle_type_id":"4","last_reported":1726311978,"current_range_meters":28000,"station_id":"ce4bh012rcd13ifvqcv0","pricing_plan_id":"cebpf4jnsgd1na2vs0mg"},{"bike_id":"b0bd875b-5d7d-4545-9512-adaf94d7c79b","system_id":"levelo_inurba_marseille","lat":43.26554,"lon":5.37286,"is_reserved":false,"is_disabled":false,"rental_uris":{"android":"levelo://app?vid=b0bd875b-5d7d-4545-9512-adaf94d7c79b","ios":"levelo://app?vid=b0bd875b-5d7d-4545-9512-adaf94d7c79b"},"vehicle_type_id":"4","last_reported":1726311978,"current_range_meters":30800,"station_id":"ce4bhg12rcd13ifvqf70","pricing_plan_id":"cebpf4jnsgd1na2vs0mg"},{"bike_id":"c2ca1ec8-aa9b-4712-bcef-83a1af47a80e","system_id":"levelo_inurba_marseille","lat":43.29843,"lon":5.36274,"is_reserved":false,"is_disabled":false,"rental_uris":{"android":"levelo://app?vid=c2ca1ec8-aa9b-4712-bcef-83a1af47a80e","ios":"levelo://app?vid=c2ca1ec8-aa9b-4712-bcef-83a1af47a80e"},"vehicle_type_id":"4","last_reported":1726311978,"current_range_meters":32400,"station_id":"ce4bgpp2rcd13ifvqc3g","pricing_plan_id":"cebpf4jnsgd1na2vs0mg"},{"bike_id":"14290f35-956d-45c2-a0a4-feac7b7ec252","system_id":"levelo_inurba_marseille","lat":43.28619,"lon":5.35096,"is_reserved":false,"is_disabled":false,"rental_uris":{"android":"levelo://app?vid=14290f35-956d-45c2-a0a4-feac7b7ec252","ios":"levelo://app?vid=14290f35-956d-45c2-a0a4-feac7b7ec252"},"vehicle_type_id":"4","last_reported":1726311978,"current_range_meters":18800,"station_id":"ce4bhch2rcd13ifvqeug","pricing_plan_id":"cebpf4jnsgd1na2vs0mg"},