{"last_updated":1743527325,"ttl":60,"version":"2.2","data":{"bikes":[{"bike_id":"1aff04e3-1684-4fa2-8b04-5603b337b697","system_id":"levelo_inurba_marseille","lat":43.29603,"lon":5.37746,"is_reserved":false,"is_disabled":false,"rental_uris":{"android":"levelo://app?vid=1aff04e3-1684-4fa2-8b04-5603b337b697","ios":"levelo://app?vid=1aff04e3-1684-4fa2-8b04-5603b337b697"},"vehicle_type_id":"4","last_reported":1743527326,"current_range_meters":2800,"station_id":"ce4bgi92rcd13ifvqb90","pricing_plan_id":"cebpf4jnsgd1na2vs0mg"},{"bike_id":"d9e6dbea-3ab5-4580-8028-fbd80fd09c13","system_id":"levelo_inurba_marseille","lat":43.29911,"lon":5.38153,"is_reserved":false,"is_disabled":false,"rental_uris":{"android":"levelo://app?vid=d9e6dbea-3ab5-4580-8028-fbd80fd09c13","ios":"levelo://app?vid=d9e6dbea-3ab5-4580-8028-fbd80fd09c13"},"vehicle_type_id":"4","last_reported":1743527326,"current_range_meters":2800,"station_id":"ce4bgj12rcd13ifvqbc0","pricing_plan_id":"cebpf4jnsgd1na2vs0mg"},{"bike_id":"b9c50fc4-623e-431c-83db-b31a817e36d6","system_id":"levelo_inurba_marseille","lat":43.28425,"lon":5.37502,"is_reserved":false,"is_disabled":false,"rental_uris":{"android":"levelo://app?vid=b9c50fc4-623e-431c-83db-b31a817e36d6","ios":"levelo://app?vid=b9c50fc4-623e-431c-83db-b31a817e36d6"},"vehicle_type_id":"4","last_reported":1743527326,"current_range_meters":2800,"station_id":"ce4bh412rcd13ifvqds0","pricing_plan_id":"cebpf4jnsgd1na2vs0mg"},{"bike_id":"c4f2ece2-29ab-4acd-98a6-5bae6d4a4716","system_id":"levelo_inurba_marseille","lat":43.27372,"lon":5.36253,"is_reserved":false,"is_disabled":false,"rental_uris":{"android":"levelo://app?vid=c4f2ece2-29ab-4acd-98a6-5bae6d4a4716","ios":"levelo://app?vid=c4f2ece2-29ab-4acd-98a6-5bae6d4a4716"},"vehicle_type_id":"4","last_reported":1743527326,"current_range_meters":2800,"station_id":"ce4bhbh2rcd13ifvqeo0","pricing_plan_id":"cebpf4jnsgd1na2vs0mg"},{"bike_id":"f3226009-a5f7-412c-a754-d3718d1f941b","system_id":"levelo_inurba_marseille","lat":43.326497,"lon":5.409775,"is_reserved":false,"is_disabled":false,"rental_uris":{"android":"levelo://app?vid=f3226009-a5f7-412c-a754-d3718d1f941b","ios":"levelo://app?vid=f3226009-a5f7-412c-a754-d3718d1f941b"},"vehicle_type_id":"4","last_reported":1743527326,"current_range_meters":2800,"station_id":"","pricing_plan_id":"cebpf4jnsgd1na2vs0mg"},{"bike_id":"a198677f-1d5e-4d03-9763-007bd0254a72","system_id":"levelo_inurba_marseille","lat":43.28352,"lon":5.38102,"is_reserved":false,"is_disabled":false,"rental_uris":{"android":"levelo://app?vid=a198677f-1d5e-4d03-9763-007bd0254a72","ios":"levelo://app?vid=a198677f-1d5e-4d03-9763-007bd0254a72"},"vehicle_type_id":"4","last_reported":1743527326,"current_range_meters":2800,"station_id":"ce4bh412rcd13ifvqdr0","pricing_plan_id":"cebpf4jnsgd1na2vs0mg"},{"bike_id":"22be3e04-1eeb-4ccb-ab0a-cfbffb0e87a5","system_id":"levelo_inurba_marseille","lat":43.3132,"lon":5.39714,"is_reserved":false,"is_disabled":false,"rental_uris":{"android":"levelo://app?vid=22be3e04-1eeb-4ccb-ab0a-cfbffb0e87a5","ios":"levelo://app?vid=22be3e04-1eeb-4ccb-ab0a-cfbffb0e87a5"},"vehicle_type_id":"4","last_reported":1743527326,"current_range_meters":2800,"station_id":"ce4bgvp2rcd13ifvqcu0","pricing_plan_id":"cebpf4jnsgd1na2vs0mg"},{"bike_id":"330b5351-6d84-4604-bcc1-e04d25148677","system_id":"levelo_inurba_marseille","lat":43.296172,"lon":5.365177,"is_reserved":false,"is_disabled":false,"rental_uris":{"android":"levelo://app?vid=330b5351-6d84-4604-bcc1-e04d25148677","ios":"levelo://app?vid=330b5351-6d84-4604-bcc1-e04d25148677"},"vehicle_type_id":"4","last_reported":1743527326,"current_range_meters":2800,"station_id":"","pricing_plan_id":"cebpf4jnsgd1na2vs0mg"},{"bike_id":"6b555c7a-b9aa-43ab-b772-981eae35cf81","system_id":"levelo_inurba_marseille","lat":43.27816,"lon":5.40725,"is_reserved":false,"is_disabled":false,"rental_uris":{"android":"levelo://app?vid=6b555c7a-b9aa-43ab-b772-981eae35cf81","ios":"levelo://app?vid=6b555c7a-b9aa-43ab-b772-981eae35cf81"},"vehicle_type_id":"4","last_reported":1743527326,"current_range_meters":3200,"station_id":"ce4bhnh2rcd13ifvqgtg","pricing_plan_id":"cebpf4jnsgd1na2vs0mg"},{"bike_id":"674a63b8-45e2-4fa6-9e6b-c9569db15f9f","system_id":"levelo_inurba_marseille","lat":43.279,"lon":5.38027,"is_reserved":false,"is_disabled":false,"rental_uris":{"android":"levelo://app?vid=674a63b8-45e2-4fa6-9e6b-c9569db15f9f","ios":"levelo://app?vid=674a63b8-45e2-4fa6-9e6b-c9569db15f9f"},"vehicle_type_id":"4","last_reported":1743527326,"current_range_meters":3200,"station_id":"ce4bhf92rcd13ifvqf50","pricing_plan_id":"cebpf4jnsgd1na2vs0mg"},{"bike_id":"3f7fb305-4d65-41a3-9470-7dedb7e96321","system_id":"levelo_inurba_marseille","lat":43.26936,"lon":5.40255,"is_reserved":false,"is_disabled":false,"rental_uris":{"android":"levelo://app?vid=3f7fb305-4d65-41a3-9470-7dedb7e96321","ios":"levelo://app?vid=3f7fb305-4d65-41a3-9470-7dedb7e96321"},"vehicle_type_id":"4","last_reported":1743527326,"current_range_meters":3200,"station_id":"cjm6bp8fraef2m0cb0m0","pricing_plan_id":"cebpf4jnsgd1na2vs0mg"},{"bike_id":"fe258498-e093-468e-a56a-41fa233a3920","system_id":"levelo_inurba_marseille","lat":43.27182,"lon":5.40993,"is_reserved":false,"is_disabled":false,"rental_uris":{"android":"levelo://app?vid=fe258498-e093-468e-a56a-41fa233a3920","ios":"levelo://app?vid=fe258498-e093-468e-a56a-41fa233a3920"},"vehicle_type_id":"4","last_reported":1743527326,"current_range_meters":3200,"station_id":"ce4bhl12rcd13ifvqgf0","pricing_plan_id":"cebpf4jnsgd1na2vs0mg"},{"bike_id":"c491b166-714a-47ee-a5ee-093ad6349dbd","system_id":"levelo_inurba_marseille","lat":43.26197,"lon":5.3745,"is_reserved":false,"is_disabled":false,"rental_uris":{"android":"levelo://app?vid=c491b166-714a-47ee-a5ee-093ad6349dbd","ios":"levelo://app?vid=c491b166-714a-47ee-a5ee-093ad6349dbd"},"vehicle_type_id":"4","last_reported":1743527326,"current_range_meters":3600,"station_id":"ce4bhgp2rcd13ifvqfc0","pricing_plan_id":"cebpf4jnsgd1na2vs0mg"},{"bike_id":"7885086b-5190-4655-92e8-25c3728fd06c","system_id":"levelo_inurba_marseille","lat":43.28468,"lon":5.35873,"is_reserved":false,"is_disabled":false,"rental_uris":{"android":"levelo://app?vid=7885086b-5190-4655-92e8-25c3728fd06c","ios":"levelo://app?vid=7885086b-5190-4655-92e8-25c3728fd06c"},"vehicle_type_id":"4","last_reported":1743527326,"current_range_meters":3600,"station_id":"ce4bhah2rcd13ifvqei0","pricing_plan_id":"cebpf4jnsgd1na2vs0mg"},{"bike_id":"82473fe6-5221-4b8f-8d4b-c0ce5376bd47","system_id":"levelo_inurba_marseille","lat":43.29228,"lon":5.36071,"is_reserved":false,"is_disabled":false,"rental_uris":{"android":"levelo://app?vid=82473fe6-5221-4b8f-8d4b-c0ce5376bd47","ios":"levelo://app?vid=82473fe6-5221-4b8f-8d4b-c0ce5376bd47"},"vehicle_type_id":"4","last_reported":1743527326,"current_range_meters":3600,"station_id":"ce4bhbh2rcd13ifvqeqg","pricing_plan_id":"cebpf4jnsgd1na2vs0mg"},{"bike_id":"166bcae3-8b8f-4c4d-8edf-bb4a6b994ed5","system_id":"levelo_inurba_marseille","lat":43.29264,"lon":5.3844,"is_reserved":false,"is_disabled":false,"rental_uris":{"android":"levelo://app?vid=166bcae3-8b8f-4c4d-8edf-bb4a6b994ed5","ios":"levelo://app?vid=166bcae3-8b8f-4c4d-8edf-bb4a6b994ed5"},"vehicle_type_id":"4","last_reported":1743527326,"current_range_meters":4000,"station_id":"ce4bh692rcd13ifvqea0","pricing_plan_id":"cebpf4jnsgd1na2vs0mg"},{"bike_id":"3adbbfc6-dfe2-44de-ad50-6b324cc70abc","system_id":"levelo_inurba_marseille","lat":43.29522,"lon":5.39037,"is_reserved":false,"is_disabled":false,"rental_uris":{"android":"levelo://app?vid=3adbbfc6-dfe2-44de-ad50-6b324cc70abc","ios":"levelo://app?vid=3adbbfc6-dfe2-44de-ad50-6b324cc70abc"},"vehicle_type_id":"4","last_reported":1743527326,"current_range_meters":3600,"station_id":"ce4bh3p2rcd13ifvqdp0","pricing_plan_id":"cebpf4jnsgd1na2vs0mg"},{"bike_id":"af3cfe8c-ba88-488e-950b-915dc1379ac0","system_id":"levelo_inurba_marseille","lat":43.27383,"lon":5.36285,"is_reserved":false,"is_disabled":false,"rental_uris":{"android":"levelo://app?vid=af3cfe8c-ba88-488e-950b-915dc1379ac0","ios":"levelo://app?vid=af3cfe8c-ba88-488e-950b-915dc1379ac0"},"vehicle_type_id":"4","last_reported":1743527326,"current_range_meters":4000,"station_id":"ce4bhbh2rcd13ifvqeo0","pricing_plan_id":"cebpf4jnsgd1na2vs0mg"},{"bike_id":"c85e66fc-ae16-46bc-bf4e-db88e8464804","system_id":"levelo_inurba_marseille","lat":43.27567,"lon":5.38411,"is_reserved":false,"is_disabled":false,"rental_uris":{"android":"levelo://app?vid=c85e66fc-ae16-46bc-bf4e-db88e8464804","ios":"levelo://app?vid=c85e66fc-ae16-46bc-bf4e-db88e8464804"},"vehicle_type_id":"4","last_reported":1743527326,"current_range_meters":4000,"station_id":"ce4bhh92rcd13ifvqfi0","pricing_plan_id":"cebpf4jnsgd1na2vs0mg"},{"bike_id":"7b588319-052d-41f9-856a-0c8b01ffee9d","system_id":"levelo_inurba_marseille","lat":43.28081,"lon":5.39661,"is_reserved":false,"is_disabled":false,"rental_uris":{"android":"levelo://app?vid=7b588319-052d-41f9-856a-0c8b01ffee9d","ios":"levelo://app?vid=7b588319-052d-41f9-856a-0c8b01ffee9d"},"vehicle_type_id":"4","last_reported":1743527326,"current_range_meters":4000,"station_id":"ce4bho12rcd13ifvqh2g","pricing_plan_id":"cebpf4jnsgd1na2vs0mg"},{"bike_id":"b75aef9b-1978-4bed-924d-90f75142ea40","system_id":"levelo_inurba_marseille","lat":43.29972,"lon":5.38492,"is_reserved":false,"is_disabled":false,"rental_uris":{"android":"levelo://app?vid=b75aef9b-1978-4bed-924d-90f75142ea40","ios":"levelo://app?vid=b75aef9b-1978-4bed-924d-90f75142ea40"},"vehicle_type_id":"4","last_reported":1743527326,"current_range_meters":4000,"station_id":"ce4bgj92rcd13ifvqbd0","pricing_plan_id":"cebpf4jnsgd1na2vs0mg"},{"bike_id":"d6b8c753-9417-42f8-94b0-1584022ded69","system_id":"levelo_inurba_marseille","lat":43.26567,"lon":5.38998,"is_reserved":false,"is_disabled":false,"rental_uris":{"android":"levelo://app?vid=d6b8c753-9417-42f8-94b0-1584022ded69","ios":"levelo://app?vid=d6b8c753-9417-42f8-94b0-1584022ded69"},"vehicle_type_id":"4","last_reported":1743527326,"current_range_meters":4000,"station_id":"ce4bhe12rcd13ifvqf30","pricing_plan_id":"cebpf4jnsgd1na2vs0mg"},{"bike_id":"fc5bcdb6-2c4e-4f80-acbd-69b0edc46ed9","system_id":"levelo_inurba_marseille","lat":43.31328,"lon":5.3969,"is_reserved":false,"is_disabled":false,"rental_uris":{"android":"levelo://app?vid=fc5bcdb6-2c4e-4f80-acbd-69b0edc46ed9","ios":"levelo://app?vid=fc5bcdb6-2c4e-4f80-acbd-69b0edc46ed9"},"vehicle_type_id":"4","last_reported":1743527326,"current_range_meters":3600,"station_id":"ce4bgvp2rcd13ifvqcu0","pricing_plan_id":"cebpf4jnsgd1na2vs0mg"},{"bike_id":"c3fc8d7e-5de0-4e53-861b-f022d6d697b3","system_id":"levelo_inurba_marseille","lat":43.266247,"lon":5.373832,"is_reserved":false,"is_disabled":false,"rental_uris":{"android":"levelo://app?vid=c3fc8d7e-5de0-4e53-861b-f022d6d697b3","ios":"levelo://app?vid=c3fc8d7e-5de0-4e53-861b-f022d6d697b3"},"vehicle_type_id":"4","last_reported":1743527326,"current_range_meters":4000,"station_id":"","pricing_plan_id":"cebpf4jnsgd1na2vs0mg"},{"bike_id":"4b39ecf5-38cb-408b-8823-098d0675bdef","system_id":"levelo_inurba_marseille","lat":43.29563,"lon":5.39037,"is_reserved":false,"is_disabled":false,"rental_uris":{"android":"levelo://app?vid=4b39ecf5-38cb-408b-8823-098d0675bdef","ios":"levelo://app?vid=4b39ecf5-38cb-408b-8823-098d0675bdef"},"vehicle_type_id":"4","last_reported":1743527326,"current_range_meters":4400,"station_id":"","pricing_plan_id":"cebpf4jnsgd1na2vs0mg"},{"bike_id":"b4cd27f4-2698-4b82-94b7-122d752a46ac","system_id":"levelo_inurba_marseille","lat":43.27565,"lon":5.38422,"is_reserved":false,"is_disabled":false,"rental_uris":{"android":"levelo://app?vid=b4cd27f4-2698-4b82-94b7-122d752a46ac","ios":"levelo://app?vid=b4cd27f4-2698-4b82-94b7-122d752a46ac"},"vehicle_type_id":"4","last_reported":1743527326,"current_range_meters":4400,"station_id":"ce4bhh92rcd13ifvqfi0","pricing_plan_id":"cebpf4jnsgd1na2vs0mg"},{"bike_id":"020be9f0-dbd8-4a9f-8385-287e94b7afbf","system_id":"levelo_inurba_marseille","lat":43.27173,"lon":5.40955,"is_reserved":false,"is_disabled":false,"rental_uris":{"android":"levelo://app?vid=020be9f0-dbd8-4a9f-8385-287e94b7afbf","ios":"levelo://app?vid=020be9f0-dbd8-4a9f-8385-287e94b7afbf"},"vehicle_type_id":"4","last_reported":1743527326,"current_range_meters":4400,"station_id":"ce4bhl12rcd13ifvqgf0","pricing_plan_id":"cebpf4jnsgd1na2vs0mg"},{"bike_id":"93f67950-5abc-4ee8-9b36-3aa6597084b5","system_id":"levelo_inurba_marseille","lat":43.29027,"lon":5.38646,"is_reserved":false,"is_disabled":false,"rental_uris":{"android":"levelo://app?vid=93f67950-5abc-4ee8-9b36-3aa6597084b5","ios":"levelo://app?vid=93f67950-5abc-4ee8-9b36-3aa6597084b5"},"vehicle_type_id":"4","last_reported":1743527326,"current_range_meters":4400,"station_id":"ce4bh4p2rcd13ifvqe0g","pricing_plan_id":"cebpf4jnsgd1na2vs0mg"},{"bike_id":"432a7ebe-5223-4cbf-af9f-42747defb5fc","system_id":"levelo_inurba_marseille","lat":43.30658,"lon":5.40103,"is_reserved":false,"is_disabled":false,"rental_uris":{"android":"levelo://app?vid=432a7ebe-5223-4cbf-af9f-42747defb5fc","ios":"levelo://app?vid=432a7ebe-5223-4cbf-af9f-42747defb5fc"},"vehicle_type_id":"4","last_reported":1743527326,"current_range_meters":4800,"station_id":"ce4bh112rcd13ifvqda0","pricing_plan_id":"cebpf4jnsgd1na2vs0mg"},{"bike_id":"070680bd-a925-4cf6-a5ea-c25b267a925d","system_id":"levelo_inurba_marseille","lat":43.28271,"lon":5.3506,"is_reserved":false,"is_disabled":false,"rental_uris":{"android":"levelo://app?vid=070680bd-a925-4cf6-a5ea-c25b267a925d","ios":"levelo://app?vid=070680bd-a925-4cf6-a5ea-c25b267a925d"},"vehicle_type_id":"4","last_reported":1743527326,"current_range_meters":4400,"station_id":"ce4bhbp2rcd13ifvqerg","pricing_plan_id":"cebpf4jnsgd1na2vs0mg"},{"bike_id":"555a8d80-9b65-4666-a10c-a4535e3f897a","system_id":"levelo_inurba_marseille","lat":43.28424,"lon":5.3499,"is_reserved":false,"is_disabled":false,"rental_uris":{"android":"levelo://app?vid=555a8d80-9b65-4666-a10c-a4535e3f897a","ios":"levelo://app?vid=555a8d80-9b65-4666-a10c-a4535e3f897a"},"vehicle_type_id":"4","last_reported":1743527326,"current_range_meters":4800,"station_id":"ce4bhbh2rcd13ifvqepg","pricing_plan_id":"cebpf4jnsgd1na2vs0mg"},{"bike_id":"44d990ec-87b1-4603-bafb-23a96de1535a","system_id":"levelo_inurba_marseille","lat":43.28938,"lon":5.36641,"is_reserved":false,"is_disabled":false,"rental_uris":{"android":"levelo://app?vid=44d990ec-87b1-4603-bafb-23a96de1535a","ios":"levelo://app?vid=44d990ec-87b1-4603-bafb-23a96de1535a"},"vehicle_type_id":"4","last_reported":1743527326,"current_range_meters":4800,"station_id":"ce4bhap2rcd13ifvqek0","pricing_plan_id":"cebpf4jnsgd1na2vs0mg"},{"bike_id":"1b167083-12b7-424b-b082-ddc2382f2cdc","system_id":"levelo_inurba_marseille","lat":43.285986,"lon":5.35095,"is_reserved":false,"is_disabled":false,"rental_uris":{"android":"levelo://app?vid=1b167083-12b7-424b-b082-ddc2382f2cdc","ios":"levelo://app?vid=1b167083-12b7-424b-b082-ddc2382f2cdc"},"vehicle_type_id":"4","last_reported":1743527326,"current_range_meters":4800,"station_id":"","pricing_plan_id":"cebpf4jnsgd1na2vs0mg"},{"bike_id":"791f8b6d-c7b8-43a3-af53-554de4edbd8b","system_id":"levelo_inurba_marseille","lat":43.27088,"lon":5.40021,"is_reserved":false,"is_disabled":false,"rental_uris":{"android":"levelo://app?vid=791f8b6d-c7b8-43a3-af53-554de4edbd8b","ios":"levelo://app?vid=791f8b6d-c7b8-43a3-af53-554de4edbd8b"},"vehicle_type_id":"4","last_reported":1743527326,"current_range_meters":5600,"station_id":"","pricing_plan_id":"cebpf4jnsgd1na2vs0mg"},{"bike_id":"84b5ca14-c156-47f5-9efe-89c07796da55","system_id":"levelo_inurba_marseille","lat":43.28667,"lon":5.36346,"is_reserved":false,"is_disabled":false,"rental_uris":{"android":"levelo://app?vid=84b5ca14-c156-47f5-9efe-89c07796da55","ios":"levelo://app?vid=84b5ca14-c156-47f5-9efe-89c07796da55"},"vehicle_type_id":"4","last_reported":1743527326,"current_range_meters":5600,"station_id":"ce4bhah2rcd13ifvqej0","pricing_plan_id":"cebpf4jnsgd1na2vs0mg"},{"bike_id":"dd7ef6a6-59d4-4f99-a308-8d32737d18e0","system_id":"levelo_inurba_marseille","lat":43.30303,"lon":5.39216,"is_reserved":false,"is_disabled":false,"rental_uris":{"android":"levelo://app?vid=dd7ef6a6-59d4-4f99-a308-8d32737d18e0","ios":"levelo://app?vid=dd7ef6a6-59d4-4f99-a308-8d32737d18e0"},"vehicle_type_id":"4","last_reported":1743527326,"current_range_meters":1600,"station_id":"ce4bgkh2rcd13ifvqbk0","pricing_plan_id":"cebpf4jnsgd1na2vs0mg"},{"bike_id":"0c40db3f-32b6-4ea9-9b45-f4c085819df2","system_id":"levelo_inurba_marseille","lat":43.28344,"lon":5.38887,"is_reserved":false,"is_disabled":false,"rental_uris":{"android":"levelo://app?vid=0c40db3f-32b6-4ea9-9b45-f4c085819df2","ios":"levelo://app?vid=0c40db3f-32b6-4ea9-9b45-f4c085819df2"},"vehicle_type_id":"4","last_reported":1743527326,"current_range_meters":5600,"station_id":"","pricing_plan_id":"cebpf4jnsgd1na2vs0mg"},{"bike_id":"70293871-a20c-40da-adf3-d7c176c6fd8a","system_id":"levelo_inurba_marseille","lat":43.28932,"lon":5.3841,"is_reserved":false,"is_disabled":false,"rental_uris":{"android":"levelo://app?vid=70293871-a20c-40da-adf3-d7c176c6fd8a","ios":"levelo://app?vid=70293871-a20c-40da-adf3-d7c176c6fd8a"},"vehicle_type_id":"4","last_reported":1743527326,"current_range_meters":5600,"station_id":"ce4bh612rcd13ifvqe6g","pricing_plan_id":"cebpf4jnsgd1na2vs0mg"},{"bike_id":"91d48793-5dd7-45b0-b672-d2eea9be4411","system_id":"levelo_inurba_marseille","lat":43.24999,"lon":5.38937,"is_reserved":false,"is_disabled":false,"rental_uris":{"android":"levelo://app?vid=91d48793-5dd7-45b0-b672-d2eea9be4411","ios":"levelo://app?vid=91d48793-5dd7-45b0-b672-d2eea9be4411"},"vehicle_type_id":"4","last_reported":1743527326,"current_range_meters":5600,"station_id":"ce4bhgp2rcd13ifvqfd0","pricing_plan_id":"cebpf4jnsgd1na2vs0mg"},{"bike_id":"121010d1-d0ea-475b-97a6-f9054736109c","system_id":"levelo_inurba_marseille","lat":43.23196,"lon":5.39998,"is_reserved":false,"is_disabled":false,"rental_uris":{"android":"levelo://app?vid=121010d1-d0ea-475b-97a6-f9054736109c","ios":"levelo://app?vid=121010d1-d0ea-475b-97a6-f9054736109c"},"vehicle_type_id":"4","last_reported":1743527326,"current_range_meters":6000,"station_id":"ce4bhn12rcd13ifvqgqg","pricing_plan_id":"cebpf4jnsgd1na2vs0mg"},{"bike_id":"0c3e773c-5390-49d4-919f-0d81b912c8f6","system_id":"levelo_inurba_marseille","lat":43.28483,"lon":5.38417,"is_reserved":false,"is_disabled":false,"rental_uris":{"android":"levelo://app?vid=0c3e773c-5390-49d4-919f-0d81b912c8f6","ios":"levelo://app?vid=0c3e773c-5390-49d4-919f-0d81b912c8f6"},"vehicle_type_id":"4","last_reported":1743527326,"current_range_meters":6000,"station_id":"ce4bh512rcd13ifvqe3g","pricing_plan_id":"cebpf4jnsgd1na2vs0mg"},{"bike_id":"eea0860d-e794-4d7c-a275-01ef1539e211","system_id":"levelo_inurba_marseille","lat":43.28943,"lon":5.39629,"is_reserved":false,"is_disabled":false,"rental_uris":{"android":"levelo://app?vid=eea0860d-e794-4d7c-a275-01ef1539e211","ios":"levelo://app?vid=eea0860d-e794-4d7c-a275-01ef1539e211"},"vehicle_type_id":"4","last_reported":1743527326,"current_range_meters":5600,"station_id":"ce4bh3h2rcd13ifvqdn0","pricing_plan_id":"cebpf4jnsgd1na2vs0mg"},{"bike_id":"f27fea75-c0ec-46f3-afd7-caabe3619969","system_id":"levelo_inurba_marseille","lat":43.257825,"lon":5.399536,"is_reserved":false,"is_disabled":false,"rental_uris":{"android":"levelo://app?vid=f27fea75-c0ec-46f3-afd7-caabe3619969","ios":"levelo://app?vid=f27fea75-c0ec-46f3-afd7-caabe3619969"},"vehicle_type_id":"4","last_reported":1743527326,"current_range_meters":6000,"station_id":"ce4bhkp2rcd13ifvqgd0","pricing_plan_id":"cebpf4jnsgd1na2vs0mg"},{"bike_id":"4f6db61e-8293-4a0d-bb9c-f9aae02e4996","system_id":"levelo_inurba_marseille","lat":43.25102,"lon":5.39526,"is_reserved":false,"is_disabled":false,"rental_uris":{"android":"levelo://app?vid=4f6db61e-8293-4a0d-bb9c-f9aae02e4996","ios":"levelo://app?vid=4f6db61e-8293-4a0d-bb9c-f9aae02e4996"},"vehicle_type_id":"4","last_reported":1743527326,"current_range_meters":6000,"station_id":"ce4bhm12rcd13ifvqgkg","pricing_plan_id":"cebpf4jnsgd1na2vs0mg"},{"bike_id":"a41534f6-9f1a-47b5-9ab8-2f54e9744c38","system_id":"levelo_inurba_marseille","lat":43.31759,"lon":5.39018,"is_reserved":false,"is_disabled":false,"rental_uris":{"android":"levelo://app?vid=a41534f6-9f1a-47b5-9ab8-2f54e9744c38","ios":"levelo://app?vid=a41534f6-9f1a-47b5-9ab8-2f54e9744c38"},"vehicle_type_id":"4","last_reported":1743527326,"current_range_meters":6000,"station_id":"ce4bhqp2rcd13ifvqhng","pricing_plan_id":"cebpf4jnsgd1na2vs0mg"},{"bike_id":"049e97da-6aeb-44e5-8673-21426d8e26e2","system_id":"levelo_inurba_marseille","lat":43.27949,"lon":5.4105,"is_reserved":false,"is_disabled":false,"rental_uris":{"android":"levelo://app?vid=049e97da-6aeb-44e5-8673-21426d8e26e2","ios":"levelo://app?vid=049e97da-6aeb-44e5-8673-21426d8e26e2"},"vehicle_type_id":"4","last_reported":1743527326,"current_range_meters":6400,"station_id":"ce4bhnp2rcd13ifvqh0g","pricing_plan_id":"cebpf4jnsgd1na2vs0mg"},{"bike_id":"9f5e6999-19ab-4d56-a8a1-b1747b623f0f","system_id":"levelo_inurba_marseille","lat":43.301815,"lon":5.366147,"is_reserved":false,"is_disabled":false,"rental_uris":{"android":"levelo://app?vid=9f5e6999-19ab-4d56-a8a1-b1747b623f0f","ios":"levelo://app?vid=9f5e6999-19ab-4d56-a8a1-b1747b623f0f"},"vehicle_type_id":"4","last_reported":1743527326,"current_range_meters":6400,"station_id":"ce4bgrh2rcd13ifvqc8g","pricing_plan_id":"cebpf4jnsgd1na2vs0mg"},{"bike_id":"fef1d547-feef-4239-90b2-e0f3b60672f8","system_id":"levelo_inurba_marseille","lat":43.29578,"lon":5.39962,"is_reserved":false,"is_disabled":true,"rental_uris":{"android":"levelo://app?vid=fef1d547-feef-4239-90b2-e0f3b60672f8","ios":"levelo://app?vid=fef1d547-feef-4239-90b2-e0f3b60672f8"},"vehicle_type_id":"4","last_reported":1743527326,"current_range_meters":6400,"station_id":"ce4bh312rcd13ifvqdj0","pricing_plan_id":"cebpf4jnsgd1na2vs0mg"},{"bike_id":"88d14ea5-5d98-4c34-9263-f22bec23b2b1","system_id":"levelo_inurba_marseille","lat":43.31761,"lon":5.39014,"is_reserved":false,"is_disabled":false,"rental_uris":{"android":"levelo://app?vid=88d14ea5-5d98-4c34-9263-f22bec23b2b1","ios":"levelo://app?vid=88d14ea5-5d98-4c34-9263-f22bec23b2b1"},"vehicle_type_id":"4","last_reported":1743527326,"current_range_meters":6400,"station_id":"ce4bhqp2rcd13ifvqhng","pricing_plan_id":"cebpf4jnsgd1na2vs0mg"},{"bike_id":"3f9dbb0e-19fd-42d9-9d51-11fb28629530","system_id":"levelo_inurba_marseille","lat":43.31241,"lon":5.37646,"is_reserved":false,"is_disabled":false,"rental_uris":{"android":"levelo://app?vid=3f9dbb0e-19fd-42d9-9d51-11fb28629530","ios":"levelo://app?vid=3f9dbb0e-19fd-42d9-9d51-11fb28629530"},"vehicle_type_id":"4","last_reported":1743527326,"current_range_meters":6400,"station_id":"","pricing_plan_id":"cebpf4jnsgd1na2vs0mg"},{"bike_id":"c6438c46-204d-4a79-9a65-1f7b29c6cbc4","system_id":"levelo_inurba_marseille","lat":43.28459,"lon":5.39163,"is_reserved":false,"is_disabled":true,"rental_uris":{"android":"levelo://app?vid=c6438c46-204d-4a79-9a65-1f7b29c6cbc4","ios":"levelo://app?vid=c6438c46-204d-4a79-9a65-1f7b29c6cbc4"},"vehicle_type_id":"4","last_reported":1743527326,"current_range_meters":6400,"station_id":"ce4bhoh2rcd13ifvqh5g","pricing_plan_id":"cebpf4jnsgd1na2vs0mg"},{"bike_id":"2e8d8654-23f7-434b-a09e-ae1e8d2abb71","system_id":"levelo_inurba_marseille","lat":43.25104,"lon":5.39517,"is_reserved":false,"is_disabled":false,"rental_uris":{"android":"levelo://app?vid=2e8d8654-23f7-434b-a09e-ae1e8d2abb71","ios":"levelo://app?vid=2e8d8654-23f7-434b-a09e-ae1e8d2abb71"},"vehicle_type_id":"4","last_reported":1743527326,"current_range_meters":6400,"station_id":"ce4bhm12rcd13ifvqgkg","pricing_plan_id":"cebpf4jnsgd1na2vs0mg"},{"bike_id":"c06a8e13-2d24-4e43-a8db-a50fb5be1b2b","system_id":"levelo_inurba_marseille","lat":43.28731,"lon":5.36092,"is_reserved":false,"is_disabled":false,"rental_uris":{"android":"levelo://app?vid=c06a8e13-2d24-4e43-a8db-a50fb5be1b2b","ios":"levelo://app?vid=c06a8e13-2d24-4e43-a8db-a50fb5be1b2b"},"vehicle_type_id":"4","last_reported":1743527326,"current_range_meters":6400,"station_id":"cki0cbj6b192h4jlfktg","pricing_plan_id":"cebpf4jnsgd1na2vs0mg"},{"bike_id":"03cc9f61-dd7c-4ac7-af3a-55f779162c79","system_id":"levelo_inurba_marseille","lat":43.26805,"lon":5.4022,"is_reserved":false,"is_disabled":false,"rental_uris":{"android":"levelo://app?vid=03cc9f61-dd7c-4ac7-af3a-55f779162c79","ios":"levelo://app?vid=03cc9f61-dd7c-4ac7-af3a-55f779162c79"},"vehicle_type_id":"4","last_reported":1743527326,"current_range_meters":6400,"station_id":"ce501612rcd8frsf0b60","pricing_plan_id":"cebpf4jnsgd1na2vs0mg"},{"bike_id":"93813b1c-eef9-4c15-92dc-b6b0efd25128","system_id":"levelo_inurba_marseille","lat":43.29305,"lon":5.37468,"is_reserved":false,"is_disabled":false,"rental_uris":{"android":"levelo://app?vid=93813b1c-eef9-4c15-92dc-b6b0efd25128","ios":"levelo://app?vid=93813b1c-eef9-4c15-92dc-b6b0efd25128"},"vehicle_type_id":"4","last_reported":1743527326,"current_range_meters":6400,"station_id":"ce4bgi12rcd13ifvqb70","pricing_plan_id":"cebpf4jnsgd1na2vs0mg"},{"bike_id":"83701cc3-e40a-4217-b4ca-645cabf57ddd","system_id":"levelo_inurba_marseille","lat":43.2847,"lon":5.38409,"is_reserved":false,"is_disabled":false,"rental_uris":{"android":"levelo://app?vid=83701cc3-e40a-4217-b4ca-645cabf57ddd","ios":"levelo://app?vid=83701cc3-e40a-4217-b4ca-645cabf57ddd"},"vehicle_type_id":"4","last_reported":1743527326,"current_range_meters":6400,"station_id":"ce4bh512rcd13ifvqe3g","pricing_plan_id":"cebpf4jnsgd1na2vs0mg"},{"bike_id":"6dbdc4ee-00d8-4c09-ac00-c4b85c4a8b76","system_id":"levelo_inurba_marseille","lat":43.30339,"lon":5.40452,"is_reserved":false,"is_disabled":false,"rental_uris":{"android":"levelo://app?vid=6dbdc4ee-00d8-4c09-ac00-c4b85c4a8b76","ios":"levelo://app?vid=6dbdc4ee-00d8-4c09-ac00-c4b85c4a8b76"},"vehicle_type_id":"4","last_reported":1743527326,"current_range_meters":1600,"station_id":"ce4bh012rcd13ifvqd10","pricing_plan_id":"cebpf4jnsgd1na2vs0mg"},{"bike_id":"f0fe8621-6046-47fb-904b-c3309f947383","system_id":"levelo_inurba_marseille","lat":43.28464,"lon":5.35875,"is_reserved":false,"is_disabled":false,"rental_uris":{"android":"levelo://app?vid=f0fe8621-6046-47fb-904b-c3309f947383","ios":"levelo://app?vid=f0fe8621-6046-47fb-904b-c3309f947383"},"vehicle_type_id":"4","last_reported":1743527326,"current_range_meters":6800,"station_id":"ce4bhah2rcd13ifvqei0","pricing_plan_id":"cebpf4jnsgd1na2vs0mg"},{"bike_id":"23a2997f-acca-44d1-a72c-cccdd94a796c","system_id":"levelo_inurba_marseille","lat":43.30901,"lon":5.40205,"is_reserved":false,"is_disabled":true,"rental_uris":{"android":"levelo://app?vid=23a2997f-acca-44d1-a72c-cccdd94a796c","ios":"levelo://app?vid=23a2997f-acca-44d1-a72c-cccdd94a796c"},"vehicle_type_id":"4","last_reported":1743527326,"current_range_meters":6800,"station_id":"","pricing_plan_id":"cebpf4jnsgd1na2vs0mg"},{"bike_id":"eebf72b5-e3ef-4e3f-8181-c82b2045fd37","system_id":"levelo_inurba_marseille","lat":43.26551,"lon":5.37311,"is_reserved":false,"is_disabled":false,"rental_uris":{"android":"levelo://app?vid=eebf72b5-e3ef-4e3f-8181-c82b2045fd37","ios":"levelo://app?vid=eebf72b5-e3ef-4e3f-8181-c82b2045fd37"},"vehicle_type_id":"4","last_reported":1743527326,"current_range_meters":6800,"station_id":"ce4bhg12rcd13ifvqf70","pricing_plan_id":"cebpf4jnsgd1na2vs0mg"},{"bike_id":"cc50a121-30f5-4ec0-9fd0-0d8cc5adbd88","system_id":"levelo_inurba_marseille","lat":43.26572,"lon":5.39005,"is_reserved":false,"is_disabled":false,"rental_uris":{"android":"levelo://app?vid=cc50a121-30f5-4ec0-9fd0-0d8cc5adbd88","ios":"levelo://app?vid=cc50a121-30f5-4ec0-9fd0-0d8cc5adbd88"},"vehicle_type_id":"4","last_reported":1743527326,"current_range_meters":6800,"station_id":"ce4bhe12rcd13ifvqf30","pricing_plan_id":"cebpf4jnsgd1na2vs0mg"},{"bike_id":"d8dc7b2b-b521-459d-a4da-10bf163ca7c0","system_id":"levelo_inurba_marseille","lat":43.24668,"lon":5.38155,"is_reserved":false,"is_disabled":false,"rental_uris":{"android":"levelo://app?vid=d8dc7b2b-b521-459d-a4da-10bf163ca7c0","ios":"levelo://app?vid=d8dc7b2b-b521-459d-a4da-10bf163ca7c0"},"vehicle_type_id":"4","last_reported":1743527326,"current_range_meters":6800,"station_id":"ce4bhih2rcd13ifvqfr0","pricing_plan_id":"cebpf4jnsgd1na2vs0mg"},{"bike_id":"6add71b7-adf0-4f98-885f-f3bb4546e392","system_id":"levelo_inurba_marseille","lat":43.33723,"lon":5.39188,"is_reserved":false,"is_disabled":false,"rental_uris":{"android":"levelo://app?vid=6add71b7-adf0-4f98-885f-f3bb4546e392","ios":"levelo://app?vid=6add71b7-adf0-4f98-885f-f3bb4546e392"},"vehicle_type_id":"4","last_reported":1743527326,"current_range_meters":6400,"station_id":"ce4bhr92rcd13ifvqhsg","pricing_plan_id":"cebpf4jnsgd1na2vs0mg"},{"bike_id":"99cd9895-1b86-4004-9be9-3f3cd248e40d","system_id":"levelo_inurba_marseille","lat":43.30596,"lon":5.37245,"is_reserved":false,"is_disabled":false,"rental_uris":{"android":"levelo://app?vid=99cd9895-1b86-4004-9be9-3f3cd248e40d","ios":"levelo://app?vid=99cd9895-1b86-4004-9be9-3f3cd248e40d"},"vehicle_type_id":"4","last_reported":1743527326,"current_range_meters":6800,"station_id":"ce4bgqh2rcd13ifvqc4g","pricing_plan_id":"cebpf4jnsgd1na2vs0mg"},{"bike_id":"1da9bcf5-372c-4401-9d72-7f8bcad4d249","system_id":"levelo_inurba_marseille","lat":43.29881,"lon":5.389,"is_reserved":false,"is_disabled":false,"rental_uris":{"android":"levelo://app?vid=1da9bcf5-372c-4401-9d72-7f8bcad4d249","ios":"levelo://app?vid=1da9bcf5-372c-4401-9d72-7f8bcad4d249"},"vehicle_type_id":"4","last_reported":1743527326,"current_range_meters":6400,"station_id":"ce4bh392rcd13ifvqdl0","pricing_plan_id":"cebpf4jnsgd1na2vs0mg"},{"bike_id":"14259cd2-8550-4a0e-860f-33a6227574e7","system_id":"levelo_inurba_marseille","lat":43.29809,"lon":5.38098,"is_reserved":false,"is_disabled":false,"rental_uris":{"android":"levelo://app?vid=14259cd2-8550-4a0e-860f-33a6227574e7","ios":"levelo://app?vid=14259cd2-8550-4a0e-860f-33a6227574e7"},"vehicle_type_id":"4","last_reported":1743527326,"current_range_meters":6400,"station_id":"ce4bgip2rcd13ifvqbb0","pricing_plan_id":"cebpf4jnsgd1na2vs0mg"},{"bike_id":"e0c838b6-37f5-4b4f-bb89-487a0ae7ca4a","system_id":"levelo_inurba_marseille","lat":43.3073,"lon":5.4244,"is_reserved":false,"is_disabled":false,"rental_uris":{"android":"levelo://app?vid=e0c838b6-37f5-4b4f-bb89-487a0ae7ca4a","ios":"levelo://app?vid=e0c838b6-37f5-4b4f-bb89-487a0ae7ca4a"},"vehicle_type_id":"4","last_reported":1743527326,"current_range_meters":6800,"station_id":"st_cvj6ca6bvosntc0bfgr0","pricing_plan_id":"cebpf4jnsgd1na2vs0mg"},{"bike_id":"1d88f4a3-9fba-48c8-a6c8-77657445585d","system_id":"levelo_inurba_marseille","lat":43.29915,"lon":5.4366,"is_reserved":false,"is_disabled":false,"rental_uris":{"android":"levelo://app?vid=1d88f4a3-9fba-48c8-a6c8-77657445585d","ios":"levelo://app?vid=1d88f4a3-9fba-48c8-a6c8-77657445585d"},"vehicle_type_id":"4","last_reported":1743527326,"current_range_meters":6800,"station_id":"ce4bhpp2rcd13ifvqhfg","pricing_plan_id":"cebpf4jnsgd1na2vs0mg"},{"bike_id":"9b853657-bd07-4a0b-93cd-fe34f77945b3","system_id":"levelo_inurba_marseille","lat":43.26494,"lon":5.39533,"is_reserved":false,"is_disabled":false,"rental_uris":{"android":"levelo://app?vid=9b853657-bd07-4a0b-93cd-fe34f77945b3","ios":"levelo://app?vid=9b853657-bd07-4a0b-93cd-fe34f77945b3"},"vehicle_type_id":"4","last_reported":1743527326,"current_range_meters":6800,"station_id":"ce4bhi12rcd13ifvqfq0","pricing_plan_id":"cebpf4jnsgd1na2vs0mg"},{"bike_id":"b002be03-d516-4454-9e26-f49bc2376278","system_id":"levelo_inurba_marseille","lat":43.292816,"lon":5.368428,"is_reserved":false,"is_disabled":false,"rental_uris":{"android":"levelo://app?vid=b002be03-d516-4454-9e26-f49bc2376278","ios":"levelo://app?vid=b002be03-d516-4454-9e26-f49bc2376278"},"vehicle_type_id":"4","last_reported":1743527326,"current_range_meters":7200,"station_id":"ce4bhh12rcd13ifvqfg0","pricing_plan_id":"cebpf4jnsgd1na2vs0mg"},{"bike_id":"6e962b34-b977-4f9d-9367-3d3ad724ecc8","system_id":"levelo_inurba_marseille","lat":43.29173,"lon":5.37163,"is_reserved":false,"is_disabled":false,"rental_uris":{"android":"levelo://app?vid=6e962b34-b977-4f9d-9367-3d3ad724ecc8","ios":"levelo://app?vid=6e962b34-b977-4f9d-9367-3d3ad724ecc8"},"vehicle_type_id":"4","last_reported":1743527326,"current_range_meters":6800,"station_id":"ce4bha92rcd13ifvqeh0","pricing_plan_id":"cebpf4jnsgd1na2vs0mg"},{"bike_id":"fa36f309-6b39-4046-9bcf-4e553f3ec51d","system_id":"levelo_inurba_marseille","lat":43.2558,"lon":5.38237,"is_reserved":false,"is_disabled":false,"rental_uris":{"android":"levelo://app?vid=fa36f309-6b39-4046-9bcf-4e553f3ec51d","ios":"levelo://app?vid=fa36f309-6b39-4046-9bcf-4e553f3ec51d"},"vehicle_type_id":"4","last_reported":1743527326,"current_range_meters":7200,"station_id":"ce4bhih2rcd13ifvqfs0","pricing_plan_id":"cebpf4jnsgd1na2vs0mg"},{"bike_id":"44430f98-d5c9-45fc-8f6f-738d00ad28b2","system_id":"levelo_inurba_marseille","lat":43.287222,"lon":5.379404,"is_reserved":false,"is_disabled":false,"rental_uris":{"android":"levelo://app?vid=44430f98-d5c9-45fc-8f6f-738d00ad28b2","ios":"levelo://app?vid=44430f98-d5c9-45fc-8f6f-738d00ad28b2"},"vehicle_type_id":"4","last_reported":1743527326,"current_range_meters":7200,"station_id":"ce4bh9p2rcd13ifvqec0","pricing_plan_id":"cebpf4jnsgd1na2vs0mg"},{"bike_id":"d662608d-504d-43ae-8d4a-6ba237d6c000","system_id":"levelo_inurba_marseille","lat":43.27854,"lon":5.38492,"is_reserved":false,"is_disabled":false,"rental_uris":{"android":"levelo://app?vid=d662608d-504d-43ae-8d4a-6ba237d6c000","ios":"levelo://app?vid=d662608d-504d-43ae-8d4a-6ba237d6c000"},"vehicle_type_id":"4","last_reported":1743527326,"current_range_meters":7200,"station_id":"","pricing_plan_id":"cebpf4jnsgd1na2vs0mg"},{"bike_id":"69d4261d-9d0d-4c13-bb15-8842179ecc59","system_id":"levelo_inurba_marseille","lat":43.30755,"lon":5.4243,"is_reserved":false,"is_disabled":false,"rental_uris":{"android":"levelo://app?vid=69d4261d-9d0d-4c13-bb15-8842179ecc59","ios":"levelo://app?vid=69d4261d-9d0d-4c13-bb15-8842179ecc59"},"vehicle_type_id":"4","last_reported":1743527326,"current_range_meters":7200,"station_id":"st_cvj6ca6bvosntc0bfgr0","pricing_plan_id":"cebpf4jnsgd1na2vs0mg"},{"bike_id":"b8cb6a72-0f2e-4d45-adae-f927d8d7f08e","system_id":"levelo_inurba_marseille","lat":43.29881,"lon":5.38902,"is_reserved":false,"is_disabled":false,"rental_uris":{"android":"levelo://app?vid=b8cb6a72-0f2e-4d45-adae-f927d8d7f08e","ios":"levelo://app?vid=b8cb6a72-0f2e-4d45-adae-f927d8d7f08e"},"vehicle_type_id":"4","last_reported":1743527326,"current_range_meters":7200,"station_id":"ce4bh392rcd13ifvqdl0","pricing_plan_id":"cebpf4jnsgd1na2vs0mg"},{"bike_id":"c579b165-c27b-42de-9c8f-5ab872915847","system_id":"levelo_inurba_marseille","lat":43.31887,"lon":5.40736,"is_reserved":false,"is_disabled":false,"rental_uris":{"android":"levelo://app?vid=c579b165-c27b-42de-9c8f-5ab872915847","ios":"levelo://app?vid=c579b165-c27b-42de-9c8f-5ab872915847"},"vehicle_type_id":"4","last_reported":1743527326,"current_range_meters":7200,"station_id":"ce4bhq12rcd13ifvqhig","pricing_plan_id":"cebpf4jnsgd1na2vs0mg"},{"bike_id":"646b5c84-8006-4981-a147-f5603bc0b40a","system_id":"levelo_inurba_marseille","lat":43.2439,"lon":5.37052,"is_reserved":false,"is_disabled":false,"rental_uris":{"android":"levelo://app?vid=646b5c84-8006-4981-a147-f5603bc0b40a","ios":"levelo://app?vid=646b5c84-8006-4981-a147-f5603bc0b40a"},"vehicle_type_id":"4","last_reported":1743527326,"current_range_meters":7200,"station_id":"ce4bhhh2rcd13ifvqfk0","pricing_plan_id":"cebpf4jnsgd1na2vs0mg"},{"bike_id":"f50cb675-5349-4bea-8d1a-a49ab5b8ccc7","system_id":"levelo_inurba_marseille","lat":43.29074,"lon":5.37191,"is_reserved":false,"is_disabled":false,"rental_uris":{"android":"levelo://app?vid=f50cb675-5349-4bea-8d1a-a49ab5b8ccc7","ios":"levelo://app?vid=f50cb675-5349-4bea-8d1a-a49ab5b8ccc7"},"vehicle_type_id":"4","last_reported":1743527326,"current_range_meters":8000,"station_id":"ce4bh5p2rcd13ifvqe4g","pricing_plan_id":"cebpf4jnsgd1na2vs0mg"},{"bike_id":"2fbe9249-3228-4993-8195-ab568f0ad348","system_id":"levelo_inurba_marseille","lat":43.284618,"lon":5.35883,"is_reserved":false,"is_disabled":false,"rental_uris":{"android":"levelo://app?vid=2fbe9249-3228-4993-8195-ab568f0ad348","ios":"levelo://app?vid=2fbe9249-3228-4993-8195-ab568f0ad348"},"vehicle_type_id":"4","last_reported":1743527326,"current_range_meters":8000,"station_id":"ce4bhah2rcd13ifvqei0","pricing_plan_id":"cebpf4jnsgd1na2vs0mg"},{"bike_id":"30901793-f1d0-4417-8037-dd1cd31ac5d6","system_id":"levelo_inurba_marseille","lat":43.30097,"lon":5.39083,"is_reserved":false,"is_disabled":false,"rental_uris":{"android":"levelo://app?vid=30901793-f1d0-4417-8037-dd1cd31ac5d6","ios":"levelo://app?vid=30901793-f1d0-4417-8037-dd1cd31ac5d6"},"vehicle_type_id":"4","last_reported":1743527326,"current_range_meters":8000,"station_id":"ce4bh192rcd13ifvqdb0","pricing_plan_id":"cebpf4jnsgd1na2vs0mg"},{"bike_id":"6443ff17-877e-46c3-9add-4854da91e9dc","system_id":"levelo_inurba_marseille","lat":43.3034,"lon":5.4045,"is_reserved":false,"is_disabled":false,"rental_uris":{"android":"levelo://app?vid=6443ff17-877e-46c3-9add-4854da91e9dc","ios":"levelo://app?vid=6443ff17-877e-46c3-9add-4854da91e9dc"},"vehicle_type_id":"4","last_reported":1743527326,"current_range_meters":8000,"station_id":"ce4bh012rcd13ifvqd10","pricing_plan_id":"cebpf4jnsgd1na2vs0mg"},{"bike_id":"4c329c4c-6876-4861-909a-3f7396952302","system_id":"levelo_inurba_marseille","lat":43.29573,"lon":5.39948,"is_reserved":false,"is_disabled":false,"rental_uris":{"android":"levelo://app?vid=4c329c4c-6876-4861-909a-3f7396952302","ios":"levelo://app?vid=4c329c4c-6876-4861-909a-3f7396952302"},"vehicle_type_id":"4","last_reported":1743527326,"current_range_meters":8000,"station_id":"ce4bh312rcd13ifvqdj0","pricing_plan_id":"cebpf4jnsgd1na2vs0mg"},{"bike_id":"b1662acb-f206-46a5-9723-ca319085a4d0","system_id":"levelo_inurba_marseille","lat":43.2835,"lon":5.38095,"is_reserved":false,"is_disabled":false,"rental_uris":{"android":"levelo://app?vid=b1662acb-f206-46a5-9723-ca319085a4d0","ios":"levelo://app?vid=b1662acb-f206-46a5-9723-ca319085a4d0"},"vehicle_type_id":"4","last_reported":1743527326,"current_range_meters":8000,"station_id":"ce4bh412rcd13ifvqdr0","pricing_plan_id":"cebpf4jnsgd1na2vs0mg"},{"bike_id":"ded9eae0-678c-4d92-8a0c-8c02c499010e","system_id":"levelo_inurba_marseille","lat":43.27927,"lon":5.39574,"is_reserved":false,"is_disabled":false,"rental_uris":{"android":"levelo://app?vid=ded9eae0-678c-4d92-8a0c-8c02c499010e","ios":"levelo://app?vid=ded9eae0-678c-4d92-8a0c-8c02c499010e"},"vehicle_type_id":"4","last_reported":1743527326,"current_range_meters":8400,"station_id":"ce4bhf92rcd13ifvqf40","pricing_plan_id":"cebpf4jnsgd1na2vs0mg"},{"bike_id":"e714b6cd-d4e1-4ffd-b925-216b84bf4a86","system_id":"levelo_inurba_marseille","lat":43.2901,"lon":5.35612,"is_reserved":false,"is_disabled":false,"rental_uris":{"android":"levelo://app?vid=e714b6cd-d4e1-4ffd-b925-216b84bf4a86","ios":"levelo://app?vid=e714b6cd-d4e1-4ffd-b925-216b84bf4a86"},"vehicle_type_id":"4","last_reported":1743527326,"current_range_meters":2000,"station_id":"ce4bhb92rcd13ifvqen0","pricing_plan_id":"cebpf4jnsgd1na2vs0mg"},{"bike_id":"42303157-d075-4d8f-904f-92c01686c9bb","system_id":"levelo_inurba_marseille","lat":43.26808,"lon":5.40277,"is_reserved":false,"is_disabled":false,"rental_uris":{"android":"levelo://app?vid=42303157-d075-4d8f-904f-92c01686c9bb","ios":"levelo://app?vid=42303157-d075-4d8f-904f-92c01686c9bb"},"vehicle_type_id":"4","last_reported":1743527326,"current_range_meters":8400,"station_id":"ce501612rcd8frsf0b60","pricing_plan_id":"cebpf4jnsgd1na2vs0mg"},{"bike_id":"08724991-fdd4-4564-9d6b-c761aefd13aa","system_id":"levelo_inurba_marseille","lat":43.28859,"lon":5.35877,"is_reserved":false,"is_disabled":false,"rental_uris":{"android":"levelo://app?vid=08724991-fdd4-4564-9d6b-c761aefd13aa","ios":"levelo://app?vid=08724991-fdd4-4564-9d6b-c761aefd13aa"},"vehicle_type_id":"4","last_reported":1743527326,"current_range_meters":8400,"station_id":"ce4bhb12rcd13ifvqem0","pricing_plan_id":"cebpf4jnsgd1na2vs0mg"},{"bike_id":"721bcc92-6b82-4aac-988d-3c86699ef60a","system_id":"levelo_inurba_marseille","lat":43.27825,"lon":5.39199,"is_reserved":false,"is_disabled":true,"rental_uris":{"android":"levelo://app?vid=721bcc92-6b82-4aac-988d-3c86699ef60a","ios":"levelo://app?vid=721bcc92-6b82-4aac-988d-3c86699ef60a"},"vehicle_type_id":"4","last_reported":1743527326,"current_range_meters":8400,"station_id":"ce4bhjp2rcd13ifvqga0","pricing_plan_id":"cebpf4jnsgd1na2vs0mg"},{"bike_id":"33b8dd29-56e2-488c-9bb6-7f788906afe5","system_id":"levelo_inurba_marseille","lat":43.30753,"lon":5.37261,"is_reserved":false,"is_disabled":false,"rental_uris":{"android":"levelo://app?vid=33b8dd29-56e2-488c-9bb6-7f788906afe5","ios":"levelo://app?vid=33b8dd29-56e2-488c-9bb6-7f788906afe5"},"vehicle_type_id":"4","last_reported":1743527326,"current_range_meters":8400,"station_id":"","pricing_plan_id":"cebpf4jnsgd1na2vs0mg"},{"bike_id":"466926db-3b1b-4cbb-9ea8-810d42b9723a","system_id":"levelo_inurba_marseille","lat":43.266785,"lon":5.382716,"is_reserved":false,"is_disabled":false,"rental_uris":{"android":"levelo://app?vid=466926db-3b1b-4cbb-9ea8-810d42b9723a","ios":"levelo://app?vid=466926db-3b1b-4cbb-9ea8-810d42b9723a"},"vehicle_type_id":"4","last_reported":1743527326,"current_range_meters":8000,"station_id":"ce4bhg92rcd13ifvqf90","pricing_plan_id":"cebpf4jnsgd1na2vs0mg"},{"bike_id":"68cf9745-43ab-4d97-9667-920be46b3181","system_id":"levelo_inurba_marseille","lat":43.28474,"lon":5.38413,"is_reserved":false,"is_disabled":false,"rental_uris":{"android":"levelo://app?vid=68cf9745-43ab-4d97-9667-920be46b3181","ios":"levelo://app?vid=68cf9745-43ab-4d97-9667-920be46b3181"},"vehicle_type_id":"4","last_reported":1743527326,"current_range_meters":8400,"station_id":"ce4bh512rcd13ifvqe3g","pricing_plan_id":"cebpf4jnsgd1na2vs0mg"},{"bike_id":"6d51773c-f101-4b09-b507-ab028ef1af9c","system_id":"levelo_inurba_marseille","lat":43.28867,"lon":5.3583,"is_reserved":false,"is_disabled":false,"rental_uris":{"android":"levelo://app?vid=6d51773c-f101-4b09-b507-ab028ef1af9c","ios":"levelo://app?vid=6d51773c-f101-4b09-b507-ab028ef1af9c"},"vehicle_type_id":"4","last_reported":1743527326,"current_range_meters":8400,"station_id":"ce4bhb12rcd13ifvqem0","pricing_plan_id":"cebpf4jnsgd1na2vs0mg"},{"bike_id":"11fb0821-8afa-433a-9d88-19545526da74","system_id":"levelo_inurba_marseille","lat":43.27906,"lon":5.37998,"is_reserved":false,"is_disabled":true,"rental_uris":{"android":"levelo://app?vid=11fb0821-8afa-433a-9d88-19545526da74","ios":"levelo://app?vid=11fb0821-8afa-433a-9d88-19545526da74"},"vehicle_type_id":"4","last_reported":1743527326,"current_range_meters":8400,"station_id":"ce4bhf92rcd13ifvqf50","pricing_plan_id":"cebpf4jnsgd1na2vs0mg"},{"bike_id":"2506be63-8046-4b48-91ed-ec7aee80c5c8","system_id":"levelo_inurba_marseille","lat":43.29573,"lon":5.39973,"is_reserved":false,"is_disabled":false,"rental_uris":{"android":"levelo://app?vid=2506be63-8046-4b48-91ed-ec7aee80c5c8","ios":"levelo://app?vid=2506be63-8046-4b48-91ed-ec7aee80c5c8"},"vehicle_type_id":"4","last_reported":1743527326,"current_range_meters":8400,"station_id":"ce4bh312rcd13ifvqdj0","pricing_plan_id":"cebpf4jnsgd1na2vs0mg"},{"bike_id":"a98ca414-5a9d-44e4-9fe8-4c3a59245923","system_id":"levelo_inurba_marseille","lat":43.3081,"lon":5.43524,"is_reserved":false,"is_disabled":false,"rental_uris":{"android":"levelo://app?vid=a98ca414-5a9d-44e4-9fe8-4c3a59245923","ios":"levelo://app?vid=a98ca414-5a9d-44e4-9fe8-4c3a59245923"},"vehicle_type_id":"4","last_reported":1743527326,"current_range_meters":8800,"station_id":"ce4bhph2rcd13ifvqheg","pricing_plan_id":"cebpf4jnsgd1na2vs0mg"},{"bike_id":"1167d76f-0701-42ca-9566-e6b8288b4501","system_id":"levelo_inurba_marseille","lat":43.2828,"lon":5.37852,"is_reserved":false,"is_disabled":false,"rental_uris":{"android":"levelo://app?vid=1167d76f-0701-42ca-9566-e6b8288b4501","ios":"levelo://app?vid=1167d76f-0701-42ca-9566-e6b8288b4501"},"vehicle_type_id":"4","last_reported":1743527326,"current_range_meters":8800,"station_id":"","pricing_plan_id":"cebpf4jnsgd1na2vs0mg"},{"bike_id":"9a01c418-e4e3-41b3-98cc-e0f48c069b3b","system_id":"levelo_inurba_marseille","lat":43.30144,"lon":5.39866,"is_reserved":false,"is_disabled":false,"rental_uris":{"android":"levelo://app?vid=9a01c418-e4e3-41b3-98cc-e0f48c069b3b","ios":"levelo://app?vid=9a01c418-e4e3-41b3-98cc-e0f48c069b3b"},"vehicle_type_id":"4","last_reported":1743527326,"current_range_meters":8800,"station_id":"ce4bh0h2rcd13ifvqd40","pricing_plan_id":"cebpf4jnsgd1na2vs0mg"},{"bike_id":"424dede1-a944-4ae1-8d3d-36e38cafa515","system_id":"levelo_inurba_marseille","lat":43.29525,"lon":5.3905,"is_reserved":false,"is_disabled":false,"rental_uris":{"android":"levelo://app?vid=424dede1-a944-4ae1-8d3d-36e38cafa515","ios":"levelo://app?vid=424dede1-a944-4ae1-8d3d-36e38cafa515"},"vehicle_type_id":"4","last_reported":1743527326,"current_range_meters":8800,"station_id":"ce4bh3p2rcd13ifvqdp0","pricing_plan_id":"cebpf4jnsgd1na2vs0mg"},{"bike_id":"dad7e2c2-9edc-441e-ba86-9fe645855cb3","system_id":"levelo_inurba_marseille","lat":43.2993,"lon":5.37471,"is_reserved":false,"is_disabled":false,"rental_uris":{"android":"levelo://app?vid=dad7e2c2-9edc-441e-ba86-9fe645855cb3","ios":"levelo://app?vid=dad7e2c2-9edc-441e-ba86-9fe645855cb3"},"vehicle_type_id":"4","last_reported":1743527326,"current_range_meters":8800,"station_id":"ce4bgjh2rcd13ifvqbg0","pricing_plan_id":"cebpf4jnsgd1na2vs0mg"},{"bike_id":"11989da7-291c-4a31-8a38-58465ed357ae","system_id":"levelo_inurba_marseille","lat":43.25058,"lon":5.3956,"is_reserved":false,"is_disabled":false,"rental_uris":{"android":"levelo://app?vid=11989da7-291c-4a31-8a38-58465ed357ae","ios":"levelo://app?vid=11989da7-291c-4a31-8a38-58465ed357ae"},"vehicle_type_id":"4","last_reported":1743527326,"current_range_meters":9200,"station_id":"ce4bhm12rcd13ifvqgkg","pricing_plan_id":"cebpf4jnsgd1na2vs0mg"},{"bike_id":"3407e581-8cbe-4126-83bd-0176dc37fa53","system_id":"levelo_inurba_marseille","lat":43.33021,"lon":5.39044,"is_reserved":false,"is_disabled":false,"rental_uris":{"android":"levelo://app?vid=3407e581-8cbe-4126-83bd-0176dc37fa53","ios":"levelo://app?vid=3407e581-8cbe-4126-83bd-0176dc37fa53"},"vehicle_type_id":"4","last_reported":1743527326,"current_range_meters":8400,"station_id":"ce4bhr92rcd13ifvqhrg","pricing_plan_id":"cebpf4jnsgd1na2vs0mg"},{"bike_id":"4ad73676-975d-4eb4-8ab0-34916f3a4594","system_id":"levelo_inurba_marseille","lat":43.3066,"lon":5.37122,"is_reserved":false,"is_disabled":false,"rental_uris":{"android":"levelo://app?vid=4ad73676-975d-4eb4-8ab0-34916f3a4594","ios":"levelo://app?vid=4ad73676-975d-4eb4-8ab0-34916f3a4594"},"vehicle_type_id":"4","last_reported":1743527326,"current_range_meters":8800,"station_id":"","pricing_plan_id":"cebpf4jnsgd1na2vs0mg"},{"bike_id":"2b9b31ad-6e45-403f-9450-a25bb8507203","system_id":"levelo_inurba_marseille","lat":43.32124,"lon":5.36763,"is_reserved":false,"is_disabled":false,"rental_uris":{"android":"levelo://app?vid=2b9b31ad-6e45-403f-9450-a25bb8507203","ios":"levelo://app?vid=2b9b31ad-6e45-403f-9450-a25bb8507203"},"vehicle_type_id":"4","last_reported":1743527326,"current_range_meters":8800,"station_id":"ce4bhrh2rcd13ifvqhug","pricing_plan_id":"cebpf4jnsgd1na2vs0mg"},{"bike_id":"1bbaf4a8-1ede-443b-9311-eda7ad728da1","system_id":"levelo_inurba_marseille","lat":43.29606,"lon":5.38088,"is_reserved":false,"is_disabled":false,"rental_uris":{"android":"levelo://app?vid=1bbaf4a8-1ede-443b-9311-eda7ad728da1","ios":"levelo://app?vid=1bbaf4a8-1ede-443b-9311-eda7ad728da1"},"vehicle_type_id":"4","last_reported":1743527326,"current_range_meters":8800,"station_id":"ce4bgl12rcd13ifvqbo0","pricing_plan_id":"cebpf4jnsgd1na2vs0mg"},{"bike_id":"b41aa822-ac2a-4350-9172-5200418af55f","system_id":"levelo_inurba_marseille","lat":43.309131,"lon":5.380112,"is_reserved":false,"is_disabled":false,"rental_uris":{"android":"levelo://app?vid=b41aa822-ac2a-4350-9172-5200418af55f","ios":"levelo://app?vid=b41aa822-ac2a-4350-9172-5200418af55f"},"vehicle_type_id":"4","last_reported":1743527326,"current_range_meters":8800,"station_id":"ce4bgv92rcd13ifvqcq0","pricing_plan_id":"cebpf4jnsgd1na2vs0mg"},{"bike_id":"4a48f963-6e5f-4777-9bcd-540f020d49d5","system_id":"levelo_inurba_marseille","lat":43.27847,"lon":5.39207,"is_reserved":false,"is_disabled":true,"rental_uris":{"android":"levelo://app?vid=4a48f963-6e5f-4777-9bcd-540f020d49d5","ios":"levelo://app?vid=4a48f963-6e5f-4777-9bcd-540f020d49d5"},"vehicle_type_id":"4","last_reported":1743527326,"current_range_meters":8800,"station_id":"ce4bhjp2rcd13ifvqga0","pricing_plan_id":"cebpf4jnsgd1na2vs0mg"},{"bike_id":"70011971-6c84-4e25-a837-0286a9e46161","system_id":"levelo_inurba_marseille","lat":43.2893,"lon":5.38399,"is_reserved":false,"is_disabled":false,"rental_uris":{"android":"levelo://app?vid=70011971-6c84-4e25-a837-0286a9e46161","ios":"levelo://app?vid=70011971-6c84-4e25-a837-0286a9e46161"},"vehicle_type_id":"4","last_reported":1743527326,"current_range_meters":8800,"station_id":"ce4bh612rcd13ifvqe6g","pricing_plan_id":"cebpf4jnsgd1na2vs0mg"},{"bike_id":"ab917714-e47d-4ed7-b902-4c1637c1701e","system_id":"levelo_inurba_marseille","lat":43.28852,"lon":5.35844,"is_reserved":false,"is_disabled":false,"rental_uris":{"android":"levelo://app?vid=ab917714-e47d-4ed7-b902-4c1637c1701e","ios":"levelo://app?vid=ab917714-e47d-4ed7-b902-4c1637c1701e"},"vehicle_type_id":"4","last_reported":1743527326,"current_range_meters":8800,"station_id":"ce4bhb12rcd13ifvqem0","pricing_plan_id":"cebpf4jnsgd1na2vs0mg"},{"bike_id":"c53375e6-7471-4f96-bcd6-44d600095d67","system_id":"levelo_inurba_marseille","lat":43.24678,"lon":5.3818,"is_reserved":false,"is_disabled":false,"rental_uris":{"android":"levelo://app?vid=c53375e6-7471-4f96-bcd6-44d600095d67","ios":"levelo://app?vid=c53375e6-7471-4f96-bcd6-44d600095d67"},"vehicle_type_id":"4","last_reported":1743527326,"current_range_meters":9200,"station_id":"ce4bhih2rcd13ifvqfr0","pricing_plan_id":"cebpf4jnsgd1na2vs0mg"},{"bike_id":"72fcf062-46a7-4d8e-bf07-dc1c9c75d49f","system_id":"levelo_inurba_marseille","lat":43.28165,"lon":5.42647,"is_reserved":false,"is_disabled":false,"rental_uris":{"android":"levelo://app?vid=72fcf062-46a7-4d8e-bf07-dc1c9c75d49f","ios":"levelo://app?vid=72fcf062-46a7-4d8e-bf07-dc1c9c75d49f"},"vehicle_type_id":"4","last_reported":1743527326,"current_range_meters":9200,"station_id":"ce4bhnh2rcd13ifvqgug","pricing_plan_id":"cebpf4jnsgd1na2vs0mg"},{"bike_id":"d1d9069d-cab4-41cc-8729-af76db688132","system_id":"levelo_inurba_marseille","lat":43.31278,"lon":5.40162,"is_reserved":false,"is_disabled":false,"rental_uris":{"android":"levelo://app?vid=d1d9069d-cab4-41cc-8729-af76db688132","ios":"levelo://app?vid=d1d9069d-cab4-41cc-8729-af76db688132"},"vehicle_type_id":"4","last_reported":1743527326,"current_range_meters":9200,"station_id":"ce4bh092rcd13ifvqd30","pricing_plan_id":"cebpf4jnsgd1na2vs0mg"},{"bike_id":"83ee946d-bfe9-4d7f-a56e-d9b90e7002cc","system_id":"levelo_inurba_marseille","lat":43.28851,"lon":5.35859,"is_reserved":false,"is_disabled":false,"rental_uris":{"android":"levelo://app?vid=83ee946d-bfe9-4d7f-a56e-d9b90e7002cc","ios":"levelo://app?vid=83ee946d-bfe9-4d7f-a56e-d9b90e7002cc"},"vehicle_type_id":"4","last_reported":1743527326,"current_range_meters":9200,"station_id":"ce4bhb12rcd13ifvqem0","pricing_plan_id":"cebpf4jnsgd1na2vs0mg"},{"bike_id":"0b34115a-31d4-42b3-a591-faac7b199d76","system_id":"levelo_inurba_marseille","lat":43.30303,"lon":5.39219,"is_reserved":false,"is_disabled":false,"rental_uris":{"android":"levelo://app?vid=0b34115a-31d4-42b3-a591-faac7b199d76","ios":"levelo://app?vid=0b34115a-31d4-42b3-a591-faac7b199d76"},"vehicle_type_id":"4","last_reported":1743527326,"current_range_meters":9200,"station_id":"ce4bgkh2rcd13ifvqbk0","pricing_plan_id":"cebpf4jnsgd1na2vs0mg"},{"bike_id":"6fa6dbb7-a4db-4359-bbde-3cbe0596b8e3","system_id":"levelo_inurba_marseille","lat":43.323627,"lon":5.388853,"is_reserved":false,"is_disabled":false,"rental_uris":{"android":"levelo://app?vid=6fa6dbb7-a4db-4359-bbde-3cbe0596b8e3","ios":"levelo://app?vid=6fa6dbb7-a4db-4359-bbde-3cbe0596b8e3"},"vehicle_type_id":"4","last_reported":1743527326,"current_range_meters":9200,"station_id":"ce4bhqp2rcd13ifvqhog","pricing_plan_id":"cebpf4jnsgd1na2vs0mg"},{"bike_id":"c6c438e8-d3ab-4770-968b-7a1a93e8a8c6","system_id":"levelo_inurba_marseille","lat":43.28904,"lon":5.45867,"is_reserved":false,"is_disabled":false,"rental_uris":{"android":"levelo://app?vid=c6c438e8-d3ab-4770-968b-7a1a93e8a8c6","ios":"levelo://app?vid=c6c438e8-d3ab-4770-968b-7a1a93e8a8c6"},"vehicle_type_id":"4","last_reported":1743527326,"current_range_meters":9200,"station_id":"","pricing_plan_id":"cebpf4jnsgd1na2vs0mg"},{"bike_id":"50c43aa5-b179-4418-a7fd-0c06dcfdff20","system_id":"levelo_inurba_marseille","lat":43.258695,"lon":5.398775,"is_reserved":false,"is_disabled":false,"rental_uris":{"android":"levelo://app?vid=50c43aa5-b179-4418-a7fd-0c06dcfdff20","ios":"levelo://app?vid=50c43aa5-b179-4418-a7fd-0c06dcfdff20"},"vehicle_type_id":"4","last_reported":1743527326,"current_range_meters":8800,"station_id":"ce4bhl92rcd13ifvqghg","pricing_plan_id":"cebpf4jnsgd1na2vs0mg"},{"bike_id":"d47ca5ac-a3e2-4cd1-82a3-e960af7da6da","system_id":"levelo_inurba_marseille","lat":43.25507,"lon":5.37659,"is_reserved":false,"is_disabled":false,"rental_uris":{"android":"levelo://app?vid=d47ca5ac-a3e2-4cd1-82a3-e960af7da6da","ios":"levelo://app?vid=d47ca5ac-a3e2-4cd1-82a3-e960af7da6da"},"vehicle_type_id":"4","last_reported":1743527326,"current_range_meters":9200,"station_id":"ce4bhh12rcd13ifvqff0","pricing_plan_id":"cebpf4jnsgd1na2vs0mg"},{"bike_id":"fd6c1ca7-b248-4c28-9bd4-41c9da81119e","system_id":"levelo_inurba_marseille","lat":43.27843,"lon":5.39213,"is_reserved":false,"is_disabled":false,"rental_uris":{"android":"levelo://app?vid=fd6c1ca7-b248-4c28-9bd4-41c9da81119e","ios":"levelo://app?vid=fd6c1ca7-b248-4c28-9bd4-41c9da81119e"},"vehicle_type_id":"4","last_reported":1743527326,"current_range_meters":8800,"station_id":"ce4bhjp2rcd13ifvqga0","pricing_plan_id":"cebpf4jnsgd1na2vs0mg"},{"bike_id":"66a6759f-f104-404f-ba35-7dd5d87e6d0b","system_id":"levelo_inurba_marseille","lat":43.30163,"lon":5.37672,"is_reserved":false,"is_disabled":false,"rental_uris":{"android":"levelo://app?vid=66a6759f-f104-404f-ba35-7dd5d87e6d0b","ios":"levelo://app?vid=66a6759f-f104-404f-ba35-7dd5d87e6d0b"},"vehicle_type_id":"4","last_reported":1743527326,"current_range_meters":9200,"station_id":"","pricing_plan_id":"cebpf4jnsgd1na2vs0mg"},{"bike_id":"d1a3158c-a25a-439c-bee1-4768e585823d","system_id":"levelo_inurba_marseille","lat":43.29586,"lon":5.3674,"is_reserved":false,"is_disabled":false,"rental_uris":{"android":"levelo://app?vid=d1a3158c-a25a-439c-bee1-4768e585823d","ios":"levelo://app?vid=d1a3158c-a25a-439c-bee1-4768e585823d"},"vehicle_type_id":"4","last_reported":1743527326,"current_range_meters":9600,"station_id":"ce4bgph2rcd13ifvqc2g","pricing_plan_id":"cebpf4jnsgd1na2vs0mg"},{"bike_id":"ddac37a5-30c4-4ac5-8ec0-feb3c1493906","system_id":"levelo_inurba_marseille","lat":43.291107,"lon":5.371872,"is_reserved":false,"is_disabled":false,"rental_uris":{"android":"levelo://app?vid=ddac37a5-30c4-4ac5-8ec0-feb3c1493906","ios":"levelo://app?vid=ddac37a5-30c4-4ac5-8ec0-feb3c1493906"},"vehicle_type_id":"4","last_reported":1743527326,"current_range_meters":9200,"station_id":"ce4bha92rcd13ifvqeh0","pricing_plan_id":"cebpf4jnsgd1na2vs0mg"},{"bike_id":"086dea85-c52a-460f-86c1-42edff50a4f6","system_id":"levelo_inurba_marseille","lat":43.29277,"lon":5.4012,"is_reserved":false,"is_disabled":false,"rental_uris":{"android":"levelo://app?vid=086dea85-c52a-460f-86c1-42edff50a4f6","ios":"levelo://app?vid=086dea85-c52a-460f-86c1-42edff50a4f6"},"vehicle_type_id":"4","last_reported":1743527326,"current_range_meters":9600,"station_id":"ce4bh312rcd13ifvqdk0","pricing_plan_id":"cebpf4jnsgd1na2vs0mg"},{"bike_id":"a495ab47-72d1-4f9e-8b95-72d772792f33","system_id":"levelo_inurba_marseille","lat":43.30445,"lon":5.3688,"is_reserved":false,"is_disabled":false,"rental_uris":{"android":"levelo://app?vid=a495ab47-72d1-4f9e-8b95-72d772792f33","ios":"levelo://app?vid=a495ab47-72d1-4f9e-8b95-72d772792f33"},"vehicle_type_id":"4","last_reported":1743527326,"current_range_meters":9600,"station_id":"","pricing_plan_id":"cebpf4jnsgd1na2vs0mg"},{"bike_id":"646aec80-35ca-40a6-bfa8-fb2f88791645","system_id":"levelo_inurba_marseille","lat":43.28712,"lon":5.39989,"is_reserved":false,"is_disabled":false,"rental_uris":{"android":"levelo://app?vid=646aec80-35ca-40a6-bfa8-fb2f88791645","ios":"levelo://app?vid=646aec80-35ca-40a6-bfa8-fb2f88791645"},"vehicle_type_id":"4","last_reported":1743527326,"current_range_meters":9600,"station_id":"ce4bho92rcd13ifvqh3g","pricing_plan_id":"cebpf4jnsgd1na2vs0mg"},{"bike_id":"9592f630-f14b-417c-a380-5f2038bc1349","system_id":"levelo_inurba_marseille","lat":43.29578,"lon":5.39968,"is_reserved":false,"is_disabled":false,"rental_uris":{"android":"levelo://app?vid=9592f630-f14b-417c-a380-5f2038bc1349","ios":"levelo://app?vid=9592f630-f14b-417c-a380-5f2038bc1349"},"vehicle_type_id":"4","last_reported":1743527326,"current_range_meters":9600,"station_id":"ce4bh312rcd13ifvqdj0","pricing_plan_id":"cebpf4jnsgd1na2vs0mg"},{"bike_id":"2b0eb36e-4975-415c-a908-5480bff6827f","system_id":"levelo_inurba_marseille","lat":43.280023,"lon":5.400141,"is_reserved":false,"is_disabled":false,"rental_uris":{"android":"levelo://app?vid=2b0eb36e-4975-415c-a908-5480bff6827f","ios":"levelo://app?vid=2b0eb36e-4975-415c-a908-5480bff6827f"},"vehicle_type_id":"4","last_reported":1743527326,"current_range_meters":9600,"station_id":"ce4bho92rcd13ifvqh4g","pricing_plan_id":"cebpf4jnsgd1na2vs0mg"},{"bike_id":"041c6bb4-25e5-4d13-ad6c-53bcd18cf89f","system_id":"levelo_inurba_marseille","lat":43.25088,"lon":5.39508,"is_reserved":false,"is_disabled":false,"rental_uris":{"android":"levelo://app?vid=041c6bb4-25e5-4d13-ad6c-53bcd18cf89f","ios":"levelo://app?vid=041c6bb4-25e5-4d13-ad6c-53bcd18cf89f"},"vehicle_type_id":"4","last_reported":1743527326,"current_range_meters":9600,"station_id":"ce4bhm12rcd13ifvqgkg","pricing_plan_id":"cebpf4jnsgd1na2vs0mg"},{"bike_id":"ab52962f-bc93-4ddd-be76-164eb31c1a2f","system_id":"levelo_inurba_marseille","lat":43.25011,"lon":5.38921,"is_reserved":false,"is_disabled":false,"rental_uris":{"android":"levelo://app?vid=ab52962f-bc93-4ddd-be76-164eb31c1a2f","ios":"levelo://app?vid=ab52962f-bc93-4ddd-be76-164eb31c1a2f"},"vehicle_type_id":"4","last_reported":1743527326,"current_range_meters":9600,"station_id":"ce4bhgp2rcd13ifvqfd0","pricing_plan_id":"cebpf4jnsgd1na2vs0mg"},{"bike_id":"ed8fbbfb-a7f0-4a40-8cef-e44d64a49dda","system_id":"levelo_inurba_marseille","lat":43.28728,"lon":5.36078,"is_reserved":false,"is_disabled":false,"rental_uris":{"android":"levelo://app?vid=ed8fbbfb-a7f0-4a40-8cef-e44d64a49dda","ios":"levelo://app?vid=ed8fbbfb-a7f0-4a40-8cef-e44d64a49dda"},"vehicle_type_id":"4","last_reported":1743527326,"current_range_meters":10000,"station_id":"cki0cbj6b192h4jlfktg","pricing_plan_id":"cebpf4jnsgd1na2vs0mg"},{"bike_id":"89256aaf-955e-4cc6-a8e3-9267d85b0095","system_id":"levelo_inurba_marseille","lat":43.2886,"lon":5.35852,"is_reserved":false,"is_disabled":false,"rental_uris":{"android":"levelo://app?vid=89256aaf-955e-4cc6-a8e3-9267d85b0095","ios":"levelo://app?vid=89256aaf-955e-4cc6-a8e3-9267d85b0095"},"vehicle_type_id":"4","last_reported":1743527326,"current_range_meters":10000,"station_id":"ce4bhb12rcd13ifvqem0","pricing_plan_id":"cebpf4jnsgd1na2vs0mg"},{"bike_id":"9d8c5531-b102-4048-851e-a7b0d5a9e0e8","system_id":"levelo_inurba_marseille","lat":43.29173,"lon":5.37161,"is_reserved":false,"is_disabled":false,"rental_uris":{"android":"levelo://app?vid=9d8c5531-b102-4048-851e-a7b0d5a9e0e8","ios":"levelo://app?vid=9d8c5531-b102-4048-851e-a7b0d5a9e0e8"},"vehicle_type_id":"4","last_reported":1743527326,"current_range_meters":9600,"station_id":"ce4bha92rcd13ifvqeh0","pricing_plan_id":"cebpf4jnsgd1na2vs0mg"},{"bike_id":"e6928b84-bc47-4de0-8a23-14baa6be129c","system_id":"levelo_inurba_marseille","lat":43.30137,"lon":5.399292,"is_reserved":false,"is_disabled":true,"rental_uris":{"android":"levelo://app?vid=e6928b84-bc47-4de0-8a23-14baa6be129c","ios":"levelo://app?vid=e6928b84-bc47-4de0-8a23-14baa6be129c"},"vehicle_type_id":"4","last_reported":1743527326,"current_range_meters":10000,"station_id":"","pricing_plan_id":"cebpf4jnsgd1na2vs0mg"},{"bike_id":"2f1b19a7-ac2c-473c-a45c-add562c994e3","system_id":"levelo_inurba_marseille","lat":43.24184,"lon":5.39737,"is_reserved":false,"is_disabled":false,"rental_uris":{"android":"levelo://app?vid=2f1b19a7-ac2c-473c-a45c-add562c994e3","ios":"levelo://app?vid=2f1b19a7-ac2c-473c-a45c-add562c994e3"},"vehicle_type_id":"4","last_reported":1743527326,"current_range_meters":10000,"station_id":"ce4bhn12rcd13ifvqgpg","pricing_plan_id":"cebpf4jnsgd1na2vs0mg"},{"bike_id":"3e5329f3-c0cd-422c-afb1-2f46242590da","system_id":"levelo_inurba_marseille","lat":43.31932,"lon":5.37584,"is_reserved":false,"is_disabled":false,"rental_uris":{"android":"levelo://app?vid=3e5329f3-c0cd-422c-afb1-2f46242590da","ios":"levelo://app?vid=3e5329f3-c0cd-422c-afb1-2f46242590da"},"vehicle_type_id":"4","last_reported":1743527326,"current_range_meters":10000,"station_id":"","pricing_plan_id":"cebpf4jnsgd1na2vs0mg"},{"bike_id":"e47bc61d-df2d-41b3-b26b-dd94e6e5e301","system_id":"levelo_inurba_marseille","lat":43.26251,"lon":5.42142,"is_reserved":false,"is_disabled":false,"rental_uris":{"android":"levelo://app?vid=e47bc61d-df2d-41b3-b26b-dd94e6e5e301","ios":"levelo://app?vid=e47bc61d-df2d-41b3-b26b-dd94e6e5e301"},"vehicle_type_id":"4","last_reported":1743527326,"current_range_meters":10000,"station_id":"","pricing_plan_id":"cebpf4jnsgd1na2vs0mg"},{"bike_id":"5ecafc64-86c4-4df5-818d-7b60b3345ce1","system_id":"levelo_inurba_marseille","lat":43.28618,"lon":5.35101,"is_reserved":false,"is_disabled":false,"rental_uris":{"android":"levelo://app?vid=5ecafc64-86c4-4df5-818d-7b60b3345ce1","ios":"levelo://app?vid=5ecafc64-86c4-4df5-818d-7b60b3345ce1"},"vehicle_type_id":"4","last_reported":1743527326,"current_range_meters":10000,"station_id":"ce4bhch2rcd13ifvqeug","pricing_plan_id":"cebpf4jnsgd1na2vs0mg"},{"bike_id":"b704429b-f8c2-47b9-afaa-8c5a58b44f51","system_id":"levelo_inurba_marseille","lat":43.28938,"lon":5.38401,"is_reserved":false,"is_disabled":false,"rental_uris":{"android":"levelo://app?vid=b704429b-f8c2-47b9-afaa-8c5a58b44f51","ios":"levelo://app?vid=b704429b-f8c2-47b9-afaa-8c5a58b44f51"},"vehicle_type_id":"4","last_reported":1743527326,"current_range_meters":10000,"station_id":"ce4bh612rcd13ifvqe6g","pricing_plan_id":"cebpf4jnsgd1na2vs0mg"},{"bike_id":"93a428f6-6bad-4a02-8565-b91a2bee43a8","system_id":"levelo_inurba_marseille","lat":43.28405,"lon":5.375,"is_reserved":false,"is_disabled":false,"rental_uris":{"android":"levelo://app?vid=93a428f6-6bad-4a02-8565-b91a2bee43a8","ios":"levelo://app?vid=93a428f6-6bad-4a02-8565-b91a2bee43a8"},"vehicle_type_id":"4","last_reported":1743527326,"current_range_meters":10000,"station_id":"ce4bh412rcd13ifvqds0","pricing_plan_id":"cebpf4jnsgd1na2vs0mg"},{"bike_id":"2c567be4-626d-4614-8796-6c92d09d2fa1","system_id":"levelo_inurba_marseille","lat":43.2951,"lon":5.37428,"is_reserved":false,"is_disabled":false,"rental_uris":{"android":"levelo://app?vid=2c567be4-626d-4614-8796-6c92d09d2fa1","ios":"levelo://app?vid=2c567be4-626d-4614-8796-6c92d09d2fa1"},"vehicle_type_id":"4","last_reported":1743527326,"current_range_meters":10800,"station_id":"","pricing_plan_id":"cebpf4jnsgd1na2vs0mg"},{"bike_id":"6fe50303-3adc-422d-9b31-96597a73342b","system_id":"levelo_inurba_marseille","lat":43.23199,"lon":5.39983,"is_reserved":false,"is_disabled":false,"rental_uris":{"android":"levelo://app?vid=6fe50303-3adc-422d-9b31-96597a73342b","ios":"levelo://app?vid=6fe50303-3adc-422d-9b31-96597a73342b"},"vehicle_type_id":"4","last_reported":1743527326,"current_range_meters":10800,"station_id":"ce4bhn12rcd13ifvqgqg","pricing_plan_id":"cebpf4jnsgd1na2vs0mg"},{"bike_id":"d46b4b93-fda2-4bee-beaa-4e62d1e1914f","system_id":"levelo_inurba_marseille","lat":43.25113,"lon":5.4032,"is_reserved":false,"is_disabled":false,"rental_uris":{"android":"levelo://app?vid=d46b4b93-fda2-4bee-beaa-4e62d1e1914f","ios":"levelo://app?vid=d46b4b93-fda2-4bee-beaa-4e62d1e1914f"},"vehicle_type_id":"4","last_reported":1743527326,"current_range_meters":10800,"station_id":"ce4bhlh2rcd13ifvqgig","pricing_plan_id":"cebpf4jnsgd1na2vs0mg"},{"bike_id":"937a102a-e42f-45b2-9ab9-895d35de6584","system_id":"levelo_inurba_marseille","lat":43.26947,"lon":5.40251,"is_reserved":false,"is_disabled":false,"rental_uris":{"android":"levelo://app?vid=937a102a-e42f-45b2-9ab9-895d35de6584","ios":"levelo://app?vid=937a102a-e42f-45b2-9ab9-895d35de6584"},"vehicle_type_id":"4","last_reported":1743527326,"current_range_meters":10800,"station_id":"cjm6bp8fraef2m0cb0m0","pricing_plan_id":"cebpf4jnsgd1na2vs0mg"},{"bike_id":"bb30f263-8ce5-46b7-9bae-f4d061401367","system_id":"levelo_inurba_marseille","lat":43.25002,"lon":5.3893,"is_reserved":false,"is_disabled":false,"rental_uris":{"android":"levelo://app?vid=bb30f263-8ce5-46b7-9bae-f4d061401367","ios":"levelo://app?vid=bb30f263-8ce5-46b7-9bae-f4d061401367"},"vehicle_type_id":"4","last_reported":1743527326,"current_range_meters":10800,"station_id":"ce4bhgp2rcd13ifvqfd0","pricing_plan_id":"cebpf4jnsgd1na2vs0mg"},{"bike_id":"8df6f72d-9533-4792-9a48-4fcae5b0dbac","system_id":"levelo_inurba_marseille","lat":43.29231,"lon":5.36066,"is_reserved":false,"is_disabled":false,"rental_uris":{"android":"levelo://app?vid=8df6f72d-9533-4792-9a48-4fcae5b0dbac","ios":"levelo://app?vid=8df6f72d-9533-4792-9a48-4fcae5b0dbac"},"vehicle_type_id":"4","last_reported":1743527326,"current_range_meters":10000,"station_id":"ce4bhbh2rcd13ifvqeqg","pricing_plan_id":"cebpf4jnsgd1na2vs0mg"},{"bike_id":"16dd592e-7732-47c3-a664-305413913b8b","system_id":"levelo_inurba_marseille","lat":43.28464,"lon":5.3589,"is_reserved":false,"is_disabled":false,"rental_uris":{"android":"levelo://app?vid=16dd592e-7732-47c3-a664-305413913b8b","ios":"levelo://app?vid=16dd592e-7732-47c3-a664-305413913b8b"},"vehicle_type_id":"4","last_reported":1743527326,"current_range_meters":10800,"station_id":"ce4bhah2rcd13ifvqei0","pricing_plan_id":"cebpf4jnsgd1na2vs0mg"},{"bike_id":"e1123569-182c-457e-a9ee-921690357de4","system_id":"levelo_inurba_marseille","lat":43.27814,"lon":5.40703,"is_reserved":false,"is_disabled":false,"rental_uris":{"android":"levelo://app?vid=e1123569-182c-457e-a9ee-921690357de4","ios":"levelo://app?vid=e1123569-182c-457e-a9ee-921690357de4"},"vehicle_type_id":"4","last_reported":1743527326,"current_range_meters":10800,"station_id":"ce4bhnh2rcd13ifvqgtg","pricing_plan_id":"cebpf4jnsgd1na2vs0mg"},{"bike_id":"b18d61be-1314-4787-bdc3-677619cdb9f9","system_id":"levelo_inurba_marseille","lat":43.29922,"lon":5.37041,"is_reserved":false,"is_disabled":false,"rental_uris":{"android":"levelo://app?vid=b18d61be-1314-4787-bdc3-677619cdb9f9","ios":"levelo://app?vid=b18d61be-1314-4787-bdc3-677619cdb9f9"},"vehicle_type_id":"4","last_reported":1743527326,"current_range_meters":10800,"station_id":"","pricing_plan_id":"cebpf4jnsgd1na2vs0mg"},{"bike_id":"4438d6dc-f517-4b79-a268-9e4f79818f0c","system_id":"levelo_inurba_marseille","lat":43.30671,"lon":5.40048,"is_reserved":false,"is_disabled":false,"rental_uris":{"android":"levelo://app?vid=4438d6dc-f517-4b79-a268-9e4f79818f0c","ios":"levelo://app?vid=4438d6dc-f517-4b79-a268-9e4f79818f0c"},"vehicle_type_id":"4","last_reported":1743527326,"current_range_meters":10800,"station_id":"","pricing_plan_id":"cebpf4jnsgd1na2vs0mg"},{"bike_id":"27773214-4312-4127-aa54-e74cba3d6d07","system_id":"levelo_inurba_marseille","lat":43.27809,"lon":5.40826,"is_reserved":false,"is_disabled":false,"rental_uris":{"android":"levelo://app?vid=27773214-4312-4127-aa54-e74cba3d6d07","ios":"levelo://app?vid=27773214-4312-4127-aa54-e74cba3d6d07"},"vehicle_type_id":"4","last_reported":1743527326,"current_range_meters":10800,"station_id":"","pricing_plan_id":"cebpf4jnsgd1na2vs0mg"},{"bike_id":"f2dfd2a0-5846-4c43-9aae-f5b5157fea3b","system_id":"levelo_inurba_marseille","lat":43.28636,"lon":5.3512,"is_reserved":false,"is_disabled":false,"rental_uris":{"android":"levelo://app?vid=f2dfd2a0-5846-4c43-9aae-f5b5157fea3b","ios":"levelo://app?vid=f2dfd2a0-5846-4c43-9aae-f5b5157fea3b"},"vehicle_type_id":"4","last_reported":1743527326,"current_range_meters":10800,"station_id":"ce4bhch2rcd13ifvqeug","pricing_plan_id":"cebpf4jnsgd1na2vs0mg"},{"bike_id":"a24321d7-75cc-46f1-afa3-8d643ae21e7e","system_id":"levelo_inurba_marseille","lat":43.317337,"lon":5.405338,"is_reserved":false,"is_disabled":false,"rental_uris":{"android":"levelo://app?vid=a24321d7-75cc-46f1-afa3-8d643ae21e7e","ios":"levelo://app?vid=a24321d7-75cc-46f1-afa3-8d643ae21e7e"},"vehicle_type_id":"4","last_reported":1743527326,"current_range_meters":11200,"station_id":"ce4bhq92rcd13ifvqhjg","pricing_plan_id":"cebpf4jnsgd1na2vs0mg"},{"bike_id":"34ead93f-0548-429e-a369-3703fc242f80","system_id":"levelo_inurba_marseille","lat":43.25576,"lon":5.38239,"is_reserved":false,"is_disabled":false,"rental_uris":{"android":"levelo://app?vid=34ead93f-0548-429e-a369-3703fc242f80","ios":"levelo://app?vid=34ead93f-0548-429e-a369-3703fc242f80"},"vehicle_type_id":"4","last_reported":1743527326,"current_range_meters":11200,"station_id":"ce4bhih2rcd13ifvqfs0","pricing_plan_id":"cebpf4jnsgd1na2vs0mg"},{"bike_id":"7d24f7f3-5a91-46ae-971d-a7a715309919","system_id":"levelo_inurba_marseille","lat":43.23201,"lon":5.39992,"is_reserved":false,"is_disabled":false,"rental_uris":{"android":"levelo://app?vid=7d24f7f3-5a91-46ae-971d-a7a715309919","ios":"levelo://app?vid=7d24f7f3-5a91-46ae-971d-a7a715309919"},"vehicle_type_id":"4","last_reported":1743527326,"current_range_meters":11200,"station_id":"ce4bhn12rcd13ifvqgqg","pricing_plan_id":"cebpf4jnsgd1na2vs0mg"},{"bike_id":"2770cc07-01b2-4b58-bc0a-1a615f9bde65","system_id":"levelo_inurba_marseille","lat":43.29881,"lon":5.39729,"is_reserved":false,"is_disabled":false,"rental_uris":{"android":"levelo://app?vid=2770cc07-01b2-4b58-bc0a-1a615f9bde65","ios":"levelo://app?vid=2770cc07-01b2-4b58-bc0a-1a615f9bde65"},"vehicle_type_id":"4","last_reported":1743527326,"current_range_meters":11200,"station_id":"ce4bh0h2rcd13ifvqd50","pricing_plan_id":"cebpf4jnsgd1na2vs0mg"},{"bike_id":"3ba6ccff-1eda-46d4-acbd-01dbdd65bb76","system_id":"levelo_inurba_marseille","lat":43.299,"lon":5.43691,"is_reserved":false,"is_disabled":false,"rental_uris":{"android":"levelo://app?vid=3ba6ccff-1eda-46d4-acbd-01dbdd65bb76","ios":"levelo://app?vid=3ba6ccff-1eda-46d4-acbd-01dbdd65bb76"},"vehicle_type_id":"4","last_reported":1743527326,"current_range_meters":11200,"station_id":"ce4bhpp2rcd13ifvqhfg","pricing_plan_id":"cebpf4jnsgd1na2vs0mg"},{"bike_id":"3d8078ee-fafd-418a-808e-e78016ae3265","system_id":"levelo_inurba_marseille","lat":43.28465,"lon":5.35892,"is_reserved":false,"is_disabled":false,"rental_uris":{"android":"levelo://app?vid=3d8078ee-fafd-418a-808e-e78016ae3265","ios":"levelo://app?vid=3d8078ee-fafd-418a-808e-e78016ae3265"},"vehicle_type_id":"4","last_reported":1743527326,"current_range_meters":11600,"station_id":"ce4bhah2rcd13ifvqei0","pricing_plan_id":"cebpf4jnsgd1na2vs0mg"},{"bike_id":"67e25ac6-e87b-46ba-a82b-8e5473ee87d3","system_id":"levelo_inurba_marseille","lat":43.2894,"lon":5.38379,"is_reserved":false,"is_disabled":false,"rental_uris":{"android":"levelo://app?vid=67e25ac6-e87b-46ba-a82b-8e5473ee87d3","ios":"levelo://app?vid=67e25ac6-e87b-46ba-a82b-8e5473ee87d3"},"vehicle_type_id":"4","last_reported":1743527326,"current_range_meters":11200,"station_id":"ce4bh612rcd13ifvqe6g","pricing_plan_id":"cebpf4jnsgd1na2vs0mg"},{"bike_id":"56cfda8b-2674-4efc-8ad1-c51e28d4f008","system_id":"levelo_inurba_marseille","lat":43.28042,"lon":5.36951,"is_reserved":false,"is_disabled":false,"rental_uris":{"android":"levelo://app?vid=56cfda8b-2674-4efc-8ad1-c51e28d4f008","ios":"levelo://app?vid=56cfda8b-2674-4efc-8ad1-c51e28d4f008"},"vehicle_type_id":"4","last_reported":1743527326,"current_range_meters":11200,"station_id":"ce4bha12rcd13ifvqef0","pricing_plan_id":"cebpf4jnsgd1na2vs0mg"},{"bike_id":"9fbd420b-6ea9-4b7f-900a-35df51907f64","system_id":"levelo_inurba_marseille","lat":43.29904,"lon":5.43714,"is_reserved":false,"is_disabled":false,"rental_uris":{"android":"levelo://app?vid=9fbd420b-6ea9-4b7f-900a-35df51907f64","ios":"levelo://app?vid=9fbd420b-6ea9-4b7f-900a-35df51907f64"},"vehicle_type_id":"4","last_reported":1743527326,"current_range_meters":11600,"station_id":"","pricing_plan_id":"cebpf4jnsgd1na2vs0mg"},{"bike_id":"ba605c4b-ac36-4bfd-8ca3-3a36e6b7b343","system_id":"levelo_inurba_marseille","lat":43.28464,"lon":5.35876,"is_reserved":false,"is_disabled":false,"rental_uris":{"android":"levelo://app?vid=ba605c4b-ac36-4bfd-8ca3-3a36e6b7b343","ios":"levelo://app?vid=ba605c4b-ac36-4bfd-8ca3-3a36e6b7b343"},"vehicle_type_id":"4","last_reported":1743527326,"current_range_meters":11200,"station_id":"ce4bhah2rcd13ifvqei0","pricing_plan_id":"cebpf4jnsgd1na2vs0mg"},{"bike_id":"9c20a6ef-f1da-494c-9a1e-5f7c27c01d71","system_id":"levelo_inurba_marseille","lat":43.263887,"lon":5.3774,"is_reserved":false,"is_disabled":false,"rental_uris":{"android":"levelo://app?vid=9c20a6ef-f1da-494c-9a1e-5f7c27c01d71","ios":"levelo://app?vid=9c20a6ef-f1da-494c-9a1e-5f7c27c01d71"},"vehicle_type_id":"4","last_reported":1743527326,"current_range_meters":11600,"station_id":"ce4bhjp2rcd13ifvqg90","pricing_plan_id":"cebpf4jnsgd1na2vs0mg"},{"bike_id":"c3742909-8ac1-45e8-bbc0-0a14494abaa8","system_id":"levelo_inurba_marseille","lat":43.24636,"lon":5.38923,"is_reserved":false,"is_disabled":false,"rental_uris":{"android":"levelo://app?vid=c3742909-8ac1-45e8-bbc0-0a14494abaa8","ios":"levelo://app?vid=c3742909-8ac1-45e8-bbc0-0a14494abaa8"},"vehicle_type_id":"4","last_reported":1743527326,"current_range_meters":11600,"station_id":"ce4bhg12rcd13ifvqf60","pricing_plan_id":"cebpf4jnsgd1na2vs0mg"},{"bike_id":"4220d26d-272d-4b23-9cec-a79c1d919b49","system_id":"levelo_inurba_marseille","lat":43.30591,"lon":5.37138,"is_reserved":false,"is_disabled":false,"rental_uris":{"android":"levelo://app?vid=4220d26d-272d-4b23-9cec-a79c1d919b49","ios":"levelo://app?vid=4220d26d-272d-4b23-9cec-a79c1d919b49"},"vehicle_type_id":"4","last_reported":1743527326,"current_range_meters":11600,"station_id":"","pricing_plan_id":"cebpf4jnsgd1na2vs0mg"},{"bike_id":"c4326931-0528-450a-b020-9ba11e85f2fd","system_id":"levelo_inurba_marseille","lat":43.317179,"lon":5.436107,"is_reserved":false,"is_disabled":false,"rental_uris":{"android":"levelo://app?vid=c4326931-0528-450a-b020-9ba11e85f2fd","ios":"levelo://app?vid=c4326931-0528-450a-b020-9ba11e85f2fd"},"vehicle_type_id":"4","last_reported":1743527326,"current_range_meters":11600,"station_id":"ce4bhp92rcd13ifvqhcg","pricing_plan_id":"cebpf4jnsgd1na2vs0mg"},{"bike_id":"dd61a6cf-dd9c-493a-bdf3-33e6266b5d89","system_id":"levelo_inurba_marseille","lat":43.25001,"lon":5.38927,"is_reserved":false,"is_disabled":false,"rental_uris":{"android":"levelo://app?vid=dd61a6cf-dd9c-493a-bdf3-33e6266b5d89","ios":"levelo://app?vid=dd61a6cf-dd9c-493a-bdf3-33e6266b5d89"},"vehicle_type_id":"4","last_reported":1743527326,"current_range_meters":11600,"station_id":"ce4bhgp2rcd13ifvqfd0","pricing_plan_id":"cebpf4jnsgd1na2vs0mg"},{"bike_id":"a35e7910-591d-4adf-ab97-fc5b37db0c8e","system_id":"levelo_inurba_marseille","lat":43.28161,"lon":5.42637,"is_reserved":false,"is_disabled":false,"rental_uris":{"android":"levelo://app?vid=a35e7910-591d-4adf-ab97-fc5b37db0c8e","ios":"levelo://app?vid=a35e7910-591d-4adf-ab97-fc5b37db0c8e"},"vehicle_type_id":"4","last_reported":1743527326,"current_range_meters":11600,"station_id":"ce4bhnh2rcd13ifvqgug","pricing_plan_id":"cebpf4jnsgd1na2vs0mg"},{"bike_id":"ddf3db2d-8d46-4e70-bc04-0f983b61bef4","system_id":"levelo_inurba_marseille","lat":43.3014,"lon":5.39849,"is_reserved":false,"is_disabled":false,"rental_uris":{"android":"levelo://app?vid=ddf3db2d-8d46-4e70-bc04-0f983b61bef4","ios":"levelo://app?vid=ddf3db2d-8d46-4e70-bc04-0f983b61bef4"},"vehicle_type_id":"4","last_reported":1743527326,"current_range_meters":12000,"station_id":"ce4bh0h2rcd13ifvqd40","pricing_plan_id":"cebpf4jnsgd1na2vs0mg"},{"bike_id":"c4e21501-f7cb-49ba-be38-b41ce55a7fb3","system_id":"levelo_inurba_marseille","lat":43.29972,"lon":5.38495,"is_reserved":false,"is_disabled":false,"rental_uris":{"android":"levelo://app?vid=c4e21501-f7cb-49ba-be38-b41ce55a7fb3","ios":"levelo://app?vid=c4e21501-f7cb-49ba-be38-b41ce55a7fb3"},"vehicle_type_id":"4","last_reported":1743527326,"current_range_meters":11600,"station_id":"ce4bgj92rcd13ifvqbd0","pricing_plan_id":"cebpf4jnsgd1na2vs0mg"},{"bike_id":"278a506b-3b1b-4d97-bb5e-5869d9c38046","system_id":"levelo_inurba_marseille","lat":43.31757,"lon":5.39013,"is_reserved":false,"is_disabled":false,"rental_uris":{"android":"levelo://app?vid=278a506b-3b1b-4d97-bb5e-5869d9c38046","ios":"levelo://app?vid=278a506b-3b1b-4d97-bb5e-5869d9c38046"},"vehicle_type_id":"4","last_reported":1743527326,"current_range_meters":12000,"station_id":"ce4bhqp2rcd13ifvqhng","pricing_plan_id":"cebpf4jnsgd1na2vs0mg"},{"bike_id":"711d846e-dc69-4acf-a297-d98a8e33ae2d","system_id":"levelo_inurba_marseille","lat":43.31357,"lon":5.38492,"is_reserved":false,"is_disabled":false,"rental_uris":{"android":"levelo://app?vid=711d846e-dc69-4acf-a297-d98a8e33ae2d","ios":"levelo://app?vid=711d846e-dc69-4acf-a297-d98a8e33ae2d"},"vehicle_type_id":"4","last_reported":1743527326,"current_range_meters":12000,"station_id":"ce4bgt92rcd13ifvqcf0","pricing_plan_id":"cebpf4jnsgd1na2vs0mg"},{"bike_id":"e055ff70-1e02-469e-8b20-efb9a9753d96","system_id":"levelo_inurba_marseille","lat":43.28463,"lon":5.35885,"is_reserved":false,"is_disabled":false,"rental_uris":{"android":"levelo://app?vid=e055ff70-1e02-469e-8b20-efb9a9753d96","ios":"levelo://app?vid=e055ff70-1e02-469e-8b20-efb9a9753d96"},"vehicle_type_id":"4","last_reported":1743527326,"current_range_meters":12000,"station_id":"ce4bhah2rcd13ifvqei0","pricing_plan_id":"cebpf4jnsgd1na2vs0mg"},{"bike_id":"01b49bb5-ec47-4e2a-895b-e89570444ab0","system_id":"levelo_inurba_marseille","lat":43.29029,"lon":5.38653,"is_reserved":false,"is_disabled":false,"rental_uris":{"android":"levelo://app?vid=01b49bb5-ec47-4e2a-895b-e89570444ab0","ios":"levelo://app?vid=01b49bb5-ec47-4e2a-895b-e89570444ab0"},"vehicle_type_id":"4","last_reported":1743527326,"current_range_meters":12000,"station_id":"ce4bh4p2rcd13ifvqe0g","pricing_plan_id":"cebpf4jnsgd1na2vs0mg"},{"bike_id":"b0b22483-e29e-4a3d-97f1-4a9d773a6efd","system_id":"levelo_inurba_marseille","lat":43.2418,"lon":5.39726,"is_reserved":false,"is_disabled":false,"rental_uris":{"android":"levelo://app?vid=b0b22483-e29e-4a3d-97f1-4a9d773a6efd","ios":"levelo://app?vid=b0b22483-e29e-4a3d-97f1-4a9d773a6efd"},"vehicle_type_id":"4","last_reported":1743527326,"current_range_meters":12000,"station_id":"ce4bhn12rcd13ifvqgpg","pricing_plan_id":"cebpf4jnsgd1na2vs0mg"},{"bike_id":"a743bf24-76ea-44ff-ad20-8c7df657e752","system_id":"levelo_inurba_marseille","lat":43.29807,"lon":5.38108,"is_reserved":false,"is_disabled":false,"rental_uris":{"android":"levelo://app?vid=a743bf24-76ea-44ff-ad20-8c7df657e752","ios":"levelo://app?vid=a743bf24-76ea-44ff-ad20-8c7df657e752"},"vehicle_type_id":"4","last_reported":1743527326,"current_range_meters":12400,"station_id":"ce4bgip2rcd13ifvqbb0","pricing_plan_id":"cebpf4jnsgd1na2vs0mg"},{"bike_id":"a87c03f6-1e0b-496a-ba35-8cae889bb9b4","system_id":"levelo_inurba_marseille","lat":43.26807,"lon":5.40261,"is_reserved":false,"is_disabled":false,"rental_uris":{"android":"levelo://app?vid=a87c03f6-1e0b-496a-ba35-8cae889bb9b4","ios":"levelo://app?vid=a87c03f6-1e0b-496a-ba35-8cae889bb9b4"},"vehicle_type_id":"4","last_reported":1743527326,"current_range_meters":12400,"station_id":"ce501612rcd8frsf0b60","pricing_plan_id":"cebpf4jnsgd1na2vs0mg"},{"bike_id":"0955bcb1-f8dc-47f4-a135-54218809acb7","system_id":"levelo_inurba_marseille","lat":43.26557,"lon":5.37303,"is_reserved":false,"is_disabled":true,"rental_uris":{"android":"levelo://app?vid=0955bcb1-f8dc-47f4-a135-54218809acb7","ios":"levelo://app?vid=0955bcb1-f8dc-47f4-a135-54218809acb7"},"vehicle_type_id":"4","last_reported":1743527326,"current_range_meters":12400,"station_id":"ce4bhg12rcd13ifvqf70","pricing_plan_id":"cebpf4jnsgd1na2vs0mg"},{"bike_id":"6e6a66e5-58ca-4db1-9695-b46ed5c28827","system_id":"levelo_inurba_marseille","lat":43.31802,"lon":5.36827,"is_reserved":false,"is_disabled":false,"rental_uris":{"android":"levelo://app?vid=6e6a66e5-58ca-4db1-9695-b46ed5c28827","ios":"levelo://app?vid=6e6a66e5-58ca-4db1-9695-b46ed5c28827"},"vehicle_type_id":"4","last_reported":1743527326,"current_range_meters":12400,"station_id":"","pricing_plan_id":"cebpf4jnsgd1na2vs0mg"},{"bike_id":"29301bab-de4c-4ded-84be-d6dade42dc23","system_id":"levelo_inurba_marseille","lat":43.31356,"lon":5.38494,"is_reserved":false,"is_disabled":false,"rental_uris":{"android":"levelo://app?vid=29301bab-de4c-4ded-84be-d6dade42dc23","ios":"levelo://app?vid=29301bab-de4c-4ded-84be-d6dade42dc23"},"vehicle_type_id":"4","last_reported":1743527326,"current_range_meters":12400,"station_id":"ce4bgt92rcd13ifvqcf0","pricing_plan_id":"cebpf4jnsgd1na2vs0mg"},{"bike_id":"f6e27106-c11c-44f5-9c66-300fe95f2d51","system_id":"levelo_inurba_marseille","lat":43.29179,"lon":5.37139,"is_reserved":false,"is_disabled":false,"rental_uris":{"android":"levelo://app?vid=f6e27106-c11c-44f5-9c66-300fe95f2d51","ios":"levelo://app?vid=f6e27106-c11c-44f5-9c66-300fe95f2d51"},"vehicle_type_id":"4","last_reported":1743527326,"current_range_meters":12400,"station_id":"ce4bha92rcd13ifvqeh0","pricing_plan_id":"cebpf4jnsgd1na2vs0mg"},{"bike_id":"6b8d5371-b5ab-4832-8c8e-12234f9dff78","system_id":"levelo_inurba_marseille","lat":43.31757,"lon":5.39008,"is_reserved":false,"is_disabled":false,"rental_uris":{"android":"levelo://app?vid=6b8d5371-b5ab-4832-8c8e-12234f9dff78","ios":"levelo://app?vid=6b8d5371-b5ab-4832-8c8e-12234f9dff78"},"vehicle_type_id":"4","last_reported":1743527326,"current_range_meters":12400,"station_id":"ce4bhqp2rcd13ifvqhng","pricing_plan_id":"cebpf4jnsgd1na2vs0mg"},{"bike_id":"f6271e3b-a72f-41c6-9c6e-5bc055c2e3fb","system_id":"levelo_inurba_marseille","lat":43.29424,"lon":5.38609,"is_reserved":false,"is_disabled":false,"rental_uris":{"android":"levelo://app?vid=f6271e3b-a72f-41c6-9c6e-5bc055c2e3fb","ios":"levelo://app?vid=f6271e3b-a72f-41c6-9c6e-5bc055c2e3fb"},"vehicle_type_id":"4","last_reported":1743527326,"current_range_meters":12400,"station_id":"ce4bh2h2rcd13ifvqdh0","pricing_plan_id":"cebpf4jnsgd1na2vs0mg"},{"bike_id":"8747aed2-6e09-493c-945d-fd38e3684ec7","system_id":"levelo_inurba_marseille","lat":43.24076,"lon":5.37755,"is_reserved":false,"is_disabled":false,"rental_uris":{"android":"levelo://app?vid=8747aed2-6e09-493c-945d-fd38e3684ec7","ios":"levelo://app?vid=8747aed2-6e09-493c-945d-fd38e3684ec7"},"vehicle_type_id":"4","last_reported":1743527326,"current_range_meters":12000,"station_id":"ce4bhnp2rcd13ifvqgvg","pricing_plan_id":"cebpf4jnsgd1na2vs0mg"},{"bike_id":"673cd2fb-9a5c-412d-a385-2a1c87de78c8","system_id":"levelo_inurba_marseille","lat":43.28606,"lon":5.37067,"is_reserved":false,"is_disabled":false,"rental_uris":{"android":"levelo://app?vid=673cd2fb-9a5c-412d-a385-2a1c87de78c8","ios":"levelo://app?vid=673cd2fb-9a5c-412d-a385-2a1c87de78c8"},"vehicle_type_id":"4","last_reported":1743527326,"current_range_meters":12400,"station_id":"ce4bht12rcd13ifvqi60","pricing_plan_id":"cebpf4jnsgd1na2vs0mg"},{"bike_id":"fc5b273c-e281-4971-84ec-1b44051e0c87","system_id":"levelo_inurba_marseille","lat":43.32346,"lon":5.40607,"is_reserved":false,"is_disabled":false,"rental_uris":{"android":"levelo://app?vid=fc5b273c-e281-4971-84ec-1b44051e0c87","ios":"levelo://app?vid=fc5b273c-e281-4971-84ec-1b44051e0c87"},"vehicle_type_id":"4","last_reported":1743527326,"current_range_meters":12800,"station_id":"ce4bhq92rcd13ifvqhjg","pricing_plan_id":"cebpf4jnsgd1na2vs0mg"},{"bike_id":"22cf7027-d2cc-4f6c-85dd-b9bd01b4da0b","system_id":"levelo_inurba_marseille","lat":43.25591,"lon":5.38233,"is_reserved":false,"is_disabled":false,"rental_uris":{"android":"levelo://app?vid=22cf7027-d2cc-4f6c-85dd-b9bd01b4da0b","ios":"levelo://app?vid=22cf7027-d2cc-4f6c-85dd-b9bd01b4da0b"},"vehicle_type_id":"4","last_reported":1743527326,"current_range_meters":12800,"station_id":"ce4bhih2rcd13ifvqfs0","pricing_plan_id":"cebpf4jnsgd1na2vs0mg"},{"bike_id":"f616f89a-6b5f-47f2-be4a-c1252268f5f4","system_id":"levelo_inurba_marseille","lat":43.29425,"lon":5.3864,"is_reserved":false,"is_disabled":true,"rental_uris":{"android":"levelo://app?vid=f616f89a-6b5f-47f2-be4a-c1252268f5f4","ios":"levelo://app?vid=f616f89a-6b5f-47f2-be4a-c1252268f5f4"},"vehicle_type_id":"4","last_reported":1743527326,"current_range_meters":12800,"station_id":"ce4bh2h2rcd13ifvqdh0","pricing_plan_id":"cebpf4jnsgd1na2vs0mg"},{"bike_id":"6b84f3c5-fe72-4ddd-889c-3fd12a1108fb","system_id":"levelo_inurba_marseille","lat":43.26199,"lon":5.37921,"is_reserved":false,"is_disabled":false,"rental_uris":{"android":"levelo://app?vid=6b84f3c5-fe72-4ddd-889c-3fd12a1108fb","ios":"levelo://app?vid=6b84f3c5-fe72-4ddd-889c-3fd12a1108fb"},"vehicle_type_id":"4","last_reported":1743527326,"current_range_meters":12800,"station_id":"ce4bhjp2rcd13ifvqg90","pricing_plan_id":"cebpf4jnsgd1na2vs0mg"},{"bike_id":"21c96ea6-0f25-4b89-8d53-a9092769058b","system_id":"levelo_inurba_marseille","lat":43.2979,"lon":5.39332,"is_reserved":false,"is_disabled":false,"rental_uris":{"android":"levelo://app?vid=21c96ea6-0f25-4b89-8d53-a9092769058b","ios":"levelo://app?vid=21c96ea6-0f25-4b89-8d53-a9092769058b"},"vehicle_type_id":"4","last_reported":1743527326,"current_range_meters":12800,"station_id":"chh1huq6cuj3fo74tm60","pricing_plan_id":"cebpf4jnsgd1na2vs0mg"},{"bike_id":"7bdbdb75-8945-4bed-8699-415f46af31d9","system_id":"levelo_inurba_marseille","lat":43.2895,"lon":5.3641,"is_reserved":false,"is_disabled":false,"rental_uris":{"android":"levelo://app?vid=7bdbdb75-8945-4bed-8699-415f46af31d9","ios":"levelo://app?vid=7bdbdb75-8945-4bed-8699-415f46af31d9"},"vehicle_type_id":"4","last_reported":1743527326,"current_range_meters":12800,"station_id":"ce4bhc92rcd13ifvqetg","pricing_plan_id":"cebpf4jnsgd1na2vs0mg"},{"bike_id":"283f376d-2873-4f13-a5e6-67eb825584ae","system_id":"levelo_inurba_marseille","lat":43.295258,"lon":5.385396,"is_reserved":false,"is_disabled":false,"rental_uris":{"android":"levelo://app?vid=283f376d-2873-4f13-a5e6-67eb825584ae","ios":"levelo://app?vid=283f376d-2873-4f13-a5e6-67eb825584ae"},"vehicle_type_id":"4","last_reported":1743527326,"current_range_meters":12400,"station_id":"ce4bhih2rcd13ifvqfs0","pricing_plan_id":"cebpf4jnsgd1na2vs0mg"},{"bike_id":"7089a631-8b55-4bae-8225-d55053097321","system_id":"levelo_inurba_marseille","lat":43.26571,"lon":5.39027,"is_reserved":false,"is_disabled":false,"rental_uris":{"android":"levelo://app?vid=7089a631-8b55-4bae-8225-d55053097321","ios":"levelo://app?vid=7089a631-8b55-4bae-8225-d55053097321"},"vehicle_type_id":"4","last_reported":1743527326,"current_range_meters":12800,"station_id":"ce4bhe12rcd13ifvqf30","pricing_plan_id":"cebpf4jnsgd1na2vs0mg"},{"bike_id":"c93eb6f9-b025-455d-949e-ac3331b5a1d7","system_id":"levelo_inurba_marseille","lat":43.29274,"lon":5.38431,"is_reserved":false,"is_disabled":false,"rental_uris":{"android":"levelo://app?vid=c93eb6f9-b025-455d-949e-ac3331b5a1d7","ios":"levelo://app?vid=c93eb6f9-b025-455d-949e-ac3331b5a1d7"},"vehicle_type_id":"4","last_reported":1743527326,"current_range_meters":12400,"station_id":"ce4bh692rcd13ifvqea0","pricing_plan_id":"cebpf4jnsgd1na2vs0mg"},{"bike_id":"38e0f47f-3647-4bff-bc04-af829f9fc131","system_id":"levelo_inurba_marseille","lat":43.28683,"lon":5.38668,"is_reserved":false,"is_disabled":false,"rental_uris":{"android":"levelo://app?vid=38e0f47f-3647-4bff-bc04-af829f9fc131","ios":"levelo://app?vid=38e0f47f-3647-4bff-bc04-af829f9fc131"},"vehicle_type_id":"4","last_reported":1743527326,"current_range_meters":12400,"station_id":"ce4bh492rcd13ifvqdug","pricing_plan_id":"cebpf4jnsgd1na2vs0mg"},{"bike_id":"598a9bc0-e7dd-46ab-bf63-f4271bbd4883","system_id":"levelo_inurba_marseille","lat":43.2807,"lon":5.39628,"is_reserved":false,"is_disabled":false,"rental_uris":{"android":"levelo://app?vid=598a9bc0-e7dd-46ab-bf63-f4271bbd4883","ios":"levelo://app?vid=598a9bc0-e7dd-46ab-bf63-f4271bbd4883"},"vehicle_type_id":"4","last_reported":1743527326,"current_range_meters":15200,"station_id":"ce4bho12rcd13ifvqh2g","pricing_plan_id":"cebpf4jnsgd1na2vs0mg"},{"bike_id":"76214319-d124-4f72-9d5f-e474c7ce99f4","system_id":"levelo_inurba_marseille","lat":43.31337,"lon":5.39686,"is_reserved":false,"is_disabled":false,"rental_uris":{"android":"levelo://app?vid=76214319-d124-4f72-9d5f-e474c7ce99f4","ios":"levelo://app?vid=76214319-d124-4f72-9d5f-e474c7ce99f4"},"vehicle_type_id":"4","last_reported":1743527326,"current_range_meters":13600,"station_id":"ce4bgvp2rcd13ifvqcu0","pricing_plan_id":"cebpf4jnsgd1na2vs0mg"},{"bike_id":"1b672112-1a49-4518-8828-abbf42b6ebac","system_id":"levelo_inurba_marseille","lat":43.28832,"lon":5.35868,"is_reserved":false,"is_disabled":false,"rental_uris":{"android":"levelo://app?vid=1b672112-1a49-4518-8828-abbf42b6ebac","ios":"levelo://app?vid=1b672112-1a49-4518-8828-abbf42b6ebac"},"vehicle_type_id":"4","last_reported":1743527326,"current_range_meters":13600,"station_id":"ce4bhb12rcd13ifvqem0","pricing_plan_id":"cebpf4jnsgd1na2vs0mg"},{"bike_id":"9209256e-54d3-47ce-920d-9a62e7d04ad9","system_id":"levelo_inurba_marseille","lat":43.28621,"lon":5.35104,"is_reserved":false,"is_disabled":false,"rental_uris":{"android":"levelo://app?vid=9209256e-54d3-47ce-920d-9a62e7d04ad9","ios":"levelo://app?vid=9209256e-54d3-47ce-920d-9a62e7d04ad9"},"vehicle_type_id":"4","last_reported":1743527326,"current_range_meters":13600,"station_id":"ce4bhch2rcd13ifvqeug","pricing_plan_id":"cebpf4jnsgd1na2vs0mg"},{"bike_id":"f19b0f37-3532-4116-825a-8049c9568d9f","system_id":"levelo_inurba_marseille","lat":43.31329,"lon":5.39698,"is_reserved":false,"is_disabled":false,"rental_uris":{"android":"levelo://app?vid=f19b0f37-3532-4116-825a-8049c9568d9f","ios":"levelo://app?vid=f19b0f37-3532-4116-825a-8049c9568d9f"},"vehicle_type_id":"4","last_reported":1743527326,"current_range_meters":13600,"station_id":"ce4bgvp2rcd13ifvqcu0","pricing_plan_id":"cebpf4jnsgd1na2vs0mg"},{"bike_id":"d2900b29-b6b7-413c-b2c4-21b9bef860c1","system_id":"levelo_inurba_marseille","lat":43.28929,"lon":5.38394,"is_reserved":false,"is_disabled":false,"rental_uris":{"android":"levelo://app?vid=d2900b29-b6b7-413c-b2c4-21b9bef860c1","ios":"levelo://app?vid=d2900b29-b6b7-413c-b2c4-21b9bef860c1"},"vehicle_type_id":"4","last_reported":1743527326,"current_range_meters":13600,"station_id":"ce4bh612rcd13ifvqe6g","pricing_plan_id":"cebpf4jnsgd1na2vs0mg"},{"bike_id":"8274625f-4b26-4aa4-b25f-79fb329a44c4","system_id":"levelo_inurba_marseille","lat":43.29576,"lon":5.39967,"is_reserved":false,"is_disabled":false,"rental_uris":{"android":"levelo://app?vid=8274625f-4b26-4aa4-b25f-79fb329a44c4","ios":"levelo://app?vid=8274625f-4b26-4aa4-b25f-79fb329a44c4"},"vehicle_type_id":"4","last_reported":1743527326,"current_range_meters":13600,"station_id":"ce4bh312rcd13ifvqdj0","pricing_plan_id":"cebpf4jnsgd1na2vs0mg"},{"bike_id":"17011927-5eb5-4a38-a132-35a6858ea1fb","system_id":"levelo_inurba_marseille","lat":43.30311,"lon":5.3923,"is_reserved":false,"is_disabled":true,"rental_uris":{"android":"levelo://app?vid=17011927-5eb5-4a38-a132-35a6858ea1fb","ios":"levelo://app?vid=17011927-5eb5-4a38-a132-35a6858ea1fb"},"vehicle_type_id":"4","last_reported":1743527326,"current_range_meters":13600,"station_id":"ce4bgkh2rcd13ifvqbk0","pricing_plan_id":"cebpf4jnsgd1na2vs0mg"},{"bike_id":"d9ba3d72-d400-4489-80dc-c586bd29d7eb","system_id":"levelo_inurba_marseille","lat":43.28853,"lon":5.35876,"is_reserved":false,"is_disabled":false,"rental_uris":{"android":"levelo://app?vid=d9ba3d72-d400-4489-80dc-c586bd29d7eb","ios":"levelo://app?vid=d9ba3d72-d400-4489-80dc-c586bd29d7eb"},"vehicle_type_id":"4","last_reported":1743527326,"current_range_meters":14000,"station_id":"ce4bhb12rcd13ifvqem0","pricing_plan_id":"cebpf4jnsgd1na2vs0mg"},{"bike_id":"dd3db03f-0f43-4986-9ec8-2a76818fb28c","system_id":"levelo_inurba_marseille","lat":43.23212,"lon":5.35546,"is_reserved":false,"is_disabled":false,"rental_uris":{"android":"levelo://app?vid=dd3db03f-0f43-4986-9ec8-2a76818fb28c","ios":"levelo://app?vid=dd3db03f-0f43-4986-9ec8-2a76818fb28c"},"vehicle_type_id":"4","last_reported":1743527326,"current_range_meters":14000,"station_id":"ce4bhu92rcd13ifvqi70","pricing_plan_id":"cebpf4jnsgd1na2vs0mg"},{"bike_id":"a7c4952b-536d-4f54-b61b-d0783ce4c4f8","system_id":"levelo_inurba_marseille","lat":43.28479,"lon":5.38414,"is_reserved":false,"is_disabled":false,"rental_uris":{"android":"levelo://app?vid=a7c4952b-536d-4f54-b61b-d0783ce4c4f8","ios":"levelo://app?vid=a7c4952b-536d-4f54-b61b-d0783ce4c4f8"},"vehicle_type_id":"4","last_reported":1743527326,"current_range_meters":13600,"station_id":"ce4bh512rcd13ifvqe3g","pricing_plan_id":"cebpf4jnsgd1na2vs0mg"},{"bike_id":"fa468bb8-eef1-4802-9ad1-6bea837f9803","system_id":"levelo_inurba_marseille","lat":43.28349,"lon":5.38102,"is_reserved":false,"is_disabled":false,"rental_uris":{"android":"levelo://app?vid=fa468bb8-eef1-4802-9ad1-6bea837f9803","ios":"levelo://app?vid=fa468bb8-eef1-4802-9ad1-6bea837f9803"},"vehicle_type_id":"4","last_reported":1743527326,"current_range_meters":14000,"station_id":"ce4bh412rcd13ifvqdr0","pricing_plan_id":"cebpf4jnsgd1na2vs0mg"},{"bike_id":"8c8c904f-4688-4edc-8d5e-ac5ec4c04aa2","system_id":"levelo_inurba_marseille","lat":43.26067,"lon":5.39387,"is_reserved":false,"is_disabled":true,"rental_uris":{"android":"levelo://app?vid=8c8c904f-4688-4edc-8d5e-ac5ec4c04aa2","ios":"levelo://app?vid=8c8c904f-4688-4edc-8d5e-ac5ec4c04aa2"},"vehicle_type_id":"4","last_reported":1743527326,"current_range_meters":14400,"station_id":"ce4bhh92rcd13ifvqfj0","pricing_plan_id":"cebpf4jnsgd1na2vs0mg"},{"bike_id":"f9a5f557-961b-4bec-bae1-bd2bb4e1d753","system_id":"levelo_inurba_marseille","lat":43.29691,"lon":5.37308,"is_reserved":false,"is_disabled":false,"rental_uris":{"android":"levelo://app?vid=f9a5f557-961b-4bec-bae1-bd2bb4e1d753","ios":"levelo://app?vid=f9a5f557-961b-4bec-bae1-bd2bb4e1d753"},"vehicle_type_id":"4","last_reported":1743527326,"current_range_meters":14000,"station_id":"ce4bgk12rcd13ifvqbj0","pricing_plan_id":"cebpf4jnsgd1na2vs0mg"},{"bike_id":"7d4ef6c9-7d02-4d16-a528-d668b5b4c6fd","system_id":"levelo_inurba_marseille","lat":43.30161,"lon":5.37412,"is_reserved":false,"is_disabled":false,"rental_uris":{"android":"levelo://app?vid=7d4ef6c9-7d02-4d16-a528-d668b5b4c6fd","ios":"levelo://app?vid=7d4ef6c9-7d02-4d16-a528-d668b5b4c6fd"},"vehicle_type_id":"4","last_reported":1743527326,"current_range_meters":14000,"station_id":"ce4bgs92rcd13ifvqcc0","pricing_plan_id":"cebpf4jnsgd1na2vs0mg"},{"bike_id":"b80ee275-2592-4659-b2e9-175feb839700","system_id":"levelo_inurba_marseille","lat":43.23191,"lon":5.35547,"is_reserved":false,"is_disabled":false,"rental_uris":{"android":"levelo://app?vid=b80ee275-2592-4659-b2e9-175feb839700","ios":"levelo://app?vid=b80ee275-2592-4659-b2e9-175feb839700"},"vehicle_type_id":"4","last_reported":1743527326,"current_range_meters":14400,"station_id":"ce4bhu92rcd13ifvqi70","pricing_plan_id":"cebpf4jnsgd1na2vs0mg"},{"bike_id":"062f662a-fdc3-4404-96a7-532a807a62a2","system_id":"levelo_inurba_marseille","lat":43.28705,"lon":5.37951,"is_reserved":false,"is_disabled":true,"rental_uris":{"android":"levelo://app?vid=062f662a-fdc3-4404-96a7-532a807a62a2","ios":"levelo://app?vid=062f662a-fdc3-4404-96a7-532a807a62a2"},"vehicle_type_id":"4","last_reported":1743527326,"current_range_meters":14400,"station_id":"ce4bh9p2rcd13ifvqec0","pricing_plan_id":"cebpf4jnsgd1na2vs0mg"},{"bike_id":"f589c491-61bb-4ca1-aa3e-7e3bb3446950","system_id":"levelo_inurba_marseille","lat":43.23198,"lon":5.35555,"is_reserved":false,"is_disabled":false,"rental_uris":{"android":"levelo://app?vid=f589c491-61bb-4ca1-aa3e-7e3bb3446950","ios":"levelo://app?vid=f589c491-61bb-4ca1-aa3e-7e3bb3446950"},"vehicle_type_id":"4","last_reported":1743527326,"current_range_meters":14400,"station_id":"ce4bhu92rcd13ifvqi70","pricing_plan_id":"cebpf4jnsgd1na2vs0mg"},{"bike_id":"9f341957-33a4-4ffc-9c04-219b9bc94f88","system_id":"levelo_inurba_marseille","lat":43.296007,"lon":5.381005,"is_reserved":false,"is_disabled":false,"rental_uris":{"android":"levelo://app?vid=9f341957-33a4-4ffc-9c04-219b9bc94f88","ios":"levelo://app?vid=9f341957-33a4-4ffc-9c04-219b9bc94f88"},"vehicle_type_id":"4","last_reported":1743527326,"current_range_meters":14000,"station_id":"ce4bhop2rcd13ifvqh7g","pricing_plan_id":"cebpf4jnsgd1na2vs0mg"},{"bike_id":"17e3143f-0bd0-47cb-a23f-5855c895077a","system_id":"levelo_inurba_marseille","lat":43.289387,"lon":5.36643,"is_reserved":false,"is_disabled":false,"rental_uris":{"android":"levelo://app?vid=17e3143f-0bd0-47cb-a23f-5855c895077a","ios":"levelo://app?vid=17e3143f-0bd0-47cb-a23f-5855c895077a"},"vehicle_type_id":"4","last_reported":1743527326,"current_range_meters":14800,"station_id":"ce4bhap2rcd13ifvqek0","pricing_plan_id":"cebpf4jnsgd1na2vs0mg"},{"bike_id":"f55695a6-b65f-4a30-99ab-94b2bfa63268","system_id":"levelo_inurba_marseille","lat":43.23206,"lon":5.35542,"is_reserved":false,"is_disabled":false,"rental_uris":{"android":"levelo://app?vid=f55695a6-b65f-4a30-99ab-94b2bfa63268","ios":"levelo://app?vid=f55695a6-b65f-4a30-99ab-94b2bfa63268"},"vehicle_type_id":"4","last_reported":1743527326,"current_range_meters":14800,"station_id":"ce4bhu92rcd13ifvqi70","pricing_plan_id":"cebpf4jnsgd1na2vs0mg"},{"bike_id":"b465ce82-d3d5-48ff-a6a0-874e8160d2a2","system_id":"levelo_inurba_marseille","lat":43.2894,"lon":5.36641,"is_reserved":false,"is_disabled":false,"rental_uris":{"android":"levelo://app?vid=b465ce82-d3d5-48ff-a6a0-874e8160d2a2","ios":"levelo://app?vid=b465ce82-d3d5-48ff-a6a0-874e8160d2a2"},"vehicle_type_id":"4","last_reported":1743527326,"current_range_meters":14800,"station_id":"ce4bhap2rcd13ifvqek0","pricing_plan_id":"cebpf4jnsgd1na2vs0mg"},{"bike_id":"7bdf0d60-3026-4723-ac07-ebb25b9cf79f","system_id":"levelo_inurba_marseille","lat":43.28494,"lon":5.39472,"is_reserved":false,"is_disabled":false,"rental_uris":{"android":"levelo://app?vid=7bdf0d60-3026-4723-ac07-ebb25b9cf79f","ios":"levelo://app?vid=7bdf0d60-3026-4723-ac07-ebb25b9cf79f"},"vehicle_type_id":"4","last_reported":1743527326,"current_range_meters":14800,"station_id":"","pricing_plan_id":"cebpf4jnsgd1na2vs0mg"},{"bike_id":"05b6a89d-2cdb-4f8e-b632-5784905c96c7","system_id":"levelo_inurba_marseille","lat":43.2862,"lon":5.35109,"is_reserved":false,"is_disabled":false,"rental_uris":{"android":"levelo://app?vid=05b6a89d-2cdb-4f8e-b632-5784905c96c7","ios":"levelo://app?vid=05b6a89d-2cdb-4f8e-b632-5784905c96c7"},"vehicle_type_id":"4","last_reported":1743527326,"current_range_meters":14800,"station_id":"ce4bhch2rcd13ifvqeug","pricing_plan_id":"cebpf4jnsgd1na2vs0mg"},{"bike_id":"04eebd47-337d-453d-808e-ad12ea7ac2de","system_id":"levelo_inurba_marseille","lat":43.26682,"lon":5.38268,"is_reserved":false,"is_disabled":false,"rental_uris":{"android":"levelo://app?vid=04eebd47-337d-453d-808e-ad12ea7ac2de","ios":"levelo://app?vid=04eebd47-337d-453d-808e-ad12ea7ac2de"},"vehicle_type_id":"4","last_reported":1743527326,"current_range_meters":14800,"station_id":"ce4bhg92rcd13ifvqf90","pricing_plan_id":"cebpf4jnsgd1na2vs0mg"},{"bike_id":"0ed80ee8-56b7-4580-8a94-56be39e58fa3","system_id":"levelo_inurba_marseille","lat":43.25576,"lon":5.38238,"is_reserved":false,"is_disabled":false,"rental_uris":{"android":"levelo://app?vid=0ed80ee8-56b7-4580-8a94-56be39e58fa3","ios":"levelo://app?vid=0ed80ee8-56b7-4580-8a94-56be39e58fa3"},"vehicle_type_id":"4","last_reported":1743527326,"current_range_meters":14800,"station_id":"ce4bhih2rcd13ifvqfs0","pricing_plan_id":"cebpf4jnsgd1na2vs0mg"},