{"last_updated":1770968504,"ttl":60,"version":"2.2","data":{"bikes":[{"bike_id":"d96f1086-8d9b-4b38-8774-136993319875","system_id":"levelo_inurba_marseille","lat":43.24661,"lon":5.38881,"is_reserved":false,"is_disabled":false,"rental_uris":{"android":"levelo://app?vid=d96f1086-8d9b-4b38-8774-136993319875","ios":"levelo://app?vid=d96f1086-8d9b-4b38-8774-136993319875"},"vehicle_type_id":"4","last_reported":1770968504,"current_range_meters":26000,"station_id":"ce4bhg12rcd13ifvqf60","pricing_plan_id":"cebpf4jnsgd1na2vs0mg"},{"bike_id":"c5571452-c3a9-4836-8b2a-9d93f59b5759","system_id":"levelo_inurba_marseille","lat":43.28474,"lon":5.48406,"is_reserved":false,"is_disabled":false,"rental_uris":{"android":"levelo://app?vid=c5571452-c3a9-4836-8b2a-9d93f59b5759","ios":"levelo://app?vid=c5571452-c3a9-4836-8b2a-9d93f59b5759"},"vehicle_type_id":"4","last_reported":1770968504,"current_range_meters":11600,"station_id":"st_d3svhcjqgbts73a3dn0g","pricing_plan_id":"cebpf4jnsgd1na2vs0mg"},{"bike_id":"597ba019-6a14-4724-bfeb-cc559411f270","system_id":"levelo_inurba_marseille","lat":43.27617,"lon":5.36125,"is_reserved":false,"is_disabled":false,"rental_uris":{"android":"levelo://app?vid=597ba019-6a14-4724-bfeb-cc559411f270","ios":"levelo://app?vid=597ba019-6a14-4724-bfeb-cc559411f270"},"vehicle_type_id":"4","last_reported":1770968504,"current_range_meters":39200,"station_id":"ce4bgj92rcd13ifvqbe0","pricing_plan_id":"cebpf4jnsgd1na2vs0mg"},{"bike_id":"80ee9136-fcc3-4159-a9b6-95e99816d5df","system_id":"levelo_inurba_marseille","lat":43.304736,"lon":5.378974,"is_reserved":false,"is_disabled":false,"rental_uris":{"android":"levelo://app?vid=80ee9136-fcc3-4159-a9b6-95e99816d5df","ios":"levelo://app?vid=80ee9136-fcc3-4159-a9b6-95e99816d5df"},"vehicle_type_id":"4","last_reported":1770968504,"current_range_meters":35200,"station_id":"ce4bgup2rcd13ifvqcn0","pricing_plan_id":"cebpf4jnsgd1na2vs0mg"},{"bike_id":"662b27f2-b747-41dd-9193-0c1d19d98946","system_id":"levelo_inurba_marseille","lat":43.312735,"lon":5.40173,"is_reserved":false,"is_disabled":false,"rental_uris":{"android":"levelo://app?vid=662b27f2-b747-41dd-9193-0c1d19d98946","ios":"levelo://app?vid=662b27f2-b747-41dd-9193-0c1d19d98946"},"vehicle_type_id":"4","last_reported":1770968504,"current_range_meters":17200,"station_id":"ce4bh092rcd13ifvqd30","pricing_plan_id":"cebpf4jnsgd1na2vs0mg"},{"bike_id":"fc148e1b-2eeb-4bb0-8155-e98e097f71ae","system_id":"levelo_inurba_marseille","lat":43.28329,"lon":5.38945,"is_reserved":false,"is_disabled":false,"rental_uris":{"android":"levelo://app?vid=fc148e1b-2eeb-4bb0-8155-e98e097f71ae","ios":"levelo://app?vid=fc148e1b-2eeb-4bb0-8155-e98e097f71ae"},"vehicle_type_id":"4","last_reported":1770968504,"current_range_meters":28800,"station_id":"","pricing_plan_id":"cebpf4jnsgd1na2vs0mg"},{"bike_id":"007dd422-bd9c-4750-828e-10e5b1290676","system_id":"levelo_inurba_marseille","lat":43.28605,"lon":5.38948,"is_reserved":false,"is_disabled":false,"rental_uris":{"android":"levelo://app?vid=007dd422-bd9c-4750-828e-10e5b1290676","ios":"levelo://app?vid=007dd422-bd9c-4750-828e-10e5b1290676"},"vehicle_type_id":"4","last_reported":1770968504,"current_range_meters":29600,"station_id":"","pricing_plan_id":"cebpf4jnsgd1na2vs0mg"},{"bike_id":"b4ed104e-788d-4b33-aad1-d33937fae292","system_id":"levelo_inurba_marseille","lat":43.28925,"lon":5.39655,"is_reserved":false,"is_disabled":true,"rental_uris":{"android":"levelo://app?vid=b4ed104e-788d-4b33-aad1-d33937fae292","ios":"levelo://app?vid=b4ed104e-788d-4b33-aad1-d33937fae292"},"vehicle_type_id":"4","last_reported":1770968504,"current_range_meters":28400,"station_id":"ce4bh3h2rcd13ifvqdn0","pricing_plan_id":"cebpf4jnsgd1na2vs0mg"},{"bike_id":"022767c9-f523-4ead-b102-658b025cab8d","system_id":"levelo_inurba_marseille","lat":43.24799,"lon":5.37467,"is_reserved":false,"is_disabled":false,"rental_uris":{"android":"levelo://app?vid=022767c9-f523-4ead-b102-658b025cab8d","ios":"levelo://app?vid=022767c9-f523-4ead-b102-658b025cab8d"},"vehicle_type_id":"4","last_reported":1770968504,"current_range_meters":38400,"station_id":"ce4bhgh2rcd13ifvqfb0","pricing_plan_id":"cebpf4jnsgd1na2vs0mg"},{"bike_id":"b6e7429c-cc3c-4004-b8fc-f3875d0aace7","system_id":"levelo_inurba_marseille","lat":43.30154,"lon":5.38028,"is_reserved":false,"is_disabled":false,"rental_uris":{"android":"levelo://app?vid=b6e7429c-cc3c-4004-b8fc-f3875d0aace7","ios":"levelo://app?vid=b6e7429c-cc3c-4004-b8fc-f3875d0aace7"},"vehicle_type_id":"4","last_reported":1770968504,"current_range_meters":31200,"station_id":"ce4bgjp2rcd13ifvqbh0","pricing_plan_id":"cebpf4jnsgd1na2vs0mg"},{"bike_id":"c4642fce-6679-473d-841d-309d722b18fd","system_id":"levelo_inurba_marseille","lat":43.29582,"lon":5.36738,"is_reserved":false,"is_disabled":false,"rental_uris":{"android":"levelo://app?vid=c4642fce-6679-473d-841d-309d722b18fd","ios":"levelo://app?vid=c4642fce-6679-473d-841d-309d722b18fd"},"vehicle_type_id":"4","last_reported":1770968504,"current_range_meters":35200,"station_id":"ce4bgph2rcd13ifvqc2g","pricing_plan_id":"cebpf4jnsgd1na2vs0mg"},{"bike_id":"245d8399-0abe-420d-bc4b-93336612c814","system_id":"levelo_inurba_marseille","lat":43.25879,"lon":5.39891,"is_reserved":false,"is_disabled":false,"rental_uris":{"android":"levelo://app?vid=245d8399-0abe-420d-bc4b-93336612c814","ios":"levelo://app?vid=245d8399-0abe-420d-bc4b-93336612c814"},"vehicle_type_id":"4","last_reported":1770968504,"current_range_meters":22400,"station_id":"ce4bhl92rcd13ifvqghg","pricing_plan_id":"cebpf4jnsgd1na2vs0mg"},{"bike_id":"eceb30dd-f202-4183-92b0-f3face85ee0f","system_id":"levelo_inurba_marseille","lat":43.26211,"lon":5.37438,"is_reserved":false,"is_disabled":false,"rental_uris":{"android":"levelo://app?vid=eceb30dd-f202-4183-92b0-f3face85ee0f","ios":"levelo://app?vid=eceb30dd-f202-4183-92b0-f3face85ee0f"},"vehicle_type_id":"4","last_reported":1770968504,"current_range_meters":11200,"station_id":"ce4bhgp2rcd13ifvqfc0","pricing_plan_id":"cebpf4jnsgd1na2vs0mg"},{"bike_id":"9d1f4dd7-2e35-4db0-a418-66c9b7e73e53","system_id":"levelo_inurba_marseille","lat":43.33147,"lon":5.392534,"is_reserved":false,"is_disabled":false,"rental_uris":{"android":"levelo://app?vid=9d1f4dd7-2e35-4db0-a418-66c9b7e73e53","ios":"levelo://app?vid=9d1f4dd7-2e35-4db0-a418-66c9b7e73e53"},"vehicle_type_id":"4","last_reported":1770968504,"current_range_meters":14800,"station_id":"","pricing_plan_id":"cebpf4jnsgd1na2vs0mg"},{"bike_id":"f4f082aa-56ec-46a6-9694-a39b6dc830f5","system_id":"levelo_inurba_marseille","lat":43.32481,"lon":5.36581,"is_reserved":false,"is_disabled":false,"rental_uris":{"android":"levelo://app?vid=f4f082aa-56ec-46a6-9694-a39b6dc830f5","ios":"levelo://app?vid=f4f082aa-56ec-46a6-9694-a39b6dc830f5"},"vehicle_type_id":"4","last_reported":1770968504,"current_range_meters":38000,"station_id":"ce4bhs12rcd13ifvqhvg","pricing_plan_id":"cebpf4jnsgd1na2vs0mg"},{"bike_id":"c57a3473-db26-4825-b0c3-9acd480d89cc","system_id":"levelo_inurba_marseille","lat":43.30739,"lon":5.42441,"is_reserved":false,"is_disabled":false,"rental_uris":{"android":"levelo://app?vid=c57a3473-db26-4825-b0c3-9acd480d89cc","ios":"levelo://app?vid=c57a3473-db26-4825-b0c3-9acd480d89cc"},"vehicle_type_id":"4","last_reported":1770968504,"current_range_meters":19600,"station_id":"st_cvj6ca6bvosntc0bfgr0","pricing_plan_id":"cebpf4jnsgd1na2vs0mg"},{"bike_id":"581a942e-7f4c-4b59-961d-e47e562daab6","system_id":"levelo_inurba_marseille","lat":43.33532,"lon":5.37449,"is_reserved":false,"is_disabled":false,"rental_uris":{"android":"levelo://app?vid=581a942e-7f4c-4b59-961d-e47e562daab6","ios":"levelo://app?vid=581a942e-7f4c-4b59-961d-e47e562daab6"},"vehicle_type_id":"4","last_reported":1770968504,"current_range_meters":26800,"station_id":"st_d46tts09ee8s73dlu43g","pricing_plan_id":"cebpf4jnsgd1na2vs0mg"},{"bike_id":"42ec1b08-4ea1-4b89-8312-7958b7ae7f2e","system_id":"levelo_inurba_marseille","lat":43.29192,"lon":5.39315,"is_reserved":false,"is_disabled":true,"rental_uris":{"android":"levelo://app?vid=42ec1b08-4ea1-4b89-8312-7958b7ae7f2e","ios":"levelo://app?vid=42ec1b08-4ea1-4b89-8312-7958b7ae7f2e"},"vehicle_type_id":"4","last_reported":1770968504,"current_range_meters":25200,"station_id":"ce4bh192rcd13ifvqdd0","pricing_plan_id":"cebpf4jnsgd1na2vs0mg"},{"bike_id":"8bdaefbd-4792-4e98-a33e-13831766efc7","system_id":"levelo_inurba_marseille","lat":43.24668,"lon":5.38155,"is_reserved":false,"is_disabled":false,"rental_uris":{"android":"levelo://app?vid=8bdaefbd-4792-4e98-a33e-13831766efc7","ios":"levelo://app?vid=8bdaefbd-4792-4e98-a33e-13831766efc7"},"vehicle_type_id":"4","last_reported":1770968504,"current_range_meters":12000,"station_id":"ce4bhih2rcd13ifvqfr0","pricing_plan_id":"cebpf4jnsgd1na2vs0mg"},{"bike_id":"375dea6e-9d0d-4201-bab5-e343be855177","system_id":"levelo_inurba_marseille","lat":43.29545,"lon":5.42302,"is_reserved":false,"is_disabled":false,"rental_uris":{"android":"levelo://app?vid=375dea6e-9d0d-4201-bab5-e343be855177","ios":"levelo://app?vid=375dea6e-9d0d-4201-bab5-e343be855177"},"vehicle_type_id":"4","last_reported":1770968504,"current_range_meters":20400,"station_id":"ce4bhph2rcd13ifvqhdg","pricing_plan_id":"cebpf4jnsgd1na2vs0mg"},{"bike_id":"3e3231f6-7f34-4e79-a208-8e160f324ca7","system_id":"levelo_inurba_marseille","lat":43.31128,"lon":5.3776,"is_reserved":false,"is_disabled":false,"rental_uris":{"android":"levelo://app?vid=3e3231f6-7f34-4e79-a208-8e160f324ca7","ios":"levelo://app?vid=3e3231f6-7f34-4e79-a208-8e160f324ca7"},"vehicle_type_id":"4","last_reported":1770968504,"current_range_meters":17200,"station_id":"ce4bgt92rcd13ifvqcg0","pricing_plan_id":"cebpf4jnsgd1na2vs0mg"},{"bike_id":"9e9bde6e-784b-42b8-a576-035499c1e654","system_id":"levelo_inurba_marseille","lat":43.310372,"lon":5.371791,"is_reserved":false,"is_disabled":false,"rental_uris":{"android":"levelo://app?vid=9e9bde6e-784b-42b8-a576-035499c1e654","ios":"levelo://app?vid=9e9bde6e-784b-42b8-a576-035499c1e654"},"vehicle_type_id":"4","last_reported":1770968504,"current_range_meters":39200,"station_id":"st_d4kl2rp97mjs73e7tdfg","pricing_plan_id":"cebpf4jnsgd1na2vs0mg"},{"bike_id":"a4be4eed-32c8-419a-8fa0-bd3decf6c558","system_id":"levelo_inurba_marseille","lat":43.300058,"lon":5.380886,"is_reserved":false,"is_disabled":false,"rental_uris":{"android":"levelo://app?vid=a4be4eed-32c8-419a-8fa0-bd3decf6c558","ios":"levelo://app?vid=a4be4eed-32c8-419a-8fa0-bd3decf6c558"},"vehicle_type_id":"4","last_reported":1770968504,"current_range_meters":23200,"station_id":"ce4bgjp2rcd13ifvqbh0","pricing_plan_id":"cebpf4jnsgd1na2vs0mg"},{"bike_id":"b136ab9a-4511-4074-b009-3fcdc7c210e7","system_id":"levelo_inurba_marseille","lat":43.25934,"lon":5.40908,"is_reserved":false,"is_disabled":false,"rental_uris":{"android":"levelo://app?vid=b136ab9a-4511-4074-b009-3fcdc7c210e7","ios":"levelo://app?vid=b136ab9a-4511-4074-b009-3fcdc7c210e7"},"vehicle_type_id":"4","last_reported":1770968504,"current_range_meters":16000,"station_id":"ce4bhm92rcd13ifvqglg","pricing_plan_id":"cebpf4jnsgd1na2vs0mg"},{"bike_id":"77fc1e4c-0211-4eae-8d8f-73ac92ac2b8c","system_id":"levelo_inurba_marseille","lat":43.3016,"lon":5.38086,"is_reserved":false,"is_disabled":false,"rental_uris":{"android":"levelo://app?vid=77fc1e4c-0211-4eae-8d8f-73ac92ac2b8c","ios":"levelo://app?vid=77fc1e4c-0211-4eae-8d8f-73ac92ac2b8c"},"vehicle_type_id":"4","last_reported":1770968504,"current_range_meters":12800,"station_id":"ce4bgjp2rcd13ifvqbh0","pricing_plan_id":"cebpf4jnsgd1na2vs0mg"},{"bike_id":"6d22b095-ac89-44fb-a85d-e5f85c2365e2","system_id":"levelo_inurba_marseille","lat":43.32117,"lon":5.36806,"is_reserved":false,"is_disabled":false,"rental_uris":{"android":"levelo://app?vid=6d22b095-ac89-44fb-a85d-e5f85c2365e2","ios":"levelo://app?vid=6d22b095-ac89-44fb-a85d-e5f85c2365e2"},"vehicle_type_id":"4","last_reported":1770968504,"current_range_meters":33600,"station_id":"ce4bhrh2rcd13ifvqhug","pricing_plan_id":"cebpf4jnsgd1na2vs0mg"},{"bike_id":"c70613bb-0fb4-4214-9810-e4d4c22df343","system_id":"levelo_inurba_marseille","lat":43.285758,"lon":5.394923,"is_reserved":false,"is_disabled":false,"rental_uris":{"android":"levelo://app?vid=c70613bb-0fb4-4214-9810-e4d4c22df343","ios":"levelo://app?vid=c70613bb-0fb4-4214-9810-e4d4c22df343"},"vehicle_type_id":"4","last_reported":1770968504,"current_range_meters":26800,"station_id":"ce4bh292rcd13ifvqdg0","pricing_plan_id":"cebpf4jnsgd1na2vs0mg"},{"bike_id":"8b06d2f9-1f63-41aa-a9b1-7b3be7e68ff4","system_id":"levelo_inurba_marseille","lat":43.28258,"lon":5.35077,"is_reserved":false,"is_disabled":false,"rental_uris":{"android":"levelo://app?vid=8b06d2f9-1f63-41aa-a9b1-7b3be7e68ff4","ios":"levelo://app?vid=8b06d2f9-1f63-41aa-a9b1-7b3be7e68ff4"},"vehicle_type_id":"4","last_reported":1770968504,"current_range_meters":18000,"station_id":"ce4bhbp2rcd13ifvqerg","pricing_plan_id":"cebpf4jnsgd1na2vs0mg"},{"bike_id":"f522a37b-7b1a-4bf2-902e-61d1ad81f21a","system_id":"levelo_inurba_marseille","lat":43.31164,"lon":5.3687,"is_reserved":false,"is_disabled":false,"rental_uris":{"android":"levelo://app?vid=f522a37b-7b1a-4bf2-902e-61d1ad81f21a","ios":"levelo://app?vid=f522a37b-7b1a-4bf2-902e-61d1ad81f21a"},"vehicle_type_id":"4","last_reported":1770968504,"current_range_meters":36800,"station_id":"","pricing_plan_id":"cebpf4jnsgd1na2vs0mg"},{"bike_id":"727904f8-1bd1-455c-b4d3-c46a58221b5f","system_id":"levelo_inurba_marseille","lat":43.284631,"lon":5.358789,"is_reserved":false,"is_disabled":false,"rental_uris":{"android":"levelo://app?vid=727904f8-1bd1-455c-b4d3-c46a58221b5f","ios":"levelo://app?vid=727904f8-1bd1-455c-b4d3-c46a58221b5f"},"vehicle_type_id":"4","last_reported":1770968504,"current_range_meters":33600,"station_id":"ce4bhah2rcd13ifvqei0","pricing_plan_id":"cebpf4jnsgd1na2vs0mg"},{"bike_id":"d7e55b74-244d-40ff-92ca-08279a596dd1","system_id":"levelo_inurba_marseille","lat":43.299,"lon":5.43645,"is_reserved":false,"is_disabled":false,"rental_uris":{"android":"levelo://app?vid=d7e55b74-244d-40ff-92ca-08279a596dd1","ios":"levelo://app?vid=d7e55b74-244d-40ff-92ca-08279a596dd1"},"vehicle_type_id":"4","last_reported":1770968504,"current_range_meters":36800,"station_id":"ce4bhpp2rcd13ifvqhfg","pricing_plan_id":"cebpf4jnsgd1na2vs0mg"},{"bike_id":"a2de7276-c49e-42b7-8d25-d200dd3c682b","system_id":"levelo_inurba_marseille","lat":43.29633,"lon":5.37718,"is_reserved":false,"is_disabled":false,"rental_uris":{"android":"levelo://app?vid=a2de7276-c49e-42b7-8d25-d200dd3c682b","ios":"levelo://app?vid=a2de7276-c49e-42b7-8d25-d200dd3c682b"},"vehicle_type_id":"4","last_reported":1770968504,"current_range_meters":3600,"station_id":"ce4bgi92rcd13ifvqb90","pricing_plan_id":"cebpf4jnsgd1na2vs0mg"},{"bike_id":"6d761bb5-7ab8-45e9-be07-540108f494e4","system_id":"levelo_inurba_marseille","lat":43.26906,"lon":5.40271,"is_reserved":false,"is_disabled":false,"rental_uris":{"android":"levelo://app?vid=6d761bb5-7ab8-45e9-be07-540108f494e4","ios":"levelo://app?vid=6d761bb5-7ab8-45e9-be07-540108f494e4"},"vehicle_type_id":"4","last_reported":1770968504,"current_range_meters":17200,"station_id":"cjm6bp8fraef2m0cb0m0","pricing_plan_id":"cebpf4jnsgd1na2vs0mg"},{"bike_id":"f300d22b-b3ab-42d6-ad72-e92af3306e75","system_id":"levelo_inurba_marseille","lat":43.31019,"lon":5.37186,"is_reserved":false,"is_disabled":false,"rental_uris":{"android":"levelo://app?vid=f300d22b-b3ab-42d6-ad72-e92af3306e75","ios":"levelo://app?vid=f300d22b-b3ab-42d6-ad72-e92af3306e75"},"vehicle_type_id":"4","last_reported":1770968504,"current_range_meters":22800,"station_id":"st_d4kl2rp97mjs73e7tdfg","pricing_plan_id":"cebpf4jnsgd1na2vs0mg"},{"bike_id":"fb43b87c-a8c1-4a57-8955-c143f7e7a2c6","system_id":"levelo_inurba_marseille","lat":43.324804,"lon":5.365892,"is_reserved":false,"is_disabled":false,"rental_uris":{"android":"levelo://app?vid=fb43b87c-a8c1-4a57-8955-c143f7e7a2c6","ios":"levelo://app?vid=fb43b87c-a8c1-4a57-8955-c143f7e7a2c6"},"vehicle_type_id":"4","last_reported":1770968504,"current_range_meters":32000,"station_id":"ce4bhs12rcd13ifvqhvg","pricing_plan_id":"cebpf4jnsgd1na2vs0mg"},{"bike_id":"241b3e74-a71f-4c45-8122-0768114fc5a0","system_id":"levelo_inurba_marseille","lat":43.298469,"lon":5.362855,"is_reserved":false,"is_disabled":false,"rental_uris":{"android":"levelo://app?vid=241b3e74-a71f-4c45-8122-0768114fc5a0","ios":"levelo://app?vid=241b3e74-a71f-4c45-8122-0768114fc5a0"},"vehicle_type_id":"4","last_reported":1770968504,"current_range_meters":38400,"station_id":"ce4bgpp2rcd13ifvqc3g","pricing_plan_id":"cebpf4jnsgd1na2vs0mg"},{"bike_id":"2521d735-3542-4e3c-98b4-c6148b7c29da","system_id":"levelo_inurba_marseille","lat":43.3266,"lon":5.4099,"is_reserved":false,"is_disabled":false,"rental_uris":{"android":"levelo://app?vid=2521d735-3542-4e3c-98b4-c6148b7c29da","ios":"levelo://app?vid=2521d735-3542-4e3c-98b4-c6148b7c29da"},"vehicle_type_id":"4","last_reported":1770968504,"current_range_meters":35200,"station_id":"ce4bhpp2rcd13ifvqhgg","pricing_plan_id":"cebpf4jnsgd1na2vs0mg"},{"bike_id":"b8b273a9-ad07-47df-8f89-3ea01ba1e037","system_id":"levelo_inurba_marseille","lat":43.27577,"lon":5.38427,"is_reserved":false,"is_disabled":false,"rental_uris":{"android":"levelo://app?vid=b8b273a9-ad07-47df-8f89-3ea01ba1e037","ios":"levelo://app?vid=b8b273a9-ad07-47df-8f89-3ea01ba1e037"},"vehicle_type_id":"4","last_reported":1770968504,"current_range_meters":39200,"station_id":"ce4bhh92rcd13ifvqfi0","pricing_plan_id":"cebpf4jnsgd1na2vs0mg"},{"bike_id":"f38fccb3-9422-4c98-b4a5-9320cdfa4c27","system_id":"levelo_inurba_marseille","lat":43.28262,"lon":5.35085,"is_reserved":false,"is_disabled":false,"rental_uris":{"android":"levelo://app?vid=f38fccb3-9422-4c98-b4a5-9320cdfa4c27","ios":"levelo://app?vid=f38fccb3-9422-4c98-b4a5-9320cdfa4c27"},"vehicle_type_id":"4","last_reported":1770968504,"current_range_meters":26800,"station_id":"ce4bhbp2rcd13ifvqerg","pricing_plan_id":"cebpf4jnsgd1na2vs0mg"},{"bike_id":"6e2fc0d4-a25b-4469-96ca-042c68399b84","system_id":"levelo_inurba_marseille","lat":43.29064,"lon":5.37152,"is_reserved":false,"is_disabled":false,"rental_uris":{"android":"levelo://app?vid=6e2fc0d4-a25b-4469-96ca-042c68399b84","ios":"levelo://app?vid=6e2fc0d4-a25b-4469-96ca-042c68399b84"},"vehicle_type_id":"4","last_reported":1770968504,"current_range_meters":4000,"station_id":"ce4bh5p2rcd13ifvqe4g","pricing_plan_id":"cebpf4jnsgd1na2vs0mg"},{"bike_id":"6888d293-0d81-4cf8-b7da-18b5fd60abad","system_id":"levelo_inurba_marseille","lat":43.2932,"lon":5.37231,"is_reserved":false,"is_disabled":false,"rental_uris":{"android":"levelo://app?vid=6888d293-0d81-4cf8-b7da-18b5fd60abad","ios":"levelo://app?vid=6888d293-0d81-4cf8-b7da-18b5fd60abad"},"vehicle_type_id":"4","last_reported":1770968504,"current_range_meters":24400,"station_id":"","pricing_plan_id":"cebpf4jnsgd1na2vs0mg"},{"bike_id":"e389fbb0-3071-4b94-8533-da432a7613b3","system_id":"levelo_inurba_marseille","lat":43.29907,"lon":5.38138,"is_reserved":false,"is_disabled":false,"rental_uris":{"android":"levelo://app?vid=e389fbb0-3071-4b94-8533-da432a7613b3","ios":"levelo://app?vid=e389fbb0-3071-4b94-8533-da432a7613b3"},"vehicle_type_id":"4","last_reported":1770968504,"current_range_meters":33200,"station_id":"ce4bgj12rcd13ifvqbc0","pricing_plan_id":"cebpf4jnsgd1na2vs0mg"},{"bike_id":"32b27b47-6c8b-49c6-8b48-fbeace627871","system_id":"levelo_inurba_marseille","lat":43.312067,"lon":5.36841,"is_reserved":false,"is_disabled":false,"rental_uris":{"android":"levelo://app?vid=32b27b47-6c8b-49c6-8b48-fbeace627871","ios":"levelo://app?vid=32b27b47-6c8b-49c6-8b48-fbeace627871"},"vehicle_type_id":"4","last_reported":1770968504,"current_range_meters":8000,"station_id":"ce4bgl92rcd13ifvqbq0","pricing_plan_id":"cebpf4jnsgd1na2vs0mg"},{"bike_id":"54174f9a-82c6-4185-9348-2931b546c925","system_id":"levelo_inurba_marseille","lat":43.29259,"lon":5.3686,"is_reserved":false,"is_disabled":false,"rental_uris":{"android":"levelo://app?vid=54174f9a-82c6-4185-9348-2931b546c925","ios":"levelo://app?vid=54174f9a-82c6-4185-9348-2931b546c925"},"vehicle_type_id":"4","last_reported":1770968504,"current_range_meters":31200,"station_id":"ce4bhbp2rcd13ifvqesg","pricing_plan_id":"cebpf4jnsgd1na2vs0mg"},{"bike_id":"b7fcb2da-5243-440b-926b-4edc89af4b76","system_id":"levelo_inurba_marseille","lat":43.27996,"lon":5.40025,"is_reserved":false,"is_disabled":false,"rental_uris":{"android":"levelo://app?vid=b7fcb2da-5243-440b-926b-4edc89af4b76","ios":"levelo://app?vid=b7fcb2da-5243-440b-926b-4edc89af4b76"},"vehicle_type_id":"4","last_reported":1770968504,"current_range_meters":30000,"station_id":"ce4bho92rcd13ifvqh4g","pricing_plan_id":"cebpf4jnsgd1na2vs0mg"},{"bike_id":"f2d2568f-cb99-43df-b390-ebae83029115","system_id":"levelo_inurba_marseille","lat":43.29203,"lon":5.36056,"is_reserved":false,"is_disabled":false,"rental_uris":{"android":"levelo://app?vid=f2d2568f-cb99-43df-b390-ebae83029115","ios":"levelo://app?vid=f2d2568f-cb99-43df-b390-ebae83029115"},"vehicle_type_id":"4","last_reported":1770968504,"current_range_meters":27600,"station_id":"ce4bhbh2rcd13ifvqeqg","pricing_plan_id":"cebpf4jnsgd1na2vs0mg"},{"bike_id":"48d4a83c-c716-41c6-8fd3-cb0153dd2afb","system_id":"levelo_inurba_marseille","lat":43.31247,"lon":5.36837,"is_reserved":false,"is_disabled":false,"rental_uris":{"android":"levelo://app?vid=48d4a83c-c716-41c6-8fd3-cb0153dd2afb","ios":"levelo://app?vid=48d4a83c-c716-41c6-8fd3-cb0153dd2afb"},"vehicle_type_id":"4","last_reported":1770968504,"current_range_meters":33200,"station_id":"ce4bgl92rcd13ifvqbq0","pricing_plan_id":"cebpf4jnsgd1na2vs0mg"},{"bike_id":"e532d849-9da4-492c-974e-21e564fe6f6a","system_id":"levelo_inurba_marseille","lat":43.31019,"lon":5.37189,"is_reserved":false,"is_disabled":false,"rental_uris":{"android":"levelo://app?vid=e532d849-9da4-492c-974e-21e564fe6f6a","ios":"levelo://app?vid=e532d849-9da4-492c-974e-21e564fe6f6a"},"vehicle_type_id":"4","last_reported":1770968504,"current_range_meters":34000,"station_id":"","pricing_plan_id":"cebpf4jnsgd1na2vs0mg"},{"bike_id":"1abbadd6-2e69-43c8-83af-b993d8b481b8","system_id":"levelo_inurba_marseille","lat":43.29915,"lon":5.36519,"is_reserved":false,"is_disabled":false,"rental_uris":{"android":"levelo://app?vid=1abbadd6-2e69-43c8-83af-b993d8b481b8","ios":"levelo://app?vid=1abbadd6-2e69-43c8-83af-b993d8b481b8"},"vehicle_type_id":"4","last_reported":1770968504,"current_range_meters":37600,"station_id":"ce4bgm92rcd13ifvqbr0","pricing_plan_id":"cebpf4jnsgd1na2vs0mg"},{"bike_id":"991c13dc-fd9f-4b28-9c78-fd5b4127837e","system_id":"levelo_inurba_marseille","lat":43.269359,"lon":5.402534,"is_reserved":false,"is_disabled":false,"rental_uris":{"android":"levelo://app?vid=991c13dc-fd9f-4b28-9c78-fd5b4127837e","ios":"levelo://app?vid=991c13dc-fd9f-4b28-9c78-fd5b4127837e"},"vehicle_type_id":"4","last_reported":1770968504,"current_range_meters":38400,"station_id":"cjm6bp8fraef2m0cb0m0","pricing_plan_id":"cebpf4jnsgd1na2vs0mg"},{"bike_id":"39408217-f5cb-457a-82a9-d5c8e85cf221","system_id":"levelo_inurba_marseille","lat":43.279104,"lon":5.395787,"is_reserved":false,"is_disabled":false,"rental_uris":{"android":"levelo://app?vid=39408217-f5cb-457a-82a9-d5c8e85cf221","ios":"levelo://app?vid=39408217-f5cb-457a-82a9-d5c8e85cf221"},"vehicle_type_id":"4","last_reported":1770968504,"current_range_meters":39200,"station_id":"ce4bhf92rcd13ifvqf40","pricing_plan_id":"cebpf4jnsgd1na2vs0mg"},{"bike_id":"5d6b226c-0296-4bc0-9929-39689db3e4b1","system_id":"levelo_inurba_marseille","lat":43.32094,"lon":5.367972,"is_reserved":false,"is_disabled":false,"rental_uris":{"android":"levelo://app?vid=5d6b226c-0296-4bc0-9929-39689db3e4b1","ios":"levelo://app?vid=5d6b226c-0296-4bc0-9929-39689db3e4b1"},"vehicle_type_id":"4","last_reported":1770968504,"current_range_meters":22400,"station_id":"ce4bhrh2rcd13ifvqhug","pricing_plan_id":"cebpf4jnsgd1na2vs0mg"},{"bike_id":"f9036967-be2e-4b3a-b296-f81c635f7c21","system_id":"levelo_inurba_marseille","lat":43.28708,"lon":5.40071,"is_reserved":false,"is_disabled":true,"rental_uris":{"android":"levelo://app?vid=f9036967-be2e-4b3a-b296-f81c635f7c21","ios":"levelo://app?vid=f9036967-be2e-4b3a-b296-f81c635f7c21"},"vehicle_type_id":"4","last_reported":1770968504,"current_range_meters":38000,"station_id":"","pricing_plan_id":"cebpf4jnsgd1na2vs0mg"},{"bike_id":"9664a5c4-41bd-49a0-bca7-ccecab569b6a","system_id":"levelo_inurba_marseille","lat":43.32068,"lon":5.41554,"is_reserved":false,"is_disabled":false,"rental_uris":{"android":"levelo://app?vid=9664a5c4-41bd-49a0-bca7-ccecab569b6a","ios":"levelo://app?vid=9664a5c4-41bd-49a0-bca7-ccecab569b6a"},"vehicle_type_id":"4","last_reported":1770968504,"current_range_meters":38400,"station_id":"ce4bhq92rcd13ifvqhkg","pricing_plan_id":"cebpf4jnsgd1na2vs0mg"},{"bike_id":"5c8c3d05-5a98-4394-b47e-3e04535ddbbc","system_id":"levelo_inurba_marseille","lat":43.25503,"lon":5.37668,"is_reserved":false,"is_disabled":false,"rental_uris":{"android":"levelo://app?vid=5c8c3d05-5a98-4394-b47e-3e04535ddbbc","ios":"levelo://app?vid=5c8c3d05-5a98-4394-b47e-3e04535ddbbc"},"vehicle_type_id":"4","last_reported":1770968504,"current_range_meters":24000,"station_id":"ce4bhh12rcd13ifvqff0","pricing_plan_id":"cebpf4jnsgd1na2vs0mg"},{"bike_id":"d680673d-76c2-48d3-b737-b75ce412dc71","system_id":"levelo_inurba_marseille","lat":43.29026,"lon":5.3999,"is_reserved":false,"is_disabled":false,"rental_uris":{"android":"levelo://app?vid=d680673d-76c2-48d3-b737-b75ce412dc71","ios":"levelo://app?vid=d680673d-76c2-48d3-b737-b75ce412dc71"},"vehicle_type_id":"4","last_reported":1770968504,"current_range_meters":37600,"station_id":"ce4bh392rcd13ifvqdm0","pricing_plan_id":"cebpf4jnsgd1na2vs0mg"},{"bike_id":"2eaf66f2-bcdf-4002-be42-e8abe8063ce4","system_id":"levelo_inurba_marseille","lat":43.30962,"lon":5.40135,"is_reserved":false,"is_disabled":false,"rental_uris":{"android":"levelo://app?vid=2eaf66f2-bcdf-4002-be42-e8abe8063ce4","ios":"levelo://app?vid=2eaf66f2-bcdf-4002-be42-e8abe8063ce4"},"vehicle_type_id":"4","last_reported":1770968504,"current_range_meters":16800,"station_id":"ce4bgvp2rcd13ifvqct0","pricing_plan_id":"cebpf4jnsgd1na2vs0mg"},{"bike_id":"1666b265-643d-41e7-bcc3-6167a6d49f91","system_id":"levelo_inurba_marseille","lat":43.22526,"lon":5.34847,"is_reserved":false,"is_disabled":false,"rental_uris":{"android":"levelo://app?vid=1666b265-643d-41e7-bcc3-6167a6d49f91","ios":"levelo://app?vid=1666b265-643d-41e7-bcc3-6167a6d49f91"},"vehicle_type_id":"4","last_reported":1770968504,"current_range_meters":6000,"station_id":"st_cvj5dfep6f1abm77gieg","pricing_plan_id":"cebpf4jnsgd1na2vs0mg"},{"bike_id":"0686c1cd-6b47-4403-9258-151597036ac0","system_id":"levelo_inurba_marseille","lat":43.299803,"lon":5.371903,"is_reserved":false,"is_disabled":false,"rental_uris":{"android":"levelo://app?vid=0686c1cd-6b47-4403-9258-151597036ac0","ios":"levelo://app?vid=0686c1cd-6b47-4403-9258-151597036ac0"},"vehicle_type_id":"4","last_reported":1770968504,"current_range_meters":26000,"station_id":"ce4bgr92rcd13ifvqc7g","pricing_plan_id":"cebpf4jnsgd1na2vs0mg"},{"bike_id":"0cef8616-1d65-4182-99dc-824443a67ce0","system_id":"levelo_inurba_marseille","lat":43.24472,"lon":5.42546,"is_reserved":false,"is_disabled":false,"rental_uris":{"android":"levelo://app?vid=0cef8616-1d65-4182-99dc-824443a67ce0","ios":"levelo://app?vid=0cef8616-1d65-4182-99dc-824443a67ce0"},"vehicle_type_id":"4","last_reported":1770968504,"current_range_meters":9600,"station_id":"st_d4a3vfp97mjs738cd8kg","pricing_plan_id":"cebpf4jnsgd1na2vs0mg"},{"bike_id":"5f12005e-04e5-44aa-9036-56a982f265e1","system_id":"levelo_inurba_marseille","lat":43.29207,"lon":5.36101,"is_reserved":false,"is_disabled":false,"rental_uris":{"android":"levelo://app?vid=5f12005e-04e5-44aa-9036-56a982f265e1","ios":"levelo://app?vid=5f12005e-04e5-44aa-9036-56a982f265e1"},"vehicle_type_id":"4","last_reported":1770968504,"current_range_meters":34000,"station_id":"ce4bhbh2rcd13ifvqeqg","pricing_plan_id":"cebpf4jnsgd1na2vs0mg"},{"bike_id":"9eaba793-1048-4356-b61b-744ee2b1ebbc","system_id":"levelo_inurba_marseille","lat":43.292286,"lon":5.360403,"is_reserved":false,"is_disabled":false,"rental_uris":{"android":"levelo://app?vid=9eaba793-1048-4356-b61b-744ee2b1ebbc","ios":"levelo://app?vid=9eaba793-1048-4356-b61b-744ee2b1ebbc"},"vehicle_type_id":"4","last_reported":1770968504,"current_range_meters":34800,"station_id":"ce4bhbh2rcd13ifvqeqg","pricing_plan_id":"cebpf4jnsgd1na2vs0mg"},{"bike_id":"6684f561-c8e5-447e-b2b4-87fceaf4640b","system_id":"levelo_inurba_marseille","lat":43.26552,"lon":5.39041,"is_reserved":false,"is_disabled":false,"rental_uris":{"android":"levelo://app?vid=6684f561-c8e5-447e-b2b4-87fceaf4640b","ios":"levelo://app?vid=6684f561-c8e5-447e-b2b4-87fceaf4640b"},"vehicle_type_id":"4","last_reported":1770968504,"current_range_meters":22000,"station_id":"ce4bhe12rcd13ifvqf30","pricing_plan_id":"cebpf4jnsgd1na2vs0mg"},{"bike_id":"705379f0-9f22-461e-8900-3556f13ec82c","system_id":"levelo_inurba_marseille","lat":43.3175,"lon":5.37805,"is_reserved":false,"is_disabled":false,"rental_uris":{"android":"levelo://app?vid=705379f0-9f22-461e-8900-3556f13ec82c","ios":"levelo://app?vid=705379f0-9f22-461e-8900-3556f13ec82c"},"vehicle_type_id":"4","last_reported":1770968504,"current_range_meters":36000,"station_id":"","pricing_plan_id":"cebpf4jnsgd1na2vs0mg"},{"bike_id":"bcad26e7-801b-45a3-9a6f-b11851106eac","system_id":"levelo_inurba_marseille","lat":43.2865,"lon":5.38354,"is_reserved":false,"is_disabled":false,"rental_uris":{"android":"levelo://app?vid=bcad26e7-801b-45a3-9a6f-b11851106eac","ios":"levelo://app?vid=bcad26e7-801b-45a3-9a6f-b11851106eac"},"vehicle_type_id":"4","last_reported":1770968504,"current_range_meters":8800,"station_id":"","pricing_plan_id":"cebpf4jnsgd1na2vs0mg"},{"bike_id":"35e4b27f-bf66-4c05-b34c-6458f1faa95d","system_id":"levelo_inurba_marseille","lat":43.24617,"lon":5.43158,"is_reserved":false,"is_disabled":false,"rental_uris":{"android":"levelo://app?vid=35e4b27f-bf66-4c05-b34c-6458f1faa95d","ios":"levelo://app?vid=35e4b27f-bf66-4c05-b34c-6458f1faa95d"},"vehicle_type_id":"4","last_reported":1770968504,"current_range_meters":26800,"station_id":"st_d2m6c4gdas8pm72e190g","pricing_plan_id":"cebpf4jnsgd1na2vs0mg"},{"bike_id":"6068ab39-5054-4c82-bfb6-3a4eef3bba44","system_id":"levelo_inurba_marseille","lat":43.23153,"lon":5.43723,"is_reserved":false,"is_disabled":false,"rental_uris":{"android":"levelo://app?vid=6068ab39-5054-4c82-bfb6-3a4eef3bba44","ios":"levelo://app?vid=6068ab39-5054-4c82-bfb6-3a4eef3bba44"},"vehicle_type_id":"4","last_reported":1770968504,"current_range_meters":23200,"station_id":"ce4bhmp2rcd13ifvqgog","pricing_plan_id":"cebpf4jnsgd1na2vs0mg"},{"bike_id":"7d21d619-f8d4-4ef0-8148-d2d4a8faa58d","system_id":"levelo_inurba_marseille","lat":43.28478,"lon":5.38424,"is_reserved":false,"is_disabled":false,"rental_uris":{"android":"levelo://app?vid=7d21d619-f8d4-4ef0-8148-d2d4a8faa58d","ios":"levelo://app?vid=7d21d619-f8d4-4ef0-8148-d2d4a8faa58d"},"vehicle_type_id":"4","last_reported":1770968504,"current_range_meters":36400,"station_id":"ce4bh512rcd13ifvqe3g","pricing_plan_id":"cebpf4jnsgd1na2vs0mg"},{"bike_id":"9608066a-cdb2-49b3-a28b-2cea2519cf49","system_id":"levelo_inurba_marseille","lat":43.30501,"lon":5.36556,"is_reserved":false,"is_disabled":false,"rental_uris":{"android":"levelo://app?vid=9608066a-cdb2-49b3-a28b-2cea2519cf49","ios":"levelo://app?vid=9608066a-cdb2-49b3-a28b-2cea2519cf49"},"vehicle_type_id":"4","last_reported":1770968504,"current_range_meters":38000,"station_id":"","pricing_plan_id":"cebpf4jnsgd1na2vs0mg"},{"bike_id":"7f1d354e-f7c6-4895-85ec-7d34724cca8a","system_id":"levelo_inurba_marseille","lat":43.240788,"lon":5.377503,"is_reserved":false,"is_disabled":false,"rental_uris":{"android":"levelo://app?vid=7f1d354e-f7c6-4895-85ec-7d34724cca8a","ios":"levelo://app?vid=7f1d354e-f7c6-4895-85ec-7d34724cca8a"},"vehicle_type_id":"4","last_reported":1770968504,"current_range_meters":31200,"station_id":"ce4bhnp2rcd13ifvqgvg","pricing_plan_id":"cebpf4jnsgd1na2vs0mg"},{"bike_id":"361472a9-140d-4e92-9e16-c96fbc664522","system_id":"levelo_inurba_marseille","lat":43.24169,"lon":5.36399,"is_reserved":false,"is_disabled":false,"rental_uris":{"android":"levelo://app?vid=361472a9-140d-4e92-9e16-c96fbc664522","ios":"levelo://app?vid=361472a9-140d-4e92-9e16-c96fbc664522"},"vehicle_type_id":"4","last_reported":1770968504,"current_range_meters":17200,"station_id":"cpo36qri1sfpv3e86is0","pricing_plan_id":"cebpf4jnsgd1na2vs0mg"},{"bike_id":"e870f1e3-78eb-4c5b-bb46-e5f07c3453b9","system_id":"levelo_inurba_marseille","lat":43.28275,"lon":5.3507,"is_reserved":false,"is_disabled":false,"rental_uris":{"android":"levelo://app?vid=e870f1e3-78eb-4c5b-bb46-e5f07c3453b9","ios":"levelo://app?vid=e870f1e3-78eb-4c5b-bb46-e5f07c3453b9"},"vehicle_type_id":"4","last_reported":1770968504,"current_range_meters":38400,"station_id":"ce4bhbp2rcd13ifvqerg","pricing_plan_id":"cebpf4jnsgd1na2vs0mg"},{"bike_id":"8dfc2d45-55f1-416a-8e14-c1c0dc3e9ff5","system_id":"levelo_inurba_marseille","lat":43.2835,"lon":5.38117,"is_reserved":false,"is_disabled":false,"rental_uris":{"android":"levelo://app?vid=8dfc2d45-55f1-416a-8e14-c1c0dc3e9ff5","ios":"levelo://app?vid=8dfc2d45-55f1-416a-8e14-c1c0dc3e9ff5"},"vehicle_type_id":"4","last_reported":1770968504,"current_range_meters":34000,"station_id":"ce4bh412rcd13ifvqdr0","pricing_plan_id":"cebpf4jnsgd1na2vs0mg"},{"bike_id":"a18aa286-269e-4963-b039-81f99ce774de","system_id":"levelo_inurba_marseille","lat":43.2885,"lon":5.35851,"is_reserved":false,"is_disabled":false,"rental_uris":{"android":"levelo://app?vid=a18aa286-269e-4963-b039-81f99ce774de","ios":"levelo://app?vid=a18aa286-269e-4963-b039-81f99ce774de"},"vehicle_type_id":"4","last_reported":1770968504,"current_range_meters":8800,"station_id":"ce4bhb12rcd13ifvqem0","pricing_plan_id":"cebpf4jnsgd1na2vs0mg"},{"bike_id":"2707734e-33a5-4bb7-9e75-871e3e06a9a7","system_id":"levelo_inurba_marseille","lat":43.2902,"lon":5.35603,"is_reserved":false,"is_disabled":false,"rental_uris":{"android":"levelo://app?vid=2707734e-33a5-4bb7-9e75-871e3e06a9a7","ios":"levelo://app?vid=2707734e-33a5-4bb7-9e75-871e3e06a9a7"},"vehicle_type_id":"4","last_reported":1770968504,"current_range_meters":11200,"station_id":"ce4bhb92rcd13ifvqen0","pricing_plan_id":"cebpf4jnsgd1na2vs0mg"},{"bike_id":"fcabaec3-1afd-4ea0-8ced-deb27afd642e","system_id":"levelo_inurba_marseille","lat":43.2794,"lon":5.41046,"is_reserved":false,"is_disabled":false,"rental_uris":{"android":"levelo://app?vid=fcabaec3-1afd-4ea0-8ced-deb27afd642e","ios":"levelo://app?vid=fcabaec3-1afd-4ea0-8ced-deb27afd642e"},"vehicle_type_id":"4","last_reported":1770968504,"current_range_meters":18000,"station_id":"ce4bhnp2rcd13ifvqh0g","pricing_plan_id":"cebpf4jnsgd1na2vs0mg"},{"bike_id":"033c27a9-59b7-4402-a02d-d82920f44ad9","system_id":"levelo_inurba_marseille","lat":43.24954,"lon":5.40487,"is_reserved":false,"is_disabled":false,"rental_uris":{"android":"levelo://app?vid=033c27a9-59b7-4402-a02d-d82920f44ad9","ios":"levelo://app?vid=033c27a9-59b7-4402-a02d-d82920f44ad9"},"vehicle_type_id":"4","last_reported":1770968504,"current_range_meters":19600,"station_id":"st_d2ngiaodas8pm72gd1h0","pricing_plan_id":"cebpf4jnsgd1na2vs0mg"},{"bike_id":"6a77d0ea-d435-4de7-9919-85676c5866e3","system_id":"levelo_inurba_marseille","lat":43.29989,"lon":5.37176,"is_reserved":false,"is_disabled":false,"rental_uris":{"android":"levelo://app?vid=6a77d0ea-d435-4de7-9919-85676c5866e3","ios":"levelo://app?vid=6a77d0ea-d435-4de7-9919-85676c5866e3"},"vehicle_type_id":"4","last_reported":1770968504,"current_range_meters":36800,"station_id":"ce4bgr92rcd13ifvqc7g","pricing_plan_id":"cebpf4jnsgd1na2vs0mg"},{"bike_id":"8e2a6bdd-3868-4795-80f0-6045872e16c6","system_id":"levelo_inurba_marseille","lat":43.24698,"lon":5.38117,"is_reserved":false,"is_disabled":false,"rental_uris":{"android":"levelo://app?vid=8e2a6bdd-3868-4795-80f0-6045872e16c6","ios":"levelo://app?vid=8e2a6bdd-3868-4795-80f0-6045872e16c6"},"vehicle_type_id":"4","last_reported":1770968504,"current_range_meters":28000,"station_id":"ce4bhih2rcd13ifvqfr0","pricing_plan_id":"cebpf4jnsgd1na2vs0mg"},{"bike_id":"cae3340b-dabf-42ee-b29f-fab64d3e6b2c","system_id":"levelo_inurba_marseille","lat":43.24088,"lon":5.3774,"is_reserved":false,"is_disabled":false,"rental_uris":{"android":"levelo://app?vid=cae3340b-dabf-42ee-b29f-fab64d3e6b2c","ios":"levelo://app?vid=cae3340b-dabf-42ee-b29f-fab64d3e6b2c"},"vehicle_type_id":"4","last_reported":1770968504,"current_range_meters":8000,"station_id":"ce4bhnp2rcd13ifvqgvg","pricing_plan_id":"cebpf4jnsgd1na2vs0mg"},{"bike_id":"c13ea91a-4139-435f-a449-b40dc6111bc5","system_id":"levelo_inurba_marseille","lat":43.281,"lon":5.37878,"is_reserved":false,"is_disabled":true,"rental_uris":{"android":"levelo://app?vid=c13ea91a-4139-435f-a449-b40dc6111bc5","ios":"levelo://app?vid=c13ea91a-4139-435f-a449-b40dc6111bc5"},"vehicle_type_id":"4","last_reported":1770968504,"current_range_meters":1600,"station_id":"ce4bha12rcd13ifvqee0","pricing_plan_id":"cebpf4jnsgd1na2vs0mg"},{"bike_id":"60391187-d8a7-4a2a-a568-717f3b61a4ab","system_id":"levelo_inurba_marseille","lat":43.30463,"lon":5.37901,"is_reserved":false,"is_disabled":false,"rental_uris":{"android":"levelo://app?vid=60391187-d8a7-4a2a-a568-717f3b61a4ab","ios":"levelo://app?vid=60391187-d8a7-4a2a-a568-717f3b61a4ab"},"vehicle_type_id":"4","last_reported":1770968504,"current_range_meters":32000,"station_id":"ce4bgup2rcd13ifvqcn0","pricing_plan_id":"cebpf4jnsgd1na2vs0mg"},{"bike_id":"01adf697-a0b1-4672-92f7-51b13b766b4e","system_id":"levelo_inurba_marseille","lat":43.27066,"lon":5.40281,"is_reserved":false,"is_disabled":true,"rental_uris":{"android":"levelo://app?vid=01adf697-a0b1-4672-92f7-51b13b766b4e","ios":"levelo://app?vid=01adf697-a0b1-4672-92f7-51b13b766b4e"},"vehicle_type_id":"4","last_reported":1770968504,"current_range_meters":30800,"station_id":"ce4bhk92rcd13ifvqgc0","pricing_plan_id":"cebpf4jnsgd1na2vs0mg"},{"bike_id":"fb3e8284-ff9f-4dd9-922c-9355570e0c87","system_id":"levelo_inurba_marseille","lat":43.28472,"lon":5.38426,"is_reserved":false,"is_disabled":false,"rental_uris":{"android":"levelo://app?vid=fb3e8284-ff9f-4dd9-922c-9355570e0c87","ios":"levelo://app?vid=fb3e8284-ff9f-4dd9-922c-9355570e0c87"},"vehicle_type_id":"4","last_reported":1770968504,"current_range_meters":31200,"station_id":"ce4bh512rcd13ifvqe3g","pricing_plan_id":"cebpf4jnsgd1na2vs0mg"},{"bike_id":"9ef4d826-807c-4541-8cf8-413ed0ea65b0","system_id":"levelo_inurba_marseille","lat":43.31497,"lon":5.37315,"is_reserved":false,"is_disabled":false,"rental_uris":{"android":"levelo://app?vid=9ef4d826-807c-4541-8cf8-413ed0ea65b0","ios":"levelo://app?vid=9ef4d826-807c-4541-8cf8-413ed0ea65b0"},"vehicle_type_id":"4","last_reported":1770968504,"current_range_meters":34000,"station_id":"ce4bgt12rcd13ifvqcd0","pricing_plan_id":"cebpf4jnsgd1na2vs0mg"},{"bike_id":"451234f1-1684-4d00-8320-1607318757d2","system_id":"levelo_inurba_marseille","lat":43.33157,"lon":5.37672,"is_reserved":false,"is_disabled":true,"rental_uris":{"android":"levelo://app?vid=451234f1-1684-4d00-8320-1607318757d2","ios":"levelo://app?vid=451234f1-1684-4d00-8320-1607318757d2"},"vehicle_type_id":"4","last_reported":1770968504,"current_range_meters":17600,"station_id":"st_d46cu089ee8s73dldbu0","pricing_plan_id":"cebpf4jnsgd1na2vs0mg"},{"bike_id":"f4388598-0fe9-4895-90f2-b32d9b275360","system_id":"levelo_inurba_marseille","lat":43.30103,"lon":5.390838,"is_reserved":false,"is_disabled":false,"rental_uris":{"android":"levelo://app?vid=f4388598-0fe9-4895-90f2-b32d9b275360","ios":"levelo://app?vid=f4388598-0fe9-4895-90f2-b32d9b275360"},"vehicle_type_id":"4","last_reported":1770968504,"current_range_meters":8400,"station_id":"ce4bh192rcd13ifvqdb0","pricing_plan_id":"cebpf4jnsgd1na2vs0mg"},{"bike_id":"917d9683-a902-48d9-9f0b-4231358e812e","system_id":"levelo_inurba_marseille","lat":43.33529,"lon":5.37482,"is_reserved":false,"is_disabled":false,"rental_uris":{"android":"levelo://app?vid=917d9683-a902-48d9-9f0b-4231358e812e","ios":"levelo://app?vid=917d9683-a902-48d9-9f0b-4231358e812e"},"vehicle_type_id":"4","last_reported":1770968504,"current_range_meters":20400,"station_id":"st_d46tts09ee8s73dlu43g","pricing_plan_id":"cebpf4jnsgd1na2vs0mg"},{"bike_id":"35acab90-84ba-4560-801f-445890a09ed0","system_id":"levelo_inurba_marseille","lat":43.24981,"lon":5.38943,"is_reserved":false,"is_disabled":false,"rental_uris":{"android":"levelo://app?vid=35acab90-84ba-4560-801f-445890a09ed0","ios":"levelo://app?vid=35acab90-84ba-4560-801f-445890a09ed0"},"vehicle_type_id":"4","last_reported":1770968504,"current_range_meters":39200,"station_id":"ce4bhgp2rcd13ifvqfd0","pricing_plan_id":"cebpf4jnsgd1na2vs0mg"},{"bike_id":"77d97ba8-97db-4bc9-8294-a1d06adce358","system_id":"levelo_inurba_marseille","lat":43.2749,"lon":5.42464,"is_reserved":false,"is_disabled":true,"rental_uris":{"android":"levelo://app?vid=77d97ba8-97db-4bc9-8294-a1d06adce358","ios":"levelo://app?vid=77d97ba8-97db-4bc9-8294-a1d06adce358"},"vehicle_type_id":"4","last_reported":1770968504,"current_range_meters":12800,"station_id":"ce4bhn92rcd13ifvqgrg","pricing_plan_id":"cebpf4jnsgd1na2vs0mg"},{"bike_id":"03aa505e-9e71-4de8-837d-40f9e3334240","system_id":"levelo_inurba_marseille","lat":43.30142,"lon":5.37429,"is_reserved":false,"is_disabled":false,"rental_uris":{"android":"levelo://app?vid=03aa505e-9e71-4de8-837d-40f9e3334240","ios":"levelo://app?vid=03aa505e-9e71-4de8-837d-40f9e3334240"},"vehicle_type_id":"4","last_reported":1770968504,"current_range_meters":39200,"station_id":"ce4bgs92rcd13ifvqcc0","pricing_plan_id":"cebpf4jnsgd1na2vs0mg"},{"bike_id":"fad4d1f7-83ba-4bdb-8065-06476e250127","system_id":"levelo_inurba_marseille","lat":43.28928,"lon":5.36378,"is_reserved":false,"is_disabled":false,"rental_uris":{"android":"levelo://app?vid=fad4d1f7-83ba-4bdb-8065-06476e250127","ios":"levelo://app?vid=fad4d1f7-83ba-4bdb-8065-06476e250127"},"vehicle_type_id":"4","last_reported":1770968504,"current_range_meters":38400,"station_id":"ce4bhc92rcd13ifvqetg","pricing_plan_id":"cebpf4jnsgd1na2vs0mg"},{"bike_id":"1c239cb1-79ff-4f85-b231-d26d5efcc943","system_id":"levelo_inurba_marseille","lat":43.30554,"lon":5.36558,"is_reserved":false,"is_disabled":false,"rental_uris":{"android":"levelo://app?vid=1c239cb1-79ff-4f85-b231-d26d5efcc943","ios":"levelo://app?vid=1c239cb1-79ff-4f85-b231-d26d5efcc943"},"vehicle_type_id":"4","last_reported":1770968504,"current_range_meters":25600,"station_id":"ce4bgs12rcd13ifvqcag","pricing_plan_id":"cebpf4jnsgd1na2vs0mg"},{"bike_id":"b32b0732-e4d0-4f51-ba0c-c2f5e5ffe7be","system_id":"levelo_inurba_marseille","lat":43.28301,"lon":5.38891,"is_reserved":false,"is_disabled":true,"rental_uris":{"android":"levelo://app?vid=b32b0732-e4d0-4f51-ba0c-c2f5e5ffe7be","ios":"levelo://app?vid=b32b0732-e4d0-4f51-ba0c-c2f5e5ffe7be"},"vehicle_type_id":"4","last_reported":1770968504,"current_range_meters":0,"station_id":"","pricing_plan_id":"cebpf4jnsgd1na2vs0mg"},{"bike_id":"d70814e4-d968-4b8e-817b-88544a1bc9d1","system_id":"levelo_inurba_marseille","lat":43.25061,"lon":5.38908,"is_reserved":false,"is_disabled":false,"rental_uris":{"android":"levelo://app?vid=d70814e4-d968-4b8e-817b-88544a1bc9d1","ios":"levelo://app?vid=d70814e4-d968-4b8e-817b-88544a1bc9d1"},"vehicle_type_id":"4","last_reported":1770968504,"current_range_meters":39200,"station_id":"","pricing_plan_id":"cebpf4jnsgd1na2vs0mg"},{"bike_id":"5376aef3-cba8-4b13-bdd4-51339f0feb25","system_id":"levelo_inurba_marseille","lat":43.24068,"lon":5.3778,"is_reserved":false,"is_disabled":false,"rental_uris":{"android":"levelo://app?vid=5376aef3-cba8-4b13-bdd4-51339f0feb25","ios":"levelo://app?vid=5376aef3-cba8-4b13-bdd4-51339f0feb25"},"vehicle_type_id":"4","last_reported":1770968504,"current_range_meters":38800,"station_id":"ce4bhnp2rcd13ifvqgvg","pricing_plan_id":"cebpf4jnsgd1na2vs0mg"},{"bike_id":"ae5b5494-76f1-4d54-9e14-d5637e617585","system_id":"levelo_inurba_marseille","lat":43.28333,"lon":5.38114,"is_reserved":false,"is_disabled":false,"rental_uris":{"android":"levelo://app?vid=ae5b5494-76f1-4d54-9e14-d5637e617585","ios":"levelo://app?vid=ae5b5494-76f1-4d54-9e14-d5637e617585"},"vehicle_type_id":"4","last_reported":1770968504,"current_range_meters":36800,"station_id":"ce4bh412rcd13ifvqdr0","pricing_plan_id":"cebpf4jnsgd1na2vs0mg"},{"bike_id":"45ef4cb1-1a7b-4aba-b84c-4d3de631715f","system_id":"levelo_inurba_marseille","lat":43.30137,"lon":5.38561,"is_reserved":false,"is_disabled":false,"rental_uris":{"android":"levelo://app?vid=45ef4cb1-1a7b-4aba-b84c-4d3de631715f","ios":"levelo://app?vid=45ef4cb1-1a7b-4aba-b84c-4d3de631715f"},"vehicle_type_id":"4","last_reported":1770968504,"current_range_meters":28800,"station_id":"","pricing_plan_id":"cebpf4jnsgd1na2vs0mg"},{"bike_id":"035d88b4-cf41-4da0-98da-89cca1e2ab74","system_id":"levelo_inurba_marseille","lat":43.29781,"lon":5.38114,"is_reserved":false,"is_disabled":false,"rental_uris":{"android":"levelo://app?vid=035d88b4-cf41-4da0-98da-89cca1e2ab74","ios":"levelo://app?vid=035d88b4-cf41-4da0-98da-89cca1e2ab74"},"vehicle_type_id":"4","last_reported":1770968504,"current_range_meters":36800,"station_id":"ce4bgip2rcd13ifvqbb0","pricing_plan_id":"cebpf4jnsgd1na2vs0mg"},{"bike_id":"e85900b6-be3c-455e-bed5-93376dfddf1a","system_id":"levelo_inurba_marseille","lat":43.29697,"lon":5.3658,"is_reserved":false,"is_disabled":false,"rental_uris":{"android":"levelo://app?vid=e85900b6-be3c-455e-bed5-93376dfddf1a","ios":"levelo://app?vid=e85900b6-be3c-455e-bed5-93376dfddf1a"},"vehicle_type_id":"4","last_reported":1770968504,"current_range_meters":37600,"station_id":"ce4bgn12rcd13ifvqbt0","pricing_plan_id":"cebpf4jnsgd1na2vs0mg"},{"bike_id":"da0e2d24-584f-41fd-a38b-655c395c13a2","system_id":"levelo_inurba_marseille","lat":43.30244,"lon":5.40051,"is_reserved":false,"is_disabled":false,"rental_uris":{"android":"levelo://app?vid=da0e2d24-584f-41fd-a38b-655c395c13a2","ios":"levelo://app?vid=da0e2d24-584f-41fd-a38b-655c395c13a2"},"vehicle_type_id":"4","last_reported":1770968504,"current_range_meters":12800,"station_id":"ce4bgvh2rcd13ifvqcs0","pricing_plan_id":"cebpf4jnsgd1na2vs0mg"},{"bike_id":"2646436a-3916-4749-b0c4-4e2a11063978","system_id":"levelo_inurba_marseille","lat":43.29751,"lon":5.37674,"is_reserved":false,"is_disabled":true,"rental_uris":{"android":"levelo://app?vid=2646436a-3916-4749-b0c4-4e2a11063978","ios":"levelo://app?vid=2646436a-3916-4749-b0c4-4e2a11063978"},"vehicle_type_id":"4","last_reported":1770968504,"current_range_meters":39200,"station_id":"ce4bgkh2rcd13ifvqbl0","pricing_plan_id":"cebpf4jnsgd1na2vs0mg"},{"bike_id":"d6513438-5bdb-499c-85d0-a58f2a8cda31","system_id":"levelo_inurba_marseille","lat":43.24948,"lon":5.40489,"is_reserved":false,"is_disabled":false,"rental_uris":{"android":"levelo://app?vid=d6513438-5bdb-499c-85d0-a58f2a8cda31","ios":"levelo://app?vid=d6513438-5bdb-499c-85d0-a58f2a8cda31"},"vehicle_type_id":"4","last_reported":1770968504,"current_range_meters":23200,"station_id":"st_d2ngiaodas8pm72gd1h0","pricing_plan_id":"cebpf4jnsgd1na2vs0mg"},{"bike_id":"ff892a04-ae98-4fdf-81ac-3050c7d2c38a","system_id":"levelo_inurba_marseille","lat":43.26549,"lon":5.39014,"is_reserved":false,"is_disabled":false,"rental_uris":{"android":"levelo://app?vid=ff892a04-ae98-4fdf-81ac-3050c7d2c38a","ios":"levelo://app?vid=ff892a04-ae98-4fdf-81ac-3050c7d2c38a"},"vehicle_type_id":"4","last_reported":1770968504,"current_range_meters":4000,"station_id":"ce4bhe12rcd13ifvqf30","pricing_plan_id":"cebpf4jnsgd1na2vs0mg"},{"bike_id":"8d6a5e90-b09f-4cf7-a432-f2daefeda48b","system_id":"levelo_inurba_marseille","lat":43.29704,"lon":5.37256,"is_reserved":false,"is_disabled":false,"rental_uris":{"android":"levelo://app?vid=8d6a5e90-b09f-4cf7-a432-f2daefeda48b","ios":"levelo://app?vid=8d6a5e90-b09f-4cf7-a432-f2daefeda48b"},"vehicle_type_id":"4","last_reported":1770968504,"current_range_meters":38000,"station_id":"ce4bgk12rcd13ifvqbj0","pricing_plan_id":"cebpf4jnsgd1na2vs0mg"},{"bike_id":"3952ba36-15fe-4b7d-adae-45bc351b598d","system_id":"levelo_inurba_marseille","lat":43.26788,"lon":5.39412,"is_reserved":false,"is_disabled":false,"rental_uris":{"android":"levelo://app?vid=3952ba36-15fe-4b7d-adae-45bc351b598d","ios":"levelo://app?vid=3952ba36-15fe-4b7d-adae-45bc351b598d"},"vehicle_type_id":"4","last_reported":1770968504,"current_range_meters":40000,"station_id":"ce4bhh12rcd13ifvqfg0","pricing_plan_id":"cebpf4jnsgd1na2vs0mg"},{"bike_id":"4e8e0241-acb1-4e10-a2b7-feb0952472c9","system_id":"levelo_inurba_marseille","lat":43.31713,"lon":5.40485,"is_reserved":false,"is_disabled":false,"rental_uris":{"android":"levelo://app?vid=4e8e0241-acb1-4e10-a2b7-feb0952472c9","ios":"levelo://app?vid=4e8e0241-acb1-4e10-a2b7-feb0952472c9"},"vehicle_type_id":"4","last_reported":1770968504,"current_range_meters":34800,"station_id":"ce4bh012rcd13ifvqd00","pricing_plan_id":"cebpf4jnsgd1na2vs0mg"},{"bike_id":"2aa74964-2775-4eec-a0b9-442c67f2c765","system_id":"levelo_inurba_marseille","lat":43.31899,"lon":5.40721,"is_reserved":false,"is_disabled":false,"rental_uris":{"android":"levelo://app?vid=2aa74964-2775-4eec-a0b9-442c67f2c765","ios":"levelo://app?vid=2aa74964-2775-4eec-a0b9-442c67f2c765"},"vehicle_type_id":"4","last_reported":1770968504,"current_range_meters":25600,"station_id":"ce4bhq12rcd13ifvqhig","pricing_plan_id":"cebpf4jnsgd1na2vs0mg"},{"bike_id":"eb388afa-8bfe-4f27-a141-014bfd32709f","system_id":"levelo_inurba_marseille","lat":43.31162,"lon":5.38727,"is_reserved":false,"is_disabled":false,"rental_uris":{"android":"levelo://app?vid=eb388afa-8bfe-4f27-a141-014bfd32709f","ios":"levelo://app?vid=eb388afa-8bfe-4f27-a141-014bfd32709f"},"vehicle_type_id":"4","last_reported":1770968504,"current_range_meters":32800,"station_id":"ce4bgv12rcd13ifvqcp0","pricing_plan_id":"cebpf4jnsgd1na2vs0mg"},{"bike_id":"28aca305-7f7d-4b12-a0ae-cfabbf96c8f2","system_id":"levelo_inurba_marseille","lat":43.24689,"lon":5.38142,"is_reserved":false,"is_disabled":false,"rental_uris":{"android":"levelo://app?vid=28aca305-7f7d-4b12-a0ae-cfabbf96c8f2","ios":"levelo://app?vid=28aca305-7f7d-4b12-a0ae-cfabbf96c8f2"},"vehicle_type_id":"4","last_reported":1770968504,"current_range_meters":7200,"station_id":"ce4bhih2rcd13ifvqfr0","pricing_plan_id":"cebpf4jnsgd1na2vs0mg"},{"bike_id":"014613de-69aa-4aca-9291-67750cce2e69","system_id":"levelo_inurba_marseille","lat":43.284752,"lon":5.484009,"is_reserved":false,"is_disabled":false,"rental_uris":{"android":"levelo://app?vid=014613de-69aa-4aca-9291-67750cce2e69","ios":"levelo://app?vid=014613de-69aa-4aca-9291-67750cce2e69"},"vehicle_type_id":"4","last_reported":1770968504,"current_range_meters":8400,"station_id":"","pricing_plan_id":"cebpf4jnsgd1na2vs0mg"},{"bike_id":"ceafdd97-9709-4666-acdc-c6b8a34aace5","system_id":"levelo_inurba_marseille","lat":43.27212,"lon":5.40972,"is_reserved":false,"is_disabled":true,"rental_uris":{"android":"levelo://app?vid=ceafdd97-9709-4666-acdc-c6b8a34aace5","ios":"levelo://app?vid=ceafdd97-9709-4666-acdc-c6b8a34aace5"},"vehicle_type_id":"4","last_reported":1770968504,"current_range_meters":8800,"station_id":"ce4bhl12rcd13ifvqgf0","pricing_plan_id":"cebpf4jnsgd1na2vs0mg"},{"bike_id":"d900b3eb-7e23-45e2-977d-444718186e88","system_id":"levelo_inurba_marseille","lat":43.29225,"lon":5.36054,"is_reserved":false,"is_disabled":false,"rental_uris":{"android":"levelo://app?vid=d900b3eb-7e23-45e2-977d-444718186e88","ios":"levelo://app?vid=d900b3eb-7e23-45e2-977d-444718186e88"},"vehicle_type_id":"4","last_reported":1770968504,"current_range_meters":25600,"station_id":"ce4bhbh2rcd13ifvqeqg","pricing_plan_id":"cebpf4jnsgd1na2vs0mg"},{"bike_id":"9ed7300e-a4d4-493c-95a2-a0b857cf6348","system_id":"levelo_inurba_marseille","lat":43.22557,"lon":5.41645,"is_reserved":false,"is_disabled":false,"rental_uris":{"android":"levelo://app?vid=9ed7300e-a4d4-493c-95a2-a0b857cf6348","ios":"levelo://app?vid=9ed7300e-a4d4-493c-95a2-a0b857cf6348"},"vehicle_type_id":"4","last_reported":1770968504,"current_range_meters":24800,"station_id":"st_d2o4gvlbi1j2169b742g","pricing_plan_id":"cebpf4jnsgd1na2vs0mg"},{"bike_id":"fb319c71-5754-41a3-8574-6ea5c37c4f04","system_id":"levelo_inurba_marseille","lat":43.29804,"lon":5.38106,"is_reserved":false,"is_disabled":false,"rental_uris":{"android":"levelo://app?vid=fb319c71-5754-41a3-8574-6ea5c37c4f04","ios":"levelo://app?vid=fb319c71-5754-41a3-8574-6ea5c37c4f04"},"vehicle_type_id":"4","last_reported":1770968504,"current_range_meters":36400,"station_id":"ce4bgip2rcd13ifvqbb0","pricing_plan_id":"cebpf4jnsgd1na2vs0mg"},{"bike_id":"603ec718-9201-43e0-8396-ece58cf1c462","system_id":"levelo_inurba_marseille","lat":43.29766,"lon":5.42783,"is_reserved":false,"is_disabled":false,"rental_uris":{"android":"levelo://app?vid=603ec718-9201-43e0-8396-ece58cf1c462","ios":"levelo://app?vid=603ec718-9201-43e0-8396-ece58cf1c462"},"vehicle_type_id":"4","last_reported":1770968504,"current_range_meters":19600,"station_id":"st_d3md5207bmas73dh9klg","pricing_plan_id":"cebpf4jnsgd1na2vs0mg"},{"bike_id":"d2ae2440-e92a-40be-b95d-c1574a1fed11","system_id":"levelo_inurba_marseille","lat":43.3316,"lon":5.37697,"is_reserved":false,"is_disabled":false,"rental_uris":{"android":"levelo://app?vid=d2ae2440-e92a-40be-b95d-c1574a1fed11","ios":"levelo://app?vid=d2ae2440-e92a-40be-b95d-c1574a1fed11"},"vehicle_type_id":"4","last_reported":1770968504,"current_range_meters":20800,"station_id":"st_d46cu089ee8s73dldbu0","pricing_plan_id":"cebpf4jnsgd1na2vs0mg"},{"bike_id":"bd9b5e04-3abe-4098-a415-308df53cc83b","system_id":"levelo_inurba_marseille","lat":43.303,"lon":5.39206,"is_reserved":false,"is_disabled":true,"rental_uris":{"android":"levelo://app?vid=bd9b5e04-3abe-4098-a415-308df53cc83b","ios":"levelo://app?vid=bd9b5e04-3abe-4098-a415-308df53cc83b"},"vehicle_type_id":"4","last_reported":1770968504,"current_range_meters":34800,"station_id":"ce4bgkh2rcd13ifvqbk0","pricing_plan_id":"cebpf4jnsgd1na2vs0mg"},{"bike_id":"c9509313-6232-40d4-9c17-6bed5ef38be1","system_id":"levelo_inurba_marseille","lat":43.30302,"lon":5.36916,"is_reserved":false,"is_disabled":false,"rental_uris":{"android":"levelo://app?vid=c9509313-6232-40d4-9c17-6bed5ef38be1","ios":"levelo://app?vid=c9509313-6232-40d4-9c17-6bed5ef38be1"},"vehicle_type_id":"4","last_reported":1770968504,"current_range_meters":2800,"station_id":"ce4bgqh2rcd13ifvqc5g","pricing_plan_id":"cebpf4jnsgd1na2vs0mg"},{"bike_id":"7c3214e4-011e-406b-980a-35e392dbba5a","system_id":"levelo_inurba_marseille","lat":43.31301,"lon":5.39723,"is_reserved":false,"is_disabled":false,"rental_uris":{"android":"levelo://app?vid=7c3214e4-011e-406b-980a-35e392dbba5a","ios":"levelo://app?vid=7c3214e4-011e-406b-980a-35e392dbba5a"},"vehicle_type_id":"4","last_reported":1770968504,"current_range_meters":20400,"station_id":"ce4bgvp2rcd13ifvqcu0","pricing_plan_id":"cebpf4jnsgd1na2vs0mg"},{"bike_id":"6c397119-553f-4bc8-a79a-210747f0549b","system_id":"levelo_inurba_marseille","lat":43.28147,"lon":5.42651,"is_reserved":false,"is_disabled":false,"rental_uris":{"android":"levelo://app?vid=6c397119-553f-4bc8-a79a-210747f0549b","ios":"levelo://app?vid=6c397119-553f-4bc8-a79a-210747f0549b"},"vehicle_type_id":"4","last_reported":1770968504,"current_range_meters":36400,"station_id":"ce4bhnh2rcd13ifvqgug","pricing_plan_id":"cebpf4jnsgd1na2vs0mg"},{"bike_id":"2918605a-55aa-4912-9807-7fd7063d5a71","system_id":"levelo_inurba_marseille","lat":43.3377,"lon":5.37505,"is_reserved":false,"is_disabled":true,"rental_uris":{"android":"levelo://app?vid=2918605a-55aa-4912-9807-7fd7063d5a71","ios":"levelo://app?vid=2918605a-55aa-4912-9807-7fd7063d5a71"},"vehicle_type_id":"4","last_reported":1770968504,"current_range_meters":0,"station_id":"","pricing_plan_id":"cebpf4jnsgd1na2vs0mg"},{"bike_id":"034224b6-2279-4cbc-9caa-f9a79eebd08e","system_id":"levelo_inurba_marseille","lat":43.31234,"lon":5.36853,"is_reserved":false,"is_disabled":false,"rental_uris":{"android":"levelo://app?vid=034224b6-2279-4cbc-9caa-f9a79eebd08e","ios":"levelo://app?vid=034224b6-2279-4cbc-9caa-f9a79eebd08e"},"vehicle_type_id":"4","last_reported":1770968504,"current_range_meters":38400,"station_id":"ce4bgl92rcd13ifvqbq0","pricing_plan_id":"cebpf4jnsgd1na2vs0mg"},{"bike_id":"a0eb6535-5bb7-408d-a410-ee8c9ba277a9","system_id":"levelo_inurba_marseille","lat":43.29947,"lon":5.37463,"is_reserved":false,"is_disabled":false,"rental_uris":{"android":"levelo://app?vid=a0eb6535-5bb7-408d-a410-ee8c9ba277a9","ios":"levelo://app?vid=a0eb6535-5bb7-408d-a410-ee8c9ba277a9"},"vehicle_type_id":"4","last_reported":1770968504,"current_range_meters":36000,"station_id":"ce4bgjh2rcd13ifvqbg0","pricing_plan_id":"cebpf4jnsgd1na2vs0mg"},{"bike_id":"86588477-0a25-473f-aac9-6d153040856f","system_id":"levelo_inurba_marseille","lat":43.30303,"lon":5.36901,"is_reserved":false,"is_disabled":false,"rental_uris":{"android":"levelo://app?vid=86588477-0a25-473f-aac9-6d153040856f","ios":"levelo://app?vid=86588477-0a25-473f-aac9-6d153040856f"},"vehicle_type_id":"4","last_reported":1770968504,"current_range_meters":33600,"station_id":"ce4bgqh2rcd13ifvqc5g","pricing_plan_id":"cebpf4jnsgd1na2vs0mg"},{"bike_id":"0bbbceab-c063-4ee2-8b10-aedb34f5a4ba","system_id":"levelo_inurba_marseille","lat":43.298553,"lon":5.397387,"is_reserved":false,"is_disabled":false,"rental_uris":{"android":"levelo://app?vid=0bbbceab-c063-4ee2-8b10-aedb34f5a4ba","ios":"levelo://app?vid=0bbbceab-c063-4ee2-8b10-aedb34f5a4ba"},"vehicle_type_id":"4","last_reported":1770968504,"current_range_meters":23200,"station_id":"ce4bh0h2rcd13ifvqd50","pricing_plan_id":"cebpf4jnsgd1na2vs0mg"},{"bike_id":"ffe3fbd4-6746-48bb-b0b5-fa7f3d6ff56c","system_id":"levelo_inurba_marseille","lat":43.310599,"lon":5.371711,"is_reserved":false,"is_disabled":false,"rental_uris":{"android":"levelo://app?vid=ffe3fbd4-6746-48bb-b0b5-fa7f3d6ff56c","ios":"levelo://app?vid=ffe3fbd4-6746-48bb-b0b5-fa7f3d6ff56c"},"vehicle_type_id":"4","last_reported":1770968504,"current_range_meters":20400,"station_id":"st_d4kl2rp97mjs73e7tdfg","pricing_plan_id":"cebpf4jnsgd1na2vs0mg"},{"bike_id":"04b44c6f-a2f0-4a77-ab83-fdd9c917e3eb","system_id":"levelo_inurba_marseille","lat":43.32541,"lon":5.41451,"is_reserved":false,"is_disabled":false,"rental_uris":{"android":"levelo://app?vid=04b44c6f-a2f0-4a77-ab83-fdd9c917e3eb","ios":"levelo://app?vid=04b44c6f-a2f0-4a77-ab83-fdd9c917e3eb"},"vehicle_type_id":"4","last_reported":1770968504,"current_range_meters":27200,"station_id":"ce4bhq12rcd13ifvqhhg","pricing_plan_id":"cebpf4jnsgd1na2vs0mg"},{"bike_id":"51ad0198-092e-4860-b994-3420575955f1","system_id":"levelo_inurba_marseille","lat":43.22527,"lon":5.34833,"is_reserved":false,"is_disabled":false,"rental_uris":{"android":"levelo://app?vid=51ad0198-092e-4860-b994-3420575955f1","ios":"levelo://app?vid=51ad0198-092e-4860-b994-3420575955f1"},"vehicle_type_id":"4","last_reported":1770968504,"current_range_meters":6000,"station_id":"st_cvj5dfep6f1abm77gieg","pricing_plan_id":"cebpf4jnsgd1na2vs0mg"},{"bike_id":"f2e56a8b-3722-4102-942d-5fb70430cf86","system_id":"levelo_inurba_marseille","lat":43.29622,"lon":5.40624,"is_reserved":false,"is_disabled":false,"rental_uris":{"android":"levelo://app?vid=f2e56a8b-3722-4102-942d-5fb70430cf86","ios":"levelo://app?vid=f2e56a8b-3722-4102-942d-5fb70430cf86"},"vehicle_type_id":"4","last_reported":1770968504,"current_range_meters":38400,"station_id":"ce4bh0h2rcd13ifvqd60","pricing_plan_id":"cebpf4jnsgd1na2vs0mg"},{"bike_id":"362bf92e-b2dc-420e-aae8-2c8ad88723f1","system_id":"levelo_inurba_marseille","lat":43.30915,"lon":5.36847,"is_reserved":false,"is_disabled":false,"rental_uris":{"android":"levelo://app?vid=362bf92e-b2dc-420e-aae8-2c8ad88723f1","ios":"levelo://app?vid=362bf92e-b2dc-420e-aae8-2c8ad88723f1"},"vehicle_type_id":"4","last_reported":1770968504,"current_range_meters":36400,"station_id":"ce4bgn92rcd13ifvqbvg","pricing_plan_id":"cebpf4jnsgd1na2vs0mg"},{"bike_id":"2aa05e06-5366-4cfd-80c1-a6e66487250b","system_id":"levelo_inurba_marseille","lat":43.28464,"lon":5.48432,"is_reserved":false,"is_disabled":false,"rental_uris":{"android":"levelo://app?vid=2aa05e06-5366-4cfd-80c1-a6e66487250b","ios":"levelo://app?vid=2aa05e06-5366-4cfd-80c1-a6e66487250b"},"vehicle_type_id":"4","last_reported":1770968504,"current_range_meters":30800,"station_id":"st_d3svhcjqgbts73a3dn0g","pricing_plan_id":"cebpf4jnsgd1na2vs0mg"},{"bike_id":"cc41e0a1-d158-400e-9907-ae5cf6141b96","system_id":"levelo_inurba_marseille","lat":43.30447,"lon":5.37911,"is_reserved":false,"is_disabled":false,"rental_uris":{"android":"levelo://app?vid=cc41e0a1-d158-400e-9907-ae5cf6141b96","ios":"levelo://app?vid=cc41e0a1-d158-400e-9907-ae5cf6141b96"},"vehicle_type_id":"4","last_reported":1770968504,"current_range_meters":34000,"station_id":"ce4bgup2rcd13ifvqcn0","pricing_plan_id":"cebpf4jnsgd1na2vs0mg"},{"bike_id":"cd031762-6a24-4c3f-a733-1edc9d2c32f6","system_id":"levelo_inurba_marseille","lat":43.27425,"lon":5.39419,"is_reserved":false,"is_disabled":false,"rental_uris":{"android":"levelo://app?vid=cd031762-6a24-4c3f-a733-1edc9d2c32f6","ios":"levelo://app?vid=cd031762-6a24-4c3f-a733-1edc9d2c32f6"},"vehicle_type_id":"4","last_reported":1770968504,"current_range_meters":32800,"station_id":"ce4bhdp2rcd13ifvqf20","pricing_plan_id":"cebpf4jnsgd1na2vs0mg"},{"bike_id":"7fc412ea-a9a9-42a4-965a-2578db4e4ec3","system_id":"levelo_inurba_marseille","lat":43.33608,"lon":5.41021,"is_reserved":false,"is_disabled":false,"rental_uris":{"android":"levelo://app?vid=7fc412ea-a9a9-42a4-965a-2578db4e4ec3","ios":"levelo://app?vid=7fc412ea-a9a9-42a4-965a-2578db4e4ec3"},"vehicle_type_id":"4","last_reported":1770968504,"current_range_meters":16400,"station_id":"ce4bhqh2rcd13ifvqhmg","pricing_plan_id":"cebpf4jnsgd1na2vs0mg"},{"bike_id":"eee3b56e-14ba-425a-9dc1-5dcaeeae6056","system_id":"levelo_inurba_marseille","lat":43.24949,"lon":5.40494,"is_reserved":false,"is_disabled":false,"rental_uris":{"android":"levelo://app?vid=eee3b56e-14ba-425a-9dc1-5dcaeeae6056","ios":"levelo://app?vid=eee3b56e-14ba-425a-9dc1-5dcaeeae6056"},"vehicle_type_id":"4","last_reported":1770968504,"current_range_meters":6800,"station_id":"st_d2ngiaodas8pm72gd1h0","pricing_plan_id":"cebpf4jnsgd1na2vs0mg"},{"bike_id":"6fb6e675-460f-4429-987e-5c8d5ca05444","system_id":"levelo_inurba_marseille","lat":43.32372,"lon":5.36738,"is_reserved":false,"is_disabled":false,"rental_uris":{"android":"levelo://app?vid=6fb6e675-460f-4429-987e-5c8d5ca05444","ios":"levelo://app?vid=6fb6e675-460f-4429-987e-5c8d5ca05444"},"vehicle_type_id":"4","last_reported":1770968504,"current_range_meters":19200,"station_id":"ce4bhsh2rcd13ifvqi2g","pricing_plan_id":"cebpf4jnsgd1na2vs0mg"},{"bike_id":"13d75d5f-6e2b-42dc-978e-af2177641671","system_id":"levelo_inurba_marseille","lat":43.30309,"lon":5.36897,"is_reserved":false,"is_disabled":false,"rental_uris":{"android":"levelo://app?vid=13d75d5f-6e2b-42dc-978e-af2177641671","ios":"levelo://app?vid=13d75d5f-6e2b-42dc-978e-af2177641671"},"vehicle_type_id":"4","last_reported":1770968504,"current_range_meters":36400,"station_id":"ce4bgqh2rcd13ifvqc5g","pricing_plan_id":"cebpf4jnsgd1na2vs0mg"},{"bike_id":"8864f6b7-1b6c-416e-9bf7-d904161c6757","system_id":"levelo_inurba_marseille","lat":43.25813,"lon":5.39431,"is_reserved":false,"is_disabled":false,"rental_uris":{"android":"levelo://app?vid=8864f6b7-1b6c-416e-9bf7-d904161c6757","ios":"levelo://app?vid=8864f6b7-1b6c-416e-9bf7-d904161c6757"},"vehicle_type_id":"4","last_reported":1770968504,"current_range_meters":17200,"station_id":"ce4bhip2rcd13ifvqft0","pricing_plan_id":"cebpf4jnsgd1na2vs0mg"},{"bike_id":"7ff8f1b8-aa67-4d09-9b1e-6734c846f83c","system_id":"levelo_inurba_marseille","lat":43.265541,"lon":5.390352,"is_reserved":false,"is_disabled":true,"rental_uris":{"android":"levelo://app?vid=7ff8f1b8-aa67-4d09-9b1e-6734c846f83c","ios":"levelo://app?vid=7ff8f1b8-aa67-4d09-9b1e-6734c846f83c"},"vehicle_type_id":"4","last_reported":1770968504,"current_range_meters":12400,"station_id":"ce4bhe12rcd13ifvqf30","pricing_plan_id":"cebpf4jnsgd1na2vs0mg"},{"bike_id":"769eca19-a5af-4e81-b779-cf1526e624c7","system_id":"levelo_inurba_marseille","lat":43.2606,"lon":5.39398,"is_reserved":false,"is_disabled":false,"rental_uris":{"android":"levelo://app?vid=769eca19-a5af-4e81-b779-cf1526e624c7","ios":"levelo://app?vid=769eca19-a5af-4e81-b779-cf1526e624c7"},"vehicle_type_id":"4","last_reported":1770968504,"current_range_meters":10800,"station_id":"ce4bhh92rcd13ifvqfj0","pricing_plan_id":"cebpf4jnsgd1na2vs0mg"},{"bike_id":"c9d3ad45-6569-42b0-af42-b0de838f29a6","system_id":"levelo_inurba_marseille","lat":43.30147,"lon":5.37414,"is_reserved":false,"is_disabled":false,"rental_uris":{"android":"levelo://app?vid=c9d3ad45-6569-42b0-af42-b0de838f29a6","ios":"levelo://app?vid=c9d3ad45-6569-42b0-af42-b0de838f29a6"},"vehicle_type_id":"4","last_reported":1770968504,"current_range_meters":36000,"station_id":"ce4bgs92rcd13ifvqcc0","pricing_plan_id":"cebpf4jnsgd1na2vs0mg"},{"bike_id":"535bae1f-e7fb-4d0a-b5cd-f291e3113098","system_id":"levelo_inurba_marseille","lat":43.274907,"lon":5.42454,"is_reserved":false,"is_disabled":false,"rental_uris":{"android":"levelo://app?vid=535bae1f-e7fb-4d0a-b5cd-f291e3113098","ios":"levelo://app?vid=535bae1f-e7fb-4d0a-b5cd-f291e3113098"},"vehicle_type_id":"4","last_reported":1770968504,"current_range_meters":17600,"station_id":"ce4bhn92rcd13ifvqgrg","pricing_plan_id":"cebpf4jnsgd1na2vs0mg"},{"bike_id":"0b4aaea2-35f7-42c2-b087-ed81f1658c46","system_id":"levelo_inurba_marseille","lat":43.29581,"lon":5.36748,"is_reserved":false,"is_disabled":false,"rental_uris":{"android":"levelo://app?vid=0b4aaea2-35f7-42c2-b087-ed81f1658c46","ios":"levelo://app?vid=0b4aaea2-35f7-42c2-b087-ed81f1658c46"},"vehicle_type_id":"4","last_reported":1770968504,"current_range_meters":12000,"station_id":"ce4bgph2rcd13ifvqc2g","pricing_plan_id":"cebpf4jnsgd1na2vs0mg"},{"bike_id":"97ddf1f0-4390-4d41-a678-1acfcd4747e2","system_id":"levelo_inurba_marseille","lat":43.2959,"lon":5.38094,"is_reserved":false,"is_disabled":false,"rental_uris":{"android":"levelo://app?vid=97ddf1f0-4390-4d41-a678-1acfcd4747e2","ios":"levelo://app?vid=97ddf1f0-4390-4d41-a678-1acfcd4747e2"},"vehicle_type_id":"4","last_reported":1770968504,"current_range_meters":33600,"station_id":"ce4bgl12rcd13ifvqbo0","pricing_plan_id":"cebpf4jnsgd1na2vs0mg"},{"bike_id":"91a16e74-f75c-43e6-9998-5c1ca801894b","system_id":"levelo_inurba_marseille","lat":43.2901,"lon":5.37571,"is_reserved":false,"is_disabled":false,"rental_uris":{"android":"levelo://app?vid=91a16e74-f75c-43e6-9998-5c1ca801894b","ios":"levelo://app?vid=91a16e74-f75c-43e6-9998-5c1ca801894b"},"vehicle_type_id":"4","last_reported":1770968504,"current_range_meters":21600,"station_id":"ce4bh692rcd13ifvqe90","pricing_plan_id":"cebpf4jnsgd1na2vs0mg"},{"bike_id":"dccfc238-30d1-44f3-9713-c1cc91044624","system_id":"levelo_inurba_marseille","lat":43.3042,"lon":5.39757,"is_reserved":false,"is_disabled":false,"rental_uris":{"android":"levelo://app?vid=dccfc238-30d1-44f3-9713-c1cc91044624","ios":"levelo://app?vid=dccfc238-30d1-44f3-9713-c1cc91044624"},"vehicle_type_id":"4","last_reported":1770968504,"current_range_meters":22400,"station_id":"ce4bh092rcd13ifvqd20","pricing_plan_id":"cebpf4jnsgd1na2vs0mg"},{"bike_id":"e29024b3-288c-4d8b-ba32-8553041a7294","system_id":"levelo_inurba_marseille","lat":43.25941,"lon":5.40888,"is_reserved":false,"is_disabled":false,"rental_uris":{"android":"levelo://app?vid=e29024b3-288c-4d8b-ba32-8553041a7294","ios":"levelo://app?vid=e29024b3-288c-4d8b-ba32-8553041a7294"},"vehicle_type_id":"4","last_reported":1770968504,"current_range_meters":8800,"station_id":"ce4bhm92rcd13ifvqglg","pricing_plan_id":"cebpf4jnsgd1na2vs0mg"},{"bike_id":"dfa42615-cf49-4c98-8217-a89505bcbda5","system_id":"levelo_inurba_marseille","lat":43.28852,"lon":5.35854,"is_reserved":false,"is_disabled":false,"rental_uris":{"android":"levelo://app?vid=dfa42615-cf49-4c98-8217-a89505bcbda5","ios":"levelo://app?vid=dfa42615-cf49-4c98-8217-a89505bcbda5"},"vehicle_type_id":"4","last_reported":1770968504,"current_range_meters":40000,"station_id":"ce4bhb12rcd13ifvqem0","pricing_plan_id":"cebpf4jnsgd1na2vs0mg"},{"bike_id":"3c189d89-9ba1-4956-b004-0844860e5628","system_id":"levelo_inurba_marseille","lat":43.28636,"lon":5.35101,"is_reserved":false,"is_disabled":false,"rental_uris":{"android":"levelo://app?vid=3c189d89-9ba1-4956-b004-0844860e5628","ios":"levelo://app?vid=3c189d89-9ba1-4956-b004-0844860e5628"},"vehicle_type_id":"4","last_reported":1770968504,"current_range_meters":38800,"station_id":"","pricing_plan_id":"cebpf4jnsgd1na2vs0mg"},{"bike_id":"d4078c0d-0ab2-4898-ba9f-81aff7cd2cef","system_id":"levelo_inurba_marseille","lat":43.30604,"lon":5.36383,"is_reserved":false,"is_disabled":false,"rental_uris":{"android":"levelo://app?vid=d4078c0d-0ab2-4898-ba9f-81aff7cd2cef","ios":"levelo://app?vid=d4078c0d-0ab2-4898-ba9f-81aff7cd2cef"},"vehicle_type_id":"4","last_reported":1770968504,"current_range_meters":38000,"station_id":"","pricing_plan_id":"cebpf4jnsgd1na2vs0mg"},{"bike_id":"5e36df99-4142-4747-bb4a-bafaeca47884","system_id":"levelo_inurba_marseille","lat":43.298743,"lon":5.397417,"is_reserved":false,"is_disabled":false,"rental_uris":{"android":"levelo://app?vid=5e36df99-4142-4747-bb4a-bafaeca47884","ios":"levelo://app?vid=5e36df99-4142-4747-bb4a-bafaeca47884"},"vehicle_type_id":"4","last_reported":1770968504,"current_range_meters":36400,"station_id":"ce4bh0h2rcd13ifvqd50","pricing_plan_id":"cebpf4jnsgd1na2vs0mg"},{"bike_id":"3029fd03-fcab-4cd9-9277-025369248c19","system_id":"levelo_inurba_marseille","lat":43.26188,"lon":5.37446,"is_reserved":false,"is_disabled":false,"rental_uris":{"android":"levelo://app?vid=3029fd03-fcab-4cd9-9277-025369248c19","ios":"levelo://app?vid=3029fd03-fcab-4cd9-9277-025369248c19"},"vehicle_type_id":"4","last_reported":1770968504,"current_range_meters":24800,"station_id":"ce4bhgp2rcd13ifvqfc0","pricing_plan_id":"cebpf4jnsgd1na2vs0mg"},{"bike_id":"6d5920c7-0a92-4a72-a151-f905c46361e6","system_id":"levelo_inurba_marseille","lat":43.29781,"lon":5.37092,"is_reserved":false,"is_disabled":false,"rental_uris":{"android":"levelo://app?vid=6d5920c7-0a92-4a72-a151-f905c46361e6","ios":"levelo://app?vid=6d5920c7-0a92-4a72-a151-f905c46361e6"},"vehicle_type_id":"4","last_reported":1770968504,"current_range_meters":15200,"station_id":"ce4bgop2rcd13ifvqc1g","pricing_plan_id":"cebpf4jnsgd1na2vs0mg"},{"bike_id":"f58b22df-1d1e-4c68-b0ed-0a3362dbbf8a","system_id":"levelo_inurba_marseille","lat":43.29923,"lon":5.37448,"is_reserved":false,"is_disabled":false,"rental_uris":{"android":"levelo://app?vid=f58b22df-1d1e-4c68-b0ed-0a3362dbbf8a","ios":"levelo://app?vid=f58b22df-1d1e-4c68-b0ed-0a3362dbbf8a"},"vehicle_type_id":"4","last_reported":1770968504,"current_range_meters":37600,"station_id":"ce4bgjh2rcd13ifvqbg0","pricing_plan_id":"cebpf4jnsgd1na2vs0mg"},{"bike_id":"9ef7c1f7-2341-4bfa-8b00-eef4bbbdbfcb","system_id":"levelo_inurba_marseille","lat":43.268,"lon":5.40274,"is_reserved":false,"is_disabled":false,"rental_uris":{"android":"levelo://app?vid=9ef7c1f7-2341-4bfa-8b00-eef4bbbdbfcb","ios":"levelo://app?vid=9ef7c1f7-2341-4bfa-8b00-eef4bbbdbfcb"},"vehicle_type_id":"4","last_reported":1770968504,"current_range_meters":20800,"station_id":"ce501612rcd8frsf0b60","pricing_plan_id":"cebpf4jnsgd1na2vs0mg"},{"bike_id":"f06d538b-97fe-4530-9d3d-a633bac60e6e","system_id":"levelo_inurba_marseille","lat":43.269398,"lon":5.402517,"is_reserved":false,"is_disabled":false,"rental_uris":{"android":"levelo://app?vid=f06d538b-97fe-4530-9d3d-a633bac60e6e","ios":"levelo://app?vid=f06d538b-97fe-4530-9d3d-a633bac60e6e"},"vehicle_type_id":"4","last_reported":1770968504,"current_range_meters":8400,"station_id":"cjm6bp8fraef2m0cb0m0","pricing_plan_id":"cebpf4jnsgd1na2vs0mg"},{"bike_id":"52c7c3b3-ac9d-4df5-82cf-e43fd41f2870","system_id":"levelo_inurba_marseille","lat":43.30148,"lon":5.3809,"is_reserved":false,"is_disabled":false,"rental_uris":{"android":"levelo://app?vid=52c7c3b3-ac9d-4df5-82cf-e43fd41f2870","ios":"levelo://app?vid=52c7c3b3-ac9d-4df5-82cf-e43fd41f2870"},"vehicle_type_id":"4","last_reported":1770968504,"current_range_meters":25600,"station_id":"ce4bgjp2rcd13ifvqbh0","pricing_plan_id":"cebpf4jnsgd1na2vs0mg"},{"bike_id":"11bbe498-cd8f-4b2e-8e45-54529a7a0a47","system_id":"levelo_inurba_marseille","lat":43.297619,"lon":5.427783,"is_reserved":false,"is_disabled":false,"rental_uris":{"android":"levelo://app?vid=11bbe498-cd8f-4b2e-8e45-54529a7a0a47","ios":"levelo://app?vid=11bbe498-cd8f-4b2e-8e45-54529a7a0a47"},"vehicle_type_id":"4","last_reported":1770968504,"current_range_meters":18800,"station_id":"st_d3md5207bmas73dh9klg","pricing_plan_id":"cebpf4jnsgd1na2vs0mg"},{"bike_id":"c60a64bf-3aa2-49f8-8bd4-22d2f7974973","system_id":"levelo_inurba_marseille","lat":43.30879,"lon":5.37214,"is_reserved":false,"is_disabled":false,"rental_uris":{"android":"levelo://app?vid=c60a64bf-3aa2-49f8-8bd4-22d2f7974973","ios":"levelo://app?vid=c60a64bf-3aa2-49f8-8bd4-22d2f7974973"},"vehicle_type_id":"4","last_reported":1770968504,"current_range_meters":30000,"station_id":"ce4bguh2rcd13ifvqckg","pricing_plan_id":"cebpf4jnsgd1na2vs0mg"},{"bike_id":"90b2eb3d-b8cf-47c7-bcb8-5d5b5f49b9b7","system_id":"levelo_inurba_marseille","lat":43.26591,"lon":5.39012,"is_reserved":false,"is_disabled":true,"rental_uris":{"android":"levelo://app?vid=90b2eb3d-b8cf-47c7-bcb8-5d5b5f49b9b7","ios":"levelo://app?vid=90b2eb3d-b8cf-47c7-bcb8-5d5b5f49b9b7"},"vehicle_type_id":"4","last_reported":1770968504,"current_range_meters":36000,"station_id":"ce4bhe12rcd13ifvqf30","pricing_plan_id":"cebpf4jnsgd1na2vs0mg"},{"bike_id":"0e318882-2e4d-4a33-990d-5a13d8a04e1a","system_id":"levelo_inurba_marseille","lat":43.28472,"lon":5.38539,"is_reserved":false,"is_disabled":false,"rental_uris":{"android":"levelo://app?vid=0e318882-2e4d-4a33-990d-5a13d8a04e1a","ios":"levelo://app?vid=0e318882-2e4d-4a33-990d-5a13d8a04e1a"},"vehicle_type_id":"4","last_reported":1770968504,"current_range_meters":6400,"station_id":"ce4bh8p2rcd13ifvqeb0","pricing_plan_id":"cebpf4jnsgd1na2vs0mg"},{"bike_id":"11434cf1-d6f8-4e1a-8ad6-be51503532dc","system_id":"levelo_inurba_marseille","lat":43.3048,"lon":5.37922,"is_reserved":false,"is_disabled":false,"rental_uris":{"android":"levelo://app?vid=11434cf1-d6f8-4e1a-8ad6-be51503532dc","ios":"levelo://app?vid=11434cf1-d6f8-4e1a-8ad6-be51503532dc"},"vehicle_type_id":"4","last_reported":1770968504,"current_range_meters":39200,"station_id":"ce4bgup2rcd13ifvqcn0","pricing_plan_id":"cebpf4jnsgd1na2vs0mg"},{"bike_id":"6f6a04ad-dd00-4f4a-bdfd-a835cfa0cc11","system_id":"levelo_inurba_marseille","lat":43.27082,"lon":5.3832,"is_reserved":false,"is_disabled":false,"rental_uris":{"android":"levelo://app?vid=6f6a04ad-dd00-4f4a-bdfd-a835cfa0cc11","ios":"levelo://app?vid=6f6a04ad-dd00-4f4a-bdfd-a835cfa0cc11"},"vehicle_type_id":"4","last_reported":1770968504,"current_range_meters":38400,"station_id":"st_d3n2fo6cfp8s73cte1j0","pricing_plan_id":"cebpf4jnsgd1na2vs0mg"},{"bike_id":"4e4c79b4-286f-458a-a494-98664f2e8591","system_id":"levelo_inurba_marseille","lat":43.33283,"lon":5.38945,"is_reserved":false,"is_disabled":false,"rental_uris":{"android":"levelo://app?vid=4e4c79b4-286f-458a-a494-98664f2e8591","ios":"levelo://app?vid=4e4c79b4-286f-458a-a494-98664f2e8591"},"vehicle_type_id":"4","last_reported":1770968504,"current_range_meters":39200,"station_id":"","pricing_plan_id":"cebpf4jnsgd1na2vs0mg"},{"bike_id":"86397a4f-4bd7-431d-9d77-fa42f88c90d5","system_id":"levelo_inurba_marseille","lat":43.28462,"lon":5.38421,"is_reserved":false,"is_disabled":false,"rental_uris":{"android":"levelo://app?vid=86397a4f-4bd7-431d-9d77-fa42f88c90d5","ios":"levelo://app?vid=86397a4f-4bd7-431d-9d77-fa42f88c90d5"},"vehicle_type_id":"4","last_reported":1770968504,"current_range_meters":36800,"station_id":"ce4bh512rcd13ifvqe3g","pricing_plan_id":"cebpf4jnsgd1na2vs0mg"},{"bike_id":"76d60a75-dcac-494e-a96c-1212b660edc7","system_id":"levelo_inurba_marseille","lat":43.30315,"lon":5.36921,"is_reserved":false,"is_disabled":false,"rental_uris":{"android":"levelo://app?vid=76d60a75-dcac-494e-a96c-1212b660edc7","ios":"levelo://app?vid=76d60a75-dcac-494e-a96c-1212b660edc7"},"vehicle_type_id":"4","last_reported":1770968504,"current_range_meters":34800,"station_id":"ce4bgqh2rcd13ifvqc5g","pricing_plan_id":"cebpf4jnsgd1na2vs0mg"},{"bike_id":"c8d3deb4-912b-417b-a80c-9490cc095215","system_id":"levelo_inurba_marseille","lat":43.29848,"lon":5.37648,"is_reserved":false,"is_disabled":false,"rental_uris":{"android":"levelo://app?vid=c8d3deb4-912b-417b-a80c-9490cc095215","ios":"levelo://app?vid=c8d3deb4-912b-417b-a80c-9490cc095215"},"vehicle_type_id":"4","last_reported":1770968504,"current_range_meters":35600,"station_id":"","pricing_plan_id":"cebpf4jnsgd1na2vs0mg"},{"bike_id":"dbd40afb-0d84-4f0f-b160-b60a14900963","system_id":"levelo_inurba_marseille","lat":43.260741,"lon":5.393963,"is_reserved":false,"is_disabled":false,"rental_uris":{"android":"levelo://app?vid=dbd40afb-0d84-4f0f-b160-b60a14900963","ios":"levelo://app?vid=dbd40afb-0d84-4f0f-b160-b60a14900963"},"vehicle_type_id":"4","last_reported":1770968504,"current_range_meters":38000,"station_id":"ce4bhh92rcd13ifvqfj0","pricing_plan_id":"cebpf4jnsgd1na2vs0mg"},{"bike_id":"beb8391b-c8c1-405a-b527-a4be01cb6949","system_id":"levelo_inurba_marseille","lat":43.248036,"lon":5.374558,"is_reserved":false,"is_disabled":false,"rental_uris":{"android":"levelo://app?vid=beb8391b-c8c1-405a-b527-a4be01cb6949","ios":"levelo://app?vid=beb8391b-c8c1-405a-b527-a4be01cb6949"},"vehicle_type_id":"4","last_reported":1770968504,"current_range_meters":29600,"station_id":"ce4bhgh2rcd13ifvqfb0","pricing_plan_id":"cebpf4jnsgd1na2vs0mg"},{"bike_id":"d8a21cf0-3eda-42f6-b76b-99e4c0602b17","system_id":"levelo_inurba_marseille","lat":43.24467,"lon":5.37645,"is_reserved":false,"is_disabled":false,"rental_uris":{"android":"levelo://app?vid=d8a21cf0-3eda-42f6-b76b-99e4c0602b17","ios":"levelo://app?vid=d8a21cf0-3eda-42f6-b76b-99e4c0602b17"},"vehicle_type_id":"4","last_reported":1770968504,"current_range_meters":37600,"station_id":"","pricing_plan_id":"cebpf4jnsgd1na2vs0mg"},{"bike_id":"dd494789-dd3f-43d2-b7bc-03291ffc46a1","system_id":"levelo_inurba_marseille","lat":43.27945,"lon":5.38692,"is_reserved":false,"is_disabled":false,"rental_uris":{"android":"levelo://app?vid=dd494789-dd3f-43d2-b7bc-03291ffc46a1","ios":"levelo://app?vid=dd494789-dd3f-43d2-b7bc-03291ffc46a1"},"vehicle_type_id":"4","last_reported":1770968504,"current_range_meters":35200,"station_id":"","pricing_plan_id":"cebpf4jnsgd1na2vs0mg"},{"bike_id":"bb9d4fa8-a6c6-4b37-8296-006d271da3f9","system_id":"levelo_inurba_marseille","lat":43.25016,"lon":5.38913,"is_reserved":false,"is_disabled":false,"rental_uris":{"android":"levelo://app?vid=bb9d4fa8-a6c6-4b37-8296-006d271da3f9","ios":"levelo://app?vid=bb9d4fa8-a6c6-4b37-8296-006d271da3f9"},"vehicle_type_id":"4","last_reported":1770968504,"current_range_meters":29600,"station_id":"ce4bhgp2rcd13ifvqfd0","pricing_plan_id":"cebpf4jnsgd1na2vs0mg"},{"bike_id":"9326bb6a-10f4-4219-97c3-64d7c59774cf","system_id":"levelo_inurba_marseille","lat":43.31047,"lon":5.37191,"is_reserved":false,"is_disabled":false,"rental_uris":{"android":"levelo://app?vid=9326bb6a-10f4-4219-97c3-64d7c59774cf","ios":"levelo://app?vid=9326bb6a-10f4-4219-97c3-64d7c59774cf"},"vehicle_type_id":"4","last_reported":1770968504,"current_range_meters":8800,"station_id":"st_d4kl2rp97mjs73e7tdfg","pricing_plan_id":"cebpf4jnsgd1na2vs0mg"},{"bike_id":"8ae1aee6-ac8a-4eca-88d1-3b74d9a44fff","system_id":"levelo_inurba_marseille","lat":43.28839,"lon":5.35843,"is_reserved":false,"is_disabled":false,"rental_uris":{"android":"levelo://app?vid=8ae1aee6-ac8a-4eca-88d1-3b74d9a44fff","ios":"levelo://app?vid=8ae1aee6-ac8a-4eca-88d1-3b74d9a44fff"},"vehicle_type_id":"4","last_reported":1770968504,"current_range_meters":31200,"station_id":"ce4bhb12rcd13ifvqem0","pricing_plan_id":"cebpf4jnsgd1na2vs0mg"},{"bike_id":"978d2f99-2f31-4c4e-be2a-4e68224c9eda","system_id":"levelo_inurba_marseille","lat":43.2681,"lon":5.40276,"is_reserved":false,"is_disabled":false,"rental_uris":{"android":"levelo://app?vid=978d2f99-2f31-4c4e-be2a-4e68224c9eda","ios":"levelo://app?vid=978d2f99-2f31-4c4e-be2a-4e68224c9eda"},"vehicle_type_id":"4","last_reported":1770968504,"current_range_meters":31200,"station_id":"ce501612rcd8frsf0b60","pricing_plan_id":"cebpf4jnsgd1na2vs0mg"},{"bike_id":"db4f636e-b232-46b1-867e-c76f4ae9dc3e","system_id":"levelo_inurba_marseille","lat":43.32079,"lon":5.36765,"is_reserved":false,"is_disabled":false,"rental_uris":{"android":"levelo://app?vid=db4f636e-b232-46b1-867e-c76f4ae9dc3e","ios":"levelo://app?vid=db4f636e-b232-46b1-867e-c76f4ae9dc3e"},"vehicle_type_id":"4","last_reported":1770968504,"current_range_meters":23200,"station_id":"ce4bhrh2rcd13ifvqhug","pricing_plan_id":"cebpf4jnsgd1na2vs0mg"},{"bike_id":"28a28a42-0d8d-46c3-9354-ee02589636db","system_id":"levelo_inurba_marseille","lat":43.308863,"lon":5.39617,"is_reserved":false,"is_disabled":true,"rental_uris":{"android":"levelo://app?vid=28a28a42-0d8d-46c3-9354-ee02589636db","ios":"levelo://app?vid=28a28a42-0d8d-46c3-9354-ee02589636db"},"vehicle_type_id":"4","last_reported":1770968504,"current_range_meters":1600,"station_id":"ce4bh012rcd13ifvqcv0","pricing_plan_id":"cebpf4jnsgd1na2vs0mg"},{"bike_id":"24404e2f-7907-4c0b-a8da-161f9e441968","system_id":"levelo_inurba_marseille","lat":43.26921,"lon":5.40265,"is_reserved":false,"is_disabled":true,"rental_uris":{"android":"levelo://app?vid=24404e2f-7907-4c0b-a8da-161f9e441968","ios":"levelo://app?vid=24404e2f-7907-4c0b-a8da-161f9e441968"},"vehicle_type_id":"4","last_reported":1770968504,"current_range_meters":36400,"station_id":"cjm6bp8fraef2m0cb0m0","pricing_plan_id":"cebpf4jnsgd1na2vs0mg"},{"bike_id":"9db55965-84bb-4dc9-bbc7-389095a5d9b3","system_id":"levelo_inurba_marseille","lat":43.27598,"lon":5.36161,"is_reserved":false,"is_disabled":false,"rental_uris":{"android":"levelo://app?vid=9db55965-84bb-4dc9-bbc7-389095a5d9b3","ios":"levelo://app?vid=9db55965-84bb-4dc9-bbc7-389095a5d9b3"},"vehicle_type_id":"4","last_reported":1770968504,"current_range_meters":38800,"station_id":"ce4bgj92rcd13ifvqbe0","pricing_plan_id":"cebpf4jnsgd1na2vs0mg"},{"bike_id":"88ff9439-db02-4be2-a9f2-dbfd8e7a5968","system_id":"levelo_inurba_marseille","lat":43.258566,"lon":5.399023,"is_reserved":false,"is_disabled":false,"rental_uris":{"android":"levelo://app?vid=88ff9439-db02-4be2-a9f2-dbfd8e7a5968","ios":"levelo://app?vid=88ff9439-db02-4be2-a9f2-dbfd8e7a5968"},"vehicle_type_id":"4","last_reported":1770968504,"current_range_meters":38000,"station_id":"ce4bhl92rcd13ifvqghg","pricing_plan_id":"cebpf4jnsgd1na2vs0mg"},{"bike_id":"fb6e3715-5cf4-44c9-b456-0645a8903b17","system_id":"levelo_inurba_marseille","lat":43.27806,"lon":5.40732,"is_reserved":false,"is_disabled":false,"rental_uris":{"android":"levelo://app?vid=fb6e3715-5cf4-44c9-b456-0645a8903b17","ios":"levelo://app?vid=fb6e3715-5cf4-44c9-b456-0645a8903b17"},"vehicle_type_id":"4","last_reported":1770968504,"current_range_meters":33200,"station_id":"ce4bhnh2rcd13ifvqgtg","pricing_plan_id":"cebpf4jnsgd1na2vs0mg"},{"bike_id":"d30d7d9e-611d-4920-9b2d-b4a912454982","system_id":"levelo_inurba_marseille","lat":43.31279,"lon":5.37761,"is_reserved":false,"is_disabled":false,"rental_uris":{"android":"levelo://app?vid=d30d7d9e-611d-4920-9b2d-b4a912454982","ios":"levelo://app?vid=d30d7d9e-611d-4920-9b2d-b4a912454982"},"vehicle_type_id":"4","last_reported":1770968504,"current_range_meters":6800,"station_id":"","pricing_plan_id":"cebpf4jnsgd1na2vs0mg"},{"bike_id":"7f70d8c4-492b-495a-b8a6-b98468f8734c","system_id":"levelo_inurba_marseille","lat":43.27958,"lon":5.38678,"is_reserved":false,"is_disabled":false,"rental_uris":{"android":"levelo://app?vid=7f70d8c4-492b-495a-b8a6-b98468f8734c","ios":"levelo://app?vid=7f70d8c4-492b-495a-b8a6-b98468f8734c"},"vehicle_type_id":"4","last_reported":1770968504,"current_range_meters":33600,"station_id":"ce4bhg12rcd13ifvqf80","pricing_plan_id":"cebpf4jnsgd1na2vs0mg"},{"bike_id":"a08e432b-50d2-4ce1-b298-be02f429a7ad","system_id":"levelo_inurba_marseille","lat":43.25498,"lon":5.37657,"is_reserved":false,"is_disabled":false,"rental_uris":{"android":"levelo://app?vid=a08e432b-50d2-4ce1-b298-be02f429a7ad","ios":"levelo://app?vid=a08e432b-50d2-4ce1-b298-be02f429a7ad"},"vehicle_type_id":"4","last_reported":1770968504,"current_range_meters":9200,"station_id":"","pricing_plan_id":"cebpf4jnsgd1na2vs0mg"},{"bike_id":"6818d9fe-f041-4076-8020-df310c1bae40","system_id":"levelo_inurba_marseille","lat":43.30177,"lon":5.38076,"is_reserved":false,"is_disabled":false,"rental_uris":{"android":"levelo://app?vid=6818d9fe-f041-4076-8020-df310c1bae40","ios":"levelo://app?vid=6818d9fe-f041-4076-8020-df310c1bae40"},"vehicle_type_id":"4","last_reported":1770968504,"current_range_meters":33600,"station_id":"ce4bgjp2rcd13ifvqbh0","pricing_plan_id":"cebpf4jnsgd1na2vs0mg"},{"bike_id":"8fd4569f-4513-4bcf-9440-02144f737ba7","system_id":"levelo_inurba_marseille","lat":43.31013,"lon":5.37176,"is_reserved":false,"is_disabled":false,"rental_uris":{"android":"levelo://app?vid=8fd4569f-4513-4bcf-9440-02144f737ba7","ios":"levelo://app?vid=8fd4569f-4513-4bcf-9440-02144f737ba7"},"vehicle_type_id":"4","last_reported":1770968504,"current_range_meters":23200,"station_id":"st_d4kl2rp97mjs73e7tdfg","pricing_plan_id":"cebpf4jnsgd1na2vs0mg"},{"bike_id":"8491b334-0ba7-4277-9797-3edac002b21f","system_id":"levelo_inurba_marseille","lat":43.26189,"lon":5.40478,"is_reserved":false,"is_disabled":true,"rental_uris":{"android":"levelo://app?vid=8491b334-0ba7-4277-9797-3edac002b21f","ios":"levelo://app?vid=8491b334-0ba7-4277-9797-3edac002b21f"},"vehicle_type_id":"4","last_reported":1770968504,"current_range_meters":18000,"station_id":"ce4bhmh2rcd13ifvqgmg","pricing_plan_id":"cebpf4jnsgd1na2vs0mg"},{"bike_id":"6c78efb4-21ea-48b6-a077-5447702c0f63","system_id":"levelo_inurba_marseille","lat":43.29886,"lon":5.43678,"is_reserved":false,"is_disabled":false,"rental_uris":{"android":"levelo://app?vid=6c78efb4-21ea-48b6-a077-5447702c0f63","ios":"levelo://app?vid=6c78efb4-21ea-48b6-a077-5447702c0f63"},"vehicle_type_id":"4","last_reported":1770968504,"current_range_meters":34000,"station_id":"ce4bhpp2rcd13ifvqhfg","pricing_plan_id":"cebpf4jnsgd1na2vs0mg"},{"bike_id":"87e52233-7157-484b-968d-b0beff0b44bb","system_id":"levelo_inurba_marseille","lat":43.26934,"lon":5.40283,"is_reserved":false,"is_disabled":false,"rental_uris":{"android":"levelo://app?vid=87e52233-7157-484b-968d-b0beff0b44bb","ios":"levelo://app?vid=87e52233-7157-484b-968d-b0beff0b44bb"},"vehicle_type_id":"4","last_reported":1770968504,"current_range_meters":26800,"station_id":"cjm6bp8fraef2m0cb0m0","pricing_plan_id":"cebpf4jnsgd1na2vs0mg"},{"bike_id":"1ada22f9-5027-45d1-bf0f-6aaf8ce92ed1","system_id":"levelo_inurba_marseille","lat":43.30594,"lon":5.39347,"is_reserved":false,"is_disabled":false,"rental_uris":{"android":"levelo://app?vid=1ada22f9-5027-45d1-bf0f-6aaf8ce92ed1","ios":"levelo://app?vid=1ada22f9-5027-45d1-bf0f-6aaf8ce92ed1"},"vehicle_type_id":"4","last_reported":1770968504,"current_range_meters":12800,"station_id":"ce4bh0p2rcd13ifvqd80","pricing_plan_id":"cebpf4jnsgd1na2vs0mg"},{"bike_id":"7ab96dfa-7e8c-4794-bc8e-75c4e38f5617","system_id":"levelo_inurba_marseille","lat":43.28712,"lon":5.40011,"is_reserved":false,"is_disabled":true,"rental_uris":{"android":"levelo://app?vid=7ab96dfa-7e8c-4794-bc8e-75c4e38f5617","ios":"levelo://app?vid=7ab96dfa-7e8c-4794-bc8e-75c4e38f5617"},"vehicle_type_id":"4","last_reported":1770968504,"current_range_meters":24800,"station_id":"ce4bho92rcd13ifvqh3g","pricing_plan_id":"cebpf4jnsgd1na2vs0mg"},{"bike_id":"97a62e35-510e-4a73-8eca-01c7ca2af946","system_id":"levelo_inurba_marseille","lat":43.31708,"lon":5.37761,"is_reserved":false,"is_disabled":false,"rental_uris":{"android":"levelo://app?vid=97a62e35-510e-4a73-8eca-01c7ca2af946","ios":"levelo://app?vid=97a62e35-510e-4a73-8eca-01c7ca2af946"},"vehicle_type_id":"4","last_reported":1770968504,"current_range_meters":24400,"station_id":"ce4bgth2rcd13ifvqch0","pricing_plan_id":"cebpf4jnsgd1na2vs0mg"},{"bike_id":"fb018fac-6eef-49af-bd5b-057049b63181","system_id":"levelo_inurba_marseille","lat":43.28638,"lon":5.35079,"is_reserved":false,"is_disabled":false,"rental_uris":{"android":"levelo://app?vid=fb018fac-6eef-49af-bd5b-057049b63181","ios":"levelo://app?vid=fb018fac-6eef-49af-bd5b-057049b63181"},"vehicle_type_id":"4","last_reported":1770968504,"current_range_meters":19600,"station_id":"ce4bhch2rcd13ifvqeug","pricing_plan_id":"cebpf4jnsgd1na2vs0mg"},{"bike_id":"3bb5bc67-1d0a-4908-8016-273223517602","system_id":"levelo_inurba_marseille","lat":43.26057,"lon":5.39404,"is_reserved":false,"is_disabled":false,"rental_uris":{"android":"levelo://app?vid=3bb5bc67-1d0a-4908-8016-273223517602","ios":"levelo://app?vid=3bb5bc67-1d0a-4908-8016-273223517602"},"vehicle_type_id":"4","last_reported":1770968504,"current_range_meters":11200,"station_id":"ce4bhh92rcd13ifvqfj0","pricing_plan_id":"cebpf4jnsgd1na2vs0mg"},{"bike_id":"2343f786-5218-4a99-8de9-4404ca433701","system_id":"levelo_inurba_marseille","lat":43.26228,"lon":5.37461,"is_reserved":false,"is_disabled":false,"rental_uris":{"android":"levelo://app?vid=2343f786-5218-4a99-8de9-4404ca433701","ios":"levelo://app?vid=2343f786-5218-4a99-8de9-4404ca433701"},"vehicle_type_id":"4","last_reported":1770968504,"current_range_meters":35200,"station_id":"","pricing_plan_id":"cebpf4jnsgd1na2vs0mg"},{"bike_id":"c1b36981-2407-4376-85d9-fb3bd1a789c0","system_id":"levelo_inurba_marseille","lat":43.280385,"lon":5.369445,"is_reserved":false,"is_disabled":false,"rental_uris":{"android":"levelo://app?vid=c1b36981-2407-4376-85d9-fb3bd1a789c0","ios":"levelo://app?vid=c1b36981-2407-4376-85d9-fb3bd1a789c0"},"vehicle_type_id":"4","last_reported":1770968504,"current_range_meters":38000,"station_id":"ce4bha12rcd13ifvqef0","pricing_plan_id":"cebpf4jnsgd1na2vs0mg"},{"bike_id":"daf88a4a-38c1-4a48-9faf-8edd173ac368","system_id":"levelo_inurba_marseille","lat":43.31195,"lon":5.38716,"is_reserved":false,"is_disabled":true,"rental_uris":{"android":"levelo://app?vid=daf88a4a-38c1-4a48-9faf-8edd173ac368","ios":"levelo://app?vid=daf88a4a-38c1-4a48-9faf-8edd173ac368"},"vehicle_type_id":"4","last_reported":1770968504,"current_range_meters":34800,"station_id":"ce4bgv12rcd13ifvqcp0","pricing_plan_id":"cebpf4jnsgd1na2vs0mg"},{"bike_id":"24beea5a-2b5a-498b-8ea8-a6b69dfa911e","system_id":"levelo_inurba_marseille","lat":43.24658,"lon":5.43135,"is_reserved":false,"is_disabled":false,"rental_uris":{"android":"levelo://app?vid=24beea5a-2b5a-498b-8ea8-a6b69dfa911e","ios":"levelo://app?vid=24beea5a-2b5a-498b-8ea8-a6b69dfa911e"},"vehicle_type_id":"4","last_reported":1770968504,"current_range_meters":38000,"station_id":"st_d2m6c4gdas8pm72e190g","pricing_plan_id":"cebpf4jnsgd1na2vs0mg"},{"bike_id":"6a0c8f75-d96e-494c-b790-779087709950","system_id":"levelo_inurba_marseille","lat":43.29797,"lon":5.38081,"is_reserved":false,"is_disabled":false,"rental_uris":{"android":"levelo://app?vid=6a0c8f75-d96e-494c-b790-779087709950","ios":"levelo://app?vid=6a0c8f75-d96e-494c-b790-779087709950"},"vehicle_type_id":"4","last_reported":1770968504,"current_range_meters":19600,"station_id":"ce4bgip2rcd13ifvqbb0","pricing_plan_id":"cebpf4jnsgd1na2vs0mg"},{"bike_id":"b83bc942-822a-4d1e-8290-a8b480c1b19e","system_id":"levelo_inurba_marseille","lat":43.2792,"lon":5.3802,"is_reserved":false,"is_disabled":false,"rental_uris":{"android":"levelo://app?vid=b83bc942-822a-4d1e-8290-a8b480c1b19e","ios":"levelo://app?vid=b83bc942-822a-4d1e-8290-a8b480c1b19e"},"vehicle_type_id":"4","last_reported":1770968504,"current_range_meters":38800,"station_id":"ce4bhf92rcd13ifvqf50","pricing_plan_id":"cebpf4jnsgd1na2vs0mg"},{"bike_id":"d71db69c-c1ed-4115-9a4f-32aa86e9209d","system_id":"levelo_inurba_marseille","lat":43.249961,"lon":5.389308,"is_reserved":false,"is_disabled":false,"rental_uris":{"android":"levelo://app?vid=d71db69c-c1ed-4115-9a4f-32aa86e9209d","ios":"levelo://app?vid=d71db69c-c1ed-4115-9a4f-32aa86e9209d"},"vehicle_type_id":"4","last_reported":1770968504,"current_range_meters":31200,"station_id":"ce4bhgp2rcd13ifvqfd0","pricing_plan_id":"cebpf4jnsgd1na2vs0mg"},{"bike_id":"d2229b13-3c01-426f-a1c3-3c9e5d3accfe","system_id":"levelo_inurba_marseille","lat":43.23379,"lon":5.41256,"is_reserved":false,"is_disabled":false,"rental_uris":{"android":"levelo://app?vid=d2229b13-3c01-426f-a1c3-3c9e5d3accfe","ios":"levelo://app?vid=d2229b13-3c01-426f-a1c3-3c9e5d3accfe"},"vehicle_type_id":"4","last_reported":1770968504,"current_range_meters":12800,"station_id":"","pricing_plan_id":"cebpf4jnsgd1na2vs0mg"},{"bike_id":"4a7b9e9e-22d6-4139-a2e8-5ec340feaaff","system_id":"levelo_inurba_marseille","lat":43.2407,"lon":5.37762,"is_reserved":false,"is_disabled":false,"rental_uris":{"android":"levelo://app?vid=4a7b9e9e-22d6-4139-a2e8-5ec340feaaff","ios":"levelo://app?vid=4a7b9e9e-22d6-4139-a2e8-5ec340feaaff"},"vehicle_type_id":"4","last_reported":1770968504,"current_range_meters":16400,"station_id":"ce4bhnp2rcd13ifvqgvg","pricing_plan_id":"cebpf4jnsgd1na2vs0mg"},{"bike_id":"0bc9d2d9-88ab-4fdc-86f6-4c68d4cb1fc0","system_id":"levelo_inurba_marseille","lat":43.26485,"lon":5.39555,"is_reserved":false,"is_disabled":false,"rental_uris":{"android":"levelo://app?vid=0bc9d2d9-88ab-4fdc-86f6-4c68d4cb1fc0","ios":"levelo://app?vid=0bc9d2d9-88ab-4fdc-86f6-4c68d4cb1fc0"},"vehicle_type_id":"4","last_reported":1770968504,"current_range_meters":35600,"station_id":"ce4bhi12rcd13ifvqfq0","pricing_plan_id":"cebpf4jnsgd1na2vs0mg"},{"bike_id":"fc8059da-1d56-4002-800e-29988a285b45","system_id":"levelo_inurba_marseille","lat":43.26939,"lon":5.40253,"is_reserved":false,"is_disabled":false,"rental_uris":{"android":"levelo://app?vid=fc8059da-1d56-4002-800e-29988a285b45","ios":"levelo://app?vid=fc8059da-1d56-4002-800e-29988a285b45"},"vehicle_type_id":"4","last_reported":1770968504,"current_range_meters":38000,"station_id":"cjm6bp8fraef2m0cb0m0","pricing_plan_id":"cebpf4jnsgd1na2vs0mg"},{"bike_id":"85ca329a-9c55-4be1-b2da-c3d917ed6363","system_id":"levelo_inurba_marseille","lat":43.24538,"lon":5.39523,"is_reserved":false,"is_disabled":false,"rental_uris":{"android":"levelo://app?vid=85ca329a-9c55-4be1-b2da-c3d917ed6363","ios":"levelo://app?vid=85ca329a-9c55-4be1-b2da-c3d917ed6363"},"vehicle_type_id":"4","last_reported":1770968504,"current_range_meters":4800,"station_id":"ce4bhlp2rcd13ifvqgjg","pricing_plan_id":"cebpf4jnsgd1na2vs0mg"},{"bike_id":"e2ae36e2-7f95-4984-96f8-6f34e5ef1346","system_id":"levelo_inurba_marseille","lat":43.29813,"lon":5.44064,"is_reserved":false,"is_disabled":false,"rental_uris":{"android":"levelo://app?vid=e2ae36e2-7f95-4984-96f8-6f34e5ef1346","ios":"levelo://app?vid=e2ae36e2-7f95-4984-96f8-6f34e5ef1346"},"vehicle_type_id":"4","last_reported":1770968504,"current_range_meters":27200,"station_id":"st_d3jp68qikq2c7381ktn0","pricing_plan_id":"cebpf4jnsgd1na2vs0mg"},{"bike_id":"4056625b-2400-4fff-b4fa-a9bf8cbf48ff","system_id":"levelo_inurba_marseille","lat":43.249684,"lon":5.404901,"is_reserved":false,"is_disabled":false,"rental_uris":{"android":"levelo://app?vid=4056625b-2400-4fff-b4fa-a9bf8cbf48ff","ios":"levelo://app?vid=4056625b-2400-4fff-b4fa-a9bf8cbf48ff"},"vehicle_type_id":"4","last_reported":1770968504,"current_range_meters":30400,"station_id":"st_d2ngiaodas8pm72gd1h0","pricing_plan_id":"cebpf4jnsgd1na2vs0mg"},{"bike_id":"f7205f6b-7f50-4d6b-a045-7cc944b5b3fc","system_id":"levelo_inurba_marseille","lat":43.2963,"lon":5.371668,"is_reserved":false,"is_disabled":true,"rental_uris":{"android":"levelo://app?vid=f7205f6b-7f50-4d6b-a045-7cc944b5b3fc","ios":"levelo://app?vid=f7205f6b-7f50-4d6b-a045-7cc944b5b3fc"},"vehicle_type_id":"4","last_reported":1770968504,"current_range_meters":38800,"station_id":"ce4bgnh2rcd13ifvqc0g","pricing_plan_id":"cebpf4jnsgd1na2vs0mg"},{"bike_id":"93493205-597a-4b89-a416-2329047210d2","system_id":"levelo_inurba_marseille","lat":43.3031,"lon":5.3691,"is_reserved":false,"is_disabled":false,"rental_uris":{"android":"levelo://app?vid=93493205-597a-4b89-a416-2329047210d2","ios":"levelo://app?vid=93493205-597a-4b89-a416-2329047210d2"},"vehicle_type_id":"4","last_reported":1770968504,"current_range_meters":30400,"station_id":"ce4bgqh2rcd13ifvqc5g","pricing_plan_id":"cebpf4jnsgd1na2vs0mg"},{"bike_id":"fbdd5e41-1f30-48e4-80b8-3ede5cb5c638","system_id":"levelo_inurba_marseille","lat":43.25862,"lon":5.39914,"is_reserved":false,"is_disabled":false,"rental_uris":{"android":"levelo://app?vid=fbdd5e41-1f30-48e4-80b8-3ede5cb5c638","ios":"levelo://app?vid=fbdd5e41-1f30-48e4-80b8-3ede5cb5c638"},"vehicle_type_id":"4","last_reported":1770968504,"current_range_meters":17600,"station_id":"ce4bhl92rcd13ifvqghg","pricing_plan_id":"cebpf4jnsgd1na2vs0mg"},{"bike_id":"c827f785-6516-4690-a790-85d042f7f3d1","system_id":"levelo_inurba_marseille","lat":43.3089,"lon":5.39632,"is_reserved":false,"is_disabled":true,"rental_uris":{"android":"levelo://app?vid=c827f785-6516-4690-a790-85d042f7f3d1","ios":"levelo://app?vid=c827f785-6516-4690-a790-85d042f7f3d1"},"vehicle_type_id":"4","last_reported":1770968504,"current_range_meters":400,"station_id":"ce4bh012rcd13ifvqcv0","pricing_plan_id":"cebpf4jnsgd1na2vs0mg"},{"bike_id":"ac1e89f7-ecf8-4901-a592-b03de9d12a19","system_id":"levelo_inurba_marseille","lat":43.28468,"lon":5.3843,"is_reserved":false,"is_disabled":false,"rental_uris":{"android":"levelo://app?vid=ac1e89f7-ecf8-4901-a592-b03de9d12a19","ios":"levelo://app?vid=ac1e89f7-ecf8-4901-a592-b03de9d12a19"},"vehicle_type_id":"4","last_reported":1770968504,"current_range_meters":33200,"station_id":"ce4bh512rcd13ifvqe3g","pricing_plan_id":"cebpf4jnsgd1na2vs0mg"},{"bike_id":"574acae1-b906-4c62-8339-74b2de78f9ba","system_id":"levelo_inurba_marseille","lat":43.30778,"lon":5.37663,"is_reserved":false,"is_disabled":false,"rental_uris":{"android":"levelo://app?vid=574acae1-b906-4c62-8339-74b2de78f9ba","ios":"levelo://app?vid=574acae1-b906-4c62-8339-74b2de78f9ba"},"vehicle_type_id":"4","last_reported":1770968504,"current_range_meters":38400,"station_id":"ce4bgv92rcd13ifvqcq0","pricing_plan_id":"cebpf4jnsgd1na2vs0mg"},{"bike_id":"6caf32bb-68dd-41a5-87c5-75423006725c","system_id":"levelo_inurba_marseille","lat":43.2798,"lon":5.41659,"is_reserved":false,"is_disabled":false,"rental_uris":{"android":"levelo://app?vid=6caf32bb-68dd-41a5-87c5-75423006725c","ios":"levelo://app?vid=6caf32bb-68dd-41a5-87c5-75423006725c"},"vehicle_type_id":"4","last_reported":1770968504,"current_range_meters":32000,"station_id":"ce4bho12rcd13ifvqh1g","pricing_plan_id":"cebpf4jnsgd1na2vs0mg"},{"bike_id":"f5515027-cf33-4f17-be04-7b3221a165a8","system_id":"levelo_inurba_marseille","lat":43.3041,"lon":5.38929,"is_reserved":false,"is_disabled":true,"rental_uris":{"android":"levelo://app?vid=f5515027-cf33-4f17-be04-7b3221a165a8","ios":"levelo://app?vid=f5515027-cf33-4f17-be04-7b3221a165a8"},"vehicle_type_id":"4","last_reported":1770968504,"current_range_meters":36400,"station_id":"ce4bgk12rcd13ifvqbi0","pricing_plan_id":"cebpf4jnsgd1na2vs0mg"},{"bike_id":"5f6ae4c8-a7cd-4f3b-9adf-671bbd618c70","system_id":"levelo_inurba_marseille","lat":43.25535,"lon":5.38237,"is_reserved":false,"is_disabled":false,"rental_uris":{"android":"levelo://app?vid=5f6ae4c8-a7cd-4f3b-9adf-671bbd618c70","ios":"levelo://app?vid=5f6ae4c8-a7cd-4f3b-9adf-671bbd618c70"},"vehicle_type_id":"4","last_reported":1770968504,"current_range_meters":3200,"station_id":"ce4bhih2rcd13ifvqfs0","pricing_plan_id":"cebpf4jnsgd1na2vs0mg"},{"bike_id":"6c4d9d77-008f-47a1-ad59-9ec9203c5a27","system_id":"levelo_inurba_marseille","lat":43.30905,"lon":5.36855,"is_reserved":false,"is_disabled":false,"rental_uris":{"android":"levelo://app?vid=6c4d9d77-008f-47a1-ad59-9ec9203c5a27","ios":"levelo://app?vid=6c4d9d77-008f-47a1-ad59-9ec9203c5a27"},"vehicle_type_id":"4","last_reported":1770968504,"current_range_meters":34800,"station_id":"ce4bgn92rcd13ifvqbvg","pricing_plan_id":"cebpf4jnsgd1na2vs0mg"},{"bike_id":"4206269f-a782-4fae-9804-fefce8f8ba70","system_id":"levelo_inurba_marseille","lat":43.29922,"lon":5.3854,"is_reserved":false,"is_disabled":false,"rental_uris":{"android":"levelo://app?vid=4206269f-a782-4fae-9804-fefce8f8ba70","ios":"levelo://app?vid=4206269f-a782-4fae-9804-fefce8f8ba70"},