{"last_updated":1727208574,"ttl":60,"version":"2.2","data":{"bikes":[{"bike_id":"dc929efc-0c43-486c-9a16-d8a71128110d","system_id":"levelo_inurba_marseille","lat":43.28432,"lon":5.34996,"is_reserved":false,"is_disabled":false,"rental_uris":{"android":"levelo://app?vid=dc929efc-0c43-486c-9a16-d8a71128110d","ios":"levelo://app?vid=dc929efc-0c43-486c-9a16-d8a71128110d"},"vehicle_type_id":"4","last_reported":1727208574,"current_range_meters":20400,"station_id":"ce4bhbh2rcd13ifvqepg","pricing_plan_id":"cebpf4jnsgd1na2vs0mg"},{"bike_id":"8ee7fb84-da46-476f-a091-3c35d33d7645","system_id":"levelo_inurba_marseille","lat":43.27943,"lon":5.41044,"is_reserved":false,"is_disabled":false,"rental_uris":{"android":"levelo://app?vid=8ee7fb84-da46-476f-a091-3c35d33d7645","ios":"levelo://app?vid=8ee7fb84-da46-476f-a091-3c35d33d7645"},"vehicle_type_id":"4","last_reported":1727208574,"current_range_meters":14400,"station_id":"ce4bhnp2rcd13ifvqh0g","pricing_plan_id":"cebpf4jnsgd1na2vs0mg"},{"bike_id":"c85c3ac1-ec61-453b-a260-9f3875c4a0d0","system_id":"levelo_inurba_marseille","lat":43.279565,"lon":5.410522,"is_reserved":false,"is_disabled":false,"rental_uris":{"android":"levelo://app?vid=c85c3ac1-ec61-453b-a260-9f3875c4a0d0","ios":"levelo://app?vid=c85c3ac1-ec61-453b-a260-9f3875c4a0d0"},"vehicle_type_id":"4","last_reported":1727208574,"current_range_meters":28800,"station_id":"ce4bhnp2rcd13ifvqh0g","pricing_plan_id":"cebpf4jnsgd1na2vs0mg"},{"bike_id":"55346744-d053-4f73-be69-c67b047be584","system_id":"levelo_inurba_marseille","lat":43.27992,"lon":5.40029,"is_reserved":false,"is_disabled":false,"rental_uris":{"android":"levelo://app?vid=55346744-d053-4f73-be69-c67b047be584","ios":"levelo://app?vid=55346744-d053-4f73-be69-c67b047be584"},"vehicle_type_id":"4","last_reported":1727208574,"current_range_meters":28800,"station_id":"ce4bho92rcd13ifvqh4g","pricing_plan_id":"cebpf4jnsgd1na2vs0mg"},{"bike_id":"fd1aa1ae-79f8-4d42-a8d1-b39762946286","system_id":"levelo_inurba_marseille","lat":43.25723,"lon":5.41097,"is_reserved":false,"is_disabled":false,"rental_uris":{"android":"levelo://app?vid=fd1aa1ae-79f8-4d42-a8d1-b39762946286","ios":"levelo://app?vid=fd1aa1ae-79f8-4d42-a8d1-b39762946286"},"vehicle_type_id":"4","last_reported":1727208574,"current_range_meters":38800,"station_id":"ce4bhkp2rcd13ifvqgd0","pricing_plan_id":"cebpf4jnsgd1na2vs0mg"},{"bike_id":"3c374343-aa99-421a-8521-b9bd189598db","system_id":"levelo_inurba_marseille","lat":43.2828,"lon":5.35074,"is_reserved":false,"is_disabled":false,"rental_uris":{"android":"levelo://app?vid=3c374343-aa99-421a-8521-b9bd189598db","ios":"levelo://app?vid=3c374343-aa99-421a-8521-b9bd189598db"},"vehicle_type_id":"4","last_reported":1727208574,"current_range_meters":38000,"station_id":"ce4bhbp2rcd13ifvqerg","pricing_plan_id":"cebpf4jnsgd1na2vs0mg"},{"bike_id":"2d3b285a-6304-4052-a3ec-2c4d4cfd8dbe","system_id":"levelo_inurba_marseille","lat":43.32665,"lon":5.40994,"is_reserved":false,"is_disabled":false,"rental_uris":{"android":"levelo://app?vid=2d3b285a-6304-4052-a3ec-2c4d4cfd8dbe","ios":"levelo://app?vid=2d3b285a-6304-4052-a3ec-2c4d4cfd8dbe"},"vehicle_type_id":"4","last_reported":1727208574,"current_range_meters":38800,"station_id":"ce4bhpp2rcd13ifvqhgg","pricing_plan_id":"cebpf4jnsgd1na2vs0mg"},{"bike_id":"c6cd9b70-3b14-42a0-9ee3-01408936a20e","system_id":"levelo_inurba_marseille","lat":43.27789,"lon":5.40755,"is_reserved":false,"is_disabled":false,"rental_uris":{"android":"levelo://app?vid=c6cd9b70-3b14-42a0-9ee3-01408936a20e","ios":"levelo://app?vid=c6cd9b70-3b14-42a0-9ee3-01408936a20e"},"vehicle_type_id":"4","last_reported":1727208574,"current_range_meters":18800,"station_id":"ce4bhnh2rcd13ifvqgtg","pricing_plan_id":"cebpf4jnsgd1na2vs0mg"},{"bike_id":"9926f8d4-52ff-41d7-995b-39e4b6d4cdc0","system_id":"levelo_inurba_marseille","lat":43.3248,"lon":5.36569,"is_reserved":false,"is_disabled":false,"rental_uris":{"android":"levelo://app?vid=9926f8d4-52ff-41d7-995b-39e4b6d4cdc0","ios":"levelo://app?vid=9926f8d4-52ff-41d7-995b-39e4b6d4cdc0"},"vehicle_type_id":"4","last_reported":1727208574,"current_range_meters":39200,"station_id":"ce4bhs12rcd13ifvqhvg","pricing_plan_id":"cebpf4jnsgd1na2vs0mg"},{"bike_id":"b3dde859-3e26-42db-a40b-3f254a0e17b4","system_id":"levelo_inurba_marseille","lat":43.28614,"lon":5.3511,"is_reserved":false,"is_disabled":false,"rental_uris":{"android":"levelo://app?vid=b3dde859-3e26-42db-a40b-3f254a0e17b4","ios":"levelo://app?vid=b3dde859-3e26-42db-a40b-3f254a0e17b4"},"vehicle_type_id":"4","last_reported":1727208574,"current_range_meters":38800,"station_id":"ce4bhch2rcd13ifvqeug","pricing_plan_id":"cebpf4jnsgd1na2vs0mg"},{"bike_id":"c8ae8505-7d62-4328-8966-74a00c07ec68","system_id":"levelo_inurba_marseille","lat":43.2706,"lon":5.40267,"is_reserved":false,"is_disabled":false,"rental_uris":{"android":"levelo://app?vid=c8ae8505-7d62-4328-8966-74a00c07ec68","ios":"levelo://app?vid=c8ae8505-7d62-4328-8966-74a00c07ec68"},"vehicle_type_id":"4","last_reported":1727208574,"current_range_meters":38000,"station_id":"ce4bhk92rcd13ifvqgc0","pricing_plan_id":"cebpf4jnsgd1na2vs0mg"},{"bike_id":"85c7ab02-10e8-4a91-9fdd-2e27d0d34308","system_id":"levelo_inurba_marseille","lat":43.292965,"lon":5.409029,"is_reserved":false,"is_disabled":false,"rental_uris":{"android":"levelo://app?vid=85c7ab02-10e8-4a91-9fdd-2e27d0d34308","ios":"levelo://app?vid=85c7ab02-10e8-4a91-9fdd-2e27d0d34308"},"vehicle_type_id":"4","last_reported":1727208574,"current_range_meters":38000,"station_id":"ce4bh192rcd13ifvqdc0","pricing_plan_id":"cebpf4jnsgd1na2vs0mg"},{"bike_id":"8a0c097a-dca3-4c56-9b26-1ec4a0150bc9","system_id":"levelo_inurba_marseille","lat":43.27997,"lon":5.40017,"is_reserved":false,"is_disabled":false,"rental_uris":{"android":"levelo://app?vid=8a0c097a-dca3-4c56-9b26-1ec4a0150bc9","ios":"levelo://app?vid=8a0c097a-dca3-4c56-9b26-1ec4a0150bc9"},"vehicle_type_id":"4","last_reported":1727208574,"current_range_meters":17200,"station_id":"ce4bho92rcd13ifvqh4g","pricing_plan_id":"cebpf4jnsgd1na2vs0mg"},{"bike_id":"1e5075e3-4144-4b9b-8693-4d7beac6b10a","system_id":"levelo_inurba_marseille","lat":43.28002,"lon":5.40014,"is_reserved":false,"is_disabled":false,"rental_uris":{"android":"levelo://app?vid=1e5075e3-4144-4b9b-8693-4d7beac6b10a","ios":"levelo://app?vid=1e5075e3-4144-4b9b-8693-4d7beac6b10a"},"vehicle_type_id":"4","last_reported":1727208574,"current_range_meters":19600,"station_id":"ce4bho92rcd13ifvqh4g","pricing_plan_id":"cebpf4jnsgd1na2vs0mg"},{"bike_id":"c17abefd-7399-497b-b6e2-c3cbf0e00afa","system_id":"levelo_inurba_marseille","lat":43.29376,"lon":5.37852,"is_reserved":false,"is_disabled":false,"rental_uris":{"android":"levelo://app?vid=c17abefd-7399-497b-b6e2-c3cbf0e00afa","ios":"levelo://app?vid=c17abefd-7399-497b-b6e2-c3cbf0e00afa"},"vehicle_type_id":"4","last_reported":1727208574,"current_range_meters":10800,"station_id":"ce4bgjh2rcd13ifvqbf0","pricing_plan_id":"cebpf4jnsgd1na2vs0mg"},{"bike_id":"9c03e0f0-96c4-48fe-a0c9-2ff39af48c29","system_id":"levelo_inurba_marseille","lat":43.31994,"lon":5.38154,"is_reserved":false,"is_disabled":false,"rental_uris":{"android":"levelo://app?vid=9c03e0f0-96c4-48fe-a0c9-2ff39af48c29","ios":"levelo://app?vid=9c03e0f0-96c4-48fe-a0c9-2ff39af48c29"},"vehicle_type_id":"4","last_reported":1727208574,"current_range_meters":40000,"station_id":"ce4bhr12rcd13ifvqhpg","pricing_plan_id":"cebpf4jnsgd1na2vs0mg"},{"bike_id":"4bbcfecc-f6d8-4b41-8c7a-a73e0cd6d734","system_id":"levelo_inurba_marseille","lat":43.279423,"lon":5.410439,"is_reserved":false,"is_disabled":false,"rental_uris":{"android":"levelo://app?vid=4bbcfecc-f6d8-4b41-8c7a-a73e0cd6d734","ios":"levelo://app?vid=4bbcfecc-f6d8-4b41-8c7a-a73e0cd6d734"},"vehicle_type_id":"4","last_reported":1727208574,"current_range_meters":12400,"station_id":"ce4bhnp2rcd13ifvqh0g","pricing_plan_id":"cebpf4jnsgd1na2vs0mg"},{"bike_id":"08e2b91c-16d5-478b-bcac-2aacef01c141","system_id":"levelo_inurba_marseille","lat":43.304222,"lon":5.412823,"is_reserved":false,"is_disabled":false,"rental_uris":{"android":"levelo://app?vid=08e2b91c-16d5-478b-bcac-2aacef01c141","ios":"levelo://app?vid=08e2b91c-16d5-478b-bcac-2aacef01c141"},"vehicle_type_id":"4","last_reported":1727208574,"current_range_meters":0,"station_id":"ce4bhop2rcd13ifvqh8g","pricing_plan_id":"cebpf4jnsgd1na2vs0mg"},{"bike_id":"2ec5f482-ef2f-4ef8-b42f-3ca6cf554387","system_id":"levelo_inurba_marseille","lat":43.31333,"lon":5.39692,"is_reserved":false,"is_disabled":false,"rental_uris":{"android":"levelo://app?vid=2ec5f482-ef2f-4ef8-b42f-3ca6cf554387","ios":"levelo://app?vid=2ec5f482-ef2f-4ef8-b42f-3ca6cf554387"},"vehicle_type_id":"4","last_reported":1727208574,"current_range_meters":40000,"station_id":"ce4bgvp2rcd13ifvqcu0","pricing_plan_id":"cebpf4jnsgd1na2vs0mg"},{"bike_id":"7737b815-6daf-41f0-8354-4b28ba75917f","system_id":"levelo_inurba_marseille","lat":43.30196,"lon":5.39833,"is_reserved":false,"is_disabled":false,"rental_uris":{"android":"levelo://app?vid=7737b815-6daf-41f0-8354-4b28ba75917f","ios":"levelo://app?vid=7737b815-6daf-41f0-8354-4b28ba75917f"},"vehicle_type_id":"4","last_reported":1727208574,"current_range_meters":21600,"station_id":"ce4bgvp2rcd13ifvqct0","pricing_plan_id":"cebpf4jnsgd1na2vs0mg"},{"bike_id":"97cd9c66-18db-4e66-9552-5c0b14626eb5","system_id":"levelo_inurba_marseille","lat":43.28001,"lon":5.40015,"is_reserved":false,"is_disabled":false,"rental_uris":{"android":"levelo://app?vid=97cd9c66-18db-4e66-9552-5c0b14626eb5","ios":"levelo://app?vid=97cd9c66-18db-4e66-9552-5c0b14626eb5"},"vehicle_type_id":"4","last_reported":1727208574,"current_range_meters":18800,"station_id":"ce4bho92rcd13ifvqh4g","pricing_plan_id":"cebpf4jnsgd1na2vs0mg"},{"bike_id":"677fd384-14f5-4e8f-a298-b94ac27b00fd","system_id":"levelo_inurba_marseille","lat":43.29879,"lon":5.38908,"is_reserved":false,"is_disabled":false,"rental_uris":{"android":"levelo://app?vid=677fd384-14f5-4e8f-a298-b94ac27b00fd","ios":"levelo://app?vid=677fd384-14f5-4e8f-a298-b94ac27b00fd"},"vehicle_type_id":"4","last_reported":1727208574,"current_range_meters":38800,"station_id":"ce4bh392rcd13ifvqdl0","pricing_plan_id":"cebpf4jnsgd1na2vs0mg"},{"bike_id":"93af468c-1321-4d4c-99c3-612c9b0da5a4","system_id":"levelo_inurba_marseille","lat":43.25827,"lon":5.39434,"is_reserved":false,"is_disabled":false,"rental_uris":{"android":"levelo://app?vid=93af468c-1321-4d4c-99c3-612c9b0da5a4","ios":"levelo://app?vid=93af468c-1321-4d4c-99c3-612c9b0da5a4"},"vehicle_type_id":"4","last_reported":1727208574,"current_range_meters":10800,"station_id":"ce4bhip2rcd13ifvqft0","pricing_plan_id":"cebpf4jnsgd1na2vs0mg"},{"bike_id":"56e09c0d-6561-47f0-bc6d-de1acf9d08a7","system_id":"levelo_inurba_marseille","lat":43.27002,"lon":5.391365,"is_reserved":false,"is_disabled":false,"rental_uris":{"android":"levelo://app?vid=56e09c0d-6561-47f0-bc6d-de1acf9d08a7","ios":"levelo://app?vid=56e09c0d-6561-47f0-bc6d-de1acf9d08a7"},"vehicle_type_id":"4","last_reported":1727208574,"current_range_meters":14000,"station_id":"ce4bhhh2rcd13ifvqfl0","pricing_plan_id":"cebpf4jnsgd1na2vs0mg"},{"bike_id":"c8263e26-6afb-452f-9e7f-42c3f515c9fa","system_id":"levelo_inurba_marseille","lat":43.29263,"lon":5.40903,"is_reserved":false,"is_disabled":false,"rental_uris":{"android":"levelo://app?vid=c8263e26-6afb-452f-9e7f-42c3f515c9fa","ios":"levelo://app?vid=c8263e26-6afb-452f-9e7f-42c3f515c9fa"},"vehicle_type_id":"4","last_reported":1727208574,"current_range_meters":36800,"station_id":"ce4bh192rcd13ifvqdc0","pricing_plan_id":"cebpf4jnsgd1na2vs0mg"},{"bike_id":"9e8a6286-2aa6-4c4f-837d-ef22b57ca874","system_id":"levelo_inurba_marseille","lat":43.24082,"lon":5.37756,"is_reserved":false,"is_disabled":false,"rental_uris":{"android":"levelo://app?vid=9e8a6286-2aa6-4c4f-837d-ef22b57ca874","ios":"levelo://app?vid=9e8a6286-2aa6-4c4f-837d-ef22b57ca874"},"vehicle_type_id":"4","last_reported":1727208574,"current_range_meters":27200,"station_id":"ce4bhnp2rcd13ifvqgvg","pricing_plan_id":"cebpf4jnsgd1na2vs0mg"},{"bike_id":"f2d3a346-9600-4f43-b76b-2b4ec5e8d36a","system_id":"levelo_inurba_marseille","lat":43.24668,"lon":5.38169,"is_reserved":false,"is_disabled":false,"rental_uris":{"android":"levelo://app?vid=f2d3a346-9600-4f43-b76b-2b4ec5e8d36a","ios":"levelo://app?vid=f2d3a346-9600-4f43-b76b-2b4ec5e8d36a"},"vehicle_type_id":"4","last_reported":1727208574,"current_range_meters":31200,"station_id":"ce4bhih2rcd13ifvqfr0","pricing_plan_id":"cebpf4jnsgd1na2vs0mg"},{"bike_id":"f8c704cc-636c-4268-80af-5309e4b09904","system_id":"levelo_inurba_marseille","lat":43.24184,"lon":5.39735,"is_reserved":false,"is_disabled":false,"rental_uris":{"android":"levelo://app?vid=f8c704cc-636c-4268-80af-5309e4b09904","ios":"levelo://app?vid=f8c704cc-636c-4268-80af-5309e4b09904"},"vehicle_type_id":"4","last_reported":1727208574,"current_range_meters":36400,"station_id":"ce4bhn12rcd13ifvqgpg","pricing_plan_id":"cebpf4jnsgd1na2vs0mg"},{"bike_id":"8db4eeae-90dc-450b-8149-34b6ce69b1f8","system_id":"levelo_inurba_marseille","lat":43.23182,"lon":5.39991,"is_reserved":false,"is_disabled":false,"rental_uris":{"android":"levelo://app?vid=8db4eeae-90dc-450b-8149-34b6ce69b1f8","ios":"levelo://app?vid=8db4eeae-90dc-450b-8149-34b6ce69b1f8"},"vehicle_type_id":"4","last_reported":1727208574,"current_range_meters":30000,"station_id":"ce4bhn12rcd13ifvqgqg","pricing_plan_id":"cebpf4jnsgd1na2vs0mg"},{"bike_id":"20bdd43a-fb86-4a6a-8151-53f794460f1a","system_id":"levelo_inurba_marseille","lat":43.28405,"lon":5.37515,"is_reserved":false,"is_disabled":false,"rental_uris":{"android":"levelo://app?vid=20bdd43a-fb86-4a6a-8151-53f794460f1a","ios":"levelo://app?vid=20bdd43a-fb86-4a6a-8151-53f794460f1a"},"vehicle_type_id":"4","last_reported":1727208574,"current_range_meters":16000,"station_id":"ce4bh412rcd13ifvqds0","pricing_plan_id":"cebpf4jnsgd1na2vs0mg"},{"bike_id":"2b53c05c-7e74-451c-9f0a-5f217febdc56","system_id":"levelo_inurba_marseille","lat":43.30143,"lon":5.37711,"is_reserved":false,"is_disabled":false,"rental_uris":{"android":"levelo://app?vid=2b53c05c-7e74-451c-9f0a-5f217febdc56","ios":"levelo://app?vid=2b53c05c-7e74-451c-9f0a-5f217febdc56"},"vehicle_type_id":"4","last_reported":1727208574,"current_range_meters":6800,"station_id":"","pricing_plan_id":"cebpf4jnsgd1na2vs0mg"},{"bike_id":"7a8458d5-44ac-4f2e-abef-3f01eb31f7ca","system_id":"levelo_inurba_marseille","lat":43.337444,"lon":5.374475,"is_reserved":false,"is_disabled":false,"rental_uris":{"android":"levelo://app?vid=7a8458d5-44ac-4f2e-abef-3f01eb31f7ca","ios":"levelo://app?vid=7a8458d5-44ac-4f2e-abef-3f01eb31f7ca"},"vehicle_type_id":"4","last_reported":1727208574,"current_range_meters":28400,"station_id":"","pricing_plan_id":"cebpf4jnsgd1na2vs0mg"},{"bike_id":"05314f5d-f9da-40e1-bd3c-7614e7939bbc","system_id":"levelo_inurba_marseille","lat":43.2966,"lon":5.3729,"is_reserved":false,"is_disabled":false,"rental_uris":{"android":"levelo://app?vid=05314f5d-f9da-40e1-bd3c-7614e7939bbc","ios":"levelo://app?vid=05314f5d-f9da-40e1-bd3c-7614e7939bbc"},"vehicle_type_id":"4","last_reported":1727208574,"current_range_meters":38800,"station_id":"ce4bgk12rcd13ifvqbj0","pricing_plan_id":"cebpf4jnsgd1na2vs0mg"},{"bike_id":"c9b5ec6f-9235-414f-8086-a847b21c71d9","system_id":"levelo_inurba_marseille","lat":43.32,"lon":5.38142,"is_reserved":false,"is_disabled":false,"rental_uris":{"android":"levelo://app?vid=c9b5ec6f-9235-414f-8086-a847b21c71d9","ios":"levelo://app?vid=c9b5ec6f-9235-414f-8086-a847b21c71d9"},"vehicle_type_id":"4","last_reported":1727208574,"current_range_meters":40000,"station_id":"ce4bhr12rcd13ifvqhpg","pricing_plan_id":"cebpf4jnsgd1na2vs0mg"},{"bike_id":"a1f389dd-bb24-412b-85a7-c4163f3337bb","system_id":"levelo_inurba_marseille","lat":43.31755,"lon":5.39021,"is_reserved":false,"is_disabled":false,"rental_uris":{"android":"levelo://app?vid=a1f389dd-bb24-412b-85a7-c4163f3337bb","ios":"levelo://app?vid=a1f389dd-bb24-412b-85a7-c4163f3337bb"},"vehicle_type_id":"4","last_reported":1727208574,"current_range_meters":31200,"station_id":"ce4bhqp2rcd13ifvqhng","pricing_plan_id":"cebpf4jnsgd1na2vs0mg"},{"bike_id":"b2e1f55f-18ac-4641-9ef2-c7977cd7c25d","system_id":"levelo_inurba_marseille","lat":43.28,"lon":5.40005,"is_reserved":false,"is_disabled":false,"rental_uris":{"android":"levelo://app?vid=b2e1f55f-18ac-4641-9ef2-c7977cd7c25d","ios":"levelo://app?vid=b2e1f55f-18ac-4641-9ef2-c7977cd7c25d"},"vehicle_type_id":"4","last_reported":1727208574,"current_range_meters":38800,"station_id":"ce4bho92rcd13ifvqh4g","pricing_plan_id":"cebpf4jnsgd1na2vs0mg"},{"bike_id":"71ba5fb9-1496-4785-9613-b772b0b69168","system_id":"levelo_inurba_marseille","lat":43.28858,"lon":5.39312,"is_reserved":false,"is_disabled":false,"rental_uris":{"android":"levelo://app?vid=71ba5fb9-1496-4785-9613-b772b0b69168","ios":"levelo://app?vid=71ba5fb9-1496-4785-9613-b772b0b69168"},"vehicle_type_id":"4","last_reported":1727208574,"current_range_meters":16000,"station_id":"ce4bh2p2rcd13ifvqdi0","pricing_plan_id":"cebpf4jnsgd1na2vs0mg"},{"bike_id":"4628adaa-a8b2-423a-91e1-6faa5c881c75","system_id":"levelo_inurba_marseille","lat":43.27945,"lon":5.41046,"is_reserved":false,"is_disabled":false,"rental_uris":{"android":"levelo://app?vid=4628adaa-a8b2-423a-91e1-6faa5c881c75","ios":"levelo://app?vid=4628adaa-a8b2-423a-91e1-6faa5c881c75"},"vehicle_type_id":"4","last_reported":1727208574,"current_range_meters":38800,"station_id":"ce4bhnp2rcd13ifvqh0g","pricing_plan_id":"cebpf4jnsgd1na2vs0mg"},{"bike_id":"0187dbe4-866c-4031-9cbb-94cdd92f6a82","system_id":"levelo_inurba_marseille","lat":43.29258,"lon":5.36662,"is_reserved":false,"is_disabled":false,"rental_uris":{"android":"levelo://app?vid=0187dbe4-866c-4031-9cbb-94cdd92f6a82","ios":"levelo://app?vid=0187dbe4-866c-4031-9cbb-94cdd92f6a82"},"vehicle_type_id":"4","last_reported":1727208574,"current_range_meters":3200,"station_id":"","pricing_plan_id":"cebpf4jnsgd1na2vs0mg"},{"bike_id":"c5ecba3d-c94f-4f0d-915a-0163562eb754","system_id":"levelo_inurba_marseille","lat":43.28,"lon":5.40014,"is_reserved":false,"is_disabled":false,"rental_uris":{"android":"levelo://app?vid=c5ecba3d-c94f-4f0d-915a-0163562eb754","ios":"levelo://app?vid=c5ecba3d-c94f-4f0d-915a-0163562eb754"},"vehicle_type_id":"4","last_reported":1727208574,"current_range_meters":18800,"station_id":"ce4bho92rcd13ifvqh4g","pricing_plan_id":"cebpf4jnsgd1na2vs0mg"},{"bike_id":"195e040e-9409-49d3-9dd3-bcac34d34007","system_id":"levelo_inurba_marseille","lat":43.22933,"lon":5.35378,"is_reserved":false,"is_disabled":false,"rental_uris":{"android":"levelo://app?vid=195e040e-9409-49d3-9dd3-bcac34d34007","ios":"levelo://app?vid=195e040e-9409-49d3-9dd3-bcac34d34007"},"vehicle_type_id":"4","last_reported":1727208574,"current_range_meters":17200,"station_id":"cpo3532slgdg3j2ikp40","pricing_plan_id":"cebpf4jnsgd1na2vs0mg"},{"bike_id":"cefb6643-fc89-4b04-b95f-6cff2759399c","system_id":"levelo_inurba_marseille","lat":43.32297,"lon":5.3828,"is_reserved":false,"is_disabled":false,"rental_uris":{"android":"levelo://app?vid=cefb6643-fc89-4b04-b95f-6cff2759399c","ios":"levelo://app?vid=cefb6643-fc89-4b04-b95f-6cff2759399c"},"vehicle_type_id":"4","last_reported":1727208574,"current_range_meters":40000,"station_id":"ce4bhr12rcd13ifvqhqg","pricing_plan_id":"cebpf4jnsgd1na2vs0mg"},{"bike_id":"30d0f976-3493-4292-92f2-234cb6fef603","system_id":"levelo_inurba_marseille","lat":43.28694,"lon":5.37383,"is_reserved":false,"is_disabled":false,"rental_uris":{"android":"levelo://app?vid=30d0f976-3493-4292-92f2-234cb6fef603","ios":"levelo://app?vid=30d0f976-3493-4292-92f2-234cb6fef603"},"vehicle_type_id":"4","last_reported":1727208574,"current_range_meters":38400,"station_id":"ce4bh3p2rcd13ifvqdq0","pricing_plan_id":"cebpf4jnsgd1na2vs0mg"},{"bike_id":"ea013da4-760b-4727-b2ed-c93469119c99","system_id":"levelo_inurba_marseille","lat":43.29555,"lon":5.42285,"is_reserved":false,"is_disabled":false,"rental_uris":{"android":"levelo://app?vid=ea013da4-760b-4727-b2ed-c93469119c99","ios":"levelo://app?vid=ea013da4-760b-4727-b2ed-c93469119c99"},"vehicle_type_id":"4","last_reported":1727208574,"current_range_meters":6000,"station_id":"ce4bhph2rcd13ifvqhdg","pricing_plan_id":"cebpf4jnsgd1na2vs0mg"},{"bike_id":"686884dc-57d0-4edc-aaf7-3f92938a69f6","system_id":"levelo_inurba_marseille","lat":43.27999,"lon":5.40013,"is_reserved":false,"is_disabled":false,"rental_uris":{"android":"levelo://app?vid=686884dc-57d0-4edc-aaf7-3f92938a69f6","ios":"levelo://app?vid=686884dc-57d0-4edc-aaf7-3f92938a69f6"},"vehicle_type_id":"4","last_reported":1727208574,"current_range_meters":14400,"station_id":"ce4bho92rcd13ifvqh4g","pricing_plan_id":"cebpf4jnsgd1na2vs0mg"},{"bike_id":"683f833b-acfe-4dae-91f7-d9ab7a6c472e","system_id":"levelo_inurba_marseille","lat":43.33022,"lon":5.39051,"is_reserved":false,"is_disabled":false,"rental_uris":{"android":"levelo://app?vid=683f833b-acfe-4dae-91f7-d9ab7a6c472e","ios":"levelo://app?vid=683f833b-acfe-4dae-91f7-d9ab7a6c472e"},"vehicle_type_id":"4","last_reported":1727208574,"current_range_meters":39200,"station_id":"ce4bhr92rcd13ifvqhrg","pricing_plan_id":"cebpf4jnsgd1na2vs0mg"},{"bike_id":"2d4d7a57-fc8d-40a8-a37f-8d0279400743","system_id":"levelo_inurba_marseille","lat":43.24668,"lon":5.38164,"is_reserved":false,"is_disabled":false,"rental_uris":{"android":"levelo://app?vid=2d4d7a57-fc8d-40a8-a37f-8d0279400743","ios":"levelo://app?vid=2d4d7a57-fc8d-40a8-a37f-8d0279400743"},"vehicle_type_id":"4","last_reported":1727208574,"current_range_meters":38000,"station_id":"ce4bhih2rcd13ifvqfr0","pricing_plan_id":"cebpf4jnsgd1na2vs0mg"},{"bike_id":"4b15922f-83f6-4b5a-aa5a-91c95d6336f1","system_id":"levelo_inurba_marseille","lat":43.286469,"lon":5.363787,"is_reserved":false,"is_disabled":false,"rental_uris":{"android":"levelo://app?vid=4b15922f-83f6-4b5a-aa5a-91c95d6336f1","ios":"levelo://app?vid=4b15922f-83f6-4b5a-aa5a-91c95d6336f1"},"vehicle_type_id":"4","last_reported":1727208574,"current_range_meters":4800,"station_id":"ce4bhah2rcd13ifvqei0","pricing_plan_id":"cebpf4jnsgd1na2vs0mg"},{"bike_id":"2da24b92-3734-492c-9a6c-8b09da92c194","system_id":"levelo_inurba_marseille","lat":43.337444,"lon":5.374475,"is_reserved":false,"is_disabled":false,"rental_uris":{"android":"levelo://app?vid=2da24b92-3734-492c-9a6c-8b09da92c194","ios":"levelo://app?vid=2da24b92-3734-492c-9a6c-8b09da92c194"},"vehicle_type_id":"4","last_reported":1727208574,"current_range_meters":24800,"station_id":"","pricing_plan_id":"cebpf4jnsgd1na2vs0mg"},{"bike_id":"39af98d0-adf0-4182-b86c-567613ebbe09","system_id":"levelo_inurba_marseille","lat":43.31719,"lon":5.43716,"is_reserved":false,"is_disabled":false,"rental_uris":{"android":"levelo://app?vid=39af98d0-adf0-4182-b86c-567613ebbe09","ios":"levelo://app?vid=39af98d0-adf0-4182-b86c-567613ebbe09"},"vehicle_type_id":"4","last_reported":1727208574,"current_range_meters":8400,"station_id":"ce4bhp92rcd13ifvqhcg","pricing_plan_id":"cebpf4jnsgd1na2vs0mg"},{"bike_id":"9ea220b7-6b05-4ef2-9b89-2af19c38ee78","system_id":"levelo_inurba_marseille","lat":43.27374,"lon":5.36266,"is_reserved":false,"is_disabled":false,"rental_uris":{"android":"levelo://app?vid=9ea220b7-6b05-4ef2-9b89-2af19c38ee78","ios":"levelo://app?vid=9ea220b7-6b05-4ef2-9b89-2af19c38ee78"},"vehicle_type_id":"4","last_reported":1727208574,"current_range_meters":8000,"station_id":"ce4bhbh2rcd13ifvqeo0","pricing_plan_id":"cebpf4jnsgd1na2vs0mg"},{"bike_id":"bf33e3a0-d5d2-476b-93a3-f1ff3e7a52cf","system_id":"levelo_inurba_marseille","lat":43.298828,"lon":5.389112,"is_reserved":false,"is_disabled":false,"rental_uris":{"android":"levelo://app?vid=bf33e3a0-d5d2-476b-93a3-f1ff3e7a52cf","ios":"levelo://app?vid=bf33e3a0-d5d2-476b-93a3-f1ff3e7a52cf"},"vehicle_type_id":"4","last_reported":1727208574,"current_range_meters":4800,"station_id":"ce4bh392rcd13ifvqdl0","pricing_plan_id":"cebpf4jnsgd1na2vs0mg"},{"bike_id":"5655e961-dde7-4df9-bce3-446271a3c33e","system_id":"levelo_inurba_marseille","lat":43.27069,"lon":5.42281,"is_reserved":false,"is_disabled":false,"rental_uris":{"android":"levelo://app?vid=5655e961-dde7-4df9-bce3-446271a3c33e","ios":"levelo://app?vid=5655e961-dde7-4df9-bce3-446271a3c33e"},"vehicle_type_id":"4","last_reported":1727208574,"current_range_meters":38800,"station_id":"ce4bhk92rcd13ifvqgb0","pricing_plan_id":"cebpf4jnsgd1na2vs0mg"},{"bike_id":"979e1812-ea45-43b6-ac96-01d92a07cd39","system_id":"levelo_inurba_marseille","lat":43.26276,"lon":5.3967,"is_reserved":false,"is_disabled":false,"rental_uris":{"android":"levelo://app?vid=979e1812-ea45-43b6-ac96-01d92a07cd39","ios":"levelo://app?vid=979e1812-ea45-43b6-ac96-01d92a07cd39"},"vehicle_type_id":"4","last_reported":1727208574,"current_range_meters":3200,"station_id":"","pricing_plan_id":"cebpf4jnsgd1na2vs0mg"},{"bike_id":"f61740c6-cc03-47eb-8072-b4d8729e922f","system_id":"levelo_inurba_marseille","lat":43.31083,"lon":5.42431,"is_reserved":false,"is_disabled":false,"rental_uris":{"android":"levelo://app?vid=f61740c6-cc03-47eb-8072-b4d8729e922f","ios":"levelo://app?vid=f61740c6-cc03-47eb-8072-b4d8729e922f"},"vehicle_type_id":"4","last_reported":1727208574,"current_range_meters":4000,"station_id":"ce4bhp92rcd13ifvqhag","pricing_plan_id":"cebpf4jnsgd1na2vs0mg"},{"bike_id":"274a8479-fc4f-4f02-b489-5f504fe68cd0","system_id":"levelo_inurba_marseille","lat":43.25502,"lon":5.37654,"is_reserved":false,"is_disabled":false,"rental_uris":{"android":"levelo://app?vid=274a8479-fc4f-4f02-b489-5f504fe68cd0","ios":"levelo://app?vid=274a8479-fc4f-4f02-b489-5f504fe68cd0"},"vehicle_type_id":"4","last_reported":1727208574,"current_range_meters":9200,"station_id":"ce4bhh12rcd13ifvqff0","pricing_plan_id":"cebpf4jnsgd1na2vs0mg"},{"bike_id":"ac0019e9-ee5b-4377-95bc-765dea66f357","system_id":"levelo_inurba_marseille","lat":43.2798,"lon":5.41663,"is_reserved":false,"is_disabled":false,"rental_uris":{"android":"levelo://app?vid=ac0019e9-ee5b-4377-95bc-765dea66f357","ios":"levelo://app?vid=ac0019e9-ee5b-4377-95bc-765dea66f357"},"vehicle_type_id":"4","last_reported":1727208574,"current_range_meters":38800,"station_id":"ce4bho12rcd13ifvqh1g","pricing_plan_id":"cebpf4jnsgd1na2vs0mg"},{"bike_id":"ecb70881-b110-48a8-b751-24b4690d4031","system_id":"levelo_inurba_marseille","lat":43.23177,"lon":5.39984,"is_reserved":false,"is_disabled":false,"rental_uris":{"android":"levelo://app?vid=ecb70881-b110-48a8-b751-24b4690d4031","ios":"levelo://app?vid=ecb70881-b110-48a8-b751-24b4690d4031"},"vehicle_type_id":"4","last_reported":1727208574,"current_range_meters":10000,"station_id":"ce4bhn12rcd13ifvqgqg","pricing_plan_id":"cebpf4jnsgd1na2vs0mg"},{"bike_id":"d84e9818-d585-45e3-b58c-b7a1c2eb0e6c","system_id":"levelo_inurba_marseille","lat":43.30889,"lon":5.39655,"is_reserved":false,"is_disabled":false,"rental_uris":{"android":"levelo://app?vid=d84e9818-d585-45e3-b58c-b7a1c2eb0e6c","ios":"levelo://app?vid=d84e9818-d585-45e3-b58c-b7a1c2eb0e6c"},"vehicle_type_id":"4","last_reported":1727208574,"current_range_meters":8800,"station_id":"ce4bh012rcd13ifvqcv0","pricing_plan_id":"cebpf4jnsgd1na2vs0mg"},{"bike_id":"25bd7405-be80-4a77-a761-8a1efed52652","system_id":"levelo_inurba_marseille","lat":43.299,"lon":5.43669,"is_reserved":false,"is_disabled":false,"rental_uris":{"android":"levelo://app?vid=25bd7405-be80-4a77-a761-8a1efed52652","ios":"levelo://app?vid=25bd7405-be80-4a77-a761-8a1efed52652"},"vehicle_type_id":"4","last_reported":1727208574,"current_range_meters":40000,"station_id":"ce4bhpp2rcd13ifvqhfg","pricing_plan_id":"cebpf4jnsgd1na2vs0mg"},{"bike_id":"2fe2c0de-08ff-45d0-a649-6b26bff02b66","system_id":"levelo_inurba_marseille","lat":43.28088,"lon":5.39666,"is_reserved":false,"is_disabled":false,"rental_uris":{"android":"levelo://app?vid=2fe2c0de-08ff-45d0-a649-6b26bff02b66","ios":"levelo://app?vid=2fe2c0de-08ff-45d0-a649-6b26bff02b66"},"vehicle_type_id":"4","last_reported":1727208574,"current_range_meters":38000,"station_id":"ce4bho12rcd13ifvqh2g","pricing_plan_id":"cebpf4jnsgd1na2vs0mg"},{"bike_id":"11c4f5be-b465-471a-b3d0-dbbc3061010b","system_id":"levelo_inurba_marseille","lat":43.30801,"lon":5.43526,"is_reserved":false,"is_disabled":false,"rental_uris":{"android":"levelo://app?vid=11c4f5be-b465-471a-b3d0-dbbc3061010b","ios":"levelo://app?vid=11c4f5be-b465-471a-b3d0-dbbc3061010b"},"vehicle_type_id":"4","last_reported":1727208574,"current_range_meters":22000,"station_id":"ce4bhph2rcd13ifvqheg","pricing_plan_id":"cebpf4jnsgd1na2vs0mg"},{"bike_id":"f261a130-3f4b-4826-85e0-6b1ab7fbb1f8","system_id":"levelo_inurba_marseille","lat":43.23964,"lon":5.3663,"is_reserved":false,"is_disabled":false,"rental_uris":{"android":"levelo://app?vid=f261a130-3f4b-4826-85e0-6b1ab7fbb1f8","ios":"levelo://app?vid=f261a130-3f4b-4826-85e0-6b1ab7fbb1f8"},"vehicle_type_id":"4","last_reported":1727208574,"current_range_meters":4000,"station_id":"ce4bhi12rcd13ifvqfp0","pricing_plan_id":"cebpf4jnsgd1na2vs0mg"},{"bike_id":"162ee78d-83e3-4081-92bd-328649d7b4ba","system_id":"levelo_inurba_marseille","lat":43.31762,"lon":5.39017,"is_reserved":false,"is_disabled":false,"rental_uris":{"android":"levelo://app?vid=162ee78d-83e3-4081-92bd-328649d7b4ba","ios":"levelo://app?vid=162ee78d-83e3-4081-92bd-328649d7b4ba"},"vehicle_type_id":"4","last_reported":1727208574,"current_range_meters":10800,"station_id":"ce4bhqp2rcd13ifvqhng","pricing_plan_id":"cebpf4jnsgd1na2vs0mg"},{"bike_id":"fc6f5257-4c03-46ff-9349-d25458e3f4b1","system_id":"levelo_inurba_marseille","lat":43.299677,"lon":5.384887,"is_reserved":false,"is_disabled":false,"rental_uris":{"android":"levelo://app?vid=fc6f5257-4c03-46ff-9349-d25458e3f4b1","ios":"levelo://app?vid=fc6f5257-4c03-46ff-9349-d25458e3f4b1"},"vehicle_type_id":"4","last_reported":1727208574,"current_range_meters":6400,"station_id":"ce4bh392rcd13ifvqdm0","pricing_plan_id":"cebpf4jnsgd1na2vs0mg"},{"bike_id":"c7ef48a1-c091-4bd1-8005-cb0f802fe2ef","system_id":"levelo_inurba_marseille","lat":43.28665,"lon":5.36354,"is_reserved":false,"is_disabled":false,"rental_uris":{"android":"levelo://app?vid=c7ef48a1-c091-4bd1-8005-cb0f802fe2ef","ios":"levelo://app?vid=c7ef48a1-c091-4bd1-8005-cb0f802fe2ef"},"vehicle_type_id":"4","last_reported":1727208574,"current_range_meters":33600,"station_id":"ce4bhah2rcd13ifvqej0","pricing_plan_id":"cebpf4jnsgd1na2vs0mg"},{"bike_id":"eea2cd5a-ea70-49e4-b38f-c464fb6c5cc3","system_id":"levelo_inurba_marseille","lat":43.337444,"lon":5.374475,"is_reserved":false,"is_disabled":false,"rental_uris":{"android":"levelo://app?vid=eea2cd5a-ea70-49e4-b38f-c464fb6c5cc3","ios":"levelo://app?vid=eea2cd5a-ea70-49e4-b38f-c464fb6c5cc3"},"vehicle_type_id":"4","last_reported":1727208574,"current_range_meters":33200,"station_id":"","pricing_plan_id":"cebpf4jnsgd1na2vs0mg"},{"bike_id":"f15d7f0d-9746-41a3-ae37-4556e528b0dd","system_id":"levelo_inurba_marseille","lat":43.27998,"lon":5.40016,"is_reserved":false,"is_disabled":false,"rental_uris":{"android":"levelo://app?vid=f15d7f0d-9746-41a3-ae37-4556e528b0dd","ios":"levelo://app?vid=f15d7f0d-9746-41a3-ae37-4556e528b0dd"},"vehicle_type_id":"4","last_reported":1727208574,"current_range_meters":10800,"station_id":"ce4bho92rcd13ifvqh4g","pricing_plan_id":"cebpf4jnsgd1na2vs0mg"},{"bike_id":"87219a8f-0882-4b10-b887-bde676d43338","system_id":"levelo_inurba_marseille","lat":43.31324,"lon":5.39696,"is_reserved":false,"is_disabled":false,"rental_uris":{"android":"levelo://app?vid=87219a8f-0882-4b10-b887-bde676d43338","ios":"levelo://app?vid=87219a8f-0882-4b10-b887-bde676d43338"},"vehicle_type_id":"4","last_reported":1727208574,"current_range_meters":8400,"station_id":"ce4bgvp2rcd13ifvqcu0","pricing_plan_id":"cebpf4jnsgd1na2vs0mg"},{"bike_id":"9a956495-97f1-4caa-a970-dab6d313b018","system_id":"levelo_inurba_marseille","lat":43.28663,"lon":5.36354,"is_reserved":false,"is_disabled":false,"rental_uris":{"android":"levelo://app?vid=9a956495-97f1-4caa-a970-dab6d313b018","ios":"levelo://app?vid=9a956495-97f1-4caa-a970-dab6d313b018"},"vehicle_type_id":"4","last_reported":1727208574,"current_range_meters":10800,"station_id":"ce4bhah2rcd13ifvqej0","pricing_plan_id":"cebpf4jnsgd1na2vs0mg"},{"bike_id":"e004bab5-057a-4be5-969c-f89cdfc64db5","system_id":"levelo_inurba_marseille","lat":43.28494,"lon":5.38561,"is_reserved":false,"is_disabled":false,"rental_uris":{"android":"levelo://app?vid=e004bab5-057a-4be5-969c-f89cdfc64db5","ios":"levelo://app?vid=e004bab5-057a-4be5-969c-f89cdfc64db5"},"vehicle_type_id":"4","last_reported":1727208574,"current_range_meters":35600,"station_id":"ce4bh292rcd13ifvqdg0","pricing_plan_id":"cebpf4jnsgd1na2vs0mg"},{"bike_id":"a1b199c4-ec31-42f9-94ef-5cd98c464a07","system_id":"levelo_inurba_marseille","lat":43.31076,"lon":5.38357,"is_reserved":false,"is_disabled":false,"rental_uris":{"android":"levelo://app?vid=a1b199c4-ec31-42f9-94ef-5cd98c464a07","ios":"levelo://app?vid=a1b199c4-ec31-42f9-94ef-5cd98c464a07"},"vehicle_type_id":"4","last_reported":1727208574,"current_range_meters":32000,"station_id":"ce4bgv92rcd13ifvqcr0","pricing_plan_id":"cebpf4jnsgd1na2vs0mg"},{"bike_id":"e5accd9d-24b1-48a2-85dd-636c889e71c1","system_id":"levelo_inurba_marseille","lat":43.31533,"lon":5.38033,"is_reserved":false,"is_disabled":false,"rental_uris":{"android":"levelo://app?vid=e5accd9d-24b1-48a2-85dd-636c889e71c1","ios":"levelo://app?vid=e5accd9d-24b1-48a2-85dd-636c889e71c1"},"vehicle_type_id":"4","last_reported":1727208574,"current_range_meters":8800,"station_id":"ce4bhsp2rcd13ifvqi50","pricing_plan_id":"cebpf4jnsgd1na2vs0mg"},{"bike_id":"9b3dcb6a-1ca3-4c66-8eb0-cfe8b976eeeb","system_id":"levelo_inurba_marseille","lat":43.30185,"lon":5.36602,"is_reserved":false,"is_disabled":false,"rental_uris":{"android":"levelo://app?vid=9b3dcb6a-1ca3-4c66-8eb0-cfe8b976eeeb","ios":"levelo://app?vid=9b3dcb6a-1ca3-4c66-8eb0-cfe8b976eeeb"},"vehicle_type_id":"4","last_reported":1727208574,"current_range_meters":8400,"station_id":"ce4bgrh2rcd13ifvqc8g","pricing_plan_id":"cebpf4jnsgd1na2vs0mg"},{"bike_id":"dc7d00c9-8a3b-4e5f-b749-a2653cc854fb","system_id":"levelo_inurba_marseille","lat":43.31528,"lon":5.38037,"is_reserved":false,"is_disabled":false,"rental_uris":{"android":"levelo://app?vid=dc7d00c9-8a3b-4e5f-b749-a2653cc854fb","ios":"levelo://app?vid=dc7d00c9-8a3b-4e5f-b749-a2653cc854fb"},"vehicle_type_id":"4","last_reported":1727208574,"current_range_meters":9200,"station_id":"ce4bhsp2rcd13ifvqi50","pricing_plan_id":"cebpf4jnsgd1na2vs0mg"},{"bike_id":"1802deb5-1c46-4f67-afa3-157e0fdc0220","system_id":"levelo_inurba_marseille","lat":43.27811,"lon":5.40721,"is_reserved":false,"is_disabled":false,"rental_uris":{"android":"levelo://app?vid=1802deb5-1c46-4f67-afa3-157e0fdc0220","ios":"levelo://app?vid=1802deb5-1c46-4f67-afa3-157e0fdc0220"},"vehicle_type_id":"4","last_reported":1727208574,"current_range_meters":27600,"station_id":"ce4bhnh2rcd13ifvqgtg","pricing_plan_id":"cebpf4jnsgd1na2vs0mg"},{"bike_id":"9b16639c-13f3-4ecd-b643-c302766d7411","system_id":"levelo_inurba_marseille","lat":43.28613,"lon":5.35107,"is_reserved":false,"is_disabled":false,"rental_uris":{"android":"levelo://app?vid=9b16639c-13f3-4ecd-b643-c302766d7411","ios":"levelo://app?vid=9b16639c-13f3-4ecd-b643-c302766d7411"},"vehicle_type_id":"4","last_reported":1727208574,"current_range_meters":6400,"station_id":"ce4bhch2rcd13ifvqeug","pricing_plan_id":"cebpf4jnsgd1na2vs0mg"},{"bike_id":"00b08c15-619d-4adf-bba7-3321c8ef248f","system_id":"levelo_inurba_marseille","lat":43.31341,"lon":5.36729,"is_reserved":false,"is_disabled":false,"rental_uris":{"android":"levelo://app?vid=00b08c15-619d-4adf-bba7-3321c8ef248f","ios":"levelo://app?vid=00b08c15-619d-4adf-bba7-3321c8ef248f"},"vehicle_type_id":"4","last_reported":1727208574,"current_range_meters":28800,"station_id":"ce4bgr92rcd13ifvqc6g","pricing_plan_id":"cebpf4jnsgd1na2vs0mg"},{"bike_id":"42d5d473-cbe3-48ca-80c2-955f913be504","system_id":"levelo_inurba_marseille","lat":43.284454,"lon":5.383256,"is_reserved":false,"is_disabled":false,"rental_uris":{"android":"levelo://app?vid=42d5d473-cbe3-48ca-80c2-955f913be504","ios":"levelo://app?vid=42d5d473-cbe3-48ca-80c2-955f913be504"},"vehicle_type_id":"4","last_reported":1727208574,"current_range_meters":16800,"station_id":"ce4bh512rcd13ifvqe3g","pricing_plan_id":"cebpf4jnsgd1na2vs0mg"},{"bike_id":"8b33efa4-2207-4032-aa38-4e145e88ec62","system_id":"levelo_inurba_marseille","lat":43.28404,"lon":5.37528,"is_reserved":false,"is_disabled":false,"rental_uris":{"android":"levelo://app?vid=8b33efa4-2207-4032-aa38-4e145e88ec62","ios":"levelo://app?vid=8b33efa4-2207-4032-aa38-4e145e88ec62"},"vehicle_type_id":"4","last_reported":1727208574,"current_range_meters":37600,"station_id":"ce4bh412rcd13ifvqds0","pricing_plan_id":"cebpf4jnsgd1na2vs0mg"},{"bike_id":"b54d34dd-3f0a-4e0a-974b-0354f308b2b4","system_id":"levelo_inurba_marseille","lat":43.29006,"lon":5.35609,"is_reserved":false,"is_disabled":false,"rental_uris":{"android":"levelo://app?vid=b54d34dd-3f0a-4e0a-974b-0354f308b2b4","ios":"levelo://app?vid=b54d34dd-3f0a-4e0a-974b-0354f308b2b4"},"vehicle_type_id":"4","last_reported":1727208574,"current_range_meters":38000,"station_id":"ce4bhb92rcd13ifvqen0","pricing_plan_id":"cebpf4jnsgd1na2vs0mg"},{"bike_id":"5ce5cff3-401f-4c5d-9c44-a85fbd62b68a","system_id":"levelo_inurba_marseille","lat":43.2396,"lon":5.3664,"is_reserved":false,"is_disabled":false,"rental_uris":{"android":"levelo://app?vid=5ce5cff3-401f-4c5d-9c44-a85fbd62b68a","ios":"levelo://app?vid=5ce5cff3-401f-4c5d-9c44-a85fbd62b68a"},"vehicle_type_id":"4","last_reported":1727208574,"current_range_meters":10800,"station_id":"ce4bhi12rcd13ifvqfp0","pricing_plan_id":"cebpf4jnsgd1na2vs0mg"},{"bike_id":"be4a37d3-db39-4962-8390-403acad4b3ed","system_id":"levelo_inurba_marseille","lat":43.28001,"lon":5.40021,"is_reserved":false,"is_disabled":false,"rental_uris":{"android":"levelo://app?vid=be4a37d3-db39-4962-8390-403acad4b3ed","ios":"levelo://app?vid=be4a37d3-db39-4962-8390-403acad4b3ed"},"vehicle_type_id":"4","last_reported":1727208574,"current_range_meters":38800,"station_id":"ce4bho92rcd13ifvqh4g","pricing_plan_id":"cebpf4jnsgd1na2vs0mg"},{"bike_id":"ca94193f-47c8-446f-bb0e-7d77c7815366","system_id":"levelo_inurba_marseille","lat":43.2407,"lon":5.37763,"is_reserved":false,"is_disabled":false,"rental_uris":{"android":"levelo://app?vid=ca94193f-47c8-446f-bb0e-7d77c7815366","ios":"levelo://app?vid=ca94193f-47c8-446f-bb0e-7d77c7815366"},"vehicle_type_id":"4","last_reported":1727208574,"current_range_meters":18800,"station_id":"ce4bhnp2rcd13ifvqgvg","pricing_plan_id":"cebpf4jnsgd1na2vs0mg"},{"bike_id":"777de7c9-9ae5-4dc2-8883-0ef2ad725542","system_id":"levelo_inurba_marseille","lat":43.290493,"lon":5.399565,"is_reserved":false,"is_disabled":false,"rental_uris":{"android":"levelo://app?vid=777de7c9-9ae5-4dc2-8883-0ef2ad725542","ios":"levelo://app?vid=777de7c9-9ae5-4dc2-8883-0ef2ad725542"},"vehicle_type_id":"4","last_reported":1727208574,"current_range_meters":14400,"station_id":"ce4bh392rcd13ifvqdm0","pricing_plan_id":"cebpf4jnsgd1na2vs0mg"},{"bike_id":"92a51bd3-8269-4bb1-952d-f852f89a4345","system_id":"levelo_inurba_marseille","lat":43.2903,"lon":5.38631,"is_reserved":false,"is_disabled":false,"rental_uris":{"android":"levelo://app?vid=92a51bd3-8269-4bb1-952d-f852f89a4345","ios":"levelo://app?vid=92a51bd3-8269-4bb1-952d-f852f89a4345"},"vehicle_type_id":"4","last_reported":1727208574,"current_range_meters":28800,"station_id":"ce4bh4p2rcd13ifvqe0g","pricing_plan_id":"cebpf4jnsgd1na2vs0mg"},{"bike_id":"57757cf2-b971-443b-97a6-6c791a375948","system_id":"levelo_inurba_marseille","lat":43.28248,"lon":5.43035,"is_reserved":false,"is_disabled":false,"rental_uris":{"android":"levelo://app?vid=57757cf2-b971-443b-97a6-6c791a375948","ios":"levelo://app?vid=57757cf2-b971-443b-97a6-6c791a375948"},"vehicle_type_id":"4","last_reported":1727208574,"current_range_meters":26000,"station_id":"","pricing_plan_id":"cebpf4jnsgd1na2vs0mg"},{"bike_id":"5a65b933-414a-4ab8-87b8-fc7f4141d1b0","system_id":"levelo_inurba_marseille","lat":43.275407,"lon":5.360056,"is_reserved":false,"is_disabled":false,"rental_uris":{"android":"levelo://app?vid=5a65b933-414a-4ab8-87b8-fc7f4141d1b0","ios":"levelo://app?vid=5a65b933-414a-4ab8-87b8-fc7f4141d1b0"},"vehicle_type_id":"4","last_reported":1727208574,"current_range_meters":16800,"station_id":"ce4bgj92rcd13ifvqbe0","pricing_plan_id":"cebpf4jnsgd1na2vs0mg"},{"bike_id":"73e7f655-b2b9-4127-a50c-dc2251f994d0","system_id":"levelo_inurba_marseille","lat":43.2878,"lon":5.39698,"is_reserved":false,"is_disabled":false,"rental_uris":{"android":"levelo://app?vid=73e7f655-b2b9-4127-a50c-dc2251f994d0","ios":"levelo://app?vid=73e7f655-b2b9-4127-a50c-dc2251f994d0"},"vehicle_type_id":"4","last_reported":1727208574,"current_range_meters":38000,"station_id":"","pricing_plan_id":"cebpf4jnsgd1na2vs0mg"},{"bike_id":"a1f73000-0f37-4d5f-a596-bafafa1513e2","system_id":"levelo_inurba_marseille","lat":43.30814,"lon":5.38162,"is_reserved":false,"is_disabled":false,"rental_uris":{"android":"levelo://app?vid=a1f73000-0f37-4d5f-a596-bafafa1513e2","ios":"levelo://app?vid=a1f73000-0f37-4d5f-a596-bafafa1513e2"},"vehicle_type_id":"4","last_reported":1727208574,"current_range_meters":39200,"station_id":"ce4bgt12rcd13ifvqce0","pricing_plan_id":"cebpf4jnsgd1na2vs0mg"},{"bike_id":"28786443-08d6-4fc5-994a-ebfb705afe75","system_id":"levelo_inurba_marseille","lat":43.31272,"lon":5.4017,"is_reserved":false,"is_disabled":false,"rental_uris":{"android":"levelo://app?vid=28786443-08d6-4fc5-994a-ebfb705afe75","ios":"levelo://app?vid=28786443-08d6-4fc5-994a-ebfb705afe75"},"vehicle_type_id":"4","last_reported":1727208574,"current_range_meters":28000,"station_id":"ce4bh092rcd13ifvqd30","pricing_plan_id":"cebpf4jnsgd1na2vs0mg"},{"bike_id":"5459e5dd-02cf-41c0-a77a-9053bdc92a78","system_id":"levelo_inurba_marseille","lat":43.30798,"lon":5.43531,"is_reserved":false,"is_disabled":false,"rental_uris":{"android":"levelo://app?vid=5459e5dd-02cf-41c0-a77a-9053bdc92a78","ios":"levelo://app?vid=5459e5dd-02cf-41c0-a77a-9053bdc92a78"},"vehicle_type_id":"4","last_reported":1727208574,"current_range_meters":9200,"station_id":"ce4bhph2rcd13ifvqheg","pricing_plan_id":"cebpf4jnsgd1na2vs0mg"},{"bike_id":"903b3a32-cf42-4636-b222-2c5f6e870b71","system_id":"levelo_inurba_marseille","lat":43.29369,"lon":5.37847,"is_reserved":false,"is_disabled":false,"rental_uris":{"android":"levelo://app?vid=903b3a32-cf42-4636-b222-2c5f6e870b71","ios":"levelo://app?vid=903b3a32-cf42-4636-b222-2c5f6e870b71"},"vehicle_type_id":"4","last_reported":1727208574,"current_range_meters":4800,"station_id":"ce4bgjh2rcd13ifvqbf0","pricing_plan_id":"cebpf4jnsgd1na2vs0mg"},{"bike_id":"7df97af8-d240-4783-94a3-85219ca95c1b","system_id":"levelo_inurba_marseille","lat":43.2799,"lon":5.40011,"is_reserved":false,"is_disabled":false,"rental_uris":{"android":"levelo://app?vid=7df97af8-d240-4783-94a3-85219ca95c1b","ios":"levelo://app?vid=7df97af8-d240-4783-94a3-85219ca95c1b"},"vehicle_type_id":"4","last_reported":1727208574,"current_range_meters":38800,"station_id":"ce4bho92rcd13ifvqh4g","pricing_plan_id":"cebpf4jnsgd1na2vs0mg"},{"bike_id":"b32bfd54-dd6c-43b6-9c92-8cdbb88f840c","system_id":"levelo_inurba_marseille","lat":43.27991,"lon":5.40015,"is_reserved":false,"is_disabled":false,"rental_uris":{"android":"levelo://app?vid=b32bfd54-dd6c-43b6-9c92-8cdbb88f840c","ios":"levelo://app?vid=b32bfd54-dd6c-43b6-9c92-8cdbb88f840c"},"vehicle_type_id":"4","last_reported":1727208574,"current_range_meters":33200,"station_id":"ce4bho92rcd13ifvqh4g","pricing_plan_id":"cebpf4jnsgd1na2vs0mg"},{"bike_id":"9cc15ae9-cbfa-45b8-9292-9ab4b87f10d1","system_id":"levelo_inurba_marseille","lat":43.27379,"lon":5.36261,"is_reserved":false,"is_disabled":false,"rental_uris":{"android":"levelo://app?vid=9cc15ae9-cbfa-45b8-9292-9ab4b87f10d1","ios":"levelo://app?vid=9cc15ae9-cbfa-45b8-9292-9ab4b87f10d1"},"vehicle_type_id":"4","last_reported":1727208574,"current_range_meters":29600,"station_id":"ce4bhbh2rcd13ifvqeo0","pricing_plan_id":"cebpf4jnsgd1na2vs0mg"},{"bike_id":"10b9f85e-e4ee-4f70-979e-f255ac0bd659","system_id":"levelo_inurba_marseille","lat":43.22932,"lon":5.35377,"is_reserved":false,"is_disabled":false,"rental_uris":{"android":"levelo://app?vid=10b9f85e-e4ee-4f70-979e-f255ac0bd659","ios":"levelo://app?vid=10b9f85e-e4ee-4f70-979e-f255ac0bd659"},"vehicle_type_id":"4","last_reported":1727208574,"current_range_meters":6800,"station_id":"cpo3532slgdg3j2ikp40","pricing_plan_id":"cebpf4jnsgd1na2vs0mg"},{"bike_id":"d8c1fa68-9472-41ea-9d50-96b464a0185f","system_id":"levelo_inurba_marseille","lat":43.28456,"lon":5.35886,"is_reserved":false,"is_disabled":false,"rental_uris":{"android":"levelo://app?vid=d8c1fa68-9472-41ea-9d50-96b464a0185f","ios":"levelo://app?vid=d8c1fa68-9472-41ea-9d50-96b464a0185f"},"vehicle_type_id":"4","last_reported":1727208574,"current_range_meters":28800,"station_id":"ce4bhah2rcd13ifvqei0","pricing_plan_id":"cebpf4jnsgd1na2vs0mg"},{"bike_id":"bebbf85e-31cf-4f2c-a4e1-9b1a14757aa3","system_id":"levelo_inurba_marseille","lat":43.28608,"lon":5.37067,"is_reserved":false,"is_disabled":false,"rental_uris":{"android":"levelo://app?vid=bebbf85e-31cf-4f2c-a4e1-9b1a14757aa3","ios":"levelo://app?vid=bebbf85e-31cf-4f2c-a4e1-9b1a14757aa3"},"vehicle_type_id":"4","last_reported":1727208574,"current_range_meters":10800,"station_id":"ce4bht12rcd13ifvqi60","pricing_plan_id":"cebpf4jnsgd1na2vs0mg"},{"bike_id":"745111b8-733a-495c-87eb-81ad482ad10b","system_id":"levelo_inurba_marseille","lat":43.23189,"lon":5.39994,"is_reserved":false,"is_disabled":false,"rental_uris":{"android":"levelo://app?vid=745111b8-733a-495c-87eb-81ad482ad10b","ios":"levelo://app?vid=745111b8-733a-495c-87eb-81ad482ad10b"},"vehicle_type_id":"4","last_reported":1727208574,"current_range_meters":24800,"station_id":"ce4bhn12rcd13ifvqgqg","pricing_plan_id":"cebpf4jnsgd1na2vs0mg"},{"bike_id":"9c4aed90-4556-40c4-9054-23f3e87e41c9","system_id":"levelo_inurba_marseille","lat":43.28976,"lon":5.37839,"is_reserved":false,"is_disabled":false,"rental_uris":{"android":"levelo://app?vid=9c4aed90-4556-40c4-9054-23f3e87e41c9","ios":"levelo://app?vid=9c4aed90-4556-40c4-9054-23f3e87e41c9"},"vehicle_type_id":"4","last_reported":1727208574,"current_range_meters":38800,"station_id":"ce4bh9p2rcd13ifvqed0","pricing_plan_id":"cebpf4jnsgd1na2vs0mg"},{"bike_id":"b560f398-77d8-4b94-86e0-287448e2fa65","system_id":"levelo_inurba_marseille","lat":43.28699,"lon":5.37399,"is_reserved":false,"is_disabled":false,"rental_uris":{"android":"levelo://app?vid=b560f398-77d8-4b94-86e0-287448e2fa65","ios":"levelo://app?vid=b560f398-77d8-4b94-86e0-287448e2fa65"},"vehicle_type_id":"4","last_reported":1727208574,"current_range_meters":21600,"station_id":"ce4bh3p2rcd13ifvqdq0","pricing_plan_id":"cebpf4jnsgd1na2vs0mg"},{"bike_id":"87ac93c2-1c79-4444-9479-f54f849eeac0","system_id":"levelo_inurba_marseille","lat":43.25501,"lon":5.37674,"is_reserved":false,"is_disabled":false,"rental_uris":{"android":"levelo://app?vid=87ac93c2-1c79-4444-9479-f54f849eeac0","ios":"levelo://app?vid=87ac93c2-1c79-4444-9479-f54f849eeac0"},"vehicle_type_id":"4","last_reported":1727208574,"current_range_meters":38800,"station_id":"ce4bhh12rcd13ifvqff0","pricing_plan_id":"cebpf4jnsgd1na2vs0mg"},{"bike_id":"ebec7cd5-5fed-46ce-abdb-3cd659f607ac","system_id":"levelo_inurba_marseille","lat":43.29554,"lon":5.42286,"is_reserved":false,"is_disabled":false,"rental_uris":{"android":"levelo://app?vid=ebec7cd5-5fed-46ce-abdb-3cd659f607ac","ios":"levelo://app?vid=ebec7cd5-5fed-46ce-abdb-3cd659f607ac"},"vehicle_type_id":"4","last_reported":1727208574,"current_range_meters":36800,"station_id":"ce4bhph2rcd13ifvqhdg","pricing_plan_id":"cebpf4jnsgd1na2vs0mg"},{"bike_id":"584dc729-0cb1-4902-8a6c-23dc123e7906","system_id":"levelo_inurba_marseille","lat":43.22924,"lon":5.35377,"is_reserved":false,"is_disabled":false,"rental_uris":{"android":"levelo://app?vid=584dc729-0cb1-4902-8a6c-23dc123e7906","ios":"levelo://app?vid=584dc729-0cb1-4902-8a6c-23dc123e7906"},"vehicle_type_id":"4","last_reported":1727208574,"current_range_meters":24400,"station_id":"cpo3532slgdg3j2ikp40","pricing_plan_id":"cebpf4jnsgd1na2vs0mg"},{"bike_id":"df5b38d2-64cb-4df0-856f-ea9bd22c082c","system_id":"levelo_inurba_marseille","lat":43.23188,"lon":5.35559,"is_reserved":false,"is_disabled":false,"rental_uris":{"android":"levelo://app?vid=df5b38d2-64cb-4df0-856f-ea9bd22c082c","ios":"levelo://app?vid=df5b38d2-64cb-4df0-856f-ea9bd22c082c"},"vehicle_type_id":"4","last_reported":1727208574,"current_range_meters":10800,"station_id":"ce4bhu92rcd13ifvqi70","pricing_plan_id":"cebpf4jnsgd1na2vs0mg"},{"bike_id":"707528d8-0988-4632-94dc-544d37620d76","system_id":"levelo_inurba_marseille","lat":43.33602,"lon":5.41031,"is_reserved":false,"is_disabled":false,"rental_uris":{"android":"levelo://app?vid=707528d8-0988-4632-94dc-544d37620d76","ios":"levelo://app?vid=707528d8-0988-4632-94dc-544d37620d76"},"vehicle_type_id":"4","last_reported":1727208574,"current_range_meters":38800,"station_id":"ce4bhqh2rcd13ifvqhmg","pricing_plan_id":"cebpf4jnsgd1na2vs0mg"},{"bike_id":"9f0410b7-e525-46d8-a6f2-5e869c48f16d","system_id":"levelo_inurba_marseille","lat":43.23162,"lon":5.43711,"is_reserved":false,"is_disabled":false,"rental_uris":{"android":"levelo://app?vid=9f0410b7-e525-46d8-a6f2-5e869c48f16d","ios":"levelo://app?vid=9f0410b7-e525-46d8-a6f2-5e869c48f16d"},"vehicle_type_id":"4","last_reported":1727208574,"current_range_meters":33600,"station_id":"ce4bhmp2rcd13ifvqgog","pricing_plan_id":"cebpf4jnsgd1na2vs0mg"},{"bike_id":"66ec5e9d-3583-400a-9522-011e535be416","system_id":"levelo_inurba_marseille","lat":43.28284,"lon":5.35085,"is_reserved":false,"is_disabled":false,"rental_uris":{"android":"levelo://app?vid=66ec5e9d-3583-400a-9522-011e535be416","ios":"levelo://app?vid=66ec5e9d-3583-400a-9522-011e535be416"},"vehicle_type_id":"4","last_reported":1727208574,"current_range_meters":38800,"station_id":"ce4bhbp2rcd13ifvqerg","pricing_plan_id":"cebpf4jnsgd1na2vs0mg"},{"bike_id":"17b1cd1a-7803-4ca9-91f3-73c4fa44f09e","system_id":"levelo_inurba_marseille","lat":43.29555,"lon":5.42284,"is_reserved":false,"is_disabled":false,"rental_uris":{"android":"levelo://app?vid=17b1cd1a-7803-4ca9-91f3-73c4fa44f09e","ios":"levelo://app?vid=17b1cd1a-7803-4ca9-91f3-73c4fa44f09e"},"vehicle_type_id":"4","last_reported":1727208574,"current_range_meters":6800,"station_id":"ce4bhph2rcd13ifvqhdg","pricing_plan_id":"cebpf4jnsgd1na2vs0mg"},{"bike_id":"370ad2c9-c0c1-4242-b6d2-8b6c35717678","system_id":"levelo_inurba_marseille","lat":43.27936,"lon":5.4104,"is_reserved":false,"is_disabled":false,"rental_uris":{"android":"levelo://app?vid=370ad2c9-c0c1-4242-b6d2-8b6c35717678","ios":"levelo://app?vid=370ad2c9-c0c1-4242-b6d2-8b6c35717678"},"vehicle_type_id":"4","last_reported":1727208574,"current_range_meters":38800,"station_id":"ce4bhnp2rcd13ifvqh0g","pricing_plan_id":"cebpf4jnsgd1na2vs0mg"},{"bike_id":"27431c98-bcee-4fbc-9005-ef4fd6a106b8","system_id":"levelo_inurba_marseille","lat":43.23183,"lon":5.39989,"is_reserved":false,"is_disabled":false,"rental_uris":{"android":"levelo://app?vid=27431c98-bcee-4fbc-9005-ef4fd6a106b8","ios":"levelo://app?vid=27431c98-bcee-4fbc-9005-ef4fd6a106b8"},"vehicle_type_id":"4","last_reported":1727208574,"current_range_meters":16000,"station_id":"ce4bhn12rcd13ifvqgqg","pricing_plan_id":"cebpf4jnsgd1na2vs0mg"},{"bike_id":"b859d033-1095-4e5e-a6d2-faa05166d5e6","system_id":"levelo_inurba_marseille","lat":43.29441,"lon":5.39753,"is_reserved":false,"is_disabled":false,"rental_uris":{"android":"levelo://app?vid=b859d033-1095-4e5e-a6d2-faa05166d5e6","ios":"levelo://app?vid=b859d033-1095-4e5e-a6d2-faa05166d5e6"},"vehicle_type_id":"4","last_reported":1727208574,"current_range_meters":18800,"station_id":"ce4bh3h2rcd13ifvqdo0","pricing_plan_id":"cebpf4jnsgd1na2vs0mg"},{"bike_id":"4bb6d621-032f-449d-bbac-796be616ac62","system_id":"levelo_inurba_marseille","lat":43.28154,"lon":5.4265,"is_reserved":false,"is_disabled":false,"rental_uris":{"android":"levelo://app?vid=4bb6d621-032f-449d-bbac-796be616ac62","ios":"levelo://app?vid=4bb6d621-032f-449d-bbac-796be616ac62"},"vehicle_type_id":"4","last_reported":1727208574,"current_range_meters":17200,"station_id":"ce4bhnh2rcd13ifvqgug","pricing_plan_id":"cebpf4jnsgd1na2vs0mg"},{"bike_id":"211e0346-61e5-4760-a281-2cb54eb23737","system_id":"levelo_inurba_marseille","lat":43.30782,"lon":5.37649,"is_reserved":false,"is_disabled":false,"rental_uris":{"android":"levelo://app?vid=211e0346-61e5-4760-a281-2cb54eb23737","ios":"levelo://app?vid=211e0346-61e5-4760-a281-2cb54eb23737"},"vehicle_type_id":"4","last_reported":1727208574,"current_range_meters":38400,"station_id":"ce4bgv92rcd13ifvqcq0","pricing_plan_id":"cebpf4jnsgd1na2vs0mg"},{"bike_id":"9e462320-2685-413b-8988-89c1b54f97e6","system_id":"levelo_inurba_marseille","lat":43.29006,"lon":5.35609,"is_reserved":false,"is_disabled":false,"rental_uris":{"android":"levelo://app?vid=9e462320-2685-413b-8988-89c1b54f97e6","ios":"levelo://app?vid=9e462320-2685-413b-8988-89c1b54f97e6"},"vehicle_type_id":"4","last_reported":1727208574,"current_range_meters":6800,"station_id":"ce4bhb92rcd13ifvqen0","pricing_plan_id":"cebpf4jnsgd1na2vs0mg"},{"bike_id":"8e2ed437-a79e-4ecb-9f43-b77398df59a2","system_id":"levelo_inurba_marseille","lat":43.28005,"lon":5.40018,"is_reserved":false,"is_disabled":false,"rental_uris":{"android":"levelo://app?vid=8e2ed437-a79e-4ecb-9f43-b77398df59a2","ios":"levelo://app?vid=8e2ed437-a79e-4ecb-9f43-b77398df59a2"},"vehicle_type_id":"4","last_reported":1727208574,"current_range_meters":6400,"station_id":"ce4bho92rcd13ifvqh4g","pricing_plan_id":"cebpf4jnsgd1na2vs0mg"},{"bike_id":"c39b9ebf-3474-4128-98e6-09b47ddcbf97","system_id":"levelo_inurba_marseille","lat":43.2707,"lon":5.42281,"is_reserved":false,"is_disabled":false,"rental_uris":{"android":"levelo://app?vid=c39b9ebf-3474-4128-98e6-09b47ddcbf97","ios":"levelo://app?vid=c39b9ebf-3474-4128-98e6-09b47ddcbf97"},"vehicle_type_id":"4","last_reported":1727208574,"current_range_meters":8400,"station_id":"ce4bhk92rcd13ifvqgb0","pricing_plan_id":"cebpf4jnsgd1na2vs0mg"},{"bike_id":"81fe2cdc-578f-4aef-b667-c4b7e0aa10ee","system_id":"levelo_inurba_marseille","lat":43.30647,"lon":5.40085,"is_reserved":false,"is_disabled":false,"rental_uris":{"android":"levelo://app?vid=81fe2cdc-578f-4aef-b667-c4b7e0aa10ee","ios":"levelo://app?vid=81fe2cdc-578f-4aef-b667-c4b7e0aa10ee"},"vehicle_type_id":"4","last_reported":1727208574,"current_range_meters":20000,"station_id":"ce4bh112rcd13ifvqda0","pricing_plan_id":"cebpf4jnsgd1na2vs0mg"},{"bike_id":"acb0310f-a16e-4219-bdde-4543d08c4bfa","system_id":"levelo_inurba_marseille","lat":43.28853,"lon":5.35849,"is_reserved":false,"is_disabled":false,"rental_uris":{"android":"levelo://app?vid=acb0310f-a16e-4219-bdde-4543d08c4bfa","ios":"levelo://app?vid=acb0310f-a16e-4219-bdde-4543d08c4bfa"},"vehicle_type_id":"4","last_reported":1727208574,"current_range_meters":38800,"station_id":"ce4bhb12rcd13ifvqem0","pricing_plan_id":"cebpf4jnsgd1na2vs0mg"},{"bike_id":"460c4e49-994c-464e-b4f4-ffcee6d74c98","system_id":"levelo_inurba_marseille","lat":43.30135,"lon":5.3879,"is_reserved":false,"is_disabled":false,"rental_uris":{"android":"levelo://app?vid=460c4e49-994c-464e-b4f4-ffcee6d74c98","ios":"levelo://app?vid=460c4e49-994c-464e-b4f4-ffcee6d74c98"},"vehicle_type_id":"4","last_reported":1727208574,"current_range_meters":10000,"station_id":"ce4bghh2rcd13ifvqb60","pricing_plan_id":"cebpf4jnsgd1na2vs0mg"},{"bike_id":"59c518d2-643b-4fc3-bb96-7756448a203e","system_id":"levelo_inurba_marseille","lat":43.30432,"lon":5.39752,"is_reserved":false,"is_disabled":false,"rental_uris":{"android":"levelo://app?vid=59c518d2-643b-4fc3-bb96-7756448a203e","ios":"levelo://app?vid=59c518d2-643b-4fc3-bb96-7756448a203e"},"vehicle_type_id":"4","last_reported":1727208574,"current_range_meters":19200,"station_id":"ce4bh092rcd13ifvqd20","pricing_plan_id":"cebpf4jnsgd1na2vs0mg"},{"bike_id":"b1f73128-5271-43d8-af34-94e10e3b804a","system_id":"levelo_inurba_marseille","lat":43.33144,"lon":5.39136,"is_reserved":false,"is_disabled":false,"rental_uris":{"android":"levelo://app?vid=b1f73128-5271-43d8-af34-94e10e3b804a","ios":"levelo://app?vid=b1f73128-5271-43d8-af34-94e10e3b804a"},"vehicle_type_id":"4","last_reported":1727208574,"current_range_meters":38400,"station_id":"","pricing_plan_id":"cebpf4jnsgd1na2vs0mg"},{"bike_id":"a1d82605-350d-4120-889c-7761b40719ec","system_id":"levelo_inurba_marseille","lat":43.32104,"lon":5.3678,"is_reserved":false,"is_disabled":false,"rental_uris":{"android":"levelo://app?vid=a1d82605-350d-4120-889c-7761b40719ec","ios":"levelo://app?vid=a1d82605-350d-4120-889c-7761b40719ec"},"vehicle_type_id":"4","last_reported":1727208574,"current_range_meters":24400,"station_id":"ce4bhrh2rcd13ifvqhug","pricing_plan_id":"cebpf4jnsgd1na2vs0mg"},{"bike_id":"270390c1-7478-42f7-9734-5e500db1da59","system_id":"levelo_inurba_marseille","lat":43.281815,"lon":5.426345,"is_reserved":false,"is_disabled":false,"rental_uris":{"android":"levelo://app?vid=270390c1-7478-42f7-9734-5e500db1da59","ios":"levelo://app?vid=270390c1-7478-42f7-9734-5e500db1da59"},"vehicle_type_id":"4","last_reported":1727208574,"current_range_meters":10800,"station_id":"ce4bhnh2rcd13ifvqgug","pricing_plan_id":"cebpf4jnsgd1na2vs0mg"},{"bike_id":"9fbf48b7-8efe-482d-9e8c-afafd6f0902f","system_id":"levelo_inurba_marseille","lat":43.27995,"lon":5.40024,"is_reserved":false,"is_disabled":false,"rental_uris":{"android":"levelo://app?vid=9fbf48b7-8efe-482d-9e8c-afafd6f0902f","ios":"levelo://app?vid=9fbf48b7-8efe-482d-9e8c-afafd6f0902f"},"vehicle_type_id":"4","last_reported":1727208574,"current_range_meters":10800,"station_id":"ce4bho92rcd13ifvqh4g","pricing_plan_id":"cebpf4jnsgd1na2vs0mg"},{"bike_id":"7867c780-59e7-457b-80aa-b1c55d2cc50f","system_id":"levelo_inurba_marseille","lat":43.25093,"lon":5.39523,"is_reserved":false,"is_disabled":false,"rental_uris":{"android":"levelo://app?vid=7867c780-59e7-457b-80aa-b1c55d2cc50f","ios":"levelo://app?vid=7867c780-59e7-457b-80aa-b1c55d2cc50f"},"vehicle_type_id":"4","last_reported":1727208574,"current_range_meters":8400,"station_id":"ce4bhm12rcd13ifvqgkg","pricing_plan_id":"cebpf4jnsgd1na2vs0mg"},{"bike_id":"c0c4ac2c-dbd6-405c-ae94-75c9c39bd7ab","system_id":"levelo_inurba_marseille","lat":43.25086,"lon":5.39522,"is_reserved":false,"is_disabled":false,"rental_uris":{"android":"levelo://app?vid=c0c4ac2c-dbd6-405c-ae94-75c9c39bd7ab","ios":"levelo://app?vid=c0c4ac2c-dbd6-405c-ae94-75c9c39bd7ab"},"vehicle_type_id":"4","last_reported":1727208574,"current_range_meters":38800,"station_id":"ce4bhm12rcd13ifvqgkg","pricing_plan_id":"cebpf4jnsgd1na2vs0mg"},{"bike_id":"5073af01-fb1b-4209-bf4f-d8a773637b50","system_id":"levelo_inurba_marseille","lat":43.287201,"lon":5.380496,"is_reserved":false,"is_disabled":false,"rental_uris":{"android":"levelo://app?vid=5073af01-fb1b-4209-bf4f-d8a773637b50","ios":"levelo://app?vid=5073af01-fb1b-4209-bf4f-d8a773637b50"},"vehicle_type_id":"4","last_reported":1727208574,"current_range_meters":6400,"station_id":"ce4bh9p2rcd13ifvqec0","pricing_plan_id":"cebpf4jnsgd1na2vs0mg"},{"bike_id":"1166f6b1-5b87-4bc1-b21d-c61655b2fee0","system_id":"levelo_inurba_marseille","lat":43.29456,"lon":5.38053,"is_reserved":false,"is_disabled":false,"rental_uris":{"android":"levelo://app?vid=1166f6b1-5b87-4bc1-b21d-c61655b2fee0","ios":"levelo://app?vid=1166f6b1-5b87-4bc1-b21d-c61655b2fee0"},"vehicle_type_id":"4","last_reported":1727208574,"current_range_meters":36800,"station_id":"","pricing_plan_id":"cebpf4jnsgd1na2vs0mg"},{"bike_id":"e1795019-8f30-497c-8957-dd02477936ec","system_id":"levelo_inurba_marseille","lat":43.28001,"lon":5.40016,"is_reserved":false,"is_disabled":false,"rental_uris":{"android":"levelo://app?vid=e1795019-8f30-497c-8957-dd02477936ec","ios":"levelo://app?vid=e1795019-8f30-497c-8957-dd02477936ec"},"vehicle_type_id":"4","last_reported":1727208574,"current_range_meters":32400,"station_id":"ce4bho92rcd13ifvqh4g","pricing_plan_id":"cebpf4jnsgd1na2vs0mg"},{"bike_id":"7d74af81-12aa-43a6-815f-341df0a5cbf7","system_id":"levelo_inurba_marseille","lat":43.32032,"lon":5.41572,"is_reserved":false,"is_disabled":false,"rental_uris":{"android":"levelo://app?vid=7d74af81-12aa-43a6-815f-341df0a5cbf7","ios":"levelo://app?vid=7d74af81-12aa-43a6-815f-341df0a5cbf7"},"vehicle_type_id":"4","last_reported":1727208574,"current_range_meters":8800,"station_id":"ce4bhq92rcd13ifvqhkg","pricing_plan_id":"cebpf4jnsgd1na2vs0mg"},{"bike_id":"6cf02193-3ded-4cde-a5e9-273e1e7f9133","system_id":"levelo_inurba_marseille","lat":43.30794,"lon":5.43528,"is_reserved":false,"is_disabled":false,"rental_uris":{"android":"levelo://app?vid=6cf02193-3ded-4cde-a5e9-273e1e7f9133","ios":"levelo://app?vid=6cf02193-3ded-4cde-a5e9-273e1e7f9133"},"vehicle_type_id":"4","last_reported":1727208574,"current_range_meters":35600,"station_id":"ce4bhph2rcd13ifvqheg","pricing_plan_id":"cebpf4jnsgd1na2vs0mg"},{"bike_id":"ab46ab3c-91ca-4d84-817e-df721969ee60","system_id":"levelo_inurba_marseille","lat":43.27996,"lon":5.40012,"is_reserved":false,"is_disabled":false,"rental_uris":{"android":"levelo://app?vid=ab46ab3c-91ca-4d84-817e-df721969ee60","ios":"levelo://app?vid=ab46ab3c-91ca-4d84-817e-df721969ee60"},"vehicle_type_id":"4","last_reported":1727208574,"current_range_meters":10800,"station_id":"ce4bho92rcd13ifvqh4g","pricing_plan_id":"cebpf4jnsgd1na2vs0mg"},{"bike_id":"c517eafc-0d84-46c5-8fed-1b42b71b7911","system_id":"levelo_inurba_marseille","lat":43.31761,"lon":5.3902,"is_reserved":false,"is_disabled":false,"rental_uris":{"android":"levelo://app?vid=c517eafc-0d84-46c5-8fed-1b42b71b7911","ios":"levelo://app?vid=c517eafc-0d84-46c5-8fed-1b42b71b7911"},"vehicle_type_id":"4","last_reported":1727208574,"current_range_meters":24800,"station_id":"ce4bhqp2rcd13ifvqhng","pricing_plan_id":"cebpf4jnsgd1na2vs0mg"},{"bike_id":"daee9fa7-3bc5-44d7-9ace-70830363f730","system_id":"levelo_inurba_marseille","lat":43.27912,"lon":5.41238,"is_reserved":false,"is_disabled":false,"rental_uris":{"android":"levelo://app?vid=daee9fa7-3bc5-44d7-9ace-70830363f730","ios":"levelo://app?vid=daee9fa7-3bc5-44d7-9ace-70830363f730"},"vehicle_type_id":"4","last_reported":1727208574,"current_range_meters":8400,"station_id":"","pricing_plan_id":"cebpf4jnsgd1na2vs0mg"},{"bike_id":"5d22d37c-c8d4-4feb-8685-bf150cafbdc6","system_id":"levelo_inurba_marseille","lat":43.24069,"lon":5.37757,"is_reserved":false,"is_disabled":false,"rental_uris":{"android":"levelo://app?vid=5d22d37c-c8d4-4feb-8685-bf150cafbdc6","ios":"levelo://app?vid=5d22d37c-c8d4-4feb-8685-bf150cafbdc6"},"vehicle_type_id":"4","last_reported":1727208574,"current_range_meters":22400,"station_id":"ce4bhnp2rcd13ifvqgvg","pricing_plan_id":"cebpf4jnsgd1na2vs0mg"},{"bike_id":"81000a3a-c11c-4d08-8723-5803ef31d63a","system_id":"levelo_inurba_marseille","lat":43.32001,"lon":5.38149,"is_reserved":false,"is_disabled":false,"rental_uris":{"android":"levelo://app?vid=81000a3a-c11c-4d08-8723-5803ef31d63a","ios":"levelo://app?vid=81000a3a-c11c-4d08-8723-5803ef31d63a"},"vehicle_type_id":"4","last_reported":1727208574,"current_range_meters":24400,"station_id":"ce4bhr12rcd13ifvqhpg","pricing_plan_id":"cebpf4jnsgd1na2vs0mg"},{"bike_id":"17701005-77c3-4e4f-a0b4-b2ece630517d","system_id":"levelo_inurba_marseille","lat":43.23962,"lon":5.36624,"is_reserved":false,"is_disabled":false,"rental_uris":{"android":"levelo://app?vid=17701005-77c3-4e4f-a0b4-b2ece630517d","ios":"levelo://app?vid=17701005-77c3-4e4f-a0b4-b2ece630517d"},"vehicle_type_id":"4","last_reported":1727208574,"current_range_meters":38400,"station_id":"ce4bhi12rcd13ifvqfp0","pricing_plan_id":"cebpf4jnsgd1na2vs0mg"},{"bike_id":"52b1b92f-17d8-4b31-90d2-8b0c06dc4ab0","system_id":"levelo_inurba_marseille","lat":43.32,"lon":5.38171,"is_reserved":false,"is_disabled":false,"rental_uris":{"android":"levelo://app?vid=52b1b92f-17d8-4b31-90d2-8b0c06dc4ab0","ios":"levelo://app?vid=52b1b92f-17d8-4b31-90d2-8b0c06dc4ab0"},"vehicle_type_id":"4","last_reported":1727208574,"current_range_meters":18800,"station_id":"ce4bhr12rcd13ifvqhpg","pricing_plan_id":"cebpf4jnsgd1na2vs0mg"},{"bike_id":"bbbde90d-ef4e-47fb-bada-7e3315acaac4","system_id":"levelo_inurba_marseille","lat":43.30459,"lon":5.37901,"is_reserved":false,"is_disabled":false,"rental_uris":{"android":"levelo://app?vid=bbbde90d-ef4e-47fb-bada-7e3315acaac4","ios":"levelo://app?vid=bbbde90d-ef4e-47fb-bada-7e3315acaac4"},"vehicle_type_id":"4","last_reported":1727208574,"current_range_meters":11200,"station_id":"ce4bgup2rcd13ifvqcn0","pricing_plan_id":"cebpf4jnsgd1na2vs0mg"},{"bike_id":"e0b9de40-8d84-4d10-b17a-54bd763a1e59","system_id":"levelo_inurba_marseille","lat":43.29009,"lon":5.35615,"is_reserved":false,"is_disabled":false,"rental_uris":{"android":"levelo://app?vid=e0b9de40-8d84-4d10-b17a-54bd763a1e59","ios":"levelo://app?vid=e0b9de40-8d84-4d10-b17a-54bd763a1e59"},"vehicle_type_id":"4","last_reported":1727208574,"current_range_meters":17200,"station_id":"ce4bhb92rcd13ifvqen0","pricing_plan_id":"cebpf4jnsgd1na2vs0mg"},{"bike_id":"c8e2e608-f468-4c9b-9708-10e6f0f0d98d","system_id":"levelo_inurba_marseille","lat":43.23183,"lon":5.39997,"is_reserved":false,"is_disabled":false,"rental_uris":{"android":"levelo://app?vid=c8e2e608-f468-4c9b-9708-10e6f0f0d98d","ios":"levelo://app?vid=c8e2e608-f468-4c9b-9708-10e6f0f0d98d"},"vehicle_type_id":"4","last_reported":1727208574,"current_range_meters":8800,"station_id":"ce4bhn12rcd13ifvqgqg","pricing_plan_id":"cebpf4jnsgd1na2vs0mg"},{"bike_id":"e4782e7a-e28a-48af-a586-42b249546ec0","system_id":"levelo_inurba_marseille","lat":43.31119,"lon":5.37774,"is_reserved":false,"is_disabled":false,"rental_uris":{"android":"levelo://app?vid=e4782e7a-e28a-48af-a586-42b249546ec0","ios":"levelo://app?vid=e4782e7a-e28a-48af-a586-42b249546ec0"},"vehicle_type_id":"4","last_reported":1727208574,"current_range_meters":0,"station_id":"ce4bgt92rcd13ifvqcg0","pricing_plan_id":"cebpf4jnsgd1na2vs0mg"},{"bike_id":"c60901a6-e0c0-4f7e-851a-f54a10f5276f","system_id":"levelo_inurba_marseille","lat":43.25828,"lon":5.39427,"is_reserved":false,"is_disabled":false,"rental_uris":{"android":"levelo://app?vid=c60901a6-e0c0-4f7e-851a-f54a10f5276f","ios":"levelo://app?vid=c60901a6-e0c0-4f7e-851a-f54a10f5276f"},"vehicle_type_id":"4","last_reported":1727208574,"current_range_meters":38800,"station_id":"ce4bhip2rcd13ifvqft0","pricing_plan_id":"cebpf4jnsgd1na2vs0mg"},{"bike_id":"331d72fd-b5e5-4ade-9a70-a7c817a74063","system_id":"levelo_inurba_marseille","lat":43.279164,"lon":5.380134,"is_reserved":false,"is_disabled":false,"rental_uris":{"android":"levelo://app?vid=331d72fd-b5e5-4ade-9a70-a7c817a74063","ios":"levelo://app?vid=331d72fd-b5e5-4ade-9a70-a7c817a74063"},"vehicle_type_id":"4","last_reported":1727208574,"current_range_meters":24000,"station_id":"ce4bhf92rcd13ifvqf50","pricing_plan_id":"cebpf4jnsgd1na2vs0mg"},{"bike_id":"7e9e8414-11aa-4516-a0ba-b99da07411a2","system_id":"levelo_inurba_marseille","lat":43.24075,"lon":5.37761,"is_reserved":false,"is_disabled":false,"rental_uris":{"android":"levelo://app?vid=7e9e8414-11aa-4516-a0ba-b99da07411a2","ios":"levelo://app?vid=7e9e8414-11aa-4516-a0ba-b99da07411a2"},"vehicle_type_id":"4","last_reported":1727208574,"current_range_meters":20000,"station_id":"ce4bhnp2rcd13ifvqgvg","pricing_plan_id":"cebpf4jnsgd1na2vs0mg"},{"bike_id":"08aeb96c-2414-43fb-a731-004123e5f581","system_id":"levelo_inurba_marseille","lat":43.3133,"lon":5.39706,"is_reserved":false,"is_disabled":false,"rental_uris":{"android":"levelo://app?vid=08aeb96c-2414-43fb-a731-004123e5f581","ios":"levelo://app?vid=08aeb96c-2414-43fb-a731-004123e5f581"},"vehicle_type_id":"4","last_reported":1727208574,"current_range_meters":10800,"station_id":"ce4bgvp2rcd13ifvqcu0","pricing_plan_id":"cebpf4jnsgd1na2vs0mg"},{"bike_id":"d5aa1add-115d-4e1a-b824-66ecde93a367","system_id":"levelo_inurba_marseille","lat":43.24085,"lon":5.37748,"is_reserved":false,"is_disabled":false,"rental_uris":{"android":"levelo://app?vid=d5aa1add-115d-4e1a-b824-66ecde93a367","ios":"levelo://app?vid=d5aa1add-115d-4e1a-b824-66ecde93a367"},"vehicle_type_id":"4","last_reported":1727208574,"current_range_meters":10800,"station_id":"ce4bhnp2rcd13ifvqgvg","pricing_plan_id":"cebpf4jnsgd1na2vs0mg"},{"bike_id":"0c5bc108-18bc-4032-8fe0-145c940828d0","system_id":"levelo_inurba_marseille","lat":43.25879,"lon":5.39924,"is_reserved":false,"is_disabled":false,"rental_uris":{"android":"levelo://app?vid=0c5bc108-18bc-4032-8fe0-145c940828d0","ios":"levelo://app?vid=0c5bc108-18bc-4032-8fe0-145c940828d0"},"vehicle_type_id":"4","last_reported":1727208574,"current_range_meters":38800,"station_id":"ce4bhl92rcd13ifvqghg","pricing_plan_id":"cebpf4jnsgd1na2vs0mg"},{"bike_id":"d24bbf1b-3aea-42be-a965-80ffa4745455","system_id":"levelo_inurba_marseille","lat":43.28363,"lon":5.38109,"is_reserved":false,"is_disabled":false,"rental_uris":{"android":"levelo://app?vid=d24bbf1b-3aea-42be-a965-80ffa4745455","ios":"levelo://app?vid=d24bbf1b-3aea-42be-a965-80ffa4745455"},"vehicle_type_id":"4","last_reported":1727208574,"current_range_meters":8800,"station_id":"ce4bh412rcd13ifvqdr0","pricing_plan_id":"cebpf4jnsgd1na2vs0mg"},{"bike_id":"a7bca3df-0344-4204-86d7-b742d4769839","system_id":"levelo_inurba_marseille","lat":43.30863,"lon":5.3685,"is_reserved":false,"is_disabled":false,"rental_uris":{"android":"levelo://app?vid=a7bca3df-0344-4204-86d7-b742d4769839","ios":"levelo://app?vid=a7bca3df-0344-4204-86d7-b742d4769839"},"vehicle_type_id":"4","last_reported":1727208574,"current_range_meters":31200,"station_id":"ce4bgn92rcd13ifvqbvg","pricing_plan_id":"cebpf4jnsgd1na2vs0mg"},{"bike_id":"7a8a0800-f777-46b2-8e82-362f8ebbd9e6","system_id":"levelo_inurba_marseille","lat":43.32292,"lon":5.38265,"is_reserved":false,"is_disabled":false,"rental_uris":{"android":"levelo://app?vid=7a8a0800-f777-46b2-8e82-362f8ebbd9e6","ios":"levelo://app?vid=7a8a0800-f777-46b2-8e82-362f8ebbd9e6"},"vehicle_type_id":"4","last_reported":1727208574,"current_range_meters":29600,"station_id":"ce4bhr12rcd13ifvqhqg","pricing_plan_id":"cebpf4jnsgd1na2vs0mg"},{"bike_id":"29cef338-028b-46be-aec2-2de217d46e45","system_id":"levelo_inurba_marseille","lat":43.32366,"lon":5.3889,"is_reserved":false,"is_disabled":false,"rental_uris":{"android":"levelo://app?vid=29cef338-028b-46be-aec2-2de217d46e45","ios":"levelo://app?vid=29cef338-028b-46be-aec2-2de217d46e45"},"vehicle_type_id":"4","last_reported":1727208574,"current_range_meters":23200,"station_id":"ce4bhqp2rcd13ifvqhog","pricing_plan_id":"cebpf4jnsgd1na2vs0mg"},{"bike_id":"d831a0c8-0bcd-4449-91a5-836df1a52d4b","system_id":"levelo_inurba_marseille","lat":43.307135,"lon":5.372845,"is_reserved":false,"is_disabled":false,"rental_uris":{"android":"levelo://app?vid=d831a0c8-0bcd-4449-91a5-836df1a52d4b","ios":"levelo://app?vid=d831a0c8-0bcd-4449-91a5-836df1a52d4b"},"vehicle_type_id":"4","last_reported":1727208574,"current_range_meters":14400,"station_id":"","pricing_plan_id":"cebpf4jnsgd1na2vs0mg"},{"bike_id":"37ea3e6e-16e9-42b3-b4f9-836c84a7a894","system_id":"levelo_inurba_marseille","lat":43.23181,"lon":5.39995,"is_reserved":false,"is_disabled":false,"rental_uris":{"android":"levelo://app?vid=37ea3e6e-16e9-42b3-b4f9-836c84a7a894","ios":"levelo://app?vid=37ea3e6e-16e9-42b3-b4f9-836c84a7a894"},"vehicle_type_id":"4","last_reported":1727208574,"current_range_meters":32800,"station_id":"ce4bhn12rcd13ifvqgqg","pricing_plan_id":"cebpf4jnsgd1na2vs0mg"},{"bike_id":"337d797f-5bad-4e42-a3a9-741eceae0aa0","system_id":"levelo_inurba_marseille","lat":43.33724,"lon":5.39186,"is_reserved":false,"is_disabled":false,"rental_uris":{"android":"levelo://app?vid=337d797f-5bad-4e42-a3a9-741eceae0aa0","ios":"levelo://app?vid=337d797f-5bad-4e42-a3a9-741eceae0aa0"},"vehicle_type_id":"4","last_reported":1727208574,"current_range_meters":35600,"station_id":"ce4bhr92rcd13ifvqhsg","pricing_plan_id":"cebpf4jnsgd1na2vs0mg"},{"bike_id":"6de41add-2939-4139-9e1b-56c309cf2837","system_id":"levelo_inurba_marseille","lat":43.290387,"lon":5.35913,"is_reserved":false,"is_disabled":false,"rental_uris":{"android":"levelo://app?vid=6de41add-2939-4139-9e1b-56c309cf2837","ios":"levelo://app?vid=6de41add-2939-4139-9e1b-56c309cf2837"},"vehicle_type_id":"4","last_reported":1727208574,"current_range_meters":7200,"station_id":"","pricing_plan_id":"cebpf4jnsgd1na2vs0mg"},{"bike_id":"c429e26a-1acd-4e91-9809-a448ccb99898","system_id":"levelo_inurba_marseille","lat":43.28121,"lon":5.40602,"is_reserved":false,"is_disabled":false,"rental_uris":{"android":"levelo://app?vid=c429e26a-1acd-4e91-9809-a448ccb99898","ios":"levelo://app?vid=c429e26a-1acd-4e91-9809-a448ccb99898"},"vehicle_type_id":"4","last_reported":1727208574,"current_range_meters":38000,"station_id":"","pricing_plan_id":"cebpf4jnsgd1na2vs0mg"},{"bike_id":"7d13bfe6-cac1-417a-a866-11f3f6431dbc","system_id":"levelo_inurba_marseille","lat":43.2861,"lon":5.37066,"is_reserved":false,"is_disabled":false,"rental_uris":{"android":"levelo://app?vid=7d13bfe6-cac1-417a-a866-11f3f6431dbc","ios":"levelo://app?vid=7d13bfe6-cac1-417a-a866-11f3f6431dbc"},"vehicle_type_id":"4","last_reported":1727208574,"current_range_meters":30000,"station_id":"ce4bht12rcd13ifvqi60","pricing_plan_id":"cebpf4jnsgd1na2vs0mg"},{"bike_id":"4a4bfd88-bdfc-4802-b3a8-e798e4274727","system_id":"levelo_inurba_marseille","lat":43.32294,"lon":5.3826,"is_reserved":false,"is_disabled":false,"rental_uris":{"android":"levelo://app?vid=4a4bfd88-bdfc-4802-b3a8-e798e4274727","ios":"levelo://app?vid=4a4bfd88-bdfc-4802-b3a8-e798e4274727"},"vehicle_type_id":"4","last_reported":1727208574,"current_range_meters":32000,"station_id":"ce4bhr12rcd13ifvqhqg","pricing_plan_id":"cebpf4jnsgd1na2vs0mg"},{"bike_id":"9fa6ce40-a2c5-4b94-8815-5c21202a1327","system_id":"levelo_inurba_marseille","lat":43.31756,"lon":5.39021,"is_reserved":false,"is_disabled":false,"rental_uris":{"android":"levelo://app?vid=9fa6ce40-a2c5-4b94-8815-5c21202a1327","ios":"levelo://app?vid=9fa6ce40-a2c5-4b94-8815-5c21202a1327"},"vehicle_type_id":"4","last_reported":1727208574,"current_range_meters":9600,"station_id":"ce4bhqp2rcd13ifvqhng","pricing_plan_id":"cebpf4jnsgd1na2vs0mg"},{"bike_id":"86898526-a4d9-47cf-b306-df317b0d9e78","system_id":"levelo_inurba_marseille","lat":43.23194,"lon":5.35555,"is_reserved":false,"is_disabled":false,"rental_uris":{"android":"levelo://app?vid=86898526-a4d9-47cf-b306-df317b0d9e78","ios":"levelo://app?vid=86898526-a4d9-47cf-b306-df317b0d9e78"},"vehicle_type_id":"4","last_reported":1727208574,"current_range_meters":22800,"station_id":"ce4bhu92rcd13ifvqi70","pricing_plan_id":"cebpf4jnsgd1na2vs0mg"},{"bike_id":"27ac37a7-d66d-42a4-b40f-f61eedcb3b40","system_id":"levelo_inurba_marseille","lat":43.28001,"lon":5.40004,"is_reserved":false,"is_disabled":false,"rental_uris":{"android":"levelo://app?vid=27ac37a7-d66d-42a4-b40f-f61eedcb3b40","ios":"levelo://app?vid=27ac37a7-d66d-42a4-b40f-f61eedcb3b40"},"vehicle_type_id":"4","last_reported":1727208574,"current_range_meters":38400,"station_id":"ce4bho92rcd13ifvqh4g","pricing_plan_id":"cebpf4jnsgd1na2vs0mg"},{"bike_id":"ad8ded45-0462-4e57-bc0f-f5f82d6ad96d","system_id":"levelo_inurba_marseille","lat":43.29877,"lon":5.39727,"is_reserved":false,"is_disabled":false,"rental_uris":{"android":"levelo://app?vid=ad8ded45-0462-4e57-bc0f-f5f82d6ad96d","ios":"levelo://app?vid=ad8ded45-0462-4e57-bc0f-f5f82d6ad96d"},"vehicle_type_id":"4","last_reported":1727208574,"current_range_meters":30000,"station_id":"ce4bh0h2rcd13ifvqd50","pricing_plan_id":"cebpf4jnsgd1na2vs0mg"},{"bike_id":"6c447cd3-9831-4cc6-8111-229f9e5f27ad","system_id":"levelo_inurba_marseille","lat":43.29549,"lon":5.39398,"is_reserved":false,"is_disabled":false,"rental_uris":{"android":"levelo://app?vid=6c447cd3-9831-4cc6-8111-229f9e5f27ad","ios":"levelo://app?vid=6c447cd3-9831-4cc6-8111-229f9e5f27ad"},"vehicle_type_id":"4","last_reported":1727208574,"current_range_meters":26800,"station_id":"ce4bh292rcd13ifvqdf0","pricing_plan_id":"cebpf4jnsgd1na2vs0mg"},{"bike_id":"d745174c-b34b-4d04-8c98-441736be15de","system_id":"levelo_inurba_marseille","lat":43.28679,"lon":5.38682,"is_reserved":false,"is_disabled":false,"rental_uris":{"android":"levelo://app?vid=d745174c-b34b-4d04-8c98-441736be15de","ios":"levelo://app?vid=d745174c-b34b-4d04-8c98-441736be15de"},"vehicle_type_id":"4","last_reported":1727208574,"current_range_meters":6000,"station_id":"ce4bh492rcd13ifvqdug","pricing_plan_id":"cebpf4jnsgd1na2vs0mg"},{"bike_id":"9ac9d415-314c-47c9-83c9-409ec35ee620","system_id":"levelo_inurba_marseille","lat":43.2407,"lon":5.37762,"is_reserved":false,"is_disabled":false,"rental_uris":{"android":"levelo://app?vid=9ac9d415-314c-47c9-83c9-409ec35ee620","ios":"levelo://app?vid=9ac9d415-314c-47c9-83c9-409ec35ee620"},"vehicle_type_id":"4","last_reported":1727208574,"current_range_meters":6000,"station_id":"ce4bhnp2rcd13ifvqgvg","pricing_plan_id":"cebpf4jnsgd1na2vs0mg"},{"bike_id":"2182745b-13df-4c49-a9f7-2a798f35e947","system_id":"levelo_inurba_marseille","lat":43.23969,"lon":5.36627,"is_reserved":false,"is_disabled":false,"rental_uris":{"android":"levelo://app?vid=2182745b-13df-4c49-a9f7-2a798f35e947","ios":"levelo://app?vid=2182745b-13df-4c49-a9f7-2a798f35e947"},"vehicle_type_id":"4","last_reported":1727208574,"current_range_meters":39200,"station_id":"ce4bhi12rcd13ifvqfp0","pricing_plan_id":"cebpf4jnsgd1na2vs0mg"},{"bike_id":"c471ff05-5b1c-4b52-a7a7-47c882174095","system_id":"levelo_inurba_marseille","lat":43.295341,"lon":5.385413,"is_reserved":false,"is_disabled":false,"rental_uris":{"android":"levelo://app?vid=c471ff05-5b1c-4b52-a7a7-47c882174095","ios":"levelo://app?vid=c471ff05-5b1c-4b52-a7a7-47c882174095"},"vehicle_type_id":"4","last_reported":1727208574,"current_range_meters":12400,"station_id":"ce4bh292rcd13ifvqdg0","pricing_plan_id":"cebpf4jnsgd1na2vs0mg"},{"bike_id":"c3635c8f-c073-4e2e-9a6d-ca3c8ef40eb7","system_id":"levelo_inurba_marseille","lat":43.31754,"lon":5.39021,"is_reserved":false,"is_disabled":false,"rental_uris":{"android":"levelo://app?vid=c3635c8f-c073-4e2e-9a6d-ca3c8ef40eb7","ios":"levelo://app?vid=c3635c8f-c073-4e2e-9a6d-ca3c8ef40eb7"},"vehicle_type_id":"4","last_reported":1727208574,"current_range_meters":30000,"station_id":"ce4bhqp2rcd13ifvqhng","pricing_plan_id":"cebpf4jnsgd1na2vs0mg"},{"bike_id":"3a5182df-8aae-47ec-b5d4-1edd42fa0e80","system_id":"levelo_inurba_marseille","lat":43.31532,"lon":5.38037,"is_reserved":false,"is_disabled":false,"rental_uris":{"android":"levelo://app?vid=3a5182df-8aae-47ec-b5d4-1edd42fa0e80","ios":"levelo://app?vid=3a5182df-8aae-47ec-b5d4-1edd42fa0e80"},"vehicle_type_id":"4","last_reported":1727208574,"current_range_meters":22800,"station_id":"ce4bhsp2rcd13ifvqi50","pricing_plan_id":"cebpf4jnsgd1na2vs0mg"},{"bike_id":"ede37da0-431f-462e-af97-45c71435ab2a","system_id":"levelo_inurba_marseille","lat":43.241838,"lon":5.397139,"is_reserved":false,"is_disabled":false,"rental_uris":{"android":"levelo://app?vid=ede37da0-431f-462e-af97-45c71435ab2a","ios":"levelo://app?vid=ede37da0-431f-462e-af97-45c71435ab2a"},"vehicle_type_id":"4","last_reported":1727208574,"current_range_meters":24400,"station_id":"ce4bhn12rcd13ifvqgpg","pricing_plan_id":"cebpf4jnsgd1na2vs0mg"},{"bike_id":"3bd6847a-3bce-496a-9c6a-29340432215c","system_id":"levelo_inurba_marseille","lat":43.30167,"lon":5.36611,"is_reserved":false,"is_disabled":false,"rental_uris":{"android":"levelo://app?vid=3bd6847a-3bce-496a-9c6a-29340432215c","ios":"levelo://app?vid=3bd6847a-3bce-496a-9c6a-29340432215c"},"vehicle_type_id":"4","last_reported":1727208574,"current_range_meters":6400,"station_id":"ce4bgrh2rcd13ifvqc8g","pricing_plan_id":"cebpf4jnsgd1na2vs0mg"},{"bike_id":"540f6ef4-f26e-467c-92ad-359400cfca8c","system_id":"levelo_inurba_marseille","lat":43.28942,"lon":5.363908,"is_reserved":false,"is_disabled":false,"rental_uris":{"android":"levelo://app?vid=540f6ef4-f26e-467c-92ad-359400cfca8c","ios":"levelo://app?vid=540f6ef4-f26e-467c-92ad-359400cfca8c"},"vehicle_type_id":"4","last_reported":1727208574,"current_range_meters":30400,"station_id":"ce4bhc92rcd13ifvqetg","pricing_plan_id":"cebpf4jnsgd1na2vs0mg"},{"bike_id":"c809b4e3-1ad9-49ec-b850-4c2202458623","system_id":"levelo_inurba_marseille","lat":43.28413,"lon":5.37516,"is_reserved":false,"is_disabled":false,"rental_uris":{"android":"levelo://app?vid=c809b4e3-1ad9-49ec-b850-4c2202458623","ios":"levelo://app?vid=c809b4e3-1ad9-49ec-b850-4c2202458623"},"vehicle_type_id":"4","last_reported":1727208574,"current_range_meters":31200,"station_id":"ce4bh412rcd13ifvqds0","pricing_plan_id":"cebpf4jnsgd1na2vs0mg"},{"bike_id":"9355b769-996d-4f4f-b5dd-c0b8373b1b70","system_id":"levelo_inurba_marseille","lat":43.31329,"lon":5.39681,"is_reserved":false,"is_disabled":false,"rental_uris":{"android":"levelo://app?vid=9355b769-996d-4f4f-b5dd-c0b8373b1b70","ios":"levelo://app?vid=9355b769-996d-4f4f-b5dd-c0b8373b1b70"},"vehicle_type_id":"4","last_reported":1727208574,"current_range_meters":24000,"station_id":"ce4bgvp2rcd13ifvqcu0","pricing_plan_id":"cebpf4jnsgd1na2vs0mg"},{"bike_id":"30df9b3b-d216-4bbc-ad88-5f3ca1abe8bf","system_id":"levelo_inurba_marseille","lat":43.29895,"lon":5.43672,"is_reserved":false,"is_disabled":false,"rental_uris":{"android":"levelo://app?vid=30df9b3b-d216-4bbc-ad88-5f3ca1abe8bf","ios":"levelo://app?vid=30df9b3b-d216-4bbc-ad88-5f3ca1abe8bf"},"vehicle_type_id":"4","last_reported":1727208574,"current_range_meters":20800,"station_id":"ce4bhpp2rcd13ifvqhfg","pricing_plan_id":"cebpf4jnsgd1na2vs0mg"},{"bike_id":"9772998c-2089-4fea-ad97-2dcfbb28f75e","system_id":"levelo_inurba_marseille","lat":43.28727,"lon":5.3608,"is_reserved":false,"is_disabled":false,"rental_uris":{"android":"levelo://app?vid=9772998c-2089-4fea-ad97-2dcfbb28f75e","ios":"levelo://app?vid=9772998c-2089-4fea-ad97-2dcfbb28f75e"},"vehicle_type_id":"4","last_reported":1727208574,"current_range_meters":14800,"station_id":"cki0cbj6b192h4jlfktg","pricing_plan_id":"cebpf4jnsgd1na2vs0mg"},{"bike_id":"9aa582cb-bb26-4fb3-a199-894db2f458cd","system_id":"levelo_inurba_marseille","lat":43.26589,"lon":5.3901,"is_reserved":false,"is_disabled":false,"rental_uris":{"android":"levelo://app?vid=9aa582cb-bb26-4fb3-a199-894db2f458cd","ios":"levelo://app?vid=9aa582cb-bb26-4fb3-a199-894db2f458cd"},"vehicle_type_id":"4","last_reported":1727208574,"current_range_meters":36800,"station_id":"ce4bhe12rcd13ifvqf30","pricing_plan_id":"cebpf4jnsgd1na2vs0mg"},{"bike_id":"7ba5b6a2-2b94-4bc1-9141-d02d028cc981","system_id":"levelo_inurba_marseille","lat":43.25859,"lon":5.39896,"is_reserved":false,"is_disabled":false,"rental_uris":{"android":"levelo://app?vid=7ba5b6a2-2b94-4bc1-9141-d02d028cc981","ios":"levelo://app?vid=7ba5b6a2-2b94-4bc1-9141-d02d028cc981"},"vehicle_type_id":"4","last_reported":1727208574,"current_range_meters":38800,"station_id":"ce4bhl92rcd13ifvqghg","pricing_plan_id":"cebpf4jnsgd1na2vs0mg"},{"bike_id":"39a04d7f-16d2-49c5-8c69-3147c5aa8fb0","system_id":"levelo_inurba_marseille","lat":43.27945,"lon":5.4104,"is_reserved":false,"is_disabled":false,"rental_uris":{"android":"levelo://app?vid=39a04d7f-16d2-49c5-8c69-3147c5aa8fb0","ios":"levelo://app?vid=39a04d7f-16d2-49c5-8c69-3147c5aa8fb0"},"vehicle_type_id":"4","last_reported":1727208574,"current_range_meters":38000,"station_id":"ce4bhnp2rcd13ifvqh0g","pricing_plan_id":"cebpf4jnsgd1na2vs0mg"},{"bike_id":"e4dc5612-100a-483e-a473-3f08f3e150bf","system_id":"levelo_inurba_marseille","lat":43.2781,"lon":5.40714,"is_reserved":false,"is_disabled":false,"rental_uris":{"android":"levelo://app?vid=e4dc5612-100a-483e-a473-3f08f3e150bf","ios":"levelo://app?vid=e4dc5612-100a-483e-a473-3f08f3e150bf"},"vehicle_type_id":"4","last_reported":1727208574,"current_range_meters":9200,"station_id":"ce4bhnh2rcd13ifvqgtg","pricing_plan_id":"cebpf4jnsgd1na2vs0mg"},{"bike_id":"ca995322-1acd-4074-b9d9-ab9fa5d3f8ef","system_id":"levelo_inurba_marseille","lat":43.28432,"lon":5.34991,"is_reserved":false,"is_disabled":false,"rental_uris":{"android":"levelo://app?vid=ca995322-1acd-4074-b9d9-ab9fa5d3f8ef","ios":"levelo://app?vid=ca995322-1acd-4074-b9d9-ab9fa5d3f8ef"},"vehicle_type_id":"4","last_reported":1727208574,"current_range_meters":38400,"station_id":"ce4bhbh2rcd13ifvqepg","pricing_plan_id":"cebpf4jnsgd1na2vs0mg"},{"bike_id":"9e7b52e4-b4ff-4be8-9285-a09c39bbe7ff","system_id":"levelo_inurba_marseille","lat":43.29866,"lon":5.38658,"is_reserved":false,"is_disabled":false,"rental_uris":{"android":"levelo://app?vid=9e7b52e4-b4ff-4be8-9285-a09c39bbe7ff","ios":"levelo://app?vid=9e7b52e4-b4ff-4be8-9285-a09c39bbe7ff"},"vehicle_type_id":"4","last_reported":1727208574,"current_range_meters":10000,"station_id":"ce4bh0p2rcd13ifvqd70","pricing_plan_id":"cebpf4jnsgd1na2vs0mg"},{"bike_id":"3cdb199b-bacd-44b6-8eed-476c74758fbd","system_id":"levelo_inurba_marseille","lat":43.32106,"lon":5.36768,"is_reserved":false,"is_disabled":false,"rental_uris":{"android":"levelo://app?vid=3cdb199b-bacd-44b6-8eed-476c74758fbd","ios":"levelo://app?vid=3cdb199b-bacd-44b6-8eed-476c74758fbd"},"vehicle_type_id":"4","last_reported":1727208574,"current_range_meters":28400,"station_id":"ce4bhrh2rcd13ifvqhug","pricing_plan_id":"cebpf4jnsgd1na2vs0mg"},{"bike_id":"e3f1f5a4-a6d8-43ea-ade6-97ac50a6c143","system_id":"levelo_inurba_marseille","lat":43.29731,"lon":5.36617,"is_reserved":false,"is_disabled":false,"rental_uris":{"android":"levelo://app?vid=e3f1f5a4-a6d8-43ea-ade6-97ac50a6c143","ios":"levelo://app?vid=e3f1f5a4-a6d8-43ea-ade6-97ac50a6c143"},"vehicle_type_id":"4","last_reported":1727208574,"current_range_meters":16800,"station_id":"ce4bgn12rcd13ifvqbt0","pricing_plan_id":"cebpf4jnsgd1na2vs0mg"},{"bike_id":"6ddafbe1-16f1-463a-be44-0bef68acf23b","system_id":"levelo_inurba_marseille","lat":43.2718,"lon":5.40995,"is_reserved":false,"is_disabled":false,"rental_uris":{"android":"levelo://app?vid=6ddafbe1-16f1-463a-be44-0bef68acf23b","ios":"levelo://app?vid=6ddafbe1-16f1-463a-be44-0bef68acf23b"},"vehicle_type_id":"4","last_reported":1727208574,"current_range_meters":29600,"station_id":"ce4bhl12rcd13ifvqgf0","pricing_plan_id":"cebpf4jnsgd1na2vs0mg"},{"bike_id":"fda328cc-15ac-4dc7-adee-64eab9937084","system_id":"levelo_inurba_marseille","lat":43.33024,"lon":5.39041,"is_reserved":false,"is_disabled":false,"rental_uris":{"android":"levelo://app?vid=fda328cc-15ac-4dc7-adee-64eab9937084","ios":"levelo://app?vid=fda328cc-15ac-4dc7-adee-64eab9937084"},"vehicle_type_id":"4","last_reported":1727208574,"current_range_meters":3600,"station_id":"ce4bhr92rcd13ifvqhrg","pricing_plan_id":"cebpf4jnsgd1na2vs0mg"},{"bike_id":"761b3a71-2073-4740-aafc-31280d8764ee","system_id":"levelo_inurba_marseille","lat":43.28568,"lon":5.39502,"is_reserved":false,"is_disabled":false,"rental_uris":{"android":"levelo://app?vid=761b3a71-2073-4740-aafc-31280d8764ee","ios":"levelo://app?vid=761b3a71-2073-4740-aafc-31280d8764ee"},"vehicle_type_id":"4","last_reported":1727208574,"current_range_meters":36800,"station_id":"ce4bh292rcd13ifvqdg0","pricing_plan_id":"cebpf4jnsgd1na2vs0mg"},{"bike_id":"4e6f9eca-5528-4c1e-b7b0-826cc8084303","system_id":"levelo_inurba_marseille","lat":43.29018,"lon":5.38639,"is_reserved":false,"is_disabled":false,"rental_uris":{"android":"levelo://app?vid=4e6f9eca-5528-4c1e-b7b0-826cc8084303","ios":"levelo://app?vid=4e6f9eca-5528-4c1e-b7b0-826cc8084303"},"vehicle_type_id":"4","last_reported":1727208574,"current_range_meters":32400,"station_id":"ce4bh4p2rcd13ifvqe0g","pricing_plan_id":"cebpf4jnsgd1na2vs0mg"},{"bike_id":"9dfbea95-3d2c-409e-a157-4594dca0e186","system_id":"levelo_inurba_marseille","lat":43.28701,"lon":5.37379,"is_reserved":false,"is_disabled":false,"rental_uris":{"android":"levelo://app?vid=9dfbea95-3d2c-409e-a157-4594dca0e186","ios":"levelo://app?vid=9dfbea95-3d2c-409e-a157-4594dca0e186"},"vehicle_type_id":"4","last_reported":1727208574,"current_range_meters":38800,"station_id":"ce4bh3p2rcd13ifvqdq0","pricing_plan_id":"cebpf4jnsgd1na2vs0mg"},{"bike_id":"e03a78a1-d389-47c7-9581-c162c7716361","system_id":"levelo_inurba_marseille","lat":43.29041,"lon":5.35912,"is_reserved":false,"is_disabled":false,"rental_uris":{"android":"levelo://app?vid=e03a78a1-d389-47c7-9581-c162c7716361","ios":"levelo://app?vid=e03a78a1-d389-47c7-9581-c162c7716361"},"vehicle_type_id":"4","last_reported":1727208574,"current_range_meters":15200,"station_id":"ce4bha92rcd13ifvqeg0","pricing_plan_id":"cebpf4jnsgd1na2vs0mg"},{"bike_id":"49ad64f9-8f01-4c61-8c45-87873d0f0587","system_id":"levelo_inurba_marseille","lat":43.31999,"lon":5.3817,"is_reserved":false,"is_disabled":false,"rental_uris":{"android":"levelo://app?vid=49ad64f9-8f01-4c61-8c45-87873d0f0587","ios":"levelo://app?vid=49ad64f9-8f01-4c61-8c45-87873d0f0587"},"vehicle_type_id":"4","last_reported":1727208574,"current_range_meters":36000,"station_id":"ce4bhr12rcd13ifvqhpg","pricing_plan_id":"cebpf4jnsgd1na2vs0mg"},{"bike_id":"dcfd1a3f-06b1-4c63-993b-b79e5484eea9","system_id":"levelo_inurba_marseille","lat":43.31718,"lon":5.43707,"is_reserved":false,"is_disabled":false,"rental_uris":{"android":"levelo://app?vid=dcfd1a3f-06b1-4c63-993b-b79e5484eea9","ios":"levelo://app?vid=dcfd1a3f-06b1-4c63-993b-b79e5484eea9"},"vehicle_type_id":"4","last_reported":1727208574,"current_range_meters":29600,"station_id":"ce4bhp92rcd13ifvqhcg","pricing_plan_id":"cebpf4jnsgd1na2vs0mg"},{"bike_id":"d82c7c51-c376-48ae-bad8-66d7ae0dfdbb","system_id":"levelo_inurba_marseille","lat":43.27999,"lon":5.40017,"is_reserved":false,"is_disabled":false,"rental_uris":{"android":"levelo://app?vid=d82c7c51-c376-48ae-bad8-66d7ae0dfdbb","ios":"levelo://app?vid=d82c7c51-c376-48ae-bad8-66d7ae0dfdbb"},"vehicle_type_id":"4","last_reported":1727208574,"current_range_meters":9600,"station_id":"ce4bho92rcd13ifvqh4g","pricing_plan_id":"cebpf4jnsgd1na2vs0mg"},{"bike_id":"55ebcac3-554b-4ef4-8cbc-abaedf46b845","system_id":"levelo_inurba_marseille","lat":43.32294,"lon":5.38277,"is_reserved":false,"is_disabled":false,"rental_uris":{"android":"levelo://app?vid=55ebcac3-554b-4ef4-8cbc-abaedf46b845","ios":"levelo://app?vid=55ebcac3-554b-4ef4-8cbc-abaedf46b845"},"vehicle_type_id":"4","last_reported":1727208574,"current_range_meters":11200,"station_id":"ce4bhr12rcd13ifvqhqg","pricing_plan_id":"cebpf4jnsgd1na2vs0mg"},{"bike_id":"efdc599c-8a7b-48c2-8976-95247a3f6678","system_id":"levelo_inurba_marseille","lat":43.28,"lon":5.40019,"is_reserved":false,"is_disabled":false,"rental_uris":{"android":"levelo://app?vid=efdc599c-8a7b-48c2-8976-95247a3f6678","ios":"levelo://app?vid=efdc599c-8a7b-48c2-8976-95247a3f6678"},"vehicle_type_id":"4","last_reported":1727208574,"current_range_meters":25600,"station_id":"ce4bho92rcd13ifvqh4g","pricing_plan_id":"cebpf4jnsgd1na2vs0mg"},{"bike_id":"bcef0ecf-36c3-4241-adfd-fafc3cc67695","system_id":"levelo_inurba_marseille","lat":43.29584,"lon":5.36731,"is_reserved":false,"is_disabled":false,"rental_uris":{"android":"levelo://app?vid=bcef0ecf-36c3-4241-adfd-fafc3cc67695","ios":"levelo://app?vid=bcef0ecf-36c3-4241-adfd-fafc3cc67695"},"vehicle_type_id":"4","last_reported":1727208574,"current_range_meters":17200,"station_id":"ce4bgph2rcd13ifvqc2g","pricing_plan_id":"cebpf4jnsgd1na2vs0mg"},{"bike_id":"7877c048-8485-47cd-8a23-f0c088c94acf","system_id":"levelo_inurba_marseille","lat":43.293016,"lon":5.374512,"is_reserved":false,"is_disabled":false,"rental_uris":{"android":"levelo://app?vid=7877c048-8485-47cd-8a23-f0c088c94acf","ios":"levelo://app?vid=7877c048-8485-47cd-8a23-f0c088c94acf"},"vehicle_type_id":"4","last_reported":1727208574,"current_range_meters":27200,"station_id":"ce4bgi12rcd13ifvqb70","pricing_plan_id":"cebpf4jnsgd1na2vs0mg"},{"bike_id":"1ed71ef6-3c10-4900-83be-95d39f424656","system_id":"levelo_inurba_marseille","lat":43.29444,"lon":5.39752,"is_reserved":false,"is_disabled":false,"rental_uris":{"android":"levelo://app?vid=1ed71ef6-3c10-4900-83be-95d39f424656","ios":"levelo://app?vid=1ed71ef6-3c10-4900-83be-95d39f424656"},"vehicle_type_id":"4","last_reported":1727208574,"current_range_meters":26800,"station_id":"ce4bh3h2rcd13ifvqdo0","pricing_plan_id":"cebpf4jnsgd1na2vs0mg"},{"bike_id":"69aae0c0-8704-47b8-8759-b7fa3b6dd031","system_id":"levelo_inurba_marseille","lat":43.27374,"lon":5.36262,"is_reserved":false,"is_disabled":false,"rental_uris":{"android":"levelo://app?vid=69aae0c0-8704-47b8-8759-b7fa3b6dd031","ios":"levelo://app?vid=69aae0c0-8704-47b8-8759-b7fa3b6dd031"},"vehicle_type_id":"4","last_reported":1727208574,"current_range_meters":24000,"station_id":"ce4bhbh2rcd13ifvqeo0","pricing_plan_id":"cebpf4jnsgd1na2vs0mg"},{"bike_id":"ed009b01-d01d-4c7c-872e-073da0f31e6d","system_id":"levelo_inurba_marseille","lat":43.29541,"lon":5.38553,"is_reserved":false,"is_disabled":false,"rental_uris":{"android":"levelo://app?vid=ed009b01-d01d-4c7c-872e-073da0f31e6d","ios":"levelo://app?vid=ed009b01-d01d-4c7c-872e-073da0f31e6d"},"vehicle_type_id":"4","last_reported":1727208574,"current_range_meters":3600,"station_id":"ce4bgih2rcd13ifvqba0","pricing_plan_id":"cebpf4jnsgd1na2vs0mg"},{"bike_id":"683ca625-bade-49e9-a714-8eeef49dd437","system_id":"levelo_inurba_marseille","lat":43.30806,"lon":5.43528,"is_reserved":false,"is_disabled":false,"rental_uris":{"android":"levelo://app?vid=683ca625-bade-49e9-a714-8eeef49dd437","ios":"levelo://app?vid=683ca625-bade-49e9-a714-8eeef49dd437"},"vehicle_type_id":"4","last_reported":1727208574,"current_range_meters":4000,"station_id":"ce4bhph2rcd13ifvqheg","pricing_plan_id":"cebpf4jnsgd1na2vs0mg"},{"bike_id":"d71ab7e0-eafe-48e2-805a-4b6637ccddc2","system_id":"levelo_inurba_marseille","lat":43.34147,"lon":5.40899,"is_reserved":false,"is_disabled":false,"rental_uris":{"android":"levelo://app?vid=d71ab7e0-eafe-48e2-805a-4b6637ccddc2","ios":"levelo://app?vid=d71ab7e0-eafe-48e2-805a-4b6637ccddc2"},"vehicle_type_id":"4","last_reported":1727208574,"current_range_meters":11600,"station_id":"ce4bhqh2rcd13ifvqhlg","pricing_plan_id":"cebpf4jnsgd1na2vs0mg"},{"bike_id":"45765748-0b5a-4b92-8fe0-5d0234b54f64","system_id":"levelo_inurba_marseille","lat":43.29249,"lon":5.40916,"is_reserved":false,"is_disabled":false,"rental_uris":{"android":"levelo://app?vid=45765748-0b5a-4b92-8fe0-5d0234b54f64","ios":"levelo://app?vid=45765748-0b5a-4b92-8fe0-5d0234b54f64"},"vehicle_type_id":"4","last_reported":1727208574,"current_range_meters":10800,"station_id":"ce4bh192rcd13ifvqdc0","pricing_plan_id":"cebpf4jnsgd1na2vs0mg"},{"bike_id":"2aec2e5e-c7fc-4331-8480-724e30289908","system_id":"levelo_inurba_marseille","lat":43.3095,"lon":5.37958,"is_reserved":false,"is_disabled":false,"rental_uris":{"android":"levelo://app?vid=2aec2e5e-c7fc-4331-8480-724e30289908","ios":"levelo://app?vid=2aec2e5e-c7fc-4331-8480-724e30289908"},"vehicle_type_id":"4","last_reported":1727208574,"current_range_meters":16800,"station_id":"","pricing_plan_id":"cebpf4jnsgd1na2vs0mg"},{"bike_id":"91d7c540-02c1-41d4-b0b2-e94591b54c04","system_id":"levelo_inurba_marseille","lat":43.29394,"lon":5.37852,"is_reserved":false,"is_disabled":false,"rental_uris":{"android":"levelo://app?vid=91d7c540-02c1-41d4-b0b2-e94591b54c04","ios":"levelo://app?vid=91d7c540-02c1-41d4-b0b2-e94591b54c04"},"vehicle_type_id":"4","last_reported":1727208574,"current_range_meters":37600,"station_id":"ce4bgjh2rcd13ifvqbf0","pricing_plan_id":"cebpf4jnsgd1na2vs0mg"},{"bike_id":"31bb3d52-6f91-4925-9c4f-45a888e4ce31","system_id":"levelo_inurba_marseille","lat":43.29141,"lon":5.38612,"is_reserved":false,"is_disabled":false,"rental_uris":{"android":"levelo://app?vid=31bb3d52-6f91-4925-9c4f-45a888e4ce31","ios":"levelo://app?vid=31bb3d52-6f91-4925-9c4f-45a888e4ce31"},"vehicle_type_id":"4","last_reported":1727208574,"current_range_meters":11200,"station_id":"","pricing_plan_id":"cebpf4jnsgd1na2vs0mg"},{"bike_id":"d00adc07-cd64-4f29-a247-2c15859e955b","system_id":"levelo_inurba_marseille","lat":43.281,"lon":5.3784,"is_reserved":false,"is_disabled":false,"rental_uris":{"android":"levelo://app?vid=d00adc07-cd64-4f29-a247-2c15859e955b","ios":"levelo://app?vid=d00adc07-cd64-4f29-a247-2c15859e955b"},"vehicle_type_id":"4","last_reported":1727208574,"current_range_meters":38800,"station_id":"ce4bha12rcd13ifvqee0","pricing_plan_id":"cebpf4jnsgd1na2vs0mg"},{"bike_id":"95f8ac12-05ad-433a-bab5-6c2ee3d4d27e","system_id":"levelo_inurba_marseille","lat":43.31997,"lon":5.3815,"is_reserved":false,"is_disabled":false,"rental_uris":{"android":"levelo://app?vid=95f8ac12-05ad-433a-bab5-6c2ee3d4d27e","ios":"levelo://app?vid=95f8ac12-05ad-433a-bab5-6c2ee3d4d27e"},"vehicle_type_id":"4","last_reported":1727208574,"current_range_meters":38400,"station_id":"ce4bhr12rcd13ifvqhpg","pricing_plan_id":"cebpf4jnsgd1na2vs0mg"},{"bike_id":"6a7bb762-c814-423c-bf69-94b16177e698","system_id":"levelo_inurba_marseille","lat":43.29006,"lon":5.35613,"is_reserved":false,"is_disabled":false,"rental_uris":{"android":"levelo://app?vid=6a7bb762-c814-423c-bf69-94b16177e698","ios":"levelo://app?vid=6a7bb762-c814-423c-bf69-94b16177e698"},"vehicle_type_id":"4","last_reported":1727208574,"current_range_meters":7200,"station_id":"ce4bhb92rcd13ifvqen0","pricing_plan_id":"cebpf4jnsgd1na2vs0mg"},{"bike_id":"3b86e9c2-974d-41d8-aa6f-d1d0d0cc2f99","system_id":"levelo_inurba_marseille","lat":43.25584,"lon":5.38234,"is_reserved":false,"is_disabled":false,"rental_uris":{"android":"levelo://app?vid=3b86e9c2-974d-41d8-aa6f-d1d0d0cc2f99","ios":"levelo://app?vid=3b86e9c2-974d-41d8-aa6f-d1d0d0cc2f99"},"vehicle_type_id":"4","last_reported":1727208574,"current_range_meters":18800,"station_id":"ce4bhih2rcd13ifvqfs0","pricing_plan_id":"cebpf4jnsgd1na2vs0mg"},{"bike_id":"6df67727-c952-441f-a071-9085c4b36265","system_id":"levelo_inurba_marseille","lat":43.27997,"lon":5.41656,"is_reserved":false,"is_disabled":false,"rental_uris":{"android":"levelo://app?vid=6df67727-c952-441f-a071-9085c4b36265","ios":"levelo://app?vid=6df67727-c952-441f-a071-9085c4b36265"},"vehicle_type_id":"4","last_reported":1727208574,"current_range_meters":38800,"station_id":"ce4bho12rcd13ifvqh1g","pricing_plan_id":"cebpf4jnsgd1na2vs0mg"},{"bike_id":"3be3268d-9483-49f9-ba39-2a233637549b","system_id":"levelo_inurba_marseille","lat":43.28409,"lon":5.37512,"is_reserved":false,"is_disabled":false,"rental_uris":{"android":"levelo://app?vid=3be3268d-9483-49f9-ba39-2a233637549b","ios":"levelo://app?vid=3be3268d-9483-49f9-ba39-2a233637549b"},"vehicle_type_id":"4","last_reported":1727208574,"current_range_meters":15200,"station_id":"ce4bh412rcd13ifvqds0","pricing_plan_id":"cebpf4jnsgd1na2vs0mg"},{"bike_id":"bdfbc543-95dd-4b6d-baa4-cf094a31622c","system_id":"levelo_inurba_marseille","lat":43.30789,"lon":5.38161,"is_reserved":false,"is_disabled":false,"rental_uris":{"android":"levelo://app?vid=bdfbc543-95dd-4b6d-baa4-cf094a31622c","ios":"levelo://app?vid=bdfbc543-95dd-4b6d-baa4-cf094a31622c"},"vehicle_type_id":"4","last_reported":1727208574,"current_range_meters":38800,"station_id":"ce4bgt12rcd13ifvqce0","pricing_plan_id":"cebpf4jnsgd1na2vs0mg"},{"bike_id":"8c9cdf9b-ee77-4719-b632-802e8e9af72b","system_id":"levelo_inurba_marseille","lat":43.29577,"lon":5.37499,"is_reserved":false,"is_disabled":false,"rental_uris":{"android":"levelo://app?vid=8c9cdf9b-ee77-4719-b632-802e8e9af72b","ios":"levelo://app?vid=8c9cdf9b-ee77-4719-b632-802e8e9af72b"},"vehicle_type_id":"4","last_reported":1727208574,"current_range_meters":28400,"station_id":"ce4bh0h2rcd13ifvqd40","pricing_plan_id":"cebpf4jnsgd1na2vs0mg"},{"bike_id":"eac65467-513c-4b62-a220-d56a9f4ed53d","system_id":"levelo_inurba_marseille","lat":43.24646,"lon":5.38894,"is_reserved":false,"is_disabled":false,"rental_uris":{"android":"levelo://app?vid=eac65467-513c-4b62-a220-d56a9f4ed53d","ios":"levelo://app?vid=eac65467-513c-4b62-a220-d56a9f4ed53d"},"vehicle_type_id":"4","last_reported":1727208574,"current_range_meters":4000,"station_id":"ce4bhg12rcd13ifvqf60","pricing_plan_id":"cebpf4jnsgd1na2vs0mg"},{"bike_id":"e95ff62b-f4ae-42d7-b4e5-2b5d447e1746","system_id":"levelo_inurba_marseille","lat":43.31755,"lon":5.39014,"is_reserved":false,"is_disabled":false,"rental_uris":{"android":"levelo://app?vid=e95ff62b-f4ae-42d7-b4e5-2b5d447e1746","ios":"levelo://app?vid=e95ff62b-f4ae-42d7-b4e5-2b5d447e1746"},"vehicle_type_id":"4","last_reported":1727208574,"current_range_meters":11600,"station_id":"ce4bhqp2rcd13ifvqhng","pricing_plan_id":"cebpf4jnsgd1na2vs0mg"},