{"last_updated":1727773794,"ttl":60,"version":"2.2","data":{"bikes":[{"bike_id":"4d3cd05f-bdaf-46df-aa6a-2f774239d020","system_id":"levelo_inurba_marseille","lat":43.24389,"lon":5.37061,"is_reserved":false,"is_disabled":false,"rental_uris":{"android":"levelo://app?vid=4d3cd05f-bdaf-46df-aa6a-2f774239d020","ios":"levelo://app?vid=4d3cd05f-bdaf-46df-aa6a-2f774239d020"},"vehicle_type_id":"4","last_reported":1727773794,"current_range_meters":9200,"station_id":"ce4bhhh2rcd13ifvqfk0","pricing_plan_id":"cebpf4jnsgd1na2vs0mg"},{"bike_id":"0487b52a-bf23-498c-9d8a-55488172dc7f","system_id":"levelo_inurba_marseille","lat":43.31227,"lon":5.36877,"is_reserved":false,"is_disabled":false,"rental_uris":{"android":"levelo://app?vid=0487b52a-bf23-498c-9d8a-55488172dc7f","ios":"levelo://app?vid=0487b52a-bf23-498c-9d8a-55488172dc7f"},"vehicle_type_id":"4","last_reported":1727773794,"current_range_meters":8000,"station_id":"ce4bgkh2rcd13ifvqbk0","pricing_plan_id":"cebpf4jnsgd1na2vs0mg"},{"bike_id":"fcedfe93-98f7-45b5-a82c-5b6875526bd3","system_id":"levelo_inurba_marseille","lat":43.29569,"lon":5.37512,"is_reserved":false,"is_disabled":false,"rental_uris":{"android":"levelo://app?vid=fcedfe93-98f7-45b5-a82c-5b6875526bd3","ios":"levelo://app?vid=fcedfe93-98f7-45b5-a82c-5b6875526bd3"},"vehicle_type_id":"4","last_reported":1727773794,"current_range_meters":38400,"station_id":"ce4bgh92rcd13ifvqb50","pricing_plan_id":"cebpf4jnsgd1na2vs0mg"},{"bike_id":"f3dafe68-1b2f-4c5e-9181-3da7f4fe320c","system_id":"levelo_inurba_marseille","lat":43.30183,"lon":5.36618,"is_reserved":false,"is_disabled":false,"rental_uris":{"android":"levelo://app?vid=f3dafe68-1b2f-4c5e-9181-3da7f4fe320c","ios":"levelo://app?vid=f3dafe68-1b2f-4c5e-9181-3da7f4fe320c"},"vehicle_type_id":"4","last_reported":1727773794,"current_range_meters":29600,"station_id":"ce4bgrh2rcd13ifvqc8g","pricing_plan_id":"cebpf4jnsgd1na2vs0mg"},{"bike_id":"45278508-ffed-42b8-b0fa-7766eabb2075","system_id":"levelo_inurba_marseille","lat":43.3415,"lon":5.40904,"is_reserved":false,"is_disabled":false,"rental_uris":{"android":"levelo://app?vid=45278508-ffed-42b8-b0fa-7766eabb2075","ios":"levelo://app?vid=45278508-ffed-42b8-b0fa-7766eabb2075"},"vehicle_type_id":"4","last_reported":1727773794,"current_range_meters":36000,"station_id":"ce4bhqh2rcd13ifvqhlg","pricing_plan_id":"cebpf4jnsgd1na2vs0mg"},{"bike_id":"e6b6579e-ff93-48f0-9106-a016bdfdca0b","system_id":"levelo_inurba_marseille","lat":43.31221,"lon":5.36857,"is_reserved":false,"is_disabled":false,"rental_uris":{"android":"levelo://app?vid=e6b6579e-ff93-48f0-9106-a016bdfdca0b","ios":"levelo://app?vid=e6b6579e-ff93-48f0-9106-a016bdfdca0b"},"vehicle_type_id":"4","last_reported":1727773794,"current_range_meters":33600,"station_id":"ce4bgl92rcd13ifvqbq0","pricing_plan_id":"cebpf4jnsgd1na2vs0mg"},{"bike_id":"dad62afc-f55e-4d7d-8a4c-c944cff61821","system_id":"levelo_inurba_marseille","lat":43.24405,"lon":5.37048,"is_reserved":false,"is_disabled":false,"rental_uris":{"android":"levelo://app?vid=dad62afc-f55e-4d7d-8a4c-c944cff61821","ios":"levelo://app?vid=dad62afc-f55e-4d7d-8a4c-c944cff61821"},"vehicle_type_id":"4","last_reported":1727773794,"current_range_meters":27600,"station_id":"ce4bhhh2rcd13ifvqfk0","pricing_plan_id":"cebpf4jnsgd1na2vs0mg"},{"bike_id":"a6fa0cf1-ec47-4817-9795-cad14a92d455","system_id":"levelo_inurba_marseille","lat":43.28076,"lon":5.3966,"is_reserved":false,"is_disabled":false,"rental_uris":{"android":"levelo://app?vid=a6fa0cf1-ec47-4817-9795-cad14a92d455","ios":"levelo://app?vid=a6fa0cf1-ec47-4817-9795-cad14a92d455"},"vehicle_type_id":"4","last_reported":1727773794,"current_range_meters":38400,"station_id":"ce4bho12rcd13ifvqh2g","pricing_plan_id":"cebpf4jnsgd1na2vs0mg"},{"bike_id":"513c5bd8-bf1f-4410-a827-c1858341840c","system_id":"levelo_inurba_marseille","lat":43.2439,"lon":5.3705,"is_reserved":false,"is_disabled":false,"rental_uris":{"android":"levelo://app?vid=513c5bd8-bf1f-4410-a827-c1858341840c","ios":"levelo://app?vid=513c5bd8-bf1f-4410-a827-c1858341840c"},"vehicle_type_id":"4","last_reported":1727773794,"current_range_meters":28800,"station_id":"ce4bhhh2rcd13ifvqfk0","pricing_plan_id":"cebpf4jnsgd1na2vs0mg"},{"bike_id":"f7ab1ff5-e3c9-48ef-bb52-3f7e8d2513a3","system_id":"levelo_inurba_marseille","lat":43.30533,"lon":5.36727,"is_reserved":false,"is_disabled":false,"rental_uris":{"android":"levelo://app?vid=f7ab1ff5-e3c9-48ef-bb52-3f7e8d2513a3","ios":"levelo://app?vid=f7ab1ff5-e3c9-48ef-bb52-3f7e8d2513a3"},"vehicle_type_id":"4","last_reported":1727773794,"current_range_meters":6800,"station_id":"ce4bgrp2rcd13ifvqc9g","pricing_plan_id":"cebpf4jnsgd1na2vs0mg"},{"bike_id":"2589a200-0cb8-48a5-831e-100277e6af65","system_id":"levelo_inurba_marseille","lat":43.31713,"lon":5.43705,"is_reserved":false,"is_disabled":false,"rental_uris":{"android":"levelo://app?vid=2589a200-0cb8-48a5-831e-100277e6af65","ios":"levelo://app?vid=2589a200-0cb8-48a5-831e-100277e6af65"},"vehicle_type_id":"4","last_reported":1727773794,"current_range_meters":13600,"station_id":"ce4bhp92rcd13ifvqhcg","pricing_plan_id":"cebpf4jnsgd1na2vs0mg"},{"bike_id":"25f9f23c-4b19-46a6-97e3-06a702f41dc9","system_id":"levelo_inurba_marseille","lat":43.30473,"lon":5.37894,"is_reserved":false,"is_disabled":false,"rental_uris":{"android":"levelo://app?vid=25f9f23c-4b19-46a6-97e3-06a702f41dc9","ios":"levelo://app?vid=25f9f23c-4b19-46a6-97e3-06a702f41dc9"},"vehicle_type_id":"4","last_reported":1727773794,"current_range_meters":26800,"station_id":"ce4bgup2rcd13ifvqcn0","pricing_plan_id":"cebpf4jnsgd1na2vs0mg"},{"bike_id":"27e22fd8-b976-4b3d-94ef-b910dbc7fdf8","system_id":"levelo_inurba_marseille","lat":43.25934,"lon":5.40908,"is_reserved":false,"is_disabled":false,"rental_uris":{"android":"levelo://app?vid=27e22fd8-b976-4b3d-94ef-b910dbc7fdf8","ios":"levelo://app?vid=27e22fd8-b976-4b3d-94ef-b910dbc7fdf8"},"vehicle_type_id":"4","last_reported":1727773794,"current_range_meters":27600,"station_id":"ce4bhm92rcd13ifvqglg","pricing_plan_id":"cebpf4jnsgd1na2vs0mg"},{"bike_id":"96fc2d61-401a-4679-b3d0-fe240de168f4","system_id":"levelo_inurba_marseille","lat":43.33756,"lon":5.37475,"is_reserved":false,"is_disabled":false,"rental_uris":{"android":"levelo://app?vid=96fc2d61-401a-4679-b3d0-fe240de168f4","ios":"levelo://app?vid=96fc2d61-401a-4679-b3d0-fe240de168f4"},"vehicle_type_id":"4","last_reported":1727773794,"current_range_meters":17600,"station_id":"","pricing_plan_id":"cebpf4jnsgd1na2vs0mg"},{"bike_id":"4f5f571b-2480-4e15-9c00-aa4e592bddbe","system_id":"levelo_inurba_marseille","lat":43.31341,"lon":5.36714,"is_reserved":false,"is_disabled":false,"rental_uris":{"android":"levelo://app?vid=4f5f571b-2480-4e15-9c00-aa4e592bddbe","ios":"levelo://app?vid=4f5f571b-2480-4e15-9c00-aa4e592bddbe"},"vehicle_type_id":"4","last_reported":1727773794,"current_range_meters":35200,"station_id":"ce4bgr92rcd13ifvqc6g","pricing_plan_id":"cebpf4jnsgd1na2vs0mg"},{"bike_id":"0dbe2aee-193e-494a-954a-2b35fade3120","system_id":"levelo_inurba_marseille","lat":43.299584,"lon":5.413272,"is_reserved":false,"is_disabled":false,"rental_uris":{"android":"levelo://app?vid=0dbe2aee-193e-494a-954a-2b35fade3120","ios":"levelo://app?vid=0dbe2aee-193e-494a-954a-2b35fade3120"},"vehicle_type_id":"4","last_reported":1727773794,"current_range_meters":34800,"station_id":"ce4bhhp2rcd13ifvqfm0","pricing_plan_id":"cebpf4jnsgd1na2vs0mg"},{"bike_id":"2da5f1b3-c2a9-4899-ba79-a0ea0fb8b9dd","system_id":"levelo_inurba_marseille","lat":43.2408,"lon":5.37751,"is_reserved":false,"is_disabled":false,"rental_uris":{"android":"levelo://app?vid=2da5f1b3-c2a9-4899-ba79-a0ea0fb8b9dd","ios":"levelo://app?vid=2da5f1b3-c2a9-4899-ba79-a0ea0fb8b9dd"},"vehicle_type_id":"4","last_reported":1727773794,"current_range_meters":8000,"station_id":"ce4bhnp2rcd13ifvqgvg","pricing_plan_id":"cebpf4jnsgd1na2vs0mg"},{"bike_id":"5fc7f6b1-9a5d-442e-a59a-c5c71593d4b5","system_id":"levelo_inurba_marseille","lat":43.29578,"lon":5.36736,"is_reserved":false,"is_disabled":false,"rental_uris":{"android":"levelo://app?vid=5fc7f6b1-9a5d-442e-a59a-c5c71593d4b5","ios":"levelo://app?vid=5fc7f6b1-9a5d-442e-a59a-c5c71593d4b5"},"vehicle_type_id":"4","last_reported":1727773794,"current_range_meters":38400,"station_id":"ce4bgph2rcd13ifvqc2g","pricing_plan_id":"cebpf4jnsgd1na2vs0mg"},{"bike_id":"64ee29d5-dc36-4eca-b595-d58999ae65c1","system_id":"levelo_inurba_marseille","lat":43.30096,"lon":5.37245,"is_reserved":false,"is_disabled":false,"rental_uris":{"android":"levelo://app?vid=64ee29d5-dc36-4eca-b595-d58999ae65c1","ios":"levelo://app?vid=64ee29d5-dc36-4eca-b595-d58999ae65c1"},"vehicle_type_id":"4","last_reported":1727773794,"current_range_meters":36800,"station_id":"ce4bh9p2rcd13ifvqed0","pricing_plan_id":"cebpf4jnsgd1na2vs0mg"},{"bike_id":"9e03787a-2278-4bc0-9f90-d1b5cb4d5e8e","system_id":"levelo_inurba_marseille","lat":43.30539,"lon":5.36547,"is_reserved":false,"is_disabled":false,"rental_uris":{"android":"levelo://app?vid=9e03787a-2278-4bc0-9f90-d1b5cb4d5e8e","ios":"levelo://app?vid=9e03787a-2278-4bc0-9f90-d1b5cb4d5e8e"},"vehicle_type_id":"4","last_reported":1727773794,"current_range_meters":36000,"station_id":"ce4bgs12rcd13ifvqcag","pricing_plan_id":"cebpf4jnsgd1na2vs0mg"},{"bike_id":"765b7c1c-7a29-4194-923c-5a562fb59f92","system_id":"levelo_inurba_marseille","lat":43.294334,"lon":5.397567,"is_reserved":false,"is_disabled":false,"rental_uris":{"android":"levelo://app?vid=765b7c1c-7a29-4194-923c-5a562fb59f92","ios":"levelo://app?vid=765b7c1c-7a29-4194-923c-5a562fb59f92"},"vehicle_type_id":"4","last_reported":1727773794,"current_range_meters":20400,"station_id":"ce4bh3h2rcd13ifvqdo0","pricing_plan_id":"cebpf4jnsgd1na2vs0mg"},{"bike_id":"5e87f478-c09c-494d-a2b5-5ca38b197262","system_id":"levelo_inurba_marseille","lat":43.29515,"lon":5.37519,"is_reserved":false,"is_disabled":false,"rental_uris":{"android":"levelo://app?vid=5e87f478-c09c-494d-a2b5-5ca38b197262","ios":"levelo://app?vid=5e87f478-c09c-494d-a2b5-5ca38b197262"},"vehicle_type_id":"4","last_reported":1727773794,"current_range_meters":32000,"station_id":"ce4bgkp2rcd13ifvqbmg","pricing_plan_id":"cebpf4jnsgd1na2vs0mg"},{"bike_id":"a09f389b-08fe-436a-9fac-a332159c7a30","system_id":"levelo_inurba_marseille","lat":43.27486,"lon":5.42463,"is_reserved":false,"is_disabled":false,"rental_uris":{"android":"levelo://app?vid=a09f389b-08fe-436a-9fac-a332159c7a30","ios":"levelo://app?vid=a09f389b-08fe-436a-9fac-a332159c7a30"},"vehicle_type_id":"4","last_reported":1727773794,"current_range_meters":18800,"station_id":"ce4bhn92rcd13ifvqgrg","pricing_plan_id":"cebpf4jnsgd1na2vs0mg"},{"bike_id":"74dcd09d-9212-4b44-9964-c7ba6bc4fdfc","system_id":"levelo_inurba_marseille","lat":43.25943,"lon":5.40905,"is_reserved":false,"is_disabled":false,"rental_uris":{"android":"levelo://app?vid=74dcd09d-9212-4b44-9964-c7ba6bc4fdfc","ios":"levelo://app?vid=74dcd09d-9212-4b44-9964-c7ba6bc4fdfc"},"vehicle_type_id":"4","last_reported":1727773794,"current_range_meters":30400,"station_id":"ce4bhm92rcd13ifvqglg","pricing_plan_id":"cebpf4jnsgd1na2vs0mg"},{"bike_id":"c16894ef-ea47-49a1-8d93-377563dcb0c4","system_id":"levelo_inurba_marseille","lat":43.29005,"lon":5.35614,"is_reserved":false,"is_disabled":false,"rental_uris":{"android":"levelo://app?vid=c16894ef-ea47-49a1-8d93-377563dcb0c4","ios":"levelo://app?vid=c16894ef-ea47-49a1-8d93-377563dcb0c4"},"vehicle_type_id":"4","last_reported":1727773794,"current_range_meters":37600,"station_id":"ce4bhb92rcd13ifvqen0","pricing_plan_id":"cebpf4jnsgd1na2vs0mg"},{"bike_id":"068b2f9a-ba2d-481e-a87a-d34831ca26cb","system_id":"levelo_inurba_marseille","lat":43.30152,"lon":5.38077,"is_reserved":false,"is_disabled":false,"rental_uris":{"android":"levelo://app?vid=068b2f9a-ba2d-481e-a87a-d34831ca26cb","ios":"levelo://app?vid=068b2f9a-ba2d-481e-a87a-d34831ca26cb"},"vehicle_type_id":"4","last_reported":1727773794,"current_range_meters":24400,"station_id":"ce4bgjp2rcd13ifvqbh0","pricing_plan_id":"cebpf4jnsgd1na2vs0mg"},{"bike_id":"e8a6161e-bd30-4c88-9db9-731562a29b58","system_id":"levelo_inurba_marseille","lat":43.27808,"lon":5.40711,"is_reserved":false,"is_disabled":false,"rental_uris":{"android":"levelo://app?vid=e8a6161e-bd30-4c88-9db9-731562a29b58","ios":"levelo://app?vid=e8a6161e-bd30-4c88-9db9-731562a29b58"},"vehicle_type_id":"4","last_reported":1727773794,"current_range_meters":31200,"station_id":"ce4bhnh2rcd13ifvqgtg","pricing_plan_id":"cebpf4jnsgd1na2vs0mg"},{"bike_id":"3f5205da-c6a9-4034-acd8-b9e43a5c01dd","system_id":"levelo_inurba_marseille","lat":43.30474,"lon":5.37901,"is_reserved":false,"is_disabled":false,"rental_uris":{"android":"levelo://app?vid=3f5205da-c6a9-4034-acd8-b9e43a5c01dd","ios":"levelo://app?vid=3f5205da-c6a9-4034-acd8-b9e43a5c01dd"},"vehicle_type_id":"4","last_reported":1727773794,"current_range_meters":28400,"station_id":"ce4bgup2rcd13ifvqcn0","pricing_plan_id":"cebpf4jnsgd1na2vs0mg"},{"bike_id":"6ab918ad-6b0d-4d12-b15c-67a2cccf6160","system_id":"levelo_inurba_marseille","lat":43.25938,"lon":5.40917,"is_reserved":false,"is_disabled":false,"rental_uris":{"android":"levelo://app?vid=6ab918ad-6b0d-4d12-b15c-67a2cccf6160","ios":"levelo://app?vid=6ab918ad-6b0d-4d12-b15c-67a2cccf6160"},"vehicle_type_id":"4","last_reported":1727773794,"current_range_meters":7200,"station_id":"ce4bhm92rcd13ifvqglg","pricing_plan_id":"cebpf4jnsgd1na2vs0mg"},{"bike_id":"e3bc9daa-d7c3-457f-bb34-575407f959d1","system_id":"levelo_inurba_marseille","lat":43.30902,"lon":5.36852,"is_reserved":false,"is_disabled":false,"rental_uris":{"android":"levelo://app?vid=e3bc9daa-d7c3-457f-bb34-575407f959d1","ios":"levelo://app?vid=e3bc9daa-d7c3-457f-bb34-575407f959d1"},"vehicle_type_id":"4","last_reported":1727773794,"current_range_meters":26800,"station_id":"ce4bgn92rcd13ifvqbvg","pricing_plan_id":"cebpf4jnsgd1na2vs0mg"},{"bike_id":"763e76f3-4818-44ec-9b23-75e72ff560bd","system_id":"levelo_inurba_marseille","lat":43.30599,"lon":5.37226,"is_reserved":false,"is_disabled":false,"rental_uris":{"android":"levelo://app?vid=763e76f3-4818-44ec-9b23-75e72ff560bd","ios":"levelo://app?vid=763e76f3-4818-44ec-9b23-75e72ff560bd"},"vehicle_type_id":"4","last_reported":1727773794,"current_range_meters":38800,"station_id":"ce4bgqh2rcd13ifvqc4g","pricing_plan_id":"cebpf4jnsgd1na2vs0mg"},{"bike_id":"7078a88a-c6ad-4e42-a03d-585647e9b75d","system_id":"levelo_inurba_marseille","lat":43.27488,"lon":5.4246,"is_reserved":false,"is_disabled":false,"rental_uris":{"android":"levelo://app?vid=7078a88a-c6ad-4e42-a03d-585647e9b75d","ios":"levelo://app?vid=7078a88a-c6ad-4e42-a03d-585647e9b75d"},"vehicle_type_id":"4","last_reported":1727773794,"current_range_meters":38400,"station_id":"ce4bhn92rcd13ifvqgrg","pricing_plan_id":"cebpf4jnsgd1na2vs0mg"},{"bike_id":"8b502fc4-6ea4-40e6-be32-3cbc353a5967","system_id":"levelo_inurba_marseille","lat":43.26684,"lon":5.3827,"is_reserved":false,"is_disabled":false,"rental_uris":{"android":"levelo://app?vid=8b502fc4-6ea4-40e6-be32-3cbc353a5967","ios":"levelo://app?vid=8b502fc4-6ea4-40e6-be32-3cbc353a5967"},"vehicle_type_id":"4","last_reported":1727773794,"current_range_meters":12800,"station_id":"ce4bhg92rcd13ifvqf90","pricing_plan_id":"cebpf4jnsgd1na2vs0mg"},{"bike_id":"a8d91c9f-6ceb-4e02-bedd-8027acd311e0","system_id":"levelo_inurba_marseille","lat":43.286621,"lon":5.386743,"is_reserved":false,"is_disabled":false,"rental_uris":{"android":"levelo://app?vid=a8d91c9f-6ceb-4e02-bedd-8027acd311e0","ios":"levelo://app?vid=a8d91c9f-6ceb-4e02-bedd-8027acd311e0"},"vehicle_type_id":"4","last_reported":1727773794,"current_range_meters":38000,"station_id":"ce4bh492rcd13ifvqdug","pricing_plan_id":"cebpf4jnsgd1na2vs0mg"},{"bike_id":"20c5c1ec-3a35-42f8-b10b-ce4c4990d612","system_id":"levelo_inurba_marseille","lat":43.24389,"lon":5.37055,"is_reserved":false,"is_disabled":false,"rental_uris":{"android":"levelo://app?vid=20c5c1ec-3a35-42f8-b10b-ce4c4990d612","ios":"levelo://app?vid=20c5c1ec-3a35-42f8-b10b-ce4c4990d612"},"vehicle_type_id":"4","last_reported":1727773794,"current_range_meters":38800,"station_id":"ce4bhhh2rcd13ifvqfk0","pricing_plan_id":"cebpf4jnsgd1na2vs0mg"},{"bike_id":"f40907cb-16fc-4b0e-9513-8d6d9ed41c19","system_id":"levelo_inurba_marseille","lat":43.303101,"lon":5.369186,"is_reserved":false,"is_disabled":false,"rental_uris":{"android":"levelo://app?vid=f40907cb-16fc-4b0e-9513-8d6d9ed41c19","ios":"levelo://app?vid=f40907cb-16fc-4b0e-9513-8d6d9ed41c19"},"vehicle_type_id":"4","last_reported":1727773794,"current_range_meters":6800,"station_id":"ce4bgqh2rcd13ifvqc5g","pricing_plan_id":"cebpf4jnsgd1na2vs0mg"},{"bike_id":"8b6093db-3634-446a-b668-55835c0dbcfb","system_id":"levelo_inurba_marseille","lat":43.25945,"lon":5.40901,"is_reserved":false,"is_disabled":false,"rental_uris":{"android":"levelo://app?vid=8b6093db-3634-446a-b668-55835c0dbcfb","ios":"levelo://app?vid=8b6093db-3634-446a-b668-55835c0dbcfb"},"vehicle_type_id":"4","last_reported":1727773794,"current_range_meters":6000,"station_id":"ce4bhm92rcd13ifvqglg","pricing_plan_id":"cebpf4jnsgd1na2vs0mg"},{"bike_id":"d7e6feff-2fe1-46aa-a6ad-0a99b32eab3e","system_id":"levelo_inurba_marseille","lat":43.26807,"lon":5.40266,"is_reserved":false,"is_disabled":false,"rental_uris":{"android":"levelo://app?vid=d7e6feff-2fe1-46aa-a6ad-0a99b32eab3e","ios":"levelo://app?vid=d7e6feff-2fe1-46aa-a6ad-0a99b32eab3e"},"vehicle_type_id":"4","last_reported":1727773794,"current_range_meters":37600,"station_id":"ce501612rcd8frsf0b60","pricing_plan_id":"cebpf4jnsgd1na2vs0mg"},{"bike_id":"8ec30c77-0462-4329-92d6-1a8de0834fde","system_id":"levelo_inurba_marseille","lat":43.27489,"lon":5.42466,"is_reserved":false,"is_disabled":false,"rental_uris":{"android":"levelo://app?vid=8ec30c77-0462-4329-92d6-1a8de0834fde","ios":"levelo://app?vid=8ec30c77-0462-4329-92d6-1a8de0834fde"},"vehicle_type_id":"4","last_reported":1727773794,"current_range_meters":22800,"station_id":"ce4bhn92rcd13ifvqgrg","pricing_plan_id":"cebpf4jnsgd1na2vs0mg"},{"bike_id":"cebd3eee-4d43-48d2-bc20-08ae08a02893","system_id":"levelo_inurba_marseille","lat":43.33608,"lon":5.41024,"is_reserved":false,"is_disabled":false,"rental_uris":{"android":"levelo://app?vid=cebd3eee-4d43-48d2-bc20-08ae08a02893","ios":"levelo://app?vid=cebd3eee-4d43-48d2-bc20-08ae08a02893"},"vehicle_type_id":"4","last_reported":1727773794,"current_range_meters":8800,"station_id":"ce4bhqh2rcd13ifvqhmg","pricing_plan_id":"cebpf4jnsgd1na2vs0mg"},{"bike_id":"e924ab17-37c3-453c-bf44-078260e56ac5","system_id":"levelo_inurba_marseille","lat":43.300895,"lon":5.390805,"is_reserved":false,"is_disabled":false,"rental_uris":{"android":"levelo://app?vid=e924ab17-37c3-453c-bf44-078260e56ac5","ios":"levelo://app?vid=e924ab17-37c3-453c-bf44-078260e56ac5"},"vehicle_type_id":"4","last_reported":1727773794,"current_range_meters":16800,"station_id":"ce4bh192rcd13ifvqdb0","pricing_plan_id":"cebpf4jnsgd1na2vs0mg"},{"bike_id":"5d3a19d9-d277-4552-9cba-cbeb2b01e39c","system_id":"levelo_inurba_marseille","lat":43.28676,"lon":5.38662,"is_reserved":false,"is_disabled":false,"rental_uris":{"android":"levelo://app?vid=5d3a19d9-d277-4552-9cba-cbeb2b01e39c","ios":"levelo://app?vid=5d3a19d9-d277-4552-9cba-cbeb2b01e39c"},"vehicle_type_id":"4","last_reported":1727773794,"current_range_meters":36800,"station_id":"ce4bh492rcd13ifvqdug","pricing_plan_id":"cebpf4jnsgd1na2vs0mg"},{"bike_id":"3139d7ee-4ce0-4a6b-9010-c2d18866e36c","system_id":"levelo_inurba_marseille","lat":43.29305,"lon":5.37462,"is_reserved":false,"is_disabled":false,"rental_uris":{"android":"levelo://app?vid=3139d7ee-4ce0-4a6b-9010-c2d18866e36c","ios":"levelo://app?vid=3139d7ee-4ce0-4a6b-9010-c2d18866e36c"},"vehicle_type_id":"4","last_reported":1727773794,"current_range_meters":25600,"station_id":"ce4bgi12rcd13ifvqb70","pricing_plan_id":"cebpf4jnsgd1na2vs0mg"},{"bike_id":"1eb6f4ea-ecf6-4be4-9b1e-5951d10e1aa9","system_id":"levelo_inurba_marseille","lat":43.30789,"lon":5.37639,"is_reserved":false,"is_disabled":false,"rental_uris":{"android":"levelo://app?vid=1eb6f4ea-ecf6-4be4-9b1e-5951d10e1aa9","ios":"levelo://app?vid=1eb6f4ea-ecf6-4be4-9b1e-5951d10e1aa9"},"vehicle_type_id":"4","last_reported":1727773794,"current_range_meters":37600,"station_id":"ce4bgv92rcd13ifvqcq0","pricing_plan_id":"cebpf4jnsgd1na2vs0mg"},{"bike_id":"d97c68b3-b51a-47b8-ab56-064e5ce902f5","system_id":"levelo_inurba_marseille","lat":43.28664,"lon":5.38332,"is_reserved":false,"is_disabled":false,"rental_uris":{"android":"levelo://app?vid=d97c68b3-b51a-47b8-ab56-064e5ce902f5","ios":"levelo://app?vid=d97c68b3-b51a-47b8-ab56-064e5ce902f5"},"vehicle_type_id":"4","last_reported":1727773794,"current_range_meters":34800,"station_id":"","pricing_plan_id":"cebpf4jnsgd1na2vs0mg"},{"bike_id":"ee4c39f0-bb30-48bd-be92-5e42c02027fc","system_id":"levelo_inurba_marseille","lat":43.2668,"lon":5.38263,"is_reserved":false,"is_disabled":false,"rental_uris":{"android":"levelo://app?vid=ee4c39f0-bb30-48bd-be92-5e42c02027fc","ios":"levelo://app?vid=ee4c39f0-bb30-48bd-be92-5e42c02027fc"},"vehicle_type_id":"4","last_reported":1727773794,"current_range_meters":14400,"station_id":"ce4bhg92rcd13ifvqf90","pricing_plan_id":"cebpf4jnsgd1na2vs0mg"},{"bike_id":"6b2b30cd-c9c0-4a82-baf3-f5791f3e71de","system_id":"levelo_inurba_marseille","lat":43.30129,"lon":5.39874,"is_reserved":false,"is_disabled":false,"rental_uris":{"android":"levelo://app?vid=6b2b30cd-c9c0-4a82-baf3-f5791f3e71de","ios":"levelo://app?vid=6b2b30cd-c9c0-4a82-baf3-f5791f3e71de"},"vehicle_type_id":"4","last_reported":1727773794,"current_range_meters":37600,"station_id":"ce4bh0h2rcd13ifvqd40","pricing_plan_id":"cebpf4jnsgd1na2vs0mg"},{"bike_id":"ef009bd4-cca0-46fa-98ef-9bebe2c0f399","system_id":"levelo_inurba_marseille","lat":43.29562,"lon":5.37509,"is_reserved":false,"is_disabled":false,"rental_uris":{"android":"levelo://app?vid=ef009bd4-cca0-46fa-98ef-9bebe2c0f399","ios":"levelo://app?vid=ef009bd4-cca0-46fa-98ef-9bebe2c0f399"},"vehicle_type_id":"4","last_reported":1727773794,"current_range_meters":22000,"station_id":"ce4bgh92rcd13ifvqb50","pricing_plan_id":"cebpf4jnsgd1na2vs0mg"},{"bike_id":"4ca8fc43-7223-4a26-9506-42cde5d42328","system_id":"levelo_inurba_marseille","lat":43.30467,"lon":5.37894,"is_reserved":false,"is_disabled":false,"rental_uris":{"android":"levelo://app?vid=4ca8fc43-7223-4a26-9506-42cde5d42328","ios":"levelo://app?vid=4ca8fc43-7223-4a26-9506-42cde5d42328"},"vehicle_type_id":"4","last_reported":1727773794,"current_range_meters":38800,"station_id":"ce4bgup2rcd13ifvqcn0","pricing_plan_id":"cebpf4jnsgd1na2vs0mg"},{"bike_id":"1dcdcf5f-3bcb-4a0d-b1b8-2ae7e82479ef","system_id":"levelo_inurba_marseille","lat":43.23155,"lon":5.437,"is_reserved":false,"is_disabled":false,"rental_uris":{"android":"levelo://app?vid=1dcdcf5f-3bcb-4a0d-b1b8-2ae7e82479ef","ios":"levelo://app?vid=1dcdcf5f-3bcb-4a0d-b1b8-2ae7e82479ef"},"vehicle_type_id":"4","last_reported":1727773794,"current_range_meters":18000,"station_id":"ce4bhmp2rcd13ifvqgog","pricing_plan_id":"cebpf4jnsgd1na2vs0mg"},{"bike_id":"e0776e4c-907b-4ceb-b9a4-c729615700a3","system_id":"levelo_inurba_marseille","lat":43.28154,"lon":5.42644,"is_reserved":false,"is_disabled":false,"rental_uris":{"android":"levelo://app?vid=e0776e4c-907b-4ceb-b9a4-c729615700a3","ios":"levelo://app?vid=e0776e4c-907b-4ceb-b9a4-c729615700a3"},"vehicle_type_id":"4","last_reported":1727773794,"current_range_meters":22400,"station_id":"ce4bhnh2rcd13ifvqgug","pricing_plan_id":"cebpf4jnsgd1na2vs0mg"},{"bike_id":"61655881-16c9-4131-ab8d-8f63c999894c","system_id":"levelo_inurba_marseille","lat":43.30564,"lon":5.36539,"is_reserved":false,"is_disabled":false,"rental_uris":{"android":"levelo://app?vid=61655881-16c9-4131-ab8d-8f63c999894c","ios":"levelo://app?vid=61655881-16c9-4131-ab8d-8f63c999894c"},"vehicle_type_id":"4","last_reported":1727773794,"current_range_meters":40000,"station_id":"ce4bgs12rcd13ifvqcag","pricing_plan_id":"cebpf4jnsgd1na2vs0mg"},{"bike_id":"d6778df2-5b73-4b02-b63b-972393badd87","system_id":"levelo_inurba_marseille","lat":43.28709,"lon":5.37394,"is_reserved":false,"is_disabled":false,"rental_uris":{"android":"levelo://app?vid=d6778df2-5b73-4b02-b63b-972393badd87","ios":"levelo://app?vid=d6778df2-5b73-4b02-b63b-972393badd87"},"vehicle_type_id":"4","last_reported":1727773794,"current_range_meters":24400,"station_id":"ce4bh3p2rcd13ifvqdq0","pricing_plan_id":"cebpf4jnsgd1na2vs0mg"},{"bike_id":"a1e449c9-30e5-460e-ba67-82a7d6db830f","system_id":"levelo_inurba_marseille","lat":43.24183,"lon":5.39737,"is_reserved":false,"is_disabled":false,"rental_uris":{"android":"levelo://app?vid=a1e449c9-30e5-460e-ba67-82a7d6db830f","ios":"levelo://app?vid=a1e449c9-30e5-460e-ba67-82a7d6db830f"},"vehicle_type_id":"4","last_reported":1727773794,"current_range_meters":29600,"station_id":"ce4bhn12rcd13ifvqgpg","pricing_plan_id":"cebpf4jnsgd1na2vs0mg"},{"bike_id":"3214eafb-e7ce-468e-92a8-8853b604ad82","system_id":"levelo_inurba_marseille","lat":43.23153,"lon":5.43713,"is_reserved":false,"is_disabled":false,"rental_uris":{"android":"levelo://app?vid=3214eafb-e7ce-468e-92a8-8853b604ad82","ios":"levelo://app?vid=3214eafb-e7ce-468e-92a8-8853b604ad82"},"vehicle_type_id":"4","last_reported":1727773794,"current_range_meters":9200,"station_id":"ce4bhmp2rcd13ifvqgog","pricing_plan_id":"cebpf4jnsgd1na2vs0mg"},{"bike_id":"fe6fdef3-e8d8-4e4f-9807-d00f8e5fcbed","system_id":"levelo_inurba_marseille","lat":43.26502,"lon":5.39533,"is_reserved":false,"is_disabled":false,"rental_uris":{"android":"levelo://app?vid=fe6fdef3-e8d8-4e4f-9807-d00f8e5fcbed","ios":"levelo://app?vid=fe6fdef3-e8d8-4e4f-9807-d00f8e5fcbed"},"vehicle_type_id":"4","last_reported":1727773794,"current_range_meters":17600,"station_id":"ce4bhi12rcd13ifvqfq0","pricing_plan_id":"cebpf4jnsgd1na2vs0mg"},{"bike_id":"339388e8-ee6b-4b29-9911-0612c4420461","system_id":"levelo_inurba_marseille","lat":43.337444,"lon":5.374475,"is_reserved":false,"is_disabled":false,"rental_uris":{"android":"levelo://app?vid=339388e8-ee6b-4b29-9911-0612c4420461","ios":"levelo://app?vid=339388e8-ee6b-4b29-9911-0612c4420461"},"vehicle_type_id":"4","last_reported":1727773794,"current_range_meters":36800,"station_id":"","pricing_plan_id":"cebpf4jnsgd1na2vs0mg"},{"bike_id":"0449b40e-8e7d-4ebe-9c44-73862a165e2d","system_id":"levelo_inurba_marseille","lat":43.3096,"lon":5.39033,"is_reserved":false,"is_disabled":false,"rental_uris":{"android":"levelo://app?vid=0449b40e-8e7d-4ebe-9c44-73862a165e2d","ios":"levelo://app?vid=0449b40e-8e7d-4ebe-9c44-73862a165e2d"},"vehicle_type_id":"4","last_reported":1727773794,"current_range_meters":27600,"station_id":"ce4bgup2rcd13ifvqco0","pricing_plan_id":"cebpf4jnsgd1na2vs0mg"},{"bike_id":"040c0dee-6f56-4696-bc60-b436e0337a3a","system_id":"levelo_inurba_marseille","lat":43.30198,"lon":5.36625,"is_reserved":false,"is_disabled":false,"rental_uris":{"android":"levelo://app?vid=040c0dee-6f56-4696-bc60-b436e0337a3a","ios":"levelo://app?vid=040c0dee-6f56-4696-bc60-b436e0337a3a"},"vehicle_type_id":"4","last_reported":1727773794,"current_range_meters":28000,"station_id":"ce4bgrh2rcd13ifvqc8g","pricing_plan_id":"cebpf4jnsgd1na2vs0mg"},{"bike_id":"7fb5d065-2ef8-4492-8b6f-c63a16373982","system_id":"levelo_inurba_marseille","lat":43.3054,"lon":5.36547,"is_reserved":false,"is_disabled":false,"rental_uris":{"android":"levelo://app?vid=7fb5d065-2ef8-4492-8b6f-c63a16373982","ios":"levelo://app?vid=7fb5d065-2ef8-4492-8b6f-c63a16373982"},"vehicle_type_id":"4","last_reported":1727773794,"current_range_meters":40000,"station_id":"ce4bgs12rcd13ifvqcag","pricing_plan_id":"cebpf4jnsgd1na2vs0mg"},{"bike_id":"01ba37e3-ebcf-4ca9-985e-f35d5ec2fe65","system_id":"levelo_inurba_marseille","lat":43.287231,"lon":5.360884,"is_reserved":false,"is_disabled":false,"rental_uris":{"android":"levelo://app?vid=01ba37e3-ebcf-4ca9-985e-f35d5ec2fe65","ios":"levelo://app?vid=01ba37e3-ebcf-4ca9-985e-f35d5ec2fe65"},"vehicle_type_id":"4","last_reported":1727773794,"current_range_meters":37600,"station_id":"cki0cbj6b192h4jlfktg","pricing_plan_id":"cebpf4jnsgd1na2vs0mg"},{"bike_id":"e17d2d3d-fbf7-414a-bb9b-f7b19bbb1986","system_id":"levelo_inurba_marseille","lat":43.2749,"lon":5.42455,"is_reserved":false,"is_disabled":false,"rental_uris":{"android":"levelo://app?vid=e17d2d3d-fbf7-414a-bb9b-f7b19bbb1986","ios":"levelo://app?vid=e17d2d3d-fbf7-414a-bb9b-f7b19bbb1986"},"vehicle_type_id":"4","last_reported":1727773794,"current_range_meters":32800,"station_id":"ce4bhn92rcd13ifvqgrg","pricing_plan_id":"cebpf4jnsgd1na2vs0mg"},{"bike_id":"5bdc1fa4-140d-433c-819d-10b9de658c4f","system_id":"levelo_inurba_marseille","lat":43.26036,"lon":5.37545,"is_reserved":false,"is_disabled":false,"rental_uris":{"android":"levelo://app?vid=5bdc1fa4-140d-433c-819d-10b9de658c4f","ios":"levelo://app?vid=5bdc1fa4-140d-433c-819d-10b9de658c4f"},"vehicle_type_id":"4","last_reported":1727773794,"current_range_meters":25600,"station_id":"ce4bhgh2rcd13ifvqfa0","pricing_plan_id":"cebpf4jnsgd1na2vs0mg"},{"bike_id":"f8f20fa6-f1d5-43f8-9c31-1ab159b24e4b","system_id":"levelo_inurba_marseille","lat":43.29623,"lon":5.37161,"is_reserved":false,"is_disabled":false,"rental_uris":{"android":"levelo://app?vid=f8f20fa6-f1d5-43f8-9c31-1ab159b24e4b","ios":"levelo://app?vid=f8f20fa6-f1d5-43f8-9c31-1ab159b24e4b"},"vehicle_type_id":"4","last_reported":1727773794,"current_range_meters":20400,"station_id":"ce4bgnh2rcd13ifvqc0g","pricing_plan_id":"cebpf4jnsgd1na2vs0mg"},{"bike_id":"9216d254-10bc-402f-a012-f689db906317","system_id":"levelo_inurba_marseille","lat":43.28858,"lon":5.39309,"is_reserved":false,"is_disabled":false,"rental_uris":{"android":"levelo://app?vid=9216d254-10bc-402f-a012-f689db906317","ios":"levelo://app?vid=9216d254-10bc-402f-a012-f689db906317"},"vehicle_type_id":"4","last_reported":1727773794,"current_range_meters":24400,"station_id":"ce4bh2p2rcd13ifvqdi0","pricing_plan_id":"cebpf4jnsgd1na2vs0mg"},{"bike_id":"6958a01e-7231-492c-81f8-73dfc3d5fdc7","system_id":"levelo_inurba_marseille","lat":43.26213,"lon":5.37438,"is_reserved":false,"is_disabled":false,"rental_uris":{"android":"levelo://app?vid=6958a01e-7231-492c-81f8-73dfc3d5fdc7","ios":"levelo://app?vid=6958a01e-7231-492c-81f8-73dfc3d5fdc7"},"vehicle_type_id":"4","last_reported":1727773794,"current_range_meters":8800,"station_id":"ce4bhgp2rcd13ifvqfc0","pricing_plan_id":"cebpf4jnsgd1na2vs0mg"},{"bike_id":"5fc93a89-0253-4e0f-905f-a5855f039bf0","system_id":"levelo_inurba_marseille","lat":43.27489,"lon":5.42457,"is_reserved":false,"is_disabled":false,"rental_uris":{"android":"levelo://app?vid=5fc93a89-0253-4e0f-905f-a5855f039bf0","ios":"levelo://app?vid=5fc93a89-0253-4e0f-905f-a5855f039bf0"},"vehicle_type_id":"4","last_reported":1727773794,"current_range_meters":30400,"station_id":"ce4bhn92rcd13ifvqgrg","pricing_plan_id":"cebpf4jnsgd1na2vs0mg"},{"bike_id":"918fd295-61e7-46c4-ac55-a8df6a6d711b","system_id":"levelo_inurba_marseille","lat":43.29358,"lon":5.37849,"is_reserved":false,"is_disabled":false,"rental_uris":{"android":"levelo://app?vid=918fd295-61e7-46c4-ac55-a8df6a6d711b","ios":"levelo://app?vid=918fd295-61e7-46c4-ac55-a8df6a6d711b"},"vehicle_type_id":"4","last_reported":1727773794,"current_range_meters":31200,"station_id":"ce4bgjh2rcd13ifvqbf0","pricing_plan_id":"cebpf4jnsgd1na2vs0mg"},{"bike_id":"17388b09-3535-4c9d-a611-5f7b280579e0","system_id":"levelo_inurba_marseille","lat":43.29574,"lon":5.3752,"is_reserved":false,"is_disabled":false,"rental_uris":{"android":"levelo://app?vid=17388b09-3535-4c9d-a611-5f7b280579e0","ios":"levelo://app?vid=17388b09-3535-4c9d-a611-5f7b280579e0"},"vehicle_type_id":"4","last_reported":1727773794,"current_range_meters":25200,"station_id":"ce4bgh92rcd13ifvqb50","pricing_plan_id":"cebpf4jnsgd1na2vs0mg"},{"bike_id":"42cdeca1-6eb2-4d7f-a545-d5eee78f3196","system_id":"levelo_inurba_marseille","lat":43.31758,"lon":5.39017,"is_reserved":false,"is_disabled":false,"rental_uris":{"android":"levelo://app?vid=42cdeca1-6eb2-4d7f-a545-d5eee78f3196","ios":"levelo://app?vid=42cdeca1-6eb2-4d7f-a545-d5eee78f3196"},"vehicle_type_id":"4","last_reported":1727773794,"current_range_meters":34800,"station_id":"ce4bhqp2rcd13ifvqhng","pricing_plan_id":"cebpf4jnsgd1na2vs0mg"},{"bike_id":"5d34d44a-5657-4046-9997-746fa7323ea5","system_id":"levelo_inurba_marseille","lat":43.32554,"lon":5.41424,"is_reserved":false,"is_disabled":false,"rental_uris":{"android":"levelo://app?vid=5d34d44a-5657-4046-9997-746fa7323ea5","ios":"levelo://app?vid=5d34d44a-5657-4046-9997-746fa7323ea5"},"vehicle_type_id":"4","last_reported":1727773794,"current_range_meters":37600,"station_id":"ce4bhq12rcd13ifvqhhg","pricing_plan_id":"cebpf4jnsgd1na2vs0mg"},{"bike_id":"ca5ae2be-2a47-4994-8010-7ccd8bf83efe","system_id":"levelo_inurba_marseille","lat":43.24078,"lon":5.37752,"is_reserved":false,"is_disabled":false,"rental_uris":{"android":"levelo://app?vid=ca5ae2be-2a47-4994-8010-7ccd8bf83efe","ios":"levelo://app?vid=ca5ae2be-2a47-4994-8010-7ccd8bf83efe"},"vehicle_type_id":"4","last_reported":1727773794,"current_range_meters":3600,"station_id":"ce4bhnp2rcd13ifvqgvg","pricing_plan_id":"cebpf4jnsgd1na2vs0mg"},{"bike_id":"a85ce21b-5ed7-46cd-a8e6-5ed48ca6beaf","system_id":"levelo_inurba_marseille","lat":43.26783,"lon":5.39422,"is_reserved":false,"is_disabled":false,"rental_uris":{"android":"levelo://app?vid=a85ce21b-5ed7-46cd-a8e6-5ed48ca6beaf","ios":"levelo://app?vid=a85ce21b-5ed7-46cd-a8e6-5ed48ca6beaf"},"vehicle_type_id":"4","last_reported":1727773794,"current_range_meters":38000,"station_id":"ce4bhh12rcd13ifvqfg0","pricing_plan_id":"cebpf4jnsgd1na2vs0mg"},{"bike_id":"63f10e86-8660-4331-a40e-1476b016bc7b","system_id":"levelo_inurba_marseille","lat":43.23431,"lon":5.35942,"is_reserved":false,"is_disabled":false,"rental_uris":{"android":"levelo://app?vid=63f10e86-8660-4331-a40e-1476b016bc7b","ios":"levelo://app?vid=63f10e86-8660-4331-a40e-1476b016bc7b"},"vehicle_type_id":"4","last_reported":1727773794,"current_range_meters":31200,"station_id":"","pricing_plan_id":"cebpf4jnsgd1na2vs0mg"},{"bike_id":"b1f09baf-efb6-4048-8222-4ed4e16cbf39","system_id":"levelo_inurba_marseille","lat":43.23159,"lon":5.43723,"is_reserved":false,"is_disabled":false,"rental_uris":{"android":"levelo://app?vid=b1f09baf-efb6-4048-8222-4ed4e16cbf39","ios":"levelo://app?vid=b1f09baf-efb6-4048-8222-4ed4e16cbf39"},"vehicle_type_id":"4","last_reported":1727773794,"current_range_meters":9600,"station_id":"ce4bhmp2rcd13ifvqgog","pricing_plan_id":"cebpf4jnsgd1na2vs0mg"},{"bike_id":"b7087556-b0d0-4f22-8a63-a19f5e53adb4","system_id":"levelo_inurba_marseille","lat":43.30151,"lon":5.3808,"is_reserved":false,"is_disabled":false,"rental_uris":{"android":"levelo://app?vid=b7087556-b0d0-4f22-8a63-a19f5e53adb4","ios":"levelo://app?vid=b7087556-b0d0-4f22-8a63-a19f5e53adb4"},"vehicle_type_id":"4","last_reported":1727773794,"current_range_meters":39200,"station_id":"ce4bgjp2rcd13ifvqbh0","pricing_plan_id":"cebpf4jnsgd1na2vs0mg"},{"bike_id":"96efbf29-503c-4bbd-a337-fd7c45f0f409","system_id":"levelo_inurba_marseille","lat":43.27923,"lon":5.39567,"is_reserved":false,"is_disabled":false,"rental_uris":{"android":"levelo://app?vid=96efbf29-503c-4bbd-a337-fd7c45f0f409","ios":"levelo://app?vid=96efbf29-503c-4bbd-a337-fd7c45f0f409"},"vehicle_type_id":"4","last_reported":1727773794,"current_range_meters":30000,"station_id":"ce4bhf92rcd13ifvqf40","pricing_plan_id":"cebpf4jnsgd1na2vs0mg"},{"bike_id":"d0babadb-8879-488e-92f8-d76769a9b0e4","system_id":"levelo_inurba_marseille","lat":43.30553,"lon":5.36539,"is_reserved":false,"is_disabled":false,"rental_uris":{"android":"levelo://app?vid=d0babadb-8879-488e-92f8-d76769a9b0e4","ios":"levelo://app?vid=d0babadb-8879-488e-92f8-d76769a9b0e4"},"vehicle_type_id":"4","last_reported":1727773794,"current_range_meters":23200,"station_id":"ce4bgs12rcd13ifvqcag","pricing_plan_id":"cebpf4jnsgd1na2vs0mg"},{"bike_id":"a2648cc6-3753-4c9f-81c6-9c70f9b709c3","system_id":"levelo_inurba_marseille","lat":43.27833,"lon":5.39208,"is_reserved":false,"is_disabled":false,"rental_uris":{"android":"levelo://app?vid=a2648cc6-3753-4c9f-81c6-9c70f9b709c3","ios":"levelo://app?vid=a2648cc6-3753-4c9f-81c6-9c70f9b709c3"},"vehicle_type_id":"4","last_reported":1727773794,"current_range_meters":34800,"station_id":"ce4bhjp2rcd13ifvqga0","pricing_plan_id":"cebpf4jnsgd1na2vs0mg"},{"bike_id":"3cae3c37-b177-4b43-8f24-7039908fbcb8","system_id":"levelo_inurba_marseille","lat":43.25932,"lon":5.40912,"is_reserved":false,"is_disabled":false,"rental_uris":{"android":"levelo://app?vid=3cae3c37-b177-4b43-8f24-7039908fbcb8","ios":"levelo://app?vid=3cae3c37-b177-4b43-8f24-7039908fbcb8"},"vehicle_type_id":"4","last_reported":1727773794,"current_range_meters":22800,"station_id":"ce4bhm92rcd13ifvqglg","pricing_plan_id":"cebpf4jnsgd1na2vs0mg"},{"bike_id":"39cbb076-b5af-4e50-ad15-63d4ea491119","system_id":"levelo_inurba_marseille","lat":43.26496,"lon":5.39541,"is_reserved":false,"is_disabled":false,"rental_uris":{"android":"levelo://app?vid=39cbb076-b5af-4e50-ad15-63d4ea491119","ios":"levelo://app?vid=39cbb076-b5af-4e50-ad15-63d4ea491119"},"vehicle_type_id":"4","last_reported":1727773794,"current_range_meters":38800,"station_id":"ce4bhi12rcd13ifvqfq0","pricing_plan_id":"cebpf4jnsgd1na2vs0mg"},{"bike_id":"1e37e45a-ffba-4ff3-bbd3-5a2788cc89b2","system_id":"levelo_inurba_marseille","lat":43.33611,"lon":5.41027,"is_reserved":false,"is_disabled":false,"rental_uris":{"android":"levelo://app?vid=1e37e45a-ffba-4ff3-bbd3-5a2788cc89b2","ios":"levelo://app?vid=1e37e45a-ffba-4ff3-bbd3-5a2788cc89b2"},"vehicle_type_id":"4","last_reported":1727773794,"current_range_meters":40000,"station_id":"ce4bhqh2rcd13ifvqhmg","pricing_plan_id":"cebpf4jnsgd1na2vs0mg"},{"bike_id":"cfdb47d3-1507-413a-a1c8-ccda97b2d99f","system_id":"levelo_inurba_marseille","lat":43.31494,"lon":5.37297,"is_reserved":false,"is_disabled":false,"rental_uris":{"android":"levelo://app?vid=cfdb47d3-1507-413a-a1c8-ccda97b2d99f","ios":"levelo://app?vid=cfdb47d3-1507-413a-a1c8-ccda97b2d99f"},"vehicle_type_id":"4","last_reported":1727773794,"current_range_meters":38000,"station_id":"ce4bgt12rcd13ifvqcd0","pricing_plan_id":"cebpf4jnsgd1na2vs0mg"},{"bike_id":"4f7d1635-9c7c-4564-98f8-f043fd5253d5","system_id":"levelo_inurba_marseille","lat":43.3136,"lon":5.36704,"is_reserved":false,"is_disabled":false,"rental_uris":{"android":"levelo://app?vid=4f7d1635-9c7c-4564-98f8-f043fd5253d5","ios":"levelo://app?vid=4f7d1635-9c7c-4564-98f8-f043fd5253d5"},"vehicle_type_id":"4","last_reported":1727773794,"current_range_meters":19200,"station_id":"ce4bgr92rcd13ifvqc6g","pricing_plan_id":"cebpf4jnsgd1na2vs0mg"},{"bike_id":"c3efae4e-1fa8-4c63-9762-e375703c1cb6","system_id":"levelo_inurba_marseille","lat":43.3028,"lon":5.37701,"is_reserved":false,"is_disabled":false,"rental_uris":{"android":"levelo://app?vid=c3efae4e-1fa8-4c63-9762-e375703c1cb6","ios":"levelo://app?vid=c3efae4e-1fa8-4c63-9762-e375703c1cb6"},"vehicle_type_id":"4","last_reported":1727773794,"current_range_meters":20000,"station_id":"ce4bguh2rcd13ifvqcj0","pricing_plan_id":"cebpf4jnsgd1na2vs0mg"},{"bike_id":"d0f65785-8fdf-4cf1-a675-729295860d7a","system_id":"levelo_inurba_marseille","lat":43.25943,"lon":5.40893,"is_reserved":false,"is_disabled":false,"rental_uris":{"android":"levelo://app?vid=d0f65785-8fdf-4cf1-a675-729295860d7a","ios":"levelo://app?vid=d0f65785-8fdf-4cf1-a675-729295860d7a"},"vehicle_type_id":"4","last_reported":1727773794,"current_range_meters":30400,"station_id":"ce4bhm92rcd13ifvqglg","pricing_plan_id":"cebpf4jnsgd1na2vs0mg"},{"bike_id":"4c55554a-7b91-41f8-884d-9ad5249789d8","system_id":"levelo_inurba_marseille","lat":43.28472,"lon":5.38412,"is_reserved":false,"is_disabled":false,"rental_uris":{"android":"levelo://app?vid=4c55554a-7b91-41f8-884d-9ad5249789d8","ios":"levelo://app?vid=4c55554a-7b91-41f8-884d-9ad5249789d8"},"vehicle_type_id":"4","last_reported":1727773794,"current_range_meters":30000,"station_id":"ce4bh512rcd13ifvqe3g","pricing_plan_id":"cebpf4jnsgd1na2vs0mg"},{"bike_id":"dc41bac1-4198-489d-8a30-bcd817c6eedb","system_id":"levelo_inurba_marseille","lat":43.25578,"lon":5.38241,"is_reserved":false,"is_disabled":false,"rental_uris":{"android":"levelo://app?vid=dc41bac1-4198-489d-8a30-bcd817c6eedb","ios":"levelo://app?vid=dc41bac1-4198-489d-8a30-bcd817c6eedb"},"vehicle_type_id":"4","last_reported":1727773794,"current_range_meters":4800,"station_id":"ce4bhih2rcd13ifvqfs0","pricing_plan_id":"cebpf4jnsgd1na2vs0mg"},{"bike_id":"3f6d908a-8341-4f5f-8c83-53d11db78ff2","system_id":"levelo_inurba_marseille","lat":43.23965,"lon":5.36637,"is_reserved":false,"is_disabled":false,"rental_uris":{"android":"levelo://app?vid=3f6d908a-8341-4f5f-8c83-53d11db78ff2","ios":"levelo://app?vid=3f6d908a-8341-4f5f-8c83-53d11db78ff2"},"vehicle_type_id":"4","last_reported":1727773794,"current_range_meters":28800,"station_id":"ce4bhi12rcd13ifvqfp0","pricing_plan_id":"cebpf4jnsgd1na2vs0mg"},{"bike_id":"456ed098-8bb1-4745-bf06-480607717776","system_id":"levelo_inurba_marseille","lat":43.3014,"lon":5.3742,"is_reserved":false,"is_disabled":false,"rental_uris":{"android":"levelo://app?vid=456ed098-8bb1-4745-bf06-480607717776","ios":"levelo://app?vid=456ed098-8bb1-4745-bf06-480607717776"},"vehicle_type_id":"4","last_reported":1727773794,"current_range_meters":28800,"station_id":"ce4bgs92rcd13ifvqcc0","pricing_plan_id":"cebpf4jnsgd1na2vs0mg"},{"bike_id":"77e6c8c4-a97f-433e-b676-51262f3b52bf","system_id":"levelo_inurba_marseille","lat":43.25721,"lon":5.41111,"is_reserved":false,"is_disabled":false,"rental_uris":{"android":"levelo://app?vid=77e6c8c4-a97f-433e-b676-51262f3b52bf","ios":"levelo://app?vid=77e6c8c4-a97f-433e-b676-51262f3b52bf"},"vehicle_type_id":"4","last_reported":1727773794,"current_range_meters":34000,"station_id":"ce4bhkp2rcd13ifvqgd0","pricing_plan_id":"cebpf4jnsgd1na2vs0mg"},{"bike_id":"b1b702e5-7232-41c3-ac4a-fc1f0dcb2180","system_id":"levelo_inurba_marseille","lat":43.25942,"lon":5.40909,"is_reserved":false,"is_disabled":false,"rental_uris":{"android":"levelo://app?vid=b1b702e5-7232-41c3-ac4a-fc1f0dcb2180","ios":"levelo://app?vid=b1b702e5-7232-41c3-ac4a-fc1f0dcb2180"},"vehicle_type_id":"4","last_reported":1727773794,"current_range_meters":36800,"station_id":"ce4bhm92rcd13ifvqglg","pricing_plan_id":"cebpf4jnsgd1na2vs0mg"},{"bike_id":"b07279f0-0817-4a51-ba92-c54a03d00832","system_id":"levelo_inurba_marseille","lat":43.26501,"lon":5.39517,"is_reserved":false,"is_disabled":false,"rental_uris":{"android":"levelo://app?vid=b07279f0-0817-4a51-ba92-c54a03d00832","ios":"levelo://app?vid=b07279f0-0817-4a51-ba92-c54a03d00832"},"vehicle_type_id":"4","last_reported":1727773794,"current_range_meters":37600,"station_id":"ce4bhi12rcd13ifvqfq0","pricing_plan_id":"cebpf4jnsgd1na2vs0mg"},{"bike_id":"282d9de0-9835-42e1-8da8-fa21914b0fce","system_id":"levelo_inurba_marseille","lat":43.31893,"lon":5.40722,"is_reserved":false,"is_disabled":false,"rental_uris":{"android":"levelo://app?vid=282d9de0-9835-42e1-8da8-fa21914b0fce","ios":"levelo://app?vid=282d9de0-9835-42e1-8da8-fa21914b0fce"},"vehicle_type_id":"4","last_reported":1727773794,"current_range_meters":28800,"station_id":"ce4bhq12rcd13ifvqhig","pricing_plan_id":"cebpf4jnsgd1na2vs0mg"},{"bike_id":"0d2d5d5b-16b6-44eb-8371-b1b45135b152","system_id":"levelo_inurba_marseille","lat":43.29201,"lon":5.39316,"is_reserved":false,"is_disabled":false,"rental_uris":{"android":"levelo://app?vid=0d2d5d5b-16b6-44eb-8371-b1b45135b152","ios":"levelo://app?vid=0d2d5d5b-16b6-44eb-8371-b1b45135b152"},"vehicle_type_id":"4","last_reported":1727773794,"current_range_meters":25200,"station_id":"ce4bh192rcd13ifvqdd0","pricing_plan_id":"cebpf4jnsgd1na2vs0mg"},{"bike_id":"59dea60b-0868-493c-8d4e-1efd870d8b0c","system_id":"levelo_inurba_marseille","lat":43.31537,"lon":5.38045,"is_reserved":false,"is_disabled":false,"rental_uris":{"android":"levelo://app?vid=59dea60b-0868-493c-8d4e-1efd870d8b0c","ios":"levelo://app?vid=59dea60b-0868-493c-8d4e-1efd870d8b0c"},"vehicle_type_id":"4","last_reported":1727773794,"current_range_meters":6400,"station_id":"ce4bhsp2rcd13ifvqi50","pricing_plan_id":"cebpf4jnsgd1na2vs0mg"},{"bike_id":"f9c2d9bc-7621-42ba-b01d-15c91a7785c8","system_id":"levelo_inurba_marseille","lat":43.24546,"lon":5.39519,"is_reserved":false,"is_disabled":false,"rental_uris":{"android":"levelo://app?vid=f9c2d9bc-7621-42ba-b01d-15c91a7785c8","ios":"levelo://app?vid=f9c2d9bc-7621-42ba-b01d-15c91a7785c8"},"vehicle_type_id":"4","last_reported":1727773794,"current_range_meters":38800,"station_id":"ce4bhlp2rcd13ifvqgjg","pricing_plan_id":"cebpf4jnsgd1na2vs0mg"},{"bike_id":"695c6edc-9d98-4011-8dff-68578c4ede8a","system_id":"levelo_inurba_marseille","lat":43.23152,"lon":5.4371,"is_reserved":false,"is_disabled":false,"rental_uris":{"android":"levelo://app?vid=695c6edc-9d98-4011-8dff-68578c4ede8a","ios":"levelo://app?vid=695c6edc-9d98-4011-8dff-68578c4ede8a"},"vehicle_type_id":"4","last_reported":1727773794,"current_range_meters":20400,"station_id":"ce4bhmp2rcd13ifvqgog","pricing_plan_id":"cebpf4jnsgd1na2vs0mg"},{"bike_id":"a28eb40a-ae26-49d6-9f26-a78c8a9f1dd7","system_id":"levelo_inurba_marseille","lat":43.258633,"lon":5.398973,"is_reserved":false,"is_disabled":false,"rental_uris":{"android":"levelo://app?vid=a28eb40a-ae26-49d6-9f26-a78c8a9f1dd7","ios":"levelo://app?vid=a28eb40a-ae26-49d6-9f26-a78c8a9f1dd7"},"vehicle_type_id":"4","last_reported":1727773794,"current_range_meters":36800,"station_id":"ce4bhl92rcd13ifvqghg","pricing_plan_id":"cebpf4jnsgd1na2vs0mg"},{"bike_id":"b5cee419-0bf1-43b6-a625-0f8592325c45","system_id":"levelo_inurba_marseille","lat":43.302863,"lon":5.376967,"is_reserved":false,"is_disabled":false,"rental_uris":{"android":"levelo://app?vid=b5cee419-0bf1-43b6-a625-0f8592325c45","ios":"levelo://app?vid=b5cee419-0bf1-43b6-a625-0f8592325c45"},"vehicle_type_id":"4","last_reported":1727773794,"current_range_meters":35200,"station_id":"ce4bguh2rcd13ifvqcj0","pricing_plan_id":"cebpf4jnsgd1na2vs0mg"},{"bike_id":"f8f518e3-bd48-40f5-801a-4ead88758ee2","system_id":"levelo_inurba_marseille","lat":43.32109,"lon":5.36777,"is_reserved":false,"is_disabled":false,"rental_uris":{"android":"levelo://app?vid=f8f518e3-bd48-40f5-801a-4ead88758ee2","ios":"levelo://app?vid=f8f518e3-bd48-40f5-801a-4ead88758ee2"},"vehicle_type_id":"4","last_reported":1727773794,"current_range_meters":16400,"station_id":"ce4bhrh2rcd13ifvqhug","pricing_plan_id":"cebpf4jnsgd1na2vs0mg"},{"bike_id":"ee6c2aa8-feaf-41aa-9106-42404ebc437e","system_id":"levelo_inurba_marseille","lat":43.28158,"lon":5.42641,"is_reserved":false,"is_disabled":false,"rental_uris":{"android":"levelo://app?vid=ee6c2aa8-feaf-41aa-9106-42404ebc437e","ios":"levelo://app?vid=ee6c2aa8-feaf-41aa-9106-42404ebc437e"},"vehicle_type_id":"4","last_reported":1727773794,"current_range_meters":14000,"station_id":"ce4bhnh2rcd13ifvqgug","pricing_plan_id":"cebpf4jnsgd1na2vs0mg"},{"bike_id":"eb77c4ce-63eb-4683-b189-2e21db0500c1","system_id":"levelo_inurba_marseille","lat":43.2707,"lon":5.4228,"is_reserved":false,"is_disabled":false,"rental_uris":{"android":"levelo://app?vid=eb77c4ce-63eb-4683-b189-2e21db0500c1","ios":"levelo://app?vid=eb77c4ce-63eb-4683-b189-2e21db0500c1"},"vehicle_type_id":"4","last_reported":1727773794,"current_range_meters":2000,"station_id":"ce4bhk92rcd13ifvqgb0","pricing_plan_id":"cebpf4jnsgd1na2vs0mg"},{"bike_id":"99fc8182-8535-4a97-a465-b996b660b037","system_id":"levelo_inurba_marseille","lat":43.305447,"lon":5.3672,"is_reserved":false,"is_disabled":false,"rental_uris":{"android":"levelo://app?vid=99fc8182-8535-4a97-a465-b996b660b037","ios":"levelo://app?vid=99fc8182-8535-4a97-a465-b996b660b037"},"vehicle_type_id":"4","last_reported":1727773794,"current_range_meters":40000,"station_id":"ce4bgrp2rcd13ifvqc9g","pricing_plan_id":"cebpf4jnsgd1na2vs0mg"},{"bike_id":"231a96c3-6108-4cd1-9e26-06ff02ddbc65","system_id":"levelo_inurba_marseille","lat":43.29565,"lon":5.37528,"is_reserved":false,"is_disabled":false,"rental_uris":{"android":"levelo://app?vid=231a96c3-6108-4cd1-9e26-06ff02ddbc65","ios":"levelo://app?vid=231a96c3-6108-4cd1-9e26-06ff02ddbc65"},"vehicle_type_id":"4","last_reported":1727773794,"current_range_meters":33600,"station_id":"ce4bgh92rcd13ifvqb50","pricing_plan_id":"cebpf4jnsgd1na2vs0mg"},{"bike_id":"bd908910-f989-4788-a9b2-a14c625fc930","system_id":"levelo_inurba_marseille","lat":43.29726,"lon":5.37674,"is_reserved":false,"is_disabled":false,"rental_uris":{"android":"levelo://app?vid=bd908910-f989-4788-a9b2-a14c625fc930","ios":"levelo://app?vid=bd908910-f989-4788-a9b2-a14c625fc930"},"vehicle_type_id":"4","last_reported":1727773794,"current_range_meters":39200,"station_id":"ce4bgkh2rcd13ifvqbl0","pricing_plan_id":"cebpf4jnsgd1na2vs0mg"},{"bike_id":"10f5e0ed-ca69-4d92-ac51-4ffe321dd32f","system_id":"levelo_inurba_marseille","lat":43.30912,"lon":5.36857,"is_reserved":false,"is_disabled":false,"rental_uris":{"android":"levelo://app?vid=10f5e0ed-ca69-4d92-ac51-4ffe321dd32f","ios":"levelo://app?vid=10f5e0ed-ca69-4d92-ac51-4ffe321dd32f"},"vehicle_type_id":"4","last_reported":1727773794,"current_range_meters":34000,"station_id":"ce4bgn92rcd13ifvqbvg","pricing_plan_id":"cebpf4jnsgd1na2vs0mg"},{"bike_id":"dfa51c2d-81af-416e-b226-02c0eac6c47e","system_id":"levelo_inurba_marseille","lat":43.293575,"lon":5.378346,"is_reserved":false,"is_disabled":false,"rental_uris":{"android":"levelo://app?vid=dfa51c2d-81af-416e-b226-02c0eac6c47e","ios":"levelo://app?vid=dfa51c2d-81af-416e-b226-02c0eac6c47e"},"vehicle_type_id":"4","last_reported":1727773794,"current_range_meters":25600,"station_id":"ce4bgjh2rcd13ifvqbf0","pricing_plan_id":"cebpf4jnsgd1na2vs0mg"},{"bike_id":"245bfcb9-8ab0-477d-b720-6ef80d20f9c5","system_id":"levelo_inurba_marseille","lat":43.2923,"lon":5.36284,"is_reserved":false,"is_disabled":false,"rental_uris":{"android":"levelo://app?vid=245bfcb9-8ab0-477d-b720-6ef80d20f9c5","ios":"levelo://app?vid=245bfcb9-8ab0-477d-b720-6ef80d20f9c5"},"vehicle_type_id":"4","last_reported":1727773794,"current_range_meters":18000,"station_id":"","pricing_plan_id":"cebpf4jnsgd1na2vs0mg"},{"bike_id":"d9aa2af3-d6e7-45ae-9671-de00650f6fc2","system_id":"levelo_inurba_marseille","lat":43.25003,"lon":5.38925,"is_reserved":false,"is_disabled":false,"rental_uris":{"android":"levelo://app?vid=d9aa2af3-d6e7-45ae-9671-de00650f6fc2","ios":"levelo://app?vid=d9aa2af3-d6e7-45ae-9671-de00650f6fc2"},"vehicle_type_id":"4","last_reported":1727773794,"current_range_meters":36400,"station_id":"ce4bhgp2rcd13ifvqfd0","pricing_plan_id":"cebpf4jnsgd1na2vs0mg"},{"bike_id":"8348ce12-ff0e-49a0-833d-0e92ac879452","system_id":"levelo_inurba_marseille","lat":43.30806,"lon":5.43526,"is_reserved":false,"is_disabled":false,"rental_uris":{"android":"levelo://app?vid=8348ce12-ff0e-49a0-833d-0e92ac879452","ios":"levelo://app?vid=8348ce12-ff0e-49a0-833d-0e92ac879452"},"vehicle_type_id":"4","last_reported":1727773794,"current_range_meters":38000,"station_id":"ce4bhph2rcd13ifvqheg","pricing_plan_id":"cebpf4jnsgd1na2vs0mg"},{"bike_id":"60fb24e3-5cb9-4777-8d2c-0a598d42ce84","system_id":"levelo_inurba_marseille","lat":43.31226,"lon":5.36871,"is_reserved":false,"is_disabled":false,"rental_uris":{"android":"levelo://app?vid=60fb24e3-5cb9-4777-8d2c-0a598d42ce84","ios":"levelo://app?vid=60fb24e3-5cb9-4777-8d2c-0a598d42ce84"},"vehicle_type_id":"4","last_reported":1727773794,"current_range_meters":38000,"station_id":"ce4bgl92rcd13ifvqbq0","pricing_plan_id":"cebpf4jnsgd1na2vs0mg"},{"bike_id":"e6089f1e-de3b-4f07-9c9a-f45c6ba10db0","system_id":"levelo_inurba_marseille","lat":43.30063,"lon":5.40343,"is_reserved":false,"is_disabled":false,"rental_uris":{"android":"levelo://app?vid=e6089f1e-de3b-4f07-9c9a-f45c6ba10db0","ios":"levelo://app?vid=e6089f1e-de3b-4f07-9c9a-f45c6ba10db0"},"vehicle_type_id":"4","last_reported":1727773794,"current_range_meters":2800,"station_id":"","pricing_plan_id":"cebpf4jnsgd1na2vs0mg"},{"bike_id":"7fc00f7a-a80b-417c-839a-140aca8144d4","system_id":"levelo_inurba_marseille","lat":43.29579,"lon":5.37511,"is_reserved":false,"is_disabled":false,"rental_uris":{"android":"levelo://app?vid=7fc00f7a-a80b-417c-839a-140aca8144d4","ios":"levelo://app?vid=7fc00f7a-a80b-417c-839a-140aca8144d4"},"vehicle_type_id":"4","last_reported":1727773794,"current_range_meters":17600,"station_id":"ce4bgh92rcd13ifvqb50","pricing_plan_id":"cebpf4jnsgd1na2vs0mg"},{"bike_id":"32325dc2-c584-4288-9e82-d676234f5dbd","system_id":"levelo_inurba_marseille","lat":43.28474,"lon":5.38419,"is_reserved":false,"is_disabled":false,"rental_uris":{"android":"levelo://app?vid=32325dc2-c584-4288-9e82-d676234f5dbd","ios":"levelo://app?vid=32325dc2-c584-4288-9e82-d676234f5dbd"},"vehicle_type_id":"4","last_reported":1727773794,"current_range_meters":28000,"station_id":"ce4bh512rcd13ifvqe3g","pricing_plan_id":"cebpf4jnsgd1na2vs0mg"},{"bike_id":"79b43326-f4be-465c-b642-5919a3842052","system_id":"levelo_inurba_marseille","lat":43.30547,"lon":5.36726,"is_reserved":false,"is_disabled":false,"rental_uris":{"android":"levelo://app?vid=79b43326-f4be-465c-b642-5919a3842052","ios":"levelo://app?vid=79b43326-f4be-465c-b642-5919a3842052"},"vehicle_type_id":"4","last_reported":1727773794,"current_range_meters":32800,"station_id":"ce4bgrp2rcd13ifvqc9g","pricing_plan_id":"cebpf4jnsgd1na2vs0mg"},{"bike_id":"5b730282-bfab-4d94-8875-6682f72324cb","system_id":"levelo_inurba_marseille","lat":43.26192,"lon":5.37449,"is_reserved":false,"is_disabled":false,"rental_uris":{"android":"levelo://app?vid=5b730282-bfab-4d94-8875-6682f72324cb","ios":"levelo://app?vid=5b730282-bfab-4d94-8875-6682f72324cb"},"vehicle_type_id":"4","last_reported":1727773794,"current_range_meters":27600,"station_id":"ce4bhgp2rcd13ifvqfc0","pricing_plan_id":"cebpf4jnsgd1na2vs0mg"},{"bike_id":"34b17368-4f5b-46ca-9b47-c28b10b27eed","system_id":"levelo_inurba_marseille","lat":43.28474,"lon":5.38407,"is_reserved":false,"is_disabled":false,"rental_uris":{"android":"levelo://app?vid=34b17368-4f5b-46ca-9b47-c28b10b27eed","ios":"levelo://app?vid=34b17368-4f5b-46ca-9b47-c28b10b27eed"},"vehicle_type_id":"4","last_reported":1727773794,"current_range_meters":36800,"station_id":"ce4bh512rcd13ifvqe3g","pricing_plan_id":"cebpf4jnsgd1na2vs0mg"},{"bike_id":"8766606e-fbea-4190-a140-a202c1cc3b74","system_id":"levelo_inurba_marseille","lat":43.26678,"lon":5.38272,"is_reserved":false,"is_disabled":false,"rental_uris":{"android":"levelo://app?vid=8766606e-fbea-4190-a140-a202c1cc3b74","ios":"levelo://app?vid=8766606e-fbea-4190-a140-a202c1cc3b74"},"vehicle_type_id":"4","last_reported":1727773794,"current_range_meters":32000,"station_id":"ce4bhg92rcd13ifvqf90","pricing_plan_id":"cebpf4jnsgd1na2vs0mg"},{"bike_id":"1cdcf173-9677-4386-9d4f-a8ba76a52195","system_id":"levelo_inurba_marseille","lat":43.30461,"lon":5.37905,"is_reserved":false,"is_disabled":false,"rental_uris":{"android":"levelo://app?vid=1cdcf173-9677-4386-9d4f-a8ba76a52195","ios":"levelo://app?vid=1cdcf173-9677-4386-9d4f-a8ba76a52195"},"vehicle_type_id":"4","last_reported":1727773794,"current_range_meters":16000,"station_id":"ce4bgup2rcd13ifvqcn0","pricing_plan_id":"cebpf4jnsgd1na2vs0mg"},{"bike_id":"e2973350-a192-4ad7-997e-932573a214dd","system_id":"levelo_inurba_marseille","lat":43.23149,"lon":5.4372,"is_reserved":false,"is_disabled":false,"rental_uris":{"android":"levelo://app?vid=e2973350-a192-4ad7-997e-932573a214dd","ios":"levelo://app?vid=e2973350-a192-4ad7-997e-932573a214dd"},"vehicle_type_id":"4","last_reported":1727773794,"current_range_meters":26000,"station_id":"ce4bhmp2rcd13ifvqgog","pricing_plan_id":"cebpf4jnsgd1na2vs0mg"},{"bike_id":"ac42fb59-2101-49eb-be3a-4c371efbbea3","system_id":"levelo_inurba_marseille","lat":43.30911,"lon":5.36857,"is_reserved":false,"is_disabled":false,"rental_uris":{"android":"levelo://app?vid=ac42fb59-2101-49eb-be3a-4c371efbbea3","ios":"levelo://app?vid=ac42fb59-2101-49eb-be3a-4c371efbbea3"},"vehicle_type_id":"4","last_reported":1727773794,"current_range_meters":17200,"station_id":"ce4bgn92rcd13ifvqbvg","pricing_plan_id":"cebpf4jnsgd1na2vs0mg"},{"bike_id":"8f1b5d87-bd0a-4fa7-8d90-db04f347a080","system_id":"levelo_inurba_marseille","lat":43.29305,"lon":5.37181,"is_reserved":false,"is_disabled":false,"rental_uris":{"android":"levelo://app?vid=8f1b5d87-bd0a-4fa7-8d90-db04f347a080","ios":"levelo://app?vid=8f1b5d87-bd0a-4fa7-8d90-db04f347a080"},"vehicle_type_id":"4","last_reported":1727773794,"current_range_meters":21600,"station_id":"ce4bgh92rcd13ifvqb40","pricing_plan_id":"cebpf4jnsgd1na2vs0mg"},{"bike_id":"d995d233-d2fe-4db9-b69b-baa1337469bf","system_id":"levelo_inurba_marseille","lat":43.26714,"lon":5.401377,"is_reserved":false,"is_disabled":false,"rental_uris":{"android":"levelo://app?vid=d995d233-d2fe-4db9-b69b-baa1337469bf","ios":"levelo://app?vid=d995d233-d2fe-4db9-b69b-baa1337469bf"},"vehicle_type_id":"4","last_reported":1727773794,"current_range_meters":14400,"station_id":"ce4bhm92rcd13ifvqglg","pricing_plan_id":"cebpf4jnsgd1na2vs0mg"},{"bike_id":"1ba7b6fd-e265-4d06-8e20-b26ba84ee730","system_id":"levelo_inurba_marseille","lat":43.23153,"lon":5.43709,"is_reserved":false,"is_disabled":false,"rental_uris":{"android":"levelo://app?vid=1ba7b6fd-e265-4d06-8e20-b26ba84ee730","ios":"levelo://app?vid=1ba7b6fd-e265-4d06-8e20-b26ba84ee730"},"vehicle_type_id":"4","last_reported":1727773794,"current_range_meters":23200,"station_id":"ce4bhmp2rcd13ifvqgog","pricing_plan_id":"cebpf4jnsgd1na2vs0mg"},{"bike_id":"34e93b03-d9e6-4cae-9339-07ed8994ba28","system_id":"levelo_inurba_marseille","lat":43.26949,"lon":5.3863,"is_reserved":false,"is_disabled":false,"rental_uris":{"android":"levelo://app?vid=34e93b03-d9e6-4cae-9339-07ed8994ba28","ios":"levelo://app?vid=34e93b03-d9e6-4cae-9339-07ed8994ba28"},"vehicle_type_id":"4","last_reported":1727773794,"current_range_meters":36400,"station_id":"ce4bhh92rcd13ifvqfh0","pricing_plan_id":"cebpf4jnsgd1na2vs0mg"},{"bike_id":"0945aae7-9082-40d1-a01b-e579bc3782e5","system_id":"levelo_inurba_marseille","lat":43.23156,"lon":5.43717,"is_reserved":false,"is_disabled":false,"rental_uris":{"android":"levelo://app?vid=0945aae7-9082-40d1-a01b-e579bc3782e5","ios":"levelo://app?vid=0945aae7-9082-40d1-a01b-e579bc3782e5"},"vehicle_type_id":"4","last_reported":1727773794,"current_range_meters":13600,"station_id":"ce4bhmp2rcd13ifvqgog","pricing_plan_id":"cebpf4jnsgd1na2vs0mg"},{"bike_id":"c8bac657-f5c7-4ec3-b154-cd3dc8f7f0cb","system_id":"levelo_inurba_marseille","lat":43.30599,"lon":5.37216,"is_reserved":false,"is_disabled":false,"rental_uris":{"android":"levelo://app?vid=c8bac657-f5c7-4ec3-b154-cd3dc8f7f0cb","ios":"levelo://app?vid=c8bac657-f5c7-4ec3-b154-cd3dc8f7f0cb"},"vehicle_type_id":"4","last_reported":1727773794,"current_range_meters":38800,"station_id":"ce4bgqh2rcd13ifvqc4g","pricing_plan_id":"cebpf4jnsgd1na2vs0mg"},{"bike_id":"9b2cf485-7bf6-44fe-a07f-50ee368c051e","system_id":"levelo_inurba_marseille","lat":43.29053,"lon":5.35931,"is_reserved":false,"is_disabled":false,"rental_uris":{"android":"levelo://app?vid=9b2cf485-7bf6-44fe-a07f-50ee368c051e","ios":"levelo://app?vid=9b2cf485-7bf6-44fe-a07f-50ee368c051e"},"vehicle_type_id":"4","last_reported":1727773794,"current_range_meters":16400,"station_id":"ce4bha92rcd13ifvqeg0","pricing_plan_id":"cebpf4jnsgd1na2vs0mg"},{"bike_id":"619ac23a-009d-4c9f-8bc7-bd0e502cbb34","system_id":"levelo_inurba_marseille","lat":43.30904,"lon":5.36855,"is_reserved":false,"is_disabled":false,"rental_uris":{"android":"levelo://app?vid=619ac23a-009d-4c9f-8bc7-bd0e502cbb34","ios":"levelo://app?vid=619ac23a-009d-4c9f-8bc7-bd0e502cbb34"},"vehicle_type_id":"4","last_reported":1727773794,"current_range_meters":34000,"station_id":"ce4bgn92rcd13ifvqbvg","pricing_plan_id":"cebpf4jnsgd1na2vs0mg"},{"bike_id":"2c169279-47d4-4329-b379-9ac8e1e5629c","system_id":"levelo_inurba_marseille","lat":43.26033,"lon":5.37546,"is_reserved":false,"is_disabled":false,"rental_uris":{"android":"levelo://app?vid=2c169279-47d4-4329-b379-9ac8e1e5629c","ios":"levelo://app?vid=2c169279-47d4-4329-b379-9ac8e1e5629c"},"vehicle_type_id":"4","last_reported":1727773794,"current_range_meters":23200,"station_id":"ce4bhgh2rcd13ifvqfa0","pricing_plan_id":"cebpf4jnsgd1na2vs0mg"},{"bike_id":"e070bd45-288a-4622-b5c4-f3cb962d3327","system_id":"levelo_inurba_marseille","lat":43.3054,"lon":5.36706,"is_reserved":false,"is_disabled":false,"rental_uris":{"android":"levelo://app?vid=e070bd45-288a-4622-b5c4-f3cb962d3327","ios":"levelo://app?vid=e070bd45-288a-4622-b5c4-f3cb962d3327"},"vehicle_type_id":"4","last_reported":1727773794,"current_range_meters":25600,"station_id":"ce4bgrp2rcd13ifvqc9g","pricing_plan_id":"cebpf4jnsgd1na2vs0mg"},{"bike_id":"b652f429-09b8-4697-9c1b-3b9adc3c55d8","system_id":"levelo_inurba_marseille","lat":43.26871,"lon":5.39135,"is_reserved":false,"is_disabled":false,"rental_uris":{"android":"levelo://app?vid=b652f429-09b8-4697-9c1b-3b9adc3c55d8","ios":"levelo://app?vid=b652f429-09b8-4697-9c1b-3b9adc3c55d8"},"vehicle_type_id":"4","last_reported":1727773794,"current_range_meters":8400,"station_id":"","pricing_plan_id":"cebpf4jnsgd1na2vs0mg"},{"bike_id":"79f6f165-e1f3-4a94-8f89-507641679970","system_id":"levelo_inurba_marseille","lat":43.30598,"lon":5.37224,"is_reserved":false,"is_disabled":false,"rental_uris":{"android":"levelo://app?vid=79f6f165-e1f3-4a94-8f89-507641679970","ios":"levelo://app?vid=79f6f165-e1f3-4a94-8f89-507641679970"},"vehicle_type_id":"4","last_reported":1727773794,"current_range_meters":24400,"station_id":"ce4bgqh2rcd13ifvqc4g","pricing_plan_id":"cebpf4jnsgd1na2vs0mg"},{"bike_id":"47f1c0ba-602b-4386-9133-d00a7611575a","system_id":"levelo_inurba_marseille","lat":43.27494,"lon":5.42463,"is_reserved":false,"is_disabled":false,"rental_uris":{"android":"levelo://app?vid=47f1c0ba-602b-4386-9133-d00a7611575a","ios":"levelo://app?vid=47f1c0ba-602b-4386-9133-d00a7611575a"},"vehicle_type_id":"4","last_reported":1727773794,"current_range_meters":14400,"station_id":"ce4bhn92rcd13ifvqgrg","pricing_plan_id":"cebpf4jnsgd1na2vs0mg"},{"bike_id":"63948fa4-ae6d-4866-abff-02440e87cd47","system_id":"levelo_inurba_marseille","lat":43.24388,"lon":5.37044,"is_reserved":false,"is_disabled":false,"rental_uris":{"android":"levelo://app?vid=63948fa4-ae6d-4866-abff-02440e87cd47","ios":"levelo://app?vid=63948fa4-ae6d-4866-abff-02440e87cd47"},"vehicle_type_id":"4","last_reported":1727773794,"current_range_meters":36800,"station_id":"ce4bhhh2rcd13ifvqfk0","pricing_plan_id":"cebpf4jnsgd1na2vs0mg"},{"bike_id":"786fac57-4b3b-44df-9f37-db347f577860","system_id":"levelo_inurba_marseille","lat":43.26782,"lon":5.39422,"is_reserved":false,"is_disabled":false,"rental_uris":{"android":"levelo://app?vid=786fac57-4b3b-44df-9f37-db347f577860","ios":"levelo://app?vid=786fac57-4b3b-44df-9f37-db347f577860"},"vehicle_type_id":"4","last_reported":1727773794,"current_range_meters":38000,"station_id":"ce4bhh12rcd13ifvqfg0","pricing_plan_id":"cebpf4jnsgd1na2vs0mg"},{"bike_id":"7c55c87c-4f2d-4681-b9b8-3990aad60173","system_id":"levelo_inurba_marseille","lat":43.3054,"lon":5.36555,"is_reserved":false,"is_disabled":false,"rental_uris":{"android":"levelo://app?vid=7c55c87c-4f2d-4681-b9b8-3990aad60173","ios":"levelo://app?vid=7c55c87c-4f2d-4681-b9b8-3990aad60173"},"vehicle_type_id":"4","last_reported":1727773794,"current_range_meters":16800,"station_id":"ce4bgs12rcd13ifvqcag","pricing_plan_id":"cebpf4jnsgd1na2vs0mg"},{"bike_id":"3a8740f6-3fc7-44b8-a8ce-416b6ef94361","system_id":"levelo_inurba_marseille","lat":43.33614,"lon":5.41027,"is_reserved":false,"is_disabled":false,"rental_uris":{"android":"levelo://app?vid=3a8740f6-3fc7-44b8-a8ce-416b6ef94361","ios":"levelo://app?vid=3a8740f6-3fc7-44b8-a8ce-416b6ef94361"},"vehicle_type_id":"4","last_reported":1727773794,"current_range_meters":18000,"station_id":"ce4bhqh2rcd13ifvqhmg","pricing_plan_id":"cebpf4jnsgd1na2vs0mg"},{"bike_id":"7a8b241f-57ad-4336-b3e1-9209d3fac587","system_id":"levelo_inurba_marseille","lat":43.31358,"lon":5.36694,"is_reserved":false,"is_disabled":false,"rental_uris":{"android":"levelo://app?vid=7a8b241f-57ad-4336-b3e1-9209d3fac587","ios":"levelo://app?vid=7a8b241f-57ad-4336-b3e1-9209d3fac587"},"vehicle_type_id":"4","last_reported":1727773794,"current_range_meters":30800,"station_id":"ce4bgr92rcd13ifvqc6g","pricing_plan_id":"cebpf4jnsgd1na2vs0mg"},{"bike_id":"299afc54-5f71-4ba3-ae75-2de7686f885a","system_id":"levelo_inurba_marseille","lat":43.28468,"lon":5.38415,"is_reserved":false,"is_disabled":false,"rental_uris":{"android":"levelo://app?vid=299afc54-5f71-4ba3-ae75-2de7686f885a","ios":"levelo://app?vid=299afc54-5f71-4ba3-ae75-2de7686f885a"},"vehicle_type_id":"4","last_reported":1727773794,"current_range_meters":38000,"station_id":"ce4bh512rcd13ifvqe3g","pricing_plan_id":"cebpf4jnsgd1na2vs0mg"},{"bike_id":"9d3261f5-82e9-4f4b-a8c3-509947705bb6","system_id":"levelo_inurba_marseille","lat":43.27809,"lon":5.40719,"is_reserved":false,"is_disabled":false,"rental_uris":{"android":"levelo://app?vid=9d3261f5-82e9-4f4b-a8c3-509947705bb6","ios":"levelo://app?vid=9d3261f5-82e9-4f4b-a8c3-509947705bb6"},"vehicle_type_id":"4","last_reported":1727773794,"current_range_meters":7200,"station_id":"ce4bhnh2rcd13ifvqgtg","pricing_plan_id":"cebpf4jnsgd1na2vs0mg"},{"bike_id":"abe1ac24-9069-4eae-8e01-cb689213c9c8","system_id":"levelo_inurba_marseille","lat":43.25005,"lon":5.38927,"is_reserved":false,"is_disabled":false,"rental_uris":{"android":"levelo://app?vid=abe1ac24-9069-4eae-8e01-cb689213c9c8","ios":"levelo://app?vid=abe1ac24-9069-4eae-8e01-cb689213c9c8"},"vehicle_type_id":"4","last_reported":1727773794,"current_range_meters":10000,"station_id":"ce4bhgp2rcd13ifvqfd0","pricing_plan_id":"cebpf4jnsgd1na2vs0mg"},{"bike_id":"c5b39a6b-6a7c-4b9d-941f-0f6180cbaab5","system_id":"levelo_inurba_marseille","lat":43.29529,"lon":5.37493,"is_reserved":false,"is_disabled":false,"rental_uris":{"android":"levelo://app?vid=c5b39a6b-6a7c-4b9d-941f-0f6180cbaab5","ios":"levelo://app?vid=c5b39a6b-6a7c-4b9d-941f-0f6180cbaab5"},"vehicle_type_id":"4","last_reported":1727773794,"current_range_meters":20800,"station_id":"ce4bgkp2rcd13ifvqbmg","pricing_plan_id":"cebpf4jnsgd1na2vs0mg"},{"bike_id":"3cd63a35-eb22-4d57-bb01-614d1e2f0c23","system_id":"levelo_inurba_marseille","lat":43.24543,"lon":5.39531,"is_reserved":false,"is_disabled":false,"rental_uris":{"android":"levelo://app?vid=3cd63a35-eb22-4d57-bb01-614d1e2f0c23","ios":"levelo://app?vid=3cd63a35-eb22-4d57-bb01-614d1e2f0c23"},"vehicle_type_id":"4","last_reported":1727773794,"current_range_meters":19200,"station_id":"ce4bhlp2rcd13ifvqgjg","pricing_plan_id":"cebpf4jnsgd1na2vs0mg"},{"bike_id":"41e9d1bc-9771-499b-8609-c087d6699875","system_id":"levelo_inurba_marseille","lat":43.26201,"lon":5.37929,"is_reserved":false,"is_disabled":false,"rental_uris":{"android":"levelo://app?vid=41e9d1bc-9771-499b-8609-c087d6699875","ios":"levelo://app?vid=41e9d1bc-9771-499b-8609-c087d6699875"},"vehicle_type_id":"4","last_reported":1727773794,"current_range_meters":27200,"station_id":"ce4bhjp2rcd13ifvqg90","pricing_plan_id":"cebpf4jnsgd1na2vs0mg"},{"bike_id":"10b5870f-f569-4ac6-89d5-5741e263837b","system_id":"levelo_inurba_marseille","lat":43.30537,"lon":5.36556,"is_reserved":false,"is_disabled":false,"rental_uris":{"android":"levelo://app?vid=10b5870f-f569-4ac6-89d5-5741e263837b","ios":"levelo://app?vid=10b5870f-f569-4ac6-89d5-5741e263837b"},"vehicle_type_id":"4","last_reported":1727773794,"current_range_meters":16800,"station_id":"ce4bgs12rcd13ifvqcag","pricing_plan_id":"cebpf4jnsgd1na2vs0mg"},{"bike_id":"039f6efa-5a1e-4924-b401-f8792eb67a8d","system_id":"levelo_inurba_marseille","lat":43.24074,"lon":5.3776,"is_reserved":false,"is_disabled":false,"rental_uris":{"android":"levelo://app?vid=039f6efa-5a1e-4924-b401-f8792eb67a8d","ios":"levelo://app?vid=039f6efa-5a1e-4924-b401-f8792eb67a8d"},"vehicle_type_id":"4","last_reported":1727773794,"current_range_meters":38000,"station_id":"ce4bhnp2rcd13ifvqgvg","pricing_plan_id":"cebpf4jnsgd1na2vs0mg"},{"bike_id":"36a07c0a-a28a-4679-8ec3-d18030a4b651","system_id":"levelo_inurba_marseille","lat":43.292236,"lon":5.360644,"is_reserved":false,"is_disabled":false,"rental_uris":{"android":"levelo://app?vid=36a07c0a-a28a-4679-8ec3-d18030a4b651","ios":"levelo://app?vid=36a07c0a-a28a-4679-8ec3-d18030a4b651"},"vehicle_type_id":"4","last_reported":1727773794,"current_range_meters":22800,"station_id":"ce4bhbh2rcd13ifvqeqg","pricing_plan_id":"cebpf4jnsgd1na2vs0mg"},{"bike_id":"66144357-a01f-4ae0-8852-2a340d08b2d1","system_id":"levelo_inurba_marseille","lat":43.306,"lon":5.3721,"is_reserved":false,"is_disabled":false,"rental_uris":{"android":"levelo://app?vid=66144357-a01f-4ae0-8852-2a340d08b2d1","ios":"levelo://app?vid=66144357-a01f-4ae0-8852-2a340d08b2d1"},"vehicle_type_id":"4","last_reported":1727773794,"current_range_meters":23200,"station_id":"ce4bgqh2rcd13ifvqc4g","pricing_plan_id":"cebpf4jnsgd1na2vs0mg"},{"bike_id":"d83dbb0e-916b-4490-b545-21e2373d0d3b","system_id":"levelo_inurba_marseille","lat":43.27378,"lon":5.3626,"is_reserved":false,"is_disabled":false,"rental_uris":{"android":"levelo://app?vid=d83dbb0e-916b-4490-b545-21e2373d0d3b","ios":"levelo://app?vid=d83dbb0e-916b-4490-b545-21e2373d0d3b"},"vehicle_type_id":"4","last_reported":1727773794,"current_range_meters":28000,"station_id":"ce4bhbh2rcd13ifvqeo0","pricing_plan_id":"cebpf4jnsgd1na2vs0mg"},{"bike_id":"e6c88988-c5ee-496f-bf87-a1d9852b71db","system_id":"levelo_inurba_marseille","lat":43.30909,"lon":5.36853,"is_reserved":false,"is_disabled":false,"rental_uris":{"android":"levelo://app?vid=e6c88988-c5ee-496f-bf87-a1d9852b71db","ios":"levelo://app?vid=e6c88988-c5ee-496f-bf87-a1d9852b71db"},"vehicle_type_id":"4","last_reported":1727773794,"current_range_meters":31200,"station_id":"ce4bgn92rcd13ifvqbvg","pricing_plan_id":"cebpf4jnsgd1na2vs0mg"},{"bike_id":"df848193-3cca-4608-82f1-cb60c72998c2","system_id":"levelo_inurba_marseille","lat":43.29005,"lon":5.35606,"is_reserved":false,"is_disabled":false,"rental_uris":{"android":"levelo://app?vid=df848193-3cca-4608-82f1-cb60c72998c2","ios":"levelo://app?vid=df848193-3cca-4608-82f1-cb60c72998c2"},"vehicle_type_id":"4","last_reported":1727773794,"current_range_meters":18800,"station_id":"ce4bhb92rcd13ifvqen0","pricing_plan_id":"cebpf4jnsgd1na2vs0mg"},{"bike_id":"bb0db29b-307e-4e3c-9fb8-089947d27aae","system_id":"levelo_inurba_marseille","lat":43.30538,"lon":5.36539,"is_reserved":false,"is_disabled":false,"rental_uris":{"android":"levelo://app?vid=bb0db29b-307e-4e3c-9fb8-089947d27aae","ios":"levelo://app?vid=bb0db29b-307e-4e3c-9fb8-089947d27aae"},"vehicle_type_id":"4","last_reported":1727773794,"current_range_meters":35200,"station_id":"ce4bgs12rcd13ifvqcag","pricing_plan_id":"cebpf4jnsgd1na2vs0mg"},{"bike_id":"c7480fc2-3792-4ae2-a78b-6588a6c6d1ec","system_id":"levelo_inurba_marseille","lat":43.29004,"lon":5.35613,"is_reserved":false,"is_disabled":false,"rental_uris":{"android":"levelo://app?vid=c7480fc2-3792-4ae2-a78b-6588a6c6d1ec","ios":"levelo://app?vid=c7480fc2-3792-4ae2-a78b-6588a6c6d1ec"},"vehicle_type_id":"4","last_reported":1727773794,"current_range_meters":34800,"station_id":"ce4bhb92rcd13ifvqen0","pricing_plan_id":"cebpf4jnsgd1na2vs0mg"},{"bike_id":"17346577-f0d6-4544-b4b0-1fd855e7857c","system_id":"levelo_inurba_marseille","lat":43.27903,"lon":5.3803,"is_reserved":false,"is_disabled":false,"rental_uris":{"android":"levelo://app?vid=17346577-f0d6-4544-b4b0-1fd855e7857c","ios":"levelo://app?vid=17346577-f0d6-4544-b4b0-1fd855e7857c"},"vehicle_type_id":"4","last_reported":1727773794,"current_range_meters":34800,"station_id":"ce4bhf92rcd13ifvqf50","pricing_plan_id":"cebpf4jnsgd1na2vs0mg"},{"bike_id":"3a10dcde-b51b-4191-a539-77d5fce2b49e","system_id":"levelo_inurba_marseille","lat":43.29011,"lon":5.35616,"is_reserved":false,"is_disabled":false,"rental_uris":{"android":"levelo://app?vid=3a10dcde-b51b-4191-a539-77d5fce2b49e","ios":"levelo://app?vid=3a10dcde-b51b-4191-a539-77d5fce2b49e"},"vehicle_type_id":"4","last_reported":1727773794,"current_range_meters":26000,"station_id":"ce4bhb92rcd13ifvqen0","pricing_plan_id":"cebpf4jnsgd1na2vs0mg"},{"bike_id":"a248b654-bd34-480a-a07d-a25ad1cea206","system_id":"levelo_inurba_marseille","lat":43.25944,"lon":5.40908,"is_reserved":false,"is_disabled":false,"rental_uris":{"android":"levelo://app?vid=a248b654-bd34-480a-a07d-a25ad1cea206","ios":"levelo://app?vid=a248b654-bd34-480a-a07d-a25ad1cea206"},"vehicle_type_id":"4","last_reported":1727773794,"current_range_meters":7200,"station_id":"ce4bhm92rcd13ifvqglg","pricing_plan_id":"cebpf4jnsgd1na2vs0mg"},{"bike_id":"bbfa1072-43cd-4cc7-bf78-556e11e70d56","system_id":"levelo_inurba_marseille","lat":43.26776,"lon":5.39425,"is_reserved":false,"is_disabled":false,"rental_uris":{"android":"levelo://app?vid=bbfa1072-43cd-4cc7-bf78-556e11e70d56","ios":"levelo://app?vid=bbfa1072-43cd-4cc7-bf78-556e11e70d56"},"vehicle_type_id":"4","last_reported":1727773794,"current_range_meters":38000,"station_id":"ce4bhh12rcd13ifvqfg0","pricing_plan_id":"cebpf4jnsgd1na2vs0mg"},{"bike_id":"2ae518ed-a511-4607-b96a-760b6b3f2b7b","system_id":"levelo_inurba_marseille","lat":43.28151,"lon":5.42649,"is_reserved":false,"is_disabled":false,"rental_uris":{"android":"levelo://app?vid=2ae518ed-a511-4607-b96a-760b6b3f2b7b","ios":"levelo://app?vid=2ae518ed-a511-4607-b96a-760b6b3f2b7b"},"vehicle_type_id":"4","last_reported":1727773794,"current_range_meters":12800,"station_id":"ce4bhnh2rcd13ifvqgug","pricing_plan_id":"cebpf4jnsgd1na2vs0mg"},{"bike_id":"ab728a23-caf1-4bd3-910f-0549e57950ad","system_id":"levelo_inurba_marseille","lat":43.23151,"lon":5.43718,"is_reserved":false,"is_disabled":false,"rental_uris":{"android":"levelo://app?vid=ab728a23-caf1-4bd3-910f-0549e57950ad","ios":"levelo://app?vid=ab728a23-caf1-4bd3-910f-0549e57950ad"},"vehicle_type_id":"4","last_reported":1727773794,"current_range_meters":4400,"station_id":"ce4bhmp2rcd13ifvqgog","pricing_plan_id":"cebpf4jnsgd1na2vs0mg"},{"bike_id":"38b3fbba-7aa5-4fad-94a6-00f40ec984c3","system_id":"levelo_inurba_marseille","lat":43.30912,"lon":5.36845,"is_reserved":false,"is_disabled":false,"rental_uris":{"android":"levelo://app?vid=38b3fbba-7aa5-4fad-94a6-00f40ec984c3","ios":"levelo://app?vid=38b3fbba-7aa5-4fad-94a6-00f40ec984c3"},"vehicle_type_id":"4","last_reported":1727773794,"current_range_meters":36800,"station_id":"ce4bgn92rcd13ifvqbvg","pricing_plan_id":"cebpf4jnsgd1na2vs0mg"},{"bike_id":"6816bc58-fc41-4917-a3f7-8db6f38ef7e4","system_id":"levelo_inurba_marseille","lat":43.3014,"lon":5.37413,"is_reserved":false,"is_disabled":false,"rental_uris":{"android":"levelo://app?vid=6816bc58-fc41-4917-a3f7-8db6f38ef7e4","ios":"levelo://app?vid=6816bc58-fc41-4917-a3f7-8db6f38ef7e4"},"vehicle_type_id":"4","last_reported":1727773794,"current_range_meters":25600,"station_id":"ce4bgs92rcd13ifvqcc0","pricing_plan_id":"cebpf4jnsgd1na2vs0mg"},{"bike_id":"69103f01-1d57-4c2f-844a-e110ceb2d473","system_id":"levelo_inurba_marseille","lat":43.29625,"lon":5.37153,"is_reserved":false,"is_disabled":false,"rental_uris":{"android":"levelo://app?vid=69103f01-1d57-4c2f-844a-e110ceb2d473","ios":"levelo://app?vid=69103f01-1d57-4c2f-844a-e110ceb2d473"},"vehicle_type_id":"4","last_reported":1727773794,"current_range_meters":39200,"station_id":"ce4bgnh2rcd13ifvqc0g","pricing_plan_id":"cebpf4jnsgd1na2vs0mg"},{"bike_id":"df3246d2-826f-45f2-868b-0d23ff1782d9","system_id":"levelo_inurba_marseille","lat":43.32536,"lon":5.41446,"is_reserved":false,"is_disabled":false,"rental_uris":{"android":"levelo://app?vid=df3246d2-826f-45f2-868b-0d23ff1782d9","ios":"levelo://app?vid=df3246d2-826f-45f2-868b-0d23ff1782d9"},"vehicle_type_id":"4","last_reported":1727773794,"current_range_meters":36800,"station_id":"ce4bhq12rcd13ifvqhhg","pricing_plan_id":"cebpf4jnsgd1na2vs0mg"},{"bike_id":"646b4c85-8c7e-4715-856c-f450496d3f81","system_id":"levelo_inurba_marseille","lat":43.25933,"lon":5.40908,"is_reserved":false,"is_disabled":false,"rental_uris":{"android":"levelo://app?vid=646b4c85-8c7e-4715-856c-f450496d3f81","ios":"levelo://app?vid=646b4c85-8c7e-4715-856c-f450496d3f81"},"vehicle_type_id":"4","last_reported":1727773794,"current_range_meters":28000,"station_id":"ce4bhm92rcd13ifvqglg","pricing_plan_id":"cebpf4jnsgd1na2vs0mg"},{"bike_id":"d7ce7a5c-b08f-49b4-8b23-521e5b122803","system_id":"levelo_inurba_marseille","lat":43.23151,"lon":5.43714,"is_reserved":false,"is_disabled":false,"rental_uris":{"android":"levelo://app?vid=d7ce7a5c-b08f-49b4-8b23-521e5b122803","ios":"levelo://app?vid=d7ce7a5c-b08f-49b4-8b23-521e5b122803"},"vehicle_type_id":"4","last_reported":1727773794,"current_range_meters":17600,"station_id":"ce4bhmp2rcd13ifvqgog","pricing_plan_id":"cebpf4jnsgd1na2vs0mg"},{"bike_id":"07b5a74b-d824-4607-9a9d-31a616d5b59d","system_id":"levelo_inurba_marseille","lat":43.33767,"lon":5.37456,"is_reserved":false,"is_disabled":false,"rental_uris":{"android":"levelo://app?vid=07b5a74b-d824-4607-9a9d-31a616d5b59d","ios":"levelo://app?vid=07b5a74b-d824-4607-9a9d-31a616d5b59d"},"vehicle_type_id":"4","last_reported":1727773794,"current_range_meters":38800,"station_id":"","pricing_plan_id":"cebpf4jnsgd1na2vs0mg"},{"bike_id":"cdf40b8d-72c3-4a45-958e-305bcf956c69","system_id":"levelo_inurba_marseille","lat":43.28967,"lon":5.37841,"is_reserved":false,"is_disabled":false,"rental_uris":{"android":"levelo://app?vid=cdf40b8d-72c3-4a45-958e-305bcf956c69","ios":"levelo://app?vid=cdf40b8d-72c3-4a45-958e-305bcf956c69"},"vehicle_type_id":"4","last_reported":1727773794,"current_range_meters":9200,"station_id":"ce4bh9p2rcd13ifvqed0","pricing_plan_id":"cebpf4jnsgd1na2vs0mg"},{"bike_id":"0286604c-ebcd-4b76-ab34-035b2515523e","system_id":"levelo_inurba_marseille","lat":43.304606,"lon":5.378982,"is_reserved":false,"is_disabled":false,"rental_uris":{"android":"levelo://app?vid=0286604c-ebcd-4b76-ab34-035b2515523e","ios":"levelo://app?vid=0286604c-ebcd-4b76-ab34-035b2515523e"},"vehicle_type_id":"4","last_reported":1727773794,"current_range_meters":34000,"station_id":"ce4bgup2rcd13ifvqcn0","pricing_plan_id":"cebpf4jnsgd1na2vs0mg"},{"bike_id":"ce65be63-d3ae-4bb7-9332-5940eaac9650","system_id":"levelo_inurba_marseille","lat":43.29012,"lon":5.35636,"is_reserved":false,"is_disabled":false,"rental_uris":{"android":"levelo://app?vid=ce65be63-d3ae-4bb7-9332-5940eaac9650","ios":"levelo://app?vid=ce65be63-d3ae-4bb7-9332-5940eaac9650"},"vehicle_type_id":"4","last_reported":1727773794,"current_range_meters":11600,"station_id":"ce4bhb92rcd13ifvqen0","pricing_plan_id":"cebpf4jnsgd1na2vs0mg"},{"bike_id":"d97ca4fb-ab4d-4b5c-af7e-fd102b32d2a1","system_id":"levelo_inurba_marseille","lat":43.2847,"lon":5.38417,"is_reserved":false,"is_disabled":false,"rental_uris":{"android":"levelo://app?vid=d97ca4fb-ab4d-4b5c-af7e-fd102b32d2a1","ios":"levelo://app?vid=d97ca4fb-ab4d-4b5c-af7e-fd102b32d2a1"},"vehicle_type_id":"4","last_reported":1727773794,"current_range_meters":22400,"station_id":"ce4bh512rcd13ifvqe3g","pricing_plan_id":"cebpf4jnsgd1na2vs0mg"},{"bike_id":"3362d0f6-9694-45a7-92d0-2d55128cc1fa","system_id":"levelo_inurba_marseille","lat":43.28267,"lon":5.35059,"is_reserved":false,"is_disabled":false,"rental_uris":{"android":"levelo://app?vid=3362d0f6-9694-45a7-92d0-2d55128cc1fa","ios":"levelo://app?vid=3362d0f6-9694-45a7-92d0-2d55128cc1fa"},"vehicle_type_id":"4","last_reported":1727773794,"current_range_meters":2000,"station_id":"ce4bhbp2rcd13ifvqerg","pricing_plan_id":"cebpf4jnsgd1na2vs0mg"},{"bike_id":"3beadf9d-cc57-4cfa-b23e-ac53aab533e0","system_id":"levelo_inurba_marseille","lat":43.30274,"lon":5.37695,"is_reserved":false,"is_disabled":false,"rental_uris":{"android":"levelo://app?vid=3beadf9d-cc57-4cfa-b23e-ac53aab533e0","ios":"levelo://app?vid=3beadf9d-cc57-4cfa-b23e-ac53aab533e0"},"vehicle_type_id":"4","last_reported":1727773794,"current_range_meters":40000,"station_id":"ce4bguh2rcd13ifvqcj0","pricing_plan_id":"cebpf4jnsgd1na2vs0mg"},{"bike_id":"101f5bb0-f871-4e8a-894c-f3ca6c31f26e","system_id":"levelo_inurba_marseille","lat":43.33609,"lon":5.41034,"is_reserved":false,"is_disabled":false,"rental_uris":{"android":"levelo://app?vid=101f5bb0-f871-4e8a-894c-f3ca6c31f26e","ios":"levelo://app?vid=101f5bb0-f871-4e8a-894c-f3ca6c31f26e"},"vehicle_type_id":"4","last_reported":1727773794,"current_range_meters":10000,"station_id":"ce4bhqh2rcd13ifvqhmg","pricing_plan_id":"cebpf4jnsgd1na2vs0mg"},{"bike_id":"9fdb61b4-442c-4eff-9d3b-cf7f40325237","system_id":"levelo_inurba_marseille","lat":43.29581,"lon":5.37517,"is_reserved":false,"is_disabled":false,"rental_uris":{"android":"levelo://app?vid=9fdb61b4-442c-4eff-9d3b-cf7f40325237","ios":"levelo://app?vid=9fdb61b4-442c-4eff-9d3b-cf7f40325237"},"vehicle_type_id":"4","last_reported":1727773794,"current_range_meters":38400,"station_id":"ce4bgh92rcd13ifvqb50","pricing_plan_id":"cebpf4jnsgd1na2vs0mg"},{"bike_id":"6c4a97ef-ed56-4d85-98d9-463a709b63f3","system_id":"levelo_inurba_marseille","lat":43.242,"lon":5.40546,"is_reserved":false,"is_disabled":false,"rental_uris":{"android":"levelo://app?vid=6c4a97ef-ed56-4d85-98d9-463a709b63f3","ios":"levelo://app?vid=6c4a97ef-ed56-4d85-98d9-463a709b63f3"},"vehicle_type_id":"4","last_reported":1727773794,"current_range_meters":19200,"station_id":"","pricing_plan_id":"cebpf4jnsgd1na2vs0mg"},{"bike_id":"ab80b424-bfc5-4709-9b95-a2bee6a56f64","system_id":"levelo_inurba_marseille","lat":43.32293,"lon":5.38275,"is_reserved":false,"is_disabled":false,"rental_uris":{"android":"levelo://app?vid=ab80b424-bfc5-4709-9b95-a2bee6a56f64","ios":"levelo://app?vid=ab80b424-bfc5-4709-9b95-a2bee6a56f64"},"vehicle_type_id":"4","last_reported":1727773794,"current_range_meters":38800,"station_id":"ce4bhr12rcd13ifvqhqg","pricing_plan_id":"cebpf4jnsgd1na2vs0mg"},{"bike_id":"2bfd4452-d854-4ea1-8b71-db38f940202a","system_id":"levelo_inurba_marseille","lat":43.30535,"lon":5.36705,"is_reserved":false,"is_disabled":false,"rental_uris":{"android":"levelo://app?vid=2bfd4452-d854-4ea1-8b71-db38f940202a","ios":"levelo://app?vid=2bfd4452-d854-4ea1-8b71-db38f940202a"},"vehicle_type_id":"4","last_reported":1727773794,"current_range_meters":36000,"station_id":"ce4bgrp2rcd13ifvqc9g","pricing_plan_id":"cebpf4jnsgd1na2vs0mg"},{"bike_id":"73f87734-9ccc-44aa-8556-3cbb19386714","system_id":"levelo_inurba_marseille","lat":43.25105,"lon":5.40333,"is_reserved":false,"is_disabled":false,"rental_uris":{"android":"levelo://app?vid=73f87734-9ccc-44aa-8556-3cbb19386714","ios":"levelo://app?vid=73f87734-9ccc-44aa-8556-3cbb19386714"},"vehicle_type_id":"4","last_reported":1727773794,"current_range_meters":12800,"station_id":"ce4bhlh2rcd13ifvqgig","pricing_plan_id":"cebpf4jnsgd1na2vs0mg"},{"bike_id":"157abced-53dc-49f0-8be0-a1a494696491","system_id":"levelo_inurba_marseille","lat":43.25938,"lon":5.40903,"is_reserved":false,"is_disabled":false,"rental_uris":{"android":"levelo://app?vid=157abced-53dc-49f0-8be0-a1a494696491","ios":"levelo://app?vid=157abced-53dc-49f0-8be0-a1a494696491"},"vehicle_type_id":"4","last_reported":1727773794,"current_range_meters":32400,"station_id":"ce4bhm92rcd13ifvqglg","pricing_plan_id":"cebpf4jnsgd1na2vs0mg"},{"bike_id":"dd05cf58-177b-4d66-8ca2-fe7872404e55","system_id":"levelo_inurba_marseille","lat":43.23154,"lon":5.4371,"is_reserved":false,"is_disabled":false,"rental_uris":{"android":"levelo://app?vid=dd05cf58-177b-4d66-8ca2-fe7872404e55","ios":"levelo://app?vid=dd05cf58-177b-4d66-8ca2-fe7872404e55"},"vehicle_type_id":"4","last_reported":1727773794,"current_range_meters":32800,"station_id":"ce4bhmp2rcd13ifvqgog","pricing_plan_id":"cebpf4jnsgd1na2vs0mg"},{"bike_id":"8bc9d069-e21e-466b-87c2-8dfa6d23d3cc","system_id":"levelo_inurba_marseille","lat":43.30459,"lon":5.379,"is_reserved":false,"is_disabled":false,"rental_uris":{"android":"levelo://app?vid=8bc9d069-e21e-466b-87c2-8dfa6d23d3cc","ios":"levelo://app?vid=8bc9d069-e21e-466b-87c2-8dfa6d23d3cc"},"vehicle_type_id":"4","last_reported":1727773794,"current_range_meters":32800,"station_id":"ce4bgup2rcd13ifvqcn0","pricing_plan_id":"cebpf4jnsgd1na2vs0mg"},{"bike_id":"b6ebf693-fa1a-4630-ad73-f8bc797ad431","system_id":"levelo_inurba_marseille","lat":43.25914,"lon":5.40857,"is_reserved":false,"is_disabled":false,"rental_uris":{"android":"levelo://app?vid=b6ebf693-fa1a-4630-ad73-f8bc797ad431","ios":"levelo://app?vid=b6ebf693-fa1a-4630-ad73-f8bc797ad431"},"vehicle_type_id":"4","last_reported":1727773794,"current_range_meters":28000,"station_id":"ce4bhm92rcd13ifvqglg","pricing_plan_id":"cebpf4jnsgd1na2vs0mg"},{"bike_id":"5a9f13c9-9e95-48e9-ab85-4e426f691561","system_id":"levelo_inurba_marseille","lat":43.26684,"lon":5.38271,"is_reserved":false,"is_disabled":false,"rental_uris":{"android":"levelo://app?vid=5a9f13c9-9e95-48e9-ab85-4e426f691561","ios":"levelo://app?vid=5a9f13c9-9e95-48e9-ab85-4e426f691561"},"vehicle_type_id":"4","last_reported":1727773794,"current_range_meters":32000,"station_id":"ce4bhg92rcd13ifvqf90","pricing_plan_id":"cebpf4jnsgd1na2vs0mg"},{"bike_id":"f493192b-13c6-47a1-9573-739dd32e633f","system_id":"levelo_inurba_marseille","lat":43.337444,"lon":5.374475,"is_reserved":false,"is_disabled":false,"rental_uris":{"android":"levelo://app?vid=f493192b-13c6-47a1-9573-739dd32e633f","ios":"levelo://app?vid=f493192b-13c6-47a1-9573-739dd32e633f"},"vehicle_type_id":"4","last_reported":1727773794,"current_range_meters":17600,"station_id":"","pricing_plan_id":"cebpf4jnsgd1na2vs0mg"},{"bike_id":"994a54c1-98eb-465b-abac-aebc42b55a66","system_id":"levelo_inurba_marseille","lat":43.27621,"lon":5.36112,"is_reserved":false,"is_disabled":false,"rental_uris":{"android":"levelo://app?vid=994a54c1-98eb-465b-abac-aebc42b55a66","ios":"levelo://app?vid=994a54c1-98eb-465b-abac-aebc42b55a66"},"vehicle_type_id":"4","last_reported":1727773794,"current_range_meters":25600,"station_id":"ce4bgj92rcd13ifvqbe0","pricing_plan_id":"cebpf4jnsgd1na2vs0mg"},{"bike_id":"2e0ab855-ca8f-4a3d-bca3-be4bc562b8f0","system_id":"levelo_inurba_marseille","lat":43.3014,"lon":5.39861,"is_reserved":false,"is_disabled":false,"rental_uris":{"android":"levelo://app?vid=2e0ab855-ca8f-4a3d-bca3-be4bc562b8f0","ios":"levelo://app?vid=2e0ab855-ca8f-4a3d-bca3-be4bc562b8f0"},"vehicle_type_id":"4","last_reported":1727773794,"current_range_meters":14000,"station_id":"ce4bh0h2rcd13ifvqd40","pricing_plan_id":"cebpf4jnsgd1na2vs0mg"},{"bike_id":"ce6166ea-c4ad-4ecf-8cb6-35a2f13ea8fd","system_id":"levelo_inurba_marseille","lat":43.23956,"lon":5.36632,"is_reserved":false,"is_disabled":false,"rental_uris":{"android":"levelo://app?vid=ce6166ea-c4ad-4ecf-8cb6-35a2f13ea8fd","ios":"levelo://app?vid=ce6166ea-c4ad-4ecf-8cb6-35a2f13ea8fd"},"vehicle_type_id":"4","last_reported":1727773794,"current_range_meters":18000,"station_id":"ce4bhi12rcd13ifvqfp0","pricing_plan_id":"cebpf4jnsgd1na2vs0mg"},{"bike_id":"3dab0a02-c252-4bc7-9c17-a17097a1ad7c","system_id":"levelo_inurba_marseille","lat":43.27491,"lon":5.42459,"is_reserved":false,"is_disabled":false,"rental_uris":{"android":"levelo://app?vid=3dab0a02-c252-4bc7-9c17-a17097a1ad7c","ios":"levelo://app?vid=3dab0a02-c252-4bc7-9c17-a17097a1ad7c"},"vehicle_type_id":"4","last_reported":1727773794,"current_range_meters":14400,"station_id":"ce4bhn92rcd13ifvqgrg","pricing_plan_id":"cebpf4jnsgd1na2vs0mg"},{"bike_id":"6afe88b7-7d80-49bd-af95-53fba3b5ddc1","system_id":"levelo_inurba_marseille","lat":43.28723,"lon":5.36083,"is_reserved":false,"is_disabled":false,"rental_uris":{"android":"levelo://app?vid=6afe88b7-7d80-49bd-af95-53fba3b5ddc1","ios":"levelo://app?vid=6afe88b7-7d80-49bd-af95-53fba3b5ddc1"},"vehicle_type_id":"4","last_reported":1727773794,"current_range_meters":22800,"station_id":"cki0cbj6b192h4jlfktg","pricing_plan_id":"cebpf4jnsgd1na2vs0mg"},{"bike_id":"11b3b2a1-2d3b-4d2a-9ced-1ab56b95ace1","system_id":"levelo_inurba_marseille","lat":43.23149,"lon":5.43719,"is_reserved":false,"is_disabled":false,"rental_uris":{"android":"levelo://app?vid=11b3b2a1-2d3b-4d2a-9ced-1ab56b95ace1","ios":"levelo://app?vid=11b3b2a1-2d3b-4d2a-9ced-1ab56b95ace1"},"vehicle_type_id":"4","last_reported":1727773794,"current_range_meters":8400,"station_id":"ce4bhmp2rcd13ifvqgog","pricing_plan_id":"cebpf4jnsgd1na2vs0mg"},{"bike_id":"e3ccb747-72e6-485a-9971-038c1c0033f2","system_id":"levelo_inurba_marseille","lat":43.27493,"lon":5.42459,"is_reserved":false,"is_disabled":false,"rental_uris":{"android":"levelo://app?vid=e3ccb747-72e6-485a-9971-038c1c0033f2","ios":"levelo://app?vid=e3ccb747-72e6-485a-9971-038c1c0033f2"},"vehicle_type_id":"4","last_reported":1727773794,"current_range_meters":20000,"station_id":"ce4bhn92rcd13ifvqgrg","pricing_plan_id":"cebpf4jnsgd1na2vs0mg"},{"bike_id":"682e8091-68ea-4fce-b1bd-5ad117660139","system_id":"levelo_inurba_marseille","lat":43.28272,"lon":5.35081,"is_reserved":false,"is_disabled":false,"rental_uris":{"android":"levelo://app?vid=682e8091-68ea-4fce-b1bd-5ad117660139","ios":"levelo://app?vid=682e8091-68ea-4fce-b1bd-5ad117660139"},"vehicle_type_id":"4","last_reported":1727773794,"current_range_meters":26800,"station_id":"ce4bhbp2rcd13ifvqerg","pricing_plan_id":"cebpf4jnsgd1na2vs0mg"},{"bike_id":"b1d24671-07cf-4217-874f-d33bb3918dec","system_id":"levelo_inurba_marseille","lat":43.25936,"lon":5.40912,"is_reserved":false,"is_disabled":false,"rental_uris":{"android":"levelo://app?vid=b1d24671-07cf-4217-874f-d33bb3918dec","ios":"levelo://app?vid=b1d24671-07cf-4217-874f-d33bb3918dec"},"vehicle_type_id":"4","last_reported":1727773794,"current_range_meters":16800,"station_id":"ce4bhm92rcd13ifvqglg","pricing_plan_id":"cebpf4jnsgd1na2vs0mg"},{"bike_id":"2805f4c3-81fa-431e-94ba-e5d48719baf6","system_id":"levelo_inurba_marseille","lat":43.29626,"lon":5.37167,"is_reserved":false,"is_disabled":false,"rental_uris":{"android":"levelo://app?vid=2805f4c3-81fa-431e-94ba-e5d48719baf6","ios":"levelo://app?vid=2805f4c3-81fa-431e-94ba-e5d48719baf6"},"vehicle_type_id":"4","last_reported":1727773794,"current_range_meters":28400,"station_id":"ce4bgnh2rcd13ifvqc0g","pricing_plan_id":"cebpf4jnsgd1na2vs0mg"},{"bike_id":"5ad62edc-1a72-4cbc-bbf8-4a5382ec762f","system_id":"levelo_inurba_marseille","lat":43.30194,"lon":5.3663,"is_reserved":false,"is_disabled":false,"rental_uris":{"android":"levelo://app?vid=5ad62edc-1a72-4cbc-bbf8-4a5382ec762f","ios":"levelo://app?vid=5ad62edc-1a72-4cbc-bbf8-4a5382ec762f"},"vehicle_type_id":"4","last_reported":1727773794,"current_range_meters":6800,"station_id":"ce4bgrh2rcd13ifvqc8g","pricing_plan_id":"cebpf4jnsgd1na2vs0mg"},{"bike_id":"7123b58c-bb77-48f8-8d0e-0d06f320fbef","system_id":"levelo_inurba_marseille","lat":43.31346,"lon":5.36706,"is_reserved":false,"is_disabled":false,"rental_uris":{"android":"levelo://app?vid=7123b58c-bb77-48f8-8d0e-0d06f320fbef","ios":"levelo://app?vid=7123b58c-bb77-48f8-8d0e-0d06f320fbef"},"vehicle_type_id":"4","last_reported":1727773794,"current_range_meters":40000,"station_id":"ce4bgr92rcd13ifvqc6g","pricing_plan_id":"cebpf4jnsgd1na2vs0mg"},{"bike_id":"3eb398bc-7c75-4637-8479-11f62120404f","system_id":"levelo_inurba_marseille","lat":43.28984,"lon":5.37838,"is_reserved":false,"is_disabled":false,"rental_uris":{"android":"levelo://app?vid=3eb398bc-7c75-4637-8479-11f62120404f","ios":"levelo://app?vid=3eb398bc-7c75-4637-8479-11f62120404f"},"vehicle_type_id":"4","last_reported":1727773794,"current_range_meters":27200,"station_id":"ce4bh9p2rcd13ifvqed0","pricing_plan_id":"cebpf4jnsgd1na2vs0mg"},{"bike_id":"5fdb59ea-177a-40ae-bdac-1d76255af3ca","system_id":"levelo_inurba_marseille","lat":43.29628,"lon":5.37158,"is_reserved":false,"is_disabled":false,"rental_uris":{"android":"levelo://app?vid=5fdb59ea-177a-40ae-bdac-1d76255af3ca","ios":"levelo://app?vid=5fdb59ea-177a-40ae-bdac-1d76255af3ca"},"vehicle_type_id":"4","last_reported":1727773794,"current_range_meters":39200,"station_id":"ce4bgnh2rcd13ifvqc0g","pricing_plan_id":"cebpf4jnsgd1na2vs0mg"},{"bike_id":"e3f658f2-4155-4818-b7f2-817ddb02bc45","system_id":"levelo_inurba_marseille","lat":43.30471,"lon":5.37907,"is_reserved":false,"is_disabled":false,"rental_uris":{"android":"levelo://app?vid=e3f658f2-4155-4818-b7f2-817ddb02bc45","ios":"levelo://app?vid=e3f658f2-4155-4818-b7f2-817ddb02bc45"},"vehicle_type_id":"4","last_reported":1727773794,"current_range_meters":8400,"station_id":"ce4bgup2rcd13ifvqcn0","pricing_plan_id":"cebpf4jnsgd1na2vs0mg"},{"bike_id":"eef0ff24-2e3f-471a-8736-b680248f123f","system_id":"levelo_inurba_marseille","lat":43.3171,"lon":5.37774,"is_reserved":false,"is_disabled":false,"rental_uris":{"android":"levelo://app?vid=eef0ff24-2e3f-471a-8736-b680248f123f","ios":"levelo://app?vid=eef0ff24-2e3f-471a-8736-b680248f123f"},"vehicle_type_id":"4","last_reported":1727773794,"current_range_meters":38000,"station_id":"ce4bgth2rcd13ifvqch0","pricing_plan_id":"cebpf4jnsgd1na2vs0mg"},{"bike_id":"9711c5af-ceda-4c50-b517-1e16cc14a4c7","system_id":"levelo_inurba_marseille","lat":43.23151,"lon":5.43719,"is_reserved":false,"is_disabled":false,"rental_uris":{"android":"levelo://app?vid=9711c5af-ceda-4c50-b517-1e16cc14a4c7","ios":"levelo://app?vid=9711c5af-ceda-4c50-b517-1e16cc14a4c7"},"vehicle_type_id":"4","last_reported":1727773794,"current_range_meters":10800,"station_id":"ce4bhmp2rcd13ifvqgog","pricing_plan_id":"cebpf4jnsgd1na2vs0mg"},{"bike_id":"c140181c-295c-48d3-9d2f-f9a7624dcd1d","system_id":"levelo_inurba_marseille","lat":43.30905,"lon":5.36856,"is_reserved":false,"is_disabled":false,"rental_uris":{"android":"levelo://app?vid=c140181c-295c-48d3-9d2f-f9a7624dcd1d","ios":"levelo://app?vid=c140181c-295c-48d3-9d2f-f9a7624dcd1d"},"vehicle_type_id":"4","last_reported":1727773794,"current_range_meters":40000,"station_id":"ce4bgn92rcd13ifvqbvg","pricing_plan_id":"cebpf4jnsgd1na2vs0mg"},{"bike_id":"07999201-6456-4c72-b354-030a0e78c6bf","system_id":"levelo_inurba_marseille","lat":43.30797,"lon":5.38157,"is_reserved":false,"is_disabled":false,"rental_uris":{"android":"levelo://app?vid=07999201-6456-4c72-b354-030a0e78c6bf","ios":"levelo://app?vid=07999201-6456-4c72-b354-030a0e78c6bf"},"vehicle_type_id":"4","last_reported":1727773794,"current_range_meters":30000,"station_id":"ce4bgt12rcd13ifvqce0","pricing_plan_id":"cebpf4jnsgd1na2vs0mg"},{"bike_id":"aa122f98-8b5e-4a7d-bbd7-05f7603260ae","system_id":"levelo_inurba_marseille","lat":43.27489,"lon":5.42463,"is_reserved":false,"is_disabled":false,"rental_uris":{"android":"levelo://app?vid=aa122f98-8b5e-4a7d-bbd7-05f7603260ae","ios":"levelo://app?vid=aa122f98-8b5e-4a7d-bbd7-05f7603260ae"},"vehicle_type_id":"4","last_reported":1727773794,"current_range_meters":38400,"station_id":"ce4bhn92rcd13ifvqgrg","pricing_plan_id":"cebpf4jnsgd1na2vs0mg"},{"bike_id":"3f8f74ba-5bd7-4fea-a6f9-53f3897205a1","system_id":"levelo_inurba_marseille","lat":43.30544,"lon":5.3656,"is_reserved":false,"is_disabled":false,"rental_uris":{"android":"levelo://app?vid=3f8f74ba-5bd7-4fea-a6f9-53f3897205a1","ios":"levelo://app?vid=3f8f74ba-5bd7-4fea-a6f9-53f3897205a1"},"vehicle_type_id":"4","last_reported":1727773794,"current_range_meters":32800,"station_id":"ce4bgs12rcd13ifvqcag","pricing_plan_id":"cebpf4jnsgd1na2vs0mg"},{"bike_id":"a8b2b094-8e78-44e1-816c-9eff62369494","system_id":"levelo_inurba_marseille","lat":43.23155,"lon":5.43706,"is_reserved":false,"is_disabled":false,"rental_uris":{"android":"levelo://app?vid=a8b2b094-8e78-44e1-816c-9eff62369494","ios":"levelo://app?vid=a8b2b094-8e78-44e1-816c-9eff62369494"},"vehicle_type_id":"4","last_reported":1727773794,"current_range_meters":10000,"station_id":"ce4bhmp2rcd13ifvqgog","pricing_plan_id":"cebpf4jnsgd1na2vs0mg"},{"bike_id":"6b117e18-1b38-4cb3-8eaf-5577e3035f88","system_id":"levelo_inurba_marseille","lat":43.30548,"lon":5.36557,"is_reserved":false,"is_disabled":false,"rental_uris":{"android":"levelo://app?vid=6b117e18-1b38-4cb3-8eaf-5577e3035f88","ios":"levelo://app?vid=6b117e18-1b38-4cb3-8eaf-5577e3035f88"},"vehicle_type_id":"4","last_reported":1727773794,"current_range_meters":30000,"station_id":"ce4bgs12rcd13ifvqcag","pricing_plan_id":"cebpf4jnsgd1na2vs0mg"},{"bike_id":"be6266f1-8008-4b25-a3d5-82291b869f14","system_id":"levelo_inurba_marseille","lat":43.29314,"lon":5.37184,"is_reserved":false,"is_disabled":false,"rental_uris":{"android":"levelo://app?vid=be6266f1-8008-4b25-a3d5-82291b869f14","ios":"levelo://app?vid=be6266f1-8008-4b25-a3d5-82291b869f14"},"vehicle_type_id":"4","last_reported":1727773794,"current_range_meters":38000,"station_id":"ce4bgh92rcd13ifvqb40","pricing_plan_id":"cebpf4jnsgd1na2vs0mg"},{"bike_id":"01aeba3e-2ff5-4731-a9c8-3a2a9c7c3286","system_id":"levelo_inurba_marseille","lat":43.23967,"lon":5.36633,"is_reserved":false,"is_disabled":false,"rental_uris":{"android":"levelo://app?vid=01aeba3e-2ff5-4731-a9c8-3a2a9c7c3286","ios":"levelo://app?vid=01aeba3e-2ff5-4731-a9c8-3a2a9c7c3286"},"vehicle_type_id":"4","last_reported":1727773794,"current_range_meters":8000,"station_id":"ce4bhi12rcd13ifvqfp0","pricing_plan_id":"cebpf4jnsgd1na2vs0mg"},{"bike_id":"e4ab0d1f-b805-4733-bf23-07c30248a58b","system_id":"levelo_inurba_marseille","lat":43.26786,"lon":5.39412,"is_reserved":false,"is_disabled":false,"rental_uris":{"android":"levelo://app?vid=e4ab0d1f-b805-4733-bf23-07c30248a58b","ios":"levelo://app?vid=e4ab0d1f-b805-4733-bf23-07c30248a58b"},"vehicle_type_id":"4","last_reported":1727773794,"current_range_meters":18800,"station_id":"ce4bhh12rcd13ifvqfg0","pricing_plan_id":"cebpf4jnsgd1na2vs0mg"},{"bike_id":"fa612911-5e32-4a4c-b98c-c5e615b8fc4d","system_id":"levelo_inurba_marseille","lat":43.28081,"lon":5.39657,"is_reserved":false,"is_disabled":false,"rental_uris":{"android":"levelo://app?vid=fa612911-5e32-4a4c-b98c-c5e615b8fc4d","ios":"levelo://app?vid=fa612911-5e32-4a4c-b98c-c5e615b8fc4d"},"vehicle_type_id":"4","last_reported":1727773794,"current_range_meters":22000,"station_id":"ce4bho12rcd13ifvqh2g","pricing_plan_id":"cebpf4jnsgd1na2vs0mg"},{"bike_id":"9fc4b6fe-c93c-448a-85de-102bec05600e","system_id":"levelo_inurba_marseille","lat":43.31693,"lon":5.40477,"is_reserved":false,"is_disabled":false,"rental_uris":{"android":"levelo://app?vid=9fc4b6fe-c93c-448a-85de-102bec05600e","ios":"levelo://app?vid=9fc4b6fe-c93c-448a-85de-102bec05600e"},"vehicle_type_id":"4","last_reported":1727773794,"current_range_meters":12400,"station_id":"ce4bh012rcd13ifvqd00","pricing_plan_id":"cebpf4jnsgd1na2vs0mg"},{"bike_id":"661be8bb-f5a0-4095-931c-1ab57a86e028","system_id":"levelo_inurba_marseille","lat":43.26199,"lon":5.37931,"is_reserved":false,"is_disabled":false,"rental_uris":{"android":"levelo://app?vid=661be8bb-f5a0-4095-931c-1ab57a86e028","ios":"levelo://app?vid=661be8bb-f5a0-4095-931c-1ab57a86e028"},"vehicle_type_id":"4","last_reported":1727773794,"current_range_meters":26800,"station_id":"ce4bhjp2rcd13ifvqg90","pricing_plan_id":"cebpf4jnsgd1na2vs0mg"},{"bike_id":"2f14cd35-c57c-4a2e-8dd7-4b65d2b211b5","system_id":"levelo_inurba_marseille","lat":43.29629,"lon":5.40603,"is_reserved":false,"is_disabled":false,"rental_uris":{"android":"levelo://app?vid=2f14cd35-c57c-4a2e-8dd7-4b65d2b211b5","ios":"levelo://app?vid=2f14cd35-c57c-4a2e-8dd7-4b65d2b211b5"},"vehicle_type_id":"4","last_reported":1727773794,"current_range_meters":9200,"station_id":"ce4bh0h2rcd13ifvqd60","pricing_plan_id":"cebpf4jnsgd1na2vs0mg"},{"bike_id":"0cd2142c-5562-430f-861b-4e7329de9689","system_id":"levelo_inurba_marseille","lat":43.32292,"lon":5.38281,"is_reserved":false,"is_disabled":false,"rental_uris":{"android":"levelo://app?vid=0cd2142c-5562-430f-861b-4e7329de9689","ios":"levelo://app?vid=0cd2142c-5562-430f-861b-4e7329de9689"},"vehicle_type_id":"4","last_reported":1727773794,"current_range_meters":12000,"station_id":"ce4bhr12rcd13ifvqhqg","pricing_plan_id":"cebpf4jnsgd1na2vs0mg"},{"bike_id":"455a6c92-47fa-4687-87df-47325b21ee25","system_id":"levelo_inurba_marseille","lat":43.30467,"lon":5.37903,"is_reserved":false,"is_disabled":false,"rental_uris":{"android":"levelo://app?vid=455a6c92-47fa-4687-87df-47325b21ee25","ios":"levelo://app?vid=455a6c92-47fa-4687-87df-47325b21ee25"},"vehicle_type_id":"4","last_reported":1727773794,"current_range_meters":37600,"station_id":"ce4bgup2rcd13ifvqcn0","pricing_plan_id":"cebpf4jnsgd1na2vs0mg"},{"bike_id":"d3afa60e-3de0-4a8c-8c29-10de6208eeeb","system_id":"levelo_inurba_marseille","lat":43.29906,"lon":5.37469,"is_reserved":false,"is_disabled":false,"rental_uris":{"android":"levelo://app?vid=d3afa60e-3de0-4a8c-8c29-10de6208eeeb","ios":"levelo://app?vid=d3afa60e-3de0-4a8c-8c29-10de6208eeeb"},"vehicle_type_id":"4","last_reported":1727773794,"current_range_meters":36400,"station_id":"ce4bgjh2rcd13ifvqbg0","pricing_plan_id":"cebpf4jnsgd1na2vs0mg"},