{"last_updated":1777191062,"ttl":60,"version":"2.2","data":{"bikes":[{"bike_id":"bc7f0688-dc49-4bba-8323-a2c1a56445d7","system_id":"levelo_inurba_marseille","lat":43.29272,"lon":5.36843,"is_reserved":false,"is_disabled":false,"rental_uris":{"android":"levelo://app?vid=bc7f0688-dc49-4bba-8323-a2c1a56445d7","ios":"levelo://app?vid=bc7f0688-dc49-4bba-8323-a2c1a56445d7"},"vehicle_type_id":"4","last_reported":1777191062,"current_range_meters":2800,"station_id":"ce4bhbp2rcd13ifvqesg","pricing_plan_id":"cebpf4jnsgd1na2vs0mg"},{"bike_id":"f645e30b-5616-45b3-a17d-faf4a49d971d","system_id":"levelo_inurba_marseille","lat":43.31,"lon":5.37533,"is_reserved":false,"is_disabled":false,"rental_uris":{"android":"levelo://app?vid=f645e30b-5616-45b3-a17d-faf4a49d971d","ios":"levelo://app?vid=f645e30b-5616-45b3-a17d-faf4a49d971d"},"vehicle_type_id":"4","last_reported":1777191062,"current_range_meters":2800,"station_id":"","pricing_plan_id":"cebpf4jnsgd1na2vs0mg"},{"bike_id":"45ad0d0e-efdd-4c05-bbcd-19b309dc3892","system_id":"levelo_inurba_marseille","lat":43.27996,"lon":5.4164,"is_reserved":false,"is_disabled":false,"rental_uris":{"android":"levelo://app?vid=45ad0d0e-efdd-4c05-bbcd-19b309dc3892","ios":"levelo://app?vid=45ad0d0e-efdd-4c05-bbcd-19b309dc3892"},"vehicle_type_id":"4","last_reported":1777191062,"current_range_meters":2800,"station_id":"ce4bho12rcd13ifvqh1g","pricing_plan_id":"cebpf4jnsgd1na2vs0mg"},{"bike_id":"a3dee876-3af2-46d4-9131-1dd0997e500a","system_id":"levelo_inurba_marseille","lat":43.24493,"lon":5.37071,"is_reserved":false,"is_disabled":true,"rental_uris":{"android":"levelo://app?vid=a3dee876-3af2-46d4-9131-1dd0997e500a","ios":"levelo://app?vid=a3dee876-3af2-46d4-9131-1dd0997e500a"},"vehicle_type_id":"4","last_reported":1777191062,"current_range_meters":2800,"station_id":"","pricing_plan_id":"cebpf4jnsgd1na2vs0mg"},{"bike_id":"68e8032b-cde0-4866-a7f8-ca3872527ef7","system_id":"levelo_inurba_marseille","lat":43.28479,"lon":5.38421,"is_reserved":false,"is_disabled":false,"rental_uris":{"android":"levelo://app?vid=68e8032b-cde0-4866-a7f8-ca3872527ef7","ios":"levelo://app?vid=68e8032b-cde0-4866-a7f8-ca3872527ef7"},"vehicle_type_id":"4","last_reported":1777191062,"current_range_meters":2800,"station_id":"ce4bh512rcd13ifvqe3g","pricing_plan_id":"cebpf4jnsgd1na2vs0mg"},{"bike_id":"66279c4b-d191-4252-9ea2-c196c7f05203","system_id":"levelo_inurba_marseille","lat":43.27496,"lon":5.42463,"is_reserved":false,"is_disabled":false,"rental_uris":{"android":"levelo://app?vid=66279c4b-d191-4252-9ea2-c196c7f05203","ios":"levelo://app?vid=66279c4b-d191-4252-9ea2-c196c7f05203"},"vehicle_type_id":"4","last_reported":1777191062,"current_range_meters":2800,"station_id":"ce4bhn92rcd13ifvqgrg","pricing_plan_id":"cebpf4jnsgd1na2vs0mg"},{"bike_id":"0ce641a1-ca62-4f05-b894-4a72f77b98f2","system_id":"levelo_inurba_marseille","lat":43.32356,"lon":5.36735,"is_reserved":false,"is_disabled":false,"rental_uris":{"android":"levelo://app?vid=0ce641a1-ca62-4f05-b894-4a72f77b98f2","ios":"levelo://app?vid=0ce641a1-ca62-4f05-b894-4a72f77b98f2"},"vehicle_type_id":"4","last_reported":1777191062,"current_range_meters":3200,"station_id":"ce4bhsh2rcd13ifvqi2g","pricing_plan_id":"cebpf4jnsgd1na2vs0mg"},{"bike_id":"c639e9dd-379a-46f8-b469-b2b3bc25eac4","system_id":"levelo_inurba_marseille","lat":43.28976,"lon":5.35587,"is_reserved":false,"is_disabled":true,"rental_uris":{"android":"levelo://app?vid=c639e9dd-379a-46f8-b469-b2b3bc25eac4","ios":"levelo://app?vid=c639e9dd-379a-46f8-b469-b2b3bc25eac4"},"vehicle_type_id":"4","last_reported":1777191062,"current_range_meters":3200,"station_id":"ce4bhb92rcd13ifvqen0","pricing_plan_id":"cebpf4jnsgd1na2vs0mg"},{"bike_id":"9bcb5bad-dbb2-431c-9005-5d79941461cd","system_id":"levelo_inurba_marseille","lat":43.2438,"lon":5.37099,"is_reserved":false,"is_disabled":false,"rental_uris":{"android":"levelo://app?vid=9bcb5bad-dbb2-431c-9005-5d79941461cd","ios":"levelo://app?vid=9bcb5bad-dbb2-431c-9005-5d79941461cd"},"vehicle_type_id":"4","last_reported":1777191062,"current_range_meters":3200,"station_id":"ce4bhhh2rcd13ifvqfk0","pricing_plan_id":"cebpf4jnsgd1na2vs0mg"},{"bike_id":"75471a09-e4ee-4438-b4e9-ebcc3c66f359","system_id":"levelo_inurba_marseille","lat":43.21189,"lon":5.35069,"is_reserved":false,"is_disabled":false,"rental_uris":{"android":"levelo://app?vid=75471a09-e4ee-4438-b4e9-ebcc3c66f359","ios":"levelo://app?vid=75471a09-e4ee-4438-b4e9-ebcc3c66f359"},"vehicle_type_id":"4","last_reported":1777191062,"current_range_meters":3200,"station_id":"st_cvj6sg6p6f1abm77japg","pricing_plan_id":"cebpf4jnsgd1na2vs0mg"},{"bike_id":"c6e7d3cb-7e19-483f-a191-0c88543be223","system_id":"levelo_inurba_marseille","lat":43.30084,"lon":5.3905,"is_reserved":false,"is_disabled":false,"rental_uris":{"android":"levelo://app?vid=c6e7d3cb-7e19-483f-a191-0c88543be223","ios":"levelo://app?vid=c6e7d3cb-7e19-483f-a191-0c88543be223"},"vehicle_type_id":"4","last_reported":1777191062,"current_range_meters":3200,"station_id":"ce4bh192rcd13ifvqdb0","pricing_plan_id":"cebpf4jnsgd1na2vs0mg"},{"bike_id":"318b0f19-64fa-4af9-92a2-6b5d9e2e4a7b","system_id":"levelo_inurba_marseille","lat":43.21174,"lon":5.35061,"is_reserved":false,"is_disabled":false,"rental_uris":{"android":"levelo://app?vid=318b0f19-64fa-4af9-92a2-6b5d9e2e4a7b","ios":"levelo://app?vid=318b0f19-64fa-4af9-92a2-6b5d9e2e4a7b"},"vehicle_type_id":"4","last_reported":1777191062,"current_range_meters":3200,"station_id":"st_cvj6sg6p6f1abm77japg","pricing_plan_id":"cebpf4jnsgd1na2vs0mg"},{"bike_id":"ed395cef-1ea4-40d0-b29f-5f792c9147d0","system_id":"levelo_inurba_marseille","lat":43.25634,"lon":5.41857,"is_reserved":false,"is_disabled":false,"rental_uris":{"android":"levelo://app?vid=ed395cef-1ea4-40d0-b29f-5f792c9147d0","ios":"levelo://app?vid=ed395cef-1ea4-40d0-b29f-5f792c9147d0"},"vehicle_type_id":"4","last_reported":1777191062,"current_range_meters":3200,"station_id":"","pricing_plan_id":"cebpf4jnsgd1na2vs0mg"},{"bike_id":"35f763f0-2040-4017-9c4b-1f9f4cbf81cc","system_id":"levelo_inurba_marseille","lat":43.2971,"lon":5.36619,"is_reserved":false,"is_disabled":true,"rental_uris":{"android":"levelo://app?vid=35f763f0-2040-4017-9c4b-1f9f4cbf81cc","ios":"levelo://app?vid=35f763f0-2040-4017-9c4b-1f9f4cbf81cc"},"vehicle_type_id":"4","last_reported":1777191062,"current_range_meters":3600,"station_id":"ce4bgn12rcd13ifvqbt0","pricing_plan_id":"cebpf4jnsgd1na2vs0mg"},{"bike_id":"15815817-f529-4745-88e8-c2811e1eae5e","system_id":"levelo_inurba_marseille","lat":43.31281,"lon":5.40175,"is_reserved":false,"is_disabled":false,"rental_uris":{"android":"levelo://app?vid=15815817-f529-4745-88e8-c2811e1eae5e","ios":"levelo://app?vid=15815817-f529-4745-88e8-c2811e1eae5e"},"vehicle_type_id":"4","last_reported":1777191062,"current_range_meters":3600,"station_id":"ce4bh092rcd13ifvqd30","pricing_plan_id":"cebpf4jnsgd1na2vs0mg"},{"bike_id":"37e76a7e-03b4-4b6f-ab4a-a03000b23810","system_id":"levelo_inurba_marseille","lat":43.28733,"lon":5.37925,"is_reserved":false,"is_disabled":false,"rental_uris":{"android":"levelo://app?vid=37e76a7e-03b4-4b6f-ab4a-a03000b23810","ios":"levelo://app?vid=37e76a7e-03b4-4b6f-ab4a-a03000b23810"},"vehicle_type_id":"4","last_reported":1777191062,"current_range_meters":3600,"station_id":"ce4bh9p2rcd13ifvqec0","pricing_plan_id":"cebpf4jnsgd1na2vs0mg"},{"bike_id":"829f3f68-e166-403a-9050-edbb66400e28","system_id":"levelo_inurba_marseille","lat":43.262094,"lon":5.374404,"is_reserved":false,"is_disabled":false,"rental_uris":{"android":"levelo://app?vid=829f3f68-e166-403a-9050-edbb66400e28","ios":"levelo://app?vid=829f3f68-e166-403a-9050-edbb66400e28"},"vehicle_type_id":"4","last_reported":1777191062,"current_range_meters":3600,"station_id":"ce4bhgp2rcd13ifvqfc0","pricing_plan_id":"cebpf4jnsgd1na2vs0mg"},{"bike_id":"25208a2a-f4bf-4534-b534-5cdf57ee0b64","system_id":"levelo_inurba_marseille","lat":43.30931,"lon":5.40131,"is_reserved":false,"is_disabled":true,"rental_uris":{"android":"levelo://app?vid=25208a2a-f4bf-4534-b534-5cdf57ee0b64","ios":"levelo://app?vid=25208a2a-f4bf-4534-b534-5cdf57ee0b64"},"vehicle_type_id":"4","last_reported":1777191062,"current_range_meters":3600,"station_id":"ce4bgvp2rcd13ifvqct0","pricing_plan_id":"cebpf4jnsgd1na2vs0mg"},{"bike_id":"008d0ebd-86b1-42a9-92a3-bd520d96b1d4","system_id":"levelo_inurba_marseille","lat":43.26967,"lon":5.38631,"is_reserved":false,"is_disabled":false,"rental_uris":{"android":"levelo://app?vid=008d0ebd-86b1-42a9-92a3-bd520d96b1d4","ios":"levelo://app?vid=008d0ebd-86b1-42a9-92a3-bd520d96b1d4"},"vehicle_type_id":"4","last_reported":1777191062,"current_range_meters":4000,"station_id":"ce4bhh92rcd13ifvqfh0","pricing_plan_id":"cebpf4jnsgd1na2vs0mg"},{"bike_id":"90610949-5042-40f1-8252-076aeddd7d81","system_id":"levelo_inurba_marseille","lat":43.31898,"lon":5.36803,"is_reserved":false,"is_disabled":false,"rental_uris":{"android":"levelo://app?vid=90610949-5042-40f1-8252-076aeddd7d81","ios":"levelo://app?vid=90610949-5042-40f1-8252-076aeddd7d81"},"vehicle_type_id":"4","last_reported":1777191062,"current_range_meters":4000,"station_id":"st_d6o2h0d0559c73evc1b0","pricing_plan_id":"cebpf4jnsgd1na2vs0mg"},{"bike_id":"28dc652e-391e-4daa-a243-946582e83158","system_id":"levelo_inurba_marseille","lat":43.317,"lon":5.40478,"is_reserved":false,"is_disabled":false,"rental_uris":{"android":"levelo://app?vid=28dc652e-391e-4daa-a243-946582e83158","ios":"levelo://app?vid=28dc652e-391e-4daa-a243-946582e83158"},"vehicle_type_id":"4","last_reported":1777191062,"current_range_meters":4000,"station_id":"ce4bh012rcd13ifvqd00","pricing_plan_id":"cebpf4jnsgd1na2vs0mg"},{"bike_id":"e53875db-8fb1-4310-88b3-479047493865","system_id":"levelo_inurba_marseille","lat":43.26233,"lon":5.40445,"is_reserved":false,"is_disabled":false,"rental_uris":{"android":"levelo://app?vid=e53875db-8fb1-4310-88b3-479047493865","ios":"levelo://app?vid=e53875db-8fb1-4310-88b3-479047493865"},"vehicle_type_id":"4","last_reported":1777191062,"current_range_meters":4000,"station_id":"ce4bhmh2rcd13ifvqgmg","pricing_plan_id":"cebpf4jnsgd1na2vs0mg"},{"bike_id":"8280b00c-e1f8-41cb-81d9-d97ab5ddabb8","system_id":"levelo_inurba_marseille","lat":43.23959,"lon":5.36624,"is_reserved":false,"is_disabled":false,"rental_uris":{"android":"levelo://app?vid=8280b00c-e1f8-41cb-81d9-d97ab5ddabb8","ios":"levelo://app?vid=8280b00c-e1f8-41cb-81d9-d97ab5ddabb8"},"vehicle_type_id":"4","last_reported":1777191062,"current_range_meters":4400,"station_id":"ce4bhi12rcd13ifvqfp0","pricing_plan_id":"cebpf4jnsgd1na2vs0mg"},{"bike_id":"548e4a82-32b2-49d2-a8d0-a6b1676f8a48","system_id":"levelo_inurba_marseille","lat":43.32476,"lon":5.3658,"is_reserved":false,"is_disabled":false,"rental_uris":{"android":"levelo://app?vid=548e4a82-32b2-49d2-a8d0-a6b1676f8a48","ios":"levelo://app?vid=548e4a82-32b2-49d2-a8d0-a6b1676f8a48"},"vehicle_type_id":"4","last_reported":1777191062,"current_range_meters":4400,"station_id":"ce4bhs12rcd13ifvqhvg","pricing_plan_id":"cebpf4jnsgd1na2vs0mg"},{"bike_id":"c0c5f549-d55a-40a7-bb49-6eb0b1139cc6","system_id":"levelo_inurba_marseille","lat":43.31285,"lon":5.37147,"is_reserved":false,"is_disabled":false,"rental_uris":{"android":"levelo://app?vid=c0c5f549-d55a-40a7-bb49-6eb0b1139cc6","ios":"levelo://app?vid=c0c5f549-d55a-40a7-bb49-6eb0b1139cc6"},"vehicle_type_id":"4","last_reported":1777191062,"current_range_meters":4400,"station_id":"","pricing_plan_id":"cebpf4jnsgd1na2vs0mg"},{"bike_id":"06558e5b-846f-4e20-b375-c8972d75dc5a","system_id":"levelo_inurba_marseille","lat":43.27338,"lon":5.43113,"is_reserved":false,"is_disabled":false,"rental_uris":{"android":"levelo://app?vid=06558e5b-846f-4e20-b375-c8972d75dc5a","ios":"levelo://app?vid=06558e5b-846f-4e20-b375-c8972d75dc5a"},"vehicle_type_id":"4","last_reported":1777191062,"current_range_meters":4400,"station_id":"","pricing_plan_id":"cebpf4jnsgd1na2vs0mg"},{"bike_id":"d1d5c7cf-8e64-4123-ad8a-ccd792fc4d10","system_id":"levelo_inurba_marseille","lat":43.29347,"lon":5.39852,"is_reserved":false,"is_disabled":false,"rental_uris":{"android":"levelo://app?vid=d1d5c7cf-8e64-4123-ad8a-ccd792fc4d10","ios":"levelo://app?vid=d1d5c7cf-8e64-4123-ad8a-ccd792fc4d10"},"vehicle_type_id":"4","last_reported":1777191062,"current_range_meters":4400,"station_id":"","pricing_plan_id":"cebpf4jnsgd1na2vs0mg"},{"bike_id":"40d69b45-a292-4d7d-b8e6-837b8b5a9d0c","system_id":"levelo_inurba_marseille","lat":43.2847,"lon":5.48407,"is_reserved":false,"is_disabled":false,"rental_uris":{"android":"levelo://app?vid=40d69b45-a292-4d7d-b8e6-837b8b5a9d0c","ios":"levelo://app?vid=40d69b45-a292-4d7d-b8e6-837b8b5a9d0c"},"vehicle_type_id":"4","last_reported":1777191062,"current_range_meters":4400,"station_id":"","pricing_plan_id":"cebpf4jnsgd1na2vs0mg"},{"bike_id":"6b228a66-7f85-41f8-990d-b6ec59786856","system_id":"levelo_inurba_marseille","lat":43.25584,"lon":5.38217,"is_reserved":false,"is_disabled":false,"rental_uris":{"android":"levelo://app?vid=6b228a66-7f85-41f8-990d-b6ec59786856","ios":"levelo://app?vid=6b228a66-7f85-41f8-990d-b6ec59786856"},"vehicle_type_id":"4","last_reported":1777191062,"current_range_meters":4400,"station_id":"ce4bhih2rcd13ifvqfs0","pricing_plan_id":"cebpf4jnsgd1na2vs0mg"},{"bike_id":"541dbded-315f-4ca8-ac49-47fcb4294bb7","system_id":"levelo_inurba_marseille","lat":43.33536,"lon":5.37472,"is_reserved":false,"is_disabled":false,"rental_uris":{"android":"levelo://app?vid=541dbded-315f-4ca8-ac49-47fcb4294bb7","ios":"levelo://app?vid=541dbded-315f-4ca8-ac49-47fcb4294bb7"},"vehicle_type_id":"4","last_reported":1777191062,"current_range_meters":4400,"station_id":"st_d46tts09ee8s73dlu43g","pricing_plan_id":"cebpf4jnsgd1na2vs0mg"},{"bike_id":"2b233eb4-2eeb-42bb-9ad0-67e2d68b88c2","system_id":"levelo_inurba_marseille","lat":43.31722,"lon":5.42383,"is_reserved":false,"is_disabled":false,"rental_uris":{"android":"levelo://app?vid=2b233eb4-2eeb-42bb-9ad0-67e2d68b88c2","ios":"levelo://app?vid=2b233eb4-2eeb-42bb-9ad0-67e2d68b88c2"},"vehicle_type_id":"4","last_reported":1777191062,"current_range_meters":4800,"station_id":"ce4bhp92rcd13ifvqhbg","pricing_plan_id":"cebpf4jnsgd1na2vs0mg"},{"bike_id":"6f02ef59-da8c-49c3-97f5-4aa33500fc96","system_id":"levelo_inurba_marseille","lat":43.31979,"lon":5.38152,"is_reserved":false,"is_disabled":false,"rental_uris":{"android":"levelo://app?vid=6f02ef59-da8c-49c3-97f5-4aa33500fc96","ios":"levelo://app?vid=6f02ef59-da8c-49c3-97f5-4aa33500fc96"},"vehicle_type_id":"4","last_reported":1777191062,"current_range_meters":4800,"station_id":"ce4bhr12rcd13ifvqhpg","pricing_plan_id":"cebpf4jnsgd1na2vs0mg"},{"bike_id":"17fe3f56-b486-40dd-ac6a-710ede14c97d","system_id":"levelo_inurba_marseille","lat":43.314869,"lon":5.373029,"is_reserved":false,"is_disabled":false,"rental_uris":{"android":"levelo://app?vid=17fe3f56-b486-40dd-ac6a-710ede14c97d","ios":"levelo://app?vid=17fe3f56-b486-40dd-ac6a-710ede14c97d"},"vehicle_type_id":"4","last_reported":1777191062,"current_range_meters":4800,"station_id":"","pricing_plan_id":"cebpf4jnsgd1na2vs0mg"},{"bike_id":"724d0869-017c-4e7e-9911-705be0df09b1","system_id":"levelo_inurba_marseille","lat":43.2924,"lon":5.38433,"is_reserved":false,"is_disabled":false,"rental_uris":{"android":"levelo://app?vid=724d0869-017c-4e7e-9911-705be0df09b1","ios":"levelo://app?vid=724d0869-017c-4e7e-9911-705be0df09b1"},"vehicle_type_id":"4","last_reported":1777191062,"current_range_meters":4800,"station_id":"ce4bh692rcd13ifvqea0","pricing_plan_id":"cebpf4jnsgd1na2vs0mg"},{"bike_id":"d2e3d19f-8c33-4cb0-8945-439323c2c377","system_id":"levelo_inurba_marseille","lat":43.28454,"lon":5.35909,"is_reserved":false,"is_disabled":false,"rental_uris":{"android":"levelo://app?vid=d2e3d19f-8c33-4cb0-8945-439323c2c377","ios":"levelo://app?vid=d2e3d19f-8c33-4cb0-8945-439323c2c377"},"vehicle_type_id":"4","last_reported":1777191062,"current_range_meters":4800,"station_id":"ce4bhah2rcd13ifvqei0","pricing_plan_id":"cebpf4jnsgd1na2vs0mg"},{"bike_id":"8d1cc07a-c87d-4a7b-8797-cd61ba104d31","system_id":"levelo_inurba_marseille","lat":43.29518,"lon":5.39019,"is_reserved":false,"is_disabled":true,"rental_uris":{"android":"levelo://app?vid=8d1cc07a-c87d-4a7b-8797-cd61ba104d31","ios":"levelo://app?vid=8d1cc07a-c87d-4a7b-8797-cd61ba104d31"},"vehicle_type_id":"4","last_reported":1777191062,"current_range_meters":4800,"station_id":"ce4bh3p2rcd13ifvqdp0","pricing_plan_id":"cebpf4jnsgd1na2vs0mg"},{"bike_id":"3deb095f-0346-4d9f-aae1-8d59d80b3d6e","system_id":"levelo_inurba_marseille","lat":43.24332,"lon":5.37066,"is_reserved":false,"is_disabled":false,"rental_uris":{"android":"levelo://app?vid=3deb095f-0346-4d9f-aae1-8d59d80b3d6e","ios":"levelo://app?vid=3deb095f-0346-4d9f-aae1-8d59d80b3d6e"},"vehicle_type_id":"4","last_reported":1777191062,"current_range_meters":4800,"station_id":"","pricing_plan_id":"cebpf4jnsgd1na2vs0mg"},{"bike_id":"90fac789-06e9-4c33-94b9-e82543e03c21","system_id":"levelo_inurba_marseille","lat":43.22568,"lon":5.41642,"is_reserved":false,"is_disabled":true,"rental_uris":{"android":"levelo://app?vid=90fac789-06e9-4c33-94b9-e82543e03c21","ios":"levelo://app?vid=90fac789-06e9-4c33-94b9-e82543e03c21"},"vehicle_type_id":"4","last_reported":1777191062,"current_range_meters":4800,"station_id":"st_d2o4gvlbi1j2169b742g","pricing_plan_id":"cebpf4jnsgd1na2vs0mg"},{"bike_id":"e397ebdb-b53d-4d63-a2a3-8309206ff97b","system_id":"levelo_inurba_marseille","lat":43.27999,"lon":5.40014,"is_reserved":false,"is_disabled":false,"rental_uris":{"android":"levelo://app?vid=e397ebdb-b53d-4d63-a2a3-8309206ff97b","ios":"levelo://app?vid=e397ebdb-b53d-4d63-a2a3-8309206ff97b"},"vehicle_type_id":"4","last_reported":1777191062,"current_range_meters":4800,"station_id":"ce4bho92rcd13ifvqh4g","pricing_plan_id":"cebpf4jnsgd1na2vs0mg"},{"bike_id":"0cd2fd7c-6402-466e-aa1b-fa186d7a7ed3","system_id":"levelo_inurba_marseille","lat":43.33194,"lon":5.37792,"is_reserved":false,"is_disabled":false,"rental_uris":{"android":"levelo://app?vid=0cd2fd7c-6402-466e-aa1b-fa186d7a7ed3","ios":"levelo://app?vid=0cd2fd7c-6402-466e-aa1b-fa186d7a7ed3"},"vehicle_type_id":"4","last_reported":1777191062,"current_range_meters":5600,"station_id":"","pricing_plan_id":"cebpf4jnsgd1na2vs0mg"},{"bike_id":"c0126e79-e455-4033-aa6f-9cd2537e8b04","system_id":"levelo_inurba_marseille","lat":43.28702,"lon":5.46662,"is_reserved":false,"is_disabled":false,"rental_uris":{"android":"levelo://app?vid=c0126e79-e455-4033-aa6f-9cd2537e8b04","ios":"levelo://app?vid=c0126e79-e455-4033-aa6f-9cd2537e8b04"},"vehicle_type_id":"4","last_reported":1777191062,"current_range_meters":5600,"station_id":"st_d6tc3vkotcvc738tfjhg","pricing_plan_id":"cebpf4jnsgd1na2vs0mg"},{"bike_id":"cd5ae753-0ce4-45ab-886c-3f79fabdb3b1","system_id":"levelo_inurba_marseille","lat":43.24803,"lon":5.37438,"is_reserved":false,"is_disabled":false,"rental_uris":{"android":"levelo://app?vid=cd5ae753-0ce4-45ab-886c-3f79fabdb3b1","ios":"levelo://app?vid=cd5ae753-0ce4-45ab-886c-3f79fabdb3b1"},"vehicle_type_id":"4","last_reported":1777191062,"current_range_meters":5600,"station_id":"ce4bhgh2rcd13ifvqfb0","pricing_plan_id":"cebpf4jnsgd1na2vs0mg"},{"bike_id":"ecd64a32-c4f0-4ed5-8545-f9f9d20fb753","system_id":"levelo_inurba_marseille","lat":43.29588,"lon":5.3997,"is_reserved":false,"is_disabled":false,"rental_uris":{"android":"levelo://app?vid=ecd64a32-c4f0-4ed5-8545-f9f9d20fb753","ios":"levelo://app?vid=ecd64a32-c4f0-4ed5-8545-f9f9d20fb753"},"vehicle_type_id":"4","last_reported":1777191062,"current_range_meters":5600,"station_id":"ce4bh312rcd13ifvqdj0","pricing_plan_id":"cebpf4jnsgd1na2vs0mg"},{"bike_id":"044ce3d4-5f89-49a7-a22e-6dad240318c7","system_id":"levelo_inurba_marseille","lat":43.3128,"lon":5.40175,"is_reserved":false,"is_disabled":false,"rental_uris":{"android":"levelo://app?vid=044ce3d4-5f89-49a7-a22e-6dad240318c7","ios":"levelo://app?vid=044ce3d4-5f89-49a7-a22e-6dad240318c7"},"vehicle_type_id":"4","last_reported":1777191062,"current_range_meters":5600,"station_id":"ce4bh092rcd13ifvqd30","pricing_plan_id":"cebpf4jnsgd1na2vs0mg"},{"bike_id":"e5bab3d4-51df-40f4-acb7-898a38cfd436","system_id":"levelo_inurba_marseille","lat":43.21191,"lon":5.3508,"is_reserved":false,"is_disabled":false,"rental_uris":{"android":"levelo://app?vid=e5bab3d4-51df-40f4-acb7-898a38cfd436","ios":"levelo://app?vid=e5bab3d4-51df-40f4-acb7-898a38cfd436"},"vehicle_type_id":"4","last_reported":1777191062,"current_range_meters":5600,"station_id":"st_cvj6sg6p6f1abm77japg","pricing_plan_id":"cebpf4jnsgd1na2vs0mg"},{"bike_id":"36fe2575-22d8-45fc-b110-398032622606","system_id":"levelo_inurba_marseille","lat":43.28491,"lon":5.38417,"is_reserved":false,"is_disabled":true,"rental_uris":{"android":"levelo://app?vid=36fe2575-22d8-45fc-b110-398032622606","ios":"levelo://app?vid=36fe2575-22d8-45fc-b110-398032622606"},"vehicle_type_id":"4","last_reported":1777191062,"current_range_meters":5600,"station_id":"ce4bh512rcd13ifvqe3g","pricing_plan_id":"cebpf4jnsgd1na2vs0mg"},{"bike_id":"f45c6cef-0c24-46b7-81bc-53822d8483bd","system_id":"levelo_inurba_marseille","lat":43.3136,"lon":5.38485,"is_reserved":false,"is_disabled":false,"rental_uris":{"android":"levelo://app?vid=f45c6cef-0c24-46b7-81bc-53822d8483bd","ios":"levelo://app?vid=f45c6cef-0c24-46b7-81bc-53822d8483bd"},"vehicle_type_id":"4","last_reported":1777191062,"current_range_meters":5600,"station_id":"ce4bgt92rcd13ifvqcf0","pricing_plan_id":"cebpf4jnsgd1na2vs0mg"},{"bike_id":"25524946-f75a-4ff3-a7e0-4a6cdf5be097","system_id":"levelo_inurba_marseille","lat":43.306481,"lon":5.400967,"is_reserved":false,"is_disabled":false,"rental_uris":{"android":"levelo://app?vid=25524946-f75a-4ff3-a7e0-4a6cdf5be097","ios":"levelo://app?vid=25524946-f75a-4ff3-a7e0-4a6cdf5be097"},"vehicle_type_id":"4","last_reported":1777191062,"current_range_meters":5600,"station_id":"ce4bh112rcd13ifvqda0","pricing_plan_id":"cebpf4jnsgd1na2vs0mg"},{"bike_id":"648bc781-8e68-4ccd-aedc-987a153e904f","system_id":"levelo_inurba_marseille","lat":43.29265,"lon":5.38457,"is_reserved":false,"is_disabled":false,"rental_uris":{"android":"levelo://app?vid=648bc781-8e68-4ccd-aedc-987a153e904f","ios":"levelo://app?vid=648bc781-8e68-4ccd-aedc-987a153e904f"},"vehicle_type_id":"4","last_reported":1777191062,"current_range_meters":5600,"station_id":"ce4bh692rcd13ifvqea0","pricing_plan_id":"cebpf4jnsgd1na2vs0mg"},{"bike_id":"73b29586-6035-4b17-8f89-10c778399a16","system_id":"levelo_inurba_marseille","lat":43.3199,"lon":5.38149,"is_reserved":false,"is_disabled":false,"rental_uris":{"android":"levelo://app?vid=73b29586-6035-4b17-8f89-10c778399a16","ios":"levelo://app?vid=73b29586-6035-4b17-8f89-10c778399a16"},"vehicle_type_id":"4","last_reported":1777191062,"current_range_meters":5600,"station_id":"ce4bhr12rcd13ifvqhpg","pricing_plan_id":"cebpf4jnsgd1na2vs0mg"},{"bike_id":"18f0b378-8f5d-40bc-97a7-ebf73f9ff7bd","system_id":"levelo_inurba_marseille","lat":43.31726,"lon":5.42391,"is_reserved":false,"is_disabled":false,"rental_uris":{"android":"levelo://app?vid=18f0b378-8f5d-40bc-97a7-ebf73f9ff7bd","ios":"levelo://app?vid=18f0b378-8f5d-40bc-97a7-ebf73f9ff7bd"},"vehicle_type_id":"4","last_reported":1777191062,"current_range_meters":5600,"station_id":"ce4bhp92rcd13ifvqhbg","pricing_plan_id":"cebpf4jnsgd1na2vs0mg"},{"bike_id":"1a53a67e-9022-4580-83c0-fc3f72c9ef8d","system_id":"levelo_inurba_marseille","lat":43.29594,"lon":5.38085,"is_reserved":false,"is_disabled":false,"rental_uris":{"android":"levelo://app?vid=1a53a67e-9022-4580-83c0-fc3f72c9ef8d","ios":"levelo://app?vid=1a53a67e-9022-4580-83c0-fc3f72c9ef8d"},"vehicle_type_id":"4","last_reported":1777191062,"current_range_meters":5600,"station_id":"ce4bgl12rcd13ifvqbo0","pricing_plan_id":"cebpf4jnsgd1na2vs0mg"},{"bike_id":"413e4623-e4a6-44c0-8fe0-f06c3e224af8","system_id":"levelo_inurba_marseille","lat":43.31914,"lon":5.36814,"is_reserved":false,"is_disabled":false,"rental_uris":{"android":"levelo://app?vid=413e4623-e4a6-44c0-8fe0-f06c3e224af8","ios":"levelo://app?vid=413e4623-e4a6-44c0-8fe0-f06c3e224af8"},"vehicle_type_id":"4","last_reported":1777191062,"current_range_meters":6000,"station_id":"st_d6o2h0d0559c73evc1b0","pricing_plan_id":"cebpf4jnsgd1na2vs0mg"},{"bike_id":"84c8a771-33c9-421f-a5d6-bf9791123e26","system_id":"levelo_inurba_marseille","lat":43.31968,"lon":5.38128,"is_reserved":false,"is_disabled":false,"rental_uris":{"android":"levelo://app?vid=84c8a771-33c9-421f-a5d6-bf9791123e26","ios":"levelo://app?vid=84c8a771-33c9-421f-a5d6-bf9791123e26"},"vehicle_type_id":"4","last_reported":1777191062,"current_range_meters":6000,"station_id":"ce4bhr12rcd13ifvqhpg","pricing_plan_id":"cebpf4jnsgd1na2vs0mg"},{"bike_id":"a03ce919-3949-4c06-bbb8-c0f13ba943b2","system_id":"levelo_inurba_marseille","lat":43.25527,"lon":5.37708,"is_reserved":false,"is_disabled":true,"rental_uris":{"android":"levelo://app?vid=a03ce919-3949-4c06-bbb8-c0f13ba943b2","ios":"levelo://app?vid=a03ce919-3949-4c06-bbb8-c0f13ba943b2"},"vehicle_type_id":"4","last_reported":1777191062,"current_range_meters":6000,"station_id":"","pricing_plan_id":"cebpf4jnsgd1na2vs0mg"},{"bike_id":"ace34436-51fe-4536-a1f6-cfa009f56977","system_id":"levelo_inurba_marseille","lat":43.33541,"lon":5.37468,"is_reserved":false,"is_disabled":false,"rental_uris":{"android":"levelo://app?vid=ace34436-51fe-4536-a1f6-cfa009f56977","ios":"levelo://app?vid=ace34436-51fe-4536-a1f6-cfa009f56977"},"vehicle_type_id":"4","last_reported":1777191062,"current_range_meters":6000,"station_id":"st_d46tts09ee8s73dlu43g","pricing_plan_id":"cebpf4jnsgd1na2vs0mg"},{"bike_id":"e6321f91-04b7-4b15-ad0f-2d58077126c7","system_id":"levelo_inurba_marseille","lat":43.29896,"lon":5.42073,"is_reserved":false,"is_disabled":false,"rental_uris":{"android":"levelo://app?vid=e6321f91-04b7-4b15-ad0f-2d58077126c7","ios":"levelo://app?vid=e6321f91-04b7-4b15-ad0f-2d58077126c7"},"vehicle_type_id":"4","last_reported":1777191062,"current_range_meters":6000,"station_id":"st_d6tc004otcvc738tfe70","pricing_plan_id":"cebpf4jnsgd1na2vs0mg"},{"bike_id":"f052f3ed-28f6-4c29-844b-cc3bffd83805","system_id":"levelo_inurba_marseille","lat":43.32338,"lon":5.3674,"is_reserved":false,"is_disabled":false,"rental_uris":{"android":"levelo://app?vid=f052f3ed-28f6-4c29-844b-cc3bffd83805","ios":"levelo://app?vid=f052f3ed-28f6-4c29-844b-cc3bffd83805"},"vehicle_type_id":"4","last_reported":1777191062,"current_range_meters":6000,"station_id":"ce4bhsh2rcd13ifvqi2g","pricing_plan_id":"cebpf4jnsgd1na2vs0mg"},{"bike_id":"0f126928-5121-4469-a9c9-6740d8de1e82","system_id":"levelo_inurba_marseille","lat":43.24408,"lon":5.37421,"is_reserved":false,"is_disabled":false,"rental_uris":{"android":"levelo://app?vid=0f126928-5121-4469-a9c9-6740d8de1e82","ios":"levelo://app?vid=0f126928-5121-4469-a9c9-6740d8de1e82"},"vehicle_type_id":"4","last_reported":1777191062,"current_range_meters":6000,"station_id":"","pricing_plan_id":"cebpf4jnsgd1na2vs0mg"},{"bike_id":"05a33fd5-e436-4ad0-a907-865e546c41d5","system_id":"levelo_inurba_marseille","lat":43.22554,"lon":5.41613,"is_reserved":false,"is_disabled":true,"rental_uris":{"android":"levelo://app?vid=05a33fd5-e436-4ad0-a907-865e546c41d5","ios":"levelo://app?vid=05a33fd5-e436-4ad0-a907-865e546c41d5"},"vehicle_type_id":"4","last_reported":1777191062,"current_range_meters":6000,"station_id":"","pricing_plan_id":"cebpf4jnsgd1na2vs0mg"},{"bike_id":"231aa813-e1fa-4a58-ba71-7a19c63840f8","system_id":"levelo_inurba_marseille","lat":43.28011,"lon":5.41641,"is_reserved":false,"is_disabled":false,"rental_uris":{"android":"levelo://app?vid=231aa813-e1fa-4a58-ba71-7a19c63840f8","ios":"levelo://app?vid=231aa813-e1fa-4a58-ba71-7a19c63840f8"},"vehicle_type_id":"4","last_reported":1777191062,"current_range_meters":6000,"station_id":"ce4bho12rcd13ifvqh1g","pricing_plan_id":"cebpf4jnsgd1na2vs0mg"},{"bike_id":"7091b5b3-0a42-46a4-a004-9258710d2672","system_id":"levelo_inurba_marseille","lat":43.28405,"lon":5.37516,"is_reserved":false,"is_disabled":false,"rental_uris":{"android":"levelo://app?vid=7091b5b3-0a42-46a4-a004-9258710d2672","ios":"levelo://app?vid=7091b5b3-0a42-46a4-a004-9258710d2672"},"vehicle_type_id":"4","last_reported":1777191062,"current_range_meters":6400,"station_id":"ce4bh412rcd13ifvqds0","pricing_plan_id":"cebpf4jnsgd1na2vs0mg"},{"bike_id":"e7760414-c99e-4edb-8d77-254918982c51","system_id":"levelo_inurba_marseille","lat":43.280813,"lon":5.396654,"is_reserved":false,"is_disabled":false,"rental_uris":{"android":"levelo://app?vid=e7760414-c99e-4edb-8d77-254918982c51","ios":"levelo://app?vid=e7760414-c99e-4edb-8d77-254918982c51"},"vehicle_type_id":"4","last_reported":1777191062,"current_range_meters":6400,"station_id":"ce4bho12rcd13ifvqh2g","pricing_plan_id":"cebpf4jnsgd1na2vs0mg"},{"bike_id":"3df50eea-208a-4ca6-a8ad-9de06f046549","system_id":"levelo_inurba_marseille","lat":43.26208,"lon":5.37439,"is_reserved":false,"is_disabled":false,"rental_uris":{"android":"levelo://app?vid=3df50eea-208a-4ca6-a8ad-9de06f046549","ios":"levelo://app?vid=3df50eea-208a-4ca6-a8ad-9de06f046549"},"vehicle_type_id":"4","last_reported":1777191062,"current_range_meters":6400,"station_id":"ce4bhgp2rcd13ifvqfc0","pricing_plan_id":"cebpf4jnsgd1na2vs0mg"},{"bike_id":"70578acc-b935-4f77-be23-bcde1db99b26","system_id":"levelo_inurba_marseille","lat":43.29794,"lon":5.38155,"is_reserved":false,"is_disabled":false,"rental_uris":{"android":"levelo://app?vid=70578acc-b935-4f77-be23-bcde1db99b26","ios":"levelo://app?vid=70578acc-b935-4f77-be23-bcde1db99b26"},"vehicle_type_id":"4","last_reported":1777191062,"current_range_meters":6400,"station_id":"ce4bgip2rcd13ifvqbb0","pricing_plan_id":"cebpf4jnsgd1na2vs0mg"},{"bike_id":"120226c5-2f06-4f93-85bd-66668f6d9084","system_id":"levelo_inurba_marseille","lat":43.28858,"lon":5.39322,"is_reserved":false,"is_disabled":false,"rental_uris":{"android":"levelo://app?vid=120226c5-2f06-4f93-85bd-66668f6d9084","ios":"levelo://app?vid=120226c5-2f06-4f93-85bd-66668f6d9084"},"vehicle_type_id":"4","last_reported":1777191062,"current_range_meters":6400,"station_id":"ce4bh2p2rcd13ifvqdi0","pricing_plan_id":"cebpf4jnsgd1na2vs0mg"},{"bike_id":"a1be795e-7f8a-47d2-badf-b94cce85441e","system_id":"levelo_inurba_marseille","lat":43.29028,"lon":5.38635,"is_reserved":false,"is_disabled":false,"rental_uris":{"android":"levelo://app?vid=a1be795e-7f8a-47d2-badf-b94cce85441e","ios":"levelo://app?vid=a1be795e-7f8a-47d2-badf-b94cce85441e"},"vehicle_type_id":"4","last_reported":1777191062,"current_range_meters":6400,"station_id":"ce4bh4p2rcd13ifvqe0g","pricing_plan_id":"cebpf4jnsgd1na2vs0mg"},{"bike_id":"fea5a28c-0167-4a62-9062-e629ed9b3e8f","system_id":"levelo_inurba_marseille","lat":43.28474,"lon":5.48405,"is_reserved":false,"is_disabled":false,"rental_uris":{"android":"levelo://app?vid=fea5a28c-0167-4a62-9062-e629ed9b3e8f","ios":"levelo://app?vid=fea5a28c-0167-4a62-9062-e629ed9b3e8f"},"vehicle_type_id":"4","last_reported":1777191062,"current_range_meters":6400,"station_id":"st_d3svhcjqgbts73a3dn0g","pricing_plan_id":"cebpf4jnsgd1na2vs0mg"},{"bike_id":"74a07065-5ef1-4c40-b13a-af5eee7e9ca0","system_id":"levelo_inurba_marseille","lat":43.30894,"lon":5.37194,"is_reserved":false,"is_disabled":false,"rental_uris":{"android":"levelo://app?vid=74a07065-5ef1-4c40-b13a-af5eee7e9ca0","ios":"levelo://app?vid=74a07065-5ef1-4c40-b13a-af5eee7e9ca0"},"vehicle_type_id":"4","last_reported":1777191062,"current_range_meters":6400,"station_id":"ce4bguh2rcd13ifvqckg","pricing_plan_id":"cebpf4jnsgd1na2vs0mg"},{"bike_id":"59df43ab-e007-45c0-b4ae-00eca9962a94","system_id":"levelo_inurba_marseille","lat":43.21746,"lon":5.34601,"is_reserved":false,"is_disabled":false,"rental_uris":{"android":"levelo://app?vid=59df43ab-e007-45c0-b4ae-00eca9962a94","ios":"levelo://app?vid=59df43ab-e007-45c0-b4ae-00eca9962a94"},"vehicle_type_id":"4","last_reported":1777191062,"current_range_meters":6800,"station_id":"st_cvj6r9ubvosntc0bgbag","pricing_plan_id":"cebpf4jnsgd1na2vs0mg"},{"bike_id":"bfa7c1d6-71d5-4139-8708-a911840c9801","system_id":"levelo_inurba_marseille","lat":43.28476,"lon":5.38531,"is_reserved":false,"is_disabled":true,"rental_uris":{"android":"levelo://app?vid=bfa7c1d6-71d5-4139-8708-a911840c9801","ios":"levelo://app?vid=bfa7c1d6-71d5-4139-8708-a911840c9801"},"vehicle_type_id":"4","last_reported":1777191062,"current_range_meters":6800,"station_id":"ce4bh8p2rcd13ifvqeb0","pricing_plan_id":"cebpf4jnsgd1na2vs0mg"},{"bike_id":"9a7c39d8-ef30-4694-b180-b6fe0a089530","system_id":"levelo_inurba_marseille","lat":43.30122,"lon":5.43119,"is_reserved":false,"is_disabled":false,"rental_uris":{"android":"levelo://app?vid=9a7c39d8-ef30-4694-b180-b6fe0a089530","ios":"levelo://app?vid=9a7c39d8-ef30-4694-b180-b6fe0a089530"},"vehicle_type_id":"4","last_reported":1777191062,"current_range_meters":6800,"station_id":"st_d3js3co5814s73ftftug","pricing_plan_id":"cebpf4jnsgd1na2vs0mg"},{"bike_id":"27cd71a7-0940-4415-a67f-21597fbf1cd9","system_id":"levelo_inurba_marseille","lat":43.3491,"lon":5.37371,"is_reserved":false,"is_disabled":false,"rental_uris":{"android":"levelo://app?vid=27cd71a7-0940-4415-a67f-21597fbf1cd9","ios":"levelo://app?vid=27cd71a7-0940-4415-a67f-21597fbf1cd9"},"vehicle_type_id":"4","last_reported":1777191062,"current_range_meters":6800,"station_id":"","pricing_plan_id":"cebpf4jnsgd1na2vs0mg"},{"bike_id":"cdd270f0-5f2f-4bbf-9ea6-e320df8433a0","system_id":"levelo_inurba_marseille","lat":43.29876,"lon":5.38913,"is_reserved":false,"is_disabled":false,"rental_uris":{"android":"levelo://app?vid=cdd270f0-5f2f-4bbf-9ea6-e320df8433a0","ios":"levelo://app?vid=cdd270f0-5f2f-4bbf-9ea6-e320df8433a0"},"vehicle_type_id":"4","last_reported":1777191062,"current_range_meters":6800,"station_id":"ce4bh392rcd13ifvqdl0","pricing_plan_id":"cebpf4jnsgd1na2vs0mg"},{"bike_id":"26d26955-b302-4311-88a8-057f7b19117a","system_id":"levelo_inurba_marseille","lat":43.29652,"lon":5.36063,"is_reserved":false,"is_disabled":false,"rental_uris":{"android":"levelo://app?vid=26d26955-b302-4311-88a8-057f7b19117a","ios":"levelo://app?vid=26d26955-b302-4311-88a8-057f7b19117a"},"vehicle_type_id":"4","last_reported":1777191062,"current_range_meters":6800,"station_id":"","pricing_plan_id":"cebpf4jnsgd1na2vs0mg"},{"bike_id":"5687bcf3-d7dc-457c-91e4-c37491638fcd","system_id":"levelo_inurba_marseille","lat":43.24161,"lon":5.36348,"is_reserved":false,"is_disabled":false,"rental_uris":{"android":"levelo://app?vid=5687bcf3-d7dc-457c-91e4-c37491638fcd","ios":"levelo://app?vid=5687bcf3-d7dc-457c-91e4-c37491638fcd"},"vehicle_type_id":"4","last_reported":1777191062,"current_range_meters":6800,"station_id":"cpo36qri1sfpv3e86is0","pricing_plan_id":"cebpf4jnsgd1na2vs0mg"},{"bike_id":"9a179763-1687-4b2b-8886-1b18924799ad","system_id":"levelo_inurba_marseille","lat":43.2587,"lon":5.39883,"is_reserved":false,"is_disabled":false,"rental_uris":{"android":"levelo://app?vid=9a179763-1687-4b2b-8886-1b18924799ad","ios":"levelo://app?vid=9a179763-1687-4b2b-8886-1b18924799ad"},"vehicle_type_id":"4","last_reported":1777191062,"current_range_meters":6800,"station_id":"ce4bhl92rcd13ifvqghg","pricing_plan_id":"cebpf4jnsgd1na2vs0mg"},{"bike_id":"7f14f307-ed9b-4bde-a995-2c9126a5e681","system_id":"levelo_inurba_marseille","lat":43.30467,"lon":5.37893,"is_reserved":false,"is_disabled":true,"rental_uris":{"android":"levelo://app?vid=7f14f307-ed9b-4bde-a995-2c9126a5e681","ios":"levelo://app?vid=7f14f307-ed9b-4bde-a995-2c9126a5e681"},"vehicle_type_id":"4","last_reported":1777191062,"current_range_meters":6800,"station_id":"ce4bgup2rcd13ifvqcn0","pricing_plan_id":"cebpf4jnsgd1na2vs0mg"},{"bike_id":"3a1dde76-eca1-4259-a733-fe668960caa8","system_id":"levelo_inurba_marseille","lat":43.24439,"lon":5.39018,"is_reserved":false,"is_disabled":false,"rental_uris":{"android":"levelo://app?vid=3a1dde76-eca1-4259-a733-fe668960caa8","ios":"levelo://app?vid=3a1dde76-eca1-4259-a733-fe668960caa8"},"vehicle_type_id":"4","last_reported":1777191062,"current_range_meters":6800,"station_id":"","pricing_plan_id":"cebpf4jnsgd1na2vs0mg"},{"bike_id":"8dac6c76-9c56-49ee-9c52-aa853cc488e1","system_id":"levelo_inurba_marseille","lat":43.31327,"lon":5.39689,"is_reserved":false,"is_disabled":false,"rental_uris":{"android":"levelo://app?vid=8dac6c76-9c56-49ee-9c52-aa853cc488e1","ios":"levelo://app?vid=8dac6c76-9c56-49ee-9c52-aa853cc488e1"},"vehicle_type_id":"4","last_reported":1777191062,"current_range_meters":6800,"station_id":"ce4bgvp2rcd13ifvqcu0","pricing_plan_id":"cebpf4jnsgd1na2vs0mg"},{"bike_id":"e79bde01-2f2e-4687-9114-2908a926683e","system_id":"levelo_inurba_marseille","lat":43.33543,"lon":5.3748,"is_reserved":false,"is_disabled":false,"rental_uris":{"android":"levelo://app?vid=e79bde01-2f2e-4687-9114-2908a926683e","ios":"levelo://app?vid=e79bde01-2f2e-4687-9114-2908a926683e"},"vehicle_type_id":"4","last_reported":1777191062,"current_range_meters":6800,"station_id":"st_d46tts09ee8s73dlu43g","pricing_plan_id":"cebpf4jnsgd1na2vs0mg"},{"bike_id":"0e385029-f21e-4196-be6e-7feb5fd87d07","system_id":"levelo_inurba_marseille","lat":43.31894,"lon":5.36819,"is_reserved":false,"is_disabled":false,"rental_uris":{"android":"levelo://app?vid=0e385029-f21e-4196-be6e-7feb5fd87d07","ios":"levelo://app?vid=0e385029-f21e-4196-be6e-7feb5fd87d07"},"vehicle_type_id":"4","last_reported":1777191062,"current_range_meters":6800,"station_id":"st_d6o2h0d0559c73evc1b0","pricing_plan_id":"cebpf4jnsgd1na2vs0mg"},{"bike_id":"488bf401-74f7-4dcc-8384-b9d2ae512400","system_id":"levelo_inurba_marseille","lat":43.2799,"lon":5.38713,"is_reserved":false,"is_disabled":false,"rental_uris":{"android":"levelo://app?vid=488bf401-74f7-4dcc-8384-b9d2ae512400","ios":"levelo://app?vid=488bf401-74f7-4dcc-8384-b9d2ae512400"},"vehicle_type_id":"4","last_reported":1777191062,"current_range_meters":6800,"station_id":"ce4bhg12rcd13ifvqf80","pricing_plan_id":"cebpf4jnsgd1na2vs0mg"},{"bike_id":"833d7be3-421b-4c5f-bc44-1a51dc01aed7","system_id":"levelo_inurba_marseille","lat":43.29693,"lon":5.37278,"is_reserved":false,"is_disabled":true,"rental_uris":{"android":"levelo://app?vid=833d7be3-421b-4c5f-bc44-1a51dc01aed7","ios":"levelo://app?vid=833d7be3-421b-4c5f-bc44-1a51dc01aed7"},"vehicle_type_id":"4","last_reported":1777191062,"current_range_meters":6800,"station_id":"ce4bgk12rcd13ifvqbj0","pricing_plan_id":"cebpf4jnsgd1na2vs0mg"},{"bike_id":"f33c6c9d-346a-4c73-9b31-f3ca6fe92254","system_id":"levelo_inurba_marseille","lat":43.29627,"lon":5.37701,"is_reserved":false,"is_disabled":true,"rental_uris":{"android":"levelo://app?vid=f33c6c9d-346a-4c73-9b31-f3ca6fe92254","ios":"levelo://app?vid=f33c6c9d-346a-4c73-9b31-f3ca6fe92254"},"vehicle_type_id":"4","last_reported":1777191062,"current_range_meters":6800,"station_id":"ce4bgi92rcd13ifvqb90","pricing_plan_id":"cebpf4jnsgd1na2vs0mg"},{"bike_id":"08a1af35-ac2c-446c-8626-3b298dce2a22","system_id":"levelo_inurba_marseille","lat":43.3169,"lon":5.40459,"is_reserved":false,"is_disabled":false,"rental_uris":{"android":"levelo://app?vid=08a1af35-ac2c-446c-8626-3b298dce2a22","ios":"levelo://app?vid=08a1af35-ac2c-446c-8626-3b298dce2a22"},"vehicle_type_id":"4","last_reported":1777191062,"current_range_meters":6800,"station_id":"ce4bh012rcd13ifvqd00","pricing_plan_id":"cebpf4jnsgd1na2vs0mg"},{"bike_id":"fc29bf68-a4a4-425a-93b6-68c4374f7320","system_id":"levelo_inurba_marseille","lat":43.23193,"lon":5.39991,"is_reserved":false,"is_disabled":false,"rental_uris":{"android":"levelo://app?vid=fc29bf68-a4a4-425a-93b6-68c4374f7320","ios":"levelo://app?vid=fc29bf68-a4a4-425a-93b6-68c4374f7320"},"vehicle_type_id":"4","last_reported":1777191062,"current_range_meters":6800,"station_id":"ce4bhn12rcd13ifvqgqg","pricing_plan_id":"cebpf4jnsgd1na2vs0mg"},{"bike_id":"566d96b8-5e9f-424c-a211-21ad768be894","system_id":"levelo_inurba_marseille","lat":43.28534,"lon":5.44101,"is_reserved":false,"is_disabled":false,"rental_uris":{"android":"levelo://app?vid=566d96b8-5e9f-424c-a211-21ad768be894","ios":"levelo://app?vid=566d96b8-5e9f-424c-a211-21ad768be894"},"vehicle_type_id":"4","last_reported":1777191062,"current_range_meters":7200,"station_id":"st_d3j3df2ikq2c7380ej80","pricing_plan_id":"cebpf4jnsgd1na2vs0mg"},{"bike_id":"757fdfcb-45d7-4c45-8e18-f9ab346e8260","system_id":"levelo_inurba_marseille","lat":43.24663,"lon":5.39806,"is_reserved":false,"is_disabled":false,"rental_uris":{"android":"levelo://app?vid=757fdfcb-45d7-4c45-8e18-f9ab346e8260","ios":"levelo://app?vid=757fdfcb-45d7-4c45-8e18-f9ab346e8260"},"vehicle_type_id":"4","last_reported":1777191062,"current_range_meters":7200,"station_id":"","pricing_plan_id":"cebpf4jnsgd1na2vs0mg"},{"bike_id":"bee91535-8fd4-46d9-82b4-d1ffaa22017e","system_id":"levelo_inurba_marseille","lat":43.28344,"lon":5.38095,"is_reserved":false,"is_disabled":true,"rental_uris":{"android":"levelo://app?vid=bee91535-8fd4-46d9-82b4-d1ffaa22017e","ios":"levelo://app?vid=bee91535-8fd4-46d9-82b4-d1ffaa22017e"},"vehicle_type_id":"4","last_reported":1777191062,"current_range_meters":7200,"station_id":"ce4bh412rcd13ifvqdr0","pricing_plan_id":"cebpf4jnsgd1na2vs0mg"},{"bike_id":"085eefc3-42b6-4e5f-8fa3-5e096f60ac23","system_id":"levelo_inurba_marseille","lat":43.21741,"lon":5.34571,"is_reserved":false,"is_disabled":true,"rental_uris":{"android":"levelo://app?vid=085eefc3-42b6-4e5f-8fa3-5e096f60ac23","ios":"levelo://app?vid=085eefc3-42b6-4e5f-8fa3-5e096f60ac23"},"vehicle_type_id":"4","last_reported":1777191062,"current_range_meters":7200,"station_id":"st_cvj6r9ubvosntc0bgbag","pricing_plan_id":"cebpf4jnsgd1na2vs0mg"},{"bike_id":"e6e0181d-d51b-42d7-93b1-7e8f4d00629c","system_id":"levelo_inurba_marseille","lat":43.29822,"lon":5.42067,"is_reserved":false,"is_disabled":true,"rental_uris":{"android":"levelo://app?vid=e6e0181d-d51b-42d7-93b1-7e8f4d00629c","ios":"levelo://app?vid=e6e0181d-d51b-42d7-93b1-7e8f4d00629c"},"vehicle_type_id":"4","last_reported":1777191062,"current_range_meters":7200,"station_id":"","pricing_plan_id":"cebpf4jnsgd1na2vs0mg"},{"bike_id":"d635b6a9-26d7-4024-944b-3b30f7178297","system_id":"levelo_inurba_marseille","lat":43.2404,"lon":5.3625,"is_reserved":false,"is_disabled":false,"rental_uris":{"android":"levelo://app?vid=d635b6a9-26d7-4024-944b-3b30f7178297","ios":"levelo://app?vid=d635b6a9-26d7-4024-944b-3b30f7178297"},"vehicle_type_id":"4","last_reported":1777191062,"current_range_meters":7200,"station_id":"","pricing_plan_id":"cebpf4jnsgd1na2vs0mg"},{"bike_id":"015c0392-07c7-49f7-91a1-2151e3bde945","system_id":"levelo_inurba_marseille","lat":43.28617,"lon":5.35098,"is_reserved":false,"is_disabled":false,"rental_uris":{"android":"levelo://app?vid=015c0392-07c7-49f7-91a1-2151e3bde945","ios":"levelo://app?vid=015c0392-07c7-49f7-91a1-2151e3bde945"},"vehicle_type_id":"4","last_reported":1777191062,"current_range_meters":7200,"station_id":"ce4bhch2rcd13ifvqeug","pricing_plan_id":"cebpf4jnsgd1na2vs0mg"},{"bike_id":"e5cde18f-11fd-4bba-9f22-8e6ee9593bdd","system_id":"levelo_inurba_marseille","lat":43.28679,"lon":5.36335,"is_reserved":false,"is_disabled":false,"rental_uris":{"android":"levelo://app?vid=e5cde18f-11fd-4bba-9f22-8e6ee9593bdd","ios":"levelo://app?vid=e5cde18f-11fd-4bba-9f22-8e6ee9593bdd"},"vehicle_type_id":"4","last_reported":1777191062,"current_range_meters":7200,"station_id":"ce4bhah2rcd13ifvqej0","pricing_plan_id":"cebpf4jnsgd1na2vs0mg"},{"bike_id":"89f8435a-8f74-41a7-a78d-90d1d9bd4779","system_id":"levelo_inurba_marseille","lat":43.2778,"lon":5.40715,"is_reserved":false,"is_disabled":false,"rental_uris":{"android":"levelo://app?vid=89f8435a-8f74-41a7-a78d-90d1d9bd4779","ios":"levelo://app?vid=89f8435a-8f74-41a7-a78d-90d1d9bd4779"},"vehicle_type_id":"4","last_reported":1777191062,"current_range_meters":7200,"station_id":"ce4bhnh2rcd13ifvqgtg","pricing_plan_id":"cebpf4jnsgd1na2vs0mg"},{"bike_id":"5fdff1d7-b2d7-4e39-ad7f-00ed09411d1d","system_id":"levelo_inurba_marseille","lat":43.28483,"lon":5.48387,"is_reserved":false,"is_disabled":false,"rental_uris":{"android":"levelo://app?vid=5fdff1d7-b2d7-4e39-ad7f-00ed09411d1d","ios":"levelo://app?vid=5fdff1d7-b2d7-4e39-ad7f-00ed09411d1d"},"vehicle_type_id":"4","last_reported":1777191062,"current_range_meters":8000,"station_id":"st_d3svhcjqgbts73a3dn0g","pricing_plan_id":"cebpf4jnsgd1na2vs0mg"},{"bike_id":"72337c7c-15fe-4d9d-a055-b6365e7a1881","system_id":"levelo_inurba_marseille","lat":43.24946,"lon":5.40482,"is_reserved":false,"is_disabled":false,"rental_uris":{"android":"levelo://app?vid=72337c7c-15fe-4d9d-a055-b6365e7a1881","ios":"levelo://app?vid=72337c7c-15fe-4d9d-a055-b6365e7a1881"},"vehicle_type_id":"4","last_reported":1777191062,"current_range_meters":8000,"station_id":"st_d2ngiaodas8pm72gd1h0","pricing_plan_id":"cebpf4jnsgd1na2vs0mg"},{"bike_id":"acc43cd0-68ad-48c2-bac0-06fac0cec35e","system_id":"levelo_inurba_marseille","lat":43.225198,"lon":5.348323,"is_reserved":false,"is_disabled":false,"rental_uris":{"android":"levelo://app?vid=acc43cd0-68ad-48c2-bac0-06fac0cec35e","ios":"levelo://app?vid=acc43cd0-68ad-48c2-bac0-06fac0cec35e"},"vehicle_type_id":"4","last_reported":1777191062,"current_range_meters":8000,"station_id":"st_cvj5dfep6f1abm77gieg","pricing_plan_id":"cebpf4jnsgd1na2vs0mg"},{"bike_id":"1fa7c290-baf4-43ed-aa99-7181dabef99e","system_id":"levelo_inurba_marseille","lat":43.33543,"lon":5.37463,"is_reserved":false,"is_disabled":false,"rental_uris":{"android":"levelo://app?vid=1fa7c290-baf4-43ed-aa99-7181dabef99e","ios":"levelo://app?vid=1fa7c290-baf4-43ed-aa99-7181dabef99e"},"vehicle_type_id":"4","last_reported":1777191062,"current_range_meters":8000,"station_id":"st_d46tts09ee8s73dlu43g","pricing_plan_id":"cebpf4jnsgd1na2vs0mg"},{"bike_id":"bb7e8b34-29dc-4233-a471-666210872040","system_id":"levelo_inurba_marseille","lat":43.28961,"lon":5.36622,"is_reserved":false,"is_disabled":true,"rental_uris":{"android":"levelo://app?vid=bb7e8b34-29dc-4233-a471-666210872040","ios":"levelo://app?vid=bb7e8b34-29dc-4233-a471-666210872040"},"vehicle_type_id":"4","last_reported":1777191062,"current_range_meters":8000,"station_id":"ce4bhap2rcd13ifvqek0","pricing_plan_id":"cebpf4jnsgd1na2vs0mg"},{"bike_id":"6cf3a600-b22f-4888-b1ea-a099526102d1","system_id":"levelo_inurba_marseille","lat":43.24657,"lon":5.38156,"is_reserved":false,"is_disabled":false,"rental_uris":{"android":"levelo://app?vid=6cf3a600-b22f-4888-b1ea-a099526102d1","ios":"levelo://app?vid=6cf3a600-b22f-4888-b1ea-a099526102d1"},"vehicle_type_id":"4","last_reported":1777191062,"current_range_meters":8000,"station_id":"ce4bhih2rcd13ifvqfr0","pricing_plan_id":"cebpf4jnsgd1na2vs0mg"},{"bike_id":"b88e78bf-d930-4595-a07d-749e043ddd96","system_id":"levelo_inurba_marseille","lat":43.31126,"lon":5.37761,"is_reserved":false,"is_disabled":false,"rental_uris":{"android":"levelo://app?vid=b88e78bf-d930-4595-a07d-749e043ddd96","ios":"levelo://app?vid=b88e78bf-d930-4595-a07d-749e043ddd96"},"vehicle_type_id":"4","last_reported":1777191062,"current_range_meters":8000,"station_id":"ce4bgt92rcd13ifvqcg0","pricing_plan_id":"cebpf4jnsgd1na2vs0mg"},{"bike_id":"6b60b3c8-da35-492c-9411-418199a97ad7","system_id":"levelo_inurba_marseille","lat":43.28471,"lon":5.48389,"is_reserved":false,"is_disabled":false,"rental_uris":{"android":"levelo://app?vid=6b60b3c8-da35-492c-9411-418199a97ad7","ios":"levelo://app?vid=6b60b3c8-da35-492c-9411-418199a97ad7"},"vehicle_type_id":"4","last_reported":1777191062,"current_range_meters":8000,"station_id":"","pricing_plan_id":"cebpf4jnsgd1na2vs0mg"},{"bike_id":"f54ccc15-12bb-43a9-bcae-01eb62b17984","system_id":"levelo_inurba_marseille","lat":43.24807,"lon":5.37454,"is_reserved":false,"is_disabled":false,"rental_uris":{"android":"levelo://app?vid=f54ccc15-12bb-43a9-bcae-01eb62b17984","ios":"levelo://app?vid=f54ccc15-12bb-43a9-bcae-01eb62b17984"},"vehicle_type_id":"4","last_reported":1777191062,"current_range_meters":8000,"station_id":"ce4bhgh2rcd13ifvqfb0","pricing_plan_id":"cebpf4jnsgd1na2vs0mg"},{"bike_id":"1cba9e91-927d-4b81-94d3-7f5f353747f0","system_id":"levelo_inurba_marseille","lat":43.3078,"lon":5.37632,"is_reserved":false,"is_disabled":false,"rental_uris":{"android":"levelo://app?vid=1cba9e91-927d-4b81-94d3-7f5f353747f0","ios":"levelo://app?vid=1cba9e91-927d-4b81-94d3-7f5f353747f0"},"vehicle_type_id":"4","last_reported":1777191062,"current_range_meters":8000,"station_id":"ce4bgv92rcd13ifvqcq0","pricing_plan_id":"cebpf4jnsgd1na2vs0mg"},{"bike_id":"145ae6f0-7a6f-408a-aa85-a7c3130e0fcb","system_id":"levelo_inurba_marseille","lat":43.30915,"lon":5.40139,"is_reserved":false,"is_disabled":false,"rental_uris":{"android":"levelo://app?vid=145ae6f0-7a6f-408a-aa85-a7c3130e0fcb","ios":"levelo://app?vid=145ae6f0-7a6f-408a-aa85-a7c3130e0fcb"},"vehicle_type_id":"4","last_reported":1777191062,"current_range_meters":8000,"station_id":"ce4bgvp2rcd13ifvqct0","pricing_plan_id":"cebpf4jnsgd1na2vs0mg"},{"bike_id":"fda983b3-301e-40f3-bb07-e5c67ab620e4","system_id":"levelo_inurba_marseille","lat":43.25068,"lon":5.40454,"is_reserved":false,"is_disabled":false,"rental_uris":{"android":"levelo://app?vid=fda983b3-301e-40f3-bb07-e5c67ab620e4","ios":"levelo://app?vid=fda983b3-301e-40f3-bb07-e5c67ab620e4"},"vehicle_type_id":"4","last_reported":1777191062,"current_range_meters":8000,"station_id":"","pricing_plan_id":"cebpf4jnsgd1na2vs0mg"},{"bike_id":"b7166d00-058e-4f8a-ac08-8d7664362d9a","system_id":"levelo_inurba_marseille","lat":43.26536,"lon":5.37286,"is_reserved":false,"is_disabled":true,"rental_uris":{"android":"levelo://app?vid=b7166d00-058e-4f8a-ac08-8d7664362d9a","ios":"levelo://app?vid=b7166d00-058e-4f8a-ac08-8d7664362d9a"},"vehicle_type_id":"4","last_reported":1777191062,"current_range_meters":8000,"station_id":"ce4bhg12rcd13ifvqf70","pricing_plan_id":"cebpf4jnsgd1na2vs0mg"},{"bike_id":"0fb5bdad-cf89-4b49-8199-c24f462ae13f","system_id":"levelo_inurba_marseille","lat":43.29861,"lon":5.38896,"is_reserved":false,"is_disabled":false,"rental_uris":{"android":"levelo://app?vid=0fb5bdad-cf89-4b49-8199-c24f462ae13f","ios":"levelo://app?vid=0fb5bdad-cf89-4b49-8199-c24f462ae13f"},"vehicle_type_id":"4","last_reported":1777191062,"current_range_meters":8000,"station_id":"ce4bh392rcd13ifvqdl0","pricing_plan_id":"cebpf4jnsgd1na2vs0mg"},{"bike_id":"452a27a7-4742-4a75-a90f-adbec51bbe80","system_id":"levelo_inurba_marseille","lat":43.30897,"lon":5.39643,"is_reserved":false,"is_disabled":false,"rental_uris":{"android":"levelo://app?vid=452a27a7-4742-4a75-a90f-adbec51bbe80","ios":"levelo://app?vid=452a27a7-4742-4a75-a90f-adbec51bbe80"},"vehicle_type_id":"4","last_reported":1777191062,"current_range_meters":8000,"station_id":"ce4bh012rcd13ifvqcv0","pricing_plan_id":"cebpf4jnsgd1na2vs0mg"},{"bike_id":"d054276e-6372-4793-ae37-6281dafb78f8","system_id":"levelo_inurba_marseille","lat":43.3376,"lon":5.37435,"is_reserved":false,"is_disabled":false,"rental_uris":{"android":"levelo://app?vid=d054276e-6372-4793-ae37-6281dafb78f8","ios":"levelo://app?vid=d054276e-6372-4793-ae37-6281dafb78f8"},"vehicle_type_id":"4","last_reported":1777191062,"current_range_meters":8000,"station_id":"","pricing_plan_id":"cebpf4jnsgd1na2vs0mg"},{"bike_id":"494fd0fc-3b39-4504-a26b-321afbf22977","system_id":"levelo_inurba_marseille","lat":43.23828,"lon":5.38543,"is_reserved":false,"is_disabled":false,"rental_uris":{"android":"levelo://app?vid=494fd0fc-3b39-4504-a26b-321afbf22977","ios":"levelo://app?vid=494fd0fc-3b39-4504-a26b-321afbf22977"},"vehicle_type_id":"4","last_reported":1777191062,"current_range_meters":8400,"station_id":"","pricing_plan_id":"cebpf4jnsgd1na2vs0mg"},{"bike_id":"9add3e18-7161-4e14-ab11-873a99c05710","system_id":"levelo_inurba_marseille","lat":43.28034,"lon":5.36945,"is_reserved":false,"is_disabled":false,"rental_uris":{"android":"levelo://app?vid=9add3e18-7161-4e14-ab11-873a99c05710","ios":"levelo://app?vid=9add3e18-7161-4e14-ab11-873a99c05710"},"vehicle_type_id":"4","last_reported":1777191062,"current_range_meters":8400,"station_id":"ce4bha12rcd13ifvqef0","pricing_plan_id":"cebpf4jnsgd1na2vs0mg"},{"bike_id":"d84dad1f-3355-427c-a81e-a3f872caa973","system_id":"levelo_inurba_marseille","lat":43.28702,"lon":5.46674,"is_reserved":false,"is_disabled":false,"rental_uris":{"android":"levelo://app?vid=d84dad1f-3355-427c-a81e-a3f872caa973","ios":"levelo://app?vid=d84dad1f-3355-427c-a81e-a3f872caa973"},"vehicle_type_id":"4","last_reported":1777191062,"current_range_meters":8400,"station_id":"st_d6tc3vkotcvc738tfjhg","pricing_plan_id":"cebpf4jnsgd1na2vs0mg"},{"bike_id":"756855cf-0ed2-406b-b79a-e0230b1df3f4","system_id":"levelo_inurba_marseille","lat":43.24405,"lon":5.37054,"is_reserved":false,"is_disabled":false,"rental_uris":{"android":"levelo://app?vid=756855cf-0ed2-406b-b79a-e0230b1df3f4","ios":"levelo://app?vid=756855cf-0ed2-406b-b79a-e0230b1df3f4"},"vehicle_type_id":"4","last_reported":1777191062,"current_range_meters":8400,"station_id":"ce4bhhh2rcd13ifvqfk0","pricing_plan_id":"cebpf4jnsgd1na2vs0mg"},{"bike_id":"be3dbaca-317c-43ef-8335-8f03df566046","system_id":"levelo_inurba_marseille","lat":43.2847,"lon":5.48402,"is_reserved":false,"is_disabled":true,"rental_uris":{"android":"levelo://app?vid=be3dbaca-317c-43ef-8335-8f03df566046","ios":"levelo://app?vid=be3dbaca-317c-43ef-8335-8f03df566046"},"vehicle_type_id":"4","last_reported":1777191062,"current_range_meters":8400,"station_id":"st_d3svhcjqgbts73a3dn0g","pricing_plan_id":"cebpf4jnsgd1na2vs0mg"},{"bike_id":"fb350924-3b39-4197-a891-8208914eef37","system_id":"levelo_inurba_marseille","lat":43.24788,"lon":5.37481,"is_reserved":false,"is_disabled":false,"rental_uris":{"android":"levelo://app?vid=fb350924-3b39-4197-a891-8208914eef37","ios":"levelo://app?vid=fb350924-3b39-4197-a891-8208914eef37"},"vehicle_type_id":"4","last_reported":1777191062,"current_range_meters":8400,"station_id":"ce4bhgh2rcd13ifvqfb0","pricing_plan_id":"cebpf4jnsgd1na2vs0mg"},{"bike_id":"8382b8e2-42a0-4cae-8f3d-d1af83bab971","system_id":"levelo_inurba_marseille","lat":43.24639,"lon":5.38891,"is_reserved":false,"is_disabled":false,"rental_uris":{"android":"levelo://app?vid=8382b8e2-42a0-4cae-8f3d-d1af83bab971","ios":"levelo://app?vid=8382b8e2-42a0-4cae-8f3d-d1af83bab971"},"vehicle_type_id":"4","last_reported":1777191062,"current_range_meters":8400,"station_id":"ce4bhg12rcd13ifvqf60","pricing_plan_id":"cebpf4jnsgd1na2vs0mg"},{"bike_id":"a5d1c5f8-e551-41de-b7f3-a52119a1050b","system_id":"levelo_inurba_marseille","lat":43.27818,"lon":5.37455,"is_reserved":false,"is_disabled":false,"rental_uris":{"android":"levelo://app?vid=a5d1c5f8-e551-41de-b7f3-a52119a1050b","ios":"levelo://app?vid=a5d1c5f8-e551-41de-b7f3-a52119a1050b"},"vehicle_type_id":"4","last_reported":1777191062,"current_range_meters":8400,"station_id":"","pricing_plan_id":"cebpf4jnsgd1na2vs0mg"},{"bike_id":"232bec04-918b-46bf-b2c9-c4a5b6d81d7e","system_id":"levelo_inurba_marseille","lat":43.29923,"lon":5.3649,"is_reserved":false,"is_disabled":false,"rental_uris":{"android":"levelo://app?vid=232bec04-918b-46bf-b2c9-c4a5b6d81d7e","ios":"levelo://app?vid=232bec04-918b-46bf-b2c9-c4a5b6d81d7e"},"vehicle_type_id":"4","last_reported":1777191062,"current_range_meters":8400,"station_id":"ce4bgm92rcd13ifvqbr0","pricing_plan_id":"cebpf4jnsgd1na2vs0mg"},{"bike_id":"9096d725-a365-4ad7-8ff9-a7f2a5190902","system_id":"levelo_inurba_marseille","lat":43.26951,"lon":5.38621,"is_reserved":false,"is_disabled":true,"rental_uris":{"android":"levelo://app?vid=9096d725-a365-4ad7-8ff9-a7f2a5190902","ios":"levelo://app?vid=9096d725-a365-4ad7-8ff9-a7f2a5190902"},"vehicle_type_id":"4","last_reported":1777191062,"current_range_meters":8400,"station_id":"ce4bhh92rcd13ifvqfh0","pricing_plan_id":"cebpf4jnsgd1na2vs0mg"},{"bike_id":"ef4d8f5c-0cb3-48f9-b42c-c6865b4f2c93","system_id":"levelo_inurba_marseille","lat":43.28608,"lon":5.39875,"is_reserved":false,"is_disabled":false,"rental_uris":{"android":"levelo://app?vid=ef4d8f5c-0cb3-48f9-b42c-c6865b4f2c93","ios":"levelo://app?vid=ef4d8f5c-0cb3-48f9-b42c-c6865b4f2c93"},"vehicle_type_id":"4","last_reported":1777191062,"current_range_meters":8400,"station_id":"st_d4a7ka997mjs738ck50g","pricing_plan_id":"cebpf4jnsgd1na2vs0mg"},{"bike_id":"ced48241-f330-4cf7-b786-efae86bb562a","system_id":"levelo_inurba_marseille","lat":43.30323,"lon":5.40454,"is_reserved":false,"is_disabled":false,"rental_uris":{"android":"levelo://app?vid=ced48241-f330-4cf7-b786-efae86bb562a","ios":"levelo://app?vid=ced48241-f330-4cf7-b786-efae86bb562a"},"vehicle_type_id":"4","last_reported":1777191062,"current_range_meters":8400,"station_id":"ce4bh012rcd13ifvqd10","pricing_plan_id":"cebpf4jnsgd1na2vs0mg"},{"bike_id":"661352ad-320f-4fec-900e-52bef15be9f8","system_id":"levelo_inurba_marseille","lat":43.30877,"lon":5.39616,"is_reserved":false,"is_disabled":false,"rental_uris":{"android":"levelo://app?vid=661352ad-320f-4fec-900e-52bef15be9f8","ios":"levelo://app?vid=661352ad-320f-4fec-900e-52bef15be9f8"},"vehicle_type_id":"4","last_reported":1777191062,"current_range_meters":8400,"station_id":"ce4bh012rcd13ifvqcv0","pricing_plan_id":"cebpf4jnsgd1na2vs0mg"},{"bike_id":"6c2f22b6-367a-49b4-aa6e-f4cde028ffca","system_id":"levelo_inurba_marseille","lat":43.28326,"lon":5.38595,"is_reserved":false,"is_disabled":false,"rental_uris":{"android":"levelo://app?vid=6c2f22b6-367a-49b4-aa6e-f4cde028ffca","ios":"levelo://app?vid=6c2f22b6-367a-49b4-aa6e-f4cde028ffca"},"vehicle_type_id":"4","last_reported":1777191062,"current_range_meters":8400,"station_id":"","pricing_plan_id":"cebpf4jnsgd1na2vs0mg"},{"bike_id":"5e2c924d-4925-4620-9644-807ef3bda283","system_id":"levelo_inurba_marseille","lat":43.31366,"lon":5.38502,"is_reserved":false,"is_disabled":false,"rental_uris":{"android":"levelo://app?vid=5e2c924d-4925-4620-9644-807ef3bda283","ios":"levelo://app?vid=5e2c924d-4925-4620-9644-807ef3bda283"},"vehicle_type_id":"4","last_reported":1777191062,"current_range_meters":8400,"station_id":"ce4bgt92rcd13ifvqcf0","pricing_plan_id":"cebpf4jnsgd1na2vs0mg"},{"bike_id":"f7716b3d-5dc6-4c1f-94ea-dd8b69d23a22","system_id":"levelo_inurba_marseille","lat":43.2752,"lon":5.43513,"is_reserved":false,"is_disabled":false,"rental_uris":{"android":"levelo://app?vid=f7716b3d-5dc6-4c1f-94ea-dd8b69d23a22","ios":"levelo://app?vid=f7716b3d-5dc6-4c1f-94ea-dd8b69d23a22"},"vehicle_type_id":"4","last_reported":1777191062,"current_range_meters":8400,"station_id":"","pricing_plan_id":"cebpf4jnsgd1na2vs0mg"},{"bike_id":"df75676a-7c3f-4d29-80c0-260795f2c62d","system_id":"levelo_inurba_marseille","lat":43.27952,"lon":5.40773,"is_reserved":false,"is_disabled":false,"rental_uris":{"android":"levelo://app?vid=df75676a-7c3f-4d29-80c0-260795f2c62d","ios":"levelo://app?vid=df75676a-7c3f-4d29-80c0-260795f2c62d"},"vehicle_type_id":"4","last_reported":1777191062,"current_range_meters":8800,"station_id":"","pricing_plan_id":"cebpf4jnsgd1na2vs0mg"},{"bike_id":"350def6a-49cd-4481-a898-fd3c43c0f642","system_id":"levelo_inurba_marseille","lat":43.30406,"lon":5.41291,"is_reserved":false,"is_disabled":false,"rental_uris":{"android":"levelo://app?vid=350def6a-49cd-4481-a898-fd3c43c0f642","ios":"levelo://app?vid=350def6a-49cd-4481-a898-fd3c43c0f642"},"vehicle_type_id":"4","last_reported":1777191062,"current_range_meters":8800,"station_id":"ce4bhop2rcd13ifvqh8g","pricing_plan_id":"cebpf4jnsgd1na2vs0mg"},{"bike_id":"5354cf07-79ed-432a-b193-14addfafc2f9","system_id":"levelo_inurba_marseille","lat":43.24392,"lon":5.37048,"is_reserved":false,"is_disabled":false,"rental_uris":{"android":"levelo://app?vid=5354cf07-79ed-432a-b193-14addfafc2f9","ios":"levelo://app?vid=5354cf07-79ed-432a-b193-14addfafc2f9"},"vehicle_type_id":"4","last_reported":1777191062,"current_range_meters":8800,"station_id":"ce4bhhh2rcd13ifvqfk0","pricing_plan_id":"cebpf4jnsgd1na2vs0mg"},{"bike_id":"151d77f5-cdab-4fa6-9894-5ddc984d420d","system_id":"levelo_inurba_marseille","lat":43.29506,"lon":5.37508,"is_reserved":false,"is_disabled":false,"rental_uris":{"android":"levelo://app?vid=151d77f5-cdab-4fa6-9894-5ddc984d420d","ios":"levelo://app?vid=151d77f5-cdab-4fa6-9894-5ddc984d420d"},"vehicle_type_id":"4","last_reported":1777191062,"current_range_meters":8800,"station_id":"ce4bgkp2rcd13ifvqbmg","pricing_plan_id":"cebpf4jnsgd1na2vs0mg"},{"bike_id":"3142bc3c-82f8-47a3-b9b7-bdb5ae2f4136","system_id":"levelo_inurba_marseille","lat":43.26029,"lon":5.37522,"is_reserved":false,"is_disabled":false,"rental_uris":{"android":"levelo://app?vid=3142bc3c-82f8-47a3-b9b7-bdb5ae2f4136","ios":"levelo://app?vid=3142bc3c-82f8-47a3-b9b7-bdb5ae2f4136"},"vehicle_type_id":"4","last_reported":1777191062,"current_range_meters":8800,"station_id":"ce4bhgh2rcd13ifvqfa0","pricing_plan_id":"cebpf4jnsgd1na2vs0mg"},{"bike_id":"d6bc117c-2966-4f26-b647-0de41eb8e14c","system_id":"levelo_inurba_marseille","lat":43.26067,"lon":5.39358,"is_reserved":false,"is_disabled":false,"rental_uris":{"android":"levelo://app?vid=d6bc117c-2966-4f26-b647-0de41eb8e14c","ios":"levelo://app?vid=d6bc117c-2966-4f26-b647-0de41eb8e14c"},"vehicle_type_id":"4","last_reported":1777191062,"current_range_meters":8800,"station_id":"ce4bhh92rcd13ifvqfj0","pricing_plan_id":"cebpf4jnsgd1na2vs0mg"},{"bike_id":"25a7690d-4ca4-4a22-9edb-06e85d832eeb","system_id":"levelo_inurba_marseille","lat":43.28492,"lon":5.38405,"is_reserved":false,"is_disabled":false,"rental_uris":{"android":"levelo://app?vid=25a7690d-4ca4-4a22-9edb-06e85d832eeb","ios":"levelo://app?vid=25a7690d-4ca4-4a22-9edb-06e85d832eeb"},"vehicle_type_id":"4","last_reported":1777191062,"current_range_meters":8800,"station_id":"ce4bh512rcd13ifvqe3g","pricing_plan_id":"cebpf4jnsgd1na2vs0mg"},{"bike_id":"21e5ee49-46ea-4654-9ee8-cd56506e5559","system_id":"levelo_inurba_marseille","lat":43.28034,"lon":5.36924,"is_reserved":false,"is_disabled":false,"rental_uris":{"android":"levelo://app?vid=21e5ee49-46ea-4654-9ee8-cd56506e5559","ios":"levelo://app?vid=21e5ee49-46ea-4654-9ee8-cd56506e5559"},"vehicle_type_id":"4","last_reported":1777191062,"current_range_meters":8800,"station_id":"ce4bha12rcd13ifvqef0","pricing_plan_id":"cebpf4jnsgd1na2vs0mg"},{"bike_id":"154ee52d-6390-4e50-a4b7-48651d4386b6","system_id":"levelo_inurba_marseille","lat":43.28149,"lon":5.42619,"is_reserved":false,"is_disabled":false,"rental_uris":{"android":"levelo://app?vid=154ee52d-6390-4e50-a4b7-48651d4386b6","ios":"levelo://app?vid=154ee52d-6390-4e50-a4b7-48651d4386b6"},"vehicle_type_id":"4","last_reported":1777191062,"current_range_meters":8800,"station_id":"ce4bhnh2rcd13ifvqgug","pricing_plan_id":"cebpf4jnsgd1na2vs0mg"},{"bike_id":"23f59568-fe60-42a6-ae28-c54710fded03","system_id":"levelo_inurba_marseille","lat":43.30954,"lon":5.40148,"is_reserved":false,"is_disabled":false,"rental_uris":{"android":"levelo://app?vid=23f59568-fe60-42a6-ae28-c54710fded03","ios":"levelo://app?vid=23f59568-fe60-42a6-ae28-c54710fded03"},"vehicle_type_id":"4","last_reported":1777191062,"current_range_meters":8800,"station_id":"ce4bgvp2rcd13ifvqct0","pricing_plan_id":"cebpf4jnsgd1na2vs0mg"},{"bike_id":"b21748b2-fb24-4ee6-8e6a-c7c61264faec","system_id":"levelo_inurba_marseille","lat":43.27372,"lon":5.42194,"is_reserved":false,"is_disabled":false,"rental_uris":{"android":"levelo://app?vid=b21748b2-fb24-4ee6-8e6a-c7c61264faec","ios":"levelo://app?vid=b21748b2-fb24-4ee6-8e6a-c7c61264faec"},"vehicle_type_id":"4","last_reported":1777191062,"current_range_meters":8800,"station_id":"","pricing_plan_id":"cebpf4jnsgd1na2vs0mg"},{"bike_id":"4961aed3-fe8f-453c-875e-01e0abd954bd","system_id":"levelo_inurba_marseille","lat":43.25815,"lon":5.39428,"is_reserved":false,"is_disabled":false,"rental_uris":{"android":"levelo://app?vid=4961aed3-fe8f-453c-875e-01e0abd954bd","ios":"levelo://app?vid=4961aed3-fe8f-453c-875e-01e0abd954bd"},"vehicle_type_id":"4","last_reported":1777191062,"current_range_meters":8800,"station_id":"ce4bhip2rcd13ifvqft0","pricing_plan_id":"cebpf4jnsgd1na2vs0mg"},{"bike_id":"d0d29561-5aac-4540-9fd8-4ef61a6610e0","system_id":"levelo_inurba_marseille","lat":43.29226,"lon":5.36048,"is_reserved":false,"is_disabled":true,"rental_uris":{"android":"levelo://app?vid=d0d29561-5aac-4540-9fd8-4ef61a6610e0","ios":"levelo://app?vid=d0d29561-5aac-4540-9fd8-4ef61a6610e0"},"vehicle_type_id":"4","last_reported":1777191062,"current_range_meters":8800,"station_id":"ce4bhbh2rcd13ifvqeqg","pricing_plan_id":"cebpf4jnsgd1na2vs0mg"},{"bike_id":"1c94fb5c-542d-4cb1-8558-d07c486a04ae","system_id":"levelo_inurba_marseille","lat":43.32534,"lon":5.38283,"is_reserved":false,"is_disabled":false,"rental_uris":{"android":"levelo://app?vid=1c94fb5c-542d-4cb1-8558-d07c486a04ae","ios":"levelo://app?vid=1c94fb5c-542d-4cb1-8558-d07c486a04ae"},"vehicle_type_id":"4","last_reported":1777191062,"current_range_meters":8800,"station_id":"st_d4asgbiv49dc73anf9m0","pricing_plan_id":"cebpf4jnsgd1na2vs0mg"},{"bike_id":"b12bf633-9f12-430a-81ca-afd5314247a4","system_id":"levelo_inurba_marseille","lat":43.31353,"lon":5.38496,"is_reserved":false,"is_disabled":false,"rental_uris":{"android":"levelo://app?vid=b12bf633-9f12-430a-81ca-afd5314247a4","ios":"levelo://app?vid=b12bf633-9f12-430a-81ca-afd5314247a4"},"vehicle_type_id":"4","last_reported":1777191062,"current_range_meters":8800,"station_id":"ce4bgt92rcd13ifvqcf0","pricing_plan_id":"cebpf4jnsgd1na2vs0mg"},{"bike_id":"867e4efb-03e8-466f-a027-d873140a375d","system_id":"levelo_inurba_marseille","lat":43.24804,"lon":5.37451,"is_reserved":false,"is_disabled":false,"rental_uris":{"android":"levelo://app?vid=867e4efb-03e8-466f-a027-d873140a375d","ios":"levelo://app?vid=867e4efb-03e8-466f-a027-d873140a375d"},"vehicle_type_id":"4","last_reported":1777191062,"current_range_meters":8800,"station_id":"ce4bhgh2rcd13ifvqfb0","pricing_plan_id":"cebpf4jnsgd1na2vs0mg"},{"bike_id":"326e3dce-2289-4bd5-8553-697c776ffa7d","system_id":"levelo_inurba_marseille","lat":43.25579,"lon":5.38231,"is_reserved":false,"is_disabled":false,"rental_uris":{"android":"levelo://app?vid=326e3dce-2289-4bd5-8553-697c776ffa7d","ios":"levelo://app?vid=326e3dce-2289-4bd5-8553-697c776ffa7d"},"vehicle_type_id":"4","last_reported":1777191062,"current_range_meters":9200,"station_id":"ce4bhih2rcd13ifvqfs0","pricing_plan_id":"cebpf4jnsgd1na2vs0mg"},{"bike_id":"5676b1df-3102-49f0-94ea-6bd037dc90c9","system_id":"levelo_inurba_marseille","lat":43.31109,"lon":5.38074,"is_reserved":false,"is_disabled":false,"rental_uris":{"android":"levelo://app?vid=5676b1df-3102-49f0-94ea-6bd037dc90c9","ios":"levelo://app?vid=5676b1df-3102-49f0-94ea-6bd037dc90c9"},"vehicle_type_id":"4","last_reported":1777191062,"current_range_meters":9200,"station_id":"","pricing_plan_id":"cebpf4jnsgd1na2vs0mg"},{"bike_id":"3641d640-2b8a-4f13-b91c-6c317e71d939","system_id":"levelo_inurba_marseille","lat":43.24164,"lon":5.36402,"is_reserved":false,"is_disabled":false,"rental_uris":{"android":"levelo://app?vid=3641d640-2b8a-4f13-b91c-6c317e71d939","ios":"levelo://app?vid=3641d640-2b8a-4f13-b91c-6c317e71d939"},"vehicle_type_id":"4","last_reported":1777191062,"current_range_meters":9200,"station_id":"cpo36qri1sfpv3e86is0","pricing_plan_id":"cebpf4jnsgd1na2vs0mg"},{"bike_id":"9bbf1e9d-6737-4217-8ec3-b0d06e6a1719","system_id":"levelo_inurba_marseille","lat":43.27359,"lon":5.36232,"is_reserved":false,"is_disabled":false,"rental_uris":{"android":"levelo://app?vid=9bbf1e9d-6737-4217-8ec3-b0d06e6a1719","ios":"levelo://app?vid=9bbf1e9d-6737-4217-8ec3-b0d06e6a1719"},"vehicle_type_id":"4","last_reported":1777191062,"current_range_meters":9200,"station_id":"ce4bhbh2rcd13ifvqeo0","pricing_plan_id":"cebpf4jnsgd1na2vs0mg"},{"bike_id":"d710e251-fad5-471b-bfaf-1dcc26c8e783","system_id":"levelo_inurba_marseille","lat":43.2446,"lon":5.42544,"is_reserved":false,"is_disabled":false,"rental_uris":{"android":"levelo://app?vid=d710e251-fad5-471b-bfaf-1dcc26c8e783","ios":"levelo://app?vid=d710e251-fad5-471b-bfaf-1dcc26c8e783"},"vehicle_type_id":"4","last_reported":1777191062,"current_range_meters":9200,"station_id":"st_d4a3vfp97mjs738cd8kg","pricing_plan_id":"cebpf4jnsgd1na2vs0mg"},{"bike_id":"17f5223a-84d1-46d9-b55d-6a7e95a08bd7","system_id":"levelo_inurba_marseille","lat":43.24806,"lon":5.37456,"is_reserved":false,"is_disabled":false,"rental_uris":{"android":"levelo://app?vid=17f5223a-84d1-46d9-b55d-6a7e95a08bd7","ios":"levelo://app?vid=17f5223a-84d1-46d9-b55d-6a7e95a08bd7"},"vehicle_type_id":"4","last_reported":1777191062,"current_range_meters":9200,"station_id":"ce4bhgh2rcd13ifvqfb0","pricing_plan_id":"cebpf4jnsgd1na2vs0mg"},{"bike_id":"e9caee44-b787-4c36-a632-4bd6c1ec7cfa","system_id":"levelo_inurba_marseille","lat":43.2847,"lon":5.48397,"is_reserved":false,"is_disabled":false,"rental_uris":{"android":"levelo://app?vid=e9caee44-b787-4c36-a632-4bd6c1ec7cfa","ios":"levelo://app?vid=e9caee44-b787-4c36-a632-4bd6c1ec7cfa"},"vehicle_type_id":"4","last_reported":1777191062,"current_range_meters":9200,"station_id":"st_d3svhcjqgbts73a3dn0g","pricing_plan_id":"cebpf4jnsgd1na2vs0mg"},{"bike_id":"bee2faa6-b5bc-4110-b099-1849d29fd358","system_id":"levelo_inurba_marseille","lat":43.23183,"lon":5.39982,"is_reserved":false,"is_disabled":false,"rental_uris":{"android":"levelo://app?vid=bee2faa6-b5bc-4110-b099-1849d29fd358","ios":"levelo://app?vid=bee2faa6-b5bc-4110-b099-1849d29fd358"},"vehicle_type_id":"4","last_reported":1777191062,"current_range_meters":9200,"station_id":"ce4bhn12rcd13ifvqgqg","pricing_plan_id":"cebpf4jnsgd1na2vs0mg"},{"bike_id":"1db00e34-5de7-4dcd-8e5e-0acb9338b4b7","system_id":"levelo_inurba_marseille","lat":43.32089,"lon":5.36708,"is_reserved":false,"is_disabled":false,"rental_uris":{"android":"levelo://app?vid=1db00e34-5de7-4dcd-8e5e-0acb9338b4b7","ios":"levelo://app?vid=1db00e34-5de7-4dcd-8e5e-0acb9338b4b7"},"vehicle_type_id":"4","last_reported":1777191062,"current_range_meters":9200,"station_id":"ce4bhrh2rcd13ifvqhug","pricing_plan_id":"cebpf4jnsgd1na2vs0mg"},{"bike_id":"1f13452b-ac27-48ca-bbd2-1255b0865067","system_id":"levelo_inurba_marseille","lat":43.27851,"lon":5.37916,"is_reserved":false,"is_disabled":false,"rental_uris":{"android":"levelo://app?vid=1f13452b-ac27-48ca-bbd2-1255b0865067","ios":"levelo://app?vid=1f13452b-ac27-48ca-bbd2-1255b0865067"},"vehicle_type_id":"4","last_reported":1777191062,"current_range_meters":9200,"station_id":"","pricing_plan_id":"cebpf4jnsgd1na2vs0mg"},{"bike_id":"93378c7e-8a33-4e07-ab2a-fc9cc927fe7a","system_id":"levelo_inurba_marseille","lat":43.28864,"lon":5.39321,"is_reserved":false,"is_disabled":true,"rental_uris":{"android":"levelo://app?vid=93378c7e-8a33-4e07-ab2a-fc9cc927fe7a","ios":"levelo://app?vid=93378c7e-8a33-4e07-ab2a-fc9cc927fe7a"},"vehicle_type_id":"4","last_reported":1777191062,"current_range_meters":9200,"station_id":"ce4bh2p2rcd13ifvqdi0","pricing_plan_id":"cebpf4jnsgd1na2vs0mg"},{"bike_id":"7fda4e76-4d16-41e6-8883-1545539b8b8b","system_id":"levelo_inurba_marseille","lat":43.30163,"lon":5.38095,"is_reserved":false,"is_disabled":false,"rental_uris":{"android":"levelo://app?vid=7fda4e76-4d16-41e6-8883-1545539b8b8b","ios":"levelo://app?vid=7fda4e76-4d16-41e6-8883-1545539b8b8b"},"vehicle_type_id":"4","last_reported":1777191062,"current_range_meters":9200,"station_id":"ce4bgjp2rcd13ifvqbh0","pricing_plan_id":"cebpf4jnsgd1na2vs0mg"},{"bike_id":"ecb5e875-9534-4bc7-889a-b6aad0b06327","system_id":"levelo_inurba_marseille","lat":43.3054,"lon":5.36521,"is_reserved":false,"is_disabled":false,"rental_uris":{"android":"levelo://app?vid=ecb5e875-9534-4bc7-889a-b6aad0b06327","ios":"levelo://app?vid=ecb5e875-9534-4bc7-889a-b6aad0b06327"},"vehicle_type_id":"4","last_reported":1777191062,"current_range_meters":9200,"station_id":"ce4bgs12rcd13ifvqcag","pricing_plan_id":"cebpf4jnsgd1na2vs0mg"},{"bike_id":"64b8cd49-d03e-4536-b5ba-e449cf73178d","system_id":"levelo_inurba_marseille","lat":43.29924,"lon":5.36378,"is_reserved":false,"is_disabled":false,"rental_uris":{"android":"levelo://app?vid=64b8cd49-d03e-4536-b5ba-e449cf73178d","ios":"levelo://app?vid=64b8cd49-d03e-4536-b5ba-e449cf73178d"},"vehicle_type_id":"4","last_reported":1777191062,"current_range_meters":9200,"station_id":"ce4bgpp2rcd13ifvqc3g","pricing_plan_id":"cebpf4jnsgd1na2vs0mg"},{"bike_id":"f9bbf8b6-49a0-4289-82d0-f19c4a780392","system_id":"levelo_inurba_marseille","lat":43.2962,"lon":5.37709,"is_reserved":false,"is_disabled":false,"rental_uris":{"android":"levelo://app?vid=f9bbf8b6-49a0-4289-82d0-f19c4a780392","ios":"levelo://app?vid=f9bbf8b6-49a0-4289-82d0-f19c4a780392"},"vehicle_type_id":"4","last_reported":1777191062,"current_range_meters":9200,"station_id":"ce4bgi92rcd13ifvqb90","pricing_plan_id":"cebpf4jnsgd1na2vs0mg"},{"bike_id":"8b1f6105-5306-4b9a-bf9d-4d0536e39931","system_id":"levelo_inurba_marseille","lat":43.29305,"lon":5.37076,"is_reserved":false,"is_disabled":false,"rental_uris":{"android":"levelo://app?vid=8b1f6105-5306-4b9a-bf9d-4d0536e39931","ios":"levelo://app?vid=8b1f6105-5306-4b9a-bf9d-4d0536e39931"},"vehicle_type_id":"4","last_reported":1777191062,"current_range_meters":9200,"station_id":"","pricing_plan_id":"cebpf4jnsgd1na2vs0mg"},{"bike_id":"8613700e-d0db-4d74-978e-b495e9b9fac0","system_id":"levelo_inurba_marseille","lat":43.29867,"lon":5.38914,"is_reserved":false,"is_disabled":false,"rental_uris":{"android":"levelo://app?vid=8613700e-d0db-4d74-978e-b495e9b9fac0","ios":"levelo://app?vid=8613700e-d0db-4d74-978e-b495e9b9fac0"},"vehicle_type_id":"4","last_reported":1777191062,"current_range_meters":9600,"station_id":"ce4bh392rcd13ifvqdl0","pricing_plan_id":"cebpf4jnsgd1na2vs0mg"},{"bike_id":"1e9f9db4-b187-4918-aff6-e443af638e80","system_id":"levelo_inurba_marseille","lat":43.30894,"lon":5.37199,"is_reserved":false,"is_disabled":false,"rental_uris":{"android":"levelo://app?vid=1e9f9db4-b187-4918-aff6-e443af638e80","ios":"levelo://app?vid=1e9f9db4-b187-4918-aff6-e443af638e80"},"vehicle_type_id":"4","last_reported":1777191062,"current_range_meters":9600,"station_id":"ce4bguh2rcd13ifvqckg","pricing_plan_id":"cebpf4jnsgd1na2vs0mg"},{"bike_id":"cea31a32-5e3a-46c4-9d32-5011edfbb303","system_id":"levelo_inurba_marseille","lat":43.337444,"lon":5.374475,"is_reserved":false,"is_disabled":true,"rental_uris":{"android":"levelo://app?vid=cea31a32-5e3a-46c4-9d32-5011edfbb303","ios":"levelo://app?vid=cea31a32-5e3a-46c4-9d32-5011edfbb303"},"vehicle_type_id":"4","last_reported":1777191062,"current_range_meters":9600,"station_id":"","pricing_plan_id":"cebpf4jnsgd1na2vs0mg"},{"bike_id":"32d8062d-b01e-46bc-92b9-65d5fbd8fc06","system_id":"levelo_inurba_marseille","lat":43.23956,"lon":5.36616,"is_reserved":false,"is_disabled":false,"rental_uris":{"android":"levelo://app?vid=32d8062d-b01e-46bc-92b9-65d5fbd8fc06","ios":"levelo://app?vid=32d8062d-b01e-46bc-92b9-65d5fbd8fc06"},"vehicle_type_id":"4","last_reported":1777191062,"current_range_meters":9600,"station_id":"ce4bhi12rcd13ifvqfp0","pricing_plan_id":"cebpf4jnsgd1na2vs0mg"},{"bike_id":"43eb6742-af1d-4f9d-95d5-21eb4994077c","system_id":"levelo_inurba_marseille","lat":43.25823,"lon":5.3942,"is_reserved":false,"is_disabled":false,"rental_uris":{"android":"levelo://app?vid=43eb6742-af1d-4f9d-95d5-21eb4994077c","ios":"levelo://app?vid=43eb6742-af1d-4f9d-95d5-21eb4994077c"},"vehicle_type_id":"4","last_reported":1777191062,"current_range_meters":9600,"station_id":"ce4bhip2rcd13ifvqft0","pricing_plan_id":"cebpf4jnsgd1na2vs0mg"},{"bike_id":"e974079b-b025-4c5d-912e-f159441947ae","system_id":"levelo_inurba_marseille","lat":43.28226,"lon":5.39062,"is_reserved":false,"is_disabled":false,"rental_uris":{"android":"levelo://app?vid=e974079b-b025-4c5d-912e-f159441947ae","ios":"levelo://app?vid=e974079b-b025-4c5d-912e-f159441947ae"},"vehicle_type_id":"4","last_reported":1777191062,"current_range_meters":9600,"station_id":"ce4bhn92rcd13ifvqgsg","pricing_plan_id":"cebpf4jnsgd1na2vs0mg"},{"bike_id":"0cff5f0c-5644-4c31-bea2-e7d7e457b847","system_id":"levelo_inurba_marseille","lat":43.3094,"lon":5.40158,"is_reserved":false,"is_disabled":false,"rental_uris":{"android":"levelo://app?vid=0cff5f0c-5644-4c31-bea2-e7d7e457b847","ios":"levelo://app?vid=0cff5f0c-5644-4c31-bea2-e7d7e457b847"},"vehicle_type_id":"4","last_reported":1777191062,"current_range_meters":9600,"station_id":"ce4bgvp2rcd13ifvqct0","pricing_plan_id":"cebpf4jnsgd1na2vs0mg"},{"bike_id":"a17a356a-6340-4eae-b4d5-d59f3247dda3","system_id":"levelo_inurba_marseille","lat":43.25978,"lon":5.39231,"is_reserved":false,"is_disabled":false,"rental_uris":{"android":"levelo://app?vid=a17a356a-6340-4eae-b4d5-d59f3247dda3","ios":"levelo://app?vid=a17a356a-6340-4eae-b4d5-d59f3247dda3"},"vehicle_type_id":"4","last_reported":1777191062,"current_range_meters":9600,"station_id":"","pricing_plan_id":"cebpf4jnsgd1na2vs0mg"},{"bike_id":"01cb88ae-f09e-4542-a076-88352fccca6e","system_id":"levelo_inurba_marseille","lat":43.24659,"lon":5.38172,"is_reserved":false,"is_disabled":false,"rental_uris":{"android":"levelo://app?vid=01cb88ae-f09e-4542-a076-88352fccca6e","ios":"levelo://app?vid=01cb88ae-f09e-4542-a076-88352fccca6e"},"vehicle_type_id":"4","last_reported":1777191062,"current_range_meters":9600,"station_id":"ce4bhih2rcd13ifvqfr0","pricing_plan_id":"cebpf4jnsgd1na2vs0mg"},{"bike_id":"7df5a73c-54d9-4df0-a5db-351499d6dc87","system_id":"levelo_inurba_marseille","lat":43.33166,"lon":5.37664,"is_reserved":false,"is_disabled":false,"rental_uris":{"android":"levelo://app?vid=7df5a73c-54d9-4df0-a5db-351499d6dc87","ios":"levelo://app?vid=7df5a73c-54d9-4df0-a5db-351499d6dc87"},"vehicle_type_id":"4","last_reported":1777191062,"current_range_meters":9600,"station_id":"st_d46cu089ee8s73dldbu0","pricing_plan_id":"cebpf4jnsgd1na2vs0mg"},{"bike_id":"fa751cf9-28f3-4d65-b8f1-30773d90354d","system_id":"levelo_inurba_marseille","lat":43.24955,"lon":5.40483,"is_reserved":false,"is_disabled":false,"rental_uris":{"android":"levelo://app?vid=fa751cf9-28f3-4d65-b8f1-30773d90354d","ios":"levelo://app?vid=fa751cf9-28f3-4d65-b8f1-30773d90354d"},"vehicle_type_id":"4","last_reported":1777191062,"current_range_meters":9600,"station_id":"st_d2ngiaodas8pm72gd1h0","pricing_plan_id":"cebpf4jnsgd1na2vs0mg"},{"bike_id":"d0039da5-9b8a-4927-805a-0c9a5736e7d3","system_id":"levelo_inurba_marseille","lat":43.31118,"lon":5.37777,"is_reserved":false,"is_disabled":false,"rental_uris":{"android":"levelo://app?vid=d0039da5-9b8a-4927-805a-0c9a5736e7d3","ios":"levelo://app?vid=d0039da5-9b8a-4927-805a-0c9a5736e7d3"},"vehicle_type_id":"4","last_reported":1777191062,"current_range_meters":9600,"station_id":"ce4bgt92rcd13ifvqcg0","pricing_plan_id":"cebpf4jnsgd1na2vs0mg"},{"bike_id":"fd583349-9e7d-4e5b-8155-1da1a7a44b99","system_id":"levelo_inurba_marseille","lat":43.27968,"lon":5.41082,"is_reserved":false,"is_disabled":false,"rental_uris":{"android":"levelo://app?vid=fd583349-9e7d-4e5b-8155-1da1a7a44b99","ios":"levelo://app?vid=fd583349-9e7d-4e5b-8155-1da1a7a44b99"},"vehicle_type_id":"4","last_reported":1777191062,"current_range_meters":9600,"station_id":"ce4bhnp2rcd13ifvqh0g","pricing_plan_id":"cebpf4jnsgd1na2vs0mg"},{"bike_id":"7917a9d5-4ac9-40bd-8834-5d3047c76c9d","system_id":"levelo_inurba_marseille","lat":43.32497,"lon":5.40755,"is_reserved":false,"is_disabled":false,"rental_uris":{"android":"levelo://app?vid=7917a9d5-4ac9-40bd-8834-5d3047c76c9d","ios":"levelo://app?vid=7917a9d5-4ac9-40bd-8834-5d3047c76c9d"},"vehicle_type_id":"4","last_reported":1777191062,"current_range_meters":9600,"station_id":"","pricing_plan_id":"cebpf4jnsgd1na2vs0mg"},{"bike_id":"4b49ab9b-eeca-4117-b1e9-4b53277a58b0","system_id":"levelo_inurba_marseille","lat":43.23194,"lon":5.35567,"is_reserved":false,"is_disabled":true,"rental_uris":{"android":"levelo://app?vid=4b49ab9b-eeca-4117-b1e9-4b53277a58b0","ios":"levelo://app?vid=4b49ab9b-eeca-4117-b1e9-4b53277a58b0"},"vehicle_type_id":"4","last_reported":1777191062,"current_range_meters":9600,"station_id":"ce4bhu92rcd13ifvqi70","pricing_plan_id":"cebpf4jnsgd1na2vs0mg"},{"bike_id":"aa617e93-6150-470f-be56-9fbd872bcc84","system_id":"levelo_inurba_marseille","lat":43.31081,"lon":5.42438,"is_reserved":false,"is_disabled":false,"rental_uris":{"android":"levelo://app?vid=aa617e93-6150-470f-be56-9fbd872bcc84","ios":"levelo://app?vid=aa617e93-6150-470f-be56-9fbd872bcc84"},"vehicle_type_id":"4","last_reported":1777191062,"current_range_meters":9600,"station_id":"ce4bhp92rcd13ifvqhag","pricing_plan_id":"cebpf4jnsgd1na2vs0mg"},{"bike_id":"1bc891e9-f485-44e6-8b9e-dd1b177737e8","system_id":"levelo_inurba_marseille","lat":43.29216,"lon":5.36378,"is_reserved":false,"is_disabled":false,"rental_uris":{"android":"levelo://app?vid=1bc891e9-f485-44e6-8b9e-dd1b177737e8","ios":"levelo://app?vid=1bc891e9-f485-44e6-8b9e-dd1b177737e8"},"vehicle_type_id":"4","last_reported":1777191062,"current_range_meters":9600,"station_id":"","pricing_plan_id":"cebpf4jnsgd1na2vs0mg"},{"bike_id":"7b9926f3-1d2b-4da5-87b5-bf4a0fec5f8c","system_id":"levelo_inurba_marseille","lat":43.24147,"lon":5.36411,"is_reserved":false,"is_disabled":false,"rental_uris":{"android":"levelo://app?vid=7b9926f3-1d2b-4da5-87b5-bf4a0fec5f8c","ios":"levelo://app?vid=7b9926f3-1d2b-4da5-87b5-bf4a0fec5f8c"},"vehicle_type_id":"4","last_reported":1777191062,"current_range_meters":9600,"station_id":"cpo36qri1sfpv3e86is0","pricing_plan_id":"cebpf4jnsgd1na2vs0mg"},{"bike_id":"97f0351e-0015-4f6a-a402-604cdb115786","system_id":"levelo_inurba_marseille","lat":43.21182,"lon":5.35065,"is_reserved":false,"is_disabled":false,"rental_uris":{"android":"levelo://app?vid=97f0351e-0015-4f6a-a402-604cdb115786","ios":"levelo://app?vid=97f0351e-0015-4f6a-a402-604cdb115786"},"vehicle_type_id":"4","last_reported":1777191062,"current_range_meters":10000,"station_id":"st_cvj6sg6p6f1abm77japg","pricing_plan_id":"cebpf4jnsgd1na2vs0mg"},{"bike_id":"5dde3c8f-315b-4388-a6cc-651aa2e739c0","system_id":"levelo_inurba_marseille","lat":43.30549,"lon":5.36555,"is_reserved":false,"is_disabled":false,"rental_uris":{"android":"levelo://app?vid=5dde3c8f-315b-4388-a6cc-651aa2e739c0","ios":"levelo://app?vid=5dde3c8f-315b-4388-a6cc-651aa2e739c0"},"vehicle_type_id":"4","last_reported":1777191062,"current_range_meters":10000,"station_id":"ce4bgs12rcd13ifvqcag","pricing_plan_id":"cebpf4jnsgd1na2vs0mg"},{"bike_id":"afe2c699-d272-47f9-9a1b-81ffe94bdde8","system_id":"levelo_inurba_marseille","lat":43.24146,"lon":5.36373,"is_reserved":false,"is_disabled":false,"rental_uris":{"android":"levelo://app?vid=afe2c699-d272-47f9-9a1b-81ffe94bdde8","ios":"levelo://app?vid=afe2c699-d272-47f9-9a1b-81ffe94bdde8"},"vehicle_type_id":"4","last_reported":1777191062,"current_range_meters":10000,"station_id":"cpo36qri1sfpv3e86is0","pricing_plan_id":"cebpf4jnsgd1na2vs0mg"},{"bike_id":"9016c02d-92d3-4cdb-bc04-cf65b648a362","system_id":"levelo_inurba_marseille","lat":43.2796,"lon":5.38674,"is_reserved":false,"is_disabled":false,"rental_uris":{"android":"levelo://app?vid=9016c02d-92d3-4cdb-bc04-cf65b648a362","ios":"levelo://app?vid=9016c02d-92d3-4cdb-bc04-cf65b648a362"},"vehicle_type_id":"4","last_reported":1777191062,"current_range_meters":10000,"station_id":"","pricing_plan_id":"cebpf4jnsgd1na2vs0mg"},{"bike_id":"695c01e5-47e1-4cb1-99bb-36f23785780b","system_id":"levelo_inurba_marseille","lat":43.28262,"lon":5.35055,"is_reserved":false,"is_disabled":false,"rental_uris":{"android":"levelo://app?vid=695c01e5-47e1-4cb1-99bb-36f23785780b","ios":"levelo://app?vid=695c01e5-47e1-4cb1-99bb-36f23785780b"},"vehicle_type_id":"4","last_reported":1777191062,"current_range_meters":10000,"station_id":"ce4bhbp2rcd13ifvqerg","pricing_plan_id":"cebpf4jnsgd1na2vs0mg"},{"bike_id":"1dbbb389-5931-4d64-b29b-02449b2d67dc","system_id":"levelo_inurba_marseille","lat":43.24463,"lon":5.42529,"is_reserved":false,"is_disabled":false,"rental_uris":{"android":"levelo://app?vid=1dbbb389-5931-4d64-b29b-02449b2d67dc","ios":"levelo://app?vid=1dbbb389-5931-4d64-b29b-02449b2d67dc"},"vehicle_type_id":"4","last_reported":1777191062,"current_range_meters":10000,"station_id":"st_d4a3vfp97mjs738cd8kg","pricing_plan_id":"cebpf4jnsgd1na2vs0mg"},{"bike_id":"1b7bb941-83c3-4ec7-8d56-88190ac17fc3","system_id":"levelo_inurba_marseille","lat":43.28149,"lon":5.39233,"is_reserved":false,"is_disabled":false,"rental_uris":{"android":"levelo://app?vid=1b7bb941-83c3-4ec7-8d56-88190ac17fc3","ios":"levelo://app?vid=1b7bb941-83c3-4ec7-8d56-88190ac17fc3"},"vehicle_type_id":"4","last_reported":1777191062,"current_range_meters":10000,"station_id":"","pricing_plan_id":"cebpf4jnsgd1na2vs0mg"},{"bike_id":"d68cd392-a214-40e4-8e5f-e39fa567524a","system_id":"levelo_inurba_marseille","lat":43.30149,"lon":5.37422,"is_reserved":false,"is_disabled":true,"rental_uris":{"android":"levelo://app?vid=d68cd392-a214-40e4-8e5f-e39fa567524a","ios":"levelo://app?vid=d68cd392-a214-40e4-8e5f-e39fa567524a"},"vehicle_type_id":"4","last_reported":1777191062,"current_range_meters":10000,"station_id":"ce4bgs92rcd13ifvqcc0","pricing_plan_id":"cebpf4jnsgd1na2vs0mg"},{"bike_id":"751cb15b-8f8c-4fee-8169-2483fe11e698","system_id":"levelo_inurba_marseille","lat":43.24816,"lon":5.37452,"is_reserved":false,"is_disabled":false,"rental_uris":{"android":"levelo://app?vid=751cb15b-8f8c-4fee-8169-2483fe11e698","ios":"levelo://app?vid=751cb15b-8f8c-4fee-8169-2483fe11e698"},"vehicle_type_id":"4","last_reported":1777191062,"current_range_meters":10000,"station_id":"ce4bhgh2rcd13ifvqfb0","pricing_plan_id":"cebpf4jnsgd1na2vs0mg"},{"bike_id":"d85faab4-ca4b-43ad-a048-ea22fb73e941","system_id":"levelo_inurba_marseille","lat":43.31316,"lon":5.39704,"is_reserved":false,"is_disabled":false,"rental_uris":{"android":"levelo://app?vid=d85faab4-ca4b-43ad-a048-ea22fb73e941","ios":"levelo://app?vid=d85faab4-ca4b-43ad-a048-ea22fb73e941"},"vehicle_type_id":"4","last_reported":1777191062,"current_range_meters":10000,"station_id":"ce4bgvp2rcd13ifvqcu0","pricing_plan_id":"cebpf4jnsgd1na2vs0mg"},{"bike_id":"0d8c3362-be20-49ce-8a46-7df1fa0c42ea","system_id":"levelo_inurba_marseille","lat":43.24816,"lon":5.37446,"is_reserved":false,"is_disabled":false,"rental_uris":{"android":"levelo://app?vid=0d8c3362-be20-49ce-8a46-7df1fa0c42ea","ios":"levelo://app?vid=0d8c3362-be20-49ce-8a46-7df1fa0c42ea"},"vehicle_type_id":"4","last_reported":1777191062,"current_range_meters":10000,"station_id":"ce4bhgh2rcd13ifvqfb0","pricing_plan_id":"cebpf4jnsgd1na2vs0mg"},{"bike_id":"9cee4e90-2861-42ab-8f88-f2f3c8ba8048","system_id":"levelo_inurba_marseille","lat":43.31538,"lon":5.38034,"is_reserved":false,"is_disabled":false,"rental_uris":{"android":"levelo://app?vid=9cee4e90-2861-42ab-8f88-f2f3c8ba8048","ios":"levelo://app?vid=9cee4e90-2861-42ab-8f88-f2f3c8ba8048"},"vehicle_type_id":"4","last_reported":1777191062,"current_range_meters":10000,"station_id":"ce4bhsp2rcd13ifvqi50","pricing_plan_id":"cebpf4jnsgd1na2vs0mg"},{"bike_id":"50f8bdff-b169-44f8-8920-840c94d5e30a","system_id":"levelo_inurba_marseille","lat":43.28483,"lon":5.48396,"is_reserved":false,"is_disabled":true,"rental_uris":{"android":"levelo://app?vid=50f8bdff-b169-44f8-8920-840c94d5e30a","ios":"levelo://app?vid=50f8bdff-b169-44f8-8920-840c94d5e30a"},"vehicle_type_id":"4","last_reported":1777191062,"current_range_meters":10000,"station_id":"","pricing_plan_id":"cebpf4jnsgd1na2vs0mg"},{"bike_id":"2725b0c0-a653-43ae-bc24-ce0141576499","system_id":"levelo_inurba_marseille","lat":43.30147,"lon":5.43098,"is_reserved":false,"is_disabled":false,"rental_uris":{"android":"levelo://app?vid=2725b0c0-a653-43ae-bc24-ce0141576499","ios":"levelo://app?vid=2725b0c0-a653-43ae-bc24-ce0141576499"},"vehicle_type_id":"4","last_reported":1777191062,"current_range_meters":10000,"station_id":"st_d3js3co5814s73ftftug","pricing_plan_id":"cebpf4jnsgd1na2vs0mg"},{"bike_id":"62a20b6e-e98d-4cc9-b298-e865d7184b00","system_id":"levelo_inurba_marseille","lat":43.25517,"lon":5.37627,"is_reserved":false,"is_disabled":false,"rental_uris":{"android":"levelo://app?vid=62a20b6e-e98d-4cc9-b298-e865d7184b00","ios":"levelo://app?vid=62a20b6e-e98d-4cc9-b298-e865d7184b00"},"vehicle_type_id":"4","last_reported":1777191062,"current_range_meters":10000,"station_id":"ce4bhh12rcd13ifvqff0","pricing_plan_id":"cebpf4jnsgd1na2vs0mg"},{"bike_id":"467af7e3-1dde-41a3-a6ca-71104d671795","system_id":"levelo_inurba_marseille","lat":43.32652,"lon":5.41009,"is_reserved":false,"is_disabled":false,"rental_uris":{"android":"levelo://app?vid=467af7e3-1dde-41a3-a6ca-71104d671795","ios":"levelo://app?vid=467af7e3-1dde-41a3-a6ca-71104d671795"},"vehicle_type_id":"4","last_reported":1777191062,"current_range_meters":10000,"station_id":"ce4bhpp2rcd13ifvqhgg","pricing_plan_id":"cebpf4jnsgd1na2vs0mg"},{"bike_id":"f34d417f-55b3-4000-855c-b2add1843f10","system_id":"levelo_inurba_marseille","lat":43.25119,"lon":5.40282,"is_reserved":false,"is_disabled":false,"rental_uris":{"android":"levelo://app?vid=f34d417f-55b3-4000-855c-b2add1843f10","ios":"levelo://app?vid=f34d417f-55b3-4000-855c-b2add1843f10"},"vehicle_type_id":"4","last_reported":1777191062,"current_range_meters":10000,"station_id":"ce4bhlh2rcd13ifvqgig","pricing_plan_id":"cebpf4jnsgd1na2vs0mg"},{"bike_id":"5ba8ec37-02ae-45f0-b89d-bf74900781e1","system_id":"levelo_inurba_marseille","lat":43.3094,"lon":5.40134,"is_reserved":false,"is_disabled":false,"rental_uris":{"android":"levelo://app?vid=5ba8ec37-02ae-45f0-b89d-bf74900781e1","ios":"levelo://app?vid=5ba8ec37-02ae-45f0-b89d-bf74900781e1"},"vehicle_type_id":"4","last_reported":1777191062,"current_range_meters":10000,"station_id":"ce4bgvp2rcd13ifvqct0","pricing_plan_id":"cebpf4jnsgd1na2vs0mg"},{"bike_id":"64c4fde4-cee0-44de-9966-981773c769f9","system_id":"levelo_inurba_marseille","lat":43.28617,"lon":5.35102,"is_reserved":false,"is_disabled":false,"rental_uris":{"android":"levelo://app?vid=64c4fde4-cee0-44de-9966-981773c769f9","ios":"levelo://app?vid=64c4fde4-cee0-44de-9966-981773c769f9"},"vehicle_type_id":"4","last_reported":1777191062,"current_range_meters":10000,"station_id":"ce4bhch2rcd13ifvqeug","pricing_plan_id":"cebpf4jnsgd1na2vs0mg"},{"bike_id":"896d02f7-d14b-489b-84ea-4246121d7892","system_id":"levelo_inurba_marseille","lat":43.24384,"lon":5.37068,"is_reserved":false,"is_disabled":false,"rental_uris":{"android":"levelo://app?vid=896d02f7-d14b-489b-84ea-4246121d7892","ios":"levelo://app?vid=896d02f7-d14b-489b-84ea-4246121d7892"},"vehicle_type_id":"4","last_reported":1777191062,"current_range_meters":10000,"station_id":"ce4bhhh2rcd13ifvqfk0","pricing_plan_id":"cebpf4jnsgd1na2vs0mg"},{"bike_id":"c07a6480-3a66-49bc-8e31-42e96cca6074","system_id":"levelo_inurba_marseille","lat":43.2928,"lon":5.38265,"is_reserved":false,"is_disabled":false,"rental_uris":{"android":"levelo://app?vid=c07a6480-3a66-49bc-8e31-42e96cca6074","ios":"levelo://app?vid=c07a6480-3a66-49bc-8e31-42e96cca6074"},"vehicle_type_id":"4","last_reported":1777191062,"current_range_meters":10800,"station_id":"","pricing_plan_id":"cebpf4jnsgd1na2vs0mg"},{"bike_id":"e5d0e68a-dee4-4664-b2e7-41693e048ab1","system_id":"levelo_inurba_marseille","lat":43.28942,"lon":5.39639,"is_reserved":false,"is_disabled":true,"rental_uris":{"android":"levelo://app?vid=e5d0e68a-dee4-4664-b2e7-41693e048ab1","ios":"levelo://app?vid=e5d0e68a-dee4-4664-b2e7-41693e048ab1"},"vehicle_type_id":"4","last_reported":1777191062,"current_range_meters":10800,"station_id":"ce4bh3h2rcd13ifvqdn0","pricing_plan_id":"cebpf4jnsgd1na2vs0mg"},{"bike_id":"feb54a0d-38b4-47b5-b59e-e93eb4bd6087","system_id":"levelo_inurba_marseille","lat":43.28222,"lon":5.39067,"is_reserved":false,"is_disabled":false,"rental_uris":{"android":"levelo://app?vid=feb54a0d-38b4-47b5-b59e-e93eb4bd6087","ios":"levelo://app?vid=feb54a0d-38b4-47b5-b59e-e93eb4bd6087"},"vehicle_type_id":"4","last_reported":1777191062,"current_range_meters":10800,"station_id":"ce4bhn92rcd13ifvqgsg","pricing_plan_id":"cebpf4jnsgd1na2vs0mg"},{"bike_id":"5de2f81f-0b4b-4e9a-bb06-a5fa07457a1f","system_id":"levelo_inurba_marseille","lat":43.28714,"lon":5.37404,"is_reserved":false,"is_disabled":false,"rental_uris":{"android":"levelo://app?vid=5de2f81f-0b4b-4e9a-bb06-a5fa07457a1f","ios":"levelo://app?vid=5de2f81f-0b4b-4e9a-bb06-a5fa07457a1f"},"vehicle_type_id":"4","last_reported":1777191062,"current_range_meters":10800,"station_id":"ce4bh3p2rcd13ifvqdq0","pricing_plan_id":"cebpf4jnsgd1na2vs0mg"},{"bike_id":"4c45330a-366b-4405-9568-32534dd9d2d8","system_id":"levelo_inurba_marseille","lat":43.29719,"lon":5.36592,"is_reserved":false,"is_disabled":false,"rental_uris":{"android":"levelo://app?vid=4c45330a-366b-4405-9568-32534dd9d2d8","ios":"levelo://app?vid=4c45330a-366b-4405-9568-32534dd9d2d8"},"vehicle_type_id":"4","last_reported":1777191062,"current_range_meters":10800,"station_id":"ce4bgn12rcd13ifvqbt0","pricing_plan_id":"cebpf4jnsgd1na2vs0mg"},{"bike_id":"8325a7b9-08c0-4eaf-9c26-44598b2e40c4","system_id":"levelo_inurba_marseille","lat":43.29108,"lon":5.38117,"is_reserved":false,"is_disabled":false,"rental_uris":{"android":"levelo://app?vid=8325a7b9-08c0-4eaf-9c26-44598b2e40c4","ios":"levelo://app?vid=8325a7b9-08c0-4eaf-9c26-44598b2e40c4"},"vehicle_type_id":"4","last_reported":1777191062,"current_range_meters":10800,"station_id":"ce4bh512rcd13ifvqe2g","pricing_plan_id":"cebpf4jnsgd1na2vs0mg"},{"bike_id":"92ff2548-727a-4ce5-917c-ab3b14177ccd","system_id":"levelo_inurba_marseille","lat":43.30901,"lon":5.36842,"is_reserved":false,"is_disabled":false,"rental_uris":{"android":"levelo://app?vid=92ff2548-727a-4ce5-917c-ab3b14177ccd","ios":"levelo://app?vid=92ff2548-727a-4ce5-917c-ab3b14177ccd"},"vehicle_type_id":"4","last_reported":1777191062,"current_range_meters":10800,"station_id":"","pricing_plan_id":"cebpf4jnsgd1na2vs0mg"},{"bike_id":"742e7e0e-93cb-4520-85ac-889600c45c46","system_id":"levelo_inurba_marseille","lat":43.28485,"lon":5.38444,"is_reserved":false,"is_disabled":true,"rental_uris":{"android":"levelo://app?vid=742e7e0e-93cb-4520-85ac-889600c45c46","ios":"levelo://app?vid=742e7e0e-93cb-4520-85ac-889600c45c46"},"vehicle_type_id":"4","last_reported":1777191062,"current_range_meters":10800,"station_id":"ce4bh512rcd13ifvqe3g","pricing_plan_id":"cebpf4jnsgd1na2vs0mg"},{"bike_id":"de004b09-e513-4101-a09e-a36b558211fb","system_id":"levelo_inurba_marseille","lat":43.2816,"lon":5.42646,"is_reserved":false,"is_disabled":false,"rental_uris":{"android":"levelo://app?vid=de004b09-e513-4101-a09e-a36b558211fb","ios":"levelo://app?vid=de004b09-e513-4101-a09e-a36b558211fb"},"vehicle_type_id":"4","last_reported":1777191062,"current_range_meters":10800,"station_id":"ce4bhnh2rcd13ifvqgug","pricing_plan_id":"cebpf4jnsgd1na2vs0mg"},{"bike_id":"b519fd6b-1e0f-47e9-8135-3539c85875c4","system_id":"levelo_inurba_marseille","lat":43.26214,"lon":5.37445,"is_reserved":false,"is_disabled":false,"rental_uris":{"android":"levelo://app?vid=b519fd6b-1e0f-47e9-8135-3539c85875c4","ios":"levelo://app?vid=b519fd6b-1e0f-47e9-8135-3539c85875c4"},"vehicle_type_id":"4","last_reported":1777191062,"current_range_meters":10800,"station_id":"ce4bhgp2rcd13ifvqfc0","pricing_plan_id":"cebpf4jnsgd1na2vs0mg"},{"bike_id":"61075d33-3a9e-4857-b3e4-51a59bb1db59","system_id":"levelo_inurba_marseille","lat":43.31535,"lon":5.38043,"is_reserved":false,"is_disabled":false,"rental_uris":{"android":"levelo://app?vid=61075d33-3a9e-4857-b3e4-51a59bb1db59","ios":"levelo://app?vid=61075d33-3a9e-4857-b3e4-51a59bb1db59"},"vehicle_type_id":"4","last_reported":1777191062,"current_range_meters":10800,"station_id":"ce4bhsp2rcd13ifvqi50","pricing_plan_id":"cebpf4jnsgd1na2vs0mg"},{"bike_id":"0852722a-7690-41d8-85ee-3e7c6221932f","system_id":"levelo_inurba_marseille","lat":43.2455,"lon":5.39509,"is_reserved":false,"is_disabled":false,"rental_uris":{"android":"levelo://app?vid=0852722a-7690-41d8-85ee-3e7c6221932f","ios":"levelo://app?vid=0852722a-7690-41d8-85ee-3e7c6221932f"},"vehicle_type_id":"4","last_reported":1777191062,"current_range_meters":10800,"station_id":"ce4bhlp2rcd13ifvqgjg","pricing_plan_id":"cebpf4jnsgd1na2vs0mg"},{"bike_id":"96fb537a-b987-44bc-8abe-92d7515acf9a","system_id":"levelo_inurba_marseille","lat":43.27998,"lon":5.4001,"is_reserved":false,"is_disabled":false,"rental_uris":{"android":"levelo://app?vid=96fb537a-b987-44bc-8abe-92d7515acf9a","ios":"levelo://app?vid=96fb537a-b987-44bc-8abe-92d7515acf9a"},"vehicle_type_id":"4","last_reported":1777191062,"current_range_meters":10800,"station_id":"ce4bho92rcd13ifvqh4g","pricing_plan_id":"cebpf4jnsgd1na2vs0mg"},{"bike_id":"ad87601b-031c-4064-8818-5409ad24e8c4","system_id":"levelo_inurba_marseille","lat":43.26213,"lon":5.37912,"is_reserved":false,"is_disabled":false,"rental_uris":{"android":"levelo://app?vid=ad87601b-031c-4064-8818-5409ad24e8c4","ios":"levelo://app?vid=ad87601b-031c-4064-8818-5409ad24e8c4"},"vehicle_type_id":"4","last_reported":1777191062,"current_range_meters":10800,"station_id":"ce4bhjp2rcd13ifvqg90","pricing_plan_id":"cebpf4jnsgd1na2vs0mg"},{"bike_id":"8bac0f38-df28-420f-81e9-7688df22509b","system_id":"levelo_inurba_marseille","lat":43.31323,"lon":5.3974,"is_reserved":false,"is_disabled":false,"rental_uris":{"android":"levelo://app?vid=8bac0f38-df28-420f-81e9-7688df22509b","ios":"levelo://app?vid=8bac0f38-df28-420f-81e9-7688df22509b"},"vehicle_type_id":"4","last_reported":1777191062,"current_range_meters":11200,"station_id":"ce4bgvp2rcd13ifvqcu0","pricing_plan_id":"cebpf4jnsgd1na2vs0mg"},{"bike_id":"5c6dbc22-6dc1-4a74-95d1-677c3ccf7a7b","system_id":"levelo_inurba_marseille","lat":43.29938,"lon":5.36533,"is_reserved":false,"is_disabled":true,"rental_uris":{"android":"levelo://app?vid=5c6dbc22-6dc1-4a74-95d1-677c3ccf7a7b","ios":"levelo://app?vid=5c6dbc22-6dc1-4a74-95d1-677c3ccf7a7b"},"vehicle_type_id":"4","last_reported":1777191062,"current_range_meters":11200,"station_id":"ce4bgm92rcd13ifvqbr0","pricing_plan_id":"cebpf4jnsgd1na2vs0mg"},{"bike_id":"ad06fbeb-2893-47bd-9310-693ccba410e9","system_id":"levelo_inurba_marseille","lat":43.28763,"lon":5.46823,"is_reserved":false,"is_disabled":false,"rental_uris":{"android":"levelo://app?vid=ad06fbeb-2893-47bd-9310-693ccba410e9","ios":"levelo://app?vid=ad06fbeb-2893-47bd-9310-693ccba410e9"},"vehicle_type_id":"4","last_reported":1777191062,"current_range_meters":11200,"station_id":"","pricing_plan_id":"cebpf4jnsgd1na2vs0mg"},{"bike_id":"6b9ceb44-f98b-4474-bf14-5e53602be7a5","system_id":"levelo_inurba_marseille","lat":43.3354,"lon":5.37454,"is_reserved":false,"is_disabled":false,"rental_uris":{"android":"levelo://app?vid=6b9ceb44-f98b-4474-bf14-5e53602be7a5","ios":"levelo://app?vid=6b9ceb44-f98b-4474-bf14-5e53602be7a5"},"vehicle_type_id":"4","last_reported":1777191062,"current_range_meters":11200,"station_id":"st_d46tts09ee8s73dlu43g","pricing_plan_id":"cebpf4jnsgd1na2vs0mg"},{"bike_id":"970f3220-8b71-4114-ba16-fc5a4a48ea88","system_id":"levelo_inurba_marseille","lat":43.3132,"lon":5.39698,"is_reserved":false,"is_disabled":false,"rental_uris":{"android":"levelo://app?vid=970f3220-8b71-4114-ba16-fc5a4a48ea88","ios":"levelo://app?vid=970f3220-8b71-4114-ba16-fc5a4a48ea88"},"vehicle_type_id":"4","last_reported":1777191062,"current_range_meters":11200,"station_id":"ce4bgvp2rcd13ifvqcu0","pricing_plan_id":"cebpf4jnsgd1na2vs0mg"},{"bike_id":"cf4537a9-051c-4080-9a3f-93f632ce0082","system_id":"levelo_inurba_marseille","lat":43.337444,"lon":5.374475,"is_reserved":false,"is_disabled":false,"rental_uris":{"android":"levelo://app?vid=cf4537a9-051c-4080-9a3f-93f632ce0082","ios":"levelo://app?vid=cf4537a9-051c-4080-9a3f-93f632ce0082"},"vehicle_type_id":"4","last_reported":1777191062,"current_range_meters":11200,"station_id":"","pricing_plan_id":"cebpf4jnsgd1na2vs0mg"},{"bike_id":"a8686831-257c-46c3-87d9-58599b864cce","system_id":"levelo_inurba_marseille","lat":43.2848,"lon":5.48388,"is_reserved":false,"is_disabled":false,"rental_uris":{"android":"levelo://app?vid=a8686831-257c-46c3-87d9-58599b864cce","ios":"levelo://app?vid=a8686831-257c-46c3-87d9-58599b864cce"},"vehicle_type_id":"4","last_reported":1777191062,"current_range_meters":11200,"station_id":"","pricing_plan_id":"cebpf4jnsgd1na2vs0mg"},{"bike_id":"16baf0d6-16e2-4e76-b484-e11a75e07095","system_id":"levelo_inurba_marseille","lat":43.32099,"lon":5.36787,"is_reserved":false,"is_disabled":false,"rental_uris":{"android":"levelo://app?vid=16baf0d6-16e2-4e76-b484-e11a75e07095","ios":"levelo://app?vid=16baf0d6-16e2-4e76-b484-e11a75e07095"},"vehicle_type_id":"4","last_reported":1777191062,"current_range_meters":11200,"station_id":"ce4bhrh2rcd13ifvqhug","pricing_plan_id":"cebpf4jnsgd1na2vs0mg"},{"bike_id":"01135cbf-29b3-489b-b2e0-6c7d396ff4ee","system_id":"levelo_inurba_marseille","lat":43.24803,"lon":5.37453,"is_reserved":false,"is_disabled":false,"rental_uris":{"android":"levelo://app?vid=01135cbf-29b3-489b-b2e0-6c7d396ff4ee","ios":"levelo://app?vid=01135cbf-29b3-489b-b2e0-6c7d396ff4ee"},