{"last_updated":1756285833,"ttl":60,"version":"2.2","data":{"bikes":[{"bike_id":"bdf85e08-5676-48b0-8060-453cc8bae2cf","system_id":"levelo_inurba_marseille","lat":43.29201,"lon":5.35803,"is_reserved":false,"is_disabled":false,"rental_uris":{"android":"levelo://app?vid=bdf85e08-5676-48b0-8060-453cc8bae2cf","ios":"levelo://app?vid=bdf85e08-5676-48b0-8060-453cc8bae2cf"},"vehicle_type_id":"4","last_reported":1756285834,"current_range_meters":2800,"station_id":"ce4bhb12rcd13ifvqel0","pricing_plan_id":"cebpf4jnsgd1na2vs0mg"},{"bike_id":"910a2fe9-c763-44c1-8de4-85789a7f1606","system_id":"levelo_inurba_marseille","lat":43.27417,"lon":5.39404,"is_reserved":false,"is_disabled":true,"rental_uris":{"android":"levelo://app?vid=910a2fe9-c763-44c1-8de4-85789a7f1606","ios":"levelo://app?vid=910a2fe9-c763-44c1-8de4-85789a7f1606"},"vehicle_type_id":"4","last_reported":1756285834,"current_range_meters":3200,"station_id":"ce4bhdp2rcd13ifvqf20","pricing_plan_id":"cebpf4jnsgd1na2vs0mg"},{"bike_id":"236f1a17-bd84-4b8e-977f-7df7d8cf402c","system_id":"levelo_inurba_marseille","lat":43.30794,"lon":5.43532,"is_reserved":false,"is_disabled":true,"rental_uris":{"android":"levelo://app?vid=236f1a17-bd84-4b8e-977f-7df7d8cf402c","ios":"levelo://app?vid=236f1a17-bd84-4b8e-977f-7df7d8cf402c"},"vehicle_type_id":"4","last_reported":1756285834,"current_range_meters":4000,"station_id":"ce4bhph2rcd13ifvqheg","pricing_plan_id":"cebpf4jnsgd1na2vs0mg"},{"bike_id":"2d53e1b9-73be-45c8-8331-ac330d6bf047","system_id":"levelo_inurba_marseille","lat":43.27204,"lon":5.39186,"is_reserved":false,"is_disabled":false,"rental_uris":{"android":"levelo://app?vid=2d53e1b9-73be-45c8-8331-ac330d6bf047","ios":"levelo://app?vid=2d53e1b9-73be-45c8-8331-ac330d6bf047"},"vehicle_type_id":"4","last_reported":1756285834,"current_range_meters":4000,"station_id":"ce4bhhp2rcd13ifvqfm0","pricing_plan_id":"cebpf4jnsgd1na2vs0mg"},{"bike_id":"3236fad9-3f95-43bc-8e71-12e0bdd9c941","system_id":"levelo_inurba_marseille","lat":43.24645,"lon":5.38889,"is_reserved":false,"is_disabled":false,"rental_uris":{"android":"levelo://app?vid=3236fad9-3f95-43bc-8e71-12e0bdd9c941","ios":"levelo://app?vid=3236fad9-3f95-43bc-8e71-12e0bdd9c941"},"vehicle_type_id":"4","last_reported":1756285834,"current_range_meters":4000,"station_id":"ce4bhg12rcd13ifvqf60","pricing_plan_id":"cebpf4jnsgd1na2vs0mg"},{"bike_id":"c865b6fe-7039-49c7-a2fb-fb12bee014e5","system_id":"levelo_inurba_marseille","lat":43.30378,"lon":5.42491,"is_reserved":false,"is_disabled":false,"rental_uris":{"android":"levelo://app?vid=c865b6fe-7039-49c7-a2fb-fb12bee014e5","ios":"levelo://app?vid=c865b6fe-7039-49c7-a2fb-fb12bee014e5"},"vehicle_type_id":"4","last_reported":1756285834,"current_range_meters":4000,"station_id":"ce4bhoh2rcd13ifvqh6g","pricing_plan_id":"cebpf4jnsgd1na2vs0mg"},{"bike_id":"a756ac62-601a-4a65-b168-04bcf168284e","system_id":"levelo_inurba_marseille","lat":43.28407,"lon":5.37523,"is_reserved":false,"is_disabled":false,"rental_uris":{"android":"levelo://app?vid=a756ac62-601a-4a65-b168-04bcf168284e","ios":"levelo://app?vid=a756ac62-601a-4a65-b168-04bcf168284e"},"vehicle_type_id":"4","last_reported":1756285834,"current_range_meters":4000,"station_id":"","pricing_plan_id":"cebpf4jnsgd1na2vs0mg"},{"bike_id":"f6bd5b86-eb54-487c-8a4e-3da908b177ef","system_id":"levelo_inurba_marseille","lat":43.29743,"lon":5.37123,"is_reserved":false,"is_disabled":false,"rental_uris":{"android":"levelo://app?vid=f6bd5b86-eb54-487c-8a4e-3da908b177ef","ios":"levelo://app?vid=f6bd5b86-eb54-487c-8a4e-3da908b177ef"},"vehicle_type_id":"4","last_reported":1756285834,"current_range_meters":4400,"station_id":"ce4bgop2rcd13ifvqc1g","pricing_plan_id":"cebpf4jnsgd1na2vs0mg"},{"bike_id":"03be758f-3e6d-4c72-8876-95a4359600d6","system_id":"levelo_inurba_marseille","lat":43.33779,"lon":5.375,"is_reserved":false,"is_disabled":false,"rental_uris":{"android":"levelo://app?vid=03be758f-3e6d-4c72-8876-95a4359600d6","ios":"levelo://app?vid=03be758f-3e6d-4c72-8876-95a4359600d6"},"vehicle_type_id":"4","last_reported":1756285834,"current_range_meters":4400,"station_id":"","pricing_plan_id":"cebpf4jnsgd1na2vs0mg"},{"bike_id":"43a14931-dcd0-4ae0-861f-dece37fa7f4d","system_id":"levelo_inurba_marseille","lat":43.3105,"lon":5.40104,"is_reserved":false,"is_disabled":false,"rental_uris":{"android":"levelo://app?vid=43a14931-dcd0-4ae0-861f-dece37fa7f4d","ios":"levelo://app?vid=43a14931-dcd0-4ae0-861f-dece37fa7f4d"},"vehicle_type_id":"4","last_reported":1756285834,"current_range_meters":5600,"station_id":"","pricing_plan_id":"cebpf4jnsgd1na2vs0mg"},{"bike_id":"b46639d3-0e19-46be-a590-754abfdbb7c9","system_id":"levelo_inurba_marseille","lat":43.295337,"lon":5.38546,"is_reserved":false,"is_disabled":true,"rental_uris":{"android":"levelo://app?vid=b46639d3-0e19-46be-a590-754abfdbb7c9","ios":"levelo://app?vid=b46639d3-0e19-46be-a590-754abfdbb7c9"},"vehicle_type_id":"4","last_reported":1756285834,"current_range_meters":5600,"station_id":"ce4bgih2rcd13ifvqba0","pricing_plan_id":"cebpf4jnsgd1na2vs0mg"},{"bike_id":"2f4e8b28-6095-4b3f-ae0a-f9f0c872541a","system_id":"levelo_inurba_marseille","lat":43.29035,"lon":5.37571,"is_reserved":false,"is_disabled":false,"rental_uris":{"android":"levelo://app?vid=2f4e8b28-6095-4b3f-ae0a-f9f0c872541a","ios":"levelo://app?vid=2f4e8b28-6095-4b3f-ae0a-f9f0c872541a"},"vehicle_type_id":"4","last_reported":1756285834,"current_range_meters":6400,"station_id":"ce4bh692rcd13ifvqe90","pricing_plan_id":"cebpf4jnsgd1na2vs0mg"},{"bike_id":"f88aad37-d2b1-45a3-8a14-852e5ef6b5cc","system_id":"levelo_inurba_marseille","lat":43.287058,"lon":5.3793,"is_reserved":false,"is_disabled":false,"rental_uris":{"android":"levelo://app?vid=f88aad37-d2b1-45a3-8a14-852e5ef6b5cc","ios":"levelo://app?vid=f88aad37-d2b1-45a3-8a14-852e5ef6b5cc"},"vehicle_type_id":"4","last_reported":1756285834,"current_range_meters":6400,"station_id":"ce4bh9p2rcd13ifvqec0","pricing_plan_id":"cebpf4jnsgd1na2vs0mg"},{"bike_id":"3b34aa3a-faa6-4a8d-a52d-3ed95a019a93","system_id":"levelo_inurba_marseille","lat":43.297091,"lon":5.366098,"is_reserved":false,"is_disabled":false,"rental_uris":{"android":"levelo://app?vid=3b34aa3a-faa6-4a8d-a52d-3ed95a019a93","ios":"levelo://app?vid=3b34aa3a-faa6-4a8d-a52d-3ed95a019a93"},"vehicle_type_id":"4","last_reported":1756285834,"current_range_meters":6400,"station_id":"ce4bgn12rcd13ifvqbt0","pricing_plan_id":"cebpf4jnsgd1na2vs0mg"},{"bike_id":"b8dda495-18cf-42f1-bd04-efa774428487","system_id":"levelo_inurba_marseille","lat":43.28696,"lon":5.39989,"is_reserved":false,"is_disabled":false,"rental_uris":{"android":"levelo://app?vid=b8dda495-18cf-42f1-bd04-efa774428487","ios":"levelo://app?vid=b8dda495-18cf-42f1-bd04-efa774428487"},"vehicle_type_id":"4","last_reported":1756285834,"current_range_meters":6400,"station_id":"ce4bho92rcd13ifvqh3g","pricing_plan_id":"cebpf4jnsgd1na2vs0mg"},{"bike_id":"f4867917-eec3-4f3a-ad08-c213029c6f75","system_id":"levelo_inurba_marseille","lat":43.24648,"lon":5.38173,"is_reserved":false,"is_disabled":false,"rental_uris":{"android":"levelo://app?vid=f4867917-eec3-4f3a-ad08-c213029c6f75","ios":"levelo://app?vid=f4867917-eec3-4f3a-ad08-c213029c6f75"},"vehicle_type_id":"4","last_reported":1756285834,"current_range_meters":6800,"station_id":"ce4bhih2rcd13ifvqfr0","pricing_plan_id":"cebpf4jnsgd1na2vs0mg"},{"bike_id":"c7d4482f-13ce-4a4a-b182-42b73304212b","system_id":"levelo_inurba_marseille","lat":43.28145,"lon":5.42673,"is_reserved":false,"is_disabled":false,"rental_uris":{"android":"levelo://app?vid=c7d4482f-13ce-4a4a-b182-42b73304212b","ios":"levelo://app?vid=c7d4482f-13ce-4a4a-b182-42b73304212b"},"vehicle_type_id":"4","last_reported":1756285834,"current_range_meters":7200,"station_id":"ce4bhnh2rcd13ifvqgug","pricing_plan_id":"cebpf4jnsgd1na2vs0mg"},{"bike_id":"9ebbca0f-8b0f-49e0-bbc0-5934ebb0e846","system_id":"levelo_inurba_marseille","lat":43.212012,"lon":5.350686,"is_reserved":false,"is_disabled":false,"rental_uris":{"android":"levelo://app?vid=9ebbca0f-8b0f-49e0-bbc0-5934ebb0e846","ios":"levelo://app?vid=9ebbca0f-8b0f-49e0-bbc0-5934ebb0e846"},"vehicle_type_id":"4","last_reported":1756285834,"current_range_meters":7200,"station_id":"st_cvj6sg6p6f1abm77japg","pricing_plan_id":"cebpf4jnsgd1na2vs0mg"},{"bike_id":"edc4c588-4db1-4b48-bddb-0eba1d72ba9f","system_id":"levelo_inurba_marseille","lat":43.211939,"lon":5.350733,"is_reserved":false,"is_disabled":false,"rental_uris":{"android":"levelo://app?vid=edc4c588-4db1-4b48-bddb-0eba1d72ba9f","ios":"levelo://app?vid=edc4c588-4db1-4b48-bddb-0eba1d72ba9f"},"vehicle_type_id":"4","last_reported":1756285834,"current_range_meters":7200,"station_id":"st_cvj6sg6p6f1abm77japg","pricing_plan_id":"cebpf4jnsgd1na2vs0mg"},{"bike_id":"0e5f2cb1-fc2f-4562-87ed-c466396fe2da","system_id":"levelo_inurba_marseille","lat":43.28615,"lon":5.351013,"is_reserved":false,"is_disabled":false,"rental_uris":{"android":"levelo://app?vid=0e5f2cb1-fc2f-4562-87ed-c466396fe2da","ios":"levelo://app?vid=0e5f2cb1-fc2f-4562-87ed-c466396fe2da"},"vehicle_type_id":"4","last_reported":1756285834,"current_range_meters":7200,"station_id":"ce4bhch2rcd13ifvqeug","pricing_plan_id":"cebpf4jnsgd1na2vs0mg"},{"bike_id":"bda8e7f0-f4d9-4b8d-b5cd-b168d5b159fc","system_id":"levelo_inurba_marseille","lat":43.29571,"lon":5.37524,"is_reserved":false,"is_disabled":false,"rental_uris":{"android":"levelo://app?vid=bda8e7f0-f4d9-4b8d-b5cd-b168d5b159fc","ios":"levelo://app?vid=bda8e7f0-f4d9-4b8d-b5cd-b168d5b159fc"},"vehicle_type_id":"4","last_reported":1756285834,"current_range_meters":7200,"station_id":"ce4bgh92rcd13ifvqb50","pricing_plan_id":"cebpf4jnsgd1na2vs0mg"},{"bike_id":"f11f6d54-dd39-47f8-ae72-48be3bf5d417","system_id":"levelo_inurba_marseille","lat":43.30283,"lon":5.39185,"is_reserved":false,"is_disabled":false,"rental_uris":{"android":"levelo://app?vid=f11f6d54-dd39-47f8-ae72-48be3bf5d417","ios":"levelo://app?vid=f11f6d54-dd39-47f8-ae72-48be3bf5d417"},"vehicle_type_id":"4","last_reported":1756285834,"current_range_meters":6800,"station_id":"ce4bgkh2rcd13ifvqbk0","pricing_plan_id":"cebpf4jnsgd1na2vs0mg"},{"bike_id":"f781d014-afa9-4acc-b6f7-3670b0862de3","system_id":"levelo_inurba_marseille","lat":43.21218,"lon":5.35091,"is_reserved":false,"is_disabled":false,"rental_uris":{"android":"levelo://app?vid=f781d014-afa9-4acc-b6f7-3670b0862de3","ios":"levelo://app?vid=f781d014-afa9-4acc-b6f7-3670b0862de3"},"vehicle_type_id":"4","last_reported":1756285834,"current_range_meters":7200,"station_id":"st_cvj6sg6p6f1abm77japg","pricing_plan_id":"cebpf4jnsgd1na2vs0mg"},{"bike_id":"56595ce7-dcd4-4a75-a9fc-6f67ccf274af","system_id":"levelo_inurba_marseille","lat":43.30568,"lon":5.36548,"is_reserved":false,"is_disabled":false,"rental_uris":{"android":"levelo://app?vid=56595ce7-dcd4-4a75-a9fc-6f67ccf274af","ios":"levelo://app?vid=56595ce7-dcd4-4a75-a9fc-6f67ccf274af"},"vehicle_type_id":"4","last_reported":1756285834,"current_range_meters":8000,"station_id":"ce4bgs12rcd13ifvqcag","pricing_plan_id":"cebpf4jnsgd1na2vs0mg"},{"bike_id":"2be73999-d995-4bcb-b12c-302657f18f84","system_id":"levelo_inurba_marseille","lat":43.21748,"lon":5.34612,"is_reserved":false,"is_disabled":false,"rental_uris":{"android":"levelo://app?vid=2be73999-d995-4bcb-b12c-302657f18f84","ios":"levelo://app?vid=2be73999-d995-4bcb-b12c-302657f18f84"},"vehicle_type_id":"4","last_reported":1756285834,"current_range_meters":8000,"station_id":"st_cvj6r9ubvosntc0bgbag","pricing_plan_id":"cebpf4jnsgd1na2vs0mg"},{"bike_id":"a9301346-1f0c-4540-9a58-d11c8de8d091","system_id":"levelo_inurba_marseille","lat":43.30927,"lon":5.40146,"is_reserved":false,"is_disabled":false,"rental_uris":{"android":"levelo://app?vid=a9301346-1f0c-4540-9a58-d11c8de8d091","ios":"levelo://app?vid=a9301346-1f0c-4540-9a58-d11c8de8d091"},"vehicle_type_id":"4","last_reported":1756285834,"current_range_meters":7200,"station_id":"ce4bgvp2rcd13ifvqct0","pricing_plan_id":"cebpf4jnsgd1na2vs0mg"},{"bike_id":"ada496fa-f852-46e3-b14c-185cb7819f57","system_id":"levelo_inurba_marseille","lat":43.25,"lon":5.38926,"is_reserved":false,"is_disabled":false,"rental_uris":{"android":"levelo://app?vid=ada496fa-f852-46e3-b14c-185cb7819f57","ios":"levelo://app?vid=ada496fa-f852-46e3-b14c-185cb7819f57"},"vehicle_type_id":"4","last_reported":1756285834,"current_range_meters":8000,"station_id":"ce4bhgp2rcd13ifvqfd0","pricing_plan_id":"cebpf4jnsgd1na2vs0mg"},{"bike_id":"55c0acc4-1cf2-4b4f-a172-d60d99d81169","system_id":"levelo_inurba_marseille","lat":43.29516,"lon":5.37506,"is_reserved":false,"is_disabled":false,"rental_uris":{"android":"levelo://app?vid=55c0acc4-1cf2-4b4f-a172-d60d99d81169","ios":"levelo://app?vid=55c0acc4-1cf2-4b4f-a172-d60d99d81169"},"vehicle_type_id":"4","last_reported":1756285834,"current_range_meters":8000,"station_id":"ce4bgkp2rcd13ifvqbmg","pricing_plan_id":"cebpf4jnsgd1na2vs0mg"},{"bike_id":"325f6c5a-86a0-4b70-adef-ff6206674622","system_id":"levelo_inurba_marseille","lat":43.32348,"lon":5.36754,"is_reserved":false,"is_disabled":false,"rental_uris":{"android":"levelo://app?vid=325f6c5a-86a0-4b70-adef-ff6206674622","ios":"levelo://app?vid=325f6c5a-86a0-4b70-adef-ff6206674622"},"vehicle_type_id":"4","last_reported":1756285834,"current_range_meters":8800,"station_id":"ce4bhsh2rcd13ifvqi2g","pricing_plan_id":"cebpf4jnsgd1na2vs0mg"},{"bike_id":"0d502687-08ef-4491-8893-8a03d8688be8","system_id":"levelo_inurba_marseille","lat":43.29616,"lon":5.36136,"is_reserved":false,"is_disabled":false,"rental_uris":{"android":"levelo://app?vid=0d502687-08ef-4491-8893-8a03d8688be8","ios":"levelo://app?vid=0d502687-08ef-4491-8893-8a03d8688be8"},"vehicle_type_id":"4","last_reported":1756285834,"current_range_meters":8800,"station_id":"","pricing_plan_id":"cebpf4jnsgd1na2vs0mg"},{"bike_id":"69a01144-4cb0-4f43-b8a7-d8bba1210d75","system_id":"levelo_inurba_marseille","lat":43.315736,"lon":5.374659,"is_reserved":false,"is_disabled":false,"rental_uris":{"android":"levelo://app?vid=69a01144-4cb0-4f43-b8a7-d8bba1210d75","ios":"levelo://app?vid=69a01144-4cb0-4f43-b8a7-d8bba1210d75"},"vehicle_type_id":"4","last_reported":1756285834,"current_range_meters":8800,"station_id":"","pricing_plan_id":"cebpf4jnsgd1na2vs0mg"},{"bike_id":"cfd66be3-eb77-4fcb-9808-b084ac439d43","system_id":"levelo_inurba_marseille","lat":43.33764,"lon":5.37439,"is_reserved":false,"is_disabled":false,"rental_uris":{"android":"levelo://app?vid=cfd66be3-eb77-4fcb-9808-b084ac439d43","ios":"levelo://app?vid=cfd66be3-eb77-4fcb-9808-b084ac439d43"},"vehicle_type_id":"4","last_reported":1756285834,"current_range_meters":8800,"station_id":"","pricing_plan_id":"cebpf4jnsgd1na2vs0mg"},{"bike_id":"4dd4428e-edbe-4c5d-9dc1-a53e9a716334","system_id":"levelo_inurba_marseille","lat":43.22504,"lon":5.34787,"is_reserved":false,"is_disabled":false,"rental_uris":{"android":"levelo://app?vid=4dd4428e-edbe-4c5d-9dc1-a53e9a716334","ios":"levelo://app?vid=4dd4428e-edbe-4c5d-9dc1-a53e9a716334"},"vehicle_type_id":"4","last_reported":1756285834,"current_range_meters":9200,"station_id":"","pricing_plan_id":"cebpf4jnsgd1na2vs0mg"},{"bike_id":"f8b0380b-3be4-4af8-8fc3-ac932388d4bb","system_id":"levelo_inurba_marseille","lat":43.29572,"lon":5.37524,"is_reserved":false,"is_disabled":false,"rental_uris":{"android":"levelo://app?vid=f8b0380b-3be4-4af8-8fc3-ac932388d4bb","ios":"levelo://app?vid=f8b0380b-3be4-4af8-8fc3-ac932388d4bb"},"vehicle_type_id":"4","last_reported":1756285834,"current_range_meters":9200,"station_id":"ce4bgh92rcd13ifvqb50","pricing_plan_id":"cebpf4jnsgd1na2vs0mg"},{"bike_id":"245b795d-31ae-41e0-915e-b85d6758ed17","system_id":"levelo_inurba_marseille","lat":43.28616,"lon":5.35101,"is_reserved":false,"is_disabled":false,"rental_uris":{"android":"levelo://app?vid=245b795d-31ae-41e0-915e-b85d6758ed17","ios":"levelo://app?vid=245b795d-31ae-41e0-915e-b85d6758ed17"},"vehicle_type_id":"4","last_reported":1756285834,"current_range_meters":9200,"station_id":"ce4bhch2rcd13ifvqeug","pricing_plan_id":"cebpf4jnsgd1na2vs0mg"},{"bike_id":"51842e17-ef10-4624-a23e-c8a182427991","system_id":"levelo_inurba_marseille","lat":43.316124,"lon":5.382102,"is_reserved":false,"is_disabled":false,"rental_uris":{"android":"levelo://app?vid=51842e17-ef10-4624-a23e-c8a182427991","ios":"levelo://app?vid=51842e17-ef10-4624-a23e-c8a182427991"},"vehicle_type_id":"4","last_reported":1756285834,"current_range_meters":9600,"station_id":"","pricing_plan_id":"cebpf4jnsgd1na2vs0mg"},{"bike_id":"0f4b6f51-2fa2-4e4e-a14c-03a317e7cba4","system_id":"levelo_inurba_marseille","lat":43.296285,"lon":5.405921,"is_reserved":false,"is_disabled":false,"rental_uris":{"android":"levelo://app?vid=0f4b6f51-2fa2-4e4e-a14c-03a317e7cba4","ios":"levelo://app?vid=0f4b6f51-2fa2-4e4e-a14c-03a317e7cba4"},"vehicle_type_id":"4","last_reported":1756285834,"current_range_meters":9200,"station_id":"ce4bh0h2rcd13ifvqd60","pricing_plan_id":"cebpf4jnsgd1na2vs0mg"},{"bike_id":"2946103f-5c87-4ebd-b8c5-41b0ca768423","system_id":"levelo_inurba_marseille","lat":43.25815,"lon":5.39431,"is_reserved":false,"is_disabled":false,"rental_uris":{"android":"levelo://app?vid=2946103f-5c87-4ebd-b8c5-41b0ca768423","ios":"levelo://app?vid=2946103f-5c87-4ebd-b8c5-41b0ca768423"},"vehicle_type_id":"4","last_reported":1756285834,"current_range_meters":10000,"station_id":"ce4bhip2rcd13ifvqft0","pricing_plan_id":"cebpf4jnsgd1na2vs0mg"},{"bike_id":"254413ba-ba76-4b5d-8da9-f55a83f4ca59","system_id":"levelo_inurba_marseille","lat":43.33034,"lon":5.39044,"is_reserved":false,"is_disabled":false,"rental_uris":{"android":"levelo://app?vid=254413ba-ba76-4b5d-8da9-f55a83f4ca59","ios":"levelo://app?vid=254413ba-ba76-4b5d-8da9-f55a83f4ca59"},"vehicle_type_id":"4","last_reported":1756285834,"current_range_meters":10800,"station_id":"ce4bhr92rcd13ifvqhrg","pricing_plan_id":"cebpf4jnsgd1na2vs0mg"},{"bike_id":"fbf0e9b4-0244-4455-89e8-bb336b1646cf","system_id":"levelo_inurba_marseille","lat":43.231845,"lon":5.399866,"is_reserved":false,"is_disabled":false,"rental_uris":{"android":"levelo://app?vid=fbf0e9b4-0244-4455-89e8-bb336b1646cf","ios":"levelo://app?vid=fbf0e9b4-0244-4455-89e8-bb336b1646cf"},"vehicle_type_id":"4","last_reported":1756285834,"current_range_meters":10800,"station_id":"ce4bhn12rcd13ifvqgqg","pricing_plan_id":"cebpf4jnsgd1na2vs0mg"},{"bike_id":"c73d9183-822c-4a14-a8c1-53bf72c04baf","system_id":"levelo_inurba_marseille","lat":43.294212,"lon":5.432306,"is_reserved":false,"is_disabled":false,"rental_uris":{"android":"levelo://app?vid=c73d9183-822c-4a14-a8c1-53bf72c04baf","ios":"levelo://app?vid=c73d9183-822c-4a14-a8c1-53bf72c04baf"},"vehicle_type_id":"4","last_reported":1756285834,"current_range_meters":10800,"station_id":"","pricing_plan_id":"cebpf4jnsgd1na2vs0mg"},{"bike_id":"c8d1cea7-90db-41d1-855c-a5308f1afdcf","system_id":"levelo_inurba_marseille","lat":43.29259,"lon":5.38436,"is_reserved":false,"is_disabled":false,"rental_uris":{"android":"levelo://app?vid=c8d1cea7-90db-41d1-855c-a5308f1afdcf","ios":"levelo://app?vid=c8d1cea7-90db-41d1-855c-a5308f1afdcf"},"vehicle_type_id":"4","last_reported":1756285834,"current_range_meters":10800,"station_id":"ce4bh692rcd13ifvqea0","pricing_plan_id":"cebpf4jnsgd1na2vs0mg"},{"bike_id":"6b1581e2-1543-434c-b1e5-28d7a00a39b0","system_id":"levelo_inurba_marseille","lat":43.25352,"lon":5.42196,"is_reserved":false,"is_disabled":false,"rental_uris":{"android":"levelo://app?vid=6b1581e2-1543-434c-b1e5-28d7a00a39b0","ios":"levelo://app?vid=6b1581e2-1543-434c-b1e5-28d7a00a39b0"},"vehicle_type_id":"4","last_reported":1756285834,"current_range_meters":10800,"station_id":"st_d2m65c5bi1j21697t3ng","pricing_plan_id":"cebpf4jnsgd1na2vs0mg"},{"bike_id":"39002f5b-a23e-4630-90a0-e2481b8443c4","system_id":"levelo_inurba_marseille","lat":43.25006,"lon":5.389113,"is_reserved":false,"is_disabled":false,"rental_uris":{"android":"levelo://app?vid=39002f5b-a23e-4630-90a0-e2481b8443c4","ios":"levelo://app?vid=39002f5b-a23e-4630-90a0-e2481b8443c4"},"vehicle_type_id":"4","last_reported":1756285834,"current_range_meters":10800,"station_id":"","pricing_plan_id":"cebpf4jnsgd1na2vs0mg"},{"bike_id":"f0400c37-c7f6-4929-b1ac-d92430ff6f2d","system_id":"levelo_inurba_marseille","lat":43.275789,"lon":5.396773,"is_reserved":false,"is_disabled":false,"rental_uris":{"android":"levelo://app?vid=f0400c37-c7f6-4929-b1ac-d92430ff6f2d","ios":"levelo://app?vid=f0400c37-c7f6-4929-b1ac-d92430ff6f2d"},"vehicle_type_id":"4","last_reported":1756285834,"current_range_meters":11200,"station_id":"","pricing_plan_id":"cebpf4jnsgd1na2vs0mg"},{"bike_id":"1027bb83-a668-47de-9094-84302cb909d4","system_id":"levelo_inurba_marseille","lat":43.211869,"lon":5.350819,"is_reserved":false,"is_disabled":false,"rental_uris":{"android":"levelo://app?vid=1027bb83-a668-47de-9094-84302cb909d4","ios":"levelo://app?vid=1027bb83-a668-47de-9094-84302cb909d4"},"vehicle_type_id":"4","last_reported":1756285834,"current_range_meters":11200,"station_id":"st_cvj6sg6p6f1abm77japg","pricing_plan_id":"cebpf4jnsgd1na2vs0mg"},{"bike_id":"14947f10-51c9-4538-82c8-53a5bc644a0e","system_id":"levelo_inurba_marseille","lat":43.32047,"lon":5.4154,"is_reserved":false,"is_disabled":false,"rental_uris":{"android":"levelo://app?vid=14947f10-51c9-4538-82c8-53a5bc644a0e","ios":"levelo://app?vid=14947f10-51c9-4538-82c8-53a5bc644a0e"},"vehicle_type_id":"4","last_reported":1756285834,"current_range_meters":11200,"station_id":"ce4bhq92rcd13ifvqhkg","pricing_plan_id":"cebpf4jnsgd1na2vs0mg"},{"bike_id":"b5f0a13d-b9a0-4b3a-9db7-4069eda0ca61","system_id":"levelo_inurba_marseille","lat":43.27948,"lon":5.38682,"is_reserved":false,"is_disabled":false,"rental_uris":{"android":"levelo://app?vid=b5f0a13d-b9a0-4b3a-9db7-4069eda0ca61","ios":"levelo://app?vid=b5f0a13d-b9a0-4b3a-9db7-4069eda0ca61"},"vehicle_type_id":"4","last_reported":1756285834,"current_range_meters":11200,"station_id":"","pricing_plan_id":"cebpf4jnsgd1na2vs0mg"},{"bike_id":"35293f9d-ecc5-4090-ae0e-2e4ab9a73a16","system_id":"levelo_inurba_marseille","lat":43.323545,"lon":5.367406,"is_reserved":false,"is_disabled":false,"rental_uris":{"android":"levelo://app?vid=35293f9d-ecc5-4090-ae0e-2e4ab9a73a16","ios":"levelo://app?vid=35293f9d-ecc5-4090-ae0e-2e4ab9a73a16"},"vehicle_type_id":"4","last_reported":1756285834,"current_range_meters":11200,"station_id":"ce4bhsh2rcd13ifvqi2g","pricing_plan_id":"cebpf4jnsgd1na2vs0mg"},{"bike_id":"777a8c83-aed8-4881-84b6-34465956e738","system_id":"levelo_inurba_marseille","lat":43.257391,"lon":5.410103,"is_reserved":false,"is_disabled":false,"rental_uris":{"android":"levelo://app?vid=777a8c83-aed8-4881-84b6-34465956e738","ios":"levelo://app?vid=777a8c83-aed8-4881-84b6-34465956e738"},"vehicle_type_id":"4","last_reported":1756285834,"current_range_meters":11200,"station_id":"","pricing_plan_id":"cebpf4jnsgd1na2vs0mg"},{"bike_id":"1d7023ef-959e-48df-b075-0a4bd90cc9ae","system_id":"levelo_inurba_marseille","lat":43.27365,"lon":5.36253,"is_reserved":false,"is_disabled":true,"rental_uris":{"android":"levelo://app?vid=1d7023ef-959e-48df-b075-0a4bd90cc9ae","ios":"levelo://app?vid=1d7023ef-959e-48df-b075-0a4bd90cc9ae"},"vehicle_type_id":"4","last_reported":1756285834,"current_range_meters":11600,"station_id":"ce4bhbh2rcd13ifvqeo0","pricing_plan_id":"cebpf4jnsgd1na2vs0mg"},{"bike_id":"36027678-2afc-42cd-bd77-0435d7b1d3b7","system_id":"levelo_inurba_marseille","lat":43.284434,"lon":5.391876,"is_reserved":false,"is_disabled":false,"rental_uris":{"android":"levelo://app?vid=36027678-2afc-42cd-bd77-0435d7b1d3b7","ios":"levelo://app?vid=36027678-2afc-42cd-bd77-0435d7b1d3b7"},"vehicle_type_id":"4","last_reported":1756285834,"current_range_meters":11200,"station_id":"ce4bhoh2rcd13ifvqh5g","pricing_plan_id":"cebpf4jnsgd1na2vs0mg"},{"bike_id":"f1092f36-efc5-414e-ba2d-06797cfbed04","system_id":"levelo_inurba_marseille","lat":43.27961,"lon":5.38749,"is_reserved":false,"is_disabled":false,"rental_uris":{"android":"levelo://app?vid=f1092f36-efc5-414e-ba2d-06797cfbed04","ios":"levelo://app?vid=f1092f36-efc5-414e-ba2d-06797cfbed04"},"vehicle_type_id":"4","last_reported":1756285834,"current_range_meters":11600,"station_id":"ce4bhg12rcd13ifvqf80","pricing_plan_id":"cebpf4jnsgd1na2vs0mg"},{"bike_id":"fa1aad9e-53b1-4b38-b8e7-4bbee7c6989c","system_id":"levelo_inurba_marseille","lat":43.313587,"lon":5.384957,"is_reserved":false,"is_disabled":false,"rental_uris":{"android":"levelo://app?vid=fa1aad9e-53b1-4b38-b8e7-4bbee7c6989c","ios":"levelo://app?vid=fa1aad9e-53b1-4b38-b8e7-4bbee7c6989c"},"vehicle_type_id":"4","last_reported":1756285834,"current_range_meters":11200,"station_id":"ce4bgt92rcd13ifvqcf0","pricing_plan_id":"cebpf4jnsgd1na2vs0mg"},{"bike_id":"e337d582-364a-4312-af91-67d0c81052aa","system_id":"levelo_inurba_marseille","lat":43.32521,"lon":5.36452,"is_reserved":false,"is_disabled":false,"rental_uris":{"android":"levelo://app?vid=e337d582-364a-4312-af91-67d0c81052aa","ios":"levelo://app?vid=e337d582-364a-4312-af91-67d0c81052aa"},"vehicle_type_id":"4","last_reported":1756285834,"current_range_meters":11600,"station_id":"","pricing_plan_id":"cebpf4jnsgd1na2vs0mg"},{"bike_id":"02a9c027-9f59-46d0-bafc-c73ed7a44e8f","system_id":"levelo_inurba_marseille","lat":43.25862,"lon":5.39898,"is_reserved":false,"is_disabled":false,"rental_uris":{"android":"levelo://app?vid=02a9c027-9f59-46d0-bafc-c73ed7a44e8f","ios":"levelo://app?vid=02a9c027-9f59-46d0-bafc-c73ed7a44e8f"},"vehicle_type_id":"4","last_reported":1756285834,"current_range_meters":12000,"station_id":"ce4bhl92rcd13ifvqghg","pricing_plan_id":"cebpf4jnsgd1na2vs0mg"},{"bike_id":"532cce87-fa0c-4713-b2a7-c2e8a86b6b5b","system_id":"levelo_inurba_marseille","lat":43.24186,"lon":5.39749,"is_reserved":false,"is_disabled":false,"rental_uris":{"android":"levelo://app?vid=532cce87-fa0c-4713-b2a7-c2e8a86b6b5b","ios":"levelo://app?vid=532cce87-fa0c-4713-b2a7-c2e8a86b6b5b"},"vehicle_type_id":"4","last_reported":1756285834,"current_range_meters":12000,"station_id":"ce4bhn12rcd13ifvqgpg","pricing_plan_id":"cebpf4jnsgd1na2vs0mg"},{"bike_id":"444185a1-99b2-4724-a588-1f691746c053","system_id":"levelo_inurba_marseille","lat":43.270824,"lon":5.422687,"is_reserved":false,"is_disabled":false,"rental_uris":{"android":"levelo://app?vid=444185a1-99b2-4724-a588-1f691746c053","ios":"levelo://app?vid=444185a1-99b2-4724-a588-1f691746c053"},"vehicle_type_id":"4","last_reported":1756285834,"current_range_meters":12400,"station_id":"ce4bhk92rcd13ifvqgb0","pricing_plan_id":"cebpf4jnsgd1na2vs0mg"},{"bike_id":"e8a5a1f4-249e-4c95-a825-c6e6fe5ffe8e","system_id":"levelo_inurba_marseille","lat":43.25853,"lon":5.39893,"is_reserved":false,"is_disabled":false,"rental_uris":{"android":"levelo://app?vid=e8a5a1f4-249e-4c95-a825-c6e6fe5ffe8e","ios":"levelo://app?vid=e8a5a1f4-249e-4c95-a825-c6e6fe5ffe8e"},"vehicle_type_id":"4","last_reported":1756285834,"current_range_meters":12400,"station_id":"ce4bhl92rcd13ifvqghg","pricing_plan_id":"cebpf4jnsgd1na2vs0mg"},{"bike_id":"5bce688b-fc81-4596-8277-b66f54be87c1","system_id":"levelo_inurba_marseille","lat":43.33768,"lon":5.37438,"is_reserved":false,"is_disabled":false,"rental_uris":{"android":"levelo://app?vid=5bce688b-fc81-4596-8277-b66f54be87c1","ios":"levelo://app?vid=5bce688b-fc81-4596-8277-b66f54be87c1"},"vehicle_type_id":"4","last_reported":1756285834,"current_range_meters":12400,"station_id":"","pricing_plan_id":"cebpf4jnsgd1na2vs0mg"},{"bike_id":"483be29b-4d73-44fe-be89-87d7446fc13f","system_id":"levelo_inurba_marseille","lat":43.25335,"lon":5.42172,"is_reserved":false,"is_disabled":false,"rental_uris":{"android":"levelo://app?vid=483be29b-4d73-44fe-be89-87d7446fc13f","ios":"levelo://app?vid=483be29b-4d73-44fe-be89-87d7446fc13f"},"vehicle_type_id":"4","last_reported":1756285834,"current_range_meters":12400,"station_id":"st_d2m65c5bi1j21697t3ng","pricing_plan_id":"cebpf4jnsgd1na2vs0mg"},{"bike_id":"b79f626f-4cce-45e0-9b7e-79f3f3a6033f","system_id":"levelo_inurba_marseille","lat":43.24623,"lon":5.43154,"is_reserved":false,"is_disabled":false,"rental_uris":{"android":"levelo://app?vid=b79f626f-4cce-45e0-9b7e-79f3f3a6033f","ios":"levelo://app?vid=b79f626f-4cce-45e0-9b7e-79f3f3a6033f"},"vehicle_type_id":"4","last_reported":1756285834,"current_range_meters":12800,"station_id":"st_d2m6c4gdas8pm72e190g","pricing_plan_id":"cebpf4jnsgd1na2vs0mg"},{"bike_id":"13e5ff1d-b71b-4af9-9648-f26b19993b5e","system_id":"levelo_inurba_marseille","lat":43.30997,"lon":5.3831,"is_reserved":false,"is_disabled":false,"rental_uris":{"android":"levelo://app?vid=13e5ff1d-b71b-4af9-9648-f26b19993b5e","ios":"levelo://app?vid=13e5ff1d-b71b-4af9-9648-f26b19993b5e"},"vehicle_type_id":"4","last_reported":1756285834,"current_range_meters":12800,"station_id":"","pricing_plan_id":"cebpf4jnsgd1na2vs0mg"},{"bike_id":"e71745a0-e1dd-46b2-b178-c77ff9f67425","system_id":"levelo_inurba_marseille","lat":43.23189,"lon":5.39979,"is_reserved":false,"is_disabled":false,"rental_uris":{"android":"levelo://app?vid=e71745a0-e1dd-46b2-b178-c77ff9f67425","ios":"levelo://app?vid=e71745a0-e1dd-46b2-b178-c77ff9f67425"},"vehicle_type_id":"4","last_reported":1756285834,"current_range_meters":12800,"station_id":"ce4bhn12rcd13ifvqgqg","pricing_plan_id":"cebpf4jnsgd1na2vs0mg"},{"bike_id":"b047118e-f59a-4971-9824-5b5aa93f0ac9","system_id":"levelo_inurba_marseille","lat":43.23152,"lon":5.43714,"is_reserved":false,"is_disabled":false,"rental_uris":{"android":"levelo://app?vid=b047118e-f59a-4971-9824-5b5aa93f0ac9","ios":"levelo://app?vid=b047118e-f59a-4971-9824-5b5aa93f0ac9"},"vehicle_type_id":"4","last_reported":1756285834,"current_range_meters":12800,"station_id":"ce4bhmp2rcd13ifvqgog","pricing_plan_id":"cebpf4jnsgd1na2vs0mg"},{"bike_id":"14a5d2b2-732e-4ae6-ae16-0991d5770306","system_id":"levelo_inurba_marseille","lat":43.26947,"lon":5.38632,"is_reserved":false,"is_disabled":false,"rental_uris":{"android":"levelo://app?vid=14a5d2b2-732e-4ae6-ae16-0991d5770306","ios":"levelo://app?vid=14a5d2b2-732e-4ae6-ae16-0991d5770306"},"vehicle_type_id":"4","last_reported":1756285834,"current_range_meters":12800,"station_id":"ce4bhh92rcd13ifvqfh0","pricing_plan_id":"cebpf4jnsgd1na2vs0mg"},{"bike_id":"55806391-7b33-41cb-9701-b69f3515bef3","system_id":"levelo_inurba_marseille","lat":43.25937,"lon":5.40919,"is_reserved":false,"is_disabled":false,"rental_uris":{"android":"levelo://app?vid=55806391-7b33-41cb-9701-b69f3515bef3","ios":"levelo://app?vid=55806391-7b33-41cb-9701-b69f3515bef3"},"vehicle_type_id":"4","last_reported":1756285834,"current_range_meters":12800,"station_id":"ce4bhm92rcd13ifvqglg","pricing_plan_id":"cebpf4jnsgd1na2vs0mg"},{"bike_id":"031e26f3-03ec-4194-b5b8-dc1399c9474d","system_id":"levelo_inurba_marseille","lat":43.295255,"lon":5.39422,"is_reserved":false,"is_disabled":false,"rental_uris":{"android":"levelo://app?vid=031e26f3-03ec-4194-b5b8-dc1399c9474d","ios":"levelo://app?vid=031e26f3-03ec-4194-b5b8-dc1399c9474d"},"vehicle_type_id":"4","last_reported":1756285834,"current_range_meters":13600,"station_id":"ce4bh292rcd13ifvqdf0","pricing_plan_id":"cebpf4jnsgd1na2vs0mg"},{"bike_id":"575187ef-edf3-4cae-91ee-8cbe54cf7ad4","system_id":"levelo_inurba_marseille","lat":43.30165,"lon":5.3807,"is_reserved":false,"is_disabled":false,"rental_uris":{"android":"levelo://app?vid=575187ef-edf3-4cae-91ee-8cbe54cf7ad4","ios":"levelo://app?vid=575187ef-edf3-4cae-91ee-8cbe54cf7ad4"},"vehicle_type_id":"4","last_reported":1756285834,"current_range_meters":13600,"station_id":"ce4bgjp2rcd13ifvqbh0","pricing_plan_id":"cebpf4jnsgd1na2vs0mg"},{"bike_id":"a7a53c19-66aa-4d2e-85c1-ae889e6d2638","system_id":"levelo_inurba_marseille","lat":43.30792,"lon":5.43553,"is_reserved":false,"is_disabled":false,"rental_uris":{"android":"levelo://app?vid=a7a53c19-66aa-4d2e-85c1-ae889e6d2638","ios":"levelo://app?vid=a7a53c19-66aa-4d2e-85c1-ae889e6d2638"},"vehicle_type_id":"4","last_reported":1756285834,"current_range_meters":13600,"station_id":"ce4bhph2rcd13ifvqheg","pricing_plan_id":"cebpf4jnsgd1na2vs0mg"},{"bike_id":"a68cec79-2402-470c-bcd8-ef59a442a6c0","system_id":"levelo_inurba_marseille","lat":43.26943,"lon":5.38637,"is_reserved":false,"is_disabled":false,"rental_uris":{"android":"levelo://app?vid=a68cec79-2402-470c-bcd8-ef59a442a6c0","ios":"levelo://app?vid=a68cec79-2402-470c-bcd8-ef59a442a6c0"},"vehicle_type_id":"4","last_reported":1756285834,"current_range_meters":14000,"station_id":"ce4bhh92rcd13ifvqfh0","pricing_plan_id":"cebpf4jnsgd1na2vs0mg"},{"bike_id":"d3533003-56f4-43b4-92f5-a95ec633dd6b","system_id":"levelo_inurba_marseille","lat":43.24669,"lon":5.38189,"is_reserved":false,"is_disabled":false,"rental_uris":{"android":"levelo://app?vid=d3533003-56f4-43b4-92f5-a95ec633dd6b","ios":"levelo://app?vid=d3533003-56f4-43b4-92f5-a95ec633dd6b"},"vehicle_type_id":"4","last_reported":1756285834,"current_range_meters":14000,"station_id":"ce4bhih2rcd13ifvqfr0","pricing_plan_id":"cebpf4jnsgd1na2vs0mg"},{"bike_id":"af732ca8-2cea-448a-9928-59e03d12656f","system_id":"levelo_inurba_marseille","lat":43.33478,"lon":5.35997,"is_reserved":false,"is_disabled":false,"rental_uris":{"android":"levelo://app?vid=af732ca8-2cea-448a-9928-59e03d12656f","ios":"levelo://app?vid=af732ca8-2cea-448a-9928-59e03d12656f"},"vehicle_type_id":"4","last_reported":1756285834,"current_range_meters":14000,"station_id":"","pricing_plan_id":"cebpf4jnsgd1na2vs0mg"},{"bike_id":"8b076876-1e74-46de-8534-d3c1af20256b","system_id":"levelo_inurba_marseille","lat":43.28409,"lon":5.37523,"is_reserved":false,"is_disabled":false,"rental_uris":{"android":"levelo://app?vid=8b076876-1e74-46de-8534-d3c1af20256b","ios":"levelo://app?vid=8b076876-1e74-46de-8534-d3c1af20256b"},"vehicle_type_id":"4","last_reported":1756285834,"current_range_meters":14000,"station_id":"ce4bh9p2rcd13ifvqec0","pricing_plan_id":"cebpf4jnsgd1na2vs0mg"},{"bike_id":"4e368d10-eeb8-4606-a479-3212399571b3","system_id":"levelo_inurba_marseille","lat":43.287095,"lon":5.379248,"is_reserved":false,"is_disabled":false,"rental_uris":{"android":"levelo://app?vid=4e368d10-eeb8-4606-a479-3212399571b3","ios":"levelo://app?vid=4e368d10-eeb8-4606-a479-3212399571b3"},"vehicle_type_id":"4","last_reported":1756285834,"current_range_meters":14000,"station_id":"ce4bh9p2rcd13ifvqec0","pricing_plan_id":"cebpf4jnsgd1na2vs0mg"},{"bike_id":"9194a3fc-172d-4f97-875f-7949f6a67c46","system_id":"levelo_inurba_marseille","lat":43.2919,"lon":5.39317,"is_reserved":false,"is_disabled":false,"rental_uris":{"android":"levelo://app?vid=9194a3fc-172d-4f97-875f-7949f6a67c46","ios":"levelo://app?vid=9194a3fc-172d-4f97-875f-7949f6a67c46"},"vehicle_type_id":"4","last_reported":1756285834,"current_range_meters":14400,"station_id":"ce4bh192rcd13ifvqdd0","pricing_plan_id":"cebpf4jnsgd1na2vs0mg"},{"bike_id":"dcd1879e-ac5d-4aa0-bf26-5aa5113abe6e","system_id":"levelo_inurba_marseille","lat":43.270525,"lon":5.402593,"is_reserved":false,"is_disabled":false,"rental_uris":{"android":"levelo://app?vid=dcd1879e-ac5d-4aa0-bf26-5aa5113abe6e","ios":"levelo://app?vid=dcd1879e-ac5d-4aa0-bf26-5aa5113abe6e"},"vehicle_type_id":"4","last_reported":1756285834,"current_range_meters":14400,"station_id":"ce4bhk92rcd13ifvqgc0","pricing_plan_id":"cebpf4jnsgd1na2vs0mg"},{"bike_id":"e5eabf25-4e1c-476e-b130-9f83cdcfc80c","system_id":"levelo_inurba_marseille","lat":43.2979,"lon":5.41694,"is_reserved":false,"is_disabled":false,"rental_uris":{"android":"levelo://app?vid=e5eabf25-4e1c-476e-b130-9f83cdcfc80c","ios":"levelo://app?vid=e5eabf25-4e1c-476e-b130-9f83cdcfc80c"},"vehicle_type_id":"4","last_reported":1756285834,"current_range_meters":14400,"station_id":"","pricing_plan_id":"cebpf4jnsgd1na2vs0mg"},{"bike_id":"16db3cd1-2aa5-4592-9099-d35f9ffe2759","system_id":"levelo_inurba_marseille","lat":43.29955,"lon":5.41317,"is_reserved":false,"is_disabled":false,"rental_uris":{"android":"levelo://app?vid=16db3cd1-2aa5-4592-9099-d35f9ffe2759","ios":"levelo://app?vid=16db3cd1-2aa5-4592-9099-d35f9ffe2759"},"vehicle_type_id":"4","last_reported":1756285834,"current_range_meters":14400,"station_id":"ce4bhp12rcd13ifvqh9g","pricing_plan_id":"cebpf4jnsgd1na2vs0mg"},{"bike_id":"340a9b23-272d-4c62-bf85-1c742eb23eb5","system_id":"levelo_inurba_marseille","lat":43.28416,"lon":5.35,"is_reserved":false,"is_disabled":false,"rental_uris":{"android":"levelo://app?vid=340a9b23-272d-4c62-bf85-1c742eb23eb5","ios":"levelo://app?vid=340a9b23-272d-4c62-bf85-1c742eb23eb5"},"vehicle_type_id":"4","last_reported":1756285834,"current_range_meters":14400,"station_id":"ce4bhbh2rcd13ifvqepg","pricing_plan_id":"cebpf4jnsgd1na2vs0mg"},{"bike_id":"3448e159-471f-45cf-b0bc-dcb672574311","system_id":"levelo_inurba_marseille","lat":43.2617,"lon":5.37468,"is_reserved":false,"is_disabled":true,"rental_uris":{"android":"levelo://app?vid=3448e159-471f-45cf-b0bc-dcb672574311","ios":"levelo://app?vid=3448e159-471f-45cf-b0bc-dcb672574311"},"vehicle_type_id":"4","last_reported":1756285834,"current_range_meters":14400,"station_id":"ce4bhgp2rcd13ifvqfc0","pricing_plan_id":"cebpf4jnsgd1na2vs0mg"},{"bike_id":"0306ba73-3d0f-4523-9d11-9a4554b2d8ff","system_id":"levelo_inurba_marseille","lat":43.21225,"lon":5.35094,"is_reserved":false,"is_disabled":false,"rental_uris":{"android":"levelo://app?vid=0306ba73-3d0f-4523-9d11-9a4554b2d8ff","ios":"levelo://app?vid=0306ba73-3d0f-4523-9d11-9a4554b2d8ff"},"vehicle_type_id":"4","last_reported":1756285834,"current_range_meters":14400,"station_id":"st_cvj6sg6p6f1abm77japg","pricing_plan_id":"cebpf4jnsgd1na2vs0mg"},{"bike_id":"250fadb4-a816-429f-b1c0-b8d1d23ec0c9","system_id":"levelo_inurba_marseille","lat":43.29625,"lon":5.37722,"is_reserved":false,"is_disabled":false,"rental_uris":{"android":"levelo://app?vid=250fadb4-a816-429f-b1c0-b8d1d23ec0c9","ios":"levelo://app?vid=250fadb4-a816-429f-b1c0-b8d1d23ec0c9"},"vehicle_type_id":"4","last_reported":1756285834,"current_range_meters":14400,"station_id":"ce4bgi92rcd13ifvqb90","pricing_plan_id":"cebpf4jnsgd1na2vs0mg"},{"bike_id":"85ae633d-4673-4f22-9f76-ddbaafd7d09f","system_id":"levelo_inurba_marseille","lat":43.24071,"lon":5.37765,"is_reserved":false,"is_disabled":false,"rental_uris":{"android":"levelo://app?vid=85ae633d-4673-4f22-9f76-ddbaafd7d09f","ios":"levelo://app?vid=85ae633d-4673-4f22-9f76-ddbaafd7d09f"},"vehicle_type_id":"4","last_reported":1756285834,"current_range_meters":14400,"station_id":"ce4bhnp2rcd13ifvqgvg","pricing_plan_id":"cebpf4jnsgd1na2vs0mg"},{"bike_id":"b5ae0016-67e1-4c37-91cb-4d986fbc09a4","system_id":"levelo_inurba_marseille","lat":43.24614,"lon":5.43129,"is_reserved":false,"is_disabled":false,"rental_uris":{"android":"levelo://app?vid=b5ae0016-67e1-4c37-91cb-4d986fbc09a4","ios":"levelo://app?vid=b5ae0016-67e1-4c37-91cb-4d986fbc09a4"},"vehicle_type_id":"4","last_reported":1756285834,"current_range_meters":14800,"station_id":"st_d2m6c4gdas8pm72e190g","pricing_plan_id":"cebpf4jnsgd1na2vs0mg"},{"bike_id":"43215e1a-2a2c-44b3-906b-d3cd7d18e500","system_id":"levelo_inurba_marseille","lat":43.24395,"lon":5.37074,"is_reserved":false,"is_disabled":false,"rental_uris":{"android":"levelo://app?vid=43215e1a-2a2c-44b3-906b-d3cd7d18e500","ios":"levelo://app?vid=43215e1a-2a2c-44b3-906b-d3cd7d18e500"},"vehicle_type_id":"4","last_reported":1756285834,"current_range_meters":14800,"station_id":"ce4bhhh2rcd13ifvqfk0","pricing_plan_id":"cebpf4jnsgd1na2vs0mg"},{"bike_id":"d9d572f7-d811-4b4d-9ec5-cb85e6210f42","system_id":"levelo_inurba_marseille","lat":43.32092,"lon":5.36788,"is_reserved":false,"is_disabled":false,"rental_uris":{"android":"levelo://app?vid=d9d572f7-d811-4b4d-9ec5-cb85e6210f42","ios":"levelo://app?vid=d9d572f7-d811-4b4d-9ec5-cb85e6210f42"},"vehicle_type_id":"4","last_reported":1756285834,"current_range_meters":14800,"station_id":"ce4bhrh2rcd13ifvqhug","pricing_plan_id":"cebpf4jnsgd1na2vs0mg"},{"bike_id":"685105d1-bcda-4899-9d64-d94adf158a64","system_id":"levelo_inurba_marseille","lat":43.314676,"lon":5.373608,"is_reserved":false,"is_disabled":true,"rental_uris":{"android":"levelo://app?vid=685105d1-bcda-4899-9d64-d94adf158a64","ios":"levelo://app?vid=685105d1-bcda-4899-9d64-d94adf158a64"},"vehicle_type_id":"4","last_reported":1756285834,"current_range_meters":15200,"station_id":"","pricing_plan_id":"cebpf4jnsgd1na2vs0mg"},{"bike_id":"b5133710-52a6-42c6-b487-40f265b37cba","system_id":"levelo_inurba_marseille","lat":43.30794,"lon":5.43531,"is_reserved":false,"is_disabled":false,"rental_uris":{"android":"levelo://app?vid=b5133710-52a6-42c6-b487-40f265b37cba","ios":"levelo://app?vid=b5133710-52a6-42c6-b487-40f265b37cba"},"vehicle_type_id":"4","last_reported":1756285834,"current_range_meters":15200,"station_id":"ce4bhph2rcd13ifvqheg","pricing_plan_id":"cebpf4jnsgd1na2vs0mg"},{"bike_id":"1dec5f96-d953-4203-b13d-0ce3f02e61a0","system_id":"levelo_inurba_marseille","lat":43.27069,"lon":5.4227,"is_reserved":false,"is_disabled":false,"rental_uris":{"android":"levelo://app?vid=1dec5f96-d953-4203-b13d-0ce3f02e61a0","ios":"levelo://app?vid=1dec5f96-d953-4203-b13d-0ce3f02e61a0"},"vehicle_type_id":"4","last_reported":1756285834,"current_range_meters":15200,"station_id":"ce4bhk92rcd13ifvqgb0","pricing_plan_id":"cebpf4jnsgd1na2vs0mg"},{"bike_id":"de67e3dd-130e-44ea-bf06-0b251e40c7f3","system_id":"levelo_inurba_marseille","lat":43.284708,"lon":5.384195,"is_reserved":false,"is_disabled":false,"rental_uris":{"android":"levelo://app?vid=de67e3dd-130e-44ea-bf06-0b251e40c7f3","ios":"levelo://app?vid=de67e3dd-130e-44ea-bf06-0b251e40c7f3"},"vehicle_type_id":"4","last_reported":1756285834,"current_range_meters":15200,"station_id":"ce4bh492rcd13ifvqdvg","pricing_plan_id":"cebpf4jnsgd1na2vs0mg"},{"bike_id":"3ce18fbc-ec38-4f9e-9dd9-9a3dee5c503d","system_id":"levelo_inurba_marseille","lat":43.2598,"lon":5.37551,"is_reserved":false,"is_disabled":true,"rental_uris":{"android":"levelo://app?vid=3ce18fbc-ec38-4f9e-9dd9-9a3dee5c503d","ios":"levelo://app?vid=3ce18fbc-ec38-4f9e-9dd9-9a3dee5c503d"},"vehicle_type_id":"4","last_reported":1756285834,"current_range_meters":15200,"station_id":"ce4bhgh2rcd13ifvqfa0","pricing_plan_id":"cebpf4jnsgd1na2vs0mg"},{"bike_id":"3dff11d5-3872-4ffe-8cce-b5631d6c6058","system_id":"levelo_inurba_marseille","lat":43.32661,"lon":5.39183,"is_reserved":false,"is_disabled":false,"rental_uris":{"android":"levelo://app?vid=3dff11d5-3872-4ffe-8cce-b5631d6c6058","ios":"levelo://app?vid=3dff11d5-3872-4ffe-8cce-b5631d6c6058"},"vehicle_type_id":"4","last_reported":1756285834,"current_range_meters":15200,"station_id":"","pricing_plan_id":"cebpf4jnsgd1na2vs0mg"},{"bike_id":"8079f073-5aac-4cb3-9847-29b712a8cf4e","system_id":"levelo_inurba_marseille","lat":43.27054,"lon":5.40269,"is_reserved":false,"is_disabled":false,"rental_uris":{"android":"levelo://app?vid=8079f073-5aac-4cb3-9847-29b712a8cf4e","ios":"levelo://app?vid=8079f073-5aac-4cb3-9847-29b712a8cf4e"},"vehicle_type_id":"4","last_reported":1756285834,"current_range_meters":15200,"station_id":"ce4bhk92rcd13ifvqgc0","pricing_plan_id":"cebpf4jnsgd1na2vs0mg"},{"bike_id":"4c979ace-3197-4c20-aa8f-33d99f6a515b","system_id":"levelo_inurba_marseille","lat":43.31754,"lon":5.39013,"is_reserved":false,"is_disabled":false,"rental_uris":{"android":"levelo://app?vid=4c979ace-3197-4c20-aa8f-33d99f6a515b","ios":"levelo://app?vid=4c979ace-3197-4c20-aa8f-33d99f6a515b"},"vehicle_type_id":"4","last_reported":1756285834,"current_range_meters":15200,"station_id":"ce4bhqp2rcd13ifvqhng","pricing_plan_id":"cebpf4jnsgd1na2vs0mg"},{"bike_id":"9cee6ac4-b323-4dc3-9e81-cfd228e75a7f","system_id":"levelo_inurba_marseille","lat":43.3107,"lon":5.38907,"is_reserved":false,"is_disabled":false,"rental_uris":{"android":"levelo://app?vid=9cee6ac4-b323-4dc3-9e81-cfd228e75a7f","ios":"levelo://app?vid=9cee6ac4-b323-4dc3-9e81-cfd228e75a7f"},"vehicle_type_id":"4","last_reported":1756285834,"current_range_meters":16000,"station_id":"","pricing_plan_id":"cebpf4jnsgd1na2vs0mg"},{"bike_id":"9e39c44e-cf49-4782-8537-cf9f64cdf7e9","system_id":"levelo_inurba_marseille","lat":43.284058,"lon":5.375109,"is_reserved":false,"is_disabled":false,"rental_uris":{"android":"levelo://app?vid=9e39c44e-cf49-4782-8537-cf9f64cdf7e9","ios":"levelo://app?vid=9e39c44e-cf49-4782-8537-cf9f64cdf7e9"},"vehicle_type_id":"4","last_reported":1756285834,"current_range_meters":16000,"station_id":"ce4bh9p2rcd13ifvqec0","pricing_plan_id":"cebpf4jnsgd1na2vs0mg"},{"bike_id":"05333f1f-8cc0-4dc9-bbd8-a1f0e18ceb88","system_id":"levelo_inurba_marseille","lat":43.262904,"lon":5.398975,"is_reserved":false,"is_disabled":false,"rental_uris":{"android":"levelo://app?vid=05333f1f-8cc0-4dc9-bbd8-a1f0e18ceb88","ios":"levelo://app?vid=05333f1f-8cc0-4dc9-bbd8-a1f0e18ceb88"},"vehicle_type_id":"4","last_reported":1756285834,"current_range_meters":16000,"station_id":"","pricing_plan_id":"cebpf4jnsgd1na2vs0mg"},{"bike_id":"70725e45-1278-4337-bab4-392de6291b76","system_id":"levelo_inurba_marseille","lat":43.27809,"lon":5.40693,"is_reserved":false,"is_disabled":false,"rental_uris":{"android":"levelo://app?vid=70725e45-1278-4337-bab4-392de6291b76","ios":"levelo://app?vid=70725e45-1278-4337-bab4-392de6291b76"},"vehicle_type_id":"4","last_reported":1756285834,"current_range_meters":16000,"station_id":"ce4bhnh2rcd13ifvqgtg","pricing_plan_id":"cebpf4jnsgd1na2vs0mg"},{"bike_id":"5c26a54e-1e97-4ad3-a16d-614ad930b130","system_id":"levelo_inurba_marseille","lat":43.321028,"lon":5.367692,"is_reserved":false,"is_disabled":false,"rental_uris":{"android":"levelo://app?vid=5c26a54e-1e97-4ad3-a16d-614ad930b130","ios":"levelo://app?vid=5c26a54e-1e97-4ad3-a16d-614ad930b130"},"vehicle_type_id":"4","last_reported":1756285834,"current_range_meters":16400,"station_id":"ce4bhrh2rcd13ifvqhug","pricing_plan_id":"cebpf4jnsgd1na2vs0mg"},{"bike_id":"eda33e1e-7b00-4533-90c8-87bc23ff2bc4","system_id":"levelo_inurba_marseille","lat":43.2903,"lon":5.37566,"is_reserved":false,"is_disabled":false,"rental_uris":{"android":"levelo://app?vid=eda33e1e-7b00-4533-90c8-87bc23ff2bc4","ios":"levelo://app?vid=eda33e1e-7b00-4533-90c8-87bc23ff2bc4"},"vehicle_type_id":"4","last_reported":1756285834,"current_range_meters":16400,"station_id":"ce4bh692rcd13ifvqe90","pricing_plan_id":"cebpf4jnsgd1na2vs0mg"},{"bike_id":"71136ea1-3aaf-4521-8084-554abe261412","system_id":"levelo_inurba_marseille","lat":43.303037,"lon":5.369059,"is_reserved":false,"is_disabled":true,"rental_uris":{"android":"levelo://app?vid=71136ea1-3aaf-4521-8084-554abe261412","ios":"levelo://app?vid=71136ea1-3aaf-4521-8084-554abe261412"},"vehicle_type_id":"4","last_reported":1756285834,"current_range_meters":16400,"station_id":"","pricing_plan_id":"cebpf4jnsgd1na2vs0mg"},{"bike_id":"fc33c77b-a9d9-4a1b-847c-adcfbe10f61e","system_id":"levelo_inurba_marseille","lat":43.246735,"lon":5.381691,"is_reserved":false,"is_disabled":false,"rental_uris":{"android":"levelo://app?vid=fc33c77b-a9d9-4a1b-847c-adcfbe10f61e","ios":"levelo://app?vid=fc33c77b-a9d9-4a1b-847c-adcfbe10f61e"},"vehicle_type_id":"4","last_reported":1756285834,"current_range_meters":16400,"station_id":"ce4bhih2rcd13ifvqfr0","pricing_plan_id":"cebpf4jnsgd1na2vs0mg"},{"bike_id":"95f848b0-16a6-4e4a-9b12-04276a2c6679","system_id":"levelo_inurba_marseille","lat":43.29259,"lon":5.40908,"is_reserved":false,"is_disabled":true,"rental_uris":{"android":"levelo://app?vid=95f848b0-16a6-4e4a-9b12-04276a2c6679","ios":"levelo://app?vid=95f848b0-16a6-4e4a-9b12-04276a2c6679"},"vehicle_type_id":"4","last_reported":1756285834,"current_range_meters":16400,"station_id":"ce4bh192rcd13ifvqdc0","pricing_plan_id":"cebpf4jnsgd1na2vs0mg"},{"bike_id":"f67c8e5e-7af8-4847-a4ce-1e12088b4291","system_id":"levelo_inurba_marseille","lat":43.33016,"lon":5.39052,"is_reserved":false,"is_disabled":false,"rental_uris":{"android":"levelo://app?vid=f67c8e5e-7af8-4847-a4ce-1e12088b4291","ios":"levelo://app?vid=f67c8e5e-7af8-4847-a4ce-1e12088b4291"},"vehicle_type_id":"4","last_reported":1756285834,"current_range_meters":16400,"station_id":"ce4bhr92rcd13ifvqhrg","pricing_plan_id":"cebpf4jnsgd1na2vs0mg"},{"bike_id":"182848e1-c128-499b-944e-cad0c910e9fb","system_id":"levelo_inurba_marseille","lat":43.21195,"lon":5.35072,"is_reserved":false,"is_disabled":false,"rental_uris":{"android":"levelo://app?vid=182848e1-c128-499b-944e-cad0c910e9fb","ios":"levelo://app?vid=182848e1-c128-499b-944e-cad0c910e9fb"},"vehicle_type_id":"4","last_reported":1756285834,"current_range_meters":16400,"station_id":"st_cvj6sg6p6f1abm77japg","pricing_plan_id":"cebpf4jnsgd1na2vs0mg"},{"bike_id":"c2981227-ab06-48b9-ba22-b24ade8e0acd","system_id":"levelo_inurba_marseille","lat":43.295136,"lon":5.394081,"is_reserved":false,"is_disabled":false,"rental_uris":{"android":"levelo://app?vid=c2981227-ab06-48b9-ba22-b24ade8e0acd","ios":"levelo://app?vid=c2981227-ab06-48b9-ba22-b24ade8e0acd"},"vehicle_type_id":"4","last_reported":1756285834,"current_range_meters":16400,"station_id":"ce4bh292rcd13ifvqdf0","pricing_plan_id":"cebpf4jnsgd1na2vs0mg"},{"bike_id":"6de21c42-1c52-47ff-b268-785a8b551602","system_id":"levelo_inurba_marseille","lat":43.287073,"lon":5.37928,"is_reserved":false,"is_disabled":false,"rental_uris":{"android":"levelo://app?vid=6de21c42-1c52-47ff-b268-785a8b551602","ios":"levelo://app?vid=6de21c42-1c52-47ff-b268-785a8b551602"},"vehicle_type_id":"4","last_reported":1756285834,"current_range_meters":16400,"station_id":"ce4bh9p2rcd13ifvqec0","pricing_plan_id":"cebpf4jnsgd1na2vs0mg"},{"bike_id":"154c6750-07b3-4d4f-a3fa-216c325ccc7f","system_id":"levelo_inurba_marseille","lat":43.33031,"lon":5.39046,"is_reserved":false,"is_disabled":false,"rental_uris":{"android":"levelo://app?vid=154c6750-07b3-4d4f-a3fa-216c325ccc7f","ios":"levelo://app?vid=154c6750-07b3-4d4f-a3fa-216c325ccc7f"},"vehicle_type_id":"4","last_reported":1756285834,"current_range_meters":16400,"station_id":"ce4bhr92rcd13ifvqhrg","pricing_plan_id":"cebpf4jnsgd1na2vs0mg"},{"bike_id":"6bfe00ab-e481-4a2d-a4d0-3ab6adf70994","system_id":"levelo_inurba_marseille","lat":43.32362,"lon":5.367677,"is_reserved":false,"is_disabled":true,"rental_uris":{"android":"levelo://app?vid=6bfe00ab-e481-4a2d-a4d0-3ab6adf70994","ios":"levelo://app?vid=6bfe00ab-e481-4a2d-a4d0-3ab6adf70994"},"vehicle_type_id":"4","last_reported":1756285834,"current_range_meters":16800,"station_id":"ce4bhsh2rcd13ifvqi2g","pricing_plan_id":"cebpf4jnsgd1na2vs0mg"},{"bike_id":"1630a831-15ce-4034-a053-c3e159db8c59","system_id":"levelo_inurba_marseille","lat":43.31357,"lon":5.36734,"is_reserved":false,"is_disabled":false,"rental_uris":{"android":"levelo://app?vid=1630a831-15ce-4034-a053-c3e159db8c59","ios":"levelo://app?vid=1630a831-15ce-4034-a053-c3e159db8c59"},"vehicle_type_id":"4","last_reported":1756285834,"current_range_meters":16800,"station_id":"ce4bgr92rcd13ifvqc6g","pricing_plan_id":"cebpf4jnsgd1na2vs0mg"},{"bike_id":"ffd21136-ae47-45ee-8fc5-e7f85ea84802","system_id":"levelo_inurba_marseille","lat":43.298209,"lon":5.382538,"is_reserved":false,"is_disabled":false,"rental_uris":{"android":"levelo://app?vid=ffd21136-ae47-45ee-8fc5-e7f85ea84802","ios":"levelo://app?vid=ffd21136-ae47-45ee-8fc5-e7f85ea84802"},"vehicle_type_id":"4","last_reported":1756285834,"current_range_meters":16800,"station_id":"","pricing_plan_id":"cebpf4jnsgd1na2vs0mg"},{"bike_id":"29c846b0-4fd8-40fb-aac1-6d767b2e984a","system_id":"levelo_inurba_marseille","lat":43.29231,"lon":5.36061,"is_reserved":false,"is_disabled":false,"rental_uris":{"android":"levelo://app?vid=29c846b0-4fd8-40fb-aac1-6d767b2e984a","ios":"levelo://app?vid=29c846b0-4fd8-40fb-aac1-6d767b2e984a"},"vehicle_type_id":"4","last_reported":1756285834,"current_range_meters":16800,"station_id":"ce4bhbh2rcd13ifvqeqg","pricing_plan_id":"cebpf4jnsgd1na2vs0mg"},{"bike_id":"33db383b-5b27-4ee3-b77f-51489812521c","system_id":"levelo_inurba_marseille","lat":43.3055,"lon":5.36701,"is_reserved":false,"is_disabled":false,"rental_uris":{"android":"levelo://app?vid=33db383b-5b27-4ee3-b77f-51489812521c","ios":"levelo://app?vid=33db383b-5b27-4ee3-b77f-51489812521c"},"vehicle_type_id":"4","last_reported":1756285834,"current_range_meters":16800,"station_id":"ce4bgrp2rcd13ifvqc9g","pricing_plan_id":"cebpf4jnsgd1na2vs0mg"},{"bike_id":"814645c9-7af5-4408-879c-1836489b0342","system_id":"levelo_inurba_marseille","lat":43.26545,"lon":5.37303,"is_reserved":false,"is_disabled":false,"rental_uris":{"android":"levelo://app?vid=814645c9-7af5-4408-879c-1836489b0342","ios":"levelo://app?vid=814645c9-7af5-4408-879c-1836489b0342"},"vehicle_type_id":"4","last_reported":1756285834,"current_range_meters":16800,"station_id":"ce4bhg12rcd13ifvqf70","pricing_plan_id":"cebpf4jnsgd1na2vs0mg"},{"bike_id":"c561b3be-23f4-46ed-8d38-1fc2450f503d","system_id":"levelo_inurba_marseille","lat":43.23666,"lon":5.36203,"is_reserved":false,"is_disabled":false,"rental_uris":{"android":"levelo://app?vid=c561b3be-23f4-46ed-8d38-1fc2450f503d","ios":"levelo://app?vid=c561b3be-23f4-46ed-8d38-1fc2450f503d"},"vehicle_type_id":"4","last_reported":1756285834,"current_range_meters":16800,"station_id":"","pricing_plan_id":"cebpf4jnsgd1na2vs0mg"},{"bike_id":"726775a9-d9b4-45ce-bc96-5c27216ad375","system_id":"levelo_inurba_marseille","lat":43.29285,"lon":5.37438,"is_reserved":false,"is_disabled":false,"rental_uris":{"android":"levelo://app?vid=726775a9-d9b4-45ce-bc96-5c27216ad375","ios":"levelo://app?vid=726775a9-d9b4-45ce-bc96-5c27216ad375"},"vehicle_type_id":"4","last_reported":1756285834,"current_range_meters":17200,"station_id":"ce4bgi12rcd13ifvqb70","pricing_plan_id":"cebpf4jnsgd1na2vs0mg"},{"bike_id":"66e0a403-9848-4a61-83d6-ca6c879e0442","system_id":"levelo_inurba_marseille","lat":43.29218,"lon":5.36063,"is_reserved":false,"is_disabled":false,"rental_uris":{"android":"levelo://app?vid=66e0a403-9848-4a61-83d6-ca6c879e0442","ios":"levelo://app?vid=66e0a403-9848-4a61-83d6-ca6c879e0442"},"vehicle_type_id":"4","last_reported":1756285834,"current_range_meters":17200,"station_id":"ce4bhbh2rcd13ifvqeqg","pricing_plan_id":"cebpf4jnsgd1na2vs0mg"},{"bike_id":"2b164df0-a198-41a5-860c-5521f55ad32a","system_id":"levelo_inurba_marseille","lat":43.24176,"lon":5.39732,"is_reserved":false,"is_disabled":false,"rental_uris":{"android":"levelo://app?vid=2b164df0-a198-41a5-860c-5521f55ad32a","ios":"levelo://app?vid=2b164df0-a198-41a5-860c-5521f55ad32a"},"vehicle_type_id":"4","last_reported":1756285834,"current_range_meters":17200,"station_id":"ce4bhn12rcd13ifvqgpg","pricing_plan_id":"cebpf4jnsgd1na2vs0mg"},{"bike_id":"d810acf0-5bd2-4bf1-848d-31cd30d105e6","system_id":"levelo_inurba_marseille","lat":43.269831,"lon":5.392782,"is_reserved":false,"is_disabled":false,"rental_uris":{"android":"levelo://app?vid=d810acf0-5bd2-4bf1-848d-31cd30d105e6","ios":"levelo://app?vid=d810acf0-5bd2-4bf1-848d-31cd30d105e6"},"vehicle_type_id":"4","last_reported":1756285834,"current_range_meters":17200,"station_id":"","pricing_plan_id":"cebpf4jnsgd1na2vs0mg"},{"bike_id":"d1ab4433-94d0-4b2e-aecd-cb94ea10bdaa","system_id":"levelo_inurba_marseille","lat":43.261926,"lon":5.374481,"is_reserved":false,"is_disabled":true,"rental_uris":{"android":"levelo://app?vid=d1ab4433-94d0-4b2e-aecd-cb94ea10bdaa","ios":"levelo://app?vid=d1ab4433-94d0-4b2e-aecd-cb94ea10bdaa"},"vehicle_type_id":"4","last_reported":1756285834,"current_range_meters":17200,"station_id":"","pricing_plan_id":"cebpf4jnsgd1na2vs0mg"},{"bike_id":"94c44f36-d45b-48d8-9eb0-02cde482dcfd","system_id":"levelo_inurba_marseille","lat":43.26028,"lon":5.3756,"is_reserved":false,"is_disabled":false,"rental_uris":{"android":"levelo://app?vid=94c44f36-d45b-48d8-9eb0-02cde482dcfd","ios":"levelo://app?vid=94c44f36-d45b-48d8-9eb0-02cde482dcfd"},"vehicle_type_id":"4","last_reported":1756285834,"current_range_meters":17200,"station_id":"ce4bhgh2rcd13ifvqfa0","pricing_plan_id":"cebpf4jnsgd1na2vs0mg"},{"bike_id":"98bd734b-1a92-4a06-bd14-78315dd4e572","system_id":"levelo_inurba_marseille","lat":43.26672,"lon":5.38278,"is_reserved":false,"is_disabled":false,"rental_uris":{"android":"levelo://app?vid=98bd734b-1a92-4a06-bd14-78315dd4e572","ios":"levelo://app?vid=98bd734b-1a92-4a06-bd14-78315dd4e572"},"vehicle_type_id":"4","last_reported":1756285834,"current_range_meters":17200,"station_id":"ce4bhg92rcd13ifvqf90","pricing_plan_id":"cebpf4jnsgd1na2vs0mg"},{"bike_id":"23a9d73f-1abd-4f22-82f5-929eca75d691","system_id":"levelo_inurba_marseille","lat":43.28698,"lon":5.3999,"is_reserved":false,"is_disabled":false,"rental_uris":{"android":"levelo://app?vid=23a9d73f-1abd-4f22-82f5-929eca75d691","ios":"levelo://app?vid=23a9d73f-1abd-4f22-82f5-929eca75d691"},"vehicle_type_id":"4","last_reported":1756285834,"current_range_meters":17200,"station_id":"ce4bho92rcd13ifvqh3g","pricing_plan_id":"cebpf4jnsgd1na2vs0mg"},{"bike_id":"33767b19-49d2-43d6-9855-7f25ee9dd4ce","system_id":"levelo_inurba_marseille","lat":43.2952,"lon":5.37534,"is_reserved":false,"is_disabled":true,"rental_uris":{"android":"levelo://app?vid=33767b19-49d2-43d6-9855-7f25ee9dd4ce","ios":"levelo://app?vid=33767b19-49d2-43d6-9855-7f25ee9dd4ce"},"vehicle_type_id":"4","last_reported":1756285834,"current_range_meters":17200,"station_id":"ce4bgkp2rcd13ifvqbmg","pricing_plan_id":"cebpf4jnsgd1na2vs0mg"},{"bike_id":"db7d3d83-f39a-4469-8445-29697e69fec4","system_id":"levelo_inurba_marseille","lat":43.310809,"lon":5.40103,"is_reserved":false,"is_disabled":false,"rental_uris":{"android":"levelo://app?vid=db7d3d83-f39a-4469-8445-29697e69fec4","ios":"levelo://app?vid=db7d3d83-f39a-4469-8445-29697e69fec4"},"vehicle_type_id":"4","last_reported":1756285834,"current_range_meters":17200,"station_id":"","pricing_plan_id":"cebpf4jnsgd1na2vs0mg"},{"bike_id":"56c04261-47b9-41fc-b166-0497df898b6e","system_id":"levelo_inurba_marseille","lat":43.27558,"lon":5.38427,"is_reserved":false,"is_disabled":false,"rental_uris":{"android":"levelo://app?vid=56c04261-47b9-41fc-b166-0497df898b6e","ios":"levelo://app?vid=56c04261-47b9-41fc-b166-0497df898b6e"},"vehicle_type_id":"4","last_reported":1756285834,"current_range_meters":17600,"station_id":"ce4bhh92rcd13ifvqfi0","pricing_plan_id":"cebpf4jnsgd1na2vs0mg"},{"bike_id":"5dd83fad-2449-4d56-be74-c8599abb9a5e","system_id":"levelo_inurba_marseille","lat":43.2621,"lon":5.37449,"is_reserved":false,"is_disabled":false,"rental_uris":{"android":"levelo://app?vid=5dd83fad-2449-4d56-be74-c8599abb9a5e","ios":"levelo://app?vid=5dd83fad-2449-4d56-be74-c8599abb9a5e"},"vehicle_type_id":"4","last_reported":1756285834,"current_range_meters":17600,"station_id":"ce4bhgp2rcd13ifvqfc0","pricing_plan_id":"cebpf4jnsgd1na2vs0mg"},{"bike_id":"273eac3d-362a-419b-83a2-2423e6e318c7","system_id":"levelo_inurba_marseille","lat":43.28412,"lon":5.37522,"is_reserved":false,"is_disabled":false,"rental_uris":{"android":"levelo://app?vid=273eac3d-362a-419b-83a2-2423e6e318c7","ios":"levelo://app?vid=273eac3d-362a-419b-83a2-2423e6e318c7"},"vehicle_type_id":"4","last_reported":1756285834,"current_range_meters":17600,"station_id":"ce4bh9p2rcd13ifvqec0","pricing_plan_id":"cebpf4jnsgd1na2vs0mg"},{"bike_id":"4c82beab-1cad-46f7-a8ca-eb8dcbd949ef","system_id":"levelo_inurba_marseille","lat":43.27559,"lon":5.39652,"is_reserved":false,"is_disabled":false,"rental_uris":{"android":"levelo://app?vid=4c82beab-1cad-46f7-a8ca-eb8dcbd949ef","ios":"levelo://app?vid=4c82beab-1cad-46f7-a8ca-eb8dcbd949ef"},"vehicle_type_id":"4","last_reported":1756285834,"current_range_meters":17600,"station_id":"","pricing_plan_id":"cebpf4jnsgd1na2vs0mg"},{"bike_id":"c54ec227-008d-491b-b6f3-86b7fb024e51","system_id":"levelo_inurba_marseille","lat":43.28411,"lon":5.34972,"is_reserved":false,"is_disabled":false,"rental_uris":{"android":"levelo://app?vid=c54ec227-008d-491b-b6f3-86b7fb024e51","ios":"levelo://app?vid=c54ec227-008d-491b-b6f3-86b7fb024e51"},"vehicle_type_id":"4","last_reported":1756285834,"current_range_meters":17600,"station_id":"ce4bhbh2rcd13ifvqepg","pricing_plan_id":"cebpf4jnsgd1na2vs0mg"},{"bike_id":"4e9e705b-7667-42c6-adf5-4a09a858987f","system_id":"levelo_inurba_marseille","lat":43.211868,"lon":5.350775,"is_reserved":false,"is_disabled":false,"rental_uris":{"android":"levelo://app?vid=4e9e705b-7667-42c6-adf5-4a09a858987f","ios":"levelo://app?vid=4e9e705b-7667-42c6-adf5-4a09a858987f"},"vehicle_type_id":"4","last_reported":1756285834,"current_range_meters":17600,"station_id":"st_cvj6sg6p6f1abm77japg","pricing_plan_id":"cebpf4jnsgd1na2vs0mg"},{"bike_id":"266b7c83-4da9-4475-9d3d-7685d08b8ed0","system_id":"levelo_inurba_marseille","lat":43.28222,"lon":5.39076,"is_reserved":false,"is_disabled":false,"rental_uris":{"android":"levelo://app?vid=266b7c83-4da9-4475-9d3d-7685d08b8ed0","ios":"levelo://app?vid=266b7c83-4da9-4475-9d3d-7685d08b8ed0"},"vehicle_type_id":"4","last_reported":1756285834,"current_range_meters":17600,"station_id":"ce4bhn92rcd13ifvqgsg","pricing_plan_id":"cebpf4jnsgd1na2vs0mg"},{"bike_id":"56617e93-dfaa-4db2-9c67-a6ef24f9648e","system_id":"levelo_inurba_marseille","lat":43.231904,"lon":5.35559,"is_reserved":false,"is_disabled":false,"rental_uris":{"android":"levelo://app?vid=56617e93-dfaa-4db2-9c67-a6ef24f9648e","ios":"levelo://app?vid=56617e93-dfaa-4db2-9c67-a6ef24f9648e"},"vehicle_type_id":"4","last_reported":1756285834,"current_range_meters":17600,"station_id":"ce4bhu92rcd13ifvqi70","pricing_plan_id":"cebpf4jnsgd1na2vs0mg"},{"bike_id":"f2ffd311-4b12-4f8a-9de3-52907666b348","system_id":"levelo_inurba_marseille","lat":43.2534,"lon":5.42169,"is_reserved":false,"is_disabled":false,"rental_uris":{"android":"levelo://app?vid=f2ffd311-4b12-4f8a-9de3-52907666b348","ios":"levelo://app?vid=f2ffd311-4b12-4f8a-9de3-52907666b348"},"vehicle_type_id":"4","last_reported":1756285834,"current_range_meters":18000,"station_id":"st_d2m65c5bi1j21697t3ng","pricing_plan_id":"cebpf4jnsgd1na2vs0mg"},{"bike_id":"d4411ce1-1269-4134-adda-1eb61c16980f","system_id":"levelo_inurba_marseille","lat":43.281011,"lon":5.378305,"is_reserved":false,"is_disabled":true,"rental_uris":{"android":"levelo://app?vid=d4411ce1-1269-4134-adda-1eb61c16980f","ios":"levelo://app?vid=d4411ce1-1269-4134-adda-1eb61c16980f"},"vehicle_type_id":"4","last_reported":1756285834,"current_range_meters":18000,"station_id":"ce4bha12rcd13ifvqee0","pricing_plan_id":"cebpf4jnsgd1na2vs0mg"},{"bike_id":"bc4c6e1c-d694-4a7d-b3af-90d3bb1a77a1","system_id":"levelo_inurba_marseille","lat":43.21183,"lon":5.35103,"is_reserved":false,"is_disabled":false,"rental_uris":{"android":"levelo://app?vid=bc4c6e1c-d694-4a7d-b3af-90d3bb1a77a1","ios":"levelo://app?vid=bc4c6e1c-d694-4a7d-b3af-90d3bb1a77a1"},"vehicle_type_id":"4","last_reported":1756285834,"current_range_meters":18000,"station_id":"st_cvj6sg6p6f1abm77japg","pricing_plan_id":"cebpf4jnsgd1na2vs0mg"},{"bike_id":"ffe6df59-3fc1-4d81-9326-f6f6418e7718","system_id":"levelo_inurba_marseille","lat":43.29735,"lon":5.37334,"is_reserved":false,"is_disabled":false,"rental_uris":{"android":"levelo://app?vid=ffe6df59-3fc1-4d81-9326-f6f6418e7718","ios":"levelo://app?vid=ffe6df59-3fc1-4d81-9326-f6f6418e7718"},"vehicle_type_id":"4","last_reported":1756285834,"current_range_meters":18000,"station_id":"","pricing_plan_id":"cebpf4jnsgd1na2vs0mg"},{"bike_id":"75846cdb-5ccb-4eb7-b4f2-e1a19945f801","system_id":"levelo_inurba_marseille","lat":43.31067,"lon":5.38356,"is_reserved":false,"is_disabled":true,"rental_uris":{"android":"levelo://app?vid=75846cdb-5ccb-4eb7-b4f2-e1a19945f801","ios":"levelo://app?vid=75846cdb-5ccb-4eb7-b4f2-e1a19945f801"},"vehicle_type_id":"4","last_reported":1756285834,"current_range_meters":18000,"station_id":"ce4bgv92rcd13ifvqcr0","pricing_plan_id":"cebpf4jnsgd1na2vs0mg"},{"bike_id":"23ae6fed-deff-411b-8b6e-f95e32ccd4d0","system_id":"levelo_inurba_marseille","lat":43.321296,"lon":5.367729,"is_reserved":false,"is_disabled":false,"rental_uris":{"android":"levelo://app?vid=23ae6fed-deff-411b-8b6e-f95e32ccd4d0","ios":"levelo://app?vid=23ae6fed-deff-411b-8b6e-f95e32ccd4d0"},"vehicle_type_id":"4","last_reported":1756285834,"current_range_meters":18000,"station_id":"ce4bhrh2rcd13ifvqhug","pricing_plan_id":"cebpf4jnsgd1na2vs0mg"},{"bike_id":"714d5c3f-5ed0-416d-abfd-48ed1fa771ef","system_id":"levelo_inurba_marseille","lat":43.21189,"lon":5.350749,"is_reserved":false,"is_disabled":false,"rental_uris":{"android":"levelo://app?vid=714d5c3f-5ed0-416d-abfd-48ed1fa771ef","ios":"levelo://app?vid=714d5c3f-5ed0-416d-abfd-48ed1fa771ef"},"vehicle_type_id":"4","last_reported":1756285834,"current_range_meters":18000,"station_id":"st_cvj6sg6p6f1abm77japg","pricing_plan_id":"cebpf4jnsgd1na2vs0mg"},{"bike_id":"6c83adfd-6e50-4a57-980c-569b605502d1","system_id":"levelo_inurba_marseille","lat":43.231873,"lon":5.399871,"is_reserved":false,"is_disabled":false,"rental_uris":{"android":"levelo://app?vid=6c83adfd-6e50-4a57-980c-569b605502d1","ios":"levelo://app?vid=6c83adfd-6e50-4a57-980c-569b605502d1"},"vehicle_type_id":"4","last_reported":1756285834,"current_range_meters":18000,"station_id":"ce4bhn12rcd13ifvqgqg","pricing_plan_id":"cebpf4jnsgd1na2vs0mg"},{"bike_id":"10461901-bb80-4e0b-9f69-b80d7fe789fe","system_id":"levelo_inurba_marseille","lat":43.251185,"lon":5.4032,"is_reserved":false,"is_disabled":false,"rental_uris":{"android":"levelo://app?vid=10461901-bb80-4e0b-9f69-b80d7fe789fe","ios":"levelo://app?vid=10461901-bb80-4e0b-9f69-b80d7fe789fe"},"vehicle_type_id":"4","last_reported":1756285834,"current_range_meters":18000,"station_id":"ce4bhlh2rcd13ifvqgig","pricing_plan_id":"cebpf4jnsgd1na2vs0mg"},{"bike_id":"4ce1e130-30a5-4622-b32c-8a7814e4d825","system_id":"levelo_inurba_marseille","lat":43.28715,"lon":5.37929,"is_reserved":false,"is_disabled":false,"rental_uris":{"android":"levelo://app?vid=4ce1e130-30a5-4622-b32c-8a7814e4d825","ios":"levelo://app?vid=4ce1e130-30a5-4622-b32c-8a7814e4d825"},"vehicle_type_id":"4","last_reported":1756285834,"current_range_meters":18000,"station_id":"ce4bh9p2rcd13ifvqec0","pricing_plan_id":"cebpf4jnsgd1na2vs0mg"},{"bike_id":"97389277-1797-4bae-8136-8f62e17c6280","system_id":"levelo_inurba_marseille","lat":43.30373,"lon":5.42491,"is_reserved":false,"is_disabled":false,"rental_uris":{"android":"levelo://app?vid=97389277-1797-4bae-8136-8f62e17c6280","ios":"levelo://app?vid=97389277-1797-4bae-8136-8f62e17c6280"},"vehicle_type_id":"4","last_reported":1756285834,"current_range_meters":18000,"station_id":"ce4bhoh2rcd13ifvqh6g","pricing_plan_id":"cebpf4jnsgd1na2vs0mg"},{"bike_id":"651c04c7-c2f3-4258-98c4-2abdeb471500","system_id":"levelo_inurba_marseille","lat":43.2656,"lon":5.37292,"is_reserved":false,"is_disabled":false,"rental_uris":{"android":"levelo://app?vid=651c04c7-c2f3-4258-98c4-2abdeb471500","ios":"levelo://app?vid=651c04c7-c2f3-4258-98c4-2abdeb471500"},"vehicle_type_id":"4","last_reported":1756285834,"current_range_meters":18000,"station_id":"ce4bhg12rcd13ifvqf70","pricing_plan_id":"cebpf4jnsgd1na2vs0mg"},{"bike_id":"e2fbebd2-5cfb-46ea-9a6c-7ce580038f3c","system_id":"levelo_inurba_marseille","lat":43.31754,"lon":5.39026,"is_reserved":false,"is_disabled":false,"rental_uris":{"android":"levelo://app?vid=e2fbebd2-5cfb-46ea-9a6c-7ce580038f3c","ios":"levelo://app?vid=e2fbebd2-5cfb-46ea-9a6c-7ce580038f3c"},"vehicle_type_id":"4","last_reported":1756285834,"current_range_meters":18000,"station_id":"ce4bhqp2rcd13ifvqhng","pricing_plan_id":"cebpf4jnsgd1na2vs0mg"},{"bike_id":"8df4d72a-2534-4225-b0d0-5b48bd4c7385","system_id":"levelo_inurba_marseille","lat":43.2944,"lon":5.397582,"is_reserved":false,"is_disabled":false,"rental_uris":{"android":"levelo://app?vid=8df4d72a-2534-4225-b0d0-5b48bd4c7385","ios":"levelo://app?vid=8df4d72a-2534-4225-b0d0-5b48bd4c7385"},"vehicle_type_id":"4","last_reported":1756285834,"current_range_meters":18800,"station_id":"ce4bh3h2rcd13ifvqdo0","pricing_plan_id":"cebpf4jnsgd1na2vs0mg"},{"bike_id":"f1edc899-e597-4eb1-aa85-2775f7acb02c","system_id":"levelo_inurba_marseille","lat":43.29003,"lon":5.35615,"is_reserved":false,"is_disabled":false,"rental_uris":{"android":"levelo://app?vid=f1edc899-e597-4eb1-aa85-2775f7acb02c","ios":"levelo://app?vid=f1edc899-e597-4eb1-aa85-2775f7acb02c"},"vehicle_type_id":"4","last_reported":1756285834,"current_range_meters":18800,"station_id":"ce4bhb92rcd13ifvqen0","pricing_plan_id":"cebpf4jnsgd1na2vs0mg"},{"bike_id":"19bf8938-c3ac-477a-9c27-edd856e98aab","system_id":"levelo_inurba_marseille","lat":43.281117,"lon":5.378438,"is_reserved":false,"is_disabled":false,"rental_uris":{"android":"levelo://app?vid=19bf8938-c3ac-477a-9c27-edd856e98aab","ios":"levelo://app?vid=19bf8938-c3ac-477a-9c27-edd856e98aab"},"vehicle_type_id":"4","last_reported":1756285834,"current_range_meters":18800,"station_id":"ce4bha12rcd13ifvqee0","pricing_plan_id":"cebpf4jnsgd1na2vs0mg"},{"bike_id":"ec0f9f0d-0796-42ac-9cf5-bb8596cdf342","system_id":"levelo_inurba_marseille","lat":43.21184,"lon":5.35082,"is_reserved":false,"is_disabled":false,"rental_uris":{"android":"levelo://app?vid=ec0f9f0d-0796-42ac-9cf5-bb8596cdf342","ios":"levelo://app?vid=ec0f9f0d-0796-42ac-9cf5-bb8596cdf342"},"vehicle_type_id":"4","last_reported":1756285834,"current_range_meters":18800,"station_id":"","pricing_plan_id":"cebpf4jnsgd1na2vs0mg"},{"bike_id":"95973e18-1339-4596-a205-8df1bd7fef1f","system_id":"levelo_inurba_marseille","lat":43.23182,"lon":5.35549,"is_reserved":false,"is_disabled":false,"rental_uris":{"android":"levelo://app?vid=95973e18-1339-4596-a205-8df1bd7fef1f","ios":"levelo://app?vid=95973e18-1339-4596-a205-8df1bd7fef1f"},"vehicle_type_id":"4","last_reported":1756285834,"current_range_meters":18800,"station_id":"ce4bhu92rcd13ifvqi70","pricing_plan_id":"cebpf4jnsgd1na2vs0mg"},{"bike_id":"fc250eac-2e3f-4ab7-87d8-17a9651aaa58","system_id":"levelo_inurba_marseille","lat":43.26196,"lon":5.37453,"is_reserved":false,"is_disabled":false,"rental_uris":{"android":"levelo://app?vid=fc250eac-2e3f-4ab7-87d8-17a9651aaa58","ios":"levelo://app?vid=fc250eac-2e3f-4ab7-87d8-17a9651aaa58"},"vehicle_type_id":"4","last_reported":1756285834,"current_range_meters":18800,"station_id":"ce4bhgp2rcd13ifvqfc0","pricing_plan_id":"cebpf4jnsgd1na2vs0mg"},{"bike_id":"05d97e45-19dc-4128-88fe-ffa6fa61464f","system_id":"levelo_inurba_marseille","lat":43.26223,"lon":5.37461,"is_reserved":false,"is_disabled":false,"rental_uris":{"android":"levelo://app?vid=05d97e45-19dc-4128-88fe-ffa6fa61464f","ios":"levelo://app?vid=05d97e45-19dc-4128-88fe-ffa6fa61464f"},"vehicle_type_id":"4","last_reported":1756285834,"current_range_meters":18800,"station_id":"ce4bhgp2rcd13ifvqfc0","pricing_plan_id":"cebpf4jnsgd1na2vs0mg"},{"bike_id":"ca43582f-1faa-43b9-8bc5-434d17ea2f02","system_id":"levelo_inurba_marseille","lat":43.29213,"lon":5.36065,"is_reserved":false,"is_disabled":true,"rental_uris":{"android":"levelo://app?vid=ca43582f-1faa-43b9-8bc5-434d17ea2f02","ios":"levelo://app?vid=ca43582f-1faa-43b9-8bc5-434d17ea2f02"},"vehicle_type_id":"4","last_reported":1756285834,"current_range_meters":18800,"station_id":"ce4bhbh2rcd13ifvqeqg","pricing_plan_id":"cebpf4jnsgd1na2vs0mg"},{"bike_id":"da526517-9394-4cb8-982d-06d835896514","system_id":"levelo_inurba_marseille","lat":43.29615,"lon":5.37177,"is_reserved":false,"is_disabled":false,"rental_uris":{"android":"levelo://app?vid=da526517-9394-4cb8-982d-06d835896514","ios":"levelo://app?vid=da526517-9394-4cb8-982d-06d835896514"},"vehicle_type_id":"4","last_reported":1756285834,"current_range_meters":18800,"station_id":"ce4bgnh2rcd13ifvqc0g","pricing_plan_id":"cebpf4jnsgd1na2vs0mg"},{"bike_id":"bfb37470-86a6-4b74-b20e-69ee8bc3d684","system_id":"levelo_inurba_marseille","lat":43.266811,"lon":5.382742,"is_reserved":false,"is_disabled":false,"rental_uris":{"android":"levelo://app?vid=bfb37470-86a6-4b74-b20e-69ee8bc3d684","ios":"levelo://app?vid=bfb37470-86a6-4b74-b20e-69ee8bc3d684"},"vehicle_type_id":"4","last_reported":1756285834,"current_range_meters":19200,"station_id":"ce4bhg92rcd13ifvqf90","pricing_plan_id":"cebpf4jnsgd1na2vs0mg"},{"bike_id":"1091f287-02ee-4a66-888b-59c35fd65791","system_id":"levelo_inurba_marseille","lat":43.23186,"lon":5.35554,"is_reserved":false,"is_disabled":false,"rental_uris":{"android":"levelo://app?vid=1091f287-02ee-4a66-888b-59c35fd65791","ios":"levelo://app?vid=1091f287-02ee-4a66-888b-59c35fd65791"},"vehicle_type_id":"4","last_reported":1756285834,"current_range_meters":19200,"station_id":"ce4bhu92rcd13ifvqi70","pricing_plan_id":"cebpf4jnsgd1na2vs0mg"},{"bike_id":"64d71690-a1ff-46c5-8b53-847ec594fbff","system_id":"levelo_inurba_marseille","lat":43.30414,"lon":5.41363,"is_reserved":false,"is_disabled":false,"rental_uris":{"android":"levelo://app?vid=64d71690-a1ff-46c5-8b53-847ec594fbff","ios":"levelo://app?vid=64d71690-a1ff-46c5-8b53-847ec594fbff"},"vehicle_type_id":"4","last_reported":1756285834,"current_range_meters":19200,"station_id":"","pricing_plan_id":"cebpf4jnsgd1na2vs0mg"},{"bike_id":"c5eb6b64-45a0-4284-a22f-4cdcd0c59081","system_id":"levelo_inurba_marseille","lat":43.26681,"lon":5.38272,"is_reserved":false,"is_disabled":false,"rental_uris":{"android":"levelo://app?vid=c5eb6b64-45a0-4284-a22f-4cdcd0c59081","ios":"levelo://app?vid=c5eb6b64-45a0-4284-a22f-4cdcd0c59081"},"vehicle_type_id":"4","last_reported":1756285834,"current_range_meters":19200,"station_id":"ce4bhg92rcd13ifvqf90","pricing_plan_id":"cebpf4jnsgd1na2vs0mg"},{"bike_id":"0337ea93-caa5-43b1-9318-3a0b1b28be55","system_id":"levelo_inurba_marseille","lat":43.31714,"lon":5.4371,"is_reserved":false,"is_disabled":false,"rental_uris":{"android":"levelo://app?vid=0337ea93-caa5-43b1-9318-3a0b1b28be55","ios":"levelo://app?vid=0337ea93-caa5-43b1-9318-3a0b1b28be55"},"vehicle_type_id":"4","last_reported":1756285834,"current_range_meters":19200,"station_id":"ce4bhp92rcd13ifvqhcg","pricing_plan_id":"cebpf4jnsgd1na2vs0mg"},{"bike_id":"2c246624-962d-4f72-8341-3c6523db29ef","system_id":"levelo_inurba_marseille","lat":43.26547,"lon":5.37315,"is_reserved":false,"is_disabled":true,"rental_uris":{"android":"levelo://app?vid=2c246624-962d-4f72-8341-3c6523db29ef","ios":"levelo://app?vid=2c246624-962d-4f72-8341-3c6523db29ef"},"vehicle_type_id":"4","last_reported":1756285834,"current_range_meters":19200,"station_id":"ce4bhg12rcd13ifvqf70","pricing_plan_id":"cebpf4jnsgd1na2vs0mg"},{"bike_id":"f3d8404a-3aa3-4509-accc-03ce21aaa513","system_id":"levelo_inurba_marseille","lat":43.25491,"lon":5.37648,"is_reserved":false,"is_disabled":false,"rental_uris":{"android":"levelo://app?vid=f3d8404a-3aa3-4509-accc-03ce21aaa513","ios":"levelo://app?vid=f3d8404a-3aa3-4509-accc-03ce21aaa513"},"vehicle_type_id":"4","last_reported":1756285834,"current_range_meters":18800,"station_id":"ce4bhh12rcd13ifvqff0","pricing_plan_id":"cebpf4jnsgd1na2vs0mg"},{"bike_id":"7f96cfc7-6b62-4cd3-a164-5a1ee471a17d","system_id":"levelo_inurba_marseille","lat":43.305406,"lon":5.36551,"is_reserved":false,"is_disabled":false,"rental_uris":{"android":"levelo://app?vid=7f96cfc7-6b62-4cd3-a164-5a1ee471a17d","ios":"levelo://app?vid=7f96cfc7-6b62-4cd3-a164-5a1ee471a17d"},"vehicle_type_id":"4","last_reported":1756285834,"current_range_meters":19200,"station_id":"ce4bgs12rcd13ifvqcag","pricing_plan_id":"cebpf4jnsgd1na2vs0mg"},{"bike_id":"c7508178-71d9-4f76-bd52-8e4ce75b0379","system_id":"levelo_inurba_marseille","lat":43.31889,"lon":5.4073,"is_reserved":false,"is_disabled":false,"rental_uris":{"android":"levelo://app?vid=c7508178-71d9-4f76-bd52-8e4ce75b0379","ios":"levelo://app?vid=c7508178-71d9-4f76-bd52-8e4ce75b0379"},"vehicle_type_id":"4","last_reported":1756285834,"current_range_meters":19600,"station_id":"ce4bhq12rcd13ifvqhig","pricing_plan_id":"cebpf4jnsgd1na2vs0mg"},{"bike_id":"4277ef28-2c35-4ef5-b037-643e65998f5c","system_id":"levelo_inurba_marseille","lat":43.26177,"lon":5.37509,"is_reserved":false,"is_disabled":false,"rental_uris":{"android":"levelo://app?vid=4277ef28-2c35-4ef5-b037-643e65998f5c","ios":"levelo://app?vid=4277ef28-2c35-4ef5-b037-643e65998f5c"},"vehicle_type_id":"4","last_reported":1756285834,"current_range_meters":19600,"station_id":"ce4bhgp2rcd13ifvqfc0","pricing_plan_id":"cebpf4jnsgd1na2vs0mg"},{"bike_id":"831a2354-0919-4530-8e5a-84c32dcc2c03","system_id":"levelo_inurba_marseille","lat":43.272052,"lon":5.391826,"is_reserved":false,"is_disabled":false,"rental_uris":{"android":"levelo://app?vid=831a2354-0919-4530-8e5a-84c32dcc2c03","ios":"levelo://app?vid=831a2354-0919-4530-8e5a-84c32dcc2c03"},"vehicle_type_id":"4","last_reported":1756285834,"current_range_meters":19600,"station_id":"","pricing_plan_id":"cebpf4jnsgd1na2vs0mg"},{"bike_id":"67f9e38d-f9ac-418e-8bd0-f3d715a27b00","system_id":"levelo_inurba_marseille","lat":43.30907,"lon":5.36855,"is_reserved":false,"is_disabled":false,"rental_uris":{"android":"levelo://app?vid=67f9e38d-f9ac-418e-8bd0-f3d715a27b00","ios":"levelo://app?vid=67f9e38d-f9ac-418e-8bd0-f3d715a27b00"},"vehicle_type_id":"4","last_reported":1756285834,"current_range_meters":19600,"station_id":"ce4bgn92rcd13ifvqbvg","pricing_plan_id":"cebpf4jnsgd1na2vs0mg"},{"bike_id":"a71d0bca-bc7c-4692-bf55-794c9f5c67fc","system_id":"levelo_inurba_marseille","lat":43.30515,"lon":5.36546,"is_reserved":false,"is_disabled":false,"rental_uris":{"android":"levelo://app?vid=a71d0bca-bc7c-4692-bf55-794c9f5c67fc","ios":"levelo://app?vid=a71d0bca-bc7c-4692-bf55-794c9f5c67fc"},"vehicle_type_id":"4","last_reported":1756285834,"current_range_meters":19600,"station_id":"","pricing_plan_id":"cebpf4jnsgd1na2vs0mg"},{"bike_id":"e6355257-0814-4cf5-8dbe-cf3412b6ec52","system_id":"levelo_inurba_marseille","lat":43.271847,"lon":5.410009,"is_reserved":false,"is_disabled":false,"rental_uris":{"android":"levelo://app?vid=e6355257-0814-4cf5-8dbe-cf3412b6ec52","ios":"levelo://app?vid=e6355257-0814-4cf5-8dbe-cf3412b6ec52"},"vehicle_type_id":"4","last_reported":1756285834,"current_range_meters":19600,"station_id":"ce4bhl12rcd13ifvqgf0","pricing_plan_id":"cebpf4jnsgd1na2vs0mg"},{"bike_id":"5c9729a9-14ab-45c9-8df1-449545c4b230","system_id":"levelo_inurba_marseille","lat":43.29586,"lon":5.375227,"is_reserved":false,"is_disabled":false,"rental_uris":{"android":"levelo://app?vid=5c9729a9-14ab-45c9-8df1-449545c4b230","ios":"levelo://app?vid=5c9729a9-14ab-45c9-8df1-449545c4b230"},"vehicle_type_id":"4","last_reported":1756285834,"current_range_meters":20000,"station_id":"","pricing_plan_id":"cebpf4jnsgd1na2vs0mg"},{"bike_id":"67a7a174-5c79-4fdc-9e61-423e83885c47","system_id":"levelo_inurba_marseille","lat":43.29525,"lon":5.394,"is_reserved":false,"is_disabled":false,"rental_uris":{"android":"levelo://app?vid=67a7a174-5c79-4fdc-9e61-423e83885c47","ios":"levelo://app?vid=67a7a174-5c79-4fdc-9e61-423e83885c47"},"vehicle_type_id":"4","last_reported":1756285834,"current_range_meters":20000,"station_id":"ce4bh292rcd13ifvqdf0","pricing_plan_id":"cebpf4jnsgd1na2vs0mg"},{"bike_id":"d5ddba13-42df-4115-9aa1-5bdce53e55a3","system_id":"levelo_inurba_marseille","lat":43.30558,"lon":5.36518,"is_reserved":false,"is_disabled":false,"rental_uris":{"android":"levelo://app?vid=d5ddba13-42df-4115-9aa1-5bdce53e55a3","ios":"levelo://app?vid=d5ddba13-42df-4115-9aa1-5bdce53e55a3"},"vehicle_type_id":"4","last_reported":1756285834,"current_range_meters":20000,"station_id":"ce4bgs12rcd13ifvqcag","pricing_plan_id":"cebpf4jnsgd1na2vs0mg"},{"bike_id":"41206d24-710d-406c-91e0-c06bb1a64813","system_id":"levelo_inurba_marseille","lat":43.30571,"lon":5.36537,"is_reserved":false,"is_disabled":false,"rental_uris":{"android":"levelo://app?vid=41206d24-710d-406c-91e0-c06bb1a64813","ios":"levelo://app?vid=41206d24-710d-406c-91e0-c06bb1a64813"},"vehicle_type_id":"4","last_reported":1756285834,"current_range_meters":20000,"station_id":"ce4bgs12rcd13ifvqcag","pricing_plan_id":"cebpf4jnsgd1na2vs0mg"},{"bike_id":"5a9e63d1-6567-42b1-af65-278842c99f46","system_id":"levelo_inurba_marseille","lat":43.311236,"lon":5.377672,"is_reserved":false,"is_disabled":false,"rental_uris":{"android":"levelo://app?vid=5a9e63d1-6567-42b1-af65-278842c99f46","ios":"levelo://app?vid=5a9e63d1-6567-42b1-af65-278842c99f46"},"vehicle_type_id":"4","last_reported":1756285834,"current_range_meters":20000,"station_id":"ce4bgt92rcd13ifvqcg0","pricing_plan_id":"cebpf4jnsgd1na2vs0mg"},{"bike_id":"c79c7ae4-cf74-4b08-bec4-f22dbf7ab76f","system_id":"levelo_inurba_marseille","lat":43.2958,"lon":5.3752,"is_reserved":false,"is_disabled":false,"rental_uris":{"android":"levelo://app?vid=c79c7ae4-cf74-4b08-bec4-f22dbf7ab76f","ios":"levelo://app?vid=c79c7ae4-cf74-4b08-bec4-f22dbf7ab76f"},"vehicle_type_id":"4","last_reported":1756285834,"current_range_meters":20000,"station_id":"ce4bgh92rcd13ifvqb50","pricing_plan_id":"cebpf4jnsgd1na2vs0mg"},{"bike_id":"0f384a9e-555b-4efe-a709-9ad5af8baee7","system_id":"levelo_inurba_marseille","lat":43.28572,"lon":5.39501,"is_reserved":false,"is_disabled":false,"rental_uris":{"android":"levelo://app?vid=0f384a9e-555b-4efe-a709-9ad5af8baee7","ios":"levelo://app?vid=0f384a9e-555b-4efe-a709-9ad5af8baee7"},"vehicle_type_id":"4","last_reported":1756285834,"current_range_meters":20400,"station_id":"ce4bh292rcd13ifvqdg0","pricing_plan_id":"cebpf4jnsgd1na2vs0mg"},{"bike_id":"8e461108-c550-4fb0-ad47-afd78d4c1ee1","system_id":"levelo_inurba_marseille","lat":43.229244,"lon":5.353728,"is_reserved":false,"is_disabled":false,"rental_uris":{"android":"levelo://app?vid=8e461108-c550-4fb0-ad47-afd78d4c1ee1","ios":"levelo://app?vid=8e461108-c550-4fb0-ad47-afd78d4c1ee1"},"vehicle_type_id":"4","last_reported":1756285834,"current_range_meters":20400,"station_id":"cpo3532slgdg3j2ikp40","pricing_plan_id":"cebpf4jnsgd1na2vs0mg"},{"bike_id":"22f6323b-6869-496b-a2c3-908dce90bea2","system_id":"levelo_inurba_marseille","lat":43.26784,"lon":5.39419,"is_reserved":false,"is_disabled":false,"rental_uris":{"android":"levelo://app?vid=22f6323b-6869-496b-a2c3-908dce90bea2","ios":"levelo://app?vid=22f6323b-6869-496b-a2c3-908dce90bea2"},"vehicle_type_id":"4","last_reported":1756285834,"current_range_meters":20000,"station_id":"ce4bhh12rcd13ifvqfg0","pricing_plan_id":"cebpf4jnsgd1na2vs0mg"},{"bike_id":"f241538e-0883-4e15-8366-e48a447c07a5","system_id":"levelo_inurba_marseille","lat":43.30782,"lon":5.3769,"is_reserved":false,"is_disabled":false,"rental_uris":{"android":"levelo://app?vid=f241538e-0883-4e15-8366-e48a447c07a5","ios":"levelo://app?vid=f241538e-0883-4e15-8366-e48a447c07a5"},"vehicle_type_id":"4","last_reported":1756285834,"current_range_meters":20400,"station_id":"ce4bgv92rcd13ifvqcq0","pricing_plan_id":"cebpf4jnsgd1na2vs0mg"},{"bike_id":"00865bff-72de-47be-acda-9cf6ec16a836","system_id":"levelo_inurba_marseille","lat":43.320994,"lon":5.367716,"is_reserved":false,"is_disabled":false,"rental_uris":{"android":"levelo://app?vid=00865bff-72de-47be-acda-9cf6ec16a836","ios":"levelo://app?vid=00865bff-72de-47be-acda-9cf6ec16a836"},"vehicle_type_id":"4","last_reported":1756285834,"current_range_meters":20400,"station_id":"ce4bhrh2rcd13ifvqhug","pricing_plan_id":"cebpf4jnsgd1na2vs0mg"},{"bike_id":"07296681-3400-48d5-88e2-c863a00e5bf3","system_id":"levelo_inurba_marseille","lat":43.22921,"lon":5.35378,"is_reserved":false,"is_disabled":false,"rental_uris":{"android":"levelo://app?vid=07296681-3400-48d5-88e2-c863a00e5bf3","ios":"levelo://app?vid=07296681-3400-48d5-88e2-c863a00e5bf3"},"vehicle_type_id":"4","last_reported":1756285834,"current_range_meters":20400,"station_id":"cpo3532slgdg3j2ikp40","pricing_plan_id":"cebpf4jnsgd1na2vs0mg"},{"bike_id":"0360a5ff-a0b5-4e93-bc3b-718c480be5db","system_id":"levelo_inurba_marseille","lat":43.23185,"lon":5.3999,"is_reserved":false,"is_disabled":false,"rental_uris":{"android":"levelo://app?vid=0360a5ff-a0b5-4e93-bc3b-718c480be5db","ios":"levelo://app?vid=0360a5ff-a0b5-4e93-bc3b-718c480be5db"},"vehicle_type_id":"4","last_reported":1756285834,"current_range_meters":20400,"station_id":"ce4bhn12rcd13ifvqgqg","pricing_plan_id":"cebpf4jnsgd1na2vs0mg"},{"bike_id":"29c55d68-58c5-4ef2-b442-72bb9c55ddb0","system_id":"levelo_inurba_marseille","lat":43.32356,"lon":5.36767,"is_reserved":false,"is_disabled":false,"rental_uris":{"android":"levelo://app?vid=29c55d68-58c5-4ef2-b442-72bb9c55ddb0","ios":"levelo://app?vid=29c55d68-58c5-4ef2-b442-72bb9c55ddb0"},"vehicle_type_id":"4","last_reported":1756285834,"current_range_meters":20400,"station_id":"ce4bhsh2rcd13ifvqi2g","pricing_plan_id":"cebpf4jnsgd1na2vs0mg"},{"bike_id":"7564ec07-b2a4-4e50-afac-bca8862f6ba0","system_id":"levelo_inurba_marseille","lat":43.287174,"lon":5.379354,"is_reserved":false,"is_disabled":false,"rental_uris":{"android":"levelo://app?vid=7564ec07-b2a4-4e50-afac-bca8862f6ba0","ios":"levelo://app?vid=7564ec07-b2a4-4e50-afac-bca8862f6ba0"},"vehicle_type_id":"4","last_reported":1756285834,"current_range_meters":20400,"station_id":"ce4bh9p2rcd13ifvqec0","pricing_plan_id":"cebpf4jnsgd1na2vs0mg"},{"bike_id":"990af0b4-016f-4f78-85b2-cf5fdf4cd2bf","system_id":"levelo_inurba_marseille","lat":43.25927,"lon":5.40864,"is_reserved":false,"is_disabled":false,"rental_uris":{"android":"levelo://app?vid=990af0b4-016f-4f78-85b2-cf5fdf4cd2bf","ios":"levelo://app?vid=990af0b4-016f-4f78-85b2-cf5fdf4cd2bf"},"vehicle_type_id":"4","last_reported":1756285834,"current_range_meters":20400,"station_id":"ce4bhm92rcd13ifvqglg","pricing_plan_id":"cebpf4jnsgd1na2vs0mg"},{"bike_id":"03080dce-1f55-4d92-8992-940a7cb2a486","system_id":"levelo_inurba_marseille","lat":43.21754,"lon":5.34623,"is_reserved":false,"is_disabled":false,"rental_uris":{"android":"levelo://app?vid=03080dce-1f55-4d92-8992-940a7cb2a486","ios":"levelo://app?vid=03080dce-1f55-4d92-8992-940a7cb2a486"},"vehicle_type_id":"4","last_reported":1756285834,"current_range_meters":20800,"station_id":"st_cvj6r9ubvosntc0bgbag","pricing_plan_id":"cebpf4jnsgd1na2vs0mg"},{"bike_id":"9b376013-1b8a-4834-bd67-7c283f5ae10a","system_id":"levelo_inurba_marseille","lat":43.32329,"lon":5.40624,"is_reserved":false,"is_disabled":false,"rental_uris":{"android":"levelo://app?vid=9b376013-1b8a-4834-bd67-7c283f5ae10a","ios":"levelo://app?vid=9b376013-1b8a-4834-bd67-7c283f5ae10a"},"vehicle_type_id":"4","last_reported":1756285834,"current_range_meters":20800,"station_id":"ce4bhq92rcd13ifvqhjg","pricing_plan_id":"cebpf4jnsgd1na2vs0mg"},{"bike_id":"7bb76b32-f64a-4b06-8925-67a86c5c4890","system_id":"levelo_inurba_marseille","lat":43.31172,"lon":5.38702,"is_reserved":false,"is_disabled":false,"rental_uris":{"android":"levelo://app?vid=7bb76b32-f64a-4b06-8925-67a86c5c4890","ios":"levelo://app?vid=7bb76b32-f64a-4b06-8925-67a86c5c4890"},"vehicle_type_id":"4","last_reported":1756285834,"current_range_meters":20400,"station_id":"ce4bgv12rcd13ifvqcp0","pricing_plan_id":"cebpf4jnsgd1na2vs0mg"},{"bike_id":"20c40bc5-0fe7-4d2a-aeac-3e4dba377090","system_id":"levelo_inurba_marseille","lat":43.31493,"lon":5.37322,"is_reserved":false,"is_disabled":false,"rental_uris":{"android":"levelo://app?vid=20c40bc5-0fe7-4d2a-aeac-3e4dba377090","ios":"levelo://app?vid=20c40bc5-0fe7-4d2a-aeac-3e4dba377090"},"vehicle_type_id":"4","last_reported":1756285834,"current_range_meters":20800,"station_id":"ce4bgt12rcd13ifvqcd0","pricing_plan_id":"cebpf4jnsgd1na2vs0mg"},{"bike_id":"43fb1eda-8f7d-4377-9b57-f38a0ecb5909","system_id":"levelo_inurba_marseille","lat":43.26206,"lon":5.37459,"is_reserved":false,"is_disabled":false,"rental_uris":{"android":"levelo://app?vid=43fb1eda-8f7d-4377-9b57-f38a0ecb5909","ios":"levelo://app?vid=43fb1eda-8f7d-4377-9b57-f38a0ecb5909"},"vehicle_type_id":"4","last_reported":1756285834,"current_range_meters":20800,"station_id":"ce4bhgp2rcd13ifvqfc0","pricing_plan_id":"cebpf4jnsgd1na2vs0mg"},{"bike_id":"efdd5748-f8fc-4667-80db-927ea43ee301","system_id":"levelo_inurba_marseille","lat":43.280001,"lon":5.416645,"is_reserved":false,"is_disabled":false,"rental_uris":{"android":"levelo://app?vid=efdd5748-f8fc-4667-80db-927ea43ee301","ios":"levelo://app?vid=efdd5748-f8fc-4667-80db-927ea43ee301"},"vehicle_type_id":"4","last_reported":1756285834,"current_range_meters":20800,"station_id":"ce4bho12rcd13ifvqh1g","pricing_plan_id":"cebpf4jnsgd1na2vs0mg"},{"bike_id":"472733a6-f01a-4ba5-a6d2-6499fc93b560","system_id":"levelo_inurba_marseille","lat":43.292713,"lon":5.368483,"is_reserved":false,"is_disabled":false,"rental_uris":{"android":"levelo://app?vid=472733a6-f01a-4ba5-a6d2-6499fc93b560","ios":"levelo://app?vid=472733a6-f01a-4ba5-a6d2-6499fc93b560"},"vehicle_type_id":"4","last_reported":1756285834,"current_range_meters":20800,"station_id":"ce4bhbp2rcd13ifvqesg","pricing_plan_id":"cebpf4jnsgd1na2vs0mg"},{"bike_id":"8995d051-3d4a-4bfd-b4ef-e2bb6adc8631","system_id":"levelo_inurba_marseille","lat":43.269567,"lon":5.386173,"is_reserved":false,"is_disabled":false,"rental_uris":{"android":"levelo://app?vid=8995d051-3d4a-4bfd-b4ef-e2bb6adc8631","ios":"levelo://app?vid=8995d051-3d4a-4bfd-b4ef-e2bb6adc8631"},"vehicle_type_id":"4","last_reported":1756285834,"current_range_meters":20800,"station_id":"","pricing_plan_id":"cebpf4jnsgd1na2vs0mg"},{"bike_id":"2bd6ab23-17da-458f-a096-efb6edb833d3","system_id":"levelo_inurba_marseille","lat":43.32535,"lon":5.41443,"is_reserved":false,"is_disabled":false,"rental_uris":{"android":"levelo://app?vid=2bd6ab23-17da-458f-a096-efb6edb833d3","ios":"levelo://app?vid=2bd6ab23-17da-458f-a096-efb6edb833d3"},"vehicle_type_id":"4","last_reported":1756285834,"current_range_meters":20800,"station_id":"ce4bhq12rcd13ifvqhhg","pricing_plan_id":"cebpf4jnsgd1na2vs0mg"},{"bike_id":"c7c9b547-f7e8-4f62-9ad2-9170b60ee143","system_id":"levelo_inurba_marseille","lat":43.295064,"lon":5.373908,"is_reserved":false,"is_disabled":false,"rental_uris":{"android":"levelo://app?vid=c7c9b547-f7e8-4f62-9ad2-9170b60ee143","ios":"levelo://app?vid=c7c9b547-f7e8-4f62-9ad2-9170b60ee143"},"vehicle_type_id":"4","last_reported":1756285834,"current_range_meters":20800,"station_id":"ce4bgi12rcd13ifvqb80","pricing_plan_id":"cebpf4jnsgd1na2vs0mg"},{"bike_id":"24ee0520-8a2e-4a99-8c18-53e391829261","system_id":"levelo_inurba_marseille","lat":43.31367,"lon":5.36703,"is_reserved":false,"is_disabled":false,"rental_uris":{"android":"levelo://app?vid=24ee0520-8a2e-4a99-8c18-53e391829261","ios":"levelo://app?vid=24ee0520-8a2e-4a99-8c18-53e391829261"},"vehicle_type_id":"4","last_reported":1756285834,"current_range_meters":21600,"station_id":"ce4bgr92rcd13ifvqc6g","pricing_plan_id":"cebpf4jnsgd1na2vs0mg"},{"bike_id":"0eb856e3-807d-4866-977d-46d4eb17c322","system_id":"levelo_inurba_marseille","lat":43.31715,"lon":5.37759,"is_reserved":false,"is_disabled":false,"rental_uris":{"android":"levelo://app?vid=0eb856e3-807d-4866-977d-46d4eb17c322","ios":"levelo://app?vid=0eb856e3-807d-4866-977d-46d4eb17c322"},"vehicle_type_id":"4","last_reported":1756285834,"current_range_meters":21600,"station_id":"ce4bgth2rcd13ifvqch0","pricing_plan_id":"cebpf4jnsgd1na2vs0mg"},{"bike_id":"c7947910-f6df-4351-95cb-ad7cab6a3f07","system_id":"levelo_inurba_marseille","lat":43.30791,"lon":5.37658,"is_reserved":false,"is_disabled":true,"rental_uris":{"android":"levelo://app?vid=c7947910-f6df-4351-95cb-ad7cab6a3f07","ios":"levelo://app?vid=c7947910-f6df-4351-95cb-ad7cab6a3f07"},"vehicle_type_id":"4","last_reported":1756285834,"current_range_meters":21600,"station_id":"ce4bgv92rcd13ifvqcq0","pricing_plan_id":"cebpf4jnsgd1na2vs0mg"},{"bike_id":"54e2254c-191f-48ef-bb16-470a88bbd95c","system_id":"levelo_inurba_marseille","lat":43.29216,"lon":5.40872,"is_reserved":false,"is_disabled":false,"rental_uris":{"android":"levelo://app?vid=54e2254c-191f-48ef-bb16-470a88bbd95c","ios":"levelo://app?vid=54e2254c-191f-48ef-bb16-470a88bbd95c"},"vehicle_type_id":"4","last_reported":1756285834,"current_range_meters":21600,"station_id":"ce4bh192rcd13ifvqdc0","pricing_plan_id":"cebpf4jnsgd1na2vs0mg"},{"bike_id":"f29b18b6-ba57-4f65-b45f-7d5d1b9c32ca","system_id":"levelo_inurba_marseille","lat":43.26557,"lon":5.37281,"is_reserved":false,"is_disabled":false,"rental_uris":{"android":"levelo://app?vid=f29b18b6-ba57-4f65-b45f-7d5d1b9c32ca","ios":"levelo://app?vid=f29b18b6-ba57-4f65-b45f-7d5d1b9c32ca"},"vehicle_type_id":"4","last_reported":1756285834,"current_range_meters":21600,"station_id":"ce4bhg12rcd13ifvqf70","pricing_plan_id":"cebpf4jnsgd1na2vs0mg"},{"bike_id":"f294da96-4a22-4437-ae35-6c6c242811b5","system_id":"levelo_inurba_marseille","lat":43.30587,"lon":5.37232,"is_reserved":false,"is_disabled":false,"rental_uris":{"android":"levelo://app?vid=f294da96-4a22-4437-ae35-6c6c242811b5","ios":"levelo://app?vid=f294da96-4a22-4437-ae35-6c6c242811b5"},"vehicle_type_id":"4","last_reported":1756285834,"current_range_meters":22000,"station_id":"ce4bgqh2rcd13ifvqc4g","pricing_plan_id":"cebpf4jnsgd1na2vs0mg"},{"bike_id":"1729164d-e5e9-4955-879e-d22447f3ec79","system_id":"levelo_inurba_marseille","lat":43.27367,"lon":5.36261,"is_reserved":false,"is_disabled":false,"rental_uris":{"android":"levelo://app?vid=1729164d-e5e9-4955-879e-d22447f3ec79","ios":"levelo://app?vid=1729164d-e5e9-4955-879e-d22447f3ec79"},"vehicle_type_id":"4","last_reported":1756285834,"current_range_meters":22000,"station_id":"ce4bhbh2rcd13ifvqeo0","pricing_plan_id":"cebpf4jnsgd1na2vs0mg"},{"bike_id":"152991b6-cb71-4c71-8b74-02feb30c2d3b","system_id":"levelo_inurba_marseille","lat":43.30498,"lon":5.37883,"is_reserved":false,"is_disabled":false,"rental_uris":{"android":"levelo://app?vid=152991b6-cb71-4c71-8b74-02feb30c2d3b","ios":"levelo://app?vid=152991b6-cb71-4c71-8b74-02feb30c2d3b"},"vehicle_type_id":"4","last_reported":1756285834,"current_range_meters":22000,"station_id":"ce4bgup2rcd13ifvqcn0","pricing_plan_id":"cebpf4jnsgd1na2vs0mg"},{"bike_id":"a51f739e-5177-4170-83df-714a73f97e0a","system_id":"levelo_inurba_marseille","lat":43.29573,"lon":5.37522,"is_reserved":false,"is_disabled":false,"rental_uris":{"android":"levelo://app?vid=a51f739e-5177-4170-83df-714a73f97e0a","ios":"levelo://app?vid=a51f739e-5177-4170-83df-714a73f97e0a"},"vehicle_type_id":"4","last_reported":1756285834,"current_range_meters":22000,"station_id":"ce4bgh92rcd13ifvqb50","pricing_plan_id":"cebpf4jnsgd1na2vs0mg"},{"bike_id":"b02742f8-8407-44ec-9412-e3e499be00b3","system_id":"levelo_inurba_marseille","lat":43.309251,"lon":5.401311,"is_reserved":false,"is_disabled":false,"rental_uris":{"android":"levelo://app?vid=b02742f8-8407-44ec-9412-e3e499be00b3","ios":"levelo://app?vid=b02742f8-8407-44ec-9412-e3e499be00b3"},"vehicle_type_id":"4","last_reported":1756285834,"current_range_meters":22000,"station_id":"ce4bgvp2rcd13ifvqct0","pricing_plan_id":"cebpf4jnsgd1na2vs0mg"},{"bike_id":"bc87de52-9645-4d52-984f-e5ce816d33b8","system_id":"levelo_inurba_marseille","lat":43.31499,"lon":5.37327,"is_reserved":false,"is_disabled":false,"rental_uris":{"android":"levelo://app?vid=bc87de52-9645-4d52-984f-e5ce816d33b8","ios":"levelo://app?vid=bc87de52-9645-4d52-984f-e5ce816d33b8"},"vehicle_type_id":"4","last_reported":1756285834,"current_range_meters":22000,"station_id":"ce4bgt12rcd13ifvqcd0","pricing_plan_id":"cebpf4jnsgd1na2vs0mg"},{"bike_id":"3f90b47f-2c2f-4ba4-b8d3-1666ede67645","system_id":"levelo_inurba_marseille","lat":43.30744,"lon":5.37382,"is_reserved":false,"is_disabled":false,"rental_uris":{"android":"levelo://app?vid=3f90b47f-2c2f-4ba4-b8d3-1666ede67645","ios":"levelo://app?vid=3f90b47f-2c2f-4ba4-b8d3-1666ede67645"},"vehicle_type_id":"4","last_reported":1756285834,"current_range_meters":22000,"station_id":"","pricing_plan_id":"cebpf4jnsgd1na2vs0mg"},{"bike_id":"97548af9-5684-4bbb-87be-b1f4aa1e2958","system_id":"levelo_inurba_marseille","lat":43.304205,"lon":5.412196,"is_reserved":false,"is_disabled":false,"rental_uris":{"android":"levelo://app?vid=97548af9-5684-4bbb-87be-b1f4aa1e2958","ios":"levelo://app?vid=97548af9-5684-4bbb-87be-b1f4aa1e2958"},"vehicle_type_id":"4","last_reported":1756285834,"current_range_meters":22000,"station_id":"ce4bhop2rcd13ifvqh8g","pricing_plan_id":"cebpf4jnsgd1na2vs0mg"},{"bike_id":"c8ed8afa-4750-4d5e-b29e-7da3cd8f4dc7","system_id":"levelo_inurba_marseille","lat":43.32334,"lon":5.36769,"is_reserved":false,"is_disabled":false,"rental_uris":{"android":"levelo://app?vid=c8ed8afa-4750-4d5e-b29e-7da3cd8f4dc7","ios":"levelo://app?vid=c8ed8afa-4750-4d5e-b29e-7da3cd8f4dc7"},"vehicle_type_id":"4","last_reported":1756285834,"current_range_meters":22000,"station_id":"ce4bhsh2rcd13ifvqi2g","pricing_plan_id":"cebpf4jnsgd1na2vs0mg"},{"bike_id":"9944892f-c423-49a6-80e3-d21746e0ead9","system_id":"levelo_inurba_marseille","lat":43.32359,"lon":5.36747,"is_reserved":false,"is_disabled":false,"rental_uris":{"android":"levelo://app?vid=9944892f-c423-49a6-80e3-d21746e0ead9","ios":"levelo://app?vid=9944892f-c423-49a6-80e3-d21746e0ead9"},"vehicle_type_id":"4","last_reported":1756285834,"current_range_meters":22400,"station_id":"ce4bhsh2rcd13ifvqi2g","pricing_plan_id":"cebpf4jnsgd1na2vs0mg"},{"bike_id":"4d145077-8f89-4bf2-8313-1cf37857d084","system_id":"levelo_inurba_marseille","lat":43.25925,"lon":5.40897,"is_reserved":false,"is_disabled":false,"rental_uris":{"android":"levelo://app?vid=4d145077-8f89-4bf2-8313-1cf37857d084","ios":"levelo://app?vid=4d145077-8f89-4bf2-8313-1cf37857d084"},"vehicle_type_id":"4","last_reported":1756285834,"current_range_meters":22400,"station_id":"ce4bhm92rcd13ifvqglg","pricing_plan_id":"cebpf4jnsgd1na2vs0mg"},{"bike_id":"7a2eec57-eec5-4a9e-b79e-b622556fb269","system_id":"levelo_inurba_marseille","lat":43.3211,"lon":5.36769,"is_reserved":false,"is_disabled":false,"rental_uris":{"android":"levelo://app?vid=7a2eec57-eec5-4a9e-b79e-b622556fb269","ios":"levelo://app?vid=7a2eec57-eec5-4a9e-b79e-b622556fb269"},"vehicle_type_id":"4","last_reported":1756285834,"current_range_meters":22400,"station_id":"ce4bhrh2rcd13ifvqhug","pricing_plan_id":"cebpf4jnsgd1na2vs0mg"},{"bike_id":"55e1058b-18d1-45e9-b203-9d75a64a2380","system_id":"levelo_inurba_marseille","lat":43.30542,"lon":5.36729,"is_reserved":false,"is_disabled":false,"rental_uris":{"android":"levelo://app?vid=55e1058b-18d1-45e9-b203-9d75a64a2380","ios":"levelo://app?vid=55e1058b-18d1-45e9-b203-9d75a64a2380"},"vehicle_type_id":"4","last_reported":1756285834,"current_range_meters":22400,"station_id":"ce4bgrp2rcd13ifvqc9g","pricing_plan_id":"cebpf4jnsgd1na2vs0mg"},{"bike_id":"78d3d91b-5eb1-4ab6-b3ea-965333b9a802","system_id":"levelo_inurba_marseille","lat":43.270825,"lon":5.393151,"is_reserved":false,"is_disabled":true,"rental_uris":{"android":"levelo://app?vid=78d3d91b-5eb1-4ab6-b3ea-965333b9a802","ios":"levelo://app?vid=78d3d91b-5eb1-4ab6-b3ea-965333b9a802"},"vehicle_type_id":"4","last_reported":1756285834,"current_range_meters":22400,"station_id":"","pricing_plan_id":"cebpf4jnsgd1na2vs0mg"},{"bike_id":"7b115e7a-8a6d-4060-b2ad-3325a2fb61b3","system_id":"levelo_inurba_marseille","lat":43.293,"lon":5.37459,"is_reserved":false,"is_disabled":false,"rental_uris":{"android":"levelo://app?vid=7b115e7a-8a6d-4060-b2ad-3325a2fb61b3","ios":"levelo://app?vid=7b115e7a-8a6d-4060-b2ad-3325a2fb61b3"},"vehicle_type_id":"4","last_reported":1756285834,"current_range_meters":22400,"station_id":"ce4bgi12rcd13ifvqb70","pricing_plan_id":"cebpf4jnsgd1na2vs0mg"},{"bike_id":"515df174-c109-4d18-8e1a-e6ad95407dbe","system_id":"levelo_inurba_marseille","lat":43.231894,"lon":5.399864,"is_reserved":false,"is_disabled":false,"rental_uris":{"android":"levelo://app?vid=515df174-c109-4d18-8e1a-e6ad95407dbe","ios":"levelo://app?vid=515df174-c109-4d18-8e1a-e6ad95407dbe"},"vehicle_type_id":"4","last_reported":1756285834,"current_range_meters":22400,"station_id":"ce4bhn12rcd13ifvqgqg","pricing_plan_id":"cebpf4jnsgd1na2vs0mg"},{"bike_id":"7a2eb5be-446b-491d-a210-232b74a0f35a","system_id":"levelo_inurba_marseille","lat":43.24646,"lon":5.38916,"is_reserved":false,"is_disabled":false,"rental_uris":{"android":"levelo://app?vid=7a2eb5be-446b-491d-a210-232b74a0f35a","ios":"levelo://app?vid=7a2eb5be-446b-491d-a210-232b74a0f35a"},"vehicle_type_id":"4","last_reported":1756285834,"current_range_meters":22800,"station_id":"ce4bhg12rcd13ifvqf60","pricing_plan_id":"cebpf4jnsgd1na2vs0mg"},{"bike_id":"4d8bfb0e-2ab6-4b86-a66d-54cc6b68139f","system_id":"levelo_inurba_marseille","lat":43.312206,"lon":5.368643,"is_reserved":false,"is_disabled":false,"rental_uris":{"android":"levelo://app?vid=4d8bfb0e-2ab6-4b86-a66d-54cc6b68139f","ios":"levelo://app?vid=4d8bfb0e-2ab6-4b86-a66d-54cc6b68139f"},"vehicle_type_id":"4","last_reported":1756285834,"current_range_meters":22800,"station_id":"ce4bgl92rcd13ifvqbq0","pricing_plan_id":"cebpf4jnsgd1na2vs0mg"},{"bike_id":"2592d48e-4f91-4661-a841-16b2ce57828c","system_id":"levelo_inurba_marseille","lat":43.242238,"lon":5.386805,"is_reserved":false,"is_disabled":false,"rental_uris":{"android":"levelo://app?vid=2592d48e-4f91-4661-a841-16b2ce57828c","ios":"levelo://app?vid=2592d48e-4f91-4661-a841-16b2ce57828c"},"vehicle_type_id":"4","last_reported":1756285834,"current_range_meters":22800,"station_id":"","pricing_plan_id":"cebpf4jnsgd1na2vs0mg"},