{"last_updated":1747379423,"ttl":60,"version":"2.2","data":{"bikes":[{"bike_id":"c0b9fd4f-e181-46ce-b0bf-f5119973334f","system_id":"levelo_inurba_marseille","lat":43.33771,"lon":5.37424,"is_reserved":false,"is_disabled":false,"rental_uris":{"android":"levelo://app?vid=c0b9fd4f-e181-46ce-b0bf-f5119973334f","ios":"levelo://app?vid=c0b9fd4f-e181-46ce-b0bf-f5119973334f"},"vehicle_type_id":"4","last_reported":1747379423,"current_range_meters":11200,"station_id":"","pricing_plan_id":"cebpf4jnsgd1na2vs0mg"},{"bike_id":"fc2577e7-1497-425b-9d4f-ab8d7dc843c6","system_id":"levelo_inurba_marseille","lat":43.33771,"lon":5.37485,"is_reserved":false,"is_disabled":true,"rental_uris":{"android":"levelo://app?vid=fc2577e7-1497-425b-9d4f-ab8d7dc843c6","ios":"levelo://app?vid=fc2577e7-1497-425b-9d4f-ab8d7dc843c6"},"vehicle_type_id":"4","last_reported":1747379423,"current_range_meters":0,"station_id":"","pricing_plan_id":"cebpf4jnsgd1na2vs0mg"},{"bike_id":"ce4325af-2448-4172-bdec-81d552ee0b62","system_id":"levelo_inurba_marseille","lat":43.26172,"lon":5.42028,"is_reserved":false,"is_disabled":true,"rental_uris":{"android":"levelo://app?vid=ce4325af-2448-4172-bdec-81d552ee0b62","ios":"levelo://app?vid=ce4325af-2448-4172-bdec-81d552ee0b62"},"vehicle_type_id":"4","last_reported":1747379423,"current_range_meters":0,"station_id":"","pricing_plan_id":"cebpf4jnsgd1na2vs0mg"},{"bike_id":"e62a2c8b-ebd4-4592-ae0f-ff5560db0b84","system_id":"levelo_inurba_marseille","lat":43.246818,"lon":5.399506,"is_reserved":false,"is_disabled":true,"rental_uris":{"android":"levelo://app?vid=e62a2c8b-ebd4-4592-ae0f-ff5560db0b84","ios":"levelo://app?vid=e62a2c8b-ebd4-4592-ae0f-ff5560db0b84"},"vehicle_type_id":"4","last_reported":1747379423,"current_range_meters":0,"station_id":"","pricing_plan_id":"cebpf4jnsgd1na2vs0mg"},{"bike_id":"2b8fbf5f-4106-421b-bd48-29543ccb14db","system_id":"levelo_inurba_marseille","lat":43.2371,"lon":5.36311,"is_reserved":false,"is_disabled":true,"rental_uris":{"android":"levelo://app?vid=2b8fbf5f-4106-421b-bd48-29543ccb14db","ios":"levelo://app?vid=2b8fbf5f-4106-421b-bd48-29543ccb14db"},"vehicle_type_id":"4","last_reported":1747379423,"current_range_meters":0,"station_id":"","pricing_plan_id":"cebpf4jnsgd1na2vs0mg"},{"bike_id":"5de4311e-acc0-4747-9be3-06bcfa4d137e","system_id":"levelo_inurba_marseille","lat":43.31981,"lon":5.38719,"is_reserved":false,"is_disabled":true,"rental_uris":{"android":"levelo://app?vid=5de4311e-acc0-4747-9be3-06bcfa4d137e","ios":"levelo://app?vid=5de4311e-acc0-4747-9be3-06bcfa4d137e"},"vehicle_type_id":"4","last_reported":1747379423,"current_range_meters":0,"station_id":"","pricing_plan_id":"cebpf4jnsgd1na2vs0mg"},{"bike_id":"772b6fff-1447-445e-950b-c2e27d6bb6b1","system_id":"levelo_inurba_marseille","lat":43.31173,"lon":5.37597,"is_reserved":false,"is_disabled":true,"rental_uris":{"android":"levelo://app?vid=772b6fff-1447-445e-950b-c2e27d6bb6b1","ios":"levelo://app?vid=772b6fff-1447-445e-950b-c2e27d6bb6b1"},"vehicle_type_id":"4","last_reported":1747379423,"current_range_meters":0,"station_id":"","pricing_plan_id":"cebpf4jnsgd1na2vs0mg"},{"bike_id":"792567c6-0442-4011-aff0-9c05e25deb48","system_id":"levelo_inurba_marseille","lat":43.337444,"lon":5.374475,"is_reserved":false,"is_disabled":true,"rental_uris":{"android":"levelo://app?vid=792567c6-0442-4011-aff0-9c05e25deb48","ios":"levelo://app?vid=792567c6-0442-4011-aff0-9c05e25deb48"},"vehicle_type_id":"4","last_reported":1747379423,"current_range_meters":0,"station_id":"","pricing_plan_id":"cebpf4jnsgd1na2vs0mg"},{"bike_id":"2a5dafaf-54ec-4df0-8510-39053ad2d582","system_id":"levelo_inurba_marseille","lat":43.33164,"lon":5.39193,"is_reserved":false,"is_disabled":true,"rental_uris":{"android":"levelo://app?vid=2a5dafaf-54ec-4df0-8510-39053ad2d582","ios":"levelo://app?vid=2a5dafaf-54ec-4df0-8510-39053ad2d582"},"vehicle_type_id":"4","last_reported":1747379423,"current_range_meters":0,"station_id":"","pricing_plan_id":"cebpf4jnsgd1na2vs0mg"},{"bike_id":"0fd4bff8-7683-40d4-b0ae-c129cdc72cba","system_id":"levelo_inurba_marseille","lat":43.30706,"lon":5.40453,"is_reserved":false,"is_disabled":true,"rental_uris":{"android":"levelo://app?vid=0fd4bff8-7683-40d4-b0ae-c129cdc72cba","ios":"levelo://app?vid=0fd4bff8-7683-40d4-b0ae-c129cdc72cba"},"vehicle_type_id":"4","last_reported":1747379423,"current_range_meters":0,"station_id":"","pricing_plan_id":"cebpf4jnsgd1na2vs0mg"},{"bike_id":"3179ff6d-58de-4b78-94ca-fb59c7f00f20","system_id":"levelo_inurba_marseille","lat":43.31227,"lon":5.36845,"is_reserved":false,"is_disabled":true,"rental_uris":{"android":"levelo://app?vid=3179ff6d-58de-4b78-94ca-fb59c7f00f20","ios":"levelo://app?vid=3179ff6d-58de-4b78-94ca-fb59c7f00f20"},"vehicle_type_id":"4","last_reported":1747379423,"current_range_meters":0,"station_id":"ce4bgl92rcd13ifvqbq0","pricing_plan_id":"cebpf4jnsgd1na2vs0mg"},{"bike_id":"baf3d633-87d2-45e7-a805-05d345f3159c","system_id":"levelo_inurba_marseille","lat":43.30924,"lon":5.40153,"is_reserved":false,"is_disabled":true,"rental_uris":{"android":"levelo://app?vid=baf3d633-87d2-45e7-a805-05d345f3159c","ios":"levelo://app?vid=baf3d633-87d2-45e7-a805-05d345f3159c"},"vehicle_type_id":"4","last_reported":1747379423,"current_range_meters":0,"station_id":"ce4bgvp2rcd13ifvqct0","pricing_plan_id":"cebpf4jnsgd1na2vs0mg"},{"bike_id":"e5f915eb-6443-4749-b8e9-82105a2935ba","system_id":"levelo_inurba_marseille","lat":43.2886,"lon":5.3932,"is_reserved":false,"is_disabled":true,"rental_uris":{"android":"levelo://app?vid=e5f915eb-6443-4749-b8e9-82105a2935ba","ios":"levelo://app?vid=e5f915eb-6443-4749-b8e9-82105a2935ba"},"vehicle_type_id":"4","last_reported":1747379423,"current_range_meters":0,"station_id":"ce4bh2p2rcd13ifvqdi0","pricing_plan_id":"cebpf4jnsgd1na2vs0mg"},{"bike_id":"14e4bb53-657b-4cdb-8059-66a2275f0afe","system_id":"levelo_inurba_marseille","lat":43.29288,"lon":5.40135,"is_reserved":false,"is_disabled":true,"rental_uris":{"android":"levelo://app?vid=14e4bb53-657b-4cdb-8059-66a2275f0afe","ios":"levelo://app?vid=14e4bb53-657b-4cdb-8059-66a2275f0afe"},"vehicle_type_id":"4","last_reported":1747379423,"current_range_meters":0,"station_id":"ce4bh312rcd13ifvqdk0","pricing_plan_id":"cebpf4jnsgd1na2vs0mg"},{"bike_id":"b9d2cd72-a50b-4290-8825-549adc891b7b","system_id":"levelo_inurba_marseille","lat":43.29034,"lon":5.37566,"is_reserved":false,"is_disabled":true,"rental_uris":{"android":"levelo://app?vid=b9d2cd72-a50b-4290-8825-549adc891b7b","ios":"levelo://app?vid=b9d2cd72-a50b-4290-8825-549adc891b7b"},"vehicle_type_id":"4","last_reported":1747379423,"current_range_meters":0,"station_id":"ce4bh692rcd13ifvqe90","pricing_plan_id":"cebpf4jnsgd1na2vs0mg"},{"bike_id":"34cd78d8-1546-40b7-b2ab-40a9bfe04d24","system_id":"levelo_inurba_marseille","lat":43.28107,"lon":5.37845,"is_reserved":false,"is_disabled":true,"rental_uris":{"android":"levelo://app?vid=34cd78d8-1546-40b7-b2ab-40a9bfe04d24","ios":"levelo://app?vid=34cd78d8-1546-40b7-b2ab-40a9bfe04d24"},"vehicle_type_id":"4","last_reported":1747379423,"current_range_meters":0,"station_id":"ce4bha12rcd13ifvqee0","pricing_plan_id":"cebpf4jnsgd1na2vs0mg"},{"bike_id":"d07757ea-b235-4a46-8f94-2295a329b1fc","system_id":"levelo_inurba_marseille","lat":43.28033,"lon":5.36935,"is_reserved":false,"is_disabled":true,"rental_uris":{"android":"levelo://app?vid=d07757ea-b235-4a46-8f94-2295a329b1fc","ios":"levelo://app?vid=d07757ea-b235-4a46-8f94-2295a329b1fc"},"vehicle_type_id":"4","last_reported":1747379423,"current_range_meters":0,"station_id":"ce4bha12rcd13ifvqef0","pricing_plan_id":"cebpf4jnsgd1na2vs0mg"},{"bike_id":"165f7e17-b816-423a-a9c0-5326d1b36e58","system_id":"levelo_inurba_marseille","lat":43.29181,"lon":5.37197,"is_reserved":false,"is_disabled":true,"rental_uris":{"android":"levelo://app?vid=165f7e17-b816-423a-a9c0-5326d1b36e58","ios":"levelo://app?vid=165f7e17-b816-423a-a9c0-5326d1b36e58"},"vehicle_type_id":"4","last_reported":1747379423,"current_range_meters":0,"station_id":"ce4bha92rcd13ifvqeh0","pricing_plan_id":"cebpf4jnsgd1na2vs0mg"},{"bike_id":"7c82a44f-3a52-4f44-af0d-93ada0dc1f16","system_id":"levelo_inurba_marseille","lat":43.2901,"lon":5.35621,"is_reserved":false,"is_disabled":false,"rental_uris":{"android":"levelo://app?vid=7c82a44f-3a52-4f44-af0d-93ada0dc1f16","ios":"levelo://app?vid=7c82a44f-3a52-4f44-af0d-93ada0dc1f16"},"vehicle_type_id":"4","last_reported":1747379423,"current_range_meters":0,"station_id":"ce4bhb92rcd13ifvqen0","pricing_plan_id":"cebpf4jnsgd1na2vs0mg"},{"bike_id":"e4420758-5207-4d51-a67b-ca84f9c3eda6","system_id":"levelo_inurba_marseille","lat":43.29272,"lon":5.36837,"is_reserved":false,"is_disabled":true,"rental_uris":{"android":"levelo://app?vid=e4420758-5207-4d51-a67b-ca84f9c3eda6","ios":"levelo://app?vid=e4420758-5207-4d51-a67b-ca84f9c3eda6"},"vehicle_type_id":"4","last_reported":1747379423,"current_range_meters":0,"station_id":"ce4bhbp2rcd13ifvqesg","pricing_plan_id":"cebpf4jnsgd1na2vs0mg"},{"bike_id":"845db46f-0de8-42d3-af6a-4ad282877a52","system_id":"levelo_inurba_marseille","lat":43.23964,"lon":5.36631,"is_reserved":false,"is_disabled":true,"rental_uris":{"android":"levelo://app?vid=845db46f-0de8-42d3-af6a-4ad282877a52","ios":"levelo://app?vid=845db46f-0de8-42d3-af6a-4ad282877a52"},"vehicle_type_id":"4","last_reported":1747379423,"current_range_meters":0,"station_id":"ce4bhi12rcd13ifvqfp0","pricing_plan_id":"cebpf4jnsgd1na2vs0mg"},{"bike_id":"c4d7d1c0-0a96-446f-abf7-8ab8f93c7785","system_id":"levelo_inurba_marseille","lat":43.27053,"lon":5.40254,"is_reserved":false,"is_disabled":true,"rental_uris":{"android":"levelo://app?vid=c4d7d1c0-0a96-446f-abf7-8ab8f93c7785","ios":"levelo://app?vid=c4d7d1c0-0a96-446f-abf7-8ab8f93c7785"},"vehicle_type_id":"4","last_reported":1747379423,"current_range_meters":0,"station_id":"ce4bhk92rcd13ifvqgc0","pricing_plan_id":"cebpf4jnsgd1na2vs0mg"},{"bike_id":"ad4822f5-dceb-440b-9bcb-6cfc5e9af24d","system_id":"levelo_inurba_marseille","lat":43.29837,"lon":5.42621,"is_reserved":false,"is_disabled":true,"rental_uris":{"android":"levelo://app?vid=ad4822f5-dceb-440b-9bcb-6cfc5e9af24d","ios":"levelo://app?vid=ad4822f5-dceb-440b-9bcb-6cfc5e9af24d"},"vehicle_type_id":"4","last_reported":1747379423,"current_range_meters":400,"station_id":"","pricing_plan_id":"cebpf4jnsgd1na2vs0mg"},{"bike_id":"874493c1-ab8f-41e7-874d-da87fa86281e","system_id":"levelo_inurba_marseille","lat":43.2898,"lon":5.37832,"is_reserved":false,"is_disabled":true,"rental_uris":{"android":"levelo://app?vid=874493c1-ab8f-41e7-874d-da87fa86281e","ios":"levelo://app?vid=874493c1-ab8f-41e7-874d-da87fa86281e"},"vehicle_type_id":"4","last_reported":1747379423,"current_range_meters":400,"station_id":"ce4bh9p2rcd13ifvqed0","pricing_plan_id":"cebpf4jnsgd1na2vs0mg"},{"bike_id":"c109a3ed-48e1-470e-81e8-a47dda223b9a","system_id":"levelo_inurba_marseille","lat":43.29797,"lon":5.38121,"is_reserved":false,"is_disabled":true,"rental_uris":{"android":"levelo://app?vid=c109a3ed-48e1-470e-81e8-a47dda223b9a","ios":"levelo://app?vid=c109a3ed-48e1-470e-81e8-a47dda223b9a"},"vehicle_type_id":"4","last_reported":1747379423,"current_range_meters":800,"station_id":"ce4bgip2rcd13ifvqbb0","pricing_plan_id":"cebpf4jnsgd1na2vs0mg"},{"bike_id":"617e2582-ec93-4aab-80dd-35e0bc94e61d","system_id":"levelo_inurba_marseille","lat":43.29784,"lon":5.37098,"is_reserved":false,"is_disabled":true,"rental_uris":{"android":"levelo://app?vid=617e2582-ec93-4aab-80dd-35e0bc94e61d","ios":"levelo://app?vid=617e2582-ec93-4aab-80dd-35e0bc94e61d"},"vehicle_type_id":"4","last_reported":1747379423,"current_range_meters":800,"station_id":"ce4bgop2rcd13ifvqc1g","pricing_plan_id":"cebpf4jnsgd1na2vs0mg"},{"bike_id":"defeb2d6-a3ba-4112-9b87-70dc47f355ca","system_id":"levelo_inurba_marseille","lat":43.309223,"lon":5.401448,"is_reserved":false,"is_disabled":true,"rental_uris":{"android":"levelo://app?vid=defeb2d6-a3ba-4112-9b87-70dc47f355ca","ios":"levelo://app?vid=defeb2d6-a3ba-4112-9b87-70dc47f355ca"},"vehicle_type_id":"4","last_reported":1747379423,"current_range_meters":800,"station_id":"ce4bgvp2rcd13ifvqct0","pricing_plan_id":"cebpf4jnsgd1na2vs0mg"},{"bike_id":"5239e065-dddb-4797-bfe0-de1a664e2961","system_id":"levelo_inurba_marseille","lat":43.29044,"lon":5.39927,"is_reserved":false,"is_disabled":true,"rental_uris":{"android":"levelo://app?vid=5239e065-dddb-4797-bfe0-de1a664e2961","ios":"levelo://app?vid=5239e065-dddb-4797-bfe0-de1a664e2961"},"vehicle_type_id":"4","last_reported":1747379423,"current_range_meters":800,"station_id":"ce4bh392rcd13ifvqdm0","pricing_plan_id":"cebpf4jnsgd1na2vs0mg"},{"bike_id":"e8578e96-a4a9-420e-b8dc-a6502e83f19e","system_id":"levelo_inurba_marseille","lat":43.29188,"lon":5.35802,"is_reserved":false,"is_disabled":true,"rental_uris":{"android":"levelo://app?vid=e8578e96-a4a9-420e-b8dc-a6502e83f19e","ios":"levelo://app?vid=e8578e96-a4a9-420e-b8dc-a6502e83f19e"},"vehicle_type_id":"4","last_reported":1747379423,"current_range_meters":800,"station_id":"ce4bhb12rcd13ifvqel0","pricing_plan_id":"cebpf4jnsgd1na2vs0mg"},{"bike_id":"245fabe4-46dc-49bf-8a93-394efaca29aa","system_id":"levelo_inurba_marseille","lat":43.28715,"lon":5.39993,"is_reserved":false,"is_disabled":true,"rental_uris":{"android":"levelo://app?vid=245fabe4-46dc-49bf-8a93-394efaca29aa","ios":"levelo://app?vid=245fabe4-46dc-49bf-8a93-394efaca29aa"},"vehicle_type_id":"4","last_reported":1747379423,"current_range_meters":800,"station_id":"ce4bho92rcd13ifvqh3g","pricing_plan_id":"cebpf4jnsgd1na2vs0mg"},{"bike_id":"5ea8acd0-9747-4063-b2d7-ac143ecf4a74","system_id":"levelo_inurba_marseille","lat":43.32367,"lon":5.38871,"is_reserved":false,"is_disabled":true,"rental_uris":{"android":"levelo://app?vid=5ea8acd0-9747-4063-b2d7-ac143ecf4a74","ios":"levelo://app?vid=5ea8acd0-9747-4063-b2d7-ac143ecf4a74"},"vehicle_type_id":"4","last_reported":1747379423,"current_range_meters":800,"station_id":"ce4bhqp2rcd13ifvqhog","pricing_plan_id":"cebpf4jnsgd1na2vs0mg"},{"bike_id":"a73d127f-5b1e-4c85-b09d-7b4a39558bb7","system_id":"levelo_inurba_marseille","lat":43.2987,"lon":5.38373,"is_reserved":false,"is_disabled":true,"rental_uris":{"android":"levelo://app?vid=a73d127f-5b1e-4c85-b09d-7b4a39558bb7","ios":"levelo://app?vid=a73d127f-5b1e-4c85-b09d-7b4a39558bb7"},"vehicle_type_id":"4","last_reported":1747379423,"current_range_meters":1200,"station_id":"","pricing_plan_id":"cebpf4jnsgd1na2vs0mg"},{"bike_id":"508a462f-929b-4c76-811f-869f846f7f66","system_id":"levelo_inurba_marseille","lat":43.292469,"lon":5.376377,"is_reserved":false,"is_disabled":true,"rental_uris":{"android":"levelo://app?vid=508a462f-929b-4c76-811f-869f846f7f66","ios":"levelo://app?vid=508a462f-929b-4c76-811f-869f846f7f66"},"vehicle_type_id":"4","last_reported":1747379423,"current_range_meters":1200,"station_id":"ce4bgi12rcd13ifvqb80","pricing_plan_id":"cebpf4jnsgd1na2vs0mg"},{"bike_id":"b5167c8a-5cd5-479d-804c-4db1aeccd1d7","system_id":"levelo_inurba_marseille","lat":43.30888,"lon":5.36854,"is_reserved":false,"is_disabled":true,"rental_uris":{"android":"levelo://app?vid=b5167c8a-5cd5-479d-804c-4db1aeccd1d7","ios":"levelo://app?vid=b5167c8a-5cd5-479d-804c-4db1aeccd1d7"},"vehicle_type_id":"4","last_reported":1747379423,"current_range_meters":1200,"station_id":"ce4bgn92rcd13ifvqbvg","pricing_plan_id":"cebpf4jnsgd1na2vs0mg"},{"bike_id":"c361d93f-d568-4bf8-a701-97f93e9f1c29","system_id":"levelo_inurba_marseille","lat":43.30537,"lon":5.36555,"is_reserved":false,"is_disabled":true,"rental_uris":{"android":"levelo://app?vid=c361d93f-d568-4bf8-a701-97f93e9f1c29","ios":"levelo://app?vid=c361d93f-d568-4bf8-a701-97f93e9f1c29"},"vehicle_type_id":"4","last_reported":1747379423,"current_range_meters":1200,"station_id":"ce4bgs12rcd13ifvqcag","pricing_plan_id":"cebpf4jnsgd1na2vs0mg"},{"bike_id":"cba3eb64-06de-4910-be2c-3d3cdc00ee8c","system_id":"levelo_inurba_marseille","lat":43.305984,"lon":5.39354,"is_reserved":false,"is_disabled":true,"rental_uris":{"android":"levelo://app?vid=cba3eb64-06de-4910-be2c-3d3cdc00ee8c","ios":"levelo://app?vid=cba3eb64-06de-4910-be2c-3d3cdc00ee8c"},"vehicle_type_id":"4","last_reported":1747379423,"current_range_meters":1200,"station_id":"ce4bh0p2rcd13ifvqd80","pricing_plan_id":"cebpf4jnsgd1na2vs0mg"},{"bike_id":"26135684-4557-4cba-b74c-a76c9c3b316b","system_id":"levelo_inurba_marseille","lat":43.29022,"lon":5.39991,"is_reserved":false,"is_disabled":true,"rental_uris":{"android":"levelo://app?vid=26135684-4557-4cba-b74c-a76c9c3b316b","ios":"levelo://app?vid=26135684-4557-4cba-b74c-a76c9c3b316b"},"vehicle_type_id":"4","last_reported":1747379423,"current_range_meters":1200,"station_id":"ce4bh392rcd13ifvqdm0","pricing_plan_id":"cebpf4jnsgd1na2vs0mg"},{"bike_id":"ae9c61a3-1cfa-4301-a87d-e1a343e034e8","system_id":"levelo_inurba_marseille","lat":43.28728,"lon":5.37936,"is_reserved":false,"is_disabled":true,"rental_uris":{"android":"levelo://app?vid=ae9c61a3-1cfa-4301-a87d-e1a343e034e8","ios":"levelo://app?vid=ae9c61a3-1cfa-4301-a87d-e1a343e034e8"},"vehicle_type_id":"4","last_reported":1747379423,"current_range_meters":1200,"station_id":"ce4bh9p2rcd13ifvqec0","pricing_plan_id":"cebpf4jnsgd1na2vs0mg"},{"bike_id":"11042630-2aa0-4558-bc71-83eebe902538","system_id":"levelo_inurba_marseille","lat":43.27808,"lon":5.40705,"is_reserved":false,"is_disabled":true,"rental_uris":{"android":"levelo://app?vid=11042630-2aa0-4558-bc71-83eebe902538","ios":"levelo://app?vid=11042630-2aa0-4558-bc71-83eebe902538"},"vehicle_type_id":"4","last_reported":1747379423,"current_range_meters":1200,"station_id":"ce4bhnh2rcd13ifvqgtg","pricing_plan_id":"cebpf4jnsgd1na2vs0mg"},{"bike_id":"1dc04bb6-c23e-4d20-b6fc-152bd86dde0d","system_id":"levelo_inurba_marseille","lat":43.32639,"lon":5.40989,"is_reserved":false,"is_disabled":true,"rental_uris":{"android":"levelo://app?vid=1dc04bb6-c23e-4d20-b6fc-152bd86dde0d","ios":"levelo://app?vid=1dc04bb6-c23e-4d20-b6fc-152bd86dde0d"},"vehicle_type_id":"4","last_reported":1747379423,"current_range_meters":1200,"station_id":"ce4bhpp2rcd13ifvqhgg","pricing_plan_id":"cebpf4jnsgd1na2vs0mg"},{"bike_id":"f9e7d873-88bb-4f94-a0d6-3fcae7d05021","system_id":"levelo_inurba_marseille","lat":43.30826,"lon":5.36999,"is_reserved":false,"is_disabled":true,"rental_uris":{"android":"levelo://app?vid=f9e7d873-88bb-4f94-a0d6-3fcae7d05021","ios":"levelo://app?vid=f9e7d873-88bb-4f94-a0d6-3fcae7d05021"},"vehicle_type_id":"4","last_reported":1747379423,"current_range_meters":1600,"station_id":"","pricing_plan_id":"cebpf4jnsgd1na2vs0mg"},{"bike_id":"be874d11-2d06-4759-83a6-05c7c2bc5f88","system_id":"levelo_inurba_marseille","lat":43.27,"lon":5.39105,"is_reserved":false,"is_disabled":true,"rental_uris":{"android":"levelo://app?vid=be874d11-2d06-4759-83a6-05c7c2bc5f88","ios":"levelo://app?vid=be874d11-2d06-4759-83a6-05c7c2bc5f88"},"vehicle_type_id":"4","last_reported":1747379423,"current_range_meters":1600,"station_id":"","pricing_plan_id":"cebpf4jnsgd1na2vs0mg"},{"bike_id":"7721a8d1-93a2-4108-9ca3-306331433e73","system_id":"levelo_inurba_marseille","lat":43.305304,"lon":5.384261,"is_reserved":false,"is_disabled":true,"rental_uris":{"android":"levelo://app?vid=7721a8d1-93a2-4108-9ca3-306331433e73","ios":"levelo://app?vid=7721a8d1-93a2-4108-9ca3-306331433e73"},"vehicle_type_id":"4","last_reported":1747379423,"current_range_meters":1600,"station_id":"ce4bgg92rcd13ifvqb30","pricing_plan_id":"cebpf4jnsgd1na2vs0mg"},{"bike_id":"5ad2c78b-3dab-442c-93d8-454433d1e279","system_id":"levelo_inurba_marseille","lat":43.29512,"lon":5.37466,"is_reserved":false,"is_disabled":true,"rental_uris":{"android":"levelo://app?vid=5ad2c78b-3dab-442c-93d8-454433d1e279","ios":"levelo://app?vid=5ad2c78b-3dab-442c-93d8-454433d1e279"},"vehicle_type_id":"4","last_reported":1747379423,"current_range_meters":1600,"station_id":"ce4bgkp2rcd13ifvqbmg","pricing_plan_id":"cebpf4jnsgd1na2vs0mg"},{"bike_id":"d377eaa5-2351-4742-9b74-72a85040a62d","system_id":"levelo_inurba_marseille","lat":43.29604,"lon":5.381,"is_reserved":false,"is_disabled":true,"rental_uris":{"android":"levelo://app?vid=d377eaa5-2351-4742-9b74-72a85040a62d","ios":"levelo://app?vid=d377eaa5-2351-4742-9b74-72a85040a62d"},"vehicle_type_id":"4","last_reported":1747379423,"current_range_meters":1600,"station_id":"ce4bgl12rcd13ifvqbo0","pricing_plan_id":"cebpf4jnsgd1na2vs0mg"},{"bike_id":"fe099644-59e4-438f-a009-e4740039a77d","system_id":"levelo_inurba_marseille","lat":43.30795,"lon":5.38148,"is_reserved":false,"is_disabled":true,"rental_uris":{"android":"levelo://app?vid=fe099644-59e4-438f-a009-e4740039a77d","ios":"levelo://app?vid=fe099644-59e4-438f-a009-e4740039a77d"},"vehicle_type_id":"4","last_reported":1747379423,"current_range_meters":1600,"station_id":"ce4bgt12rcd13ifvqce0","pricing_plan_id":"cebpf4jnsgd1na2vs0mg"},{"bike_id":"b2325095-6768-4e02-b23f-981e5830af73","system_id":"levelo_inurba_marseille","lat":43.28714,"lon":5.37939,"is_reserved":false,"is_disabled":true,"rental_uris":{"android":"levelo://app?vid=b2325095-6768-4e02-b23f-981e5830af73","ios":"levelo://app?vid=b2325095-6768-4e02-b23f-981e5830af73"},"vehicle_type_id":"4","last_reported":1747379423,"current_range_meters":1600,"station_id":"ce4bh9p2rcd13ifvqec0","pricing_plan_id":"cebpf4jnsgd1na2vs0mg"},{"bike_id":"aa8baf82-bc49-498b-842b-69b5285a08ca","system_id":"levelo_inurba_marseille","lat":43.27082,"lon":5.42269,"is_reserved":false,"is_disabled":true,"rental_uris":{"android":"levelo://app?vid=aa8baf82-bc49-498b-842b-69b5285a08ca","ios":"levelo://app?vid=aa8baf82-bc49-498b-842b-69b5285a08ca"},"vehicle_type_id":"4","last_reported":1747379423,"current_range_meters":1600,"station_id":"ce4bhk92rcd13ifvqgb0","pricing_plan_id":"cebpf4jnsgd1na2vs0mg"},{"bike_id":"6a39a2a9-7221-42a8-8f8f-94a38a8c9b73","system_id":"levelo_inurba_marseille","lat":43.325593,"lon":5.414293,"is_reserved":false,"is_disabled":true,"rental_uris":{"android":"levelo://app?vid=6a39a2a9-7221-42a8-8f8f-94a38a8c9b73","ios":"levelo://app?vid=6a39a2a9-7221-42a8-8f8f-94a38a8c9b73"},"vehicle_type_id":"4","last_reported":1747379423,"current_range_meters":1600,"station_id":"ce4bhq12rcd13ifvqhhg","pricing_plan_id":"cebpf4jnsgd1na2vs0mg"},{"bike_id":"1801e4c0-ef56-412e-9f5f-4e9a7d6eadf8","system_id":"levelo_inurba_marseille","lat":43.31358,"lon":5.36704,"is_reserved":false,"is_disabled":true,"rental_uris":{"android":"levelo://app?vid=1801e4c0-ef56-412e-9f5f-4e9a7d6eadf8","ios":"levelo://app?vid=1801e4c0-ef56-412e-9f5f-4e9a7d6eadf8"},"vehicle_type_id":"4","last_reported":1747379423,"current_range_meters":2000,"station_id":"ce4bgr92rcd13ifvqc6g","pricing_plan_id":"cebpf4jnsgd1na2vs0mg"},{"bike_id":"2814ddfe-f2aa-4b51-a020-6a71ec7e3426","system_id":"levelo_inurba_marseille","lat":43.30591,"lon":5.39352,"is_reserved":false,"is_disabled":true,"rental_uris":{"android":"levelo://app?vid=2814ddfe-f2aa-4b51-a020-6a71ec7e3426","ios":"levelo://app?vid=2814ddfe-f2aa-4b51-a020-6a71ec7e3426"},"vehicle_type_id":"4","last_reported":1747379423,"current_range_meters":2000,"station_id":"ce4bh0p2rcd13ifvqd80","pricing_plan_id":"cebpf4jnsgd1na2vs0mg"},{"bike_id":"f38a6ecf-3d7e-4c0e-8c31-a0d829368ba0","system_id":"levelo_inurba_marseille","lat":43.29578,"lon":5.36748,"is_reserved":false,"is_disabled":false,"rental_uris":{"android":"levelo://app?vid=f38a6ecf-3d7e-4c0e-8c31-a0d829368ba0","ios":"levelo://app?vid=f38a6ecf-3d7e-4c0e-8c31-a0d829368ba0"},"vehicle_type_id":"4","last_reported":1747379423,"current_range_meters":2800,"station_id":"ce4bgph2rcd13ifvqc2g","pricing_plan_id":"cebpf4jnsgd1na2vs0mg"},{"bike_id":"06e8af1d-69ce-405b-8a05-74223376b4d0","system_id":"levelo_inurba_marseille","lat":43.30266,"lon":5.37688,"is_reserved":false,"is_disabled":false,"rental_uris":{"android":"levelo://app?vid=06e8af1d-69ce-405b-8a05-74223376b4d0","ios":"levelo://app?vid=06e8af1d-69ce-405b-8a05-74223376b4d0"},"vehicle_type_id":"4","last_reported":1747379423,"current_range_meters":2800,"station_id":"ce4bguh2rcd13ifvqcj0","pricing_plan_id":"cebpf4jnsgd1na2vs0mg"},{"bike_id":"c4b6ef2b-2ff1-42ac-b20b-b51381b25190","system_id":"levelo_inurba_marseille","lat":43.29225,"lon":5.36073,"is_reserved":false,"is_disabled":false,"rental_uris":{"android":"levelo://app?vid=c4b6ef2b-2ff1-42ac-b20b-b51381b25190","ios":"levelo://app?vid=c4b6ef2b-2ff1-42ac-b20b-b51381b25190"},"vehicle_type_id":"4","last_reported":1747379423,"current_range_meters":2800,"station_id":"ce4bhbh2rcd13ifvqeqg","pricing_plan_id":"cebpf4jnsgd1na2vs0mg"},{"bike_id":"554dc128-db1f-4a42-acf0-68c302f2d80c","system_id":"levelo_inurba_marseille","lat":43.25878,"lon":5.39899,"is_reserved":false,"is_disabled":false,"rental_uris":{"android":"levelo://app?vid=554dc128-db1f-4a42-acf0-68c302f2d80c","ios":"levelo://app?vid=554dc128-db1f-4a42-acf0-68c302f2d80c"},"vehicle_type_id":"4","last_reported":1747379423,"current_range_meters":2800,"station_id":"ce4bhl92rcd13ifvqghg","pricing_plan_id":"cebpf4jnsgd1na2vs0mg"},{"bike_id":"dc7f1cb8-8aea-4fd0-b040-e091160e710d","system_id":"levelo_inurba_marseille","lat":43.29537,"lon":5.38549,"is_reserved":false,"is_disabled":false,"rental_uris":{"android":"levelo://app?vid=dc7f1cb8-8aea-4fd0-b040-e091160e710d","ios":"levelo://app?vid=dc7f1cb8-8aea-4fd0-b040-e091160e710d"},"vehicle_type_id":"4","last_reported":1747379423,"current_range_meters":3200,"station_id":"ce4bgih2rcd13ifvqba0","pricing_plan_id":"cebpf4jnsgd1na2vs0mg"},{"bike_id":"7abda7c7-db3c-4838-b8f4-8d4c84905e22","system_id":"levelo_inurba_marseille","lat":43.3136,"lon":5.36727,"is_reserved":false,"is_disabled":false,"rental_uris":{"android":"levelo://app?vid=7abda7c7-db3c-4838-b8f4-8d4c84905e22","ios":"levelo://app?vid=7abda7c7-db3c-4838-b8f4-8d4c84905e22"},"vehicle_type_id":"4","last_reported":1747379423,"current_range_meters":3200,"station_id":"ce4bgr92rcd13ifvqc6g","pricing_plan_id":"cebpf4jnsgd1na2vs0mg"},{"bike_id":"7b8971de-6d79-40c1-bc40-eb3d54075496","system_id":"levelo_inurba_marseille","lat":43.29032,"lon":5.39963,"is_reserved":false,"is_disabled":false,"rental_uris":{"android":"levelo://app?vid=7b8971de-6d79-40c1-bc40-eb3d54075496","ios":"levelo://app?vid=7b8971de-6d79-40c1-bc40-eb3d54075496"},"vehicle_type_id":"4","last_reported":1747379423,"current_range_meters":3200,"station_id":"ce4bh392rcd13ifvqdm0","pricing_plan_id":"cebpf4jnsgd1na2vs0mg"},{"bike_id":"8ea9feae-8777-4e64-aba7-b7454736bd17","system_id":"levelo_inurba_marseille","lat":43.2905,"lon":5.37174,"is_reserved":false,"is_disabled":false,"rental_uris":{"android":"levelo://app?vid=8ea9feae-8777-4e64-aba7-b7454736bd17","ios":"levelo://app?vid=8ea9feae-8777-4e64-aba7-b7454736bd17"},"vehicle_type_id":"4","last_reported":1747379423,"current_range_meters":3200,"station_id":"ce4bh5p2rcd13ifvqe4g","pricing_plan_id":"cebpf4jnsgd1na2vs0mg"},{"bike_id":"878867dc-6b7b-491e-8df9-f5bce8bfb9a2","system_id":"levelo_inurba_marseille","lat":43.30538,"lon":5.36525,"is_reserved":false,"is_disabled":false,"rental_uris":{"android":"levelo://app?vid=878867dc-6b7b-491e-8df9-f5bce8bfb9a2","ios":"levelo://app?vid=878867dc-6b7b-491e-8df9-f5bce8bfb9a2"},"vehicle_type_id":"4","last_reported":1747379423,"current_range_meters":3600,"station_id":"ce4bgs12rcd13ifvqcag","pricing_plan_id":"cebpf4jnsgd1na2vs0mg"},{"bike_id":"906c1dd6-dcce-4701-9b6a-ab6a467ccdad","system_id":"levelo_inurba_marseille","lat":43.30961,"lon":5.39044,"is_reserved":false,"is_disabled":false,"rental_uris":{"android":"levelo://app?vid=906c1dd6-dcce-4701-9b6a-ab6a467ccdad","ios":"levelo://app?vid=906c1dd6-dcce-4701-9b6a-ab6a467ccdad"},"vehicle_type_id":"4","last_reported":1747379423,"current_range_meters":3600,"station_id":"ce4bgup2rcd13ifvqco0","pricing_plan_id":"cebpf4jnsgd1na2vs0mg"},{"bike_id":"b47ff3b2-1ab9-4945-87ab-f7d96649a5e9","system_id":"levelo_inurba_marseille","lat":43.27205,"lon":5.39191,"is_reserved":false,"is_disabled":false,"rental_uris":{"android":"levelo://app?vid=b47ff3b2-1ab9-4945-87ab-f7d96649a5e9","ios":"levelo://app?vid=b47ff3b2-1ab9-4945-87ab-f7d96649a5e9"},"vehicle_type_id":"4","last_reported":1747379423,"current_range_meters":3600,"station_id":"ce4bhhp2rcd13ifvqfm0","pricing_plan_id":"cebpf4jnsgd1na2vs0mg"},{"bike_id":"fed06cf5-f5f2-4809-91f1-074e851a4497","system_id":"levelo_inurba_marseille","lat":43.24178,"lon":5.39745,"is_reserved":false,"is_disabled":false,"rental_uris":{"android":"levelo://app?vid=fed06cf5-f5f2-4809-91f1-074e851a4497","ios":"levelo://app?vid=fed06cf5-f5f2-4809-91f1-074e851a4497"},"vehicle_type_id":"4","last_reported":1747379423,"current_range_meters":3600,"station_id":"ce4bhn12rcd13ifvqgpg","pricing_plan_id":"cebpf4jnsgd1na2vs0mg"},{"bike_id":"43f2a3bd-2aeb-46d1-8819-8ba7e102444b","system_id":"levelo_inurba_marseille","lat":43.287143,"lon":5.399943,"is_reserved":false,"is_disabled":false,"rental_uris":{"android":"levelo://app?vid=43f2a3bd-2aeb-46d1-8819-8ba7e102444b","ios":"levelo://app?vid=43f2a3bd-2aeb-46d1-8819-8ba7e102444b"},"vehicle_type_id":"4","last_reported":1747379423,"current_range_meters":3600,"station_id":"ce4bho92rcd13ifvqh3g","pricing_plan_id":"cebpf4jnsgd1na2vs0mg"},{"bike_id":"27243ec2-04f9-4fcc-aa72-79cdcf968642","system_id":"levelo_inurba_marseille","lat":43.32489,"lon":5.36586,"is_reserved":false,"is_disabled":false,"rental_uris":{"android":"levelo://app?vid=27243ec2-04f9-4fcc-aa72-79cdcf968642","ios":"levelo://app?vid=27243ec2-04f9-4fcc-aa72-79cdcf968642"},"vehicle_type_id":"4","last_reported":1747379423,"current_range_meters":3600,"station_id":"ce4bhs12rcd13ifvqhvg","pricing_plan_id":"cebpf4jnsgd1na2vs0mg"},{"bike_id":"1e3ac3d6-5361-4f52-896e-5a9a5dae553f","system_id":"levelo_inurba_marseille","lat":43.29976,"lon":5.38483,"is_reserved":false,"is_disabled":false,"rental_uris":{"android":"levelo://app?vid=1e3ac3d6-5361-4f52-896e-5a9a5dae553f","ios":"levelo://app?vid=1e3ac3d6-5361-4f52-896e-5a9a5dae553f"},"vehicle_type_id":"4","last_reported":1747379423,"current_range_meters":4000,"station_id":"ce4bgj92rcd13ifvqbd0","pricing_plan_id":"cebpf4jnsgd1na2vs0mg"},{"bike_id":"776d1e1b-969a-4a6b-8e77-840aa6450020","system_id":"levelo_inurba_marseille","lat":43.2953,"lon":5.37508,"is_reserved":false,"is_disabled":false,"rental_uris":{"android":"levelo://app?vid=776d1e1b-969a-4a6b-8e77-840aa6450020","ios":"levelo://app?vid=776d1e1b-969a-4a6b-8e77-840aa6450020"},"vehicle_type_id":"4","last_reported":1747379423,"current_range_meters":4000,"station_id":"ce4bgkp2rcd13ifvqbmg","pricing_plan_id":"cebpf4jnsgd1na2vs0mg"},{"bike_id":"c52484e6-1630-45aa-a1c4-77197d870f5f","system_id":"levelo_inurba_marseille","lat":43.25895,"lon":5.40846,"is_reserved":false,"is_disabled":false,"rental_uris":{"android":"levelo://app?vid=c52484e6-1630-45aa-a1c4-77197d870f5f","ios":"levelo://app?vid=c52484e6-1630-45aa-a1c4-77197d870f5f"},"vehicle_type_id":"4","last_reported":1747379423,"current_range_meters":4000,"station_id":"ce4bhm92rcd13ifvqglg","pricing_plan_id":"cebpf4jnsgd1na2vs0mg"},{"bike_id":"6379fadf-e6a9-4548-bd24-45ccc5153b54","system_id":"levelo_inurba_marseille","lat":43.23799,"lon":5.38298,"is_reserved":false,"is_disabled":false,"rental_uris":{"android":"levelo://app?vid=6379fadf-e6a9-4548-bd24-45ccc5153b54","ios":"levelo://app?vid=6379fadf-e6a9-4548-bd24-45ccc5153b54"},"vehicle_type_id":"4","last_reported":1747379423,"current_range_meters":4400,"station_id":"","pricing_plan_id":"cebpf4jnsgd1na2vs0mg"},{"bike_id":"ecd87c1a-993e-4c57-9657-dc365be82822","system_id":"levelo_inurba_marseille","lat":43.30902,"lon":5.36845,"is_reserved":false,"is_disabled":false,"rental_uris":{"android":"levelo://app?vid=ecd87c1a-993e-4c57-9657-dc365be82822","ios":"levelo://app?vid=ecd87c1a-993e-4c57-9657-dc365be82822"},"vehicle_type_id":"4","last_reported":1747379423,"current_range_meters":4400,"station_id":"ce4bgn92rcd13ifvqbvg","pricing_plan_id":"cebpf4jnsgd1na2vs0mg"},{"bike_id":"ac312eb3-3929-4e9c-92f7-b15888eb8d14","system_id":"levelo_inurba_marseille","lat":43.29619,"lon":5.37175,"is_reserved":false,"is_disabled":false,"rental_uris":{"android":"levelo://app?vid=ac312eb3-3929-4e9c-92f7-b15888eb8d14","ios":"levelo://app?vid=ac312eb3-3929-4e9c-92f7-b15888eb8d14"},"vehicle_type_id":"4","last_reported":1747379423,"current_range_meters":4400,"station_id":"ce4bgnh2rcd13ifvqc0g","pricing_plan_id":"cebpf4jnsgd1na2vs0mg"},{"bike_id":"bbfddb9a-9a62-41a5-bf0a-497d7c842300","system_id":"levelo_inurba_marseille","lat":43.30535,"lon":5.3655,"is_reserved":false,"is_disabled":false,"rental_uris":{"android":"levelo://app?vid=bbfddb9a-9a62-41a5-bf0a-497d7c842300","ios":"levelo://app?vid=bbfddb9a-9a62-41a5-bf0a-497d7c842300"},"vehicle_type_id":"4","last_reported":1747379423,"current_range_meters":4400,"station_id":"ce4bgs12rcd13ifvqcag","pricing_plan_id":"cebpf4jnsgd1na2vs0mg"},{"bike_id":"52f184b6-f848-4f48-bc3a-104466fe951c","system_id":"levelo_inurba_marseille","lat":43.29019,"lon":5.39987,"is_reserved":false,"is_disabled":false,"rental_uris":{"android":"levelo://app?vid=52f184b6-f848-4f48-bc3a-104466fe951c","ios":"levelo://app?vid=52f184b6-f848-4f48-bc3a-104466fe951c"},"vehicle_type_id":"4","last_reported":1747379423,"current_range_meters":4400,"station_id":"ce4bh392rcd13ifvqdm0","pricing_plan_id":"cebpf4jnsgd1na2vs0mg"},{"bike_id":"e2e2487b-8a81-4022-b36a-6aa7a6726e87","system_id":"levelo_inurba_marseille","lat":43.24155,"lon":5.39714,"is_reserved":false,"is_disabled":false,"rental_uris":{"android":"levelo://app?vid=e2e2487b-8a81-4022-b36a-6aa7a6726e87","ios":"levelo://app?vid=e2e2487b-8a81-4022-b36a-6aa7a6726e87"},"vehicle_type_id":"4","last_reported":1747379423,"current_range_meters":4400,"station_id":"ce4bhn12rcd13ifvqgpg","pricing_plan_id":"cebpf4jnsgd1na2vs0mg"},{"bike_id":"a3f5657d-5fc1-4349-af34-1328afd7e3ba","system_id":"levelo_inurba_marseille","lat":43.30963,"lon":5.39066,"is_reserved":false,"is_disabled":false,"rental_uris":{"android":"levelo://app?vid=a3f5657d-5fc1-4349-af34-1328afd7e3ba","ios":"levelo://app?vid=a3f5657d-5fc1-4349-af34-1328afd7e3ba"},"vehicle_type_id":"4","last_reported":1747379423,"current_range_meters":4800,"station_id":"ce4bgup2rcd13ifvqco0","pricing_plan_id":"cebpf4jnsgd1na2vs0mg"},{"bike_id":"313339e4-da55-400f-a902-c65c62346408","system_id":"levelo_inurba_marseille","lat":43.28934,"lon":5.36632,"is_reserved":false,"is_disabled":false,"rental_uris":{"android":"levelo://app?vid=313339e4-da55-400f-a902-c65c62346408","ios":"levelo://app?vid=313339e4-da55-400f-a902-c65c62346408"},"vehicle_type_id":"4","last_reported":1747379423,"current_range_meters":4800,"station_id":"ce4bhap2rcd13ifvqek0","pricing_plan_id":"cebpf4jnsgd1na2vs0mg"},{"bike_id":"18e2ab6e-8fae-4f1f-b9c7-a4adc527cf67","system_id":"levelo_inurba_marseille","lat":43.33022,"lon":5.37993,"is_reserved":false,"is_disabled":false,"rental_uris":{"android":"levelo://app?vid=18e2ab6e-8fae-4f1f-b9c7-a4adc527cf67","ios":"levelo://app?vid=18e2ab6e-8fae-4f1f-b9c7-a4adc527cf67"},"vehicle_type_id":"4","last_reported":1747379423,"current_range_meters":5600,"station_id":"","pricing_plan_id":"cebpf4jnsgd1na2vs0mg"},{"bike_id":"111fb2f1-9483-49be-904c-ff26d171befc","system_id":"levelo_inurba_marseille","lat":43.30892,"lon":5.36848,"is_reserved":false,"is_disabled":false,"rental_uris":{"android":"levelo://app?vid=111fb2f1-9483-49be-904c-ff26d171befc","ios":"levelo://app?vid=111fb2f1-9483-49be-904c-ff26d171befc"},"vehicle_type_id":"4","last_reported":1747379423,"current_range_meters":5600,"station_id":"ce4bgn92rcd13ifvqbvg","pricing_plan_id":"cebpf4jnsgd1na2vs0mg"},{"bike_id":"0ef48a46-c2fb-49e7-9a44-1490ea11d329","system_id":"levelo_inurba_marseille","lat":43.30888,"lon":5.39634,"is_reserved":false,"is_disabled":false,"rental_uris":{"android":"levelo://app?vid=0ef48a46-c2fb-49e7-9a44-1490ea11d329","ios":"levelo://app?vid=0ef48a46-c2fb-49e7-9a44-1490ea11d329"},"vehicle_type_id":"4","last_reported":1747379423,"current_range_meters":5600,"station_id":"ce4bh012rcd13ifvqcv0","pricing_plan_id":"cebpf4jnsgd1na2vs0mg"},{"bike_id":"f752227c-3df6-44d5-abd3-4a633d5341e0","system_id":"levelo_inurba_marseille","lat":43.22934,"lon":5.35385,"is_reserved":false,"is_disabled":false,"rental_uris":{"android":"levelo://app?vid=f752227c-3df6-44d5-abd3-4a633d5341e0","ios":"levelo://app?vid=f752227c-3df6-44d5-abd3-4a633d5341e0"},"vehicle_type_id":"4","last_reported":1747379423,"current_range_meters":5600,"station_id":"cpo3532slgdg3j2ikp40","pricing_plan_id":"cebpf4jnsgd1na2vs0mg"},{"bike_id":"330d1ee1-00e4-4d64-b7d8-2053aef1ef4e","system_id":"levelo_inurba_marseille","lat":43.30438,"lon":5.38876,"is_reserved":false,"is_disabled":false,"rental_uris":{"android":"levelo://app?vid=330d1ee1-00e4-4d64-b7d8-2053aef1ef4e","ios":"levelo://app?vid=330d1ee1-00e4-4d64-b7d8-2053aef1ef4e"},"vehicle_type_id":"4","last_reported":1747379423,"current_range_meters":6000,"station_id":"ce4bgk12rcd13ifvqbi0","pricing_plan_id":"cebpf4jnsgd1na2vs0mg"},{"bike_id":"9ccaea7a-e77e-4018-b5c0-33f9638ffd9d","system_id":"levelo_inurba_marseille","lat":43.31346,"lon":5.36732,"is_reserved":false,"is_disabled":false,"rental_uris":{"android":"levelo://app?vid=9ccaea7a-e77e-4018-b5c0-33f9638ffd9d","ios":"levelo://app?vid=9ccaea7a-e77e-4018-b5c0-33f9638ffd9d"},"vehicle_type_id":"4","last_reported":1747379423,"current_range_meters":6000,"station_id":"ce4bgr92rcd13ifvqc6g","pricing_plan_id":"cebpf4jnsgd1na2vs0mg"},{"bike_id":"58a773b6-d300-4890-a9d2-bea6a1be8ea1","system_id":"levelo_inurba_marseille","lat":43.25936,"lon":5.40903,"is_reserved":false,"is_disabled":false,"rental_uris":{"android":"levelo://app?vid=58a773b6-d300-4890-a9d2-bea6a1be8ea1","ios":"levelo://app?vid=58a773b6-d300-4890-a9d2-bea6a1be8ea1"},"vehicle_type_id":"4","last_reported":1747379423,"current_range_meters":6000,"station_id":"ce4bhm92rcd13ifvqglg","pricing_plan_id":"cebpf4jnsgd1na2vs0mg"},{"bike_id":"3403bb9d-fc50-46b2-ad69-4aefdbaffc18","system_id":"levelo_inurba_marseille","lat":43.2997,"lon":5.38489,"is_reserved":false,"is_disabled":false,"rental_uris":{"android":"levelo://app?vid=3403bb9d-fc50-46b2-ad69-4aefdbaffc18","ios":"levelo://app?vid=3403bb9d-fc50-46b2-ad69-4aefdbaffc18"},"vehicle_type_id":"4","last_reported":1747379423,"current_range_meters":6400,"station_id":"ce4bgj92rcd13ifvqbd0","pricing_plan_id":"cebpf4jnsgd1na2vs0mg"},{"bike_id":"7f3ee241-e6f0-4ead-b6f1-aaab404ab6d1","system_id":"levelo_inurba_marseille","lat":43.29632,"lon":5.40598,"is_reserved":false,"is_disabled":false,"rental_uris":{"android":"levelo://app?vid=7f3ee241-e6f0-4ead-b6f1-aaab404ab6d1","ios":"levelo://app?vid=7f3ee241-e6f0-4ead-b6f1-aaab404ab6d1"},"vehicle_type_id":"4","last_reported":1747379423,"current_range_meters":6400,"station_id":"ce4bh0h2rcd13ifvqd60","pricing_plan_id":"cebpf4jnsgd1na2vs0mg"},{"bike_id":"1f468169-d47d-490d-a6f8-f4b41963ffa8","system_id":"levelo_inurba_marseille","lat":43.28942,"lon":5.3962,"is_reserved":false,"is_disabled":false,"rental_uris":{"android":"levelo://app?vid=1f468169-d47d-490d-a6f8-f4b41963ffa8","ios":"levelo://app?vid=1f468169-d47d-490d-a6f8-f4b41963ffa8"},"vehicle_type_id":"4","last_reported":1747379423,"current_range_meters":6400,"station_id":"ce4bh3h2rcd13ifvqdn0","pricing_plan_id":"cebpf4jnsgd1na2vs0mg"},{"bike_id":"0f0065ca-9f57-48a7-8c2a-d812b66d62f0","system_id":"levelo_inurba_marseille","lat":43.27912,"lon":5.39575,"is_reserved":false,"is_disabled":false,"rental_uris":{"android":"levelo://app?vid=0f0065ca-9f57-48a7-8c2a-d812b66d62f0","ios":"levelo://app?vid=0f0065ca-9f57-48a7-8c2a-d812b66d62f0"},"vehicle_type_id":"4","last_reported":1747379423,"current_range_meters":6400,"station_id":"ce4bhf92rcd13ifvqf40","pricing_plan_id":"cebpf4jnsgd1na2vs0mg"},{"bike_id":"0693fc69-362b-44fe-9e1b-983e1e343d3e","system_id":"levelo_inurba_marseille","lat":43.24994,"lon":5.38934,"is_reserved":false,"is_disabled":false,"rental_uris":{"android":"levelo://app?vid=0693fc69-362b-44fe-9e1b-983e1e343d3e","ios":"levelo://app?vid=0693fc69-362b-44fe-9e1b-983e1e343d3e"},"vehicle_type_id":"4","last_reported":1747379423,"current_range_meters":6400,"station_id":"ce4bhgp2rcd13ifvqfd0","pricing_plan_id":"cebpf4jnsgd1na2vs0mg"},{"bike_id":"3f5f493b-d85d-4cb4-a725-c975a9988227","system_id":"levelo_inurba_marseille","lat":43.25721,"lon":5.41109,"is_reserved":false,"is_disabled":false,"rental_uris":{"android":"levelo://app?vid=3f5f493b-d85d-4cb4-a725-c975a9988227","ios":"levelo://app?vid=3f5f493b-d85d-4cb4-a725-c975a9988227"},"vehicle_type_id":"4","last_reported":1747379423,"current_range_meters":6400,"station_id":"ce4bhkp2rcd13ifvqgd0","pricing_plan_id":"cebpf4jnsgd1na2vs0mg"},{"bike_id":"8d46c67d-c735-4114-98b3-16c24c8fefdd","system_id":"levelo_inurba_marseille","lat":43.317092,"lon":5.404668,"is_reserved":false,"is_disabled":false,"rental_uris":{"android":"levelo://app?vid=8d46c67d-c735-4114-98b3-16c24c8fefdd","ios":"levelo://app?vid=8d46c67d-c735-4114-98b3-16c24c8fefdd"},"vehicle_type_id":"4","last_reported":1747379423,"current_range_meters":6800,"station_id":"ce4bh012rcd13ifvqd00","pricing_plan_id":"cebpf4jnsgd1na2vs0mg"},{"bike_id":"4c69767d-2649-49f1-8c0e-3b06591f2e05","system_id":"levelo_inurba_marseille","lat":43.26787,"lon":5.39415,"is_reserved":false,"is_disabled":false,"rental_uris":{"android":"levelo://app?vid=4c69767d-2649-49f1-8c0e-3b06591f2e05","ios":"levelo://app?vid=4c69767d-2649-49f1-8c0e-3b06591f2e05"},"vehicle_type_id":"4","last_reported":1747379423,"current_range_meters":6800,"station_id":"ce4bhh12rcd13ifvqfg0","pricing_plan_id":"cebpf4jnsgd1na2vs0mg"},{"bike_id":"632ffc35-3a5e-4dda-861e-517e896a461f","system_id":"levelo_inurba_marseille","lat":43.23964,"lon":5.36635,"is_reserved":false,"is_disabled":false,"rental_uris":{"android":"levelo://app?vid=632ffc35-3a5e-4dda-861e-517e896a461f","ios":"levelo://app?vid=632ffc35-3a5e-4dda-861e-517e896a461f"},"vehicle_type_id":"4","last_reported":1747379423,"current_range_meters":6800,"station_id":"ce4bhi12rcd13ifvqfp0","pricing_plan_id":"cebpf4jnsgd1na2vs0mg"},{"bike_id":"1e68c884-7599-4b1d-9ee3-43521a53a137","system_id":"levelo_inurba_marseille","lat":43.27492,"lon":5.42451,"is_reserved":false,"is_disabled":false,"rental_uris":{"android":"levelo://app?vid=1e68c884-7599-4b1d-9ee3-43521a53a137","ios":"levelo://app?vid=1e68c884-7599-4b1d-9ee3-43521a53a137"},"vehicle_type_id":"4","last_reported":1747379423,"current_range_meters":6800,"station_id":"ce4bhn92rcd13ifvqgrg","pricing_plan_id":"cebpf4jnsgd1na2vs0mg"},{"bike_id":"b7cb570d-77f5-48d9-be33-70291761d5d7","system_id":"levelo_inurba_marseille","lat":43.21188,"lon":5.35069,"is_reserved":false,"is_disabled":false,"rental_uris":{"android":"levelo://app?vid=b7cb570d-77f5-48d9-be33-70291761d5d7","ios":"levelo://app?vid=b7cb570d-77f5-48d9-be33-70291761d5d7"},"vehicle_type_id":"4","last_reported":1747379423,"current_range_meters":6800,"station_id":"st_cvj6sg6p6f1abm77japg","pricing_plan_id":"cebpf4jnsgd1na2vs0mg"},{"bike_id":"561549a2-798d-4052-830a-279630f71645","system_id":"levelo_inurba_marseille","lat":43.2841,"lon":5.35512,"is_reserved":false,"is_disabled":false,"rental_uris":{"android":"levelo://app?vid=561549a2-798d-4052-830a-279630f71645","ios":"levelo://app?vid=561549a2-798d-4052-830a-279630f71645"},"vehicle_type_id":"4","last_reported":1747379423,"current_range_meters":7200,"station_id":"","pricing_plan_id":"cebpf4jnsgd1na2vs0mg"},{"bike_id":"74df6918-8bca-4ae3-be0b-3004a637dd11","system_id":"levelo_inurba_marseille","lat":43.31343,"lon":5.36719,"is_reserved":false,"is_disabled":false,"rental_uris":{"android":"levelo://app?vid=74df6918-8bca-4ae3-be0b-3004a637dd11","ios":"levelo://app?vid=74df6918-8bca-4ae3-be0b-3004a637dd11"},"vehicle_type_id":"4","last_reported":1747379423,"current_range_meters":7200,"station_id":"ce4bgr92rcd13ifvqc6g","pricing_plan_id":"cebpf4jnsgd1na2vs0mg"},{"bike_id":"2c42c95b-81c8-4472-b133-956248a6315a","system_id":"levelo_inurba_marseille","lat":43.30184,"lon":5.36615,"is_reserved":false,"is_disabled":false,"rental_uris":{"android":"levelo://app?vid=2c42c95b-81c8-4472-b133-956248a6315a","ios":"levelo://app?vid=2c42c95b-81c8-4472-b133-956248a6315a"},"vehicle_type_id":"4","last_reported":1747379423,"current_range_meters":7200,"station_id":"ce4bgrh2rcd13ifvqc8g","pricing_plan_id":"cebpf4jnsgd1na2vs0mg"},{"bike_id":"c920076d-915f-4b82-834a-a675bcbd764d","system_id":"levelo_inurba_marseille","lat":43.27914,"lon":5.395737,"is_reserved":false,"is_disabled":false,"rental_uris":{"android":"levelo://app?vid=c920076d-915f-4b82-834a-a675bcbd764d","ios":"levelo://app?vid=c920076d-915f-4b82-834a-a675bcbd764d"},"vehicle_type_id":"4","last_reported":1747379423,"current_range_meters":7200,"station_id":"ce4bhf92rcd13ifvqf40","pricing_plan_id":"cebpf4jnsgd1na2vs0mg"},{"bike_id":"7c802b4c-f948-462b-8374-844860e05719","system_id":"levelo_inurba_marseille","lat":43.26201,"lon":5.37929,"is_reserved":false,"is_disabled":false,"rental_uris":{"android":"levelo://app?vid=7c802b4c-f948-462b-8374-844860e05719","ios":"levelo://app?vid=7c802b4c-f948-462b-8374-844860e05719"},"vehicle_type_id":"4","last_reported":1747379423,"current_range_meters":7200,"station_id":"ce4bhjp2rcd13ifvqg90","pricing_plan_id":"cebpf4jnsgd1na2vs0mg"},{"bike_id":"a99d0364-ff28-4339-ad31-10b73d24b14e","system_id":"levelo_inurba_marseille","lat":43.32051,"lon":5.41527,"is_reserved":false,"is_disabled":false,"rental_uris":{"android":"levelo://app?vid=a99d0364-ff28-4339-ad31-10b73d24b14e","ios":"levelo://app?vid=a99d0364-ff28-4339-ad31-10b73d24b14e"},"vehicle_type_id":"4","last_reported":1747379423,"current_range_meters":7200,"station_id":"ce4bhq92rcd13ifvqhkg","pricing_plan_id":"cebpf4jnsgd1na2vs0mg"},{"bike_id":"614a6166-1760-4980-853c-86035facd777","system_id":"levelo_inurba_marseille","lat":43.33224,"lon":5.38008,"is_reserved":false,"is_disabled":false,"rental_uris":{"android":"levelo://app?vid=614a6166-1760-4980-853c-86035facd777","ios":"levelo://app?vid=614a6166-1760-4980-853c-86035facd777"},"vehicle_type_id":"4","last_reported":1747379423,"current_range_meters":8000,"station_id":"","pricing_plan_id":"cebpf4jnsgd1na2vs0mg"},{"bike_id":"d18e9458-ffae-4c77-8534-0f5ba6bf3744","system_id":"levelo_inurba_marseille","lat":43.3056,"lon":5.38006,"is_reserved":false,"is_disabled":false,"rental_uris":{"android":"levelo://app?vid=d18e9458-ffae-4c77-8534-0f5ba6bf3744","ios":"levelo://app?vid=d18e9458-ffae-4c77-8534-0f5ba6bf3744"},"vehicle_type_id":"4","last_reported":1747379423,"current_range_meters":8000,"station_id":"","pricing_plan_id":"cebpf4jnsgd1na2vs0mg"},{"bike_id":"b4fb93a0-b937-4e5c-b7f4-f39ad653a3fd","system_id":"levelo_inurba_marseille","lat":43.29011,"lon":5.39988,"is_reserved":false,"is_disabled":false,"rental_uris":{"android":"levelo://app?vid=b4fb93a0-b937-4e5c-b7f4-f39ad653a3fd","ios":"levelo://app?vid=b4fb93a0-b937-4e5c-b7f4-f39ad653a3fd"},"vehicle_type_id":"4","last_reported":1747379423,"current_range_meters":8000,"station_id":"ce4bh392rcd13ifvqdm0","pricing_plan_id":"cebpf4jnsgd1na2vs0mg"},{"bike_id":"44d218e4-5d06-4592-9958-411075227a5f","system_id":"levelo_inurba_marseille","lat":43.28348,"lon":5.38094,"is_reserved":false,"is_disabled":false,"rental_uris":{"android":"levelo://app?vid=44d218e4-5d06-4592-9958-411075227a5f","ios":"levelo://app?vid=44d218e4-5d06-4592-9958-411075227a5f"},"vehicle_type_id":"4","last_reported":1747379423,"current_range_meters":8000,"station_id":"ce4bh412rcd13ifvqdr0","pricing_plan_id":"cebpf4jnsgd1na2vs0mg"},{"bike_id":"c5c57cf2-2dd2-49a7-9f6a-f3616a3907d1","system_id":"levelo_inurba_marseille","lat":43.2668,"lon":5.38269,"is_reserved":false,"is_disabled":false,"rental_uris":{"android":"levelo://app?vid=c5c57cf2-2dd2-49a7-9f6a-f3616a3907d1","ios":"levelo://app?vid=c5c57cf2-2dd2-49a7-9f6a-f3616a3907d1"},"vehicle_type_id":"4","last_reported":1747379423,"current_range_meters":8000,"station_id":"ce4bhg92rcd13ifvqf90","pricing_plan_id":"cebpf4jnsgd1na2vs0mg"},{"bike_id":"bdc7870e-fbf8-4909-b96e-77d00180aef1","system_id":"levelo_inurba_marseille","lat":43.25501,"lon":5.37651,"is_reserved":false,"is_disabled":false,"rental_uris":{"android":"levelo://app?vid=bdc7870e-fbf8-4909-b96e-77d00180aef1","ios":"levelo://app?vid=bdc7870e-fbf8-4909-b96e-77d00180aef1"},"vehicle_type_id":"4","last_reported":1747379423,"current_range_meters":8000,"station_id":"ce4bhh12rcd13ifvqff0","pricing_plan_id":"cebpf4jnsgd1na2vs0mg"},{"bike_id":"79a8b59a-8e16-441f-a390-780a776cee26","system_id":"levelo_inurba_marseille","lat":43.24385,"lon":5.37058,"is_reserved":false,"is_disabled":false,"rental_uris":{"android":"levelo://app?vid=79a8b59a-8e16-441f-a390-780a776cee26","ios":"levelo://app?vid=79a8b59a-8e16-441f-a390-780a776cee26"},"vehicle_type_id":"4","last_reported":1747379423,"current_range_meters":8000,"station_id":"ce4bhhh2rcd13ifvqfk0","pricing_plan_id":"cebpf4jnsgd1na2vs0mg"},{"bike_id":"5e44318e-c81b-40fa-a1e0-a3496e01cf39","system_id":"levelo_inurba_marseille","lat":43.231259,"lon":5.436734,"is_reserved":false,"is_disabled":false,"rental_uris":{"android":"levelo://app?vid=5e44318e-c81b-40fa-a1e0-a3496e01cf39","ios":"levelo://app?vid=5e44318e-c81b-40fa-a1e0-a3496e01cf39"},"vehicle_type_id":"4","last_reported":1747379423,"current_range_meters":8000,"station_id":"ce4bhmp2rcd13ifvqgog","pricing_plan_id":"cebpf4jnsgd1na2vs0mg"},{"bike_id":"f3df5321-3765-4743-9245-69cea3d0230a","system_id":"levelo_inurba_marseille","lat":43.32359,"lon":5.38891,"is_reserved":false,"is_disabled":false,"rental_uris":{"android":"levelo://app?vid=f3df5321-3765-4743-9245-69cea3d0230a","ios":"levelo://app?vid=f3df5321-3765-4743-9245-69cea3d0230a"},"vehicle_type_id":"4","last_reported":1747379423,"current_range_meters":8000,"station_id":"ce4bhqp2rcd13ifvqhog","pricing_plan_id":"cebpf4jnsgd1na2vs0mg"},{"bike_id":"2d868c7d-1773-4908-befa-cd0aaed09d96","system_id":"levelo_inurba_marseille","lat":43.32361,"lon":5.38876,"is_reserved":false,"is_disabled":false,"rental_uris":{"android":"levelo://app?vid=2d868c7d-1773-4908-befa-cd0aaed09d96","ios":"levelo://app?vid=2d868c7d-1773-4908-befa-cd0aaed09d96"},"vehicle_type_id":"4","last_reported":1747379423,"current_range_meters":8000,"station_id":"ce4bhqp2rcd13ifvqhog","pricing_plan_id":"cebpf4jnsgd1na2vs0mg"},{"bike_id":"b2d49357-e00f-4afd-8409-93894b7274fa","system_id":"levelo_inurba_marseille","lat":43.321067,"lon":5.367809,"is_reserved":false,"is_disabled":false,"rental_uris":{"android":"levelo://app?vid=b2d49357-e00f-4afd-8409-93894b7274fa","ios":"levelo://app?vid=b2d49357-e00f-4afd-8409-93894b7274fa"},"vehicle_type_id":"4","last_reported":1747379423,"current_range_meters":8000,"station_id":"ce4bhrh2rcd13ifvqhug","pricing_plan_id":"cebpf4jnsgd1na2vs0mg"},{"bike_id":"7f4fc273-1360-4a47-aa6f-29da663bd116","system_id":"levelo_inurba_marseille","lat":43.248901,"lon":5.394103,"is_reserved":false,"is_disabled":false,"rental_uris":{"android":"levelo://app?vid=7f4fc273-1360-4a47-aa6f-29da663bd116","ios":"levelo://app?vid=7f4fc273-1360-4a47-aa6f-29da663bd116"},"vehicle_type_id":"4","last_reported":1747379423,"current_range_meters":8400,"station_id":"","pricing_plan_id":"cebpf4jnsgd1na2vs0mg"},{"bike_id":"4e716133-12bd-48ef-8462-cdade112f10c","system_id":"levelo_inurba_marseille","lat":43.27144,"lon":5.40084,"is_reserved":false,"is_disabled":false,"rental_uris":{"android":"levelo://app?vid=4e716133-12bd-48ef-8462-cdade112f10c","ios":"levelo://app?vid=4e716133-12bd-48ef-8462-cdade112f10c"},"vehicle_type_id":"4","last_reported":1747379423,"current_range_meters":8400,"station_id":"","pricing_plan_id":"cebpf4jnsgd1na2vs0mg"},{"bike_id":"0077f398-56b6-43bb-8eeb-9798d08de05c","system_id":"levelo_inurba_marseille","lat":43.309432,"lon":5.37268,"is_reserved":false,"is_disabled":false,"rental_uris":{"android":"levelo://app?vid=0077f398-56b6-43bb-8eeb-9798d08de05c","ios":"levelo://app?vid=0077f398-56b6-43bb-8eeb-9798d08de05c"},"vehicle_type_id":"4","last_reported":1747379423,"current_range_meters":8400,"station_id":"","pricing_plan_id":"cebpf4jnsgd1na2vs0mg"},{"bike_id":"125b77a2-f21c-4d18-b893-db036252f1b7","system_id":"levelo_inurba_marseille","lat":43.307289,"lon":5.374817,"is_reserved":false,"is_disabled":false,"rental_uris":{"android":"levelo://app?vid=125b77a2-f21c-4d18-b893-db036252f1b7","ios":"levelo://app?vid=125b77a2-f21c-4d18-b893-db036252f1b7"},"vehicle_type_id":"4","last_reported":1747379423,"current_range_meters":8400,"station_id":"ce4bguh2rcd13ifvqckg","pricing_plan_id":"cebpf4jnsgd1na2vs0mg"},{"bike_id":"f768f02c-a770-46ed-b9fb-ed1e435a3c0f","system_id":"levelo_inurba_marseille","lat":43.32952,"lon":5.38954,"is_reserved":false,"is_disabled":false,"rental_uris":{"android":"levelo://app?vid=f768f02c-a770-46ed-b9fb-ed1e435a3c0f","ios":"levelo://app?vid=f768f02c-a770-46ed-b9fb-ed1e435a3c0f"},"vehicle_type_id":"4","last_reported":1747379423,"current_range_meters":8800,"station_id":"","pricing_plan_id":"cebpf4jnsgd1na2vs0mg"},{"bike_id":"c27fb682-4960-4672-b3ba-7f3c3f771b64","system_id":"levelo_inurba_marseille","lat":43.30943,"lon":5.39024,"is_reserved":false,"is_disabled":false,"rental_uris":{"android":"levelo://app?vid=c27fb682-4960-4672-b3ba-7f3c3f771b64","ios":"levelo://app?vid=c27fb682-4960-4672-b3ba-7f3c3f771b64"},"vehicle_type_id":"4","last_reported":1747379423,"current_range_meters":8800,"station_id":"ce4bgup2rcd13ifvqco0","pricing_plan_id":"cebpf4jnsgd1na2vs0mg"},{"bike_id":"74cb0d22-4fed-4452-906e-613386fedcda","system_id":"levelo_inurba_marseille","lat":43.27306,"lon":5.39081,"is_reserved":false,"is_disabled":false,"rental_uris":{"android":"levelo://app?vid=74cb0d22-4fed-4452-906e-613386fedcda","ios":"levelo://app?vid=74cb0d22-4fed-4452-906e-613386fedcda"},"vehicle_type_id":"4","last_reported":1747379423,"current_range_meters":8800,"station_id":"ce4bhgp2rcd13ifvqfe0","pricing_plan_id":"cebpf4jnsgd1na2vs0mg"},{"bike_id":"743b5fae-cf5b-481e-816f-2286df1be972","system_id":"levelo_inurba_marseille","lat":43.24179,"lon":5.39734,"is_reserved":false,"is_disabled":false,"rental_uris":{"android":"levelo://app?vid=743b5fae-cf5b-481e-816f-2286df1be972","ios":"levelo://app?vid=743b5fae-cf5b-481e-816f-2286df1be972"},"vehicle_type_id":"4","last_reported":1747379423,"current_range_meters":8800,"station_id":"ce4bhn12rcd13ifvqgpg","pricing_plan_id":"cebpf4jnsgd1na2vs0mg"},{"bike_id":"0604b326-09f2-4e5a-865d-64de6b624af8","system_id":"levelo_inurba_marseille","lat":43.33598,"lon":5.41028,"is_reserved":false,"is_disabled":false,"rental_uris":{"android":"levelo://app?vid=0604b326-09f2-4e5a-865d-64de6b624af8","ios":"levelo://app?vid=0604b326-09f2-4e5a-865d-64de6b624af8"},"vehicle_type_id":"4","last_reported":1747379423,"current_range_meters":8800,"station_id":"ce4bhqh2rcd13ifvqhmg","pricing_plan_id":"cebpf4jnsgd1na2vs0mg"},{"bike_id":"31bedb95-5fc4-4b24-91b1-10c9cd7506c0","system_id":"levelo_inurba_marseille","lat":43.25828,"lon":5.39417,"is_reserved":false,"is_disabled":false,"rental_uris":{"android":"levelo://app?vid=31bedb95-5fc4-4b24-91b1-10c9cd7506c0","ios":"levelo://app?vid=31bedb95-5fc4-4b24-91b1-10c9cd7506c0"},"vehicle_type_id":"4","last_reported":1747379423,"current_range_meters":9200,"station_id":"ce4bhip2rcd13ifvqft0","pricing_plan_id":"cebpf4jnsgd1na2vs0mg"},{"bike_id":"ab4e5a85-0ffe-4a65-9b04-ab3547a82031","system_id":"levelo_inurba_marseille","lat":43.24173,"lon":5.39719,"is_reserved":false,"is_disabled":false,"rental_uris":{"android":"levelo://app?vid=ab4e5a85-0ffe-4a65-9b04-ab3547a82031","ios":"levelo://app?vid=ab4e5a85-0ffe-4a65-9b04-ab3547a82031"},"vehicle_type_id":"4","last_reported":1747379423,"current_range_meters":9200,"station_id":"ce4bhn12rcd13ifvqgpg","pricing_plan_id":"cebpf4jnsgd1na2vs0mg"},{"bike_id":"253ad97e-efa9-4530-b082-6a7bf31d9808","system_id":"levelo_inurba_marseille","lat":43.27517,"lon":5.42459,"is_reserved":false,"is_disabled":false,"rental_uris":{"android":"levelo://app?vid=253ad97e-efa9-4530-b082-6a7bf31d9808","ios":"levelo://app?vid=253ad97e-efa9-4530-b082-6a7bf31d9808"},"vehicle_type_id":"4","last_reported":1747379423,"current_range_meters":9200,"station_id":"ce4bhn92rcd13ifvqgrg","pricing_plan_id":"cebpf4jnsgd1na2vs0mg"},{"bike_id":"01638126-3c79-4aa8-b344-42085231ebd4","system_id":"levelo_inurba_marseille","lat":43.34132,"lon":5.40903,"is_reserved":false,"is_disabled":false,"rental_uris":{"android":"levelo://app?vid=01638126-3c79-4aa8-b344-42085231ebd4","ios":"levelo://app?vid=01638126-3c79-4aa8-b344-42085231ebd4"},"vehicle_type_id":"4","last_reported":1747379423,"current_range_meters":9200,"station_id":"ce4bhqh2rcd13ifvqhlg","pricing_plan_id":"cebpf4jnsgd1na2vs0mg"},{"bike_id":"f8708533-c882-424d-919c-8da02599e742","system_id":"levelo_inurba_marseille","lat":43.32356,"lon":5.38881,"is_reserved":false,"is_disabled":false,"rental_uris":{"android":"levelo://app?vid=f8708533-c882-424d-919c-8da02599e742","ios":"levelo://app?vid=f8708533-c882-424d-919c-8da02599e742"},"vehicle_type_id":"4","last_reported":1747379423,"current_range_meters":9200,"station_id":"ce4bhqp2rcd13ifvqhog","pricing_plan_id":"cebpf4jnsgd1na2vs0mg"},{"bike_id":"d6a2291a-0fd3-4af7-bba5-11d0db580135","system_id":"levelo_inurba_marseille","lat":43.30461,"lon":5.37908,"is_reserved":false,"is_disabled":false,"rental_uris":{"android":"levelo://app?vid=d6a2291a-0fd3-4af7-bba5-11d0db580135","ios":"levelo://app?vid=d6a2291a-0fd3-4af7-bba5-11d0db580135"},"vehicle_type_id":"4","last_reported":1747379423,"current_range_meters":9600,"station_id":"ce4bgup2rcd13ifvqcn0","pricing_plan_id":"cebpf4jnsgd1na2vs0mg"},{"bike_id":"9784f2f6-a448-44bb-b173-7abc444ed6ac","system_id":"levelo_inurba_marseille","lat":43.300135,"lon":5.400524,"is_reserved":false,"is_disabled":false,"rental_uris":{"android":"levelo://app?vid=9784f2f6-a448-44bb-b173-7abc444ed6ac","ios":"levelo://app?vid=9784f2f6-a448-44bb-b173-7abc444ed6ac"},"vehicle_type_id":"4","last_reported":1747379423,"current_range_meters":9600,"station_id":"ce4bh012rcd13ifvqd10","pricing_plan_id":"cebpf4jnsgd1na2vs0mg"},{"bike_id":"2c6ec7e7-ded9-4916-9df6-3deb51ccaee8","system_id":"levelo_inurba_marseille","lat":43.23965,"lon":5.36631,"is_reserved":false,"is_disabled":false,"rental_uris":{"android":"levelo://app?vid=2c6ec7e7-ded9-4916-9df6-3deb51ccaee8","ios":"levelo://app?vid=2c6ec7e7-ded9-4916-9df6-3deb51ccaee8"},"vehicle_type_id":"4","last_reported":1747379423,"current_range_meters":9600,"station_id":"ce4bhi12rcd13ifvqfp0","pricing_plan_id":"cebpf4jnsgd1na2vs0mg"},{"bike_id":"e64e4484-2db6-41f4-beb8-e0c0ae1263cd","system_id":"levelo_inurba_marseille","lat":43.285177,"lon":5.430341,"is_reserved":false,"is_disabled":false,"rental_uris":{"android":"levelo://app?vid=e64e4484-2db6-41f4-beb8-e0c0ae1263cd","ios":"levelo://app?vid=e64e4484-2db6-41f4-beb8-e0c0ae1263cd"},"vehicle_type_id":"4","last_reported":1747379423,"current_range_meters":10000,"station_id":"","pricing_plan_id":"cebpf4jnsgd1na2vs0mg"},{"bike_id":"f8e4732a-2ecf-431c-8f66-abc7aabb8aa1","system_id":"levelo_inurba_marseille","lat":43.32971,"lon":5.39024,"is_reserved":false,"is_disabled":false,"rental_uris":{"android":"levelo://app?vid=f8e4732a-2ecf-431c-8f66-abc7aabb8aa1","ios":"levelo://app?vid=f8e4732a-2ecf-431c-8f66-abc7aabb8aa1"},"vehicle_type_id":"4","last_reported":1747379423,"current_range_meters":10000,"station_id":"","pricing_plan_id":"cebpf4jnsgd1na2vs0mg"},{"bike_id":"df307ea3-9463-4223-8b21-123fb22cf385","system_id":"levelo_inurba_marseille","lat":43.30145,"lon":5.38081,"is_reserved":false,"is_disabled":false,"rental_uris":{"android":"levelo://app?vid=df307ea3-9463-4223-8b21-123fb22cf385","ios":"levelo://app?vid=df307ea3-9463-4223-8b21-123fb22cf385"},"vehicle_type_id":"4","last_reported":1747379423,"current_range_meters":10000,"station_id":"ce4bgjp2rcd13ifvqbh0","pricing_plan_id":"cebpf4jnsgd1na2vs0mg"},{"bike_id":"e5f8441d-d7b3-4316-9307-1044f2bc5ffc","system_id":"levelo_inurba_marseille","lat":43.30904,"lon":5.3685,"is_reserved":false,"is_disabled":false,"rental_uris":{"android":"levelo://app?vid=e5f8441d-d7b3-4316-9307-1044f2bc5ffc","ios":"levelo://app?vid=e5f8441d-d7b3-4316-9307-1044f2bc5ffc"},"vehicle_type_id":"4","last_reported":1747379423,"current_range_meters":10000,"station_id":"ce4bgn92rcd13ifvqbvg","pricing_plan_id":"cebpf4jnsgd1na2vs0mg"},{"bike_id":"4e266dcf-85fe-4a95-abc3-db24ed1d7d45","system_id":"levelo_inurba_marseille","lat":43.29042,"lon":5.37573,"is_reserved":false,"is_disabled":false,"rental_uris":{"android":"levelo://app?vid=4e266dcf-85fe-4a95-abc3-db24ed1d7d45","ios":"levelo://app?vid=4e266dcf-85fe-4a95-abc3-db24ed1d7d45"},"vehicle_type_id":"4","last_reported":1747379423,"current_range_meters":10000,"station_id":"ce4bh692rcd13ifvqe90","pricing_plan_id":"cebpf4jnsgd1na2vs0mg"},{"bike_id":"8ed615fb-bafd-4946-b044-4b3fa453fb3c","system_id":"levelo_inurba_marseille","lat":43.29273,"lon":5.36844,"is_reserved":false,"is_disabled":false,"rental_uris":{"android":"levelo://app?vid=8ed615fb-bafd-4946-b044-4b3fa453fb3c","ios":"levelo://app?vid=8ed615fb-bafd-4946-b044-4b3fa453fb3c"},"vehicle_type_id":"4","last_reported":1747379423,"current_range_meters":10000,"station_id":"ce4bhbp2rcd13ifvqesg","pricing_plan_id":"cebpf4jnsgd1na2vs0mg"},{"bike_id":"1d8bca97-0931-4f9a-93bb-6620365e395d","system_id":"levelo_inurba_marseille","lat":43.32025,"lon":5.41573,"is_reserved":false,"is_disabled":false,"rental_uris":{"android":"levelo://app?vid=1d8bca97-0931-4f9a-93bb-6620365e395d","ios":"levelo://app?vid=1d8bca97-0931-4f9a-93bb-6620365e395d"},"vehicle_type_id":"4","last_reported":1747379423,"current_range_meters":10000,"station_id":"ce4bhq92rcd13ifvqhkg","pricing_plan_id":"cebpf4jnsgd1na2vs0mg"},{"bike_id":"027f72d8-88c3-409a-9f83-3afde0954f18","system_id":"levelo_inurba_marseille","lat":43.3025,"lon":5.39656,"is_reserved":false,"is_disabled":false,"rental_uris":{"android":"levelo://app?vid=027f72d8-88c3-409a-9f83-3afde0954f18","ios":"levelo://app?vid=027f72d8-88c3-409a-9f83-3afde0954f18"},"vehicle_type_id":"4","last_reported":1747379423,"current_range_meters":10800,"station_id":"","pricing_plan_id":"cebpf4jnsgd1na2vs0mg"},{"bike_id":"5879f203-1394-47e0-9f75-7c405ac331f5","system_id":"levelo_inurba_marseille","lat":43.32359,"lon":5.38893,"is_reserved":false,"is_disabled":false,"rental_uris":{"android":"levelo://app?vid=5879f203-1394-47e0-9f75-7c405ac331f5","ios":"levelo://app?vid=5879f203-1394-47e0-9f75-7c405ac331f5"},"vehicle_type_id":"4","last_reported":1747379423,"current_range_meters":10800,"station_id":"ce4bhqp2rcd13ifvqhog","pricing_plan_id":"cebpf4jnsgd1na2vs0mg"},{"bike_id":"21433162-4c2f-4f26-9ced-3d4fa9e037d2","system_id":"levelo_inurba_marseille","lat":43.29732,"lon":5.37694,"is_reserved":false,"is_disabled":false,"rental_uris":{"android":"levelo://app?vid=21433162-4c2f-4f26-9ced-3d4fa9e037d2","ios":"levelo://app?vid=21433162-4c2f-4f26-9ced-3d4fa9e037d2"},"vehicle_type_id":"4","last_reported":1747379423,"current_range_meters":11200,"station_id":"ce4bgkh2rcd13ifvqbl0","pricing_plan_id":"cebpf4jnsgd1na2vs0mg"},{"bike_id":"3dbd3c5d-45fd-4893-bcf8-0117b169a4a4","system_id":"levelo_inurba_marseille","lat":43.26493,"lon":5.39547,"is_reserved":false,"is_disabled":false,"rental_uris":{"android":"levelo://app?vid=3dbd3c5d-45fd-4893-bcf8-0117b169a4a4","ios":"levelo://app?vid=3dbd3c5d-45fd-4893-bcf8-0117b169a4a4"},"vehicle_type_id":"4","last_reported":1747379423,"current_range_meters":11200,"station_id":"ce4bhi12rcd13ifvqfq0","pricing_plan_id":"cebpf4jnsgd1na2vs0mg"},{"bike_id":"63de20dc-9d1a-4854-bb4b-80a6f4d99a87","system_id":"levelo_inurba_marseille","lat":43.28717,"lon":5.37932,"is_reserved":false,"is_disabled":false,"rental_uris":{"android":"levelo://app?vid=63de20dc-9d1a-4854-bb4b-80a6f4d99a87","ios":"levelo://app?vid=63de20dc-9d1a-4854-bb4b-80a6f4d99a87"},"vehicle_type_id":"4","last_reported":1747379423,"current_range_meters":11600,"station_id":"ce4bh9p2rcd13ifvqec0","pricing_plan_id":"cebpf4jnsgd1na2vs0mg"},{"bike_id":"7dfbfbb1-1067-4da5-8b4a-13e10b8aae35","system_id":"levelo_inurba_marseille","lat":43.272,"lon":5.39187,"is_reserved":false,"is_disabled":false,"rental_uris":{"android":"levelo://app?vid=7dfbfbb1-1067-4da5-8b4a-13e10b8aae35","ios":"levelo://app?vid=7dfbfbb1-1067-4da5-8b4a-13e10b8aae35"},"vehicle_type_id":"4","last_reported":1747379423,"current_range_meters":11600,"station_id":"ce4bhhp2rcd13ifvqfm0","pricing_plan_id":"cebpf4jnsgd1na2vs0mg"},{"bike_id":"46588226-5f81-4d94-808b-a5f22279f587","system_id":"levelo_inurba_marseille","lat":43.26199,"lon":5.37936,"is_reserved":false,"is_disabled":false,"rental_uris":{"android":"levelo://app?vid=46588226-5f81-4d94-808b-a5f22279f587","ios":"levelo://app?vid=46588226-5f81-4d94-808b-a5f22279f587"},"vehicle_type_id":"4","last_reported":1747379423,"current_range_meters":11600,"station_id":"ce4bhjp2rcd13ifvqg90","pricing_plan_id":"cebpf4jnsgd1na2vs0mg"},{"bike_id":"84e661be-7aee-41c2-88b8-b181c61b3046","system_id":"levelo_inurba_marseille","lat":43.32677,"lon":5.40972,"is_reserved":false,"is_disabled":false,"rental_uris":{"android":"levelo://app?vid=84e661be-7aee-41c2-88b8-b181c61b3046","ios":"levelo://app?vid=84e661be-7aee-41c2-88b8-b181c61b3046"},"vehicle_type_id":"4","last_reported":1747379423,"current_range_meters":11600,"station_id":"ce4bhpp2rcd13ifvqhgg","pricing_plan_id":"cebpf4jnsgd1na2vs0mg"},{"bike_id":"a488853e-8708-42f9-a9f1-40f4dc62e03d","system_id":"levelo_inurba_marseille","lat":43.30558,"lon":5.37282,"is_reserved":false,"is_disabled":false,"rental_uris":{"android":"levelo://app?vid=a488853e-8708-42f9-a9f1-40f4dc62e03d","ios":"levelo://app?vid=a488853e-8708-42f9-a9f1-40f4dc62e03d"},"vehicle_type_id":"4","last_reported":1747379423,"current_range_meters":12000,"station_id":"","pricing_plan_id":"cebpf4jnsgd1na2vs0mg"},{"bike_id":"39c7c348-baf3-417a-8df3-30f456f5c866","system_id":"levelo_inurba_marseille","lat":43.32103,"lon":5.36766,"is_reserved":false,"is_disabled":false,"rental_uris":{"android":"levelo://app?vid=39c7c348-baf3-417a-8df3-30f456f5c866","ios":"levelo://app?vid=39c7c348-baf3-417a-8df3-30f456f5c866"},"vehicle_type_id":"4","last_reported":1747379423,"current_range_meters":12000,"station_id":"ce4bhrh2rcd13ifvqhug","pricing_plan_id":"cebpf4jnsgd1na2vs0mg"},{"bike_id":"10a97b8d-a407-4e1b-8598-d4d9ea77722e","system_id":"levelo_inurba_marseille","lat":43.29226,"lon":5.36059,"is_reserved":false,"is_disabled":false,"rental_uris":{"android":"levelo://app?vid=10a97b8d-a407-4e1b-8598-d4d9ea77722e","ios":"levelo://app?vid=10a97b8d-a407-4e1b-8598-d4d9ea77722e"},"vehicle_type_id":"4","last_reported":1747379423,"current_range_meters":12400,"station_id":"ce4bhbh2rcd13ifvqeqg","pricing_plan_id":"cebpf4jnsgd1na2vs0mg"},{"bike_id":"6dbf349d-81a2-4f49-98fe-5dc9646a517c","system_id":"levelo_inurba_marseille","lat":43.28268,"lon":5.35055,"is_reserved":false,"is_disabled":false,"rental_uris":{"android":"levelo://app?vid=6dbf349d-81a2-4f49-98fe-5dc9646a517c","ios":"levelo://app?vid=6dbf349d-81a2-4f49-98fe-5dc9646a517c"},"vehicle_type_id":"4","last_reported":1747379423,"current_range_meters":12400,"station_id":"ce4bhbp2rcd13ifvqerg","pricing_plan_id":"cebpf4jnsgd1na2vs0mg"},{"bike_id":"04beda66-f6ee-4096-aff6-d05c6c8e9f02","system_id":"levelo_inurba_marseille","lat":43.31362,"lon":5.38505,"is_reserved":false,"is_disabled":false,"rental_uris":{"android":"levelo://app?vid=04beda66-f6ee-4096-aff6-d05c6c8e9f02","ios":"levelo://app?vid=04beda66-f6ee-4096-aff6-d05c6c8e9f02"},"vehicle_type_id":"4","last_reported":1747379423,"current_range_meters":12800,"station_id":"ce4bgt92rcd13ifvqcf0","pricing_plan_id":"cebpf4jnsgd1na2vs0mg"},{"bike_id":"6d886103-344e-431a-ac80-7f62879d2f7c","system_id":"levelo_inurba_marseille","lat":43.22919,"lon":5.35372,"is_reserved":false,"is_disabled":false,"rental_uris":{"android":"levelo://app?vid=6d886103-344e-431a-ac80-7f62879d2f7c","ios":"levelo://app?vid=6d886103-344e-431a-ac80-7f62879d2f7c"},"vehicle_type_id":"4","last_reported":1747379423,"current_range_meters":12800,"station_id":"cpo3532slgdg3j2ikp40","pricing_plan_id":"cebpf4jnsgd1na2vs0mg"},{"bike_id":"11deabd2-b906-40b7-a13a-e70023106965","system_id":"levelo_inurba_marseille","lat":43.2898,"lon":5.37837,"is_reserved":false,"is_disabled":false,"rental_uris":{"android":"levelo://app?vid=11deabd2-b906-40b7-a13a-e70023106965","ios":"levelo://app?vid=11deabd2-b906-40b7-a13a-e70023106965"},"vehicle_type_id":"4","last_reported":1747379423,"current_range_meters":13600,"station_id":"ce4bh9p2rcd13ifvqed0","pricing_plan_id":"cebpf4jnsgd1na2vs0mg"},{"bike_id":"a7be7457-0d6d-4890-957f-db3534d5c4f2","system_id":"levelo_inurba_marseille","lat":43.248053,"lon":5.374627,"is_reserved":false,"is_disabled":false,"rental_uris":{"android":"levelo://app?vid=a7be7457-0d6d-4890-957f-db3534d5c4f2","ios":"levelo://app?vid=a7be7457-0d6d-4890-957f-db3534d5c4f2"},"vehicle_type_id":"4","last_reported":1747379423,"current_range_meters":13600,"station_id":"ce4bhgh2rcd13ifvqfb0","pricing_plan_id":"cebpf4jnsgd1na2vs0mg"},{"bike_id":"0fac45d4-e376-4674-93f4-0efe45f2e510","system_id":"levelo_inurba_marseille","lat":43.26956,"lon":5.38634,"is_reserved":false,"is_disabled":false,"rental_uris":{"android":"levelo://app?vid=0fac45d4-e376-4674-93f4-0efe45f2e510","ios":"levelo://app?vid=0fac45d4-e376-4674-93f4-0efe45f2e510"},"vehicle_type_id":"4","last_reported":1747379423,"current_range_meters":13600,"station_id":"ce4bhh92rcd13ifvqfh0","pricing_plan_id":"cebpf4jnsgd1na2vs0mg"},{"bike_id":"bf2d43d5-d1b0-4787-8d18-25df80908b08","system_id":"levelo_inurba_marseille","lat":43.324799,"lon":5.365604,"is_reserved":false,"is_disabled":false,"rental_uris":{"android":"levelo://app?vid=bf2d43d5-d1b0-4787-8d18-25df80908b08","ios":"levelo://app?vid=bf2d43d5-d1b0-4787-8d18-25df80908b08"},"vehicle_type_id":"4","last_reported":1747379423,"current_range_meters":13600,"station_id":"ce4bhs12rcd13ifvqhvg","pricing_plan_id":"cebpf4jnsgd1na2vs0mg"},{"bike_id":"2a56cf36-d3fb-4a41-8ebc-23f0abc6d7f1","system_id":"levelo_inurba_marseille","lat":43.21195,"lon":5.35084,"is_reserved":false,"is_disabled":false,"rental_uris":{"android":"levelo://app?vid=2a56cf36-d3fb-4a41-8ebc-23f0abc6d7f1","ios":"levelo://app?vid=2a56cf36-d3fb-4a41-8ebc-23f0abc6d7f1"},"vehicle_type_id":"4","last_reported":1747379423,"current_range_meters":13600,"station_id":"st_cvj6sg6p6f1abm77japg","pricing_plan_id":"cebpf4jnsgd1na2vs0mg"},{"bike_id":"f22f0044-5500-4b5d-a379-9fdd5840e60c","system_id":"levelo_inurba_marseille","lat":43.31333,"lon":5.36717,"is_reserved":false,"is_disabled":false,"rental_uris":{"android":"levelo://app?vid=f22f0044-5500-4b5d-a379-9fdd5840e60c","ios":"levelo://app?vid=f22f0044-5500-4b5d-a379-9fdd5840e60c"},"vehicle_type_id":"4","last_reported":1747379423,"current_range_meters":14000,"station_id":"ce4bgr92rcd13ifvqc6g","pricing_plan_id":"cebpf4jnsgd1na2vs0mg"},{"bike_id":"d19aac3a-da93-41d1-8c45-8e9176daaa1d","system_id":"levelo_inurba_marseille","lat":43.21754,"lon":5.34601,"is_reserved":false,"is_disabled":false,"rental_uris":{"android":"levelo://app?vid=d19aac3a-da93-41d1-8c45-8e9176daaa1d","ios":"levelo://app?vid=d19aac3a-da93-41d1-8c45-8e9176daaa1d"},"vehicle_type_id":"4","last_reported":1747379423,"current_range_meters":14000,"station_id":"st_cvj6r9ubvosntc0bgbag","pricing_plan_id":"cebpf4jnsgd1na2vs0mg"},{"bike_id":"004deaad-71d8-428c-b44b-9070f09291d4","system_id":"levelo_inurba_marseille","lat":43.31873,"lon":5.37176,"is_reserved":false,"is_disabled":false,"rental_uris":{"android":"levelo://app?vid=004deaad-71d8-428c-b44b-9070f09291d4","ios":"levelo://app?vid=004deaad-71d8-428c-b44b-9070f09291d4"},"vehicle_type_id":"4","last_reported":1747379423,"current_range_meters":14400,"station_id":"","pricing_plan_id":"cebpf4jnsgd1na2vs0mg"},{"bike_id":"cf394fd3-0f00-4830-b52b-f2557e9c5f2f","system_id":"levelo_inurba_marseille","lat":43.30541,"lon":5.36537,"is_reserved":false,"is_disabled":false,"rental_uris":{"android":"levelo://app?vid=cf394fd3-0f00-4830-b52b-f2557e9c5f2f","ios":"levelo://app?vid=cf394fd3-0f00-4830-b52b-f2557e9c5f2f"},"vehicle_type_id":"4","last_reported":1747379423,"current_range_meters":14400,"station_id":"ce4bgs12rcd13ifvqcag","pricing_plan_id":"cebpf4jnsgd1na2vs0mg"},{"bike_id":"59ea7871-10e0-492f-b997-e9d6c8445afa","system_id":"levelo_inurba_marseille","lat":43.3047,"lon":5.379,"is_reserved":false,"is_disabled":false,"rental_uris":{"android":"levelo://app?vid=59ea7871-10e0-492f-b997-e9d6c8445afa","ios":"levelo://app?vid=59ea7871-10e0-492f-b997-e9d6c8445afa"},"vehicle_type_id":"4","last_reported":1747379423,"current_range_meters":14800,"station_id":"ce4bgup2rcd13ifvqcn0","pricing_plan_id":"cebpf4jnsgd1na2vs0mg"},{"bike_id":"b9f045af-185c-4cff-90cb-7c7a36860ef7","system_id":"levelo_inurba_marseille","lat":43.26568,"lon":5.39007,"is_reserved":false,"is_disabled":false,"rental_uris":{"android":"levelo://app?vid=b9f045af-185c-4cff-90cb-7c7a36860ef7","ios":"levelo://app?vid=b9f045af-185c-4cff-90cb-7c7a36860ef7"},"vehicle_type_id":"4","last_reported":1747379423,"current_range_meters":14800,"station_id":"ce4bhe12rcd13ifvqf30","pricing_plan_id":"cebpf4jnsgd1na2vs0mg"},{"bike_id":"103460c1-aadb-4db5-b9d2-7029281e2264","system_id":"levelo_inurba_marseille","lat":43.25727,"lon":5.41106,"is_reserved":false,"is_disabled":false,"rental_uris":{"android":"levelo://app?vid=103460c1-aadb-4db5-b9d2-7029281e2264","ios":"levelo://app?vid=103460c1-aadb-4db5-b9d2-7029281e2264"},"vehicle_type_id":"4","last_reported":1747379423,"current_range_meters":14800,"station_id":"ce4bhkp2rcd13ifvqgd0","pricing_plan_id":"cebpf4jnsgd1na2vs0mg"},{"bike_id":"c05d3aa8-dff7-4ec1-bfa0-b71a43e914ed","system_id":"levelo_inurba_marseille","lat":43.27673,"lon":5.38879,"is_reserved":false,"is_disabled":false,"rental_uris":{"android":"levelo://app?vid=c05d3aa8-dff7-4ec1-bfa0-b71a43e914ed","ios":"levelo://app?vid=c05d3aa8-dff7-4ec1-bfa0-b71a43e914ed"},"vehicle_type_id":"4","last_reported":1747379423,"current_range_meters":15200,"station_id":"ce4bhi12rcd13ifvqfo0","pricing_plan_id":"cebpf4jnsgd1na2vs0mg"},{"bike_id":"ec441039-522b-45c0-9990-94a746b11b25","system_id":"levelo_inurba_marseille","lat":43.251072,"lon":5.403212,"is_reserved":false,"is_disabled":false,"rental_uris":{"android":"levelo://app?vid=ec441039-522b-45c0-9990-94a746b11b25","ios":"levelo://app?vid=ec441039-522b-45c0-9990-94a746b11b25"},"vehicle_type_id":"4","last_reported":1747379423,"current_range_meters":15200,"station_id":"ce4bhlh2rcd13ifvqgig","pricing_plan_id":"cebpf4jnsgd1na2vs0mg"},{"bike_id":"2afe07c9-417f-4b2a-b4cf-115a063ee7e8","system_id":"levelo_inurba_marseille","lat":43.25929,"lon":5.4087,"is_reserved":false,"is_disabled":false,"rental_uris":{"android":"levelo://app?vid=2afe07c9-417f-4b2a-b4cf-115a063ee7e8","ios":"levelo://app?vid=2afe07c9-417f-4b2a-b4cf-115a063ee7e8"},"vehicle_type_id":"4","last_reported":1747379423,"current_range_meters":15200,"station_id":"ce4bhm92rcd13ifvqglg","pricing_plan_id":"cebpf4jnsgd1na2vs0mg"},{"bike_id":"fc9b7d26-2c1e-4c52-8137-4b488c78c81a","system_id":"levelo_inurba_marseille","lat":43.23179,"lon":5.39982,"is_reserved":false,"is_disabled":false,"rental_uris":{"android":"levelo://app?vid=fc9b7d26-2c1e-4c52-8137-4b488c78c81a","ios":"levelo://app?vid=fc9b7d26-2c1e-4c52-8137-4b488c78c81a"},"vehicle_type_id":"4","last_reported":1747379423,"current_range_meters":15200,"station_id":"ce4bhn12rcd13ifvqgqg","pricing_plan_id":"cebpf4jnsgd1na2vs0mg"},{"bike_id":"225d88a7-bbb1-45c7-845f-1fd1816815a2","system_id":"levelo_inurba_marseille","lat":43.3469,"lon":5.3453,"is_reserved":false,"is_disabled":false,"rental_uris":{"android":"levelo://app?vid=225d88a7-bbb1-45c7-845f-1fd1816815a2","ios":"levelo://app?vid=225d88a7-bbb1-45c7-845f-1fd1816815a2"},"vehicle_type_id":"4","last_reported":1747379423,"current_range_meters":16000,"station_id":"","pricing_plan_id":"cebpf4jnsgd1na2vs0mg"},{"bike_id":"6d812bb8-7c84-4b9d-aa7e-2e32f2e0ab84","system_id":"levelo_inurba_marseille","lat":43.23925,"lon":5.37566,"is_reserved":false,"is_disabled":false,"rental_uris":{"android":"levelo://app?vid=6d812bb8-7c84-4b9d-aa7e-2e32f2e0ab84","ios":"levelo://app?vid=6d812bb8-7c84-4b9d-aa7e-2e32f2e0ab84"},"vehicle_type_id":"4","last_reported":1747379423,"current_range_meters":16000,"station_id":"","pricing_plan_id":"cebpf4jnsgd1na2vs0mg"},{"bike_id":"22e14dce-44fe-4f30-91e8-87139397b6e5","system_id":"levelo_inurba_marseille","lat":43.3134,"lon":5.3671,"is_reserved":false,"is_disabled":false,"rental_uris":{"android":"levelo://app?vid=22e14dce-44fe-4f30-91e8-87139397b6e5","ios":"levelo://app?vid=22e14dce-44fe-4f30-91e8-87139397b6e5"},"vehicle_type_id":"4","last_reported":1747379423,"current_range_meters":16000,"station_id":"ce4bgr92rcd13ifvqc6g","pricing_plan_id":"cebpf4jnsgd1na2vs0mg"},{"bike_id":"378a7921-5898-46a8-8657-6e9394ac1efb","system_id":"levelo_inurba_marseille","lat":43.30938,"lon":5.3903,"is_reserved":false,"is_disabled":false,"rental_uris":{"android":"levelo://app?vid=378a7921-5898-46a8-8657-6e9394ac1efb","ios":"levelo://app?vid=378a7921-5898-46a8-8657-6e9394ac1efb"},"vehicle_type_id":"4","last_reported":1747379423,"current_range_meters":16000,"station_id":"ce4bgup2rcd13ifvqco0","pricing_plan_id":"cebpf4jnsgd1na2vs0mg"},{"bike_id":"d1a82e80-5e0c-4cd4-9dc4-90bf658da68f","system_id":"levelo_inurba_marseille","lat":43.23965,"lon":5.36633,"is_reserved":false,"is_disabled":false,"rental_uris":{"android":"levelo://app?vid=d1a82e80-5e0c-4cd4-9dc4-90bf658da68f","ios":"levelo://app?vid=d1a82e80-5e0c-4cd4-9dc4-90bf658da68f"},"vehicle_type_id":"4","last_reported":1747379423,"current_range_meters":16000,"station_id":"ce4bhi12rcd13ifvqfp0","pricing_plan_id":"cebpf4jnsgd1na2vs0mg"},{"bike_id":"aa53c5b9-c9b8-4906-989e-6e49a1f5abe6","system_id":"levelo_inurba_marseille","lat":43.22957,"lon":5.35388,"is_reserved":false,"is_disabled":false,"rental_uris":{"android":"levelo://app?vid=aa53c5b9-c9b8-4906-989e-6e49a1f5abe6","ios":"levelo://app?vid=aa53c5b9-c9b8-4906-989e-6e49a1f5abe6"},"vehicle_type_id":"4","last_reported":1747379423,"current_range_meters":16000,"station_id":"cpo3532slgdg3j2ikp40","pricing_plan_id":"cebpf4jnsgd1na2vs0mg"},{"bike_id":"7be3d632-fec4-4e55-8d22-c490abb7c627","system_id":"levelo_inurba_marseille","lat":43.313525,"lon":5.367129,"is_reserved":false,"is_disabled":false,"rental_uris":{"android":"levelo://app?vid=7be3d632-fec4-4e55-8d22-c490abb7c627","ios":"levelo://app?vid=7be3d632-fec4-4e55-8d22-c490abb7c627"},"vehicle_type_id":"4","last_reported":1747379423,"current_range_meters":16400,"station_id":"ce4bgr92rcd13ifvqc6g","pricing_plan_id":"cebpf4jnsgd1na2vs0mg"},{"bike_id":"c74155ec-5b16-4e01-88e1-d27c4f5d7cdc","system_id":"levelo_inurba_marseille","lat":43.29021,"lon":5.38129,"is_reserved":false,"is_disabled":false,"rental_uris":{"android":"levelo://app?vid=c74155ec-5b16-4e01-88e1-d27c4f5d7cdc","ios":"levelo://app?vid=c74155ec-5b16-4e01-88e1-d27c4f5d7cdc"},"vehicle_type_id":"4","last_reported":1747379423,"current_range_meters":16400,"station_id":"ce4bh4p2rcd13ifvqe1g","pricing_plan_id":"cebpf4jnsgd1na2vs0mg"},{"bike_id":"2fbb4cb4-cae5-44f1-a758-92ec6b606646","system_id":"levelo_inurba_marseille","lat":43.32365,"lon":5.38883,"is_reserved":false,"is_disabled":false,"rental_uris":{"android":"levelo://app?vid=2fbb4cb4-cae5-44f1-a758-92ec6b606646","ios":"levelo://app?vid=2fbb4cb4-cae5-44f1-a758-92ec6b606646"},"vehicle_type_id":"4","last_reported":1747379423,"current_range_meters":16400,"station_id":"ce4bhqp2rcd13ifvqhog","pricing_plan_id":"cebpf4jnsgd1na2vs0mg"},{"bike_id":"54a1a73b-9f7a-414c-a48f-eeace73bd9b0","system_id":"levelo_inurba_marseille","lat":43.22504,"lon":5.34783,"is_reserved":false,"is_disabled":false,"rental_uris":{"android":"levelo://app?vid=54a1a73b-9f7a-414c-a48f-eeace73bd9b0","ios":"levelo://app?vid=54a1a73b-9f7a-414c-a48f-eeace73bd9b0"},"vehicle_type_id":"4","last_reported":1747379423,"current_range_meters":16400,"station_id":"st_cvj5dfep6f1abm77gieg","pricing_plan_id":"cebpf4jnsgd1na2vs0mg"},{"bike_id":"54c80718-1468-47f9-9877-bc44f5940722","system_id":"levelo_inurba_marseille","lat":43.21194,"lon":5.35069,"is_reserved":false,"is_disabled":false,"rental_uris":{"android":"levelo://app?vid=54c80718-1468-47f9-9877-bc44f5940722","ios":"levelo://app?vid=54c80718-1468-47f9-9877-bc44f5940722"},"vehicle_type_id":"4","last_reported":1747379423,"current_range_meters":16400,"station_id":"st_cvj6sg6p6f1abm77japg","pricing_plan_id":"cebpf4jnsgd1na2vs0mg"},{"bike_id":"6f9197e7-3e93-4e4d-9b1b-73f2670cbecf","system_id":"levelo_inurba_marseille","lat":43.27471,"lon":5.4238,"is_reserved":false,"is_disabled":false,"rental_uris":{"android":"levelo://app?vid=6f9197e7-3e93-4e4d-9b1b-73f2670cbecf","ios":"levelo://app?vid=6f9197e7-3e93-4e4d-9b1b-73f2670cbecf"},"vehicle_type_id":"4","last_reported":1747379423,"current_range_meters":16800,"station_id":"","pricing_plan_id":"cebpf4jnsgd1na2vs0mg"},{"bike_id":"028c765a-9c3a-411e-8b55-8ebfe40be73f","system_id":"levelo_inurba_marseille","lat":43.30526,"lon":5.36727,"is_reserved":false,"is_disabled":false,"rental_uris":{"android":"levelo://app?vid=028c765a-9c3a-411e-8b55-8ebfe40be73f","ios":"levelo://app?vid=028c765a-9c3a-411e-8b55-8ebfe40be73f"},"vehicle_type_id":"4","last_reported":1747379423,"current_range_meters":16800,"station_id":"ce4bgrp2rcd13ifvqc9g","pricing_plan_id":"cebpf4jnsgd1na2vs0mg"},{"bike_id":"6d5f4f90-497d-4a8d-b05f-6c23568334eb","system_id":"levelo_inurba_marseille","lat":43.28969,"lon":5.3783,"is_reserved":false,"is_disabled":false,"rental_uris":{"android":"levelo://app?vid=6d5f4f90-497d-4a8d-b05f-6c23568334eb","ios":"levelo://app?vid=6d5f4f90-497d-4a8d-b05f-6c23568334eb"},"vehicle_type_id":"4","last_reported":1747379423,"current_range_meters":16800,"station_id":"ce4bh9p2rcd13ifvqed0","pricing_plan_id":"cebpf4jnsgd1na2vs0mg"},{"bike_id":"da66c5e5-6e35-4104-b407-ba7ff49a5057","system_id":"levelo_inurba_marseille","lat":43.231827,"lon":5.400049,"is_reserved":false,"is_disabled":false,"rental_uris":{"android":"levelo://app?vid=da66c5e5-6e35-4104-b407-ba7ff49a5057","ios":"levelo://app?vid=da66c5e5-6e35-4104-b407-ba7ff49a5057"},"vehicle_type_id":"4","last_reported":1747379423,"current_range_meters":16800,"station_id":"ce4bhn12rcd13ifvqgqg","pricing_plan_id":"cebpf4jnsgd1na2vs0mg"},{"bike_id":"1c2c8740-e968-4d4a-827f-710bd3b032f4","system_id":"levelo_inurba_marseille","lat":43.231939,"lon":5.355534,"is_reserved":false,"is_disabled":false,"rental_uris":{"android":"levelo://app?vid=1c2c8740-e968-4d4a-827f-710bd3b032f4","ios":"levelo://app?vid=1c2c8740-e968-4d4a-827f-710bd3b032f4"},"vehicle_type_id":"4","last_reported":1747379423,"current_range_meters":16800,"station_id":"ce4bhu92rcd13ifvqi70","pricing_plan_id":"cebpf4jnsgd1na2vs0mg"},{"bike_id":"d655a865-0c3e-4202-bef4-71df962decf3","system_id":"levelo_inurba_marseille","lat":43.30149,"lon":5.38087,"is_reserved":false,"is_disabled":false,"rental_uris":{"android":"levelo://app?vid=d655a865-0c3e-4202-bef4-71df962decf3","ios":"levelo://app?vid=d655a865-0c3e-4202-bef4-71df962decf3"},"vehicle_type_id":"4","last_reported":1747379423,"current_range_meters":17200,"station_id":"ce4bgjp2rcd13ifvqbh0","pricing_plan_id":"cebpf4jnsgd1na2vs0mg"},{"bike_id":"d9cf0daf-2b8c-44c0-ad88-67a126aa883b","system_id":"levelo_inurba_marseille","lat":43.25967,"lon":5.40973,"is_reserved":false,"is_disabled":false,"rental_uris":{"android":"levelo://app?vid=d9cf0daf-2b8c-44c0-ad88-67a126aa883b","ios":"levelo://app?vid=d9cf0daf-2b8c-44c0-ad88-67a126aa883b"},"vehicle_type_id":"4","last_reported":1747379423,"current_range_meters":17200,"station_id":"ce4bhm92rcd13ifvqglg","pricing_plan_id":"cebpf4jnsgd1na2vs0mg"},{"bike_id":"16748ab3-36ff-4772-bfcc-45d7b9aee659","system_id":"levelo_inurba_marseille","lat":43.27495,"lon":5.42458,"is_reserved":false,"is_disabled":false,"rental_uris":{"android":"levelo://app?vid=16748ab3-36ff-4772-bfcc-45d7b9aee659","ios":"levelo://app?vid=16748ab3-36ff-4772-bfcc-45d7b9aee659"},"vehicle_type_id":"4","last_reported":1747379423,"current_range_meters":17200,"station_id":"ce4bhn92rcd13ifvqgrg","pricing_plan_id":"cebpf4jnsgd1na2vs0mg"},{"bike_id":"6ee860e6-5e4e-4f65-9301-9807d55e4a11","system_id":"levelo_inurba_marseille","lat":43.275,"lon":5.42458,"is_reserved":false,"is_disabled":false,"rental_uris":{"android":"levelo://app?vid=6ee860e6-5e4e-4f65-9301-9807d55e4a11","ios":"levelo://app?vid=6ee860e6-5e4e-4f65-9301-9807d55e4a11"},"vehicle_type_id":"4","last_reported":1747379423,"current_range_meters":17200,"station_id":"ce4bhn92rcd13ifvqgrg","pricing_plan_id":"cebpf4jnsgd1na2vs0mg"},{"bike_id":"b3bd186a-ae2a-4408-aab9-c24e5fe41ca9","system_id":"levelo_inurba_marseille","lat":43.27495,"lon":5.42449,"is_reserved":false,"is_disabled":false,"rental_uris":{"android":"levelo://app?vid=b3bd186a-ae2a-4408-aab9-c24e5fe41ca9","ios":"levelo://app?vid=b3bd186a-ae2a-4408-aab9-c24e5fe41ca9"},"vehicle_type_id":"4","last_reported":1747379423,"current_range_meters":17200,"station_id":"ce4bhn92rcd13ifvqgrg","pricing_plan_id":"cebpf4jnsgd1na2vs0mg"},{"bike_id":"98106b70-6f8a-476d-962a-f2bed2e52f0a","system_id":"levelo_inurba_marseille","lat":43.32113,"lon":5.36764,"is_reserved":false,"is_disabled":false,"rental_uris":{"android":"levelo://app?vid=98106b70-6f8a-476d-962a-f2bed2e52f0a","ios":"levelo://app?vid=98106b70-6f8a-476d-962a-f2bed2e52f0a"},"vehicle_type_id":"4","last_reported":1747379423,"current_range_meters":17200,"station_id":"ce4bhrh2rcd13ifvqhug","pricing_plan_id":"cebpf4jnsgd1na2vs0mg"},{"bike_id":"c8a38f2f-aa6b-4b35-a189-77439d458a3a","system_id":"levelo_inurba_marseille","lat":43.28501,"lon":5.38936,"is_reserved":false,"is_disabled":false,"rental_uris":{"android":"levelo://app?vid=c8a38f2f-aa6b-4b35-a189-77439d458a3a","ios":"levelo://app?vid=c8a38f2f-aa6b-4b35-a189-77439d458a3a"},"vehicle_type_id":"4","last_reported":1747379423,"current_range_meters":17600,"station_id":"","pricing_plan_id":"cebpf4jnsgd1na2vs0mg"},{"bike_id":"cae6f8c4-c638-42f7-9da5-8fa1ce6a7842","system_id":"levelo_inurba_marseille","lat":43.29509,"lon":5.37518,"is_reserved":false,"is_disabled":false,"rental_uris":{"android":"levelo://app?vid=cae6f8c4-c638-42f7-9da5-8fa1ce6a7842","ios":"levelo://app?vid=cae6f8c4-c638-42f7-9da5-8fa1ce6a7842"},"vehicle_type_id":"4","last_reported":1747379423,"current_range_meters":17600,"station_id":"ce4bgkp2rcd13ifvqbmg","pricing_plan_id":"cebpf4jnsgd1na2vs0mg"},{"bike_id":"527d2c77-aac8-43e9-b442-d83d776b9e7f","system_id":"levelo_inurba_marseille","lat":43.29064,"lon":5.39945,"is_reserved":false,"is_disabled":false,"rental_uris":{"android":"levelo://app?vid=527d2c77-aac8-43e9-b442-d83d776b9e7f","ios":"levelo://app?vid=527d2c77-aac8-43e9-b442-d83d776b9e7f"},"vehicle_type_id":"4","last_reported":1747379423,"current_range_meters":17600,"station_id":"ce4bh392rcd13ifvqdm0","pricing_plan_id":"cebpf4jnsgd1na2vs0mg"},{"bike_id":"706ad53d-5e28-47a3-9083-69117c2fe71c","system_id":"levelo_inurba_marseille","lat":43.24068,"lon":5.37764,"is_reserved":false,"is_disabled":false,"rental_uris":{"android":"levelo://app?vid=706ad53d-5e28-47a3-9083-69117c2fe71c","ios":"levelo://app?vid=706ad53d-5e28-47a3-9083-69117c2fe71c"},"vehicle_type_id":"4","last_reported":1747379423,"current_range_meters":17600,"station_id":"ce4bhnp2rcd13ifvqgvg","pricing_plan_id":"cebpf4jnsgd1na2vs0mg"},{"bike_id":"007f087c-c3f7-4b0d-bcc0-1d9d45e1ec16","system_id":"levelo_inurba_marseille","lat":43.23583,"lon":5.40334,"is_reserved":false,"is_disabled":false,"rental_uris":{"android":"levelo://app?vid=007f087c-c3f7-4b0d-bcc0-1d9d45e1ec16","ios":"levelo://app?vid=007f087c-c3f7-4b0d-bcc0-1d9d45e1ec16"},"vehicle_type_id":"4","last_reported":1747379423,"current_range_meters":18000,"station_id":"","pricing_plan_id":"cebpf4jnsgd1na2vs0mg"},{"bike_id":"bd73e106-8904-4073-a041-8d9e4933c9df","system_id":"levelo_inurba_marseille","lat":43.24623,"lon":5.39001,"is_reserved":false,"is_disabled":false,"rental_uris":{"android":"levelo://app?vid=bd73e106-8904-4073-a041-8d9e4933c9df","ios":"levelo://app?vid=bd73e106-8904-4073-a041-8d9e4933c9df"},"vehicle_type_id":"4","last_reported":1747379423,"current_range_meters":18000,"station_id":"","pricing_plan_id":"cebpf4jnsgd1na2vs0mg"},{"bike_id":"d4a68f67-accc-4132-becd-c45a42937a18","system_id":"levelo_inurba_marseille","lat":43.29255,"lon":5.37621,"is_reserved":false,"is_disabled":false,"rental_uris":{"android":"levelo://app?vid=d4a68f67-accc-4132-becd-c45a42937a18","ios":"levelo://app?vid=d4a68f67-accc-4132-becd-c45a42937a18"},"vehicle_type_id":"4","last_reported":1747379423,"current_range_meters":18000,"station_id":"ce4bgi12rcd13ifvqb80","pricing_plan_id":"cebpf4jnsgd1na2vs0mg"},{"bike_id":"98966012-7399-4a6d-aca5-28f088f7a8ed","system_id":"levelo_inurba_marseille","lat":43.29971,"lon":5.38488,"is_reserved":false,"is_disabled":false,"rental_uris":{"android":"levelo://app?vid=98966012-7399-4a6d-aca5-28f088f7a8ed","ios":"levelo://app?vid=98966012-7399-4a6d-aca5-28f088f7a8ed"},"vehicle_type_id":"4","last_reported":1747379423,"current_range_meters":18000,"station_id":"ce4bgj92rcd13ifvqbd0","pricing_plan_id":"cebpf4jnsgd1na2vs0mg"},{"bike_id":"786fa5e7-e1b5-4809-bf1e-c8607de40f42","system_id":"levelo_inurba_marseille","lat":43.301545,"lon":5.380945,"is_reserved":false,"is_disabled":false,"rental_uris":{"android":"levelo://app?vid=786fa5e7-e1b5-4809-bf1e-c8607de40f42","ios":"levelo://app?vid=786fa5e7-e1b5-4809-bf1e-c8607de40f42"},"vehicle_type_id":"4","last_reported":1747379423,"current_range_meters":18000,"station_id":"ce4bgjp2rcd13ifvqbh0","pricing_plan_id":"cebpf4jnsgd1na2vs0mg"},{"bike_id":"edc72cea-d180-4ad0-ac15-174cb489800d","system_id":"levelo_inurba_marseille","lat":43.3046,"lon":5.37904,"is_reserved":false,"is_disabled":false,"rental_uris":{"android":"levelo://app?vid=edc72cea-d180-4ad0-ac15-174cb489800d","ios":"levelo://app?vid=edc72cea-d180-4ad0-ac15-174cb489800d"},"vehicle_type_id":"4","last_reported":1747379423,"current_range_meters":18000,"station_id":"ce4bgup2rcd13ifvqcn0","pricing_plan_id":"cebpf4jnsgd1na2vs0mg"},{"bike_id":"516642c9-2ca2-40a9-a7aa-6adffbafaf28","system_id":"levelo_inurba_marseille","lat":43.30947,"lon":5.39042,"is_reserved":false,"is_disabled":false,"rental_uris":{"android":"levelo://app?vid=516642c9-2ca2-40a9-a7aa-6adffbafaf28","ios":"levelo://app?vid=516642c9-2ca2-40a9-a7aa-6adffbafaf28"},"vehicle_type_id":"4","last_reported":1747379423,"current_range_meters":18000,"station_id":"ce4bgup2rcd13ifvqco0","pricing_plan_id":"cebpf4jnsgd1na2vs0mg"},{"bike_id":"6fe8c3d1-f090-4b93-ba20-3440c54b054d","system_id":"levelo_inurba_marseille","lat":43.28928,"lon":5.36636,"is_reserved":false,"is_disabled":false,"rental_uris":{"android":"levelo://app?vid=6fe8c3d1-f090-4b93-ba20-3440c54b054d","ios":"levelo://app?vid=6fe8c3d1-f090-4b93-ba20-3440c54b054d"},"vehicle_type_id":"4","last_reported":1747379423,"current_range_meters":18000,"station_id":"ce4bhap2rcd13ifvqek0","pricing_plan_id":"cebpf4jnsgd1na2vs0mg"},{"bike_id":"7811842d-dfb9-43fc-991e-ef3bb7c4a937","system_id":"levelo_inurba_marseille","lat":43.28408,"lon":5.34977,"is_reserved":false,"is_disabled":false,"rental_uris":{"android":"levelo://app?vid=7811842d-dfb9-43fc-991e-ef3bb7c4a937","ios":"levelo://app?vid=7811842d-dfb9-43fc-991e-ef3bb7c4a937"},"vehicle_type_id":"4","last_reported":1747379423,"current_range_meters":18000,"station_id":"ce4bhbh2rcd13ifvqepg","pricing_plan_id":"cebpf4jnsgd1na2vs0mg"},{"bike_id":"eb315ca9-8b37-4a65-969b-3363bd5f25ab","system_id":"levelo_inurba_marseille","lat":43.27492,"lon":5.42452,"is_reserved":false,"is_disabled":false,"rental_uris":{"android":"levelo://app?vid=eb315ca9-8b37-4a65-969b-3363bd5f25ab","ios":"levelo://app?vid=eb315ca9-8b37-4a65-969b-3363bd5f25ab"},"vehicle_type_id":"4","last_reported":1747379423,"current_range_meters":18000,"station_id":"ce4bhn92rcd13ifvqgrg","pricing_plan_id":"cebpf4jnsgd1na2vs0mg"},{"bike_id":"0b024457-9163-476e-8e28-42011b1ade8c","system_id":"levelo_inurba_marseille","lat":43.326553,"lon":5.409923,"is_reserved":false,"is_disabled":false,"rental_uris":{"android":"levelo://app?vid=0b024457-9163-476e-8e28-42011b1ade8c","ios":"levelo://app?vid=0b024457-9163-476e-8e28-42011b1ade8c"},"vehicle_type_id":"4","last_reported":1747379423,"current_range_meters":18000,"station_id":"ce4bhpp2rcd13ifvqhgg","pricing_plan_id":"cebpf4jnsgd1na2vs0mg"},{"bike_id":"486ad2be-07e3-43ff-845e-ed2b830c0ab8","system_id":"levelo_inurba_marseille","lat":43.30472,"lon":5.37902,"is_reserved":false,"is_disabled":false,"rental_uris":{"android":"levelo://app?vid=486ad2be-07e3-43ff-845e-ed2b830c0ab8","ios":"levelo://app?vid=486ad2be-07e3-43ff-845e-ed2b830c0ab8"},"vehicle_type_id":"4","last_reported":1747379423,"current_range_meters":18800,"station_id":"ce4bgup2rcd13ifvqcn0","pricing_plan_id":"cebpf4jnsgd1na2vs0mg"},{"bike_id":"81ce395a-ca1c-43fa-b284-1ab7159452ff","system_id":"levelo_inurba_marseille","lat":43.2593,"lon":5.40884,"is_reserved":false,"is_disabled":false,"rental_uris":{"android":"levelo://app?vid=81ce395a-ca1c-43fa-b284-1ab7159452ff","ios":"levelo://app?vid=81ce395a-ca1c-43fa-b284-1ab7159452ff"},"vehicle_type_id":"4","last_reported":1747379423,"current_range_meters":18800,"station_id":"ce4bhm92rcd13ifvqglg","pricing_plan_id":"cebpf4jnsgd1na2vs0mg"},{"bike_id":"553ff6fc-fcab-4218-9c0f-0b8c49456d21","system_id":"levelo_inurba_marseille","lat":43.30156,"lon":5.38102,"is_reserved":false,"is_disabled":false,"rental_uris":{"android":"levelo://app?vid=553ff6fc-fcab-4218-9c0f-0b8c49456d21","ios":"levelo://app?vid=553ff6fc-fcab-4218-9c0f-0b8c49456d21"},"vehicle_type_id":"4","last_reported":1747379423,"current_range_meters":19200,"station_id":"ce4bgjp2rcd13ifvqbh0","pricing_plan_id":"cebpf4jnsgd1na2vs0mg"},{"bike_id":"8a08d164-6ffa-4f8e-8b35-604f4e996eda","system_id":"levelo_inurba_marseille","lat":43.312247,"lon":5.368504,"is_reserved":false,"is_disabled":false,"rental_uris":{"android":"levelo://app?vid=8a08d164-6ffa-4f8e-8b35-604f4e996eda","ios":"levelo://app?vid=8a08d164-6ffa-4f8e-8b35-604f4e996eda"},"vehicle_type_id":"4","last_reported":1747379423,"current_range_meters":19200,"station_id":"ce4bgl92rcd13ifvqbq0","pricing_plan_id":"cebpf4jnsgd1na2vs0mg"},{"bike_id":"d77e3d28-20ab-4945-bbeb-50b176d7e13e","system_id":"levelo_inurba_marseille","lat":43.30947,"lon":5.39048,"is_reserved":false,"is_disabled":false,"rental_uris":{"android":"levelo://app?vid=d77e3d28-20ab-4945-bbeb-50b176d7e13e","ios":"levelo://app?vid=d77e3d28-20ab-4945-bbeb-50b176d7e13e"},"vehicle_type_id":"4","last_reported":1747379423,"current_range_meters":19200,"station_id":"ce4bgup2rcd13ifvqco0","pricing_plan_id":"cebpf4jnsgd1na2vs0mg"},{"bike_id":"cb1d7e43-3f54-4ca4-b7bc-d2c867dfb02e","system_id":"levelo_inurba_marseille","lat":43.25012,"lon":5.38932,"is_reserved":false,"is_disabled":false,"rental_uris":{"android":"levelo://app?vid=cb1d7e43-3f54-4ca4-b7bc-d2c867dfb02e","ios":"levelo://app?vid=cb1d7e43-3f54-4ca4-b7bc-d2c867dfb02e"},"vehicle_type_id":"4","last_reported":1747379423,"current_range_meters":19200,"station_id":"ce4bhgp2rcd13ifvqfd0","pricing_plan_id":"cebpf4jnsgd1na2vs0mg"},{"bike_id":"09f2db18-98d2-46eb-895f-e76597f5759f","system_id":"levelo_inurba_marseille","lat":43.24388,"lon":5.37058,"is_reserved":false,"is_disabled":false,"rental_uris":{"android":"levelo://app?vid=09f2db18-98d2-46eb-895f-e76597f5759f","ios":"levelo://app?vid=09f2db18-98d2-46eb-895f-e76597f5759f"},"vehicle_type_id":"4","last_reported":1747379423,"current_range_meters":19200,"station_id":"ce4bhhh2rcd13ifvqfk0","pricing_plan_id":"cebpf4jnsgd1na2vs0mg"},{"bike_id":"c0e75306-ae2c-4a98-bab0-bb1c5e48c84e","system_id":"levelo_inurba_marseille","lat":43.29896,"lon":5.43668,"is_reserved":false,"is_disabled":false,"rental_uris":{"android":"levelo://app?vid=c0e75306-ae2c-4a98-bab0-bb1c5e48c84e","ios":"levelo://app?vid=c0e75306-ae2c-4a98-bab0-bb1c5e48c84e"},"vehicle_type_id":"4","last_reported":1747379423,"current_range_meters":19200,"station_id":"ce4bhpp2rcd13ifvqhfg","pricing_plan_id":"cebpf4jnsgd1na2vs0mg"},{"bike_id":"157b08e3-6a8c-44cb-ac16-b6dd3be076a6","system_id":"levelo_inurba_marseille","lat":43.3092,"lon":5.36854,"is_reserved":false,"is_disabled":false,"rental_uris":{"android":"levelo://app?vid=157b08e3-6a8c-44cb-ac16-b6dd3be076a6","ios":"levelo://app?vid=157b08e3-6a8c-44cb-ac16-b6dd3be076a6"},"vehicle_type_id":"4","last_reported":1747379423,"current_range_meters":19600,"station_id":"ce4bgn92rcd13ifvqbvg","pricing_plan_id":"cebpf4jnsgd1na2vs0mg"},{"bike_id":"e782fc22-d184-462d-b318-a1459f1a259b","system_id":"levelo_inurba_marseille","lat":43.30903,"lon":5.37178,"is_reserved":false,"is_disabled":false,"rental_uris":{"android":"levelo://app?vid=e782fc22-d184-462d-b318-a1459f1a259b","ios":"levelo://app?vid=e782fc22-d184-462d-b318-a1459f1a259b"},"vehicle_type_id":"4","last_reported":1747379423,"current_range_meters":19600,"station_id":"ce4bguh2rcd13ifvqckg","pricing_plan_id":"cebpf4jnsgd1na2vs0mg"},{"bike_id":"2d89c3a4-d4ff-439f-8532-65083f28d64c","system_id":"levelo_inurba_marseille","lat":43.27911,"lon":5.39588,"is_reserved":false,"is_disabled":false,"rental_uris":{"android":"levelo://app?vid=2d89c3a4-d4ff-439f-8532-65083f28d64c","ios":"levelo://app?vid=2d89c3a4-d4ff-439f-8532-65083f28d64c"},"vehicle_type_id":"4","last_reported":1747379423,"current_range_meters":19600,"station_id":"ce4bhf92rcd13ifvqf40","pricing_plan_id":"cebpf4jnsgd1na2vs0mg"},{"bike_id":"e6b75d88-cc74-45d4-aa8c-b94cb8f80f8c","system_id":"levelo_inurba_marseille","lat":43.23963,"lon":5.36632,"is_reserved":false,"is_disabled":false,"rental_uris":{"android":"levelo://app?vid=e6b75d88-cc74-45d4-aa8c-b94cb8f80f8c","ios":"levelo://app?vid=e6b75d88-cc74-45d4-aa8c-b94cb8f80f8c"},"vehicle_type_id":"4","last_reported":1747379423,"current_range_meters":19600,"station_id":"ce4bhi12rcd13ifvqfp0","pricing_plan_id":"cebpf4jnsgd1na2vs0mg"},{"bike_id":"a8131b14-20b3-47d2-a075-f816dcff0661","system_id":"levelo_inurba_marseille","lat":43.24056,"lon":5.37749,"is_reserved":false,"is_disabled":false,"rental_uris":{"android":"levelo://app?vid=a8131b14-20b3-47d2-a075-f816dcff0661","ios":"levelo://app?vid=a8131b14-20b3-47d2-a075-f816dcff0661"},"vehicle_type_id":"4","last_reported":1747379423,"current_range_meters":19600,"station_id":"ce4bhnp2rcd13ifvqgvg","pricing_plan_id":"cebpf4jnsgd1na2vs0mg"},{"bike_id":"46576045-65e8-4382-872d-0c67c8b2931a","system_id":"levelo_inurba_marseille","lat":43.24164,"lon":5.36398,"is_reserved":false,"is_disabled":false,"rental_uris":{"android":"levelo://app?vid=46576045-65e8-4382-872d-0c67c8b2931a","ios":"levelo://app?vid=46576045-65e8-4382-872d-0c67c8b2931a"},"vehicle_type_id":"4","last_reported":1747379423,"current_range_meters":19600,"station_id":"cpo36qri1sfpv3e86is0","pricing_plan_id":"cebpf4jnsgd1na2vs0mg"},{"bike_id":"ff66a8c1-9bf3-42f6-bede-af9e0448817b","system_id":"levelo_inurba_marseille","lat":43.3056,"lon":5.36552,"is_reserved":false,"is_disabled":false,"rental_uris":{"android":"levelo://app?vid=ff66a8c1-9bf3-42f6-bede-af9e0448817b","ios":"levelo://app?vid=ff66a8c1-9bf3-42f6-bede-af9e0448817b"},"vehicle_type_id":"4","last_reported":1747379423,"current_range_meters":20000,"station_id":"ce4bgs12rcd13ifvqcag","pricing_plan_id":"cebpf4jnsgd1na2vs0mg"},{"bike_id":"e8bf1f5e-c349-4ee0-a409-a781d9e9dcc7","system_id":"levelo_inurba_marseille","lat":43.25824,"lon":5.39436,"is_reserved":false,"is_disabled":false,"rental_uris":{"android":"levelo://app?vid=e8bf1f5e-c349-4ee0-a409-a781d9e9dcc7","ios":"levelo://app?vid=e8bf1f5e-c349-4ee0-a409-a781d9e9dcc7"},"vehicle_type_id":"4","last_reported":1747379423,"current_range_meters":20000,"station_id":"ce4bhip2rcd13ifvqft0","pricing_plan_id":"cebpf4jnsgd1na2vs0mg"},{"bike_id":"9d31e0cd-bcae-4bfe-a634-7c1fa1820081","system_id":"levelo_inurba_marseille","lat":43.30945,"lon":5.39051,"is_reserved":false,"is_disabled":false,"rental_uris":{"android":"levelo://app?vid=9d31e0cd-bcae-4bfe-a634-7c1fa1820081","ios":"levelo://app?vid=9d31e0cd-bcae-4bfe-a634-7c1fa1820081"},"vehicle_type_id":"4","last_reported":1747379423,"current_range_meters":20400,"station_id":"ce4bgup2rcd13ifvqco0","pricing_plan_id":"cebpf4jnsgd1na2vs0mg"},{"bike_id":"512db903-9559-40c7-8902-6a98e3c8c53c","system_id":"levelo_inurba_marseille","lat":43.32941,"lon":5.38999,"is_reserved":false,"is_disabled":false,"rental_uris":{"android":"levelo://app?vid=512db903-9559-40c7-8902-6a98e3c8c53c","ios":"levelo://app?vid=512db903-9559-40c7-8902-6a98e3c8c53c"},"vehicle_type_id":"4","last_reported":1747379423,"current_range_meters":20800,"station_id":"","pricing_plan_id":"cebpf4jnsgd1na2vs0mg"},{"bike_id":"54f08c54-eb41-4d89-8359-67a3cf5ffcbd","system_id":"levelo_inurba_marseille","lat":43.29971,"lon":5.37182,"is_reserved":false,"is_disabled":false,"rental_uris":{"android":"levelo://app?vid=54f08c54-eb41-4d89-8359-67a3cf5ffcbd","ios":"levelo://app?vid=54f08c54-eb41-4d89-8359-67a3cf5ffcbd"},