{"last_updated":1773135184,"ttl":60,"version":"2.2","data":{"bikes":[{"bike_id":"d836b3f9-d22b-4e36-9788-587fa8497bc6","system_id":"levelo_inurba_marseille","lat":43.2417,"lon":5.36383,"is_reserved":false,"is_disabled":false,"rental_uris":{"android":"levelo://app?vid=d836b3f9-d22b-4e36-9788-587fa8497bc6","ios":"levelo://app?vid=d836b3f9-d22b-4e36-9788-587fa8497bc6"},"vehicle_type_id":"4","last_reported":1773135184,"current_range_meters":10800,"station_id":"cpo36qri1sfpv3e86is0","pricing_plan_id":"cebpf4jnsgd1na2vs0mg"},{"bike_id":"550f0157-9dee-4681-8f50-3896b766742f","system_id":"levelo_inurba_marseille","lat":43.25866,"lon":5.39896,"is_reserved":false,"is_disabled":false,"rental_uris":{"android":"levelo://app?vid=550f0157-9dee-4681-8f50-3896b766742f","ios":"levelo://app?vid=550f0157-9dee-4681-8f50-3896b766742f"},"vehicle_type_id":"4","last_reported":1773135184,"current_range_meters":39200,"station_id":"ce4bhl92rcd13ifvqghg","pricing_plan_id":"cebpf4jnsgd1na2vs0mg"},{"bike_id":"c971e1c2-fac5-4b27-b546-189f1c461bd7","system_id":"levelo_inurba_marseille","lat":43.28847,"lon":5.39332,"is_reserved":false,"is_disabled":false,"rental_uris":{"android":"levelo://app?vid=c971e1c2-fac5-4b27-b546-189f1c461bd7","ios":"levelo://app?vid=c971e1c2-fac5-4b27-b546-189f1c461bd7"},"vehicle_type_id":"4","last_reported":1773135184,"current_range_meters":35600,"station_id":"ce4bh2p2rcd13ifvqdi0","pricing_plan_id":"cebpf4jnsgd1na2vs0mg"},{"bike_id":"96446788-121c-4ddd-9756-e64e4cbc0d03","system_id":"levelo_inurba_marseille","lat":43.28007,"lon":5.39994,"is_reserved":false,"is_disabled":false,"rental_uris":{"android":"levelo://app?vid=96446788-121c-4ddd-9756-e64e4cbc0d03","ios":"levelo://app?vid=96446788-121c-4ddd-9756-e64e4cbc0d03"},"vehicle_type_id":"4","last_reported":1773135184,"current_range_meters":16800,"station_id":"ce4bho92rcd13ifvqh4g","pricing_plan_id":"cebpf4jnsgd1na2vs0mg"},{"bike_id":"a288b9ab-a9bb-4ef5-b546-668de4d089da","system_id":"levelo_inurba_marseille","lat":43.29516,"lon":5.37509,"is_reserved":false,"is_disabled":false,"rental_uris":{"android":"levelo://app?vid=a288b9ab-a9bb-4ef5-b546-668de4d089da","ios":"levelo://app?vid=a288b9ab-a9bb-4ef5-b546-668de4d089da"},"vehicle_type_id":"4","last_reported":1773135184,"current_range_meters":28800,"station_id":"ce4bgkp2rcd13ifvqbmg","pricing_plan_id":"cebpf4jnsgd1na2vs0mg"},{"bike_id":"aaa57c9c-a5dc-480c-97b9-d3c8d31e41e6","system_id":"levelo_inurba_marseille","lat":43.30553,"lon":5.36579,"is_reserved":false,"is_disabled":false,"rental_uris":{"android":"levelo://app?vid=aaa57c9c-a5dc-480c-97b9-d3c8d31e41e6","ios":"levelo://app?vid=aaa57c9c-a5dc-480c-97b9-d3c8d31e41e6"},"vehicle_type_id":"4","last_reported":1773135184,"current_range_meters":38400,"station_id":"ce4bgs12rcd13ifvqcag","pricing_plan_id":"cebpf4jnsgd1na2vs0mg"},{"bike_id":"ec2fd004-5e6a-4378-b889-ecc25a28039f","system_id":"levelo_inurba_marseille","lat":43.28146,"lon":5.4264,"is_reserved":false,"is_disabled":false,"rental_uris":{"android":"levelo://app?vid=ec2fd004-5e6a-4378-b889-ecc25a28039f","ios":"levelo://app?vid=ec2fd004-5e6a-4378-b889-ecc25a28039f"},"vehicle_type_id":"4","last_reported":1773135184,"current_range_meters":35600,"station_id":"ce4bhnh2rcd13ifvqgug","pricing_plan_id":"cebpf4jnsgd1na2vs0mg"},{"bike_id":"957d5153-e7e5-4874-9557-99dd830de934","system_id":"levelo_inurba_marseille","lat":43.3464,"lon":5.36722,"is_reserved":false,"is_disabled":false,"rental_uris":{"android":"levelo://app?vid=957d5153-e7e5-4874-9557-99dd830de934","ios":"levelo://app?vid=957d5153-e7e5-4874-9557-99dd830de934"},"vehicle_type_id":"4","last_reported":1773135184,"current_range_meters":34800,"station_id":"","pricing_plan_id":"cebpf4jnsgd1na2vs0mg"},{"bike_id":"18f1c463-f6d6-4fd3-b57c-9bff424cb238","system_id":"levelo_inurba_marseille","lat":43.29269,"lon":5.37644,"is_reserved":false,"is_disabled":false,"rental_uris":{"android":"levelo://app?vid=18f1c463-f6d6-4fd3-b57c-9bff424cb238","ios":"levelo://app?vid=18f1c463-f6d6-4fd3-b57c-9bff424cb238"},"vehicle_type_id":"4","last_reported":1773135184,"current_range_meters":36400,"station_id":"ce4bgi12rcd13ifvqb80","pricing_plan_id":"cebpf4jnsgd1na2vs0mg"},{"bike_id":"4b816d63-fc3c-45dd-aea6-96b4203fe4c8","system_id":"levelo_inurba_marseille","lat":43.28478,"lon":5.48395,"is_reserved":false,"is_disabled":false,"rental_uris":{"android":"levelo://app?vid=4b816d63-fc3c-45dd-aea6-96b4203fe4c8","ios":"levelo://app?vid=4b816d63-fc3c-45dd-aea6-96b4203fe4c8"},"vehicle_type_id":"4","last_reported":1773135184,"current_range_meters":38400,"station_id":"st_d3svhcjqgbts73a3dn0g","pricing_plan_id":"cebpf4jnsgd1na2vs0mg"},{"bike_id":"9548c5b7-5eac-46d1-8ff7-8823f888763f","system_id":"levelo_inurba_marseille","lat":43.33157,"lon":5.37693,"is_reserved":false,"is_disabled":false,"rental_uris":{"android":"levelo://app?vid=9548c5b7-5eac-46d1-8ff7-8823f888763f","ios":"levelo://app?vid=9548c5b7-5eac-46d1-8ff7-8823f888763f"},"vehicle_type_id":"4","last_reported":1773135184,"current_range_meters":36400,"station_id":"st_d46cu089ee8s73dldbu0","pricing_plan_id":"cebpf4jnsgd1na2vs0mg"},{"bike_id":"168b8eae-7450-479d-80c9-c361acb0cac9","system_id":"levelo_inurba_marseille","lat":43.29578,"lon":5.36752,"is_reserved":false,"is_disabled":false,"rental_uris":{"android":"levelo://app?vid=168b8eae-7450-479d-80c9-c361acb0cac9","ios":"levelo://app?vid=168b8eae-7450-479d-80c9-c361acb0cac9"},"vehicle_type_id":"4","last_reported":1773135184,"current_range_meters":38000,"station_id":"ce4bgph2rcd13ifvqc2g","pricing_plan_id":"cebpf4jnsgd1na2vs0mg"},{"bike_id":"1ee08fee-017d-4804-9294-89d045f096b0","system_id":"levelo_inurba_marseille","lat":43.279905,"lon":5.4001,"is_reserved":false,"is_disabled":false,"rental_uris":{"android":"levelo://app?vid=1ee08fee-017d-4804-9294-89d045f096b0","ios":"levelo://app?vid=1ee08fee-017d-4804-9294-89d045f096b0"},"vehicle_type_id":"4","last_reported":1773135184,"current_range_meters":22400,"station_id":"ce4bho92rcd13ifvqh4g","pricing_plan_id":"cebpf4jnsgd1na2vs0mg"},{"bike_id":"24797630-66e6-48ac-9e2f-402e12f91c0a","system_id":"levelo_inurba_marseille","lat":43.279993,"lon":5.416642,"is_reserved":false,"is_disabled":false,"rental_uris":{"android":"levelo://app?vid=24797630-66e6-48ac-9e2f-402e12f91c0a","ios":"levelo://app?vid=24797630-66e6-48ac-9e2f-402e12f91c0a"},"vehicle_type_id":"4","last_reported":1773135184,"current_range_meters":4000,"station_id":"ce4bho12rcd13ifvqh1g","pricing_plan_id":"cebpf4jnsgd1na2vs0mg"},{"bike_id":"c3e5f7db-9aee-4e14-8726-6f1186a37e17","system_id":"levelo_inurba_marseille","lat":43.30163,"lon":5.38052,"is_reserved":false,"is_disabled":false,"rental_uris":{"android":"levelo://app?vid=c3e5f7db-9aee-4e14-8726-6f1186a37e17","ios":"levelo://app?vid=c3e5f7db-9aee-4e14-8726-6f1186a37e17"},"vehicle_type_id":"4","last_reported":1773135184,"current_range_meters":35200,"station_id":"ce4bgjp2rcd13ifvqbh0","pricing_plan_id":"cebpf4jnsgd1na2vs0mg"},{"bike_id":"33caa0ab-2314-4658-9109-d34f232d82d1","system_id":"levelo_inurba_marseille","lat":43.29896,"lon":5.43669,"is_reserved":false,"is_disabled":false,"rental_uris":{"android":"levelo://app?vid=33caa0ab-2314-4658-9109-d34f232d82d1","ios":"levelo://app?vid=33caa0ab-2314-4658-9109-d34f232d82d1"},"vehicle_type_id":"4","last_reported":1773135184,"current_range_meters":38800,"station_id":"ce4bhpp2rcd13ifvqhfg","pricing_plan_id":"cebpf4jnsgd1na2vs0mg"},{"bike_id":"f74373bb-8cec-4e3f-9532-63c4b3a6b68e","system_id":"levelo_inurba_marseille","lat":43.30778,"lon":5.37653,"is_reserved":false,"is_disabled":false,"rental_uris":{"android":"levelo://app?vid=f74373bb-8cec-4e3f-9532-63c4b3a6b68e","ios":"levelo://app?vid=f74373bb-8cec-4e3f-9532-63c4b3a6b68e"},"vehicle_type_id":"4","last_reported":1773135184,"current_range_meters":28000,"station_id":"ce4bgv92rcd13ifvqcq0","pricing_plan_id":"cebpf4jnsgd1na2vs0mg"},{"bike_id":"b32e1fec-13ae-4c1f-b583-73be3e302a01","system_id":"levelo_inurba_marseille","lat":43.24833,"lon":5.37463,"is_reserved":false,"is_disabled":false,"rental_uris":{"android":"levelo://app?vid=b32e1fec-13ae-4c1f-b583-73be3e302a01","ios":"levelo://app?vid=b32e1fec-13ae-4c1f-b583-73be3e302a01"},"vehicle_type_id":"4","last_reported":1773135184,"current_range_meters":36400,"station_id":"ce4bhgh2rcd13ifvqfb0","pricing_plan_id":"cebpf4jnsgd1na2vs0mg"},{"bike_id":"864c6078-41af-4bee-945c-48c82002f112","system_id":"levelo_inurba_marseille","lat":43.32479,"lon":5.36568,"is_reserved":false,"is_disabled":false,"rental_uris":{"android":"levelo://app?vid=864c6078-41af-4bee-945c-48c82002f112","ios":"levelo://app?vid=864c6078-41af-4bee-945c-48c82002f112"},"vehicle_type_id":"4","last_reported":1773135184,"current_range_meters":25200,"station_id":"ce4bhs12rcd13ifvqhvg","pricing_plan_id":"cebpf4jnsgd1na2vs0mg"},{"bike_id":"a60534b3-9ee9-4333-a7c1-1f4c68d62ab0","system_id":"levelo_inurba_marseille","lat":43.25966,"lon":5.40877,"is_reserved":false,"is_disabled":false,"rental_uris":{"android":"levelo://app?vid=a60534b3-9ee9-4333-a7c1-1f4c68d62ab0","ios":"levelo://app?vid=a60534b3-9ee9-4333-a7c1-1f4c68d62ab0"},"vehicle_type_id":"4","last_reported":1773135184,"current_range_meters":30400,"station_id":"ce4bhm92rcd13ifvqglg","pricing_plan_id":"cebpf4jnsgd1na2vs0mg"},{"bike_id":"263ecb35-58a4-4269-874f-ebacc9527e63","system_id":"levelo_inurba_marseille","lat":43.27055,"lon":5.40259,"is_reserved":false,"is_disabled":false,"rental_uris":{"android":"levelo://app?vid=263ecb35-58a4-4269-874f-ebacc9527e63","ios":"levelo://app?vid=263ecb35-58a4-4269-874f-ebacc9527e63"},"vehicle_type_id":"4","last_reported":1773135184,"current_range_meters":36400,"station_id":"ce4bhk92rcd13ifvqgc0","pricing_plan_id":"cebpf4jnsgd1na2vs0mg"},{"bike_id":"adf428bd-16ce-4d6b-94cd-289d20e6adfb","system_id":"levelo_inurba_marseille","lat":43.26898,"lon":5.4026,"is_reserved":false,"is_disabled":false,"rental_uris":{"android":"levelo://app?vid=adf428bd-16ce-4d6b-94cd-289d20e6adfb","ios":"levelo://app?vid=adf428bd-16ce-4d6b-94cd-289d20e6adfb"},"vehicle_type_id":"4","last_reported":1773135184,"current_range_meters":26800,"station_id":"","pricing_plan_id":"cebpf4jnsgd1na2vs0mg"},{"bike_id":"bcdde191-a865-4bb7-9762-7bb46bda6359","system_id":"levelo_inurba_marseille","lat":43.23182,"lon":5.40012,"is_reserved":false,"is_disabled":false,"rental_uris":{"android":"levelo://app?vid=bcdde191-a865-4bb7-9762-7bb46bda6359","ios":"levelo://app?vid=bcdde191-a865-4bb7-9762-7bb46bda6359"},"vehicle_type_id":"4","last_reported":1773135184,"current_range_meters":29600,"station_id":"ce4bhn12rcd13ifvqgqg","pricing_plan_id":"cebpf4jnsgd1na2vs0mg"},{"bike_id":"9cc09629-76f8-46a4-a76a-172ee2993776","system_id":"levelo_inurba_marseille","lat":43.32127,"lon":5.36767,"is_reserved":false,"is_disabled":false,"rental_uris":{"android":"levelo://app?vid=9cc09629-76f8-46a4-a76a-172ee2993776","ios":"levelo://app?vid=9cc09629-76f8-46a4-a76a-172ee2993776"},"vehicle_type_id":"4","last_reported":1773135184,"current_range_meters":32800,"station_id":"ce4bhrh2rcd13ifvqhug","pricing_plan_id":"cebpf4jnsgd1na2vs0mg"},{"bike_id":"ca6e432e-933b-4b98-af33-161fa3c28cef","system_id":"levelo_inurba_marseille","lat":43.32651,"lon":5.40988,"is_reserved":false,"is_disabled":false,"rental_uris":{"android":"levelo://app?vid=ca6e432e-933b-4b98-af33-161fa3c28cef","ios":"levelo://app?vid=ca6e432e-933b-4b98-af33-161fa3c28cef"},"vehicle_type_id":"4","last_reported":1773135184,"current_range_meters":38800,"station_id":"ce4bhpp2rcd13ifvqhgg","pricing_plan_id":"cebpf4jnsgd1na2vs0mg"},{"bike_id":"8ae944a9-73e4-40dd-b559-5de5fadd517a","system_id":"levelo_inurba_marseille","lat":43.26227,"lon":5.37434,"is_reserved":false,"is_disabled":false,"rental_uris":{"android":"levelo://app?vid=8ae944a9-73e4-40dd-b559-5de5fadd517a","ios":"levelo://app?vid=8ae944a9-73e4-40dd-b559-5de5fadd517a"},"vehicle_type_id":"4","last_reported":1773135184,"current_range_meters":20400,"station_id":"ce4bhgp2rcd13ifvqfc0","pricing_plan_id":"cebpf4jnsgd1na2vs0mg"},{"bike_id":"c93656ce-0986-4852-b121-0721e15d6ffd","system_id":"levelo_inurba_marseille","lat":43.30159,"lon":5.38077,"is_reserved":false,"is_disabled":false,"rental_uris":{"android":"levelo://app?vid=c93656ce-0986-4852-b121-0721e15d6ffd","ios":"levelo://app?vid=c93656ce-0986-4852-b121-0721e15d6ffd"},"vehicle_type_id":"4","last_reported":1773135184,"current_range_meters":25600,"station_id":"ce4bgjp2rcd13ifvqbh0","pricing_plan_id":"cebpf4jnsgd1na2vs0mg"},{"bike_id":"f9209d63-931b-4f2f-803f-2dd3d86dd01f","system_id":"levelo_inurba_marseille","lat":43.30421,"lon":5.41281,"is_reserved":false,"is_disabled":false,"rental_uris":{"android":"levelo://app?vid=f9209d63-931b-4f2f-803f-2dd3d86dd01f","ios":"levelo://app?vid=f9209d63-931b-4f2f-803f-2dd3d86dd01f"},"vehicle_type_id":"4","last_reported":1773135184,"current_range_meters":14000,"station_id":"ce4bhop2rcd13ifvqh8g","pricing_plan_id":"cebpf4jnsgd1na2vs0mg"},{"bike_id":"b5369474-d595-42d6-ba6e-c39f04602da0","system_id":"levelo_inurba_marseille","lat":43.22563,"lon":5.41627,"is_reserved":false,"is_disabled":false,"rental_uris":{"android":"levelo://app?vid=b5369474-d595-42d6-ba6e-c39f04602da0","ios":"levelo://app?vid=b5369474-d595-42d6-ba6e-c39f04602da0"},"vehicle_type_id":"4","last_reported":1773135184,"current_range_meters":11200,"station_id":"st_d2o4gvlbi1j2169b742g","pricing_plan_id":"cebpf4jnsgd1na2vs0mg"},{"bike_id":"911f8b4c-0d31-421a-a324-ee2cc3acf51a","system_id":"levelo_inurba_marseille","lat":43.29907,"lon":5.38144,"is_reserved":false,"is_disabled":true,"rental_uris":{"android":"levelo://app?vid=911f8b4c-0d31-421a-a324-ee2cc3acf51a","ios":"levelo://app?vid=911f8b4c-0d31-421a-a324-ee2cc3acf51a"},"vehicle_type_id":"4","last_reported":1773135184,"current_range_meters":18800,"station_id":"ce4bgj12rcd13ifvqbc0","pricing_plan_id":"cebpf4jnsgd1na2vs0mg"},{"bike_id":"defb3785-ffdb-45c6-b37a-b3aa30aa857c","system_id":"levelo_inurba_marseille","lat":43.24177,"lon":5.39733,"is_reserved":false,"is_disabled":false,"rental_uris":{"android":"levelo://app?vid=defb3785-ffdb-45c6-b37a-b3aa30aa857c","ios":"levelo://app?vid=defb3785-ffdb-45c6-b37a-b3aa30aa857c"},"vehicle_type_id":"4","last_reported":1773135184,"current_range_meters":38400,"station_id":"ce4bhn12rcd13ifvqgpg","pricing_plan_id":"cebpf4jnsgd1na2vs0mg"},{"bike_id":"9f177b46-e062-4882-b7a0-141ac24e52b0","system_id":"levelo_inurba_marseille","lat":43.31986,"lon":5.40446,"is_reserved":false,"is_disabled":false,"rental_uris":{"android":"levelo://app?vid=9f177b46-e062-4882-b7a0-141ac24e52b0","ios":"levelo://app?vid=9f177b46-e062-4882-b7a0-141ac24e52b0"},"vehicle_type_id":"4","last_reported":1773135184,"current_range_meters":18000,"station_id":"","pricing_plan_id":"cebpf4jnsgd1na2vs0mg"},{"bike_id":"26aa5a84-7c56-4e4b-b67f-4e70084d4713","system_id":"levelo_inurba_marseille","lat":43.29231,"lon":5.36856,"is_reserved":false,"is_disabled":false,"rental_uris":{"android":"levelo://app?vid=26aa5a84-7c56-4e4b-b67f-4e70084d4713","ios":"levelo://app?vid=26aa5a84-7c56-4e4b-b67f-4e70084d4713"},"vehicle_type_id":"4","last_reported":1773135184,"current_range_meters":11200,"station_id":"","pricing_plan_id":"cebpf4jnsgd1na2vs0mg"},{"bike_id":"57be604b-33d9-4634-bc58-ddcff506a976","system_id":"levelo_inurba_marseille","lat":43.24078,"lon":5.37759,"is_reserved":false,"is_disabled":false,"rental_uris":{"android":"levelo://app?vid=57be604b-33d9-4634-bc58-ddcff506a976","ios":"levelo://app?vid=57be604b-33d9-4634-bc58-ddcff506a976"},"vehicle_type_id":"4","last_reported":1773135184,"current_range_meters":39200,"station_id":"ce4bhnp2rcd13ifvqgvg","pricing_plan_id":"cebpf4jnsgd1na2vs0mg"},{"bike_id":"c3a6abe6-c2fe-4a0d-bd39-b1c9edd3f158","system_id":"levelo_inurba_marseille","lat":43.29513,"lon":5.3749,"is_reserved":false,"is_disabled":false,"rental_uris":{"android":"levelo://app?vid=c3a6abe6-c2fe-4a0d-bd39-b1c9edd3f158","ios":"levelo://app?vid=c3a6abe6-c2fe-4a0d-bd39-b1c9edd3f158"},"vehicle_type_id":"4","last_reported":1773135184,"current_range_meters":39200,"station_id":"ce4bgkp2rcd13ifvqbmg","pricing_plan_id":"cebpf4jnsgd1na2vs0mg"},{"bike_id":"4879d3c3-e3b5-42ca-ab65-740f4f2a8681","system_id":"levelo_inurba_marseille","lat":43.24179,"lon":5.36391,"is_reserved":false,"is_disabled":false,"rental_uris":{"android":"levelo://app?vid=4879d3c3-e3b5-42ca-ab65-740f4f2a8681","ios":"levelo://app?vid=4879d3c3-e3b5-42ca-ab65-740f4f2a8681"},"vehicle_type_id":"4","last_reported":1773135184,"current_range_meters":16800,"station_id":"cpo36qri1sfpv3e86is0","pricing_plan_id":"cebpf4jnsgd1na2vs0mg"},{"bike_id":"406dc9a2-14d2-43f3-b09a-1270cddb760c","system_id":"levelo_inurba_marseille","lat":43.29909,"lon":5.37481,"is_reserved":false,"is_disabled":false,"rental_uris":{"android":"levelo://app?vid=406dc9a2-14d2-43f3-b09a-1270cddb760c","ios":"levelo://app?vid=406dc9a2-14d2-43f3-b09a-1270cddb760c"},"vehicle_type_id":"4","last_reported":1773135184,"current_range_meters":39200,"station_id":"ce4bgjh2rcd13ifvqbg0","pricing_plan_id":"cebpf4jnsgd1na2vs0mg"},{"bike_id":"6cfb7bd9-f8d6-449b-b9ee-b500434706d4","system_id":"levelo_inurba_marseille","lat":43.32467,"lon":5.36592,"is_reserved":false,"is_disabled":false,"rental_uris":{"android":"levelo://app?vid=6cfb7bd9-f8d6-449b-b9ee-b500434706d4","ios":"levelo://app?vid=6cfb7bd9-f8d6-449b-b9ee-b500434706d4"},"vehicle_type_id":"4","last_reported":1773135184,"current_range_meters":18000,"station_id":"ce4bhs12rcd13ifvqhvg","pricing_plan_id":"cebpf4jnsgd1na2vs0mg"},{"bike_id":"05681e4e-87b0-4520-8776-5b1952252019","system_id":"levelo_inurba_marseille","lat":43.30305,"lon":5.3691,"is_reserved":false,"is_disabled":false,"rental_uris":{"android":"levelo://app?vid=05681e4e-87b0-4520-8776-5b1952252019","ios":"levelo://app?vid=05681e4e-87b0-4520-8776-5b1952252019"},"vehicle_type_id":"4","last_reported":1773135184,"current_range_meters":33200,"station_id":"ce4bgqh2rcd13ifvqc5g","pricing_plan_id":"cebpf4jnsgd1na2vs0mg"},{"bike_id":"2c836b03-51a7-4097-96f7-8a0f0d0e719d","system_id":"levelo_inurba_marseille","lat":43.24816,"lon":5.37455,"is_reserved":false,"is_disabled":false,"rental_uris":{"android":"levelo://app?vid=2c836b03-51a7-4097-96f7-8a0f0d0e719d","ios":"levelo://app?vid=2c836b03-51a7-4097-96f7-8a0f0d0e719d"},"vehicle_type_id":"4","last_reported":1773135184,"current_range_meters":37600,"station_id":"ce4bhgh2rcd13ifvqfb0","pricing_plan_id":"cebpf4jnsgd1na2vs0mg"},{"bike_id":"5e98cd14-31b8-4319-a3f9-4020968dfdec","system_id":"levelo_inurba_marseille","lat":43.2955,"lon":5.36746,"is_reserved":false,"is_disabled":false,"rental_uris":{"android":"levelo://app?vid=5e98cd14-31b8-4319-a3f9-4020968dfdec","ios":"levelo://app?vid=5e98cd14-31b8-4319-a3f9-4020968dfdec"},"vehicle_type_id":"4","last_reported":1773135184,"current_range_meters":38000,"station_id":"ce4bgph2rcd13ifvqc2g","pricing_plan_id":"cebpf4jnsgd1na2vs0mg"},{"bike_id":"49578953-6b5f-4d8b-8563-1660aa3595a2","system_id":"levelo_inurba_marseille","lat":43.29596,"lon":5.38088,"is_reserved":false,"is_disabled":false,"rental_uris":{"android":"levelo://app?vid=49578953-6b5f-4d8b-8563-1660aa3595a2","ios":"levelo://app?vid=49578953-6b5f-4d8b-8563-1660aa3595a2"},"vehicle_type_id":"4","last_reported":1773135184,"current_range_meters":6800,"station_id":"ce4bgl12rcd13ifvqbo0","pricing_plan_id":"cebpf4jnsgd1na2vs0mg"},{"bike_id":"0042b9c4-6034-4b14-a836-5261c3b74b6f","system_id":"levelo_inurba_marseille","lat":43.29263,"lon":5.37619,"is_reserved":false,"is_disabled":false,"rental_uris":{"android":"levelo://app?vid=0042b9c4-6034-4b14-a836-5261c3b74b6f","ios":"levelo://app?vid=0042b9c4-6034-4b14-a836-5261c3b74b6f"},"vehicle_type_id":"4","last_reported":1773135184,"current_range_meters":39200,"station_id":"ce4bgi12rcd13ifvqb80","pricing_plan_id":"cebpf4jnsgd1na2vs0mg"},{"bike_id":"6073a47f-518c-413d-af8e-2cd2ccfbc29d","system_id":"levelo_inurba_marseille","lat":43.25586,"lon":5.38247,"is_reserved":false,"is_disabled":false,"rental_uris":{"android":"levelo://app?vid=6073a47f-518c-413d-af8e-2cd2ccfbc29d","ios":"levelo://app?vid=6073a47f-518c-413d-af8e-2cd2ccfbc29d"},"vehicle_type_id":"4","last_reported":1773135184,"current_range_meters":39200,"station_id":"ce4bhih2rcd13ifvqfs0","pricing_plan_id":"cebpf4jnsgd1na2vs0mg"},{"bike_id":"05a6aeb6-8ecc-444c-a68d-cdb267f43480","system_id":"levelo_inurba_marseille","lat":43.24637,"lon":5.38905,"is_reserved":false,"is_disabled":false,"rental_uris":{"android":"levelo://app?vid=05a6aeb6-8ecc-444c-a68d-cdb267f43480","ios":"levelo://app?vid=05a6aeb6-8ecc-444c-a68d-cdb267f43480"},"vehicle_type_id":"4","last_reported":1773135184,"current_range_meters":38400,"station_id":"ce4bhg12rcd13ifvqf60","pricing_plan_id":"cebpf4jnsgd1na2vs0mg"},{"bike_id":"4d918a95-6ede-4f0d-8771-87f15900f998","system_id":"levelo_inurba_marseille","lat":43.30361,"lon":5.41879,"is_reserved":false,"is_disabled":true,"rental_uris":{"android":"levelo://app?vid=4d918a95-6ede-4f0d-8771-87f15900f998","ios":"levelo://app?vid=4d918a95-6ede-4f0d-8771-87f15900f998"},"vehicle_type_id":"4","last_reported":1773135184,"current_range_meters":32000,"station_id":"ce4bhop2rcd13ifvqh7g","pricing_plan_id":"cebpf4jnsgd1na2vs0mg"},{"bike_id":"704a2250-d7d4-477b-b824-ec4356a8dd6e","system_id":"levelo_inurba_marseille","lat":43.29593,"lon":5.3809,"is_reserved":false,"is_disabled":false,"rental_uris":{"android":"levelo://app?vid=704a2250-d7d4-477b-b824-ec4356a8dd6e","ios":"levelo://app?vid=704a2250-d7d4-477b-b824-ec4356a8dd6e"},"vehicle_type_id":"4","last_reported":1773135184,"current_range_meters":35600,"station_id":"ce4bgl12rcd13ifvqbo0","pricing_plan_id":"cebpf4jnsgd1na2vs0mg"},{"bike_id":"a5642da5-590f-492f-89f9-0fbe17148ab4","system_id":"levelo_inurba_marseille","lat":43.23817,"lon":5.36677,"is_reserved":false,"is_disabled":false,"rental_uris":{"android":"levelo://app?vid=a5642da5-590f-492f-89f9-0fbe17148ab4","ios":"levelo://app?vid=a5642da5-590f-492f-89f9-0fbe17148ab4"},"vehicle_type_id":"4","last_reported":1773135184,"current_range_meters":17600,"station_id":"st_d3nk18o9ro0c73en2l3g","pricing_plan_id":"cebpf4jnsgd1na2vs0mg"},{"bike_id":"5012be70-691a-4e4b-86ce-bb3a76ad84ba","system_id":"levelo_inurba_marseille","lat":43.32553,"lon":5.4145,"is_reserved":false,"is_disabled":false,"rental_uris":{"android":"levelo://app?vid=5012be70-691a-4e4b-86ce-bb3a76ad84ba","ios":"levelo://app?vid=5012be70-691a-4e4b-86ce-bb3a76ad84ba"},"vehicle_type_id":"4","last_reported":1773135184,"current_range_meters":29600,"station_id":"ce4bhq12rcd13ifvqhhg","pricing_plan_id":"cebpf4jnsgd1na2vs0mg"},{"bike_id":"69f2ffbf-585f-43a8-8001-70d9c4e50d2f","system_id":"levelo_inurba_marseille","lat":43.31324,"lon":5.36722,"is_reserved":false,"is_disabled":false,"rental_uris":{"android":"levelo://app?vid=69f2ffbf-585f-43a8-8001-70d9c4e50d2f","ios":"levelo://app?vid=69f2ffbf-585f-43a8-8001-70d9c4e50d2f"},"vehicle_type_id":"4","last_reported":1773135184,"current_range_meters":22800,"station_id":"ce4bgr92rcd13ifvqc6g","pricing_plan_id":"cebpf4jnsgd1na2vs0mg"},{"bike_id":"14cedb54-c86e-407f-a03f-1f3fd387ad14","system_id":"levelo_inurba_marseille","lat":43.3088,"lon":5.37187,"is_reserved":false,"is_disabled":false,"rental_uris":{"android":"levelo://app?vid=14cedb54-c86e-407f-a03f-1f3fd387ad14","ios":"levelo://app?vid=14cedb54-c86e-407f-a03f-1f3fd387ad14"},"vehicle_type_id":"4","last_reported":1773135184,"current_range_meters":39200,"station_id":"ce4bguh2rcd13ifvqckg","pricing_plan_id":"cebpf4jnsgd1na2vs0mg"},{"bike_id":"525d593e-e5ab-4f9b-a084-f494d61aa115","system_id":"levelo_inurba_marseille","lat":43.30364,"lon":5.41873,"is_reserved":false,"is_disabled":false,"rental_uris":{"android":"levelo://app?vid=525d593e-e5ab-4f9b-a084-f494d61aa115","ios":"levelo://app?vid=525d593e-e5ab-4f9b-a084-f494d61aa115"},"vehicle_type_id":"4","last_reported":1773135184,"current_range_meters":38000,"station_id":"ce4bhop2rcd13ifvqh7g","pricing_plan_id":"cebpf4jnsgd1na2vs0mg"},{"bike_id":"ad8c5d52-f3ee-40ca-aa55-3397e7e12c0b","system_id":"levelo_inurba_marseille","lat":43.26161,"lon":5.37478,"is_reserved":false,"is_disabled":false,"rental_uris":{"android":"levelo://app?vid=ad8c5d52-f3ee-40ca-aa55-3397e7e12c0b","ios":"levelo://app?vid=ad8c5d52-f3ee-40ca-aa55-3397e7e12c0b"},"vehicle_type_id":"4","last_reported":1773135184,"current_range_meters":20000,"station_id":"ce4bhgp2rcd13ifvqfc0","pricing_plan_id":"cebpf4jnsgd1na2vs0mg"},{"bike_id":"7450e62c-bf50-4fbe-b108-15be83443ffd","system_id":"levelo_inurba_marseille","lat":43.32104,"lon":5.36777,"is_reserved":false,"is_disabled":false,"rental_uris":{"android":"levelo://app?vid=7450e62c-bf50-4fbe-b108-15be83443ffd","ios":"levelo://app?vid=7450e62c-bf50-4fbe-b108-15be83443ffd"},"vehicle_type_id":"4","last_reported":1773135184,"current_range_meters":36800,"station_id":"ce4bhrh2rcd13ifvqhug","pricing_plan_id":"cebpf4jnsgd1na2vs0mg"},{"bike_id":"52dd89ee-121b-4adb-810a-c7900c31102f","system_id":"levelo_inurba_marseille","lat":43.28933,"lon":5.36388,"is_reserved":false,"is_disabled":false,"rental_uris":{"android":"levelo://app?vid=52dd89ee-121b-4adb-810a-c7900c31102f","ios":"levelo://app?vid=52dd89ee-121b-4adb-810a-c7900c31102f"},"vehicle_type_id":"4","last_reported":1773135184,"current_range_meters":14800,"station_id":"ce4bhc92rcd13ifvqetg","pricing_plan_id":"cebpf4jnsgd1na2vs0mg"},{"bike_id":"19978875-9c6e-45ef-ae36-aa9c375e7262","system_id":"levelo_inurba_marseille","lat":43.26571,"lon":5.37276,"is_reserved":false,"is_disabled":false,"rental_uris":{"android":"levelo://app?vid=19978875-9c6e-45ef-ae36-aa9c375e7262","ios":"levelo://app?vid=19978875-9c6e-45ef-ae36-aa9c375e7262"},"vehicle_type_id":"4","last_reported":1773135184,"current_range_meters":19200,"station_id":"ce4bhg12rcd13ifvqf70","pricing_plan_id":"cebpf4jnsgd1na2vs0mg"},{"bike_id":"584f94a8-9738-4289-81b1-d1bf00e66289","system_id":"levelo_inurba_marseille","lat":43.29563,"lon":5.42267,"is_reserved":false,"is_disabled":false,"rental_uris":{"android":"levelo://app?vid=584f94a8-9738-4289-81b1-d1bf00e66289","ios":"levelo://app?vid=584f94a8-9738-4289-81b1-d1bf00e66289"},"vehicle_type_id":"4","last_reported":1773135184,"current_range_meters":39200,"station_id":"ce4bhph2rcd13ifvqhdg","pricing_plan_id":"cebpf4jnsgd1na2vs0mg"},{"bike_id":"3cce9e3d-338b-42f5-ba3a-9821f3284bd4","system_id":"levelo_inurba_marseille","lat":43.27509,"lon":5.41595,"is_reserved":false,"is_disabled":false,"rental_uris":{"android":"levelo://app?vid=3cce9e3d-338b-42f5-ba3a-9821f3284bd4","ios":"levelo://app?vid=3cce9e3d-338b-42f5-ba3a-9821f3284bd4"},"vehicle_type_id":"4","last_reported":1773135184,"current_range_meters":23200,"station_id":"st_d6im8g6chgec73a5pndg","pricing_plan_id":"cebpf4jnsgd1na2vs0mg"},{"bike_id":"69680486-febc-4e10-86aa-d2384d9a1779","system_id":"levelo_inurba_marseille","lat":43.29742,"lon":5.37662,"is_reserved":false,"is_disabled":false,"rental_uris":{"android":"levelo://app?vid=69680486-febc-4e10-86aa-d2384d9a1779","ios":"levelo://app?vid=69680486-febc-4e10-86aa-d2384d9a1779"},"vehicle_type_id":"4","last_reported":1773135184,"current_range_meters":28400,"station_id":"ce4bgkh2rcd13ifvqbl0","pricing_plan_id":"cebpf4jnsgd1na2vs0mg"},{"bike_id":"f3711349-3e20-461a-bd4e-fc3af2d6debc","system_id":"levelo_inurba_marseille","lat":43.28531,"lon":5.44117,"is_reserved":false,"is_disabled":false,"rental_uris":{"android":"levelo://app?vid=f3711349-3e20-461a-bd4e-fc3af2d6debc","ios":"levelo://app?vid=f3711349-3e20-461a-bd4e-fc3af2d6debc"},"vehicle_type_id":"4","last_reported":1773135184,"current_range_meters":9600,"station_id":"st_d3j3df2ikq2c7380ej80","pricing_plan_id":"cebpf4jnsgd1na2vs0mg"},{"bike_id":"018769de-10fa-40a2-a352-587c02b3acbe","system_id":"levelo_inurba_marseille","lat":43.295154,"lon":5.390407,"is_reserved":false,"is_disabled":true,"rental_uris":{"android":"levelo://app?vid=018769de-10fa-40a2-a352-587c02b3acbe","ios":"levelo://app?vid=018769de-10fa-40a2-a352-587c02b3acbe"},"vehicle_type_id":"4","last_reported":1773135184,"current_range_meters":0,"station_id":"ce4bh3p2rcd13ifvqdp0","pricing_plan_id":"cebpf4jnsgd1na2vs0mg"},{"bike_id":"5554e7a3-794d-40a2-829b-fd624b041e0e","system_id":"levelo_inurba_marseille","lat":43.24081,"lon":5.37748,"is_reserved":false,"is_disabled":false,"rental_uris":{"android":"levelo://app?vid=5554e7a3-794d-40a2-829b-fd624b041e0e","ios":"levelo://app?vid=5554e7a3-794d-40a2-829b-fd624b041e0e"},"vehicle_type_id":"4","last_reported":1773135184,"current_range_meters":39200,"station_id":"ce4bhnp2rcd13ifvqgvg","pricing_plan_id":"cebpf4jnsgd1na2vs0mg"},{"bike_id":"622e5860-5704-4572-9f37-ca7b41d86075","system_id":"levelo_inurba_marseille","lat":43.32128,"lon":5.36782,"is_reserved":false,"is_disabled":false,"rental_uris":{"android":"levelo://app?vid=622e5860-5704-4572-9f37-ca7b41d86075","ios":"levelo://app?vid=622e5860-5704-4572-9f37-ca7b41d86075"},"vehicle_type_id":"4","last_reported":1773135184,"current_range_meters":27600,"station_id":"ce4bhrh2rcd13ifvqhug","pricing_plan_id":"cebpf4jnsgd1na2vs0mg"},{"bike_id":"df54282d-462c-4c9d-8e19-ace663d2371a","system_id":"levelo_inurba_marseille","lat":43.30207,"lon":5.39438,"is_reserved":false,"is_disabled":false,"rental_uris":{"android":"levelo://app?vid=df54282d-462c-4c9d-8e19-ace663d2371a","ios":"levelo://app?vid=df54282d-462c-4c9d-8e19-ace663d2371a"},"vehicle_type_id":"4","last_reported":1773135184,"current_range_meters":29600,"station_id":"ce4bh0p2rcd13ifvqd70","pricing_plan_id":"cebpf4jnsgd1na2vs0mg"},{"bike_id":"8244d1df-890f-4ad4-ab9b-e024e8173753","system_id":"levelo_inurba_marseille","lat":43.30784,"lon":5.37652,"is_reserved":false,"is_disabled":false,"rental_uris":{"android":"levelo://app?vid=8244d1df-890f-4ad4-ab9b-e024e8173753","ios":"levelo://app?vid=8244d1df-890f-4ad4-ab9b-e024e8173753"},"vehicle_type_id":"4","last_reported":1773135184,"current_range_meters":38800,"station_id":"ce4bgv92rcd13ifvqcq0","pricing_plan_id":"cebpf4jnsgd1na2vs0mg"},{"bike_id":"8af01305-8f4b-4a53-8d5a-ec71860c681d","system_id":"levelo_inurba_marseille","lat":43.29316,"lon":5.37165,"is_reserved":false,"is_disabled":false,"rental_uris":{"android":"levelo://app?vid=8af01305-8f4b-4a53-8d5a-ec71860c681d","ios":"levelo://app?vid=8af01305-8f4b-4a53-8d5a-ec71860c681d"},"vehicle_type_id":"4","last_reported":1773135184,"current_range_meters":39200,"station_id":"ce4bgh92rcd13ifvqb40","pricing_plan_id":"cebpf4jnsgd1na2vs0mg"},{"bike_id":"015d9371-23df-44c5-9b5b-b46e61885283","system_id":"levelo_inurba_marseille","lat":43.32068,"lon":5.37195,"is_reserved":false,"is_disabled":false,"rental_uris":{"android":"levelo://app?vid=015d9371-23df-44c5-9b5b-b46e61885283","ios":"levelo://app?vid=015d9371-23df-44c5-9b5b-b46e61885283"},"vehicle_type_id":"4","last_reported":1773135184,"current_range_meters":30000,"station_id":"","pricing_plan_id":"cebpf4jnsgd1na2vs0mg"},{"bike_id":"48fdecad-937e-4d35-9d6d-13e2ebad536c","system_id":"levelo_inurba_marseille","lat":43.2723,"lon":5.39172,"is_reserved":false,"is_disabled":false,"rental_uris":{"android":"levelo://app?vid=48fdecad-937e-4d35-9d6d-13e2ebad536c","ios":"levelo://app?vid=48fdecad-937e-4d35-9d6d-13e2ebad536c"},"vehicle_type_id":"4","last_reported":1773135184,"current_range_meters":34800,"station_id":"ce4bhhp2rcd13ifvqfm0","pricing_plan_id":"cebpf4jnsgd1na2vs0mg"},{"bike_id":"026b6d39-1708-4c13-bb32-68f3e9bd9d47","system_id":"levelo_inurba_marseille","lat":43.25987,"lon":5.40852,"is_reserved":false,"is_disabled":false,"rental_uris":{"android":"levelo://app?vid=026b6d39-1708-4c13-bb32-68f3e9bd9d47","ios":"levelo://app?vid=026b6d39-1708-4c13-bb32-68f3e9bd9d47"},"vehicle_type_id":"4","last_reported":1773135184,"current_range_meters":19600,"station_id":"","pricing_plan_id":"cebpf4jnsgd1na2vs0mg"},{"bike_id":"f42d357d-43c9-4859-93ae-7f9812f807cf","system_id":"levelo_inurba_marseille","lat":43.3169,"lon":5.37696,"is_reserved":false,"is_disabled":false,"rental_uris":{"android":"levelo://app?vid=f42d357d-43c9-4859-93ae-7f9812f807cf","ios":"levelo://app?vid=f42d357d-43c9-4859-93ae-7f9812f807cf"},"vehicle_type_id":"4","last_reported":1773135184,"current_range_meters":38000,"station_id":"ce4bgth2rcd13ifvqch0","pricing_plan_id":"cebpf4jnsgd1na2vs0mg"},{"bike_id":"eee948e3-4c9f-4db5-ac11-b6948fa1e03c","system_id":"levelo_inurba_marseille","lat":43.2319,"lon":5.35553,"is_reserved":false,"is_disabled":false,"rental_uris":{"android":"levelo://app?vid=eee948e3-4c9f-4db5-ac11-b6948fa1e03c","ios":"levelo://app?vid=eee948e3-4c9f-4db5-ac11-b6948fa1e03c"},"vehicle_type_id":"4","last_reported":1773135184,"current_range_meters":38000,"station_id":"ce4bhu92rcd13ifvqi70","pricing_plan_id":"cebpf4jnsgd1na2vs0mg"},{"bike_id":"531e89df-7d89-4282-92a7-19804985cdf6","system_id":"levelo_inurba_marseille","lat":43.24823,"lon":5.37464,"is_reserved":false,"is_disabled":false,"rental_uris":{"android":"levelo://app?vid=531e89df-7d89-4282-92a7-19804985cdf6","ios":"levelo://app?vid=531e89df-7d89-4282-92a7-19804985cdf6"},"vehicle_type_id":"4","last_reported":1773135184,"current_range_meters":38800,"station_id":"ce4bhgh2rcd13ifvqfb0","pricing_plan_id":"cebpf4jnsgd1na2vs0mg"},{"bike_id":"9b48402e-3ef0-4e83-aa48-db41cf0891a9","system_id":"levelo_inurba_marseille","lat":43.27066,"lon":5.38294,"is_reserved":false,"is_disabled":false,"rental_uris":{"android":"levelo://app?vid=9b48402e-3ef0-4e83-aa48-db41cf0891a9","ios":"levelo://app?vid=9b48402e-3ef0-4e83-aa48-db41cf0891a9"},"vehicle_type_id":"4","last_reported":1773135184,"current_range_meters":24000,"station_id":"st_d3n2fo6cfp8s73cte1j0","pricing_plan_id":"cebpf4jnsgd1na2vs0mg"},{"bike_id":"d7daf13e-0d11-4259-adbb-61659f30042b","system_id":"levelo_inurba_marseille","lat":43.29265,"lon":5.36849,"is_reserved":false,"is_disabled":false,"rental_uris":{"android":"levelo://app?vid=d7daf13e-0d11-4259-adbb-61659f30042b","ios":"levelo://app?vid=d7daf13e-0d11-4259-adbb-61659f30042b"},"vehicle_type_id":"4","last_reported":1773135184,"current_range_meters":27600,"station_id":"ce4bhbp2rcd13ifvqesg","pricing_plan_id":"cebpf4jnsgd1na2vs0mg"},{"bike_id":"4b5116e0-5a5c-4dc0-9155-ccbc69c13cef","system_id":"levelo_inurba_marseille","lat":43.2707,"lon":5.42282,"is_reserved":false,"is_disabled":false,"rental_uris":{"android":"levelo://app?vid=4b5116e0-5a5c-4dc0-9155-ccbc69c13cef","ios":"levelo://app?vid=4b5116e0-5a5c-4dc0-9155-ccbc69c13cef"},"vehicle_type_id":"4","last_reported":1773135184,"current_range_meters":10000,"station_id":"ce4bhk92rcd13ifvqgb0","pricing_plan_id":"cebpf4jnsgd1na2vs0mg"},{"bike_id":"6e3c74d1-fd4f-41b5-a40e-9eb79af731a1","system_id":"levelo_inurba_marseille","lat":43.321,"lon":5.36779,"is_reserved":false,"is_disabled":false,"rental_uris":{"android":"levelo://app?vid=6e3c74d1-fd4f-41b5-a40e-9eb79af731a1","ios":"levelo://app?vid=6e3c74d1-fd4f-41b5-a40e-9eb79af731a1"},"vehicle_type_id":"4","last_reported":1773135184,"current_range_meters":6800,"station_id":"ce4bhrh2rcd13ifvqhug","pricing_plan_id":"cebpf4jnsgd1na2vs0mg"},{"bike_id":"83d7f33c-d1db-4292-9262-93ff1da802eb","system_id":"levelo_inurba_marseille","lat":43.32489,"lon":5.41475,"is_reserved":false,"is_disabled":false,"rental_uris":{"android":"levelo://app?vid=83d7f33c-d1db-4292-9262-93ff1da802eb","ios":"levelo://app?vid=83d7f33c-d1db-4292-9262-93ff1da802eb"},"vehicle_type_id":"4","last_reported":1773135184,"current_range_meters":37600,"station_id":"","pricing_plan_id":"cebpf4jnsgd1na2vs0mg"},{"bike_id":"93610280-3e40-40c2-8a0c-0a8ce5075865","system_id":"levelo_inurba_marseille","lat":43.29727,"lon":5.41059,"is_reserved":false,"is_disabled":false,"rental_uris":{"android":"levelo://app?vid=93610280-3e40-40c2-8a0c-0a8ce5075865","ios":"levelo://app?vid=93610280-3e40-40c2-8a0c-0a8ce5075865"},"vehicle_type_id":"4","last_reported":1773135184,"current_range_meters":34000,"station_id":"","pricing_plan_id":"cebpf4jnsgd1na2vs0mg"},{"bike_id":"1e1178e2-4085-4be9-bc5b-dfc82fb6d96d","system_id":"levelo_inurba_marseille","lat":43.23948,"lon":5.36671,"is_reserved":false,"is_disabled":false,"rental_uris":{"android":"levelo://app?vid=1e1178e2-4085-4be9-bc5b-dfc82fb6d96d","ios":"levelo://app?vid=1e1178e2-4085-4be9-bc5b-dfc82fb6d96d"},"vehicle_type_id":"4","last_reported":1773135184,"current_range_meters":38400,"station_id":"ce4bhi12rcd13ifvqfp0","pricing_plan_id":"cebpf4jnsgd1na2vs0mg"},{"bike_id":"8bc805ca-bcac-46ab-b9b9-1126461e799c","system_id":"levelo_inurba_marseille","lat":43.31074,"lon":5.4244,"is_reserved":false,"is_disabled":false,"rental_uris":{"android":"levelo://app?vid=8bc805ca-bcac-46ab-b9b9-1126461e799c","ios":"levelo://app?vid=8bc805ca-bcac-46ab-b9b9-1126461e799c"},"vehicle_type_id":"4","last_reported":1773135184,"current_range_meters":34000,"station_id":"ce4bhp92rcd13ifvqhag","pricing_plan_id":"cebpf4jnsgd1na2vs0mg"},{"bike_id":"78b44db8-1eb9-4c60-b662-7f9296b4546e","system_id":"levelo_inurba_marseille","lat":43.31526,"lon":5.37255,"is_reserved":false,"is_disabled":false,"rental_uris":{"android":"levelo://app?vid=78b44db8-1eb9-4c60-b662-7f9296b4546e","ios":"levelo://app?vid=78b44db8-1eb9-4c60-b662-7f9296b4546e"},"vehicle_type_id":"4","last_reported":1773135184,"current_range_meters":38000,"station_id":"ce4bgt12rcd13ifvqcd0","pricing_plan_id":"cebpf4jnsgd1na2vs0mg"},{"bike_id":"68e26663-7c55-4485-aed0-64a15b161498","system_id":"levelo_inurba_marseille","lat":43.3078,"lon":5.37656,"is_reserved":false,"is_disabled":true,"rental_uris":{"android":"levelo://app?vid=68e26663-7c55-4485-aed0-64a15b161498","ios":"levelo://app?vid=68e26663-7c55-4485-aed0-64a15b161498"},"vehicle_type_id":"4","last_reported":1773135184,"current_range_meters":16400,"station_id":"ce4bgv92rcd13ifvqcq0","pricing_plan_id":"cebpf4jnsgd1na2vs0mg"},{"bike_id":"b5f247d8-3934-4f5f-88d5-1ed966db082c","system_id":"levelo_inurba_marseille","lat":43.3056,"lon":5.36513,"is_reserved":false,"is_disabled":false,"rental_uris":{"android":"levelo://app?vid=b5f247d8-3934-4f5f-88d5-1ed966db082c","ios":"levelo://app?vid=b5f247d8-3934-4f5f-88d5-1ed966db082c"},"vehicle_type_id":"4","last_reported":1773135184,"current_range_meters":36000,"station_id":"ce4bgs12rcd13ifvqcag","pricing_plan_id":"cebpf4jnsgd1na2vs0mg"},{"bike_id":"905cd94e-2347-4c21-891c-949be2f37f85","system_id":"levelo_inurba_marseille","lat":43.29811,"lon":5.4188,"is_reserved":false,"is_disabled":false,"rental_uris":{"android":"levelo://app?vid=905cd94e-2347-4c21-891c-949be2f37f85","ios":"levelo://app?vid=905cd94e-2347-4c21-891c-949be2f37f85"},"vehicle_type_id":"4","last_reported":1773135184,"current_range_meters":33200,"station_id":"","pricing_plan_id":"cebpf4jnsgd1na2vs0mg"},{"bike_id":"d7de6d71-04d4-4714-a97f-a2dca02f786e","system_id":"levelo_inurba_marseille","lat":43.27815,"lon":5.40725,"is_reserved":false,"is_disabled":false,"rental_uris":{"android":"levelo://app?vid=d7de6d71-04d4-4714-a97f-a2dca02f786e","ios":"levelo://app?vid=d7de6d71-04d4-4714-a97f-a2dca02f786e"},"vehicle_type_id":"4","last_reported":1773135184,"current_range_meters":32800,"station_id":"ce4bhnh2rcd13ifvqgtg","pricing_plan_id":"cebpf4jnsgd1na2vs0mg"},{"bike_id":"e0dc69a6-751b-446d-8ea4-e240757d48e0","system_id":"levelo_inurba_marseille","lat":43.29588,"lon":5.37481,"is_reserved":false,"is_disabled":false,"rental_uris":{"android":"levelo://app?vid=e0dc69a6-751b-446d-8ea4-e240757d48e0","ios":"levelo://app?vid=e0dc69a6-751b-446d-8ea4-e240757d48e0"},"vehicle_type_id":"4","last_reported":1773135184,"current_range_meters":12400,"station_id":"ce4bgh92rcd13ifvqb50","pricing_plan_id":"cebpf4jnsgd1na2vs0mg"},{"bike_id":"9b8f2026-86f3-4865-a65f-459a294463ce","system_id":"levelo_inurba_marseille","lat":43.30137,"lon":5.37413,"is_reserved":false,"is_disabled":false,"rental_uris":{"android":"levelo://app?vid=9b8f2026-86f3-4865-a65f-459a294463ce","ios":"levelo://app?vid=9b8f2026-86f3-4865-a65f-459a294463ce"},"vehicle_type_id":"4","last_reported":1773135184,"current_range_meters":26000,"station_id":"ce4bgs92rcd13ifvqcc0","pricing_plan_id":"cebpf4jnsgd1na2vs0mg"},{"bike_id":"73e601f4-063b-472f-a8bc-c257580b3a52","system_id":"levelo_inurba_marseille","lat":43.29535,"lon":5.37544,"is_reserved":false,"is_disabled":false,"rental_uris":{"android":"levelo://app?vid=73e601f4-063b-472f-a8bc-c257580b3a52","ios":"levelo://app?vid=73e601f4-063b-472f-a8bc-c257580b3a52"},"vehicle_type_id":"4","last_reported":1773135184,"current_range_meters":38000,"station_id":"ce4bgkp2rcd13ifvqbmg","pricing_plan_id":"cebpf4jnsgd1na2vs0mg"},{"bike_id":"94ca7e3b-72f8-4e3c-9410-a4cf84138933","system_id":"levelo_inurba_marseille","lat":43.246067,"lon":5.389166,"is_reserved":false,"is_disabled":false,"rental_uris":{"android":"levelo://app?vid=94ca7e3b-72f8-4e3c-9410-a4cf84138933","ios":"levelo://app?vid=94ca7e3b-72f8-4e3c-9410-a4cf84138933"},"vehicle_type_id":"4","last_reported":1773135184,"current_range_meters":16400,"station_id":"ce4bhg12rcd13ifvqf60","pricing_plan_id":"cebpf4jnsgd1na2vs0mg"},{"bike_id":"55924365-e9ee-441f-8b90-c0b5086d2514","system_id":"levelo_inurba_marseille","lat":43.30416,"lon":5.41283,"is_reserved":false,"is_disabled":false,"rental_uris":{"android":"levelo://app?vid=55924365-e9ee-441f-8b90-c0b5086d2514","ios":"levelo://app?vid=55924365-e9ee-441f-8b90-c0b5086d2514"},"vehicle_type_id":"4","last_reported":1773135184,"current_range_meters":28800,"station_id":"ce4bhop2rcd13ifvqh8g","pricing_plan_id":"cebpf4jnsgd1na2vs0mg"},{"bike_id":"e7c8e8e0-30fe-412e-bae8-57e4cf3ecbd5","system_id":"levelo_inurba_marseille","lat":43.23188,"lon":5.3999,"is_reserved":false,"is_disabled":false,"rental_uris":{"android":"levelo://app?vid=e7c8e8e0-30fe-412e-bae8-57e4cf3ecbd5","ios":"levelo://app?vid=e7c8e8e0-30fe-412e-bae8-57e4cf3ecbd5"},"vehicle_type_id":"4","last_reported":1773135184,"current_range_meters":9600,"station_id":"ce4bhn12rcd13ifvqgqg","pricing_plan_id":"cebpf4jnsgd1na2vs0mg"},{"bike_id":"6365aca6-4c9b-4238-8e57-42eb10f1e752","system_id":"levelo_inurba_marseille","lat":43.25126,"lon":5.40354,"is_reserved":false,"is_disabled":false,"rental_uris":{"android":"levelo://app?vid=6365aca6-4c9b-4238-8e57-42eb10f1e752","ios":"levelo://app?vid=6365aca6-4c9b-4238-8e57-42eb10f1e752"},"vehicle_type_id":"4","last_reported":1773135184,"current_range_meters":8000,"station_id":"ce4bhlh2rcd13ifvqgig","pricing_plan_id":"cebpf4jnsgd1na2vs0mg"},{"bike_id":"d073c3d9-dc51-4730-8456-aed64a514698","system_id":"levelo_inurba_marseille","lat":43.24177,"lon":5.39724,"is_reserved":false,"is_disabled":false,"rental_uris":{"android":"levelo://app?vid=d073c3d9-dc51-4730-8456-aed64a514698","ios":"levelo://app?vid=d073c3d9-dc51-4730-8456-aed64a514698"},"vehicle_type_id":"4","last_reported":1773135184,"current_range_meters":30000,"station_id":"ce4bhn12rcd13ifvqgpg","pricing_plan_id":"cebpf4jnsgd1na2vs0mg"},{"bike_id":"c0dddd0d-6750-4dc8-bb18-5fa4462691c1","system_id":"levelo_inurba_marseille","lat":43.28924,"lon":5.38389,"is_reserved":false,"is_disabled":false,"rental_uris":{"android":"levelo://app?vid=c0dddd0d-6750-4dc8-bb18-5fa4462691c1","ios":"levelo://app?vid=c0dddd0d-6750-4dc8-bb18-5fa4462691c1"},"vehicle_type_id":"4","last_reported":1773135184,"current_range_meters":26800,"station_id":"ce4bh612rcd13ifvqe6g","pricing_plan_id":"cebpf4jnsgd1na2vs0mg"},{"bike_id":"d9084fab-d9aa-4edd-8989-c2edf4959f5d","system_id":"levelo_inurba_marseille","lat":43.26696,"lon":5.38256,"is_reserved":false,"is_disabled":false,"rental_uris":{"android":"levelo://app?vid=d9084fab-d9aa-4edd-8989-c2edf4959f5d","ios":"levelo://app?vid=d9084fab-d9aa-4edd-8989-c2edf4959f5d"},"vehicle_type_id":"4","last_reported":1773135184,"current_range_meters":36000,"station_id":"ce4bhg92rcd13ifvqf90","pricing_plan_id":"cebpf4jnsgd1na2vs0mg"},{"bike_id":"a816f982-37ca-4bf4-959b-b966bc05b790","system_id":"levelo_inurba_marseille","lat":43.28356,"lon":5.38122,"is_reserved":false,"is_disabled":true,"rental_uris":{"android":"levelo://app?vid=a816f982-37ca-4bf4-959b-b966bc05b790","ios":"levelo://app?vid=a816f982-37ca-4bf4-959b-b966bc05b790"},"vehicle_type_id":"4","last_reported":1773135184,"current_range_meters":4000,"station_id":"ce4bh412rcd13ifvqdr0","pricing_plan_id":"cebpf4jnsgd1na2vs0mg"},{"bike_id":"6896d8eb-6c9e-4011-bd7c-c8043863197c","system_id":"levelo_inurba_marseille","lat":43.24822,"lon":5.37468,"is_reserved":false,"is_disabled":false,"rental_uris":{"android":"levelo://app?vid=6896d8eb-6c9e-4011-bd7c-c8043863197c","ios":"levelo://app?vid=6896d8eb-6c9e-4011-bd7c-c8043863197c"},"vehicle_type_id":"4","last_reported":1773135184,"current_range_meters":24800,"station_id":"ce4bhgh2rcd13ifvqfb0","pricing_plan_id":"cebpf4jnsgd1na2vs0mg"},{"bike_id":"1cc9d818-ddab-430c-b105-170c5b484573","system_id":"levelo_inurba_marseille","lat":43.29695,"lon":5.37693,"is_reserved":false,"is_disabled":true,"rental_uris":{"android":"levelo://app?vid=1cc9d818-ddab-430c-b105-170c5b484573","ios":"levelo://app?vid=1cc9d818-ddab-430c-b105-170c5b484573"},"vehicle_type_id":"4","last_reported":1773135184,"current_range_meters":26800,"station_id":"ce4bgkh2rcd13ifvqbl0","pricing_plan_id":"cebpf4jnsgd1na2vs0mg"},{"bike_id":"a7b63158-ba35-4b1b-895d-41e39b843ba9","system_id":"levelo_inurba_marseille","lat":43.29015,"lon":5.39974,"is_reserved":false,"is_disabled":false,"rental_uris":{"android":"levelo://app?vid=a7b63158-ba35-4b1b-895d-41e39b843ba9","ios":"levelo://app?vid=a7b63158-ba35-4b1b-895d-41e39b843ba9"},"vehicle_type_id":"4","last_reported":1773135184,"current_range_meters":38400,"station_id":"ce4bh392rcd13ifvqdm0","pricing_plan_id":"cebpf4jnsgd1na2vs0mg"},{"bike_id":"edff2cc4-a071-4a15-bf25-7895bd87b49e","system_id":"levelo_inurba_marseille","lat":43.22561,"lon":5.41622,"is_reserved":false,"is_disabled":false,"rental_uris":{"android":"levelo://app?vid=edff2cc4-a071-4a15-bf25-7895bd87b49e","ios":"levelo://app?vid=edff2cc4-a071-4a15-bf25-7895bd87b49e"},"vehicle_type_id":"4","last_reported":1773135184,"current_range_meters":9200,"station_id":"st_d2o4gvlbi1j2169b742g","pricing_plan_id":"cebpf4jnsgd1na2vs0mg"},{"bike_id":"e4897773-fef9-446d-a205-6ea4308f3d60","system_id":"levelo_inurba_marseille","lat":43.22551,"lon":5.41639,"is_reserved":false,"is_disabled":false,"rental_uris":{"android":"levelo://app?vid=e4897773-fef9-446d-a205-6ea4308f3d60","ios":"levelo://app?vid=e4897773-fef9-446d-a205-6ea4308f3d60"},"vehicle_type_id":"4","last_reported":1773135184,"current_range_meters":6800,"station_id":"st_d2o4gvlbi1j2169b742g","pricing_plan_id":"cebpf4jnsgd1na2vs0mg"},{"bike_id":"33eb8fb3-603e-4c84-a933-cc95f133c3af","system_id":"levelo_inurba_marseille","lat":43.29595,"lon":5.37568,"is_reserved":false,"is_disabled":false,"rental_uris":{"android":"levelo://app?vid=33eb8fb3-603e-4c84-a933-cc95f133c3af","ios":"levelo://app?vid=33eb8fb3-603e-4c84-a933-cc95f133c3af"},"vehicle_type_id":"4","last_reported":1773135184,"current_range_meters":24800,"station_id":"ce4bgh92rcd13ifvqb50","pricing_plan_id":"cebpf4jnsgd1na2vs0mg"},{"bike_id":"db1e9a80-dcd6-44b3-8d3d-3422f3dc2b68","system_id":"levelo_inurba_marseille","lat":43.24071,"lon":5.37772,"is_reserved":false,"is_disabled":false,"rental_uris":{"android":"levelo://app?vid=db1e9a80-dcd6-44b3-8d3d-3422f3dc2b68","ios":"levelo://app?vid=db1e9a80-dcd6-44b3-8d3d-3422f3dc2b68"},"vehicle_type_id":"4","last_reported":1773135184,"current_range_meters":23200,"station_id":"ce4bhnp2rcd13ifvqgvg","pricing_plan_id":"cebpf4jnsgd1na2vs0mg"},{"bike_id":"ef43e318-c00c-44b5-9fb0-7afc200a5f51","system_id":"levelo_inurba_marseille","lat":43.29971,"lon":5.41322,"is_reserved":false,"is_disabled":false,"rental_uris":{"android":"levelo://app?vid=ef43e318-c00c-44b5-9fb0-7afc200a5f51","ios":"levelo://app?vid=ef43e318-c00c-44b5-9fb0-7afc200a5f51"},"vehicle_type_id":"4","last_reported":1773135184,"current_range_meters":38400,"station_id":"ce4bhp12rcd13ifvqh9g","pricing_plan_id":"cebpf4jnsgd1na2vs0mg"},{"bike_id":"ebb11866-6f7e-4479-9489-10a49f5ef9db","system_id":"levelo_inurba_marseille","lat":43.29601,"lon":5.37738,"is_reserved":false,"is_disabled":false,"rental_uris":{"android":"levelo://app?vid=ebb11866-6f7e-4479-9489-10a49f5ef9db","ios":"levelo://app?vid=ebb11866-6f7e-4479-9489-10a49f5ef9db"},"vehicle_type_id":"4","last_reported":1773135184,"current_range_meters":38000,"station_id":"ce4bgi92rcd13ifvqb90","pricing_plan_id":"cebpf4jnsgd1na2vs0mg"},{"bike_id":"616f491c-e223-4356-9301-075ecb9eb28b","system_id":"levelo_inurba_marseille","lat":43.26226,"lon":5.40458,"is_reserved":false,"is_disabled":false,"rental_uris":{"android":"levelo://app?vid=616f491c-e223-4356-9301-075ecb9eb28b","ios":"levelo://app?vid=616f491c-e223-4356-9301-075ecb9eb28b"},"vehicle_type_id":"4","last_reported":1773135184,"current_range_meters":32000,"station_id":"ce4bhmh2rcd13ifvqgmg","pricing_plan_id":"cebpf4jnsgd1na2vs0mg"},{"bike_id":"e594ab4f-99d7-486f-a0b3-3cdbb6a3f196","system_id":"levelo_inurba_marseille","lat":43.28474,"lon":5.48404,"is_reserved":false,"is_disabled":false,"rental_uris":{"android":"levelo://app?vid=e594ab4f-99d7-486f-a0b3-3cdbb6a3f196","ios":"levelo://app?vid=e594ab4f-99d7-486f-a0b3-3cdbb6a3f196"},"vehicle_type_id":"4","last_reported":1773135184,"current_range_meters":34000,"station_id":"","pricing_plan_id":"cebpf4jnsgd1na2vs0mg"},{"bike_id":"cedac31f-b079-4e16-8fab-d7e72b3dd7b5","system_id":"levelo_inurba_marseille","lat":43.23153,"lon":5.43716,"is_reserved":false,"is_disabled":false,"rental_uris":{"android":"levelo://app?vid=cedac31f-b079-4e16-8fab-d7e72b3dd7b5","ios":"levelo://app?vid=cedac31f-b079-4e16-8fab-d7e72b3dd7b5"},"vehicle_type_id":"4","last_reported":1773135184,"current_range_meters":15200,"station_id":"ce4bhmp2rcd13ifvqgog","pricing_plan_id":"cebpf4jnsgd1na2vs0mg"},{"bike_id":"37686e6b-47d7-4425-9d76-29b3793ef589","system_id":"levelo_inurba_marseille","lat":43.31228,"lon":5.36872,"is_reserved":false,"is_disabled":false,"rental_uris":{"android":"levelo://app?vid=37686e6b-47d7-4425-9d76-29b3793ef589","ios":"levelo://app?vid=37686e6b-47d7-4425-9d76-29b3793ef589"},"vehicle_type_id":"4","last_reported":1773135184,"current_range_meters":37600,"station_id":"ce4bgl92rcd13ifvqbq0","pricing_plan_id":"cebpf4jnsgd1na2vs0mg"},{"bike_id":"11f1fdce-9987-446d-9ecb-d09d969f4ba8","system_id":"levelo_inurba_marseille","lat":43.28467,"lon":5.48385,"is_reserved":false,"is_disabled":false,"rental_uris":{"android":"levelo://app?vid=11f1fdce-9987-446d-9ecb-d09d969f4ba8","ios":"levelo://app?vid=11f1fdce-9987-446d-9ecb-d09d969f4ba8"},"vehicle_type_id":"4","last_reported":1773135184,"current_range_meters":38000,"station_id":"","pricing_plan_id":"cebpf4jnsgd1na2vs0mg"},{"bike_id":"d4f1ab46-dfe5-402c-944c-d16547c05d3b","system_id":"levelo_inurba_marseille","lat":43.29621,"lon":5.37157,"is_reserved":false,"is_disabled":false,"rental_uris":{"android":"levelo://app?vid=d4f1ab46-dfe5-402c-944c-d16547c05d3b","ios":"levelo://app?vid=d4f1ab46-dfe5-402c-944c-d16547c05d3b"},"vehicle_type_id":"4","last_reported":1773135184,"current_range_meters":5600,"station_id":"ce4bgnh2rcd13ifvqc0g","pricing_plan_id":"cebpf4jnsgd1na2vs0mg"},{"bike_id":"08c4662f-b8a6-4676-a2aa-27498ff34122","system_id":"levelo_inurba_marseille","lat":43.32123,"lon":5.36772,"is_reserved":false,"is_disabled":false,"rental_uris":{"android":"levelo://app?vid=08c4662f-b8a6-4676-a2aa-27498ff34122","ios":"levelo://app?vid=08c4662f-b8a6-4676-a2aa-27498ff34122"},"vehicle_type_id":"4","last_reported":1773135184,"current_range_meters":26000,"station_id":"ce4bhrh2rcd13ifvqhug","pricing_plan_id":"cebpf4jnsgd1na2vs0mg"},{"bike_id":"9a0031d7-25bf-4e8c-94ff-4784503d9cac","system_id":"levelo_inurba_marseille","lat":43.24362,"lon":5.44117,"is_reserved":false,"is_disabled":false,"rental_uris":{"android":"levelo://app?vid=9a0031d7-25bf-4e8c-94ff-4784503d9cac","ios":"levelo://app?vid=9a0031d7-25bf-4e8c-94ff-4784503d9cac"},"vehicle_type_id":"4","last_reported":1773135184,"current_range_meters":12800,"station_id":"","pricing_plan_id":"cebpf4jnsgd1na2vs0mg"},{"bike_id":"5e654f36-b9c7-448e-824d-57a1ae3d329d","system_id":"levelo_inurba_marseille","lat":43.27502,"lon":5.42447,"is_reserved":false,"is_disabled":false,"rental_uris":{"android":"levelo://app?vid=5e654f36-b9c7-448e-824d-57a1ae3d329d","ios":"levelo://app?vid=5e654f36-b9c7-448e-824d-57a1ae3d329d"},"vehicle_type_id":"4","last_reported":1773135184,"current_range_meters":25200,"station_id":"ce4bhn92rcd13ifvqgrg","pricing_plan_id":"cebpf4jnsgd1na2vs0mg"},{"bike_id":"71bd1d5d-a7cd-4a5e-9bbe-315af3ec60a8","system_id":"levelo_inurba_marseille","lat":43.28473,"lon":5.38424,"is_reserved":false,"is_disabled":true,"rental_uris":{"android":"levelo://app?vid=71bd1d5d-a7cd-4a5e-9bbe-315af3ec60a8","ios":"levelo://app?vid=71bd1d5d-a7cd-4a5e-9bbe-315af3ec60a8"},"vehicle_type_id":"4","last_reported":1773135184,"current_range_meters":15200,"station_id":"ce4bh512rcd13ifvqe3g","pricing_plan_id":"cebpf4jnsgd1na2vs0mg"},{"bike_id":"a089d132-4ca7-4e22-b487-b543c4acdb4e","system_id":"levelo_inurba_marseille","lat":43.25566,"lon":5.38258,"is_reserved":false,"is_disabled":false,"rental_uris":{"android":"levelo://app?vid=a089d132-4ca7-4e22-b487-b543c4acdb4e","ios":"levelo://app?vid=a089d132-4ca7-4e22-b487-b543c4acdb4e"},"vehicle_type_id":"4","last_reported":1773135184,"current_range_meters":32000,"station_id":"ce4bhih2rcd13ifvqfs0","pricing_plan_id":"cebpf4jnsgd1na2vs0mg"},{"bike_id":"65f206c5-503c-47df-8f56-5360b9690e8a","system_id":"levelo_inurba_marseille","lat":43.24079,"lon":5.37775,"is_reserved":false,"is_disabled":false,"rental_uris":{"android":"levelo://app?vid=65f206c5-503c-47df-8f56-5360b9690e8a","ios":"levelo://app?vid=65f206c5-503c-47df-8f56-5360b9690e8a"},"vehicle_type_id":"4","last_reported":1773135184,"current_range_meters":24800,"station_id":"ce4bhnp2rcd13ifvqgvg","pricing_plan_id":"cebpf4jnsgd1na2vs0mg"},{"bike_id":"bf9150c5-4720-4f8f-9d5c-b7e44e74e779","system_id":"levelo_inurba_marseille","lat":43.2797,"lon":5.38711,"is_reserved":false,"is_disabled":false,"rental_uris":{"android":"levelo://app?vid=bf9150c5-4720-4f8f-9d5c-b7e44e74e779","ios":"levelo://app?vid=bf9150c5-4720-4f8f-9d5c-b7e44e74e779"},"vehicle_type_id":"4","last_reported":1773135184,"current_range_meters":27200,"station_id":"ce4bhg12rcd13ifvqf80","pricing_plan_id":"cebpf4jnsgd1na2vs0mg"},{"bike_id":"aee5635f-19c8-46c3-95d5-b087e8decb9c","system_id":"levelo_inurba_marseille","lat":43.25506,"lon":5.37662,"is_reserved":false,"is_disabled":false,"rental_uris":{"android":"levelo://app?vid=aee5635f-19c8-46c3-95d5-b087e8decb9c","ios":"levelo://app?vid=aee5635f-19c8-46c3-95d5-b087e8decb9c"},"vehicle_type_id":"4","last_reported":1773135184,"current_range_meters":17200,"station_id":"ce4bhh12rcd13ifvqff0","pricing_plan_id":"cebpf4jnsgd1na2vs0mg"},{"bike_id":"ea21537d-918a-492c-a00d-aa6c3e5c9df0","system_id":"levelo_inurba_marseille","lat":43.22555,"lon":5.41639,"is_reserved":false,"is_disabled":false,"rental_uris":{"android":"levelo://app?vid=ea21537d-918a-492c-a00d-aa6c3e5c9df0","ios":"levelo://app?vid=ea21537d-918a-492c-a00d-aa6c3e5c9df0"},"vehicle_type_id":"4","last_reported":1773135184,"current_range_meters":23200,"station_id":"st_d2o4gvlbi1j2169b742g","pricing_plan_id":"cebpf4jnsgd1na2vs0mg"},{"bike_id":"04d68502-e0df-44ef-98ff-8751e9131415","system_id":"levelo_inurba_marseille","lat":43.24158,"lon":5.36407,"is_reserved":false,"is_disabled":false,"rental_uris":{"android":"levelo://app?vid=04d68502-e0df-44ef-98ff-8751e9131415","ios":"levelo://app?vid=04d68502-e0df-44ef-98ff-8751e9131415"},"vehicle_type_id":"4","last_reported":1773135184,"current_range_meters":20000,"station_id":"cpo36qri1sfpv3e86is0","pricing_plan_id":"cebpf4jnsgd1na2vs0mg"},{"bike_id":"4b1b523d-d7f1-44d9-8b89-a48bfed52274","system_id":"levelo_inurba_marseille","lat":43.29624,"lon":5.3715,"is_reserved":false,"is_disabled":false,"rental_uris":{"android":"levelo://app?vid=4b1b523d-d7f1-44d9-8b89-a48bfed52274","ios":"levelo://app?vid=4b1b523d-d7f1-44d9-8b89-a48bfed52274"},"vehicle_type_id":"4","last_reported":1773135184,"current_range_meters":39200,"station_id":"ce4bgnh2rcd13ifvqc0g","pricing_plan_id":"cebpf4jnsgd1na2vs0mg"},{"bike_id":"7e72b2a8-5276-4768-98cc-1557faa256bc","system_id":"levelo_inurba_marseille","lat":43.27957,"lon":5.38725,"is_reserved":false,"is_disabled":false,"rental_uris":{"android":"levelo://app?vid=7e72b2a8-5276-4768-98cc-1557faa256bc","ios":"levelo://app?vid=7e72b2a8-5276-4768-98cc-1557faa256bc"},"vehicle_type_id":"4","last_reported":1773135184,"current_range_meters":39200,"station_id":"ce4bhg12rcd13ifvqf80","pricing_plan_id":"cebpf4jnsgd1na2vs0mg"},{"bike_id":"27c8404e-1e6c-46a7-9231-fc73a46f5cd4","system_id":"levelo_inurba_marseille","lat":43.30553,"lon":5.3672,"is_reserved":false,"is_disabled":false,"rental_uris":{"android":"levelo://app?vid=27c8404e-1e6c-46a7-9231-fc73a46f5cd4","ios":"levelo://app?vid=27c8404e-1e6c-46a7-9231-fc73a46f5cd4"},"vehicle_type_id":"4","last_reported":1773135184,"current_range_meters":34000,"station_id":"ce4bgrp2rcd13ifvqc9g","pricing_plan_id":"cebpf4jnsgd1na2vs0mg"},{"bike_id":"072f5be3-e2d3-4243-a280-aa67dfb573ae","system_id":"levelo_inurba_marseille","lat":43.31179,"lon":5.37727,"is_reserved":false,"is_disabled":false,"rental_uris":{"android":"levelo://app?vid=072f5be3-e2d3-4243-a280-aa67dfb573ae","ios":"levelo://app?vid=072f5be3-e2d3-4243-a280-aa67dfb573ae"},"vehicle_type_id":"4","last_reported":1773135184,"current_range_meters":34000,"station_id":"","pricing_plan_id":"cebpf4jnsgd1na2vs0mg"},{"bike_id":"d9111da9-90ef-4e2b-881d-5029d357f625","system_id":"levelo_inurba_marseille","lat":43.26948,"lon":5.38641,"is_reserved":false,"is_disabled":false,"rental_uris":{"android":"levelo://app?vid=d9111da9-90ef-4e2b-881d-5029d357f625","ios":"levelo://app?vid=d9111da9-90ef-4e2b-881d-5029d357f625"},"vehicle_type_id":"4","last_reported":1773135184,"current_range_meters":28400,"station_id":"ce4bhh92rcd13ifvqfh0","pricing_plan_id":"cebpf4jnsgd1na2vs0mg"},{"bike_id":"1dbef04d-eee4-4229-adae-d0e5e0acd1ba","system_id":"levelo_inurba_marseille","lat":43.28424,"lon":5.34973,"is_reserved":false,"is_disabled":false,"rental_uris":{"android":"levelo://app?vid=1dbef04d-eee4-4229-adae-d0e5e0acd1ba","ios":"levelo://app?vid=1dbef04d-eee4-4229-adae-d0e5e0acd1ba"},"vehicle_type_id":"4","last_reported":1773135184,"current_range_meters":32000,"station_id":"ce4bhbh2rcd13ifvqepg","pricing_plan_id":"cebpf4jnsgd1na2vs0mg"},{"bike_id":"df427871-eef3-4ff7-bb83-ffbb52f2406f","system_id":"levelo_inurba_marseille","lat":43.25004,"lon":5.38942,"is_reserved":false,"is_disabled":false,"rental_uris":{"android":"levelo://app?vid=df427871-eef3-4ff7-bb83-ffbb52f2406f","ios":"levelo://app?vid=df427871-eef3-4ff7-bb83-ffbb52f2406f"},"vehicle_type_id":"4","last_reported":1773135184,"current_range_meters":29600,"station_id":"ce4bhgp2rcd13ifvqfd0","pricing_plan_id":"cebpf4jnsgd1na2vs0mg"},{"bike_id":"03deec7a-c34a-434b-8d8d-e19093f76613","system_id":"levelo_inurba_marseille","lat":43.26929,"lon":5.38921,"is_reserved":false,"is_disabled":false,"rental_uris":{"android":"levelo://app?vid=03deec7a-c34a-434b-8d8d-e19093f76613","ios":"levelo://app?vid=03deec7a-c34a-434b-8d8d-e19093f76613"},"vehicle_type_id":"4","last_reported":1773135184,"current_range_meters":34000,"station_id":"ce4bhhh2rcd13ifvqfl0","pricing_plan_id":"cebpf4jnsgd1na2vs0mg"},{"bike_id":"7e3bb1c1-f504-4b29-b169-7e546daec31f","system_id":"levelo_inurba_marseille","lat":43.24826,"lon":5.37443,"is_reserved":false,"is_disabled":false,"rental_uris":{"android":"levelo://app?vid=7e3bb1c1-f504-4b29-b169-7e546daec31f","ios":"levelo://app?vid=7e3bb1c1-f504-4b29-b169-7e546daec31f"},"vehicle_type_id":"4","last_reported":1773135184,"current_range_meters":37600,"station_id":"ce4bhgh2rcd13ifvqfb0","pricing_plan_id":"cebpf4jnsgd1na2vs0mg"},{"bike_id":"93c6d395-5f6c-41bb-b249-900124ecb70c","system_id":"levelo_inurba_marseille","lat":43.33554,"lon":5.37465,"is_reserved":false,"is_disabled":false,"rental_uris":{"android":"levelo://app?vid=93c6d395-5f6c-41bb-b249-900124ecb70c","ios":"levelo://app?vid=93c6d395-5f6c-41bb-b249-900124ecb70c"},"vehicle_type_id":"4","last_reported":1773135184,"current_range_meters":30400,"station_id":"st_d46tts09ee8s73dlu43g","pricing_plan_id":"cebpf4jnsgd1na2vs0mg"},{"bike_id":"79ce6a44-61dd-477c-aa0b-1a849bd10fcb","system_id":"levelo_inurba_marseille","lat":43.28479,"lon":5.48388,"is_reserved":false,"is_disabled":false,"rental_uris":{"android":"levelo://app?vid=79ce6a44-61dd-477c-aa0b-1a849bd10fcb","ios":"levelo://app?vid=79ce6a44-61dd-477c-aa0b-1a849bd10fcb"},"vehicle_type_id":"4","last_reported":1773135184,"current_range_meters":27200,"station_id":"","pricing_plan_id":"cebpf4jnsgd1na2vs0mg"},{"bike_id":"d42cebad-c3aa-4be8-b33f-c44cf02b01f4","system_id":"levelo_inurba_marseille","lat":43.30324,"lon":5.36913,"is_reserved":false,"is_disabled":false,"rental_uris":{"android":"levelo://app?vid=d42cebad-c3aa-4be8-b33f-c44cf02b01f4","ios":"levelo://app?vid=d42cebad-c3aa-4be8-b33f-c44cf02b01f4"},"vehicle_type_id":"4","last_reported":1773135184,"current_range_meters":22800,"station_id":"ce4bgqh2rcd13ifvqc5g","pricing_plan_id":"cebpf4jnsgd1na2vs0mg"},{"bike_id":"ac8308a4-f739-4875-98d8-249fe4c0d891","system_id":"levelo_inurba_marseille","lat":43.32464,"lon":5.36613,"is_reserved":false,"is_disabled":false,"rental_uris":{"android":"levelo://app?vid=ac8308a4-f739-4875-98d8-249fe4c0d891","ios":"levelo://app?vid=ac8308a4-f739-4875-98d8-249fe4c0d891"},"vehicle_type_id":"4","last_reported":1773135184,"current_range_meters":39200,"station_id":"ce4bhs12rcd13ifvqhvg","pricing_plan_id":"cebpf4jnsgd1na2vs0mg"},{"bike_id":"447ba774-735e-4ed5-b8a8-6dc2096bdb69","system_id":"levelo_inurba_marseille","lat":43.31114,"lon":5.37774,"is_reserved":false,"is_disabled":true,"rental_uris":{"android":"levelo://app?vid=447ba774-735e-4ed5-b8a8-6dc2096bdb69","ios":"levelo://app?vid=447ba774-735e-4ed5-b8a8-6dc2096bdb69"},"vehicle_type_id":"4","last_reported":1773135184,"current_range_meters":10000,"station_id":"ce4bgt92rcd13ifvqcg0","pricing_plan_id":"cebpf4jnsgd1na2vs0mg"},{"bike_id":"63839d01-be07-406c-b01e-08930e985ea6","system_id":"levelo_inurba_marseille","lat":43.29021,"lon":5.38113,"is_reserved":false,"is_disabled":true,"rental_uris":{"android":"levelo://app?vid=63839d01-be07-406c-b01e-08930e985ea6","ios":"levelo://app?vid=63839d01-be07-406c-b01e-08930e985ea6"},"vehicle_type_id":"4","last_reported":1773135184,"current_range_meters":27200,"station_id":"ce4bh4p2rcd13ifvqe1g","pricing_plan_id":"cebpf4jnsgd1na2vs0mg"},{"bike_id":"975cfa89-087f-4f38-b80f-fdc03f3d9e6e","system_id":"levelo_inurba_marseille","lat":43.27526,"lon":5.42438,"is_reserved":false,"is_disabled":false,"rental_uris":{"android":"levelo://app?vid=975cfa89-087f-4f38-b80f-fdc03f3d9e6e","ios":"levelo://app?vid=975cfa89-087f-4f38-b80f-fdc03f3d9e6e"},"vehicle_type_id":"4","last_reported":1773135184,"current_range_meters":20000,"station_id":"ce4bhn92rcd13ifvqgrg","pricing_plan_id":"cebpf4jnsgd1na2vs0mg"},{"bike_id":"dd11b5db-7b35-4df3-8a3a-d7161b3ca943","system_id":"levelo_inurba_marseille","lat":43.30571,"lon":5.37227,"is_reserved":false,"is_disabled":false,"rental_uris":{"android":"levelo://app?vid=dd11b5db-7b35-4df3-8a3a-d7161b3ca943","ios":"levelo://app?vid=dd11b5db-7b35-4df3-8a3a-d7161b3ca943"},"vehicle_type_id":"4","last_reported":1773135184,"current_range_meters":30400,"station_id":"ce4bgqh2rcd13ifvqc4g","pricing_plan_id":"cebpf4jnsgd1na2vs0mg"},{"bike_id":"6966191e-2a59-4d90-83f5-9dbb328087a0","system_id":"levelo_inurba_marseille","lat":43.28472,"lon":5.48395,"is_reserved":false,"is_disabled":false,"rental_uris":{"android":"levelo://app?vid=6966191e-2a59-4d90-83f5-9dbb328087a0","ios":"levelo://app?vid=6966191e-2a59-4d90-83f5-9dbb328087a0"},"vehicle_type_id":"4","last_reported":1773135184,"current_range_meters":6000,"station_id":"","pricing_plan_id":"cebpf4jnsgd1na2vs0mg"},{"bike_id":"664572f5-5ae7-4382-a82f-3d389db05bba","system_id":"levelo_inurba_marseille","lat":43.286697,"lon":5.386605,"is_reserved":false,"is_disabled":false,"rental_uris":{"android":"levelo://app?vid=664572f5-5ae7-4382-a82f-3d389db05bba","ios":"levelo://app?vid=664572f5-5ae7-4382-a82f-3d389db05bba"},"vehicle_type_id":"4","last_reported":1773135184,"current_range_meters":4400,"station_id":"ce4bh492rcd13ifvqdug","pricing_plan_id":"cebpf4jnsgd1na2vs0mg"},{"bike_id":"89298778-5582-4f2f-8ae9-c710daa3915c","system_id":"levelo_inurba_marseille","lat":43.29632,"lon":5.38071,"is_reserved":false,"is_disabled":false,"rental_uris":{"android":"levelo://app?vid=89298778-5582-4f2f-8ae9-c710daa3915c","ios":"levelo://app?vid=89298778-5582-4f2f-8ae9-c710daa3915c"},"vehicle_type_id":"4","last_reported":1773135184,"current_range_meters":28800,"station_id":"ce4bgl12rcd13ifvqbo0","pricing_plan_id":"cebpf4jnsgd1na2vs0mg"},{"bike_id":"c67245cb-2170-4bce-8da2-b23385e30ee9","system_id":"levelo_inurba_marseille","lat":43.29716,"lon":5.42562,"is_reserved":false,"is_disabled":false,"rental_uris":{"android":"levelo://app?vid=c67245cb-2170-4bce-8da2-b23385e30ee9","ios":"levelo://app?vid=c67245cb-2170-4bce-8da2-b23385e30ee9"},"vehicle_type_id":"4","last_reported":1773135184,"current_range_meters":16400,"station_id":"","pricing_plan_id":"cebpf4jnsgd1na2vs0mg"},{"bike_id":"798a0e21-50c4-4555-b49f-b20174375eb4","system_id":"levelo_inurba_marseille","lat":43.29006,"lon":5.35608,"is_reserved":false,"is_disabled":false,"rental_uris":{"android":"levelo://app?vid=798a0e21-50c4-4555-b49f-b20174375eb4","ios":"levelo://app?vid=798a0e21-50c4-4555-b49f-b20174375eb4"},"vehicle_type_id":"4","last_reported":1773135184,"current_range_meters":22800,"station_id":"ce4bhb92rcd13ifvqen0","pricing_plan_id":"cebpf4jnsgd1na2vs0mg"},{"bike_id":"7efcf4c7-49f4-4be3-9e95-91715385053b","system_id":"levelo_inurba_marseille","lat":43.30344,"lon":5.36901,"is_reserved":false,"is_disabled":false,"rental_uris":{"android":"levelo://app?vid=7efcf4c7-49f4-4be3-9e95-91715385053b","ios":"levelo://app?vid=7efcf4c7-49f4-4be3-9e95-91715385053b"},"vehicle_type_id":"4","last_reported":1773135184,"current_range_meters":18000,"station_id":"ce4bgqh2rcd13ifvqc5g","pricing_plan_id":"cebpf4jnsgd1na2vs0mg"},{"bike_id":"b7e35d72-969e-4bf5-a3a7-5c6489e97a1a","system_id":"levelo_inurba_marseille","lat":43.23195,"lon":5.35542,"is_reserved":false,"is_disabled":false,"rental_uris":{"android":"levelo://app?vid=b7e35d72-969e-4bf5-a3a7-5c6489e97a1a","ios":"levelo://app?vid=b7e35d72-969e-4bf5-a3a7-5c6489e97a1a"},"vehicle_type_id":"4","last_reported":1773135184,"current_range_meters":38400,"station_id":"ce4bhu92rcd13ifvqi70","pricing_plan_id":"cebpf4jnsgd1na2vs0mg"},{"bike_id":"481d7f35-e3b3-4df8-80f2-d627e15bc73b","system_id":"levelo_inurba_marseille","lat":43.26217,"lon":5.3744,"is_reserved":false,"is_disabled":false,"rental_uris":{"android":"levelo://app?vid=481d7f35-e3b3-4df8-80f2-d627e15bc73b","ios":"levelo://app?vid=481d7f35-e3b3-4df8-80f2-d627e15bc73b"},"vehicle_type_id":"4","last_reported":1773135184,"current_range_meters":32000,"station_id":"ce4bhgp2rcd13ifvqfc0","pricing_plan_id":"cebpf4jnsgd1na2vs0mg"},{"bike_id":"d216debe-13ad-497c-9809-383a47cc5ef9","system_id":"levelo_inurba_marseille","lat":43.32357,"lon":5.36723,"is_reserved":false,"is_disabled":false,"rental_uris":{"android":"levelo://app?vid=d216debe-13ad-497c-9809-383a47cc5ef9","ios":"levelo://app?vid=d216debe-13ad-497c-9809-383a47cc5ef9"},"vehicle_type_id":"4","last_reported":1773135184,"current_range_meters":36400,"station_id":"ce4bhsh2rcd13ifvqi2g","pricing_plan_id":"cebpf4jnsgd1na2vs0mg"},{"bike_id":"32c4f1f7-17c8-4a03-b0d8-54ddb0b13de5","system_id":"levelo_inurba_marseille","lat":43.33543,"lon":5.37462,"is_reserved":false,"is_disabled":false,"rental_uris":{"android":"levelo://app?vid=32c4f1f7-17c8-4a03-b0d8-54ddb0b13de5","ios":"levelo://app?vid=32c4f1f7-17c8-4a03-b0d8-54ddb0b13de5"},"vehicle_type_id":"4","last_reported":1773135184,"current_range_meters":34800,"station_id":"st_d46tts09ee8s73dlu43g","pricing_plan_id":"cebpf4jnsgd1na2vs0mg"},{"bike_id":"d59f2af4-848c-4817-b526-29ae1e90f418","system_id":"levelo_inurba_marseille","lat":43.27188,"lon":5.40996,"is_reserved":false,"is_disabled":false,"rental_uris":{"android":"levelo://app?vid=d59f2af4-848c-4817-b526-29ae1e90f418","ios":"levelo://app?vid=d59f2af4-848c-4817-b526-29ae1e90f418"},"vehicle_type_id":"4","last_reported":1773135184,"current_range_meters":39200,"station_id":"ce4bhl12rcd13ifvqgf0","pricing_plan_id":"cebpf4jnsgd1na2vs0mg"},{"bike_id":"77cce443-3f90-4239-836a-70a21471f733","system_id":"levelo_inurba_marseille","lat":43.27077,"lon":5.383,"is_reserved":false,"is_disabled":false,"rental_uris":{"android":"levelo://app?vid=77cce443-3f90-4239-836a-70a21471f733","ios":"levelo://app?vid=77cce443-3f90-4239-836a-70a21471f733"},"vehicle_type_id":"4","last_reported":1773135184,"current_range_meters":34800,"station_id":"st_d3n2fo6cfp8s73cte1j0","pricing_plan_id":"cebpf4jnsgd1na2vs0mg"},{"bike_id":"b1464651-8557-4b95-b594-9c68463903eb","system_id":"levelo_inurba_marseille","lat":43.27181,"lon":5.39175,"is_reserved":false,"is_disabled":false,"rental_uris":{"android":"levelo://app?vid=b1464651-8557-4b95-b594-9c68463903eb","ios":"levelo://app?vid=b1464651-8557-4b95-b594-9c68463903eb"},"vehicle_type_id":"4","last_reported":1773135184,"current_range_meters":31200,"station_id":"ce4bhhp2rcd13ifvqfm0","pricing_plan_id":"cebpf4jnsgd1na2vs0mg"},{"bike_id":"b1b72e65-4541-4aa5-9464-619c22b58492","system_id":"levelo_inurba_marseille","lat":43.27574,"lon":5.3966,"is_reserved":false,"is_disabled":false,"rental_uris":{"android":"levelo://app?vid=b1b72e65-4541-4aa5-9464-619c22b58492","ios":"levelo://app?vid=b1b72e65-4541-4aa5-9464-619c22b58492"},"vehicle_type_id":"4","last_reported":1773135184,"current_range_meters":28000,"station_id":"","pricing_plan_id":"cebpf4jnsgd1na2vs0mg"},{"bike_id":"3f084fef-6730-4c01-86b6-0bcf72df7333","system_id":"levelo_inurba_marseille","lat":43.29918,"lon":5.39773,"is_reserved":false,"is_disabled":false,"rental_uris":{"android":"levelo://app?vid=3f084fef-6730-4c01-86b6-0bcf72df7333","ios":"levelo://app?vid=3f084fef-6730-4c01-86b6-0bcf72df7333"},"vehicle_type_id":"4","last_reported":1773135184,"current_range_meters":32400,"station_id":"ce4bh0h2rcd13ifvqd50","pricing_plan_id":"cebpf4jnsgd1na2vs0mg"},{"bike_id":"2882ff64-4b69-4646-94c7-860d0be78035","system_id":"levelo_inurba_marseille","lat":43.29288,"lon":5.37427,"is_reserved":false,"is_disabled":false,"rental_uris":{"android":"levelo://app?vid=2882ff64-4b69-4646-94c7-860d0be78035","ios":"levelo://app?vid=2882ff64-4b69-4646-94c7-860d0be78035"},"vehicle_type_id":"4","last_reported":1773135184,"current_range_meters":30400,"station_id":"ce4bgi12rcd13ifvqb70","pricing_plan_id":"cebpf4jnsgd1na2vs0mg"},{"bike_id":"beae6932-1cb2-42f4-a0be-e7fa4a6e5cad","system_id":"levelo_inurba_marseille","lat":43.24989,"lon":5.38938,"is_reserved":false,"is_disabled":false,"rental_uris":{"android":"levelo://app?vid=beae6932-1cb2-42f4-a0be-e7fa4a6e5cad","ios":"levelo://app?vid=beae6932-1cb2-42f4-a0be-e7fa4a6e5cad"},"vehicle_type_id":"4","last_reported":1773135184,"current_range_meters":38000,"station_id":"ce4bhgp2rcd13ifvqfd0","pricing_plan_id":"cebpf4jnsgd1na2vs0mg"},{"bike_id":"cbef5c0b-d109-4c17-ab0b-db0d45f1dcb1","system_id":"levelo_inurba_marseille","lat":43.30534,"lon":5.36716,"is_reserved":false,"is_disabled":false,"rental_uris":{"android":"levelo://app?vid=cbef5c0b-d109-4c17-ab0b-db0d45f1dcb1","ios":"levelo://app?vid=cbef5c0b-d109-4c17-ab0b-db0d45f1dcb1"},"vehicle_type_id":"4","last_reported":1773135184,"current_range_meters":14000,"station_id":"ce4bgrp2rcd13ifvqc9g","pricing_plan_id":"cebpf4jnsgd1na2vs0mg"},{"bike_id":"0976d995-0bd5-4a37-a12f-7573097cdbbf","system_id":"levelo_inurba_marseille","lat":43.24402,"lon":5.37073,"is_reserved":false,"is_disabled":false,"rental_uris":{"android":"levelo://app?vid=0976d995-0bd5-4a37-a12f-7573097cdbbf","ios":"levelo://app?vid=0976d995-0bd5-4a37-a12f-7573097cdbbf"},"vehicle_type_id":"4","last_reported":1773135184,"current_range_meters":38000,"station_id":"ce4bhhh2rcd13ifvqfk0","pricing_plan_id":"cebpf4jnsgd1na2vs0mg"},{"bike_id":"d3b471e2-eaea-40d6-b207-95b0d07845f0","system_id":"levelo_inurba_marseille","lat":43.27952,"lon":5.41024,"is_reserved":false,"is_disabled":false,"rental_uris":{"android":"levelo://app?vid=d3b471e2-eaea-40d6-b207-95b0d07845f0","ios":"levelo://app?vid=d3b471e2-eaea-40d6-b207-95b0d07845f0"},"vehicle_type_id":"4","last_reported":1773135184,"current_range_meters":6800,"station_id":"ce4bhnp2rcd13ifvqh0g","pricing_plan_id":"cebpf4jnsgd1na2vs0mg"},{"bike_id":"6adc31c4-5cfa-4d5b-a4ca-9f1f649c5b2c","system_id":"levelo_inurba_marseille","lat":43.29797,"lon":5.42587,"is_reserved":false,"is_disabled":false,"rental_uris":{"android":"levelo://app?vid=6adc31c4-5cfa-4d5b-a4ca-9f1f649c5b2c","ios":"levelo://app?vid=6adc31c4-5cfa-4d5b-a4ca-9f1f649c5b2c"},"vehicle_type_id":"4","last_reported":1773135184,"current_range_meters":5600,"station_id":"","pricing_plan_id":"cebpf4jnsgd1na2vs0mg"},{"bike_id":"f6bf9564-52b6-4a7a-a275-e35fdff422de","system_id":"levelo_inurba_marseille","lat":43.32362,"lon":5.36722,"is_reserved":false,"is_disabled":false,"rental_uris":{"android":"levelo://app?vid=f6bf9564-52b6-4a7a-a275-e35fdff422de","ios":"levelo://app?vid=f6bf9564-52b6-4a7a-a275-e35fdff422de"},"vehicle_type_id":"4","last_reported":1773135184,"current_range_meters":6000,"station_id":"ce4bhsh2rcd13ifvqi2g","pricing_plan_id":"cebpf4jnsgd1na2vs0mg"},{"bike_id":"2564c1c9-01d0-4cc8-af33-cb04d53dfb74","system_id":"levelo_inurba_marseille","lat":43.27065,"lon":5.42284,"is_reserved":false,"is_disabled":false,"rental_uris":{"android":"levelo://app?vid=2564c1c9-01d0-4cc8-af33-cb04d53dfb74","ios":"levelo://app?vid=2564c1c9-01d0-4cc8-af33-cb04d53dfb74"},"vehicle_type_id":"4","last_reported":1773135184,"current_range_meters":12000,"station_id":"ce4bhk92rcd13ifvqgb0","pricing_plan_id":"cebpf4jnsgd1na2vs0mg"},{"bike_id":"44f6cb6e-eae0-4e2b-af2a-8ac387fe5387","system_id":"levelo_inurba_marseille","lat":43.29965,"lon":5.38499,"is_reserved":false,"is_disabled":false,"rental_uris":{"android":"levelo://app?vid=44f6cb6e-eae0-4e2b-af2a-8ac387fe5387","ios":"levelo://app?vid=44f6cb6e-eae0-4e2b-af2a-8ac387fe5387"},"vehicle_type_id":"4","last_reported":1773135184,"current_range_meters":15200,"station_id":"ce4bgj92rcd13ifvqbd0","pricing_plan_id":"cebpf4jnsgd1na2vs0mg"},{"bike_id":"32e4a3e9-5ab3-4c40-8673-d19c550c7efd","system_id":"levelo_inurba_marseille","lat":43.29789,"lon":5.38073,"is_reserved":false,"is_disabled":false,"rental_uris":{"android":"levelo://app?vid=32e4a3e9-5ab3-4c40-8673-d19c550c7efd","ios":"levelo://app?vid=32e4a3e9-5ab3-4c40-8673-d19c550c7efd"},"vehicle_type_id":"4","last_reported":1773135184,"current_range_meters":6800,"station_id":"ce4bgip2rcd13ifvqbb0","pricing_plan_id":"cebpf4jnsgd1na2vs0mg"},{"bike_id":"1ed78316-1378-4cf1-89dc-82486992174d","system_id":"levelo_inurba_marseille","lat":43.279694,"lon":5.387333,"is_reserved":false,"is_disabled":false,"rental_uris":{"android":"levelo://app?vid=1ed78316-1378-4cf1-89dc-82486992174d","ios":"levelo://app?vid=1ed78316-1378-4cf1-89dc-82486992174d"},"vehicle_type_id":"4","last_reported":1773135184,"current_range_meters":19200,"station_id":"ce4bhg12rcd13ifvqf80","pricing_plan_id":"cebpf4jnsgd1na2vs0mg"},{"bike_id":"a0940ab7-a6be-4654-afa7-fdf7a5194097","system_id":"levelo_inurba_marseille","lat":43.30624,"lon":5.37264,"is_reserved":false,"is_disabled":false,"rental_uris":{"android":"levelo://app?vid=a0940ab7-a6be-4654-afa7-fdf7a5194097","ios":"levelo://app?vid=a0940ab7-a6be-4654-afa7-fdf7a5194097"},"vehicle_type_id":"4","last_reported":1773135184,"current_range_meters":37600,"station_id":"ce4bgqh2rcd13ifvqc4g","pricing_plan_id":"cebpf4jnsgd1na2vs0mg"},{"bike_id":"a4607f20-82df-489a-b070-89f19f12ea83","system_id":"levelo_inurba_marseille","lat":43.26232,"lon":5.3743,"is_reserved":false,"is_disabled":false,"rental_uris":{"android":"levelo://app?vid=a4607f20-82df-489a-b070-89f19f12ea83","ios":"levelo://app?vid=a4607f20-82df-489a-b070-89f19f12ea83"},"vehicle_type_id":"4","last_reported":1773135184,"current_range_meters":39200,"station_id":"ce4bhgp2rcd13ifvqfc0","pricing_plan_id":"cebpf4jnsgd1na2vs0mg"},{"bike_id":"2f7081e5-8588-4b6c-bd13-492c7b205456","system_id":"levelo_inurba_marseille","lat":43.27717,"lon":5.38889,"is_reserved":false,"is_disabled":false,"rental_uris":{"android":"levelo://app?vid=2f7081e5-8588-4b6c-bd13-492c7b205456","ios":"levelo://app?vid=2f7081e5-8588-4b6c-bd13-492c7b205456"},"vehicle_type_id":"4","last_reported":1773135184,"current_range_meters":31200,"station_id":"ce4bhi12rcd13ifvqfo0","pricing_plan_id":"cebpf4jnsgd1na2vs0mg"},{"bike_id":"b1515dfb-f296-45b6-9e71-7b32d1a4f2b4","system_id":"levelo_inurba_marseille","lat":43.26219,"lon":5.37924,"is_reserved":false,"is_disabled":false,"rental_uris":{"android":"levelo://app?vid=b1515dfb-f296-45b6-9e71-7b32d1a4f2b4","ios":"levelo://app?vid=b1515dfb-f296-45b6-9e71-7b32d1a4f2b4"},"vehicle_type_id":"4","last_reported":1773135184,"current_range_meters":39200,"station_id":"ce4bhjp2rcd13ifvqg90","pricing_plan_id":"cebpf4jnsgd1na2vs0mg"},{"bike_id":"7492f64a-feec-4475-a8ac-d4bd70e8ae1e","system_id":"levelo_inurba_marseille","lat":43.23154,"lon":5.43708,"is_reserved":false,"is_disabled":false,"rental_uris":{"android":"levelo://app?vid=7492f64a-feec-4475-a8ac-d4bd70e8ae1e","ios":"levelo://app?vid=7492f64a-feec-4475-a8ac-d4bd70e8ae1e"},"vehicle_type_id":"4","last_reported":1773135184,"current_range_meters":22400,"station_id":"ce4bhmp2rcd13ifvqgog","pricing_plan_id":"cebpf4jnsgd1na2vs0mg"},{"bike_id":"7097e5f0-1617-4563-a11d-e981377cafbc","system_id":"levelo_inurba_marseille","lat":43.31345,"lon":5.36709,"is_reserved":false,"is_disabled":false,"rental_uris":{"android":"levelo://app?vid=7097e5f0-1617-4563-a11d-e981377cafbc","ios":"levelo://app?vid=7097e5f0-1617-4563-a11d-e981377cafbc"},"vehicle_type_id":"4","last_reported":1773135184,"current_range_meters":28800,"station_id":"ce4bgr92rcd13ifvqc6g","pricing_plan_id":"cebpf4jnsgd1na2vs0mg"},{"bike_id":"afa20618-0d5e-4dda-934c-d6c0b2a9d26b","system_id":"levelo_inurba_marseille","lat":43.30456,"lon":5.37915,"is_reserved":false,"is_disabled":false,"rental_uris":{"android":"levelo://app?vid=afa20618-0d5e-4dda-934c-d6c0b2a9d26b","ios":"levelo://app?vid=afa20618-0d5e-4dda-934c-d6c0b2a9d26b"},"vehicle_type_id":"4","last_reported":1773135184,"current_range_meters":30400,"station_id":"ce4bgup2rcd13ifvqcn0","pricing_plan_id":"cebpf4jnsgd1na2vs0mg"},{"bike_id":"7739e670-6ad1-4986-90c8-e0074ab83683","system_id":"levelo_inurba_marseille","lat":43.26562,"lon":5.37286,"is_reserved":false,"is_disabled":false,"rental_uris":{"android":"levelo://app?vid=7739e670-6ad1-4986-90c8-e0074ab83683","ios":"levelo://app?vid=7739e670-6ad1-4986-90c8-e0074ab83683"},"vehicle_type_id":"4","last_reported":1773135184,"current_range_meters":28400,"station_id":"ce4bhg12rcd13ifvqf70","pricing_plan_id":"cebpf4jnsgd1na2vs0mg"},{"bike_id":"6292764a-36d3-4177-868b-8d28df16d07a","system_id":"levelo_inurba_marseille","lat":43.25091,"lon":5.39521,"is_reserved":false,"is_disabled":false,"rental_uris":{"android":"levelo://app?vid=6292764a-36d3-4177-868b-8d28df16d07a","ios":"levelo://app?vid=6292764a-36d3-4177-868b-8d28df16d07a"},"vehicle_type_id":"4","last_reported":1773135184,"current_range_meters":3200,"station_id":"ce4bhm12rcd13ifvqgkg","pricing_plan_id":"cebpf4jnsgd1na2vs0mg"},{"bike_id":"a6152a37-0e0f-4342-85ea-20dd708f93ee","system_id":"levelo_inurba_marseille","lat":43.23162,"lon":5.4371,"is_reserved":false,"is_disabled":false,"rental_uris":{"android":"levelo://app?vid=a6152a37-0e0f-4342-85ea-20dd708f93ee","ios":"levelo://app?vid=a6152a37-0e0f-4342-85ea-20dd708f93ee"},"vehicle_type_id":"4","last_reported":1773135184,"current_range_meters":36800,"station_id":"ce4bhmp2rcd13ifvqgog","pricing_plan_id":"cebpf4jnsgd1na2vs0mg"},{"bike_id":"fd7a85fe-04b7-4fdc-aa9d-9f4f30848aea","system_id":"levelo_inurba_marseille","lat":43.24078,"lon":5.37759,"is_reserved":false,"is_disabled":false,"rental_uris":{"android":"levelo://app?vid=fd7a85fe-04b7-4fdc-aa9d-9f4f30848aea","ios":"levelo://app?vid=fd7a85fe-04b7-4fdc-aa9d-9f4f30848aea"},"vehicle_type_id":"4","last_reported":1773135184,"current_range_meters":24000,"station_id":"ce4bhnp2rcd13ifvqgvg","pricing_plan_id":"cebpf4jnsgd1na2vs0mg"},{"bike_id":"a7beaee9-1c13-4608-ac07-d772a8254770","system_id":"levelo_inurba_marseille","lat":43.24072,"lon":5.37761,"is_reserved":false,"is_disabled":false,"rental_uris":{"android":"levelo://app?vid=a7beaee9-1c13-4608-ac07-d772a8254770","ios":"levelo://app?vid=a7beaee9-1c13-4608-ac07-d772a8254770"},"vehicle_type_id":"4","last_reported":1773135184,"current_range_meters":31200,"station_id":"ce4bhnp2rcd13ifvqgvg","pricing_plan_id":"cebpf4jnsgd1na2vs0mg"},{"bike_id":"9d5dab95-42e0-47db-91db-ee2c6c1256b0","system_id":"levelo_inurba_marseille","lat":43.25512,"lon":5.37629,"is_reserved":false,"is_disabled":false,"rental_uris":{"android":"levelo://app?vid=9d5dab95-42e0-47db-91db-ee2c6c1256b0","ios":"levelo://app?vid=9d5dab95-42e0-47db-91db-ee2c6c1256b0"},"vehicle_type_id":"4","last_reported":1773135184,"current_range_meters":38000,"station_id":"ce4bhh12rcd13ifvqff0","pricing_plan_id":"cebpf4jnsgd1na2vs0mg"},{"bike_id":"3ed9dacd-47d5-473e-a4ab-a372d8e4176a","system_id":"levelo_inurba_marseille","lat":43.3016,"lon":5.39826,"is_reserved":false,"is_disabled":true,"rental_uris":{"android":"levelo://app?vid=3ed9dacd-47d5-473e-a4ab-a372d8e4176a","ios":"levelo://app?vid=3ed9dacd-47d5-473e-a4ab-a372d8e4176a"},"vehicle_type_id":"4","last_reported":1773135184,"current_range_meters":26800,"station_id":"ce4bh0h2rcd13ifvqd40","pricing_plan_id":"cebpf4jnsgd1na2vs0mg"},{"bike_id":"d98d037d-3315-4c51-b1fb-f7cdf7fde838","system_id":"levelo_inurba_marseille","lat":43.23142,"lon":5.4372,"is_reserved":false,"is_disabled":false,"rental_uris":{"android":"levelo://app?vid=d98d037d-3315-4c51-b1fb-f7cdf7fde838","ios":"levelo://app?vid=d98d037d-3315-4c51-b1fb-f7cdf7fde838"},"vehicle_type_id":"4","last_reported":1773135184,"current_range_meters":10000,"station_id":"ce4bhmp2rcd13ifvqgog","pricing_plan_id":"cebpf4jnsgd1na2vs0mg"},{"bike_id":"d44d6705-8b07-4c99-8be2-a9a0fdc34e2f","system_id":"levelo_inurba_marseille","lat":43.32084,"lon":5.36786,"is_reserved":false,"is_disabled":false,"rental_uris":{"android":"levelo://app?vid=d44d6705-8b07-4c99-8be2-a9a0fdc34e2f","ios":"levelo://app?vid=d44d6705-8b07-4c99-8be2-a9a0fdc34e2f"},"vehicle_type_id":"4","last_reported":1773135184,"current_range_meters":7200,"station_id":"ce4bhrh2rcd13ifvqhug","pricing_plan_id":"cebpf4jnsgd1na2vs0mg"},{"bike_id":"4e13cebf-e3bd-4977-8d80-663fe93eec9a","system_id":"levelo_inurba_marseille","lat":43.3134,"lon":5.36716,"is_reserved":false,"is_disabled":false,"rental_uris":{"android":"levelo://app?vid=4e13cebf-e3bd-4977-8d80-663fe93eec9a","ios":"levelo://app?vid=4e13cebf-e3bd-4977-8d80-663fe93eec9a"},"vehicle_type_id":"4","last_reported":1773135184,"current_range_meters":6400,"station_id":"ce4bgr92rcd13ifvqc6g","pricing_plan_id":"cebpf4jnsgd1na2vs0mg"},{"bike_id":"6ebf2137-bb78-44a1-809e-1f2d8b5b0412","system_id":"levelo_inurba_marseille","lat":43.26748,"lon":5.39463,"is_reserved":false,"is_disabled":false,"rental_uris":{"android":"levelo://app?vid=6ebf2137-bb78-44a1-809e-1f2d8b5b0412","ios":"levelo://app?vid=6ebf2137-bb78-44a1-809e-1f2d8b5b0412"},"vehicle_type_id":"4","last_reported":1773135184,"current_range_meters":25200,"station_id":"ce4bhh12rcd13ifvqfg0","pricing_plan_id":"cebpf4jnsgd1na2vs0mg"},{"bike_id":"18344d13-5ad9-4a90-bbbb-38ed6af181bc","system_id":"levelo_inurba_marseille","lat":43.25937,"lon":5.40904,"is_reserved":false,"is_disabled":false,"rental_uris":{"android":"levelo://app?vid=18344d13-5ad9-4a90-bbbb-38ed6af181bc","ios":"levelo://app?vid=18344d13-5ad9-4a90-bbbb-38ed6af181bc"},"vehicle_type_id":"4","last_reported":1773135184,"current_range_meters":28400,"station_id":"ce4bhm92rcd13ifvqglg","pricing_plan_id":"cebpf4jnsgd1na2vs0mg"},{"bike_id":"44188d4d-0454-4ff4-a00c-e668f2c93144","system_id":"levelo_inurba_marseille","lat":43.29773,"lon":5.37091,"is_reserved":false,"is_disabled":false,"rental_uris":{"android":"levelo://app?vid=44188d4d-0454-4ff4-a00c-e668f2c93144","ios":"levelo://app?vid=44188d4d-0454-4ff4-a00c-e668f2c93144"},"vehicle_type_id":"4","last_reported":1773135184,"current_range_meters":38000,"station_id":"ce4bgop2rcd13ifvqc1g","pricing_plan_id":"cebpf4jnsgd1na2vs0mg"},{"bike_id":"c42c362e-c05e-408b-a2fa-2c5e2bc1951d","system_id":"levelo_inurba_marseille","lat":43.29263,"lon":5.38438,"is_reserved":false,"is_disabled":false,"rental_uris":{"android":"levelo://app?vid=c42c362e-c05e-408b-a2fa-2c5e2bc1951d","ios":"levelo://app?vid=c42c362e-c05e-408b-a2fa-2c5e2bc1951d"},"vehicle_type_id":"4","last_reported":1773135184,"current_range_meters":12000,"station_id":"ce4bh692rcd13ifvqea0","pricing_plan_id":"cebpf4jnsgd1na2vs0mg"},{"bike_id":"204d42a9-563d-4c76-915f-f87f91c21570","system_id":"levelo_inurba_marseille","lat":43.3153,"lon":5.3731,"is_reserved":false,"is_disabled":false,"rental_uris":{"android":"levelo://app?vid=204d42a9-563d-4c76-915f-f87f91c21570","ios":"levelo://app?vid=204d42a9-563d-4c76-915f-f87f91c21570"},"vehicle_type_id":"4","last_reported":1773135184,"current_range_meters":32400,"station_id":"","pricing_plan_id":"cebpf4jnsgd1na2vs0mg"},{"bike_id":"b708976c-2a36-497f-8637-f1523d59ea21","system_id":"levelo_inurba_marseille","lat":43.26696,"lon":5.38275,"is_reserved":false,"is_disabled":false,"rental_uris":{"android":"levelo://app?vid=b708976c-2a36-497f-8637-f1523d59ea21","ios":"levelo://app?vid=b708976c-2a36-497f-8637-f1523d59ea21"},"vehicle_type_id":"4","last_reported":1773135184,"current_range_meters":24400,"station_id":"ce4bhg92rcd13ifvqf90","pricing_plan_id":"cebpf4jnsgd1na2vs0mg"},{"bike_id":"2c36a755-7ac4-41d6-a7fb-6475d599ecef","system_id":"levelo_inurba_marseille","lat":43.29596,"lon":5.38101,"is_reserved":false,"is_disabled":false,"rental_uris":{"android":"levelo://app?vid=2c36a755-7ac4-41d6-a7fb-6475d599ecef","ios":"levelo://app?vid=2c36a755-7ac4-41d6-a7fb-6475d599ecef"},"vehicle_type_id":"4","last_reported":1773135184,"current_range_meters":39200,"station_id":"ce4bgl12rcd13ifvqbo0","pricing_plan_id":"cebpf4jnsgd1na2vs0mg"},{"bike_id":"23fc598d-f808-4287-a2fb-dcbe6bd11524","system_id":"levelo_inurba_marseille","lat":43.28477,"lon":5.48404,"is_reserved":false,"is_disabled":false,"rental_uris":{"android":"levelo://app?vid=23fc598d-f808-4287-a2fb-dcbe6bd11524","ios":"levelo://app?vid=23fc598d-f808-4287-a2fb-dcbe6bd11524"},"vehicle_type_id":"4","last_reported":1773135184,"current_range_meters":39200,"station_id":"","pricing_plan_id":"cebpf4jnsgd1na2vs0mg"},{"bike_id":"f0d85e77-c78a-4899-b931-126b1bdccc38","system_id":"levelo_inurba_marseille","lat":43.22583,"lon":5.41662,"is_reserved":false,"is_disabled":false,"rental_uris":{"android":"levelo://app?vid=f0d85e77-c78a-4899-b931-126b1bdccc38","ios":"levelo://app?vid=f0d85e77-c78a-4899-b931-126b1bdccc38"},"vehicle_type_id":"4","last_reported":1773135184,"current_range_meters":11200,"station_id":"st_d2o4gvlbi1j2169b742g","pricing_plan_id":"cebpf4jnsgd1na2vs0mg"},{"bike_id":"ef2e8558-2d7e-444d-a1e1-1cd240fdaae1","system_id":"levelo_inurba_marseille","lat":43.30552,"lon":5.36702,"is_reserved":false,"is_disabled":false,"rental_uris":{"android":"levelo://app?vid=ef2e8558-2d7e-444d-a1e1-1cd240fdaae1","ios":"levelo://app?vid=ef2e8558-2d7e-444d-a1e1-1cd240fdaae1"},"vehicle_type_id":"4","last_reported":1773135184,"current_range_meters":38000,"station_id":"ce4bgrp2rcd13ifvqc9g","pricing_plan_id":"cebpf4jnsgd1na2vs0mg"},{"bike_id":"3afa846a-3499-402e-8576-cc13bd78fadf","system_id":"levelo_inurba_marseille","lat":43.29595,"lon":5.381,"is_reserved":false,"is_disabled":true,"rental_uris":{"android":"levelo://app?vid=3afa846a-3499-402e-8576-cc13bd78fadf","ios":"levelo://app?vid=3afa846a-3499-402e-8576-cc13bd78fadf"},"vehicle_type_id":"4","last_reported":1773135184,"current_range_meters":10000,"station_id":"ce4bgl12rcd13ifvqbo0","pricing_plan_id":"cebpf4jnsgd1na2vs0mg"},{"bike_id":"78dfdbc0-e866-4036-a4fb-62121db92033","system_id":"levelo_inurba_marseille","lat":43.30461,"lon":5.37898,"is_reserved":false,"is_disabled":false,"rental_uris":{"android":"levelo://app?vid=78dfdbc0-e866-4036-a4fb-62121db92033","ios":"levelo://app?vid=78dfdbc0-e866-4036-a4fb-62121db92033"},"vehicle_type_id":"4","last_reported":1773135184,"current_range_meters":26000,"station_id":"ce4bgup2rcd13ifvqcn0","pricing_plan_id":"cebpf4jnsgd1na2vs0mg"},{"bike_id":"40e0d2e9-37fe-4a04-bb36-4e76f8c7199c","system_id":"levelo_inurba_marseille","lat":43.32113,"lon":5.36775,"is_reserved":false,"is_disabled":false,"rental_uris":{"android":"levelo://app?vid=40e0d2e9-37fe-4a04-bb36-4e76f8c7199c","ios":"levelo://app?vid=40e0d2e9-37fe-4a04-bb36-4e76f8c7199c"},"vehicle_type_id":"4","last_reported":1773135184,"current_range_meters":28800,"station_id":"ce4bhrh2rcd13ifvqhug","pricing_plan_id":"cebpf4jnsgd1na2vs0mg"},{"bike_id":"c328f967-2ebc-407c-b08e-99b19c38327d","system_id":"levelo_inurba_marseille","lat":43.28713,"lon":5.39973,"is_reserved":false,"is_disabled":false,"rental_uris":{"android":"levelo://app?vid=c328f967-2ebc-407c-b08e-99b19c38327d","ios":"levelo://app?vid=c328f967-2ebc-407c-b08e-99b19c38327d"},"vehicle_type_id":"4","last_reported":1773135184,"current_range_meters":39200,"station_id":"ce4bho92rcd13ifvqh3g","pricing_plan_id":"cebpf4jnsgd1na2vs0mg"},{"bike_id":"d1f17bd0-952b-430c-9f55-6aa33da92ab7","system_id":"levelo_inurba_marseille","lat":43.28852,"lon":5.42515,"is_reserved":false,"is_disabled":false,"rental_uris":{"android":"levelo://app?vid=d1f17bd0-952b-430c-9f55-6aa33da92ab7","ios":"levelo://app?vid=d1f17bd0-952b-430c-9f55-6aa33da92ab7"},"vehicle_type_id":"4","last_reported":1773135184,"current_range_meters":4800,"station_id":"st_d3b462108ojc7389ooeg","pricing_plan_id":"cebpf4jnsgd1na2vs0mg"},{"bike_id":"5d71f78f-b103-4ed8-bff3-5f5ae9cbdf3b","system_id":"levelo_inurba_marseille","lat":43.2927,"lon":5.36829,"is_reserved":false,"is_disabled":false,"rental_uris":{"android":"levelo://app?vid=5d71f78f-b103-4ed8-bff3-5f5ae9cbdf3b","ios":"levelo://app?vid=5d71f78f-b103-4ed8-bff3-5f5ae9cbdf3b"},"vehicle_type_id":"4","last_reported":1773135184,"current_range_meters":22800,"station_id":"ce4bhbp2rcd13ifvqesg","pricing_plan_id":"cebpf4jnsgd1na2vs0mg"},{"bike_id":"101e1011-f9be-4f7f-88da-2f84b7374cb1","system_id":"levelo_inurba_marseille","lat":43.30888,"lon":5.3719,"is_reserved":false,"is_disabled":false,"rental_uris":{"android":"levelo://app?vid=101e1011-f9be-4f7f-88da-2f84b7374cb1","ios":"levelo://app?vid=101e1011-f9be-4f7f-88da-2f84b7374cb1"},"vehicle_type_id":"4","last_reported":1773135184,"current_range_meters":38800,"station_id":"ce4bguh2rcd13ifvqckg","pricing_plan_id":"cebpf4jnsgd1na2vs0mg"},{"bike_id":"d59f6bda-e40b-42f3-90c3-d9ad1181f0c5","system_id":"levelo_inurba_marseille","lat":43.24637,"lon":5.38902,"is_reserved":false,"is_disabled":false,"rental_uris":{"android":"levelo://app?vid=d59f6bda-e40b-42f3-90c3-d9ad1181f0c5","ios":"levelo://app?vid=d59f6bda-e40b-42f3-90c3-d9ad1181f0c5"},"vehicle_type_id":"4","last_reported":1773135184,"current_range_meters":18800,"station_id":"ce4bhg12rcd13ifvqf60","pricing_plan_id":"cebpf4jnsgd1na2vs0mg"},{"bike_id":"5bab29ae-c4bc-4a09-9205-2680625e98ce","system_id":"levelo_inurba_marseille","lat":43.31474,"lon":5.37287,"is_reserved":false,"is_disabled":false,"rental_uris":{"android":"levelo://app?vid=5bab29ae-c4bc-4a09-9205-2680625e98ce","ios":"levelo://app?vid=5bab29ae-c4bc-4a09-9205-2680625e98ce"},"vehicle_type_id":"4","last_reported":1773135184,"current_range_meters":16800,"station_id":"ce4bgt12rcd13ifvqcd0","pricing_plan_id":"cebpf4jnsgd1na2vs0mg"},{"bike_id":"5a561493-ef9c-42eb-9e3a-6a971c697673","system_id":"levelo_inurba_marseille","lat":43.27449,"lon":5.39388,"is_reserved":false,"is_disabled":false,"rental_uris":{"android":"levelo://app?vid=5a561493-ef9c-42eb-9e3a-6a971c697673","ios":"levelo://app?vid=5a561493-ef9c-42eb-9e3a-6a971c697673"},"vehicle_type_id":"4","last_reported":1773135184,"current_range_meters":36400,"station_id":"ce4bhdp2rcd13ifvqf20","pricing_plan_id":"cebpf4jnsgd1na2vs0mg"},{"bike_id":"9a4c9fe6-93e6-431c-8db6-1a67b0134b2c","system_id":"levelo_inurba_marseille","lat":43.26544,"lon":5.37289,"is_reserved":false,"is_disabled":false,"rental_uris":{"android":"levelo://app?vid=9a4c9fe6-93e6-431c-8db6-1a67b0134b2c","ios":"levelo://app?vid=9a4c9fe6-93e6-431c-8db6-1a67b0134b2c"},"vehicle_type_id":"4","last_reported":1773135184,"current_range_meters":38800,"station_id":"ce4bhg12rcd13ifvqf70","pricing_plan_id":"cebpf4jnsgd1na2vs0mg"},{"bike_id":"54aa5aea-6018-471a-96e1-3c75b95f3618","system_id":"levelo_inurba_marseille","lat":43.29898,"lon":5.386,"is_reserved":false,"is_disabled":false,"rental_uris":{"android":"levelo://app?vid=54aa5aea-6018-471a-96e1-3c75b95f3618","ios":"levelo://app?vid=54aa5aea-6018-471a-96e1-3c75b95f3618"},"vehicle_type_id":"4","last_reported":1773135184,"current_range_meters":31200,"station_id":"","pricing_plan_id":"cebpf4jnsgd1na2vs0mg"},{"bike_id":"a3ab7c8d-998e-422b-bd86-817522a13696","system_id":"levelo_inurba_marseille","lat":43.3017,"lon":5.37409,"is_reserved":false,"is_disabled":false,"rental_uris":{"android":"levelo://app?vid=a3ab7c8d-998e-422b-bd86-817522a13696","ios":"levelo://app?vid=a3ab7c8d-998e-422b-bd86-817522a13696"},"vehicle_type_id":"4","last_reported":1773135184,"current_range_meters":33600,"station_id":"ce4bgs92rcd13ifvqcc0","pricing_plan_id":"cebpf4jnsgd1na2vs0mg"},{"bike_id":"4d650b84-4c87-42d2-8dd7-e4c822bb0148","system_id":"levelo_inurba_marseille","lat":43.29568,"lon":5.37509,"is_reserved":false,"is_disabled":false,"rental_uris":{"android":"levelo://app?vid=4d650b84-4c87-42d2-8dd7-e4c822bb0148","ios":"levelo://app?vid=4d650b84-4c87-42d2-8dd7-e4c822bb0148"},"vehicle_type_id":"4","last_reported":1773135184,"current_range_meters":28400,"station_id":"ce4bgh92rcd13ifvqb50","pricing_plan_id":"cebpf4jnsgd1na2vs0mg"},{"bike_id":"477b9980-2920-43dd-98ab-3feb7a99ec00","system_id":"levelo_inurba_marseille","lat":43.30156,"lon":5.38093,"is_reserved":false,"is_disabled":true,"rental_uris":{"android":"levelo://app?vid=477b9980-2920-43dd-98ab-3feb7a99ec00","ios":"levelo://app?vid=477b9980-2920-43dd-98ab-3feb7a99ec00"},"vehicle_type_id":"4","last_reported":1773135184,"current_range_meters":38800,"station_id":"ce4bgjp2rcd13ifvqbh0","pricing_plan_id":"cebpf4jnsgd1na2vs0mg"},{"bike_id":"5fc7a0df-87a0-49d1-a427-e5854d5c6b56","system_id":"levelo_inurba_marseille","lat":43.26547,"lon":5.39034,"is_reserved":false,"is_disabled":false,"rental_uris":{"android":"levelo://app?vid=5fc7a0df-87a0-49d1-a427-e5854d5c6b56","ios":"levelo://app?vid=5fc7a0df-87a0-49d1-a427-e5854d5c6b56"},"vehicle_type_id":"4","last_reported":1773135184,"current_range_meters":10800,"station_id":"ce4bhe12rcd13ifvqf30","pricing_plan_id":"cebpf4jnsgd1na2vs0mg"},{"bike_id":"c2e52aad-0cc7-44a8-b875-38dbf805cda2","system_id":"levelo_inurba_marseille","lat":43.29604,"lon":5.37725,"is_reserved":false,"is_disabled":true,"rental_uris":{"android":"levelo://app?vid=c2e52aad-0cc7-44a8-b875-38dbf805cda2","ios":"levelo://app?vid=c2e52aad-0cc7-44a8-b875-38dbf805cda2"},"vehicle_type_id":"4","last_reported":1773135184,"current_range_meters":38000,"station_id":"ce4bgi92rcd13ifvqb90","pricing_plan_id":"cebpf4jnsgd1na2vs0mg"},{"bike_id":"e71cefbf-5996-4f16-8551-483e2d451409","system_id":"levelo_inurba_marseille","lat":43.29282,"lon":5.36836,"is_reserved":false,"is_disabled":false,"rental_uris":{"android":"levelo://app?vid=e71cefbf-5996-4f16-8551-483e2d451409","ios":"levelo://app?vid=e71cefbf-5996-4f16-8551-483e2d451409"},"vehicle_type_id":"4","last_reported":1773135184,"current_range_meters":39200,"station_id":"ce4bhbp2rcd13ifvqesg","pricing_plan_id":"cebpf4jnsgd1na2vs0mg"},{"bike_id":"86a27d56-a425-48ed-be8d-deb254057217","system_id":"levelo_inurba_marseille","lat":43.29303,"lon":5.37445,"is_reserved":false,"is_disabled":false,"rental_uris":{"android":"levelo://app?vid=86a27d56-a425-48ed-be8d-deb254057217","ios":"levelo://app?vid=86a27d56-a425-48ed-be8d-deb254057217"},"vehicle_type_id":"4","last_reported":1773135184,"current_range_meters":12800,"station_id":"ce4bgi12rcd13ifvqb70","pricing_plan_id":"cebpf4jnsgd1na2vs0mg"},{"bike_id":"7a3b5875-f1e8-4acd-acbf-c2a29528e4b7","system_id":"levelo_inurba_marseille","lat":43.28475,"lon":5.48415,"is_reserved":false,"is_disabled":false,"rental_uris":{"android":"levelo://app?vid=7a3b5875-f1e8-4acd-acbf-c2a29528e4b7","ios":"levelo://app?vid=7a3b5875-f1e8-4acd-acbf-c2a29528e4b7"},"vehicle_type_id":"4","last_reported":1773135184,"current_range_meters":11600,"station_id":"st_d3svhcjqgbts73a3dn0g","pricing_plan_id":"cebpf4jnsgd1na2vs0mg"},{"bike_id":"9cd21b4f-5b91-47c4-9f59-c7c5557c0e8a","system_id":"levelo_inurba_marseille","lat":43.31285,"lon":5.36837,"is_reserved":false,"is_disabled":false,"rental_uris":{"android":"levelo://app?vid=9cd21b4f-5b91-47c4-9f59-c7c5557c0e8a","ios":"levelo://app?vid=9cd21b4f-5b91-47c4-9f59-c7c5557c0e8a"},"vehicle_type_id":"4","last_reported":1773135184,"current_range_meters":40000,"station_id":"ce4bgl92rcd13ifvqbq0","pricing_plan_id":"cebpf4jnsgd1na2vs0mg"},{"bike_id":"ae4181aa-8dc8-4249-8735-32d22936bfd0","system_id":"levelo_inurba_marseille","lat":43.23191,"lon":5.35542,"is_reserved":false,"is_disabled":false,"rental_uris":{"android":"levelo://app?vid=ae4181aa-8dc8-4249-8735-32d22936bfd0","ios":"levelo://app?vid=ae4181aa-8dc8-4249-8735-32d22936bfd0"},"vehicle_type_id":"4","last_reported":1773135184,"current_range_meters":28400,"station_id":"ce4bhu92rcd13ifvqi70","pricing_plan_id":"cebpf4jnsgd1na2vs0mg"},{"bike_id":"e7b6972b-117e-47e0-9f41-cbcc9b6a3781","system_id":"levelo_inurba_marseille","lat":43.32106,"lon":5.36779,"is_reserved":false,"is_disabled":false,"rental_uris":{"android":"levelo://app?vid=e7b6972b-117e-47e0-9f41-cbcc9b6a3781","ios":"levelo://app?vid=e7b6972b-117e-47e0-9f41-cbcc9b6a3781"},"vehicle_type_id":"4","last_reported":1773135184,"current_range_meters":6800,"station_id":"ce4bhrh2rcd13ifvqhug","pricing_plan_id":"cebpf4jnsgd1na2vs0mg"},{"bike_id":"941bc28e-fbfc-4851-97f8-ac3f132b700f","system_id":"levelo_inurba_marseille","lat":43.26492,"lon":5.39543,"is_reserved":false,"is_disabled":false,"rental_uris":{"android":"levelo://app?vid=941bc28e-fbfc-4851-97f8-ac3f132b700f","ios":"levelo://app?vid=941bc28e-fbfc-4851-97f8-ac3f132b700f"},"vehicle_type_id":"4","last_reported":1773135184,"current_range_meters":30800,"station_id":"ce4bhi12rcd13ifvqfq0","pricing_plan_id":"cebpf4jnsgd1na2vs0mg"},{"bike_id":"48000cab-41de-4600-a63e-0b6cccd6d62b","system_id":"levelo_inurba_marseille","lat":43.28138,"lon":5.42628,"is_reserved":false,"is_disabled":false,"rental_uris":{"android":"levelo://app?vid=48000cab-41de-4600-a63e-0b6cccd6d62b","ios":"levelo://app?vid=48000cab-41de-4600-a63e-0b6cccd6d62b"},"vehicle_type_id":"4","last_reported":1773135184,"current_range_meters":27600,"station_id":"ce4bhnh2rcd13ifvqgug","pricing_plan_id":"cebpf4jnsgd1na2vs0mg"},{"bike_id":"4b5b71ea-e60c-42f9-bfb2-792d940d3176","system_id":"levelo_inurba_marseille","lat":43.23058,"lon":5.35498,"is_reserved":false,"is_disabled":false,"rental_uris":{"android":"levelo://app?vid=4b5b71ea-e60c-42f9-bfb2-792d940d3176","ios":"levelo://app?vid=4b5b71ea-e60c-42f9-bfb2-792d940d3176"},"vehicle_type_id":"4","last_reported":1773135184,"current_range_meters":39200,"station_id":"cpo3342slgdg3j2ifvpg","pricing_plan_id":"cebpf4jnsgd1na2vs0mg"},{"bike_id":"e35b03a9-a4be-4d8c-886c-82ff1aa5f7d8","system_id":"levelo_inurba_marseille","lat":43.30178,"lon":5.37399,"is_reserved":false,"is_disabled":false,"rental_uris":{"android":"levelo://app?vid=e35b03a9-a4be-4d8c-886c-82ff1aa5f7d8","ios":"levelo://app?vid=e35b03a9-a4be-4d8c-886c-82ff1aa5f7d8"},"vehicle_type_id":"4","last_reported":1773135184,"current_range_meters":16000,"station_id":"ce4bgs92rcd13ifvqcc0","pricing_plan_id":"cebpf4jnsgd1na2vs0mg"},{"bike_id":"d3611ff2-55b3-42cc-9920-0abd14ff4bd3","system_id":"levelo_inurba_marseille","lat":43.31297,"lon":5.36863,"is_reserved":false,"is_disabled":false,"rental_uris":{"android":"levelo://app?vid=d3611ff2-55b3-42cc-9920-0abd14ff4bd3","ios":"levelo://app?vid=d3611ff2-55b3-42cc-9920-0abd14ff4bd3"},"vehicle_type_id":"4","last_reported":1773135184,"current_range_meters":39200,"station_id":"ce4bgl92rcd13ifvqbq0","pricing_plan_id":"cebpf4jnsgd1na2vs0mg"},