{"last_updated":1728752789,"ttl":60,"version":"2.2","data":{"bikes":[{"bike_id":"a90cfefd-ccd4-4d2f-906c-f11429f46878","system_id":"levelo_inurba_marseille","lat":43.30371,"lon":5.3647,"is_reserved":false,"is_disabled":false,"rental_uris":{"android":"levelo://app?vid=a90cfefd-ccd4-4d2f-906c-f11429f46878","ios":"levelo://app?vid=a90cfefd-ccd4-4d2f-906c-f11429f46878"},"vehicle_type_id":"4","last_reported":1728752789,"current_range_meters":3600,"station_id":"","pricing_plan_id":"cebpf4jnsgd1na2vs0mg"},{"bike_id":"a88cc3d5-4214-4799-a463-c01d33dbb23e","system_id":"levelo_inurba_marseille","lat":43.25,"lon":5.38918,"is_reserved":false,"is_disabled":false,"rental_uris":{"android":"levelo://app?vid=a88cc3d5-4214-4799-a463-c01d33dbb23e","ios":"levelo://app?vid=a88cc3d5-4214-4799-a463-c01d33dbb23e"},"vehicle_type_id":"4","last_reported":1728752789,"current_range_meters":20800,"station_id":"ce4bhgp2rcd13ifvqfd0","pricing_plan_id":"cebpf4jnsgd1na2vs0mg"},{"bike_id":"8a36bb65-dd05-437f-adaf-66c35c91f8ff","system_id":"levelo_inurba_marseille","lat":43.2417,"lon":5.36417,"is_reserved":false,"is_disabled":false,"rental_uris":{"android":"levelo://app?vid=8a36bb65-dd05-437f-adaf-66c35c91f8ff","ios":"levelo://app?vid=8a36bb65-dd05-437f-adaf-66c35c91f8ff"},"vehicle_type_id":"4","last_reported":1728752789,"current_range_meters":38400,"station_id":"cpo36qri1sfpv3e86is0","pricing_plan_id":"cebpf4jnsgd1na2vs0mg"},{"bike_id":"4c6658a6-b64d-4c89-aeef-3941710f5f12","system_id":"levelo_inurba_marseille","lat":43.30524,"lon":5.36543,"is_reserved":false,"is_disabled":false,"rental_uris":{"android":"levelo://app?vid=4c6658a6-b64d-4c89-aeef-3941710f5f12","ios":"levelo://app?vid=4c6658a6-b64d-4c89-aeef-3941710f5f12"},"vehicle_type_id":"4","last_reported":1728752789,"current_range_meters":8800,"station_id":"ce4bgs12rcd13ifvqcag","pricing_plan_id":"cebpf4jnsgd1na2vs0mg"},{"bike_id":"dfc73125-20e9-4b72-9649-d06407fdb3a3","system_id":"levelo_inurba_marseille","lat":43.24649,"lon":5.38912,"is_reserved":false,"is_disabled":false,"rental_uris":{"android":"levelo://app?vid=dfc73125-20e9-4b72-9649-d06407fdb3a3","ios":"levelo://app?vid=dfc73125-20e9-4b72-9649-d06407fdb3a3"},"vehicle_type_id":"4","last_reported":1728752789,"current_range_meters":38800,"station_id":"ce4bhg12rcd13ifvqf60","pricing_plan_id":"cebpf4jnsgd1na2vs0mg"},{"bike_id":"480c36bc-dd66-41df-b09a-76735c76211b","system_id":"levelo_inurba_marseille","lat":43.27993,"lon":5.41669,"is_reserved":false,"is_disabled":false,"rental_uris":{"android":"levelo://app?vid=480c36bc-dd66-41df-b09a-76735c76211b","ios":"levelo://app?vid=480c36bc-dd66-41df-b09a-76735c76211b"},"vehicle_type_id":"4","last_reported":1728752789,"current_range_meters":38800,"station_id":"ce4bho12rcd13ifvqh1g","pricing_plan_id":"cebpf4jnsgd1na2vs0mg"},{"bike_id":"1dae633f-4c9d-4ac0-b2a6-1648e6545bd4","system_id":"levelo_inurba_marseille","lat":43.29843,"lon":5.36279,"is_reserved":false,"is_disabled":false,"rental_uris":{"android":"levelo://app?vid=1dae633f-4c9d-4ac0-b2a6-1648e6545bd4","ios":"levelo://app?vid=1dae633f-4c9d-4ac0-b2a6-1648e6545bd4"},"vehicle_type_id":"4","last_reported":1728752789,"current_range_meters":6400,"station_id":"ce4bgpp2rcd13ifvqc3g","pricing_plan_id":"cebpf4jnsgd1na2vs0mg"},{"bike_id":"199246b7-f548-4758-b731-952ce74330ea","system_id":"levelo_inurba_marseille","lat":43.30352,"lon":5.41884,"is_reserved":false,"is_disabled":false,"rental_uris":{"android":"levelo://app?vid=199246b7-f548-4758-b731-952ce74330ea","ios":"levelo://app?vid=199246b7-f548-4758-b731-952ce74330ea"},"vehicle_type_id":"4","last_reported":1728752789,"current_range_meters":6400,"station_id":"ce4bhop2rcd13ifvqh7g","pricing_plan_id":"cebpf4jnsgd1na2vs0mg"},{"bike_id":"b752b95e-bc09-4bd3-9695-1e3b1d4f2582","system_id":"levelo_inurba_marseille","lat":43.29616,"lon":5.37717,"is_reserved":false,"is_disabled":false,"rental_uris":{"android":"levelo://app?vid=b752b95e-bc09-4bd3-9695-1e3b1d4f2582","ios":"levelo://app?vid=b752b95e-bc09-4bd3-9695-1e3b1d4f2582"},"vehicle_type_id":"4","last_reported":1728752789,"current_range_meters":38800,"station_id":"ce4bgi92rcd13ifvqb90","pricing_plan_id":"cebpf4jnsgd1na2vs0mg"},{"bike_id":"3ef42292-5f8b-43cb-a0ec-0de8543cadff","system_id":"levelo_inurba_marseille","lat":43.33025,"lon":5.39036,"is_reserved":false,"is_disabled":false,"rental_uris":{"android":"levelo://app?vid=3ef42292-5f8b-43cb-a0ec-0de8543cadff","ios":"levelo://app?vid=3ef42292-5f8b-43cb-a0ec-0de8543cadff"},"vehicle_type_id":"4","last_reported":1728752789,"current_range_meters":38800,"station_id":"ce4bhr92rcd13ifvqhrg","pricing_plan_id":"cebpf4jnsgd1na2vs0mg"},{"bike_id":"f0d6fe18-2828-41dc-b6a9-1be4605394b6","system_id":"levelo_inurba_marseille","lat":43.2647,"lon":5.39557,"is_reserved":false,"is_disabled":false,"rental_uris":{"android":"levelo://app?vid=f0d6fe18-2828-41dc-b6a9-1be4605394b6","ios":"levelo://app?vid=f0d6fe18-2828-41dc-b6a9-1be4605394b6"},"vehicle_type_id":"4","last_reported":1728752789,"current_range_meters":8000,"station_id":"ce4bhi12rcd13ifvqfq0","pricing_plan_id":"cebpf4jnsgd1na2vs0mg"},{"bike_id":"61432fa4-e69a-43e1-a752-60da459a1e2e","system_id":"levelo_inurba_marseille","lat":43.33724,"lon":5.39188,"is_reserved":false,"is_disabled":false,"rental_uris":{"android":"levelo://app?vid=61432fa4-e69a-43e1-a752-60da459a1e2e","ios":"levelo://app?vid=61432fa4-e69a-43e1-a752-60da459a1e2e"},"vehicle_type_id":"4","last_reported":1728752789,"current_range_meters":36400,"station_id":"ce4bhr92rcd13ifvqhsg","pricing_plan_id":"cebpf4jnsgd1na2vs0mg"},{"bike_id":"53fa5faf-ab43-4ad1-a775-03c050230e6f","system_id":"levelo_inurba_marseille","lat":43.29709,"lon":5.36611,"is_reserved":false,"is_disabled":false,"rental_uris":{"android":"levelo://app?vid=53fa5faf-ab43-4ad1-a775-03c050230e6f","ios":"levelo://app?vid=53fa5faf-ab43-4ad1-a775-03c050230e6f"},"vehicle_type_id":"4","last_reported":1728752789,"current_range_meters":32800,"station_id":"ce4bgn12rcd13ifvqbt0","pricing_plan_id":"cebpf4jnsgd1na2vs0mg"},{"bike_id":"a90654db-3665-41e3-a4fc-aec2b91481af","system_id":"levelo_inurba_marseille","lat":43.30779,"lon":5.3766,"is_reserved":false,"is_disabled":false,"rental_uris":{"android":"levelo://app?vid=a90654db-3665-41e3-a4fc-aec2b91481af","ios":"levelo://app?vid=a90654db-3665-41e3-a4fc-aec2b91481af"},"vehicle_type_id":"4","last_reported":1728752789,"current_range_meters":27200,"station_id":"ce4bgv92rcd13ifvqcq0","pricing_plan_id":"cebpf4jnsgd1na2vs0mg"},{"bike_id":"5478a3d2-c2ee-4a89-aa83-e762ee9240f8","system_id":"levelo_inurba_marseille","lat":43.26943,"lon":5.40255,"is_reserved":false,"is_disabled":false,"rental_uris":{"android":"levelo://app?vid=5478a3d2-c2ee-4a89-aa83-e762ee9240f8","ios":"levelo://app?vid=5478a3d2-c2ee-4a89-aa83-e762ee9240f8"},"vehicle_type_id":"4","last_reported":1728752789,"current_range_meters":32400,"station_id":"cjm6bp8fraef2m0cb0m0","pricing_plan_id":"cebpf4jnsgd1na2vs0mg"},{"bike_id":"af965d61-9088-4807-915b-ea32923e4324","system_id":"levelo_inurba_marseille","lat":43.29727,"lon":5.37682,"is_reserved":false,"is_disabled":false,"rental_uris":{"android":"levelo://app?vid=af965d61-9088-4807-915b-ea32923e4324","ios":"levelo://app?vid=af965d61-9088-4807-915b-ea32923e4324"},"vehicle_type_id":"4","last_reported":1728752789,"current_range_meters":36800,"station_id":"ce4bgkh2rcd13ifvqbl0","pricing_plan_id":"cebpf4jnsgd1na2vs0mg"},{"bike_id":"c5c33660-077d-4f97-b2f0-40691ac09116","system_id":"levelo_inurba_marseille","lat":43.24393,"lon":5.3707,"is_reserved":false,"is_disabled":false,"rental_uris":{"android":"levelo://app?vid=c5c33660-077d-4f97-b2f0-40691ac09116","ios":"levelo://app?vid=c5c33660-077d-4f97-b2f0-40691ac09116"},"vehicle_type_id":"4","last_reported":1728752789,"current_range_meters":36800,"station_id":"ce4bhhh2rcd13ifvqfk0","pricing_plan_id":"cebpf4jnsgd1na2vs0mg"},{"bike_id":"64e057ba-2184-40c1-bdce-67efede39aa4","system_id":"levelo_inurba_marseille","lat":43.26679,"lon":5.38275,"is_reserved":false,"is_disabled":false,"rental_uris":{"android":"levelo://app?vid=64e057ba-2184-40c1-bdce-67efede39aa4","ios":"levelo://app?vid=64e057ba-2184-40c1-bdce-67efede39aa4"},"vehicle_type_id":"4","last_reported":1728752789,"current_range_meters":8000,"station_id":"ce4bhg92rcd13ifvqf90","pricing_plan_id":"cebpf4jnsgd1na2vs0mg"},{"bike_id":"931d1f9c-4cb2-40a2-a856-914a1c55fcf3","system_id":"levelo_inurba_marseille","lat":43.24566,"lon":5.41666,"is_reserved":false,"is_disabled":false,"rental_uris":{"android":"levelo://app?vid=931d1f9c-4cb2-40a2-a856-914a1c55fcf3","ios":"levelo://app?vid=931d1f9c-4cb2-40a2-a856-914a1c55fcf3"},"vehicle_type_id":"4","last_reported":1728752789,"current_range_meters":10800,"station_id":"","pricing_plan_id":"cebpf4jnsgd1na2vs0mg"},{"bike_id":"e51f91c9-8e14-43ed-b072-47750bea3062","system_id":"levelo_inurba_marseille","lat":43.29577,"lon":5.36749,"is_reserved":false,"is_disabled":false,"rental_uris":{"android":"levelo://app?vid=e51f91c9-8e14-43ed-b072-47750bea3062","ios":"levelo://app?vid=e51f91c9-8e14-43ed-b072-47750bea3062"},"vehicle_type_id":"4","last_reported":1728752789,"current_range_meters":12800,"station_id":"ce4bgph2rcd13ifvqc2g","pricing_plan_id":"cebpf4jnsgd1na2vs0mg"},{"bike_id":"3e60b11f-d675-430d-9979-c4e64a7c6c68","system_id":"levelo_inurba_marseille","lat":43.29609,"lon":5.37173,"is_reserved":false,"is_disabled":false,"rental_uris":{"android":"levelo://app?vid=3e60b11f-d675-430d-9979-c4e64a7c6c68","ios":"levelo://app?vid=3e60b11f-d675-430d-9979-c4e64a7c6c68"},"vehicle_type_id":"4","last_reported":1728752789,"current_range_meters":24400,"station_id":"ce4bgnh2rcd13ifvqc0g","pricing_plan_id":"cebpf4jnsgd1na2vs0mg"},{"bike_id":"7467bc71-2591-464b-8f46-01ff50b3730e","system_id":"levelo_inurba_marseille","lat":43.2957,"lon":5.37516,"is_reserved":false,"is_disabled":false,"rental_uris":{"android":"levelo://app?vid=7467bc71-2591-464b-8f46-01ff50b3730e","ios":"levelo://app?vid=7467bc71-2591-464b-8f46-01ff50b3730e"},"vehicle_type_id":"4","last_reported":1728752789,"current_range_meters":38800,"station_id":"ce4bgh92rcd13ifvqb50","pricing_plan_id":"cebpf4jnsgd1na2vs0mg"},{"bike_id":"13f81a24-2de7-42a3-8c49-a41fd52c7948","system_id":"levelo_inurba_marseille","lat":43.30091,"lon":5.39079,"is_reserved":false,"is_disabled":false,"rental_uris":{"android":"levelo://app?vid=13f81a24-2de7-42a3-8c49-a41fd52c7948","ios":"levelo://app?vid=13f81a24-2de7-42a3-8c49-a41fd52c7948"},"vehicle_type_id":"4","last_reported":1728752789,"current_range_meters":30800,"station_id":"ce4bh192rcd13ifvqdb0","pricing_plan_id":"cebpf4jnsgd1na2vs0mg"},{"bike_id":"fec3cf10-c0c1-439b-9ad0-5bbc387c9fb3","system_id":"levelo_inurba_marseille","lat":43.28346,"lon":5.38112,"is_reserved":false,"is_disabled":false,"rental_uris":{"android":"levelo://app?vid=fec3cf10-c0c1-439b-9ad0-5bbc387c9fb3","ios":"levelo://app?vid=fec3cf10-c0c1-439b-9ad0-5bbc387c9fb3"},"vehicle_type_id":"4","last_reported":1728752789,"current_range_meters":19200,"station_id":"ce4bh412rcd13ifvqdr0","pricing_plan_id":"cebpf4jnsgd1na2vs0mg"},{"bike_id":"0de0711e-04df-48ec-9be5-aa95798b911c","system_id":"levelo_inurba_marseille","lat":43.28934,"lon":5.36645,"is_reserved":false,"is_disabled":false,"rental_uris":{"android":"levelo://app?vid=0de0711e-04df-48ec-9be5-aa95798b911c","ios":"levelo://app?vid=0de0711e-04df-48ec-9be5-aa95798b911c"},"vehicle_type_id":"4","last_reported":1728752789,"current_range_meters":6000,"station_id":"ce4bhap2rcd13ifvqek0","pricing_plan_id":"cebpf4jnsgd1na2vs0mg"},{"bike_id":"1febb8de-ed84-407d-a8c3-e7bd3a628508","system_id":"levelo_inurba_marseille","lat":43.24388,"lon":5.37062,"is_reserved":false,"is_disabled":false,"rental_uris":{"android":"levelo://app?vid=1febb8de-ed84-407d-a8c3-e7bd3a628508","ios":"levelo://app?vid=1febb8de-ed84-407d-a8c3-e7bd3a628508"},"vehicle_type_id":"4","last_reported":1728752789,"current_range_meters":37600,"station_id":"ce4bhhh2rcd13ifvqfk0","pricing_plan_id":"cebpf4jnsgd1na2vs0mg"},{"bike_id":"94c4912e-eac6-4ca2-ae8f-ac2fad25a3fd","system_id":"levelo_inurba_marseille","lat":43.25114,"lon":5.40322,"is_reserved":false,"is_disabled":false,"rental_uris":{"android":"levelo://app?vid=94c4912e-eac6-4ca2-ae8f-ac2fad25a3fd","ios":"levelo://app?vid=94c4912e-eac6-4ca2-ae8f-ac2fad25a3fd"},"vehicle_type_id":"4","last_reported":1728752789,"current_range_meters":19600,"station_id":"ce4bhlh2rcd13ifvqgig","pricing_plan_id":"cebpf4jnsgd1na2vs0mg"},{"bike_id":"4551742e-7f71-430b-8996-f78d99237d01","system_id":"levelo_inurba_marseille","lat":43.27608,"lon":5.36124,"is_reserved":false,"is_disabled":false,"rental_uris":{"android":"levelo://app?vid=4551742e-7f71-430b-8996-f78d99237d01","ios":"levelo://app?vid=4551742e-7f71-430b-8996-f78d99237d01"},"vehicle_type_id":"4","last_reported":1728752789,"current_range_meters":30000,"station_id":"ce4bgj92rcd13ifvqbe0","pricing_plan_id":"cebpf4jnsgd1na2vs0mg"},{"bike_id":"3d56fd43-7f3a-478f-a81b-fba7289193d9","system_id":"levelo_inurba_marseille","lat":43.27991,"lon":5.41664,"is_reserved":false,"is_disabled":false,"rental_uris":{"android":"levelo://app?vid=3d56fd43-7f3a-478f-a81b-fba7289193d9","ios":"levelo://app?vid=3d56fd43-7f3a-478f-a81b-fba7289193d9"},"vehicle_type_id":"4","last_reported":1728752789,"current_range_meters":24000,"station_id":"ce4bho12rcd13ifvqh1g","pricing_plan_id":"cebpf4jnsgd1na2vs0mg"},{"bike_id":"9d0f36cf-8bc6-4fdb-8a42-87ab259e208c","system_id":"levelo_inurba_marseille","lat":43.31059,"lon":5.38347,"is_reserved":false,"is_disabled":false,"rental_uris":{"android":"levelo://app?vid=9d0f36cf-8bc6-4fdb-8a42-87ab259e208c","ios":"levelo://app?vid=9d0f36cf-8bc6-4fdb-8a42-87ab259e208c"},"vehicle_type_id":"4","last_reported":1728752789,"current_range_meters":28400,"station_id":"ce4bgv92rcd13ifvqcr0","pricing_plan_id":"cebpf4jnsgd1na2vs0mg"},{"bike_id":"224d1d37-2e98-4c03-a7e1-e08865201882","system_id":"levelo_inurba_marseille","lat":43.28461,"lon":5.38432,"is_reserved":false,"is_disabled":false,"rental_uris":{"android":"levelo://app?vid=224d1d37-2e98-4c03-a7e1-e08865201882","ios":"levelo://app?vid=224d1d37-2e98-4c03-a7e1-e08865201882"},"vehicle_type_id":"4","last_reported":1728752789,"current_range_meters":36000,"station_id":"ce4bh512rcd13ifvqe3g","pricing_plan_id":"cebpf4jnsgd1na2vs0mg"},{"bike_id":"e765ecd5-a765-426f-9f71-b8c6fe2c823e","system_id":"levelo_inurba_marseille","lat":43.27619,"lon":5.36116,"is_reserved":false,"is_disabled":false,"rental_uris":{"android":"levelo://app?vid=e765ecd5-a765-426f-9f71-b8c6fe2c823e","ios":"levelo://app?vid=e765ecd5-a765-426f-9f71-b8c6fe2c823e"},"vehicle_type_id":"4","last_reported":1728752789,"current_range_meters":4400,"station_id":"ce4bgj92rcd13ifvqbe0","pricing_plan_id":"cebpf4jnsgd1na2vs0mg"},{"bike_id":"816b26a3-73c2-46bb-8c0e-15f2dd381289","system_id":"levelo_inurba_marseille","lat":43.2955,"lon":5.42289,"is_reserved":false,"is_disabled":false,"rental_uris":{"android":"levelo://app?vid=816b26a3-73c2-46bb-8c0e-15f2dd381289","ios":"levelo://app?vid=816b26a3-73c2-46bb-8c0e-15f2dd381289"},"vehicle_type_id":"4","last_reported":1728752789,"current_range_meters":18000,"station_id":"ce4bhph2rcd13ifvqhdg","pricing_plan_id":"cebpf4jnsgd1na2vs0mg"},{"bike_id":"dd26c2c0-4031-49f7-afde-18a02cce525c","system_id":"levelo_inurba_marseille","lat":43.24074,"lon":5.37756,"is_reserved":false,"is_disabled":false,"rental_uris":{"android":"levelo://app?vid=dd26c2c0-4031-49f7-afde-18a02cce525c","ios":"levelo://app?vid=dd26c2c0-4031-49f7-afde-18a02cce525c"},"vehicle_type_id":"4","last_reported":1728752789,"current_range_meters":34000,"station_id":"ce4bhnp2rcd13ifvqgvg","pricing_plan_id":"cebpf4jnsgd1na2vs0mg"},{"bike_id":"86851483-6460-4f2a-8d92-b3b47e5c55aa","system_id":"levelo_inurba_marseille","lat":43.23956,"lon":5.36645,"is_reserved":false,"is_disabled":false,"rental_uris":{"android":"levelo://app?vid=86851483-6460-4f2a-8d92-b3b47e5c55aa","ios":"levelo://app?vid=86851483-6460-4f2a-8d92-b3b47e5c55aa"},"vehicle_type_id":"4","last_reported":1728752789,"current_range_meters":39200,"station_id":"ce4bhi12rcd13ifvqfp0","pricing_plan_id":"cebpf4jnsgd1na2vs0mg"},{"bike_id":"900d410e-a263-4441-80a1-af67345a66d2","system_id":"levelo_inurba_marseille","lat":43.24385,"lon":5.37072,"is_reserved":false,"is_disabled":false,"rental_uris":{"android":"levelo://app?vid=900d410e-a263-4441-80a1-af67345a66d2","ios":"levelo://app?vid=900d410e-a263-4441-80a1-af67345a66d2"},"vehicle_type_id":"4","last_reported":1728752789,"current_range_meters":22800,"station_id":"ce4bhhh2rcd13ifvqfk0","pricing_plan_id":"cebpf4jnsgd1na2vs0mg"},{"bike_id":"93cf6e6a-b59b-4d63-9a00-c25bf3ea1f05","system_id":"levelo_inurba_marseille","lat":43.29895,"lon":5.43668,"is_reserved":false,"is_disabled":false,"rental_uris":{"android":"levelo://app?vid=93cf6e6a-b59b-4d63-9a00-c25bf3ea1f05","ios":"levelo://app?vid=93cf6e6a-b59b-4d63-9a00-c25bf3ea1f05"},"vehicle_type_id":"4","last_reported":1728752789,"current_range_meters":40000,"station_id":"ce4bhpp2rcd13ifvqhfg","pricing_plan_id":"cebpf4jnsgd1na2vs0mg"},{"bike_id":"f8e0d7fe-c882-4bde-99c8-563454686a55","system_id":"levelo_inurba_marseille","lat":43.25081,"lon":5.39517,"is_reserved":false,"is_disabled":false,"rental_uris":{"android":"levelo://app?vid=f8e0d7fe-c882-4bde-99c8-563454686a55","ios":"levelo://app?vid=f8e0d7fe-c882-4bde-99c8-563454686a55"},"vehicle_type_id":"4","last_reported":1728752789,"current_range_meters":22800,"station_id":"ce4bhm12rcd13ifvqgkg","pricing_plan_id":"cebpf4jnsgd1na2vs0mg"},{"bike_id":"715a27b7-59c5-4d1b-a0dd-06f21d803df4","system_id":"levelo_inurba_marseille","lat":43.26944,"lon":5.38643,"is_reserved":false,"is_disabled":false,"rental_uris":{"android":"levelo://app?vid=715a27b7-59c5-4d1b-a0dd-06f21d803df4","ios":"levelo://app?vid=715a27b7-59c5-4d1b-a0dd-06f21d803df4"},"vehicle_type_id":"4","last_reported":1728752789,"current_range_meters":39200,"station_id":"ce4bhh92rcd13ifvqfh0","pricing_plan_id":"cebpf4jnsgd1na2vs0mg"},{"bike_id":"ee3d77b2-c4c3-417a-8170-d8edb7edeab8","system_id":"levelo_inurba_marseille","lat":43.22934,"lon":5.35381,"is_reserved":false,"is_disabled":false,"rental_uris":{"android":"levelo://app?vid=ee3d77b2-c4c3-417a-8170-d8edb7edeab8","ios":"levelo://app?vid=ee3d77b2-c4c3-417a-8170-d8edb7edeab8"},"vehicle_type_id":"4","last_reported":1728752789,"current_range_meters":11200,"station_id":"cpo3532slgdg3j2ikp40","pricing_plan_id":"cebpf4jnsgd1na2vs0mg"},{"bike_id":"9f2f2e90-d3fa-4209-a863-0d2cf290bd84","system_id":"levelo_inurba_marseille","lat":43.30878,"lon":5.39648,"is_reserved":false,"is_disabled":false,"rental_uris":{"android":"levelo://app?vid=9f2f2e90-d3fa-4209-a863-0d2cf290bd84","ios":"levelo://app?vid=9f2f2e90-d3fa-4209-a863-0d2cf290bd84"},"vehicle_type_id":"4","last_reported":1728752789,"current_range_meters":18000,"station_id":"ce4bh012rcd13ifvqcv0","pricing_plan_id":"cebpf4jnsgd1na2vs0mg"},{"bike_id":"2da47fa8-2588-46f4-9b6e-5c0807725c5e","system_id":"levelo_inurba_marseille","lat":43.2848,"lon":5.38416,"is_reserved":false,"is_disabled":false,"rental_uris":{"android":"levelo://app?vid=2da47fa8-2588-46f4-9b6e-5c0807725c5e","ios":"levelo://app?vid=2da47fa8-2588-46f4-9b6e-5c0807725c5e"},"vehicle_type_id":"4","last_reported":1728752789,"current_range_meters":8800,"station_id":"ce4bh512rcd13ifvqe3g","pricing_plan_id":"cebpf4jnsgd1na2vs0mg"},{"bike_id":"9f0f7dd8-b3fe-4a72-80da-9359e3ea8ed1","system_id":"levelo_inurba_marseille","lat":43.27941,"lon":5.41053,"is_reserved":false,"is_disabled":false,"rental_uris":{"android":"levelo://app?vid=9f0f7dd8-b3fe-4a72-80da-9359e3ea8ed1","ios":"levelo://app?vid=9f0f7dd8-b3fe-4a72-80da-9359e3ea8ed1"},"vehicle_type_id":"4","last_reported":1728752789,"current_range_meters":16800,"station_id":"ce4bhnp2rcd13ifvqh0g","pricing_plan_id":"cebpf4jnsgd1na2vs0mg"},{"bike_id":"59337b9f-8c74-4938-b5cf-c56f4c4b2077","system_id":"levelo_inurba_marseille","lat":43.24806,"lon":5.37454,"is_reserved":false,"is_disabled":false,"rental_uris":{"android":"levelo://app?vid=59337b9f-8c74-4938-b5cf-c56f4c4b2077","ios":"levelo://app?vid=59337b9f-8c74-4938-b5cf-c56f4c4b2077"},"vehicle_type_id":"4","last_reported":1728752789,"current_range_meters":28000,"station_id":"ce4bhgh2rcd13ifvqfb0","pricing_plan_id":"cebpf4jnsgd1na2vs0mg"},{"bike_id":"862222f0-8185-489d-b301-ffffabb4511c","system_id":"levelo_inurba_marseille","lat":43.30535,"lon":5.36706,"is_reserved":false,"is_disabled":false,"rental_uris":{"android":"levelo://app?vid=862222f0-8185-489d-b301-ffffabb4511c","ios":"levelo://app?vid=862222f0-8185-489d-b301-ffffabb4511c"},"vehicle_type_id":"4","last_reported":1728752789,"current_range_meters":38800,"station_id":"ce4bgrp2rcd13ifvqc9g","pricing_plan_id":"cebpf4jnsgd1na2vs0mg"},{"bike_id":"bc0f52d5-4b8d-4288-a3f2-8a743f110fe6","system_id":"levelo_inurba_marseille","lat":43.26565,"lon":5.39019,"is_reserved":false,"is_disabled":false,"rental_uris":{"android":"levelo://app?vid=bc0f52d5-4b8d-4288-a3f2-8a743f110fe6","ios":"levelo://app?vid=bc0f52d5-4b8d-4288-a3f2-8a743f110fe6"},"vehicle_type_id":"4","last_reported":1728752789,"current_range_meters":14000,"station_id":"ce4bhe12rcd13ifvqf30","pricing_plan_id":"cebpf4jnsgd1na2vs0mg"},{"bike_id":"5dbc7dcc-9d48-4fd7-8ea7-69f4e7ca2466","system_id":"levelo_inurba_marseille","lat":43.26551,"lon":5.37286,"is_reserved":false,"is_disabled":false,"rental_uris":{"android":"levelo://app?vid=5dbc7dcc-9d48-4fd7-8ea7-69f4e7ca2466","ios":"levelo://app?vid=5dbc7dcc-9d48-4fd7-8ea7-69f4e7ca2466"},"vehicle_type_id":"4","last_reported":1728752789,"current_range_meters":38800,"station_id":"ce4bhg12rcd13ifvqf70","pricing_plan_id":"cebpf4jnsgd1na2vs0mg"},{"bike_id":"caac0ae9-97a5-4abe-bfc2-b67d3e720f3d","system_id":"levelo_inurba_marseille","lat":43.2962,"lon":5.3717,"is_reserved":false,"is_disabled":false,"rental_uris":{"android":"levelo://app?vid=caac0ae9-97a5-4abe-bfc2-b67d3e720f3d","ios":"levelo://app?vid=caac0ae9-97a5-4abe-bfc2-b67d3e720f3d"},"vehicle_type_id":"4","last_reported":1728752789,"current_range_meters":28400,"station_id":"ce4bgnh2rcd13ifvqc0g","pricing_plan_id":"cebpf4jnsgd1na2vs0mg"},{"bike_id":"8dd78ca9-9222-49e2-ae71-45c00c5ac4e2","system_id":"levelo_inurba_marseille","lat":43.27375,"lon":5.36267,"is_reserved":false,"is_disabled":false,"rental_uris":{"android":"levelo://app?vid=8dd78ca9-9222-49e2-ae71-45c00c5ac4e2","ios":"levelo://app?vid=8dd78ca9-9222-49e2-ae71-45c00c5ac4e2"},"vehicle_type_id":"4","last_reported":1728752789,"current_range_meters":32400,"station_id":"ce4bhbh2rcd13ifvqeo0","pricing_plan_id":"cebpf4jnsgd1na2vs0mg"},{"bike_id":"a751214b-619f-4483-a2f5-200322f27979","system_id":"levelo_inurba_marseille","lat":43.29841,"lon":5.36266,"is_reserved":false,"is_disabled":false,"rental_uris":{"android":"levelo://app?vid=a751214b-619f-4483-a2f5-200322f27979","ios":"levelo://app?vid=a751214b-619f-4483-a2f5-200322f27979"},"vehicle_type_id":"4","last_reported":1728752789,"current_range_meters":16400,"station_id":"ce4bgpp2rcd13ifvqc3g","pricing_plan_id":"cebpf4jnsgd1na2vs0mg"},{"bike_id":"fa1be27d-8b16-4fc7-b2dd-84282e045451","system_id":"levelo_inurba_marseille","lat":43.30135,"lon":5.37431,"is_reserved":false,"is_disabled":false,"rental_uris":{"android":"levelo://app?vid=fa1be27d-8b16-4fc7-b2dd-84282e045451","ios":"levelo://app?vid=fa1be27d-8b16-4fc7-b2dd-84282e045451"},"vehicle_type_id":"4","last_reported":1728752789,"current_range_meters":25200,"station_id":"ce4bgs92rcd13ifvqcc0","pricing_plan_id":"cebpf4jnsgd1na2vs0mg"},{"bike_id":"c4438550-3e89-4323-8d99-6c9320a5caf4","system_id":"levelo_inurba_marseille","lat":43.3014,"lon":5.38063,"is_reserved":false,"is_disabled":false,"rental_uris":{"android":"levelo://app?vid=c4438550-3e89-4323-8d99-6c9320a5caf4","ios":"levelo://app?vid=c4438550-3e89-4323-8d99-6c9320a5caf4"},"vehicle_type_id":"4","last_reported":1728752789,"current_range_meters":34000,"station_id":"ce4bgjp2rcd13ifvqbh0","pricing_plan_id":"cebpf4jnsgd1na2vs0mg"},{"bike_id":"8a5ffb17-fa73-40f5-96f5-db0a9cac97cd","system_id":"levelo_inurba_marseille","lat":43.29707,"lon":5.36615,"is_reserved":false,"is_disabled":false,"rental_uris":{"android":"levelo://app?vid=8a5ffb17-fa73-40f5-96f5-db0a9cac97cd","ios":"levelo://app?vid=8a5ffb17-fa73-40f5-96f5-db0a9cac97cd"},"vehicle_type_id":"4","last_reported":1728752789,"current_range_meters":16800,"station_id":"ce4bgn12rcd13ifvqbt0","pricing_plan_id":"cebpf4jnsgd1na2vs0mg"},{"bike_id":"daeab944-730c-42db-95f4-1b4413543e31","system_id":"levelo_inurba_marseille","lat":43.244812,"lon":5.39579,"is_reserved":false,"is_disabled":false,"rental_uris":{"android":"levelo://app?vid=daeab944-730c-42db-95f4-1b4413543e31","ios":"levelo://app?vid=daeab944-730c-42db-95f4-1b4413543e31"},"vehicle_type_id":"4","last_reported":1728752789,"current_range_meters":8400,"station_id":"ce4bhlp2rcd13ifvqgjg","pricing_plan_id":"cebpf4jnsgd1na2vs0mg"},{"bike_id":"1f1319e5-4702-4f88-906e-39a6240bb97c","system_id":"levelo_inurba_marseille","lat":43.29063,"lon":5.37159,"is_reserved":false,"is_disabled":false,"rental_uris":{"android":"levelo://app?vid=1f1319e5-4702-4f88-906e-39a6240bb97c","ios":"levelo://app?vid=1f1319e5-4702-4f88-906e-39a6240bb97c"},"vehicle_type_id":"4","last_reported":1728752789,"current_range_meters":9200,"station_id":"ce4bh5p2rcd13ifvqe4g","pricing_plan_id":"cebpf4jnsgd1na2vs0mg"},{"bike_id":"da9b31ee-43b4-4389-85de-211de3ba1c9a","system_id":"levelo_inurba_marseille","lat":43.24651,"lon":5.38903,"is_reserved":false,"is_disabled":false,"rental_uris":{"android":"levelo://app?vid=da9b31ee-43b4-4389-85de-211de3ba1c9a","ios":"levelo://app?vid=da9b31ee-43b4-4389-85de-211de3ba1c9a"},"vehicle_type_id":"4","last_reported":1728752789,"current_range_meters":28000,"station_id":"ce4bhg12rcd13ifvqf60","pricing_plan_id":"cebpf4jnsgd1na2vs0mg"},{"bike_id":"94b5b3e5-1466-4cd8-b5b3-d5cbebabce80","system_id":"levelo_inurba_marseille","lat":43.23962,"lon":5.36638,"is_reserved":false,"is_disabled":false,"rental_uris":{"android":"levelo://app?vid=94b5b3e5-1466-4cd8-b5b3-d5cbebabce80","ios":"levelo://app?vid=94b5b3e5-1466-4cd8-b5b3-d5cbebabce80"},"vehicle_type_id":"4","last_reported":1728752789,"current_range_meters":11200,"station_id":"ce4bhi12rcd13ifvqfp0","pricing_plan_id":"cebpf4jnsgd1na2vs0mg"},{"bike_id":"7f0a376b-7a52-471a-aa1d-d0872b6ef77d","system_id":"levelo_inurba_marseille","lat":43.29269,"lon":5.36843,"is_reserved":false,"is_disabled":false,"rental_uris":{"android":"levelo://app?vid=7f0a376b-7a52-471a-aa1d-d0872b6ef77d","ios":"levelo://app?vid=7f0a376b-7a52-471a-aa1d-d0872b6ef77d"},"vehicle_type_id":"4","last_reported":1728752789,"current_range_meters":22000,"station_id":"ce4bhbp2rcd13ifvqesg","pricing_plan_id":"cebpf4jnsgd1na2vs0mg"},{"bike_id":"c5675f9c-0a26-411d-9f36-379bac3614a9","system_id":"levelo_inurba_marseille","lat":43.30176,"lon":5.36616,"is_reserved":false,"is_disabled":false,"rental_uris":{"android":"levelo://app?vid=c5675f9c-0a26-411d-9f36-379bac3614a9","ios":"levelo://app?vid=c5675f9c-0a26-411d-9f36-379bac3614a9"},"vehicle_type_id":"4","last_reported":1728752789,"current_range_meters":14400,"station_id":"ce4bgrh2rcd13ifvqc8g","pricing_plan_id":"cebpf4jnsgd1na2vs0mg"},{"bike_id":"f5f1fea7-f98e-4827-8f7f-0e913fc3a121","system_id":"levelo_inurba_marseille","lat":43.28835,"lon":5.39335,"is_reserved":false,"is_disabled":false,"rental_uris":{"android":"levelo://app?vid=f5f1fea7-f98e-4827-8f7f-0e913fc3a121","ios":"levelo://app?vid=f5f1fea7-f98e-4827-8f7f-0e913fc3a121"},"vehicle_type_id":"4","last_reported":1728752789,"current_range_meters":38800,"station_id":"ce4bh2p2rcd13ifvqdi0","pricing_plan_id":"cebpf4jnsgd1na2vs0mg"},{"bike_id":"cd465a35-4ab2-4fd5-94d2-0897abb9a3c3","system_id":"levelo_inurba_marseille","lat":43.30959,"lon":5.39036,"is_reserved":false,"is_disabled":false,"rental_uris":{"android":"levelo://app?vid=cd465a35-4ab2-4fd5-94d2-0897abb9a3c3","ios":"levelo://app?vid=cd465a35-4ab2-4fd5-94d2-0897abb9a3c3"},"vehicle_type_id":"4","last_reported":1728752789,"current_range_meters":26800,"station_id":"ce4bgup2rcd13ifvqco0","pricing_plan_id":"cebpf4jnsgd1na2vs0mg"},{"bike_id":"2fd3fc85-901e-4125-9eb8-61951126a742","system_id":"levelo_inurba_marseille","lat":43.24079,"lon":5.37763,"is_reserved":false,"is_disabled":false,"rental_uris":{"android":"levelo://app?vid=2fd3fc85-901e-4125-9eb8-61951126a742","ios":"levelo://app?vid=2fd3fc85-901e-4125-9eb8-61951126a742"},"vehicle_type_id":"4","last_reported":1728752789,"current_range_meters":14400,"station_id":"ce4bhnp2rcd13ifvqgvg","pricing_plan_id":"cebpf4jnsgd1na2vs0mg"},{"bike_id":"2e4332d3-2239-45a2-8c0f-08f6cf4189b8","system_id":"levelo_inurba_marseille","lat":43.2869,"lon":5.37395,"is_reserved":false,"is_disabled":false,"rental_uris":{"android":"levelo://app?vid=2e4332d3-2239-45a2-8c0f-08f6cf4189b8","ios":"levelo://app?vid=2e4332d3-2239-45a2-8c0f-08f6cf4189b8"},"vehicle_type_id":"4","last_reported":1728752789,"current_range_meters":12000,"station_id":"ce4bh3p2rcd13ifvqdq0","pricing_plan_id":"cebpf4jnsgd1na2vs0mg"},{"bike_id":"c97f0fc9-bbd6-43ca-8546-b19913f1a0c0","system_id":"levelo_inurba_marseille","lat":43.29561,"lon":5.37521,"is_reserved":false,"is_disabled":false,"rental_uris":{"android":"levelo://app?vid=c97f0fc9-bbd6-43ca-8546-b19913f1a0c0","ios":"levelo://app?vid=c97f0fc9-bbd6-43ca-8546-b19913f1a0c0"},"vehicle_type_id":"4","last_reported":1728752789,"current_range_meters":38800,"station_id":"ce4bgh92rcd13ifvqb50","pricing_plan_id":"cebpf4jnsgd1na2vs0mg"},{"bike_id":"25ed2710-8c35-44e6-81fd-8fc7cf6b54a8","system_id":"levelo_inurba_marseille","lat":43.274948,"lon":5.424466,"is_reserved":false,"is_disabled":false,"rental_uris":{"android":"levelo://app?vid=25ed2710-8c35-44e6-81fd-8fc7cf6b54a8","ios":"levelo://app?vid=25ed2710-8c35-44e6-81fd-8fc7cf6b54a8"},"vehicle_type_id":"4","last_reported":1728752789,"current_range_meters":24800,"station_id":"ce4bhn92rcd13ifvqgrg","pricing_plan_id":"cebpf4jnsgd1na2vs0mg"},{"bike_id":"e8dad087-0e79-4a71-a9b8-a450539a630d","system_id":"levelo_inurba_marseille","lat":43.29008,"lon":5.35606,"is_reserved":false,"is_disabled":false,"rental_uris":{"android":"levelo://app?vid=e8dad087-0e79-4a71-a9b8-a450539a630d","ios":"levelo://app?vid=e8dad087-0e79-4a71-a9b8-a450539a630d"},"vehicle_type_id":"4","last_reported":1728752789,"current_range_meters":24000,"station_id":"ce4bhb92rcd13ifvqen0","pricing_plan_id":"cebpf4jnsgd1na2vs0mg"},{"bike_id":"30cc5437-e664-4a73-abaa-32865f760a88","system_id":"levelo_inurba_marseille","lat":43.29267,"lon":5.38443,"is_reserved":false,"is_disabled":false,"rental_uris":{"android":"levelo://app?vid=30cc5437-e664-4a73-abaa-32865f760a88","ios":"levelo://app?vid=30cc5437-e664-4a73-abaa-32865f760a88"},"vehicle_type_id":"4","last_reported":1728752789,"current_range_meters":6000,"station_id":"ce4bh692rcd13ifvqea0","pricing_plan_id":"cebpf4jnsgd1na2vs0mg"},{"bike_id":"c41326f3-e028-4cf7-8f44-eddb6fe840c6","system_id":"levelo_inurba_marseille","lat":43.299594,"lon":5.386089,"is_reserved":false,"is_disabled":false,"rental_uris":{"android":"levelo://app?vid=c41326f3-e028-4cf7-8f44-eddb6fe840c6","ios":"levelo://app?vid=c41326f3-e028-4cf7-8f44-eddb6fe840c6"},"vehicle_type_id":"4","last_reported":1728752789,"current_range_meters":34000,"station_id":"ce4bgj92rcd13ifvqbd0","pricing_plan_id":"cebpf4jnsgd1na2vs0mg"},{"bike_id":"42fcb9ea-9b6e-4c76-bdd9-ed276ae24c84","system_id":"levelo_inurba_marseille","lat":43.26949,"lon":5.3863,"is_reserved":false,"is_disabled":false,"rental_uris":{"android":"levelo://app?vid=42fcb9ea-9b6e-4c76-bdd9-ed276ae24c84","ios":"levelo://app?vid=42fcb9ea-9b6e-4c76-bdd9-ed276ae24c84"},"vehicle_type_id":"4","last_reported":1728752789,"current_range_meters":20800,"station_id":"ce4bhh92rcd13ifvqfh0","pricing_plan_id":"cebpf4jnsgd1na2vs0mg"},{"bike_id":"421fa21c-9e44-4635-8cc9-ee0082d77a17","system_id":"levelo_inurba_marseille","lat":43.28716,"lon":5.37948,"is_reserved":false,"is_disabled":false,"rental_uris":{"android":"levelo://app?vid=421fa21c-9e44-4635-8cc9-ee0082d77a17","ios":"levelo://app?vid=421fa21c-9e44-4635-8cc9-ee0082d77a17"},"vehicle_type_id":"4","last_reported":1728752789,"current_range_meters":8000,"station_id":"ce4bh9p2rcd13ifvqec0","pricing_plan_id":"cebpf4jnsgd1na2vs0mg"},{"bike_id":"b4af9981-9298-42ac-91ac-9e7ecd368d3e","system_id":"levelo_inurba_marseille","lat":43.29264,"lon":5.38445,"is_reserved":false,"is_disabled":false,"rental_uris":{"android":"levelo://app?vid=b4af9981-9298-42ac-91ac-9e7ecd368d3e","ios":"levelo://app?vid=b4af9981-9298-42ac-91ac-9e7ecd368d3e"},"vehicle_type_id":"4","last_reported":1728752789,"current_range_meters":10800,"station_id":"ce4bh692rcd13ifvqea0","pricing_plan_id":"cebpf4jnsgd1na2vs0mg"},{"bike_id":"e266114d-389b-4e86-bb41-f347240eafe0","system_id":"levelo_inurba_marseille","lat":43.32534,"lon":5.41461,"is_reserved":false,"is_disabled":false,"rental_uris":{"android":"levelo://app?vid=e266114d-389b-4e86-bb41-f347240eafe0","ios":"levelo://app?vid=e266114d-389b-4e86-bb41-f347240eafe0"},"vehicle_type_id":"4","last_reported":1728752789,"current_range_meters":38000,"station_id":"ce4bhq12rcd13ifvqhhg","pricing_plan_id":"cebpf4jnsgd1na2vs0mg"},{"bike_id":"c765eb7a-58ca-4d6d-a5f3-02f5d9bd41be","system_id":"levelo_inurba_marseille","lat":43.31254,"lon":5.40194,"is_reserved":false,"is_disabled":false,"rental_uris":{"android":"levelo://app?vid=c765eb7a-58ca-4d6d-a5f3-02f5d9bd41be","ios":"levelo://app?vid=c765eb7a-58ca-4d6d-a5f3-02f5d9bd41be"},"vehicle_type_id":"4","last_reported":1728752789,"current_range_meters":7200,"station_id":"ce4bh092rcd13ifvqd30","pricing_plan_id":"cebpf4jnsgd1na2vs0mg"},{"bike_id":"979b9c17-e5bf-4f76-a164-58b4d258a622","system_id":"levelo_inurba_marseille","lat":43.28078,"lon":5.39667,"is_reserved":false,"is_disabled":false,"rental_uris":{"android":"levelo://app?vid=979b9c17-e5bf-4f76-a164-58b4d258a622","ios":"levelo://app?vid=979b9c17-e5bf-4f76-a164-58b4d258a622"},"vehicle_type_id":"4","last_reported":1728752789,"current_range_meters":11600,"station_id":"ce4bho12rcd13ifvqh2g","pricing_plan_id":"cebpf4jnsgd1na2vs0mg"},{"bike_id":"bb241cd0-3e84-4cf0-ab2e-874c4f938eff","system_id":"levelo_inurba_marseille","lat":43.31754,"lon":5.39019,"is_reserved":false,"is_disabled":false,"rental_uris":{"android":"levelo://app?vid=bb241cd0-3e84-4cf0-ab2e-874c4f938eff","ios":"levelo://app?vid=bb241cd0-3e84-4cf0-ab2e-874c4f938eff"},"vehicle_type_id":"4","last_reported":1728752789,"current_range_meters":9600,"station_id":"ce4bhqp2rcd13ifvqhng","pricing_plan_id":"cebpf4jnsgd1na2vs0mg"},{"bike_id":"0103df79-3c5c-49e4-b168-0fc335a4b143","system_id":"levelo_inurba_marseille","lat":43.28455,"lon":5.359,"is_reserved":false,"is_disabled":false,"rental_uris":{"android":"levelo://app?vid=0103df79-3c5c-49e4-b168-0fc335a4b143","ios":"levelo://app?vid=0103df79-3c5c-49e4-b168-0fc335a4b143"},"vehicle_type_id":"4","last_reported":1728752789,"current_range_meters":2000,"station_id":"ce4bhah2rcd13ifvqei0","pricing_plan_id":"cebpf4jnsgd1na2vs0mg"},{"bike_id":"e3cd8953-9e5a-44ad-a5cd-debf49a539ae","system_id":"levelo_inurba_marseille","lat":43.21245,"lon":5.3545,"is_reserved":false,"is_disabled":false,"rental_uris":{"android":"levelo://app?vid=e3cd8953-9e5a-44ad-a5cd-debf49a539ae","ios":"levelo://app?vid=e3cd8953-9e5a-44ad-a5cd-debf49a539ae"},"vehicle_type_id":"4","last_reported":1728752789,"current_range_meters":25600,"station_id":"","pricing_plan_id":"cebpf4jnsgd1na2vs0mg"},{"bike_id":"3c716737-1af3-4415-8d96-69e9e8c5318a","system_id":"levelo_inurba_marseille","lat":43.28476,"lon":5.3842,"is_reserved":false,"is_disabled":false,"rental_uris":{"android":"levelo://app?vid=3c716737-1af3-4415-8d96-69e9e8c5318a","ios":"levelo://app?vid=3c716737-1af3-4415-8d96-69e9e8c5318a"},"vehicle_type_id":"4","last_reported":1728752789,"current_range_meters":38800,"station_id":"ce4bh512rcd13ifvqe3g","pricing_plan_id":"cebpf4jnsgd1na2vs0mg"},{"bike_id":"d7fb1c33-010d-4f3e-98fd-8a4677055693","system_id":"levelo_inurba_marseille","lat":43.294407,"lon":5.397614,"is_reserved":false,"is_disabled":false,"rental_uris":{"android":"levelo://app?vid=d7fb1c33-010d-4f3e-98fd-8a4677055693","ios":"levelo://app?vid=d7fb1c33-010d-4f3e-98fd-8a4677055693"},"vehicle_type_id":"4","last_reported":1728752789,"current_range_meters":2800,"station_id":"ce4bh3h2rcd13ifvqdo0","pricing_plan_id":"cebpf4jnsgd1na2vs0mg"},{"bike_id":"de2eaa86-b864-465a-883b-0e76af5f4bc2","system_id":"levelo_inurba_marseille","lat":43.29023,"lon":5.38646,"is_reserved":false,"is_disabled":false,"rental_uris":{"android":"levelo://app?vid=de2eaa86-b864-465a-883b-0e76af5f4bc2","ios":"levelo://app?vid=de2eaa86-b864-465a-883b-0e76af5f4bc2"},"vehicle_type_id":"4","last_reported":1728752789,"current_range_meters":8000,"station_id":"ce4bh4p2rcd13ifvqe0g","pricing_plan_id":"cebpf4jnsgd1na2vs0mg"},{"bike_id":"98f23933-0743-4813-895e-8d2629e680e6","system_id":"levelo_inurba_marseille","lat":43.27988,"lon":5.41661,"is_reserved":false,"is_disabled":false,"rental_uris":{"android":"levelo://app?vid=98f23933-0743-4813-895e-8d2629e680e6","ios":"levelo://app?vid=98f23933-0743-4813-895e-8d2629e680e6"},"vehicle_type_id":"4","last_reported":1728752789,"current_range_meters":6400,"station_id":"ce4bho12rcd13ifvqh1g","pricing_plan_id":"cebpf4jnsgd1na2vs0mg"},{"bike_id":"fd301c4f-88d0-470b-8444-02e732c4a052","system_id":"levelo_inurba_marseille","lat":43.24977,"lon":5.38099,"is_reserved":false,"is_disabled":false,"rental_uris":{"android":"levelo://app?vid=fd301c4f-88d0-470b-8444-02e732c4a052","ios":"levelo://app?vid=fd301c4f-88d0-470b-8444-02e732c4a052"},"vehicle_type_id":"4","last_reported":1728752789,"current_range_meters":27600,"station_id":"","pricing_plan_id":"cebpf4jnsgd1na2vs0mg"},{"bike_id":"c8c6c550-2d6c-48d5-b980-de8c4f9d823e","system_id":"levelo_inurba_marseille","lat":43.281,"lon":5.37846,"is_reserved":false,"is_disabled":false,"rental_uris":{"android":"levelo://app?vid=c8c6c550-2d6c-48d5-b980-de8c4f9d823e","ios":"levelo://app?vid=c8c6c550-2d6c-48d5-b980-de8c4f9d823e"},"vehicle_type_id":"4","last_reported":1728752789,"current_range_meters":28800,"station_id":"ce4bha12rcd13ifvqee0","pricing_plan_id":"cebpf4jnsgd1na2vs0mg"},{"bike_id":"b8f90421-7564-4f3a-a9c8-26764beb1784","system_id":"levelo_inurba_marseille","lat":43.29703,"lon":5.36618,"is_reserved":false,"is_disabled":false,"rental_uris":{"android":"levelo://app?vid=b8f90421-7564-4f3a-a9c8-26764beb1784","ios":"levelo://app?vid=b8f90421-7564-4f3a-a9c8-26764beb1784"},"vehicle_type_id":"4","last_reported":1728752789,"current_range_meters":32400,"station_id":"ce4bgn12rcd13ifvqbt0","pricing_plan_id":"cebpf4jnsgd1na2vs0mg"},{"bike_id":"6f669c11-68c1-49b3-b0da-f47d231a6bdb","system_id":"levelo_inurba_marseille","lat":43.25821,"lon":5.39444,"is_reserved":false,"is_disabled":false,"rental_uris":{"android":"levelo://app?vid=6f669c11-68c1-49b3-b0da-f47d231a6bdb","ios":"levelo://app?vid=6f669c11-68c1-49b3-b0da-f47d231a6bdb"},"vehicle_type_id":"4","last_reported":1728752789,"current_range_meters":24000,"station_id":"ce4bhip2rcd13ifvqft0","pricing_plan_id":"cebpf4jnsgd1na2vs0mg"},{"bike_id":"f2ec553b-f583-4634-bf60-a39b93078fc1","system_id":"levelo_inurba_marseille","lat":43.24393,"lon":5.37063,"is_reserved":false,"is_disabled":false,"rental_uris":{"android":"levelo://app?vid=f2ec553b-f583-4634-bf60-a39b93078fc1","ios":"levelo://app?vid=f2ec553b-f583-4634-bf60-a39b93078fc1"},"vehicle_type_id":"4","last_reported":1728752789,"current_range_meters":27600,"station_id":"ce4bhhh2rcd13ifvqfk0","pricing_plan_id":"cebpf4jnsgd1na2vs0mg"},{"bike_id":"54887b4f-fee3-474b-abbd-7336ddf1ae33","system_id":"levelo_inurba_marseille","lat":43.31675,"lon":5.40475,"is_reserved":false,"is_disabled":false,"rental_uris":{"android":"levelo://app?vid=54887b4f-fee3-474b-abbd-7336ddf1ae33","ios":"levelo://app?vid=54887b4f-fee3-474b-abbd-7336ddf1ae33"},"vehicle_type_id":"4","last_reported":1728752789,"current_range_meters":19200,"station_id":"ce4bh012rcd13ifvqd00","pricing_plan_id":"cebpf4jnsgd1na2vs0mg"},{"bike_id":"82b1ae91-5e6e-449f-97f5-199f0d9609fc","system_id":"levelo_inurba_marseille","lat":43.29842,"lon":5.36282,"is_reserved":false,"is_disabled":false,"rental_uris":{"android":"levelo://app?vid=82b1ae91-5e6e-449f-97f5-199f0d9609fc","ios":"levelo://app?vid=82b1ae91-5e6e-449f-97f5-199f0d9609fc"},"vehicle_type_id":"4","last_reported":1728752789,"current_range_meters":15200,"station_id":"ce4bgpp2rcd13ifvqc3g","pricing_plan_id":"cebpf4jnsgd1na2vs0mg"},{"bike_id":"1a90ad3a-447a-4014-8cf5-1bb8f629a10e","system_id":"levelo_inurba_marseille","lat":43.29584,"lon":5.36744,"is_reserved":false,"is_disabled":false,"rental_uris":{"android":"levelo://app?vid=1a90ad3a-447a-4014-8cf5-1bb8f629a10e","ios":"levelo://app?vid=1a90ad3a-447a-4014-8cf5-1bb8f629a10e"},"vehicle_type_id":"4","last_reported":1728752789,"current_range_meters":24000,"station_id":"ce4bgph2rcd13ifvqc2g","pricing_plan_id":"cebpf4jnsgd1na2vs0mg"},{"bike_id":"92c1af36-5649-40f5-84ed-a7b062884571","system_id":"levelo_inurba_marseille","lat":43.23957,"lon":5.36647,"is_reserved":false,"is_disabled":false,"rental_uris":{"android":"levelo://app?vid=92c1af36-5649-40f5-84ed-a7b062884571","ios":"levelo://app?vid=92c1af36-5649-40f5-84ed-a7b062884571"},"vehicle_type_id":"4","last_reported":1728752789,"current_range_meters":33600,"station_id":"ce4bhi12rcd13ifvqfp0","pricing_plan_id":"cebpf4jnsgd1na2vs0mg"},{"bike_id":"6cb5b02c-2401-484a-8b7d-b4d2106d6b08","system_id":"levelo_inurba_marseille","lat":43.2319,"lon":5.35557,"is_reserved":false,"is_disabled":false,"rental_uris":{"android":"levelo://app?vid=6cb5b02c-2401-484a-8b7d-b4d2106d6b08","ios":"levelo://app?vid=6cb5b02c-2401-484a-8b7d-b4d2106d6b08"},"vehicle_type_id":"4","last_reported":1728752789,"current_range_meters":30800,"station_id":"ce4bhu92rcd13ifvqi70","pricing_plan_id":"cebpf4jnsgd1na2vs0mg"},{"bike_id":"ea203679-8246-41bb-bc64-80edd7e095b0","system_id":"levelo_inurba_marseille","lat":43.3302,"lon":5.39043,"is_reserved":false,"is_disabled":false,"rental_uris":{"android":"levelo://app?vid=ea203679-8246-41bb-bc64-80edd7e095b0","ios":"levelo://app?vid=ea203679-8246-41bb-bc64-80edd7e095b0"},"vehicle_type_id":"4","last_reported":1728752789,"current_range_meters":20800,"station_id":"ce4bhr92rcd13ifvqhrg","pricing_plan_id":"cebpf4jnsgd1na2vs0mg"},{"bike_id":"f7dd1dc7-fa4b-4758-aac5-4419d54d56ad","system_id":"levelo_inurba_marseille","lat":43.31758,"lon":5.39019,"is_reserved":false,"is_disabled":false,"rental_uris":{"android":"levelo://app?vid=f7dd1dc7-fa4b-4758-aac5-4419d54d56ad","ios":"levelo://app?vid=f7dd1dc7-fa4b-4758-aac5-4419d54d56ad"},"vehicle_type_id":"4","last_reported":1728752789,"current_range_meters":38800,"station_id":"ce4bhqp2rcd13ifvqhng","pricing_plan_id":"cebpf4jnsgd1na2vs0mg"},{"bike_id":"c88cdfb0-4bf9-4a8c-8ce2-b63c2598193b","system_id":"levelo_inurba_marseille","lat":43.29581,"lon":5.36742,"is_reserved":false,"is_disabled":false,"rental_uris":{"android":"levelo://app?vid=c88cdfb0-4bf9-4a8c-8ce2-b63c2598193b","ios":"levelo://app?vid=c88cdfb0-4bf9-4a8c-8ce2-b63c2598193b"},"vehicle_type_id":"4","last_reported":1728752789,"current_range_meters":36800,"station_id":"ce4bgph2rcd13ifvqc2g","pricing_plan_id":"cebpf4jnsgd1na2vs0mg"},{"bike_id":"bd7002f2-0325-480d-84d7-8eced29e355f","system_id":"levelo_inurba_marseille","lat":43.29734,"lon":5.37682,"is_reserved":false,"is_disabled":false,"rental_uris":{"android":"levelo://app?vid=bd7002f2-0325-480d-84d7-8eced29e355f","ios":"levelo://app?vid=bd7002f2-0325-480d-84d7-8eced29e355f"},"vehicle_type_id":"4","last_reported":1728752789,"current_range_meters":38800,"station_id":"ce4bgkh2rcd13ifvqbl0","pricing_plan_id":"cebpf4jnsgd1na2vs0mg"},{"bike_id":"d33f0c64-3ea5-4609-b68f-411193e0368e","system_id":"levelo_inurba_marseille","lat":43.29265,"lon":5.38444,"is_reserved":false,"is_disabled":false,"rental_uris":{"android":"levelo://app?vid=d33f0c64-3ea5-4609-b68f-411193e0368e","ios":"levelo://app?vid=d33f0c64-3ea5-4609-b68f-411193e0368e"},"vehicle_type_id":"4","last_reported":1728752789,"current_range_meters":38800,"station_id":"ce4bh692rcd13ifvqea0","pricing_plan_id":"cebpf4jnsgd1na2vs0mg"},{"bike_id":"1b418f02-5c38-47db-a967-84d79c24ad6a","system_id":"levelo_inurba_marseille","lat":43.27838,"lon":5.39213,"is_reserved":false,"is_disabled":false,"rental_uris":{"android":"levelo://app?vid=1b418f02-5c38-47db-a967-84d79c24ad6a","ios":"levelo://app?vid=1b418f02-5c38-47db-a967-84d79c24ad6a"},"vehicle_type_id":"4","last_reported":1728752789,"current_range_meters":27200,"station_id":"ce4bhjp2rcd13ifvqga0","pricing_plan_id":"cebpf4jnsgd1na2vs0mg"},{"bike_id":"eac4e8f1-ac84-4048-ad4c-5213afa836f2","system_id":"levelo_inurba_marseille","lat":43.27133,"lon":5.40011,"is_reserved":false,"is_disabled":false,"rental_uris":{"android":"levelo://app?vid=eac4e8f1-ac84-4048-ad4c-5213afa836f2","ios":"levelo://app?vid=eac4e8f1-ac84-4048-ad4c-5213afa836f2"},"vehicle_type_id":"4","last_reported":1728752789,"current_range_meters":24000,"station_id":"","pricing_plan_id":"cebpf4jnsgd1na2vs0mg"},{"bike_id":"dec436c1-d01a-4e4e-a66d-a687a7901d68","system_id":"levelo_inurba_marseille","lat":43.25105,"lon":5.40326,"is_reserved":false,"is_disabled":false,"rental_uris":{"android":"levelo://app?vid=dec436c1-d01a-4e4e-a66d-a687a7901d68","ios":"levelo://app?vid=dec436c1-d01a-4e4e-a66d-a687a7901d68"},"vehicle_type_id":"4","last_reported":1728752789,"current_range_meters":38800,"station_id":"ce4bhlh2rcd13ifvqgig","pricing_plan_id":"cebpf4jnsgd1na2vs0mg"},{"bike_id":"5660055a-cbdf-49e8-9d08-c5177e678b49","system_id":"levelo_inurba_marseille","lat":43.26945,"lon":5.40264,"is_reserved":false,"is_disabled":false,"rental_uris":{"android":"levelo://app?vid=5660055a-cbdf-49e8-9d08-c5177e678b49","ios":"levelo://app?vid=5660055a-cbdf-49e8-9d08-c5177e678b49"},"vehicle_type_id":"4","last_reported":1728752789,"current_range_meters":15200,"station_id":"cjm6bp8fraef2m0cb0m0","pricing_plan_id":"cebpf4jnsgd1na2vs0mg"},{"bike_id":"accb871e-a6d6-4416-b0e7-cca548384eeb","system_id":"levelo_inurba_marseille","lat":43.26552,"lon":5.37294,"is_reserved":false,"is_disabled":false,"rental_uris":{"android":"levelo://app?vid=accb871e-a6d6-4416-b0e7-cca548384eeb","ios":"levelo://app?vid=accb871e-a6d6-4416-b0e7-cca548384eeb"},"vehicle_type_id":"4","last_reported":1728752789,"current_range_meters":36800,"station_id":"ce4bhg12rcd13ifvqf70","pricing_plan_id":"cebpf4jnsgd1na2vs0mg"},{"bike_id":"b93e1d22-da02-4463-b7cf-6df40b34bd2b","system_id":"levelo_inurba_marseille","lat":43.24987,"lon":5.38946,"is_reserved":false,"is_disabled":false,"rental_uris":{"android":"levelo://app?vid=b93e1d22-da02-4463-b7cf-6df40b34bd2b","ios":"levelo://app?vid=b93e1d22-da02-4463-b7cf-6df40b34bd2b"},"vehicle_type_id":"4","last_reported":1728752789,"current_range_meters":24800,"station_id":"ce4bhgp2rcd13ifvqfd0","pricing_plan_id":"cebpf4jnsgd1na2vs0mg"},{"bike_id":"3946c99c-b75f-4072-9d4e-37e0e01046cd","system_id":"levelo_inurba_marseille","lat":43.29528,"lon":5.39403,"is_reserved":false,"is_disabled":false,"rental_uris":{"android":"levelo://app?vid=3946c99c-b75f-4072-9d4e-37e0e01046cd","ios":"levelo://app?vid=3946c99c-b75f-4072-9d4e-37e0e01046cd"},"vehicle_type_id":"4","last_reported":1728752789,"current_range_meters":25600,"station_id":"ce4bh292rcd13ifvqdf0","pricing_plan_id":"cebpf4jnsgd1na2vs0mg"},{"bike_id":"0e2d64ab-db39-4690-a8f6-534e8f0aceb4","system_id":"levelo_inurba_marseille","lat":43.25864,"lon":5.39901,"is_reserved":false,"is_disabled":false,"rental_uris":{"android":"levelo://app?vid=0e2d64ab-db39-4690-a8f6-534e8f0aceb4","ios":"levelo://app?vid=0e2d64ab-db39-4690-a8f6-534e8f0aceb4"},"vehicle_type_id":"4","last_reported":1728752789,"current_range_meters":36800,"station_id":"ce4bhl92rcd13ifvqghg","pricing_plan_id":"cebpf4jnsgd1na2vs0mg"},{"bike_id":"4ea5e6c9-2ed8-48d3-bbd8-1cec62b20660","system_id":"levelo_inurba_marseille","lat":43.30604,"lon":5.37233,"is_reserved":false,"is_disabled":false,"rental_uris":{"android":"levelo://app?vid=4ea5e6c9-2ed8-48d3-bbd8-1cec62b20660","ios":"levelo://app?vid=4ea5e6c9-2ed8-48d3-bbd8-1cec62b20660"},"vehicle_type_id":"4","last_reported":1728752789,"current_range_meters":14400,"station_id":"ce4bgqh2rcd13ifvqc4g","pricing_plan_id":"cebpf4jnsgd1na2vs0mg"},{"bike_id":"20302cba-ff58-4195-b9de-172706e8b9cc","system_id":"levelo_inurba_marseille","lat":43.27805,"lon":5.40721,"is_reserved":false,"is_disabled":false,"rental_uris":{"android":"levelo://app?vid=20302cba-ff58-4195-b9de-172706e8b9cc","ios":"levelo://app?vid=20302cba-ff58-4195-b9de-172706e8b9cc"},"vehicle_type_id":"4","last_reported":1728752789,"current_range_meters":38800,"station_id":"ce4bhnh2rcd13ifvqgtg","pricing_plan_id":"cebpf4jnsgd1na2vs0mg"},{"bike_id":"85ac909b-f3f5-4d37-a7b6-cdf0f6eb7c75","system_id":"levelo_inurba_marseille","lat":43.31093,"lon":5.38354,"is_reserved":false,"is_disabled":false,"rental_uris":{"android":"levelo://app?vid=85ac909b-f3f5-4d37-a7b6-cdf0f6eb7c75","ios":"levelo://app?vid=85ac909b-f3f5-4d37-a7b6-cdf0f6eb7c75"},"vehicle_type_id":"4","last_reported":1728752789,"current_range_meters":38800,"station_id":"ce4bgv92rcd13ifvqcr0","pricing_plan_id":"cebpf4jnsgd1na2vs0mg"},{"bike_id":"25e59862-8a09-482d-b3a5-7138deb4afc5","system_id":"levelo_inurba_marseille","lat":43.2306,"lon":5.35493,"is_reserved":false,"is_disabled":false,"rental_uris":{"android":"levelo://app?vid=25e59862-8a09-482d-b3a5-7138deb4afc5","ios":"levelo://app?vid=25e59862-8a09-482d-b3a5-7138deb4afc5"},"vehicle_type_id":"4","last_reported":1728752789,"current_range_meters":9200,"station_id":"cpo3342slgdg3j2ifvpg","pricing_plan_id":"cebpf4jnsgd1na2vs0mg"},{"bike_id":"7bac7836-a75a-491f-98e0-0ff022602dac","system_id":"levelo_inurba_marseille","lat":43.2962,"lon":5.37171,"is_reserved":false,"is_disabled":false,"rental_uris":{"android":"levelo://app?vid=7bac7836-a75a-491f-98e0-0ff022602dac","ios":"levelo://app?vid=7bac7836-a75a-491f-98e0-0ff022602dac"},"vehicle_type_id":"4","last_reported":1728752789,"current_range_meters":12800,"station_id":"ce4bgnh2rcd13ifvqc0g","pricing_plan_id":"cebpf4jnsgd1na2vs0mg"},{"bike_id":"b933402b-d1ca-49a8-bbf7-fb19281d941c","system_id":"levelo_inurba_marseille","lat":43.2319,"lon":5.35558,"is_reserved":false,"is_disabled":false,"rental_uris":{"android":"levelo://app?vid=b933402b-d1ca-49a8-bbf7-fb19281d941c","ios":"levelo://app?vid=b933402b-d1ca-49a8-bbf7-fb19281d941c"},"vehicle_type_id":"4","last_reported":1728752789,"current_range_meters":20000,"station_id":"ce4bhu92rcd13ifvqi70","pricing_plan_id":"cebpf4jnsgd1na2vs0mg"},{"bike_id":"68a48546-28ec-4218-a008-021a1ba46359","system_id":"levelo_inurba_marseille","lat":43.25577,"lon":5.38241,"is_reserved":false,"is_disabled":false,"rental_uris":{"android":"levelo://app?vid=68a48546-28ec-4218-a008-021a1ba46359","ios":"levelo://app?vid=68a48546-28ec-4218-a008-021a1ba46359"},"vehicle_type_id":"4","last_reported":1728752789,"current_range_meters":37600,"station_id":"ce4bhih2rcd13ifvqfs0","pricing_plan_id":"cebpf4jnsgd1na2vs0mg"},{"bike_id":"a9c9543b-ef46-431c-936d-f9dbb1bff10e","system_id":"levelo_inurba_marseille","lat":43.26055,"lon":5.39401,"is_reserved":false,"is_disabled":false,"rental_uris":{"android":"levelo://app?vid=a9c9543b-ef46-431c-936d-f9dbb1bff10e","ios":"levelo://app?vid=a9c9543b-ef46-431c-936d-f9dbb1bff10e"},"vehicle_type_id":"4","last_reported":1728752789,"current_range_meters":27200,"station_id":"ce4bhh92rcd13ifvqfj0","pricing_plan_id":"cebpf4jnsgd1na2vs0mg"},{"bike_id":"d0305b93-2064-4155-a9a8-71dd936c4a06","system_id":"levelo_inurba_marseille","lat":43.29955,"lon":5.38505,"is_reserved":false,"is_disabled":false,"rental_uris":{"android":"levelo://app?vid=d0305b93-2064-4155-a9a8-71dd936c4a06","ios":"levelo://app?vid=d0305b93-2064-4155-a9a8-71dd936c4a06"},"vehicle_type_id":"4","last_reported":1728752789,"current_range_meters":22400,"station_id":"ce4bgj92rcd13ifvqbd0","pricing_plan_id":"cebpf4jnsgd1na2vs0mg"},{"bike_id":"13cea10b-aa15-43fe-9a85-70a22d46d926","system_id":"levelo_inurba_marseille","lat":43.32104,"lon":5.36778,"is_reserved":false,"is_disabled":false,"rental_uris":{"android":"levelo://app?vid=13cea10b-aa15-43fe-9a85-70a22d46d926","ios":"levelo://app?vid=13cea10b-aa15-43fe-9a85-70a22d46d926"},"vehicle_type_id":"4","last_reported":1728752789,"current_range_meters":22400,"station_id":"ce4bhrh2rcd13ifvqhug","pricing_plan_id":"cebpf4jnsgd1na2vs0mg"},{"bike_id":"5d930e77-6cbd-4477-acb8-79db42ba1f2e","system_id":"levelo_inurba_marseille","lat":43.29092,"lon":5.38122,"is_reserved":false,"is_disabled":false,"rental_uris":{"android":"levelo://app?vid=5d930e77-6cbd-4477-acb8-79db42ba1f2e","ios":"levelo://app?vid=5d930e77-6cbd-4477-acb8-79db42ba1f2e"},"vehicle_type_id":"4","last_reported":1728752789,"current_range_meters":38800,"station_id":"ce4bh512rcd13ifvqe2g","pricing_plan_id":"cebpf4jnsgd1na2vs0mg"},{"bike_id":"91906349-a737-434d-8a23-fe1add9c9c35","system_id":"levelo_inurba_marseille","lat":43.3054,"lon":5.38428,"is_reserved":false,"is_disabled":false,"rental_uris":{"android":"levelo://app?vid=91906349-a737-434d-8a23-fe1add9c9c35","ios":"levelo://app?vid=91906349-a737-434d-8a23-fe1add9c9c35"},"vehicle_type_id":"4","last_reported":1728752789,"current_range_meters":38800,"station_id":"ce4bgg92rcd13ifvqb30","pricing_plan_id":"cebpf4jnsgd1na2vs0mg"},{"bike_id":"b0030b7f-f4d9-4105-acf8-935e4e11ac68","system_id":"levelo_inurba_marseille","lat":43.24993,"lon":5.38925,"is_reserved":false,"is_disabled":false,"rental_uris":{"android":"levelo://app?vid=b0030b7f-f4d9-4105-acf8-935e4e11ac68","ios":"levelo://app?vid=b0030b7f-f4d9-4105-acf8-935e4e11ac68"},"vehicle_type_id":"4","last_reported":1728752789,"current_range_meters":7200,"station_id":"ce4bhgp2rcd13ifvqfd0","pricing_plan_id":"cebpf4jnsgd1na2vs0mg"},{"bike_id":"d1ab5e3f-2a17-4f92-b44f-8a4184e5871e","system_id":"levelo_inurba_marseille","lat":43.24815,"lon":5.37466,"is_reserved":false,"is_disabled":false,"rental_uris":{"android":"levelo://app?vid=d1ab5e3f-2a17-4f92-b44f-8a4184e5871e","ios":"levelo://app?vid=d1ab5e3f-2a17-4f92-b44f-8a4184e5871e"},"vehicle_type_id":"4","last_reported":1728752789,"current_range_meters":10000,"station_id":"ce4bhgh2rcd13ifvqfb0","pricing_plan_id":"cebpf4jnsgd1na2vs0mg"},{"bike_id":"f53f4fb9-6e52-425d-83a0-652ff05fd177","system_id":"levelo_inurba_marseille","lat":43.28408,"lon":5.37518,"is_reserved":false,"is_disabled":false,"rental_uris":{"android":"levelo://app?vid=f53f4fb9-6e52-425d-83a0-652ff05fd177","ios":"levelo://app?vid=f53f4fb9-6e52-425d-83a0-652ff05fd177"},"vehicle_type_id":"4","last_reported":1728752789,"current_range_meters":32400,"station_id":"ce4bh412rcd13ifvqds0","pricing_plan_id":"cebpf4jnsgd1na2vs0mg"},{"bike_id":"add9aa8a-66dc-4ada-be08-ef2a23b02fa5","system_id":"levelo_inurba_marseille","lat":43.30469,"lon":5.38865,"is_reserved":false,"is_disabled":false,"rental_uris":{"android":"levelo://app?vid=add9aa8a-66dc-4ada-be08-ef2a23b02fa5","ios":"levelo://app?vid=add9aa8a-66dc-4ada-be08-ef2a23b02fa5"},"vehicle_type_id":"4","last_reported":1728752789,"current_range_meters":8400,"station_id":"ce4bgk12rcd13ifvqbi0","pricing_plan_id":"cebpf4jnsgd1na2vs0mg"},{"bike_id":"c63adc08-7e23-4e3f-9ccf-5ca947223c5f","system_id":"levelo_inurba_marseille","lat":43.28476,"lon":5.38406,"is_reserved":false,"is_disabled":false,"rental_uris":{"android":"levelo://app?vid=c63adc08-7e23-4e3f-9ccf-5ca947223c5f","ios":"levelo://app?vid=c63adc08-7e23-4e3f-9ccf-5ca947223c5f"},"vehicle_type_id":"4","last_reported":1728752789,"current_range_meters":18800,"station_id":"ce4bh512rcd13ifvqe3g","pricing_plan_id":"cebpf4jnsgd1na2vs0mg"},{"bike_id":"e4a3467e-fab8-472a-b7be-5d4d1f9882ff","system_id":"levelo_inurba_marseille","lat":43.31358,"lon":5.36709,"is_reserved":false,"is_disabled":false,"rental_uris":{"android":"levelo://app?vid=e4a3467e-fab8-472a-b7be-5d4d1f9882ff","ios":"levelo://app?vid=e4a3467e-fab8-472a-b7be-5d4d1f9882ff"},"vehicle_type_id":"4","last_reported":1728752789,"current_range_meters":38400,"station_id":"ce4bgr92rcd13ifvqc6g","pricing_plan_id":"cebpf4jnsgd1na2vs0mg"},{"bike_id":"93c0f3ba-6e12-482b-ab7e-289360e9ab3c","system_id":"levelo_inurba_marseille","lat":43.28653,"lon":5.36357,"is_reserved":false,"is_disabled":false,"rental_uris":{"android":"levelo://app?vid=93c0f3ba-6e12-482b-ab7e-289360e9ab3c","ios":"levelo://app?vid=93c0f3ba-6e12-482b-ab7e-289360e9ab3c"},"vehicle_type_id":"4","last_reported":1728752789,"current_range_meters":33600,"station_id":"ce4bhah2rcd13ifvqej0","pricing_plan_id":"cebpf4jnsgd1na2vs0mg"},{"bike_id":"8718f40c-514b-4603-8f9c-419eb0f68709","system_id":"levelo_inurba_marseille","lat":43.30923,"lon":5.40148,"is_reserved":false,"is_disabled":false,"rental_uris":{"android":"levelo://app?vid=8718f40c-514b-4603-8f9c-419eb0f68709","ios":"levelo://app?vid=8718f40c-514b-4603-8f9c-419eb0f68709"},"vehicle_type_id":"4","last_reported":1728752789,"current_range_meters":6400,"station_id":"ce4bgvp2rcd13ifvqct0","pricing_plan_id":"cebpf4jnsgd1na2vs0mg"},{"bike_id":"30fa29f6-99b6-43bc-abfc-62873fbefb16","system_id":"levelo_inurba_marseille","lat":43.22931,"lon":5.3538,"is_reserved":false,"is_disabled":false,"rental_uris":{"android":"levelo://app?vid=30fa29f6-99b6-43bc-abfc-62873fbefb16","ios":"levelo://app?vid=30fa29f6-99b6-43bc-abfc-62873fbefb16"},"vehicle_type_id":"4","last_reported":1728752789,"current_range_meters":9200,"station_id":"cpo3532slgdg3j2ikp40","pricing_plan_id":"cebpf4jnsgd1na2vs0mg"},{"bike_id":"e5441c47-b5e3-4ffd-a365-378d3960b7a1","system_id":"levelo_inurba_marseille","lat":43.29528,"lon":5.38542,"is_reserved":false,"is_disabled":false,"rental_uris":{"android":"levelo://app?vid=e5441c47-b5e3-4ffd-a365-378d3960b7a1","ios":"levelo://app?vid=e5441c47-b5e3-4ffd-a365-378d3960b7a1"},"vehicle_type_id":"4","last_reported":1728752789,"current_range_meters":16400,"station_id":"ce4bgih2rcd13ifvqba0","pricing_plan_id":"cebpf4jnsgd1na2vs0mg"},{"bike_id":"62622ce8-5517-46cf-9ec6-064501fd3008","system_id":"levelo_inurba_marseille","lat":43.29579,"lon":5.36744,"is_reserved":false,"is_disabled":false,"rental_uris":{"android":"levelo://app?vid=62622ce8-5517-46cf-9ec6-064501fd3008","ios":"levelo://app?vid=62622ce8-5517-46cf-9ec6-064501fd3008"},"vehicle_type_id":"4","last_reported":1728752789,"current_range_meters":18000,"station_id":"ce4bgph2rcd13ifvqc2g","pricing_plan_id":"cebpf4jnsgd1na2vs0mg"},{"bike_id":"e4f0f21e-0c3d-4d74-b01c-3addb8ce8acf","system_id":"levelo_inurba_marseille","lat":43.28336,"lon":5.38113,"is_reserved":false,"is_disabled":false,"rental_uris":{"android":"levelo://app?vid=e4f0f21e-0c3d-4d74-b01c-3addb8ce8acf","ios":"levelo://app?vid=e4f0f21e-0c3d-4d74-b01c-3addb8ce8acf"},"vehicle_type_id":"4","last_reported":1728752789,"current_range_meters":7200,"station_id":"ce4bh412rcd13ifvqdr0","pricing_plan_id":"cebpf4jnsgd1na2vs0mg"},{"bike_id":"e6336660-e5d0-4336-aab6-9e2081b4b551","system_id":"levelo_inurba_marseille","lat":43.33717,"lon":5.39202,"is_reserved":false,"is_disabled":false,"rental_uris":{"android":"levelo://app?vid=e6336660-e5d0-4336-aab6-9e2081b4b551","ios":"levelo://app?vid=e6336660-e5d0-4336-aab6-9e2081b4b551"},"vehicle_type_id":"4","last_reported":1728752789,"current_range_meters":23200,"station_id":"ce4bhr92rcd13ifvqhsg","pricing_plan_id":"cebpf4jnsgd1na2vs0mg"},{"bike_id":"ab47664c-0450-4138-b005-9b8e1b8810bd","system_id":"levelo_inurba_marseille","lat":43.29578,"lon":5.36739,"is_reserved":false,"is_disabled":false,"rental_uris":{"android":"levelo://app?vid=ab47664c-0450-4138-b005-9b8e1b8810bd","ios":"levelo://app?vid=ab47664c-0450-4138-b005-9b8e1b8810bd"},"vehicle_type_id":"4","last_reported":1728752789,"current_range_meters":38800,"station_id":"ce4bgph2rcd13ifvqc2g","pricing_plan_id":"cebpf4jnsgd1na2vs0mg"},{"bike_id":"f01587ea-92d0-4f0d-a1ca-699b8a26ee17","system_id":"levelo_inurba_marseille","lat":43.28094,"lon":5.37854,"is_reserved":false,"is_disabled":false,"rental_uris":{"android":"levelo://app?vid=f01587ea-92d0-4f0d-a1ca-699b8a26ee17","ios":"levelo://app?vid=f01587ea-92d0-4f0d-a1ca-699b8a26ee17"},"vehicle_type_id":"4","last_reported":1728752789,"current_range_meters":32000,"station_id":"ce4bha12rcd13ifvqee0","pricing_plan_id":"cebpf4jnsgd1na2vs0mg"},{"bike_id":"1fafff68-76ee-4316-8ca9-8867e04bddd6","system_id":"levelo_inurba_marseille","lat":43.26216,"lon":5.37445,"is_reserved":false,"is_disabled":false,"rental_uris":{"android":"levelo://app?vid=1fafff68-76ee-4316-8ca9-8867e04bddd6","ios":"levelo://app?vid=1fafff68-76ee-4316-8ca9-8867e04bddd6"},"vehicle_type_id":"4","last_reported":1728752789,"current_range_meters":32800,"station_id":"ce4bhgp2rcd13ifvqfc0","pricing_plan_id":"cebpf4jnsgd1na2vs0mg"},{"bike_id":"61b53570-b52f-4405-8b6f-5bef45ed2ae9","system_id":"levelo_inurba_marseille","lat":43.29361,"lon":5.37837,"is_reserved":false,"is_disabled":false,"rental_uris":{"android":"levelo://app?vid=61b53570-b52f-4405-8b6f-5bef45ed2ae9","ios":"levelo://app?vid=61b53570-b52f-4405-8b6f-5bef45ed2ae9"},"vehicle_type_id":"4","last_reported":1728752789,"current_range_meters":19200,"station_id":"ce4bgjh2rcd13ifvqbf0","pricing_plan_id":"cebpf4jnsgd1na2vs0mg"},{"bike_id":"55582e1e-1cd8-4e96-933c-025471d1c473","system_id":"levelo_inurba_marseille","lat":43.26933,"lon":5.38934,"is_reserved":false,"is_disabled":false,"rental_uris":{"android":"levelo://app?vid=55582e1e-1cd8-4e96-933c-025471d1c473","ios":"levelo://app?vid=55582e1e-1cd8-4e96-933c-025471d1c473"},"vehicle_type_id":"4","last_reported":1728752789,"current_range_meters":10000,"station_id":"ce4bhhh2rcd13ifvqfl0","pricing_plan_id":"cebpf4jnsgd1na2vs0mg"},{"bike_id":"5214db82-e998-454a-9a4d-3d52f016fd6b","system_id":"levelo_inurba_marseille","lat":43.28078,"lon":5.39667,"is_reserved":false,"is_disabled":false,"rental_uris":{"android":"levelo://app?vid=5214db82-e998-454a-9a4d-3d52f016fd6b","ios":"levelo://app?vid=5214db82-e998-454a-9a4d-3d52f016fd6b"},"vehicle_type_id":"4","last_reported":1728752789,"current_range_meters":28400,"station_id":"ce4bho12rcd13ifvqh2g","pricing_plan_id":"cebpf4jnsgd1na2vs0mg"},{"bike_id":"adad453e-877b-4311-bf0b-49716177daa0","system_id":"levelo_inurba_marseille","lat":43.29705,"lon":5.36613,"is_reserved":false,"is_disabled":false,"rental_uris":{"android":"levelo://app?vid=adad453e-877b-4311-bf0b-49716177daa0","ios":"levelo://app?vid=adad453e-877b-4311-bf0b-49716177daa0"},"vehicle_type_id":"4","last_reported":1728752789,"current_range_meters":37600,"station_id":"ce4bgn12rcd13ifvqbt0","pricing_plan_id":"cebpf4jnsgd1na2vs0mg"},{"bike_id":"ee051660-567f-455b-962a-2f2ee930e880","system_id":"levelo_inurba_marseille","lat":43.29785,"lon":5.38118,"is_reserved":false,"is_disabled":false,"rental_uris":{"android":"levelo://app?vid=ee051660-567f-455b-962a-2f2ee930e880","ios":"levelo://app?vid=ee051660-567f-455b-962a-2f2ee930e880"},"vehicle_type_id":"4","last_reported":1728752789,"current_range_meters":37600,"station_id":"ce4bgip2rcd13ifvqbb0","pricing_plan_id":"cebpf4jnsgd1na2vs0mg"},{"bike_id":"17f0a58b-fa96-470d-a1b0-89c2a0c2bfbe","system_id":"levelo_inurba_marseille","lat":43.23189,"lon":5.35562,"is_reserved":false,"is_disabled":false,"rental_uris":{"android":"levelo://app?vid=17f0a58b-fa96-470d-a1b0-89c2a0c2bfbe","ios":"levelo://app?vid=17f0a58b-fa96-470d-a1b0-89c2a0c2bfbe"},"vehicle_type_id":"4","last_reported":1728752789,"current_range_meters":22800,"station_id":"ce4bhu92rcd13ifvqi70","pricing_plan_id":"cebpf4jnsgd1na2vs0mg"},{"bike_id":"22c1a906-1aa6-4ebb-b567-4c04aa2b7e60","system_id":"levelo_inurba_marseille","lat":43.3055,"lon":5.36559,"is_reserved":false,"is_disabled":false,"rental_uris":{"android":"levelo://app?vid=22c1a906-1aa6-4ebb-b567-4c04aa2b7e60","ios":"levelo://app?vid=22c1a906-1aa6-4ebb-b567-4c04aa2b7e60"},"vehicle_type_id":"4","last_reported":1728752789,"current_range_meters":16800,"station_id":"ce4bgs12rcd13ifvqcag","pricing_plan_id":"cebpf4jnsgd1na2vs0mg"},{"bike_id":"056a0a27-af60-4335-8b8a-e9af7dceff45","system_id":"levelo_inurba_marseille","lat":43.30544,"lon":5.36716,"is_reserved":false,"is_disabled":false,"rental_uris":{"android":"levelo://app?vid=056a0a27-af60-4335-8b8a-e9af7dceff45","ios":"levelo://app?vid=056a0a27-af60-4335-8b8a-e9af7dceff45"},"vehicle_type_id":"4","last_reported":1728752789,"current_range_meters":38400,"station_id":"ce4bgrp2rcd13ifvqc9g","pricing_plan_id":"cebpf4jnsgd1na2vs0mg"},{"bike_id":"f4004ba7-9316-4931-8df1-d7fb55aee2af","system_id":"levelo_inurba_marseille","lat":43.28934,"lon":5.39646,"is_reserved":false,"is_disabled":false,"rental_uris":{"android":"levelo://app?vid=f4004ba7-9316-4931-8df1-d7fb55aee2af","ios":"levelo://app?vid=f4004ba7-9316-4931-8df1-d7fb55aee2af"},"vehicle_type_id":"4","last_reported":1728752789,"current_range_meters":38800,"station_id":"ce4bh3h2rcd13ifvqdn0","pricing_plan_id":"cebpf4jnsgd1na2vs0mg"},{"bike_id":"0383fd16-e9b8-4410-b536-493a9708d1c6","system_id":"levelo_inurba_marseille","lat":43.33026,"lon":5.39033,"is_reserved":false,"is_disabled":false,"rental_uris":{"android":"levelo://app?vid=0383fd16-e9b8-4410-b536-493a9708d1c6","ios":"levelo://app?vid=0383fd16-e9b8-4410-b536-493a9708d1c6"},"vehicle_type_id":"4","last_reported":1728752789,"current_range_meters":14000,"station_id":"ce4bhr92rcd13ifvqhrg","pricing_plan_id":"cebpf4jnsgd1na2vs0mg"},{"bike_id":"b25409bc-df4d-476a-893e-c6a5838692b2","system_id":"levelo_inurba_marseille","lat":43.23188,"lon":5.35561,"is_reserved":false,"is_disabled":false,"rental_uris":{"android":"levelo://app?vid=b25409bc-df4d-476a-893e-c6a5838692b2","ios":"levelo://app?vid=b25409bc-df4d-476a-893e-c6a5838692b2"},"vehicle_type_id":"4","last_reported":1728752789,"current_range_meters":39200,"station_id":"ce4bhu92rcd13ifvqi70","pricing_plan_id":"cebpf4jnsgd1na2vs0mg"},{"bike_id":"8fb2b431-bcb9-46ba-80fb-e26e84592fc5","system_id":"levelo_inurba_marseille","lat":43.23185,"lon":5.35562,"is_reserved":false,"is_disabled":false,"rental_uris":{"android":"levelo://app?vid=8fb2b431-bcb9-46ba-80fb-e26e84592fc5","ios":"levelo://app?vid=8fb2b431-bcb9-46ba-80fb-e26e84592fc5"},"vehicle_type_id":"4","last_reported":1728752789,"current_range_meters":30800,"station_id":"ce4bhu92rcd13ifvqi70","pricing_plan_id":"cebpf4jnsgd1na2vs0mg"},{"bike_id":"e2f25126-29b7-4581-a4fe-9e458716fb1d","system_id":"levelo_inurba_marseille","lat":43.23956,"lon":5.36647,"is_reserved":false,"is_disabled":false,"rental_uris":{"android":"levelo://app?vid=e2f25126-29b7-4581-a4fe-9e458716fb1d","ios":"levelo://app?vid=e2f25126-29b7-4581-a4fe-9e458716fb1d"},"vehicle_type_id":"4","last_reported":1728752789,"current_range_meters":27600,"station_id":"ce4bhi12rcd13ifvqfp0","pricing_plan_id":"cebpf4jnsgd1na2vs0mg"},{"bike_id":"8dc8b5c8-f938-440d-b2c2-9a921dbd5488","system_id":"levelo_inurba_marseille","lat":43.26933,"lon":5.38911,"is_reserved":false,"is_disabled":false,"rental_uris":{"android":"levelo://app?vid=8dc8b5c8-f938-440d-b2c2-9a921dbd5488","ios":"levelo://app?vid=8dc8b5c8-f938-440d-b2c2-9a921dbd5488"},"vehicle_type_id":"4","last_reported":1728752789,"current_range_meters":39200,"station_id":"ce4bhhh2rcd13ifvqfl0","pricing_plan_id":"cebpf4jnsgd1na2vs0mg"},{"bike_id":"a5f1b4f4-bc5f-484d-9b8b-f53646c11223","system_id":"levelo_inurba_marseille","lat":43.298471,"lon":5.362837,"is_reserved":false,"is_disabled":false,"rental_uris":{"android":"levelo://app?vid=a5f1b4f4-bc5f-484d-9b8b-f53646c11223","ios":"levelo://app?vid=a5f1b4f4-bc5f-484d-9b8b-f53646c11223"},"vehicle_type_id":"4","last_reported":1728752789,"current_range_meters":24000,"station_id":"ce4bgpp2rcd13ifvqc3g","pricing_plan_id":"cebpf4jnsgd1na2vs0mg"},{"bike_id":"5e462a5d-ea15-4bd1-90fa-295b3de65302","system_id":"levelo_inurba_marseille","lat":43.27422,"lon":5.39409,"is_reserved":false,"is_disabled":false,"rental_uris":{"android":"levelo://app?vid=5e462a5d-ea15-4bd1-90fa-295b3de65302","ios":"levelo://app?vid=5e462a5d-ea15-4bd1-90fa-295b3de65302"},"vehicle_type_id":"4","last_reported":1728752789,"current_range_meters":38800,"station_id":"ce4bhdp2rcd13ifvqf20","pricing_plan_id":"cebpf4jnsgd1na2vs0mg"},{"bike_id":"972e1e50-2e1e-454f-8635-5ea35f00e6a7","system_id":"levelo_inurba_marseille","lat":43.30454,"lon":5.40193,"is_reserved":false,"is_disabled":false,"rental_uris":{"android":"levelo://app?vid=972e1e50-2e1e-454f-8635-5ea35f00e6a7","ios":"levelo://app?vid=972e1e50-2e1e-454f-8635-5ea35f00e6a7"},"vehicle_type_id":"4","last_reported":1728752789,"current_range_meters":36800,"station_id":"","pricing_plan_id":"cebpf4jnsgd1na2vs0mg"},{"bike_id":"b54b8d55-dfbd-45bf-ac1f-79d5495aabb3","system_id":"levelo_inurba_marseille","lat":43.29094,"lon":5.3812,"is_reserved":false,"is_disabled":false,"rental_uris":{"android":"levelo://app?vid=b54b8d55-dfbd-45bf-ac1f-79d5495aabb3","ios":"levelo://app?vid=b54b8d55-dfbd-45bf-ac1f-79d5495aabb3"},"vehicle_type_id":"4","last_reported":1728752789,"current_range_meters":9200,"station_id":"ce4bh512rcd13ifvqe2g","pricing_plan_id":"cebpf4jnsgd1na2vs0mg"},{"bike_id":"1904b3e2-0c52-4d36-8b7f-38e52d106852","system_id":"levelo_inurba_marseille","lat":43.30536,"lon":5.3671,"is_reserved":false,"is_disabled":false,"rental_uris":{"android":"levelo://app?vid=1904b3e2-0c52-4d36-8b7f-38e52d106852","ios":"levelo://app?vid=1904b3e2-0c52-4d36-8b7f-38e52d106852"},"vehicle_type_id":"4","last_reported":1728752789,"current_range_meters":38800,"station_id":"ce4bgrp2rcd13ifvqc9g","pricing_plan_id":"cebpf4jnsgd1na2vs0mg"},{"bike_id":"f5c43ebf-2a33-4a15-a797-5081e854f886","system_id":"levelo_inurba_marseille","lat":43.24545,"lon":5.39523,"is_reserved":false,"is_disabled":false,"rental_uris":{"android":"levelo://app?vid=f5c43ebf-2a33-4a15-a797-5081e854f886","ios":"levelo://app?vid=f5c43ebf-2a33-4a15-a797-5081e854f886"},"vehicle_type_id":"4","last_reported":1728752789,"current_range_meters":9600,"station_id":"ce4bhlp2rcd13ifvqgjg","pricing_plan_id":"cebpf4jnsgd1na2vs0mg"},{"bike_id":"e6049eb7-a913-4c30-b891-92576278de4c","system_id":"levelo_inurba_marseille","lat":43.24803,"lon":5.37451,"is_reserved":false,"is_disabled":false,"rental_uris":{"android":"levelo://app?vid=e6049eb7-a913-4c30-b891-92576278de4c","ios":"levelo://app?vid=e6049eb7-a913-4c30-b891-92576278de4c"},"vehicle_type_id":"4","last_reported":1728752789,"current_range_meters":33200,"station_id":"ce4bhgh2rcd13ifvqfb0","pricing_plan_id":"cebpf4jnsgd1na2vs0mg"},{"bike_id":"5b9033c7-8cad-414a-8d29-f05fdaafacd5","system_id":"levelo_inurba_marseille","lat":43.246588,"lon":5.381667,"is_reserved":false,"is_disabled":false,"rental_uris":{"android":"levelo://app?vid=5b9033c7-8cad-414a-8d29-f05fdaafacd5","ios":"levelo://app?vid=5b9033c7-8cad-414a-8d29-f05fdaafacd5"},"vehicle_type_id":"4","last_reported":1728752789,"current_range_meters":27600,"station_id":"ce4bhih2rcd13ifvqfr0","pricing_plan_id":"cebpf4jnsgd1na2vs0mg"},{"bike_id":"78d3cb42-99c8-427b-81f1-360c8d714051","system_id":"levelo_inurba_marseille","lat":43.28821,"lon":5.38824,"is_reserved":false,"is_disabled":false,"rental_uris":{"android":"levelo://app?vid=78d3cb42-99c8-427b-81f1-360c8d714051","ios":"levelo://app?vid=78d3cb42-99c8-427b-81f1-360c8d714051"},"vehicle_type_id":"4","last_reported":1728752789,"current_range_meters":35200,"station_id":"","pricing_plan_id":"cebpf4jnsgd1na2vs0mg"},{"bike_id":"333a6d74-2798-479a-841e-b7857dc38d5d","system_id":"levelo_inurba_marseille","lat":43.28089,"lon":5.37853,"is_reserved":false,"is_disabled":false,"rental_uris":{"android":"levelo://app?vid=333a6d74-2798-479a-841e-b7857dc38d5d","ios":"levelo://app?vid=333a6d74-2798-479a-841e-b7857dc38d5d"},"vehicle_type_id":"4","last_reported":1728752789,"current_range_meters":21600,"station_id":"ce4bha12rcd13ifvqee0","pricing_plan_id":"cebpf4jnsgd1na2vs0mg"},{"bike_id":"19e0e40e-63be-4804-b3b8-2787230e9bca","system_id":"levelo_inurba_marseille","lat":43.2962,"lon":5.37165,"is_reserved":false,"is_disabled":false,"rental_uris":{"android":"levelo://app?vid=19e0e40e-63be-4804-b3b8-2787230e9bca","ios":"levelo://app?vid=19e0e40e-63be-4804-b3b8-2787230e9bca"},"vehicle_type_id":"4","last_reported":1728752789,"current_range_meters":39200,"station_id":"ce4bgnh2rcd13ifvqc0g","pricing_plan_id":"cebpf4jnsgd1na2vs0mg"},{"bike_id":"b9a64df2-122d-44d5-b6d8-c291946ea5f0","system_id":"levelo_inurba_marseille","lat":43.292285,"lon":5.360753,"is_reserved":false,"is_disabled":false,"rental_uris":{"android":"levelo://app?vid=b9a64df2-122d-44d5-b6d8-c291946ea5f0","ios":"levelo://app?vid=b9a64df2-122d-44d5-b6d8-c291946ea5f0"},"vehicle_type_id":"4","last_reported":1728752789,"current_range_meters":30400,"station_id":"ce4bhbh2rcd13ifvqeqg","pricing_plan_id":"cebpf4jnsgd1na2vs0mg"},{"bike_id":"04f2d2a2-002a-4ba6-8bab-08dece17e056","system_id":"levelo_inurba_marseille","lat":43.29706,"lon":5.36581,"is_reserved":false,"is_disabled":false,"rental_uris":{"android":"levelo://app?vid=04f2d2a2-002a-4ba6-8bab-08dece17e056","ios":"levelo://app?vid=04f2d2a2-002a-4ba6-8bab-08dece17e056"},"vehicle_type_id":"4","last_reported":1728752789,"current_range_meters":37600,"station_id":"ce4bgn12rcd13ifvqbt0","pricing_plan_id":"cebpf4jnsgd1na2vs0mg"},{"bike_id":"a4217625-26b1-46c3-83cf-a9b3a5d673ce","system_id":"levelo_inurba_marseille","lat":43.31083,"lon":5.36908,"is_reserved":false,"is_disabled":false,"rental_uris":{"android":"levelo://app?vid=a4217625-26b1-46c3-83cf-a9b3a5d673ce","ios":"levelo://app?vid=a4217625-26b1-46c3-83cf-a9b3a5d673ce"},"vehicle_type_id":"4","last_reported":1728752789,"current_range_meters":36400,"station_id":"","pricing_plan_id":"cebpf4jnsgd1na2vs0mg"},{"bike_id":"3fb0b7aa-5417-46e4-a111-4a706fec7cd6","system_id":"levelo_inurba_marseille","lat":43.26547,"lon":5.3729,"is_reserved":false,"is_disabled":false,"rental_uris":{"android":"levelo://app?vid=3fb0b7aa-5417-46e4-a111-4a706fec7cd6","ios":"levelo://app?vid=3fb0b7aa-5417-46e4-a111-4a706fec7cd6"},"vehicle_type_id":"4","last_reported":1728752789,"current_range_meters":36400,"station_id":"ce4bhg12rcd13ifvqf70","pricing_plan_id":"cebpf4jnsgd1na2vs0mg"},{"bike_id":"5ab70f1b-3f2c-4f8b-a0cc-cdba02fd83d4","system_id":"levelo_inurba_marseille","lat":43.3248,"lon":5.36561,"is_reserved":false,"is_disabled":false,"rental_uris":{"android":"levelo://app?vid=5ab70f1b-3f2c-4f8b-a0cc-cdba02fd83d4","ios":"levelo://app?vid=5ab70f1b-3f2c-4f8b-a0cc-cdba02fd83d4"},"vehicle_type_id":"4","last_reported":1728752789,"current_range_meters":37600,"station_id":"ce4bhs12rcd13ifvqhvg","pricing_plan_id":"cebpf4jnsgd1na2vs0mg"},{"bike_id":"4ef6fcc8-e29f-4f7b-bfb6-492772c7e8d5","system_id":"levelo_inurba_marseille","lat":43.26201,"lon":5.37937,"is_reserved":false,"is_disabled":false,"rental_uris":{"android":"levelo://app?vid=4ef6fcc8-e29f-4f7b-bfb6-492772c7e8d5","ios":"levelo://app?vid=4ef6fcc8-e29f-4f7b-bfb6-492772c7e8d5"},"vehicle_type_id":"4","last_reported":1728752789,"current_range_meters":39200,"station_id":"ce4bhjp2rcd13ifvqg90","pricing_plan_id":"cebpf4jnsgd1na2vs0mg"},{"bike_id":"226f67a9-6412-4cd8-9fe6-13d70400db8a","system_id":"levelo_inurba_marseille","lat":43.30463,"lon":5.37896,"is_reserved":false,"is_disabled":false,"rental_uris":{"android":"levelo://app?vid=226f67a9-6412-4cd8-9fe6-13d70400db8a","ios":"levelo://app?vid=226f67a9-6412-4cd8-9fe6-13d70400db8a"},"vehicle_type_id":"4","last_reported":1728752789,"current_range_meters":38800,"station_id":"ce4bgup2rcd13ifvqcn0","pricing_plan_id":"cebpf4jnsgd1na2vs0mg"},{"bike_id":"582ad7b2-0c99-49f9-a2f2-dac0326bf093","system_id":"levelo_inurba_marseille","lat":43.29032,"lon":5.37567,"is_reserved":false,"is_disabled":false,"rental_uris":{"android":"levelo://app?vid=582ad7b2-0c99-49f9-a2f2-dac0326bf093","ios":"levelo://app?vid=582ad7b2-0c99-49f9-a2f2-dac0326bf093"},"vehicle_type_id":"4","last_reported":1728752789,"current_range_meters":38800,"station_id":"ce4bh692rcd13ifvqe90","pricing_plan_id":"cebpf4jnsgd1na2vs0mg"},{"bike_id":"092b0836-7fc6-4398-a8ce-013142346652","system_id":"levelo_inurba_marseille","lat":43.29549,"lon":5.42283,"is_reserved":false,"is_disabled":false,"rental_uris":{"android":"levelo://app?vid=092b0836-7fc6-4398-a8ce-013142346652","ios":"levelo://app?vid=092b0836-7fc6-4398-a8ce-013142346652"},"vehicle_type_id":"4","last_reported":1728752789,"current_range_meters":16000,"station_id":"ce4bhph2rcd13ifvqhdg","pricing_plan_id":"cebpf4jnsgd1na2vs0mg"},{"bike_id":"5215c02b-9ef4-43e3-a63b-5be648682d97","system_id":"levelo_inurba_marseille","lat":43.29269,"lon":5.36849,"is_reserved":false,"is_disabled":false,"rental_uris":{"android":"levelo://app?vid=5215c02b-9ef4-43e3-a63b-5be648682d97","ios":"levelo://app?vid=5215c02b-9ef4-43e3-a63b-5be648682d97"},"vehicle_type_id":"4","last_reported":1728752789,"current_range_meters":4400,"station_id":"ce4bhbp2rcd13ifvqesg","pricing_plan_id":"cebpf4jnsgd1na2vs0mg"},{"bike_id":"644c2ccd-1d06-4bae-8eec-ebb78f728685","system_id":"levelo_inurba_marseille","lat":43.29803,"lon":5.38105,"is_reserved":false,"is_disabled":false,"rental_uris":{"android":"levelo://app?vid=644c2ccd-1d06-4bae-8eec-ebb78f728685","ios":"levelo://app?vid=644c2ccd-1d06-4bae-8eec-ebb78f728685"},"vehicle_type_id":"4","last_reported":1728752789,"current_range_meters":20400,"station_id":"ce4bgip2rcd13ifvqbb0","pricing_plan_id":"cebpf4jnsgd1na2vs0mg"},{"bike_id":"0e05ad9f-cdae-4c0b-871f-37599bddacee","system_id":"levelo_inurba_marseille","lat":43.29062,"lon":5.37157,"is_reserved":false,"is_disabled":false,"rental_uris":{"android":"levelo://app?vid=0e05ad9f-cdae-4c0b-871f-37599bddacee","ios":"levelo://app?vid=0e05ad9f-cdae-4c0b-871f-37599bddacee"},"vehicle_type_id":"4","last_reported":1728752789,"current_range_meters":27600,"station_id":"ce4bh5p2rcd13ifvqe4g","pricing_plan_id":"cebpf4jnsgd1na2vs0mg"},{"bike_id":"3e853644-4870-401d-97db-a05843277d7b","system_id":"levelo_inurba_marseille","lat":43.26952,"lon":5.38627,"is_reserved":false,"is_disabled":false,"rental_uris":{"android":"levelo://app?vid=3e853644-4870-401d-97db-a05843277d7b","ios":"levelo://app?vid=3e853644-4870-401d-97db-a05843277d7b"},"vehicle_type_id":"4","last_reported":1728752789,"current_range_meters":10000,"station_id":"ce4bhh92rcd13ifvqfh0","pricing_plan_id":"cebpf4jnsgd1na2vs0mg"},{"bike_id":"49316722-f5ca-469e-b328-cdeaebfb0c7f","system_id":"levelo_inurba_marseille","lat":43.28448,"lon":5.35895,"is_reserved":false,"is_disabled":false,"rental_uris":{"android":"levelo://app?vid=49316722-f5ca-469e-b328-cdeaebfb0c7f","ios":"levelo://app?vid=49316722-f5ca-469e-b328-cdeaebfb0c7f"},"vehicle_type_id":"4","last_reported":1728752789,"current_range_meters":9200,"station_id":"ce4bhah2rcd13ifvqei0","pricing_plan_id":"cebpf4jnsgd1na2vs0mg"},{"bike_id":"15254206-329d-48c1-ade5-4f041296e370","system_id":"levelo_inurba_marseille","lat":43.30534,"lon":5.36553,"is_reserved":false,"is_disabled":false,"rental_uris":{"android":"levelo://app?vid=15254206-329d-48c1-ade5-4f041296e370","ios":"levelo://app?vid=15254206-329d-48c1-ade5-4f041296e370"},"vehicle_type_id":"4","last_reported":1728752789,"current_range_meters":25200,"station_id":"ce4bgs12rcd13ifvqcag","pricing_plan_id":"cebpf4jnsgd1na2vs0mg"},{"bike_id":"d0651a74-94b8-4487-bb06-15aba081fe2c","system_id":"levelo_inurba_marseille","lat":43.24651,"lon":5.38895,"is_reserved":false,"is_disabled":false,"rental_uris":{"android":"levelo://app?vid=d0651a74-94b8-4487-bb06-15aba081fe2c","ios":"levelo://app?vid=d0651a74-94b8-4487-bb06-15aba081fe2c"},"vehicle_type_id":"4","last_reported":1728752789,"current_range_meters":19200,"station_id":"ce4bhg12rcd13ifvqf60","pricing_plan_id":"cebpf4jnsgd1na2vs0mg"},{"bike_id":"ba683a66-bc5f-42b6-85bb-0f00dad8b260","system_id":"levelo_inurba_marseille","lat":43.26929,"lon":5.38917,"is_reserved":false,"is_disabled":false,"rental_uris":{"android":"levelo://app?vid=ba683a66-bc5f-42b6-85bb-0f00dad8b260","ios":"levelo://app?vid=ba683a66-bc5f-42b6-85bb-0f00dad8b260"},"vehicle_type_id":"4","last_reported":1728752789,"current_range_meters":38800,"station_id":"ce4bhhh2rcd13ifvqfl0","pricing_plan_id":"cebpf4jnsgd1na2vs0mg"},{"bike_id":"1db455cd-57ef-4a47-a30a-353a9feeb44b","system_id":"levelo_inurba_marseille","lat":43.2549,"lon":5.37646,"is_reserved":false,"is_disabled":false,"rental_uris":{"android":"levelo://app?vid=1db455cd-57ef-4a47-a30a-353a9feeb44b","ios":"levelo://app?vid=1db455cd-57ef-4a47-a30a-353a9feeb44b"},"vehicle_type_id":"4","last_reported":1728752789,"current_range_meters":36800,"station_id":"ce4bhh12rcd13ifvqff0","pricing_plan_id":"cebpf4jnsgd1na2vs0mg"},{"bike_id":"c12cb0d6-db93-4418-b913-57eec8fad5ea","system_id":"levelo_inurba_marseille","lat":43.27941,"lon":5.41058,"is_reserved":false,"is_disabled":false,"rental_uris":{"android":"levelo://app?vid=c12cb0d6-db93-4418-b913-57eec8fad5ea","ios":"levelo://app?vid=c12cb0d6-db93-4418-b913-57eec8fad5ea"},"vehicle_type_id":"4","last_reported":1728752789,"current_range_meters":20400,"station_id":"ce4bhnp2rcd13ifvqh0g","pricing_plan_id":"cebpf4jnsgd1na2vs0mg"},{"bike_id":"2c0603ac-c009-4ec8-931d-58e62c5afe52","system_id":"levelo_inurba_marseille","lat":43.298944,"lon":5.387454,"is_reserved":false,"is_disabled":false,"rental_uris":{"android":"levelo://app?vid=2c0603ac-c009-4ec8-931d-58e62c5afe52","ios":"levelo://app?vid=2c0603ac-c009-4ec8-931d-58e62c5afe52"},"vehicle_type_id":"4","last_reported":1728752789,"current_range_meters":14800,"station_id":"ce4bh392rcd13ifvqdl0","pricing_plan_id":"cebpf4jnsgd1na2vs0mg"},{"bike_id":"aad69708-28ac-43e6-945e-619f5a7c6bfd","system_id":"levelo_inurba_marseille","lat":43.33781,"lon":5.37443,"is_reserved":false,"is_disabled":false,"rental_uris":{"android":"levelo://app?vid=aad69708-28ac-43e6-945e-619f5a7c6bfd","ios":"levelo://app?vid=aad69708-28ac-43e6-945e-619f5a7c6bfd"},"vehicle_type_id":"4","last_reported":1728752789,"current_range_meters":36800,"station_id":"","pricing_plan_id":"cebpf4jnsgd1na2vs0mg"},{"bike_id":"9559ddac-5e02-49f1-a467-4f60cf7280bf","system_id":"levelo_inurba_marseille","lat":43.29609,"lon":5.37733,"is_reserved":false,"is_disabled":false,"rental_uris":{"android":"levelo://app?vid=9559ddac-5e02-49f1-a467-4f60cf7280bf","ios":"levelo://app?vid=9559ddac-5e02-49f1-a467-4f60cf7280bf"},"vehicle_type_id":"4","last_reported":1728752789,"current_range_meters":38800,"station_id":"ce4bgi92rcd13ifvqb90","pricing_plan_id":"cebpf4jnsgd1na2vs0mg"},{"bike_id":"b1abbe08-8850-4ea2-b56f-196271eca1dc","system_id":"levelo_inurba_marseille","lat":43.29034,"lon":5.3997,"is_reserved":false,"is_disabled":false,"rental_uris":{"android":"levelo://app?vid=b1abbe08-8850-4ea2-b56f-196271eca1dc","ios":"levelo://app?vid=b1abbe08-8850-4ea2-b56f-196271eca1dc"},"vehicle_type_id":"4","last_reported":1728752789,"current_range_meters":18800,"station_id":"ce4bh392rcd13ifvqdm0","pricing_plan_id":"cebpf4jnsgd1na2vs0mg"},{"bike_id":"906d6b09-c3c7-4a0e-9a3c-95f99417fab5","system_id":"levelo_inurba_marseille","lat":43.30911,"lon":5.36844,"is_reserved":false,"is_disabled":false,"rental_uris":{"android":"levelo://app?vid=906d6b09-c3c7-4a0e-9a3c-95f99417fab5","ios":"levelo://app?vid=906d6b09-c3c7-4a0e-9a3c-95f99417fab5"},"vehicle_type_id":"4","last_reported":1728752789,"current_range_meters":38800,"station_id":"ce4bgn92rcd13ifvqbvg","pricing_plan_id":"cebpf4jnsgd1na2vs0mg"},{"bike_id":"236a5046-3961-4f3c-a47a-146df6287742","system_id":"levelo_inurba_marseille","lat":43.275635,"lon":5.384157,"is_reserved":false,"is_disabled":false,"rental_uris":{"android":"levelo://app?vid=236a5046-3961-4f3c-a47a-146df6287742","ios":"levelo://app?vid=236a5046-3961-4f3c-a47a-146df6287742"},"vehicle_type_id":"4","last_reported":1728752789,"current_range_meters":24400,"station_id":"ce4bh9p2rcd13ifvqec0","pricing_plan_id":"cebpf4jnsgd1na2vs0mg"},{"bike_id":"7ab6af88-1ce2-468e-afd9-2030d9219fed","system_id":"levelo_inurba_marseille","lat":43.25004,"lon":5.38924,"is_reserved":false,"is_disabled":false,"rental_uris":{"android":"levelo://app?vid=7ab6af88-1ce2-468e-afd9-2030d9219fed","ios":"levelo://app?vid=7ab6af88-1ce2-468e-afd9-2030d9219fed"},"vehicle_type_id":"4","last_reported":1728752789,"current_range_meters":10000,"station_id":"ce4bhgp2rcd13ifvqfd0","pricing_plan_id":"cebpf4jnsgd1na2vs0mg"},{"bike_id":"a0ede277-832f-4a31-a75a-701b6fa2dc30","system_id":"levelo_inurba_marseille","lat":43.29718,"lon":5.37684,"is_reserved":false,"is_disabled":false,"rental_uris":{"android":"levelo://app?vid=a0ede277-832f-4a31-a75a-701b6fa2dc30","ios":"levelo://app?vid=a0ede277-832f-4a31-a75a-701b6fa2dc30"},"vehicle_type_id":"4","last_reported":1728752789,"current_range_meters":38400,"station_id":"ce4bgkh2rcd13ifvqbl0","pricing_plan_id":"cebpf4jnsgd1na2vs0mg"},{"bike_id":"6773208b-54be-4f73-9763-1da102f65363","system_id":"levelo_inurba_marseille","lat":43.28469,"lon":5.38421,"is_reserved":false,"is_disabled":false,"rental_uris":{"android":"levelo://app?vid=6773208b-54be-4f73-9763-1da102f65363","ios":"levelo://app?vid=6773208b-54be-4f73-9763-1da102f65363"},"vehicle_type_id":"4","last_reported":1728752789,"current_range_meters":19200,"station_id":"ce4bh512rcd13ifvqe3g","pricing_plan_id":"cebpf4jnsgd1na2vs0mg"},{"bike_id":"dbc68946-c891-4683-a222-612ae931f5b8","system_id":"levelo_inurba_marseille","lat":43.2784,"lon":5.39207,"is_reserved":false,"is_disabled":false,"rental_uris":{"android":"levelo://app?vid=dbc68946-c891-4683-a222-612ae931f5b8","ios":"levelo://app?vid=dbc68946-c891-4683-a222-612ae931f5b8"},"vehicle_type_id":"4","last_reported":1728752789,"current_range_meters":35600,"station_id":"ce4bhjp2rcd13ifvqga0","pricing_plan_id":"cebpf4jnsgd1na2vs0mg"},{"bike_id":"e95c1dcf-3473-4d09-95f4-726e791c83ce","system_id":"levelo_inurba_marseille","lat":43.25574,"lon":5.38248,"is_reserved":false,"is_disabled":false,"rental_uris":{"android":"levelo://app?vid=e95c1dcf-3473-4d09-95f4-726e791c83ce","ios":"levelo://app?vid=e95c1dcf-3473-4d09-95f4-726e791c83ce"},"vehicle_type_id":"4","last_reported":1728752789,"current_range_meters":17600,"station_id":"ce4bhih2rcd13ifvqfs0","pricing_plan_id":"cebpf4jnsgd1na2vs0mg"},{"bike_id":"8509fa5d-c6d9-4cb2-b4b1-4f2065b2666e","system_id":"levelo_inurba_marseille","lat":43.283408,"lon":5.410559,"is_reserved":false,"is_disabled":false,"rental_uris":{"android":"levelo://app?vid=8509fa5d-c6d9-4cb2-b4b1-4f2065b2666e","ios":"levelo://app?vid=8509fa5d-c6d9-4cb2-b4b1-4f2065b2666e"},"vehicle_type_id":"4","last_reported":1728752789,"current_range_meters":4400,"station_id":"","pricing_plan_id":"cebpf4jnsgd1na2vs0mg"},{"bike_id":"d1822047-b0bb-483d-a419-c2f300fb3ac6","system_id":"levelo_inurba_marseille","lat":43.24065,"lon":5.37764,"is_reserved":false,"is_disabled":false,"rental_uris":{"android":"levelo://app?vid=d1822047-b0bb-483d-a419-c2f300fb3ac6","ios":"levelo://app?vid=d1822047-b0bb-483d-a419-c2f300fb3ac6"},"vehicle_type_id":"4","last_reported":1728752789,"current_range_meters":24400,"station_id":"ce4bhnp2rcd13ifvqgvg","pricing_plan_id":"cebpf4jnsgd1na2vs0mg"},{"bike_id":"c0e29e78-e844-43dc-82cf-cd7be6a3fb82","system_id":"levelo_inurba_marseille","lat":43.29878,"lon":5.38909,"is_reserved":false,"is_disabled":false,"rental_uris":{"android":"levelo://app?vid=c0e29e78-e844-43dc-82cf-cd7be6a3fb82","ios":"levelo://app?vid=c0e29e78-e844-43dc-82cf-cd7be6a3fb82"},"vehicle_type_id":"4","last_reported":1728752789,"current_range_meters":9600,"station_id":"ce4bh392rcd13ifvqdl0","pricing_plan_id":"cebpf4jnsgd1na2vs0mg"},{"bike_id":"9331688b-a8cb-4ecc-b2f5-2ffe8945c5f2","system_id":"levelo_inurba_marseille","lat":43.26799,"lon":5.40273,"is_reserved":false,"is_disabled":false,"rental_uris":{"android":"levelo://app?vid=9331688b-a8cb-4ecc-b2f5-2ffe8945c5f2","ios":"levelo://app?vid=9331688b-a8cb-4ecc-b2f5-2ffe8945c5f2"},"vehicle_type_id":"4","last_reported":1728752789,"current_range_meters":36400,"station_id":"ce501612rcd8frsf0b60","pricing_plan_id":"cebpf4jnsgd1na2vs0mg"},{"bike_id":"27311a75-ebb6-43d6-9fb5-f3ba72a10e0e","system_id":"levelo_inurba_marseille","lat":43.29901,"lon":5.43661,"is_reserved":false,"is_disabled":false,"rental_uris":{"android":"levelo://app?vid=27311a75-ebb6-43d6-9fb5-f3ba72a10e0e","ios":"levelo://app?vid=27311a75-ebb6-43d6-9fb5-f3ba72a10e0e"},"vehicle_type_id":"4","last_reported":1728752789,"current_range_meters":22800,"station_id":"ce4bhpp2rcd13ifvqhfg","pricing_plan_id":"cebpf4jnsgd1na2vs0mg"},{"bike_id":"da499a84-b98e-4a5b-8c36-fac69794e49c","system_id":"levelo_inurba_marseille","lat":43.29725,"lon":5.37691,"is_reserved":false,"is_disabled":false,"rental_uris":{"android":"levelo://app?vid=da499a84-b98e-4a5b-8c36-fac69794e49c","ios":"levelo://app?vid=da499a84-b98e-4a5b-8c36-fac69794e49c"},"vehicle_type_id":"4","last_reported":1728752789,"current_range_meters":27200,"station_id":"ce4bgkh2rcd13ifvqbl0","pricing_plan_id":"cebpf4jnsgd1na2vs0mg"},{"bike_id":"febaa1fe-2cbb-414d-a22e-d37c36e7c935","system_id":"levelo_inurba_marseille","lat":43.27809,"lon":5.40719,"is_reserved":false,"is_disabled":false,"rental_uris":{"android":"levelo://app?vid=febaa1fe-2cbb-414d-a22e-d37c36e7c935","ios":"levelo://app?vid=febaa1fe-2cbb-414d-a22e-d37c36e7c935"},"vehicle_type_id":"4","last_reported":1728752789,"current_range_meters":36400,"station_id":"ce4bhnh2rcd13ifvqgtg","pricing_plan_id":"cebpf4jnsgd1na2vs0mg"},{"bike_id":"07cfd4fd-4c9f-4a22-98d2-86f13933e51d","system_id":"levelo_inurba_marseille","lat":43.29547,"lon":5.4229,"is_reserved":false,"is_disabled":false,"rental_uris":{"android":"levelo://app?vid=07cfd4fd-4c9f-4a22-98d2-86f13933e51d","ios":"levelo://app?vid=07cfd4fd-4c9f-4a22-98d2-86f13933e51d"},"vehicle_type_id":"4","last_reported":1728752789,"current_range_meters":28400,"station_id":"ce4bhph2rcd13ifvqhdg","pricing_plan_id":"cebpf4jnsgd1na2vs0mg"},{"bike_id":"cf72ca4e-68f6-4287-8c26-2f08c3cb63dd","system_id":"levelo_inurba_marseille","lat":43.31364,"lon":5.38488,"is_reserved":false,"is_disabled":false,"rental_uris":{"android":"levelo://app?vid=cf72ca4e-68f6-4287-8c26-2f08c3cb63dd","ios":"levelo://app?vid=cf72ca4e-68f6-4287-8c26-2f08c3cb63dd"},"vehicle_type_id":"4","last_reported":1728752789,"current_range_meters":36000,"station_id":"ce4bgt92rcd13ifvqcf0","pricing_plan_id":"cebpf4jnsgd1na2vs0mg"},{"bike_id":"71cd75b0-d344-4e90-98a9-8fdb9d4ddea5","system_id":"levelo_inurba_marseille","lat":43.279061,"lon":5.395704,"is_reserved":false,"is_disabled":false,"rental_uris":{"android":"levelo://app?vid=71cd75b0-d344-4e90-98a9-8fdb9d4ddea5","ios":"levelo://app?vid=71cd75b0-d344-4e90-98a9-8fdb9d4ddea5"},"vehicle_type_id":"4","last_reported":1728752789,"current_range_meters":19600,"station_id":"ce4bhf92rcd13ifvqf40","pricing_plan_id":"cebpf4jnsgd1na2vs0mg"},{"bike_id":"20f06317-6073-4c49-8a22-231ba8100d07","system_id":"levelo_inurba_marseille","lat":43.28032,"lon":5.3696,"is_reserved":false,"is_disabled":false,"rental_uris":{"android":"levelo://app?vid=20f06317-6073-4c49-8a22-231ba8100d07","ios":"levelo://app?vid=20f06317-6073-4c49-8a22-231ba8100d07"},"vehicle_type_id":"4","last_reported":1728752789,"current_range_meters":12800,"station_id":"ce4bha12rcd13ifvqef0","pricing_plan_id":"cebpf4jnsgd1na2vs0mg"},{"bike_id":"7a86ccf0-8763-43b0-b3ca-0d5a2df7225d","system_id":"levelo_inurba_marseille","lat":43.28405,"lon":5.37519,"is_reserved":false,"is_disabled":false,"rental_uris":{"android":"levelo://app?vid=7a86ccf0-8763-43b0-b3ca-0d5a2df7225d","ios":"levelo://app?vid=7a86ccf0-8763-43b0-b3ca-0d5a2df7225d"},"vehicle_type_id":"4","last_reported":1728752789,"current_range_meters":26000,"station_id":"ce4bh412rcd13ifvqds0","pricing_plan_id":"cebpf4jnsgd1na2vs0mg"},{"bike_id":"f31877e5-3489-46de-90a2-30c2f609e90c","system_id":"levelo_inurba_marseille","lat":43.29303,"lon":5.37174,"is_reserved":false,"is_disabled":false,"rental_uris":{"android":"levelo://app?vid=f31877e5-3489-46de-90a2-30c2f609e90c","ios":"levelo://app?vid=f31877e5-3489-46de-90a2-30c2f609e90c"},"vehicle_type_id":"4","last_reported":1728752789,"current_range_meters":18800,"station_id":"ce4bgh92rcd13ifvqb40","pricing_plan_id":"cebpf4jnsgd1na2vs0mg"},{"bike_id":"138a7c1e-06b3-4164-a177-9ffa3159b9fd","system_id":"levelo_inurba_marseille","lat":43.24647,"lon":5.38906,"is_reserved":false,"is_disabled":false,"rental_uris":{"android":"levelo://app?vid=138a7c1e-06b3-4164-a177-9ffa3159b9fd","ios":"levelo://app?vid=138a7c1e-06b3-4164-a177-9ffa3159b9fd"},"vehicle_type_id":"4","last_reported":1728752789,"current_range_meters":1600,"station_id":"ce4bhg12rcd13ifvqf60","pricing_plan_id":"cebpf4jnsgd1na2vs0mg"},{"bike_id":"1c1a6001-30a0-496f-83a0-3932a751e39c","system_id":"levelo_inurba_marseille","lat":43.29366,"lon":5.37852,"is_reserved":false,"is_disabled":false,"rental_uris":{"android":"levelo://app?vid=1c1a6001-30a0-496f-83a0-3932a751e39c","ios":"levelo://app?vid=1c1a6001-30a0-496f-83a0-3932a751e39c"},"vehicle_type_id":"4","last_reported":1728752789,"current_range_meters":2000,"station_id":"ce4bgjh2rcd13ifvqbf0","pricing_plan_id":"cebpf4jnsgd1na2vs0mg"},{"bike_id":"67c38331-69ec-4ea2-883d-353cd23c74a0","system_id":"levelo_inurba_marseille","lat":43.28566,"lon":5.39485,"is_reserved":false,"is_disabled":false,"rental_uris":{"android":"levelo://app?vid=67c38331-69ec-4ea2-883d-353cd23c74a0","ios":"levelo://app?vid=67c38331-69ec-4ea2-883d-353cd23c74a0"},"vehicle_type_id":"4","last_reported":1728752789,"current_range_meters":3200,"station_id":"ce4bh292rcd13ifvqdg0","pricing_plan_id":"cebpf4jnsgd1na2vs0mg"},{"bike_id":"72ade63f-e3f7-44ed-a0d7-5b78be04197b","system_id":"levelo_inurba_marseille","lat":43.30536,"lon":5.36547,"is_reserved":false,"is_disabled":false,"rental_uris":{"android":"levelo://app?vid=72ade63f-e3f7-44ed-a0d7-5b78be04197b","ios":"levelo://app?vid=72ade63f-e3f7-44ed-a0d7-5b78be04197b"},"vehicle_type_id":"4","last_reported":1728752789,"current_range_meters":32400,"station_id":"ce4bgs12rcd13ifvqcag","pricing_plan_id":"cebpf4jnsgd1na2vs0mg"},{"bike_id":"f0aa32d8-4ddd-496a-9571-e8bae9de7c44","system_id":"levelo_inurba_marseille","lat":43.27158,"lon":5.38605,"is_reserved":false,"is_disabled":false,"rental_uris":{"android":"levelo://app?vid=f0aa32d8-4ddd-496a-9571-e8bae9de7c44","ios":"levelo://app?vid=f0aa32d8-4ddd-496a-9571-e8bae9de7c44"},"vehicle_type_id":"4","last_reported":1728752789,"current_range_meters":14000,"station_id":"","pricing_plan_id":"cebpf4jnsgd1na2vs0mg"},{"bike_id":"e8960b91-22e8-41ea-895b-30144552e0d5","system_id":"levelo_inurba_marseille","lat":43.26552,"lon":5.37293,"is_reserved":false,"is_disabled":false,"rental_uris":{"android":"levelo://app?vid=e8960b91-22e8-41ea-895b-30144552e0d5","ios":"levelo://app?vid=e8960b91-22e8-41ea-895b-30144552e0d5"},"vehicle_type_id":"4","last_reported":1728752789,"current_range_meters":38800,"station_id":"ce4bhg12rcd13ifvqf70","pricing_plan_id":"cebpf4jnsgd1na2vs0mg"},{"bike_id":"3b2e55c3-662a-40b8-9774-1a39486344eb","system_id":"levelo_inurba_marseille","lat":43.32535,"lon":5.41448,"is_reserved":false,"is_disabled":false,"rental_uris":{"android":"levelo://app?vid=3b2e55c3-662a-40b8-9774-1a39486344eb","ios":"levelo://app?vid=3b2e55c3-662a-40b8-9774-1a39486344eb"},"vehicle_type_id":"4","last_reported":1728752789,"current_range_meters":4000,"station_id":"ce4bhq12rcd13ifvqhhg","pricing_plan_id":"cebpf4jnsgd1na2vs0mg"},{"bike_id":"06254218-f69e-4075-87f9-1812a5e73a7f","system_id":"levelo_inurba_marseille","lat":43.29188,"lon":5.35806,"is_reserved":false,"is_disabled":false,"rental_uris":{"android":"levelo://app?vid=06254218-f69e-4075-87f9-1812a5e73a7f","ios":"levelo://app?vid=06254218-f69e-4075-87f9-1812a5e73a7f"},"vehicle_type_id":"4","last_reported":1728752789,"current_range_meters":4400,"station_id":"ce4bhb12rcd13ifvqel0","pricing_plan_id":"cebpf4jnsgd1na2vs0mg"},{"bike_id":"d20daf99-17a5-4aa6-ae1e-ce3db28a06c9","system_id":"levelo_inurba_marseille","lat":43.29508,"lon":5.39068,"is_reserved":false,"is_disabled":false,"rental_uris":{"android":"levelo://app?vid=d20daf99-17a5-4aa6-ae1e-ce3db28a06c9","ios":"levelo://app?vid=d20daf99-17a5-4aa6-ae1e-ce3db28a06c9"},"vehicle_type_id":"4","last_reported":1728752789,"current_range_meters":36400,"station_id":"ce4bh3p2rcd13ifvqdp0","pricing_plan_id":"cebpf4jnsgd1na2vs0mg"},{"bike_id":"610bfb8b-3e91-4e90-b1f9-7f3d953e2cb4","system_id":"levelo_inurba_marseille","lat":43.24394,"lon":5.37066,"is_reserved":false,"is_disabled":false,"rental_uris":{"android":"levelo://app?vid=610bfb8b-3e91-4e90-b1f9-7f3d953e2cb4","ios":"levelo://app?vid=610bfb8b-3e91-4e90-b1f9-7f3d953e2cb4"},"vehicle_type_id":"4","last_reported":1728752789,"current_range_meters":26000,"station_id":"ce4bhhh2rcd13ifvqfk0","pricing_plan_id":"cebpf4jnsgd1na2vs0mg"},{"bike_id":"42006aa6-7aec-4704-bb84-014f53bba7f6","system_id":"levelo_inurba_marseille","lat":43.33019,"lon":5.39036,"is_reserved":false,"is_disabled":false,"rental_uris":{"android":"levelo://app?vid=42006aa6-7aec-4704-bb84-014f53bba7f6","ios":"levelo://app?vid=42006aa6-7aec-4704-bb84-014f53bba7f6"},"vehicle_type_id":"4","last_reported":1728752789,"current_range_meters":11200,"station_id":"ce4bhr92rcd13ifvqhrg","pricing_plan_id":"cebpf4jnsgd1na2vs0mg"},{"bike_id":"9ec0ef91-4616-4eb6-bd7d-3df4a7fd194f","system_id":"levelo_inurba_marseille","lat":43.26061,"lon":5.394,"is_reserved":false,"is_disabled":false,"rental_uris":{"android":"levelo://app?vid=9ec0ef91-4616-4eb6-bd7d-3df4a7fd194f","ios":"levelo://app?vid=9ec0ef91-4616-4eb6-bd7d-3df4a7fd194f"},"vehicle_type_id":"4","last_reported":1728752789,"current_range_meters":10000,"station_id":"ce4bhh92rcd13ifvqfj0","pricing_plan_id":"cebpf4jnsgd1na2vs0mg"},{"bike_id":"238e03cb-2d0f-490f-b701-2b47aa7b8da9","system_id":"levelo_inurba_marseille","lat":43.29614,"lon":5.3772,"is_reserved":false,"is_disabled":false,"rental_uris":{"android":"levelo://app?vid=238e03cb-2d0f-490f-b701-2b47aa7b8da9","ios":"levelo://app?vid=238e03cb-2d0f-490f-b701-2b47aa7b8da9"},"vehicle_type_id":"4","last_reported":1728752789,"current_range_meters":36800,"station_id":"ce4bgi92rcd13ifvqb90","pricing_plan_id":"cebpf4jnsgd1na2vs0mg"},{"bike_id":"4e5d65c2-b838-44d4-9d94-66eb2b21490e","system_id":"levelo_inurba_marseille","lat":43.29622,"lon":5.37711,"is_reserved":false,"is_disabled":false,"rental_uris":{"android":"levelo://app?vid=4e5d65c2-b838-44d4-9d94-66eb2b21490e","ios":"levelo://app?vid=4e5d65c2-b838-44d4-9d94-66eb2b21490e"},"vehicle_type_id":"4","last_reported":1728752789,"current_range_meters":26800,"station_id":"ce4bgi92rcd13ifvqb90","pricing_plan_id":"cebpf4jnsgd1na2vs0mg"},{"bike_id":"c150fabd-fb5f-4a32-9316-151fd556c677","system_id":"levelo_inurba_marseille","lat":43.2984,"lon":5.36275,"is_reserved":false,"is_disabled":false,"rental_uris":{"android":"levelo://app?vid=c150fabd-fb5f-4a32-9316-151fd556c677","ios":"levelo://app?vid=c150fabd-fb5f-4a32-9316-151fd556c677"},"vehicle_type_id":"4","last_reported":1728752789,"current_range_meters":2000,"station_id":"ce4bgpp2rcd13ifvqc3g","pricing_plan_id":"cebpf4jnsgd1na2vs0mg"},{"bike_id":"f8d023de-be2b-4cde-a045-42d21fdf53e2","system_id":"levelo_inurba_marseille","lat":43.25,"lon":5.38918,"is_reserved":false,"is_disabled":false,"rental_uris":{"android":"levelo://app?vid=f8d023de-be2b-4cde-a045-42d21fdf53e2","ios":"levelo://app?vid=f8d023de-be2b-4cde-a045-42d21fdf53e2"},"vehicle_type_id":"4","last_reported":1728752789,"current_range_meters":37600,"station_id":"ce4bhgp2rcd13ifvqfd0","pricing_plan_id":"cebpf4jnsgd1na2vs0mg"},{"bike_id":"43e4af09-8c8e-44b4-892b-14e52f4760de","system_id":"levelo_inurba_marseille","lat":43.29798,"lon":5.38096,"is_reserved":false,"is_disabled":false,"rental_uris":{"android":"levelo://app?vid=43e4af09-8c8e-44b4-892b-14e52f4760de","ios":"levelo://app?vid=43e4af09-8c8e-44b4-892b-14e52f4760de"},"vehicle_type_id":"4","last_reported":1728752789,"current_range_meters":24400,"station_id":"ce4bh192rcd13ifvqdb0","pricing_plan_id":"cebpf4jnsgd1na2vs0mg"},{"bike_id":"13d2f0a3-dfbf-46af-95c8-c9c05854059e","system_id":"levelo_inurba_marseille","lat":43.29577,"lon":5.36741,"is_reserved":false,"is_disabled":false,"rental_uris":{"android":"levelo://app?vid=13d2f0a3-dfbf-46af-95c8-c9c05854059e","ios":"levelo://app?vid=13d2f0a3-dfbf-46af-95c8-c9c05854059e"},"vehicle_type_id":"4","last_reported":1728752789,"current_range_meters":38800,"station_id":"ce4bgph2rcd13ifvqc2g","pricing_plan_id":"cebpf4jnsgd1na2vs0mg"},{"bike_id":"8eb5e8c7-5ba5-4d04-9248-917b20970616","system_id":"levelo_inurba_marseille","lat":43.2417,"lon":5.36397,"is_reserved":false,"is_disabled":false,"rental_uris":{"android":"levelo://app?vid=8eb5e8c7-5ba5-4d04-9248-917b20970616","ios":"levelo://app?vid=8eb5e8c7-5ba5-4d04-9248-917b20970616"},"vehicle_type_id":"4","last_reported":1728752789,"current_range_meters":38000,"station_id":"cpo36qri1sfpv3e86is0","pricing_plan_id":"cebpf4jnsgd1na2vs0mg"},