{"last_updated":1779259089,"ttl":60,"version":"2.2","data":{"bikes":[{"bike_id":"7d641315-6110-49cb-a9dd-d637ff032de1","system_id":"levelo_inurba_marseille","lat":43.337444,"lon":5.374475,"is_reserved":false,"is_disabled":false,"rental_uris":{"android":"levelo://app?vid=7d641315-6110-49cb-a9dd-d637ff032de1","ios":"levelo://app?vid=7d641315-6110-49cb-a9dd-d637ff032de1"},"vehicle_type_id":"4","last_reported":1779259090,"current_range_meters":0,"station_id":"","pricing_plan_id":"cebpf4jnsgd1na2vs0mg"},{"bike_id":"fbcead4d-c7a3-4807-8d8d-2a54eef46a62","system_id":"levelo_inurba_marseille","lat":43.29793,"lon":5.38091,"is_reserved":false,"is_disabled":false,"rental_uris":{"android":"levelo://app?vid=fbcead4d-c7a3-4807-8d8d-2a54eef46a62","ios":"levelo://app?vid=fbcead4d-c7a3-4807-8d8d-2a54eef46a62"},"vehicle_type_id":"4","last_reported":1779259090,"current_range_meters":2800,"station_id":"ce4bgip2rcd13ifvqbb0","pricing_plan_id":"cebpf4jnsgd1na2vs0mg"},{"bike_id":"300be1e4-4062-4458-88d8-4af498daecd5","system_id":"levelo_inurba_marseille","lat":43.24467,"lon":5.4254,"is_reserved":false,"is_disabled":false,"rental_uris":{"android":"levelo://app?vid=300be1e4-4062-4458-88d8-4af498daecd5","ios":"levelo://app?vid=300be1e4-4062-4458-88d8-4af498daecd5"},"vehicle_type_id":"4","last_reported":1779259090,"current_range_meters":2800,"station_id":"st_d4a3vfp97mjs738cd8kg","pricing_plan_id":"cebpf4jnsgd1na2vs0mg"},{"bike_id":"859ff56d-18cc-492b-8658-56eb50f4e061","system_id":"levelo_inurba_marseille","lat":43.23895,"lon":5.37453,"is_reserved":false,"is_disabled":true,"rental_uris":{"android":"levelo://app?vid=859ff56d-18cc-492b-8658-56eb50f4e061","ios":"levelo://app?vid=859ff56d-18cc-492b-8658-56eb50f4e061"},"vehicle_type_id":"4","last_reported":1779259090,"current_range_meters":2800,"station_id":"st_d6sm7csbq4hs73f8fpjg","pricing_plan_id":"cebpf4jnsgd1na2vs0mg"},{"bike_id":"79d2f934-8d2c-41e7-b828-261a434c8238","system_id":"levelo_inurba_marseille","lat":43.28859,"lon":5.42507,"is_reserved":false,"is_disabled":false,"rental_uris":{"android":"levelo://app?vid=79d2f934-8d2c-41e7-b828-261a434c8238","ios":"levelo://app?vid=79d2f934-8d2c-41e7-b828-261a434c8238"},"vehicle_type_id":"4","last_reported":1779259090,"current_range_meters":2800,"station_id":"st_d3b462108ojc7389ooeg","pricing_plan_id":"cebpf4jnsgd1na2vs0mg"},{"bike_id":"b2831627-3b1e-437d-9966-063b64acbf7d","system_id":"levelo_inurba_marseille","lat":43.23956,"lon":5.36609,"is_reserved":false,"is_disabled":false,"rental_uris":{"android":"levelo://app?vid=b2831627-3b1e-437d-9966-063b64acbf7d","ios":"levelo://app?vid=b2831627-3b1e-437d-9966-063b64acbf7d"},"vehicle_type_id":"4","last_reported":1779259090,"current_range_meters":2800,"station_id":"ce4bhi12rcd13ifvqfp0","pricing_plan_id":"cebpf4jnsgd1na2vs0mg"},{"bike_id":"b8fcda59-1890-49c2-9e58-c17636f5a617","system_id":"levelo_inurba_marseille","lat":43.30158,"lon":5.3809,"is_reserved":false,"is_disabled":false,"rental_uris":{"android":"levelo://app?vid=b8fcda59-1890-49c2-9e58-c17636f5a617","ios":"levelo://app?vid=b8fcda59-1890-49c2-9e58-c17636f5a617"},"vehicle_type_id":"4","last_reported":1779259090,"current_range_meters":2800,"station_id":"ce4bgjp2rcd13ifvqbh0","pricing_plan_id":"cebpf4jnsgd1na2vs0mg"},{"bike_id":"97d25ce9-a06b-4deb-892e-7b0f3425a913","system_id":"levelo_inurba_marseille","lat":43.30481,"lon":5.37905,"is_reserved":false,"is_disabled":false,"rental_uris":{"android":"levelo://app?vid=97d25ce9-a06b-4deb-892e-7b0f3425a913","ios":"levelo://app?vid=97d25ce9-a06b-4deb-892e-7b0f3425a913"},"vehicle_type_id":"4","last_reported":1779259090,"current_range_meters":2800,"station_id":"ce4bgup2rcd13ifvqcn0","pricing_plan_id":"cebpf4jnsgd1na2vs0mg"},{"bike_id":"b0f701be-92b9-4bcc-8993-ceaafa52f710","system_id":"levelo_inurba_marseille","lat":43.29731,"lon":5.37211,"is_reserved":false,"is_disabled":false,"rental_uris":{"android":"levelo://app?vid=b0f701be-92b9-4bcc-8993-ceaafa52f710","ios":"levelo://app?vid=b0f701be-92b9-4bcc-8993-ceaafa52f710"},"vehicle_type_id":"4","last_reported":1779259090,"current_range_meters":2800,"station_id":"","pricing_plan_id":"cebpf4jnsgd1na2vs0mg"},{"bike_id":"a8ae5349-b91c-4463-a100-02257ab425d8","system_id":"levelo_inurba_marseille","lat":43.27208,"lon":5.38565,"is_reserved":false,"is_disabled":false,"rental_uris":{"android":"levelo://app?vid=a8ae5349-b91c-4463-a100-02257ab425d8","ios":"levelo://app?vid=a8ae5349-b91c-4463-a100-02257ab425d8"},"vehicle_type_id":"4","last_reported":1779259090,"current_range_meters":2800,"station_id":"","pricing_plan_id":"cebpf4jnsgd1na2vs0mg"},{"bike_id":"3b6b7459-b9d0-41bd-86be-bd03ed767798","system_id":"levelo_inurba_marseille","lat":43.31227,"lon":5.36856,"is_reserved":false,"is_disabled":false,"rental_uris":{"android":"levelo://app?vid=3b6b7459-b9d0-41bd-86be-bd03ed767798","ios":"levelo://app?vid=3b6b7459-b9d0-41bd-86be-bd03ed767798"},"vehicle_type_id":"4","last_reported":1779259090,"current_range_meters":2800,"station_id":"ce4bgl92rcd13ifvqbq0","pricing_plan_id":"cebpf4jnsgd1na2vs0mg"},{"bike_id":"f8a29531-121a-49a8-903f-a37061e49ac1","system_id":"levelo_inurba_marseille","lat":43.31237,"lon":5.36953,"is_reserved":false,"is_disabled":false,"rental_uris":{"android":"levelo://app?vid=f8a29531-121a-49a8-903f-a37061e49ac1","ios":"levelo://app?vid=f8a29531-121a-49a8-903f-a37061e49ac1"},"vehicle_type_id":"4","last_reported":1779259090,"current_range_meters":2800,"station_id":"ce4bgl92rcd13ifvqbq0","pricing_plan_id":"cebpf4jnsgd1na2vs0mg"},{"bike_id":"ecf731d7-f581-4f10-9caf-ebc0e6660441","system_id":"levelo_inurba_marseille","lat":43.25092,"lon":5.41408,"is_reserved":false,"is_disabled":false,"rental_uris":{"android":"levelo://app?vid=ecf731d7-f581-4f10-9caf-ebc0e6660441","ios":"levelo://app?vid=ecf731d7-f581-4f10-9caf-ebc0e6660441"},"vehicle_type_id":"4","last_reported":1779259090,"current_range_meters":2800,"station_id":"","pricing_plan_id":"cebpf4jnsgd1na2vs0mg"},{"bike_id":"daf3cafa-2729-478e-b32d-9206df5368b0","system_id":"levelo_inurba_marseille","lat":43.29714,"lon":5.37698,"is_reserved":false,"is_disabled":false,"rental_uris":{"android":"levelo://app?vid=daf3cafa-2729-478e-b32d-9206df5368b0","ios":"levelo://app?vid=daf3cafa-2729-478e-b32d-9206df5368b0"},"vehicle_type_id":"4","last_reported":1779259090,"current_range_meters":2800,"station_id":"ce4bgkh2rcd13ifvqbl0","pricing_plan_id":"cebpf4jnsgd1na2vs0mg"},{"bike_id":"9c7ba857-39d6-4c5c-9614-1646085d9a7b","system_id":"levelo_inurba_marseille","lat":43.289513,"lon":5.363872,"is_reserved":false,"is_disabled":false,"rental_uris":{"android":"levelo://app?vid=9c7ba857-39d6-4c5c-9614-1646085d9a7b","ios":"levelo://app?vid=9c7ba857-39d6-4c5c-9614-1646085d9a7b"},"vehicle_type_id":"4","last_reported":1779259090,"current_range_meters":2800,"station_id":"ce4bhc92rcd13ifvqetg","pricing_plan_id":"cebpf4jnsgd1na2vs0mg"},{"bike_id":"adf6058e-b8c8-4620-a261-3e27d6e5662e","system_id":"levelo_inurba_marseille","lat":43.30167,"lon":5.38095,"is_reserved":false,"is_disabled":false,"rental_uris":{"android":"levelo://app?vid=adf6058e-b8c8-4620-a261-3e27d6e5662e","ios":"levelo://app?vid=adf6058e-b8c8-4620-a261-3e27d6e5662e"},"vehicle_type_id":"4","last_reported":1779259090,"current_range_meters":3200,"station_id":"ce4bgjp2rcd13ifvqbh0","pricing_plan_id":"cebpf4jnsgd1na2vs0mg"},{"bike_id":"186278ad-c69b-4be8-9329-484e439ce29f","system_id":"levelo_inurba_marseille","lat":43.292239,"lon":5.360546,"is_reserved":false,"is_disabled":false,"rental_uris":{"android":"levelo://app?vid=186278ad-c69b-4be8-9329-484e439ce29f","ios":"levelo://app?vid=186278ad-c69b-4be8-9329-484e439ce29f"},"vehicle_type_id":"4","last_reported":1779259090,"current_range_meters":3200,"station_id":"ce4bhbh2rcd13ifvqeqg","pricing_plan_id":"cebpf4jnsgd1na2vs0mg"},{"bike_id":"2331a6d4-8d41-4e0f-bed5-5cb9966b12eb","system_id":"levelo_inurba_marseille","lat":43.28623,"lon":5.39853,"is_reserved":false,"is_disabled":false,"rental_uris":{"android":"levelo://app?vid=2331a6d4-8d41-4e0f-bed5-5cb9966b12eb","ios":"levelo://app?vid=2331a6d4-8d41-4e0f-bed5-5cb9966b12eb"},"vehicle_type_id":"4","last_reported":1779259090,"current_range_meters":3200,"station_id":"st_d4a7ka997mjs738ck50g","pricing_plan_id":"cebpf4jnsgd1na2vs0mg"},{"bike_id":"f75b8c0a-2786-433b-aea5-c9df08b2ad5e","system_id":"levelo_inurba_marseille","lat":43.225317,"lon":5.34828,"is_reserved":false,"is_disabled":false,"rental_uris":{"android":"levelo://app?vid=f75b8c0a-2786-433b-aea5-c9df08b2ad5e","ios":"levelo://app?vid=f75b8c0a-2786-433b-aea5-c9df08b2ad5e"},"vehicle_type_id":"4","last_reported":1779259090,"current_range_meters":3200,"station_id":"st_cvj5dfep6f1abm77gieg","pricing_plan_id":"cebpf4jnsgd1na2vs0mg"},{"bike_id":"00c0f8a4-bbce-4cbe-abe3-a6c97f0ac9b9","system_id":"levelo_inurba_marseille","lat":43.2407,"lon":5.37776,"is_reserved":false,"is_disabled":false,"rental_uris":{"android":"levelo://app?vid=00c0f8a4-bbce-4cbe-abe3-a6c97f0ac9b9","ios":"levelo://app?vid=00c0f8a4-bbce-4cbe-abe3-a6c97f0ac9b9"},"vehicle_type_id":"4","last_reported":1779259090,"current_range_meters":3200,"station_id":"ce4bhnp2rcd13ifvqgvg","pricing_plan_id":"cebpf4jnsgd1na2vs0mg"},{"bike_id":"8557ab80-f88c-4f5c-993f-c3f8eb02102a","system_id":"levelo_inurba_marseille","lat":43.24068,"lon":5.37758,"is_reserved":false,"is_disabled":false,"rental_uris":{"android":"levelo://app?vid=8557ab80-f88c-4f5c-993f-c3f8eb02102a","ios":"levelo://app?vid=8557ab80-f88c-4f5c-993f-c3f8eb02102a"},"vehicle_type_id":"4","last_reported":1779259090,"current_range_meters":3200,"station_id":"ce4bhnp2rcd13ifvqgvg","pricing_plan_id":"cebpf4jnsgd1na2vs0mg"},{"bike_id":"01110679-8839-4b40-a60c-291d12abd75e","system_id":"levelo_inurba_marseille","lat":43.31363,"lon":5.38493,"is_reserved":false,"is_disabled":false,"rental_uris":{"android":"levelo://app?vid=01110679-8839-4b40-a60c-291d12abd75e","ios":"levelo://app?vid=01110679-8839-4b40-a60c-291d12abd75e"},"vehicle_type_id":"4","last_reported":1779259090,"current_range_meters":3200,"station_id":"ce4bgt92rcd13ifvqcf0","pricing_plan_id":"cebpf4jnsgd1na2vs0mg"},{"bike_id":"597141d4-ab85-41a1-accc-ae5edc2aa5b2","system_id":"levelo_inurba_marseille","lat":43.30143,"lon":5.37408,"is_reserved":false,"is_disabled":false,"rental_uris":{"android":"levelo://app?vid=597141d4-ab85-41a1-accc-ae5edc2aa5b2","ios":"levelo://app?vid=597141d4-ab85-41a1-accc-ae5edc2aa5b2"},"vehicle_type_id":"4","last_reported":1779259090,"current_range_meters":3200,"station_id":"ce4bgs92rcd13ifvqcc0","pricing_plan_id":"cebpf4jnsgd1na2vs0mg"},{"bike_id":"bc12875f-9dcb-4f14-8ec4-c5a179682ba7","system_id":"levelo_inurba_marseille","lat":43.27927,"lon":5.39578,"is_reserved":false,"is_disabled":false,"rental_uris":{"android":"levelo://app?vid=bc12875f-9dcb-4f14-8ec4-c5a179682ba7","ios":"levelo://app?vid=bc12875f-9dcb-4f14-8ec4-c5a179682ba7"},"vehicle_type_id":"4","last_reported":1779259090,"current_range_meters":3600,"station_id":"ce4bhf92rcd13ifvqf40","pricing_plan_id":"cebpf4jnsgd1na2vs0mg"},{"bike_id":"6370e735-5db8-49f5-8a15-a14271b57f14","system_id":"levelo_inurba_marseille","lat":43.2841,"lon":5.34977,"is_reserved":false,"is_disabled":false,"rental_uris":{"android":"levelo://app?vid=6370e735-5db8-49f5-8a15-a14271b57f14","ios":"levelo://app?vid=6370e735-5db8-49f5-8a15-a14271b57f14"},"vehicle_type_id":"4","last_reported":1779259090,"current_range_meters":3600,"station_id":"ce4bhbh2rcd13ifvqepg","pricing_plan_id":"cebpf4jnsgd1na2vs0mg"},{"bike_id":"9d45a253-1d3a-41f8-95ed-2518452886d5","system_id":"levelo_inurba_marseille","lat":43.25518,"lon":5.37646,"is_reserved":false,"is_disabled":false,"rental_uris":{"android":"levelo://app?vid=9d45a253-1d3a-41f8-95ed-2518452886d5","ios":"levelo://app?vid=9d45a253-1d3a-41f8-95ed-2518452886d5"},"vehicle_type_id":"4","last_reported":1779259090,"current_range_meters":3600,"station_id":"ce4bhh12rcd13ifvqff0","pricing_plan_id":"cebpf4jnsgd1na2vs0mg"},{"bike_id":"cd1dc5b4-310f-4c4a-bc55-2ffbc8ea9bb1","system_id":"levelo_inurba_marseille","lat":43.29065,"lon":5.37157,"is_reserved":false,"is_disabled":true,"rental_uris":{"android":"levelo://app?vid=cd1dc5b4-310f-4c4a-bc55-2ffbc8ea9bb1","ios":"levelo://app?vid=cd1dc5b4-310f-4c4a-bc55-2ffbc8ea9bb1"},"vehicle_type_id":"4","last_reported":1779259090,"current_range_meters":3600,"station_id":"ce4bh5p2rcd13ifvqe4g","pricing_plan_id":"cebpf4jnsgd1na2vs0mg"},{"bike_id":"e550f9e7-f768-4205-8bb4-7c998391c95c","system_id":"levelo_inurba_marseille","lat":43.27947,"lon":5.38714,"is_reserved":false,"is_disabled":false,"rental_uris":{"android":"levelo://app?vid=e550f9e7-f768-4205-8bb4-7c998391c95c","ios":"levelo://app?vid=e550f9e7-f768-4205-8bb4-7c998391c95c"},"vehicle_type_id":"4","last_reported":1779259090,"current_range_meters":3600,"station_id":"ce4bhg12rcd13ifvqf80","pricing_plan_id":"cebpf4jnsgd1na2vs0mg"},{"bike_id":"db12deac-1b17-4624-a944-43ce0ec2f5bc","system_id":"levelo_inurba_marseille","lat":43.29555,"lon":5.42294,"is_reserved":false,"is_disabled":false,"rental_uris":{"android":"levelo://app?vid=db12deac-1b17-4624-a944-43ce0ec2f5bc","ios":"levelo://app?vid=db12deac-1b17-4624-a944-43ce0ec2f5bc"},"vehicle_type_id":"4","last_reported":1779259090,"current_range_meters":3600,"station_id":"ce4bhph2rcd13ifvqhdg","pricing_plan_id":"cebpf4jnsgd1na2vs0mg"},{"bike_id":"16442d89-de7c-44c0-8e4b-b11b87606af0","system_id":"levelo_inurba_marseille","lat":43.292272,"lon":5.36072,"is_reserved":false,"is_disabled":false,"rental_uris":{"android":"levelo://app?vid=16442d89-de7c-44c0-8e4b-b11b87606af0","ios":"levelo://app?vid=16442d89-de7c-44c0-8e4b-b11b87606af0"},"vehicle_type_id":"4","last_reported":1779259090,"current_range_meters":3600,"station_id":"ce4bhbh2rcd13ifvqeqg","pricing_plan_id":"cebpf4jnsgd1na2vs0mg"},{"bike_id":"f451036e-9d87-4bc3-873a-21f4bf47e9b7","system_id":"levelo_inurba_marseille","lat":43.30376,"lon":5.42499,"is_reserved":false,"is_disabled":false,"rental_uris":{"android":"levelo://app?vid=f451036e-9d87-4bc3-873a-21f4bf47e9b7","ios":"levelo://app?vid=f451036e-9d87-4bc3-873a-21f4bf47e9b7"},"vehicle_type_id":"4","last_reported":1779259090,"current_range_meters":3600,"station_id":"ce4bhoh2rcd13ifvqh6g","pricing_plan_id":"cebpf4jnsgd1na2vs0mg"},{"bike_id":"01a535c2-2aa8-486c-b4e8-7a7aace55e7e","system_id":"levelo_inurba_marseille","lat":43.21754,"lon":5.34621,"is_reserved":false,"is_disabled":true,"rental_uris":{"android":"levelo://app?vid=01a535c2-2aa8-486c-b4e8-7a7aace55e7e","ios":"levelo://app?vid=01a535c2-2aa8-486c-b4e8-7a7aace55e7e"},"vehicle_type_id":"4","last_reported":1779259090,"current_range_meters":3600,"station_id":"st_cvj6r9ubvosntc0bgbag","pricing_plan_id":"cebpf4jnsgd1na2vs0mg"},{"bike_id":"47cf22c1-147b-45b7-a5dd-2a0ab8089af5","system_id":"levelo_inurba_marseille","lat":43.28485,"lon":5.38417,"is_reserved":false,"is_disabled":false,"rental_uris":{"android":"levelo://app?vid=47cf22c1-147b-45b7-a5dd-2a0ab8089af5","ios":"levelo://app?vid=47cf22c1-147b-45b7-a5dd-2a0ab8089af5"},"vehicle_type_id":"4","last_reported":1779259090,"current_range_meters":3600,"station_id":"ce4bh512rcd13ifvqe3g","pricing_plan_id":"cebpf4jnsgd1na2vs0mg"},{"bike_id":"2e6b9d1b-bee2-4039-b709-5ce0c6075c47","system_id":"levelo_inurba_marseille","lat":43.31342,"lon":5.36718,"is_reserved":false,"is_disabled":false,"rental_uris":{"android":"levelo://app?vid=2e6b9d1b-bee2-4039-b709-5ce0c6075c47","ios":"levelo://app?vid=2e6b9d1b-bee2-4039-b709-5ce0c6075c47"},"vehicle_type_id":"4","last_reported":1779259090,"current_range_meters":3600,"station_id":"ce4bgr92rcd13ifvqc6g","pricing_plan_id":"cebpf4jnsgd1na2vs0mg"},{"bike_id":"e8703d1e-38d7-4a37-8b34-74e110535cc7","system_id":"levelo_inurba_marseille","lat":43.2508,"lon":5.39509,"is_reserved":false,"is_disabled":false,"rental_uris":{"android":"levelo://app?vid=e8703d1e-38d7-4a37-8b34-74e110535cc7","ios":"levelo://app?vid=e8703d1e-38d7-4a37-8b34-74e110535cc7"},"vehicle_type_id":"4","last_reported":1779259090,"current_range_meters":4000,"station_id":"ce4bhm12rcd13ifvqgkg","pricing_plan_id":"cebpf4jnsgd1na2vs0mg"},{"bike_id":"604c8d35-0292-4781-b66d-7833a0f007ea","system_id":"levelo_inurba_marseille","lat":43.33531,"lon":5.3745,"is_reserved":false,"is_disabled":false,"rental_uris":{"android":"levelo://app?vid=604c8d35-0292-4781-b66d-7833a0f007ea","ios":"levelo://app?vid=604c8d35-0292-4781-b66d-7833a0f007ea"},"vehicle_type_id":"4","last_reported":1779259090,"current_range_meters":4000,"station_id":"st_d46tts09ee8s73dlu43g","pricing_plan_id":"cebpf4jnsgd1na2vs0mg"},{"bike_id":"4a8fff30-cbc5-491d-8d3e-d22b568d1485","system_id":"levelo_inurba_marseille","lat":43.26464,"lon":5.37418,"is_reserved":false,"is_disabled":false,"rental_uris":{"android":"levelo://app?vid=4a8fff30-cbc5-491d-8d3e-d22b568d1485","ios":"levelo://app?vid=4a8fff30-cbc5-491d-8d3e-d22b568d1485"},"vehicle_type_id":"4","last_reported":1779259090,"current_range_meters":4000,"station_id":"","pricing_plan_id":"cebpf4jnsgd1na2vs0mg"},{"bike_id":"c4c56dca-3c1e-48c7-b5bd-d8adea2c4f5c","system_id":"levelo_inurba_marseille","lat":43.2707,"lon":5.42281,"is_reserved":false,"is_disabled":false,"rental_uris":{"android":"levelo://app?vid=c4c56dca-3c1e-48c7-b5bd-d8adea2c4f5c","ios":"levelo://app?vid=c4c56dca-3c1e-48c7-b5bd-d8adea2c4f5c"},"vehicle_type_id":"4","last_reported":1779259090,"current_range_meters":4000,"station_id":"ce4bhk92rcd13ifvqgb0","pricing_plan_id":"cebpf4jnsgd1na2vs0mg"},{"bike_id":"a589afee-c55a-43a1-8dc9-b4e20ff4b3a0","system_id":"levelo_inurba_marseille","lat":43.25595,"lon":5.38197,"is_reserved":false,"is_disabled":false,"rental_uris":{"android":"levelo://app?vid=a589afee-c55a-43a1-8dc9-b4e20ff4b3a0","ios":"levelo://app?vid=a589afee-c55a-43a1-8dc9-b4e20ff4b3a0"},"vehicle_type_id":"4","last_reported":1779259090,"current_range_meters":4000,"station_id":"ce4bhih2rcd13ifvqfs0","pricing_plan_id":"cebpf4jnsgd1na2vs0mg"},{"bike_id":"7c260c7d-d9ed-4ca3-9e2d-27bf132a1d6d","system_id":"levelo_inurba_marseille","lat":43.301559,"lon":5.38132,"is_reserved":false,"is_disabled":false,"rental_uris":{"android":"levelo://app?vid=7c260c7d-d9ed-4ca3-9e2d-27bf132a1d6d","ios":"levelo://app?vid=7c260c7d-d9ed-4ca3-9e2d-27bf132a1d6d"},"vehicle_type_id":"4","last_reported":1779259090,"current_range_meters":4000,"station_id":"ce4bgjp2rcd13ifvqbh0","pricing_plan_id":"cebpf4jnsgd1na2vs0mg"},{"bike_id":"db8a4dd4-5383-4c0f-a06a-3d7a00c725c2","system_id":"levelo_inurba_marseille","lat":43.2496,"lon":5.40497,"is_reserved":false,"is_disabled":false,"rental_uris":{"android":"levelo://app?vid=db8a4dd4-5383-4c0f-a06a-3d7a00c725c2","ios":"levelo://app?vid=db8a4dd4-5383-4c0f-a06a-3d7a00c725c2"},"vehicle_type_id":"4","last_reported":1779259090,"current_range_meters":4000,"station_id":"st_d2ngiaodas8pm72gd1h0","pricing_plan_id":"cebpf4jnsgd1na2vs0mg"},{"bike_id":"4a6004cb-81db-446b-bd1b-e9cda2ae00f1","system_id":"levelo_inurba_marseille","lat":43.30596,"lon":5.39348,"is_reserved":false,"is_disabled":false,"rental_uris":{"android":"levelo://app?vid=4a6004cb-81db-446b-bd1b-e9cda2ae00f1","ios":"levelo://app?vid=4a6004cb-81db-446b-bd1b-e9cda2ae00f1"},"vehicle_type_id":"4","last_reported":1779259090,"current_range_meters":4000,"station_id":"ce4bh0p2rcd13ifvqd80","pricing_plan_id":"cebpf4jnsgd1na2vs0mg"},{"bike_id":"f8b10a4b-682d-4cfe-80c9-3f8b79553382","system_id":"levelo_inurba_marseille","lat":43.28723,"lon":5.37936,"is_reserved":false,"is_disabled":false,"rental_uris":{"android":"levelo://app?vid=f8b10a4b-682d-4cfe-80c9-3f8b79553382","ios":"levelo://app?vid=f8b10a4b-682d-4cfe-80c9-3f8b79553382"},"vehicle_type_id":"4","last_reported":1779259090,"current_range_meters":4000,"station_id":"ce4bh9p2rcd13ifvqec0","pricing_plan_id":"cebpf4jnsgd1na2vs0mg"},{"bike_id":"69fb0f2e-8291-4305-b561-741ac11e259e","system_id":"levelo_inurba_marseille","lat":43.276186,"lon":5.361004,"is_reserved":false,"is_disabled":true,"rental_uris":{"android":"levelo://app?vid=69fb0f2e-8291-4305-b561-741ac11e259e","ios":"levelo://app?vid=69fb0f2e-8291-4305-b561-741ac11e259e"},"vehicle_type_id":"4","last_reported":1779259090,"current_range_meters":4000,"station_id":"ce4bgj92rcd13ifvqbe0","pricing_plan_id":"cebpf4jnsgd1na2vs0mg"},{"bike_id":"ae1bbb4a-8acf-4bc5-86be-fbbb4dfd0482","system_id":"levelo_inurba_marseille","lat":43.30605,"lon":5.39375,"is_reserved":false,"is_disabled":false,"rental_uris":{"android":"levelo://app?vid=ae1bbb4a-8acf-4bc5-86be-fbbb4dfd0482","ios":"levelo://app?vid=ae1bbb4a-8acf-4bc5-86be-fbbb4dfd0482"},"vehicle_type_id":"4","last_reported":1779259090,"current_range_meters":4000,"station_id":"ce4bh0p2rcd13ifvqd80","pricing_plan_id":"cebpf4jnsgd1na2vs0mg"},{"bike_id":"067f2f13-48e8-47ec-9c83-abdea3739438","system_id":"levelo_inurba_marseille","lat":43.28001,"lon":5.41658,"is_reserved":false,"is_disabled":false,"rental_uris":{"android":"levelo://app?vid=067f2f13-48e8-47ec-9c83-abdea3739438","ios":"levelo://app?vid=067f2f13-48e8-47ec-9c83-abdea3739438"},"vehicle_type_id":"4","last_reported":1779259090,"current_range_meters":4000,"station_id":"ce4bho12rcd13ifvqh1g","pricing_plan_id":"cebpf4jnsgd1na2vs0mg"},{"bike_id":"89dcf81e-d685-4eb4-82aa-fe68a85d332a","system_id":"levelo_inurba_marseille","lat":43.32095,"lon":5.3677,"is_reserved":false,"is_disabled":false,"rental_uris":{"android":"levelo://app?vid=89dcf81e-d685-4eb4-82aa-fe68a85d332a","ios":"levelo://app?vid=89dcf81e-d685-4eb4-82aa-fe68a85d332a"},"vehicle_type_id":"4","last_reported":1779259090,"current_range_meters":4000,"station_id":"ce4bhrh2rcd13ifvqhug","pricing_plan_id":"cebpf4jnsgd1na2vs0mg"},{"bike_id":"a57b6d8c-426e-41f2-88fd-ed699a7b5fab","system_id":"levelo_inurba_marseille","lat":43.32098,"lon":5.36777,"is_reserved":false,"is_disabled":false,"rental_uris":{"android":"levelo://app?vid=a57b6d8c-426e-41f2-88fd-ed699a7b5fab","ios":"levelo://app?vid=a57b6d8c-426e-41f2-88fd-ed699a7b5fab"},"vehicle_type_id":"4","last_reported":1779259090,"current_range_meters":4000,"station_id":"ce4bhrh2rcd13ifvqhug","pricing_plan_id":"cebpf4jnsgd1na2vs0mg"},{"bike_id":"79da1dd6-b9f5-480f-b0ea-915a4adcf686","system_id":"levelo_inurba_marseille","lat":43.27209,"lon":5.39166,"is_reserved":false,"is_disabled":false,"rental_uris":{"android":"levelo://app?vid=79da1dd6-b9f5-480f-b0ea-915a4adcf686","ios":"levelo://app?vid=79da1dd6-b9f5-480f-b0ea-915a4adcf686"},"vehicle_type_id":"4","last_reported":1779259090,"current_range_meters":4000,"station_id":"ce4bhhp2rcd13ifvqfm0","pricing_plan_id":"cebpf4jnsgd1na2vs0mg"},{"bike_id":"418014b9-d267-4e4e-a99e-c2b352fc43ed","system_id":"levelo_inurba_marseille","lat":43.2792,"lon":5.41322,"is_reserved":false,"is_disabled":false,"rental_uris":{"android":"levelo://app?vid=418014b9-d267-4e4e-a99e-c2b352fc43ed","ios":"levelo://app?vid=418014b9-d267-4e4e-a99e-c2b352fc43ed"},"vehicle_type_id":"4","last_reported":1779259090,"current_range_meters":4000,"station_id":"","pricing_plan_id":"cebpf4jnsgd1na2vs0mg"},{"bike_id":"ee5fe437-24bf-482c-8cfc-fb6ec77b2c51","system_id":"levelo_inurba_marseille","lat":43.289296,"lon":5.36401,"is_reserved":false,"is_disabled":true,"rental_uris":{"android":"levelo://app?vid=ee5fe437-24bf-482c-8cfc-fb6ec77b2c51","ios":"levelo://app?vid=ee5fe437-24bf-482c-8cfc-fb6ec77b2c51"},"vehicle_type_id":"4","last_reported":1779259090,"current_range_meters":4000,"station_id":"ce4bhap2rcd13ifvqek0","pricing_plan_id":"cebpf4jnsgd1na2vs0mg"},{"bike_id":"8fdf2610-867c-414a-90c8-21a741d6afa4","system_id":"levelo_inurba_marseille","lat":43.30069,"lon":5.38643,"is_reserved":false,"is_disabled":false,"rental_uris":{"android":"levelo://app?vid=8fdf2610-867c-414a-90c8-21a741d6afa4","ios":"levelo://app?vid=8fdf2610-867c-414a-90c8-21a741d6afa4"},"vehicle_type_id":"4","last_reported":1779259090,"current_range_meters":4000,"station_id":"","pricing_plan_id":"cebpf4jnsgd1na2vs0mg"},{"bike_id":"0ab54c51-2cd5-429e-99a7-d9b354415bcb","system_id":"levelo_inurba_marseille","lat":43.31188,"lon":5.37881,"is_reserved":false,"is_disabled":false,"rental_uris":{"android":"levelo://app?vid=0ab54c51-2cd5-429e-99a7-d9b354415bcb","ios":"levelo://app?vid=0ab54c51-2cd5-429e-99a7-d9b354415bcb"},"vehicle_type_id":"4","last_reported":1779259090,"current_range_meters":4000,"station_id":"","pricing_plan_id":"cebpf4jnsgd1na2vs0mg"},{"bike_id":"d5507518-cb58-4fc3-a22b-de5ad3c6e51d","system_id":"levelo_inurba_marseille","lat":43.29812,"lon":5.44063,"is_reserved":false,"is_disabled":false,"rental_uris":{"android":"levelo://app?vid=d5507518-cb58-4fc3-a22b-de5ad3c6e51d","ios":"levelo://app?vid=d5507518-cb58-4fc3-a22b-de5ad3c6e51d"},"vehicle_type_id":"4","last_reported":1779259090,"current_range_meters":4000,"station_id":"st_d3jp68qikq2c7381ktn0","pricing_plan_id":"cebpf4jnsgd1na2vs0mg"},{"bike_id":"cfbfdf60-d81e-4d76-86b0-d916d82fdeb8","system_id":"levelo_inurba_marseille","lat":43.21751,"lon":5.346,"is_reserved":false,"is_disabled":false,"rental_uris":{"android":"levelo://app?vid=cfbfdf60-d81e-4d76-86b0-d916d82fdeb8","ios":"levelo://app?vid=cfbfdf60-d81e-4d76-86b0-d916d82fdeb8"},"vehicle_type_id":"4","last_reported":1779259090,"current_range_meters":4000,"station_id":"st_cvj6r9ubvosntc0bgbag","pricing_plan_id":"cebpf4jnsgd1na2vs0mg"},{"bike_id":"cda1ba5b-bdc7-45c0-83eb-354580aa2daf","system_id":"levelo_inurba_marseille","lat":43.2418,"lon":5.39726,"is_reserved":false,"is_disabled":false,"rental_uris":{"android":"levelo://app?vid=cda1ba5b-bdc7-45c0-83eb-354580aa2daf","ios":"levelo://app?vid=cda1ba5b-bdc7-45c0-83eb-354580aa2daf"},"vehicle_type_id":"4","last_reported":1779259090,"current_range_meters":4000,"station_id":"ce4bhn12rcd13ifvqgpg","pricing_plan_id":"cebpf4jnsgd1na2vs0mg"},{"bike_id":"bbf8eab2-9b24-46d4-a409-f7d47f357e97","system_id":"levelo_inurba_marseille","lat":43.27498,"lon":5.42453,"is_reserved":false,"is_disabled":false,"rental_uris":{"android":"levelo://app?vid=bbf8eab2-9b24-46d4-a409-f7d47f357e97","ios":"levelo://app?vid=bbf8eab2-9b24-46d4-a409-f7d47f357e97"},"vehicle_type_id":"4","last_reported":1779259090,"current_range_meters":4000,"station_id":"ce4bhn92rcd13ifvqgrg","pricing_plan_id":"cebpf4jnsgd1na2vs0mg"},{"bike_id":"8b5fe887-0d07-4a23-9fbd-a7025800ec01","system_id":"levelo_inurba_marseille","lat":43.273725,"lon":5.36265,"is_reserved":false,"is_disabled":true,"rental_uris":{"android":"levelo://app?vid=8b5fe887-0d07-4a23-9fbd-a7025800ec01","ios":"levelo://app?vid=8b5fe887-0d07-4a23-9fbd-a7025800ec01"},"vehicle_type_id":"4","last_reported":1779259090,"current_range_meters":4000,"station_id":"ce4bhbh2rcd13ifvqeo0","pricing_plan_id":"cebpf4jnsgd1na2vs0mg"},{"bike_id":"36cdc993-b8ba-47a2-a619-a1f39172f477","system_id":"levelo_inurba_marseille","lat":43.30325,"lon":5.4041,"is_reserved":false,"is_disabled":true,"rental_uris":{"android":"levelo://app?vid=36cdc993-b8ba-47a2-a619-a1f39172f477","ios":"levelo://app?vid=36cdc993-b8ba-47a2-a619-a1f39172f477"},"vehicle_type_id":"4","last_reported":1779259090,"current_range_meters":4000,"station_id":"ce4bh012rcd13ifvqd10","pricing_plan_id":"cebpf4jnsgd1na2vs0mg"},{"bike_id":"38aaf980-f895-454f-8327-9ab247a7e46f","system_id":"levelo_inurba_marseille","lat":43.22537,"lon":5.34825,"is_reserved":false,"is_disabled":false,"rental_uris":{"android":"levelo://app?vid=38aaf980-f895-454f-8327-9ab247a7e46f","ios":"levelo://app?vid=38aaf980-f895-454f-8327-9ab247a7e46f"},"vehicle_type_id":"4","last_reported":1779259090,"current_range_meters":4000,"station_id":"st_cvj5dfep6f1abm77gieg","pricing_plan_id":"cebpf4jnsgd1na2vs0mg"},{"bike_id":"8aa4042b-067b-4783-a174-79e2496089f3","system_id":"levelo_inurba_marseille","lat":43.28614,"lon":5.35097,"is_reserved":false,"is_disabled":false,"rental_uris":{"android":"levelo://app?vid=8aa4042b-067b-4783-a174-79e2496089f3","ios":"levelo://app?vid=8aa4042b-067b-4783-a174-79e2496089f3"},"vehicle_type_id":"4","last_reported":1779259090,"current_range_meters":4400,"station_id":"ce4bhch2rcd13ifvqeug","pricing_plan_id":"cebpf4jnsgd1na2vs0mg"},{"bike_id":"11e513a4-955a-4b20-bced-fd3548036d72","system_id":"levelo_inurba_marseille","lat":43.2895,"lon":5.36384,"is_reserved":false,"is_disabled":false,"rental_uris":{"android":"levelo://app?vid=11e513a4-955a-4b20-bced-fd3548036d72","ios":"levelo://app?vid=11e513a4-955a-4b20-bced-fd3548036d72"},"vehicle_type_id":"4","last_reported":1779259090,"current_range_meters":4400,"station_id":"ce4bhc92rcd13ifvqetg","pricing_plan_id":"cebpf4jnsgd1na2vs0mg"},{"bike_id":"33f1022a-86ed-42b2-a2fa-b6b00d8323f5","system_id":"levelo_inurba_marseille","lat":43.31136,"lon":5.3777,"is_reserved":false,"is_disabled":false,"rental_uris":{"android":"levelo://app?vid=33f1022a-86ed-42b2-a2fa-b6b00d8323f5","ios":"levelo://app?vid=33f1022a-86ed-42b2-a2fa-b6b00d8323f5"},"vehicle_type_id":"4","last_reported":1779259090,"current_range_meters":4400,"station_id":"ce4bgt92rcd13ifvqcg0","pricing_plan_id":"cebpf4jnsgd1na2vs0mg"},{"bike_id":"d765f686-9cf4-478f-aee5-11b08b8ae0cc","system_id":"levelo_inurba_marseille","lat":43.30888,"lon":5.3965,"is_reserved":false,"is_disabled":false,"rental_uris":{"android":"levelo://app?vid=d765f686-9cf4-478f-aee5-11b08b8ae0cc","ios":"levelo://app?vid=d765f686-9cf4-478f-aee5-11b08b8ae0cc"},"vehicle_type_id":"4","last_reported":1779259090,"current_range_meters":4400,"station_id":"ce4bh012rcd13ifvqcv0","pricing_plan_id":"cebpf4jnsgd1na2vs0mg"},{"bike_id":"cf7373d3-c364-48da-9656-3acb8ea466d7","system_id":"levelo_inurba_marseille","lat":43.28412,"lon":5.34986,"is_reserved":false,"is_disabled":false,"rental_uris":{"android":"levelo://app?vid=cf7373d3-c364-48da-9656-3acb8ea466d7","ios":"levelo://app?vid=cf7373d3-c364-48da-9656-3acb8ea466d7"},"vehicle_type_id":"4","last_reported":1779259090,"current_range_meters":4400,"station_id":"ce4bhbh2rcd13ifvqepg","pricing_plan_id":"cebpf4jnsgd1na2vs0mg"},{"bike_id":"57b59207-9421-407b-8adb-07366b13e8c3","system_id":"levelo_inurba_marseille","lat":43.31364,"lon":5.38481,"is_reserved":false,"is_disabled":false,"rental_uris":{"android":"levelo://app?vid=57b59207-9421-407b-8adb-07366b13e8c3","ios":"levelo://app?vid=57b59207-9421-407b-8adb-07366b13e8c3"},"vehicle_type_id":"4","last_reported":1779259090,"current_range_meters":4400,"station_id":"ce4bgt92rcd13ifvqcf0","pricing_plan_id":"cebpf4jnsgd1na2vs0mg"},{"bike_id":"4b0ecd9f-6eac-4469-9793-e73edfb652ad","system_id":"levelo_inurba_marseille","lat":43.27809,"lon":5.40697,"is_reserved":false,"is_disabled":false,"rental_uris":{"android":"levelo://app?vid=4b0ecd9f-6eac-4469-9793-e73edfb652ad","ios":"levelo://app?vid=4b0ecd9f-6eac-4469-9793-e73edfb652ad"},"vehicle_type_id":"4","last_reported":1779259090,"current_range_meters":4400,"station_id":"ce4bhnh2rcd13ifvqgtg","pricing_plan_id":"cebpf4jnsgd1na2vs0mg"},{"bike_id":"d16a42be-a11a-41b2-8ed8-848a18a38a0e","system_id":"levelo_inurba_marseille","lat":43.23381,"lon":5.41245,"is_reserved":false,"is_disabled":false,"rental_uris":{"android":"levelo://app?vid=d16a42be-a11a-41b2-8ed8-848a18a38a0e","ios":"levelo://app?vid=d16a42be-a11a-41b2-8ed8-848a18a38a0e"},"vehicle_type_id":"4","last_reported":1779259090,"current_range_meters":4400,"station_id":"st_d75pvndhf9lc73cqq3eg","pricing_plan_id":"cebpf4jnsgd1na2vs0mg"},{"bike_id":"dbcb53ec-5337-436a-83b5-4e84d06c577e","system_id":"levelo_inurba_marseille","lat":43.3054,"lon":5.36546,"is_reserved":false,"is_disabled":false,"rental_uris":{"android":"levelo://app?vid=dbcb53ec-5337-436a-83b5-4e84d06c577e","ios":"levelo://app?vid=dbcb53ec-5337-436a-83b5-4e84d06c577e"},"vehicle_type_id":"4","last_reported":1779259090,"current_range_meters":4400,"station_id":"ce4bgs12rcd13ifvqcag","pricing_plan_id":"cebpf4jnsgd1na2vs0mg"},{"bike_id":"408701cc-3f2d-4c32-b20d-587f50ccde82","system_id":"levelo_inurba_marseille","lat":43.305578,"lon":5.367156,"is_reserved":false,"is_disabled":false,"rental_uris":{"android":"levelo://app?vid=408701cc-3f2d-4c32-b20d-587f50ccde82","ios":"levelo://app?vid=408701cc-3f2d-4c32-b20d-587f50ccde82"},"vehicle_type_id":"4","last_reported":1779259090,"current_range_meters":4400,"station_id":"","pricing_plan_id":"cebpf4jnsgd1na2vs0mg"},{"bike_id":"38896523-db5c-425f-ab2a-9a9bba4ebe66","system_id":"levelo_inurba_marseille","lat":43.25091,"lon":5.39487,"is_reserved":false,"is_disabled":true,"rental_uris":{"android":"levelo://app?vid=38896523-db5c-425f-ab2a-9a9bba4ebe66","ios":"levelo://app?vid=38896523-db5c-425f-ab2a-9a9bba4ebe66"},"vehicle_type_id":"4","last_reported":1779259090,"current_range_meters":4400,"station_id":"ce4bhm12rcd13ifvqgkg","pricing_plan_id":"cebpf4jnsgd1na2vs0mg"},{"bike_id":"3fe09c2d-f9b0-4df2-9178-b4be53b3b84d","system_id":"levelo_inurba_marseille","lat":43.28043,"lon":5.36964,"is_reserved":false,"is_disabled":false,"rental_uris":{"android":"levelo://app?vid=3fe09c2d-f9b0-4df2-9178-b4be53b3b84d","ios":"levelo://app?vid=3fe09c2d-f9b0-4df2-9178-b4be53b3b84d"},"vehicle_type_id":"4","last_reported":1779259090,"current_range_meters":4800,"station_id":"ce4bha12rcd13ifvqef0","pricing_plan_id":"cebpf4jnsgd1na2vs0mg"},{"bike_id":"e961b1bd-248f-4be3-ad13-a8bc465c0051","system_id":"levelo_inurba_marseille","lat":43.28622,"lon":5.35092,"is_reserved":false,"is_disabled":false,"rental_uris":{"android":"levelo://app?vid=e961b1bd-248f-4be3-ad13-a8bc465c0051","ios":"levelo://app?vid=e961b1bd-248f-4be3-ad13-a8bc465c0051"},"vehicle_type_id":"4","last_reported":1779259090,"current_range_meters":4800,"station_id":"ce4bhch2rcd13ifvqeug","pricing_plan_id":"cebpf4jnsgd1na2vs0mg"},{"bike_id":"40e11415-186d-4a53-ac50-ac693db6945a","system_id":"levelo_inurba_marseille","lat":43.33537,"lon":5.37465,"is_reserved":false,"is_disabled":false,"rental_uris":{"android":"levelo://app?vid=40e11415-186d-4a53-ac50-ac693db6945a","ios":"levelo://app?vid=40e11415-186d-4a53-ac50-ac693db6945a"},"vehicle_type_id":"4","last_reported":1779259090,"current_range_meters":4800,"station_id":"st_d46tts09ee8s73dlu43g","pricing_plan_id":"cebpf4jnsgd1na2vs0mg"},{"bike_id":"fb79ccb0-5165-43cf-b83e-7185c384d3cb","system_id":"levelo_inurba_marseille","lat":43.2767,"lon":5.38887,"is_reserved":false,"is_disabled":false,"rental_uris":{"android":"levelo://app?vid=fb79ccb0-5165-43cf-b83e-7185c384d3cb","ios":"levelo://app?vid=fb79ccb0-5165-43cf-b83e-7185c384d3cb"},"vehicle_type_id":"4","last_reported":1779259090,"current_range_meters":4800,"station_id":"ce4bhi12rcd13ifvqfo0","pricing_plan_id":"cebpf4jnsgd1na2vs0mg"},{"bike_id":"fd68e5b5-b01c-403e-9819-ba24f4399355","system_id":"levelo_inurba_marseille","lat":43.30131,"lon":5.37407,"is_reserved":false,"is_disabled":false,"rental_uris":{"android":"levelo://app?vid=fd68e5b5-b01c-403e-9819-ba24f4399355","ios":"levelo://app?vid=fd68e5b5-b01c-403e-9819-ba24f4399355"},"vehicle_type_id":"4","last_reported":1779259090,"current_range_meters":4800,"station_id":"ce4bgs92rcd13ifvqcc0","pricing_plan_id":"cebpf4jnsgd1na2vs0mg"},{"bike_id":"d18fd8b8-7a40-4078-9a1d-6a41c9dd13ed","system_id":"levelo_inurba_marseille","lat":43.2534,"lon":5.42172,"is_reserved":false,"is_disabled":false,"rental_uris":{"android":"levelo://app?vid=d18fd8b8-7a40-4078-9a1d-6a41c9dd13ed","ios":"levelo://app?vid=d18fd8b8-7a40-4078-9a1d-6a41c9dd13ed"},"vehicle_type_id":"4","last_reported":1779259090,"current_range_meters":4800,"station_id":"st_d2m65c5bi1j21697t3ng","pricing_plan_id":"cebpf4jnsgd1na2vs0mg"},{"bike_id":"fb615aac-f425-4c63-b598-34d66631c597","system_id":"levelo_inurba_marseille","lat":43.24947,"lon":5.40484,"is_reserved":false,"is_disabled":false,"rental_uris":{"android":"levelo://app?vid=fb615aac-f425-4c63-b598-34d66631c597","ios":"levelo://app?vid=fb615aac-f425-4c63-b598-34d66631c597"},"vehicle_type_id":"4","last_reported":1779259090,"current_range_meters":5600,"station_id":"st_d2ngiaodas8pm72gd1h0","pricing_plan_id":"cebpf4jnsgd1na2vs0mg"},{"bike_id":"d5c46757-4325-48b1-ad4a-cdd8d03623ec","system_id":"levelo_inurba_marseille","lat":43.3095,"lon":5.39033,"is_reserved":false,"is_disabled":false,"rental_uris":{"android":"levelo://app?vid=d5c46757-4325-48b1-ad4a-cdd8d03623ec","ios":"levelo://app?vid=d5c46757-4325-48b1-ad4a-cdd8d03623ec"},"vehicle_type_id":"4","last_reported":1779259090,"current_range_meters":5600,"station_id":"ce4bgup2rcd13ifvqco0","pricing_plan_id":"cebpf4jnsgd1na2vs0mg"},{"bike_id":"eadd6355-0225-45cf-b022-5520d52b5c56","system_id":"levelo_inurba_marseille","lat":43.253388,"lon":5.421735,"is_reserved":false,"is_disabled":false,"rental_uris":{"android":"levelo://app?vid=eadd6355-0225-45cf-b022-5520d52b5c56","ios":"levelo://app?vid=eadd6355-0225-45cf-b022-5520d52b5c56"},"vehicle_type_id":"4","last_reported":1779259090,"current_range_meters":5600,"station_id":"st_d2m65c5bi1j21697t3ng","pricing_plan_id":"cebpf4jnsgd1na2vs0mg"},{"bike_id":"d7222026-ca53-48b2-827b-d5861b845ecb","system_id":"levelo_inurba_marseille","lat":43.30152,"lon":5.38089,"is_reserved":false,"is_disabled":false,"rental_uris":{"android":"levelo://app?vid=d7222026-ca53-48b2-827b-d5861b845ecb","ios":"levelo://app?vid=d7222026-ca53-48b2-827b-d5861b845ecb"},"vehicle_type_id":"4","last_reported":1779259090,"current_range_meters":5600,"station_id":"ce4bgjp2rcd13ifvqbh0","pricing_plan_id":"cebpf4jnsgd1na2vs0mg"},{"bike_id":"66aa3998-c506-45a5-83d5-cd9a42760e10","system_id":"levelo_inurba_marseille","lat":43.31112,"lon":5.37755,"is_reserved":false,"is_disabled":false,"rental_uris":{"android":"levelo://app?vid=66aa3998-c506-45a5-83d5-cd9a42760e10","ios":"levelo://app?vid=66aa3998-c506-45a5-83d5-cd9a42760e10"},"vehicle_type_id":"4","last_reported":1779259090,"current_range_meters":5600,"station_id":"ce4bgt92rcd13ifvqcg0","pricing_plan_id":"cebpf4jnsgd1na2vs0mg"},{"bike_id":"854da997-21ff-48c4-ae70-cc3a0937e1c9","system_id":"levelo_inurba_marseille","lat":43.33532,"lon":5.37455,"is_reserved":false,"is_disabled":false,"rental_uris":{"android":"levelo://app?vid=854da997-21ff-48c4-ae70-cc3a0937e1c9","ios":"levelo://app?vid=854da997-21ff-48c4-ae70-cc3a0937e1c9"},"vehicle_type_id":"4","last_reported":1779259090,"current_range_meters":5600,"station_id":"st_d46tts09ee8s73dlu43g","pricing_plan_id":"cebpf4jnsgd1na2vs0mg"},{"bike_id":"291bce7d-95a9-4f5c-a2d8-de5b55889c52","system_id":"levelo_inurba_marseille","lat":43.29271,"lon":5.39991,"is_reserved":false,"is_disabled":false,"rental_uris":{"android":"levelo://app?vid=291bce7d-95a9-4f5c-a2d8-de5b55889c52","ios":"levelo://app?vid=291bce7d-95a9-4f5c-a2d8-de5b55889c52"},"vehicle_type_id":"4","last_reported":1779259090,"current_range_meters":5600,"station_id":"","pricing_plan_id":"cebpf4jnsgd1na2vs0mg"},{"bike_id":"2db23f7b-bb43-44b4-a2f3-f347eb783e90","system_id":"levelo_inurba_marseille","lat":43.27059,"lon":5.38291,"is_reserved":false,"is_disabled":false,"rental_uris":{"android":"levelo://app?vid=2db23f7b-bb43-44b4-a2f3-f347eb783e90","ios":"levelo://app?vid=2db23f7b-bb43-44b4-a2f3-f347eb783e90"},"vehicle_type_id":"4","last_reported":1779259090,"current_range_meters":5600,"station_id":"st_d3n2fo6cfp8s73cte1j0","pricing_plan_id":"cebpf4jnsgd1na2vs0mg"},{"bike_id":"67754a0a-a348-4167-bebc-dbebe00274c2","system_id":"levelo_inurba_marseille","lat":43.30931,"lon":5.40156,"is_reserved":false,"is_disabled":false,"rental_uris":{"android":"levelo://app?vid=67754a0a-a348-4167-bebc-dbebe00274c2","ios":"levelo://app?vid=67754a0a-a348-4167-bebc-dbebe00274c2"},"vehicle_type_id":"4","last_reported":1779259090,"current_range_meters":5600,"station_id":"ce4bgvp2rcd13ifvqct0","pricing_plan_id":"cebpf4jnsgd1na2vs0mg"},{"bike_id":"e35ca50a-e252-4fec-af7a-48a17bebc951","system_id":"levelo_inurba_marseille","lat":43.295856,"lon":5.375158,"is_reserved":false,"is_disabled":false,"rental_uris":{"android":"levelo://app?vid=e35ca50a-e252-4fec-af7a-48a17bebc951","ios":"levelo://app?vid=e35ca50a-e252-4fec-af7a-48a17bebc951"},"vehicle_type_id":"4","last_reported":1779259090,"current_range_meters":5600,"station_id":"ce4bgh92rcd13ifvqb50","pricing_plan_id":"cebpf4jnsgd1na2vs0mg"},{"bike_id":"431c8425-5293-4b93-8f25-9a7fa45d5b2b","system_id":"levelo_inurba_marseille","lat":43.27914,"lon":5.39575,"is_reserved":false,"is_disabled":false,"rental_uris":{"android":"levelo://app?vid=431c8425-5293-4b93-8f25-9a7fa45d5b2b","ios":"levelo://app?vid=431c8425-5293-4b93-8f25-9a7fa45d5b2b"},"vehicle_type_id":"4","last_reported":1779259090,"current_range_meters":5600,"station_id":"ce4bhf92rcd13ifvqf40","pricing_plan_id":"cebpf4jnsgd1na2vs0mg"},{"bike_id":"6dcbf503-4b85-4d5b-a332-8e5f2f976af2","system_id":"levelo_inurba_marseille","lat":43.30463,"lon":5.37911,"is_reserved":false,"is_disabled":false,"rental_uris":{"android":"levelo://app?vid=6dcbf503-4b85-4d5b-a332-8e5f2f976af2","ios":"levelo://app?vid=6dcbf503-4b85-4d5b-a332-8e5f2f976af2"},"vehicle_type_id":"4","last_reported":1779259090,"current_range_meters":5600,"station_id":"ce4bgup2rcd13ifvqcn0","pricing_plan_id":"cebpf4jnsgd1na2vs0mg"},{"bike_id":"e7a96ca5-f14b-45dc-9495-3be5e59968d7","system_id":"levelo_inurba_marseille","lat":43.27495,"lon":5.42451,"is_reserved":false,"is_disabled":false,"rental_uris":{"android":"levelo://app?vid=e7a96ca5-f14b-45dc-9495-3be5e59968d7","ios":"levelo://app?vid=e7a96ca5-f14b-45dc-9495-3be5e59968d7"},"vehicle_type_id":"4","last_reported":1779259090,"current_range_meters":5600,"station_id":"ce4bhn92rcd13ifvqgrg","pricing_plan_id":"cebpf4jnsgd1na2vs0mg"},{"bike_id":"6384a48c-7ea4-4f26-a2ff-b9ad05657d37","system_id":"levelo_inurba_marseille","lat":43.31357,"lon":5.36675,"is_reserved":false,"is_disabled":false,"rental_uris":{"android":"levelo://app?vid=6384a48c-7ea4-4f26-a2ff-b9ad05657d37","ios":"levelo://app?vid=6384a48c-7ea4-4f26-a2ff-b9ad05657d37"},"vehicle_type_id":"4","last_reported":1779259090,"current_range_meters":5600,"station_id":"ce4bgr92rcd13ifvqc6g","pricing_plan_id":"cebpf4jnsgd1na2vs0mg"},{"bike_id":"6816ad20-e267-4121-b319-c804c7fe4cde","system_id":"levelo_inurba_marseille","lat":43.28011,"lon":5.40024,"is_reserved":false,"is_disabled":false,"rental_uris":{"android":"levelo://app?vid=6816ad20-e267-4121-b319-c804c7fe4cde","ios":"levelo://app?vid=6816ad20-e267-4121-b319-c804c7fe4cde"},"vehicle_type_id":"4","last_reported":1779259090,"current_range_meters":6000,"station_id":"ce4bho92rcd13ifvqh4g","pricing_plan_id":"cebpf4jnsgd1na2vs0mg"},{"bike_id":"36ebd8b9-58b3-4b2d-99f0-152788359725","system_id":"levelo_inurba_marseille","lat":43.28484,"lon":5.38549,"is_reserved":false,"is_disabled":false,"rental_uris":{"android":"levelo://app?vid=36ebd8b9-58b3-4b2d-99f0-152788359725","ios":"levelo://app?vid=36ebd8b9-58b3-4b2d-99f0-152788359725"},"vehicle_type_id":"4","last_reported":1779259090,"current_range_meters":6000,"station_id":"ce4bh8p2rcd13ifvqeb0","pricing_plan_id":"cebpf4jnsgd1na2vs0mg"},{"bike_id":"a8ea8d83-c9cd-4629-a246-ef8bdb83bc4d","system_id":"levelo_inurba_marseille","lat":43.31052,"lon":5.37534,"is_reserved":false,"is_disabled":false,"rental_uris":{"android":"levelo://app?vid=a8ea8d83-c9cd-4629-a246-ef8bdb83bc4d","ios":"levelo://app?vid=a8ea8d83-c9cd-4629-a246-ef8bdb83bc4d"},"vehicle_type_id":"4","last_reported":1779259090,"current_range_meters":6000,"station_id":"","pricing_plan_id":"cebpf4jnsgd1na2vs0mg"},{"bike_id":"1de71714-b9ff-4767-a828-04068ba3bf84","system_id":"levelo_inurba_marseille","lat":43.324978,"lon":5.366716,"is_reserved":false,"is_disabled":false,"rental_uris":{"android":"levelo://app?vid=1de71714-b9ff-4767-a828-04068ba3bf84","ios":"levelo://app?vid=1de71714-b9ff-4767-a828-04068ba3bf84"},"vehicle_type_id":"4","last_reported":1779259090,"current_range_meters":6000,"station_id":"ce4bhs12rcd13ifvqhvg","pricing_plan_id":"cebpf4jnsgd1na2vs0mg"},{"bike_id":"688a687c-3e19-4f91-9f81-959a8d567e0e","system_id":"levelo_inurba_marseille","lat":43.29601,"lon":5.38097,"is_reserved":false,"is_disabled":false,"rental_uris":{"android":"levelo://app?vid=688a687c-3e19-4f91-9f81-959a8d567e0e","ios":"levelo://app?vid=688a687c-3e19-4f91-9f81-959a8d567e0e"},"vehicle_type_id":"4","last_reported":1779259090,"current_range_meters":6000,"station_id":"ce4bgl12rcd13ifvqbo0","pricing_plan_id":"cebpf4jnsgd1na2vs0mg"},{"bike_id":"ba17138c-d08b-4b72-ab8e-9bd18ffc3bc5","system_id":"levelo_inurba_marseille","lat":43.30104,"lon":5.38085,"is_reserved":false,"is_disabled":false,"rental_uris":{"android":"levelo://app?vid=ba17138c-d08b-4b72-ab8e-9bd18ffc3bc5","ios":"levelo://app?vid=ba17138c-d08b-4b72-ab8e-9bd18ffc3bc5"},"vehicle_type_id":"4","last_reported":1779259090,"current_range_meters":6000,"station_id":"ce4bgjp2rcd13ifvqbh0","pricing_plan_id":"cebpf4jnsgd1na2vs0mg"},{"bike_id":"d10ca7be-e371-400a-b9e4-97f965ab5510","system_id":"levelo_inurba_marseille","lat":43.3091,"lon":5.36852,"is_reserved":false,"is_disabled":false,"rental_uris":{"android":"levelo://app?vid=d10ca7be-e371-400a-b9e4-97f965ab5510","ios":"levelo://app?vid=d10ca7be-e371-400a-b9e4-97f965ab5510"},"vehicle_type_id":"4","last_reported":1779259090,"current_range_meters":6000,"station_id":"ce4bgn92rcd13ifvqbvg","pricing_plan_id":"cebpf4jnsgd1na2vs0mg"},{"bike_id":"f7c0230e-ed97-4f98-b053-4847a49bfcd9","system_id":"levelo_inurba_marseille","lat":43.27495,"lon":5.42431,"is_reserved":false,"is_disabled":false,"rental_uris":{"android":"levelo://app?vid=f7c0230e-ed97-4f98-b053-4847a49bfcd9","ios":"levelo://app?vid=f7c0230e-ed97-4f98-b053-4847a49bfcd9"},"vehicle_type_id":"4","last_reported":1779259090,"current_range_meters":6400,"station_id":"ce4bhn92rcd13ifvqgrg","pricing_plan_id":"cebpf4jnsgd1na2vs0mg"},{"bike_id":"877aff4a-39d3-4bc9-9fb1-f03230c32990","system_id":"levelo_inurba_marseille","lat":43.32101,"lon":5.36741,"is_reserved":false,"is_disabled":false,"rental_uris":{"android":"levelo://app?vid=877aff4a-39d3-4bc9-9fb1-f03230c32990","ios":"levelo://app?vid=877aff4a-39d3-4bc9-9fb1-f03230c32990"},"vehicle_type_id":"4","last_reported":1779259090,"current_range_meters":6400,"station_id":"ce4bhrh2rcd13ifvqhug","pricing_plan_id":"cebpf4jnsgd1na2vs0mg"},{"bike_id":"88e061d4-200e-450e-b7c2-b8c848567f43","system_id":"levelo_inurba_marseille","lat":43.2481,"lon":5.37449,"is_reserved":false,"is_disabled":false,"rental_uris":{"android":"levelo://app?vid=88e061d4-200e-450e-b7c2-b8c848567f43","ios":"levelo://app?vid=88e061d4-200e-450e-b7c2-b8c848567f43"},"vehicle_type_id":"4","last_reported":1779259090,"current_range_meters":6400,"station_id":"ce4bhgh2rcd13ifvqfb0","pricing_plan_id":"cebpf4jnsgd1na2vs0mg"},{"bike_id":"e7b2834d-0414-4c8b-95bb-dbeba87a5cba","system_id":"levelo_inurba_marseille","lat":43.3303,"lon":5.39039,"is_reserved":false,"is_disabled":false,"rental_uris":{"android":"levelo://app?vid=e7b2834d-0414-4c8b-95bb-dbeba87a5cba","ios":"levelo://app?vid=e7b2834d-0414-4c8b-95bb-dbeba87a5cba"},"vehicle_type_id":"4","last_reported":1779259090,"current_range_meters":6400,"station_id":"ce4bhr92rcd13ifvqhrg","pricing_plan_id":"cebpf4jnsgd1na2vs0mg"},{"bike_id":"6160ae8e-a0ef-40fb-a824-ac8b6555538f","system_id":"levelo_inurba_marseille","lat":43.26642,"lon":5.38978,"is_reserved":false,"is_disabled":false,"rental_uris":{"android":"levelo://app?vid=6160ae8e-a0ef-40fb-a824-ac8b6555538f","ios":"levelo://app?vid=6160ae8e-a0ef-40fb-a824-ac8b6555538f"},"vehicle_type_id":"4","last_reported":1779259090,"current_range_meters":6400,"station_id":"","pricing_plan_id":"cebpf4jnsgd1na2vs0mg"},{"bike_id":"32dbbc57-f039-4c1f-8277-851d2ad0a496","system_id":"levelo_inurba_marseille","lat":43.2407,"lon":5.37757,"is_reserved":false,"is_disabled":false,"rental_uris":{"android":"levelo://app?vid=32dbbc57-f039-4c1f-8277-851d2ad0a496","ios":"levelo://app?vid=32dbbc57-f039-4c1f-8277-851d2ad0a496"},"vehicle_type_id":"4","last_reported":1779259090,"current_range_meters":6400,"station_id":"ce4bhnp2rcd13ifvqgvg","pricing_plan_id":"cebpf4jnsgd1na2vs0mg"},{"bike_id":"e1edea3c-a9ec-4e1d-ae51-331278ede585","system_id":"levelo_inurba_marseille","lat":43.31036,"lon":5.39288,"is_reserved":false,"is_disabled":false,"rental_uris":{"android":"levelo://app?vid=e1edea3c-a9ec-4e1d-ae51-331278ede585","ios":"levelo://app?vid=e1edea3c-a9ec-4e1d-ae51-331278ede585"},"vehicle_type_id":"4","last_reported":1779259090,"current_range_meters":6400,"station_id":"","pricing_plan_id":"cebpf4jnsgd1na2vs0mg"},{"bike_id":"e7cfd0cf-bbf6-487f-8c47-01cdf26af279","system_id":"levelo_inurba_marseille","lat":43.29565,"lon":5.37513,"is_reserved":false,"is_disabled":false,"rental_uris":{"android":"levelo://app?vid=e7cfd0cf-bbf6-487f-8c47-01cdf26af279","ios":"levelo://app?vid=e7cfd0cf-bbf6-487f-8c47-01cdf26af279"},"vehicle_type_id":"4","last_reported":1779259090,"current_range_meters":6800,"station_id":"ce4bgh92rcd13ifvqb50","pricing_plan_id":"cebpf4jnsgd1na2vs0mg"},{"bike_id":"fdb21c0a-88ca-429d-a3b4-bbb8df888db3","system_id":"levelo_inurba_marseille","lat":43.24666,"lon":5.39099,"is_reserved":false,"is_disabled":false,"rental_uris":{"android":"levelo://app?vid=fdb21c0a-88ca-429d-a3b4-bbb8df888db3","ios":"levelo://app?vid=fdb21c0a-88ca-429d-a3b4-bbb8df888db3"},"vehicle_type_id":"4","last_reported":1779259090,"current_range_meters":6800,"station_id":"","pricing_plan_id":"cebpf4jnsgd1na2vs0mg"},{"bike_id":"7c7fb249-fc8e-4d79-a1ce-dd5b0f183060","system_id":"levelo_inurba_marseille","lat":43.29828,"lon":5.44065,"is_reserved":false,"is_disabled":false,"rental_uris":{"android":"levelo://app?vid=7c7fb249-fc8e-4d79-a1ce-dd5b0f183060","ios":"levelo://app?vid=7c7fb249-fc8e-4d79-a1ce-dd5b0f183060"},"vehicle_type_id":"4","last_reported":1779259090,"current_range_meters":6800,"station_id":"st_d3jp68qikq2c7381ktn0","pricing_plan_id":"cebpf4jnsgd1na2vs0mg"},{"bike_id":"7d598e7d-cc9f-4d62-8939-525cafc83dfc","system_id":"levelo_inurba_marseille","lat":43.30523,"lon":5.3656,"is_reserved":false,"is_disabled":false,"rental_uris":{"android":"levelo://app?vid=7d598e7d-cc9f-4d62-8939-525cafc83dfc","ios":"levelo://app?vid=7d598e7d-cc9f-4d62-8939-525cafc83dfc"},"vehicle_type_id":"4","last_reported":1779259090,"current_range_meters":6800,"station_id":"ce4bgs12rcd13ifvqcag","pricing_plan_id":"cebpf4jnsgd1na2vs0mg"},{"bike_id":"1d8a0de7-dee9-4c46-b0dc-9cb1beff9b47","system_id":"levelo_inurba_marseille","lat":43.28434,"lon":5.34992,"is_reserved":false,"is_disabled":false,"rental_uris":{"android":"levelo://app?vid=1d8a0de7-dee9-4c46-b0dc-9cb1beff9b47","ios":"levelo://app?vid=1d8a0de7-dee9-4c46-b0dc-9cb1beff9b47"},"vehicle_type_id":"4","last_reported":1779259090,"current_range_meters":6800,"station_id":"ce4bhbh2rcd13ifvqepg","pricing_plan_id":"cebpf4jnsgd1na2vs0mg"},{"bike_id":"4e718ae6-8b54-4755-8161-7ec046cff6dd","system_id":"levelo_inurba_marseille","lat":43.30805,"lon":5.38173,"is_reserved":false,"is_disabled":false,"rental_uris":{"android":"levelo://app?vid=4e718ae6-8b54-4755-8161-7ec046cff6dd","ios":"levelo://app?vid=4e718ae6-8b54-4755-8161-7ec046cff6dd"},"vehicle_type_id":"4","last_reported":1779259090,"current_range_meters":6800,"station_id":"ce4bgt12rcd13ifvqce0","pricing_plan_id":"cebpf4jnsgd1na2vs0mg"},{"bike_id":"3f42a6d9-721c-4045-81f8-56e377ee5c6e","system_id":"levelo_inurba_marseille","lat":43.26481,"lon":5.39528,"is_reserved":false,"is_disabled":true,"rental_uris":{"android":"levelo://app?vid=3f42a6d9-721c-4045-81f8-56e377ee5c6e","ios":"levelo://app?vid=3f42a6d9-721c-4045-81f8-56e377ee5c6e"},"vehicle_type_id":"4","last_reported":1779259090,"current_range_meters":6800,"station_id":"ce4bhi12rcd13ifvqfq0","pricing_plan_id":"cebpf4jnsgd1na2vs0mg"},{"bike_id":"38a3ec31-4813-4de2-85a7-08f151b1d8d1","system_id":"levelo_inurba_marseille","lat":43.29034,"lon":5.37569,"is_reserved":false,"is_disabled":false,"rental_uris":{"android":"levelo://app?vid=38a3ec31-4813-4de2-85a7-08f151b1d8d1","ios":"levelo://app?vid=38a3ec31-4813-4de2-85a7-08f151b1d8d1"},"vehicle_type_id":"4","last_reported":1779259090,"current_range_meters":6800,"station_id":"ce4bh692rcd13ifvqe90","pricing_plan_id":"cebpf4jnsgd1na2vs0mg"},{"bike_id":"b7d4ade3-e85f-4f7e-94a5-38cdc2fff6da","system_id":"levelo_inurba_marseille","lat":43.30534,"lon":5.36538,"is_reserved":false,"is_disabled":false,"rental_uris":{"android":"levelo://app?vid=b7d4ade3-e85f-4f7e-94a5-38cdc2fff6da","ios":"levelo://app?vid=b7d4ade3-e85f-4f7e-94a5-38cdc2fff6da"},"vehicle_type_id":"4","last_reported":1779259090,"current_range_meters":6800,"station_id":"ce4bgs12rcd13ifvqcag","pricing_plan_id":"cebpf4jnsgd1na2vs0mg"},{"bike_id":"eb8564d3-80fc-4217-82f1-a7d32de7d789","system_id":"levelo_inurba_marseille","lat":43.312301,"lon":5.367718,"is_reserved":false,"is_disabled":false,"rental_uris":{"android":"levelo://app?vid=eb8564d3-80fc-4217-82f1-a7d32de7d789","ios":"levelo://app?vid=eb8564d3-80fc-4217-82f1-a7d32de7d789"},"vehicle_type_id":"4","last_reported":1779259090,"current_range_meters":6800,"station_id":"ce4bgl92rcd13ifvqbq0","pricing_plan_id":"cebpf4jnsgd1na2vs0mg"},{"bike_id":"ec17e644-1d7d-402e-b369-f62e304f81d9","system_id":"levelo_inurba_marseille","lat":43.28271,"lon":5.35066,"is_reserved":false,"is_disabled":false,"rental_uris":{"android":"levelo://app?vid=ec17e644-1d7d-402e-b369-f62e304f81d9","ios":"levelo://app?vid=ec17e644-1d7d-402e-b369-f62e304f81d9"},"vehicle_type_id":"4","last_reported":1779259090,"current_range_meters":6800,"station_id":"ce4bhbp2rcd13ifvqerg","pricing_plan_id":"cebpf4jnsgd1na2vs0mg"},{"bike_id":"2429fe3b-0c26-4824-b983-9d9af0e8a9d4","system_id":"levelo_inurba_marseille","lat":43.31366,"lon":5.38496,"is_reserved":false,"is_disabled":false,"rental_uris":{"android":"levelo://app?vid=2429fe3b-0c26-4824-b983-9d9af0e8a9d4","ios":"levelo://app?vid=2429fe3b-0c26-4824-b983-9d9af0e8a9d4"},"vehicle_type_id":"4","last_reported":1779259090,"current_range_meters":6800,"station_id":"ce4bgt92rcd13ifvqcf0","pricing_plan_id":"cebpf4jnsgd1na2vs0mg"},{"bike_id":"8e0c3a71-88fb-4dca-a732-c4fb201abb3e","system_id":"levelo_inurba_marseille","lat":43.30608,"lon":5.37483,"is_reserved":false,"is_disabled":true,"rental_uris":{"android":"levelo://app?vid=8e0c3a71-88fb-4dca-a732-c4fb201abb3e","ios":"levelo://app?vid=8e0c3a71-88fb-4dca-a732-c4fb201abb3e"},"vehicle_type_id":"4","last_reported":1779259090,"current_range_meters":6800,"station_id":"","pricing_plan_id":"cebpf4jnsgd1na2vs0mg"},{"bike_id":"668bb7ea-e890-4867-b444-969d9384fab7","system_id":"levelo_inurba_marseille","lat":43.25272,"lon":5.39481,"is_reserved":false,"is_disabled":false,"rental_uris":{"android":"levelo://app?vid=668bb7ea-e890-4867-b444-969d9384fab7","ios":"levelo://app?vid=668bb7ea-e890-4867-b444-969d9384fab7"},"vehicle_type_id":"4","last_reported":1779259090,"current_range_meters":6800,"station_id":"","pricing_plan_id":"cebpf4jnsgd1na2vs0mg"},{"bike_id":"321d5690-a6cb-4f79-b757-f8c11524770a","system_id":"levelo_inurba_marseille","lat":43.29965,"lon":5.3849,"is_reserved":false,"is_disabled":false,"rental_uris":{"android":"levelo://app?vid=321d5690-a6cb-4f79-b757-f8c11524770a","ios":"levelo://app?vid=321d5690-a6cb-4f79-b757-f8c11524770a"},"vehicle_type_id":"4","last_reported":1779259090,"current_range_meters":6800,"station_id":"ce4bgj92rcd13ifvqbd0","pricing_plan_id":"cebpf4jnsgd1na2vs0mg"},{"bike_id":"7ba9edaa-a1bb-4a70-a5f2-b9b5d3ae022f","system_id":"levelo_inurba_marseille","lat":43.30377,"lon":5.42486,"is_reserved":false,"is_disabled":false,"rental_uris":{"android":"levelo://app?vid=7ba9edaa-a1bb-4a70-a5f2-b9b5d3ae022f","ios":"levelo://app?vid=7ba9edaa-a1bb-4a70-a5f2-b9b5d3ae022f"},"vehicle_type_id":"4","last_reported":1779259090,"current_range_meters":6800,"station_id":"ce4bhoh2rcd13ifvqh6g","pricing_plan_id":"cebpf4jnsgd1na2vs0mg"},{"bike_id":"c1a69e5e-9cab-459c-8b1a-391b422fd9b7","system_id":"levelo_inurba_marseille","lat":43.28706,"lon":5.39951,"is_reserved":false,"is_disabled":false,"rental_uris":{"android":"levelo://app?vid=c1a69e5e-9cab-459c-8b1a-391b422fd9b7","ios":"levelo://app?vid=c1a69e5e-9cab-459c-8b1a-391b422fd9b7"},"vehicle_type_id":"4","last_reported":1779259090,"current_range_meters":6800,"station_id":"ce4bho92rcd13ifvqh3g","pricing_plan_id":"cebpf4jnsgd1na2vs0mg"},{"bike_id":"1c1414c1-3413-415f-adc1-dde38dab9b68","system_id":"levelo_inurba_marseille","lat":43.30006,"lon":5.39909,"is_reserved":false,"is_disabled":false,"rental_uris":{"android":"levelo://app?vid=1c1414c1-3413-415f-adc1-dde38dab9b68","ios":"levelo://app?vid=1c1414c1-3413-415f-adc1-dde38dab9b68"},"vehicle_type_id":"4","last_reported":1779259090,"current_range_meters":6800,"station_id":"","pricing_plan_id":"cebpf4jnsgd1na2vs0mg"},{"bike_id":"2eaa9b2b-8efe-40ff-b2ce-c519f26bfd1e","system_id":"levelo_inurba_marseille","lat":43.337444,"lon":5.374475,"is_reserved":false,"is_disabled":false,"rental_uris":{"android":"levelo://app?vid=2eaa9b2b-8efe-40ff-b2ce-c519f26bfd1e","ios":"levelo://app?vid=2eaa9b2b-8efe-40ff-b2ce-c519f26bfd1e"},"vehicle_type_id":"4","last_reported":1779259090,"current_range_meters":7200,"station_id":"","pricing_plan_id":"cebpf4jnsgd1na2vs0mg"},{"bike_id":"26593257-712f-4288-8b95-b25d3c17ba27","system_id":"levelo_inurba_marseille","lat":43.28613,"lon":5.35081,"is_reserved":false,"is_disabled":false,"rental_uris":{"android":"levelo://app?vid=26593257-712f-4288-8b95-b25d3c17ba27","ios":"levelo://app?vid=26593257-712f-4288-8b95-b25d3c17ba27"},"vehicle_type_id":"4","last_reported":1779259090,"current_range_meters":7200,"station_id":"ce4bhch2rcd13ifvqeug","pricing_plan_id":"cebpf4jnsgd1na2vs0mg"},{"bike_id":"07b78c28-ed06-4bc6-802b-ec2ed47fc9e2","system_id":"levelo_inurba_marseille","lat":43.28604,"lon":5.39879,"is_reserved":false,"is_disabled":false,"rental_uris":{"android":"levelo://app?vid=07b78c28-ed06-4bc6-802b-ec2ed47fc9e2","ios":"levelo://app?vid=07b78c28-ed06-4bc6-802b-ec2ed47fc9e2"},"vehicle_type_id":"4","last_reported":1779259090,"current_range_meters":7200,"station_id":"st_d4a7ka997mjs738ck50g","pricing_plan_id":"cebpf4jnsgd1na2vs0mg"},{"bike_id":"1537ff86-4c07-4043-a319-565b4fb3369d","system_id":"levelo_inurba_marseille","lat":43.28592,"lon":5.38116,"is_reserved":false,"is_disabled":false,"rental_uris":{"android":"levelo://app?vid=1537ff86-4c07-4043-a319-565b4fb3369d","ios":"levelo://app?vid=1537ff86-4c07-4043-a319-565b4fb3369d"},"vehicle_type_id":"4","last_reported":1779259090,"current_range_meters":7200,"station_id":"","pricing_plan_id":"cebpf4jnsgd1na2vs0mg"},{"bike_id":"6448c6c8-8045-4dab-8370-7f5d397b098d","system_id":"levelo_inurba_marseille","lat":43.25587,"lon":5.38227,"is_reserved":false,"is_disabled":false,"rental_uris":{"android":"levelo://app?vid=6448c6c8-8045-4dab-8370-7f5d397b098d","ios":"levelo://app?vid=6448c6c8-8045-4dab-8370-7f5d397b098d"},"vehicle_type_id":"4","last_reported":1779259090,"current_range_meters":7200,"station_id":"ce4bhih2rcd13ifvqfs0","pricing_plan_id":"cebpf4jnsgd1na2vs0mg"},{"bike_id":"31bfb336-5497-426e-a484-8305de9f1fde","system_id":"levelo_inurba_marseille","lat":43.27963,"lon":5.41031,"is_reserved":false,"is_disabled":false,"rental_uris":{"android":"levelo://app?vid=31bfb336-5497-426e-a484-8305de9f1fde","ios":"levelo://app?vid=31bfb336-5497-426e-a484-8305de9f1fde"},"vehicle_type_id":"4","last_reported":1779259090,"current_range_meters":7200,"station_id":"ce4bhnp2rcd13ifvqh0g","pricing_plan_id":"cebpf4jnsgd1na2vs0mg"},{"bike_id":"049e0550-765b-4e19-b4ba-d382bad31388","system_id":"levelo_inurba_marseille","lat":43.30375,"lon":5.42481,"is_reserved":false,"is_disabled":false,"rental_uris":{"android":"levelo://app?vid=049e0550-765b-4e19-b4ba-d382bad31388","ios":"levelo://app?vid=049e0550-765b-4e19-b4ba-d382bad31388"},"vehicle_type_id":"4","last_reported":1779259090,"current_range_meters":7200,"station_id":"ce4bhoh2rcd13ifvqh6g","pricing_plan_id":"cebpf4jnsgd1na2vs0mg"},{"bike_id":"9ed2419b-967d-43dc-b34b-964685e46474","system_id":"levelo_inurba_marseille","lat":43.28481,"lon":5.38561,"is_reserved":false,"is_disabled":false,"rental_uris":{"android":"levelo://app?vid=9ed2419b-967d-43dc-b34b-964685e46474","ios":"levelo://app?vid=9ed2419b-967d-43dc-b34b-964685e46474"},"vehicle_type_id":"4","last_reported":1779259090,"current_range_meters":7200,"station_id":"ce4bh8p2rcd13ifvqeb0","pricing_plan_id":"cebpf4jnsgd1na2vs0mg"},{"bike_id":"eddc2000-daaa-4830-9cb2-7762df767b43","system_id":"levelo_inurba_marseille","lat":43.23188,"lon":5.40005,"is_reserved":false,"is_disabled":false,"rental_uris":{"android":"levelo://app?vid=eddc2000-daaa-4830-9cb2-7762df767b43","ios":"levelo://app?vid=eddc2000-daaa-4830-9cb2-7762df767b43"},"vehicle_type_id":"4","last_reported":1779259090,"current_range_meters":7200,"station_id":"ce4bhn12rcd13ifvqgqg","pricing_plan_id":"cebpf4jnsgd1na2vs0mg"},{"bike_id":"ef1ad45f-5ed2-4dc8-8338-5e70d0f8b35d","system_id":"levelo_inurba_marseille","lat":43.29531,"lon":5.3854,"is_reserved":false,"is_disabled":false,"rental_uris":{"android":"levelo://app?vid=ef1ad45f-5ed2-4dc8-8338-5e70d0f8b35d","ios":"levelo://app?vid=ef1ad45f-5ed2-4dc8-8338-5e70d0f8b35d"},"vehicle_type_id":"4","last_reported":1779259090,"current_range_meters":7200,"station_id":"ce4bgih2rcd13ifvqba0","pricing_plan_id":"cebpf4jnsgd1na2vs0mg"},{"bike_id":"94133b29-971d-48eb-9475-ae0b64fbd116","system_id":"levelo_inurba_marseille","lat":43.28189,"lon":5.3815,"is_reserved":false,"is_disabled":false,"rental_uris":{"android":"levelo://app?vid=94133b29-971d-48eb-9475-ae0b64fbd116","ios":"levelo://app?vid=94133b29-971d-48eb-9475-ae0b64fbd116"},"vehicle_type_id":"4","last_reported":1779259090,"current_range_meters":7200,"station_id":"","pricing_plan_id":"cebpf4jnsgd1na2vs0mg"},{"bike_id":"5d924f69-dde9-44e3-84ea-0bc73580c104","system_id":"levelo_inurba_marseille","lat":43.25867,"lon":5.39894,"is_reserved":false,"is_disabled":false,"rental_uris":{"android":"levelo://app?vid=5d924f69-dde9-44e3-84ea-0bc73580c104","ios":"levelo://app?vid=5d924f69-dde9-44e3-84ea-0bc73580c104"},"vehicle_type_id":"4","last_reported":1779259090,"current_range_meters":7200,"station_id":"ce4bhl92rcd13ifvqghg","pricing_plan_id":"cebpf4jnsgd1na2vs0mg"},{"bike_id":"9a3a22df-7cdd-4292-9e48-67ed05cc1285","system_id":"levelo_inurba_marseille","lat":43.24808,"lon":5.37463,"is_reserved":false,"is_disabled":false,"rental_uris":{"android":"levelo://app?vid=9a3a22df-7cdd-4292-9e48-67ed05cc1285","ios":"levelo://app?vid=9a3a22df-7cdd-4292-9e48-67ed05cc1285"},"vehicle_type_id":"4","last_reported":1779259090,"current_range_meters":7200,"station_id":"ce4bhgh2rcd13ifvqfb0","pricing_plan_id":"cebpf4jnsgd1na2vs0mg"},{"bike_id":"5b79dd66-1ee2-4ab0-91c0-6e1c5356befe","system_id":"levelo_inurba_marseille","lat":43.30475,"lon":5.37904,"is_reserved":false,"is_disabled":false,"rental_uris":{"android":"levelo://app?vid=5b79dd66-1ee2-4ab0-91c0-6e1c5356befe","ios":"levelo://app?vid=5b79dd66-1ee2-4ab0-91c0-6e1c5356befe"},"vehicle_type_id":"4","last_reported":1779259090,"current_range_meters":7200,"station_id":"ce4bgup2rcd13ifvqcn0","pricing_plan_id":"cebpf4jnsgd1na2vs0mg"},{"bike_id":"ff26a0ce-1300-4a14-824b-0d8ecc854269","system_id":"levelo_inurba_marseille","lat":43.24483,"lon":5.4257,"is_reserved":false,"is_disabled":false,"rental_uris":{"android":"levelo://app?vid=ff26a0ce-1300-4a14-824b-0d8ecc854269","ios":"levelo://app?vid=ff26a0ce-1300-4a14-824b-0d8ecc854269"},"vehicle_type_id":"4","last_reported":1779259090,"current_range_meters":7200,"station_id":"st_d4a3vfp97mjs738cd8kg","pricing_plan_id":"cebpf4jnsgd1na2vs0mg"},{"bike_id":"9fbae477-97a5-460c-b2da-0618c4b54827","system_id":"levelo_inurba_marseille","lat":43.28446,"lon":5.39172,"is_reserved":false,"is_disabled":true,"rental_uris":{"android":"levelo://app?vid=9fbae477-97a5-460c-b2da-0618c4b54827","ios":"levelo://app?vid=9fbae477-97a5-460c-b2da-0618c4b54827"},"vehicle_type_id":"4","last_reported":1779259090,"current_range_meters":7200,"station_id":"ce4bhoh2rcd13ifvqh5g","pricing_plan_id":"cebpf4jnsgd1na2vs0mg"},{"bike_id":"46be8dd3-948b-467e-ad94-fd338307b9c7","system_id":"levelo_inurba_marseille","lat":43.29984,"lon":5.36742,"is_reserved":false,"is_disabled":false,"rental_uris":{"android":"levelo://app?vid=46be8dd3-948b-467e-ad94-fd338307b9c7","ios":"levelo://app?vid=46be8dd3-948b-467e-ad94-fd338307b9c7"},"vehicle_type_id":"4","last_reported":1779259090,"current_range_meters":7200,"station_id":"","pricing_plan_id":"cebpf4jnsgd1na2vs0mg"},{"bike_id":"bc3fe07f-ae95-42d2-91f0-d34745765c9e","system_id":"levelo_inurba_marseille","lat":43.24472,"lon":5.42548,"is_reserved":false,"is_disabled":false,"rental_uris":{"android":"levelo://app?vid=bc3fe07f-ae95-42d2-91f0-d34745765c9e","ios":"levelo://app?vid=bc3fe07f-ae95-42d2-91f0-d34745765c9e"},"vehicle_type_id":"4","last_reported":1779259090,"current_range_meters":7200,"station_id":"st_d4a3vfp97mjs738cd8kg","pricing_plan_id":"cebpf4jnsgd1na2vs0mg"},{"bike_id":"cfd8774f-7d51-48ec-8267-56110e90adf9","system_id":"levelo_inurba_marseille","lat":43.3051,"lon":5.37288,"is_reserved":false,"is_disabled":false,"rental_uris":{"android":"levelo://app?vid=cfd8774f-7d51-48ec-8267-56110e90adf9","ios":"levelo://app?vid=cfd8774f-7d51-48ec-8267-56110e90adf9"},"vehicle_type_id":"4","last_reported":1779259090,"current_range_meters":7200,"station_id":"","pricing_plan_id":"cebpf4jnsgd1na2vs0mg"},{"bike_id":"14994d17-6c32-4b4a-8eb5-74e5a6909038","system_id":"levelo_inurba_marseille","lat":43.26506,"lon":5.39553,"is_reserved":false,"is_disabled":false,"rental_uris":{"android":"levelo://app?vid=14994d17-6c32-4b4a-8eb5-74e5a6909038","ios":"levelo://app?vid=14994d17-6c32-4b4a-8eb5-74e5a6909038"},"vehicle_type_id":"4","last_reported":1779259090,"current_range_meters":7200,"station_id":"ce4bhi12rcd13ifvqfq0","pricing_plan_id":"cebpf4jnsgd1na2vs0mg"},{"bike_id":"7c2bc001-29a8-41d0-bd01-8ee0f2196f49","system_id":"levelo_inurba_marseille","lat":43.24547,"lon":5.39519,"is_reserved":false,"is_disabled":false,"rental_uris":{"android":"levelo://app?vid=7c2bc001-29a8-41d0-bd01-8ee0f2196f49","ios":"levelo://app?vid=7c2bc001-29a8-41d0-bd01-8ee0f2196f49"},"vehicle_type_id":"4","last_reported":1779259090,"current_range_meters":7200,"station_id":"ce4bhlp2rcd13ifvqgjg","pricing_plan_id":"cebpf4jnsgd1na2vs0mg"},{"bike_id":"1945c429-a6b3-4afe-8b4e-c989148ef8b4","system_id":"levelo_inurba_marseille","lat":43.28633,"lon":5.378,"is_reserved":false,"is_disabled":false,"rental_uris":{"android":"levelo://app?vid=1945c429-a6b3-4afe-8b4e-c989148ef8b4","ios":"levelo://app?vid=1945c429-a6b3-4afe-8b4e-c989148ef8b4"},"vehicle_type_id":"4","last_reported":1779259090,"current_range_meters":7200,"station_id":"","pricing_plan_id":"cebpf4jnsgd1na2vs0mg"},{"bike_id":"ca1c46ac-a51b-4100-a080-e8b002e382ed","system_id":"levelo_inurba_marseille","lat":43.24997,"lon":5.38952,"is_reserved":false,"is_disabled":false,"rental_uris":{"android":"levelo://app?vid=ca1c46ac-a51b-4100-a080-e8b002e382ed","ios":"levelo://app?vid=ca1c46ac-a51b-4100-a080-e8b002e382ed"},"vehicle_type_id":"4","last_reported":1779259090,"current_range_meters":8000,"station_id":"ce4bhgp2rcd13ifvqfd0","pricing_plan_id":"cebpf4jnsgd1na2vs0mg"},{"bike_id":"34af6e72-8a50-4feb-96ea-f1be90c9a4e0","system_id":"levelo_inurba_marseille","lat":43.30365,"lon":5.42491,"is_reserved":false,"is_disabled":false,"rental_uris":{"android":"levelo://app?vid=34af6e72-8a50-4feb-96ea-f1be90c9a4e0","ios":"levelo://app?vid=34af6e72-8a50-4feb-96ea-f1be90c9a4e0"},"vehicle_type_id":"4","last_reported":1779259090,"current_range_meters":8000,"station_id":"ce4bhoh2rcd13ifvqh6g","pricing_plan_id":"cebpf4jnsgd1na2vs0mg"},{"bike_id":"3a50c5a4-deb8-4283-a331-71ea6e0504a8","system_id":"levelo_inurba_marseille","lat":43.28531,"lon":5.44092,"is_reserved":false,"is_disabled":false,"rental_uris":{"android":"levelo://app?vid=3a50c5a4-deb8-4283-a331-71ea6e0504a8","ios":"levelo://app?vid=3a50c5a4-deb8-4283-a331-71ea6e0504a8"},"vehicle_type_id":"4","last_reported":1779259090,"current_range_meters":8000,"station_id":"st_d3j3df2ikq2c7380ej80","pricing_plan_id":"cebpf4jnsgd1na2vs0mg"},{"bike_id":"759479a3-3bb6-43cf-adf8-c6871e710b7c","system_id":"levelo_inurba_marseille","lat":43.24645,"lon":5.38888,"is_reserved":false,"is_disabled":false,"rental_uris":{"android":"levelo://app?vid=759479a3-3bb6-43cf-adf8-c6871e710b7c","ios":"levelo://app?vid=759479a3-3bb6-43cf-adf8-c6871e710b7c"},"vehicle_type_id":"4","last_reported":1779259090,"current_range_meters":8000,"station_id":"ce4bhg12rcd13ifvqf60","pricing_plan_id":"cebpf4jnsgd1na2vs0mg"},{"bike_id":"8d176ace-1a7d-48bf-b4ed-e6413fd72bba","system_id":"levelo_inurba_marseille","lat":43.31121,"lon":5.37754,"is_reserved":false,"is_disabled":false,"rental_uris":{"android":"levelo://app?vid=8d176ace-1a7d-48bf-b4ed-e6413fd72bba","ios":"levelo://app?vid=8d176ace-1a7d-48bf-b4ed-e6413fd72bba"},"vehicle_type_id":"4","last_reported":1779259090,"current_range_meters":8000,"station_id":"ce4bgt92rcd13ifvqcg0","pricing_plan_id":"cebpf4jnsgd1na2vs0mg"},{"bike_id":"9496420c-3dc3-4b4f-a21f-f9548cbf384b","system_id":"levelo_inurba_marseille","lat":43.27621,"lon":5.36115,"is_reserved":false,"is_disabled":false,"rental_uris":{"android":"levelo://app?vid=9496420c-3dc3-4b4f-a21f-f9548cbf384b","ios":"levelo://app?vid=9496420c-3dc3-4b4f-a21f-f9548cbf384b"},"vehicle_type_id":"4","last_reported":1779259090,"current_range_meters":8000,"station_id":"ce4bgj92rcd13ifvqbe0","pricing_plan_id":"cebpf4jnsgd1na2vs0mg"},{"bike_id":"28921807-37d4-4112-a650-45cf8cb75302","system_id":"levelo_inurba_marseille","lat":43.3016,"lon":5.38075,"is_reserved":false,"is_disabled":false,"rental_uris":{"android":"levelo://app?vid=28921807-37d4-4112-a650-45cf8cb75302","ios":"levelo://app?vid=28921807-37d4-4112-a650-45cf8cb75302"},"vehicle_type_id":"4","last_reported":1779259090,"current_range_meters":8000,"station_id":"ce4bgjp2rcd13ifvqbh0","pricing_plan_id":"cebpf4jnsgd1na2vs0mg"},{"bike_id":"40d31f22-a305-4362-bb04-68eb6d3d90a4","system_id":"levelo_inurba_marseille","lat":43.2318,"lon":5.39995,"is_reserved":false,"is_disabled":false,"rental_uris":{"android":"levelo://app?vid=40d31f22-a305-4362-bb04-68eb6d3d90a4","ios":"levelo://app?vid=40d31f22-a305-4362-bb04-68eb6d3d90a4"},"vehicle_type_id":"4","last_reported":1779259090,"current_range_meters":8000,"station_id":"","pricing_plan_id":"cebpf4jnsgd1na2vs0mg"},{"bike_id":"c202bc15-6fd2-4b5b-b9f8-fe2a7981a9a0","system_id":"levelo_inurba_marseille","lat":43.23326,"lon":5.35913,"is_reserved":false,"is_disabled":false,"rental_uris":{"android":"levelo://app?vid=c202bc15-6fd2-4b5b-b9f8-fe2a7981a9a0","ios":"levelo://app?vid=c202bc15-6fd2-4b5b-b9f8-fe2a7981a9a0"},"vehicle_type_id":"4","last_reported":1779259090,"current_range_meters":8000,"station_id":"","pricing_plan_id":"cebpf4jnsgd1na2vs0mg"},{"bike_id":"7ff7868a-2992-4ed0-8b89-9cb9d41a9769","system_id":"levelo_inurba_marseille","lat":43.25004,"lon":5.38936,"is_reserved":false,"is_disabled":false,"rental_uris":{"android":"levelo://app?vid=7ff7868a-2992-4ed0-8b89-9cb9d41a9769","ios":"levelo://app?vid=7ff7868a-2992-4ed0-8b89-9cb9d41a9769"},"vehicle_type_id":"4","last_reported":1779259090,"current_range_meters":8000,"station_id":"ce4bhgp2rcd13ifvqfd0","pricing_plan_id":"cebpf4jnsgd1na2vs0mg"},{"bike_id":"55822e8a-aa83-45e0-9666-a1922ea4bb43","system_id":"levelo_inurba_marseille","lat":43.29552,"lon":5.42265,"is_reserved":false,"is_disabled":true,"rental_uris":{"android":"levelo://app?vid=55822e8a-aa83-45e0-9666-a1922ea4bb43","ios":"levelo://app?vid=55822e8a-aa83-45e0-9666-a1922ea4bb43"},"vehicle_type_id":"4","last_reported":1779259090,"current_range_meters":8000,"station_id":"ce4bhph2rcd13ifvqhdg","pricing_plan_id":"cebpf4jnsgd1na2vs0mg"},{"bike_id":"031d4b32-9219-4066-9d76-cbb9aff58bbc","system_id":"levelo_inurba_marseille","lat":43.292581,"lon":5.409052,"is_reserved":false,"is_disabled":true,"rental_uris":{"android":"levelo://app?vid=031d4b32-9219-4066-9d76-cbb9aff58bbc","ios":"levelo://app?vid=031d4b32-9219-4066-9d76-cbb9aff58bbc"},"vehicle_type_id":"4","last_reported":1779259090,"current_range_meters":8000,"station_id":"ce4bh192rcd13ifvqdc0","pricing_plan_id":"cebpf4jnsgd1na2vs0mg"},{"bike_id":"0c0c635d-0bed-4d10-abc5-94eb2ad0d2af","system_id":"levelo_inurba_marseille","lat":43.28357,"lon":5.38107,"is_reserved":false,"is_disabled":false,"rental_uris":{"android":"levelo://app?vid=0c0c635d-0bed-4d10-abc5-94eb2ad0d2af","ios":"levelo://app?vid=0c0c635d-0bed-4d10-abc5-94eb2ad0d2af"},"vehicle_type_id":"4","last_reported":1779259090,"current_range_meters":8000,"station_id":"ce4bh412rcd13ifvqdr0","pricing_plan_id":"cebpf4jnsgd1na2vs0mg"},{"bike_id":"4cf5899f-760e-4c98-a83a-74f687ec566d","system_id":"levelo_inurba_marseille","lat":43.30303,"lon":5.39196,"is_reserved":false,"is_disabled":true,"rental_uris":{"android":"levelo://app?vid=4cf5899f-760e-4c98-a83a-74f687ec566d","ios":"levelo://app?vid=4cf5899f-760e-4c98-a83a-74f687ec566d"},"vehicle_type_id":"4","last_reported":1779259090,"current_range_meters":8000,"station_id":"ce4bgkh2rcd13ifvqbk0","pricing_plan_id":"cebpf4jnsgd1na2vs0mg"},{"bike_id":"01330d36-0863-4660-98a2-b9b7fbccf6b4","system_id":"levelo_inurba_marseille","lat":43.28571,"lon":5.39502,"is_reserved":false,"is_disabled":false,"rental_uris":{"android":"levelo://app?vid=01330d36-0863-4660-98a2-b9b7fbccf6b4","ios":"levelo://app?vid=01330d36-0863-4660-98a2-b9b7fbccf6b4"},"vehicle_type_id":"4","last_reported":1779259090,"current_range_meters":8000,"station_id":"ce4bh292rcd13ifvqdg0","pricing_plan_id":"cebpf4jnsgd1na2vs0mg"},{"bike_id":"77d086f1-5c6e-4eb5-9648-76c7500c89c6","system_id":"levelo_inurba_marseille","lat":43.28415,"lon":5.34977,"is_reserved":false,"is_disabled":false,"rental_uris":{"android":"levelo://app?vid=77d086f1-5c6e-4eb5-9648-76c7500c89c6","ios":"levelo://app?vid=77d086f1-5c6e-4eb5-9648-76c7500c89c6"},"vehicle_type_id":"4","last_reported":1779259090,"current_range_meters":8000,"station_id":"ce4bhbh2rcd13ifvqepg","pricing_plan_id":"cebpf4jnsgd1na2vs0mg"},{"bike_id":"f00dbe32-4e32-429b-b63a-54e922cc0105","system_id":"levelo_inurba_marseille","lat":43.27322,"lon":5.39071,"is_reserved":false,"is_disabled":true,"rental_uris":{"android":"levelo://app?vid=f00dbe32-4e32-429b-b63a-54e922cc0105","ios":"levelo://app?vid=f00dbe32-4e32-429b-b63a-54e922cc0105"},"vehicle_type_id":"4","last_reported":1779259090,"current_range_meters":8000,"station_id":"ce4bhgp2rcd13ifvqfe0","pricing_plan_id":"cebpf4jnsgd1na2vs0mg"},{"bike_id":"641625a9-15d1-4318-92bd-6c7525fc2c00","system_id":"levelo_inurba_marseille","lat":43.30917,"lon":5.40144,"is_reserved":false,"is_disabled":false,"rental_uris":{"android":"levelo://app?vid=641625a9-15d1-4318-92bd-6c7525fc2c00","ios":"levelo://app?vid=641625a9-15d1-4318-92bd-6c7525fc2c00"},"vehicle_type_id":"4","last_reported":1779259090,"current_range_meters":8000,"station_id":"ce4bgvp2rcd13ifvqct0","pricing_plan_id":"cebpf4jnsgd1na2vs0mg"},{"bike_id":"e5f21e43-5d32-4047-8237-8cf74b2ebfd3","system_id":"levelo_inurba_marseille","lat":43.31316,"lon":5.36731,"is_reserved":false,"is_disabled":false,"rental_uris":{"android":"levelo://app?vid=e5f21e43-5d32-4047-8237-8cf74b2ebfd3","ios":"levelo://app?vid=e5f21e43-5d32-4047-8237-8cf74b2ebfd3"},"vehicle_type_id":"4","last_reported":1779259090,"current_range_meters":8000,"station_id":"ce4bgr92rcd13ifvqc6g","pricing_plan_id":"cebpf4jnsgd1na2vs0mg"},{"bike_id":"ab3d0653-ceb0-447c-b6ee-1608aa7ac29d","system_id":"levelo_inurba_marseille","lat":43.29179,"lon":5.45993,"is_reserved":false,"is_disabled":false,"rental_uris":{"android":"levelo://app?vid=ab3d0653-ceb0-447c-b6ee-1608aa7ac29d","ios":"levelo://app?vid=ab3d0653-ceb0-447c-b6ee-1608aa7ac29d"},"vehicle_type_id":"4","last_reported":1779259090,"current_range_meters":8000,"station_id":"","pricing_plan_id":"cebpf4jnsgd1na2vs0mg"},{"bike_id":"136d6c4e-737d-424c-adde-a185ac1964d6","system_id":"levelo_inurba_marseille","lat":43.251378,"lon":5.394806,"is_reserved":false,"is_disabled":false,"rental_uris":{"android":"levelo://app?vid=136d6c4e-737d-424c-adde-a185ac1964d6","ios":"levelo://app?vid=136d6c4e-737d-424c-adde-a185ac1964d6"},"vehicle_type_id":"4","last_reported":1779259090,"current_range_meters":8000,"station_id":"ce4bhm12rcd13ifvqgkg","pricing_plan_id":"cebpf4jnsgd1na2vs0mg"},{"bike_id":"a9ecdf3d-d058-4d96-8a15-53a583bb9732","system_id":"levelo_inurba_marseille","lat":43.2742,"lon":5.39396,"is_reserved":false,"is_disabled":false,"rental_uris":{"android":"levelo://app?vid=a9ecdf3d-d058-4d96-8a15-53a583bb9732","ios":"levelo://app?vid=a9ecdf3d-d058-4d96-8a15-53a583bb9732"},"vehicle_type_id":"4","last_reported":1779259090,"current_range_meters":8000,"station_id":"ce4bhdp2rcd13ifvqf20","pricing_plan_id":"cebpf4jnsgd1na2vs0mg"},{"bike_id":"0767357f-258e-4f02-98a0-f29dca689ffa","system_id":"levelo_inurba_marseille","lat":43.30116,"lon":5.38077,"is_reserved":false,"is_disabled":false,"rental_uris":{"android":"levelo://app?vid=0767357f-258e-4f02-98a0-f29dca689ffa","ios":"levelo://app?vid=0767357f-258e-4f02-98a0-f29dca689ffa"},"vehicle_type_id":"4","last_reported":1779259090,"current_range_meters":8000,"station_id":"ce4bgjp2rcd13ifvqbh0","pricing_plan_id":"cebpf4jnsgd1na2vs0mg"},{"bike_id":"94102bf4-d577-4f27-895b-1bf0b18a4681","system_id":"levelo_inurba_marseille","lat":43.2849,"lon":5.38339,"is_reserved":false,"is_disabled":false,"rental_uris":{"android":"levelo://app?vid=94102bf4-d577-4f27-895b-1bf0b18a4681","ios":"levelo://app?vid=94102bf4-d577-4f27-895b-1bf0b18a4681"},"vehicle_type_id":"4","last_reported":1779259090,"current_range_meters":8000,"station_id":"ce4bh512rcd13ifvqe3g","pricing_plan_id":"cebpf4jnsgd1na2vs0mg"},{"bike_id":"9a182e61-c90f-4226-be58-d636cbd9237b","system_id":"levelo_inurba_marseille","lat":43.24813,"lon":5.37454,"is_reserved":false,"is_disabled":false,"rental_uris":{"android":"levelo://app?vid=9a182e61-c90f-4226-be58-d636cbd9237b","ios":"levelo://app?vid=9a182e61-c90f-4226-be58-d636cbd9237b"},"vehicle_type_id":"4","last_reported":1779259090,"current_range_meters":8400,"station_id":"ce4bhgh2rcd13ifvqfb0","pricing_plan_id":"cebpf4jnsgd1na2vs0mg"},{"bike_id":"b7a48c35-7e56-41a1-ac73-ae7f6b539c0c","system_id":"levelo_inurba_marseille","lat":43.29808,"lon":5.3809,"is_reserved":false,"is_disabled":false,"rental_uris":{"android":"levelo://app?vid=b7a48c35-7e56-41a1-ac73-ae7f6b539c0c","ios":"levelo://app?vid=b7a48c35-7e56-41a1-ac73-ae7f6b539c0c"},"vehicle_type_id":"4","last_reported":1779259090,"current_range_meters":8400,"station_id":"ce4bgip2rcd13ifvqbb0","pricing_plan_id":"cebpf4jnsgd1na2vs0mg"},{"bike_id":"ed0a2e31-3f52-4952-819a-710fa6677d96","system_id":"levelo_inurba_marseille","lat":43.28709,"lon":5.46688,"is_reserved":false,"is_disabled":false,"rental_uris":{"android":"levelo://app?vid=ed0a2e31-3f52-4952-819a-710fa6677d96","ios":"levelo://app?vid=ed0a2e31-3f52-4952-819a-710fa6677d96"},"vehicle_type_id":"4","last_reported":1779259090,"current_range_meters":8400,"station_id":"st_d6tc3vkotcvc738tfjhg","pricing_plan_id":"cebpf4jnsgd1na2vs0mg"},{"bike_id":"2dfc9f38-b1a0-4099-a4e1-9635ed82771f","system_id":"levelo_inurba_marseille","lat":43.27184,"lon":5.39154,"is_reserved":false,"is_disabled":false,"rental_uris":{"android":"levelo://app?vid=2dfc9f38-b1a0-4099-a4e1-9635ed82771f","ios":"levelo://app?vid=2dfc9f38-b1a0-4099-a4e1-9635ed82771f"},"vehicle_type_id":"4","last_reported":1779259090,"current_range_meters":8400,"station_id":"ce4bhhp2rcd13ifvqfm0","pricing_plan_id":"cebpf4jnsgd1na2vs0mg"},{"bike_id":"e00e03e8-b2b4-41d0-ac50-050fa56e2c50","system_id":"levelo_inurba_marseille","lat":43.32494,"lon":5.38299,"is_reserved":false,"is_disabled":false,"rental_uris":{"android":"levelo://app?vid=e00e03e8-b2b4-41d0-ac50-050fa56e2c50","ios":"levelo://app?vid=e00e03e8-b2b4-41d0-ac50-050fa56e2c50"},"vehicle_type_id":"4","last_reported":1779259090,"current_range_meters":8400,"station_id":"st_d4asgbiv49dc73anf9m0","pricing_plan_id":"cebpf4jnsgd1na2vs0mg"},{"bike_id":"6e263ae1-ee4a-4335-9e19-d34b288d3421","system_id":"levelo_inurba_marseille","lat":43.30539,"lon":5.36536,"is_reserved":false,"is_disabled":false,"rental_uris":{"android":"levelo://app?vid=6e263ae1-ee4a-4335-9e19-d34b288d3421","ios":"levelo://app?vid=6e263ae1-ee4a-4335-9e19-d34b288d3421"},"vehicle_type_id":"4","last_reported":1779259090,"current_range_meters":8400,"station_id":"ce4bgs12rcd13ifvqcag","pricing_plan_id":"cebpf4jnsgd1na2vs0mg"},{"bike_id":"a6a34c40-e83f-4157-90a2-0201993264f1","system_id":"levelo_inurba_marseille","lat":43.26205,"lon":5.40441,"is_reserved":false,"is_disabled":false,"rental_uris":{"android":"levelo://app?vid=a6a34c40-e83f-4157-90a2-0201993264f1","ios":"levelo://app?vid=a6a34c40-e83f-4157-90a2-0201993264f1"},"vehicle_type_id":"4","last_reported":1779259090,"current_range_meters":8400,"station_id":"ce4bhmh2rcd13ifvqgmg","pricing_plan_id":"cebpf4jnsgd1na2vs0mg"},{"bike_id":"493e51c7-6cd4-40c6-852a-b6f232806fb5","system_id":"levelo_inurba_marseille","lat":43.240709,"lon":5.377616,"is_reserved":false,"is_disabled":false,"rental_uris":{"android":"levelo://app?vid=493e51c7-6cd4-40c6-852a-b6f232806fb5","ios":"levelo://app?vid=493e51c7-6cd4-40c6-852a-b6f232806fb5"},"vehicle_type_id":"4","last_reported":1779259090,"current_range_meters":8400,"station_id":"ce4bhnp2rcd13ifvqgvg","pricing_plan_id":"cebpf4jnsgd1na2vs0mg"},{"bike_id":"ef4c6fd9-abd6-4ced-9969-c339e07118df","system_id":"levelo_inurba_marseille","lat":43.30533,"lon":5.38436,"is_reserved":false,"is_disabled":true,"rental_uris":{"android":"levelo://app?vid=ef4c6fd9-abd6-4ced-9969-c339e07118df","ios":"levelo://app?vid=ef4c6fd9-abd6-4ced-9969-c339e07118df"},"vehicle_type_id":"4","last_reported":1779259090,"current_range_meters":8400,"station_id":"ce4bgg92rcd13ifvqb30","pricing_plan_id":"cebpf4jnsgd1na2vs0mg"},{"bike_id":"88791c01-6cb0-47b5-ba10-6ef0ba9b522c","system_id":"levelo_inurba_marseille","lat":43.23196,"lon":5.35551,"is_reserved":false,"is_disabled":false,"rental_uris":{"android":"levelo://app?vid=88791c01-6cb0-47b5-ba10-6ef0ba9b522c","ios":"levelo://app?vid=88791c01-6cb0-47b5-ba10-6ef0ba9b522c"},"vehicle_type_id":"4","last_reported":1779259090,"current_range_meters":8400,"station_id":"ce4bhu92rcd13ifvqi70","pricing_plan_id":"cebpf4jnsgd1na2vs0mg"},{"bike_id":"09a0d8e8-8dab-4d00-93bd-8977f58314df","system_id":"levelo_inurba_marseille","lat":43.26072,"lon":5.39432,"is_reserved":false,"is_disabled":false,"rental_uris":{"android":"levelo://app?vid=09a0d8e8-8dab-4d00-93bd-8977f58314df","ios":"levelo://app?vid=09a0d8e8-8dab-4d00-93bd-8977f58314df"},"vehicle_type_id":"4","last_reported":1779259090,"current_range_meters":8400,"station_id":"ce4bhh92rcd13ifvqfj0","pricing_plan_id":"cebpf4jnsgd1na2vs0mg"},{"bike_id":"b9ce9a6b-ed04-4504-86e1-1e4d604c520f","system_id":"levelo_inurba_marseille","lat":43.27594,"lon":5.42328,"is_reserved":false,"is_disabled":false,"rental_uris":{"android":"levelo://app?vid=b9ce9a6b-ed04-4504-86e1-1e4d604c520f","ios":"levelo://app?vid=b9ce9a6b-ed04-4504-86e1-1e4d604c520f"},"vehicle_type_id":"4","last_reported":1779259090,"current_range_meters":8400,"station_id":"","pricing_plan_id":"cebpf4jnsgd1na2vs0mg"},{"bike_id":"5a297e80-d2f0-4fb4-9886-093528a3567a","system_id":"levelo_inurba_marseille","lat":43.31447,"lon":5.37407,"is_reserved":false,"is_disabled":true,"rental_uris":{"android":"levelo://app?vid=5a297e80-d2f0-4fb4-9886-093528a3567a","ios":"levelo://app?vid=5a297e80-d2f0-4fb4-9886-093528a3567a"},"vehicle_type_id":"4","last_reported":1779259090,"current_range_meters":8800,"station_id":"","pricing_plan_id":"cebpf4jnsgd1na2vs0mg"},{"bike_id":"4691b58d-bf62-4bf4-b52a-75352bd7627b","system_id":"levelo_inurba_marseille","lat":43.24951,"lon":5.40492,"is_reserved":false,"is_disabled":false,"rental_uris":{"android":"levelo://app?vid=4691b58d-bf62-4bf4-b52a-75352bd7627b","ios":"levelo://app?vid=4691b58d-bf62-4bf4-b52a-75352bd7627b"},"vehicle_type_id":"4","last_reported":1779259090,"current_range_meters":8800,"station_id":"st_d2ngiaodas8pm72gd1h0","pricing_plan_id":"cebpf4jnsgd1na2vs0mg"},{"bike_id":"436dd93d-1149-4ae4-b924-5d02c3fbcee2","system_id":"levelo_inurba_marseille","lat":43.2408,"lon":5.37744,"is_reserved":false,"is_disabled":false,"rental_uris":{"android":"levelo://app?vid=436dd93d-1149-4ae4-b924-5d02c3fbcee2","ios":"levelo://app?vid=436dd93d-1149-4ae4-b924-5d02c3fbcee2"},"vehicle_type_id":"4","last_reported":1779259090,"current_range_meters":8800,"station_id":"ce4bhnp2rcd13ifvqgvg","pricing_plan_id":"cebpf4jnsgd1na2vs0mg"},{"bike_id":"6adc8749-915c-4745-aa5a-65398aca5994","system_id":"levelo_inurba_marseille","lat":43.30883,"lon":5.39656,"is_reserved":false,"is_disabled":false,"rental_uris":{"android":"levelo://app?vid=6adc8749-915c-4745-aa5a-65398aca5994","ios":"levelo://app?vid=6adc8749-915c-4745-aa5a-65398aca5994"},"vehicle_type_id":"4","last_reported":1779259090,"current_range_meters":8800,"station_id":"ce4bh012rcd13ifvqcv0","pricing_plan_id":"cebpf4jnsgd1na2vs0mg"},{"bike_id":"307bf04f-7e7a-4ce3-89b1-10a2a62d1134","system_id":"levelo_inurba_marseille","lat":43.28938,"lon":5.36639,"is_reserved":false,"is_disabled":false,"rental_uris":{"android":"levelo://app?vid=307bf04f-7e7a-4ce3-89b1-10a2a62d1134","ios":"levelo://app?vid=307bf04f-7e7a-4ce3-89b1-10a2a62d1134"},"vehicle_type_id":"4","last_reported":1779259090,"current_range_meters":8800,"station_id":"ce4bhap2rcd13ifvqek0","pricing_plan_id":"cebpf4jnsgd1na2vs0mg"},{"bike_id":"eaaca147-8b6e-4c90-a10c-ca413ca3ce35","system_id":"levelo_inurba_marseille","lat":43.23032,"lon":5.3545,"is_reserved":false,"is_disabled":true,"rental_uris":{"android":"levelo://app?vid=eaaca147-8b6e-4c90-a10c-ca413ca3ce35","ios":"levelo://app?vid=eaaca147-8b6e-4c90-a10c-ca413ca3ce35"},"vehicle_type_id":"4","last_reported":1779259090,"current_range_meters":8800,"station_id":"cpo3342slgdg3j2ifvpg","pricing_plan_id":"cebpf4jnsgd1na2vs0mg"},{"bike_id":"c5c4de16-f572-4e5b-868f-136a05fbf6d7","system_id":"levelo_inurba_marseille","lat":43.25582,"lon":5.38235,"is_reserved":false,"is_disabled":false,"rental_uris":{"android":"levelo://app?vid=c5c4de16-f572-4e5b-868f-136a05fbf6d7","ios":"levelo://app?vid=c5c4de16-f572-4e5b-868f-136a05fbf6d7"},"vehicle_type_id":"4","last_reported":1779259090,"current_range_meters":8800,"station_id":"ce4bhih2rcd13ifvqfs0","pricing_plan_id":"cebpf4jnsgd1na2vs0mg"},{"bike_id":"e38caa21-a14a-4197-88a1-db68aad57c56","system_id":"levelo_inurba_marseille","lat":43.2869,"lon":5.46692,"is_reserved":false,"is_disabled":false,"rental_uris":{"android":"levelo://app?vid=e38caa21-a14a-4197-88a1-db68aad57c56","ios":"levelo://app?vid=e38caa21-a14a-4197-88a1-db68aad57c56"},"vehicle_type_id":"4","last_reported":1779259090,"current_range_meters":8800,"station_id":"st_d6tc3vkotcvc738tfjhg","pricing_plan_id":"cebpf4jnsgd1na2vs0mg"},{"bike_id":"0db288c2-8b26-4429-9bd4-785125a69a20","system_id":"levelo_inurba_marseille","lat":43.24814,"lon":5.37467,"is_reserved":false,"is_disabled":false,"rental_uris":{"android":"levelo://app?vid=0db288c2-8b26-4429-9bd4-785125a69a20","ios":"levelo://app?vid=0db288c2-8b26-4429-9bd4-785125a69a20"},"vehicle_type_id":"4","last_reported":1779259090,"current_range_meters":8800,"station_id":"ce4bhgh2rcd13ifvqfb0","pricing_plan_id":"cebpf4jnsgd1na2vs0mg"},{"bike_id":"fcab34a2-2e38-4e08-9924-a9cfef68c63b","system_id":"levelo_inurba_marseille","lat":43.27037,"lon":5.38295,"is_reserved":false,"is_disabled":false,"rental_uris":{"android":"levelo://app?vid=fcab34a2-2e38-4e08-9924-a9cfef68c63b","ios":"levelo://app?vid=fcab34a2-2e38-4e08-9924-a9cfef68c63b"},"vehicle_type_id":"4","last_reported":1779259090,"current_range_meters":8800,"station_id":"st_d3n2fo6cfp8s73cte1j0","pricing_plan_id":"cebpf4jnsgd1na2vs0mg"},{"bike_id":"96cc657e-d360-459b-85b3-c6a37382b94d","system_id":"levelo_inurba_marseille","lat":43.29053,"lon":5.39966,"is_reserved":false,"is_disabled":false,"rental_uris":{"android":"levelo://app?vid=96cc657e-d360-459b-85b3-c6a37382b94d","ios":"levelo://app?vid=96cc657e-d360-459b-85b3-c6a37382b94d"},"vehicle_type_id":"4","last_reported":1779259090,"current_range_meters":8800,"station_id":"ce4bh392rcd13ifvqdm0","pricing_plan_id":"cebpf4jnsgd1na2vs0mg"},{"bike_id":"381a1687-3b4c-4e43-ada7-0b296f458493","system_id":"levelo_inurba_marseille","lat":43.28749,"lon":5.46713,"is_reserved":false,"is_disabled":false,"rental_uris":{"android":"levelo://app?vid=381a1687-3b4c-4e43-ada7-0b296f458493","ios":"levelo://app?vid=381a1687-3b4c-4e43-ada7-0b296f458493"},"vehicle_type_id":"4","last_reported":1779259090,"current_range_meters":8800,"station_id":"","pricing_plan_id":"cebpf4jnsgd1na2vs0mg"},{"bike_id":"51498d75-9af5-4013-969a-723de0aa6489","system_id":"levelo_inurba_marseille","lat":43.27184,"lon":5.40979,"is_reserved":false,"is_disabled":false,"rental_uris":{"android":"levelo://app?vid=51498d75-9af5-4013-969a-723de0aa6489","ios":"levelo://app?vid=51498d75-9af5-4013-969a-723de0aa6489"},"vehicle_type_id":"4","last_reported":1779259090,"current_range_meters":8800,"station_id":"ce4bhl12rcd13ifvqgf0","pricing_plan_id":"cebpf4jnsgd1na2vs0mg"},{"bike_id":"3fc0b2b6-56e2-4678-9f58-a1d7bfda8345","system_id":"levelo_inurba_marseille","lat":43.24077,"lon":5.37766,"is_reserved":false,"is_disabled":false,"rental_uris":{"android":"levelo://app?vid=3fc0b2b6-56e2-4678-9f58-a1d7bfda8345","ios":"levelo://app?vid=3fc0b2b6-56e2-4678-9f58-a1d7bfda8345"},"vehicle_type_id":"4","last_reported":1779259090,"current_range_meters":8800,"station_id":"ce4bhnp2rcd13ifvqgvg","pricing_plan_id":"cebpf4jnsgd1na2vs0mg"},{"bike_id":"09c2430b-9de6-418b-b360-e3088aa91c57","system_id":"levelo_inurba_marseille","lat":43.24799,"lon":5.37443,"is_reserved":false,"is_disabled":true,"rental_uris":{"android":"levelo://app?vid=09c2430b-9de6-418b-b360-e3088aa91c57","ios":"levelo://app?vid=09c2430b-9de6-418b-b360-e3088aa91c57"},"vehicle_type_id":"4","last_reported":1779259090,"current_range_meters":8800,"station_id":"ce4bhgh2rcd13ifvqfb0","pricing_plan_id":"cebpf4jnsgd1na2vs0mg"},{"bike_id":"28f1dff6-fb22-43b0-a0d3-9fbddfffa1ed","system_id":"levelo_inurba_marseille","lat":43.27815,"lon":5.407,"is_reserved":false,"is_disabled":false,"rental_uris":{"android":"levelo://app?vid=28f1dff6-fb22-43b0-a0d3-9fbddfffa1ed","ios":"levelo://app?vid=28f1dff6-fb22-43b0-a0d3-9fbddfffa1ed"},"vehicle_type_id":"4","last_reported":1779259090,"current_range_meters":8800,"station_id":"ce4bhnh2rcd13ifvqgtg","pricing_plan_id":"cebpf4jnsgd1na2vs0mg"},{"bike_id":"5bdfeea8-b00d-40a3-937c-a732bff481b7","system_id":"levelo_inurba_marseille","lat":43.24817,"lon":5.37463,"is_reserved":false,"is_disabled":false,"rental_uris":{"android":"levelo://app?vid=5bdfeea8-b00d-40a3-937c-a732bff481b7","ios":"levelo://app?vid=5bdfeea8-b00d-40a3-937c-a732bff481b7"},"vehicle_type_id":"4","last_reported":1779259090,"current_range_meters":8800,"station_id":"ce4bhgh2rcd13ifvqfb0","pricing_plan_id":"cebpf4jnsgd1na2vs0mg"},{"bike_id":"d17a4852-454d-4c32-ae3c-31e878368646","system_id":"levelo_inurba_marseille","lat":43.27941,"lon":5.41052,"is_reserved":false,"is_disabled":false,"rental_uris":{"android":"levelo://app?vid=d17a4852-454d-4c32-ae3c-31e878368646","ios":"levelo://app?vid=d17a4852-454d-4c32-ae3c-31e878368646"},"vehicle_type_id":"4","last_reported":1779259090,"current_range_meters":8800,"station_id":"ce4bhnp2rcd13ifvqh0g","pricing_plan_id":"cebpf4jnsgd1na2vs0mg"},{"bike_id":"8cea607f-58f4-44ff-915f-74224f16cc52","system_id":"levelo_inurba_marseille","lat":43.24072,"lon":5.37745,"is_reserved":false,"is_disabled":false,"rental_uris":{"android":"levelo://app?vid=8cea607f-58f4-44ff-915f-74224f16cc52","ios":"levelo://app?vid=8cea607f-58f4-44ff-915f-74224f16cc52"},"vehicle_type_id":"4","last_reported":1779259090,"current_range_meters":8800,"station_id":"ce4bhnp2rcd13ifvqgvg","pricing_plan_id":"cebpf4jnsgd1na2vs0mg"},{"bike_id":"79d22121-588f-469c-9b3a-8308369eae3f","system_id":"levelo_inurba_marseille","lat":43.2872,"lon":5.3794,"is_reserved":false,"is_disabled":false,"rental_uris":{"android":"levelo://app?vid=79d22121-588f-469c-9b3a-8308369eae3f","ios":"levelo://app?vid=79d22121-588f-469c-9b3a-8308369eae3f"},"vehicle_type_id":"4","last_reported":1779259090,"current_range_meters":8800,"station_id":"ce4bh9p2rcd13ifvqec0","pricing_plan_id":"cebpf4jnsgd1na2vs0mg"},{"bike_id":"fff96e67-4dcf-4052-8ace-98fc8220bab6","system_id":"levelo_inurba_marseille","lat":43.26522,"lon":5.39559,"is_reserved":false,"is_disabled":false,"rental_uris":{"android":"levelo://app?vid=fff96e67-4dcf-4052-8ace-98fc8220bab6","ios":"levelo://app?vid=fff96e67-4dcf-4052-8ace-98fc8220bab6"},"vehicle_type_id":"4","last_reported":1779259090,"current_range_meters":8800,"station_id":"ce4bhi12rcd13ifvqfq0","pricing_plan_id":"cebpf4jnsgd1na2vs0mg"},{"bike_id":"31a31fba-6b6f-425a-a317-c43f2a9fbf6a","system_id":"levelo_inurba_marseille","lat":43.30924,"lon":5.40136,"is_reserved":false,"is_disabled":false,"rental_uris":{"android":"levelo://app?vid=31a31fba-6b6f-425a-a317-c43f2a9fbf6a","ios":"levelo://app?vid=31a31fba-6b6f-425a-a317-c43f2a9fbf6a"},"vehicle_type_id":"4","last_reported":1779259090,"current_range_meters":8800,"station_id":"ce4bgvp2rcd13ifvqct0","pricing_plan_id":"cebpf4jnsgd1na2vs0mg"},{"bike_id":"e25cf225-a7af-4258-8d37-45e56fed5cad","system_id":"levelo_inurba_marseille","lat":43.30912,"lon":5.36846,"is_reserved":false,"is_disabled":false,"rental_uris":{"android":"levelo://app?vid=e25cf225-a7af-4258-8d37-45e56fed5cad","ios":"levelo://app?vid=e25cf225-a7af-4258-8d37-45e56fed5cad"},"vehicle_type_id":"4","last_reported":1779259090,"current_range_meters":8800,"station_id":"ce4bgn92rcd13ifvqbvg","pricing_plan_id":"cebpf4jnsgd1na2vs0mg"},{"bike_id":"f34e8471-fefc-4376-b1c8-963190393bc7","system_id":"levelo_inurba_marseille","lat":43.30463,"lon":5.37908,"is_reserved":false,"is_disabled":false,"rental_uris":{"android":"levelo://app?vid=f34e8471-fefc-4376-b1c8-963190393bc7","ios":"levelo://app?vid=f34e8471-fefc-4376-b1c8-963190393bc7"},"vehicle_type_id":"4","last_reported":1779259090,"current_range_meters":9200,"station_id":"ce4bgup2rcd13ifvqcn0","pricing_plan_id":"cebpf4jnsgd1na2vs0mg"},{"bike_id":"b0b6d323-d3db-4127-99fb-40e13b367ede","system_id":"levelo_inurba_marseille","lat":43.28698,"lon":5.39964,"is_reserved":false,"is_disabled":false,"rental_uris":{"android":"levelo://app?vid=b0b6d323-d3db-4127-99fb-40e13b367ede","ios":"levelo://app?vid=b0b6d323-d3db-4127-99fb-40e13b367ede"},"vehicle_type_id":"4","last_reported":1779259090,"current_range_meters":9200,"station_id":"ce4bho92rcd13ifvqh3g","pricing_plan_id":"cebpf4jnsgd1na2vs0mg"},{"bike_id":"dd5bca8d-4a0a-4bc1-8cec-b991e57c6089","system_id":"levelo_inurba_marseille","lat":43.24164,"lon":5.36439,"is_reserved":false,"is_disabled":false,"rental_uris":{"android":"levelo://app?vid=dd5bca8d-4a0a-4bc1-8cec-b991e57c6089","ios":"levelo://app?vid=dd5bca8d-4a0a-4bc1-8cec-b991e57c6089"},"vehicle_type_id":"4","last_reported":1779259090,"current_range_meters":9200,"station_id":"cpo36qri1sfpv3e86is0","pricing_plan_id":"cebpf4jnsgd1na2vs0mg"},{"bike_id":"5240a5f6-9271-48c6-b2b8-4861fa100d4d","system_id":"levelo_inurba_marseille","lat":43.25581,"lon":5.38241,"is_reserved":false,"is_disabled":false,"rental_uris":{"android":"levelo://app?vid=5240a5f6-9271-48c6-b2b8-4861fa100d4d","ios":"levelo://app?vid=5240a5f6-9271-48c6-b2b8-4861fa100d4d"},"vehicle_type_id":"4","last_reported":1779259090,"current_range_meters":9200,"station_id":"ce4bhih2rcd13ifvqfs0","pricing_plan_id":"cebpf4jnsgd1na2vs0mg"},{"bike_id":"1ff3ba31-12f3-4e93-b9f6-4868e826ee3a","system_id":"levelo_inurba_marseille","lat":43.33604,"lon":5.41034,"is_reserved":false,"is_disabled":false,"rental_uris":{"android":"levelo://app?vid=1ff3ba31-12f3-4e93-b9f6-4868e826ee3a","ios":"levelo://app?vid=1ff3ba31-12f3-4e93-b9f6-4868e826ee3a"},"vehicle_type_id":"4","last_reported":1779259090,"current_range_meters":9200,"station_id":"ce4bhqh2rcd13ifvqhmg","pricing_plan_id":"cebpf4jnsgd1na2vs0mg"},{"bike_id":"c88149e9-84b5-440f-a5b0-0931c44f5d88","system_id":"levelo_inurba_marseille","lat":43.31316,"lon":5.39691,"is_reserved":false,"is_disabled":false,"rental_uris":{"android":"levelo://app?vid=c88149e9-84b5-440f-a5b0-0931c44f5d88","ios":"levelo://app?vid=c88149e9-84b5-440f-a5b0-0931c44f5d88"},"vehicle_type_id":"4","last_reported":1779259090,"current_range_meters":9200,"station_id":"ce4bgvp2rcd13ifvqcu0","pricing_plan_id":"cebpf4jnsgd1na2vs0mg"},{"bike_id":"ef6ae83f-9f5e-4ac7-adbd-c460c1d61012","system_id":"levelo_inurba_marseille","lat":43.28854,"lon":5.39315,"is_reserved":false,"is_disabled":false,"rental_uris":{"android":"levelo://app?vid=ef6ae83f-9f5e-4ac7-adbd-c460c1d61012","ios":"levelo://app?vid=ef6ae83f-9f5e-4ac7-adbd-c460c1d61012"},"vehicle_type_id":"4","last_reported":1779259090,"current_range_meters":9200,"station_id":"ce4bh2p2rcd13ifvqdi0","pricing_plan_id":"cebpf4jnsgd1na2vs0mg"},{"bike_id":"4bcaa86d-b674-4086-a73c-62e1b30eeb80","system_id":"levelo_inurba_marseille","lat":43.28858,"lon":5.42513,"is_reserved":false,"is_disabled":false,"rental_uris":{"android":"levelo://app?vid=4bcaa86d-b674-4086-a73c-62e1b30eeb80","ios":"levelo://app?vid=4bcaa86d-b674-4086-a73c-62e1b30eeb80"},"vehicle_type_id":"4","last_reported":1779259090,"current_range_meters":9200,"station_id":"st_d3b462108ojc7389ooeg","pricing_plan_id":"cebpf4jnsgd1na2vs0mg"},{"bike_id":"45b8503d-947b-4845-96c9-8eeb30606f6b","system_id":"levelo_inurba_marseille","lat":43.30885,"lon":5.39654,"is_reserved":false,"is_disabled":false,"rental_uris":{"android":"levelo://app?vid=45b8503d-947b-4845-96c9-8eeb30606f6b","ios":"levelo://app?vid=45b8503d-947b-4845-96c9-8eeb30606f6b"},"vehicle_type_id":"4","last_reported":1779259090,"current_range_meters":9200,"station_id":"ce4bh012rcd13ifvqcv0","pricing_plan_id":"cebpf4jnsgd1na2vs0mg"},{"bike_id":"86d1264f-ae97-4264-b4ef-ce0f88f423cf","system_id":"levelo_inurba_marseille","lat":43.33607,"lon":5.41025,"is_reserved":false,"is_disabled":false,"rental_uris":{"android":"levelo://app?vid=86d1264f-ae97-4264-b4ef-ce0f88f423cf","ios":"levelo://app?vid=86d1264f-ae97-4264-b4ef-ce0f88f423cf"},"vehicle_type_id":"4","last_reported":1779259090,"current_range_meters":9200,"station_id":"ce4bhqh2rcd13ifvqhmg","pricing_plan_id":"cebpf4jnsgd1na2vs0mg"},{"bike_id":"86a0fb52-613b-4a6c-942d-1abbde400b19","system_id":"levelo_inurba_marseille","lat":43.28431,"lon":5.34987,"is_reserved":false,"is_disabled":true,"rental_uris":{"android":"levelo://app?vid=86a0fb52-613b-4a6c-942d-1abbde400b19","ios":"levelo://app?vid=86a0fb52-613b-4a6c-942d-1abbde400b19"},"vehicle_type_id":"4","last_reported":1779259090,"current_range_meters":9200,"station_id":"ce4bhbh2rcd13ifvqepg","pricing_plan_id":"cebpf4jnsgd1na2vs0mg"},{"bike_id":"0fcd54e6-8eec-4b91-b372-3576a17dee23","system_id":"levelo_inurba_marseille","lat":43.28209,"lon":5.39052,"is_reserved":false,"is_disabled":true,"rental_uris":{"android":"levelo://app?vid=0fcd54e6-8eec-4b91-b372-3576a17dee23","ios":"levelo://app?vid=0fcd54e6-8eec-4b91-b372-3576a17dee23"},"vehicle_type_id":"4","last_reported":1779259090,"current_range_meters":9200,"station_id":"ce4bhn92rcd13ifvqgsg","pricing_plan_id":"cebpf4jnsgd1na2vs0mg"},{"bike_id":"92adf614-83a4-493b-82f2-8a65a740d415","system_id":"levelo_inurba_marseille","lat":43.25937,"lon":5.4089,"is_reserved":false,"is_disabled":false,"rental_uris":{"android":"levelo://app?vid=92adf614-83a4-493b-82f2-8a65a740d415","ios":"levelo://app?vid=92adf614-83a4-493b-82f2-8a65a740d415"},"vehicle_type_id":"4","last_reported":1779259090,"current_range_meters":9200,"station_id":"ce4bhm92rcd13ifvqglg","pricing_plan_id":"cebpf4jnsgd1na2vs0mg"},{"bike_id":"7a76df29-bd6a-4711-8a2d-23df4386cd1b","system_id":"levelo_inurba_marseille","lat":43.30596,"lon":5.39354,"is_reserved":false,"is_disabled":false,"rental_uris":{"android":"levelo://app?vid=7a76df29-bd6a-4711-8a2d-23df4386cd1b","ios":"levelo://app?vid=7a76df29-bd6a-4711-8a2d-23df4386cd1b"},"vehicle_type_id":"4","last_reported":1779259090,"current_range_meters":9200,"station_id":"ce4bh0p2rcd13ifvqd80","pricing_plan_id":"cebpf4jnsgd1na2vs0mg"},{"bike_id":"679c99bf-376a-487f-9c45-eb868ee96c3a","system_id":"levelo_inurba_marseille","lat":43.30873,"lon":5.37187,"is_reserved":false,"is_disabled":false,"rental_uris":{"android":"levelo://app?vid=679c99bf-376a-487f-9c45-eb868ee96c3a","ios":"levelo://app?vid=679c99bf-376a-487f-9c45-eb868ee96c3a"},"vehicle_type_id":"4","last_reported":1779259090,"current_range_meters":9200,"station_id":"ce4bguh2rcd13ifvqckg","pricing_plan_id":"cebpf4jnsgd1na2vs0mg"},{"bike_id":"aad75fce-f297-4a66-8546-74ab6bfcd851","system_id":"levelo_inurba_marseille","lat":43.24168,"lon":5.36396,"is_reserved":false,"is_disabled":false,"rental_uris":{"android":"levelo://app?vid=aad75fce-f297-4a66-8546-74ab6bfcd851","ios":"levelo://app?vid=aad75fce-f297-4a66-8546-74ab6bfcd851"},"vehicle_type_id":"4","last_reported":1779259090,"current_range_meters":9200,"station_id":"cpo36qri1sfpv3e86is0","pricing_plan_id":"cebpf4jnsgd1na2vs0mg"},