{"last_updated":1746252810,"ttl":60,"version":"2.2","data":{"bikes":[{"bike_id":"51ef9827-05d4-4f72-abc3-c6fec8c5a095","system_id":"levelo_inurba_marseille","lat":43.231521,"lon":5.437161,"is_reserved":false,"is_disabled":true,"rental_uris":{"android":"levelo://app?vid=51ef9827-05d4-4f72-abc3-c6fec8c5a095","ios":"levelo://app?vid=51ef9827-05d4-4f72-abc3-c6fec8c5a095"},"vehicle_type_id":"4","last_reported":1746252810,"current_range_meters":2800,"station_id":"ce4bhmp2rcd13ifvqgog","pricing_plan_id":"cebpf4jnsgd1na2vs0mg"},{"bike_id":"67fb5bfd-4649-459a-98a3-c9dd0d74a936","system_id":"levelo_inurba_marseille","lat":43.279237,"lon":5.395923,"is_reserved":false,"is_disabled":false,"rental_uris":{"android":"levelo://app?vid=67fb5bfd-4649-459a-98a3-c9dd0d74a936","ios":"levelo://app?vid=67fb5bfd-4649-459a-98a3-c9dd0d74a936"},"vehicle_type_id":"4","last_reported":1746252810,"current_range_meters":2800,"station_id":"ce4bhf92rcd13ifvqf40","pricing_plan_id":"cebpf4jnsgd1na2vs0mg"},{"bike_id":"39fb05fe-e3be-4147-a9f3-c02a474160a2","system_id":"levelo_inurba_marseille","lat":43.241716,"lon":5.364014,"is_reserved":false,"is_disabled":true,"rental_uris":{"android":"levelo://app?vid=39fb05fe-e3be-4147-a9f3-c02a474160a2","ios":"levelo://app?vid=39fb05fe-e3be-4147-a9f3-c02a474160a2"},"vehicle_type_id":"4","last_reported":1746252810,"current_range_meters":2800,"station_id":"cpo36qri1sfpv3e86is0","pricing_plan_id":"cebpf4jnsgd1na2vs0mg"},{"bike_id":"277b09f7-c239-408c-a98f-da7583ea5f2b","system_id":"levelo_inurba_marseille","lat":43.28519,"lon":5.39206,"is_reserved":false,"is_disabled":false,"rental_uris":{"android":"levelo://app?vid=277b09f7-c239-408c-a98f-da7583ea5f2b","ios":"levelo://app?vid=277b09f7-c239-408c-a98f-da7583ea5f2b"},"vehicle_type_id":"4","last_reported":1746252810,"current_range_meters":2800,"station_id":"","pricing_plan_id":"cebpf4jnsgd1na2vs0mg"},{"bike_id":"34294dd3-b27d-4ffb-860f-a93d9867f32f","system_id":"levelo_inurba_marseille","lat":43.25084,"lon":5.39528,"is_reserved":false,"is_disabled":false,"rental_uris":{"android":"levelo://app?vid=34294dd3-b27d-4ffb-860f-a93d9867f32f","ios":"levelo://app?vid=34294dd3-b27d-4ffb-860f-a93d9867f32f"},"vehicle_type_id":"4","last_reported":1746252810,"current_range_meters":2800,"station_id":"ce4bhm12rcd13ifvqgkg","pricing_plan_id":"cebpf4jnsgd1na2vs0mg"},{"bike_id":"aea4313e-655b-421a-846a-a8ebacd8529f","system_id":"levelo_inurba_marseille","lat":43.28368,"lon":5.38098,"is_reserved":false,"is_disabled":false,"rental_uris":{"android":"levelo://app?vid=aea4313e-655b-421a-846a-a8ebacd8529f","ios":"levelo://app?vid=aea4313e-655b-421a-846a-a8ebacd8529f"},"vehicle_type_id":"4","last_reported":1746252810,"current_range_meters":2800,"station_id":"ce4bh412rcd13ifvqdr0","pricing_plan_id":"cebpf4jnsgd1na2vs0mg"},{"bike_id":"0c031223-071b-45e2-9887-32e2c15af234","system_id":"levelo_inurba_marseille","lat":43.274973,"lon":5.424556,"is_reserved":false,"is_disabled":false,"rental_uris":{"android":"levelo://app?vid=0c031223-071b-45e2-9887-32e2c15af234","ios":"levelo://app?vid=0c031223-071b-45e2-9887-32e2c15af234"},"vehicle_type_id":"4","last_reported":1746252810,"current_range_meters":3200,"station_id":"ce4bhn92rcd13ifvqgrg","pricing_plan_id":"cebpf4jnsgd1na2vs0mg"},{"bike_id":"f0773e55-3c03-408c-b52d-9fefc787e6d2","system_id":"levelo_inurba_marseille","lat":43.2916,"lon":5.38598,"is_reserved":false,"is_disabled":false,"rental_uris":{"android":"levelo://app?vid=f0773e55-3c03-408c-b52d-9fefc787e6d2","ios":"levelo://app?vid=f0773e55-3c03-408c-b52d-9fefc787e6d2"},"vehicle_type_id":"4","last_reported":1746252810,"current_range_meters":3200,"station_id":"","pricing_plan_id":"cebpf4jnsgd1na2vs0mg"},{"bike_id":"885d5381-9902-418c-bec9-d084ccc99c30","system_id":"levelo_inurba_marseille","lat":43.241734,"lon":5.397357,"is_reserved":false,"is_disabled":false,"rental_uris":{"android":"levelo://app?vid=885d5381-9902-418c-bec9-d084ccc99c30","ios":"levelo://app?vid=885d5381-9902-418c-bec9-d084ccc99c30"},"vehicle_type_id":"4","last_reported":1746252810,"current_range_meters":3200,"station_id":"ce4bhn12rcd13ifvqgpg","pricing_plan_id":"cebpf4jnsgd1na2vs0mg"},{"bike_id":"cc02b054-9357-4748-9f20-0b65ad4f4c1f","system_id":"levelo_inurba_marseille","lat":43.30143,"lon":5.38104,"is_reserved":false,"is_disabled":false,"rental_uris":{"android":"levelo://app?vid=cc02b054-9357-4748-9f20-0b65ad4f4c1f","ios":"levelo://app?vid=cc02b054-9357-4748-9f20-0b65ad4f4c1f"},"vehicle_type_id":"4","last_reported":1746252810,"current_range_meters":3200,"station_id":"ce4bgjp2rcd13ifvqbh0","pricing_plan_id":"cebpf4jnsgd1na2vs0mg"},{"bike_id":"fc109967-526e-464b-ab42-6068e7d67950","system_id":"levelo_inurba_marseille","lat":43.292725,"lon":5.401293,"is_reserved":false,"is_disabled":false,"rental_uris":{"android":"levelo://app?vid=fc109967-526e-464b-ab42-6068e7d67950","ios":"levelo://app?vid=fc109967-526e-464b-ab42-6068e7d67950"},"vehicle_type_id":"4","last_reported":1746252810,"current_range_meters":3200,"station_id":"ce4bh312rcd13ifvqdk0","pricing_plan_id":"cebpf4jnsgd1na2vs0mg"},{"bike_id":"1e0a121b-2ab4-47e0-9e7d-e7a1038843e4","system_id":"levelo_inurba_marseille","lat":43.31477,"lon":5.37306,"is_reserved":false,"is_disabled":false,"rental_uris":{"android":"levelo://app?vid=1e0a121b-2ab4-47e0-9e7d-e7a1038843e4","ios":"levelo://app?vid=1e0a121b-2ab4-47e0-9e7d-e7a1038843e4"},"vehicle_type_id":"4","last_reported":1746252810,"current_range_meters":3200,"station_id":"ce4bgt12rcd13ifvqcd0","pricing_plan_id":"cebpf4jnsgd1na2vs0mg"},{"bike_id":"fb1a961d-a942-4d57-b471-468013633b9d","system_id":"levelo_inurba_marseille","lat":43.29904,"lon":5.43663,"is_reserved":false,"is_disabled":false,"rental_uris":{"android":"levelo://app?vid=fb1a961d-a942-4d57-b471-468013633b9d","ios":"levelo://app?vid=fb1a961d-a942-4d57-b471-468013633b9d"},"vehicle_type_id":"4","last_reported":1746252810,"current_range_meters":3200,"station_id":"ce4bhpp2rcd13ifvqhfg","pricing_plan_id":"cebpf4jnsgd1na2vs0mg"},{"bike_id":"f4f63859-7e83-44c9-8822-c6e00bd4414c","system_id":"levelo_inurba_marseille","lat":43.29244,"lon":5.40911,"is_reserved":false,"is_disabled":true,"rental_uris":{"android":"levelo://app?vid=f4f63859-7e83-44c9-8822-c6e00bd4414c","ios":"levelo://app?vid=f4f63859-7e83-44c9-8822-c6e00bd4414c"},"vehicle_type_id":"4","last_reported":1746252810,"current_range_meters":3600,"station_id":"ce4bh192rcd13ifvqdc0","pricing_plan_id":"cebpf4jnsgd1na2vs0mg"},{"bike_id":"03d98ede-9bab-4b3f-b25a-61c1ab3ac18b","system_id":"levelo_inurba_marseille","lat":43.28689,"lon":5.39972,"is_reserved":false,"is_disabled":false,"rental_uris":{"android":"levelo://app?vid=03d98ede-9bab-4b3f-b25a-61c1ab3ac18b","ios":"levelo://app?vid=03d98ede-9bab-4b3f-b25a-61c1ab3ac18b"},"vehicle_type_id":"4","last_reported":1746252810,"current_range_meters":3600,"station_id":"ce4bho92rcd13ifvqh3g","pricing_plan_id":"cebpf4jnsgd1na2vs0mg"},{"bike_id":"7d5b0478-8afb-4bbe-9549-55d6044e7a97","system_id":"levelo_inurba_marseille","lat":43.281078,"lon":5.378496,"is_reserved":false,"is_disabled":false,"rental_uris":{"android":"levelo://app?vid=7d5b0478-8afb-4bbe-9549-55d6044e7a97","ios":"levelo://app?vid=7d5b0478-8afb-4bbe-9549-55d6044e7a97"},"vehicle_type_id":"4","last_reported":1746252810,"current_range_meters":4000,"station_id":"ce4bha12rcd13ifvqee0","pricing_plan_id":"cebpf4jnsgd1na2vs0mg"},{"bike_id":"56c2a0ae-09a7-4f7b-b71e-617f925a787c","system_id":"levelo_inurba_marseille","lat":43.251129,"lon":5.403272,"is_reserved":false,"is_disabled":false,"rental_uris":{"android":"levelo://app?vid=56c2a0ae-09a7-4f7b-b71e-617f925a787c","ios":"levelo://app?vid=56c2a0ae-09a7-4f7b-b71e-617f925a787c"},"vehicle_type_id":"4","last_reported":1746252810,"current_range_meters":4400,"station_id":"ce4bhlh2rcd13ifvqgig","pricing_plan_id":"cebpf4jnsgd1na2vs0mg"},{"bike_id":"0fc506d3-df3d-4442-9770-6467191e987a","system_id":"levelo_inurba_marseille","lat":43.29275,"lon":5.40119,"is_reserved":false,"is_disabled":true,"rental_uris":{"android":"levelo://app?vid=0fc506d3-df3d-4442-9770-6467191e987a","ios":"levelo://app?vid=0fc506d3-df3d-4442-9770-6467191e987a"},"vehicle_type_id":"4","last_reported":1746252810,"current_range_meters":4800,"station_id":"ce4bh312rcd13ifvqdk0","pricing_plan_id":"cebpf4jnsgd1na2vs0mg"},{"bike_id":"b83fde30-817f-4ac4-9298-d090a6421e2d","system_id":"levelo_inurba_marseille","lat":43.28166,"lon":5.42672,"is_reserved":false,"is_disabled":false,"rental_uris":{"android":"levelo://app?vid=b83fde30-817f-4ac4-9298-d090a6421e2d","ios":"levelo://app?vid=b83fde30-817f-4ac4-9298-d090a6421e2d"},"vehicle_type_id":"4","last_reported":1746252810,"current_range_meters":4800,"station_id":"ce4bhnh2rcd13ifvqgug","pricing_plan_id":"cebpf4jnsgd1na2vs0mg"},{"bike_id":"4fcb94dd-7e2e-4c2b-a657-b8760b2238dc","system_id":"levelo_inurba_marseille","lat":43.2594,"lon":5.40906,"is_reserved":false,"is_disabled":false,"rental_uris":{"android":"levelo://app?vid=4fcb94dd-7e2e-4c2b-a657-b8760b2238dc","ios":"levelo://app?vid=4fcb94dd-7e2e-4c2b-a657-b8760b2238dc"},"vehicle_type_id":"4","last_reported":1746252810,"current_range_meters":5600,"station_id":"ce4bhm92rcd13ifvqglg","pricing_plan_id":"cebpf4jnsgd1na2vs0mg"},{"bike_id":"2be6c5ac-db75-4c9d-95c6-9c66882f14b8","system_id":"levelo_inurba_marseille","lat":43.27897,"lon":5.36308,"is_reserved":false,"is_disabled":false,"rental_uris":{"android":"levelo://app?vid=2be6c5ac-db75-4c9d-95c6-9c66882f14b8","ios":"levelo://app?vid=2be6c5ac-db75-4c9d-95c6-9c66882f14b8"},"vehicle_type_id":"4","last_reported":1746252810,"current_range_meters":5600,"station_id":"","pricing_plan_id":"cebpf4jnsgd1na2vs0mg"},{"bike_id":"664e73ec-0cae-4621-ba5e-4bbd28010343","system_id":"levelo_inurba_marseille","lat":43.25102,"lon":5.40335,"is_reserved":false,"is_disabled":true,"rental_uris":{"android":"levelo://app?vid=664e73ec-0cae-4621-ba5e-4bbd28010343","ios":"levelo://app?vid=664e73ec-0cae-4621-ba5e-4bbd28010343"},"vehicle_type_id":"4","last_reported":1746252810,"current_range_meters":5600,"station_id":"ce4bhlh2rcd13ifvqgig","pricing_plan_id":"cebpf4jnsgd1na2vs0mg"},{"bike_id":"f73daf93-45c7-48c0-a61a-2d28ac89db8d","system_id":"levelo_inurba_marseille","lat":43.33954,"lon":5.42047,"is_reserved":false,"is_disabled":false,"rental_uris":{"android":"levelo://app?vid=f73daf93-45c7-48c0-a61a-2d28ac89db8d","ios":"levelo://app?vid=f73daf93-45c7-48c0-a61a-2d28ac89db8d"},"vehicle_type_id":"4","last_reported":1746252810,"current_range_meters":5600,"station_id":"","pricing_plan_id":"cebpf4jnsgd1na2vs0mg"},{"bike_id":"03ced9d9-9b3b-41bc-aef9-99849ba401c5","system_id":"levelo_inurba_marseille","lat":43.28503,"lon":5.38561,"is_reserved":false,"is_disabled":false,"rental_uris":{"android":"levelo://app?vid=03ced9d9-9b3b-41bc-aef9-99849ba401c5","ios":"levelo://app?vid=03ced9d9-9b3b-41bc-aef9-99849ba401c5"},"vehicle_type_id":"4","last_reported":1746252810,"current_range_meters":6000,"station_id":"ce4bh8p2rcd13ifvqeb0","pricing_plan_id":"cebpf4jnsgd1na2vs0mg"},{"bike_id":"ee49d34d-334f-42a3-9509-f7be509b03ba","system_id":"levelo_inurba_marseille","lat":43.240667,"lon":5.377593,"is_reserved":false,"is_disabled":false,"rental_uris":{"android":"levelo://app?vid=ee49d34d-334f-42a3-9509-f7be509b03ba","ios":"levelo://app?vid=ee49d34d-334f-42a3-9509-f7be509b03ba"},"vehicle_type_id":"4","last_reported":1746252810,"current_range_meters":6000,"station_id":"ce4bhnp2rcd13ifvqgvg","pricing_plan_id":"cebpf4jnsgd1na2vs0mg"},{"bike_id":"ba1291bf-568d-477b-8e17-c284858000b8","system_id":"levelo_inurba_marseille","lat":43.33777,"lon":5.37452,"is_reserved":false,"is_disabled":false,"rental_uris":{"android":"levelo://app?vid=ba1291bf-568d-477b-8e17-c284858000b8","ios":"levelo://app?vid=ba1291bf-568d-477b-8e17-c284858000b8"},"vehicle_type_id":"4","last_reported":1746252810,"current_range_meters":6000,"station_id":"","pricing_plan_id":"cebpf4jnsgd1na2vs0mg"},{"bike_id":"221d1909-7de9-44ec-9fde-224fe0a7b083","system_id":"levelo_inurba_marseille","lat":43.28028,"lon":5.36943,"is_reserved":false,"is_disabled":false,"rental_uris":{"android":"levelo://app?vid=221d1909-7de9-44ec-9fde-224fe0a7b083","ios":"levelo://app?vid=221d1909-7de9-44ec-9fde-224fe0a7b083"},"vehicle_type_id":"4","last_reported":1746252810,"current_range_meters":6000,"station_id":"ce4bha12rcd13ifvqef0","pricing_plan_id":"cebpf4jnsgd1na2vs0mg"},{"bike_id":"0d6c5100-7db5-44d0-b9d6-cf2b96014798","system_id":"levelo_inurba_marseille","lat":43.310048,"lon":5.374934,"is_reserved":false,"is_disabled":false,"rental_uris":{"android":"levelo://app?vid=0d6c5100-7db5-44d0-b9d6-cf2b96014798","ios":"levelo://app?vid=0d6c5100-7db5-44d0-b9d6-cf2b96014798"},"vehicle_type_id":"4","last_reported":1746252810,"current_range_meters":6400,"station_id":"","pricing_plan_id":"cebpf4jnsgd1na2vs0mg"},{"bike_id":"13a0eee6-6a47-49f8-a73d-89a44944b1ca","system_id":"levelo_inurba_marseille","lat":43.289894,"lon":5.37836,"is_reserved":false,"is_disabled":false,"rental_uris":{"android":"levelo://app?vid=13a0eee6-6a47-49f8-a73d-89a44944b1ca","ios":"levelo://app?vid=13a0eee6-6a47-49f8-a73d-89a44944b1ca"},"vehicle_type_id":"4","last_reported":1746252810,"current_range_meters":6400,"station_id":"","pricing_plan_id":"cebpf4jnsgd1na2vs0mg"},{"bike_id":"34d82e56-d819-45e9-ae4f-e18306b1ae62","system_id":"levelo_inurba_marseille","lat":43.33596,"lon":5.41018,"is_reserved":false,"is_disabled":false,"rental_uris":{"android":"levelo://app?vid=34d82e56-d819-45e9-ae4f-e18306b1ae62","ios":"levelo://app?vid=34d82e56-d819-45e9-ae4f-e18306b1ae62"},"vehicle_type_id":"4","last_reported":1746252810,"current_range_meters":6400,"station_id":"ce4bhqh2rcd13ifvqhmg","pricing_plan_id":"cebpf4jnsgd1na2vs0mg"},{"bike_id":"9a6e0384-4e87-40c9-88ea-ddade03372a5","system_id":"levelo_inurba_marseille","lat":43.31129,"lon":5.37754,"is_reserved":false,"is_disabled":false,"rental_uris":{"android":"levelo://app?vid=9a6e0384-4e87-40c9-88ea-ddade03372a5","ios":"levelo://app?vid=9a6e0384-4e87-40c9-88ea-ddade03372a5"},"vehicle_type_id":"4","last_reported":1746252810,"current_range_meters":6400,"station_id":"ce4bgt92rcd13ifvqcg0","pricing_plan_id":"cebpf4jnsgd1na2vs0mg"},{"bike_id":"f58ab010-fda0-4638-9a03-36c041df6640","system_id":"levelo_inurba_marseille","lat":43.31269,"lon":5.40176,"is_reserved":false,"is_disabled":false,"rental_uris":{"android":"levelo://app?vid=f58ab010-fda0-4638-9a03-36c041df6640","ios":"levelo://app?vid=f58ab010-fda0-4638-9a03-36c041df6640"},"vehicle_type_id":"4","last_reported":1746252810,"current_range_meters":6400,"station_id":"ce4bh092rcd13ifvqd30","pricing_plan_id":"cebpf4jnsgd1na2vs0mg"},{"bike_id":"7971fe93-5f1d-4a59-8508-b415e64fcb18","system_id":"levelo_inurba_marseille","lat":43.309391,"lon":5.373738,"is_reserved":false,"is_disabled":false,"rental_uris":{"android":"levelo://app?vid=7971fe93-5f1d-4a59-8508-b415e64fcb18","ios":"levelo://app?vid=7971fe93-5f1d-4a59-8508-b415e64fcb18"},"vehicle_type_id":"4","last_reported":1746252810,"current_range_meters":6400,"station_id":"","pricing_plan_id":"cebpf4jnsgd1na2vs0mg"},{"bike_id":"cff2d7d8-0c0d-4efd-8604-4fc5bb699e59","system_id":"levelo_inurba_marseille","lat":43.30152,"lon":5.38088,"is_reserved":false,"is_disabled":false,"rental_uris":{"android":"levelo://app?vid=cff2d7d8-0c0d-4efd-8604-4fc5bb699e59","ios":"levelo://app?vid=cff2d7d8-0c0d-4efd-8604-4fc5bb699e59"},"vehicle_type_id":"4","last_reported":1746252810,"current_range_meters":6800,"station_id":"ce4bgjp2rcd13ifvqbh0","pricing_plan_id":"cebpf4jnsgd1na2vs0mg"},{"bike_id":"3f4c587d-47af-49a5-b812-629cea65764c","system_id":"levelo_inurba_marseille","lat":43.30417,"lon":5.41295,"is_reserved":false,"is_disabled":false,"rental_uris":{"android":"levelo://app?vid=3f4c587d-47af-49a5-b812-629cea65764c","ios":"levelo://app?vid=3f4c587d-47af-49a5-b812-629cea65764c"},"vehicle_type_id":"4","last_reported":1746252810,"current_range_meters":6800,"station_id":"ce4bhop2rcd13ifvqh8g","pricing_plan_id":"cebpf4jnsgd1na2vs0mg"},{"bike_id":"2adba0f1-583f-40e7-9850-8bb86cfdfaca","system_id":"levelo_inurba_marseille","lat":43.28657,"lon":5.36348,"is_reserved":false,"is_disabled":false,"rental_uris":{"android":"levelo://app?vid=2adba0f1-583f-40e7-9850-8bb86cfdfaca","ios":"levelo://app?vid=2adba0f1-583f-40e7-9850-8bb86cfdfaca"},"vehicle_type_id":"4","last_reported":1746252810,"current_range_meters":6400,"station_id":"ce4bhah2rcd13ifvqej0","pricing_plan_id":"cebpf4jnsgd1na2vs0mg"},{"bike_id":"2d87f24b-bb92-4f5a-9c64-611905425c8d","system_id":"levelo_inurba_marseille","lat":43.23667,"lon":5.39143,"is_reserved":false,"is_disabled":true,"rental_uris":{"android":"levelo://app?vid=2d87f24b-bb92-4f5a-9c64-611905425c8d","ios":"levelo://app?vid=2d87f24b-bb92-4f5a-9c64-611905425c8d"},"vehicle_type_id":"4","last_reported":1746252810,"current_range_meters":7200,"station_id":"","pricing_plan_id":"cebpf4jnsgd1na2vs0mg"},{"bike_id":"42122379-2bff-4cd0-87de-5966d22614ed","system_id":"levelo_inurba_marseille","lat":43.307833,"lon":5.37652,"is_reserved":false,"is_disabled":false,"rental_uris":{"android":"levelo://app?vid=42122379-2bff-4cd0-87de-5966d22614ed","ios":"levelo://app?vid=42122379-2bff-4cd0-87de-5966d22614ed"},"vehicle_type_id":"4","last_reported":1746252810,"current_range_meters":7200,"station_id":"","pricing_plan_id":"cebpf4jnsgd1na2vs0mg"},{"bike_id":"7f2b25f6-014d-4712-b80f-ffce5f418b5b","system_id":"levelo_inurba_marseille","lat":43.27492,"lon":5.42459,"is_reserved":false,"is_disabled":false,"rental_uris":{"android":"levelo://app?vid=7f2b25f6-014d-4712-b80f-ffce5f418b5b","ios":"levelo://app?vid=7f2b25f6-014d-4712-b80f-ffce5f418b5b"},"vehicle_type_id":"4","last_reported":1746252810,"current_range_meters":7200,"station_id":"ce4bhn92rcd13ifvqgrg","pricing_plan_id":"cebpf4jnsgd1na2vs0mg"},{"bike_id":"078de466-9cf8-4f1f-bb9b-8307330abfd1","system_id":"levelo_inurba_marseille","lat":43.29284,"lon":5.40141,"is_reserved":false,"is_disabled":false,"rental_uris":{"android":"levelo://app?vid=078de466-9cf8-4f1f-bb9b-8307330abfd1","ios":"levelo://app?vid=078de466-9cf8-4f1f-bb9b-8307330abfd1"},"vehicle_type_id":"4","last_reported":1746252810,"current_range_meters":7200,"station_id":"ce4bh312rcd13ifvqdk0","pricing_plan_id":"cebpf4jnsgd1na2vs0mg"},{"bike_id":"81e80a60-feb5-4268-9314-c65f9c70c462","system_id":"levelo_inurba_marseille","lat":43.29022,"lon":5.3864,"is_reserved":false,"is_disabled":true,"rental_uris":{"android":"levelo://app?vid=81e80a60-feb5-4268-9314-c65f9c70c462","ios":"levelo://app?vid=81e80a60-feb5-4268-9314-c65f9c70c462"},"vehicle_type_id":"4","last_reported":1746252810,"current_range_meters":7200,"station_id":"ce4bh4p2rcd13ifvqe0g","pricing_plan_id":"cebpf4jnsgd1na2vs0mg"},{"bike_id":"a17bc77c-9891-4abb-b13f-68d37aebf103","system_id":"levelo_inurba_marseille","lat":43.29013,"lon":5.38154,"is_reserved":false,"is_disabled":true,"rental_uris":{"android":"levelo://app?vid=a17bc77c-9891-4abb-b13f-68d37aebf103","ios":"levelo://app?vid=a17bc77c-9891-4abb-b13f-68d37aebf103"},"vehicle_type_id":"4","last_reported":1746252810,"current_range_meters":8000,"station_id":"ce4bh4p2rcd13ifvqe1g","pricing_plan_id":"cebpf4jnsgd1na2vs0mg"},{"bike_id":"6c8f2ed0-8cbc-4ec6-a7e3-532618592f45","system_id":"levelo_inurba_marseille","lat":43.23958,"lon":5.36653,"is_reserved":false,"is_disabled":false,"rental_uris":{"android":"levelo://app?vid=6c8f2ed0-8cbc-4ec6-a7e3-532618592f45","ios":"levelo://app?vid=6c8f2ed0-8cbc-4ec6-a7e3-532618592f45"},"vehicle_type_id":"4","last_reported":1746252810,"current_range_meters":8000,"station_id":"ce4bhi12rcd13ifvqfp0","pricing_plan_id":"cebpf4jnsgd1na2vs0mg"},{"bike_id":"3694d090-d909-4d38-9eb1-31338c8af39e","system_id":"levelo_inurba_marseille","lat":43.266883,"lon":5.382731,"is_reserved":false,"is_disabled":true,"rental_uris":{"android":"levelo://app?vid=3694d090-d909-4d38-9eb1-31338c8af39e","ios":"levelo://app?vid=3694d090-d909-4d38-9eb1-31338c8af39e"},"vehicle_type_id":"4","last_reported":1746252810,"current_range_meters":8000,"station_id":"ce4bhg92rcd13ifvqf90","pricing_plan_id":"cebpf4jnsgd1na2vs0mg"},{"bike_id":"ad7b9ae4-9983-42fc-8cdc-30d005232021","system_id":"levelo_inurba_marseille","lat":43.24671,"lon":5.38172,"is_reserved":false,"is_disabled":false,"rental_uris":{"android":"levelo://app?vid=ad7b9ae4-9983-42fc-8cdc-30d005232021","ios":"levelo://app?vid=ad7b9ae4-9983-42fc-8cdc-30d005232021"},"vehicle_type_id":"4","last_reported":1746252810,"current_range_meters":8000,"station_id":"ce4bhih2rcd13ifvqfr0","pricing_plan_id":"cebpf4jnsgd1na2vs0mg"},{"bike_id":"29a83445-0753-40f4-8ed7-c02207f310e3","system_id":"levelo_inurba_marseille","lat":43.283254,"lon":5.385219,"is_reserved":false,"is_disabled":false,"rental_uris":{"android":"levelo://app?vid=29a83445-0753-40f4-8ed7-c02207f310e3","ios":"levelo://app?vid=29a83445-0753-40f4-8ed7-c02207f310e3"},"vehicle_type_id":"4","last_reported":1746252810,"current_range_meters":8000,"station_id":"","pricing_plan_id":"cebpf4jnsgd1na2vs0mg"},{"bike_id":"354f7438-aa30-4e53-8181-12e37a07905f","system_id":"levelo_inurba_marseille","lat":43.29721,"lon":5.37316,"is_reserved":false,"is_disabled":true,"rental_uris":{"android":"levelo://app?vid=354f7438-aa30-4e53-8181-12e37a07905f","ios":"levelo://app?vid=354f7438-aa30-4e53-8181-12e37a07905f"},"vehicle_type_id":"4","last_reported":1746252810,"current_range_meters":8000,"station_id":"ce4bgk12rcd13ifvqbj0","pricing_plan_id":"cebpf4jnsgd1na2vs0mg"},{"bike_id":"2f2483eb-cb36-42b6-aa28-30acafaa13b1","system_id":"levelo_inurba_marseille","lat":43.292539,"lon":5.409098,"is_reserved":false,"is_disabled":false,"rental_uris":{"android":"levelo://app?vid=2f2483eb-cb36-42b6-aa28-30acafaa13b1","ios":"levelo://app?vid=2f2483eb-cb36-42b6-aa28-30acafaa13b1"},"vehicle_type_id":"4","last_reported":1746252810,"current_range_meters":8000,"station_id":"ce4bh192rcd13ifvqdc0","pricing_plan_id":"cebpf4jnsgd1na2vs0mg"},{"bike_id":"271d1032-0e9c-4509-ac1f-b2a948175d86","system_id":"levelo_inurba_marseille","lat":43.28153,"lon":5.42642,"is_reserved":false,"is_disabled":false,"rental_uris":{"android":"levelo://app?vid=271d1032-0e9c-4509-ac1f-b2a948175d86","ios":"levelo://app?vid=271d1032-0e9c-4509-ac1f-b2a948175d86"},"vehicle_type_id":"4","last_reported":1746252810,"current_range_meters":8400,"station_id":"ce4bhnh2rcd13ifvqgug","pricing_plan_id":"cebpf4jnsgd1na2vs0mg"},{"bike_id":"0c9a8767-a71f-4ef0-b390-c3b7e9c632a8","system_id":"levelo_inurba_marseille","lat":43.211928,"lon":5.350925,"is_reserved":false,"is_disabled":true,"rental_uris":{"android":"levelo://app?vid=0c9a8767-a71f-4ef0-b390-c3b7e9c632a8","ios":"levelo://app?vid=0c9a8767-a71f-4ef0-b390-c3b7e9c632a8"},"vehicle_type_id":"4","last_reported":1746252810,"current_range_meters":8400,"station_id":"","pricing_plan_id":"cebpf4jnsgd1na2vs0mg"},{"bike_id":"8627f32f-9cd2-46f8-92f0-58cd595c917d","system_id":"levelo_inurba_marseille","lat":43.323591,"lon":5.367619,"is_reserved":false,"is_disabled":false,"rental_uris":{"android":"levelo://app?vid=8627f32f-9cd2-46f8-92f0-58cd595c917d","ios":"levelo://app?vid=8627f32f-9cd2-46f8-92f0-58cd595c917d"},"vehicle_type_id":"4","last_reported":1746252810,"current_range_meters":8400,"station_id":"ce4bhsh2rcd13ifvqi2g","pricing_plan_id":"cebpf4jnsgd1na2vs0mg"},{"bike_id":"35c5b7c3-b26a-4306-9706-425b17973549","system_id":"levelo_inurba_marseille","lat":43.31411,"lon":5.36621,"is_reserved":false,"is_disabled":true,"rental_uris":{"android":"levelo://app?vid=35c5b7c3-b26a-4306-9706-425b17973549","ios":"levelo://app?vid=35c5b7c3-b26a-4306-9706-425b17973549"},"vehicle_type_id":"4","last_reported":1746252810,"current_range_meters":8400,"station_id":"ce4bgr92rcd13ifvqc6g","pricing_plan_id":"cebpf4jnsgd1na2vs0mg"},{"bike_id":"bcdb9d2e-41b6-4501-810c-6146d2dfe2c6","system_id":"levelo_inurba_marseille","lat":43.29298,"lon":5.37175,"is_reserved":false,"is_disabled":true,"rental_uris":{"android":"levelo://app?vid=bcdb9d2e-41b6-4501-810c-6146d2dfe2c6","ios":"levelo://app?vid=bcdb9d2e-41b6-4501-810c-6146d2dfe2c6"},"vehicle_type_id":"4","last_reported":1746252810,"current_range_meters":8400,"station_id":"ce4bgh92rcd13ifvqb40","pricing_plan_id":"cebpf4jnsgd1na2vs0mg"},{"bike_id":"52653438-d935-4f61-a0a5-dc59b768eafc","system_id":"levelo_inurba_marseille","lat":43.323553,"lon":5.367569,"is_reserved":false,"is_disabled":false,"rental_uris":{"android":"levelo://app?vid=52653438-d935-4f61-a0a5-dc59b768eafc","ios":"levelo://app?vid=52653438-d935-4f61-a0a5-dc59b768eafc"},"vehicle_type_id":"4","last_reported":1746252810,"current_range_meters":8400,"station_id":"ce4bhsh2rcd13ifvqi2g","pricing_plan_id":"cebpf4jnsgd1na2vs0mg"},{"bike_id":"d34292c8-7325-4f06-ab96-e0adcee8eadf","system_id":"levelo_inurba_marseille","lat":43.28467,"lon":5.38548,"is_reserved":false,"is_disabled":false,"rental_uris":{"android":"levelo://app?vid=d34292c8-7325-4f06-ab96-e0adcee8eadf","ios":"levelo://app?vid=d34292c8-7325-4f06-ab96-e0adcee8eadf"},"vehicle_type_id":"4","last_reported":1746252810,"current_range_meters":8400,"station_id":"ce4bh8p2rcd13ifvqeb0","pricing_plan_id":"cebpf4jnsgd1na2vs0mg"},{"bike_id":"81a8870f-38f2-41e3-8af3-5c745aec70c7","system_id":"levelo_inurba_marseille","lat":43.2396,"lon":5.36647,"is_reserved":false,"is_disabled":false,"rental_uris":{"android":"levelo://app?vid=81a8870f-38f2-41e3-8af3-5c745aec70c7","ios":"levelo://app?vid=81a8870f-38f2-41e3-8af3-5c745aec70c7"},"vehicle_type_id":"4","last_reported":1746252810,"current_range_meters":8400,"station_id":"ce4bhi12rcd13ifvqfp0","pricing_plan_id":"cebpf4jnsgd1na2vs0mg"},{"bike_id":"1bac20cf-d8ec-42b0-b306-748bd95fc366","system_id":"levelo_inurba_marseille","lat":43.27486,"lon":5.42476,"is_reserved":false,"is_disabled":false,"rental_uris":{"android":"levelo://app?vid=1bac20cf-d8ec-42b0-b306-748bd95fc366","ios":"levelo://app?vid=1bac20cf-d8ec-42b0-b306-748bd95fc366"},"vehicle_type_id":"4","last_reported":1746252810,"current_range_meters":8800,"station_id":"ce4bhn92rcd13ifvqgrg","pricing_plan_id":"cebpf4jnsgd1na2vs0mg"},{"bike_id":"dad52aef-1493-44ab-8be8-c1a19ea185db","system_id":"levelo_inurba_marseille","lat":43.26224,"lon":5.40465,"is_reserved":false,"is_disabled":false,"rental_uris":{"android":"levelo://app?vid=dad52aef-1493-44ab-8be8-c1a19ea185db","ios":"levelo://app?vid=dad52aef-1493-44ab-8be8-c1a19ea185db"},"vehicle_type_id":"4","last_reported":1746252810,"current_range_meters":8800,"station_id":"ce4bhmh2rcd13ifvqgmg","pricing_plan_id":"cebpf4jnsgd1na2vs0mg"},{"bike_id":"77f39bdd-377b-437b-8d97-bf138b0d364e","system_id":"levelo_inurba_marseille","lat":43.28554,"lon":5.3951,"is_reserved":false,"is_disabled":false,"rental_uris":{"android":"levelo://app?vid=77f39bdd-377b-437b-8d97-bf138b0d364e","ios":"levelo://app?vid=77f39bdd-377b-437b-8d97-bf138b0d364e"},"vehicle_type_id":"4","last_reported":1746252810,"current_range_meters":8400,"station_id":"ce4bh292rcd13ifvqdg0","pricing_plan_id":"cebpf4jnsgd1na2vs0mg"},{"bike_id":"03f8f1a1-348f-43c1-810e-3f5bf3b4a5c6","system_id":"levelo_inurba_marseille","lat":43.248926,"lon":5.394093,"is_reserved":false,"is_disabled":false,"rental_uris":{"android":"levelo://app?vid=03f8f1a1-348f-43c1-810e-3f5bf3b4a5c6","ios":"levelo://app?vid=03f8f1a1-348f-43c1-810e-3f5bf3b4a5c6"},"vehicle_type_id":"4","last_reported":1746252810,"current_range_meters":8800,"station_id":"","pricing_plan_id":"cebpf4jnsgd1na2vs0mg"},{"bike_id":"8a0058ae-d47a-4696-afcc-53a66a14ba3f","system_id":"levelo_inurba_marseille","lat":43.2992,"lon":5.43649,"is_reserved":false,"is_disabled":false,"rental_uris":{"android":"levelo://app?vid=8a0058ae-d47a-4696-afcc-53a66a14ba3f","ios":"levelo://app?vid=8a0058ae-d47a-4696-afcc-53a66a14ba3f"},"vehicle_type_id":"4","last_reported":1746252810,"current_range_meters":9200,"station_id":"ce4bhpp2rcd13ifvqhfg","pricing_plan_id":"cebpf4jnsgd1na2vs0mg"},{"bike_id":"8a98d962-578d-444b-a5bb-91a62b69d98d","system_id":"levelo_inurba_marseille","lat":43.211863,"lon":5.350829,"is_reserved":false,"is_disabled":true,"rental_uris":{"android":"levelo://app?vid=8a98d962-578d-444b-a5bb-91a62b69d98d","ios":"levelo://app?vid=8a98d962-578d-444b-a5bb-91a62b69d98d"},"vehicle_type_id":"4","last_reported":1746252810,"current_range_meters":9200,"station_id":"st_cvj6sg6p6f1abm77japg","pricing_plan_id":"cebpf4jnsgd1na2vs0mg"},{"bike_id":"2ec6dd80-93b4-435e-89c9-9ef2c5604b75","system_id":"levelo_inurba_marseille","lat":43.24181,"lon":5.39728,"is_reserved":false,"is_disabled":false,"rental_uris":{"android":"levelo://app?vid=2ec6dd80-93b4-435e-89c9-9ef2c5604b75","ios":"levelo://app?vid=2ec6dd80-93b4-435e-89c9-9ef2c5604b75"},"vehicle_type_id":"4","last_reported":1746252810,"current_range_meters":9200,"station_id":"ce4bhn12rcd13ifvqgpg","pricing_plan_id":"cebpf4jnsgd1na2vs0mg"},{"bike_id":"3370706f-3c60-4448-9fa7-c3c667e2e849","system_id":"levelo_inurba_marseille","lat":43.235291,"lon":5.403319,"is_reserved":false,"is_disabled":false,"rental_uris":{"android":"levelo://app?vid=3370706f-3c60-4448-9fa7-c3c667e2e849","ios":"levelo://app?vid=3370706f-3c60-4448-9fa7-c3c667e2e849"},"vehicle_type_id":"4","last_reported":1746252810,"current_range_meters":9200,"station_id":"","pricing_plan_id":"cebpf4jnsgd1na2vs0mg"},{"bike_id":"f93d853b-ca78-4f88-b96f-c9c1053489aa","system_id":"levelo_inurba_marseille","lat":43.24062,"lon":5.37756,"is_reserved":false,"is_disabled":false,"rental_uris":{"android":"levelo://app?vid=f93d853b-ca78-4f88-b96f-c9c1053489aa","ios":"levelo://app?vid=f93d853b-ca78-4f88-b96f-c9c1053489aa"},"vehicle_type_id":"4","last_reported":1746252810,"current_range_meters":9200,"station_id":"ce4bhnp2rcd13ifvqgvg","pricing_plan_id":"cebpf4jnsgd1na2vs0mg"},{"bike_id":"1b1e0ca0-8468-47c2-ae3b-7afdc5f53a7a","system_id":"levelo_inurba_marseille","lat":43.27926,"lon":5.41062,"is_reserved":false,"is_disabled":false,"rental_uris":{"android":"levelo://app?vid=1b1e0ca0-8468-47c2-ae3b-7afdc5f53a7a","ios":"levelo://app?vid=1b1e0ca0-8468-47c2-ae3b-7afdc5f53a7a"},"vehicle_type_id":"4","last_reported":1746252810,"current_range_meters":9200,"station_id":"ce4bhnp2rcd13ifvqh0g","pricing_plan_id":"cebpf4jnsgd1na2vs0mg"},{"bike_id":"2b65c2db-69cf-4437-b15f-c57ef32ed9c9","system_id":"levelo_inurba_marseille","lat":43.23185,"lon":5.40008,"is_reserved":false,"is_disabled":false,"rental_uris":{"android":"levelo://app?vid=2b65c2db-69cf-4437-b15f-c57ef32ed9c9","ios":"levelo://app?vid=2b65c2db-69cf-4437-b15f-c57ef32ed9c9"},"vehicle_type_id":"4","last_reported":1746252810,"current_range_meters":9200,"station_id":"ce4bhn12rcd13ifvqgqg","pricing_plan_id":"cebpf4jnsgd1na2vs0mg"},{"bike_id":"6d74a9f5-3f03-4e8e-aa3b-29a84082925f","system_id":"levelo_inurba_marseille","lat":43.22934,"lon":5.35387,"is_reserved":false,"is_disabled":false,"rental_uris":{"android":"levelo://app?vid=6d74a9f5-3f03-4e8e-aa3b-29a84082925f","ios":"levelo://app?vid=6d74a9f5-3f03-4e8e-aa3b-29a84082925f"},"vehicle_type_id":"4","last_reported":1746252810,"current_range_meters":9200,"station_id":"cpo3532slgdg3j2ikp40","pricing_plan_id":"cebpf4jnsgd1na2vs0mg"},{"bike_id":"4feecaba-9754-404f-bc12-97e81ba0e761","system_id":"levelo_inurba_marseille","lat":43.321142,"lon":5.367952,"is_reserved":false,"is_disabled":false,"rental_uris":{"android":"levelo://app?vid=4feecaba-9754-404f-bc12-97e81ba0e761","ios":"levelo://app?vid=4feecaba-9754-404f-bc12-97e81ba0e761"},"vehicle_type_id":"4","last_reported":1746252810,"current_range_meters":9200,"station_id":"ce4bhrh2rcd13ifvqhug","pricing_plan_id":"cebpf4jnsgd1na2vs0mg"},{"bike_id":"626ae153-e3c3-4b78-befc-195eae82c81b","system_id":"levelo_inurba_marseille","lat":43.28034,"lon":5.369363,"is_reserved":false,"is_disabled":false,"rental_uris":{"android":"levelo://app?vid=626ae153-e3c3-4b78-befc-195eae82c81b","ios":"levelo://app?vid=626ae153-e3c3-4b78-befc-195eae82c81b"},"vehicle_type_id":"4","last_reported":1746252810,"current_range_meters":9600,"station_id":"ce4bha12rcd13ifvqef0","pricing_plan_id":"cebpf4jnsgd1na2vs0mg"},{"bike_id":"7719b24a-05b9-48c9-8002-0734452df164","system_id":"levelo_inurba_marseille","lat":43.24055,"lon":5.37772,"is_reserved":false,"is_disabled":false,"rental_uris":{"android":"levelo://app?vid=7719b24a-05b9-48c9-8002-0734452df164","ios":"levelo://app?vid=7719b24a-05b9-48c9-8002-0734452df164"},"vehicle_type_id":"4","last_reported":1746252810,"current_range_meters":9600,"station_id":"ce4bhnp2rcd13ifvqgvg","pricing_plan_id":"cebpf4jnsgd1na2vs0mg"},{"bike_id":"313f19ff-8c45-4a02-b367-c6a7c2d5e214","system_id":"levelo_inurba_marseille","lat":43.27505,"lon":5.42468,"is_reserved":false,"is_disabled":false,"rental_uris":{"android":"levelo://app?vid=313f19ff-8c45-4a02-b367-c6a7c2d5e214","ios":"levelo://app?vid=313f19ff-8c45-4a02-b367-c6a7c2d5e214"},"vehicle_type_id":"4","last_reported":1746252810,"current_range_meters":9600,"station_id":"ce4bhn92rcd13ifvqgrg","pricing_plan_id":"cebpf4jnsgd1na2vs0mg"},{"bike_id":"0a83a242-0e43-4e35-a8a7-5bcc1df8c995","system_id":"levelo_inurba_marseille","lat":43.307604,"lon":5.367193,"is_reserved":false,"is_disabled":true,"rental_uris":{"android":"levelo://app?vid=0a83a242-0e43-4e35-a8a7-5bcc1df8c995","ios":"levelo://app?vid=0a83a242-0e43-4e35-a8a7-5bcc1df8c995"},"vehicle_type_id":"4","last_reported":1746252810,"current_range_meters":9600,"station_id":"","pricing_plan_id":"cebpf4jnsgd1na2vs0mg"},{"bike_id":"e27ce41e-d31e-4411-a762-387f29d91877","system_id":"levelo_inurba_marseille","lat":43.295574,"lon":5.422904,"is_reserved":false,"is_disabled":false,"rental_uris":{"android":"levelo://app?vid=e27ce41e-d31e-4411-a762-387f29d91877","ios":"levelo://app?vid=e27ce41e-d31e-4411-a762-387f29d91877"},"vehicle_type_id":"4","last_reported":1746252810,"current_range_meters":9600,"station_id":"ce4bhph2rcd13ifvqhdg","pricing_plan_id":"cebpf4jnsgd1na2vs0mg"},{"bike_id":"a2b5f75b-8b31-4025-975c-0028449e52cd","system_id":"levelo_inurba_marseille","lat":43.24173,"lon":5.39735,"is_reserved":false,"is_disabled":false,"rental_uris":{"android":"levelo://app?vid=a2b5f75b-8b31-4025-975c-0028449e52cd","ios":"levelo://app?vid=a2b5f75b-8b31-4025-975c-0028449e52cd"},"vehicle_type_id":"4","last_reported":1746252810,"current_range_meters":9600,"station_id":"ce4bhn12rcd13ifvqgpg","pricing_plan_id":"cebpf4jnsgd1na2vs0mg"},{"bike_id":"ad7ca592-f236-4a6d-9431-e31ab8d26c7e","system_id":"levelo_inurba_marseille","lat":43.323604,"lon":5.367611,"is_reserved":false,"is_disabled":false,"rental_uris":{"android":"levelo://app?vid=ad7ca592-f236-4a6d-9431-e31ab8d26c7e","ios":"levelo://app?vid=ad7ca592-f236-4a6d-9431-e31ab8d26c7e"},"vehicle_type_id":"4","last_reported":1746252810,"current_range_meters":9600,"station_id":"ce4bhsh2rcd13ifvqi2g","pricing_plan_id":"cebpf4jnsgd1na2vs0mg"},{"bike_id":"5636aa3d-90e5-46b8-889b-ca722454f93e","system_id":"levelo_inurba_marseille","lat":43.24081,"lon":5.37774,"is_reserved":false,"is_disabled":false,"rental_uris":{"android":"levelo://app?vid=5636aa3d-90e5-46b8-889b-ca722454f93e","ios":"levelo://app?vid=5636aa3d-90e5-46b8-889b-ca722454f93e"},"vehicle_type_id":"4","last_reported":1746252810,"current_range_meters":10000,"station_id":"ce4bhnp2rcd13ifvqgvg","pricing_plan_id":"cebpf4jnsgd1na2vs0mg"},{"bike_id":"b012dda0-636e-4d9d-bb11-2107f4b207ea","system_id":"levelo_inurba_marseille","lat":43.26264,"lon":5.40296,"is_reserved":false,"is_disabled":false,"rental_uris":{"android":"levelo://app?vid=b012dda0-636e-4d9d-bb11-2107f4b207ea","ios":"levelo://app?vid=b012dda0-636e-4d9d-bb11-2107f4b207ea"},"vehicle_type_id":"4","last_reported":1746252810,"current_range_meters":10000,"station_id":"ce4bhmh2rcd13ifvqgmg","pricing_plan_id":"cebpf4jnsgd1na2vs0mg"},{"bike_id":"5f04547e-c959-4435-9165-9fe8a1f361af","system_id":"levelo_inurba_marseille","lat":43.29562,"lon":5.39976,"is_reserved":false,"is_disabled":false,"rental_uris":{"android":"levelo://app?vid=5f04547e-c959-4435-9165-9fe8a1f361af","ios":"levelo://app?vid=5f04547e-c959-4435-9165-9fe8a1f361af"},"vehicle_type_id":"4","last_reported":1746252810,"current_range_meters":9600,"station_id":"ce4bh312rcd13ifvqdj0","pricing_plan_id":"cebpf4jnsgd1na2vs0mg"},{"bike_id":"570b486c-50df-4f1f-97df-caa86c0d419e","system_id":"levelo_inurba_marseille","lat":43.33732,"lon":5.35578,"is_reserved":false,"is_disabled":false,"rental_uris":{"android":"levelo://app?vid=570b486c-50df-4f1f-97df-caa86c0d419e","ios":"levelo://app?vid=570b486c-50df-4f1f-97df-caa86c0d419e"},"vehicle_type_id":"4","last_reported":1746252810,"current_range_meters":10000,"station_id":"","pricing_plan_id":"cebpf4jnsgd1na2vs0mg"},{"bike_id":"e0e163c0-b70c-478b-a240-966060226969","system_id":"levelo_inurba_marseille","lat":43.29241,"lon":5.36198,"is_reserved":false,"is_disabled":false,"rental_uris":{"android":"levelo://app?vid=e0e163c0-b70c-478b-a240-966060226969","ios":"levelo://app?vid=e0e163c0-b70c-478b-a240-966060226969"},"vehicle_type_id":"4","last_reported":1746252810,"current_range_meters":10000,"station_id":"","pricing_plan_id":"cebpf4jnsgd1na2vs0mg"},{"bike_id":"584b3baf-c7e8-4eed-9f50-eb28e95f1d98","system_id":"levelo_inurba_marseille","lat":43.27498,"lon":5.42449,"is_reserved":false,"is_disabled":false,"rental_uris":{"android":"levelo://app?vid=584b3baf-c7e8-4eed-9f50-eb28e95f1d98","ios":"levelo://app?vid=584b3baf-c7e8-4eed-9f50-eb28e95f1d98"},"vehicle_type_id":"4","last_reported":1746252810,"current_range_meters":10000,"station_id":"ce4bhn92rcd13ifvqgrg","pricing_plan_id":"cebpf4jnsgd1na2vs0mg"},{"bike_id":"bc6aa588-55ae-4b58-9657-e59d1d5531f4","system_id":"levelo_inurba_marseille","lat":43.295625,"lon":5.399678,"is_reserved":false,"is_disabled":true,"rental_uris":{"android":"levelo://app?vid=bc6aa588-55ae-4b58-9657-e59d1d5531f4","ios":"levelo://app?vid=bc6aa588-55ae-4b58-9657-e59d1d5531f4"},"vehicle_type_id":"4","last_reported":1746252810,"current_range_meters":10000,"station_id":"ce4bh312rcd13ifvqdj0","pricing_plan_id":"cebpf4jnsgd1na2vs0mg"},{"bike_id":"3278b1d9-c666-43b3-a383-3cc0cd84da97","system_id":"levelo_inurba_marseille","lat":43.28561,"lon":5.39507,"is_reserved":false,"is_disabled":true,"rental_uris":{"android":"levelo://app?vid=3278b1d9-c666-43b3-a383-3cc0cd84da97","ios":"levelo://app?vid=3278b1d9-c666-43b3-a383-3cc0cd84da97"},"vehicle_type_id":"4","last_reported":1746252810,"current_range_meters":10000,"station_id":"ce4bh292rcd13ifvqdg0","pricing_plan_id":"cebpf4jnsgd1na2vs0mg"},{"bike_id":"2cce8745-f47d-491d-9776-93cf9f036027","system_id":"levelo_inurba_marseille","lat":43.308164,"lon":5.43519,"is_reserved":false,"is_disabled":false,"rental_uris":{"android":"levelo://app?vid=2cce8745-f47d-491d-9776-93cf9f036027","ios":"levelo://app?vid=2cce8745-f47d-491d-9776-93cf9f036027"},"vehicle_type_id":"4","last_reported":1746252810,"current_range_meters":10000,"station_id":"ce4bhph2rcd13ifvqheg","pricing_plan_id":"cebpf4jnsgd1na2vs0mg"},{"bike_id":"f28a6a99-f960-44e5-8dd2-042ad6e229e6","system_id":"levelo_inurba_marseille","lat":43.27823,"lon":5.42741,"is_reserved":false,"is_disabled":false,"rental_uris":{"android":"levelo://app?vid=f28a6a99-f960-44e5-8dd2-042ad6e229e6","ios":"levelo://app?vid=f28a6a99-f960-44e5-8dd2-042ad6e229e6"},"vehicle_type_id":"4","last_reported":1746252810,"current_range_meters":10800,"station_id":"","pricing_plan_id":"cebpf4jnsgd1na2vs0mg"},{"bike_id":"b860950e-8dd9-43ac-ab45-42b462c5ee31","system_id":"levelo_inurba_marseille","lat":43.24679,"lon":5.38182,"is_reserved":false,"is_disabled":false,"rental_uris":{"android":"levelo://app?vid=b860950e-8dd9-43ac-ab45-42b462c5ee31","ios":"levelo://app?vid=b860950e-8dd9-43ac-ab45-42b462c5ee31"},"vehicle_type_id":"4","last_reported":1746252810,"current_range_meters":10800,"station_id":"ce4bhih2rcd13ifvqfr0","pricing_plan_id":"cebpf4jnsgd1na2vs0mg"},{"bike_id":"d24e36e0-e0aa-458e-9dc1-1d3e91441d9d","system_id":"levelo_inurba_marseille","lat":43.29036,"lon":5.3863,"is_reserved":false,"is_disabled":true,"rental_uris":{"android":"levelo://app?vid=d24e36e0-e0aa-458e-9dc1-1d3e91441d9d","ios":"levelo://app?vid=d24e36e0-e0aa-458e-9dc1-1d3e91441d9d"},"vehicle_type_id":"4","last_reported":1746252810,"current_range_meters":10800,"station_id":"ce4bh4p2rcd13ifvqe0g","pricing_plan_id":"cebpf4jnsgd1na2vs0mg"},{"bike_id":"4b063e8a-93dc-458b-8765-71afcd89bda7","system_id":"levelo_inurba_marseille","lat":43.30589,"lon":5.39359,"is_reserved":false,"is_disabled":false,"rental_uris":{"android":"levelo://app?vid=4b063e8a-93dc-458b-8765-71afcd89bda7","ios":"levelo://app?vid=4b063e8a-93dc-458b-8765-71afcd89bda7"},"vehicle_type_id":"4","last_reported":1746252810,"current_range_meters":10800,"station_id":"ce4bh0p2rcd13ifvqd80","pricing_plan_id":"cebpf4jnsgd1na2vs0mg"},{"bike_id":"6bcfafe9-e0dc-4830-a2ef-8fbcb15314a2","system_id":"levelo_inurba_marseille","lat":43.29553,"lon":5.42286,"is_reserved":false,"is_disabled":false,"rental_uris":{"android":"levelo://app?vid=6bcfafe9-e0dc-4830-a2ef-8fbcb15314a2","ios":"levelo://app?vid=6bcfafe9-e0dc-4830-a2ef-8fbcb15314a2"},"vehicle_type_id":"4","last_reported":1746252810,"current_range_meters":10800,"station_id":"ce4bhph2rcd13ifvqhdg","pricing_plan_id":"cebpf4jnsgd1na2vs0mg"},{"bike_id":"371b7534-0d9b-4ab0-8f09-4f4cf8973b82","system_id":"levelo_inurba_marseille","lat":43.251057,"lon":5.403283,"is_reserved":false,"is_disabled":false,"rental_uris":{"android":"levelo://app?vid=371b7534-0d9b-4ab0-8f09-4f4cf8973b82","ios":"levelo://app?vid=371b7534-0d9b-4ab0-8f09-4f4cf8973b82"},"vehicle_type_id":"4","last_reported":1746252810,"current_range_meters":10800,"station_id":"ce4bhlh2rcd13ifvqgig","pricing_plan_id":"cebpf4jnsgd1na2vs0mg"},{"bike_id":"728d7dda-2d6d-48b3-9412-ac85708f1dff","system_id":"levelo_inurba_marseille","lat":43.32492,"lon":5.36559,"is_reserved":false,"is_disabled":false,"rental_uris":{"android":"levelo://app?vid=728d7dda-2d6d-48b3-9412-ac85708f1dff","ios":"levelo://app?vid=728d7dda-2d6d-48b3-9412-ac85708f1dff"},"vehicle_type_id":"4","last_reported":1746252810,"current_range_meters":10800,"station_id":"ce4bhs12rcd13ifvqhvg","pricing_plan_id":"cebpf4jnsgd1na2vs0mg"},{"bike_id":"9adfac2a-491e-4112-b03c-2c448baa3a91","system_id":"levelo_inurba_marseille","lat":43.260302,"lon":5.375765,"is_reserved":false,"is_disabled":true,"rental_uris":{"android":"levelo://app?vid=9adfac2a-491e-4112-b03c-2c448baa3a91","ios":"levelo://app?vid=9adfac2a-491e-4112-b03c-2c448baa3a91"},"vehicle_type_id":"4","last_reported":1746252810,"current_range_meters":10800,"station_id":"ce4bhgh2rcd13ifvqfa0","pricing_plan_id":"cebpf4jnsgd1na2vs0mg"},{"bike_id":"b914c14e-983f-4d03-82de-8f3c0fcb81fd","system_id":"levelo_inurba_marseille","lat":43.2835,"lon":5.38107,"is_reserved":false,"is_disabled":false,"rental_uris":{"android":"levelo://app?vid=b914c14e-983f-4d03-82de-8f3c0fcb81fd","ios":"levelo://app?vid=b914c14e-983f-4d03-82de-8f3c0fcb81fd"},"vehicle_type_id":"4","last_reported":1746252810,"current_range_meters":10800,"station_id":"ce4bh412rcd13ifvqdr0","pricing_plan_id":"cebpf4jnsgd1na2vs0mg"},{"bike_id":"dfb3396e-96f5-457c-af11-f6f27dad33e9","system_id":"levelo_inurba_marseille","lat":43.27199,"lon":5.36492,"is_reserved":false,"is_disabled":false,"rental_uris":{"android":"levelo://app?vid=dfb3396e-96f5-457c-af11-f6f27dad33e9","ios":"levelo://app?vid=dfb3396e-96f5-457c-af11-f6f27dad33e9"},"vehicle_type_id":"4","last_reported":1746252810,"current_range_meters":11200,"station_id":"","pricing_plan_id":"cebpf4jnsgd1na2vs0mg"},{"bike_id":"fa134cb6-b345-4226-8e0d-33916763269e","system_id":"levelo_inurba_marseille","lat":43.3228,"lon":5.38279,"is_reserved":false,"is_disabled":false,"rental_uris":{"android":"levelo://app?vid=fa134cb6-b345-4226-8e0d-33916763269e","ios":"levelo://app?vid=fa134cb6-b345-4226-8e0d-33916763269e"},"vehicle_type_id":"4","last_reported":1746252810,"current_range_meters":11200,"station_id":"ce4bhr12rcd13ifvqhqg","pricing_plan_id":"cebpf4jnsgd1na2vs0mg"},{"bike_id":"b7b819c6-ae62-4e8a-a410-3625e179a9e7","system_id":"levelo_inurba_marseille","lat":43.29043,"lon":5.39986,"is_reserved":false,"is_disabled":false,"rental_uris":{"android":"levelo://app?vid=b7b819c6-ae62-4e8a-a410-3625e179a9e7","ios":"levelo://app?vid=b7b819c6-ae62-4e8a-a410-3625e179a9e7"},"vehicle_type_id":"4","last_reported":1746252810,"current_range_meters":11200,"station_id":"ce4bh392rcd13ifvqdm0","pricing_plan_id":"cebpf4jnsgd1na2vs0mg"},{"bike_id":"fd2c3c67-23a6-4380-b7ca-8f23c8f78921","system_id":"levelo_inurba_marseille","lat":43.323644,"lon":5.367625,"is_reserved":false,"is_disabled":false,"rental_uris":{"android":"levelo://app?vid=fd2c3c67-23a6-4380-b7ca-8f23c8f78921","ios":"levelo://app?vid=fd2c3c67-23a6-4380-b7ca-8f23c8f78921"},"vehicle_type_id":"4","last_reported":1746252810,"current_range_meters":11200,"station_id":"ce4bhsh2rcd13ifvqi2g","pricing_plan_id":"cebpf4jnsgd1na2vs0mg"},{"bike_id":"f1ffd2b9-91e9-4bf5-a319-6e95940b0de6","system_id":"levelo_inurba_marseille","lat":43.29561,"lon":5.42301,"is_reserved":false,"is_disabled":false,"rental_uris":{"android":"levelo://app?vid=f1ffd2b9-91e9-4bf5-a319-6e95940b0de6","ios":"levelo://app?vid=f1ffd2b9-91e9-4bf5-a319-6e95940b0de6"},"vehicle_type_id":"4","last_reported":1746252810,"current_range_meters":11600,"station_id":"ce4bhph2rcd13ifvqhdg","pricing_plan_id":"cebpf4jnsgd1na2vs0mg"},{"bike_id":"8105ea61-1930-4b48-827f-ed01cb559bea","system_id":"levelo_inurba_marseille","lat":43.246626,"lon":5.381616,"is_reserved":false,"is_disabled":false,"rental_uris":{"android":"levelo://app?vid=8105ea61-1930-4b48-827f-ed01cb559bea","ios":"levelo://app?vid=8105ea61-1930-4b48-827f-ed01cb559bea"},"vehicle_type_id":"4","last_reported":1746252810,"current_range_meters":11600,"station_id":"ce4bhih2rcd13ifvqfr0","pricing_plan_id":"cebpf4jnsgd1na2vs0mg"},{"bike_id":"ef4c5f18-9770-45a3-96fe-ff4bb6671e96","system_id":"levelo_inurba_marseille","lat":43.2942,"lon":5.38617,"is_reserved":false,"is_disabled":true,"rental_uris":{"android":"levelo://app?vid=ef4c5f18-9770-45a3-96fe-ff4bb6671e96","ios":"levelo://app?vid=ef4c5f18-9770-45a3-96fe-ff4bb6671e96"},"vehicle_type_id":"4","last_reported":1746252810,"current_range_meters":11600,"station_id":"ce4bh2h2rcd13ifvqdh0","pricing_plan_id":"cebpf4jnsgd1na2vs0mg"},{"bike_id":"2fc7066a-3168-4b00-a4fc-ece640118f70","system_id":"levelo_inurba_marseille","lat":43.28376,"lon":5.37535,"is_reserved":false,"is_disabled":false,"rental_uris":{"android":"levelo://app?vid=2fc7066a-3168-4b00-a4fc-ece640118f70","ios":"levelo://app?vid=2fc7066a-3168-4b00-a4fc-ece640118f70"},"vehicle_type_id":"4","last_reported":1746252810,"current_range_meters":11600,"station_id":"ce4bh412rcd13ifvqds0","pricing_plan_id":"cebpf4jnsgd1na2vs0mg"},{"bike_id":"39571fc5-4b18-4299-9133-329cc7cd382b","system_id":"levelo_inurba_marseille","lat":43.29426,"lon":5.39786,"is_reserved":false,"is_disabled":false,"rental_uris":{"android":"levelo://app?vid=39571fc5-4b18-4299-9133-329cc7cd382b","ios":"levelo://app?vid=39571fc5-4b18-4299-9133-329cc7cd382b"},"vehicle_type_id":"4","last_reported":1746252810,"current_range_meters":11200,"station_id":"ce4bh3h2rcd13ifvqdo0","pricing_plan_id":"cebpf4jnsgd1na2vs0mg"},{"bike_id":"36a9b9c7-54b7-45b0-81a5-b00d50ed8e1f","system_id":"levelo_inurba_marseille","lat":43.30773,"lon":5.38169,"is_reserved":false,"is_disabled":false,"rental_uris":{"android":"levelo://app?vid=36a9b9c7-54b7-45b0-81a5-b00d50ed8e1f","ios":"levelo://app?vid=36a9b9c7-54b7-45b0-81a5-b00d50ed8e1f"},"vehicle_type_id":"4","last_reported":1746252810,"current_range_meters":12000,"station_id":"ce4bgt12rcd13ifvqce0","pricing_plan_id":"cebpf4jnsgd1na2vs0mg"},{"bike_id":"b2a1b543-f7ca-40fa-82e3-61a14489c133","system_id":"levelo_inurba_marseille","lat":43.30793,"lon":5.38158,"is_reserved":false,"is_disabled":false,"rental_uris":{"android":"levelo://app?vid=b2a1b543-f7ca-40fa-82e3-61a14489c133","ios":"levelo://app?vid=b2a1b543-f7ca-40fa-82e3-61a14489c133"},"vehicle_type_id":"4","last_reported":1746252810,"current_range_meters":12000,"station_id":"ce4bgt12rcd13ifvqce0","pricing_plan_id":"cebpf4jnsgd1na2vs0mg"},{"bike_id":"90fe6b2c-98b3-4084-9346-072b9cd32382","system_id":"levelo_inurba_marseille","lat":43.29251,"lon":5.4091,"is_reserved":false,"is_disabled":false,"rental_uris":{"android":"levelo://app?vid=90fe6b2c-98b3-4084-9346-072b9cd32382","ios":"levelo://app?vid=90fe6b2c-98b3-4084-9346-072b9cd32382"},"vehicle_type_id":"4","last_reported":1746252810,"current_range_meters":12000,"station_id":"ce4bh192rcd13ifvqdc0","pricing_plan_id":"cebpf4jnsgd1na2vs0mg"},{"bike_id":"40dc78fe-7bfb-425d-a044-df3cd1c8f08d","system_id":"levelo_inurba_marseille","lat":43.28345,"lon":5.38109,"is_reserved":false,"is_disabled":true,"rental_uris":{"android":"levelo://app?vid=40dc78fe-7bfb-425d-a044-df3cd1c8f08d","ios":"levelo://app?vid=40dc78fe-7bfb-425d-a044-df3cd1c8f08d"},"vehicle_type_id":"4","last_reported":1746252810,"current_range_meters":12400,"station_id":"ce4bh412rcd13ifvqdr0","pricing_plan_id":"cebpf4jnsgd1na2vs0mg"},{"bike_id":"f4215d2d-8cbc-42de-a4a1-5312ee7d2a19","system_id":"levelo_inurba_marseille","lat":43.240653,"lon":5.37765,"is_reserved":false,"is_disabled":false,"rental_uris":{"android":"levelo://app?vid=f4215d2d-8cbc-42de-a4a1-5312ee7d2a19","ios":"levelo://app?vid=f4215d2d-8cbc-42de-a4a1-5312ee7d2a19"},"vehicle_type_id":"4","last_reported":1746252810,"current_range_meters":12400,"station_id":"ce4bhnp2rcd13ifvqgvg","pricing_plan_id":"cebpf4jnsgd1na2vs0mg"},{"bike_id":"6c0e5220-ee62-4032-884d-af4df430249c","system_id":"levelo_inurba_marseille","lat":43.32123,"lon":5.36797,"is_reserved":false,"is_disabled":false,"rental_uris":{"android":"levelo://app?vid=6c0e5220-ee62-4032-884d-af4df430249c","ios":"levelo://app?vid=6c0e5220-ee62-4032-884d-af4df430249c"},"vehicle_type_id":"4","last_reported":1746252810,"current_range_meters":12400,"station_id":"ce4bhrh2rcd13ifvqhug","pricing_plan_id":"cebpf4jnsgd1na2vs0mg"},{"bike_id":"35df839b-290c-49b9-9f1d-6c3dde4d997d","system_id":"levelo_inurba_marseille","lat":43.30591,"lon":5.39368,"is_reserved":false,"is_disabled":true,"rental_uris":{"android":"levelo://app?vid=35df839b-290c-49b9-9f1d-6c3dde4d997d","ios":"levelo://app?vid=35df839b-290c-49b9-9f1d-6c3dde4d997d"},"vehicle_type_id":"4","last_reported":1746252810,"current_range_meters":12400,"station_id":"ce4bh0p2rcd13ifvqd80","pricing_plan_id":"cebpf4jnsgd1na2vs0mg"},{"bike_id":"8103e5ba-0c41-4b32-abe9-4920a4f338ee","system_id":"levelo_inurba_marseille","lat":43.3148,"lon":5.37297,"is_reserved":false,"is_disabled":false,"rental_uris":{"android":"levelo://app?vid=8103e5ba-0c41-4b32-abe9-4920a4f338ee","ios":"levelo://app?vid=8103e5ba-0c41-4b32-abe9-4920a4f338ee"},"vehicle_type_id":"4","last_reported":1746252810,"current_range_meters":12400,"station_id":"ce4bgt12rcd13ifvqcd0","pricing_plan_id":"cebpf4jnsgd1na2vs0mg"},{"bike_id":"7f61934c-9cb9-4176-a54d-8a502361a16e","system_id":"levelo_inurba_marseille","lat":43.303233,"lon":5.404387,"is_reserved":false,"is_disabled":false,"rental_uris":{"android":"levelo://app?vid=7f61934c-9cb9-4176-a54d-8a502361a16e","ios":"levelo://app?vid=7f61934c-9cb9-4176-a54d-8a502361a16e"},"vehicle_type_id":"4","last_reported":1746252810,"current_range_meters":12400,"station_id":"ce4bh012rcd13ifvqd10","pricing_plan_id":"cebpf4jnsgd1na2vs0mg"},{"bike_id":"0c3fbeaa-55ff-4c7c-a66c-46f4ecc86aeb","system_id":"levelo_inurba_marseille","lat":43.212,"lon":5.35077,"is_reserved":false,"is_disabled":true,"rental_uris":{"android":"levelo://app?vid=0c3fbeaa-55ff-4c7c-a66c-46f4ecc86aeb","ios":"levelo://app?vid=0c3fbeaa-55ff-4c7c-a66c-46f4ecc86aeb"},"vehicle_type_id":"4","last_reported":1746252810,"current_range_meters":12400,"station_id":"st_cvj6sg6p6f1abm77japg","pricing_plan_id":"cebpf4jnsgd1na2vs0mg"},{"bike_id":"7f3206ec-5b00-4388-91fc-6fd52ff82200","system_id":"levelo_inurba_marseille","lat":43.298,"lon":5.40395,"is_reserved":false,"is_disabled":false,"rental_uris":{"android":"levelo://app?vid=7f3206ec-5b00-4388-91fc-6fd52ff82200","ios":"levelo://app?vid=7f3206ec-5b00-4388-91fc-6fd52ff82200"},"vehicle_type_id":"4","last_reported":1746252810,"current_range_meters":12800,"station_id":"ce4bh112rcd13ifvqd90","pricing_plan_id":"cebpf4jnsgd1na2vs0mg"},{"bike_id":"c401fff3-9103-4b0f-8989-5a8f04a7e207","system_id":"levelo_inurba_marseille","lat":43.3175,"lon":5.39031,"is_reserved":false,"is_disabled":false,"rental_uris":{"android":"levelo://app?vid=c401fff3-9103-4b0f-8989-5a8f04a7e207","ios":"levelo://app?vid=c401fff3-9103-4b0f-8989-5a8f04a7e207"},"vehicle_type_id":"4","last_reported":1746252810,"current_range_meters":12800,"station_id":"ce4bhqp2rcd13ifvqhng","pricing_plan_id":"cebpf4jnsgd1na2vs0mg"},{"bike_id":"c2f1ceaa-52ea-4914-a3b3-5d5a44fac5fe","system_id":"levelo_inurba_marseille","lat":43.30259,"lon":5.400785,"is_reserved":false,"is_disabled":false,"rental_uris":{"android":"levelo://app?vid=c2f1ceaa-52ea-4914-a3b3-5d5a44fac5fe","ios":"levelo://app?vid=c2f1ceaa-52ea-4914-a3b3-5d5a44fac5fe"},"vehicle_type_id":"4","last_reported":1746252810,"current_range_meters":12400,"station_id":"ce4bgvh2rcd13ifvqcs0","pricing_plan_id":"cebpf4jnsgd1na2vs0mg"},{"bike_id":"9faa2555-bb1a-42b4-8bf8-904da7025132","system_id":"levelo_inurba_marseille","lat":43.307827,"lon":5.381646,"is_reserved":false,"is_disabled":false,"rental_uris":{"android":"levelo://app?vid=9faa2555-bb1a-42b4-8bf8-904da7025132","ios":"levelo://app?vid=9faa2555-bb1a-42b4-8bf8-904da7025132"},"vehicle_type_id":"4","last_reported":1746252810,"current_range_meters":13600,"station_id":"ce4bgt12rcd13ifvqce0","pricing_plan_id":"cebpf4jnsgd1na2vs0mg"},{"bike_id":"bfdb6247-f47d-4f2c-8e70-264fe5da42e6","system_id":"levelo_inurba_marseille","lat":43.28721,"lon":5.37385,"is_reserved":false,"is_disabled":false,"rental_uris":{"android":"levelo://app?vid=bfdb6247-f47d-4f2c-8e70-264fe5da42e6","ios":"levelo://app?vid=bfdb6247-f47d-4f2c-8e70-264fe5da42e6"},"vehicle_type_id":"4","last_reported":1746252810,"current_range_meters":13600,"station_id":"ce4bh3p2rcd13ifvqdq0","pricing_plan_id":"cebpf4jnsgd1na2vs0mg"},{"bike_id":"37e52987-a8fb-4155-9bf3-e38ed22dec6b","system_id":"levelo_inurba_marseille","lat":43.29597,"lon":5.38097,"is_reserved":false,"is_disabled":true,"rental_uris":{"android":"levelo://app?vid=37e52987-a8fb-4155-9bf3-e38ed22dec6b","ios":"levelo://app?vid=37e52987-a8fb-4155-9bf3-e38ed22dec6b"},"vehicle_type_id":"4","last_reported":1746252810,"current_range_meters":13600,"station_id":"ce4bgl12rcd13ifvqbo0","pricing_plan_id":"cebpf4jnsgd1na2vs0mg"},{"bike_id":"621930ed-0360-41f8-8e7e-9896edb6537e","system_id":"levelo_inurba_marseille","lat":43.28721,"lon":5.36078,"is_reserved":false,"is_disabled":false,"rental_uris":{"android":"levelo://app?vid=621930ed-0360-41f8-8e7e-9896edb6537e","ios":"levelo://app?vid=621930ed-0360-41f8-8e7e-9896edb6537e"},"vehicle_type_id":"4","last_reported":1746252810,"current_range_meters":13600,"station_id":"cki0cbj6b192h4jlfktg","pricing_plan_id":"cebpf4jnsgd1na2vs0mg"},{"bike_id":"715d4ccd-4d07-4967-8be3-b199930f65b6","system_id":"levelo_inurba_marseille","lat":43.31071,"lon":5.40102,"is_reserved":false,"is_disabled":false,"rental_uris":{"android":"levelo://app?vid=715d4ccd-4d07-4967-8be3-b199930f65b6","ios":"levelo://app?vid=715d4ccd-4d07-4967-8be3-b199930f65b6"},"vehicle_type_id":"4","last_reported":1746252810,"current_range_meters":13600,"station_id":"","pricing_plan_id":"cebpf4jnsgd1na2vs0mg"},{"bike_id":"4ae02176-31a4-48f7-825f-a587fefa23c2","system_id":"levelo_inurba_marseille","lat":43.301889,"lon":5.366172,"is_reserved":false,"is_disabled":true,"rental_uris":{"android":"levelo://app?vid=4ae02176-31a4-48f7-825f-a587fefa23c2","ios":"levelo://app?vid=4ae02176-31a4-48f7-825f-a587fefa23c2"},"vehicle_type_id":"4","last_reported":1746252810,"current_range_meters":14000,"station_id":"ce4bgrh2rcd13ifvqc8g","pricing_plan_id":"cebpf4jnsgd1na2vs0mg"},{"bike_id":"4570aeae-1bcc-49f7-accb-37cc53ae6fc1","system_id":"levelo_inurba_marseille","lat":43.28577,"lon":5.39508,"is_reserved":false,"is_disabled":false,"rental_uris":{"android":"levelo://app?vid=4570aeae-1bcc-49f7-accb-37cc53ae6fc1","ios":"levelo://app?vid=4570aeae-1bcc-49f7-accb-37cc53ae6fc1"},"vehicle_type_id":"4","last_reported":1746252810,"current_range_meters":14400,"station_id":"ce4bh292rcd13ifvqdg0","pricing_plan_id":"cebpf4jnsgd1na2vs0mg"},{"bike_id":"c3856106-206a-4f39-adcf-8916ef5dd857","system_id":"levelo_inurba_marseille","lat":43.31063,"lon":5.38366,"is_reserved":false,"is_disabled":false,"rental_uris":{"android":"levelo://app?vid=c3856106-206a-4f39-adcf-8916ef5dd857","ios":"levelo://app?vid=c3856106-206a-4f39-adcf-8916ef5dd857"},"vehicle_type_id":"4","last_reported":1746252810,"current_range_meters":14400,"station_id":"ce4bgv92rcd13ifvqcr0","pricing_plan_id":"cebpf4jnsgd1na2vs0mg"},{"bike_id":"944f71e1-5595-4798-833c-c7ebd783dc75","system_id":"levelo_inurba_marseille","lat":43.308888,"lon":5.396264,"is_reserved":false,"is_disabled":false,"rental_uris":{"android":"levelo://app?vid=944f71e1-5595-4798-833c-c7ebd783dc75","ios":"levelo://app?vid=944f71e1-5595-4798-833c-c7ebd783dc75"},"vehicle_type_id":"4","last_reported":1746252810,"current_range_meters":14800,"station_id":"ce4bh012rcd13ifvqcv0","pricing_plan_id":"cebpf4jnsgd1na2vs0mg"},{"bike_id":"ff79280e-1855-4d0a-9416-0d33a2ce1c48","system_id":"levelo_inurba_marseille","lat":43.21217,"lon":5.35065,"is_reserved":false,"is_disabled":true,"rental_uris":{"android":"levelo://app?vid=ff79280e-1855-4d0a-9416-0d33a2ce1c48","ios":"levelo://app?vid=ff79280e-1855-4d0a-9416-0d33a2ce1c48"},"vehicle_type_id":"4","last_reported":1746252810,"current_range_meters":14800,"station_id":"","pricing_plan_id":"cebpf4jnsgd1na2vs0mg"},{"bike_id":"74e82b4c-73e1-4cc5-8435-515ff14956ce","system_id":"levelo_inurba_marseille","lat":43.24691,"lon":5.3813,"is_reserved":false,"is_disabled":true,"rental_uris":{"android":"levelo://app?vid=74e82b4c-73e1-4cc5-8435-515ff14956ce","ios":"levelo://app?vid=74e82b4c-73e1-4cc5-8435-515ff14956ce"},"vehicle_type_id":"4","last_reported":1746252810,"current_range_meters":14800,"station_id":"ce4bhih2rcd13ifvqfr0","pricing_plan_id":"cebpf4jnsgd1na2vs0mg"},{"bike_id":"f662eeb9-5790-4a0f-8a51-4110fcbd7f33","system_id":"levelo_inurba_marseille","lat":43.29268,"lon":5.37626,"is_reserved":false,"is_disabled":false,"rental_uris":{"android":"levelo://app?vid=f662eeb9-5790-4a0f-8a51-4110fcbd7f33","ios":"levelo://app?vid=f662eeb9-5790-4a0f-8a51-4110fcbd7f33"},"vehicle_type_id":"4","last_reported":1746252810,"current_range_meters":14800,"station_id":"ce4bgi12rcd13ifvqb80","pricing_plan_id":"cebpf4jnsgd1na2vs0mg"},{"bike_id":"79dc9683-b42d-4990-a9a3-c0bcacc25768","system_id":"levelo_inurba_marseille","lat":43.28657,"lon":5.36355,"is_reserved":false,"is_disabled":false,"rental_uris":{"android":"levelo://app?vid=79dc9683-b42d-4990-a9a3-c0bcacc25768","ios":"levelo://app?vid=79dc9683-b42d-4990-a9a3-c0bcacc25768"},"vehicle_type_id":"4","last_reported":1746252810,"current_range_meters":15200,"station_id":"ce4bhah2rcd13ifvqej0","pricing_plan_id":"cebpf4jnsgd1na2vs0mg"},{"bike_id":"5426b15c-d0d1-4b42-8d42-b676224fcebe","system_id":"levelo_inurba_marseille","lat":43.287224,"lon":5.360875,"is_reserved":false,"is_disabled":false,"rental_uris":{"android":"levelo://app?vid=5426b15c-d0d1-4b42-8d42-b676224fcebe","ios":"levelo://app?vid=5426b15c-d0d1-4b42-8d42-b676224fcebe"},"vehicle_type_id":"4","last_reported":1746252810,"current_range_meters":15200,"station_id":"cki0cbj6b192h4jlfktg","pricing_plan_id":"cebpf4jnsgd1na2vs0mg"},{"bike_id":"a6ceb1bb-4bc7-4d7c-8027-f3b0af77f511","system_id":"levelo_inurba_marseille","lat":43.30926,"lon":5.401369,"is_reserved":false,"is_disabled":false,"rental_uris":{"android":"levelo://app?vid=a6ceb1bb-4bc7-4d7c-8027-f3b0af77f511","ios":"levelo://app?vid=a6ceb1bb-4bc7-4d7c-8027-f3b0af77f511"},"vehicle_type_id":"4","last_reported":1746252810,"current_range_meters":15200,"station_id":"ce4bgvp2rcd13ifvqct0","pricing_plan_id":"cebpf4jnsgd1na2vs0mg"},{"bike_id":"3fa05eab-bd38-4e51-9d14-fab3387355a7","system_id":"levelo_inurba_marseille","lat":43.322846,"lon":5.382814,"is_reserved":false,"is_disabled":false,"rental_uris":{"android":"levelo://app?vid=3fa05eab-bd38-4e51-9d14-fab3387355a7","ios":"levelo://app?vid=3fa05eab-bd38-4e51-9d14-fab3387355a7"},"vehicle_type_id":"4","last_reported":1746252810,"current_range_meters":15200,"station_id":"ce4bhr12rcd13ifvqhqg","pricing_plan_id":"cebpf4jnsgd1na2vs0mg"},{"bike_id":"fb80c1da-d845-467b-9c3b-2f591f4d56ae","system_id":"levelo_inurba_marseille","lat":43.323406,"lon":5.37422,"is_reserved":false,"is_disabled":false,"rental_uris":{"android":"levelo://app?vid=fb80c1da-d845-467b-9c3b-2f591f4d56ae","ios":"levelo://app?vid=fb80c1da-d845-467b-9c3b-2f591f4d56ae"},"vehicle_type_id":"4","last_reported":1746252810,"current_range_meters":16000,"station_id":"","pricing_plan_id":"cebpf4jnsgd1na2vs0mg"},{"bike_id":"aedf206f-89f3-4f30-9da6-56fb7ff8915b","system_id":"levelo_inurba_marseille","lat":43.28084,"lon":5.40417,"is_reserved":false,"is_disabled":false,"rental_uris":{"android":"levelo://app?vid=aedf206f-89f3-4f30-9da6-56fb7ff8915b","ios":"levelo://app?vid=aedf206f-89f3-4f30-9da6-56fb7ff8915b"},"vehicle_type_id":"4","last_reported":1746252810,"current_range_meters":16000,"station_id":"","pricing_plan_id":"cebpf4jnsgd1na2vs0mg"},{"bike_id":"2872d3c1-4ba6-4718-a22b-82465f514cdd","system_id":"levelo_inurba_marseille","lat":43.299717,"lon":5.384976,"is_reserved":false,"is_disabled":true,"rental_uris":{"android":"levelo://app?vid=2872d3c1-4ba6-4718-a22b-82465f514cdd","ios":"levelo://app?vid=2872d3c1-4ba6-4718-a22b-82465f514cdd"},"vehicle_type_id":"4","last_reported":1746252810,"current_range_meters":16000,"station_id":"ce4bgj92rcd13ifvqbd0","pricing_plan_id":"cebpf4jnsgd1na2vs0mg"},{"bike_id":"d6dc361d-7063-443f-8860-11db5eab3d63","system_id":"levelo_inurba_marseille","lat":43.231476,"lon":5.437146,"is_reserved":false,"is_disabled":false,"rental_uris":{"android":"levelo://app?vid=d6dc361d-7063-443f-8860-11db5eab3d63","ios":"levelo://app?vid=d6dc361d-7063-443f-8860-11db5eab3d63"},"vehicle_type_id":"4","last_reported":1746252810,"current_range_meters":16000,"station_id":"ce4bhmp2rcd13ifvqgog","pricing_plan_id":"cebpf4jnsgd1na2vs0mg"},{"bike_id":"701e5227-22ae-4915-aea9-f5edaf97a446","system_id":"levelo_inurba_marseille","lat":43.317579,"lon":5.390146,"is_reserved":false,"is_disabled":false,"rental_uris":{"android":"levelo://app?vid=701e5227-22ae-4915-aea9-f5edaf97a446","ios":"levelo://app?vid=701e5227-22ae-4915-aea9-f5edaf97a446"},"vehicle_type_id":"4","last_reported":1746252810,"current_range_meters":16000,"station_id":"ce4bhqp2rcd13ifvqhng","pricing_plan_id":"cebpf4jnsgd1na2vs0mg"},{"bike_id":"5266a973-9125-41f8-9137-09078fe36248","system_id":"levelo_inurba_marseille","lat":43.2732,"lon":5.39083,"is_reserved":false,"is_disabled":false,"rental_uris":{"android":"levelo://app?vid=5266a973-9125-41f8-9137-09078fe36248","ios":"levelo://app?vid=5266a973-9125-41f8-9137-09078fe36248"},"vehicle_type_id":"4","last_reported":1746252810,"current_range_meters":15200,"station_id":"ce4bhgp2rcd13ifvqfe0","pricing_plan_id":"cebpf4jnsgd1na2vs0mg"},{"bike_id":"a8c8731e-3f2d-4306-b075-b4ead99ef8c5","system_id":"levelo_inurba_marseille","lat":43.29601,"lon":5.38111,"is_reserved":false,"is_disabled":false,"rental_uris":{"android":"levelo://app?vid=a8c8731e-3f2d-4306-b075-b4ead99ef8c5","ios":"levelo://app?vid=a8c8731e-3f2d-4306-b075-b4ead99ef8c5"},"vehicle_type_id":"4","last_reported":1746252810,"current_range_meters":16000,"station_id":"ce4bgl12rcd13ifvqbo0","pricing_plan_id":"cebpf4jnsgd1na2vs0mg"},{"bike_id":"b8d6bd6b-e69d-4869-8d67-2bbec570ca30","system_id":"levelo_inurba_marseille","lat":43.284,"lon":5.37525,"is_reserved":false,"is_disabled":false,"rental_uris":{"android":"levelo://app?vid=b8d6bd6b-e69d-4869-8d67-2bbec570ca30","ios":"levelo://app?vid=b8d6bd6b-e69d-4869-8d67-2bbec570ca30"},"vehicle_type_id":"4","last_reported":1746252810,"current_range_meters":16000,"station_id":"ce4bh412rcd13ifvqds0","pricing_plan_id":"cebpf4jnsgd1na2vs0mg"},{"bike_id":"52994680-dd2e-446e-af14-5c59208a4d0f","system_id":"levelo_inurba_marseille","lat":43.29988,"lon":5.38523,"is_reserved":false,"is_disabled":true,"rental_uris":{"android":"levelo://app?vid=52994680-dd2e-446e-af14-5c59208a4d0f","ios":"levelo://app?vid=52994680-dd2e-446e-af14-5c59208a4d0f"},"vehicle_type_id":"4","last_reported":1746252810,"current_range_meters":16400,"station_id":"ce4bgj92rcd13ifvqbd0","pricing_plan_id":"cebpf4jnsgd1na2vs0mg"},{"bike_id":"b9139095-2881-49e4-b714-9d611b216345","system_id":"levelo_inurba_marseille","lat":43.319147,"lon":5.368748,"is_reserved":false,"is_disabled":false,"rental_uris":{"android":"levelo://app?vid=b9139095-2881-49e4-b714-9d611b216345","ios":"levelo://app?vid=b9139095-2881-49e4-b714-9d611b216345"},"vehicle_type_id":"4","last_reported":1746252810,"current_range_meters":16400,"station_id":"","pricing_plan_id":"cebpf4jnsgd1na2vs0mg"},{"bike_id":"e0ceefc0-61c9-406f-91eb-ef69db9dbe42","system_id":"levelo_inurba_marseille","lat":43.261158,"lon":5.414685,"is_reserved":false,"is_disabled":false,"rental_uris":{"android":"levelo://app?vid=e0ceefc0-61c9-406f-91eb-ef69db9dbe42","ios":"levelo://app?vid=e0ceefc0-61c9-406f-91eb-ef69db9dbe42"},"vehicle_type_id":"4","last_reported":1746252810,"current_range_meters":16800,"station_id":"","pricing_plan_id":"cebpf4jnsgd1na2vs0mg"},{"bike_id":"13f45c48-59a4-4b11-8dcf-2c91f5157d7a","system_id":"levelo_inurba_marseille","lat":43.314807,"lon":5.37309,"is_reserved":false,"is_disabled":false,"rental_uris":{"android":"levelo://app?vid=13f45c48-59a4-4b11-8dcf-2c91f5157d7a","ios":"levelo://app?vid=13f45c48-59a4-4b11-8dcf-2c91f5157d7a"},"vehicle_type_id":"4","last_reported":1746252810,"current_range_meters":17200,"station_id":"ce4bgt12rcd13ifvqcd0","pricing_plan_id":"cebpf4jnsgd1na2vs0mg"},{"bike_id":"3ceaa7ea-07cb-4eb1-9b1a-50ec2938631e","system_id":"levelo_inurba_marseille","lat":43.31097,"lon":5.37771,"is_reserved":false,"is_disabled":false,"rental_uris":{"android":"levelo://app?vid=3ceaa7ea-07cb-4eb1-9b1a-50ec2938631e","ios":"levelo://app?vid=3ceaa7ea-07cb-4eb1-9b1a-50ec2938631e"},"vehicle_type_id":"4","last_reported":1746252810,"current_range_meters":16800,"station_id":"ce4bgt92rcd13ifvqcg0","pricing_plan_id":"cebpf4jnsgd1na2vs0mg"},{"bike_id":"272da454-799c-41bf-a833-37af71527be9","system_id":"levelo_inurba_marseille","lat":43.299581,"lon":5.370236,"is_reserved":false,"is_disabled":false,"rental_uris":{"android":"levelo://app?vid=272da454-799c-41bf-a833-37af71527be9","ios":"levelo://app?vid=272da454-799c-41bf-a833-37af71527be9"},"vehicle_type_id":"4","last_reported":1746252810,"current_range_meters":16800,"station_id":"","pricing_plan_id":"cebpf4jnsgd1na2vs0mg"},{"bike_id":"3f506505-a089-4076-bc43-08024cf6ce18","system_id":"levelo_inurba_marseille","lat":43.30892,"lon":5.3719,"is_reserved":false,"is_disabled":false,"rental_uris":{"android":"levelo://app?vid=3f506505-a089-4076-bc43-08024cf6ce18","ios":"levelo://app?vid=3f506505-a089-4076-bc43-08024cf6ce18"},"vehicle_type_id":"4","last_reported":1746252810,"current_range_meters":16800,"station_id":"ce4bguh2rcd13ifvqckg","pricing_plan_id":"cebpf4jnsgd1na2vs0mg"},{"bike_id":"db1af59a-29c1-4d68-889b-22e045adf8d8","system_id":"levelo_inurba_marseille","lat":43.30589,"lon":5.39361,"is_reserved":false,"is_disabled":false,"rental_uris":{"android":"levelo://app?vid=db1af59a-29c1-4d68-889b-22e045adf8d8","ios":"levelo://app?vid=db1af59a-29c1-4d68-889b-22e045adf8d8"},"vehicle_type_id":"4","last_reported":1746252810,"current_range_meters":17200,"station_id":"ce4bh0p2rcd13ifvqd80","pricing_plan_id":"cebpf4jnsgd1na2vs0mg"},{"bike_id":"6cad99dd-53e1-4eb9-aa3c-4dd9c0422e70","system_id":"levelo_inurba_marseille","lat":43.30434,"lon":5.39763,"is_reserved":false,"is_disabled":true,"rental_uris":{"android":"levelo://app?vid=6cad99dd-53e1-4eb9-aa3c-4dd9c0422e70","ios":"levelo://app?vid=6cad99dd-53e1-4eb9-aa3c-4dd9c0422e70"},"vehicle_type_id":"4","last_reported":1746252810,"current_range_meters":17200,"station_id":"ce4bh092rcd13ifvqd20","pricing_plan_id":"cebpf4jnsgd1na2vs0mg"},{"bike_id":"ca491e5c-cc26-4369-9359-35ed40335578","system_id":"levelo_inurba_marseille","lat":43.24164,"lon":5.39729,"is_reserved":false,"is_disabled":true,"rental_uris":{"android":"levelo://app?vid=ca491e5c-cc26-4369-9359-35ed40335578","ios":"levelo://app?vid=ca491e5c-cc26-4369-9359-35ed40335578"},"vehicle_type_id":"4","last_reported":1746252810,"current_range_meters":17200,"station_id":"ce4bhn12rcd13ifvqgpg","pricing_plan_id":"cebpf4jnsgd1na2vs0mg"},{"bike_id":"4cac8a45-449f-449e-9ca9-04490eb84c50","system_id":"levelo_inurba_marseille","lat":43.24068,"lon":5.377672,"is_reserved":false,"is_disabled":false,"rental_uris":{"android":"levelo://app?vid=4cac8a45-449f-449e-9ca9-04490eb84c50","ios":"levelo://app?vid=4cac8a45-449f-449e-9ca9-04490eb84c50"},"vehicle_type_id":"4","last_reported":1746252810,"current_range_meters":17200,"station_id":"ce4bhnp2rcd13ifvqgvg","pricing_plan_id":"cebpf4jnsgd1na2vs0mg"},{"bike_id":"cdfd7ebf-d40f-442e-8508-ccaa5f6b29f7","system_id":"levelo_inurba_marseille","lat":43.25939,"lon":5.40903,"is_reserved":false,"is_disabled":false,"rental_uris":{"android":"levelo://app?vid=cdfd7ebf-d40f-442e-8508-ccaa5f6b29f7","ios":"levelo://app?vid=cdfd7ebf-d40f-442e-8508-ccaa5f6b29f7"},"vehicle_type_id":"4","last_reported":1746252810,"current_range_meters":17200,"station_id":"ce4bhm92rcd13ifvqglg","pricing_plan_id":"cebpf4jnsgd1na2vs0mg"},{"bike_id":"0bb0a6cd-b8a5-41d3-88ec-e9648a03c7f5","system_id":"levelo_inurba_marseille","lat":43.25938,"lon":5.40905,"is_reserved":false,"is_disabled":true,"rental_uris":{"android":"levelo://app?vid=0bb0a6cd-b8a5-41d3-88ec-e9648a03c7f5","ios":"levelo://app?vid=0bb0a6cd-b8a5-41d3-88ec-e9648a03c7f5"},"vehicle_type_id":"4","last_reported":1746252810,"current_range_meters":17200,"station_id":"ce4bhm92rcd13ifvqglg","pricing_plan_id":"cebpf4jnsgd1na2vs0mg"},{"bike_id":"4361e22f-d218-4d30-b3b6-53e44735b0fe","system_id":"levelo_inurba_marseille","lat":43.29768,"lon":5.38126,"is_reserved":false,"is_disabled":true,"rental_uris":{"android":"levelo://app?vid=4361e22f-d218-4d30-b3b6-53e44735b0fe","ios":"levelo://app?vid=4361e22f-d218-4d30-b3b6-53e44735b0fe"},"vehicle_type_id":"4","last_reported":1746252810,"current_range_meters":17600,"station_id":"ce4bgip2rcd13ifvqbb0","pricing_plan_id":"cebpf4jnsgd1na2vs0mg"},{"bike_id":"73792d1f-5126-4fa6-ae02-d3f1f02502ac","system_id":"levelo_inurba_marseille","lat":43.25088,"lon":5.39512,"is_reserved":false,"is_disabled":false,"rental_uris":{"android":"levelo://app?vid=73792d1f-5126-4fa6-ae02-d3f1f02502ac","ios":"levelo://app?vid=73792d1f-5126-4fa6-ae02-d3f1f02502ac"},"vehicle_type_id":"4","last_reported":1746252810,"current_range_meters":17600,"station_id":"ce4bhm12rcd13ifvqgkg","pricing_plan_id":"cebpf4jnsgd1na2vs0mg"},{"bike_id":"a8f57f2b-dc8a-40c9-9d19-a8c7c5f83310","system_id":"levelo_inurba_marseille","lat":43.26949,"lon":5.40281,"is_reserved":false,"is_disabled":true,"rental_uris":{"android":"levelo://app?vid=a8f57f2b-dc8a-40c9-9d19-a8c7c5f83310","ios":"levelo://app?vid=a8f57f2b-dc8a-40c9-9d19-a8c7c5f83310"},"vehicle_type_id":"4","last_reported":1746252810,"current_range_meters":17600,"station_id":"cjm6bp8fraef2m0cb0m0","pricing_plan_id":"cebpf4jnsgd1na2vs0mg"},{"bike_id":"50a4a43d-df2a-41e1-955b-499d1f49c2b2","system_id":"levelo_inurba_marseille","lat":43.243912,"lon":5.370689,"is_reserved":false,"is_disabled":true,"rental_uris":{"android":"levelo://app?vid=50a4a43d-df2a-41e1-955b-499d1f49c2b2","ios":"levelo://app?vid=50a4a43d-df2a-41e1-955b-499d1f49c2b2"},"vehicle_type_id":"4","last_reported":1746252810,"current_range_meters":17600,"station_id":"ce4bhhh2rcd13ifvqfk0","pricing_plan_id":"cebpf4jnsgd1na2vs0mg"},{"bike_id":"764745f4-22f3-4d3f-9ccf-0bef40653811","system_id":"levelo_inurba_marseille","lat":43.30806,"lon":5.37243,"is_reserved":false,"is_disabled":false,"rental_uris":{"android":"levelo://app?vid=764745f4-22f3-4d3f-9ccf-0bef40653811","ios":"levelo://app?vid=764745f4-22f3-4d3f-9ccf-0bef40653811"},"vehicle_type_id":"4","last_reported":1746252810,"current_range_meters":17600,"station_id":"","pricing_plan_id":"cebpf4jnsgd1na2vs0mg"},{"bike_id":"4fd57909-8260-462c-adea-94e67f7a5406","system_id":"levelo_inurba_marseille","lat":43.31059,"lon":5.38337,"is_reserved":false,"is_disabled":false,"rental_uris":{"android":"levelo://app?vid=4fd57909-8260-462c-adea-94e67f7a5406","ios":"levelo://app?vid=4fd57909-8260-462c-adea-94e67f7a5406"},"vehicle_type_id":"4","last_reported":1746252810,"current_range_meters":17600,"station_id":"ce4bgv92rcd13ifvqcr0","pricing_plan_id":"cebpf4jnsgd1na2vs0mg"},{"bike_id":"50980193-b42c-4f27-acef-93e856756aaa","system_id":"levelo_inurba_marseille","lat":43.33774,"lon":5.37444,"is_reserved":false,"is_disabled":false,"rental_uris":{"android":"levelo://app?vid=50980193-b42c-4f27-acef-93e856756aaa","ios":"levelo://app?vid=50980193-b42c-4f27-acef-93e856756aaa"},"vehicle_type_id":"4","last_reported":1746252810,"current_range_meters":17600,"station_id":"","pricing_plan_id":"cebpf4jnsgd1na2vs0mg"},{"bike_id":"383a9fec-74e2-4a49-b93b-c40bae44d5fc","system_id":"levelo_inurba_marseille","lat":43.30258,"lon":5.40061,"is_reserved":false,"is_disabled":false,"rental_uris":{"android":"levelo://app?vid=383a9fec-74e2-4a49-b93b-c40bae44d5fc","ios":"levelo://app?vid=383a9fec-74e2-4a49-b93b-c40bae44d5fc"},"vehicle_type_id":"4","last_reported":1746252810,"current_range_meters":18000,"station_id":"ce4bgvh2rcd13ifvqcs0","pricing_plan_id":"cebpf4jnsgd1na2vs0mg"},{"bike_id":"fa1e6e10-bba1-4395-b606-d44d484fcf64","system_id":"levelo_inurba_marseille","lat":43.29612,"lon":5.37718,"is_reserved":false,"is_disabled":false,"rental_uris":{"android":"levelo://app?vid=fa1e6e10-bba1-4395-b606-d44d484fcf64","ios":"levelo://app?vid=fa1e6e10-bba1-4395-b606-d44d484fcf64"},"vehicle_type_id":"4","last_reported":1746252810,"current_range_meters":17600,"station_id":"ce4bgi92rcd13ifvqb90","pricing_plan_id":"cebpf4jnsgd1na2vs0mg"},{"bike_id":"d76bfe54-9f31-429e-b3fd-66658987c5a6","system_id":"levelo_inurba_marseille","lat":43.32261,"lon":5.36799,"is_reserved":false,"is_disabled":false,"rental_uris":{"android":"levelo://app?vid=d76bfe54-9f31-429e-b3fd-66658987c5a6","ios":"levelo://app?vid=d76bfe54-9f31-429e-b3fd-66658987c5a6"},"vehicle_type_id":"4","last_reported":1746252810,"current_range_meters":18000,"station_id":"","pricing_plan_id":"cebpf4jnsgd1na2vs0mg"},{"bike_id":"7c7bde2c-9809-462b-bb9c-d5617957fd26","system_id":"levelo_inurba_marseille","lat":43.23167,"lon":5.43723,"is_reserved":false,"is_disabled":false,"rental_uris":{"android":"levelo://app?vid=7c7bde2c-9809-462b-bb9c-d5617957fd26","ios":"levelo://app?vid=7c7bde2c-9809-462b-bb9c-d5617957fd26"},"vehicle_type_id":"4","last_reported":1746252810,"current_range_meters":18000,"station_id":"ce4bhmp2rcd13ifvqgog","pricing_plan_id":"cebpf4jnsgd1na2vs0mg"},{"bike_id":"0df7cbdc-0823-4846-ae15-f96ec53c12bc","system_id":"levelo_inurba_marseille","lat":43.311247,"lon":5.377563,"is_reserved":false,"is_disabled":false,"rental_uris":{"android":"levelo://app?vid=0df7cbdc-0823-4846-ae15-f96ec53c12bc","ios":"levelo://app?vid=0df7cbdc-0823-4846-ae15-f96ec53c12bc"},"vehicle_type_id":"4","last_reported":1746252810,"current_range_meters":18000,"station_id":"ce4bgt92rcd13ifvqcg0","pricing_plan_id":"cebpf4jnsgd1na2vs0mg"},{"bike_id":"67568f78-bd0c-4ed0-a0ee-2ef96ffd4619","system_id":"levelo_inurba_marseille","lat":43.28927,"lon":5.38395,"is_reserved":false,"is_disabled":false,"rental_uris":{"android":"levelo://app?vid=67568f78-bd0c-4ed0-a0ee-2ef96ffd4619","ios":"levelo://app?vid=67568f78-bd0c-4ed0-a0ee-2ef96ffd4619"},"vehicle_type_id":"4","last_reported":1746252810,"current_range_meters":17600,"station_id":"ce4bh612rcd13ifvqe6g","pricing_plan_id":"cebpf4jnsgd1na2vs0mg"},{"bike_id":"6cfbc31f-cb3f-496b-8922-5ee1c9d68804","system_id":"levelo_inurba_marseille","lat":43.29628,"lon":5.37732,"is_reserved":false,"is_disabled":false,"rental_uris":{"android":"levelo://app?vid=6cfbc31f-cb3f-496b-8922-5ee1c9d68804","ios":"levelo://app?vid=6cfbc31f-cb3f-496b-8922-5ee1c9d68804"},"vehicle_type_id":"4","last_reported":1746252810,"current_range_meters":18800,"station_id":"ce4bgi92rcd13ifvqb90","pricing_plan_id":"cebpf4jnsgd1na2vs0mg"},{"bike_id":"387e9413-883e-4327-8f1c-8ab11f52136f","system_id":"levelo_inurba_marseille","lat":43.286535,"lon":5.363543,"is_reserved":false,"is_disabled":true,"rental_uris":{"android":"levelo://app?vid=387e9413-883e-4327-8f1c-8ab11f52136f","ios":"levelo://app?vid=387e9413-883e-4327-8f1c-8ab11f52136f"},"vehicle_type_id":"4","last_reported":1746252810,"current_range_meters":18000,"station_id":"ce4bhah2rcd13ifvqej0","pricing_plan_id":"cebpf4jnsgd1na2vs0mg"},{"bike_id":"e34680cc-effe-4b28-bc4e-568a66cdf076","system_id":"levelo_inurba_marseille","lat":43.277041,"lon":5.419725,"is_reserved":false,"is_disabled":false,"rental_uris":{"android":"levelo://app?vid=e34680cc-effe-4b28-bc4e-568a66cdf076","ios":"levelo://app?vid=e34680cc-effe-4b28-bc4e-568a66cdf076"},"vehicle_type_id":"4","last_reported":1746252810,"current_range_meters":18800,"station_id":"","pricing_plan_id":"cebpf4jnsgd1na2vs0mg"},{"bike_id":"eaadb78f-0516-400e-a932-418372f4ca70","system_id":"levelo_inurba_marseille","lat":43.30414,"lon":5.412858,"is_reserved":false,"is_disabled":true,"rental_uris":{"android":"levelo://app?vid=eaadb78f-0516-400e-a932-418372f4ca70","ios":"levelo://app?vid=eaadb78f-0516-400e-a932-418372f4ca70"},"vehicle_type_id":"4","last_reported":1746252810,"current_range_meters":18800,"station_id":"ce4bhop2rcd13ifvqh8g","pricing_plan_id":"cebpf4jnsgd1na2vs0mg"},{"bike_id":"e2536174-281d-40a3-a28d-e1e8c6e1cab2","system_id":"levelo_inurba_marseille","lat":43.3135,"lon":5.36743,"is_reserved":false,"is_disabled":false,"rental_uris":{"android":"levelo://app?vid=e2536174-281d-40a3-a28d-e1e8c6e1cab2","ios":"levelo://app?vid=e2536174-281d-40a3-a28d-e1e8c6e1cab2"},"vehicle_type_id":"4","last_reported":1746252810,"current_range_meters":18800,"station_id":"ce4bgr92rcd13ifvqc6g","pricing_plan_id":"cebpf4jnsgd1na2vs0mg"},{"bike_id":"be58ce8b-41be-4406-96e6-d94ff951d7a0","system_id":"levelo_inurba_marseille","lat":43.25719,"lon":5.4111,"is_reserved":false,"is_disabled":true,"rental_uris":{"android":"levelo://app?vid=be58ce8b-41be-4406-96e6-d94ff951d7a0","ios":"levelo://app?vid=be58ce8b-41be-4406-96e6-d94ff951d7a0"},"vehicle_type_id":"4","last_reported":1746252810,"current_range_meters":18800,"station_id":"ce4bhkp2rcd13ifvqgd0","pricing_plan_id":"cebpf4jnsgd1na2vs0mg"},{"bike_id":"84815f9f-2a77-439e-b1f6-88d62a26510f","system_id":"levelo_inurba_marseille","lat":43.2319,"lon":5.4001,"is_reserved":false,"is_disabled":false,"rental_uris":{"android":"levelo://app?vid=84815f9f-2a77-439e-b1f6-88d62a26510f","ios":"levelo://app?vid=84815f9f-2a77-439e-b1f6-88d62a26510f"},"vehicle_type_id":"4","last_reported":1746252810,"current_range_meters":18800,"station_id":"ce4bhn12rcd13ifvqgqg","pricing_plan_id":"cebpf4jnsgd1na2vs0mg"},{"bike_id":"ec6da0aa-0845-4bad-8a7b-8655154f5109","system_id":"levelo_inurba_marseille","lat":43.30787,"lon":5.43538,"is_reserved":false,"is_disabled":false,"rental_uris":{"android":"levelo://app?vid=ec6da0aa-0845-4bad-8a7b-8655154f5109","ios":"levelo://app?vid=ec6da0aa-0845-4bad-8a7b-8655154f5109"},"vehicle_type_id":"4","last_reported":1746252810,"current_range_meters":18800,"station_id":"ce4bhph2rcd13ifvqheg","pricing_plan_id":"cebpf4jnsgd1na2vs0mg"},{"bike_id":"bc094017-5656-40be-919e-5e0cc48c39ce","system_id":"levelo_inurba_marseille","lat":43.23146,"lon":5.43722,"is_reserved":false,"is_disabled":false,"rental_uris":{"android":"levelo://app?vid=bc094017-5656-40be-919e-5e0cc48c39ce","ios":"levelo://app?vid=bc094017-5656-40be-919e-5e0cc48c39ce"},"vehicle_type_id":"4","last_reported":1746252810,"current_range_meters":18800,"station_id":"ce4bhmp2rcd13ifvqgog","pricing_plan_id":"cebpf4jnsgd1na2vs0mg"},{"bike_id":"bc001080-a241-4df9-9258-794a1186b1b9","system_id":"levelo_inurba_marseille","lat":43.28419,"lon":5.37526,"is_reserved":false,"is_disabled":false,"rental_uris":{"android":"levelo://app?vid=bc001080-a241-4df9-9258-794a1186b1b9","ios":"levelo://app?vid=bc001080-a241-4df9-9258-794a1186b1b9"},"vehicle_type_id":"4","last_reported":1746252810,"current_range_meters":18800,"station_id":"ce4bh412rcd13ifvqds0","pricing_plan_id":"cebpf4jnsgd1na2vs0mg"},{"bike_id":"2cd00fa1-aa9b-4b46-86ba-129fb9364ad2","system_id":"levelo_inurba_marseille","lat":43.23147,"lon":5.43719,"is_reserved":false,"is_disabled":false,"rental_uris":{"android":"levelo://app?vid=2cd00fa1-aa9b-4b46-86ba-129fb9364ad2","ios":"levelo://app?vid=2cd00fa1-aa9b-4b46-86ba-129fb9364ad2"},"vehicle_type_id":"4","last_reported":1746252810,"current_range_meters":19200,"station_id":"ce4bhmp2rcd13ifvqgog","pricing_plan_id":"cebpf4jnsgd1na2vs0mg"},{"bike_id":"93bff410-b448-4e28-975b-d8631f652a97","system_id":"levelo_inurba_marseille","lat":43.2857,"lon":5.39527,"is_reserved":false,"is_disabled":false,"rental_uris":{"android":"levelo://app?vid=93bff410-b448-4e28-975b-d8631f652a97","ios":"levelo://app?vid=93bff410-b448-4e28-975b-d8631f652a97"},"vehicle_type_id":"4","last_reported":1746252810,"current_range_meters":19200,"station_id":"ce4bh292rcd13ifvqdg0","pricing_plan_id":"cebpf4jnsgd1na2vs0mg"},{"bike_id":"738c1866-618f-4b1a-95a6-d414f59abcb2","system_id":"levelo_inurba_marseille","lat":43.29084,"lon":5.38178,"is_reserved":false,"is_disabled":true,"rental_uris":{"android":"levelo://app?vid=738c1866-618f-4b1a-95a6-d414f59abcb2","ios":"levelo://app?vid=738c1866-618f-4b1a-95a6-d414f59abcb2"},"vehicle_type_id":"4","last_reported":1746252810,"current_range_meters":19200,"station_id":"ce4bh512rcd13ifvqe2g","pricing_plan_id":"cebpf4jnsgd1na2vs0mg"},{"bike_id":"d6a6f75b-73c3-463c-a1a6-35bbb4932dc9","system_id":"levelo_inurba_marseille","lat":43.27492,"lon":5.42462,"is_reserved":false,"is_disabled":false,"rental_uris":{"android":"levelo://app?vid=d6a6f75b-73c3-463c-a1a6-35bbb4932dc9","ios":"levelo://app?vid=d6a6f75b-73c3-463c-a1a6-35bbb4932dc9"},"vehicle_type_id":"4","last_reported":1746252810,"current_range_meters":19200,"station_id":"ce4bhn92rcd13ifvqgrg","pricing_plan_id":"cebpf4jnsgd1na2vs0mg"},{"bike_id":"5696abf1-193c-4d00-9f52-cdbdf3bb978e","system_id":"levelo_inurba_marseille","lat":43.30952,"lon":5.39047,"is_reserved":false,"is_disabled":true,"rental_uris":{"android":"levelo://app?vid=5696abf1-193c-4d00-9f52-cdbdf3bb978e","ios":"levelo://app?vid=5696abf1-193c-4d00-9f52-cdbdf3bb978e"},"vehicle_type_id":"4","last_reported":1746252810,"current_range_meters":19200,"station_id":"ce4bgup2rcd13ifvqco0","pricing_plan_id":"cebpf4jnsgd1na2vs0mg"},{"bike_id":"02d5d9fb-d158-4625-ad65-d55e5333397f","system_id":"levelo_inurba_marseille","lat":43.280323,"lon":5.369449,"is_reserved":false,"is_disabled":false,"rental_uris":{"android":"levelo://app?vid=02d5d9fb-d158-4625-ad65-d55e5333397f","ios":"levelo://app?vid=02d5d9fb-d158-4625-ad65-d55e5333397f"},"vehicle_type_id":"4","last_reported":1746252810,"current_range_meters":19200,"station_id":"ce4bha12rcd13ifvqef0","pricing_plan_id":"cebpf4jnsgd1na2vs0mg"},{"bike_id":"c8e16fcb-5510-4723-b6e7-2aa49c1b3b8d","system_id":"levelo_inurba_marseille","lat":43.31943,"lon":5.37054,"is_reserved":false,"is_disabled":false,"rental_uris":{"android":"levelo://app?vid=c8e16fcb-5510-4723-b6e7-2aa49c1b3b8d","ios":"levelo://app?vid=c8e16fcb-5510-4723-b6e7-2aa49c1b3b8d"},"vehicle_type_id":"4","last_reported":1746252810,"current_range_meters":19200,"station_id":"","pricing_plan_id":"cebpf4jnsgd1na2vs0mg"},{"bike_id":"579a28a6-4625-4f62-88d1-c95176159279","system_id":"levelo_inurba_marseille","lat":43.29263,"lon":5.38437,"is_reserved":false,"is_disabled":false,"rental_uris":{"android":"levelo://app?vid=579a28a6-4625-4f62-88d1-c95176159279","ios":"levelo://app?vid=579a28a6-4625-4f62-88d1-c95176159279"},"vehicle_type_id":"4","last_reported":1746252810,"current_range_meters":18800,"station_id":"ce4bh692rcd13ifvqea0","pricing_plan_id":"cebpf4jnsgd1na2vs0mg"},{"bike_id":"e6ab7897-451c-43d0-bb46-1465c18cb411","system_id":"levelo_inurba_marseille","lat":43.29252,"lon":5.38437,"is_reserved":false,"is_disabled":true,"rental_uris":{"android":"levelo://app?vid=e6ab7897-451c-43d0-bb46-1465c18cb411","ios":"levelo://app?vid=e6ab7897-451c-43d0-bb46-1465c18cb411"},"vehicle_type_id":"4","last_reported":1746252810,"current_range_meters":19200,"station_id":"ce4bh692rcd13ifvqea0","pricing_plan_id":"cebpf4jnsgd1na2vs0mg"},{"bike_id":"f3c642e6-2df8-4435-9b4e-9c4d30828a61","system_id":"levelo_inurba_marseille","lat":43.28357,"lon":5.38104,"is_reserved":false,"is_disabled":false,"rental_uris":{"android":"levelo://app?vid=f3c642e6-2df8-4435-9b4e-9c4d30828a61","ios":"levelo://app?vid=f3c642e6-2df8-4435-9b4e-9c4d30828a61"},"vehicle_type_id":"4","last_reported":1746252810,"current_range_meters":19600,"station_id":"ce4bh412rcd13ifvqdr0","pricing_plan_id":"cebpf4jnsgd1na2vs0mg"},{"bike_id":"86d62c02-c284-426f-a03d-dae63637d3bb","system_id":"levelo_inurba_marseille","lat":43.27209,"lon":5.39184,"is_reserved":false,"is_disabled":false,"rental_uris":{"android":"levelo://app?vid=86d62c02-c284-426f-a03d-dae63637d3bb","ios":"levelo://app?vid=86d62c02-c284-426f-a03d-dae63637d3bb"},"vehicle_type_id":"4","last_reported":1746252810,"current_range_meters":19200,"station_id":"ce4bhhp2rcd13ifvqfm0","pricing_plan_id":"cebpf4jnsgd1na2vs0mg"},{"bike_id":"8ee0b0b6-1252-465c-b8fb-724a4b24c7c7","system_id":"levelo_inurba_marseille","lat":43.307765,"lon":5.376572,"is_reserved":false,"is_disabled":true,"rental_uris":{"android":"levelo://app?vid=8ee0b0b6-1252-465c-b8fb-724a4b24c7c7","ios":"levelo://app?vid=8ee0b0b6-1252-465c-b8fb-724a4b24c7c7"},"vehicle_type_id":"4","last_reported":1746252810,"current_range_meters":19600,"station_id":"","pricing_plan_id":"cebpf4jnsgd1na2vs0mg"},{"bike_id":"66b8fc62-d5c9-4106-b7c0-1a686c2a706c","system_id":"levelo_inurba_marseille","lat":43.34157,"lon":5.4096,"is_reserved":false,"is_disabled":false,"rental_uris":{"android":"levelo://app?vid=66b8fc62-d5c9-4106-b7c0-1a686c2a706c","ios":"levelo://app?vid=66b8fc62-d5c9-4106-b7c0-1a686c2a706c"},"vehicle_type_id":"4","last_reported":1746252810,"current_range_meters":19600,"station_id":"ce4bhqh2rcd13ifvqhlg","pricing_plan_id":"cebpf4jnsgd1na2vs0mg"},{"bike_id":"e48facf2-cd80-422d-936a-277d567d7555","system_id":"levelo_inurba_marseille","lat":43.28618,"lon":5.35104,"is_reserved":false,"is_disabled":true,"rental_uris":{"android":"levelo://app?vid=e48facf2-cd80-422d-936a-277d567d7555","ios":"levelo://app?vid=e48facf2-cd80-422d-936a-277d567d7555"},"vehicle_type_id":"4","last_reported":1746252810,"current_range_meters":19600,"station_id":"ce4bhch2rcd13ifvqeug","pricing_plan_id":"cebpf4jnsgd1na2vs0mg"},{"bike_id":"8d61aad8-d7b2-4fb7-92ec-cd45e88e0c99","system_id":"levelo_inurba_marseille","lat":43.3304,"lon":5.39041,"is_reserved":false,"is_disabled":true,"rental_uris":{"android":"levelo://app?vid=8d61aad8-d7b2-4fb7-92ec-cd45e88e0c99","ios":"levelo://app?vid=8d61aad8-d7b2-4fb7-92ec-cd45e88e0c99"},"vehicle_type_id":"4","last_reported":1746252810,"current_range_meters":19600,"station_id":"ce4bhr92rcd13ifvqhrg","pricing_plan_id":"cebpf4jnsgd1na2vs0mg"},{"bike_id":"c0f19189-dc1a-488b-9b6d-d969d2a90cdb","system_id":"levelo_inurba_marseille","lat":43.307999,"lon":5.381601,"is_reserved":false,"is_disabled":false,"rental_uris":{"android":"levelo://app?vid=c0f19189-dc1a-488b-9b6d-d969d2a90cdb","ios":"levelo://app?vid=c0f19189-dc1a-488b-9b6d-d969d2a90cdb"},"vehicle_type_id":"4","last_reported":1746252810,"current_range_meters":19600,"station_id":"ce4bgt12rcd13ifvqce0","pricing_plan_id":"cebpf4jnsgd1na2vs0mg"},{"bike_id":"1a877ed8-aa67-486c-a34b-30e006e67ea0","system_id":"levelo_inurba_marseille","lat":43.285047,"lon":5.380367,"is_reserved":false,"is_disabled":false,"rental_uris":{"android":"levelo://app?vid=1a877ed8-aa67-486c-a34b-30e006e67ea0","ios":"levelo://app?vid=1a877ed8-aa67-486c-a34b-30e006e67ea0"},"vehicle_type_id":"4","last_reported":1746252810,"current_range_meters":19600,"station_id":"","pricing_plan_id":"cebpf4jnsgd1na2vs0mg"},{"bike_id":"346796c8-e979-4d5e-8fb4-5a13331d58b9","system_id":"levelo_inurba_marseille","lat":43.2903,"lon":5.39968,"is_reserved":false,"is_disabled":false,"rental_uris":{"android":"levelo://app?vid=346796c8-e979-4d5e-8fb4-5a13331d58b9","ios":"levelo://app?vid=346796c8-e979-4d5e-8fb4-5a13331d58b9"},"vehicle_type_id":"4","last_reported":1746252810,"current_range_meters":20000,"station_id":"ce4bh392rcd13ifvqdm0","pricing_plan_id":"cebpf4jnsgd1na2vs0mg"},{"bike_id":"a68c08d3-58cd-4ce8-8b4f-84b7dd7de72b","system_id":"levelo_inurba_marseille","lat":43.23796,"lon":5.38687,"is_reserved":false,"is_disabled":false,"rental_uris":{"android":"levelo://app?vid=a68c08d3-58cd-4ce8-8b4f-84b7dd7de72b","ios":"levelo://app?vid=a68c08d3-58cd-4ce8-8b4f-84b7dd7de72b"},"vehicle_type_id":"4","last_reported":1746252810,"current_range_meters":20000,"station_id":"","pricing_plan_id":"cebpf4jnsgd1na2vs0mg"},{"bike_id":"7f61457f-a8bd-43bb-93a3-252837b6e6b4","system_id":"levelo_inurba_marseille","lat":43.27498,"lon":5.42456,"is_reserved":false,"is_disabled":false,"rental_uris":{"android":"levelo://app?vid=7f61457f-a8bd-43bb-93a3-252837b6e6b4","ios":"levelo://app?vid=7f61457f-a8bd-43bb-93a3-252837b6e6b4"},"vehicle_type_id":"4","last_reported":1746252810,"current_range_meters":20000,"station_id":"ce4bhn92rcd13ifvqgrg","pricing_plan_id":"cebpf4jnsgd1na2vs0mg"},{"bike_id":"49089dd8-175f-4d2a-8c6a-503408468c11","system_id":"levelo_inurba_marseille","lat":43.30157,"lon":5.38084,"is_reserved":false,"is_disabled":false,"rental_uris":{"android":"levelo://app?vid=49089dd8-175f-4d2a-8c6a-503408468c11","ios":"levelo://app?vid=49089dd8-175f-4d2a-8c6a-503408468c11"},"vehicle_type_id":"4","last_reported":1746252810,"current_range_meters":19600,"station_id":"ce4bgjp2rcd13ifvqbh0","pricing_plan_id":"cebpf4jnsgd1na2vs0mg"},{"bike_id":"2e479d0e-4abf-498d-9928-4eda7217128f","system_id":"levelo_inurba_marseille","lat":43.27059,"lon":5.40269,"is_reserved":false,"is_disabled":false,"rental_uris":{"android":"levelo://app?vid=2e479d0e-4abf-498d-9928-4eda7217128f","ios":"levelo://app?vid=2e479d0e-4abf-498d-9928-4eda7217128f"},"vehicle_type_id":"4","last_reported":1746252810,"current_range_meters":20400,"station_id":"ce4bhk92rcd13ifvqgc0","pricing_plan_id":"cebpf4jnsgd1na2vs0mg"},{"bike_id":"63f1049a-4562-459d-996c-026986e456eb","system_id":"levelo_inurba_marseille","lat":43.3108,"lon":5.38355,"is_reserved":false,"is_disabled":false,"rental_uris":{"android":"levelo://app?vid=63f1049a-4562-459d-996c-026986e456eb","ios":"levelo://app?vid=63f1049a-4562-459d-996c-026986e456eb"},"vehicle_type_id":"4","last_reported":1746252810,"current_range_meters":20400,"station_id":"ce4bgv92rcd13ifvqcr0","pricing_plan_id":"cebpf4jnsgd1na2vs0mg"},{"bike_id":"3699300a-5a2a-424f-96f5-b5854001350a","system_id":"levelo_inurba_marseille","lat":43.28384,"lon":5.38105,"is_reserved":false,"is_disabled":false,"rental_uris":{"android":"levelo://app?vid=3699300a-5a2a-424f-96f5-b5854001350a","ios":"levelo://app?vid=3699300a-5a2a-424f-96f5-b5854001350a"},"vehicle_type_id":"4","last_reported":1746252810,"current_range_meters":20400,"station_id":"ce4bh412rcd13ifvqdr0","pricing_plan_id":"cebpf4jnsgd1na2vs0mg"},{"bike_id":"ac9476d3-7dfc-4239-be66-09ee8c79e5b0","system_id":"levelo_inurba_marseille","lat":43.30872,"lon":5.39643,"is_reserved":false,"is_disabled":false,"rental_uris":{"android":"levelo://app?vid=ac9476d3-7dfc-4239-be66-09ee8c79e5b0","ios":"levelo://app?vid=ac9476d3-7dfc-4239-be66-09ee8c79e5b0"},"vehicle_type_id":"4","last_reported":1746252810,"current_range_meters":20400,"station_id":"ce4bh012rcd13ifvqcv0","pricing_plan_id":"cebpf4jnsgd1na2vs0mg"},{"bike_id":"43728abb-82d8-4960-b130-949fe0d288a5","system_id":"levelo_inurba_marseille","lat":43.30142,"lon":5.37403,"is_reserved":false,"is_disabled":false,"rental_uris":{"android":"levelo://app?vid=43728abb-82d8-4960-b130-949fe0d288a5","ios":"levelo://app?vid=43728abb-82d8-4960-b130-949fe0d288a5"},"vehicle_type_id":"4","last_reported":1746252810,"current_range_meters":20400,"station_id":"ce4bgs92rcd13ifvqcc0","pricing_plan_id":"cebpf4jnsgd1na2vs0mg"},{"bike_id":"5fb524f4-92fb-4585-b2e7-5d1799125681","system_id":"levelo_inurba_marseille","lat":43.31698,"lon":5.377704,"is_reserved":false,"is_disabled":false,"rental_uris":{"android":"levelo://app?vid=5fb524f4-92fb-4585-b2e7-5d1799125681","ios":"levelo://app?vid=5fb524f4-92fb-4585-b2e7-5d1799125681"},"vehicle_type_id":"4","last_reported":1746252810,"current_range_meters":20800,"station_id":"ce4bgth2rcd13ifvqch0","pricing_plan_id":"cebpf4jnsgd1na2vs0mg"},{"bike_id":"f1c3f8a0-09ea-4707-b136-a0a567b93a54","system_id":"levelo_inurba_marseille","lat":43.313699,"lon":5.367449,"is_reserved":false,"is_disabled":false,"rental_uris":{"android":"levelo://app?vid=f1c3f8a0-09ea-4707-b136-a0a567b93a54","ios":"levelo://app?vid=f1c3f8a0-09ea-4707-b136-a0a567b93a54"},"vehicle_type_id":"4","last_reported":1746252810,"current_range_meters":20800,"station_id":"ce4bgr92rcd13ifvqc6g","pricing_plan_id":"cebpf4jnsgd1na2vs0mg"},{"bike_id":"541e646e-53fe-424b-adcc-80d2ba34e340","system_id":"levelo_inurba_marseille","lat":43.23185,"lon":5.3998,"is_reserved":false,"is_disabled":false,"rental_uris":{"android":"levelo://app?vid=541e646e-53fe-424b-adcc-80d2ba34e340","ios":"levelo://app?vid=541e646e-53fe-424b-adcc-80d2ba34e340"},"vehicle_type_id":"4","last_reported":1746252810,"current_range_meters":20800,"station_id":"ce4bhn12rcd13ifvqgqg","pricing_plan_id":"cebpf4jnsgd1na2vs0mg"},{"bike_id":"72688617-9135-42da-8793-e5a91040f395","system_id":"levelo_inurba_marseille","lat":43.21709,"lon":5.34643,"is_reserved":false,"is_disabled":false,"rental_uris":{"android":"levelo://app?vid=72688617-9135-42da-8793-e5a91040f395","ios":"levelo://app?vid=72688617-9135-42da-8793-e5a91040f395"},"vehicle_type_id":"4","last_reported":1746252810,"current_range_meters":21600,"station_id":"st_cvj6r9ubvosntc0bgbag","pricing_plan_id":"cebpf4jnsgd1na2vs0mg"},{"bike_id":"fe83efe1-4ee5-463d-a220-bf06eecb1344","system_id":"levelo_inurba_marseille","lat":43.28613,"lon":5.351019,"is_reserved":false,"is_disabled":true,"rental_uris":{"android":"levelo://app?vid=fe83efe1-4ee5-463d-a220-bf06eecb1344","ios":"levelo://app?vid=fe83efe1-4ee5-463d-a220-bf06eecb1344"},"vehicle_type_id":"4","last_reported":1746252810,"current_range_meters":21600,"station_id":"ce4bhh12rcd13ifvqff0","pricing_plan_id":"cebpf4jnsgd1na2vs0mg"},{"bike_id":"249dbb21-dfe4-4dd5-9e8c-27a5d98cb11a","system_id":"levelo_inurba_marseille","lat":43.3107,"lon":5.3835,"is_reserved":false,"is_disabled":false,"rental_uris":{"android":"levelo://app?vid=249dbb21-dfe4-4dd5-9e8c-27a5d98cb11a","ios":"levelo://app?vid=249dbb21-dfe4-4dd5-9e8c-27a5d98cb11a"},"vehicle_type_id":"4","last_reported":1746252810,"current_range_meters":21600,"station_id":"ce4bgv92rcd13ifvqcr0","pricing_plan_id":"cebpf4jnsgd1na2vs0mg"},{"bike_id":"c9e18556-ba6e-41fb-8567-3cec48f71bfd","system_id":"levelo_inurba_marseille","lat":43.30156,"lon":5.39454,"is_reserved":false,"is_disabled":false,"rental_uris":{"android":"levelo://app?vid=c9e18556-ba6e-41fb-8567-3cec48f71bfd","ios":"levelo://app?vid=c9e18556-ba6e-41fb-8567-3cec48f71bfd"},"vehicle_type_id":"4","last_reported":1746252810,"current_range_meters":21600,"station_id":"","pricing_plan_id":"cebpf4jnsgd1na2vs0mg"},{"bike_id":"3215a9bf-f32d-43dd-8c6b-d6b140259966","system_id":"levelo_inurba_marseille","lat":43.2988,"lon":5.389,"is_reserved":false,"is_disabled":false,"rental_uris":{"android":"levelo://app?vid=3215a9bf-f32d-43dd-8c6b-d6b140259966","ios":"levelo://app?vid=3215a9bf-f32d-43dd-8c6b-d6b140259966"},"vehicle_type_id":"4","last_reported":1746252810,"current_range_meters":20800,"station_id":"ce4bh392rcd13ifvqdl0","pricing_plan_id":"cebpf4jnsgd1na2vs0mg"},{"bike_id":"d2450fa2-eb02-4667-8398-67924a1ec99e","system_id":"levelo_inurba_marseille","lat":43.31701,"lon":5.43715,"is_reserved":false,"is_disabled":false,"rental_uris":{"android":"levelo://app?vid=d2450fa2-eb02-4667-8398-67924a1ec99e","ios":"levelo://app?vid=d2450fa2-eb02-4667-8398-67924a1ec99e"},"vehicle_type_id":"4","last_reported":1746252810,"current_range_meters":21600,"station_id":"ce4bhp92rcd13ifvqhcg","pricing_plan_id":"cebpf4jnsgd1na2vs0mg"},{"bike_id":"899f1c13-7008-4f05-81eb-05e3064d591d","system_id":"levelo_inurba_marseille","lat":43.285078,"lon":5.350517,"is_reserved":false,"is_disabled":false,"rental_uris":{"android":"levelo://app?vid=899f1c13-7008-4f05-81eb-05e3064d591d","ios":"levelo://app?vid=899f1c13-7008-4f05-81eb-05e3064d591d"},"vehicle_type_id":"4","last_reported":1746252810,"current_range_meters":21600,"station_id":"","pricing_plan_id":"cebpf4jnsgd1na2vs0mg"},{"bike_id":"0f9a2cd7-e6db-49af-b6da-66947cc0c4c9","system_id":"levelo_inurba_marseille","lat":43.310734,"lon":5.383543,"is_reserved":false,"is_disabled":false,"rental_uris":{"android":"levelo://app?vid=0f9a2cd7-e6db-49af-b6da-66947cc0c4c9","ios":"levelo://app?vid=0f9a2cd7-e6db-49af-b6da-66947cc0c4c9"},"vehicle_type_id":"4","last_reported":1746252810,"current_range_meters":22000,"station_id":"ce4bgv92rcd13ifvqcr0","pricing_plan_id":"cebpf4jnsgd1na2vs0mg"},{"bike_id":"b88ae174-afc3-4eae-837c-b7397ded4872","system_id":"levelo_inurba_marseille","lat":43.295233,"lon":5.37504,"is_reserved":false,"is_disabled":true,"rental_uris":{"android":"levelo://app?vid=b88ae174-afc3-4eae-837c-b7397ded4872","ios":"levelo://app?vid=b88ae174-afc3-4eae-837c-b7397ded4872"},"vehicle_type_id":"4","last_reported":1746252810,"current_range_meters":22000,"station_id":"ce4bgkp2rcd13ifvqbmg","pricing_plan_id":"cebpf4jnsgd1na2vs0mg"},{"bike_id":"40870fc2-5254-446b-bf84-6c348a6e1e54","system_id":"levelo_inurba_marseille","lat":43.28744,"lon":5.37398,"is_reserved":false,"is_disabled":false,"rental_uris":{"android":"levelo://app?vid=40870fc2-5254-446b-bf84-6c348a6e1e54","ios":"levelo://app?vid=40870fc2-5254-446b-bf84-6c348a6e1e54"},"vehicle_type_id":"4","last_reported":1746252810,"current_range_meters":22000,"station_id":"","pricing_plan_id":"cebpf4jnsgd1na2vs0mg"},{"bike_id":"194260aa-f607-4047-b80a-7878e85c0481","system_id":"levelo_inurba_marseille","lat":43.320003,"lon":5.3816,"is_reserved":false,"is_disabled":false,"rental_uris":{"android":"levelo://app?vid=194260aa-f607-4047-b80a-7878e85c0481","ios":"levelo://app?vid=194260aa-f607-4047-b80a-7878e85c0481"},"vehicle_type_id":"4","last_reported":1746252810,"current_range_meters":22000,"station_id":"ce4bhr12rcd13ifvqhpg","pricing_plan_id":"cebpf4jnsgd1na2vs0mg"},{"bike_id":"14b16b4c-a19e-48c4-a071-1b39e2445a40","system_id":"levelo_inurba_marseille","lat":43.23961,"lon":5.36642,"is_reserved":false,"is_disabled":false,"rental_uris":{"android":"levelo://app?vid=14b16b4c-a19e-48c4-a071-1b39e2445a40","ios":"levelo://app?vid=14b16b4c-a19e-48c4-a071-1b39e2445a40"},"vehicle_type_id":"4","last_reported":1746252810,"current_range_meters":22000,"station_id":"ce4bhi12rcd13ifvqfp0","pricing_plan_id":"cebpf4jnsgd1na2vs0mg"},{"bike_id":"e9b63bcd-cdb5-484b-9aab-8a2d553e89e4","system_id":"levelo_inurba_marseille","lat":43.2906,"lon":5.37164,"is_reserved":false,"is_disabled":false,"rental_uris":{"android":"levelo://app?vid=e9b63bcd-cdb5-484b-9aab-8a2d553e89e4","ios":"levelo://app?vid=e9b63bcd-cdb5-484b-9aab-8a2d553e89e4"},"vehicle_type_id":"4","last_reported":1746252810,"current_range_meters":22400,"station_id":"ce4bh5p2rcd13ifvqe4g","pricing_plan_id":"cebpf4jnsgd1na2vs0mg"},{"bike_id":"cbe9032b-ff18-4bb1-b940-bde7497ff44e","system_id":"levelo_inurba_marseille","lat":43.30364,"lon":5.42491,"is_reserved":false,"is_disabled":true,"rental_uris":{"android":"levelo://app?vid=cbe9032b-ff18-4bb1-b940-bde7497ff44e","ios":"levelo://app?vid=cbe9032b-ff18-4bb1-b940-bde7497ff44e"},"vehicle_type_id":"4","last_reported":1746252810,"current_range_meters":22400,"station_id":"ce4bhoh2rcd13ifvqh6g","pricing_plan_id":"cebpf4jnsgd1na2vs0mg"},{"bike_id":"730e3c9f-f6e8-4137-b97a-a7ed4689459f","system_id":"levelo_inurba_marseille","lat":43.29281,"lon":5.40167,"is_reserved":false,"is_disabled":false,"rental_uris":{"android":"levelo://app?vid=730e3c9f-f6e8-4137-b97a-a7ed4689459f","ios":"levelo://app?vid=730e3c9f-f6e8-4137-b97a-a7ed4689459f"},"vehicle_type_id":"4","last_reported":1746252810,"current_range_meters":22400,"station_id":"ce4bh312rcd13ifvqdk0","pricing_plan_id":"cebpf4jnsgd1na2vs0mg"},