{"last_updated":1734469663,"ttl":60,"version":"2.2","data":{"bikes":[{"bike_id":"b4867eb7-76a2-41ec-b1ac-37dc322b3d24","system_id":"levelo_inurba_marseille","lat":43.29554,"lon":5.37512,"is_reserved":false,"is_disabled":false,"rental_uris":{"android":"levelo://app?vid=b4867eb7-76a2-41ec-b1ac-37dc322b3d24","ios":"levelo://app?vid=b4867eb7-76a2-41ec-b1ac-37dc322b3d24"},"vehicle_type_id":"4","last_reported":1734469663,"current_range_meters":35600,"station_id":"","pricing_plan_id":"cebpf4jnsgd1na2vs0mg"},{"bike_id":"2d6fa412-1e04-4f1e-bdf5-0af7e9849c28","system_id":"levelo_inurba_marseille","lat":43.29566,"lon":5.39976,"is_reserved":false,"is_disabled":false,"rental_uris":{"android":"levelo://app?vid=2d6fa412-1e04-4f1e-bdf5-0af7e9849c28","ios":"levelo://app?vid=2d6fa412-1e04-4f1e-bdf5-0af7e9849c28"},"vehicle_type_id":"4","last_reported":1734469663,"current_range_meters":11200,"station_id":"ce4bh312rcd13ifvqdj0","pricing_plan_id":"cebpf4jnsgd1na2vs0mg"},{"bike_id":"6e2cce5a-7603-4843-a252-616f12793bbd","system_id":"levelo_inurba_marseille","lat":43.3108,"lon":5.42431,"is_reserved":false,"is_disabled":false,"rental_uris":{"android":"levelo://app?vid=6e2cce5a-7603-4843-a252-616f12793bbd","ios":"levelo://app?vid=6e2cce5a-7603-4843-a252-616f12793bbd"},"vehicle_type_id":"4","last_reported":1734469663,"current_range_meters":14000,"station_id":"ce4bhp92rcd13ifvqhag","pricing_plan_id":"cebpf4jnsgd1na2vs0mg"},{"bike_id":"360c8721-12eb-4735-ac2d-4c0d0142f8ed","system_id":"levelo_inurba_marseille","lat":43.30429,"lon":5.39763,"is_reserved":false,"is_disabled":false,"rental_uris":{"android":"levelo://app?vid=360c8721-12eb-4735-ac2d-4c0d0142f8ed","ios":"levelo://app?vid=360c8721-12eb-4735-ac2d-4c0d0142f8ed"},"vehicle_type_id":"4","last_reported":1734469663,"current_range_meters":12000,"station_id":"ce4bh092rcd13ifvqd20","pricing_plan_id":"cebpf4jnsgd1na2vs0mg"},{"bike_id":"df99d8de-50f7-4deb-b58a-cb5175498e3a","system_id":"levelo_inurba_marseille","lat":43.2804,"lon":5.36949,"is_reserved":false,"is_disabled":false,"rental_uris":{"android":"levelo://app?vid=df99d8de-50f7-4deb-b58a-cb5175498e3a","ios":"levelo://app?vid=df99d8de-50f7-4deb-b58a-cb5175498e3a"},"vehicle_type_id":"4","last_reported":1734469663,"current_range_meters":28400,"station_id":"ce4bha12rcd13ifvqef0","pricing_plan_id":"cebpf4jnsgd1na2vs0mg"},{"bike_id":"fc2fa04a-e722-4371-8749-69685a4b0890","system_id":"levelo_inurba_marseille","lat":43.25589,"lon":5.38229,"is_reserved":false,"is_disabled":false,"rental_uris":{"android":"levelo://app?vid=fc2fa04a-e722-4371-8749-69685a4b0890","ios":"levelo://app?vid=fc2fa04a-e722-4371-8749-69685a4b0890"},"vehicle_type_id":"4","last_reported":1734469663,"current_range_meters":29600,"station_id":"ce4bhih2rcd13ifvqfs0","pricing_plan_id":"cebpf4jnsgd1na2vs0mg"},{"bike_id":"4847e741-e962-4525-a813-1f8c3253c2aa","system_id":"levelo_inurba_marseille","lat":43.30638,"lon":5.40091,"is_reserved":false,"is_disabled":false,"rental_uris":{"android":"levelo://app?vid=4847e741-e962-4525-a813-1f8c3253c2aa","ios":"levelo://app?vid=4847e741-e962-4525-a813-1f8c3253c2aa"},"vehicle_type_id":"4","last_reported":1734469663,"current_range_meters":22400,"station_id":"ce4bh112rcd13ifvqda0","pricing_plan_id":"cebpf4jnsgd1na2vs0mg"},{"bike_id":"b1b1f756-c1a0-4e66-8530-9c85602c1813","system_id":"levelo_inurba_marseille","lat":43.323568,"lon":5.367472,"is_reserved":false,"is_disabled":false,"rental_uris":{"android":"levelo://app?vid=b1b1f756-c1a0-4e66-8530-9c85602c1813","ios":"levelo://app?vid=b1b1f756-c1a0-4e66-8530-9c85602c1813"},"vehicle_type_id":"4","last_reported":1734469663,"current_range_meters":22400,"station_id":"ce4bhsh2rcd13ifvqi2g","pricing_plan_id":"cebpf4jnsgd1na2vs0mg"},{"bike_id":"4499e5cb-e9c9-497a-8545-66527ad733fe","system_id":"levelo_inurba_marseille","lat":43.29881,"lon":5.38907,"is_reserved":false,"is_disabled":false,"rental_uris":{"android":"levelo://app?vid=4499e5cb-e9c9-497a-8545-66527ad733fe","ios":"levelo://app?vid=4499e5cb-e9c9-497a-8545-66527ad733fe"},"vehicle_type_id":"4","last_reported":1734469663,"current_range_meters":9600,"station_id":"ce4bh392rcd13ifvqdl0","pricing_plan_id":"cebpf4jnsgd1na2vs0mg"},{"bike_id":"5c9d787a-ed08-4f6d-aae6-50e448cf550d","system_id":"levelo_inurba_marseille","lat":43.26025,"lon":5.37553,"is_reserved":false,"is_disabled":false,"rental_uris":{"android":"levelo://app?vid=5c9d787a-ed08-4f6d-aae6-50e448cf550d","ios":"levelo://app?vid=5c9d787a-ed08-4f6d-aae6-50e448cf550d"},"vehicle_type_id":"4","last_reported":1734469663,"current_range_meters":35200,"station_id":"ce4bhgh2rcd13ifvqfa0","pricing_plan_id":"cebpf4jnsgd1na2vs0mg"},{"bike_id":"20358b83-225d-4ff6-8386-f5d7e4ace024","system_id":"levelo_inurba_marseille","lat":43.30015,"lon":5.37728,"is_reserved":false,"is_disabled":true,"rental_uris":{"android":"levelo://app?vid=20358b83-225d-4ff6-8386-f5d7e4ace024","ios":"levelo://app?vid=20358b83-225d-4ff6-8386-f5d7e4ace024"},"vehicle_type_id":"4","last_reported":1734469663,"current_range_meters":6400,"station_id":"","pricing_plan_id":"cebpf4jnsgd1na2vs0mg"},{"bike_id":"39c6df87-420a-4b56-b0b5-8549d488d37a","system_id":"levelo_inurba_marseille","lat":43.28345,"lon":5.38099,"is_reserved":false,"is_disabled":false,"rental_uris":{"android":"levelo://app?vid=39c6df87-420a-4b56-b0b5-8549d488d37a","ios":"levelo://app?vid=39c6df87-420a-4b56-b0b5-8549d488d37a"},"vehicle_type_id":"4","last_reported":1734469663,"current_range_meters":33200,"station_id":"ce4bh412rcd13ifvqdr0","pricing_plan_id":"cebpf4jnsgd1na2vs0mg"},{"bike_id":"2fbdd41c-1732-4e93-8819-1535f69b6924","system_id":"levelo_inurba_marseille","lat":43.30419,"lon":5.41296,"is_reserved":false,"is_disabled":false,"rental_uris":{"android":"levelo://app?vid=2fbdd41c-1732-4e93-8819-1535f69b6924","ios":"levelo://app?vid=2fbdd41c-1732-4e93-8819-1535f69b6924"},"vehicle_type_id":"4","last_reported":1734469663,"current_range_meters":24400,"station_id":"ce4bhop2rcd13ifvqh8g","pricing_plan_id":"cebpf4jnsgd1na2vs0mg"},{"bike_id":"8d405b56-bd90-4216-9e34-bb99feb0ba4d","system_id":"levelo_inurba_marseille","lat":43.27493,"lon":5.42459,"is_reserved":false,"is_disabled":false,"rental_uris":{"android":"levelo://app?vid=8d405b56-bd90-4216-9e34-bb99feb0ba4d","ios":"levelo://app?vid=8d405b56-bd90-4216-9e34-bb99feb0ba4d"},"vehicle_type_id":"4","last_reported":1734469663,"current_range_meters":38000,"station_id":"ce4bhn92rcd13ifvqgrg","pricing_plan_id":"cebpf4jnsgd1na2vs0mg"},{"bike_id":"8a7b999e-41f2-494c-ba32-de5da872441d","system_id":"levelo_inurba_marseille","lat":43.28449,"lon":5.35887,"is_reserved":false,"is_disabled":false,"rental_uris":{"android":"levelo://app?vid=8a7b999e-41f2-494c-ba32-de5da872441d","ios":"levelo://app?vid=8a7b999e-41f2-494c-ba32-de5da872441d"},"vehicle_type_id":"4","last_reported":1734469663,"current_range_meters":38800,"station_id":"ce4bhah2rcd13ifvqei0","pricing_plan_id":"cebpf4jnsgd1na2vs0mg"},{"bike_id":"4ef58d0d-8e30-4280-aa40-6d3ae5111f3b","system_id":"levelo_inurba_marseille","lat":43.30576,"lon":5.36909,"is_reserved":false,"is_disabled":false,"rental_uris":{"android":"levelo://app?vid=4ef58d0d-8e30-4280-aa40-6d3ae5111f3b","ios":"levelo://app?vid=4ef58d0d-8e30-4280-aa40-6d3ae5111f3b"},"vehicle_type_id":"4","last_reported":1734469663,"current_range_meters":37600,"station_id":"","pricing_plan_id":"cebpf4jnsgd1na2vs0mg"},{"bike_id":"9c4670ff-16f8-431b-a765-a851341fad40","system_id":"levelo_inurba_marseille","lat":43.27327,"lon":5.39071,"is_reserved":false,"is_disabled":true,"rental_uris":{"android":"levelo://app?vid=9c4670ff-16f8-431b-a765-a851341fad40","ios":"levelo://app?vid=9c4670ff-16f8-431b-a765-a851341fad40"},"vehicle_type_id":"4","last_reported":1734469663,"current_range_meters":14000,"station_id":"ce4bhgp2rcd13ifvqfe0","pricing_plan_id":"cebpf4jnsgd1na2vs0mg"},{"bike_id":"217019ea-8c08-4175-aab7-04728a42bf44","system_id":"levelo_inurba_marseille","lat":43.29529,"lon":5.39036,"is_reserved":false,"is_disabled":false,"rental_uris":{"android":"levelo://app?vid=217019ea-8c08-4175-aab7-04728a42bf44","ios":"levelo://app?vid=217019ea-8c08-4175-aab7-04728a42bf44"},"vehicle_type_id":"4","last_reported":1734469663,"current_range_meters":20000,"station_id":"ce4bh3p2rcd13ifvqdp0","pricing_plan_id":"cebpf4jnsgd1na2vs0mg"},{"bike_id":"93d60b0e-d1be-4313-951f-229c23b27964","system_id":"levelo_inurba_marseille","lat":43.29882,"lon":5.38905,"is_reserved":false,"is_disabled":false,"rental_uris":{"android":"levelo://app?vid=93d60b0e-d1be-4313-951f-229c23b27964","ios":"levelo://app?vid=93d60b0e-d1be-4313-951f-229c23b27964"},"vehicle_type_id":"4","last_reported":1734469663,"current_range_meters":26800,"station_id":"ce4bh392rcd13ifvqdl0","pricing_plan_id":"cebpf4jnsgd1na2vs0mg"},{"bike_id":"bfe97e7b-6b0b-4bdc-83b9-1bac7752b9af","system_id":"levelo_inurba_marseille","lat":43.28849,"lon":5.35854,"is_reserved":false,"is_disabled":false,"rental_uris":{"android":"levelo://app?vid=bfe97e7b-6b0b-4bdc-83b9-1bac7752b9af","ios":"levelo://app?vid=bfe97e7b-6b0b-4bdc-83b9-1bac7752b9af"},"vehicle_type_id":"4","last_reported":1734469663,"current_range_meters":24400,"station_id":"ce4bhb12rcd13ifvqem0","pricing_plan_id":"cebpf4jnsgd1na2vs0mg"},{"bike_id":"159a903f-47fe-414f-bd72-7074498507c3","system_id":"levelo_inurba_marseille","lat":43.2784,"lon":5.39208,"is_reserved":false,"is_disabled":false,"rental_uris":{"android":"levelo://app?vid=159a903f-47fe-414f-bd72-7074498507c3","ios":"levelo://app?vid=159a903f-47fe-414f-bd72-7074498507c3"},"vehicle_type_id":"4","last_reported":1734469663,"current_range_meters":39200,"station_id":"ce4bhjp2rcd13ifvqga0","pricing_plan_id":"cebpf4jnsgd1na2vs0mg"},{"bike_id":"33d5b731-57e7-485a-afa6-25f1ad322dc5","system_id":"levelo_inurba_marseille","lat":43.33039,"lon":5.39,"is_reserved":false,"is_disabled":false,"rental_uris":{"android":"levelo://app?vid=33d5b731-57e7-485a-afa6-25f1ad322dc5","ios":"levelo://app?vid=33d5b731-57e7-485a-afa6-25f1ad322dc5"},"vehicle_type_id":"4","last_reported":1734469663,"current_range_meters":12800,"station_id":"ce4bhr92rcd13ifvqhrg","pricing_plan_id":"cebpf4jnsgd1na2vs0mg"},{"bike_id":"6fe7cbfb-4e7e-4fa2-aeff-0309c7eee35c","system_id":"levelo_inurba_marseille","lat":43.25,"lon":5.38944,"is_reserved":false,"is_disabled":false,"rental_uris":{"android":"levelo://app?vid=6fe7cbfb-4e7e-4fa2-aeff-0309c7eee35c","ios":"levelo://app?vid=6fe7cbfb-4e7e-4fa2-aeff-0309c7eee35c"},"vehicle_type_id":"4","last_reported":1734469663,"current_range_meters":14400,"station_id":"ce4bhgp2rcd13ifvqfd0","pricing_plan_id":"cebpf4jnsgd1na2vs0mg"},{"bike_id":"aacc7da2-1446-4d2a-aa32-e804470fc32d","system_id":"levelo_inurba_marseille","lat":43.30914,"lon":5.40041,"is_reserved":false,"is_disabled":true,"rental_uris":{"android":"levelo://app?vid=aacc7da2-1446-4d2a-aa32-e804470fc32d","ios":"levelo://app?vid=aacc7da2-1446-4d2a-aa32-e804470fc32d"},"vehicle_type_id":"4","last_reported":1734469663,"current_range_meters":0,"station_id":"","pricing_plan_id":"cebpf4jnsgd1na2vs0mg"},{"bike_id":"937c90ec-cf04-465b-97b2-ee54435829e8","system_id":"levelo_inurba_marseille","lat":43.301974,"lon":5.366212,"is_reserved":false,"is_disabled":true,"rental_uris":{"android":"levelo://app?vid=937c90ec-cf04-465b-97b2-ee54435829e8","ios":"levelo://app?vid=937c90ec-cf04-465b-97b2-ee54435829e8"},"vehicle_type_id":"4","last_reported":1734469663,"current_range_meters":30000,"station_id":"","pricing_plan_id":"cebpf4jnsgd1na2vs0mg"},{"bike_id":"1fe9e420-cf77-476b-b060-604a30e8a996","system_id":"levelo_inurba_marseille","lat":43.28267,"lon":5.3506,"is_reserved":false,"is_disabled":false,"rental_uris":{"android":"levelo://app?vid=1fe9e420-cf77-476b-b060-604a30e8a996","ios":"levelo://app?vid=1fe9e420-cf77-476b-b060-604a30e8a996"},"vehicle_type_id":"4","last_reported":1734469663,"current_range_meters":36400,"station_id":"ce4bhbp2rcd13ifvqerg","pricing_plan_id":"cebpf4jnsgd1na2vs0mg"},{"bike_id":"0fb5ed82-c5df-487d-928e-82a24fe87593","system_id":"levelo_inurba_marseille","lat":43.30591,"lon":5.39349,"is_reserved":false,"is_disabled":false,"rental_uris":{"android":"levelo://app?vid=0fb5ed82-c5df-487d-928e-82a24fe87593","ios":"levelo://app?vid=0fb5ed82-c5df-487d-928e-82a24fe87593"},"vehicle_type_id":"4","last_reported":1734469663,"current_range_meters":30400,"station_id":"ce4bh0p2rcd13ifvqd80","pricing_plan_id":"cebpf4jnsgd1na2vs0mg"},{"bike_id":"124e6c05-4926-4207-84f5-da69a7334d60","system_id":"levelo_inurba_marseille","lat":43.29012,"lon":5.38109,"is_reserved":false,"is_disabled":true,"rental_uris":{"android":"levelo://app?vid=124e6c05-4926-4207-84f5-da69a7334d60","ios":"levelo://app?vid=124e6c05-4926-4207-84f5-da69a7334d60"},"vehicle_type_id":"4","last_reported":1734469663,"current_range_meters":37600,"station_id":"ce4bh4p2rcd13ifvqe1g","pricing_plan_id":"cebpf4jnsgd1na2vs0mg"},{"bike_id":"7352ba53-d27c-4b8c-a1d3-473d9391c5e1","system_id":"levelo_inurba_marseille","lat":43.30093,"lon":5.3909,"is_reserved":false,"is_disabled":false,"rental_uris":{"android":"levelo://app?vid=7352ba53-d27c-4b8c-a1d3-473d9391c5e1","ios":"levelo://app?vid=7352ba53-d27c-4b8c-a1d3-473d9391c5e1"},"vehicle_type_id":"4","last_reported":1734469663,"current_range_meters":33600,"station_id":"ce4bh292rcd13ifvqdf0","pricing_plan_id":"cebpf4jnsgd1na2vs0mg"},{"bike_id":"b56c4a15-79b4-43a7-be93-f93d9975d6ed","system_id":"levelo_inurba_marseille","lat":43.26942,"lon":5.40255,"is_reserved":false,"is_disabled":false,"rental_uris":{"android":"levelo://app?vid=b56c4a15-79b4-43a7-be93-f93d9975d6ed","ios":"levelo://app?vid=b56c4a15-79b4-43a7-be93-f93d9975d6ed"},"vehicle_type_id":"4","last_reported":1734469663,"current_range_meters":14000,"station_id":"cjm6bp8fraef2m0cb0m0","pricing_plan_id":"cebpf4jnsgd1na2vs0mg"},{"bike_id":"9912dd0c-f35a-4c1a-bfac-1f2951e727e4","system_id":"levelo_inurba_marseille","lat":43.26786,"lon":5.39417,"is_reserved":false,"is_disabled":true,"rental_uris":{"android":"levelo://app?vid=9912dd0c-f35a-4c1a-bfac-1f2951e727e4","ios":"levelo://app?vid=9912dd0c-f35a-4c1a-bfac-1f2951e727e4"},"vehicle_type_id":"4","last_reported":1734469663,"current_range_meters":0,"station_id":"ce4bhh12rcd13ifvqfg0","pricing_plan_id":"cebpf4jnsgd1na2vs0mg"},{"bike_id":"dc0e6df7-295d-4e62-8939-9c7a9d49b036","system_id":"levelo_inurba_marseille","lat":43.2996,"lon":5.4132,"is_reserved":false,"is_disabled":true,"rental_uris":{"android":"levelo://app?vid=dc0e6df7-295d-4e62-8939-9c7a9d49b036","ios":"levelo://app?vid=dc0e6df7-295d-4e62-8939-9c7a9d49b036"},"vehicle_type_id":"4","last_reported":1734469663,"current_range_meters":28400,"station_id":"ce4bhp12rcd13ifvqh9g","pricing_plan_id":"cebpf4jnsgd1na2vs0mg"},{"bike_id":"e00adc22-223f-4ada-80c9-2463d152fa0e","system_id":"levelo_inurba_marseille","lat":43.29884,"lon":5.38903,"is_reserved":false,"is_disabled":false,"rental_uris":{"android":"levelo://app?vid=e00adc22-223f-4ada-80c9-2463d152fa0e","ios":"levelo://app?vid=e00adc22-223f-4ada-80c9-2463d152fa0e"},"vehicle_type_id":"4","last_reported":1734469663,"current_range_meters":33200,"station_id":"ce4bh392rcd13ifvqdl0","pricing_plan_id":"cebpf4jnsgd1na2vs0mg"},{"bike_id":"0a63bca6-39a0-42cf-bc8f-cd65c34f24df","system_id":"levelo_inurba_marseille","lat":43.24642,"lon":5.38902,"is_reserved":false,"is_disabled":false,"rental_uris":{"android":"levelo://app?vid=0a63bca6-39a0-42cf-bc8f-cd65c34f24df","ios":"levelo://app?vid=0a63bca6-39a0-42cf-bc8f-cd65c34f24df"},"vehicle_type_id":"4","last_reported":1734469663,"current_range_meters":38000,"station_id":"ce4bhg12rcd13ifvqf60","pricing_plan_id":"cebpf4jnsgd1na2vs0mg"},{"bike_id":"2491c714-f3f7-493b-9790-9992e16c8fb6","system_id":"levelo_inurba_marseille","lat":43.34142,"lon":5.40902,"is_reserved":false,"is_disabled":false,"rental_uris":{"android":"levelo://app?vid=2491c714-f3f7-493b-9790-9992e16c8fb6","ios":"levelo://app?vid=2491c714-f3f7-493b-9790-9992e16c8fb6"},"vehicle_type_id":"4","last_reported":1734469663,"current_range_meters":11200,"station_id":"ce4bhqh2rcd13ifvqhlg","pricing_plan_id":"cebpf4jnsgd1na2vs0mg"},{"bike_id":"8806f127-b5d3-4cd7-acdc-a8187ef02bd7","system_id":"levelo_inurba_marseille","lat":43.29438,"lon":5.39777,"is_reserved":false,"is_disabled":false,"rental_uris":{"android":"levelo://app?vid=8806f127-b5d3-4cd7-acdc-a8187ef02bd7","ios":"levelo://app?vid=8806f127-b5d3-4cd7-acdc-a8187ef02bd7"},"vehicle_type_id":"4","last_reported":1734469663,"current_range_meters":39200,"station_id":"ce4bh3h2rcd13ifvqdo0","pricing_plan_id":"cebpf4jnsgd1na2vs0mg"},{"bike_id":"ea1ee0a0-f240-4d25-84d9-e6fb6fc7a18c","system_id":"levelo_inurba_marseille","lat":43.33767,"lon":5.4209,"is_reserved":false,"is_disabled":true,"rental_uris":{"android":"levelo://app?vid=ea1ee0a0-f240-4d25-84d9-e6fb6fc7a18c","ios":"levelo://app?vid=ea1ee0a0-f240-4d25-84d9-e6fb6fc7a18c"},"vehicle_type_id":"4","last_reported":1734469663,"current_range_meters":0,"station_id":"","pricing_plan_id":"cebpf4jnsgd1na2vs0mg"},{"bike_id":"06c6e1cd-66a9-44f1-a613-032c381bdb70","system_id":"levelo_inurba_marseille","lat":43.28465,"lon":5.35889,"is_reserved":false,"is_disabled":false,"rental_uris":{"android":"levelo://app?vid=06c6e1cd-66a9-44f1-a613-032c381bdb70","ios":"levelo://app?vid=06c6e1cd-66a9-44f1-a613-032c381bdb70"},"vehicle_type_id":"4","last_reported":1734469663,"current_range_meters":24800,"station_id":"ce4bhah2rcd13ifvqei0","pricing_plan_id":"cebpf4jnsgd1na2vs0mg"},{"bike_id":"12b4b165-951a-4db7-8b79-0bc1787b0fa0","system_id":"levelo_inurba_marseille","lat":43.31759,"lon":5.39053,"is_reserved":false,"is_disabled":false,"rental_uris":{"android":"levelo://app?vid=12b4b165-951a-4db7-8b79-0bc1787b0fa0","ios":"levelo://app?vid=12b4b165-951a-4db7-8b79-0bc1787b0fa0"},"vehicle_type_id":"4","last_reported":1734469663,"current_range_meters":38800,"station_id":"ce4bhqp2rcd13ifvqhng","pricing_plan_id":"cebpf4jnsgd1na2vs0mg"},{"bike_id":"c8f79b9f-b6a3-42c1-83aa-cf20faccc3b4","system_id":"levelo_inurba_marseille","lat":43.26684,"lon":5.38265,"is_reserved":false,"is_disabled":true,"rental_uris":{"android":"levelo://app?vid=c8f79b9f-b6a3-42c1-83aa-cf20faccc3b4","ios":"levelo://app?vid=c8f79b9f-b6a3-42c1-83aa-cf20faccc3b4"},"vehicle_type_id":"4","last_reported":1734469663,"current_range_meters":38800,"station_id":"ce4bhg92rcd13ifvqf90","pricing_plan_id":"cebpf4jnsgd1na2vs0mg"},{"bike_id":"466ece3a-66f3-41fa-bf10-19f3bd6e70d0","system_id":"levelo_inurba_marseille","lat":43.29273,"lon":5.40127,"is_reserved":false,"is_disabled":false,"rental_uris":{"android":"levelo://app?vid=466ece3a-66f3-41fa-bf10-19f3bd6e70d0","ios":"levelo://app?vid=466ece3a-66f3-41fa-bf10-19f3bd6e70d0"},"vehicle_type_id":"4","last_reported":1734469663,"current_range_meters":24800,"station_id":"ce4bh312rcd13ifvqdk0","pricing_plan_id":"cebpf4jnsgd1na2vs0mg"},{"bike_id":"4f8ee12f-c669-4a01-a408-7dbd967b6fad","system_id":"levelo_inurba_marseille","lat":43.30882,"lon":5.39664,"is_reserved":false,"is_disabled":false,"rental_uris":{"android":"levelo://app?vid=4f8ee12f-c669-4a01-a408-7dbd967b6fad","ios":"levelo://app?vid=4f8ee12f-c669-4a01-a408-7dbd967b6fad"},"vehicle_type_id":"4","last_reported":1734469663,"current_range_meters":36000,"station_id":"ce4bh012rcd13ifvqcv0","pricing_plan_id":"cebpf4jnsgd1na2vs0mg"},{"bike_id":"ef00e13f-569a-41fd-b53e-49adca3b054e","system_id":"levelo_inurba_marseille","lat":43.275,"lon":5.42449,"is_reserved":false,"is_disabled":false,"rental_uris":{"android":"levelo://app?vid=ef00e13f-569a-41fd-b53e-49adca3b054e","ios":"levelo://app?vid=ef00e13f-569a-41fd-b53e-49adca3b054e"},"vehicle_type_id":"4","last_reported":1734469663,"current_range_meters":35600,"station_id":"ce4bhn92rcd13ifvqgrg","pricing_plan_id":"cebpf4jnsgd1na2vs0mg"},{"bike_id":"2b9e5232-81d0-497c-a52e-1e7fea60b29a","system_id":"levelo_inurba_marseille","lat":43.32373,"lon":5.38857,"is_reserved":false,"is_disabled":false,"rental_uris":{"android":"levelo://app?vid=2b9e5232-81d0-497c-a52e-1e7fea60b29a","ios":"levelo://app?vid=2b9e5232-81d0-497c-a52e-1e7fea60b29a"},"vehicle_type_id":"4","last_reported":1734469663,"current_range_meters":27200,"station_id":"ce4bhqp2rcd13ifvqhog","pricing_plan_id":"cebpf4jnsgd1na2vs0mg"},{"bike_id":"abc160a5-b345-4f6d-9b91-525c32686bc7","system_id":"levelo_inurba_marseille","lat":43.30439,"lon":5.3889,"is_reserved":false,"is_disabled":false,"rental_uris":{"android":"levelo://app?vid=abc160a5-b345-4f6d-9b91-525c32686bc7","ios":"levelo://app?vid=abc160a5-b345-4f6d-9b91-525c32686bc7"},"vehicle_type_id":"4","last_reported":1734469663,"current_range_meters":19600,"station_id":"ce4bgk12rcd13ifvqbi0","pricing_plan_id":"cebpf4jnsgd1na2vs0mg"},{"bike_id":"119783c5-680e-4ccc-81fe-dcc520e3bff9","system_id":"levelo_inurba_marseille","lat":43.24665,"lon":5.3817,"is_reserved":false,"is_disabled":false,"rental_uris":{"android":"levelo://app?vid=119783c5-680e-4ccc-81fe-dcc520e3bff9","ios":"levelo://app?vid=119783c5-680e-4ccc-81fe-dcc520e3bff9"},"vehicle_type_id":"4","last_reported":1734469663,"current_range_meters":32800,"station_id":"ce4bhih2rcd13ifvqfr0","pricing_plan_id":"cebpf4jnsgd1na2vs0mg"},{"bike_id":"fdae6994-2b52-4fd0-8d8f-e92f1ee91c77","system_id":"levelo_inurba_marseille","lat":43.28461,"lon":5.35892,"is_reserved":false,"is_disabled":false,"rental_uris":{"android":"levelo://app?vid=fdae6994-2b52-4fd0-8d8f-e92f1ee91c77","ios":"levelo://app?vid=fdae6994-2b52-4fd0-8d8f-e92f1ee91c77"},"vehicle_type_id":"4","last_reported":1734469663,"current_range_meters":30400,"station_id":"ce4bhah2rcd13ifvqei0","pricing_plan_id":"cebpf4jnsgd1na2vs0mg"},{"bike_id":"d5bb5233-5c13-4106-a5af-af43f6e0c448","system_id":"levelo_inurba_marseille","lat":43.31394,"lon":5.38501,"is_reserved":false,"is_disabled":false,"rental_uris":{"android":"levelo://app?vid=d5bb5233-5c13-4106-a5af-af43f6e0c448","ios":"levelo://app?vid=d5bb5233-5c13-4106-a5af-af43f6e0c448"},"vehicle_type_id":"4","last_reported":1734469663,"current_range_meters":38400,"station_id":"ce4bgt92rcd13ifvqcf0","pricing_plan_id":"cebpf4jnsgd1na2vs0mg"},{"bike_id":"38f20744-af43-4445-b9c5-a52798357518","system_id":"levelo_inurba_marseille","lat":43.25495,"lon":5.37648,"is_reserved":false,"is_disabled":false,"rental_uris":{"android":"levelo://app?vid=38f20744-af43-4445-b9c5-a52798357518","ios":"levelo://app?vid=38f20744-af43-4445-b9c5-a52798357518"},"vehicle_type_id":"4","last_reported":1734469663,"current_range_meters":38000,"station_id":"ce4bhh12rcd13ifvqff0","pricing_plan_id":"cebpf4jnsgd1na2vs0mg"},{"bike_id":"8846bd8f-c0b8-4c74-8001-bc9dee08d09d","system_id":"levelo_inurba_marseille","lat":43.29035,"lon":5.38649,"is_reserved":false,"is_disabled":false,"rental_uris":{"android":"levelo://app?vid=8846bd8f-c0b8-4c74-8001-bc9dee08d09d","ios":"levelo://app?vid=8846bd8f-c0b8-4c74-8001-bc9dee08d09d"},"vehicle_type_id":"4","last_reported":1734469663,"current_range_meters":23200,"station_id":"ce4bh4p2rcd13ifvqe0g","pricing_plan_id":"cebpf4jnsgd1na2vs0mg"},{"bike_id":"3dd03454-9930-421f-baa9-6f7c444d56d0","system_id":"levelo_inurba_marseille","lat":43.24669,"lon":5.38157,"is_reserved":false,"is_disabled":false,"rental_uris":{"android":"levelo://app?vid=3dd03454-9930-421f-baa9-6f7c444d56d0","ios":"levelo://app?vid=3dd03454-9930-421f-baa9-6f7c444d56d0"},"vehicle_type_id":"4","last_reported":1734469663,"current_range_meters":32400,"station_id":"ce4bhih2rcd13ifvqfr0","pricing_plan_id":"cebpf4jnsgd1na2vs0mg"},{"bike_id":"ea836852-5949-4189-9e99-2b4aee4f7e11","system_id":"levelo_inurba_marseille","lat":43.30166,"lon":5.37477,"is_reserved":false,"is_disabled":false,"rental_uris":{"android":"levelo://app?vid=ea836852-5949-4189-9e99-2b4aee4f7e11","ios":"levelo://app?vid=ea836852-5949-4189-9e99-2b4aee4f7e11"},"vehicle_type_id":"4","last_reported":1734469663,"current_range_meters":17200,"station_id":"","pricing_plan_id":"cebpf4jnsgd1na2vs0mg"},{"bike_id":"309d831f-115c-4adf-a559-0862791f9321","system_id":"levelo_inurba_marseille","lat":43.26551,"lon":5.39021,"is_reserved":false,"is_disabled":false,"rental_uris":{"android":"levelo://app?vid=309d831f-115c-4adf-a559-0862791f9321","ios":"levelo://app?vid=309d831f-115c-4adf-a559-0862791f9321"},"vehicle_type_id":"4","last_reported":1734469663,"current_range_meters":14000,"station_id":"ce4bhe12rcd13ifvqf30","pricing_plan_id":"cebpf4jnsgd1na2vs0mg"},{"bike_id":"f2feff4c-28ba-468f-a6dd-9bfdf1705106","system_id":"levelo_inurba_marseille","lat":43.27558,"lon":5.38405,"is_reserved":false,"is_disabled":false,"rental_uris":{"android":"levelo://app?vid=f2feff4c-28ba-468f-a6dd-9bfdf1705106","ios":"levelo://app?vid=f2feff4c-28ba-468f-a6dd-9bfdf1705106"},"vehicle_type_id":"4","last_reported":1734469663,"current_range_meters":39200,"station_id":"ce4bhh92rcd13ifvqfi0","pricing_plan_id":"cebpf4jnsgd1na2vs0mg"},{"bike_id":"5e92ecb3-11f8-486e-b871-ed378b8cfd18","system_id":"levelo_inurba_marseille","lat":43.31282,"lon":5.40171,"is_reserved":false,"is_disabled":false,"rental_uris":{"android":"levelo://app?vid=5e92ecb3-11f8-486e-b871-ed378b8cfd18","ios":"levelo://app?vid=5e92ecb3-11f8-486e-b871-ed378b8cfd18"},"vehicle_type_id":"4","last_reported":1734469663,"current_range_meters":16000,"station_id":"ce4bh092rcd13ifvqd30","pricing_plan_id":"cebpf4jnsgd1na2vs0mg"},{"bike_id":"690c3583-42a1-46be-ac19-12f171f4edc0","system_id":"levelo_inurba_marseille","lat":43.3063,"lon":5.40088,"is_reserved":false,"is_disabled":false,"rental_uris":{"android":"levelo://app?vid=690c3583-42a1-46be-ac19-12f171f4edc0","ios":"levelo://app?vid=690c3583-42a1-46be-ac19-12f171f4edc0"},"vehicle_type_id":"4","last_reported":1734469663,"current_range_meters":32800,"station_id":"ce4bh112rcd13ifvqda0","pricing_plan_id":"cebpf4jnsgd1na2vs0mg"},{"bike_id":"45b39e50-137b-40ed-8099-af5b128ed6d9","system_id":"levelo_inurba_marseille","lat":43.29552,"lon":5.42294,"is_reserved":false,"is_disabled":false,"rental_uris":{"android":"levelo://app?vid=45b39e50-137b-40ed-8099-af5b128ed6d9","ios":"levelo://app?vid=45b39e50-137b-40ed-8099-af5b128ed6d9"},"vehicle_type_id":"4","last_reported":1734469663,"current_range_meters":22000,"station_id":"ce4bhph2rcd13ifvqhdg","pricing_plan_id":"cebpf4jnsgd1na2vs0mg"},{"bike_id":"29178437-6c99-4660-97f8-8e869a8bd3ad","system_id":"levelo_inurba_marseille","lat":43.29553,"lon":5.42286,"is_reserved":false,"is_disabled":false,"rental_uris":{"android":"levelo://app?vid=29178437-6c99-4660-97f8-8e869a8bd3ad","ios":"levelo://app?vid=29178437-6c99-4660-97f8-8e869a8bd3ad"},"vehicle_type_id":"4","last_reported":1734469663,"current_range_meters":38000,"station_id":"ce4bhph2rcd13ifvqhdg","pricing_plan_id":"cebpf4jnsgd1na2vs0mg"},{"bike_id":"77b045ec-31af-4db4-b5a1-524f94c3c261","system_id":"levelo_inurba_marseille","lat":43.29308,"lon":5.37452,"is_reserved":false,"is_disabled":true,"rental_uris":{"android":"levelo://app?vid=77b045ec-31af-4db4-b5a1-524f94c3c261","ios":"levelo://app?vid=77b045ec-31af-4db4-b5a1-524f94c3c261"},"vehicle_type_id":"4","last_reported":1734469663,"current_range_meters":34800,"station_id":"ce4bgi12rcd13ifvqb70","pricing_plan_id":"cebpf4jnsgd1na2vs0mg"},{"bike_id":"4da66600-eb43-4ca5-97c9-f1414d5abc48","system_id":"levelo_inurba_marseille","lat":43.30535,"lon":5.36719,"is_reserved":false,"is_disabled":false,"rental_uris":{"android":"levelo://app?vid=4da66600-eb43-4ca5-97c9-f1414d5abc48","ios":"levelo://app?vid=4da66600-eb43-4ca5-97c9-f1414d5abc48"},"vehicle_type_id":"4","last_reported":1734469663,"current_range_meters":25200,"station_id":"ce4bgrp2rcd13ifvqc9g","pricing_plan_id":"cebpf4jnsgd1na2vs0mg"},{"bike_id":"aa02da0b-7cc2-490e-81e4-a682d86fbe51","system_id":"levelo_inurba_marseille","lat":43.29044,"lon":5.38638,"is_reserved":false,"is_disabled":false,"rental_uris":{"android":"levelo://app?vid=aa02da0b-7cc2-490e-81e4-a682d86fbe51","ios":"levelo://app?vid=aa02da0b-7cc2-490e-81e4-a682d86fbe51"},"vehicle_type_id":"4","last_reported":1734469663,"current_range_meters":11200,"station_id":"ce4bh4p2rcd13ifvqe0g","pricing_plan_id":"cebpf4jnsgd1na2vs0mg"},{"bike_id":"2bf4c27f-73f1-47b0-882f-c1c6ceb171f4","system_id":"levelo_inurba_marseille","lat":43.24078,"lon":5.3776,"is_reserved":false,"is_disabled":false,"rental_uris":{"android":"levelo://app?vid=2bf4c27f-73f1-47b0-882f-c1c6ceb171f4","ios":"levelo://app?vid=2bf4c27f-73f1-47b0-882f-c1c6ceb171f4"},"vehicle_type_id":"4","last_reported":1734469663,"current_range_meters":38000,"station_id":"ce4bhnp2rcd13ifvqgvg","pricing_plan_id":"cebpf4jnsgd1na2vs0mg"},{"bike_id":"11de44e4-fb7b-4b95-8378-6a52a6f6b88e","system_id":"levelo_inurba_marseille","lat":43.28999,"lon":5.35616,"is_reserved":false,"is_disabled":false,"rental_uris":{"android":"levelo://app?vid=11de44e4-fb7b-4b95-8378-6a52a6f6b88e","ios":"levelo://app?vid=11de44e4-fb7b-4b95-8378-6a52a6f6b88e"},"vehicle_type_id":"4","last_reported":1734469663,"current_range_meters":38400,"station_id":"ce4bhb92rcd13ifvqen0","pricing_plan_id":"cebpf4jnsgd1na2vs0mg"},{"bike_id":"72492ff3-d3e5-4b81-822b-1d3357339451","system_id":"levelo_inurba_marseille","lat":43.29275,"lon":5.40132,"is_reserved":false,"is_disabled":false,"rental_uris":{"android":"levelo://app?vid=72492ff3-d3e5-4b81-822b-1d3357339451","ios":"levelo://app?vid=72492ff3-d3e5-4b81-822b-1d3357339451"},"vehicle_type_id":"4","last_reported":1734469663,"current_range_meters":38800,"station_id":"ce4bh312rcd13ifvqdk0","pricing_plan_id":"cebpf4jnsgd1na2vs0mg"},{"bike_id":"7ac5424e-a731-49fe-826a-ac5d1fb7499c","system_id":"levelo_inurba_marseille","lat":43.294081,"lon":5.386179,"is_reserved":false,"is_disabled":true,"rental_uris":{"android":"levelo://app?vid=7ac5424e-a731-49fe-826a-ac5d1fb7499c","ios":"levelo://app?vid=7ac5424e-a731-49fe-826a-ac5d1fb7499c"},"vehicle_type_id":"4","last_reported":1734469663,"current_range_meters":400,"station_id":"ce4bh2h2rcd13ifvqdh0","pricing_plan_id":"cebpf4jnsgd1na2vs0mg"},{"bike_id":"db23072e-de1a-4644-811c-c402eaa8abff","system_id":"levelo_inurba_marseille","lat":43.28695,"lon":5.37407,"is_reserved":false,"is_disabled":false,"rental_uris":{"android":"levelo://app?vid=db23072e-de1a-4644-811c-c402eaa8abff","ios":"levelo://app?vid=db23072e-de1a-4644-811c-c402eaa8abff"},"vehicle_type_id":"4","last_reported":1734469663,"current_range_meters":8000,"station_id":"ce4bh3p2rcd13ifvqdq0","pricing_plan_id":"cebpf4jnsgd1na2vs0mg"},{"bike_id":"17cb13ac-8521-4229-8447-4aef4d9ddbad","system_id":"levelo_inurba_marseille","lat":43.31489,"lon":5.37309,"is_reserved":false,"is_disabled":false,"rental_uris":{"android":"levelo://app?vid=17cb13ac-8521-4229-8447-4aef4d9ddbad","ios":"levelo://app?vid=17cb13ac-8521-4229-8447-4aef4d9ddbad"},"vehicle_type_id":"4","last_reported":1734469663,"current_range_meters":38400,"station_id":"ce4bgt12rcd13ifvqcd0","pricing_plan_id":"cebpf4jnsgd1na2vs0mg"},{"bike_id":"56c02537-b677-43e5-80b7-3400913d2016","system_id":"levelo_inurba_marseille","lat":43.29283,"lon":5.40106,"is_reserved":false,"is_disabled":false,"rental_uris":{"android":"levelo://app?vid=56c02537-b677-43e5-80b7-3400913d2016","ios":"levelo://app?vid=56c02537-b677-43e5-80b7-3400913d2016"},"vehicle_type_id":"4","last_reported":1734469663,"current_range_meters":22000,"station_id":"ce4bh312rcd13ifvqdk0","pricing_plan_id":"cebpf4jnsgd1na2vs0mg"},{"bike_id":"a47a812b-8479-4dbf-a984-c261870d3f1a","system_id":"levelo_inurba_marseille","lat":43.32475,"lon":5.36566,"is_reserved":false,"is_disabled":false,"rental_uris":{"android":"levelo://app?vid=a47a812b-8479-4dbf-a984-c261870d3f1a","ios":"levelo://app?vid=a47a812b-8479-4dbf-a984-c261870d3f1a"},"vehicle_type_id":"4","last_reported":1734469663,"current_range_meters":36800,"station_id":"ce4bhs12rcd13ifvqhvg","pricing_plan_id":"cebpf4jnsgd1na2vs0mg"},{"bike_id":"399886e1-1fd8-45ef-b9a3-f32444b7db24","system_id":"levelo_inurba_marseille","lat":43.27322,"lon":5.39087,"is_reserved":false,"is_disabled":true,"rental_uris":{"android":"levelo://app?vid=399886e1-1fd8-45ef-b9a3-f32444b7db24","ios":"levelo://app?vid=399886e1-1fd8-45ef-b9a3-f32444b7db24"},"vehicle_type_id":"4","last_reported":1734469663,"current_range_meters":35200,"station_id":"ce4bhgp2rcd13ifvqfe0","pricing_plan_id":"cebpf4jnsgd1na2vs0mg"},{"bike_id":"59dae833-2bec-49e2-9523-38c687f543b6","system_id":"levelo_inurba_marseille","lat":43.29527,"lon":5.3903,"is_reserved":false,"is_disabled":false,"rental_uris":{"android":"levelo://app?vid=59dae833-2bec-49e2-9523-38c687f543b6","ios":"levelo://app?vid=59dae833-2bec-49e2-9523-38c687f543b6"},"vehicle_type_id":"4","last_reported":1734469663,"current_range_meters":38800,"station_id":"ce4bh3p2rcd13ifvqdp0","pricing_plan_id":"cebpf4jnsgd1na2vs0mg"},{"bike_id":"1d2c2503-b2ff-4efa-8b0f-f1c1d0f7013e","system_id":"levelo_inurba_marseille","lat":43.28672,"lon":5.36357,"is_reserved":false,"is_disabled":false,"rental_uris":{"android":"levelo://app?vid=1d2c2503-b2ff-4efa-8b0f-f1c1d0f7013e","ios":"levelo://app?vid=1d2c2503-b2ff-4efa-8b0f-f1c1d0f7013e"},"vehicle_type_id":"4","last_reported":1734469663,"current_range_meters":22400,"station_id":"ce4bhah2rcd13ifvqej0","pricing_plan_id":"cebpf4jnsgd1na2vs0mg"},{"bike_id":"cebb2fe6-dd82-4aa3-a8d5-f3291341a320","system_id":"levelo_inurba_marseille","lat":43.24671,"lon":5.38154,"is_reserved":false,"is_disabled":false,"rental_uris":{"android":"levelo://app?vid=cebb2fe6-dd82-4aa3-a8d5-f3291341a320","ios":"levelo://app?vid=cebb2fe6-dd82-4aa3-a8d5-f3291341a320"},"vehicle_type_id":"4","last_reported":1734469663,"current_range_meters":21600,"station_id":"ce4bhih2rcd13ifvqfr0","pricing_plan_id":"cebpf4jnsgd1na2vs0mg"},{"bike_id":"782bcbf2-b7de-4b04-bebc-aaa0329dd90c","system_id":"levelo_inurba_marseille","lat":43.23197,"lon":5.35558,"is_reserved":false,"is_disabled":false,"rental_uris":{"android":"levelo://app?vid=782bcbf2-b7de-4b04-bebc-aaa0329dd90c","ios":"levelo://app?vid=782bcbf2-b7de-4b04-bebc-aaa0329dd90c"},"vehicle_type_id":"4","last_reported":1734469663,"current_range_meters":38800,"station_id":"ce4bhu92rcd13ifvqi70","pricing_plan_id":"cebpf4jnsgd1na2vs0mg"},{"bike_id":"a925316d-9d31-43b0-a430-5cb1bef87372","system_id":"levelo_inurba_marseille","lat":43.27181,"lon":5.40985,"is_reserved":false,"is_disabled":false,"rental_uris":{"android":"levelo://app?vid=a925316d-9d31-43b0-a430-5cb1bef87372","ios":"levelo://app?vid=a925316d-9d31-43b0-a430-5cb1bef87372"},"vehicle_type_id":"4","last_reported":1734469663,"current_range_meters":24000,"station_id":"ce4bhl12rcd13ifvqgf0","pricing_plan_id":"cebpf4jnsgd1na2vs0mg"},{"bike_id":"540c19ab-e8ac-4092-909b-c3e5069b6978","system_id":"levelo_inurba_marseille","lat":43.337444,"lon":5.374475,"is_reserved":false,"is_disabled":true,"rental_uris":{"android":"levelo://app?vid=540c19ab-e8ac-4092-909b-c3e5069b6978","ios":"levelo://app?vid=540c19ab-e8ac-4092-909b-c3e5069b6978"},"vehicle_type_id":"4","last_reported":1734469663,"current_range_meters":0,"station_id":"","pricing_plan_id":"cebpf4jnsgd1na2vs0mg"},{"bike_id":"fff17d87-f8d7-4f1e-a0f7-7b3ab53761a8","system_id":"levelo_inurba_marseille","lat":43.31721,"lon":5.424,"is_reserved":false,"is_disabled":false,"rental_uris":{"android":"levelo://app?vid=fff17d87-f8d7-4f1e-a0f7-7b3ab53761a8","ios":"levelo://app?vid=fff17d87-f8d7-4f1e-a0f7-7b3ab53761a8"},"vehicle_type_id":"4","last_reported":1734469663,"current_range_meters":28800,"station_id":"ce4bhp92rcd13ifvqhbg","pricing_plan_id":"cebpf4jnsgd1na2vs0mg"},{"bike_id":"0e853b40-5ab0-423f-9897-613da707d815","system_id":"levelo_inurba_marseille","lat":43.27816,"lon":5.40719,"is_reserved":false,"is_disabled":false,"rental_uris":{"android":"levelo://app?vid=0e853b40-5ab0-423f-9897-613da707d815","ios":"levelo://app?vid=0e853b40-5ab0-423f-9897-613da707d815"},"vehicle_type_id":"4","last_reported":1734469663,"current_range_meters":8800,"station_id":"ce4bhnh2rcd13ifvqgtg","pricing_plan_id":"cebpf4jnsgd1na2vs0mg"},{"bike_id":"99b91171-fdca-426c-9c5c-0f1db2efdad6","system_id":"levelo_inurba_marseille","lat":43.27813,"lon":5.40689,"is_reserved":false,"is_disabled":false,"rental_uris":{"android":"levelo://app?vid=99b91171-fdca-426c-9c5c-0f1db2efdad6","ios":"levelo://app?vid=99b91171-fdca-426c-9c5c-0f1db2efdad6"},"vehicle_type_id":"4","last_reported":1734469663,"current_range_meters":37600,"station_id":"ce4bhnh2rcd13ifvqgtg","pricing_plan_id":"cebpf4jnsgd1na2vs0mg"},{"bike_id":"c3297e8b-d991-40d1-b938-adcae062c6a1","system_id":"levelo_inurba_marseille","lat":43.25121,"lon":5.40317,"is_reserved":false,"is_disabled":false,"rental_uris":{"android":"levelo://app?vid=c3297e8b-d991-40d1-b938-adcae062c6a1","ios":"levelo://app?vid=c3297e8b-d991-40d1-b938-adcae062c6a1"},"vehicle_type_id":"4","last_reported":1734469663,"current_range_meters":32000,"station_id":"ce4bhlh2rcd13ifvqgig","pricing_plan_id":"cebpf4jnsgd1na2vs0mg"},{"bike_id":"52ab890a-0d03-4302-bf47-9d77d5300a88","system_id":"levelo_inurba_marseille","lat":43.26565,"lon":5.38997,"is_reserved":false,"is_disabled":false,"rental_uris":{"android":"levelo://app?vid=52ab890a-0d03-4302-bf47-9d77d5300a88","ios":"levelo://app?vid=52ab890a-0d03-4302-bf47-9d77d5300a88"},"vehicle_type_id":"4","last_reported":1734469663,"current_range_meters":31200,"station_id":"ce4bhe12rcd13ifvqf30","pricing_plan_id":"cebpf4jnsgd1na2vs0mg"},{"bike_id":"62c99ef1-ed98-40bb-9ebe-4b8107ad9967","system_id":"levelo_inurba_marseille","lat":43.2835,"lon":5.38108,"is_reserved":false,"is_disabled":false,"rental_uris":{"android":"levelo://app?vid=62c99ef1-ed98-40bb-9ebe-4b8107ad9967","ios":"levelo://app?vid=62c99ef1-ed98-40bb-9ebe-4b8107ad9967"},"vehicle_type_id":"4","last_reported":1734469663,"current_range_meters":38800,"station_id":"ce4bh412rcd13ifvqdr0","pricing_plan_id":"cebpf4jnsgd1na2vs0mg"},{"bike_id":"4da35f85-345f-4beb-bc6e-3d767f63bcac","system_id":"levelo_inurba_marseille","lat":43.2926,"lon":5.38445,"is_reserved":false,"is_disabled":false,"rental_uris":{"android":"levelo://app?vid=4da35f85-345f-4beb-bc6e-3d767f63bcac","ios":"levelo://app?vid=4da35f85-345f-4beb-bc6e-3d767f63bcac"},"vehicle_type_id":"4","last_reported":1734469663,"current_range_meters":38800,"station_id":"ce4bh692rcd13ifvqea0","pricing_plan_id":"cebpf4jnsgd1na2vs0mg"},{"bike_id":"78b914f3-4383-4791-ad65-886ac1c6803e","system_id":"levelo_inurba_marseille","lat":43.27938,"lon":5.41046,"is_reserved":false,"is_disabled":false,"rental_uris":{"android":"levelo://app?vid=78b914f3-4383-4791-ad65-886ac1c6803e","ios":"levelo://app?vid=78b914f3-4383-4791-ad65-886ac1c6803e"},"vehicle_type_id":"4","last_reported":1734469663,"current_range_meters":30400,"station_id":"ce4bhnp2rcd13ifvqh0g","pricing_plan_id":"cebpf4jnsgd1na2vs0mg"},{"bike_id":"e40982b3-d070-4ac9-9d92-78dbbb3e6a49","system_id":"levelo_inurba_marseille","lat":43.29567,"lon":5.39974,"is_reserved":false,"is_disabled":false,"rental_uris":{"android":"levelo://app?vid=e40982b3-d070-4ac9-9d92-78dbbb3e6a49","ios":"levelo://app?vid=e40982b3-d070-4ac9-9d92-78dbbb3e6a49"},"vehicle_type_id":"4","last_reported":1734469663,"current_range_meters":36800,"station_id":"ce4bh312rcd13ifvqdj0","pricing_plan_id":"cebpf4jnsgd1na2vs0mg"},{"bike_id":"1adaea00-ed72-49a8-91bf-6c20e9f42f29","system_id":"levelo_inurba_marseille","lat":43.23192,"lon":5.39991,"is_reserved":false,"is_disabled":false,"rental_uris":{"android":"levelo://app?vid=1adaea00-ed72-49a8-91bf-6c20e9f42f29","ios":"levelo://app?vid=1adaea00-ed72-49a8-91bf-6c20e9f42f29"},"vehicle_type_id":"4","last_reported":1734469663,"current_range_meters":27200,"station_id":"ce4bhn12rcd13ifvqgqg","pricing_plan_id":"cebpf4jnsgd1na2vs0mg"},{"bike_id":"272c380d-0e96-4217-82cd-b4ae34bffa4a","system_id":"levelo_inurba_marseille","lat":43.26941,"lon":5.38918,"is_reserved":false,"is_disabled":true,"rental_uris":{"android":"levelo://app?vid=272c380d-0e96-4217-82cd-b4ae34bffa4a","ios":"levelo://app?vid=272c380d-0e96-4217-82cd-b4ae34bffa4a"},"vehicle_type_id":"4","last_reported":1734469663,"current_range_meters":27200,"station_id":"ce4bhhh2rcd13ifvqfl0","pricing_plan_id":"cebpf4jnsgd1na2vs0mg"},{"bike_id":"7deaa912-bdd7-41f4-9079-15f4a4ee20cf","system_id":"levelo_inurba_marseille","lat":43.28105,"lon":5.37842,"is_reserved":false,"is_disabled":false,"rental_uris":{"android":"levelo://app?vid=7deaa912-bdd7-41f4-9079-15f4a4ee20cf","ios":"levelo://app?vid=7deaa912-bdd7-41f4-9079-15f4a4ee20cf"},"vehicle_type_id":"4","last_reported":1734469663,"current_range_meters":32000,"station_id":"ce4bha12rcd13ifvqee0","pricing_plan_id":"cebpf4jnsgd1na2vs0mg"},{"bike_id":"39fc68db-bb27-439b-acd3-92ab99dbeada","system_id":"levelo_inurba_marseille","lat":43.31158,"lon":5.38721,"is_reserved":false,"is_disabled":false,"rental_uris":{"android":"levelo://app?vid=39fc68db-bb27-439b-acd3-92ab99dbeada","ios":"levelo://app?vid=39fc68db-bb27-439b-acd3-92ab99dbeada"},"vehicle_type_id":"4","last_reported":1734469663,"current_range_meters":24400,"station_id":"ce4bgv12rcd13ifvqcp0","pricing_plan_id":"cebpf4jnsgd1na2vs0mg"},{"bike_id":"6e8f4fde-ba97-46db-b735-2d138701445e","system_id":"levelo_inurba_marseille","lat":43.298846,"lon":5.36535,"is_reserved":false,"is_disabled":false,"rental_uris":{"android":"levelo://app?vid=6e8f4fde-ba97-46db-b735-2d138701445e","ios":"levelo://app?vid=6e8f4fde-ba97-46db-b735-2d138701445e"},"vehicle_type_id":"4","last_reported":1734469663,"current_range_meters":33600,"station_id":"ce4bgm92rcd13ifvqbr0","pricing_plan_id":"cebpf4jnsgd1na2vs0mg"},{"bike_id":"1f088edd-e254-4389-aab0-8bb3edc2dc9e","system_id":"levelo_inurba_marseille","lat":43.32493,"lon":5.36588,"is_reserved":false,"is_disabled":false,"rental_uris":{"android":"levelo://app?vid=1f088edd-e254-4389-aab0-8bb3edc2dc9e","ios":"levelo://app?vid=1f088edd-e254-4389-aab0-8bb3edc2dc9e"},"vehicle_type_id":"4","last_reported":1734469663,"current_range_meters":38800,"station_id":"ce4bhs12rcd13ifvqhvg","pricing_plan_id":"cebpf4jnsgd1na2vs0mg"},{"bike_id":"00267bf4-cbb0-42ab-952a-10399cc5a2b7","system_id":"levelo_inurba_marseille","lat":43.31363,"lon":5.38501,"is_reserved":false,"is_disabled":false,"rental_uris":{"android":"levelo://app?vid=00267bf4-cbb0-42ab-952a-10399cc5a2b7","ios":"levelo://app?vid=00267bf4-cbb0-42ab-952a-10399cc5a2b7"},"vehicle_type_id":"4","last_reported":1734469663,"current_range_meters":18800,"station_id":"ce4bgt92rcd13ifvqcf0","pricing_plan_id":"cebpf4jnsgd1na2vs0mg"},{"bike_id":"3dbbd5d9-5f8f-4c4e-b439-ee968266fd2d","system_id":"levelo_inurba_marseille","lat":43.28856,"lon":5.39299,"is_reserved":false,"is_disabled":true,"rental_uris":{"android":"levelo://app?vid=3dbbd5d9-5f8f-4c4e-b439-ee968266fd2d","ios":"levelo://app?vid=3dbbd5d9-5f8f-4c4e-b439-ee968266fd2d"},"vehicle_type_id":"4","last_reported":1734469663,"current_range_meters":17200,"station_id":"ce4bh2p2rcd13ifvqdi0","pricing_plan_id":"cebpf4jnsgd1na2vs0mg"},{"bike_id":"fbda7b10-078d-4c58-b700-d8ffd9b7aad2","system_id":"levelo_inurba_marseille","lat":43.29799,"lon":5.3811,"is_reserved":false,"is_disabled":true,"rental_uris":{"android":"levelo://app?vid=fbda7b10-078d-4c58-b700-d8ffd9b7aad2","ios":"levelo://app?vid=fbda7b10-078d-4c58-b700-d8ffd9b7aad2"},"vehicle_type_id":"4","last_reported":1734469663,"current_range_meters":27200,"station_id":"ce4bgip2rcd13ifvqbb0","pricing_plan_id":"cebpf4jnsgd1na2vs0mg"},{"bike_id":"077b0e66-296b-4fc0-ac1e-f4f937bb0b57","system_id":"levelo_inurba_marseille","lat":43.27906,"lon":5.38009,"is_reserved":false,"is_disabled":false,"rental_uris":{"android":"levelo://app?vid=077b0e66-296b-4fc0-ac1e-f4f937bb0b57","ios":"levelo://app?vid=077b0e66-296b-4fc0-ac1e-f4f937bb0b57"},"vehicle_type_id":"4","last_reported":1734469663,"current_range_meters":38800,"station_id":"ce4bhf92rcd13ifvqf50","pricing_plan_id":"cebpf4jnsgd1na2vs0mg"},{"bike_id":"7c56283e-1709-4994-bddf-5f66a8a9ce1e","system_id":"levelo_inurba_marseille","lat":43.30138,"lon":5.38767,"is_reserved":false,"is_disabled":false,"rental_uris":{"android":"levelo://app?vid=7c56283e-1709-4994-bddf-5f66a8a9ce1e","ios":"levelo://app?vid=7c56283e-1709-4994-bddf-5f66a8a9ce1e"},"vehicle_type_id":"4","last_reported":1734469663,"current_range_meters":39200,"station_id":"ce4bhoh2rcd13ifvqh6g","pricing_plan_id":"cebpf4jnsgd1na2vs0mg"},{"bike_id":"e63ec124-f160-46c4-aad4-b0f59e1a5cf9","system_id":"levelo_inurba_marseille","lat":43.27995,"lon":5.41653,"is_reserved":false,"is_disabled":true,"rental_uris":{"android":"levelo://app?vid=e63ec124-f160-46c4-aad4-b0f59e1a5cf9","ios":"levelo://app?vid=e63ec124-f160-46c4-aad4-b0f59e1a5cf9"},"vehicle_type_id":"4","last_reported":1734469663,"current_range_meters":24400,"station_id":"ce4bho12rcd13ifvqh1g","pricing_plan_id":"cebpf4jnsgd1na2vs0mg"},{"bike_id":"0427bfa4-7c9f-485e-9901-c36b0591c06e","system_id":"levelo_inurba_marseille","lat":43.26208,"lon":5.3743,"is_reserved":false,"is_disabled":false,"rental_uris":{"android":"levelo://app?vid=0427bfa4-7c9f-485e-9901-c36b0591c06e","ios":"levelo://app?vid=0427bfa4-7c9f-485e-9901-c36b0591c06e"},"vehicle_type_id":"4","last_reported":1734469663,"current_range_meters":22800,"station_id":"ce4bhgp2rcd13ifvqfc0","pricing_plan_id":"cebpf4jnsgd1na2vs0mg"},{"bike_id":"9a94b5d1-f857-4c58-86b0-b2ccb3a75cce","system_id":"levelo_inurba_marseille","lat":43.25114,"lon":5.40339,"is_reserved":false,"is_disabled":false,"rental_uris":{"android":"levelo://app?vid=9a94b5d1-f857-4c58-86b0-b2ccb3a75cce","ios":"levelo://app?vid=9a94b5d1-f857-4c58-86b0-b2ccb3a75cce"},"vehicle_type_id":"4","last_reported":1734469663,"current_range_meters":39200,"station_id":"ce4bhlh2rcd13ifvqgig","pricing_plan_id":"cebpf4jnsgd1na2vs0mg"},{"bike_id":"78d06369-09f4-4292-b606-b070044354ea","system_id":"levelo_inurba_marseille","lat":43.28678,"lon":5.38662,"is_reserved":false,"is_disabled":false,"rental_uris":{"android":"levelo://app?vid=78d06369-09f4-4292-b606-b070044354ea","ios":"levelo://app?vid=78d06369-09f4-4292-b606-b070044354ea"},"vehicle_type_id":"4","last_reported":1734469663,"current_range_meters":38400,"station_id":"ce4bh492rcd13ifvqdug","pricing_plan_id":"cebpf4jnsgd1na2vs0mg"},{"bike_id":"107928ce-875f-4354-be38-938d8ee3c7db","system_id":"levelo_inurba_marseille","lat":43.3127,"lon":5.401713,"is_reserved":false,"is_disabled":false,"rental_uris":{"android":"levelo://app?vid=107928ce-875f-4354-be38-938d8ee3c7db","ios":"levelo://app?vid=107928ce-875f-4354-be38-938d8ee3c7db"},"vehicle_type_id":"4","last_reported":1734469663,"current_range_meters":31200,"station_id":"ce4bh092rcd13ifvqd30","pricing_plan_id":"cebpf4jnsgd1na2vs0mg"},{"bike_id":"efb96ad3-4e63-4408-8c01-0772d5a4e18b","system_id":"levelo_inurba_marseille","lat":43.31333,"lon":5.39694,"is_reserved":false,"is_disabled":false,"rental_uris":{"android":"levelo://app?vid=efb96ad3-4e63-4408-8c01-0772d5a4e18b","ios":"levelo://app?vid=efb96ad3-4e63-4408-8c01-0772d5a4e18b"},"vehicle_type_id":"4","last_reported":1734469663,"current_range_meters":38800,"station_id":"ce4bgvp2rcd13ifvqcu0","pricing_plan_id":"cebpf4jnsgd1na2vs0mg"},{"bike_id":"2c35d799-8445-41f0-9531-f1ab81d4f0aa","system_id":"levelo_inurba_marseille","lat":43.28414,"lon":5.37506,"is_reserved":false,"is_disabled":false,"rental_uris":{"android":"levelo://app?vid=2c35d799-8445-41f0-9531-f1ab81d4f0aa","ios":"levelo://app?vid=2c35d799-8445-41f0-9531-f1ab81d4f0aa"},"vehicle_type_id":"4","last_reported":1734469663,"current_range_meters":30000,"station_id":"ce4bh412rcd13ifvqds0","pricing_plan_id":"cebpf4jnsgd1na2vs0mg"},{"bike_id":"07ab32b1-8c4f-421c-8744-b77386cfaddc","system_id":"levelo_inurba_marseille","lat":43.30273,"lon":5.37723,"is_reserved":false,"is_disabled":false,"rental_uris":{"android":"levelo://app?vid=07ab32b1-8c4f-421c-8744-b77386cfaddc","ios":"levelo://app?vid=07ab32b1-8c4f-421c-8744-b77386cfaddc"},"vehicle_type_id":"4","last_reported":1734469663,"current_range_meters":26800,"station_id":"ce4bguh2rcd13ifvqcj0","pricing_plan_id":"cebpf4jnsgd1na2vs0mg"},{"bike_id":"01a870cf-dd25-47e3-81a3-76239976dd64","system_id":"levelo_inurba_marseille","lat":43.27499,"lon":5.42453,"is_reserved":false,"is_disabled":false,"rental_uris":{"android":"levelo://app?vid=01a870cf-dd25-47e3-81a3-76239976dd64","ios":"levelo://app?vid=01a870cf-dd25-47e3-81a3-76239976dd64"},"vehicle_type_id":"4","last_reported":1734469663,"current_range_meters":24400,"station_id":"ce4bhn92rcd13ifvqgrg","pricing_plan_id":"cebpf4jnsgd1na2vs0mg"},{"bike_id":"ab954d26-dc2a-433a-a6f7-483e27ee21c3","system_id":"levelo_inurba_marseille","lat":43.28351,"lon":5.38103,"is_reserved":false,"is_disabled":false,"rental_uris":{"android":"levelo://app?vid=ab954d26-dc2a-433a-a6f7-483e27ee21c3","ios":"levelo://app?vid=ab954d26-dc2a-433a-a6f7-483e27ee21c3"},"vehicle_type_id":"4","last_reported":1734469663,"current_range_meters":4400,"station_id":"ce4bh412rcd13ifvqdr0","pricing_plan_id":"cebpf4jnsgd1na2vs0mg"},{"bike_id":"dfc9386d-470e-435b-b8f6-2ec11b401715","system_id":"levelo_inurba_marseille","lat":43.27178,"lon":5.41002,"is_reserved":false,"is_disabled":false,"rental_uris":{"android":"levelo://app?vid=dfc9386d-470e-435b-b8f6-2ec11b401715","ios":"levelo://app?vid=dfc9386d-470e-435b-b8f6-2ec11b401715"},"vehicle_type_id":"4","last_reported":1734469663,"current_range_meters":20000,"station_id":"ce4bhl12rcd13ifvqgf0","pricing_plan_id":"cebpf4jnsgd1na2vs0mg"},{"bike_id":"68907ca0-038a-4705-886b-af6c122ac485","system_id":"levelo_inurba_marseille","lat":43.23183,"lon":5.39984,"is_reserved":false,"is_disabled":false,"rental_uris":{"android":"levelo://app?vid=68907ca0-038a-4705-886b-af6c122ac485","ios":"levelo://app?vid=68907ca0-038a-4705-886b-af6c122ac485"},"vehicle_type_id":"4","last_reported":1734469663,"current_range_meters":38800,"station_id":"ce4bhn12rcd13ifvqgqg","pricing_plan_id":"cebpf4jnsgd1na2vs0mg"},{"bike_id":"f98ddb63-39b3-415a-b65d-953147aee9ba","system_id":"levelo_inurba_marseille","lat":43.29881,"lon":5.38919,"is_reserved":false,"is_disabled":false,"rental_uris":{"android":"levelo://app?vid=f98ddb63-39b3-415a-b65d-953147aee9ba","ios":"levelo://app?vid=f98ddb63-39b3-415a-b65d-953147aee9ba"},"vehicle_type_id":"4","last_reported":1734469663,"current_range_meters":26800,"station_id":"ce4bh392rcd13ifvqdl0","pricing_plan_id":"cebpf4jnsgd1na2vs0mg"},{"bike_id":"7ec48f75-2775-4297-aeb5-423e6c184b6b","system_id":"levelo_inurba_marseille","lat":43.27566,"lon":5.38417,"is_reserved":false,"is_disabled":false,"rental_uris":{"android":"levelo://app?vid=7ec48f75-2775-4297-aeb5-423e6c184b6b","ios":"levelo://app?vid=7ec48f75-2775-4297-aeb5-423e6c184b6b"},"vehicle_type_id":"4","last_reported":1734469663,"current_range_meters":39200,"station_id":"ce4bhh92rcd13ifvqfi0","pricing_plan_id":"cebpf4jnsgd1na2vs0mg"},{"bike_id":"a852f14c-1573-40fe-bdb0-30bcf5f773fb","system_id":"levelo_inurba_marseille","lat":43.28613,"lon":5.35114,"is_reserved":false,"is_disabled":true,"rental_uris":{"android":"levelo://app?vid=a852f14c-1573-40fe-bdb0-30bcf5f773fb","ios":"levelo://app?vid=a852f14c-1573-40fe-bdb0-30bcf5f773fb"},"vehicle_type_id":"4","last_reported":1734469663,"current_range_meters":19200,"station_id":"ce4bhch2rcd13ifvqeug","pricing_plan_id":"cebpf4jnsgd1na2vs0mg"},{"bike_id":"89372912-9285-4e1e-b07f-602a10266c6c","system_id":"levelo_inurba_marseille","lat":43.28735,"lon":5.36082,"is_reserved":false,"is_disabled":false,"rental_uris":{"android":"levelo://app?vid=89372912-9285-4e1e-b07f-602a10266c6c","ios":"levelo://app?vid=89372912-9285-4e1e-b07f-602a10266c6c"},"vehicle_type_id":"4","last_reported":1734469663,"current_range_meters":11600,"station_id":"cki0cbj6b192h4jlfktg","pricing_plan_id":"cebpf4jnsgd1na2vs0mg"},{"bike_id":"61d6f95e-9317-4fb0-a3ec-55b27609f3ee","system_id":"levelo_inurba_marseille","lat":43.32047,"lon":5.41546,"is_reserved":false,"is_disabled":false,"rental_uris":{"android":"levelo://app?vid=61d6f95e-9317-4fb0-a3ec-55b27609f3ee","ios":"levelo://app?vid=61d6f95e-9317-4fb0-a3ec-55b27609f3ee"},"vehicle_type_id":"4","last_reported":1734469663,"current_range_meters":38800,"station_id":"ce4bhq92rcd13ifvqhkg","pricing_plan_id":"cebpf4jnsgd1na2vs0mg"},{"bike_id":"39b7e59f-b5a3-4722-91bb-8b43e65eec83","system_id":"levelo_inurba_marseille","lat":43.289417,"lon":5.366335,"is_reserved":false,"is_disabled":false,"rental_uris":{"android":"levelo://app?vid=39b7e59f-b5a3-4722-91bb-8b43e65eec83","ios":"levelo://app?vid=39b7e59f-b5a3-4722-91bb-8b43e65eec83"},"vehicle_type_id":"4","last_reported":1734469663,"current_range_meters":28800,"station_id":"ce4bhap2rcd13ifvqek0","pricing_plan_id":"cebpf4jnsgd1na2vs0mg"},{"bike_id":"bb337245-7c41-4671-900b-a4d92ae562c6","system_id":"levelo_inurba_marseille","lat":43.29525,"lon":5.39041,"is_reserved":false,"is_disabled":true,"rental_uris":{"android":"levelo://app?vid=bb337245-7c41-4671-900b-a4d92ae562c6","ios":"levelo://app?vid=bb337245-7c41-4671-900b-a4d92ae562c6"},"vehicle_type_id":"4","last_reported":1734469663,"current_range_meters":4000,"station_id":"ce4bh3p2rcd13ifvqdp0","pricing_plan_id":"cebpf4jnsgd1na2vs0mg"},{"bike_id":"1b00f570-16cc-4573-b9a6-abdc42cc2ac2","system_id":"levelo_inurba_marseille","lat":43.315,"lon":5.37283,"is_reserved":false,"is_disabled":false,"rental_uris":{"android":"levelo://app?vid=1b00f570-16cc-4573-b9a6-abdc42cc2ac2","ios":"levelo://app?vid=1b00f570-16cc-4573-b9a6-abdc42cc2ac2"},"vehicle_type_id":"4","last_reported":1734469663,"current_range_meters":36000,"station_id":"ce4bgt12rcd13ifvqcd0","pricing_plan_id":"cebpf4jnsgd1na2vs0mg"},{"bike_id":"2b52357e-c848-489a-af80-9064b54407a0","system_id":"levelo_inurba_marseille","lat":43.26561,"lon":5.37295,"is_reserved":false,"is_disabled":false,"rental_uris":{"android":"levelo://app?vid=2b52357e-c848-489a-af80-9064b54407a0","ios":"levelo://app?vid=2b52357e-c848-489a-af80-9064b54407a0"},"vehicle_type_id":"4","last_reported":1734469663,"current_range_meters":9200,"station_id":"ce4bhg12rcd13ifvqf70","pricing_plan_id":"cebpf4jnsgd1na2vs0mg"},{"bike_id":"7399fd58-5dfd-44fa-92b1-0692ace70e73","system_id":"levelo_inurba_marseille","lat":43.30096,"lon":5.37137,"is_reserved":false,"is_disabled":false,"rental_uris":{"android":"levelo://app?vid=7399fd58-5dfd-44fa-92b1-0692ace70e73","ios":"levelo://app?vid=7399fd58-5dfd-44fa-92b1-0692ace70e73"},"vehicle_type_id":"4","last_reported":1734469663,"current_range_meters":24400,"station_id":"","pricing_plan_id":"cebpf4jnsgd1na2vs0mg"},{"bike_id":"e8d34f93-c188-4a3a-92c4-3544f1cd0af3","system_id":"levelo_inurba_marseille","lat":43.26563,"lon":5.39019,"is_reserved":false,"is_disabled":false,"rental_uris":{"android":"levelo://app?vid=e8d34f93-c188-4a3a-92c4-3544f1cd0af3","ios":"levelo://app?vid=e8d34f93-c188-4a3a-92c4-3544f1cd0af3"},"vehicle_type_id":"4","last_reported":1734469663,"current_range_meters":36000,"station_id":"ce4bhe12rcd13ifvqf30","pricing_plan_id":"cebpf4jnsgd1na2vs0mg"},{"bike_id":"9d9e1e2a-798a-41bc-b7ac-5ecb83cf2f29","system_id":"levelo_inurba_marseille","lat":43.29268,"lon":5.38441,"is_reserved":false,"is_disabled":false,"rental_uris":{"android":"levelo://app?vid=9d9e1e2a-798a-41bc-b7ac-5ecb83cf2f29","ios":"levelo://app?vid=9d9e1e2a-798a-41bc-b7ac-5ecb83cf2f29"},"vehicle_type_id":"4","last_reported":1734469663,"current_range_meters":30400,"station_id":"ce4bh692rcd13ifvqea0","pricing_plan_id":"cebpf4jnsgd1na2vs0mg"},{"bike_id":"39ddafbe-4ac6-4ca8-901c-0c990948fb4a","system_id":"levelo_inurba_marseille","lat":43.28268,"lon":5.35067,"is_reserved":false,"is_disabled":false,"rental_uris":{"android":"levelo://app?vid=39ddafbe-4ac6-4ca8-901c-0c990948fb4a","ios":"levelo://app?vid=39ddafbe-4ac6-4ca8-901c-0c990948fb4a"},"vehicle_type_id":"4","last_reported":1734469663,"current_range_meters":4400,"station_id":"ce4bhbp2rcd13ifvqerg","pricing_plan_id":"cebpf4jnsgd1na2vs0mg"},{"bike_id":"44ff8e7d-1339-43c2-b508-1f594ee49259","system_id":"levelo_inurba_marseille","lat":43.279168,"lon":5.395679,"is_reserved":false,"is_disabled":false,"rental_uris":{"android":"levelo://app?vid=44ff8e7d-1339-43c2-b508-1f594ee49259","ios":"levelo://app?vid=44ff8e7d-1339-43c2-b508-1f594ee49259"},"vehicle_type_id":"4","last_reported":1734469663,"current_range_meters":37600,"station_id":"ce4bhf92rcd13ifvqf40","pricing_plan_id":"cebpf4jnsgd1na2vs0mg"},{"bike_id":"8ceeee5e-f34c-4883-8bf6-079e8a090dff","system_id":"levelo_inurba_marseille","lat":43.29976,"lon":5.38492,"is_reserved":false,"is_disabled":true,"rental_uris":{"android":"levelo://app?vid=8ceeee5e-f34c-4883-8bf6-079e8a090dff","ios":"levelo://app?vid=8ceeee5e-f34c-4883-8bf6-079e8a090dff"},"vehicle_type_id":"4","last_reported":1734469663,"current_range_meters":400,"station_id":"ce4bgj92rcd13ifvqbd0","pricing_plan_id":"cebpf4jnsgd1na2vs0mg"},{"bike_id":"ce03ec55-35d3-44f5-8921-8d0d2d31846f","system_id":"levelo_inurba_marseille","lat":43.27826,"lon":5.40713,"is_reserved":false,"is_disabled":false,"rental_uris":{"android":"levelo://app?vid=ce03ec55-35d3-44f5-8921-8d0d2d31846f","ios":"levelo://app?vid=ce03ec55-35d3-44f5-8921-8d0d2d31846f"},"vehicle_type_id":"4","last_reported":1734469663,"current_range_meters":35600,"station_id":"ce4bhnh2rcd13ifvqgtg","pricing_plan_id":"cebpf4jnsgd1na2vs0mg"},{"bike_id":"1cc30cb6-f18d-4862-b991-88715930d8c9","system_id":"levelo_inurba_marseille","lat":43.24072,"lon":5.37761,"is_reserved":false,"is_disabled":false,"rental_uris":{"android":"levelo://app?vid=1cc30cb6-f18d-4862-b991-88715930d8c9","ios":"levelo://app?vid=1cc30cb6-f18d-4862-b991-88715930d8c9"},"vehicle_type_id":"4","last_reported":1734469663,"current_range_meters":17200,"station_id":"ce4bhnp2rcd13ifvqgvg","pricing_plan_id":"cebpf4jnsgd1na2vs0mg"},{"bike_id":"eb7cd7b9-01c5-4120-bb55-5221a32a505c","system_id":"levelo_inurba_marseille","lat":43.29216,"lon":5.40302,"is_reserved":false,"is_disabled":true,"rental_uris":{"android":"levelo://app?vid=eb7cd7b9-01c5-4120-bb55-5221a32a505c","ios":"levelo://app?vid=eb7cd7b9-01c5-4120-bb55-5221a32a505c"},"vehicle_type_id":"4","last_reported":1734469663,"current_range_meters":33600,"station_id":"ce4bh312rcd13ifvqdk0","pricing_plan_id":"cebpf4jnsgd1na2vs0mg"},{"bike_id":"eba901e5-0847-4fc0-b2b6-9eb1834c3e7a","system_id":"levelo_inurba_marseille","lat":43.29509,"lon":5.42336,"is_reserved":false,"is_disabled":true,"rental_uris":{"android":"levelo://app?vid=eba901e5-0847-4fc0-b2b6-9eb1834c3e7a","ios":"levelo://app?vid=eba901e5-0847-4fc0-b2b6-9eb1834c3e7a"},"vehicle_type_id":"4","last_reported":1734469663,"current_range_meters":0,"station_id":"","pricing_plan_id":"cebpf4jnsgd1na2vs0mg"},{"bike_id":"c71dca09-b946-4485-a053-6c7174aaa385","system_id":"levelo_inurba_marseille","lat":43.29539,"lon":5.38552,"is_reserved":false,"is_disabled":true,"rental_uris":{"android":"levelo://app?vid=c71dca09-b946-4485-a053-6c7174aaa385","ios":"levelo://app?vid=c71dca09-b946-4485-a053-6c7174aaa385"},"vehicle_type_id":"4","last_reported":1734469663,"current_range_meters":18000,"station_id":"ce4bgih2rcd13ifvqba0","pricing_plan_id":"cebpf4jnsgd1na2vs0mg"},{"bike_id":"4a6cf567-0476-47a4-9b25-bea5f116b73d","system_id":"levelo_inurba_marseille","lat":43.28457,"lon":5.35884,"is_reserved":false,"is_disabled":false,"rental_uris":{"android":"levelo://app?vid=4a6cf567-0476-47a4-9b25-bea5f116b73d","ios":"levelo://app?vid=4a6cf567-0476-47a4-9b25-bea5f116b73d"},"vehicle_type_id":"4","last_reported":1734469663,"current_range_meters":32800,"station_id":"ce4bhah2rcd13ifvqei0","pricing_plan_id":"cebpf4jnsgd1na2vs0mg"},{"bike_id":"7aad8740-ff3a-45f1-bc1f-cb1ab4d47b07","system_id":"levelo_inurba_marseille","lat":43.31763,"lon":5.37182,"is_reserved":false,"is_disabled":false,"rental_uris":{"android":"levelo://app?vid=7aad8740-ff3a-45f1-bc1f-cb1ab4d47b07","ios":"levelo://app?vid=7aad8740-ff3a-45f1-bc1f-cb1ab4d47b07"},"vehicle_type_id":"4","last_reported":1734469663,"current_range_meters":38800,"station_id":"","pricing_plan_id":"cebpf4jnsgd1na2vs0mg"},{"bike_id":"5602b998-8538-45ef-9b3e-c46248c5e330","system_id":"levelo_inurba_marseille","lat":43.24669,"lon":5.38163,"is_reserved":false,"is_disabled":false,"rental_uris":{"android":"levelo://app?vid=5602b998-8538-45ef-9b3e-c46248c5e330","ios":"levelo://app?vid=5602b998-8538-45ef-9b3e-c46248c5e330"},"vehicle_type_id":"4","last_reported":1734469663,"current_range_meters":38800,"station_id":"ce4bhih2rcd13ifvqfr0","pricing_plan_id":"cebpf4jnsgd1na2vs0mg"},{"bike_id":"27d9e2c3-f922-4658-a131-5f6394c8c252","system_id":"levelo_inurba_marseille","lat":43.29057,"lon":5.35928,"is_reserved":false,"is_disabled":false,"rental_uris":{"android":"levelo://app?vid=27d9e2c3-f922-4658-a131-5f6394c8c252","ios":"levelo://app?vid=27d9e2c3-f922-4658-a131-5f6394c8c252"},"vehicle_type_id":"4","last_reported":1734469663,"current_range_meters":39200,"station_id":"ce4bha92rcd13ifvqeg0","pricing_plan_id":"cebpf4jnsgd1na2vs0mg"},{"bike_id":"ed3a8591-316e-49ab-a80e-c8c5d9c39c56","system_id":"levelo_inurba_marseille","lat":43.30116,"lon":5.39077,"is_reserved":false,"is_disabled":true,"rental_uris":{"android":"levelo://app?vid=ed3a8591-316e-49ab-a80e-c8c5d9c39c56","ios":"levelo://app?vid=ed3a8591-316e-49ab-a80e-c8c5d9c39c56"},"vehicle_type_id":"4","last_reported":1734469663,"current_range_meters":32400,"station_id":"ce4bh192rcd13ifvqdb0","pricing_plan_id":"cebpf4jnsgd1na2vs0mg"},{"bike_id":"5a37a828-cff2-4e6d-a76c-d01bbc621389","system_id":"levelo_inurba_marseille","lat":43.23196,"lon":5.35541,"is_reserved":false,"is_disabled":false,"rental_uris":{"android":"levelo://app?vid=5a37a828-cff2-4e6d-a76c-d01bbc621389","ios":"levelo://app?vid=5a37a828-cff2-4e6d-a76c-d01bbc621389"},"vehicle_type_id":"4","last_reported":1734469663,"current_range_meters":25600,"station_id":"ce4bhu92rcd13ifvqi70","pricing_plan_id":"cebpf4jnsgd1na2vs0mg"},{"bike_id":"a1b49d71-f502-49c1-b0ae-050d5b4033bc","system_id":"levelo_inurba_marseille","lat":43.28942,"lon":5.36638,"is_reserved":false,"is_disabled":false,"rental_uris":{"android":"levelo://app?vid=a1b49d71-f502-49c1-b0ae-050d5b4033bc","ios":"levelo://app?vid=a1b49d71-f502-49c1-b0ae-050d5b4033bc"},"vehicle_type_id":"4","last_reported":1734469663,"current_range_meters":18000,"station_id":"ce4bhap2rcd13ifvqek0","pricing_plan_id":"cebpf4jnsgd1na2vs0mg"},{"bike_id":"7f1fdc7d-fd5a-41f5-95df-d4b73f14110f","system_id":"levelo_inurba_marseille","lat":43.31886,"lon":5.40721,"is_reserved":false,"is_disabled":false,"rental_uris":{"android":"levelo://app?vid=7f1fdc7d-fd5a-41f5-95df-d4b73f14110f","ios":"levelo://app?vid=7f1fdc7d-fd5a-41f5-95df-d4b73f14110f"},"vehicle_type_id":"4","last_reported":1734469663,"current_range_meters":28400,"station_id":"ce4bhq12rcd13ifvqhig","pricing_plan_id":"cebpf4jnsgd1na2vs0mg"},{"bike_id":"00597966-5dda-4e01-bd96-d00d6efc4e01","system_id":"levelo_inurba_marseille","lat":43.29256,"lon":5.38439,"is_reserved":false,"is_disabled":true,"rental_uris":{"android":"levelo://app?vid=00597966-5dda-4e01-bd96-d00d6efc4e01","ios":"levelo://app?vid=00597966-5dda-4e01-bd96-d00d6efc4e01"},"vehicle_type_id":"4","last_reported":1734469663,"current_range_meters":14000,"station_id":"ce4bh692rcd13ifvqea0","pricing_plan_id":"cebpf4jnsgd1na2vs0mg"},{"bike_id":"d02419d3-ab9e-4a05-8bf6-59f7eb4ac434","system_id":"levelo_inurba_marseille","lat":43.31282,"lon":5.40172,"is_reserved":false,"is_disabled":false,"rental_uris":{"android":"levelo://app?vid=d02419d3-ab9e-4a05-8bf6-59f7eb4ac434","ios":"levelo://app?vid=d02419d3-ab9e-4a05-8bf6-59f7eb4ac434"},"vehicle_type_id":"4","last_reported":1734469663,"current_range_meters":27600,"station_id":"ce4bh092rcd13ifvqd30","pricing_plan_id":"cebpf4jnsgd1na2vs0mg"},{"bike_id":"7d822ce8-5a66-4580-bc87-15ab05332588","system_id":"levelo_inurba_marseille","lat":43.29891,"lon":5.38906,"is_reserved":false,"is_disabled":false,"rental_uris":{"android":"levelo://app?vid=7d822ce8-5a66-4580-bc87-15ab05332588","ios":"levelo://app?vid=7d822ce8-5a66-4580-bc87-15ab05332588"},"vehicle_type_id":"4","last_reported":1734469663,"current_range_meters":26800,"station_id":"ce4bh392rcd13ifvqdl0","pricing_plan_id":"cebpf4jnsgd1na2vs0mg"},{"bike_id":"9ee21800-b501-49a6-bd80-490d4a0784fa","system_id":"levelo_inurba_marseille","lat":43.28613,"lon":5.35106,"is_reserved":false,"is_disabled":false,"rental_uris":{"android":"levelo://app?vid=9ee21800-b501-49a6-bd80-490d4a0784fa","ios":"levelo://app?vid=9ee21800-b501-49a6-bd80-490d4a0784fa"},"vehicle_type_id":"4","last_reported":1734469663,"current_range_meters":30400,"station_id":"ce4bhch2rcd13ifvqeug","pricing_plan_id":"cebpf4jnsgd1na2vs0mg"},{"bike_id":"1de05ea6-7ffc-4755-9d5c-2404e5a173c7","system_id":"levelo_inurba_marseille","lat":43.23068,"lon":5.35493,"is_reserved":false,"is_disabled":false,"rental_uris":{"android":"levelo://app?vid=1de05ea6-7ffc-4755-9d5c-2404e5a173c7","ios":"levelo://app?vid=1de05ea6-7ffc-4755-9d5c-2404e5a173c7"},"vehicle_type_id":"4","last_reported":1734469663,"current_range_meters":38800,"station_id":"cpo3342slgdg3j2ifvpg","pricing_plan_id":"cebpf4jnsgd1na2vs0mg"},{"bike_id":"70a23328-6629-4f07-b203-ef843751eafc","system_id":"levelo_inurba_marseille","lat":43.27185,"lon":5.40997,"is_reserved":false,"is_disabled":false,"rental_uris":{"android":"levelo://app?vid=70a23328-6629-4f07-b203-ef843751eafc","ios":"levelo://app?vid=70a23328-6629-4f07-b203-ef843751eafc"},"vehicle_type_id":"4","last_reported":1734469663,"current_range_meters":27600,"station_id":"ce4bhl12rcd13ifvqgf0","pricing_plan_id":"cebpf4jnsgd1na2vs0mg"},{"bike_id":"dc1c9672-3cff-4f4f-ad3a-c95341814fee","system_id":"levelo_inurba_marseille","lat":43.30791,"lon":5.37638,"is_reserved":false,"is_disabled":false,"rental_uris":{"android":"levelo://app?vid=dc1c9672-3cff-4f4f-ad3a-c95341814fee","ios":"levelo://app?vid=dc1c9672-3cff-4f4f-ad3a-c95341814fee"},"vehicle_type_id":"4","last_reported":1734469663,"current_range_meters":22000,"station_id":"ce4bgv92rcd13ifvqcq0","pricing_plan_id":"cebpf4jnsgd1na2vs0mg"},{"bike_id":"3d428edb-9e94-42e5-94fc-1180dcecbd47","system_id":"levelo_inurba_marseille","lat":43.28732,"lon":5.36081,"is_reserved":false,"is_disabled":false,"rental_uris":{"android":"levelo://app?vid=3d428edb-9e94-42e5-94fc-1180dcecbd47","ios":"levelo://app?vid=3d428edb-9e94-42e5-94fc-1180dcecbd47"},"vehicle_type_id":"4","last_reported":1734469663,"current_range_meters":28400,"station_id":"cki0cbj6b192h4jlfktg","pricing_plan_id":"cebpf4jnsgd1na2vs0mg"},{"bike_id":"2d9f4e58-aed4-42e5-b03f-7c067dbd464d","system_id":"levelo_inurba_marseille","lat":43.27053,"lon":5.42281,"is_reserved":false,"is_disabled":false,"rental_uris":{"android":"levelo://app?vid=2d9f4e58-aed4-42e5-b03f-7c067dbd464d","ios":"levelo://app?vid=2d9f4e58-aed4-42e5-b03f-7c067dbd464d"},"vehicle_type_id":"4","last_reported":1734469663,"current_range_meters":30400,"station_id":"ce4bhk92rcd13ifvqgb0","pricing_plan_id":"cebpf4jnsgd1na2vs0mg"},{"bike_id":"0eec46b1-4828-4b44-b0c0-454df459a71a","system_id":"levelo_inurba_marseille","lat":43.25936,"lon":5.409,"is_reserved":false,"is_disabled":false,"rental_uris":{"android":"levelo://app?vid=0eec46b1-4828-4b44-b0c0-454df459a71a","ios":"levelo://app?vid=0eec46b1-4828-4b44-b0c0-454df459a71a"},"vehicle_type_id":"4","last_reported":1734469663,"current_range_meters":38800,"station_id":"ce4bhm92rcd13ifvqglg","pricing_plan_id":"cebpf4jnsgd1na2vs0mg"},{"bike_id":"24216fde-815f-466d-ae48-7f1bdc5c763a","system_id":"levelo_inurba_marseille","lat":43.27566,"lon":5.38412,"is_reserved":false,"is_disabled":false,"rental_uris":{"android":"levelo://app?vid=24216fde-815f-466d-ae48-7f1bdc5c763a","ios":"levelo://app?vid=24216fde-815f-466d-ae48-7f1bdc5c763a"},"vehicle_type_id":"4","last_reported":1734469663,"current_range_meters":17600,"station_id":"ce4bhh92rcd13ifvqfi0","pricing_plan_id":"cebpf4jnsgd1na2vs0mg"},{"bike_id":"ef2f5e1d-6e01-45b2-93d6-22d7804baf5f","system_id":"levelo_inurba_marseille","lat":43.24999,"lon":5.38934,"is_reserved":false,"is_disabled":false,"rental_uris":{"android":"levelo://app?vid=ef2f5e1d-6e01-45b2-93d6-22d7804baf5f","ios":"levelo://app?vid=ef2f5e1d-6e01-45b2-93d6-22d7804baf5f"},"vehicle_type_id":"4","last_reported":1734469663,"current_range_meters":39200,"station_id":"ce4bhgp2rcd13ifvqfd0","pricing_plan_id":"cebpf4jnsgd1na2vs0mg"},{"bike_id":"4e24cd74-c1ed-48e3-ae04-94fae1db75bb","system_id":"levelo_inurba_marseille","lat":43.27076,"lon":5.42288,"is_reserved":false,"is_disabled":false,"rental_uris":{"android":"levelo://app?vid=4e24cd74-c1ed-48e3-ae04-94fae1db75bb","ios":"levelo://app?vid=4e24cd74-c1ed-48e3-ae04-94fae1db75bb"},"vehicle_type_id":"4","last_reported":1734469663,"current_range_meters":32800,"station_id":"ce4bhk92rcd13ifvqgb0","pricing_plan_id":"cebpf4jnsgd1na2vs0mg"},{"bike_id":"26c43c83-6910-4e0a-8324-4349a43db635","system_id":"levelo_inurba_marseille","lat":43.29246,"lon":5.38441,"is_reserved":false,"is_disabled":false,"rental_uris":{"android":"levelo://app?vid=26c43c83-6910-4e0a-8324-4349a43db635","ios":"levelo://app?vid=26c43c83-6910-4e0a-8324-4349a43db635"},"vehicle_type_id":"4","last_reported":1734469663,"current_range_meters":19600,"station_id":"ce4bh692rcd13ifvqea0","pricing_plan_id":"cebpf4jnsgd1na2vs0mg"},{"bike_id":"0e7ef96d-ad5e-420a-b1c4-9b5a5c093129","system_id":"levelo_inurba_marseille","lat":43.28851,"lon":5.35866,"is_reserved":false,"is_disabled":false,"rental_uris":{"android":"levelo://app?vid=0e7ef96d-ad5e-420a-b1c4-9b5a5c093129","ios":"levelo://app?vid=0e7ef96d-ad5e-420a-b1c4-9b5a5c093129"},"vehicle_type_id":"4","last_reported":1734469663,"current_range_meters":37600,"station_id":"ce4bhb12rcd13ifvqem0","pricing_plan_id":"cebpf4jnsgd1na2vs0mg"},{"bike_id":"8be702ea-8577-4b81-80bb-e24025cadc6b","system_id":"levelo_inurba_marseille","lat":43.28715,"lon":5.37946,"is_reserved":false,"is_disabled":false,"rental_uris":{"android":"levelo://app?vid=8be702ea-8577-4b81-80bb-e24025cadc6b","ios":"levelo://app?vid=8be702ea-8577-4b81-80bb-e24025cadc6b"},"vehicle_type_id":"4","last_reported":1734469663,"current_range_meters":28400,"station_id":"ce4bh9p2rcd13ifvqec0","pricing_plan_id":"cebpf4jnsgd1na2vs0mg"},{"bike_id":"7bf5b643-8941-4ca1-951d-05964437202f","system_id":"levelo_inurba_marseille","lat":43.30173,"lon":5.36623,"is_reserved":false,"is_disabled":true,"rental_uris":{"android":"levelo://app?vid=7bf5b643-8941-4ca1-951d-05964437202f","ios":"levelo://app?vid=7bf5b643-8941-4ca1-951d-05964437202f"},"vehicle_type_id":"4","last_reported":1734469663,"current_range_meters":0,"station_id":"ce4bgrh2rcd13ifvqc8g","pricing_plan_id":"cebpf4jnsgd1na2vs0mg"},{"bike_id":"289f0ac2-169c-4996-93c9-9c13fd50ee4f","system_id":"levelo_inurba_marseille","lat":43.29852,"lon":5.36294,"is_reserved":false,"is_disabled":false,"rental_uris":{"android":"levelo://app?vid=289f0ac2-169c-4996-93c9-9c13fd50ee4f","ios":"levelo://app?vid=289f0ac2-169c-4996-93c9-9c13fd50ee4f"},"vehicle_type_id":"4","last_reported":1734469663,"current_range_meters":36800,"station_id":"ce4bgpp2rcd13ifvqc3g","pricing_plan_id":"cebpf4jnsgd1na2vs0mg"},{"bike_id":"54065c85-ba2e-4a6d-acc2-5bf71045bd30","system_id":"levelo_inurba_marseille","lat":43.29298,"lon":5.3747,"is_reserved":false,"is_disabled":false,"rental_uris":{"android":"levelo://app?vid=54065c85-ba2e-4a6d-acc2-5bf71045bd30","ios":"levelo://app?vid=54065c85-ba2e-4a6d-acc2-5bf71045bd30"},"vehicle_type_id":"4","last_reported":1734469663,"current_range_meters":25200,"station_id":"ce4bgi12rcd13ifvqb70","pricing_plan_id":"cebpf4jnsgd1na2vs0mg"},{"bike_id":"dd6af1f0-c993-4840-965e-5e1ea0fcdec9","system_id":"levelo_inurba_marseille","lat":43.29864,"lon":5.38902,"is_reserved":false,"is_disabled":false,"rental_uris":{"android":"levelo://app?vid=dd6af1f0-c993-4840-965e-5e1ea0fcdec9","ios":"levelo://app?vid=dd6af1f0-c993-4840-965e-5e1ea0fcdec9"},"vehicle_type_id":"4","last_reported":1734469663,"current_range_meters":4800,"station_id":"ce4bh392rcd13ifvqdl0","pricing_plan_id":"cebpf4jnsgd1na2vs0mg"},{"bike_id":"ed09dfaa-01b1-4d3e-afd7-ea5b96ff4c88","system_id":"levelo_inurba_marseille","lat":43.29782,"lon":5.37104,"is_reserved":false,"is_disabled":false,"rental_uris":{"android":"levelo://app?vid=ed09dfaa-01b1-4d3e-afd7-ea5b96ff4c88","ios":"levelo://app?vid=ed09dfaa-01b1-4d3e-afd7-ea5b96ff4c88"},"vehicle_type_id":"4","last_reported":1734469663,"current_range_meters":37600,"station_id":"ce4bgop2rcd13ifvqc1g","pricing_plan_id":"cebpf4jnsgd1na2vs0mg"},{"bike_id":"be90ed6a-921d-40d0-9afc-3014846289cf","system_id":"levelo_inurba_marseille","lat":43.29193,"lon":5.39326,"is_reserved":false,"is_disabled":false,"rental_uris":{"android":"levelo://app?vid=be90ed6a-921d-40d0-9afc-3014846289cf","ios":"levelo://app?vid=be90ed6a-921d-40d0-9afc-3014846289cf"},"vehicle_type_id":"4","last_reported":1734469663,"current_range_meters":38000,"station_id":"ce4bh192rcd13ifvqdd0","pricing_plan_id":"cebpf4jnsgd1na2vs0mg"},{"bike_id":"58827829-e30a-478e-8d3c-af8c7606b368","system_id":"levelo_inurba_marseille","lat":43.30184,"lon":5.37861,"is_reserved":false,"is_disabled":false,"rental_uris":{"android":"levelo://app?vid=58827829-e30a-478e-8d3c-af8c7606b368","ios":"levelo://app?vid=58827829-e30a-478e-8d3c-af8c7606b368"},"vehicle_type_id":"4","last_reported":1734469663,"current_range_meters":14000,"station_id":"","pricing_plan_id":"cebpf4jnsgd1na2vs0mg"},{"bike_id":"cab5cb01-b33a-421c-bfaf-c7630f90de8b","system_id":"levelo_inurba_marseille","lat":43.29043,"lon":5.39962,"is_reserved":false,"is_disabled":true,"rental_uris":{"android":"levelo://app?vid=cab5cb01-b33a-421c-bfaf-c7630f90de8b","ios":"levelo://app?vid=cab5cb01-b33a-421c-bfaf-c7630f90de8b"},"vehicle_type_id":"4","last_reported":1734469663,"current_range_meters":1200,"station_id":"ce4bh392rcd13ifvqdm0","pricing_plan_id":"cebpf4jnsgd1na2vs0mg"},{"bike_id":"78f5dcee-b6ca-4cfa-ae6f-ebcf64be1236","system_id":"levelo_inurba_marseille","lat":43.32344,"lon":5.40606,"is_reserved":false,"is_disabled":true,"rental_uris":{"android":"levelo://app?vid=78f5dcee-b6ca-4cfa-ae6f-ebcf64be1236","ios":"levelo://app?vid=78f5dcee-b6ca-4cfa-ae6f-ebcf64be1236"},"vehicle_type_id":"4","last_reported":1734469663,"current_range_meters":0,"station_id":"ce4bhq92rcd13ifvqhjg","pricing_plan_id":"cebpf4jnsgd1na2vs0mg"},{"bike_id":"e589751b-b6de-4d76-a5ef-c55512c7f4c9","system_id":"levelo_inurba_marseille","lat":43.287037,"lon":5.379483,"is_reserved":false,"is_disabled":false,"rental_uris":{"android":"levelo://app?vid=e589751b-b6de-4d76-a5ef-c55512c7f4c9","ios":"levelo://app?vid=e589751b-b6de-4d76-a5ef-c55512c7f4c9"},"vehicle_type_id":"4","last_reported":1734469663,"current_range_meters":38800,"station_id":"ce4bh9p2rcd13ifvqec0","pricing_plan_id":"cebpf4jnsgd1na2vs0mg"},{"bike_id":"d1adb045-11f4-4330-9d2b-f77d89c262d4","system_id":"levelo_inurba_marseille","lat":43.29304,"lon":5.37177,"is_reserved":false,"is_disabled":true,"rental_uris":{"android":"levelo://app?vid=d1adb045-11f4-4330-9d2b-f77d89c262d4","ios":"levelo://app?vid=d1adb045-11f4-4330-9d2b-f77d89c262d4"},"vehicle_type_id":"4","last_reported":1734469663,"current_range_meters":35200,"station_id":"ce4bgh92rcd13ifvqb40","pricing_plan_id":"cebpf4jnsgd1na2vs0mg"},{"bike_id":"fb5ac6cd-6d94-4004-9473-07d3146ccb2b","system_id":"levelo_inurba_marseille","lat":43.28845,"lon":5.35854,"is_reserved":false,"is_disabled":false,"rental_uris":{"android":"levelo://app?vid=fb5ac6cd-6d94-4004-9473-07d3146ccb2b","ios":"levelo://app?vid=fb5ac6cd-6d94-4004-9473-07d3146ccb2b"},"vehicle_type_id":"4","last_reported":1734469663,"current_range_meters":30800,"station_id":"ce4bhb12rcd13ifvqem0","pricing_plan_id":"cebpf4jnsgd1na2vs0mg"},{"bike_id":"a33b825e-c779-4129-842f-aeba22c7390a","system_id":"levelo_inurba_marseille","lat":43.31698,"lon":5.40471,"is_reserved":false,"is_disabled":false,"rental_uris":{"android":"levelo://app?vid=a33b825e-c779-4129-842f-aeba22c7390a","ios":"levelo://app?vid=a33b825e-c779-4129-842f-aeba22c7390a"},"vehicle_type_id":"4","last_reported":1734469663,"current_range_meters":38800,"station_id":"ce4bh012rcd13ifvqd00","pricing_plan_id":"cebpf4jnsgd1na2vs0mg"},{"bike_id":"492fd9a4-6f47-465d-9838-b5fa8d28f268","system_id":"levelo_inurba_marseille","lat":43.24668,"lon":5.3816,"is_reserved":false,"is_disabled":false,"rental_uris":{"android":"levelo://app?vid=492fd9a4-6f47-465d-9838-b5fa8d28f268","ios":"levelo://app?vid=492fd9a4-6f47-465d-9838-b5fa8d28f268"},"vehicle_type_id":"4","last_reported":1734469663,"current_range_meters":32400,"station_id":"ce4bhih2rcd13ifvqfr0","pricing_plan_id":"cebpf4jnsgd1na2vs0mg"},{"bike_id":"84f6b5f7-8810-4dd9-b948-0e20c04766c6","system_id":"levelo_inurba_marseille","lat":43.24388,"lon":5.37057,"is_reserved":false,"is_disabled":false,"rental_uris":{"android":"levelo://app?vid=84f6b5f7-8810-4dd9-b948-0e20c04766c6","ios":"levelo://app?vid=84f6b5f7-8810-4dd9-b948-0e20c04766c6"},"vehicle_type_id":"4","last_reported":1734469663,"current_range_meters":38000,"station_id":"ce4bhhh2rcd13ifvqfk0","pricing_plan_id":"cebpf4jnsgd1na2vs0mg"},{"bike_id":"0bd5d813-d89e-42f3-8ce9-c06fb9ffedaa","system_id":"levelo_inurba_marseille","lat":43.28934,"lon":5.39638,"is_reserved":false,"is_disabled":true,"rental_uris":{"android":"levelo://app?vid=0bd5d813-d89e-42f3-8ce9-c06fb9ffedaa","ios":"levelo://app?vid=0bd5d813-d89e-42f3-8ce9-c06fb9ffedaa"},"vehicle_type_id":"4","last_reported":1734469663,"current_range_meters":36800,"station_id":"ce4bh3h2rcd13ifvqdn0","pricing_plan_id":"cebpf4jnsgd1na2vs0mg"},{"bike_id":"d730b6d2-b4b0-444f-b860-eed7a4f03c01","system_id":"levelo_inurba_marseille","lat":43.32558,"lon":5.41474,"is_reserved":false,"is_disabled":false,"rental_uris":{"android":"levelo://app?vid=d730b6d2-b4b0-444f-b860-eed7a4f03c01","ios":"levelo://app?vid=d730b6d2-b4b0-444f-b860-eed7a4f03c01"},"vehicle_type_id":"4","last_reported":1734469663,"current_range_meters":37600,"station_id":"ce4bhq12rcd13ifvqhhg","pricing_plan_id":"cebpf4jnsgd1na2vs0mg"},{"bike_id":"a2df7d87-51ca-433e-ad68-1e23a0ea5897","system_id":"levelo_inurba_marseille","lat":43.27998,"lon":5.40018,"is_reserved":false,"is_disabled":false,"rental_uris":{"android":"levelo://app?vid=a2df7d87-51ca-433e-ad68-1e23a0ea5897","ios":"levelo://app?vid=a2df7d87-51ca-433e-ad68-1e23a0ea5897"},"vehicle_type_id":"4","last_reported":1734469663,"current_range_meters":38800,"station_id":"ce4bho92rcd13ifvqh4g","pricing_plan_id":"cebpf4jnsgd1na2vs0mg"},{"bike_id":"9a9ca54f-8f83-4db0-b780-a7eb0fa7f88d","system_id":"levelo_inurba_marseille","lat":43.2603,"lon":5.37556,"is_reserved":false,"is_disabled":false,"rental_uris":{"android":"levelo://app?vid=9a9ca54f-8f83-4db0-b780-a7eb0fa7f88d","ios":"levelo://app?vid=9a9ca54f-8f83-4db0-b780-a7eb0fa7f88d"},"vehicle_type_id":"4","last_reported":1734469663,"current_range_meters":36800,"station_id":"ce4bhgh2rcd13ifvqfa0","pricing_plan_id":"cebpf4jnsgd1na2vs0mg"},{"bike_id":"e72fa642-30df-464a-831c-61ff9cf06808","system_id":"levelo_inurba_marseille","lat":43.23064,"lon":5.3549,"is_reserved":false,"is_disabled":false,"rental_uris":{"android":"levelo://app?vid=e72fa642-30df-464a-831c-61ff9cf06808","ios":"levelo://app?vid=e72fa642-30df-464a-831c-61ff9cf06808"},"vehicle_type_id":"4","last_reported":1734469663,"current_range_meters":38800,"station_id":"cpo3342slgdg3j2ifvpg","pricing_plan_id":"cebpf4jnsgd1na2vs0mg"},{"bike_id":"d11278df-255d-474b-8551-b85d363045e1","system_id":"levelo_inurba_marseille","lat":43.25117,"lon":5.40325,"is_reserved":false,"is_disabled":false,"rental_uris":{"android":"levelo://app?vid=d11278df-255d-474b-8551-b85d363045e1","ios":"levelo://app?vid=d11278df-255d-474b-8551-b85d363045e1"},"vehicle_type_id":"4","last_reported":1734469663,"current_range_meters":36400,"station_id":"ce4bhlh2rcd13ifvqgig","pricing_plan_id":"cebpf4jnsgd1na2vs0mg"},{"bike_id":"4ad89db2-d7ae-4790-9e48-447a4f27414c","system_id":"levelo_inurba_marseille","lat":43.26945,"lon":5.40262,"is_reserved":false,"is_disabled":false,"rental_uris":{"android":"levelo://app?vid=4ad89db2-d7ae-4790-9e48-447a4f27414c","ios":"levelo://app?vid=4ad89db2-d7ae-4790-9e48-447a4f27414c"},"vehicle_type_id":"4","last_reported":1734469663,"current_range_meters":37600,"station_id":"cjm6bp8fraef2m0cb0m0","pricing_plan_id":"cebpf4jnsgd1na2vs0mg"},{"bike_id":"95c69429-156c-453e-b2c0-5f65d6fe9b40","system_id":"levelo_inurba_marseille","lat":43.23185,"lon":5.39984,"is_reserved":false,"is_disabled":false,"rental_uris":{"android":"levelo://app?vid=95c69429-156c-453e-b2c0-5f65d6fe9b40","ios":"levelo://app?vid=95c69429-156c-453e-b2c0-5f65d6fe9b40"},"vehicle_type_id":"4","last_reported":1734469663,"current_range_meters":32400,"station_id":"ce4bhn12rcd13ifvqgqg","pricing_plan_id":"cebpf4jnsgd1na2vs0mg"},{"bike_id":"4cf5efef-ee90-4676-99d0-e0e11587cec4","system_id":"levelo_inurba_marseille","lat":43.31889,"lon":5.40742,"is_reserved":false,"is_disabled":false,"rental_uris":{"android":"levelo://app?vid=4cf5efef-ee90-4676-99d0-e0e11587cec4","ios":"levelo://app?vid=4cf5efef-ee90-4676-99d0-e0e11587cec4"},"vehicle_type_id":"4","last_reported":1734469663,"current_range_meters":25200,"station_id":"ce4bhq12rcd13ifvqhig","pricing_plan_id":"cebpf4jnsgd1na2vs0mg"},{"bike_id":"69e1d826-a892-40fb-b638-3424bcdbe302","system_id":"levelo_inurba_marseille","lat":43.29934,"lon":5.36529,"is_reserved":false,"is_disabled":false,"rental_uris":{"android":"levelo://app?vid=69e1d826-a892-40fb-b638-3424bcdbe302","ios":"levelo://app?vid=69e1d826-a892-40fb-b638-3424bcdbe302"},"vehicle_type_id":"4","last_reported":1734469663,"current_range_meters":32400,"station_id":"ce4bgm92rcd13ifvqbr0","pricing_plan_id":"cebpf4jnsgd1na2vs0mg"},{"bike_id":"30fd8802-cf54-4794-8c59-3422296724e2","system_id":"levelo_inurba_marseille","lat":43.306038,"lon":5.372305,"is_reserved":false,"is_disabled":false,"rental_uris":{"android":"levelo://app?vid=30fd8802-cf54-4794-8c59-3422296724e2","ios":"levelo://app?vid=30fd8802-cf54-4794-8c59-3422296724e2"},"vehicle_type_id":"4","last_reported":1734469663,"current_range_meters":26800,"station_id":"ce4bgqh2rcd13ifvqc4g","pricing_plan_id":"cebpf4jnsgd1na2vs0mg"},{"bike_id":"3381c992-2155-4905-b8e7-b88c0ddbf469","system_id":"levelo_inurba_marseille","lat":43.3021,"lon":5.3947,"is_reserved":false,"is_disabled":false,"rental_uris":{"android":"levelo://app?vid=3381c992-2155-4905-b8e7-b88c0ddbf469","ios":"levelo://app?vid=3381c992-2155-4905-b8e7-b88c0ddbf469"},"vehicle_type_id":"4","last_reported":1734469663,"current_range_meters":6000,"station_id":"ce4bh0p2rcd13ifvqd70","pricing_plan_id":"cebpf4jnsgd1na2vs0mg"},{"bike_id":"92d120ee-1efa-43e7-b67c-b82cb5bff379","system_id":"levelo_inurba_marseille","lat":43.30357,"lon":5.41875,"is_reserved":false,"is_disabled":false,"rental_uris":{"android":"levelo://app?vid=92d120ee-1efa-43e7-b67c-b82cb5bff379","ios":"levelo://app?vid=92d120ee-1efa-43e7-b67c-b82cb5bff379"},"vehicle_type_id":"4","last_reported":1734469663,"current_range_meters":37600,"station_id":"ce4bhop2rcd13ifvqh7g","pricing_plan_id":"cebpf4jnsgd1na2vs0mg"},{"bike_id":"50a1b483-75a8-46df-8fd4-ad528343937d","system_id":"levelo_inurba_marseille","lat":43.32015,"lon":5.38139,"is_reserved":false,"is_disabled":false,"rental_uris":{"android":"levelo://app?vid=50a1b483-75a8-46df-8fd4-ad528343937d","ios":"levelo://app?vid=50a1b483-75a8-46df-8fd4-ad528343937d"},"vehicle_type_id":"4","last_reported":1734469663,"current_range_meters":20000,"station_id":"ce4bhr12rcd13ifvqhpg","pricing_plan_id":"cebpf4jnsgd1na2vs0mg"},{"bike_id":"9b3b15b8-0e59-4d35-bc41-e6a64a1479d7","system_id":"levelo_inurba_marseille","lat":43.28029,"lon":5.36952,"is_reserved":false,"is_disabled":false,"rental_uris":{"android":"levelo://app?vid=9b3b15b8-0e59-4d35-bc41-e6a64a1479d7","ios":"levelo://app?vid=9b3b15b8-0e59-4d35-bc41-e6a64a1479d7"},"vehicle_type_id":"4","last_reported":1734469663,"current_range_meters":38800,"station_id":"ce4bha12rcd13ifvqef0","pricing_plan_id":"cebpf4jnsgd1na2vs0mg"},{"bike_id":"2b09ea36-bcb8-4205-9af2-996eadfb270a","system_id":"levelo_inurba_marseille","lat":43.30887,"lon":5.372,"is_reserved":false,"is_disabled":false,"rental_uris":{"android":"levelo://app?vid=2b09ea36-bcb8-4205-9af2-996eadfb270a","ios":"levelo://app?vid=2b09ea36-bcb8-4205-9af2-996eadfb270a"},"vehicle_type_id":"4","last_reported":1734469663,"current_range_meters":24800,"station_id":"ce4bguh2rcd13ifvqckg","pricing_plan_id":"cebpf4jnsgd1na2vs0mg"},{"bike_id":"197ed8a6-b80d-4d71-97e4-5f2cf13087a5","system_id":"levelo_inurba_marseille","lat":43.29181,"lon":5.37069,"is_reserved":false,"is_disabled":false,"rental_uris":{"android":"levelo://app?vid=197ed8a6-b80d-4d71-97e4-5f2cf13087a5","ios":"levelo://app?vid=197ed8a6-b80d-4d71-97e4-5f2cf13087a5"},"vehicle_type_id":"4","last_reported":1734469663,"current_range_meters":38000,"station_id":"","pricing_plan_id":"cebpf4jnsgd1na2vs0mg"},{"bike_id":"dfe6b3be-0791-4d99-b0cf-61d3b9eb3aa4","system_id":"levelo_inurba_marseille","lat":43.29189,"lon":5.39317,"is_reserved":false,"is_disabled":false,"rental_uris":{"android":"levelo://app?vid=dfe6b3be-0791-4d99-b0cf-61d3b9eb3aa4","ios":"levelo://app?vid=dfe6b3be-0791-4d99-b0cf-61d3b9eb3aa4"},"vehicle_type_id":"4","last_reported":1734469663,"current_range_meters":38800,"station_id":"ce4bh192rcd13ifvqdd0","pricing_plan_id":"cebpf4jnsgd1na2vs0mg"},{"bike_id":"c8399855-72d4-4f25-aa5a-52a18924a7b8","system_id":"levelo_inurba_marseille","lat":43.24161,"lon":5.36391,"is_reserved":false,"is_disabled":false,"rental_uris":{"android":"levelo://app?vid=c8399855-72d4-4f25-aa5a-52a18924a7b8","ios":"levelo://app?vid=c8399855-72d4-4f25-aa5a-52a18924a7b8"},"vehicle_type_id":"4","last_reported":1734469663,"current_range_meters":9200,"station_id":"cpo36qri1sfpv3e86is0","pricing_plan_id":"cebpf4jnsgd1na2vs0mg"},{"bike_id":"93c112eb-a42c-4696-b22e-232188c18f15","system_id":"levelo_inurba_marseille","lat":43.2871,"lon":5.39994,"is_reserved":false,"is_disabled":false,"rental_uris":{"android":"levelo://app?vid=93c112eb-a42c-4696-b22e-232188c18f15","ios":"levelo://app?vid=93c112eb-a42c-4696-b22e-232188c18f15"},"vehicle_type_id":"4","last_reported":1734469663,"current_range_meters":28400,"station_id":"ce4bho92rcd13ifvqh3g","pricing_plan_id":"cebpf4jnsgd1na2vs0mg"},{"bike_id":"cec5bdf2-0eed-4c84-8596-3e8e1dbb0650","system_id":"levelo_inurba_marseille","lat":43.32365,"lon":5.38872,"is_reserved":false,"is_disabled":true,"rental_uris":{"android":"levelo://app?vid=cec5bdf2-0eed-4c84-8596-3e8e1dbb0650","ios":"levelo://app?vid=cec5bdf2-0eed-4c84-8596-3e8e1dbb0650"},"vehicle_type_id":"4","last_reported":1734469663,"current_range_meters":1600,"station_id":"ce4bhqp2rcd13ifvqhog","pricing_plan_id":"cebpf4jnsgd1na2vs0mg"},{"bike_id":"caccf3df-025c-4334-8486-611a28578717","system_id":"levelo_inurba_marseille","lat":43.24666,"lon":5.38154,"is_reserved":false,"is_disabled":true,"rental_uris":{"android":"levelo://app?vid=caccf3df-025c-4334-8486-611a28578717","ios":"levelo://app?vid=caccf3df-025c-4334-8486-611a28578717"},"vehicle_type_id":"4","last_reported":1734469663,"current_range_meters":0,"station_id":"ce4bhih2rcd13ifvqfr0","pricing_plan_id":"cebpf4jnsgd1na2vs0mg"},{"bike_id":"f4b3fee4-b22d-4e10-9cb7-989becb0ffca","system_id":"levelo_inurba_marseille","lat":43.29411,"lon":5.38605,"is_reserved":false,"is_disabled":false,"rental_uris":{"android":"levelo://app?vid=f4b3fee4-b22d-4e10-9cb7-989becb0ffca","ios":"levelo://app?vid=f4b3fee4-b22d-4e10-9cb7-989becb0ffca"},"vehicle_type_id":"4","last_reported":1734469663,"current_range_meters":33600,"station_id":"ce4bh2h2rcd13ifvqdh0","pricing_plan_id":"cebpf4jnsgd1na2vs0mg"},{"bike_id":"bed9f871-1620-4564-be1d-0c9369e670e1","system_id":"levelo_inurba_marseille","lat":43.2989,"lon":5.38924,"is_reserved":false,"is_disabled":false,"rental_uris":{"android":"levelo://app?vid=bed9f871-1620-4564-be1d-0c9369e670e1","ios":"levelo://app?vid=bed9f871-1620-4564-be1d-0c9369e670e1"},"vehicle_type_id":"4","last_reported":1734469663,"current_range_meters":37600,"station_id":"ce4bh392rcd13ifvqdl0","pricing_plan_id":"cebpf4jnsgd1na2vs0mg"},{"bike_id":"68e51c02-3683-4381-98ef-adad806a9dd6","system_id":"levelo_inurba_marseille","lat":43.29969,"lon":5.38496,"is_reserved":false,"is_disabled":false,"rental_uris":{"android":"levelo://app?vid=68e51c02-3683-4381-98ef-adad806a9dd6","ios":"levelo://app?vid=68e51c02-3683-4381-98ef-adad806a9dd6"},"vehicle_type_id":"4","last_reported":1734469663,"current_range_meters":34000,"station_id":"ce4bgj92rcd13ifvqbd0","pricing_plan_id":"cebpf4jnsgd1na2vs0mg"},{"bike_id":"c09638b7-3192-49b1-a7f3-9c0b3cb98f80","system_id":"levelo_inurba_marseille","lat":43.27988,"lon":5.41658,"is_reserved":false,"is_disabled":false,"rental_uris":{"android":"levelo://app?vid=c09638b7-3192-49b1-a7f3-9c0b3cb98f80","ios":"levelo://app?vid=c09638b7-3192-49b1-a7f3-9c0b3cb98f80"},"vehicle_type_id":"4","last_reported":1734469663,"current_range_meters":38800,"station_id":"ce4bho12rcd13ifvqh1g","pricing_plan_id":"cebpf4jnsgd1na2vs0mg"},{"bike_id":"52c40365-769a-4fa7-a581-4514d91b7deb","system_id":"levelo_inurba_marseille","lat":43.30537,"lon":5.36704,"is_reserved":false,"is_disabled":false,"rental_uris":{"android":"levelo://app?vid=52c40365-769a-4fa7-a581-4514d91b7deb","ios":"levelo://app?vid=52c40365-769a-4fa7-a581-4514d91b7deb"},"vehicle_type_id":"4","last_reported":1734469663,"current_range_meters":28000,"station_id":"ce4bgrp2rcd13ifvqc9g","pricing_plan_id":"cebpf4jnsgd1na2vs0mg"},{"bike_id":"76adf408-c037-4157-88f5-eab2cfbef1ca","system_id":"levelo_inurba_marseille","lat":43.33035,"lon":5.39043,"is_reserved":false,"is_disabled":false,"rental_uris":{"android":"levelo://app?vid=76adf408-c037-4157-88f5-eab2cfbef1ca","ios":"levelo://app?vid=76adf408-c037-4157-88f5-eab2cfbef1ca"},"vehicle_type_id":"4","last_reported":1734469663,"current_range_meters":30000,"station_id":"ce4bhr92rcd13ifvqhrg","pricing_plan_id":"cebpf4jnsgd1na2vs0mg"},{"bike_id":"7c6e62f7-fb8f-41ca-9a81-0c4aa82b9f20","system_id":"levelo_inurba_marseille","lat":43.28672,"lon":5.36356,"is_reserved":false,"is_disabled":false,"rental_uris":{"android":"levelo://app?vid=7c6e62f7-fb8f-41ca-9a81-0c4aa82b9f20","ios":"levelo://app?vid=7c6e62f7-fb8f-41ca-9a81-0c4aa82b9f20"},"vehicle_type_id":"4","last_reported":1734469663,"current_range_meters":38800,"station_id":"ce4bhah2rcd13ifvqej0","pricing_plan_id":"cebpf4jnsgd1na2vs0mg"},{"bike_id":"6942567f-2f57-4c06-bb03-2dde2ecb08fc","system_id":"levelo_inurba_marseille","lat":43.29285,"lon":5.37437,"is_reserved":false,"is_disabled":false,"rental_uris":{"android":"levelo://app?vid=6942567f-2f57-4c06-bb03-2dde2ecb08fc","ios":"levelo://app?vid=6942567f-2f57-4c06-bb03-2dde2ecb08fc"},"vehicle_type_id":"4","last_reported":1734469663,"current_range_meters":38800,"station_id":"ce4bgi12rcd13ifvqb70","pricing_plan_id":"cebpf4jnsgd1na2vs0mg"},{"bike_id":"91ee1933-7065-49af-8683-d92c503f6ac5","system_id":"levelo_inurba_marseille","lat":43.26683,"lon":5.38269,"is_reserved":false,"is_disabled":false,"rental_uris":{"android":"levelo://app?vid=91ee1933-7065-49af-8683-d92c503f6ac5","ios":"levelo://app?vid=91ee1933-7065-49af-8683-d92c503f6ac5"},"vehicle_type_id":"4","last_reported":1734469663,"current_range_meters":22000,"station_id":"ce4bhg92rcd13ifvqf90","pricing_plan_id":"cebpf4jnsgd1na2vs0mg"},{"bike_id":"b0b5ca3b-6a23-4037-8add-3940b0ed01fc","system_id":"levelo_inurba_marseille","lat":43.28111,"lon":5.37834,"is_reserved":false,"is_disabled":false,"rental_uris":{"android":"levelo://app?vid=b0b5ca3b-6a23-4037-8add-3940b0ed01fc","ios":"levelo://app?vid=b0b5ca3b-6a23-4037-8add-3940b0ed01fc"},"vehicle_type_id":"4","last_reported":1734469663,"current_range_meters":27200,"station_id":"ce4bha12rcd13ifvqee0","pricing_plan_id":"cebpf4jnsgd1na2vs0mg"},{"bike_id":"e234880d-a291-45ed-8a9a-6a83de9cc650","system_id":"levelo_inurba_marseille","lat":43.28946,"lon":5.36386,"is_reserved":false,"is_disabled":false,"rental_uris":{"android":"levelo://app?vid=e234880d-a291-45ed-8a9a-6a83de9cc650","ios":"levelo://app?vid=e234880d-a291-45ed-8a9a-6a83de9cc650"},"vehicle_type_id":"4","last_reported":1734469663,"current_range_meters":24800,"station_id":"ce4bhc92rcd13ifvqetg","pricing_plan_id":"cebpf4jnsgd1na2vs0mg"},{"bike_id":"dac211e7-f278-4f35-910f-62503c1e8281","system_id":"levelo_inurba_marseille","lat":43.31371,"lon":5.385,"is_reserved":false,"is_disabled":false,"rental_uris":{"android":"levelo://app?vid=dac211e7-f278-4f35-910f-62503c1e8281","ios":"levelo://app?vid=dac211e7-f278-4f35-910f-62503c1e8281"},"vehicle_type_id":"4","last_reported":1734469663,"current_range_meters":38800,"station_id":"ce4bgt92rcd13ifvqcf0","pricing_plan_id":"cebpf4jnsgd1na2vs0mg"},{"bike_id":"563b4e1d-2e56-47c0-afec-7afc5fbabbcb","system_id":"levelo_inurba_marseille","lat":43.32157,"lon":5.374645,"is_reserved":false,"is_disabled":false,"rental_uris":{"android":"levelo://app?vid=563b4e1d-2e56-47c0-afec-7afc5fbabbcb","ios":"levelo://app?vid=563b4e1d-2e56-47c0-afec-7afc5fbabbcb"},"vehicle_type_id":"4","last_reported":1734469663,"current_range_meters":34800,"station_id":"","pricing_plan_id":"cebpf4jnsgd1na2vs0mg"},{"bike_id":"da878549-1495-42d0-839f-44eaf08528cc","system_id":"levelo_inurba_marseille","lat":43.315166,"lon":5.372672,"is_reserved":false,"is_disabled":false,"rental_uris":{"android":"levelo://app?vid=da878549-1495-42d0-839f-44eaf08528cc","ios":"levelo://app?vid=da878549-1495-42d0-839f-44eaf08528cc"},"vehicle_type_id":"4","last_reported":1734469663,"current_range_meters":38000,"station_id":"ce4bgt12rcd13ifvqcd0","pricing_plan_id":"cebpf4jnsgd1na2vs0mg"},{"bike_id":"b2d380e8-08ed-495f-a052-5d7dfa068f5b","system_id":"levelo_inurba_marseille","lat":43.26949,"lon":5.3863,"is_reserved":false,"is_disabled":true,"rental_uris":{"android":"levelo://app?vid=b2d380e8-08ed-495f-a052-5d7dfa068f5b","ios":"levelo://app?vid=b2d380e8-08ed-495f-a052-5d7dfa068f5b"},"vehicle_type_id":"4","last_reported":1734469663,"current_range_meters":0,"station_id":"ce4bhh92rcd13ifvqfh0","pricing_plan_id":"cebpf4jnsgd1na2vs0mg"},{"bike_id":"262db747-5df7-439b-b4e7-c313a4a57308","system_id":"levelo_inurba_marseille","lat":43.27816,"lon":5.40721,"is_reserved":false,"is_disabled":false,"rental_uris":{"android":"levelo://app?vid=262db747-5df7-439b-b4e7-c313a4a57308","ios":"levelo://app?vid=262db747-5df7-439b-b4e7-c313a4a57308"},"vehicle_type_id":"4","last_reported":1734469663,"current_range_meters":18000,"station_id":"ce4bhnh2rcd13ifvqgtg","pricing_plan_id":"cebpf4jnsgd1na2vs0mg"},{"bike_id":"0a09a248-9970-4ffb-8957-420624d5c825","system_id":"levelo_inurba_marseille","lat":43.23194,"lon":5.35554,"is_reserved":false,"is_disabled":false,"rental_uris":{"android":"levelo://app?vid=0a09a248-9970-4ffb-8957-420624d5c825","ios":"levelo://app?vid=0a09a248-9970-4ffb-8957-420624d5c825"},"vehicle_type_id":"4","last_reported":1734469663,"current_range_meters":38400,"station_id":"ce4bhu92rcd13ifvqi70","pricing_plan_id":"cebpf4jnsgd1na2vs0mg"},{"bike_id":"40b9ed49-cf3b-4ef3-bb1d-862bea75c0eb","system_id":"levelo_inurba_marseille","lat":43.29447,"lon":5.39745,"is_reserved":false,"is_disabled":false,"rental_uris":{"android":"levelo://app?vid=40b9ed49-cf3b-4ef3-bb1d-862bea75c0eb","ios":"levelo://app?vid=40b9ed49-cf3b-4ef3-bb1d-862bea75c0eb"},"vehicle_type_id":"4","last_reported":1734469663,"current_range_meters":26800,"station_id":"ce4bh3h2rcd13ifvqdo0","pricing_plan_id":"cebpf4jnsgd1na2vs0mg"},{"bike_id":"d5c6ce19-842a-4c0c-a604-a28cc7cbaeab","system_id":"levelo_inurba_marseille","lat":43.28706,"lon":5.39987,"is_reserved":false,"is_disabled":false,"rental_uris":{"android":"levelo://app?vid=d5c6ce19-842a-4c0c-a604-a28cc7cbaeab","ios":"levelo://app?vid=d5c6ce19-842a-4c0c-a604-a28cc7cbaeab"},"vehicle_type_id":"4","last_reported":1734469663,"current_range_meters":38800,"station_id":"ce4bho92rcd13ifvqh3g","pricing_plan_id":"cebpf4jnsgd1na2vs0mg"},{"bike_id":"82f7f145-591c-4ce0-8f76-660882a2845e","system_id":"levelo_inurba_marseille","lat":43.33606,"lon":5.41009,"is_reserved":false,"is_disabled":true,"rental_uris":{"android":"levelo://app?vid=82f7f145-591c-4ce0-8f76-660882a2845e","ios":"levelo://app?vid=82f7f145-591c-4ce0-8f76-660882a2845e"},"vehicle_type_id":"4","last_reported":1734469663,"current_range_meters":33600,"station_id":"ce4bhqh2rcd13ifvqhmg","pricing_plan_id":"cebpf4jnsgd1na2vs0mg"},{"bike_id":"8b1dc1a5-df80-4e91-b546-ad33853239ae","system_id":"levelo_inurba_marseille","lat":43.29026,"lon":5.38649,"is_reserved":false,"is_disabled":false,"rental_uris":{"android":"levelo://app?vid=8b1dc1a5-df80-4e91-b546-ad33853239ae","ios":"levelo://app?vid=8b1dc1a5-df80-4e91-b546-ad33853239ae"},"vehicle_type_id":"4","last_reported":1734469663,"current_range_meters":24000,"station_id":"ce4bh4p2rcd13ifvqe0g","pricing_plan_id":"cebpf4jnsgd1na2vs0mg"},{"bike_id":"2ea2b566-c7ff-42df-9b9e-cc74037c16c1","system_id":"levelo_inurba_marseille","lat":43.28728,"lon":5.36079,"is_reserved":false,"is_disabled":false,"rental_uris":{"android":"levelo://app?vid=2ea2b566-c7ff-42df-9b9e-cc74037c16c1","ios":"levelo://app?vid=2ea2b566-c7ff-42df-9b9e-cc74037c16c1"},"vehicle_type_id":"4","last_reported":1734469663,"current_range_meters":38800,"station_id":"cki0cbj6b192h4jlfktg","pricing_plan_id":"cebpf4jnsgd1na2vs0mg"},{"bike_id":"a5507f5f-495d-449e-be0e-e7373f1f8861","system_id":"levelo_inurba_marseille","lat":43.29228,"lon":5.360625,"is_reserved":false,"is_disabled":false,"rental_uris":{"android":"levelo://app?vid=a5507f5f-495d-449e-be0e-e7373f1f8861","ios":"levelo://app?vid=a5507f5f-495d-449e-be0e-e7373f1f8861"},"vehicle_type_id":"4","last_reported":1734469663,"current_range_meters":29600,"station_id":"ce4bhbh2rcd13ifvqeqg","pricing_plan_id":"cebpf4jnsgd1na2vs0mg"},{"bike_id":"ac7c5f56-daad-496c-965f-9103737000e8","system_id":"levelo_inurba_marseille","lat":43.23965,"lon":5.36642,"is_reserved":false,"is_disabled":false,"rental_uris":{"android":"levelo://app?vid=ac7c5f56-daad-496c-965f-9103737000e8","ios":"levelo://app?vid=ac7c5f56-daad-496c-965f-9103737000e8"},"vehicle_type_id":"4","last_reported":1734469663,"current_range_meters":38800,"station_id":"ce4bhi12rcd13ifvqfp0","pricing_plan_id":"cebpf4jnsgd1na2vs0mg"},{"bike_id":"3042285c-4f36-4e00-aa8e-2f4445e3a69e","system_id":"levelo_inurba_marseille","lat":43.32371,"lon":5.38869,"is_reserved":false,"is_disabled":false,"rental_uris":{"android":"levelo://app?vid=3042285c-4f36-4e00-aa8e-2f4445e3a69e","ios":"levelo://app?vid=3042285c-4f36-4e00-aa8e-2f4445e3a69e"},"vehicle_type_id":"4","last_reported":1734469663,"current_range_meters":38800,"station_id":"ce4bhqp2rcd13ifvqhog","pricing_plan_id":"cebpf4jnsgd1na2vs0mg"},{"bike_id":"0c22cb05-eefd-40f6-9c4c-a47a4ecfb9d5","system_id":"levelo_inurba_marseille","lat":43.31708,"lon":5.3776,"is_reserved":false,"is_disabled":false,"rental_uris":{"android":"levelo://app?vid=0c22cb05-eefd-40f6-9c4c-a47a4ecfb9d5","ios":"levelo://app?vid=0c22cb05-eefd-40f6-9c4c-a47a4ecfb9d5"},"vehicle_type_id":"4","last_reported":1734469663,"current_range_meters":23200,"station_id":"ce4bgth2rcd13ifvqch0","pricing_plan_id":"cebpf4jnsgd1na2vs0mg"},{"bike_id":"f5d6a80f-4cdc-43d9-a251-ed5436737e28","system_id":"levelo_inurba_marseille","lat":43.3153,"lon":5.38036,"is_reserved":false,"is_disabled":false,"rental_uris":{"android":"levelo://app?vid=f5d6a80f-4cdc-43d9-a251-ed5436737e28","ios":"levelo://app?vid=f5d6a80f-4cdc-43d9-a251-ed5436737e28"},"vehicle_type_id":"4","last_reported":1734469663,"current_range_meters":39200,"station_id":"ce4bhsp2rcd13ifvqi50","pricing_plan_id":"cebpf4jnsgd1na2vs0mg"},{"bike_id":"cb66e355-1e6f-4e42-9686-091df755abf7","system_id":"levelo_inurba_marseille","lat":43.25008,"lon":5.38914,"is_reserved":false,"is_disabled":false,"rental_uris":{"android":"levelo://app?vid=cb66e355-1e6f-4e42-9686-091df755abf7","ios":"levelo://app?vid=cb66e355-1e6f-4e42-9686-091df755abf7"},"vehicle_type_id":"4","last_reported":1734469663,"current_range_meters":23200,"station_id":"ce4bhgp2rcd13ifvqfd0","pricing_plan_id":"cebpf4jnsgd1na2vs0mg"},{"bike_id":"2930b0aa-490d-4fb3-8a08-264fb66d6945","system_id":"levelo_inurba_marseille","lat":43.24655,"lon":5.38901,"is_reserved":false,"is_disabled":false,"rental_uris":{"android":"levelo://app?vid=2930b0aa-490d-4fb3-8a08-264fb66d6945","ios":"levelo://app?vid=2930b0aa-490d-4fb3-8a08-264fb66d6945"},"vehicle_type_id":"4","last_reported":1734469663,"current_range_meters":31200,"station_id":"ce4bhg12rcd13ifvqf60","pricing_plan_id":"cebpf4jnsgd1na2vs0mg"},{"bike_id":"883b3f1b-01c4-47c7-9978-e5f0ddf771b8","system_id":"levelo_inurba_marseille","lat":43.33014,"lon":5.39085,"is_reserved":false,"is_disabled":false,"rental_uris":{"android":"levelo://app?vid=883b3f1b-01c4-47c7-9978-e5f0ddf771b8","ios":"levelo://app?vid=883b3f1b-01c4-47c7-9978-e5f0ddf771b8"},"vehicle_type_id":"4","last_reported":1734469663,"current_range_meters":19600,"station_id":"ce4bhr92rcd13ifvqhrg","pricing_plan_id":"cebpf4jnsgd1na2vs0mg"},