{"last_updated":1699711527,"ttl":30,"version":"2.2","data":{"bikes":[{"bike_id":"1bc6bf34-6de1-4f22-a9d6-67322f458c16","system_id":"levelo_inurba_marseille","lat":43.30901,"lon":5.36842,"is_reserved":false,"is_disabled":false,"rental_uris":{"android":"levelo://app?vid=1bc6bf34-6de1-4f22-a9d6-67322f458c16","ios":"levelo://app?vid=1bc6bf34-6de1-4f22-a9d6-67322f458c16"},"vehicle_type_id":"4","last_reported":1699711527,"current_range_meters":400,"station_id":"ce4bgn92rcd13ifvqbvg","pricing_plan_id":"free"},{"bike_id":"a303c1eb-c1f9-4f91-8e86-71c806c20ac5","system_id":"levelo_inurba_marseille","lat":43.311595,"lon":5.372786,"is_reserved":false,"is_disabled":false,"rental_uris":{"android":"levelo://app?vid=a303c1eb-c1f9-4f91-8e86-71c806c20ac5","ios":"levelo://app?vid=a303c1eb-c1f9-4f91-8e86-71c806c20ac5"},"vehicle_type_id":"4","last_reported":1699711527,"current_range_meters":28400,"station_id":"","pricing_plan_id":"free"},{"bike_id":"92ef22b7-f0c0-4cb1-a95e-d4774413dd07","system_id":"levelo_inurba_marseille","lat":43.314811,"lon":5.373103,"is_reserved":false,"is_disabled":false,"rental_uris":{"android":"levelo://app?vid=92ef22b7-f0c0-4cb1-a95e-d4774413dd07","ios":"levelo://app?vid=92ef22b7-f0c0-4cb1-a95e-d4774413dd07"},"vehicle_type_id":"4","last_reported":1699711527,"current_range_meters":26000,"station_id":"ce4bgt12rcd13ifvqcd0","pricing_plan_id":"free"},{"bike_id":"62ce96af-f442-43f9-9cbb-92612d6ed10b","system_id":"levelo_inurba_marseille","lat":43.314811,"lon":5.373104,"is_reserved":false,"is_disabled":false,"rental_uris":{"android":"levelo://app?vid=62ce96af-f442-43f9-9cbb-92612d6ed10b","ios":"levelo://app?vid=62ce96af-f442-43f9-9cbb-92612d6ed10b"},"vehicle_type_id":"4","last_reported":1699711527,"current_range_meters":21600,"station_id":"ce4bgt12rcd13ifvqcd0","pricing_plan_id":"free"},{"bike_id":"18b61f3a-86b8-42c9-b8b3-8adced6f44dd","system_id":"levelo_inurba_marseille","lat":43.308817,"lon":5.371951,"is_reserved":false,"is_disabled":false,"rental_uris":{"android":"levelo://app?vid=18b61f3a-86b8-42c9-b8b3-8adced6f44dd","ios":"levelo://app?vid=18b61f3a-86b8-42c9-b8b3-8adced6f44dd"},"vehicle_type_id":"4","last_reported":1699711527,"current_range_meters":7600,"station_id":"ce4bguh2rcd13ifvqckg","pricing_plan_id":"free"},{"bike_id":"5ba9c7de-61cc-4163-8869-30e4d4b3feb2","system_id":"levelo_inurba_marseille","lat":43.30546,"lon":5.36535,"is_reserved":false,"is_disabled":false,"rental_uris":{"android":"levelo://app?vid=5ba9c7de-61cc-4163-8869-30e4d4b3feb2","ios":"levelo://app?vid=5ba9c7de-61cc-4163-8869-30e4d4b3feb2"},"vehicle_type_id":"4","last_reported":1699711527,"current_range_meters":0,"station_id":"ce4bgs12rcd13ifvqcag","pricing_plan_id":"free"},{"bike_id":"76b359af-c20b-45d0-a1df-78f4c9a6553a","system_id":"levelo_inurba_marseille","lat":43.305714,"lon":5.365633,"is_reserved":false,"is_disabled":false,"rental_uris":{"android":"levelo://app?vid=76b359af-c20b-45d0-a1df-78f4c9a6553a","ios":"levelo://app?vid=76b359af-c20b-45d0-a1df-78f4c9a6553a"},"vehicle_type_id":"4","last_reported":1699711527,"current_range_meters":18800,"station_id":"ce4bgs12rcd13ifvqcag","pricing_plan_id":"free"},{"bike_id":"1bd15734-d976-4cec-9483-6e7eaedf1e2c","system_id":"levelo_inurba_marseille","lat":43.305368,"lon":5.367343,"is_reserved":false,"is_disabled":false,"rental_uris":{"android":"levelo://app?vid=1bd15734-d976-4cec-9483-6e7eaedf1e2c","ios":"levelo://app?vid=1bd15734-d976-4cec-9483-6e7eaedf1e2c"},"vehicle_type_id":"4","last_reported":1699711527,"current_range_meters":17600,"station_id":"ce4bgrp2rcd13ifvqc9g","pricing_plan_id":"free"},{"bike_id":"f819bbef-4398-4e90-920d-2989cc1c540c","system_id":"levelo_inurba_marseille","lat":43.311131,"lon":5.377651,"is_reserved":false,"is_disabled":false,"rental_uris":{"android":"levelo://app?vid=f819bbef-4398-4e90-920d-2989cc1c540c","ios":"levelo://app?vid=f819bbef-4398-4e90-920d-2989cc1c540c"},"vehicle_type_id":"4","last_reported":1699711527,"current_range_meters":4800,"station_id":"ce4bgt92rcd13ifvqcg0","pricing_plan_id":"free"},{"bike_id":"57053367-5328-4d78-8951-737f56b37ed9","system_id":"levelo_inurba_marseille","lat":43.319924,"lon":5.373389,"is_reserved":false,"is_disabled":false,"rental_uris":{"android":"levelo://app?vid=57053367-5328-4d78-8951-737f56b37ed9","ios":"levelo://app?vid=57053367-5328-4d78-8951-737f56b37ed9"},"vehicle_type_id":"4","last_reported":1699711527,"current_range_meters":18400,"station_id":"","pricing_plan_id":"free"},{"bike_id":"7fc02f60-4dd1-49fd-b17f-897e8e9a3cc1","system_id":"levelo_inurba_marseille","lat":43.30974,"lon":5.37961,"is_reserved":false,"is_disabled":false,"rental_uris":{"android":"levelo://app?vid=7fc02f60-4dd1-49fd-b17f-897e8e9a3cc1","ios":"levelo://app?vid=7fc02f60-4dd1-49fd-b17f-897e8e9a3cc1"},"vehicle_type_id":"4","last_reported":1699711527,"current_range_meters":27200,"station_id":"","pricing_plan_id":"free"},{"bike_id":"a6f729b5-0d4f-47d5-ab60-824e5274d81c","system_id":"levelo_inurba_marseille","lat":43.30304,"lon":5.368987,"is_reserved":false,"is_disabled":false,"rental_uris":{"android":"levelo://app?vid=a6f729b5-0d4f-47d5-ab60-824e5274d81c","ios":"levelo://app?vid=a6f729b5-0d4f-47d5-ab60-824e5274d81c"},"vehicle_type_id":"4","last_reported":1699711527,"current_range_meters":22000,"station_id":"ce4bgqh2rcd13ifvqc5g","pricing_plan_id":"free"},{"bike_id":"396acf64-f435-4d11-b655-923c3feb0902","system_id":"levelo_inurba_marseille","lat":43.301939,"lon":5.366286,"is_reserved":false,"is_disabled":false,"rental_uris":{"android":"levelo://app?vid=396acf64-f435-4d11-b655-923c3feb0902","ios":"levelo://app?vid=396acf64-f435-4d11-b655-923c3feb0902"},"vehicle_type_id":"4","last_reported":1699711527,"current_range_meters":12000,"station_id":"ce4bgrh2rcd13ifvqc8g","pricing_plan_id":"free"},{"bike_id":"a26a672c-8f86-40f5-9e8e-9856cf399a24","system_id":"levelo_inurba_marseille","lat":43.308012,"lon":5.381511,"is_reserved":false,"is_disabled":false,"rental_uris":{"android":"levelo://app?vid=a26a672c-8f86-40f5-9e8e-9856cf399a24","ios":"levelo://app?vid=a26a672c-8f86-40f5-9e8e-9856cf399a24"},"vehicle_type_id":"4","last_reported":1699711527,"current_range_meters":26800,"station_id":"ce4bgt12rcd13ifvqce0","pricing_plan_id":"free"},{"bike_id":"d06268fc-aecf-44e5-9426-8993eeea8481","system_id":"levelo_inurba_marseille","lat":43.304606,"lon":5.379026,"is_reserved":false,"is_disabled":false,"rental_uris":{"android":"levelo://app?vid=d06268fc-aecf-44e5-9426-8993eeea8481","ios":"levelo://app?vid=d06268fc-aecf-44e5-9426-8993eeea8481"},"vehicle_type_id":"4","last_reported":1699711527,"current_range_meters":18800,"station_id":"ce4bgup2rcd13ifvqcn0","pricing_plan_id":"free"},{"bike_id":"bc0adf06-9cc1-4c6d-a6f7-68e39b66ea92","system_id":"levelo_inurba_marseille","lat":43.324789,"lon":5.365589,"is_reserved":false,"is_disabled":false,"rental_uris":{"android":"levelo://app?vid=bc0adf06-9cc1-4c6d-a6f7-68e39b66ea92","ios":"levelo://app?vid=bc0adf06-9cc1-4c6d-a6f7-68e39b66ea92"},"vehicle_type_id":"4","last_reported":1699711527,"current_range_meters":0,"station_id":"ce4bhs12rcd13ifvqhvg","pricing_plan_id":"free"},{"bike_id":"8ef52193-4a3c-4256-8c92-d02dc1148f05","system_id":"levelo_inurba_marseille","lat":43.324771,"lon":5.36557,"is_reserved":false,"is_disabled":false,"rental_uris":{"android":"levelo://app?vid=8ef52193-4a3c-4256-8c92-d02dc1148f05","ios":"levelo://app?vid=8ef52193-4a3c-4256-8c92-d02dc1148f05"},"vehicle_type_id":"4","last_reported":1699711527,"current_range_meters":12000,"station_id":"ce4bhs12rcd13ifvqhvg","pricing_plan_id":"free"},{"bike_id":"7dce49f1-c12f-48cf-ae55-083a915b8363","system_id":"levelo_inurba_marseille","lat":43.301429,"lon":5.37413,"is_reserved":false,"is_disabled":false,"rental_uris":{"android":"levelo://app?vid=7dce49f1-c12f-48cf-ae55-083a915b8363","ios":"levelo://app?vid=7dce49f1-c12f-48cf-ae55-083a915b8363"},"vehicle_type_id":"4","last_reported":1699711527,"current_range_meters":16400,"station_id":"ce4bgs92rcd13ifvqcc0","pricing_plan_id":"free"},{"bike_id":"b17b768d-7050-4a2e-8c7a-bda6763e5bf7","system_id":"levelo_inurba_marseille","lat":43.30143,"lon":5.37413,"is_reserved":false,"is_disabled":false,"rental_uris":{"android":"levelo://app?vid=b17b768d-7050-4a2e-8c7a-bda6763e5bf7","ios":"levelo://app?vid=b17b768d-7050-4a2e-8c7a-bda6763e5bf7"},"vehicle_type_id":"4","last_reported":1699711527,"current_range_meters":6800,"station_id":"ce4bgs92rcd13ifvqcc0","pricing_plan_id":"free"},{"bike_id":"3bdb75fc-09a8-4f86-a33a-2bf101622990","system_id":"levelo_inurba_marseille","lat":43.30144,"lon":5.37408,"is_reserved":false,"is_disabled":false,"rental_uris":{"android":"levelo://app?vid=3bdb75fc-09a8-4f86-a33a-2bf101622990","ios":"levelo://app?vid=3bdb75fc-09a8-4f86-a33a-2bf101622990"},"vehicle_type_id":"4","last_reported":1699711527,"current_range_meters":13200,"station_id":"ce4bgs92rcd13ifvqcc0","pricing_plan_id":"free"},{"bike_id":"3dfdc2f4-8851-4848-8441-1e9a9546fe42","system_id":"levelo_inurba_marseille","lat":43.31644,"lon":5.383305,"is_reserved":false,"is_disabled":false,"rental_uris":{"android":"levelo://app?vid=3dfdc2f4-8851-4848-8441-1e9a9546fe42","ios":"levelo://app?vid=3dfdc2f4-8851-4848-8441-1e9a9546fe42"},"vehicle_type_id":"4","last_reported":1699711527,"current_range_meters":18000,"station_id":"","pricing_plan_id":"free"},{"bike_id":"dca3067b-1d3f-48b1-a865-7f17df450a91","system_id":"levelo_inurba_marseille","lat":43.301429,"lon":5.37413,"is_reserved":false,"is_disabled":false,"rental_uris":{"android":"levelo://app?vid=dca3067b-1d3f-48b1-a865-7f17df450a91","ios":"levelo://app?vid=dca3067b-1d3f-48b1-a865-7f17df450a91"},"vehicle_type_id":"4","last_reported":1699711527,"current_range_meters":24000,"station_id":"ce4bgs92rcd13ifvqcc0","pricing_plan_id":"free"},{"bike_id":"3819deec-fe3d-41c7-8346-2b107cb07054","system_id":"levelo_inurba_marseille","lat":43.315237,"lon":5.383797,"is_reserved":false,"is_disabled":false,"rental_uris":{"android":"levelo://app?vid=3819deec-fe3d-41c7-8346-2b107cb07054","ios":"levelo://app?vid=3819deec-fe3d-41c7-8346-2b107cb07054"},"vehicle_type_id":"4","last_reported":1699711527,"current_range_meters":400,"station_id":"","pricing_plan_id":"free"},{"bike_id":"3326b64b-654d-4e57-b138-3e0a38c048fa","system_id":"levelo_inurba_marseille","lat":43.30136,"lon":5.37419,"is_reserved":false,"is_disabled":false,"rental_uris":{"android":"levelo://app?vid=3326b64b-654d-4e57-b138-3e0a38c048fa","ios":"levelo://app?vid=3326b64b-654d-4e57-b138-3e0a38c048fa"},"vehicle_type_id":"4","last_reported":1699711527,"current_range_meters":14800,"station_id":"ce4bgs92rcd13ifvqcc0","pricing_plan_id":"free"},{"bike_id":"69166d53-ec8e-4a0a-864c-7a29f7650dd8","system_id":"levelo_inurba_marseille","lat":43.321149,"lon":5.380025,"is_reserved":false,"is_disabled":false,"rental_uris":{"android":"levelo://app?vid=69166d53-ec8e-4a0a-864c-7a29f7650dd8","ios":"levelo://app?vid=69166d53-ec8e-4a0a-864c-7a29f7650dd8"},"vehicle_type_id":"4","last_reported":1699711527,"current_range_meters":18800,"station_id":"","pricing_plan_id":"free"},{"bike_id":"13d78257-2559-4a10-97b8-aaa7032179bc","system_id":"levelo_inurba_marseille","lat":43.319975,"lon":5.381519,"is_reserved":false,"is_disabled":false,"rental_uris":{"android":"levelo://app?vid=13d78257-2559-4a10-97b8-aaa7032179bc","ios":"levelo://app?vid=13d78257-2559-4a10-97b8-aaa7032179bc"},"vehicle_type_id":"4","last_reported":1699711527,"current_range_meters":4400,"station_id":"","pricing_plan_id":"free"},{"bike_id":"0d7d3e8c-fd0c-48db-874f-14701a10e8a8","system_id":"levelo_inurba_marseille","lat":43.313571,"lon":5.384829,"is_reserved":false,"is_disabled":false,"rental_uris":{"android":"levelo://app?vid=0d7d3e8c-fd0c-48db-874f-14701a10e8a8","ios":"levelo://app?vid=0d7d3e8c-fd0c-48db-874f-14701a10e8a8"},"vehicle_type_id":"4","last_reported":1699711527,"current_range_meters":27600,"station_id":"ce4bgt92rcd13ifvqcf0","pricing_plan_id":"free"},{"bike_id":"f0cd0e99-99df-428b-bcc4-5dfc1403c621","system_id":"levelo_inurba_marseille","lat":43.2989,"lon":5.36639,"is_reserved":false,"is_disabled":false,"rental_uris":{"android":"levelo://app?vid=f0cd0e99-99df-428b-bcc4-5dfc1403c621","ios":"levelo://app?vid=f0cd0e99-99df-428b-bcc4-5dfc1403c621"},"vehicle_type_id":"4","last_reported":1699711527,"current_range_meters":21600,"station_id":"","pricing_plan_id":"free"},{"bike_id":"2aa07dbd-abc3-43b6-a1fa-b3b25d3cf066","system_id":"levelo_inurba_marseille","lat":43.32148,"lon":5.38202,"is_reserved":false,"is_disabled":false,"rental_uris":{"android":"levelo://app?vid=2aa07dbd-abc3-43b6-a1fa-b3b25d3cf066","ios":"levelo://app?vid=2aa07dbd-abc3-43b6-a1fa-b3b25d3cf066"},"vehicle_type_id":"4","last_reported":1699711527,"current_range_meters":0,"station_id":"","pricing_plan_id":"free"},{"bike_id":"f40354b6-2509-4e81-ae3d-6db4c0b19db9","system_id":"levelo_inurba_marseille","lat":43.299243,"lon":5.37481,"is_reserved":false,"is_disabled":false,"rental_uris":{"android":"levelo://app?vid=f40354b6-2509-4e81-ae3d-6db4c0b19db9","ios":"levelo://app?vid=f40354b6-2509-4e81-ae3d-6db4c0b19db9"},"vehicle_type_id":"4","last_reported":1699711527,"current_range_meters":26000,"station_id":"ce4bgjh2rcd13ifvqbg0","pricing_plan_id":"free"},{"bike_id":"8950f55a-e75d-4fac-9a7c-f529bc0580a5","system_id":"levelo_inurba_marseille","lat":43.320464,"lon":5.384144,"is_reserved":false,"is_disabled":false,"rental_uris":{"android":"levelo://app?vid=8950f55a-e75d-4fac-9a7c-f529bc0580a5","ios":"levelo://app?vid=8950f55a-e75d-4fac-9a7c-f529bc0580a5"},"vehicle_type_id":"4","last_reported":1699711527,"current_range_meters":13200,"station_id":"","pricing_plan_id":"free"},{"bike_id":"565e1c66-d318-45fa-8982-41a74c66cd95","system_id":"levelo_inurba_marseille","lat":43.299243,"lon":5.37481,"is_reserved":false,"is_disabled":false,"rental_uris":{"android":"levelo://app?vid=565e1c66-d318-45fa-8982-41a74c66cd95","ios":"levelo://app?vid=565e1c66-d318-45fa-8982-41a74c66cd95"},"vehicle_type_id":"4","last_reported":1699711527,"current_range_meters":25600,"station_id":"ce4bgjh2rcd13ifvqbg0","pricing_plan_id":"free"},{"bike_id":"3fc29c95-14f8-466b-984e-30e97660fd5f","system_id":"levelo_inurba_marseille","lat":43.32831,"lon":5.36676,"is_reserved":false,"is_disabled":false,"rental_uris":{"android":"levelo://app?vid=3fc29c95-14f8-466b-984e-30e97660fd5f","ios":"levelo://app?vid=3fc29c95-14f8-466b-984e-30e97660fd5f"},"vehicle_type_id":"4","last_reported":1699711527,"current_range_meters":0,"station_id":"ce4bhs92rcd13ifvqi0g","pricing_plan_id":"free"},{"bike_id":"c65b0527-c8c8-47e8-8aff-09cbbd1c7151","system_id":"levelo_inurba_marseille","lat":43.297163,"lon":5.365866,"is_reserved":false,"is_disabled":false,"rental_uris":{"android":"levelo://app?vid=c65b0527-c8c8-47e8-8aff-09cbbd1c7151","ios":"levelo://app?vid=c65b0527-c8c8-47e8-8aff-09cbbd1c7151"},"vehicle_type_id":"4","last_reported":1699711527,"current_range_meters":18000,"station_id":"ce4bgn12rcd13ifvqbt0","pricing_plan_id":"free"},{"bike_id":"64c4289f-3ca4-4dcb-a72e-736d161bdaa9","system_id":"levelo_inurba_marseille","lat":43.2968,"lon":5.37291,"is_reserved":false,"is_disabled":false,"rental_uris":{"android":"levelo://app?vid=64c4289f-3ca4-4dcb-a72e-736d161bdaa9","ios":"levelo://app?vid=64c4289f-3ca4-4dcb-a72e-736d161bdaa9"},"vehicle_type_id":"4","last_reported":1699711527,"current_range_meters":8800,"station_id":"ce4bgk12rcd13ifvqbj0","pricing_plan_id":"free"},{"bike_id":"d447991a-59b4-4778-a190-7d2b0920a414","system_id":"levelo_inurba_marseille","lat":43.32215,"lon":5.38613,"is_reserved":false,"is_disabled":false,"rental_uris":{"android":"levelo://app?vid=d447991a-59b4-4778-a190-7d2b0920a414","ios":"levelo://app?vid=d447991a-59b4-4778-a190-7d2b0920a414"},"vehicle_type_id":"4","last_reported":1699711527,"current_range_meters":20400,"station_id":"","pricing_plan_id":"free"},{"bike_id":"0b2ee6fa-cc30-4585-a66c-fd4895bfeebe","system_id":"levelo_inurba_marseille","lat":43.2962,"lon":5.37141,"is_reserved":false,"is_disabled":false,"rental_uris":{"android":"levelo://app?vid=0b2ee6fa-cc30-4585-a66c-fd4895bfeebe","ios":"levelo://app?vid=0b2ee6fa-cc30-4585-a66c-fd4895bfeebe"},"vehicle_type_id":"4","last_reported":1699711527,"current_range_meters":12800,"station_id":"ce4bgnh2rcd13ifvqc0g","pricing_plan_id":"free"},{"bike_id":"91401f37-9f98-4bfa-a06f-8b161afac98b","system_id":"levelo_inurba_marseille","lat":43.296131,"lon":5.370773,"is_reserved":false,"is_disabled":false,"rental_uris":{"android":"levelo://app?vid=91401f37-9f98-4bfa-a06f-8b161afac98b","ios":"levelo://app?vid=91401f37-9f98-4bfa-a06f-8b161afac98b"},"vehicle_type_id":"4","last_reported":1699711527,"current_range_meters":14000,"station_id":"ce4bgnh2rcd13ifvqc0g","pricing_plan_id":"free"},{"bike_id":"24e9f6a8-6aaa-42f2-8d06-1ce4e20bdf1d","system_id":"levelo_inurba_marseille","lat":43.29573,"lon":5.367355,"is_reserved":false,"is_disabled":false,"rental_uris":{"android":"levelo://app?vid=24e9f6a8-6aaa-42f2-8d06-1ce4e20bdf1d","ios":"levelo://app?vid=24e9f6a8-6aaa-42f2-8d06-1ce4e20bdf1d"},"vehicle_type_id":"4","last_reported":1699711527,"current_range_meters":5200,"station_id":"ce4bgph2rcd13ifvqc2g","pricing_plan_id":"free"},{"bike_id":"d3262b5f-75eb-4ca0-bd30-0c0489742055","system_id":"levelo_inurba_marseille","lat":43.29573,"lon":5.367355,"is_reserved":false,"is_disabled":false,"rental_uris":{"android":"levelo://app?vid=d3262b5f-75eb-4ca0-bd30-0c0489742055","ios":"levelo://app?vid=d3262b5f-75eb-4ca0-bd30-0c0489742055"},"vehicle_type_id":"4","last_reported":1699711527,"current_range_meters":19200,"station_id":"ce4bgph2rcd13ifvqc2g","pricing_plan_id":"free"},{"bike_id":"408e1bba-ac1b-479c-ad30-32026784c873","system_id":"levelo_inurba_marseille","lat":43.2966,"lon":5.37463,"is_reserved":false,"is_disabled":false,"rental_uris":{"android":"levelo://app?vid=408e1bba-ac1b-479c-ad30-32026784c873","ios":"levelo://app?vid=408e1bba-ac1b-479c-ad30-32026784c873"},"vehicle_type_id":"4","last_reported":1699711527,"current_range_meters":16000,"station_id":"","pricing_plan_id":"free"},{"bike_id":"1ee6ec3c-ab0c-4449-8514-c25468483c6c","system_id":"levelo_inurba_marseille","lat":43.299028,"lon":5.381509,"is_reserved":false,"is_disabled":false,"rental_uris":{"android":"levelo://app?vid=1ee6ec3c-ab0c-4449-8514-c25468483c6c","ios":"levelo://app?vid=1ee6ec3c-ab0c-4449-8514-c25468483c6c"},"vehicle_type_id":"4","last_reported":1699711527,"current_range_meters":20800,"station_id":"ce4bgj12rcd13ifvqbc0","pricing_plan_id":"free"},{"bike_id":"acc1b273-62ff-4af1-bce8-5bc73d283bf1","system_id":"levelo_inurba_marseille","lat":43.309589,"lon":5.390258,"is_reserved":false,"is_disabled":false,"rental_uris":{"android":"levelo://app?vid=acc1b273-62ff-4af1-bce8-5bc73d283bf1","ios":"levelo://app?vid=acc1b273-62ff-4af1-bce8-5bc73d283bf1"},"vehicle_type_id":"4","last_reported":1699711527,"current_range_meters":28400,"station_id":"ce4bgup2rcd13ifvqco0","pricing_plan_id":"free"},{"bike_id":"feff7d8e-9456-4b4b-b917-4f91bb23e023","system_id":"levelo_inurba_marseille","lat":43.3175,"lon":5.39022,"is_reserved":false,"is_disabled":false,"rental_uris":{"android":"levelo://app?vid=feff7d8e-9456-4b4b-b917-4f91bb23e023","ios":"levelo://app?vid=feff7d8e-9456-4b4b-b917-4f91bb23e023"},"vehicle_type_id":"4","last_reported":1699711527,"current_range_meters":18400,"station_id":"","pricing_plan_id":"free"},{"bike_id":"4112fa8a-3158-4f0c-84df-b0bb2a9e49b5","system_id":"levelo_inurba_marseille","lat":43.304278,"lon":5.388868,"is_reserved":false,"is_disabled":false,"rental_uris":{"android":"levelo://app?vid=4112fa8a-3158-4f0c-84df-b0bb2a9e49b5","ios":"levelo://app?vid=4112fa8a-3158-4f0c-84df-b0bb2a9e49b5"},"vehicle_type_id":"4","last_reported":1699711527,"current_range_meters":28400,"station_id":"ce4bgk12rcd13ifvqbi0","pricing_plan_id":"free"},{"bike_id":"49027c08-5563-443a-9da9-0ad84895dea2","system_id":"levelo_inurba_marseille","lat":43.29526,"lon":5.37494,"is_reserved":false,"is_disabled":false,"rental_uris":{"android":"levelo://app?vid=49027c08-5563-443a-9da9-0ad84895dea2","ios":"levelo://app?vid=49027c08-5563-443a-9da9-0ad84895dea2"},"vehicle_type_id":"4","last_reported":1699711527,"current_range_meters":30400,"station_id":"ce4bgkp2rcd13ifvqbmg","pricing_plan_id":"free"},{"bike_id":"312a67da-32d1-49d5-a777-2364cb07c8e5","system_id":"levelo_inurba_marseille","lat":43.29522,"lon":5.37492,"is_reserved":false,"is_disabled":false,"rental_uris":{"android":"levelo://app?vid=312a67da-32d1-49d5-a777-2364cb07c8e5","ios":"levelo://app?vid=312a67da-32d1-49d5-a777-2364cb07c8e5"},"vehicle_type_id":"4","last_reported":1699711527,"current_range_meters":27600,"station_id":"ce4bgkp2rcd13ifvqbmg","pricing_plan_id":"free"},{"bike_id":"5c590f75-aa1f-49bb-beb0-4cbfe60c857b","system_id":"levelo_inurba_marseille","lat":43.32366,"lon":5.38883,"is_reserved":false,"is_disabled":false,"rental_uris":{"android":"levelo://app?vid=5c590f75-aa1f-49bb-beb0-4cbfe60c857b","ios":"levelo://app?vid=5c590f75-aa1f-49bb-beb0-4cbfe60c857b"},"vehicle_type_id":"4","last_reported":1699711527,"current_range_meters":29200,"station_id":"ce4bhqp2rcd13ifvqhog","pricing_plan_id":"free"},{"bike_id":"1f2edeec-835f-4188-b75a-b19c37bb1dac","system_id":"levelo_inurba_marseille","lat":43.30109,"lon":5.3894,"is_reserved":false,"is_disabled":false,"rental_uris":{"android":"levelo://app?vid=1f2edeec-835f-4188-b75a-b19c37bb1dac","ios":"levelo://app?vid=1f2edeec-835f-4188-b75a-b19c37bb1dac"},"vehicle_type_id":"4","last_reported":1699711527,"current_range_meters":5600,"station_id":"","pricing_plan_id":"free"},{"bike_id":"75c32c29-733a-4e7d-bb4a-afc6c35b6682","system_id":"levelo_inurba_marseille","lat":43.29307,"lon":5.37468,"is_reserved":false,"is_disabled":false,"rental_uris":{"android":"levelo://app?vid=75c32c29-733a-4e7d-bb4a-afc6c35b6682","ios":"levelo://app?vid=75c32c29-733a-4e7d-bb4a-afc6c35b6682"},"vehicle_type_id":"4","last_reported":1699711527,"current_range_meters":21200,"station_id":"ce4bgi12rcd13ifvqb70","pricing_plan_id":"free"},{"bike_id":"f5481c8d-4c56-40e3-8cb1-c4f73ccc417f","system_id":"levelo_inurba_marseille","lat":43.293009,"lon":5.374584,"is_reserved":false,"is_disabled":false,"rental_uris":{"android":"levelo://app?vid=f5481c8d-4c56-40e3-8cb1-c4f73ccc417f","ios":"levelo://app?vid=f5481c8d-4c56-40e3-8cb1-c4f73ccc417f"},"vehicle_type_id":"4","last_reported":1699711527,"current_range_meters":16400,"station_id":"ce4bgi12rcd13ifvqb70","pricing_plan_id":"free"},{"bike_id":"b8c86170-b33e-4252-9e6d-761325c93944","system_id":"levelo_inurba_marseille","lat":43.30296,"lon":5.39208,"is_reserved":false,"is_disabled":false,"rental_uris":{"android":"levelo://app?vid=b8c86170-b33e-4252-9e6d-761325c93944","ios":"levelo://app?vid=b8c86170-b33e-4252-9e6d-761325c93944"},"vehicle_type_id":"4","last_reported":1699711527,"current_range_meters":28000,"station_id":"ce4bgkh2rcd13ifvqbk0","pricing_plan_id":"free"},{"bike_id":"895a12ac-ba8c-4f99-9d26-45616b6d56b9","system_id":"levelo_inurba_marseille","lat":43.292311,"lon":5.360731,"is_reserved":false,"is_disabled":false,"rental_uris":{"android":"levelo://app?vid=895a12ac-ba8c-4f99-9d26-45616b6d56b9","ios":"levelo://app?vid=895a12ac-ba8c-4f99-9d26-45616b6d56b9"},"vehicle_type_id":"4","last_reported":1699711527,"current_range_meters":16400,"station_id":"ce4bhbh2rcd13ifvqeqg","pricing_plan_id":"free"},{"bike_id":"258b7a1e-7d1d-4db8-92be-cbb8ab78360b","system_id":"levelo_inurba_marseille","lat":43.309038,"lon":5.396546,"is_reserved":false,"is_disabled":false,"rental_uris":{"android":"levelo://app?vid=258b7a1e-7d1d-4db8-92be-cbb8ab78360b","ios":"levelo://app?vid=258b7a1e-7d1d-4db8-92be-cbb8ab78360b"},"vehicle_type_id":"4","last_reported":1699711527,"current_range_meters":18000,"station_id":"ce4bh012rcd13ifvqcv0","pricing_plan_id":"free"},{"bike_id":"ab8e60b3-bfd6-479f-bd01-cdbe3a6e37de","system_id":"levelo_inurba_marseille","lat":43.291671,"lon":5.371575,"is_reserved":false,"is_disabled":false,"rental_uris":{"android":"levelo://app?vid=ab8e60b3-bfd6-479f-bd01-cdbe3a6e37de","ios":"levelo://app?vid=ab8e60b3-bfd6-479f-bd01-cdbe3a6e37de"},"vehicle_type_id":"4","last_reported":1699711527,"current_range_meters":26400,"station_id":"ce4bha92rcd13ifvqeh0","pricing_plan_id":"free"},{"bike_id":"71544b66-4ace-46a5-aead-90832634dd8b","system_id":"levelo_inurba_marseille","lat":43.292663,"lon":5.376389,"is_reserved":false,"is_disabled":false,"rental_uris":{"android":"levelo://app?vid=71544b66-4ace-46a5-aead-90832634dd8b","ios":"levelo://app?vid=71544b66-4ace-46a5-aead-90832634dd8b"},"vehicle_type_id":"4","last_reported":1699711527,"current_range_meters":17200,"station_id":"ce4bgi12rcd13ifvqb80","pricing_plan_id":"free"},{"bike_id":"da4f2669-3c7d-49a4-9ab5-3cf557e686d8","system_id":"levelo_inurba_marseille","lat":43.29869,"lon":5.3891,"is_reserved":false,"is_disabled":false,"rental_uris":{"android":"levelo://app?vid=da4f2669-3c7d-49a4-9ab5-3cf557e686d8","ios":"levelo://app?vid=da4f2669-3c7d-49a4-9ab5-3cf557e686d8"},"vehicle_type_id":"4","last_reported":1699711527,"current_range_meters":30400,"station_id":"ce4bh392rcd13ifvqdl0","pricing_plan_id":"free"},{"bike_id":"0958cb0c-a352-4251-bdb6-ab50260bd5af","system_id":"levelo_inurba_marseille","lat":43.309038,"lon":5.396546,"is_reserved":false,"is_disabled":false,"rental_uris":{"android":"levelo://app?vid=0958cb0c-a352-4251-bdb6-ab50260bd5af","ios":"levelo://app?vid=0958cb0c-a352-4251-bdb6-ab50260bd5af"},"vehicle_type_id":"4","last_reported":1699711527,"current_range_meters":8000,"station_id":"ce4bh012rcd13ifvqcv0","pricing_plan_id":"free"},{"bike_id":"30323e43-d1ab-4d74-9e51-d3e68bb77aaa","system_id":"levelo_inurba_marseille","lat":43.29013,"lon":5.36524,"is_reserved":false,"is_disabled":false,"rental_uris":{"android":"levelo://app?vid=30323e43-d1ab-4d74-9e51-d3e68bb77aaa","ios":"levelo://app?vid=30323e43-d1ab-4d74-9e51-d3e68bb77aaa"},"vehicle_type_id":"4","last_reported":1699711527,"current_range_meters":24800,"station_id":"","pricing_plan_id":"free"},{"bike_id":"33681cd5-6ca2-4f21-a991-54d71cc25b70","system_id":"levelo_inurba_marseille","lat":43.302008,"lon":5.394694,"is_reserved":false,"is_disabled":false,"rental_uris":{"android":"levelo://app?vid=33681cd5-6ca2-4f21-a991-54d71cc25b70","ios":"levelo://app?vid=33681cd5-6ca2-4f21-a991-54d71cc25b70"},"vehicle_type_id":"4","last_reported":1699711527,"current_range_meters":21600,"station_id":"ce4bh0p2rcd13ifvqd70","pricing_plan_id":"free"},{"bike_id":"fa734b4b-f21b-4b32-830f-9c320035b345","system_id":"levelo_inurba_marseille","lat":43.302008,"lon":5.394694,"is_reserved":false,"is_disabled":false,"rental_uris":{"android":"levelo://app?vid=fa734b4b-f21b-4b32-830f-9c320035b345","ios":"levelo://app?vid=fa734b4b-f21b-4b32-830f-9c320035b345"},"vehicle_type_id":"4","last_reported":1699711527,"current_range_meters":11200,"station_id":"ce4bh0p2rcd13ifvqd70","pricing_plan_id":"free"},{"bike_id":"eb007e52-cb7c-412f-8ec4-9e10ac3cd908","system_id":"levelo_inurba_marseille","lat":43.289184,"lon":5.366408,"is_reserved":false,"is_disabled":false,"rental_uris":{"android":"levelo://app?vid=eb007e52-cb7c-412f-8ec4-9e10ac3cd908","ios":"levelo://app?vid=eb007e52-cb7c-412f-8ec4-9e10ac3cd908"},"vehicle_type_id":"4","last_reported":1699711527,"current_range_meters":0,"station_id":"ce4bhap2rcd13ifvqek0","pricing_plan_id":"free"},{"bike_id":"c4e76843-07ae-47c3-995f-ff6da052e35d","system_id":"levelo_inurba_marseille","lat":43.29409,"lon":5.3863,"is_reserved":false,"is_disabled":false,"rental_uris":{"android":"levelo://app?vid=c4e76843-07ae-47c3-995f-ff6da052e35d","ios":"levelo://app?vid=c4e76843-07ae-47c3-995f-ff6da052e35d"},"vehicle_type_id":"4","last_reported":1699711527,"current_range_meters":0,"station_id":"ce4bh2h2rcd13ifvqdh0","pricing_plan_id":"free"},{"bike_id":"b629e02c-3f16-414b-ab03-30db5c333aeb","system_id":"levelo_inurba_marseille","lat":43.29053,"lon":5.35596,"is_reserved":false,"is_disabled":false,"rental_uris":{"android":"levelo://app?vid=b629e02c-3f16-414b-ab03-30db5c333aeb","ios":"levelo://app?vid=b629e02c-3f16-414b-ab03-30db5c333aeb"},"vehicle_type_id":"4","last_reported":1699711527,"current_range_meters":24400,"station_id":"ce4bhb92rcd13ifvqen0","pricing_plan_id":"free"},{"bike_id":"1ce796d6-bc20-44e4-85e5-9774bf468768","system_id":"levelo_inurba_marseille","lat":43.304296,"lon":5.397513,"is_reserved":false,"is_disabled":false,"rental_uris":{"android":"levelo://app?vid=1ce796d6-bc20-44e4-85e5-9774bf468768","ios":"levelo://app?vid=1ce796d6-bc20-44e4-85e5-9774bf468768"},"vehicle_type_id":"4","last_reported":1699711527,"current_range_meters":4400,"station_id":"ce4bh092rcd13ifvqd20","pricing_plan_id":"free"},{"bike_id":"0357c16f-11ca-48fd-9725-22590ccc664f","system_id":"levelo_inurba_marseille","lat":43.292644,"lon":5.384257,"is_reserved":false,"is_disabled":false,"rental_uris":{"android":"levelo://app?vid=0357c16f-11ca-48fd-9725-22590ccc664f","ios":"levelo://app?vid=0357c16f-11ca-48fd-9725-22590ccc664f"},"vehicle_type_id":"4","last_reported":1699711527,"current_range_meters":25200,"station_id":"ce4bh692rcd13ifvqea0","pricing_plan_id":"free"},{"bike_id":"6cc8d067-fe08-478e-bf7a-099bc66ecd79","system_id":"levelo_inurba_marseille","lat":43.304274,"lon":5.397513,"is_reserved":false,"is_disabled":false,"rental_uris":{"android":"levelo://app?vid=6cc8d067-fe08-478e-bf7a-099bc66ecd79","ios":"levelo://app?vid=6cc8d067-fe08-478e-bf7a-099bc66ecd79"},"vehicle_type_id":"4","last_reported":1699711527,"current_range_meters":23200,"station_id":"ce4bh092rcd13ifvqd20","pricing_plan_id":"free"},{"bike_id":"ab3d1f34-44e1-4c7b-aa21-5d9a98591807","system_id":"levelo_inurba_marseille","lat":43.33035,"lon":5.38925,"is_reserved":false,"is_disabled":false,"rental_uris":{"android":"levelo://app?vid=ab3d1f34-44e1-4c7b-aa21-5d9a98591807","ios":"levelo://app?vid=ab3d1f34-44e1-4c7b-aa21-5d9a98591807"},"vehicle_type_id":"4","last_reported":1699711527,"current_range_meters":5200,"station_id":"ce4bhr92rcd13ifvqhrg","pricing_plan_id":"free"},{"bike_id":"83862952-1376-4c12-9b74-3e20e4d6da1e","system_id":"levelo_inurba_marseille","lat":43.297913,"lon":5.393488,"is_reserved":false,"is_disabled":false,"rental_uris":{"android":"levelo://app?vid=83862952-1376-4c12-9b74-3e20e4d6da1e","ios":"levelo://app?vid=83862952-1376-4c12-9b74-3e20e4d6da1e"},"vehicle_type_id":"4","last_reported":1699711527,"current_range_meters":0,"station_id":"chh1huq6cuj3fo74tm60","pricing_plan_id":"free"},{"bike_id":"727c4970-cf6b-4814-a8fc-70b250a1f591","system_id":"levelo_inurba_marseille","lat":43.2901,"lon":5.381269,"is_reserved":false,"is_disabled":false,"rental_uris":{"android":"levelo://app?vid=727c4970-cf6b-4814-a8fc-70b250a1f591","ios":"levelo://app?vid=727c4970-cf6b-4814-a8fc-70b250a1f591"},"vehicle_type_id":"4","last_reported":1699711527,"current_range_meters":2400,"station_id":"ce4bh4p2rcd13ifvqe1g","pricing_plan_id":"free"},{"bike_id":"697fee07-62df-44e5-861b-24bcc599bc59","system_id":"levelo_inurba_marseille","lat":43.33743,"lon":5.3746,"is_reserved":false,"is_disabled":false,"rental_uris":{"android":"levelo://app?vid=697fee07-62df-44e5-861b-24bcc599bc59","ios":"levelo://app?vid=697fee07-62df-44e5-861b-24bcc599bc59"},"vehicle_type_id":"4","last_reported":1699711527,"current_range_meters":26400,"station_id":"","pricing_plan_id":"free"},{"bike_id":"3dbd25b1-9e69-4fb7-93fc-85784d38f9e9","system_id":"levelo_inurba_marseille","lat":43.3376,"lon":5.3744,"is_reserved":false,"is_disabled":false,"rental_uris":{"android":"levelo://app?vid=3dbd25b1-9e69-4fb7-93fc-85784d38f9e9","ios":"levelo://app?vid=3dbd25b1-9e69-4fb7-93fc-85784d38f9e9"},"vehicle_type_id":"4","last_reported":1699711527,"current_range_meters":30000,"station_id":"","pricing_plan_id":"free"},{"bike_id":"222a05c5-8b6c-46ab-89e7-d41259e5f69a","system_id":"levelo_inurba_marseille","lat":43.30642,"lon":5.401031,"is_reserved":false,"is_disabled":false,"rental_uris":{"android":"levelo://app?vid=222a05c5-8b6c-46ab-89e7-d41259e5f69a","ios":"levelo://app?vid=222a05c5-8b6c-46ab-89e7-d41259e5f69a"},"vehicle_type_id":"4","last_reported":1699711527,"current_range_meters":4400,"station_id":"ce4bh112rcd13ifvqda0","pricing_plan_id":"free"},{"bike_id":"61c9606b-5e0c-419f-a3b5-4fe4d535e889","system_id":"levelo_inurba_marseille","lat":43.33037,"lon":5.392367,"is_reserved":false,"is_disabled":false,"rental_uris":{"android":"levelo://app?vid=61c9606b-5e0c-419f-a3b5-4fe4d535e889","ios":"levelo://app?vid=61c9606b-5e0c-419f-a3b5-4fe4d535e889"},"vehicle_type_id":"4","last_reported":1699711527,"current_range_meters":10000,"station_id":"","pricing_plan_id":"free"},{"bike_id":"4d56491d-98bd-477d-9422-fd6d5ac6bdd6","system_id":"levelo_inurba_marseille","lat":43.295176,"lon":5.394078,"is_reserved":false,"is_disabled":false,"rental_uris":{"android":"levelo://app?vid=4d56491d-98bd-477d-9422-fd6d5ac6bdd6","ios":"levelo://app?vid=4d56491d-98bd-477d-9422-fd6d5ac6bdd6"},"vehicle_type_id":"4","last_reported":1699711527,"current_range_meters":30400,"station_id":"ce4bh292rcd13ifvqdf0","pricing_plan_id":"free"},{"bike_id":"61724b76-efeb-473f-bd79-7c4530844250","system_id":"levelo_inurba_marseille","lat":43.29035,"lon":5.3864,"is_reserved":false,"is_disabled":false,"rental_uris":{"android":"levelo://app?vid=61724b76-efeb-473f-bd79-7c4530844250","ios":"levelo://app?vid=61724b76-efeb-473f-bd79-7c4530844250"},"vehicle_type_id":"4","last_reported":1699711527,"current_range_meters":13200,"station_id":"ce4bh4p2rcd13ifvqe0g","pricing_plan_id":"free"},{"bike_id":"6ccc9611-2085-44a8-a4ad-88651965a7ef","system_id":"levelo_inurba_marseille","lat":43.286088,"lon":5.37065,"is_reserved":false,"is_disabled":false,"rental_uris":{"android":"levelo://app?vid=6ccc9611-2085-44a8-a4ad-88651965a7ef","ios":"levelo://app?vid=6ccc9611-2085-44a8-a4ad-88651965a7ef"},"vehicle_type_id":"4","last_reported":1699711527,"current_range_meters":12400,"station_id":"ce4bht12rcd13ifvqi60","pricing_plan_id":"free"},{"bike_id":"d2c0b799-b723-4423-bdc1-56240bc6ad82","system_id":"levelo_inurba_marseille","lat":43.286039,"lon":5.370681,"is_reserved":false,"is_disabled":false,"rental_uris":{"android":"levelo://app?vid=d2c0b799-b723-4423-bdc1-56240bc6ad82","ios":"levelo://app?vid=d2c0b799-b723-4423-bdc1-56240bc6ad82"},"vehicle_type_id":"4","last_reported":1699711527,"current_range_meters":9600,"station_id":"ce4bht12rcd13ifvqi60","pricing_plan_id":"free"},{"bike_id":"03816db3-a55f-4285-b71a-b34530e0cc15","system_id":"levelo_inurba_marseille","lat":43.286039,"lon":5.370679,"is_reserved":false,"is_disabled":false,"rental_uris":{"android":"levelo://app?vid=03816db3-a55f-4285-b71a-b34530e0cc15","ios":"levelo://app?vid=03816db3-a55f-4285-b71a-b34530e0cc15"},"vehicle_type_id":"4","last_reported":1699711527,"current_range_meters":25600,"station_id":"ce4bht12rcd13ifvqi60","pricing_plan_id":"free"},{"bike_id":"38fd7b14-3acb-41fe-99e8-a198f3f676c7","system_id":"levelo_inurba_marseille","lat":43.287184,"lon":5.37937,"is_reserved":false,"is_disabled":false,"rental_uris":{"android":"levelo://app?vid=38fd7b14-3acb-41fe-99e8-a198f3f676c7","ios":"levelo://app?vid=38fd7b14-3acb-41fe-99e8-a198f3f676c7"},"vehicle_type_id":"4","last_reported":1699711527,"current_range_meters":7200,"station_id":"ce4bh9p2rcd13ifvqec0","pricing_plan_id":"free"},{"bike_id":"a4d7d969-d6d6-4441-97be-63ab754ea21d","system_id":"levelo_inurba_marseille","lat":43.316517,"lon":5.404375,"is_reserved":false,"is_disabled":false,"rental_uris":{"android":"levelo://app?vid=a4d7d969-d6d6-4441-97be-63ab754ea21d","ios":"levelo://app?vid=a4d7d969-d6d6-4441-97be-63ab754ea21d"},"vehicle_type_id":"4","last_reported":1699711527,"current_range_meters":15600,"station_id":"ce4bh012rcd13ifvqd00","pricing_plan_id":"free"},{"bike_id":"24eb487d-9652-4063-af3b-19db638e90e6","system_id":"levelo_inurba_marseille","lat":43.31646,"lon":5.40438,"is_reserved":false,"is_disabled":false,"rental_uris":{"android":"levelo://app?vid=24eb487d-9652-4063-af3b-19db638e90e6","ios":"levelo://app?vid=24eb487d-9652-4063-af3b-19db638e90e6"},"vehicle_type_id":"4","last_reported":1699711527,"current_range_meters":3200,"station_id":"ce4bh012rcd13ifvqd00","pricing_plan_id":"free"},{"bike_id":"191bc348-b1e1-4ff9-8045-f247e6a9665d","system_id":"levelo_inurba_marseille","lat":43.299847,"lon":5.400937,"is_reserved":false,"is_disabled":false,"rental_uris":{"android":"levelo://app?vid=191bc348-b1e1-4ff9-8045-f247e6a9665d","ios":"levelo://app?vid=191bc348-b1e1-4ff9-8045-f247e6a9665d"},"vehicle_type_id":"4","last_reported":1699711527,"current_range_meters":24400,"station_id":"ce4bgpp2rcd13ifvqc3g","pricing_plan_id":"free"},{"bike_id":"e57449c2-d088-47cf-8bf2-271593713c89","system_id":"levelo_inurba_marseille","lat":43.328576,"lon":5.398841,"is_reserved":false,"is_disabled":false,"rental_uris":{"android":"levelo://app?vid=e57449c2-d088-47cf-8bf2-271593713c89","ios":"levelo://app?vid=e57449c2-d088-47cf-8bf2-271593713c89"},"vehicle_type_id":"4","last_reported":1699711527,"current_range_meters":8000,"station_id":"","pricing_plan_id":"free"},{"bike_id":"9f3cc0cc-d7a2-49fd-b834-176b54d9323a","system_id":"levelo_inurba_marseille","lat":43.31677,"lon":5.4052,"is_reserved":false,"is_disabled":false,"rental_uris":{"android":"levelo://app?vid=9f3cc0cc-d7a2-49fd-b834-176b54d9323a","ios":"levelo://app?vid=9f3cc0cc-d7a2-49fd-b834-176b54d9323a"},"vehicle_type_id":"4","last_reported":1699711527,"current_range_meters":0,"station_id":"","pricing_plan_id":"free"},{"bike_id":"e9b85ce1-7a6b-41c6-8bda-4aca8c4c002b","system_id":"levelo_inurba_marseille","lat":43.284534,"lon":5.358662,"is_reserved":false,"is_disabled":false,"rental_uris":{"android":"levelo://app?vid=e9b85ce1-7a6b-41c6-8bda-4aca8c4c002b","ios":"levelo://app?vid=e9b85ce1-7a6b-41c6-8bda-4aca8c4c002b"},"vehicle_type_id":"4","last_reported":1699711527,"current_range_meters":0,"station_id":"ce4bhah2rcd13ifvqei0","pricing_plan_id":"free"},{"bike_id":"5987c12e-01b9-47ba-873e-41ce5f9c5174","system_id":"levelo_inurba_marseille","lat":43.284534,"lon":5.358662,"is_reserved":false,"is_disabled":false,"rental_uris":{"android":"levelo://app?vid=5987c12e-01b9-47ba-873e-41ce5f9c5174","ios":"levelo://app?vid=5987c12e-01b9-47ba-873e-41ce5f9c5174"},"vehicle_type_id":"4","last_reported":1699711527,"current_range_meters":17600,"station_id":"ce4bhah2rcd13ifvqei0","pricing_plan_id":"free"},{"bike_id":"19634374-08a7-4b09-a09d-782c06835b91","system_id":"levelo_inurba_marseille","lat":43.28614,"lon":5.35103,"is_reserved":false,"is_disabled":false,"rental_uris":{"android":"levelo://app?vid=19634374-08a7-4b09-a09d-782c06835b91","ios":"levelo://app?vid=19634374-08a7-4b09-a09d-782c06835b91"},"vehicle_type_id":"4","last_reported":1699711527,"current_range_meters":8400,"station_id":"ce4bhch2rcd13ifvqeug","pricing_plan_id":"free"},{"bike_id":"129e3430-0bb3-4a3e-aea8-01e07df0df6e","system_id":"levelo_inurba_marseille","lat":43.28613,"lon":5.35103,"is_reserved":false,"is_disabled":false,"rental_uris":{"android":"levelo://app?vid=129e3430-0bb3-4a3e-aea8-01e07df0df6e","ios":"levelo://app?vid=129e3430-0bb3-4a3e-aea8-01e07df0df6e"},"vehicle_type_id":"4","last_reported":1699711527,"current_range_meters":26000,"station_id":"ce4bhch2rcd13ifvqeug","pricing_plan_id":"free"},{"bike_id":"3c6bd292-065d-403a-8a9d-0100379f1c15","system_id":"levelo_inurba_marseille","lat":43.283998,"lon":5.375062,"is_reserved":false,"is_disabled":false,"rental_uris":{"android":"levelo://app?vid=3c6bd292-065d-403a-8a9d-0100379f1c15","ios":"levelo://app?vid=3c6bd292-065d-403a-8a9d-0100379f1c15"},"vehicle_type_id":"4","last_reported":1699711527,"current_range_meters":16400,"station_id":"ce4bh412rcd13ifvqds0","pricing_plan_id":"free"},{"bike_id":"659511a4-6355-4122-87e7-58a960a39d6f","system_id":"levelo_inurba_marseille","lat":43.283998,"lon":5.375062,"is_reserved":false,"is_disabled":false,"rental_uris":{"android":"levelo://app?vid=659511a4-6355-4122-87e7-58a960a39d6f","ios":"levelo://app?vid=659511a4-6355-4122-87e7-58a960a39d6f"},"vehicle_type_id":"4","last_reported":1699711527,"current_range_meters":6000,"station_id":"ce4bh412rcd13ifvqds0","pricing_plan_id":"free"},{"bike_id":"8b7ce913-1666-42fd-95ce-e0764c9f6d43","system_id":"levelo_inurba_marseille","lat":43.295691,"lon":5.399637,"is_reserved":false,"is_disabled":false,"rental_uris":{"android":"levelo://app?vid=8b7ce913-1666-42fd-95ce-e0764c9f6d43","ios":"levelo://app?vid=8b7ce913-1666-42fd-95ce-e0764c9f6d43"},"vehicle_type_id":"4","last_reported":1699711527,"current_range_meters":31200,"station_id":"ce4bh312rcd13ifvqdj0","pricing_plan_id":"free"},{"bike_id":"0d90ee24-c005-46ac-b333-4b78c92562dc","system_id":"levelo_inurba_marseille","lat":43.295713,"lon":5.399639,"is_reserved":false,"is_disabled":false,"rental_uris":{"android":"levelo://app?vid=0d90ee24-c005-46ac-b333-4b78c92562dc","ios":"levelo://app?vid=0d90ee24-c005-46ac-b333-4b78c92562dc"},"vehicle_type_id":"4","last_reported":1699711527,"current_range_meters":17600,"station_id":"ce4bh312rcd13ifvqdj0","pricing_plan_id":"free"},{"bike_id":"5f4710a2-fff1-4ba4-ab86-270199dc633f","system_id":"levelo_inurba_marseille","lat":43.286595,"lon":5.386795,"is_reserved":false,"is_disabled":false,"rental_uris":{"android":"levelo://app?vid=5f4710a2-fff1-4ba4-ab86-270199dc633f","ios":"levelo://app?vid=5f4710a2-fff1-4ba4-ab86-270199dc633f"},"vehicle_type_id":"4","last_reported":1699711527,"current_range_meters":0,"station_id":"ce4bh492rcd13ifvqdug","pricing_plan_id":"free"},{"bike_id":"80fcc837-da59-44f4-b189-b47ba0ff7254","system_id":"levelo_inurba_marseille","lat":43.319179,"lon":5.407725,"is_reserved":false,"is_disabled":false,"rental_uris":{"android":"levelo://app?vid=80fcc837-da59-44f4-b189-b47ba0ff7254","ios":"levelo://app?vid=80fcc837-da59-44f4-b189-b47ba0ff7254"},"vehicle_type_id":"4","last_reported":1699711527,"current_range_meters":30000,"station_id":"ce4bhq12rcd13ifvqhig","pricing_plan_id":"free"},{"bike_id":"030625bd-f8ba-4389-9944-df2973894a22","system_id":"levelo_inurba_marseille","lat":43.325731,"lon":5.404186,"is_reserved":false,"is_disabled":false,"rental_uris":{"android":"levelo://app?vid=030625bd-f8ba-4389-9944-df2973894a22","ios":"levelo://app?vid=030625bd-f8ba-4389-9944-df2973894a22"},"vehicle_type_id":"4","last_reported":1699711527,"current_range_meters":3600,"station_id":"","pricing_plan_id":"free"},{"bike_id":"0b083c6d-d1d4-4abb-84f8-baa4bad07eff","system_id":"levelo_inurba_marseille","lat":43.28729,"lon":5.38908,"is_reserved":false,"is_disabled":false,"rental_uris":{"android":"levelo://app?vid=0b083c6d-d1d4-4abb-84f8-baa4bad07eff","ios":"levelo://app?vid=0b083c6d-d1d4-4abb-84f8-baa4bad07eff"},"vehicle_type_id":"4","last_reported":1699711527,"current_range_meters":3200,"station_id":"","pricing_plan_id":"free"},{"bike_id":"463cdd20-e27b-4e61-83ef-db5e2fb049c5","system_id":"levelo_inurba_marseille","lat":43.323464,"lon":5.406297,"is_reserved":false,"is_disabled":false,"rental_uris":{"android":"levelo://app?vid=463cdd20-e27b-4e61-83ef-db5e2fb049c5","ios":"levelo://app?vid=463cdd20-e27b-4e61-83ef-db5e2fb049c5"},"vehicle_type_id":"4","last_reported":1699711527,"current_range_meters":28800,"station_id":"ce4bhq92rcd13ifvqhjg","pricing_plan_id":"free"},{"bike_id":"8f73f349-a272-4ad6-b8fd-7b017ee1ab31","system_id":"levelo_inurba_marseille","lat":43.337168,"lon":5.391825,"is_reserved":false,"is_disabled":false,"rental_uris":{"android":"levelo://app?vid=8f73f349-a272-4ad6-b8fd-7b017ee1ab31","ios":"levelo://app?vid=8f73f349-a272-4ad6-b8fd-7b017ee1ab31"},"vehicle_type_id":"4","last_reported":1699711527,"current_range_meters":29200,"station_id":"ce4bhr92rcd13ifvqhsg","pricing_plan_id":"free"},{"bike_id":"db99b615-09b9-41c5-acea-9701251132a3","system_id":"levelo_inurba_marseille","lat":43.323464,"lon":5.406297,"is_reserved":false,"is_disabled":false,"rental_uris":{"android":"levelo://app?vid=db99b615-09b9-41c5-acea-9701251132a3","ios":"levelo://app?vid=db99b615-09b9-41c5-acea-9701251132a3"},"vehicle_type_id":"4","last_reported":1699711527,"current_range_meters":24400,"station_id":"ce4bhq92rcd13ifvqhjg","pricing_plan_id":"free"},{"bike_id":"49bfe9e4-ccaf-4f5a-ac8d-51d64cb3bc6c","system_id":"levelo_inurba_marseille","lat":43.288501,"lon":5.393087,"is_reserved":false,"is_disabled":false,"rental_uris":{"android":"levelo://app?vid=49bfe9e4-ccaf-4f5a-ac8d-51d64cb3bc6c","ios":"levelo://app?vid=49bfe9e4-ccaf-4f5a-ac8d-51d64cb3bc6c"},"vehicle_type_id":"4","last_reported":1699711527,"current_range_meters":3600,"station_id":"ce4bh2p2rcd13ifvqdi0","pricing_plan_id":"free"},{"bike_id":"159047e6-38df-439b-a2dd-30d76f3dc5e7","system_id":"levelo_inurba_marseille","lat":43.288497,"lon":5.393089,"is_reserved":false,"is_disabled":false,"rental_uris":{"android":"levelo://app?vid=159047e6-38df-439b-a2dd-30d76f3dc5e7","ios":"levelo://app?vid=159047e6-38df-439b-a2dd-30d76f3dc5e7"},"vehicle_type_id":"4","last_reported":1699711527,"current_range_meters":22800,"station_id":"ce4bh2p2rcd13ifvqdi0","pricing_plan_id":"free"},{"bike_id":"504b508d-cb73-43fc-81c3-e5dad249cbe5","system_id":"levelo_inurba_marseille","lat":43.28414,"lon":5.34984,"is_reserved":false,"is_disabled":false,"rental_uris":{"android":"levelo://app?vid=504b508d-cb73-43fc-81c3-e5dad249cbe5","ios":"levelo://app?vid=504b508d-cb73-43fc-81c3-e5dad249cbe5"},"vehicle_type_id":"4","last_reported":1699711527,"current_range_meters":24800,"station_id":"ce4bhbh2rcd13ifvqepg","pricing_plan_id":"free"},{"bike_id":"2d0244ee-eeba-4f2e-8f68-686749f770ea","system_id":"levelo_inurba_marseille","lat":43.28411,"lon":5.34991,"is_reserved":false,"is_disabled":false,"rental_uris":{"android":"levelo://app?vid=2d0244ee-eeba-4f2e-8f68-686749f770ea","ios":"levelo://app?vid=2d0244ee-eeba-4f2e-8f68-686749f770ea"},"vehicle_type_id":"4","last_reported":1699711527,"current_range_meters":17200,"station_id":"ce4bhbh2rcd13ifvqepg","pricing_plan_id":"free"},{"bike_id":"0fef7383-da3c-40c5-9467-278023a5e9c0","system_id":"levelo_inurba_marseille","lat":43.284217,"lon":5.349697,"is_reserved":false,"is_disabled":false,"rental_uris":{"android":"levelo://app?vid=0fef7383-da3c-40c5-9467-278023a5e9c0","ios":"levelo://app?vid=0fef7383-da3c-40c5-9467-278023a5e9c0"},"vehicle_type_id":"4","last_reported":1699711527,"current_range_meters":23600,"station_id":"ce4bhbh2rcd13ifvqepg","pricing_plan_id":"free"},{"bike_id":"743f7665-37b0-4e9e-8c5d-0e65f22f63b2","system_id":"levelo_inurba_marseille","lat":43.28413,"lon":5.34981,"is_reserved":false,"is_disabled":false,"rental_uris":{"android":"levelo://app?vid=743f7665-37b0-4e9e-8c5d-0e65f22f63b2","ios":"levelo://app?vid=743f7665-37b0-4e9e-8c5d-0e65f22f63b2"},"vehicle_type_id":"4","last_reported":1699711527,"current_range_meters":0,"station_id":"ce4bhbh2rcd13ifvqepg","pricing_plan_id":"free"},{"bike_id":"953d0ca9-4e22-4f0d-bb0a-a05afee2c66e","system_id":"levelo_inurba_marseille","lat":43.284217,"lon":5.349697,"is_reserved":false,"is_disabled":false,"rental_uris":{"android":"levelo://app?vid=953d0ca9-4e22-4f0d-bb0a-a05afee2c66e","ios":"levelo://app?vid=953d0ca9-4e22-4f0d-bb0a-a05afee2c66e"},"vehicle_type_id":"4","last_reported":1699711527,"current_range_meters":26800,"station_id":"ce4bhbh2rcd13ifvqepg","pricing_plan_id":"free"},{"bike_id":"a2ecddcf-d9e2-44bc-8c73-bc4424b1b47e","system_id":"levelo_inurba_marseille","lat":43.289363,"lon":5.396322,"is_reserved":false,"is_disabled":false,"rental_uris":{"android":"levelo://app?vid=a2ecddcf-d9e2-44bc-8c73-bc4424b1b47e","ios":"levelo://app?vid=a2ecddcf-d9e2-44bc-8c73-bc4424b1b47e"},"vehicle_type_id":"4","last_reported":1699711527,"current_range_meters":12800,"station_id":"ce4bh3h2rcd13ifvqdn0","pricing_plan_id":"free"},{"bike_id":"694cc18d-6823-481a-9d09-67d990c2d197","system_id":"levelo_inurba_marseille","lat":43.324289,"lon":5.407562,"is_reserved":false,"is_disabled":false,"rental_uris":{"android":"levelo://app?vid=694cc18d-6823-481a-9d09-67d990c2d197","ios":"levelo://app?vid=694cc18d-6823-481a-9d09-67d990c2d197"},"vehicle_type_id":"4","last_reported":1699711527,"current_range_meters":0,"station_id":"","pricing_plan_id":"free"},{"bike_id":"e8a7cc24-c3f5-498b-ab83-40bc8ede28f8","system_id":"levelo_inurba_marseille","lat":43.292724,"lon":5.401131,"is_reserved":false,"is_disabled":false,"rental_uris":{"android":"levelo://app?vid=e8a7cc24-c3f5-498b-ab83-40bc8ede28f8","ios":"levelo://app?vid=e8a7cc24-c3f5-498b-ab83-40bc8ede28f8"},"vehicle_type_id":"4","last_reported":1699711527,"current_range_meters":11600,"station_id":"ce4bh312rcd13ifvqdk0","pricing_plan_id":"free"},{"bike_id":"7a3e3c53-391a-42f6-82af-d296cd933c94","system_id":"levelo_inurba_marseille","lat":43.29271,"lon":5.40116,"is_reserved":false,"is_disabled":false,"rental_uris":{"android":"levelo://app?vid=7a3e3c53-391a-42f6-82af-d296cd933c94","ios":"levelo://app?vid=7a3e3c53-391a-42f6-82af-d296cd933c94"},"vehicle_type_id":"4","last_reported":1699711527,"current_range_meters":31200,"station_id":"ce4bh312rcd13ifvqdk0","pricing_plan_id":"free"},{"bike_id":"d0189253-b9a0-40e2-bc0a-c8b88c9bb4e7","system_id":"levelo_inurba_marseille","lat":43.2828,"lon":5.35067,"is_reserved":false,"is_disabled":false,"rental_uris":{"android":"levelo://app?vid=d0189253-b9a0-40e2-bc0a-c8b88c9bb4e7","ios":"levelo://app?vid=d0189253-b9a0-40e2-bc0a-c8b88c9bb4e7"},"vehicle_type_id":"4","last_reported":1699711527,"current_range_meters":3600,"station_id":"ce4bhbp2rcd13ifvqerg","pricing_plan_id":"free"},{"bike_id":"e3e3e50e-6198-44b4-afbc-fcdff59eae20","system_id":"levelo_inurba_marseille","lat":43.28282,"lon":5.35058,"is_reserved":false,"is_disabled":false,"rental_uris":{"android":"levelo://app?vid=e3e3e50e-6198-44b4-afbc-fcdff59eae20","ios":"levelo://app?vid=e3e3e50e-6198-44b4-afbc-fcdff59eae20"},"vehicle_type_id":"4","last_reported":1699711527,"current_range_meters":0,"station_id":"ce4bhbp2rcd13ifvqerg","pricing_plan_id":"free"},{"bike_id":"dbaee901-ec7d-4982-ae9a-d839b81b5cd3","system_id":"levelo_inurba_marseille","lat":43.28272,"lon":5.35067,"is_reserved":false,"is_disabled":false,"rental_uris":{"android":"levelo://app?vid=dbaee901-ec7d-4982-ae9a-d839b81b5cd3","ios":"levelo://app?vid=dbaee901-ec7d-4982-ae9a-d839b81b5cd3"},"vehicle_type_id":"4","last_reported":1699711527,"current_range_meters":0,"station_id":"ce4bhbp2rcd13ifvqerg","pricing_plan_id":"free"},{"bike_id":"d7092834-c248-4006-8f07-7df253f24225","system_id":"levelo_inurba_marseille","lat":43.2827,"lon":5.35067,"is_reserved":false,"is_disabled":false,"rental_uris":{"android":"levelo://app?vid=d7092834-c248-4006-8f07-7df253f24225","ios":"levelo://app?vid=d7092834-c248-4006-8f07-7df253f24225"},"vehicle_type_id":"4","last_reported":1699711527,"current_range_meters":1200,"station_id":"ce4bhbp2rcd13ifvqerg","pricing_plan_id":"free"},{"bike_id":"2bd628aa-166d-4276-b938-b5f6a234c4fc","system_id":"levelo_inurba_marseille","lat":43.282754,"lon":5.350519,"is_reserved":false,"is_disabled":false,"rental_uris":{"android":"levelo://app?vid=2bd628aa-166d-4276-b938-b5f6a234c4fc","ios":"levelo://app?vid=2bd628aa-166d-4276-b938-b5f6a234c4fc"},"vehicle_type_id":"4","last_reported":1699711527,"current_range_meters":31200,"station_id":"ce4bhbp2rcd13ifvqerg","pricing_plan_id":"free"},{"bike_id":"499af4eb-1f5c-4194-8eca-7951af05578a","system_id":"levelo_inurba_marseille","lat":43.282744,"lon":5.350533,"is_reserved":false,"is_disabled":false,"rental_uris":{"android":"levelo://app?vid=499af4eb-1f5c-4194-8eca-7951af05578a","ios":"levelo://app?vid=499af4eb-1f5c-4194-8eca-7951af05578a"},"vehicle_type_id":"4","last_reported":1699711527,"current_range_meters":23600,"station_id":"ce4bhbp2rcd13ifvqerg","pricing_plan_id":"free"},{"bike_id":"3c9c78e9-149a-4836-b379-4609d575068d","system_id":"levelo_inurba_marseille","lat":43.28038,"lon":5.36938,"is_reserved":false,"is_disabled":false,"rental_uris":{"android":"levelo://app?vid=3c9c78e9-149a-4836-b379-4609d575068d","ios":"levelo://app?vid=3c9c78e9-149a-4836-b379-4609d575068d"},"vehicle_type_id":"4","last_reported":1699711527,"current_range_meters":0,"station_id":"ce4bha12rcd13ifvqef0","pricing_plan_id":"free"},{"bike_id":"7669efbe-6fb1-4f3e-9e85-b49135dfecc6","system_id":"levelo_inurba_marseille","lat":43.280382,"lon":5.369291,"is_reserved":false,"is_disabled":false,"rental_uris":{"android":"levelo://app?vid=7669efbe-6fb1-4f3e-9e85-b49135dfecc6","ios":"levelo://app?vid=7669efbe-6fb1-4f3e-9e85-b49135dfecc6"},"vehicle_type_id":"4","last_reported":1699711527,"current_range_meters":17200,"station_id":"ce4bha12rcd13ifvqef0","pricing_plan_id":"free"},{"bike_id":"097a2574-d1bd-47bd-a182-a75d47ad4cf7","system_id":"levelo_inurba_marseille","lat":43.290412,"lon":5.399633,"is_reserved":false,"is_disabled":false,"rental_uris":{"android":"levelo://app?vid=097a2574-d1bd-47bd-a182-a75d47ad4cf7","ios":"levelo://app?vid=097a2574-d1bd-47bd-a182-a75d47ad4cf7"},"vehicle_type_id":"4","last_reported":1699711527,"current_range_meters":30000,"station_id":"ce4bh392rcd13ifvqdm0","pricing_plan_id":"free"},{"bike_id":"c5269fde-c094-4163-a2ac-a6350e774e3c","system_id":"levelo_inurba_marseille","lat":43.323447,"lon":5.41003,"is_reserved":false,"is_disabled":false,"rental_uris":{"android":"levelo://app?vid=c5269fde-c094-4163-a2ac-a6350e774e3c","ios":"levelo://app?vid=c5269fde-c094-4163-a2ac-a6350e774e3c"},"vehicle_type_id":"4","last_reported":1699711527,"current_range_meters":5200,"station_id":"","pricing_plan_id":"free"},{"bike_id":"818225e5-537a-4a64-ad73-627e4ff39aca","system_id":"levelo_inurba_marseille","lat":43.284462,"lon":5.392121,"is_reserved":false,"is_disabled":false,"rental_uris":{"android":"levelo://app?vid=818225e5-537a-4a64-ad73-627e4ff39aca","ios":"levelo://app?vid=818225e5-537a-4a64-ad73-627e4ff39aca"},"vehicle_type_id":"4","last_reported":1699711527,"current_range_meters":22400,"station_id":"ce4bhoh2rcd13ifvqh5g","pricing_plan_id":"free"},{"bike_id":"b337c1bb-cf9e-4304-b535-9bab53c02776","system_id":"levelo_inurba_marseille","lat":43.326605,"lon":5.409903,"is_reserved":false,"is_disabled":false,"rental_uris":{"android":"levelo://app?vid=b337c1bb-cf9e-4304-b535-9bab53c02776","ios":"levelo://app?vid=b337c1bb-cf9e-4304-b535-9bab53c02776"},"vehicle_type_id":"4","last_reported":1699711527,"current_range_meters":16800,"station_id":"ce4bhpp2rcd13ifvqhgg","pricing_plan_id":"free"},{"bike_id":"380edb4b-3a8e-458f-ab43-907945c44b4d","system_id":"levelo_inurba_marseille","lat":43.326592,"lon":5.409898,"is_reserved":false,"is_disabled":false,"rental_uris":{"android":"levelo://app?vid=380edb4b-3a8e-458f-ab43-907945c44b4d","ios":"levelo://app?vid=380edb4b-3a8e-458f-ab43-907945c44b4d"},"vehicle_type_id":"4","last_reported":1699711527,"current_range_meters":26000,"station_id":"ce4bhpp2rcd13ifvqhgg","pricing_plan_id":"free"},{"bike_id":"9c729897-70a8-47c0-9529-b9de6f51ce89","system_id":"levelo_inurba_marseille","lat":43.326605,"lon":5.409903,"is_reserved":false,"is_disabled":false,"rental_uris":{"android":"levelo://app?vid=9c729897-70a8-47c0-9529-b9de6f51ce89","ios":"levelo://app?vid=9c729897-70a8-47c0-9529-b9de6f51ce89"},"vehicle_type_id":"4","last_reported":1699711527,"current_range_meters":13200,"station_id":"ce4bhpp2rcd13ifvqhgg","pricing_plan_id":"free"},{"bike_id":"15c3b931-df92-4c44-b0ea-55bbe86b102f","system_id":"levelo_inurba_marseille","lat":43.27903,"lon":5.38009,"is_reserved":false,"is_disabled":false,"rental_uris":{"android":"levelo://app?vid=15c3b931-df92-4c44-b0ea-55bbe86b102f","ios":"levelo://app?vid=15c3b931-df92-4c44-b0ea-55bbe86b102f"},"vehicle_type_id":"4","last_reported":1699711527,"current_range_meters":26800,"station_id":"ce4bhf92rcd13ifvqf50","pricing_plan_id":"free"},{"bike_id":"62c4109e-1522-4847-b8e9-9152e22a65a3","system_id":"levelo_inurba_marseille","lat":43.279087,"lon":5.380114,"is_reserved":false,"is_disabled":false,"rental_uris":{"android":"levelo://app?vid=62c4109e-1522-4847-b8e9-9152e22a65a3","ios":"levelo://app?vid=62c4109e-1522-4847-b8e9-9152e22a65a3"},"vehicle_type_id":"4","last_reported":1699711527,"current_range_meters":7600,"station_id":"ce4bhf92rcd13ifvqf50","pricing_plan_id":"free"},{"bike_id":"c23ac6b3-47a7-4c76-b67e-8a7e6ea69c46","system_id":"levelo_inurba_marseille","lat":43.279087,"lon":5.380114,"is_reserved":false,"is_disabled":false,"rental_uris":{"android":"levelo://app?vid=c23ac6b3-47a7-4c76-b67e-8a7e6ea69c46","ios":"levelo://app?vid=c23ac6b3-47a7-4c76-b67e-8a7e6ea69c46"},"vehicle_type_id":"4","last_reported":1699711527,"current_range_meters":0,"station_id":"ce4bhf92rcd13ifvqf50","pricing_plan_id":"free"},{"bike_id":"feca28d2-7019-4e39-96be-d7938cc29597","system_id":"levelo_inurba_marseille","lat":43.32435,"lon":5.4137,"is_reserved":false,"is_disabled":false,"rental_uris":{"android":"levelo://app?vid=feca28d2-7019-4e39-96be-d7938cc29597","ios":"levelo://app?vid=feca28d2-7019-4e39-96be-d7938cc29597"},"vehicle_type_id":"4","last_reported":1699711527,"current_range_meters":21200,"station_id":"","pricing_plan_id":"free"},{"bike_id":"1570b9ce-590e-4998-839c-ff9cb94df548","system_id":"levelo_inurba_marseille","lat":43.299577,"lon":5.413277,"is_reserved":false,"is_disabled":false,"rental_uris":{"android":"levelo://app?vid=1570b9ce-590e-4998-839c-ff9cb94df548","ios":"levelo://app?vid=1570b9ce-590e-4998-839c-ff9cb94df548"},"vehicle_type_id":"4","last_reported":1699711527,"current_range_meters":8000,"station_id":"ce4bhp12rcd13ifvqh9g","pricing_plan_id":"free"},{"bike_id":"e9e94162-5842-46a0-88ed-c90d1606cd56","system_id":"levelo_inurba_marseille","lat":43.299577,"lon":5.413277,"is_reserved":false,"is_disabled":false,"rental_uris":{"android":"levelo://app?vid=e9e94162-5842-46a0-88ed-c90d1606cd56","ios":"levelo://app?vid=e9e94162-5842-46a0-88ed-c90d1606cd56"},"vehicle_type_id":"4","last_reported":1699711527,"current_range_meters":28400,"station_id":"ce4bhp12rcd13ifvqh9g","pricing_plan_id":"free"},{"bike_id":"584d6e01-ce3b-49a4-8966-2f6a9a839b81","system_id":"levelo_inurba_marseille","lat":43.320045,"lon":5.415046,"is_reserved":false,"is_disabled":false,"rental_uris":{"android":"levelo://app?vid=584d6e01-ce3b-49a4-8966-2f6a9a839b81","ios":"levelo://app?vid=584d6e01-ce3b-49a4-8966-2f6a9a839b81"},"vehicle_type_id":"4","last_reported":1699711527,"current_range_meters":12000,"station_id":"ce4bhq92rcd13ifvqhkg","pricing_plan_id":"free"},{"bike_id":"961ba4fe-450d-44a8-b53c-0cfc797f1f7e","system_id":"levelo_inurba_marseille","lat":43.276193,"lon":5.361153,"is_reserved":false,"is_disabled":false,"rental_uris":{"android":"levelo://app?vid=961ba4fe-450d-44a8-b53c-0cfc797f1f7e","ios":"levelo://app?vid=961ba4fe-450d-44a8-b53c-0cfc797f1f7e"},"vehicle_type_id":"4","last_reported":1699711527,"current_range_meters":6400,"station_id":"ce4bgj92rcd13ifvqbe0","pricing_plan_id":"free"},{"bike_id":"2d400de2-e5d7-4301-845e-bc6cfe8933bf","system_id":"levelo_inurba_marseille","lat":43.27615,"lon":5.36106,"is_reserved":false,"is_disabled":false,"rental_uris":{"android":"levelo://app?vid=2d400de2-e5d7-4301-845e-bc6cfe8933bf","ios":"levelo://app?vid=2d400de2-e5d7-4301-845e-bc6cfe8933bf"},"vehicle_type_id":"4","last_reported":1699711527,"current_range_meters":9200,"station_id":"ce4bgj92rcd13ifvqbe0","pricing_plan_id":"free"},{"bike_id":"f5e6f15f-e628-4d71-80d9-c37ccf9f8437","system_id":"levelo_inurba_marseille","lat":43.276135,"lon":5.361121,"is_reserved":false,"is_disabled":false,"rental_uris":{"android":"levelo://app?vid=f5e6f15f-e628-4d71-80d9-c37ccf9f8437","ios":"levelo://app?vid=f5e6f15f-e628-4d71-80d9-c37ccf9f8437"},"vehicle_type_id":"4","last_reported":1699711527,"current_range_meters":22400,"station_id":"ce4bgj92rcd13ifvqbe0","pricing_plan_id":"free"},{"bike_id":"3e75e756-f7a3-4bff-b00e-8686b1fd122d","system_id":"levelo_inurba_marseille","lat":43.27917,"lon":5.38783,"is_reserved":false,"is_disabled":false,"rental_uris":{"android":"levelo://app?vid=3e75e756-f7a3-4bff-b00e-8686b1fd122d","ios":"levelo://app?vid=3e75e756-f7a3-4bff-b00e-8686b1fd122d"},"vehicle_type_id":"4","last_reported":1699711527,"current_range_meters":0,"station_id":"","pricing_plan_id":"free"},{"bike_id":"853a6c71-3199-44ed-85d1-d4edc229dfeb","system_id":"levelo_inurba_marseille","lat":43.303837,"lon":5.418724,"is_reserved":false,"is_disabled":false,"rental_uris":{"android":"levelo://app?vid=853a6c71-3199-44ed-85d1-d4edc229dfeb","ios":"levelo://app?vid=853a6c71-3199-44ed-85d1-d4edc229dfeb"},"vehicle_type_id":"4","last_reported":1699711527,"current_range_meters":28400,"station_id":"ce4bhop2rcd13ifvqh7g","pricing_plan_id":"free"},{"bike_id":"c2f67387-d89f-483f-8e09-0a737988ec81","system_id":"levelo_inurba_marseille","lat":43.303837,"lon":5.418724,"is_reserved":false,"is_disabled":false,"rental_uris":{"android":"levelo://app?vid=c2f67387-d89f-483f-8e09-0a737988ec81","ios":"levelo://app?vid=c2f67387-d89f-483f-8e09-0a737988ec81"},"vehicle_type_id":"4","last_reported":1699711527,"current_range_meters":26400,"station_id":"ce4bhop2rcd13ifvqh7g","pricing_plan_id":"free"},{"bike_id":"78dd600c-2704-4893-a6e3-e6d99cffbfc6","system_id":"levelo_inurba_marseille","lat":43.273613,"lon":5.362705,"is_reserved":false,"is_disabled":false,"rental_uris":{"android":"levelo://app?vid=78dd600c-2704-4893-a6e3-e6d99cffbfc6","ios":"levelo://app?vid=78dd600c-2704-4893-a6e3-e6d99cffbfc6"},"vehicle_type_id":"4","last_reported":1699711527,"current_range_meters":4400,"station_id":"ce4bhbh2rcd13ifvqeo0","pricing_plan_id":"free"},{"bike_id":"ab829a5e-fec0-4edf-b898-3d7dd72b764b","system_id":"levelo_inurba_marseille","lat":43.273609,"lon":5.362708,"is_reserved":false,"is_disabled":false,"rental_uris":{"android":"levelo://app?vid=ab829a5e-fec0-4edf-b898-3d7dd72b764b","ios":"levelo://app?vid=ab829a5e-fec0-4edf-b898-3d7dd72b764b"},"vehicle_type_id":"4","last_reported":1699711527,"current_range_meters":16800,"station_id":"ce4bhbh2rcd13ifvqeo0","pricing_plan_id":"free"},{"bike_id":"caf738e6-d442-43cf-8356-2d5d6ec1e2ee","system_id":"levelo_inurba_marseille","lat":43.275625,"lon":5.384392,"is_reserved":false,"is_disabled":false,"rental_uris":{"android":"levelo://app?vid=caf738e6-d442-43cf-8356-2d5d6ec1e2ee","ios":"levelo://app?vid=caf738e6-d442-43cf-8356-2d5d6ec1e2ee"},"vehicle_type_id":"4","last_reported":1699711527,"current_range_meters":20400,"station_id":"ce4bhh92rcd13ifvqfi0","pricing_plan_id":"free"},{"bike_id":"8f647921-7aff-4302-8fb9-d599e753a8ab","system_id":"levelo_inurba_marseille","lat":43.273609,"lon":5.362708,"is_reserved":false,"is_disabled":false,"rental_uris":{"android":"levelo://app?vid=8f647921-7aff-4302-8fb9-d599e753a8ab","ios":"levelo://app?vid=8f647921-7aff-4302-8fb9-d599e753a8ab"},"vehicle_type_id":"4","last_reported":1699711527,"current_range_meters":18400,"station_id":"ce4bhbh2rcd13ifvqeo0","pricing_plan_id":"free"},{"bike_id":"de6f6e1a-1b3a-487d-ac96-0217862657ea","system_id":"levelo_inurba_marseille","lat":43.273609,"lon":5.362708,"is_reserved":false,"is_disabled":false,"rental_uris":{"android":"levelo://app?vid=de6f6e1a-1b3a-487d-ac96-0217862657ea","ios":"levelo://app?vid=de6f6e1a-1b3a-487d-ac96-0217862657ea"},"vehicle_type_id":"4","last_reported":1699711527,"current_range_meters":9200,"station_id":"ce4bhbh2rcd13ifvqeo0","pricing_plan_id":"free"},{"bike_id":"da36173a-97ca-44b4-80cb-b0d55c1c5981","system_id":"levelo_inurba_marseille","lat":43.33612,"lon":5.410321,"is_reserved":false,"is_disabled":false,"rental_uris":{"android":"levelo://app?vid=da36173a-97ca-44b4-80cb-b0d55c1c5981","ios":"levelo://app?vid=da36173a-97ca-44b4-80cb-b0d55c1c5981"},"vehicle_type_id":"4","last_reported":1699711527,"current_range_meters":22400,"station_id":"ce4bhqh2rcd13ifvqhmg","pricing_plan_id":"free"},{"bike_id":"68ffca5c-f92e-4d2b-b812-3edfa190d5ea","system_id":"levelo_inurba_marseille","lat":43.278275,"lon":5.396505,"is_reserved":false,"is_disabled":false,"rental_uris":{"android":"levelo://app?vid=68ffca5c-f92e-4d2b-b812-3edfa190d5ea","ios":"levelo://app?vid=68ffca5c-f92e-4d2b-b812-3edfa190d5ea"},"vehicle_type_id":"4","last_reported":1699711527,"current_range_meters":8400,"station_id":"","pricing_plan_id":"free"},{"bike_id":"f45f977f-e308-4fca-95f8-354d9258d5b9","system_id":"levelo_inurba_marseille","lat":43.279952,"lon":5.400085,"is_reserved":false,"is_disabled":false,"rental_uris":{"android":"levelo://app?vid=f45f977f-e308-4fca-95f8-354d9258d5b9","ios":"levelo://app?vid=f45f977f-e308-4fca-95f8-354d9258d5b9"},"vehicle_type_id":"4","last_reported":1699711527,"current_range_meters":23200,"station_id":"ce4bho92rcd13ifvqh4g","pricing_plan_id":"free"},{"bike_id":"a65a7f67-7c24-4c20-93bb-323926b438c2","system_id":"levelo_inurba_marseille","lat":43.310785,"lon":5.424305,"is_reserved":false,"is_disabled":false,"rental_uris":{"android":"levelo://app?vid=a65a7f67-7c24-4c20-93bb-323926b438c2","ios":"levelo://app?vid=a65a7f67-7c24-4c20-93bb-323926b438c2"},"vehicle_type_id":"4","last_reported":1699711527,"current_range_meters":29200,"station_id":"ce4bhp92rcd13ifvqhag","pricing_plan_id":"free"},{"bike_id":"1bfe5d8a-7a5a-4bba-a2a3-6e36635a0cd3","system_id":"levelo_inurba_marseille","lat":43.310785,"lon":5.424305,"is_reserved":false,"is_disabled":false,"rental_uris":{"android":"levelo://app?vid=1bfe5d8a-7a5a-4bba-a2a3-6e36635a0cd3","ios":"levelo://app?vid=1bfe5d8a-7a5a-4bba-a2a3-6e36635a0cd3"},"vehicle_type_id":"4","last_reported":1699711527,"current_range_meters":30400,"station_id":"ce4bhp92rcd13ifvqhag","pricing_plan_id":"free"},{"bike_id":"e60a634e-3754-4216-b096-4c2a988539e2","system_id":"levelo_inurba_marseille","lat":43.317121,"lon":5.423936,"is_reserved":false,"is_disabled":false,"rental_uris":{"android":"levelo://app?vid=e60a634e-3754-4216-b096-4c2a988539e2","ios":"levelo://app?vid=e60a634e-3754-4216-b096-4c2a988539e2"},"vehicle_type_id":"4","last_reported":1699711527,"current_range_meters":27600,"station_id":"ce4bhp92rcd13ifvqhbg","pricing_plan_id":"free"},{"bike_id":"d77e3f76-8f0c-400d-8f60-e86f8f611f2d","system_id":"levelo_inurba_marseille","lat":43.31079,"lon":5.42431,"is_reserved":false,"is_disabled":false,"rental_uris":{"android":"levelo://app?vid=d77e3f76-8f0c-400d-8f60-e86f8f611f2d","ios":"levelo://app?vid=d77e3f76-8f0c-400d-8f60-e86f8f611f2d"},"vehicle_type_id":"4","last_reported":1699711527,"current_range_meters":15200,"station_id":"ce4bhp92rcd13ifvqhag","pricing_plan_id":"free"},{"bike_id":"94ca9f7e-7363-4967-949f-2c00a8f32de0","system_id":"levelo_inurba_marseille","lat":43.273129,"lon":5.390725,"is_reserved":false,"is_disabled":false,"rental_uris":{"android":"levelo://app?vid=94ca9f7e-7363-4967-949f-2c00a8f32de0","ios":"levelo://app?vid=94ca9f7e-7363-4967-949f-2c00a8f32de0"},"vehicle_type_id":"4","last_reported":1699711527,"current_range_meters":0,"station_id":"ce4bhgp2rcd13ifvqfe0","pricing_plan_id":"free"},{"bike_id":"6b6bd153-91c3-4575-aa13-5754a51bd210","system_id":"levelo_inurba_marseille","lat":43.273129,"lon":5.390725,"is_reserved":false,"is_disabled":false,"rental_uris":{"android":"levelo://app?vid=6b6bd153-91c3-4575-aa13-5754a51bd210","ios":"levelo://app?vid=6b6bd153-91c3-4575-aa13-5754a51bd210"},"vehicle_type_id":"4","last_reported":1699711527,"current_range_meters":12000,"station_id":"ce4bhgp2rcd13ifvqfe0","pricing_plan_id":"free"},{"bike_id":"2f4493b0-f31c-4740-96aa-cff85d0cccba","system_id":"levelo_inurba_marseille","lat":43.273129,"lon":5.390725,"is_reserved":false,"is_disabled":false,"rental_uris":{"android":"levelo://app?vid=2f4493b0-f31c-4740-96aa-cff85d0cccba","ios":"levelo://app?vid=2f4493b0-f31c-4740-96aa-cff85d0cccba"},"vehicle_type_id":"4","last_reported":1699711527,"current_range_meters":21200,"station_id":"ce4bhgp2rcd13ifvqfe0","pricing_plan_id":"free"},{"bike_id":"e7b2e58b-ff0f-4c53-9c52-5fe1b32f6dec","system_id":"levelo_inurba_marseille","lat":43.273129,"lon":5.390725,"is_reserved":false,"is_disabled":false,"rental_uris":{"android":"levelo://app?vid=e7b2e58b-ff0f-4c53-9c52-5fe1b32f6dec","ios":"levelo://app?vid=e7b2e58b-ff0f-4c53-9c52-5fe1b32f6dec"},"vehicle_type_id":"4","last_reported":1699711527,"current_range_meters":20800,"station_id":"ce4bhgp2rcd13ifvqfe0","pricing_plan_id":"free"},{"bike_id":"a50d0c78-51be-46ec-8139-e962ad1fae13","system_id":"levelo_inurba_marseille","lat":43.274103,"lon":5.394016,"is_reserved":false,"is_disabled":false,"rental_uris":{"android":"levelo://app?vid=a50d0c78-51be-46ec-8139-e962ad1fae13","ios":"levelo://app?vid=a50d0c78-51be-46ec-8139-e962ad1fae13"},"vehicle_type_id":"4","last_reported":1699711527,"current_range_meters":27200,"station_id":"ce4bhdp2rcd13ifvqf20","pricing_plan_id":"free"},{"bike_id":"1c15d9fa-af85-40ec-bb73-c0622b164b46","system_id":"levelo_inurba_marseille","lat":43.274103,"lon":5.394016,"is_reserved":false,"is_disabled":false,"rental_uris":{"android":"levelo://app?vid=1c15d9fa-af85-40ec-bb73-c0622b164b46","ios":"levelo://app?vid=1c15d9fa-af85-40ec-bb73-c0622b164b46"},"vehicle_type_id":"4","last_reported":1699711527,"current_range_meters":16800,"station_id":"ce4bhdp2rcd13ifvqf20","pricing_plan_id":"free"},{"bike_id":"fd537000-7b3f-43df-9a01-5bc26dd1b05a","system_id":"levelo_inurba_marseille","lat":43.304236,"lon":5.425337,"is_reserved":false,"is_disabled":false,"rental_uris":{"android":"levelo://app?vid=fd537000-7b3f-43df-9a01-5bc26dd1b05a","ios":"levelo://app?vid=fd537000-7b3f-43df-9a01-5bc26dd1b05a"},"vehicle_type_id":"4","last_reported":1699711527,"current_range_meters":24800,"station_id":"ce4bhoh2rcd13ifvqh6g","pricing_plan_id":"free"},{"bike_id":"3f0e4165-a7f1-4a77-b849-f052e1b96e5f","system_id":"levelo_inurba_marseille","lat":43.30415,"lon":5.42539,"is_reserved":false,"is_disabled":false,"rental_uris":{"android":"levelo://app?vid=3f0e4165-a7f1-4a77-b849-f052e1b96e5f","ios":"levelo://app?vid=3f0e4165-a7f1-4a77-b849-f052e1b96e5f"},"vehicle_type_id":"4","last_reported":1699711527,"current_range_meters":10000,"station_id":"ce4bhoh2rcd13ifvqh6g","pricing_plan_id":"free"},{"bike_id":"d4908982-fcd1-462a-9e00-c8c18e3630d6","system_id":"levelo_inurba_marseille","lat":43.30418,"lon":5.42541,"is_reserved":false,"is_disabled":false,"rental_uris":{"android":"levelo://app?vid=d4908982-fcd1-462a-9e00-c8c18e3630d6","ios":"levelo://app?vid=d4908982-fcd1-462a-9e00-c8c18e3630d6"},"vehicle_type_id":"4","last_reported":1699711527,"current_range_meters":26800,"station_id":"ce4bhoh2rcd13ifvqh6g","pricing_plan_id":"free"},{"bike_id":"cee80ecd-01a2-4fb2-a92a-7ebeb592e2ce","system_id":"levelo_inurba_marseille","lat":43.295523,"lon":5.422926,"is_reserved":false,"is_disabled":false,"rental_uris":{"android":"levelo://app?vid=cee80ecd-01a2-4fb2-a92a-7ebeb592e2ce","ios":"levelo://app?vid=cee80ecd-01a2-4fb2-a92a-7ebeb592e2ce"},"vehicle_type_id":"4","last_reported":1699711527,"current_range_meters":18000,"station_id":"ce4bhph2rcd13ifvqhdg","pricing_plan_id":"free"},{"bike_id":"81434698-a347-4914-be12-f18786f27bc7","system_id":"levelo_inurba_marseille","lat":43.295511,"lon":5.422926,"is_reserved":false,"is_disabled":false,"rental_uris":{"android":"levelo://app?vid=81434698-a347-4914-be12-f18786f27bc7","ios":"levelo://app?vid=81434698-a347-4914-be12-f18786f27bc7"},"vehicle_type_id":"4","last_reported":1699711527,"current_range_meters":28800,"station_id":"ce4bhph2rcd13ifvqhdg","pricing_plan_id":"free"},{"bike_id":"7f7029a1-fbb1-49c4-a3b6-097f36482fc1","system_id":"levelo_inurba_marseille","lat":43.295523,"lon":5.422926,"is_reserved":false,"is_disabled":false,"rental_uris":{"android":"levelo://app?vid=7f7029a1-fbb1-49c4-a3b6-097f36482fc1","ios":"levelo://app?vid=7f7029a1-fbb1-49c4-a3b6-097f36482fc1"},"vehicle_type_id":"4","last_reported":1699711527,"current_range_meters":31200,"station_id":"ce4bhph2rcd13ifvqhdg","pricing_plan_id":"free"},{"bike_id":"f0225545-efde-4617-939f-f42eb783a5c4","system_id":"levelo_inurba_marseille","lat":43.295511,"lon":5.422926,"is_reserved":false,"is_disabled":false,"rental_uris":{"android":"levelo://app?vid=f0225545-efde-4617-939f-f42eb783a5c4","ios":"levelo://app?vid=f0225545-efde-4617-939f-f42eb783a5c4"},"vehicle_type_id":"4","last_reported":1699711527,"current_range_meters":31200,"station_id":"ce4bhph2rcd13ifvqhdg","pricing_plan_id":"free"},{"bike_id":"c19994d0-f0ba-4e87-8166-5c3d1ea48abc","system_id":"levelo_inurba_marseille","lat":43.27212,"lon":5.39178,"is_reserved":false,"is_disabled":false,"rental_uris":{"android":"levelo://app?vid=c19994d0-f0ba-4e87-8166-5c3d1ea48abc","ios":"levelo://app?vid=c19994d0-f0ba-4e87-8166-5c3d1ea48abc"},"vehicle_type_id":"4","last_reported":1699711527,"current_range_meters":0,"station_id":"ce4bhhp2rcd13ifvqfm0","pricing_plan_id":"free"},{"bike_id":"622fc4f4-4ed5-4ca4-abb9-16f7389596a3","system_id":"levelo_inurba_marseille","lat":43.2722,"lon":5.39254,"is_reserved":false,"is_disabled":false,"rental_uris":{"android":"levelo://app?vid=622fc4f4-4ed5-4ca4-abb9-16f7389596a3","ios":"levelo://app?vid=622fc4f4-4ed5-4ca4-abb9-16f7389596a3"},"vehicle_type_id":"4","last_reported":1699711527,"current_range_meters":6000,"station_id":"","pricing_plan_id":"free"},{"bike_id":"fea03e83-2672-4901-b739-2fbff174dd7e","system_id":"levelo_inurba_marseille","lat":43.27216,"lon":5.39252,"is_reserved":false,"is_disabled":false,"rental_uris":{"android":"levelo://app?vid=fea03e83-2672-4901-b739-2fbff174dd7e","ios":"levelo://app?vid=fea03e83-2672-4901-b739-2fbff174dd7e"},"vehicle_type_id":"4","last_reported":1699711527,"current_range_meters":5200,"station_id":"","pricing_plan_id":"free"},{"bike_id":"1cd3e561-6dcd-4cb2-ac3e-b30a4b454baf","system_id":"levelo_inurba_marseille","lat":43.27214,"lon":5.39255,"is_reserved":false,"is_disabled":false,"rental_uris":{"android":"levelo://app?vid=1cd3e561-6dcd-4cb2-ac3e-b30a4b454baf","ios":"levelo://app?vid=1cd3e561-6dcd-4cb2-ac3e-b30a4b454baf"},"vehicle_type_id":"4","last_reported":1699711527,"current_range_meters":16800,"station_id":"","pricing_plan_id":"free"},{"bike_id":"71e768a2-9b49-49d8-bb9b-827044bbb7f7","system_id":"levelo_inurba_marseille","lat":43.27203,"lon":5.39295,"is_reserved":false,"is_disabled":false,"rental_uris":{"android":"levelo://app?vid=71e768a2-9b49-49d8-bb9b-827044bbb7f7","ios":"levelo://app?vid=71e768a2-9b49-49d8-bb9b-827044bbb7f7"},"vehicle_type_id":"4","last_reported":1699711527,"current_range_meters":18800,"station_id":"","pricing_plan_id":"free"},{"bike_id":"3d676b86-b305-41b6-9871-2b0ec58204cd","system_id":"levelo_inurba_marseille","lat":43.278128,"lon":5.407195,"is_reserved":false,"is_disabled":false,"rental_uris":{"android":"levelo://app?vid=3d676b86-b305-41b6-9871-2b0ec58204cd","ios":"levelo://app?vid=3d676b86-b305-41b6-9871-2b0ec58204cd"},"vehicle_type_id":"4","last_reported":1699711527,"current_range_meters":11200,"station_id":"ce4bhnh2rcd13ifvqgtg","pricing_plan_id":"free"},{"bike_id":"aebdbd15-9a4b-4008-b1e5-cb312b99324a","system_id":"levelo_inurba_marseille","lat":43.278128,"lon":5.407195,"is_reserved":false,"is_disabled":false,"rental_uris":{"android":"levelo://app?vid=aebdbd15-9a4b-4008-b1e5-cb312b99324a","ios":"levelo://app?vid=aebdbd15-9a4b-4008-b1e5-cb312b99324a"},"vehicle_type_id":"4","last_reported":1699711527,"current_range_meters":23600,"station_id":"ce4bhnh2rcd13ifvqgtg","pricing_plan_id":"free"},{"bike_id":"ae04ca22-f06c-4771-ac62-587c012bd67f","system_id":"levelo_inurba_marseille","lat":43.278128,"lon":5.407195,"is_reserved":false,"is_disabled":false,"rental_uris":{"android":"levelo://app?vid=ae04ca22-f06c-4771-ac62-587c012bd67f","ios":"levelo://app?vid=ae04ca22-f06c-4771-ac62-587c012bd67f"},"vehicle_type_id":"4","last_reported":1699711527,"current_range_meters":28000,"station_id":"ce4bhnh2rcd13ifvqgtg","pricing_plan_id":"free"},{"bike_id":"233e307e-4ef5-4ada-98bb-0592fd50608a","system_id":"levelo_inurba_marseille","lat":43.278128,"lon":5.407195,"is_reserved":false,"is_disabled":false,"rental_uris":{"android":"levelo://app?vid=233e307e-4ef5-4ada-98bb-0592fd50608a","ios":"levelo://app?vid=233e307e-4ef5-4ada-98bb-0592fd50608a"},"vehicle_type_id":"4","last_reported":1699711527,"current_range_meters":14400,"station_id":"ce4bhnh2rcd13ifvqgtg","pricing_plan_id":"free"},{"bike_id":"49cf5f03-15c2-4ed3-8eaf-3525bc3b4cd3","system_id":"levelo_inurba_marseille","lat":43.279465,"lon":5.410561,"is_reserved":false,"is_disabled":false,"rental_uris":{"android":"levelo://app?vid=49cf5f03-15c2-4ed3-8eaf-3525bc3b4cd3","ios":"levelo://app?vid=49cf5f03-15c2-4ed3-8eaf-3525bc3b4cd3"},"vehicle_type_id":"4","last_reported":1699711527,"current_range_meters":16800,"station_id":"ce4bhnp2rcd13ifvqh0g","pricing_plan_id":"free"},{"bike_id":"4221bc7f-880d-4817-8ec1-d51f5883c835","system_id":"levelo_inurba_marseille","lat":43.27996,"lon":5.41661,"is_reserved":false,"is_disabled":false,"rental_uris":{"android":"levelo://app?vid=4221bc7f-880d-4817-8ec1-d51f5883c835","ios":"levelo://app?vid=4221bc7f-880d-4817-8ec1-d51f5883c835"},"vehicle_type_id":"4","last_reported":1699711527,"current_range_meters":4400,"station_id":"ce4bho12rcd13ifvqh1g","pricing_plan_id":"free"},{"bike_id":"27a78f84-0cd0-472b-9a1b-8c61a793cb7a","system_id":"levelo_inurba_marseille","lat":43.27999,"lon":5.41668,"is_reserved":false,"is_disabled":false,"rental_uris":{"android":"levelo://app?vid=27a78f84-0cd0-472b-9a1b-8c61a793cb7a","ios":"levelo://app?vid=27a78f84-0cd0-472b-9a1b-8c61a793cb7a"},"vehicle_type_id":"4","last_reported":1699711527,"current_range_meters":19200,"station_id":"ce4bho12rcd13ifvqh1g","pricing_plan_id":"free"},{"bike_id":"9b3232c5-9487-4e9a-a165-6f944c2b2286","system_id":"levelo_inurba_marseille","lat":43.27998,"lon":5.41671,"is_reserved":false,"is_disabled":false,"rental_uris":{"android":"levelo://app?vid=9b3232c5-9487-4e9a-a165-6f944c2b2286","ios":"levelo://app?vid=9b3232c5-9487-4e9a-a165-6f944c2b2286"},"vehicle_type_id":"4","last_reported":1699711527,"current_range_meters":20400,"station_id":"ce4bho12rcd13ifvqh1g","pricing_plan_id":"free"},{"bike_id":"67c4f895-2c67-4657-abe5-2d983a3fde28","system_id":"levelo_inurba_marseille","lat":43.26576,"lon":5.3901,"is_reserved":false,"is_disabled":false,"rental_uris":{"android":"levelo://app?vid=67c4f895-2c67-4657-abe5-2d983a3fde28","ios":"levelo://app?vid=67c4f895-2c67-4657-abe5-2d983a3fde28"},"vehicle_type_id":"4","last_reported":1699711527,"current_range_meters":25200,"station_id":"ce4bhe12rcd13ifvqf30","pricing_plan_id":"free"},{"bike_id":"99d1910d-a84d-4eaf-bf7a-e5a15d325b53","system_id":"levelo_inurba_marseille","lat":43.331823,"lon":5.431664,"is_reserved":false,"is_disabled":false,"rental_uris":{"android":"levelo://app?vid=99d1910d-a84d-4eaf-bf7a-e5a15d325b53","ios":"levelo://app?vid=99d1910d-a84d-4eaf-bf7a-e5a15d325b53"},"vehicle_type_id":"4","last_reported":1699711527,"current_range_meters":0,"station_id":"","pricing_plan_id":"free"},{"bike_id":"a71d87dd-8ffa-4d0a-a4fc-8bcc408b299b","system_id":"levelo_inurba_marseille","lat":43.261782,"lon":5.374515,"is_reserved":false,"is_disabled":false,"rental_uris":{"android":"levelo://app?vid=a71d87dd-8ffa-4d0a-a4fc-8bcc408b299b","ios":"levelo://app?vid=a71d87dd-8ffa-4d0a-a4fc-8bcc408b299b"},"vehicle_type_id":"4","last_reported":1699711527,"current_range_meters":0,"station_id":"ce4bhgp2rcd13ifvqfc0","pricing_plan_id":"free"},{"bike_id":"25fa0bdc-ead4-4271-87e1-d70b6eb9d2a9","system_id":"levelo_inurba_marseille","lat":43.31711,"lon":5.43697,"is_reserved":false,"is_disabled":false,"rental_uris":{"android":"levelo://app?vid=25fa0bdc-ead4-4271-87e1-d70b6eb9d2a9","ios":"levelo://app?vid=25fa0bdc-ead4-4271-87e1-d70b6eb9d2a9"},"vehicle_type_id":"4","last_reported":1699711527,"current_range_meters":30400,"station_id":"ce4bhp92rcd13ifvqhcg","pricing_plan_id":"free"},{"bike_id":"95731d1b-1325-456a-8700-83d72dbaf979","system_id":"levelo_inurba_marseille","lat":43.317105,"lon":5.437045,"is_reserved":false,"is_disabled":false,"rental_uris":{"android":"levelo://app?vid=95731d1b-1325-456a-8700-83d72dbaf979","ios":"levelo://app?vid=95731d1b-1325-456a-8700-83d72dbaf979"},"vehicle_type_id":"4","last_reported":1699711527,"current_range_meters":25600,"station_id":"ce4bhp92rcd13ifvqhcg","pricing_plan_id":"free"},{"bike_id":"16f17151-fe60-4a21-be1c-c787ed957961","system_id":"levelo_inurba_marseille","lat":43.31711,"lon":5.43712,"is_reserved":false,"is_disabled":false,"rental_uris":{"android":"levelo://app?vid=16f17151-fe60-4a21-be1c-c787ed957961","ios":"levelo://app?vid=16f17151-fe60-4a21-be1c-c787ed957961"},"vehicle_type_id":"4","last_reported":1699711527,"current_range_meters":0,"station_id":"ce4bhp92rcd13ifvqhcg","pricing_plan_id":"free"},{"bike_id":"5ffaab31-ab6f-4e11-80a5-9ff7e018569a","system_id":"levelo_inurba_marseille","lat":43.262012,"lon":5.379307,"is_reserved":false,"is_disabled":false,"rental_uris":{"android":"levelo://app?vid=5ffaab31-ab6f-4e11-80a5-9ff7e018569a","ios":"levelo://app?vid=5ffaab31-ab6f-4e11-80a5-9ff7e018569a"},"vehicle_type_id":"4","last_reported":1699711527,"current_range_meters":20000,"station_id":"ce4bhjp2rcd13ifvqg90","pricing_plan_id":"free"},{"bike_id":"2f3153be-1b01-4a7e-a6c2-175fa1421d14","system_id":"levelo_inurba_marseille","lat":43.26202,"lon":5.379299,"is_reserved":false,"is_disabled":false,"rental_uris":{"android":"levelo://app?vid=2f3153be-1b01-4a7e-a6c2-175fa1421d14","ios":"levelo://app?vid=2f3153be-1b01-4a7e-a6c2-175fa1421d14"},"vehicle_type_id":"4","last_reported":1699711527,"current_range_meters":20400,"station_id":"ce4bhjp2rcd13ifvqg90","pricing_plan_id":"free"},{"bike_id":"8a4087ee-eb27-456c-aa78-99b81d1568ae","system_id":"levelo_inurba_marseille","lat":43.298961,"lon":5.436687,"is_reserved":false,"is_disabled":false,"rental_uris":{"android":"levelo://app?vid=8a4087ee-eb27-456c-aa78-99b81d1568ae","ios":"levelo://app?vid=8a4087ee-eb27-456c-aa78-99b81d1568ae"},"vehicle_type_id":"4","last_reported":1699711527,"current_range_meters":0,"station_id":"ce4bhpp2rcd13ifvqhfg","pricing_plan_id":"free"},{"bike_id":"c48c9371-7c30-4897-8647-06790164a180","system_id":"levelo_inurba_marseille","lat":43.26501,"lon":5.39732,"is_reserved":false,"is_disabled":false,"rental_uris":{"android":"levelo://app?vid=c48c9371-7c30-4897-8647-06790164a180","ios":"levelo://app?vid=c48c9371-7c30-4897-8647-06790164a180"},"vehicle_type_id":"4","last_reported":1699711527,"current_range_meters":0,"station_id":"","pricing_plan_id":"free"},{"bike_id":"3b5bfcfe-b7e3-4624-abf7-d21c0c861046","system_id":"levelo_inurba_marseille","lat":43.281825,"lon":5.425605,"is_reserved":false,"is_disabled":false,"rental_uris":{"android":"levelo://app?vid=3b5bfcfe-b7e3-4624-abf7-d21c0c861046","ios":"levelo://app?vid=3b5bfcfe-b7e3-4624-abf7-d21c0c861046"},"vehicle_type_id":"4","last_reported":1699711527,"current_range_meters":3600,"station_id":"","pricing_plan_id":"free"},{"bike_id":"4f6880f4-3164-4fc2-9cf7-3c1358040f10","system_id":"levelo_inurba_marseille","lat":43.290501,"lon":5.433305,"is_reserved":false,"is_disabled":false,"rental_uris":{"android":"levelo://app?vid=4f6880f4-3164-4fc2-9cf7-3c1358040f10","ios":"levelo://app?vid=4f6880f4-3164-4fc2-9cf7-3c1358040f10"},"vehicle_type_id":"4","last_reported":1699711527,"current_range_meters":19600,"station_id":"","pricing_plan_id":"free"},{"bike_id":"f75a763b-95f1-49f3-b144-e93d006f365a","system_id":"levelo_inurba_marseille","lat":43.281548,"lon":5.42643,"is_reserved":false,"is_disabled":false,"rental_uris":{"android":"levelo://app?vid=f75a763b-95f1-49f3-b144-e93d006f365a","ios":"levelo://app?vid=f75a763b-95f1-49f3-b144-e93d006f365a"},"vehicle_type_id":"4","last_reported":1699711527,"current_range_meters":26800,"station_id":"ce4bhnh2rcd13ifvqgug","pricing_plan_id":"free"},{"bike_id":"1ed73a19-67b5-4669-8526-685c80708e99","system_id":"levelo_inurba_marseille","lat":43.281548,"lon":5.42643,"is_reserved":false,"is_disabled":false,"rental_uris":{"android":"levelo://app?vid=1ed73a19-67b5-4669-8526-685c80708e99","ios":"levelo://app?vid=1ed73a19-67b5-4669-8526-685c80708e99"},"vehicle_type_id":"4","last_reported":1699711527,"current_range_meters":13200,"station_id":"ce4bhnh2rcd13ifvqgug","pricing_plan_id":"free"},{"bike_id":"8e58de32-b404-4e3e-aeb2-04800eae0ab4","system_id":"levelo_inurba_marseille","lat":43.281548,"lon":5.42643,"is_reserved":false,"is_disabled":false,"rental_uris":{"android":"levelo://app?vid=8e58de32-b404-4e3e-aeb2-04800eae0ab4","ios":"levelo://app?vid=8e58de32-b404-4e3e-aeb2-04800eae0ab4"},"vehicle_type_id":"4","last_reported":1699711527,"current_range_meters":29200,"station_id":"ce4bhnh2rcd13ifvqgug","pricing_plan_id":"free"},{"bike_id":"ce865cd5-95eb-43e8-8d8c-e00126f986bc","system_id":"levelo_inurba_marseille","lat":43.281548,"lon":5.42643,"is_reserved":false,"is_disabled":false,"rental_uris":{"android":"levelo://app?vid=ce865cd5-95eb-43e8-8d8c-e00126f986bc","ios":"levelo://app?vid=ce865cd5-95eb-43e8-8d8c-e00126f986bc"},"vehicle_type_id":"4","last_reported":1699711527,"current_range_meters":2400,"station_id":"ce4bhnh2rcd13ifvqgug","pricing_plan_id":"free"},{"bike_id":"d09bdb15-4263-4f4c-8359-dba3f3c340f9","system_id":"levelo_inurba_marseille","lat":43.2607,"lon":5.393983,"is_reserved":false,"is_disabled":false,"rental_uris":{"android":"levelo://app?vid=d09bdb15-4263-4f4c-8359-dba3f3c340f9","ios":"levelo://app?vid=d09bdb15-4263-4f4c-8359-dba3f3c340f9"},"vehicle_type_id":"4","last_reported":1699711527,"current_range_meters":0,"station_id":"ce4bhh92rcd13ifvqfj0","pricing_plan_id":"free"},{"bike_id":"7929fe62-478b-45ed-a32f-4cee63794674","system_id":"levelo_inurba_marseille","lat":43.275005,"lon":5.424511,"is_reserved":false,"is_disabled":false,"rental_uris":{"android":"levelo://app?vid=7929fe62-478b-45ed-a32f-4cee63794674","ios":"levelo://app?vid=7929fe62-478b-45ed-a32f-4cee63794674"},"vehicle_type_id":"4","last_reported":1699711527,"current_range_meters":17200,"station_id":"","pricing_plan_id":"free"},{"bike_id":"042299b4-36df-4973-9702-7c19bbe62d6e","system_id":"levelo_inurba_marseille","lat":43.258205,"lon":5.394369,"is_reserved":false,"is_disabled":false,"rental_uris":{"android":"levelo://app?vid=042299b4-36df-4973-9702-7c19bbe62d6e","ios":"levelo://app?vid=042299b4-36df-4973-9702-7c19bbe62d6e"},"vehicle_type_id":"4","last_reported":1699711527,"current_range_meters":16800,"station_id":"ce4bhip2rcd13ifvqft0","pricing_plan_id":"free"},{"bike_id":"b297cf7d-d920-418c-9f4a-259d91b756f0","system_id":"levelo_inurba_marseille","lat":43.255811,"lon":5.382244,"is_reserved":false,"is_disabled":false,"rental_uris":{"android":"levelo://app?vid=b297cf7d-d920-418c-9f4a-259d91b756f0","ios":"levelo://app?vid=b297cf7d-d920-418c-9f4a-259d91b756f0"},"vehicle_type_id":"4","last_reported":1699711527,"current_range_meters":17200,"station_id":"","pricing_plan_id":"free"},{"bike_id":"7c6605e8-248d-44b3-a40f-82d4d152b51e","system_id":"levelo_inurba_marseille","lat":43.255807,"lon":5.382281,"is_reserved":false,"is_disabled":false,"rental_uris":{"android":"levelo://app?vid=7c6605e8-248d-44b3-a40f-82d4d152b51e","ios":"levelo://app?vid=7c6605e8-248d-44b3-a40f-82d4d152b51e"},"vehicle_type_id":"4","last_reported":1699711527,"current_range_meters":28000,"station_id":"ce4bhih2rcd13ifvqfs0","pricing_plan_id":"free"},{"bike_id":"9129396c-854e-4bc0-8526-1d1608ad5fe0","system_id":"levelo_inurba_marseille","lat":43.2558,"lon":5.38225,"is_reserved":false,"is_disabled":false,"rental_uris":{"android":"levelo://app?vid=9129396c-854e-4bc0-8526-1d1608ad5fe0","ios":"levelo://app?vid=9129396c-854e-4bc0-8526-1d1608ad5fe0"},"vehicle_type_id":"4","last_reported":1699711527,"current_range_meters":22000,"station_id":"ce4bhih2rcd13ifvqfs0","pricing_plan_id":"free"},{"bike_id":"6733c60e-5a01-41f4-8cd2-3aa18ae7da79","system_id":"levelo_inurba_marseille","lat":43.2558,"lon":5.38233,"is_reserved":false,"is_disabled":false,"rental_uris":{"android":"levelo://app?vid=6733c60e-5a01-41f4-8cd2-3aa18ae7da79","ios":"levelo://app?vid=6733c60e-5a01-41f4-8cd2-3aa18ae7da79"},"vehicle_type_id":"4","last_reported":1699711527,"current_range_meters":21600,"station_id":"ce4bhih2rcd13ifvqfs0","pricing_plan_id":"free"},{"bike_id":"2aa6c4b1-a67d-43b7-9eb1-fe5b5bec91bf","system_id":"levelo_inurba_marseille","lat":43.33322,"lon":5.441688,"is_reserved":false,"is_disabled":false,"rental_uris":{"android":"levelo://app?vid=2aa6c4b1-a67d-43b7-9eb1-fe5b5bec91bf","ios":"levelo://app?vid=2aa6c4b1-a67d-43b7-9eb1-fe5b5bec91bf"},"vehicle_type_id":"4","last_reported":1699711527,"current_range_meters":9600,"station_id":"","pricing_plan_id":"free"},{"bike_id":"013ff483-9008-436a-955c-520ea8ac1c1f","system_id":"levelo_inurba_marseille","lat":43.255,"lon":5.37649,"is_reserved":false,"is_disabled":false,"rental_uris":{"android":"levelo://app?vid=013ff483-9008-436a-955c-520ea8ac1c1f","ios":"levelo://app?vid=013ff483-9008-436a-955c-520ea8ac1c1f"},"vehicle_type_id":"4","last_reported":1699711527,"current_range_meters":29200,"station_id":"ce4bhh12rcd13ifvqff0","pricing_plan_id":"free"},{"bike_id":"d1be4948-3db8-46c6-a0e9-4eb9877553a6","system_id":"levelo_inurba_marseille","lat":43.25499,"lon":5.37648,"is_reserved":false,"is_disabled":false,"rental_uris":{"android":"levelo://app?vid=d1be4948-3db8-46c6-a0e9-4eb9877553a6","ios":"levelo://app?vid=d1be4948-3db8-46c6-a0e9-4eb9877553a6"},"vehicle_type_id":"4","last_reported":1699711527,"current_range_meters":24000,"station_id":"ce4bhh12rcd13ifvqff0","pricing_plan_id":"free"},{"bike_id":"36dfba93-90fc-430b-b79a-91ccbec461d8","system_id":"levelo_inurba_marseille","lat":43.25499,"lon":5.37649,"is_reserved":false,"is_disabled":false,"rental_uris":{"android":"levelo://app?vid=36dfba93-90fc-430b-b79a-91ccbec461d8","ios":"levelo://app?vid=36dfba93-90fc-430b-b79a-91ccbec461d8"},"vehicle_type_id":"4","last_reported":1699711527,"current_range_meters":16800,"station_id":"ce4bhh12rcd13ifvqff0","pricing_plan_id":"free"},{"bike_id":"ca86033a-1e98-4be4-8b53-86ced529296c","system_id":"levelo_inurba_marseille","lat":43.25494,"lon":5.37647,"is_reserved":false,"is_disabled":false,"rental_uris":{"android":"levelo://app?vid=ca86033a-1e98-4be4-8b53-86ced529296c","ios":"levelo://app?vid=ca86033a-1e98-4be4-8b53-86ced529296c"},"vehicle_type_id":"4","last_reported":1699711527,"current_range_meters":25600,"station_id":"ce4bhh12rcd13ifvqff0","pricing_plan_id":"free"},{"bike_id":"2a01351c-bd94-4ea2-a077-5da13f1fb791","system_id":"levelo_inurba_marseille","lat":43.25494,"lon":5.37658,"is_reserved":false,"is_disabled":false,"rental_uris":{"android":"levelo://app?vid=2a01351c-bd94-4ea2-a077-5da13f1fb791","ios":"levelo://app?vid=2a01351c-bd94-4ea2-a077-5da13f1fb791"},"vehicle_type_id":"4","last_reported":1699711527,"current_range_meters":14800,"station_id":"ce4bhh12rcd13ifvqff0","pricing_plan_id":"free"},{"bike_id":"74299bea-1551-4dd8-aa9d-e9c8b9ddc170","system_id":"levelo_inurba_marseille","lat":43.25492,"lon":5.37647,"is_reserved":false,"is_disabled":false,"rental_uris":{"android":"levelo://app?vid=74299bea-1551-4dd8-aa9d-e9c8b9ddc170","ios":"levelo://app?vid=74299bea-1551-4dd8-aa9d-e9c8b9ddc170"},"vehicle_type_id":"4","last_reported":1699711527,"current_range_meters":15200,"station_id":"ce4bhh12rcd13ifvqff0","pricing_plan_id":"free"},{"bike_id":"96945969-5633-4bb5-b3ab-c033d29e359e","system_id":"levelo_inurba_marseille","lat":43.2549,"lon":5.37643,"is_reserved":false,"is_disabled":false,"rental_uris":{"android":"levelo://app?vid=96945969-5633-4bb5-b3ab-c033d29e359e","ios":"levelo://app?vid=96945969-5633-4bb5-b3ab-c033d29e359e"},"vehicle_type_id":"4","last_reported":1699711527,"current_range_meters":31200,"station_id":"ce4bhh12rcd13ifvqff0","pricing_plan_id":"free"},{"bike_id":"d8599002-1e4e-4a9f-9e22-da9f812e154c","system_id":"levelo_inurba_marseille","lat":43.25489,"lon":5.37646,"is_reserved":false,"is_disabled":false,"rental_uris":{"android":"levelo://app?vid=d8599002-1e4e-4a9f-9e22-da9f812e154c","ios":"levelo://app?vid=d8599002-1e4e-4a9f-9e22-da9f812e154c"},"vehicle_type_id":"4","last_reported":1699711527,"current_range_meters":16000,"station_id":"ce4bhh12rcd13ifvqff0","pricing_plan_id":"free"},{"bike_id":"7bc2c3c9-3ffb-495a-b9e4-cdbe3525ddd9","system_id":"levelo_inurba_marseille","lat":43.270721,"lon":5.422764,"is_reserved":false,"is_disabled":false,"rental_uris":{"android":"levelo://app?vid=7bc2c3c9-3ffb-495a-b9e4-cdbe3525ddd9","ios":"levelo://app?vid=7bc2c3c9-3ffb-495a-b9e4-cdbe3525ddd9"},"vehicle_type_id":"4","last_reported":1699711527,"current_range_meters":16000,"station_id":"ce4bhk92rcd13ifvqgb0","pricing_plan_id":"free"},{"bike_id":"ab7874a0-e460-4f49-b04e-e54d89849503","system_id":"levelo_inurba_marseille","lat":43.270721,"lon":5.422764,"is_reserved":false,"is_disabled":false,"rental_uris":{"android":"levelo://app?vid=ab7874a0-e460-4f49-b04e-e54d89849503","ios":"levelo://app?vid=ab7874a0-e460-4f49-b04e-e54d89849503"},"vehicle_type_id":"4","last_reported":1699711527,"current_range_meters":12400,"station_id":"ce4bhk92rcd13ifvqgb0","pricing_plan_id":"free"},{"bike_id":"44390b9c-67db-4d9d-b523-11efba851141","system_id":"levelo_inurba_marseille","lat":43.27067,"lon":5.42279,"is_reserved":false,"is_disabled":false,"rental_uris":{"android":"levelo://app?vid=44390b9c-67db-4d9d-b523-11efba851141","ios":"levelo://app?vid=44390b9c-67db-4d9d-b523-11efba851141"},"vehicle_type_id":"4","last_reported":1699711527,"current_range_meters":12000,"station_id":"ce4bhk92rcd13ifvqgb0","pricing_plan_id":"free"},{"bike_id":"35da9cdd-1a75-4aa3-a974-38c00a0d24c6","system_id":"levelo_inurba_marseille","lat":43.269319,"lon":5.389397,"is_reserved":false,"is_disabled":false,"rental_uris":{"android":"levelo://app?vid=35da9cdd-1a75-4aa3-a974-38c00a0d24c6","ios":"levelo://app?vid=35da9cdd-1a75-4aa3-a974-38c00a0d24c6"},"vehicle_type_id":"4","last_reported":1699711527,"current_range_meters":31200,"station_id":"ce4bhhh2rcd13ifvqfl0","pricing_plan_id":"free"},{"bike_id":"32f164ca-0f8d-47b4-b141-3b01d043da1d","system_id":"levelo_inurba_marseille","lat":43.257079,"lon":5.411051,"is_reserved":false,"is_disabled":false,"rental_uris":{"android":"levelo://app?vid=32f164ca-0f8d-47b4-b141-3b01d043da1d","ios":"levelo://app?vid=32f164ca-0f8d-47b4-b141-3b01d043da1d"},"vehicle_type_id":"4","last_reported":1699711527,"current_range_meters":21600,"station_id":"ce4bhkp2rcd13ifvqgd0","pricing_plan_id":"free"},{"bike_id":"093d659d-a80e-4a69-9a5f-7c0989549e3b","system_id":"levelo_inurba_marseille","lat":43.250009,"lon":5.389195,"is_reserved":false,"is_disabled":false,"rental_uris":{"android":"levelo://app?vid=093d659d-a80e-4a69-9a5f-7c0989549e3b","ios":"levelo://app?vid=093d659d-a80e-4a69-9a5f-7c0989549e3b"},"vehicle_type_id":"4","last_reported":1699711527,"current_range_meters":0,"station_id":"ce4bhgp2rcd13ifvqfd0","pricing_plan_id":"free"},{"bike_id":"f7644394-5dd4-4a66-9ecf-062ce8698b5f","system_id":"levelo_inurba_marseille","lat":43.2479,"lon":5.374457,"is_reserved":false,"is_disabled":false,"rental_uris":{"android":"levelo://app?vid=f7644394-5dd4-4a66-9ecf-062ce8698b5f","ios":"levelo://app?vid=f7644394-5dd4-4a66-9ecf-062ce8698b5f"},"vehicle_type_id":"4","last_reported":1699711527,"current_range_meters":29600,"station_id":"ce4bhgh2rcd13ifvqfb0","pricing_plan_id":"free"},{"bike_id":"44d098db-0873-40e4-bf01-ef8bf32f4a83","system_id":"levelo_inurba_marseille","lat":43.2479,"lon":5.374457,"is_reserved":false,"is_disabled":false,"rental_uris":{"android":"levelo://app?vid=44d098db-0873-40e4-bf01-ef8bf32f4a83","ios":"levelo://app?vid=44d098db-0873-40e4-bf01-ef8bf32f4a83"},"vehicle_type_id":"4","last_reported":1699711527,"current_range_meters":18400,"station_id":"ce4bhgh2rcd13ifvqfb0","pricing_plan_id":"free"},{"bike_id":"c70b55b3-86c9-4446-83d0-302c2ea2e52b","system_id":"levelo_inurba_marseille","lat":43.2479,"lon":5.374457,"is_reserved":false,"is_disabled":false,"rental_uris":{"android":"levelo://app?vid=c70b55b3-86c9-4446-83d0-302c2ea2e52b","ios":"levelo://app?vid=c70b55b3-86c9-4446-83d0-302c2ea2e52b"},"vehicle_type_id":"4","last_reported":1699711527,"current_range_meters":31200,"station_id":"ce4bhgh2rcd13ifvqfb0","pricing_plan_id":"free"},{"bike_id":"923f121e-7e9f-43b1-9663-eedbc7cc8709","system_id":"levelo_inurba_marseille","lat":43.2479,"lon":5.374457,"is_reserved":false,"is_disabled":false,"rental_uris":{"android":"levelo://app?vid=923f121e-7e9f-43b1-9663-eedbc7cc8709","ios":"levelo://app?vid=923f121e-7e9f-43b1-9663-eedbc7cc8709"},"vehicle_type_id":"4","last_reported":1699711527,"current_range_meters":15600,"station_id":"ce4bhgh2rcd13ifvqfb0","pricing_plan_id":"free"},{"bike_id":"b596faad-9395-4aaf-9ced-38a211cbb048","system_id":"levelo_inurba_marseille","lat":43.2479,"lon":5.374457,"is_reserved":false,"is_disabled":false,"rental_uris":{"android":"levelo://app?vid=b596faad-9395-4aaf-9ced-38a211cbb048","ios":"levelo://app?vid=b596faad-9395-4aaf-9ced-38a211cbb048"},"vehicle_type_id":"4","last_reported":1699711527,"current_range_meters":30800,"station_id":"ce4bhgh2rcd13ifvqfb0","pricing_plan_id":"free"},{"bike_id":"d75ac4f4-040e-48ac-b77c-191e38f4a596","system_id":"levelo_inurba_marseille","lat":43.2479,"lon":5.374457,"is_reserved":false,"is_disabled":false,"rental_uris":{"android":"levelo://app?vid=d75ac4f4-040e-48ac-b77c-191e38f4a596","ios":"levelo://app?vid=d75ac4f4-040e-48ac-b77c-191e38f4a596"},"vehicle_type_id":"4","last_reported":1699711527,"current_range_meters":31600,"station_id":"ce4bhgh2rcd13ifvqfb0","pricing_plan_id":"free"},{"bike_id":"f38b713a-05c8-4a5d-b644-a978e17b813c","system_id":"levelo_inurba_marseille","lat":43.24804,"lon":5.37452,"is_reserved":false,"is_disabled":false,"rental_uris":{"android":"levelo://app?vid=f38b713a-05c8-4a5d-b644-a978e17b813c","ios":"levelo://app?vid=f38b713a-05c8-4a5d-b644-a978e17b813c"},"vehicle_type_id":"4","last_reported":1699711527,"current_range_meters":13200,"station_id":"ce4bhgh2rcd13ifvqfb0","pricing_plan_id":"free"},{"bike_id":"0756ab40-4db9-4790-8a5d-8a7ee0cbba63","system_id":"levelo_inurba_marseille","lat":43.24804,"lon":5.37453,"is_reserved":false,"is_disabled":false,"rental_uris":{"android":"levelo://app?vid=0756ab40-4db9-4790-8a5d-8a7ee0cbba63","ios":"levelo://app?vid=0756ab40-4db9-4790-8a5d-8a7ee0cbba63"},"vehicle_type_id":"4","last_reported":1699711527,"current_range_meters":15200,"station_id":"ce4bhgh2rcd13ifvqfb0","pricing_plan_id":"free"},{"bike_id":"83ebfe5b-226c-4040-be8e-65b67bda7cab","system_id":"levelo_inurba_marseille","lat":43.24804,"lon":5.37453,"is_reserved":false,"is_disabled":false,"rental_uris":{"android":"levelo://app?vid=83ebfe5b-226c-4040-be8e-65b67bda7cab","ios":"levelo://app?vid=83ebfe5b-226c-4040-be8e-65b67bda7cab"},"vehicle_type_id":"4","last_reported":1699711527,"current_range_meters":31200,"station_id":"ce4bhgh2rcd13ifvqfb0","pricing_plan_id":"free"},{"bike_id":"bc7fc931-ed5d-44d8-832c-2cffc9edf698","system_id":"levelo_inurba_marseille","lat":43.2479,"lon":5.374457,"is_reserved":false,"is_disabled":false,"rental_uris":{"android":"levelo://app?vid=bc7fc931-ed5d-44d8-832c-2cffc9edf698","ios":"levelo://app?vid=bc7fc931-ed5d-44d8-832c-2cffc9edf698"},"vehicle_type_id":"4","last_reported":1699711527,"current_range_meters":31600,"station_id":"ce4bhgh2rcd13ifvqfb0","pricing_plan_id":"free"},{"bike_id":"753af7ce-931f-49c9-9f4f-f22872e361af","system_id":"levelo_inurba_marseille","lat":43.24803,"lon":5.3745,"is_reserved":false,"is_disabled":false,"rental_uris":{"android":"levelo://app?vid=753af7ce-931f-49c9-9f4f-f22872e361af","ios":"levelo://app?vid=753af7ce-931f-49c9-9f4f-f22872e361af"},"vehicle_type_id":"4","last_reported":1699711527,"current_range_meters":20400,"station_id":"ce4bhgh2rcd13ifvqfb0","pricing_plan_id":"free"},{"bike_id":"ad08d5f5-8246-44a9-9f94-3eec505583be","system_id":"levelo_inurba_marseille","lat":43.24802,"lon":5.37451,"is_reserved":false,"is_disabled":false,"rental_uris":{"android":"levelo://app?vid=ad08d5f5-8246-44a9-9f94-3eec505583be","ios":"levelo://app?vid=ad08d5f5-8246-44a9-9f94-3eec505583be"},"vehicle_type_id":"4","last_reported":1699711527,"current_range_meters":8400,"station_id":"ce4bhgh2rcd13ifvqfb0","pricing_plan_id":"free"},{"bike_id":"5000350d-028e-4539-9961-17f0c02b0269","system_id":"levelo_inurba_marseille","lat":43.2479,"lon":5.374457,"is_reserved":false,"is_disabled":false,"rental_uris":{"android":"levelo://app?vid=5000350d-028e-4539-9961-17f0c02b0269","ios":"levelo://app?vid=5000350d-028e-4539-9961-17f0c02b0269"},"vehicle_type_id":"4","last_reported":1699711527,"current_range_meters":10000,"station_id":"ce4bhgh2rcd13ifvqfb0","pricing_plan_id":"free"},{"bike_id":"cebea0d8-1a5d-4ad1-a965-1afa9e2399b5","system_id":"levelo_inurba_marseille","lat":43.24802,"lon":5.37452,"is_reserved":false,"is_disabled":false,"rental_uris":{"android":"levelo://app?vid=cebea0d8-1a5d-4ad1-a965-1afa9e2399b5","ios":"levelo://app?vid=cebea0d8-1a5d-4ad1-a965-1afa9e2399b5"},"vehicle_type_id":"4","last_reported":1699711527,"current_range_meters":16000,"station_id":"ce4bhgh2rcd13ifvqfb0","pricing_plan_id":"free"},