{"last_updated":1766236839,"ttl":60,"version":"2.2","data":{"bikes":[{"bike_id":"25e49a6b-65ff-4944-bf90-118f0ae67e9a","system_id":"levelo_inurba_marseille","lat":43.30116,"lon":5.39862,"is_reserved":false,"is_disabled":false,"rental_uris":{"android":"levelo://app?vid=25e49a6b-65ff-4944-bf90-118f0ae67e9a","ios":"levelo://app?vid=25e49a6b-65ff-4944-bf90-118f0ae67e9a"},"vehicle_type_id":"4","last_reported":1766236840,"current_range_meters":2800,"station_id":"ce4bh0h2rcd13ifvqd40","pricing_plan_id":"cebpf4jnsgd1na2vs0mg"},{"bike_id":"5d50fa13-d19c-4a66-9a21-607ef836f9b8","system_id":"levelo_inurba_marseille","lat":43.30541,"lon":5.36711,"is_reserved":false,"is_disabled":false,"rental_uris":{"android":"levelo://app?vid=5d50fa13-d19c-4a66-9a21-607ef836f9b8","ios":"levelo://app?vid=5d50fa13-d19c-4a66-9a21-607ef836f9b8"},"vehicle_type_id":"4","last_reported":1766236840,"current_range_meters":2800,"station_id":"ce4bgrp2rcd13ifvqc9g","pricing_plan_id":"cebpf4jnsgd1na2vs0mg"},{"bike_id":"e5b4a6ce-9fe8-4298-859e-67a62320a312","system_id":"levelo_inurba_marseille","lat":43.29024,"lon":5.38132,"is_reserved":false,"is_disabled":false,"rental_uris":{"android":"levelo://app?vid=e5b4a6ce-9fe8-4298-859e-67a62320a312","ios":"levelo://app?vid=e5b4a6ce-9fe8-4298-859e-67a62320a312"},"vehicle_type_id":"4","last_reported":1766236840,"current_range_meters":2800,"station_id":"ce4bh4p2rcd13ifvqe1g","pricing_plan_id":"cebpf4jnsgd1na2vs0mg"},{"bike_id":"9ef6a1a3-8fb0-4623-ad7f-044c2cbb2482","system_id":"levelo_inurba_marseille","lat":43.295368,"lon":5.385542,"is_reserved":false,"is_disabled":false,"rental_uris":{"android":"levelo://app?vid=9ef6a1a3-8fb0-4623-ad7f-044c2cbb2482","ios":"levelo://app?vid=9ef6a1a3-8fb0-4623-ad7f-044c2cbb2482"},"vehicle_type_id":"4","last_reported":1766236840,"current_range_meters":2800,"station_id":"ce4bgih2rcd13ifvqba0","pricing_plan_id":"cebpf4jnsgd1na2vs0mg"},{"bike_id":"3025bb5a-e1b6-4985-8a11-58a8668c145e","system_id":"levelo_inurba_marseille","lat":43.29619,"lon":5.37731,"is_reserved":false,"is_disabled":false,"rental_uris":{"android":"levelo://app?vid=3025bb5a-e1b6-4985-8a11-58a8668c145e","ios":"levelo://app?vid=3025bb5a-e1b6-4985-8a11-58a8668c145e"},"vehicle_type_id":"4","last_reported":1766236840,"current_range_meters":2800,"station_id":"ce4bgi92rcd13ifvqb90","pricing_plan_id":"cebpf4jnsgd1na2vs0mg"},{"bike_id":"9b82ef7c-dba3-4b2c-b4ec-03cbc3ca1bdf","system_id":"levelo_inurba_marseille","lat":43.24665,"lon":5.38908,"is_reserved":false,"is_disabled":false,"rental_uris":{"android":"levelo://app?vid=9b82ef7c-dba3-4b2c-b4ec-03cbc3ca1bdf","ios":"levelo://app?vid=9b82ef7c-dba3-4b2c-b4ec-03cbc3ca1bdf"},"vehicle_type_id":"4","last_reported":1766236840,"current_range_meters":3200,"station_id":"ce4bhg12rcd13ifvqf60","pricing_plan_id":"cebpf4jnsgd1na2vs0mg"},{"bike_id":"0f0ba93b-2f84-46c7-a059-9539de548098","system_id":"levelo_inurba_marseille","lat":43.30139,"lon":5.38086,"is_reserved":false,"is_disabled":true,"rental_uris":{"android":"levelo://app?vid=0f0ba93b-2f84-46c7-a059-9539de548098","ios":"levelo://app?vid=0f0ba93b-2f84-46c7-a059-9539de548098"},"vehicle_type_id":"4","last_reported":1766236840,"current_range_meters":3200,"station_id":"ce4bgjp2rcd13ifvqbh0","pricing_plan_id":"cebpf4jnsgd1na2vs0mg"},{"bike_id":"1f8b44c9-2ab4-43d4-b911-a66cb5adf870","system_id":"levelo_inurba_marseille","lat":43.262021,"lon":5.379316,"is_reserved":false,"is_disabled":false,"rental_uris":{"android":"levelo://app?vid=1f8b44c9-2ab4-43d4-b911-a66cb5adf870","ios":"levelo://app?vid=1f8b44c9-2ab4-43d4-b911-a66cb5adf870"},"vehicle_type_id":"4","last_reported":1766236840,"current_range_meters":3600,"station_id":"ce4bhjp2rcd13ifvqg90","pricing_plan_id":"cebpf4jnsgd1na2vs0mg"},{"bike_id":"89756c06-0681-4f7b-a419-2fe2621485f7","system_id":"levelo_inurba_marseille","lat":43.2764,"lon":5.39908,"is_reserved":false,"is_disabled":false,"rental_uris":{"android":"levelo://app?vid=89756c06-0681-4f7b-a419-2fe2621485f7","ios":"levelo://app?vid=89756c06-0681-4f7b-a419-2fe2621485f7"},"vehicle_type_id":"4","last_reported":1766236840,"current_range_meters":3600,"station_id":"","pricing_plan_id":"cebpf4jnsgd1na2vs0mg"},{"bike_id":"436e467e-3ef8-4484-b12e-82fd46509f97","system_id":"levelo_inurba_marseille","lat":43.23302,"lon":5.44388,"is_reserved":false,"is_disabled":false,"rental_uris":{"android":"levelo://app?vid=436e467e-3ef8-4484-b12e-82fd46509f97","ios":"levelo://app?vid=436e467e-3ef8-4484-b12e-82fd46509f97"},"vehicle_type_id":"4","last_reported":1766236840,"current_range_meters":4000,"station_id":"","pricing_plan_id":"cebpf4jnsgd1na2vs0mg"},{"bike_id":"4a614ce4-d61c-499d-8955-0569e02f377b","system_id":"levelo_inurba_marseille","lat":43.27521,"lon":5.37275,"is_reserved":false,"is_disabled":false,"rental_uris":{"android":"levelo://app?vid=4a614ce4-d61c-499d-8955-0569e02f377b","ios":"levelo://app?vid=4a614ce4-d61c-499d-8955-0569e02f377b"},"vehicle_type_id":"4","last_reported":1766236840,"current_range_meters":4000,"station_id":"","pricing_plan_id":"cebpf4jnsgd1na2vs0mg"},{"bike_id":"17a28dc4-0f43-4384-b4cb-4d54c6c4eac9","system_id":"levelo_inurba_marseille","lat":43.27434,"lon":5.3943,"is_reserved":false,"is_disabled":false,"rental_uris":{"android":"levelo://app?vid=17a28dc4-0f43-4384-b4cb-4d54c6c4eac9","ios":"levelo://app?vid=17a28dc4-0f43-4384-b4cb-4d54c6c4eac9"},"vehicle_type_id":"4","last_reported":1766236840,"current_range_meters":4400,"station_id":"ce4bhdp2rcd13ifvqf20","pricing_plan_id":"cebpf4jnsgd1na2vs0mg"},{"bike_id":"5c82aa5d-e9af-478b-9ffa-e9de9eb19a05","system_id":"levelo_inurba_marseille","lat":43.24814,"lon":5.37465,"is_reserved":false,"is_disabled":true,"rental_uris":{"android":"levelo://app?vid=5c82aa5d-e9af-478b-9ffa-e9de9eb19a05","ios":"levelo://app?vid=5c82aa5d-e9af-478b-9ffa-e9de9eb19a05"},"vehicle_type_id":"4","last_reported":1766236840,"current_range_meters":4400,"station_id":"ce4bhgh2rcd13ifvqfb0","pricing_plan_id":"cebpf4jnsgd1na2vs0mg"},{"bike_id":"c5365846-c619-4f12-8c92-97c9f9725a15","system_id":"levelo_inurba_marseille","lat":43.29508,"lon":5.37927,"is_reserved":false,"is_disabled":false,"rental_uris":{"android":"levelo://app?vid=c5365846-c619-4f12-8c92-97c9f9725a15","ios":"levelo://app?vid=c5365846-c619-4f12-8c92-97c9f9725a15"},"vehicle_type_id":"4","last_reported":1766236840,"current_range_meters":4800,"station_id":"","pricing_plan_id":"cebpf4jnsgd1na2vs0mg"},{"bike_id":"db2918e3-8024-48f4-a755-49552a189437","system_id":"levelo_inurba_marseille","lat":43.29578,"lon":5.37498,"is_reserved":false,"is_disabled":false,"rental_uris":{"android":"levelo://app?vid=db2918e3-8024-48f4-a755-49552a189437","ios":"levelo://app?vid=db2918e3-8024-48f4-a755-49552a189437"},"vehicle_type_id":"4","last_reported":1766236840,"current_range_meters":5600,"station_id":"ce4bgh92rcd13ifvqb50","pricing_plan_id":"cebpf4jnsgd1na2vs0mg"},{"bike_id":"8663181b-652f-4f39-8e32-7c73d524cf3f","system_id":"levelo_inurba_marseille","lat":43.34139,"lon":5.40903,"is_reserved":false,"is_disabled":false,"rental_uris":{"android":"levelo://app?vid=8663181b-652f-4f39-8e32-7c73d524cf3f","ios":"levelo://app?vid=8663181b-652f-4f39-8e32-7c73d524cf3f"},"vehicle_type_id":"4","last_reported":1766236840,"current_range_meters":5600,"station_id":"ce4bhqh2rcd13ifvqhlg","pricing_plan_id":"cebpf4jnsgd1na2vs0mg"},{"bike_id":"f3a4c2fd-c27a-4ca6-bbe5-3949d2a88808","system_id":"levelo_inurba_marseille","lat":43.28577,"lon":5.42989,"is_reserved":false,"is_disabled":false,"rental_uris":{"android":"levelo://app?vid=f3a4c2fd-c27a-4ca6-bbe5-3949d2a88808","ios":"levelo://app?vid=f3a4c2fd-c27a-4ca6-bbe5-3949d2a88808"},"vehicle_type_id":"4","last_reported":1766236840,"current_range_meters":5600,"station_id":"","pricing_plan_id":"cebpf4jnsgd1na2vs0mg"},{"bike_id":"17a49efb-d179-4b85-b20c-4afe87c0613f","system_id":"levelo_inurba_marseille","lat":43.3106,"lon":5.37182,"is_reserved":false,"is_disabled":true,"rental_uris":{"android":"levelo://app?vid=17a49efb-d179-4b85-b20c-4afe87c0613f","ios":"levelo://app?vid=17a49efb-d179-4b85-b20c-4afe87c0613f"},"vehicle_type_id":"4","last_reported":1766236840,"current_range_meters":5600,"station_id":"st_d4kl2rp97mjs73e7tdfg","pricing_plan_id":"cebpf4jnsgd1na2vs0mg"},{"bike_id":"e9a3ebe8-e43a-405d-8dd4-57a88cf59671","system_id":"levelo_inurba_marseille","lat":43.26674,"lon":5.38264,"is_reserved":false,"is_disabled":false,"rental_uris":{"android":"levelo://app?vid=e9a3ebe8-e43a-405d-8dd4-57a88cf59671","ios":"levelo://app?vid=e9a3ebe8-e43a-405d-8dd4-57a88cf59671"},"vehicle_type_id":"4","last_reported":1766236840,"current_range_meters":6000,"station_id":"ce4bhg92rcd13ifvqf90","pricing_plan_id":"cebpf4jnsgd1na2vs0mg"},{"bike_id":"c989796d-dcc1-4fc7-b147-6dbca1d74de3","system_id":"levelo_inurba_marseille","lat":43.28169,"lon":5.38333,"is_reserved":false,"is_disabled":false,"rental_uris":{"android":"levelo://app?vid=c989796d-dcc1-4fc7-b147-6dbca1d74de3","ios":"levelo://app?vid=c989796d-dcc1-4fc7-b147-6dbca1d74de3"},"vehicle_type_id":"4","last_reported":1766236840,"current_range_meters":6000,"station_id":"","pricing_plan_id":"cebpf4jnsgd1na2vs0mg"},{"bike_id":"374a0371-4968-4fe9-88a9-ac5ffa94b236","system_id":"levelo_inurba_marseille","lat":43.314602,"lon":5.453844,"is_reserved":false,"is_disabled":false,"rental_uris":{"android":"levelo://app?vid=374a0371-4968-4fe9-88a9-ac5ffa94b236","ios":"levelo://app?vid=374a0371-4968-4fe9-88a9-ac5ffa94b236"},"vehicle_type_id":"4","last_reported":1766236840,"current_range_meters":6000,"station_id":"","pricing_plan_id":"cebpf4jnsgd1na2vs0mg"},{"bike_id":"58368517-5345-4784-aa45-0c4a5aee3eef","system_id":"levelo_inurba_marseille","lat":43.292786,"lon":5.376459,"is_reserved":false,"is_disabled":false,"rental_uris":{"android":"levelo://app?vid=58368517-5345-4784-aa45-0c4a5aee3eef","ios":"levelo://app?vid=58368517-5345-4784-aa45-0c4a5aee3eef"},"vehicle_type_id":"4","last_reported":1766236840,"current_range_meters":6000,"station_id":"","pricing_plan_id":"cebpf4jnsgd1na2vs0mg"},{"bike_id":"cde75731-be94-4954-af76-b79651b240b9","system_id":"levelo_inurba_marseille","lat":43.299185,"lon":5.393974,"is_reserved":false,"is_disabled":false,"rental_uris":{"android":"levelo://app?vid=cde75731-be94-4954-af76-b79651b240b9","ios":"levelo://app?vid=cde75731-be94-4954-af76-b79651b240b9"},"vehicle_type_id":"4","last_reported":1766236840,"current_range_meters":6400,"station_id":"","pricing_plan_id":"cebpf4jnsgd1na2vs0mg"},{"bike_id":"040b8b6c-7ba4-46ab-a2d1-cc5eeed0997c","system_id":"levelo_inurba_marseille","lat":43.31493,"lon":5.3889,"is_reserved":false,"is_disabled":false,"rental_uris":{"android":"levelo://app?vid=040b8b6c-7ba4-46ab-a2d1-cc5eeed0997c","ios":"levelo://app?vid=040b8b6c-7ba4-46ab-a2d1-cc5eeed0997c"},"vehicle_type_id":"4","last_reported":1766236840,"current_range_meters":6400,"station_id":"","pricing_plan_id":"cebpf4jnsgd1na2vs0mg"},{"bike_id":"42f91fd2-a74d-47c0-ac9b-88a8b6f0d009","system_id":"levelo_inurba_marseille","lat":43.29944,"lon":5.36543,"is_reserved":false,"is_disabled":false,"rental_uris":{"android":"levelo://app?vid=42f91fd2-a74d-47c0-ac9b-88a8b6f0d009","ios":"levelo://app?vid=42f91fd2-a74d-47c0-ac9b-88a8b6f0d009"},"vehicle_type_id":"4","last_reported":1766236840,"current_range_meters":6400,"station_id":"ce4bgm92rcd13ifvqbr0","pricing_plan_id":"cebpf4jnsgd1na2vs0mg"},{"bike_id":"2a7ace86-79e3-414e-bec6-2f2ac2a70a88","system_id":"levelo_inurba_marseille","lat":43.25652,"lon":5.38645,"is_reserved":false,"is_disabled":false,"rental_uris":{"android":"levelo://app?vid=2a7ace86-79e3-414e-bec6-2f2ac2a70a88","ios":"levelo://app?vid=2a7ace86-79e3-414e-bec6-2f2ac2a70a88"},"vehicle_type_id":"4","last_reported":1766236840,"current_range_meters":6400,"station_id":"","pricing_plan_id":"cebpf4jnsgd1na2vs0mg"},{"bike_id":"48e30a46-3a61-4ed5-93c8-2b0ee8661bac","system_id":"levelo_inurba_marseille","lat":43.29817,"lon":5.37788,"is_reserved":false,"is_disabled":false,"rental_uris":{"android":"levelo://app?vid=48e30a46-3a61-4ed5-93c8-2b0ee8661bac","ios":"levelo://app?vid=48e30a46-3a61-4ed5-93c8-2b0ee8661bac"},"vehicle_type_id":"4","last_reported":1766236840,"current_range_meters":6400,"station_id":"","pricing_plan_id":"cebpf4jnsgd1na2vs0mg"},{"bike_id":"3271395d-c93b-4fd9-9b0c-5844ca4bad00","system_id":"levelo_inurba_marseille","lat":43.27374,"lon":5.36256,"is_reserved":false,"is_disabled":false,"rental_uris":{"android":"levelo://app?vid=3271395d-c93b-4fd9-9b0c-5844ca4bad00","ios":"levelo://app?vid=3271395d-c93b-4fd9-9b0c-5844ca4bad00"},"vehicle_type_id":"4","last_reported":1766236840,"current_range_meters":6400,"station_id":"ce4bhbh2rcd13ifvqeo0","pricing_plan_id":"cebpf4jnsgd1na2vs0mg"},{"bike_id":"1bf819e6-f8cd-4bd9-bc80-63841d6fae1d","system_id":"levelo_inurba_marseille","lat":43.272125,"lon":5.39183,"is_reserved":false,"is_disabled":false,"rental_uris":{"android":"levelo://app?vid=1bf819e6-f8cd-4bd9-bc80-63841d6fae1d","ios":"levelo://app?vid=1bf819e6-f8cd-4bd9-bc80-63841d6fae1d"},"vehicle_type_id":"4","last_reported":1766236840,"current_range_meters":6400,"station_id":"ce4bhhp2rcd13ifvqfm0","pricing_plan_id":"cebpf4jnsgd1na2vs0mg"},{"bike_id":"e2e9f29c-b1ed-466d-8eb4-05f29db04712","system_id":"levelo_inurba_marseille","lat":43.286207,"lon":5.351169,"is_reserved":false,"is_disabled":false,"rental_uris":{"android":"levelo://app?vid=e2e9f29c-b1ed-466d-8eb4-05f29db04712","ios":"levelo://app?vid=e2e9f29c-b1ed-466d-8eb4-05f29db04712"},"vehicle_type_id":"4","last_reported":1766236840,"current_range_meters":6800,"station_id":"ce4bhch2rcd13ifvqeug","pricing_plan_id":"cebpf4jnsgd1na2vs0mg"},{"bike_id":"122136a4-72bd-44bb-88c2-e6e6daed4ab6","system_id":"levelo_inurba_marseille","lat":43.2957,"lon":5.36753,"is_reserved":false,"is_disabled":false,"rental_uris":{"android":"levelo://app?vid=122136a4-72bd-44bb-88c2-e6e6daed4ab6","ios":"levelo://app?vid=122136a4-72bd-44bb-88c2-e6e6daed4ab6"},"vehicle_type_id":"4","last_reported":1766236840,"current_range_meters":6800,"station_id":"ce4bgph2rcd13ifvqc2g","pricing_plan_id":"cebpf4jnsgd1na2vs0mg"},{"bike_id":"388441cc-8a49-4650-b270-834bf604b21a","system_id":"levelo_inurba_marseille","lat":43.29577,"lon":5.37509,"is_reserved":false,"is_disabled":false,"rental_uris":{"android":"levelo://app?vid=388441cc-8a49-4650-b270-834bf604b21a","ios":"levelo://app?vid=388441cc-8a49-4650-b270-834bf604b21a"},"vehicle_type_id":"4","last_reported":1766236840,"current_range_meters":6800,"station_id":"ce4bgh92rcd13ifvqb50","pricing_plan_id":"cebpf4jnsgd1na2vs0mg"},{"bike_id":"b23c2995-50ad-4a7a-ac0b-61aa3e7c0208","system_id":"levelo_inurba_marseille","lat":43.30326,"lon":5.40437,"is_reserved":false,"is_disabled":false,"rental_uris":{"android":"levelo://app?vid=b23c2995-50ad-4a7a-ac0b-61aa3e7c0208","ios":"levelo://app?vid=b23c2995-50ad-4a7a-ac0b-61aa3e7c0208"},"vehicle_type_id":"4","last_reported":1766236840,"current_range_meters":6800,"station_id":"ce4bh012rcd13ifvqd10","pricing_plan_id":"cebpf4jnsgd1na2vs0mg"},{"bike_id":"f3c9d908-6e54-4e83-b185-e91c8b469a4c","system_id":"levelo_inurba_marseille","lat":43.29009,"lon":5.35634,"is_reserved":false,"is_disabled":false,"rental_uris":{"android":"levelo://app?vid=f3c9d908-6e54-4e83-b185-e91c8b469a4c","ios":"levelo://app?vid=f3c9d908-6e54-4e83-b185-e91c8b469a4c"},"vehicle_type_id":"4","last_reported":1766236840,"current_range_meters":6800,"station_id":"ce4bhb92rcd13ifvqen0","pricing_plan_id":"cebpf4jnsgd1na2vs0mg"},{"bike_id":"25a5ba43-ed90-4dec-993d-f3d961be18cc","system_id":"levelo_inurba_marseille","lat":43.29306,"lon":5.37459,"is_reserved":false,"is_disabled":false,"rental_uris":{"android":"levelo://app?vid=25a5ba43-ed90-4dec-993d-f3d961be18cc","ios":"levelo://app?vid=25a5ba43-ed90-4dec-993d-f3d961be18cc"},"vehicle_type_id":"4","last_reported":1766236840,"current_range_meters":6800,"station_id":"ce4bgi12rcd13ifvqb70","pricing_plan_id":"cebpf4jnsgd1na2vs0mg"},{"bike_id":"ed2dc255-7676-4a17-8cce-9aaf5c3c1126","system_id":"levelo_inurba_marseille","lat":43.31161,"lon":5.38722,"is_reserved":false,"is_disabled":false,"rental_uris":{"android":"levelo://app?vid=ed2dc255-7676-4a17-8cce-9aaf5c3c1126","ios":"levelo://app?vid=ed2dc255-7676-4a17-8cce-9aaf5c3c1126"},"vehicle_type_id":"4","last_reported":1766236840,"current_range_meters":6800,"station_id":"ce4bgv12rcd13ifvqcp0","pricing_plan_id":"cebpf4jnsgd1na2vs0mg"},{"bike_id":"700442f5-a082-454e-8bc7-ab3bbb77bfce","system_id":"levelo_inurba_marseille","lat":43.26643,"lon":5.37463,"is_reserved":false,"is_disabled":false,"rental_uris":{"android":"levelo://app?vid=700442f5-a082-454e-8bc7-ab3bbb77bfce","ios":"levelo://app?vid=700442f5-a082-454e-8bc7-ab3bbb77bfce"},"vehicle_type_id":"4","last_reported":1766236840,"current_range_meters":6800,"station_id":"","pricing_plan_id":"cebpf4jnsgd1na2vs0mg"},{"bike_id":"8cef6dfe-d434-49cb-9699-8ddff08fd846","system_id":"levelo_inurba_marseille","lat":43.29529,"lon":5.3854,"is_reserved":false,"is_disabled":false,"rental_uris":{"android":"levelo://app?vid=8cef6dfe-d434-49cb-9699-8ddff08fd846","ios":"levelo://app?vid=8cef6dfe-d434-49cb-9699-8ddff08fd846"},"vehicle_type_id":"4","last_reported":1766236840,"current_range_meters":6800,"station_id":"ce4bgih2rcd13ifvqba0","pricing_plan_id":"cebpf4jnsgd1na2vs0mg"},{"bike_id":"c7aa81fd-b995-4024-8137-180785e691a6","system_id":"levelo_inurba_marseille","lat":43.23184,"lon":5.4,"is_reserved":false,"is_disabled":false,"rental_uris":{"android":"levelo://app?vid=c7aa81fd-b995-4024-8137-180785e691a6","ios":"levelo://app?vid=c7aa81fd-b995-4024-8137-180785e691a6"},"vehicle_type_id":"4","last_reported":1766236840,"current_range_meters":7200,"station_id":"ce4bhn12rcd13ifvqgqg","pricing_plan_id":"cebpf4jnsgd1na2vs0mg"},{"bike_id":"02b81a50-01e3-449d-8a15-d478efea96be","system_id":"levelo_inurba_marseille","lat":43.27922,"lon":5.38002,"is_reserved":false,"is_disabled":false,"rental_uris":{"android":"levelo://app?vid=02b81a50-01e3-449d-8a15-d478efea96be","ios":"levelo://app?vid=02b81a50-01e3-449d-8a15-d478efea96be"},"vehicle_type_id":"4","last_reported":1766236840,"current_range_meters":7200,"station_id":"ce4bhf92rcd13ifvqf50","pricing_plan_id":"cebpf4jnsgd1na2vs0mg"},{"bike_id":"ae977d6c-e9ef-41f7-b804-ef0e4fe2355a","system_id":"levelo_inurba_marseille","lat":43.27208,"lon":5.39182,"is_reserved":false,"is_disabled":false,"rental_uris":{"android":"levelo://app?vid=ae977d6c-e9ef-41f7-b804-ef0e4fe2355a","ios":"levelo://app?vid=ae977d6c-e9ef-41f7-b804-ef0e4fe2355a"},"vehicle_type_id":"4","last_reported":1766236840,"current_range_meters":7200,"station_id":"ce4bhhp2rcd13ifvqfm0","pricing_plan_id":"cebpf4jnsgd1na2vs0mg"},{"bike_id":"f7d40bf2-96a3-4cca-9387-2b568082124d","system_id":"levelo_inurba_marseille","lat":43.30548,"lon":5.36687,"is_reserved":false,"is_disabled":false,"rental_uris":{"android":"levelo://app?vid=f7d40bf2-96a3-4cca-9387-2b568082124d","ios":"levelo://app?vid=f7d40bf2-96a3-4cca-9387-2b568082124d"},"vehicle_type_id":"4","last_reported":1766236840,"current_range_meters":7200,"station_id":"ce4bgrp2rcd13ifvqc9g","pricing_plan_id":"cebpf4jnsgd1na2vs0mg"},{"bike_id":"2af02baf-1408-4b38-be28-997e55d629e5","system_id":"levelo_inurba_marseille","lat":43.29623,"lon":5.37723,"is_reserved":false,"is_disabled":false,"rental_uris":{"android":"levelo://app?vid=2af02baf-1408-4b38-be28-997e55d629e5","ios":"levelo://app?vid=2af02baf-1408-4b38-be28-997e55d629e5"},"vehicle_type_id":"4","last_reported":1766236840,"current_range_meters":7200,"station_id":"ce4bgi92rcd13ifvqb90","pricing_plan_id":"cebpf4jnsgd1na2vs0mg"},{"bike_id":"87f10bb1-0cb4-4ef5-abf5-7a1a09140690","system_id":"levelo_inurba_marseille","lat":43.26929,"lon":5.38924,"is_reserved":false,"is_disabled":false,"rental_uris":{"android":"levelo://app?vid=87f10bb1-0cb4-4ef5-abf5-7a1a09140690","ios":"levelo://app?vid=87f10bb1-0cb4-4ef5-abf5-7a1a09140690"},"vehicle_type_id":"4","last_reported":1766236840,"current_range_meters":7200,"station_id":"ce4bhhh2rcd13ifvqfl0","pricing_plan_id":"cebpf4jnsgd1na2vs0mg"},{"bike_id":"ecf66443-b3a8-4ad2-bde0-8d54f186660f","system_id":"levelo_inurba_marseille","lat":43.290137,"lon":5.381561,"is_reserved":false,"is_disabled":false,"rental_uris":{"android":"levelo://app?vid=ecf66443-b3a8-4ad2-bde0-8d54f186660f","ios":"levelo://app?vid=ecf66443-b3a8-4ad2-bde0-8d54f186660f"},"vehicle_type_id":"4","last_reported":1766236840,"current_range_meters":7200,"station_id":"ce4bh4p2rcd13ifvqe1g","pricing_plan_id":"cebpf4jnsgd1na2vs0mg"},{"bike_id":"7bc8d603-102d-4033-b3a6-87238067bcbb","system_id":"levelo_inurba_marseille","lat":43.281254,"lon":5.37866,"is_reserved":false,"is_disabled":false,"rental_uris":{"android":"levelo://app?vid=7bc8d603-102d-4033-b3a6-87238067bcbb","ios":"levelo://app?vid=7bc8d603-102d-4033-b3a6-87238067bcbb"},"vehicle_type_id":"4","last_reported":1766236840,"current_range_meters":7200,"station_id":"ce4bha12rcd13ifvqee0","pricing_plan_id":"cebpf4jnsgd1na2vs0mg"},{"bike_id":"35a097a7-89d1-40d3-9783-9d3d9a5a97f8","system_id":"levelo_inurba_marseille","lat":43.2962,"lon":5.37708,"is_reserved":false,"is_disabled":true,"rental_uris":{"android":"levelo://app?vid=35a097a7-89d1-40d3-9783-9d3d9a5a97f8","ios":"levelo://app?vid=35a097a7-89d1-40d3-9783-9d3d9a5a97f8"},"vehicle_type_id":"4","last_reported":1766236840,"current_range_meters":8000,"station_id":"ce4bgi92rcd13ifvqb90","pricing_plan_id":"cebpf4jnsgd1na2vs0mg"},{"bike_id":"8670d596-6bf6-4127-a1f1-affbffd3c0e5","system_id":"levelo_inurba_marseille","lat":43.30148,"lon":5.38101,"is_reserved":false,"is_disabled":true,"rental_uris":{"android":"levelo://app?vid=8670d596-6bf6-4127-a1f1-affbffd3c0e5","ios":"levelo://app?vid=8670d596-6bf6-4127-a1f1-affbffd3c0e5"},"vehicle_type_id":"4","last_reported":1766236840,"current_range_meters":8000,"station_id":"ce4bgjp2rcd13ifvqbh0","pricing_plan_id":"cebpf4jnsgd1na2vs0mg"},{"bike_id":"9bf89e5f-aaa6-4ccd-bcf3-970eda9694d1","system_id":"levelo_inurba_marseille","lat":43.337444,"lon":5.374475,"is_reserved":false,"is_disabled":false,"rental_uris":{"android":"levelo://app?vid=9bf89e5f-aaa6-4ccd-bcf3-970eda9694d1","ios":"levelo://app?vid=9bf89e5f-aaa6-4ccd-bcf3-970eda9694d1"},"vehicle_type_id":"4","last_reported":1766236840,"current_range_meters":8000,"station_id":"ce4bgv92rcd13ifvqcq0","pricing_plan_id":"cebpf4jnsgd1na2vs0mg"},{"bike_id":"e254ba30-ada0-4a77-9717-8587f92e9f43","system_id":"levelo_inurba_marseille","lat":43.29591,"lon":5.37503,"is_reserved":false,"is_disabled":false,"rental_uris":{"android":"levelo://app?vid=e254ba30-ada0-4a77-9717-8587f92e9f43","ios":"levelo://app?vid=e254ba30-ada0-4a77-9717-8587f92e9f43"},"vehicle_type_id":"4","last_reported":1766236840,"current_range_meters":8000,"station_id":"ce4bgh92rcd13ifvqb50","pricing_plan_id":"cebpf4jnsgd1na2vs0mg"},{"bike_id":"33011838-7014-4650-a876-5628fa9db545","system_id":"levelo_inurba_marseille","lat":43.310504,"lon":5.371634,"is_reserved":false,"is_disabled":false,"rental_uris":{"android":"levelo://app?vid=33011838-7014-4650-a876-5628fa9db545","ios":"levelo://app?vid=33011838-7014-4650-a876-5628fa9db545"},"vehicle_type_id":"4","last_reported":1766236840,"current_range_meters":8000,"station_id":"st_d4kl2rp97mjs73e7tdfg","pricing_plan_id":"cebpf4jnsgd1na2vs0mg"},{"bike_id":"1c79eb29-135e-40c1-8651-901759d4aaa6","system_id":"levelo_inurba_marseille","lat":43.285636,"lon":5.353059,"is_reserved":false,"is_disabled":false,"rental_uris":{"android":"levelo://app?vid=1c79eb29-135e-40c1-8651-901759d4aaa6","ios":"levelo://app?vid=1c79eb29-135e-40c1-8651-901759d4aaa6"},"vehicle_type_id":"4","last_reported":1766236840,"current_range_meters":8000,"station_id":"","pricing_plan_id":"cebpf4jnsgd1na2vs0mg"},{"bike_id":"6ecc43ba-af58-4a6d-921b-d9525a104446","system_id":"levelo_inurba_marseille","lat":43.28497,"lon":5.38451,"is_reserved":false,"is_disabled":false,"rental_uris":{"android":"levelo://app?vid=6ecc43ba-af58-4a6d-921b-d9525a104446","ios":"levelo://app?vid=6ecc43ba-af58-4a6d-921b-d9525a104446"},"vehicle_type_id":"4","last_reported":1766236840,"current_range_meters":8000,"station_id":"ce4bh512rcd13ifvqe3g","pricing_plan_id":"cebpf4jnsgd1na2vs0mg"},{"bike_id":"a4754455-b750-4996-ba5b-1bbb2370671e","system_id":"levelo_inurba_marseille","lat":43.28465,"lon":5.35892,"is_reserved":false,"is_disabled":false,"rental_uris":{"android":"levelo://app?vid=a4754455-b750-4996-ba5b-1bbb2370671e","ios":"levelo://app?vid=a4754455-b750-4996-ba5b-1bbb2370671e"},"vehicle_type_id":"4","last_reported":1766236840,"current_range_meters":8000,"station_id":"ce4bhah2rcd13ifvqei0","pricing_plan_id":"cebpf4jnsgd1na2vs0mg"},{"bike_id":"fcd75001-1344-42ec-a013-2f4c6240ace8","system_id":"levelo_inurba_marseille","lat":43.29782,"lon":5.38664,"is_reserved":false,"is_disabled":false,"rental_uris":{"android":"levelo://app?vid=fcd75001-1344-42ec-a013-2f4c6240ace8","ios":"levelo://app?vid=fcd75001-1344-42ec-a013-2f4c6240ace8"},"vehicle_type_id":"4","last_reported":1766236840,"current_range_meters":8400,"station_id":"","pricing_plan_id":"cebpf4jnsgd1na2vs0mg"},{"bike_id":"128f68df-e6c8-471d-bf6e-3a9c347712de","system_id":"levelo_inurba_marseille","lat":43.29234,"lon":5.40898,"is_reserved":false,"is_disabled":false,"rental_uris":{"android":"levelo://app?vid=128f68df-e6c8-471d-bf6e-3a9c347712de","ios":"levelo://app?vid=128f68df-e6c8-471d-bf6e-3a9c347712de"},"vehicle_type_id":"4","last_reported":1766236840,"current_range_meters":8400,"station_id":"ce4bh192rcd13ifvqdc0","pricing_plan_id":"cebpf4jnsgd1na2vs0mg"},{"bike_id":"d0ba1201-8759-46f0-981c-399c837848ba","system_id":"levelo_inurba_marseille","lat":43.25824,"lon":5.39438,"is_reserved":false,"is_disabled":false,"rental_uris":{"android":"levelo://app?vid=d0ba1201-8759-46f0-981c-399c837848ba","ios":"levelo://app?vid=d0ba1201-8759-46f0-981c-399c837848ba"},"vehicle_type_id":"4","last_reported":1766236840,"current_range_meters":8400,"station_id":"ce4bhip2rcd13ifvqft0","pricing_plan_id":"cebpf4jnsgd1na2vs0mg"},{"bike_id":"bd0dffe5-498a-43af-bc02-9d00ab9aca43","system_id":"levelo_inurba_marseille","lat":43.2721,"lon":5.39186,"is_reserved":false,"is_disabled":false,"rental_uris":{"android":"levelo://app?vid=bd0dffe5-498a-43af-bc02-9d00ab9aca43","ios":"levelo://app?vid=bd0dffe5-498a-43af-bc02-9d00ab9aca43"},"vehicle_type_id":"4","last_reported":1766236840,"current_range_meters":8400,"station_id":"ce4bhhp2rcd13ifvqfm0","pricing_plan_id":"cebpf4jnsgd1na2vs0mg"},{"bike_id":"3c5baae4-1a02-40cb-b276-4c2125ba019b","system_id":"levelo_inurba_marseille","lat":43.29521,"lon":5.37514,"is_reserved":false,"is_disabled":false,"rental_uris":{"android":"levelo://app?vid=3c5baae4-1a02-40cb-b276-4c2125ba019b","ios":"levelo://app?vid=3c5baae4-1a02-40cb-b276-4c2125ba019b"},"vehicle_type_id":"4","last_reported":1766236840,"current_range_meters":8400,"station_id":"ce4bgkp2rcd13ifvqbmg","pricing_plan_id":"cebpf4jnsgd1na2vs0mg"},{"bike_id":"54f8b1f2-75f3-4800-a000-60dab9568e75","system_id":"levelo_inurba_marseille","lat":43.29578,"lon":5.37516,"is_reserved":false,"is_disabled":false,"rental_uris":{"android":"levelo://app?vid=54f8b1f2-75f3-4800-a000-60dab9568e75","ios":"levelo://app?vid=54f8b1f2-75f3-4800-a000-60dab9568e75"},"vehicle_type_id":"4","last_reported":1766236840,"current_range_meters":8400,"station_id":"ce4bgh92rcd13ifvqb50","pricing_plan_id":"cebpf4jnsgd1na2vs0mg"},{"bike_id":"9bd4261f-3c41-4eca-b791-4729436e9b50","system_id":"levelo_inurba_marseille","lat":43.28597,"lon":5.37092,"is_reserved":false,"is_disabled":false,"rental_uris":{"android":"levelo://app?vid=9bd4261f-3c41-4eca-b791-4729436e9b50","ios":"levelo://app?vid=9bd4261f-3c41-4eca-b791-4729436e9b50"},"vehicle_type_id":"4","last_reported":1766236840,"current_range_meters":8400,"station_id":"ce4bht12rcd13ifvqi60","pricing_plan_id":"cebpf4jnsgd1na2vs0mg"},{"bike_id":"d55bb6f9-f605-4ba1-a9fd-baeaa3091ad6","system_id":"levelo_inurba_marseille","lat":43.28997,"lon":5.38112,"is_reserved":false,"is_disabled":false,"rental_uris":{"android":"levelo://app?vid=d55bb6f9-f605-4ba1-a9fd-baeaa3091ad6","ios":"levelo://app?vid=d55bb6f9-f605-4ba1-a9fd-baeaa3091ad6"},"vehicle_type_id":"4","last_reported":1766236840,"current_range_meters":8800,"station_id":"ce4bh4p2rcd13ifvqe1g","pricing_plan_id":"cebpf4jnsgd1na2vs0mg"},{"bike_id":"374e65ad-6636-4d92-9a26-eb3f3a40873d","system_id":"levelo_inurba_marseille","lat":43.30897,"lon":5.37195,"is_reserved":false,"is_disabled":false,"rental_uris":{"android":"levelo://app?vid=374e65ad-6636-4d92-9a26-eb3f3a40873d","ios":"levelo://app?vid=374e65ad-6636-4d92-9a26-eb3f3a40873d"},"vehicle_type_id":"4","last_reported":1766236840,"current_range_meters":8800,"station_id":"ce4bguh2rcd13ifvqckg","pricing_plan_id":"cebpf4jnsgd1na2vs0mg"},{"bike_id":"d702b4c6-d931-492f-a2b1-f81efc437a0b","system_id":"levelo_inurba_marseille","lat":43.28471,"lon":5.3841,"is_reserved":false,"is_disabled":false,"rental_uris":{"android":"levelo://app?vid=d702b4c6-d931-492f-a2b1-f81efc437a0b","ios":"levelo://app?vid=d702b4c6-d931-492f-a2b1-f81efc437a0b"},"vehicle_type_id":"4","last_reported":1766236840,"current_range_meters":8800,"station_id":"ce4bh512rcd13ifvqe3g","pricing_plan_id":"cebpf4jnsgd1na2vs0mg"},{"bike_id":"e473bd1d-bff8-4fb5-a794-d58a75d9821a","system_id":"levelo_inurba_marseille","lat":43.25332,"lon":5.42169,"is_reserved":false,"is_disabled":true,"rental_uris":{"android":"levelo://app?vid=e473bd1d-bff8-4fb5-a794-d58a75d9821a","ios":"levelo://app?vid=e473bd1d-bff8-4fb5-a794-d58a75d9821a"},"vehicle_type_id":"4","last_reported":1766236840,"current_range_meters":8800,"station_id":"st_d2m65c5bi1j21697t3ng","pricing_plan_id":"cebpf4jnsgd1na2vs0mg"},{"bike_id":"7d7a46d3-9565-4ea4-8acf-fe96176e5f8a","system_id":"levelo_inurba_marseille","lat":43.23209,"lon":5.35552,"is_reserved":false,"is_disabled":false,"rental_uris":{"android":"levelo://app?vid=7d7a46d3-9565-4ea4-8acf-fe96176e5f8a","ios":"levelo://app?vid=7d7a46d3-9565-4ea4-8acf-fe96176e5f8a"},"vehicle_type_id":"4","last_reported":1766236840,"current_range_meters":8800,"station_id":"ce4bhu92rcd13ifvqi70","pricing_plan_id":"cebpf4jnsgd1na2vs0mg"},{"bike_id":"3f73be0f-eefe-4d46-8512-10a853504eb0","system_id":"levelo_inurba_marseille","lat":43.29619,"lon":5.38098,"is_reserved":false,"is_disabled":false,"rental_uris":{"android":"levelo://app?vid=3f73be0f-eefe-4d46-8512-10a853504eb0","ios":"levelo://app?vid=3f73be0f-eefe-4d46-8512-10a853504eb0"},"vehicle_type_id":"4","last_reported":1766236840,"current_range_meters":8800,"station_id":"ce4bgl12rcd13ifvqbo0","pricing_plan_id":"cebpf4jnsgd1na2vs0mg"},{"bike_id":"ddeb044e-67bd-438d-99c6-746858cb4126","system_id":"levelo_inurba_marseille","lat":43.299084,"lon":5.365482,"is_reserved":false,"is_disabled":false,"rental_uris":{"android":"levelo://app?vid=ddeb044e-67bd-438d-99c6-746858cb4126","ios":"levelo://app?vid=ddeb044e-67bd-438d-99c6-746858cb4126"},"vehicle_type_id":"4","last_reported":1766236840,"current_range_meters":8800,"station_id":"ce4bgm92rcd13ifvqbr0","pricing_plan_id":"cebpf4jnsgd1na2vs0mg"},{"bike_id":"6ec9a6be-eed9-4adb-a34f-9a64c85ea37b","system_id":"levelo_inurba_marseille","lat":43.30635,"lon":5.37569,"is_reserved":false,"is_disabled":false,"rental_uris":{"android":"levelo://app?vid=6ec9a6be-eed9-4adb-a34f-9a64c85ea37b","ios":"levelo://app?vid=6ec9a6be-eed9-4adb-a34f-9a64c85ea37b"},"vehicle_type_id":"4","last_reported":1766236840,"current_range_meters":8800,"station_id":"","pricing_plan_id":"cebpf4jnsgd1na2vs0mg"},{"bike_id":"eb9fa404-160b-4127-ac66-b8098c8c03fe","system_id":"levelo_inurba_marseille","lat":43.26029,"lon":5.37549,"is_reserved":false,"is_disabled":false,"rental_uris":{"android":"levelo://app?vid=eb9fa404-160b-4127-ac66-b8098c8c03fe","ios":"levelo://app?vid=eb9fa404-160b-4127-ac66-b8098c8c03fe"},"vehicle_type_id":"4","last_reported":1766236840,"current_range_meters":8800,"station_id":"ce4bhgh2rcd13ifvqfa0","pricing_plan_id":"cebpf4jnsgd1na2vs0mg"},{"bike_id":"b5d795e8-b5d7-42a9-9831-c1527def8cae","system_id":"levelo_inurba_marseille","lat":43.2953,"lon":5.38548,"is_reserved":false,"is_disabled":false,"rental_uris":{"android":"levelo://app?vid=b5d795e8-b5d7-42a9-9831-c1527def8cae","ios":"levelo://app?vid=b5d795e8-b5d7-42a9-9831-c1527def8cae"},"vehicle_type_id":"4","last_reported":1766236840,"current_range_meters":9200,"station_id":"ce4bgih2rcd13ifvqba0","pricing_plan_id":"cebpf4jnsgd1na2vs0mg"},{"bike_id":"207776d7-b88e-48a6-b74f-2b1aae5e54c7","system_id":"levelo_inurba_marseille","lat":43.268961,"lon":5.387159,"is_reserved":false,"is_disabled":true,"rental_uris":{"android":"levelo://app?vid=207776d7-b88e-48a6-b74f-2b1aae5e54c7","ios":"levelo://app?vid=207776d7-b88e-48a6-b74f-2b1aae5e54c7"},"vehicle_type_id":"4","last_reported":1766236840,"current_range_meters":9200,"station_id":"","pricing_plan_id":"cebpf4jnsgd1na2vs0mg"},{"bike_id":"342f1aab-f383-4095-9af9-476f39ec27e6","system_id":"levelo_inurba_marseille","lat":43.22563,"lon":5.41627,"is_reserved":false,"is_disabled":false,"rental_uris":{"android":"levelo://app?vid=342f1aab-f383-4095-9af9-476f39ec27e6","ios":"levelo://app?vid=342f1aab-f383-4095-9af9-476f39ec27e6"},"vehicle_type_id":"4","last_reported":1766236840,"current_range_meters":9200,"station_id":"st_d2o4gvlbi1j2169b742g","pricing_plan_id":"cebpf4jnsgd1na2vs0mg"},{"bike_id":"657677ff-bd0f-45b9-a985-0cee09b5fde2","system_id":"levelo_inurba_marseille","lat":43.317153,"lon":5.43699,"is_reserved":false,"is_disabled":false,"rental_uris":{"android":"levelo://app?vid=657677ff-bd0f-45b9-a985-0cee09b5fde2","ios":"levelo://app?vid=657677ff-bd0f-45b9-a985-0cee09b5fde2"},"vehicle_type_id":"4","last_reported":1766236840,"current_range_meters":9200,"station_id":"ce4bhp92rcd13ifvqhcg","pricing_plan_id":"cebpf4jnsgd1na2vs0mg"},{"bike_id":"9532cec3-d883-4ce8-af1b-8fe4c06b3779","system_id":"levelo_inurba_marseille","lat":43.28494,"lon":5.3842,"is_reserved":false,"is_disabled":false,"rental_uris":{"android":"levelo://app?vid=9532cec3-d883-4ce8-af1b-8fe4c06b3779","ios":"levelo://app?vid=9532cec3-d883-4ce8-af1b-8fe4c06b3779"},"vehicle_type_id":"4","last_reported":1766236840,"current_range_meters":9200,"station_id":"ce4bh512rcd13ifvqe3g","pricing_plan_id":"cebpf4jnsgd1na2vs0mg"},{"bike_id":"342831ac-e927-49d6-8b43-22fa72e5bef8","system_id":"levelo_inurba_marseille","lat":43.28036,"lon":5.38764,"is_reserved":false,"is_disabled":false,"rental_uris":{"android":"levelo://app?vid=342831ac-e927-49d6-8b43-22fa72e5bef8","ios":"levelo://app?vid=342831ac-e927-49d6-8b43-22fa72e5bef8"},"vehicle_type_id":"4","last_reported":1766236840,"current_range_meters":9200,"station_id":"","pricing_plan_id":"cebpf4jnsgd1na2vs0mg"},{"bike_id":"bbe6d64f-2cb1-409d-ba24-ff27de876e43","system_id":"levelo_inurba_marseille","lat":43.28531,"lon":5.44106,"is_reserved":false,"is_disabled":false,"rental_uris":{"android":"levelo://app?vid=bbe6d64f-2cb1-409d-ba24-ff27de876e43","ios":"levelo://app?vid=bbe6d64f-2cb1-409d-ba24-ff27de876e43"},"vehicle_type_id":"4","last_reported":1766236840,"current_range_meters":9600,"station_id":"st_d3j3df2ikq2c7380ej80","pricing_plan_id":"cebpf4jnsgd1na2vs0mg"},{"bike_id":"d5c2d554-5edd-4b1f-8bbf-acce17eb866f","system_id":"levelo_inurba_marseille","lat":43.29322,"lon":5.37576,"is_reserved":false,"is_disabled":true,"rental_uris":{"android":"levelo://app?vid=d5c2d554-5edd-4b1f-8bbf-acce17eb866f","ios":"levelo://app?vid=d5c2d554-5edd-4b1f-8bbf-acce17eb866f"},"vehicle_type_id":"4","last_reported":1766236840,"current_range_meters":9600,"station_id":"","pricing_plan_id":"cebpf4jnsgd1na2vs0mg"},{"bike_id":"f1c6ef30-df40-4531-b632-19b3b8de3f93","system_id":"levelo_inurba_marseille","lat":43.337444,"lon":5.374475,"is_reserved":false,"is_disabled":false,"rental_uris":{"android":"levelo://app?vid=f1c6ef30-df40-4531-b632-19b3b8de3f93","ios":"levelo://app?vid=f1c6ef30-df40-4531-b632-19b3b8de3f93"},"vehicle_type_id":"4","last_reported":1766236840,"current_range_meters":9600,"station_id":"","pricing_plan_id":"cebpf4jnsgd1na2vs0mg"},{"bike_id":"8ddf5f0b-8638-4227-b0ee-efe27c023df6","system_id":"levelo_inurba_marseille","lat":43.308014,"lon":5.381433,"is_reserved":false,"is_disabled":true,"rental_uris":{"android":"levelo://app?vid=8ddf5f0b-8638-4227-b0ee-efe27c023df6","ios":"levelo://app?vid=8ddf5f0b-8638-4227-b0ee-efe27c023df6"},"vehicle_type_id":"4","last_reported":1766236840,"current_range_meters":9600,"station_id":"ce4bgjp2rcd13ifvqbh0","pricing_plan_id":"cebpf4jnsgd1na2vs0mg"},{"bike_id":"1dbd35cb-b640-4a99-b93c-73df700bdbf1","system_id":"levelo_inurba_marseille","lat":43.21194,"lon":5.35074,"is_reserved":false,"is_disabled":false,"rental_uris":{"android":"levelo://app?vid=1dbd35cb-b640-4a99-b93c-73df700bdbf1","ios":"levelo://app?vid=1dbd35cb-b640-4a99-b93c-73df700bdbf1"},"vehicle_type_id":"4","last_reported":1766236840,"current_range_meters":9600,"station_id":"","pricing_plan_id":"cebpf4jnsgd1na2vs0mg"},{"bike_id":"3d8062de-4bd0-49c7-86a6-7bf3b5df4845","system_id":"levelo_inurba_marseille","lat":43.2848,"lon":5.48392,"is_reserved":false,"is_disabled":false,"rental_uris":{"android":"levelo://app?vid=3d8062de-4bd0-49c7-86a6-7bf3b5df4845","ios":"levelo://app?vid=3d8062de-4bd0-49c7-86a6-7bf3b5df4845"},"vehicle_type_id":"4","last_reported":1766236840,"current_range_meters":9600,"station_id":"","pricing_plan_id":"cebpf4jnsgd1na2vs0mg"},{"bike_id":"e87c8a7c-d617-4837-9565-095ee5b56e73","system_id":"levelo_inurba_marseille","lat":43.33018,"lon":5.3902,"is_reserved":false,"is_disabled":false,"rental_uris":{"android":"levelo://app?vid=e87c8a7c-d617-4837-9565-095ee5b56e73","ios":"levelo://app?vid=e87c8a7c-d617-4837-9565-095ee5b56e73"},"vehicle_type_id":"4","last_reported":1766236840,"current_range_meters":9600,"station_id":"ce4bhr92rcd13ifvqhrg","pricing_plan_id":"cebpf4jnsgd1na2vs0mg"},{"bike_id":"0f9cf49a-a542-457b-9bb8-7dbdc79e4286","system_id":"levelo_inurba_marseille","lat":43.28358,"lon":5.38626,"is_reserved":false,"is_disabled":false,"rental_uris":{"android":"levelo://app?vid=0f9cf49a-a542-457b-9bb8-7dbdc79e4286","ios":"levelo://app?vid=0f9cf49a-a542-457b-9bb8-7dbdc79e4286"},"vehicle_type_id":"4","last_reported":1766236840,"current_range_meters":10000,"station_id":"ce4bh492rcd13ifvqdvg","pricing_plan_id":"cebpf4jnsgd1na2vs0mg"},{"bike_id":"025bcf3c-9127-4e0c-b7ed-8709d35ce958","system_id":"levelo_inurba_marseille","lat":43.31756,"lon":5.37222,"is_reserved":false,"is_disabled":false,"rental_uris":{"android":"levelo://app?vid=025bcf3c-9127-4e0c-b7ed-8709d35ce958","ios":"levelo://app?vid=025bcf3c-9127-4e0c-b7ed-8709d35ce958"},"vehicle_type_id":"4","last_reported":1766236840,"current_range_meters":10000,"station_id":"","pricing_plan_id":"cebpf4jnsgd1na2vs0mg"},{"bike_id":"b9cb3bf3-00fb-441a-ba6d-542e2e974911","system_id":"levelo_inurba_marseille","lat":43.28939,"lon":5.39624,"is_reserved":false,"is_disabled":false,"rental_uris":{"android":"levelo://app?vid=b9cb3bf3-00fb-441a-ba6d-542e2e974911","ios":"levelo://app?vid=b9cb3bf3-00fb-441a-ba6d-542e2e974911"},"vehicle_type_id":"4","last_reported":1766236840,"current_range_meters":10000,"station_id":"ce4bh3h2rcd13ifvqdn0","pricing_plan_id":"cebpf4jnsgd1na2vs0mg"},{"bike_id":"e4c1e4b8-20c3-403d-b299-c80acc21f5f9","system_id":"levelo_inurba_marseille","lat":43.29396,"lon":5.39792,"is_reserved":false,"is_disabled":false,"rental_uris":{"android":"levelo://app?vid=e4c1e4b8-20c3-403d-b299-c80acc21f5f9","ios":"levelo://app?vid=e4c1e4b8-20c3-403d-b299-c80acc21f5f9"},"vehicle_type_id":"4","last_reported":1766236840,"current_range_meters":10000,"station_id":"","pricing_plan_id":"cebpf4jnsgd1na2vs0mg"},{"bike_id":"e42ac7ed-f66a-44b4-b394-3418e57e1ec0","system_id":"levelo_inurba_marseille","lat":43.21186,"lon":5.35082,"is_reserved":false,"is_disabled":true,"rental_uris":{"android":"levelo://app?vid=e42ac7ed-f66a-44b4-b394-3418e57e1ec0","ios":"levelo://app?vid=e42ac7ed-f66a-44b4-b394-3418e57e1ec0"},"vehicle_type_id":"4","last_reported":1766236840,"current_range_meters":10000,"station_id":"st_cvj6sg6p6f1abm77japg","pricing_plan_id":"cebpf4jnsgd1na2vs0mg"},{"bike_id":"960000b9-5f6a-4874-8ba2-61bf0329fc25","system_id":"levelo_inurba_marseille","lat":43.30639,"lon":5.41008,"is_reserved":false,"is_disabled":false,"rental_uris":{"android":"levelo://app?vid=960000b9-5f6a-4874-8ba2-61bf0329fc25","ios":"levelo://app?vid=960000b9-5f6a-4874-8ba2-61bf0329fc25"},"vehicle_type_id":"4","last_reported":1766236840,"current_range_meters":10000,"station_id":"","pricing_plan_id":"cebpf4jnsgd1na2vs0mg"},{"bike_id":"dd02578a-3ce3-4a5b-a150-72db34f2d7af","system_id":"levelo_inurba_marseille","lat":43.28153,"lon":5.42653,"is_reserved":false,"is_disabled":false,"rental_uris":{"android":"levelo://app?vid=dd02578a-3ce3-4a5b-a150-72db34f2d7af","ios":"levelo://app?vid=dd02578a-3ce3-4a5b-a150-72db34f2d7af"},"vehicle_type_id":"4","last_reported":1766236840,"current_range_meters":10000,"station_id":"ce4bhnh2rcd13ifvqgug","pricing_plan_id":"cebpf4jnsgd1na2vs0mg"},{"bike_id":"bcb638ec-1f7a-45bb-913f-62a7a0a453a1","system_id":"levelo_inurba_marseille","lat":43.29835,"lon":5.38574,"is_reserved":false,"is_disabled":false,"rental_uris":{"android":"levelo://app?vid=bcb638ec-1f7a-45bb-913f-62a7a0a453a1","ios":"levelo://app?vid=bcb638ec-1f7a-45bb-913f-62a7a0a453a1"},"vehicle_type_id":"4","last_reported":1766236840,"current_range_meters":10000,"station_id":"","pricing_plan_id":"cebpf4jnsgd1na2vs0mg"},{"bike_id":"c7706687-226c-4597-98a1-eda0ab574216","system_id":"levelo_inurba_marseille","lat":43.30953,"lon":5.39033,"is_reserved":false,"is_disabled":false,"rental_uris":{"android":"levelo://app?vid=c7706687-226c-4597-98a1-eda0ab574216","ios":"levelo://app?vid=c7706687-226c-4597-98a1-eda0ab574216"},"vehicle_type_id":"4","last_reported":1766236840,"current_range_meters":10000,"station_id":"ce4bgup2rcd13ifvqco0","pricing_plan_id":"cebpf4jnsgd1na2vs0mg"},{"bike_id":"ff400a14-182c-4479-9723-f211d61c81db","system_id":"levelo_inurba_marseille","lat":43.31969,"lon":5.404,"is_reserved":false,"is_disabled":false,"rental_uris":{"android":"levelo://app?vid=ff400a14-182c-4479-9723-f211d61c81db","ios":"levelo://app?vid=ff400a14-182c-4479-9723-f211d61c81db"},"vehicle_type_id":"4","last_reported":1766236840,"current_range_meters":10000,"station_id":"","pricing_plan_id":"cebpf4jnsgd1na2vs0mg"},{"bike_id":"e18d88c4-447f-4613-ac8f-5a6e3bb9a21c","system_id":"levelo_inurba_marseille","lat":43.29828,"lon":5.44072,"is_reserved":false,"is_disabled":false,"rental_uris":{"android":"levelo://app?vid=e18d88c4-447f-4613-ac8f-5a6e3bb9a21c","ios":"levelo://app?vid=e18d88c4-447f-4613-ac8f-5a6e3bb9a21c"},"vehicle_type_id":"4","last_reported":1766236840,"current_range_meters":10000,"station_id":"st_d3jp68qikq2c7381ktn0","pricing_plan_id":"cebpf4jnsgd1na2vs0mg"},{"bike_id":"af1f9193-90aa-4f34-b2c4-fb0bbaea183c","system_id":"levelo_inurba_marseille","lat":43.284716,"lon":5.484134,"is_reserved":false,"is_disabled":false,"rental_uris":{"android":"levelo://app?vid=af1f9193-90aa-4f34-b2c4-fb0bbaea183c","ios":"levelo://app?vid=af1f9193-90aa-4f34-b2c4-fb0bbaea183c"},"vehicle_type_id":"4","last_reported":1766236840,"current_range_meters":10000,"station_id":"","pricing_plan_id":"cebpf4jnsgd1na2vs0mg"},{"bike_id":"a155df3e-4b60-4af2-bb99-ef9672812592","system_id":"levelo_inurba_marseille","lat":43.31208,"lon":5.38129,"is_reserved":false,"is_disabled":false,"rental_uris":{"android":"levelo://app?vid=a155df3e-4b60-4af2-bb99-ef9672812592","ios":"levelo://app?vid=a155df3e-4b60-4af2-bb99-ef9672812592"},"vehicle_type_id":"4","last_reported":1766236840,"current_range_meters":10000,"station_id":"","pricing_plan_id":"cebpf4jnsgd1na2vs0mg"},{"bike_id":"e34741fc-ae00-4b95-9836-8b26544ebbce","system_id":"levelo_inurba_marseille","lat":43.26685,"lon":5.38264,"is_reserved":false,"is_disabled":false,"rental_uris":{"android":"levelo://app?vid=e34741fc-ae00-4b95-9836-8b26544ebbce","ios":"levelo://app?vid=e34741fc-ae00-4b95-9836-8b26544ebbce"},"vehicle_type_id":"4","last_reported":1766236840,"current_range_meters":10800,"station_id":"ce4bhg92rcd13ifvqf90","pricing_plan_id":"cebpf4jnsgd1na2vs0mg"},{"bike_id":"82a22c69-4528-497e-a34e-a79f9053706d","system_id":"levelo_inurba_marseille","lat":43.21191,"lon":5.35074,"is_reserved":false,"is_disabled":false,"rental_uris":{"android":"levelo://app?vid=82a22c69-4528-497e-a34e-a79f9053706d","ios":"levelo://app?vid=82a22c69-4528-497e-a34e-a79f9053706d"},"vehicle_type_id":"4","last_reported":1766236840,"current_range_meters":10800,"station_id":"","pricing_plan_id":"cebpf4jnsgd1na2vs0mg"},{"bike_id":"76431099-519e-419f-81f6-73fc78013568","system_id":"levelo_inurba_marseille","lat":43.291174,"lon":5.383024,"is_reserved":false,"is_disabled":false,"rental_uris":{"android":"levelo://app?vid=76431099-519e-419f-81f6-73fc78013568","ios":"levelo://app?vid=76431099-519e-419f-81f6-73fc78013568"},"vehicle_type_id":"4","last_reported":1766236840,"current_range_meters":10800,"station_id":"ce4bgl12rcd13ifvqbo0","pricing_plan_id":"cebpf4jnsgd1na2vs0mg"},{"bike_id":"99ad97c1-5a83-4b1c-9cf1-08492f7d7210","system_id":"levelo_inurba_marseille","lat":43.29249,"lon":5.409,"is_reserved":false,"is_disabled":false,"rental_uris":{"android":"levelo://app?vid=99ad97c1-5a83-4b1c-9cf1-08492f7d7210","ios":"levelo://app?vid=99ad97c1-5a83-4b1c-9cf1-08492f7d7210"},"vehicle_type_id":"4","last_reported":1766236840,"current_range_meters":10800,"station_id":"ce4bh192rcd13ifvqdc0","pricing_plan_id":"cebpf4jnsgd1na2vs0mg"},{"bike_id":"0c1f6896-cbd5-4c55-b68a-3cd9b92201dc","system_id":"levelo_inurba_marseille","lat":43.29895,"lon":5.43666,"is_reserved":false,"is_disabled":false,"rental_uris":{"android":"levelo://app?vid=0c1f6896-cbd5-4c55-b68a-3cd9b92201dc","ios":"levelo://app?vid=0c1f6896-cbd5-4c55-b68a-3cd9b92201dc"},"vehicle_type_id":"4","last_reported":1766236840,"current_range_meters":10800,"station_id":"ce4bhpp2rcd13ifvqhfg","pricing_plan_id":"cebpf4jnsgd1na2vs0mg"},{"bike_id":"19f83498-9c2c-438c-9319-9c90e9928c89","system_id":"levelo_inurba_marseille","lat":43.30308,"lon":5.37712,"is_reserved":false,"is_disabled":false,"rental_uris":{"android":"levelo://app?vid=19f83498-9c2c-438c-9319-9c90e9928c89","ios":"levelo://app?vid=19f83498-9c2c-438c-9319-9c90e9928c89"},"vehicle_type_id":"4","last_reported":1766236840,"current_range_meters":10800,"station_id":"ce4bguh2rcd13ifvqcj0","pricing_plan_id":"cebpf4jnsgd1na2vs0mg"},{"bike_id":"156e61f2-3d75-4260-9924-a8b3ec92c21b","system_id":"levelo_inurba_marseille","lat":43.22567,"lon":5.41642,"is_reserved":false,"is_disabled":true,"rental_uris":{"android":"levelo://app?vid=156e61f2-3d75-4260-9924-a8b3ec92c21b","ios":"levelo://app?vid=156e61f2-3d75-4260-9924-a8b3ec92c21b"},"vehicle_type_id":"4","last_reported":1766236840,"current_range_meters":10800,"station_id":"st_d2o4gvlbi1j2169b742g","pricing_plan_id":"cebpf4jnsgd1na2vs0mg"},{"bike_id":"26c78947-38c8-4fe2-9c04-b54c7806b0ba","system_id":"levelo_inurba_marseille","lat":43.27375,"lon":5.3625,"is_reserved":false,"is_disabled":true,"rental_uris":{"android":"levelo://app?vid=26c78947-38c8-4fe2-9c04-b54c7806b0ba","ios":"levelo://app?vid=26c78947-38c8-4fe2-9c04-b54c7806b0ba"},"vehicle_type_id":"4","last_reported":1766236840,"current_range_meters":11200,"station_id":"ce4bhbh2rcd13ifvqeo0","pricing_plan_id":"cebpf4jnsgd1na2vs0mg"},{"bike_id":"13510b18-4a9b-47d0-a954-6d7cdc2c118c","system_id":"levelo_inurba_marseille","lat":43.28483,"lon":5.48396,"is_reserved":false,"is_disabled":false,"rental_uris":{"android":"levelo://app?vid=13510b18-4a9b-47d0-a954-6d7cdc2c118c","ios":"levelo://app?vid=13510b18-4a9b-47d0-a954-6d7cdc2c118c"},"vehicle_type_id":"4","last_reported":1766236840,"current_range_meters":11200,"station_id":"","pricing_plan_id":"cebpf4jnsgd1na2vs0mg"},{"bike_id":"b9fd6a3a-e5d4-452a-99d2-fbb6f9148990","system_id":"levelo_inurba_marseille","lat":43.29279,"lon":5.40138,"is_reserved":false,"is_disabled":true,"rental_uris":{"android":"levelo://app?vid=b9fd6a3a-e5d4-452a-99d2-fbb6f9148990","ios":"levelo://app?vid=b9fd6a3a-e5d4-452a-99d2-fbb6f9148990"},"vehicle_type_id":"4","last_reported":1766236840,"current_range_meters":11200,"station_id":"ce4bh312rcd13ifvqdk0","pricing_plan_id":"cebpf4jnsgd1na2vs0mg"},{"bike_id":"81d9b9c0-6984-4243-9b90-5a011f67b45b","system_id":"levelo_inurba_marseille","lat":43.265585,"lon":5.372978,"is_reserved":false,"is_disabled":false,"rental_uris":{"android":"levelo://app?vid=81d9b9c0-6984-4243-9b90-5a011f67b45b","ios":"levelo://app?vid=81d9b9c0-6984-4243-9b90-5a011f67b45b"},"vehicle_type_id":"4","last_reported":1766236840,"current_range_meters":11200,"station_id":"ce4bhg12rcd13ifvqf70","pricing_plan_id":"cebpf4jnsgd1na2vs0mg"},{"bike_id":"9ed2abc5-3eb4-46ee-9006-c9e3411abb84","system_id":"levelo_inurba_marseille","lat":43.26396,"lon":5.39968,"is_reserved":false,"is_disabled":false,"rental_uris":{"android":"levelo://app?vid=9ed2abc5-3eb4-46ee-9006-c9e3411abb84","ios":"levelo://app?vid=9ed2abc5-3eb4-46ee-9006-c9e3411abb84"},"vehicle_type_id":"4","last_reported":1766236840,"current_range_meters":11200,"station_id":"","pricing_plan_id":"cebpf4jnsgd1na2vs0mg"},{"bike_id":"20e9dd8e-ed66-4bff-9188-35cbfde59a24","system_id":"levelo_inurba_marseille","lat":43.32323,"lon":5.39369,"is_reserved":false,"is_disabled":true,"rental_uris":{"android":"levelo://app?vid=20e9dd8e-ed66-4bff-9188-35cbfde59a24","ios":"levelo://app?vid=20e9dd8e-ed66-4bff-9188-35cbfde59a24"},"vehicle_type_id":"4","last_reported":1766236840,"current_range_meters":11200,"station_id":"","pricing_plan_id":"cebpf4jnsgd1na2vs0mg"},{"bike_id":"28d36d66-e4d6-4e13-a6c5-33e9d81e47d2","system_id":"levelo_inurba_marseille","lat":43.29609,"lon":5.37757,"is_reserved":false,"is_disabled":false,"rental_uris":{"android":"levelo://app?vid=28d36d66-e4d6-4e13-a6c5-33e9d81e47d2","ios":"levelo://app?vid=28d36d66-e4d6-4e13-a6c5-33e9d81e47d2"},"vehicle_type_id":"4","last_reported":1766236840,"current_range_meters":11600,"station_id":"ce4bgi92rcd13ifvqb90","pricing_plan_id":"cebpf4jnsgd1na2vs0mg"},{"bike_id":"0d5e7559-70fa-4af2-b7e9-80e764823f78","system_id":"levelo_inurba_marseille","lat":43.27328,"lon":5.39074,"is_reserved":false,"is_disabled":false,"rental_uris":{"android":"levelo://app?vid=0d5e7559-70fa-4af2-b7e9-80e764823f78","ios":"levelo://app?vid=0d5e7559-70fa-4af2-b7e9-80e764823f78"},"vehicle_type_id":"4","last_reported":1766236840,"current_range_meters":11600,"station_id":"ce4bhgp2rcd13ifvqfe0","pricing_plan_id":"cebpf4jnsgd1na2vs0mg"},{"bike_id":"d93eed39-a491-45bd-a27b-3b19929bf78e","system_id":"levelo_inurba_marseille","lat":43.23796,"lon":5.36673,"is_reserved":false,"is_disabled":false,"rental_uris":{"android":"levelo://app?vid=d93eed39-a491-45bd-a27b-3b19929bf78e","ios":"levelo://app?vid=d93eed39-a491-45bd-a27b-3b19929bf78e"},"vehicle_type_id":"4","last_reported":1766236840,"current_range_meters":11600,"station_id":"st_d3nk18o9ro0c73en2l3g","pricing_plan_id":"cebpf4jnsgd1na2vs0mg"},{"bike_id":"d333f5c5-54f8-4cf5-940a-bb6a2ed8e5fd","system_id":"levelo_inurba_marseille","lat":43.30566,"lon":5.37612,"is_reserved":false,"is_disabled":false,"rental_uris":{"android":"levelo://app?vid=d333f5c5-54f8-4cf5-940a-bb6a2ed8e5fd","ios":"levelo://app?vid=d333f5c5-54f8-4cf5-940a-bb6a2ed8e5fd"},"vehicle_type_id":"4","last_reported":1766236840,"current_range_meters":11600,"station_id":"","pricing_plan_id":"cebpf4jnsgd1na2vs0mg"},{"bike_id":"21256192-41f7-42f2-aa42-8d504a6fca5e","system_id":"levelo_inurba_marseille","lat":43.29578,"lon":5.36739,"is_reserved":false,"is_disabled":false,"rental_uris":{"android":"levelo://app?vid=21256192-41f7-42f2-aa42-8d504a6fca5e","ios":"levelo://app?vid=21256192-41f7-42f2-aa42-8d504a6fca5e"},"vehicle_type_id":"4","last_reported":1766236840,"current_range_meters":11600,"station_id":"ce4bgph2rcd13ifvqc2g","pricing_plan_id":"cebpf4jnsgd1na2vs0mg"},{"bike_id":"ba5ddc14-134d-4f97-af1c-22a9ea8f76d0","system_id":"levelo_inurba_marseille","lat":43.27839,"lon":5.39203,"is_reserved":false,"is_disabled":false,"rental_uris":{"android":"levelo://app?vid=ba5ddc14-134d-4f97-af1c-22a9ea8f76d0","ios":"levelo://app?vid=ba5ddc14-134d-4f97-af1c-22a9ea8f76d0"},"vehicle_type_id":"4","last_reported":1766236840,"current_range_meters":11600,"station_id":"ce4bhjp2rcd13ifvqga0","pricing_plan_id":"cebpf4jnsgd1na2vs0mg"},{"bike_id":"b65f109f-b77e-4b66-b18a-ad0bc11dd25d","system_id":"levelo_inurba_marseille","lat":43.29294,"lon":5.37467,"is_reserved":false,"is_disabled":false,"rental_uris":{"android":"levelo://app?vid=b65f109f-b77e-4b66-b18a-ad0bc11dd25d","ios":"levelo://app?vid=b65f109f-b77e-4b66-b18a-ad0bc11dd25d"},"vehicle_type_id":"4","last_reported":1766236840,"current_range_meters":11600,"station_id":"ce4bgi12rcd13ifvqb70","pricing_plan_id":"cebpf4jnsgd1na2vs0mg"},{"bike_id":"19c498c3-8b89-4901-8ea2-a541e1730ba2","system_id":"levelo_inurba_marseille","lat":43.28712,"lon":5.39992,"is_reserved":false,"is_disabled":false,"rental_uris":{"android":"levelo://app?vid=19c498c3-8b89-4901-8ea2-a541e1730ba2","ios":"levelo://app?vid=19c498c3-8b89-4901-8ea2-a541e1730ba2"},"vehicle_type_id":"4","last_reported":1766236840,"current_range_meters":11600,"station_id":"ce4bho92rcd13ifvqh3g","pricing_plan_id":"cebpf4jnsgd1na2vs0mg"},{"bike_id":"10752b2b-4d5a-4933-a6c2-94cb1513c5c1","system_id":"levelo_inurba_marseille","lat":43.312753,"lon":5.401803,"is_reserved":false,"is_disabled":false,"rental_uris":{"android":"levelo://app?vid=10752b2b-4d5a-4933-a6c2-94cb1513c5c1","ios":"levelo://app?vid=10752b2b-4d5a-4933-a6c2-94cb1513c5c1"},"vehicle_type_id":"4","last_reported":1766236840,"current_range_meters":11600,"station_id":"","pricing_plan_id":"cebpf4jnsgd1na2vs0mg"},{"bike_id":"e690c867-6f92-4878-bff7-a3243322d024","system_id":"levelo_inurba_marseille","lat":43.29464,"lon":5.42734,"is_reserved":false,"is_disabled":false,"rental_uris":{"android":"levelo://app?vid=e690c867-6f92-4878-bff7-a3243322d024","ios":"levelo://app?vid=e690c867-6f92-4878-bff7-a3243322d024"},"vehicle_type_id":"4","last_reported":1766236840,"current_range_meters":11600,"station_id":"","pricing_plan_id":"cebpf4jnsgd1na2vs0mg"},{"bike_id":"af35c0a3-e723-428b-a53e-a483f1ac2294","system_id":"levelo_inurba_marseille","lat":43.295824,"lon":5.375162,"is_reserved":false,"is_disabled":false,"rental_uris":{"android":"levelo://app?vid=af35c0a3-e723-428b-a53e-a483f1ac2294","ios":"levelo://app?vid=af35c0a3-e723-428b-a53e-a483f1ac2294"},"vehicle_type_id":"4","last_reported":1766236840,"current_range_meters":11600,"station_id":"ce4bgh92rcd13ifvqb50","pricing_plan_id":"cebpf4jnsgd1na2vs0mg"},{"bike_id":"4f2bc6c6-d63f-4e59-bdbf-91760def261d","system_id":"levelo_inurba_marseille","lat":43.28531,"lon":5.441,"is_reserved":false,"is_disabled":false,"rental_uris":{"android":"levelo://app?vid=4f2bc6c6-d63f-4e59-bdbf-91760def261d","ios":"levelo://app?vid=4f2bc6c6-d63f-4e59-bdbf-91760def261d"},"vehicle_type_id":"4","last_reported":1766236840,"current_range_meters":11600,"station_id":"st_d3j3df2ikq2c7380ej80","pricing_plan_id":"cebpf4jnsgd1na2vs0mg"},{"bike_id":"7bc80c2a-6f23-43ae-b0dd-5a11c962ab98","system_id":"levelo_inurba_marseille","lat":43.29252,"lon":5.37622,"is_reserved":false,"is_disabled":false,"rental_uris":{"android":"levelo://app?vid=7bc80c2a-6f23-43ae-b0dd-5a11c962ab98","ios":"levelo://app?vid=7bc80c2a-6f23-43ae-b0dd-5a11c962ab98"},"vehicle_type_id":"4","last_reported":1766236840,"current_range_meters":11600,"station_id":"ce4bgi12rcd13ifvqb80","pricing_plan_id":"cebpf4jnsgd1na2vs0mg"},{"bike_id":"90dac6f2-4e58-4623-b929-4f8d06ec1c31","system_id":"levelo_inurba_marseille","lat":43.28503,"lon":5.42541,"is_reserved":false,"is_disabled":false,"rental_uris":{"android":"levelo://app?vid=90dac6f2-4e58-4623-b929-4f8d06ec1c31","ios":"levelo://app?vid=90dac6f2-4e58-4623-b929-4f8d06ec1c31"},"vehicle_type_id":"4","last_reported":1766236840,"current_range_meters":12000,"station_id":"","pricing_plan_id":"cebpf4jnsgd1na2vs0mg"},{"bike_id":"8eb30b91-3cf1-4507-b361-be5214bebabb","system_id":"levelo_inurba_marseille","lat":43.29549,"lon":5.37495,"is_reserved":false,"is_disabled":false,"rental_uris":{"android":"levelo://app?vid=8eb30b91-3cf1-4507-b361-be5214bebabb","ios":"levelo://app?vid=8eb30b91-3cf1-4507-b361-be5214bebabb"},"vehicle_type_id":"4","last_reported":1766236840,"current_range_meters":12000,"station_id":"ce4bgkp2rcd13ifvqbmg","pricing_plan_id":"cebpf4jnsgd1na2vs0mg"},{"bike_id":"7ba6a1a9-0bc4-4b5c-9d54-8bd8fd09f9fc","system_id":"levelo_inurba_marseille","lat":43.29908,"lon":5.37467,"is_reserved":false,"is_disabled":false,"rental_uris":{"android":"levelo://app?vid=7ba6a1a9-0bc4-4b5c-9d54-8bd8fd09f9fc","ios":"levelo://app?vid=7ba6a1a9-0bc4-4b5c-9d54-8bd8fd09f9fc"},"vehicle_type_id":"4","last_reported":1766236840,"current_range_meters":12000,"station_id":"ce4bgjh2rcd13ifvqbg0","pricing_plan_id":"cebpf4jnsgd1na2vs0mg"},{"bike_id":"0a878f81-014a-4418-8c17-c944e0044104","system_id":"levelo_inurba_marseille","lat":43.28616,"lon":5.35105,"is_reserved":false,"is_disabled":false,"rental_uris":{"android":"levelo://app?vid=0a878f81-014a-4418-8c17-c944e0044104","ios":"levelo://app?vid=0a878f81-014a-4418-8c17-c944e0044104"},"vehicle_type_id":"4","last_reported":1766236840,"current_range_meters":12000,"station_id":"ce4bhch2rcd13ifvqeug","pricing_plan_id":"cebpf4jnsgd1na2vs0mg"},{"bike_id":"3bf86075-cb58-4f45-a569-43cd0b51682f","system_id":"levelo_inurba_marseille","lat":43.26553,"lon":5.37287,"is_reserved":false,"is_disabled":false,"rental_uris":{"android":"levelo://app?vid=3bf86075-cb58-4f45-a569-43cd0b51682f","ios":"levelo://app?vid=3bf86075-cb58-4f45-a569-43cd0b51682f"},"vehicle_type_id":"4","last_reported":1766236840,"current_range_meters":12000,"station_id":"ce4bhg12rcd13ifvqf70","pricing_plan_id":"cebpf4jnsgd1na2vs0mg"},{"bike_id":"b99df7a0-ab82-44f9-a6fb-f2c4e3c7415e","system_id":"levelo_inurba_marseille","lat":43.2901,"lon":5.35611,"is_reserved":false,"is_disabled":false,"rental_uris":{"android":"levelo://app?vid=b99df7a0-ab82-44f9-a6fb-f2c4e3c7415e","ios":"levelo://app?vid=b99df7a0-ab82-44f9-a6fb-f2c4e3c7415e"},"vehicle_type_id":"4","last_reported":1766236840,"current_range_meters":12000,"station_id":"ce4bhb92rcd13ifvqen0","pricing_plan_id":"cebpf4jnsgd1na2vs0mg"},{"bike_id":"1a4852ea-f938-4842-b2cd-e8e6a431a967","system_id":"levelo_inurba_marseille","lat":43.28981,"lon":5.397927,"is_reserved":false,"is_disabled":false,"rental_uris":{"android":"levelo://app?vid=1a4852ea-f938-4842-b2cd-e8e6a431a967","ios":"levelo://app?vid=1a4852ea-f938-4842-b2cd-e8e6a431a967"},"vehicle_type_id":"4","last_reported":1766236840,"current_range_meters":12000,"station_id":"ce4bh492rcd13ifvqdug","pricing_plan_id":"cebpf4jnsgd1na2vs0mg"},{"bike_id":"c84b8e47-5802-4c21-b1cc-1df47c4f26c2","system_id":"levelo_inurba_marseille","lat":43.284758,"lon":5.483985,"is_reserved":false,"is_disabled":false,"rental_uris":{"android":"levelo://app?vid=c84b8e47-5802-4c21-b1cc-1df47c4f26c2","ios":"levelo://app?vid=c84b8e47-5802-4c21-b1cc-1df47c4f26c2"},"vehicle_type_id":"4","last_reported":1766236840,"current_range_meters":12000,"station_id":"","pricing_plan_id":"cebpf4jnsgd1na2vs0mg"},{"bike_id":"cdf3202c-fd49-4f86-836a-843cb59136f2","system_id":"levelo_inurba_marseille","lat":43.29624,"lon":5.37738,"is_reserved":false,"is_disabled":false,"rental_uris":{"android":"levelo://app?vid=cdf3202c-fd49-4f86-836a-843cb59136f2","ios":"levelo://app?vid=cdf3202c-fd49-4f86-836a-843cb59136f2"},"vehicle_type_id":"4","last_reported":1766236840,"current_range_meters":12000,"station_id":"ce4bgi92rcd13ifvqb90","pricing_plan_id":"cebpf4jnsgd1na2vs0mg"},{"bike_id":"219c7116-527e-4a87-8339-383e275674f7","system_id":"levelo_inurba_marseille","lat":43.26552,"lon":5.37301,"is_reserved":false,"is_disabled":false,"rental_uris":{"android":"levelo://app?vid=219c7116-527e-4a87-8339-383e275674f7","ios":"levelo://app?vid=219c7116-527e-4a87-8339-383e275674f7"},"vehicle_type_id":"4","last_reported":1766236840,"current_range_meters":12000,"station_id":"ce4bhg12rcd13ifvqf70","pricing_plan_id":"cebpf4jnsgd1na2vs0mg"},{"bike_id":"60104876-cfb4-4c08-831d-06fdc216973b","system_id":"levelo_inurba_marseille","lat":43.29957,"lon":5.38532,"is_reserved":false,"is_disabled":true,"rental_uris":{"android":"levelo://app?vid=60104876-cfb4-4c08-831d-06fdc216973b","ios":"levelo://app?vid=60104876-cfb4-4c08-831d-06fdc216973b"},"vehicle_type_id":"4","last_reported":1766236840,"current_range_meters":12000,"station_id":"ce4bgj92rcd13ifvqbd0","pricing_plan_id":"cebpf4jnsgd1na2vs0mg"},{"bike_id":"98c040ff-ac12-4358-bded-c79cb9358db9","system_id":"levelo_inurba_marseille","lat":43.31721,"lon":5.42397,"is_reserved":false,"is_disabled":false,"rental_uris":{"android":"levelo://app?vid=98c040ff-ac12-4358-bded-c79cb9358db9","ios":"levelo://app?vid=98c040ff-ac12-4358-bded-c79cb9358db9"},"vehicle_type_id":"4","last_reported":1766236840,"current_range_meters":12000,"station_id":"ce4bhp92rcd13ifvqhbg","pricing_plan_id":"cebpf4jnsgd1na2vs0mg"},{"bike_id":"4fd1fc94-b658-4bf6-90f6-8c0a5ee21f59","system_id":"levelo_inurba_marseille","lat":43.27962,"lon":5.43611,"is_reserved":false,"is_disabled":false,"rental_uris":{"android":"levelo://app?vid=4fd1fc94-b658-4bf6-90f6-8c0a5ee21f59","ios":"levelo://app?vid=4fd1fc94-b658-4bf6-90f6-8c0a5ee21f59"},"vehicle_type_id":"4","last_reported":1766236840,"current_range_meters":12000,"station_id":"","pricing_plan_id":"cebpf4jnsgd1na2vs0mg"},{"bike_id":"40d73e8d-0c27-4119-afd6-7fe731b3c8a2","system_id":"levelo_inurba_marseille","lat":43.23181,"lon":5.35535,"is_reserved":false,"is_disabled":false,"rental_uris":{"android":"levelo://app?vid=40d73e8d-0c27-4119-afd6-7fe731b3c8a2","ios":"levelo://app?vid=40d73e8d-0c27-4119-afd6-7fe731b3c8a2"},"vehicle_type_id":"4","last_reported":1766236840,"current_range_meters":12400,"station_id":"ce4bhu92rcd13ifvqi70","pricing_plan_id":"cebpf4jnsgd1na2vs0mg"},{"bike_id":"d6449d99-814b-4c20-beb0-efc14f45bf89","system_id":"levelo_inurba_marseille","lat":43.29801,"lon":5.40404,"is_reserved":false,"is_disabled":false,"rental_uris":{"android":"levelo://app?vid=d6449d99-814b-4c20-beb0-efc14f45bf89","ios":"levelo://app?vid=d6449d99-814b-4c20-beb0-efc14f45bf89"},"vehicle_type_id":"4","last_reported":1766236840,"current_range_meters":12400,"station_id":"ce4bh112rcd13ifvqd90","pricing_plan_id":"cebpf4jnsgd1na2vs0mg"},{"bike_id":"5cdf0c26-71fe-4230-ab4f-b50d47db508a","system_id":"levelo_inurba_marseille","lat":43.30132,"lon":5.3976,"is_reserved":false,"is_disabled":false,"rental_uris":{"android":"levelo://app?vid=5cdf0c26-71fe-4230-ab4f-b50d47db508a","ios":"levelo://app?vid=5cdf0c26-71fe-4230-ab4f-b50d47db508a"},"vehicle_type_id":"4","last_reported":1766236840,"current_range_meters":12400,"station_id":"","pricing_plan_id":"cebpf4jnsgd1na2vs0mg"},{"bike_id":"f2c2f21a-2643-40c9-a83e-5a52788ba994","system_id":"levelo_inurba_marseille","lat":43.2378,"lon":5.36633,"is_reserved":false,"is_disabled":false,"rental_uris":{"android":"levelo://app?vid=f2c2f21a-2643-40c9-a83e-5a52788ba994","ios":"levelo://app?vid=f2c2f21a-2643-40c9-a83e-5a52788ba994"},"vehicle_type_id":"4","last_reported":1766236840,"current_range_meters":12400,"station_id":"st_d3nk18o9ro0c73en2l3g","pricing_plan_id":"cebpf4jnsgd1na2vs0mg"},{"bike_id":"f3718731-22e8-48f9-bdc9-85867161b03f","system_id":"levelo_inurba_marseille","lat":43.30993,"lon":5.40338,"is_reserved":false,"is_disabled":false,"rental_uris":{"android":"levelo://app?vid=f3718731-22e8-48f9-bdc9-85867161b03f","ios":"levelo://app?vid=f3718731-22e8-48f9-bdc9-85867161b03f"},"vehicle_type_id":"4","last_reported":1766236840,"current_range_meters":12400,"station_id":"","pricing_plan_id":"cebpf4jnsgd1na2vs0mg"},{"bike_id":"140703fd-ea98-4978-8bfc-9c584f410469","system_id":"levelo_inurba_marseille","lat":43.298025,"lon":5.38096,"is_reserved":false,"is_disabled":false,"rental_uris":{"android":"levelo://app?vid=140703fd-ea98-4978-8bfc-9c584f410469","ios":"levelo://app?vid=140703fd-ea98-4978-8bfc-9c584f410469"},"vehicle_type_id":"4","last_reported":1766236840,"current_range_meters":12400,"station_id":"ce4bgip2rcd13ifvqbb0","pricing_plan_id":"cebpf4jnsgd1na2vs0mg"},{"bike_id":"707275a1-fb4f-41da-bad6-69788d083935","system_id":"levelo_inurba_marseille","lat":43.2533,"lon":5.42177,"is_reserved":false,"is_disabled":false,"rental_uris":{"android":"levelo://app?vid=707275a1-fb4f-41da-bad6-69788d083935","ios":"levelo://app?vid=707275a1-fb4f-41da-bad6-69788d083935"},"vehicle_type_id":"4","last_reported":1766236840,"current_range_meters":12400,"station_id":"st_d2m65c5bi1j21697t3ng","pricing_plan_id":"cebpf4jnsgd1na2vs0mg"},{"bike_id":"1a399a16-62ed-47ae-ba1c-654e7762c033","system_id":"levelo_inurba_marseille","lat":43.30023,"lon":5.38006,"is_reserved":false,"is_disabled":false,"rental_uris":{"android":"levelo://app?vid=1a399a16-62ed-47ae-ba1c-654e7762c033","ios":"levelo://app?vid=1a399a16-62ed-47ae-ba1c-654e7762c033"},"vehicle_type_id":"4","last_reported":1766236840,"current_range_meters":12800,"station_id":"","pricing_plan_id":"cebpf4jnsgd1na2vs0mg"},{"bike_id":"22a40d0a-95d4-4372-b972-453fda8655a6","system_id":"levelo_inurba_marseille","lat":43.30883,"lon":5.39627,"is_reserved":false,"is_disabled":false,"rental_uris":{"android":"levelo://app?vid=22a40d0a-95d4-4372-b972-453fda8655a6","ios":"levelo://app?vid=22a40d0a-95d4-4372-b972-453fda8655a6"},"vehicle_type_id":"4","last_reported":1766236840,"current_range_meters":12800,"station_id":"ce4bh012rcd13ifvqcv0","pricing_plan_id":"cebpf4jnsgd1na2vs0mg"},{"bike_id":"5ecc6d33-3409-4112-8024-c5a9621380d8","system_id":"levelo_inurba_marseille","lat":43.286583,"lon":5.363498,"is_reserved":false,"is_disabled":false,"rental_uris":{"android":"levelo://app?vid=5ecc6d33-3409-4112-8024-c5a9621380d8","ios":"levelo://app?vid=5ecc6d33-3409-4112-8024-c5a9621380d8"},"vehicle_type_id":"4","last_reported":1766236840,"current_range_meters":12800,"station_id":"ce4bhah2rcd13ifvqej0","pricing_plan_id":"cebpf4jnsgd1na2vs0mg"},{"bike_id":"ac69310b-48fc-4542-b776-5797f9034e72","system_id":"levelo_inurba_marseille","lat":43.29806,"lon":5.44062,"is_reserved":false,"is_disabled":false,"rental_uris":{"android":"levelo://app?vid=ac69310b-48fc-4542-b776-5797f9034e72","ios":"levelo://app?vid=ac69310b-48fc-4542-b776-5797f9034e72"},"vehicle_type_id":"4","last_reported":1766236840,"current_range_meters":12800,"station_id":"st_d3jp68qikq2c7381ktn0","pricing_plan_id":"cebpf4jnsgd1na2vs0mg"},{"bike_id":"00a29bb1-88ca-440d-9219-07d673c689ed","system_id":"levelo_inurba_marseille","lat":43.30472,"lon":5.36677,"is_reserved":false,"is_disabled":false,"rental_uris":{"android":"levelo://app?vid=00a29bb1-88ca-440d-9219-07d673c689ed","ios":"levelo://app?vid=00a29bb1-88ca-440d-9219-07d673c689ed"},"vehicle_type_id":"4","last_reported":1766236840,"current_range_meters":12800,"station_id":"","pricing_plan_id":"cebpf4jnsgd1na2vs0mg"},{"bike_id":"51362f73-0376-48b4-ab18-b0c3808c7d8c","system_id":"levelo_inurba_marseille","lat":43.28961,"lon":5.37845,"is_reserved":false,"is_disabled":false,"rental_uris":{"android":"levelo://app?vid=51362f73-0376-48b4-ab18-b0c3808c7d8c","ios":"levelo://app?vid=51362f73-0376-48b4-ab18-b0c3808c7d8c"},"vehicle_type_id":"4","last_reported":1766236840,"current_range_meters":12800,"station_id":"ce4bh9p2rcd13ifvqed0","pricing_plan_id":"cebpf4jnsgd1na2vs0mg"},{"bike_id":"628a75f3-7312-4f05-a812-11eaca59fded","system_id":"levelo_inurba_marseille","lat":43.28482,"lon":5.38575,"is_reserved":false,"is_disabled":false,"rental_uris":{"android":"levelo://app?vid=628a75f3-7312-4f05-a812-11eaca59fded","ios":"levelo://app?vid=628a75f3-7312-4f05-a812-11eaca59fded"},"vehicle_type_id":"4","last_reported":1766236840,"current_range_meters":12800,"station_id":"ce4bh8p2rcd13ifvqeb0","pricing_plan_id":"cebpf4jnsgd1na2vs0mg"},{"bike_id":"984dab06-c3db-421c-b8cc-2988470035a8","system_id":"levelo_inurba_marseille","lat":43.29227,"lon":5.36055,"is_reserved":false,"is_disabled":false,"rental_uris":{"android":"levelo://app?vid=984dab06-c3db-421c-b8cc-2988470035a8","ios":"levelo://app?vid=984dab06-c3db-421c-b8cc-2988470035a8"},"vehicle_type_id":"4","last_reported":1766236840,"current_range_meters":12800,"station_id":"ce4bhbh2rcd13ifvqeqg","pricing_plan_id":"cebpf4jnsgd1na2vs0mg"},{"bike_id":"6682e79b-6b3d-439e-b71b-bda1cffb85c8","system_id":"levelo_inurba_marseille","lat":43.27217,"lon":5.39164,"is_reserved":false,"is_disabled":false,"rental_uris":{"android":"levelo://app?vid=6682e79b-6b3d-439e-b71b-bda1cffb85c8","ios":"levelo://app?vid=6682e79b-6b3d-439e-b71b-bda1cffb85c8"},"vehicle_type_id":"4","last_reported":1766236840,"current_range_meters":12800,"station_id":"ce4bhhp2rcd13ifvqfm0","pricing_plan_id":"cebpf4jnsgd1na2vs0mg"},{"bike_id":"f247771e-2838-4c74-9387-68cb8feccb4e","system_id":"levelo_inurba_marseille","lat":43.2858,"lon":5.40488,"is_reserved":false,"is_disabled":false,"rental_uris":{"android":"levelo://app?vid=f247771e-2838-4c74-9387-68cb8feccb4e","ios":"levelo://app?vid=f247771e-2838-4c74-9387-68cb8feccb4e"},"vehicle_type_id":"4","last_reported":1766236840,"current_range_meters":12800,"station_id":"","pricing_plan_id":"cebpf4jnsgd1na2vs0mg"},{"bike_id":"b0eb95b9-79ce-4691-a99c-e8e830cecad7","system_id":"levelo_inurba_marseille","lat":43.303741,"lon":5.425196,"is_reserved":false,"is_disabled":false,"rental_uris":{"android":"levelo://app?vid=b0eb95b9-79ce-4691-a99c-e8e830cecad7","ios":"levelo://app?vid=b0eb95b9-79ce-4691-a99c-e8e830cecad7"},"vehicle_type_id":"4","last_reported":1766236840,"current_range_meters":12800,"station_id":"","pricing_plan_id":"cebpf4jnsgd1na2vs0mg"},{"bike_id":"28ad1a9a-391c-435e-96a8-1e7f1aea86aa","system_id":"levelo_inurba_marseille","lat":43.301236,"lon":5.431264,"is_reserved":false,"is_disabled":false,"rental_uris":{"android":"levelo://app?vid=28ad1a9a-391c-435e-96a8-1e7f1aea86aa","ios":"levelo://app?vid=28ad1a9a-391c-435e-96a8-1e7f1aea86aa"},"vehicle_type_id":"4","last_reported":1766236840,"current_range_meters":13600,"station_id":"st_d3js3co5814s73ftftug","pricing_plan_id":"cebpf4jnsgd1na2vs0mg"},{"bike_id":"a4557094-a3c8-45e6-827f-f9e6413c684c","system_id":"levelo_inurba_marseille","lat":43.24394,"lon":5.37059,"is_reserved":false,"is_disabled":false,"rental_uris":{"android":"levelo://app?vid=a4557094-a3c8-45e6-827f-f9e6413c684c","ios":"levelo://app?vid=a4557094-a3c8-45e6-827f-f9e6413c684c"},"vehicle_type_id":"4","last_reported":1766236840,"current_range_meters":13600,"station_id":"ce4bhhh2rcd13ifvqfk0","pricing_plan_id":"cebpf4jnsgd1na2vs0mg"},{"bike_id":"ad94f6f9-aa16-4936-a0e9-8ec487301853","system_id":"levelo_inurba_marseille","lat":43.260299,"lon":5.375505,"is_reserved":false,"is_disabled":false,"rental_uris":{"android":"levelo://app?vid=ad94f6f9-aa16-4936-a0e9-8ec487301853","ios":"levelo://app?vid=ad94f6f9-aa16-4936-a0e9-8ec487301853"},"vehicle_type_id":"4","last_reported":1766236840,"current_range_meters":13600,"station_id":"ce4bhgh2rcd13ifvqfa0","pricing_plan_id":"cebpf4jnsgd1na2vs0mg"},{"bike_id":"50b8d03a-86ed-4938-93de-772d12cbc21e","system_id":"levelo_inurba_marseille","lat":43.31197,"lon":5.36869,"is_reserved":false,"is_disabled":false,"rental_uris":{"android":"levelo://app?vid=50b8d03a-86ed-4938-93de-772d12cbc21e","ios":"levelo://app?vid=50b8d03a-86ed-4938-93de-772d12cbc21e"},"vehicle_type_id":"4","last_reported":1766236840,"current_range_meters":13600,"station_id":"ce4bgl92rcd13ifvqbq0","pricing_plan_id":"cebpf4jnsgd1na2vs0mg"},{"bike_id":"8c1ab11e-9e0c-4d16-a145-c73e6f57ea67","system_id":"levelo_inurba_marseille","lat":43.3015,"lon":5.37409,"is_reserved":false,"is_disabled":false,"rental_uris":{"android":"levelo://app?vid=8c1ab11e-9e0c-4d16-a145-c73e6f57ea67","ios":"levelo://app?vid=8c1ab11e-9e0c-4d16-a145-c73e6f57ea67"},"vehicle_type_id":"4","last_reported":1766236840,"current_range_meters":13600,"station_id":"ce4bgs92rcd13ifvqcc0","pricing_plan_id":"cebpf4jnsgd1na2vs0mg"},{"bike_id":"85f80c36-b01d-4148-8a0f-5ed00798dda8","system_id":"levelo_inurba_marseille","lat":43.301036,"lon":5.365358,"is_reserved":false,"is_disabled":false,"rental_uris":{"android":"levelo://app?vid=85f80c36-b01d-4148-8a0f-5ed00798dda8","ios":"levelo://app?vid=85f80c36-b01d-4148-8a0f-5ed00798dda8"},"vehicle_type_id":"4","last_reported":1766236840,"current_range_meters":13600,"station_id":"","pricing_plan_id":"cebpf4jnsgd1na2vs0mg"},{"bike_id":"0b222dfe-dd7c-461c-ad42-5b0113635f97","system_id":"levelo_inurba_marseille","lat":43.29,"lon":5.35615,"is_reserved":false,"is_disabled":false,"rental_uris":{"android":"levelo://app?vid=0b222dfe-dd7c-461c-ad42-5b0113635f97","ios":"levelo://app?vid=0b222dfe-dd7c-461c-ad42-5b0113635f97"},"vehicle_type_id":"4","last_reported":1766236840,"current_range_meters":13600,"station_id":"ce4bhb92rcd13ifvqen0","pricing_plan_id":"cebpf4jnsgd1na2vs0mg"},{"bike_id":"de4957ca-9c93-409a-ae9b-9b8d86479fcf","system_id":"levelo_inurba_marseille","lat":43.29529,"lon":5.37506,"is_reserved":false,"is_disabled":true,"rental_uris":{"android":"levelo://app?vid=de4957ca-9c93-409a-ae9b-9b8d86479fcf","ios":"levelo://app?vid=de4957ca-9c93-409a-ae9b-9b8d86479fcf"},"vehicle_type_id":"4","last_reported":1766236840,"current_range_meters":14000,"station_id":"ce4bgkp2rcd13ifvqbmg","pricing_plan_id":"cebpf4jnsgd1na2vs0mg"},{"bike_id":"bd217906-e5bf-44f0-bb95-365f8a696fe5","system_id":"levelo_inurba_marseille","lat":43.28102,"lon":5.37843,"is_reserved":false,"is_disabled":false,"rental_uris":{"android":"levelo://app?vid=bd217906-e5bf-44f0-bb95-365f8a696fe5","ios":"levelo://app?vid=bd217906-e5bf-44f0-bb95-365f8a696fe5"},"vehicle_type_id":"4","last_reported":1766236840,"current_range_meters":14000,"station_id":"ce4bha12rcd13ifvqee0","pricing_plan_id":"cebpf4jnsgd1na2vs0mg"},{"bike_id":"2964d339-565e-4966-a8d5-dd5de314e6fd","system_id":"levelo_inurba_marseille","lat":43.323561,"lon":5.367368,"is_reserved":false,"is_disabled":false,"rental_uris":{"android":"levelo://app?vid=2964d339-565e-4966-a8d5-dd5de314e6fd","ios":"levelo://app?vid=2964d339-565e-4966-a8d5-dd5de314e6fd"},"vehicle_type_id":"4","last_reported":1766236840,"current_range_meters":14000,"station_id":"ce4bhsh2rcd13ifvqi2g","pricing_plan_id":"cebpf4jnsgd1na2vs0mg"},{"bike_id":"cf01deac-2376-4d88-bc76-849623b1c99e","system_id":"levelo_inurba_marseille","lat":43.30743,"lon":5.37632,"is_reserved":false,"is_disabled":false,"rental_uris":{"android":"levelo://app?vid=cf01deac-2376-4d88-bc76-849623b1c99e","ios":"levelo://app?vid=cf01deac-2376-4d88-bc76-849623b1c99e"},"vehicle_type_id":"4","last_reported":1766236840,"current_range_meters":14000,"station_id":"","pricing_plan_id":"cebpf4jnsgd1na2vs0mg"},{"bike_id":"b4c06ecc-7a46-4aca-a09e-6e605e584bbd","system_id":"levelo_inurba_marseille","lat":43.29814,"lon":5.44061,"is_reserved":false,"is_disabled":false,"rental_uris":{"android":"levelo://app?vid=b4c06ecc-7a46-4aca-a09e-6e605e584bbd","ios":"levelo://app?vid=b4c06ecc-7a46-4aca-a09e-6e605e584bbd"},"vehicle_type_id":"4","last_reported":1766236840,"current_range_meters":14000,"station_id":"st_d3jp68qikq2c7381ktn0","pricing_plan_id":"cebpf4jnsgd1na2vs0mg"},{"bike_id":"ba5fe198-5ac3-4bd7-8649-5b6193db5395","system_id":"levelo_inurba_marseille","lat":43.318322,"lon":5.389592,"is_reserved":false,"is_disabled":false,"rental_uris":{"android":"levelo://app?vid=ba5fe198-5ac3-4bd7-8649-5b6193db5395","ios":"levelo://app?vid=ba5fe198-5ac3-4bd7-8649-5b6193db5395"},"vehicle_type_id":"4","last_reported":1766236840,"current_range_meters":14000,"station_id":"","pricing_plan_id":"cebpf4jnsgd1na2vs0mg"},{"bike_id":"167ff5eb-f7ec-4a9a-a389-047000be67d8","system_id":"levelo_inurba_marseille","lat":43.281559,"lon":5.4265,"is_reserved":false,"is_disabled":false,"rental_uris":{"android":"levelo://app?vid=167ff5eb-f7ec-4a9a-a389-047000be67d8","ios":"levelo://app?vid=167ff5eb-f7ec-4a9a-a389-047000be67d8"},"vehicle_type_id":"4","last_reported":1766236840,"current_range_meters":14000,"station_id":"ce4bhnh2rcd13ifvqgug","pricing_plan_id":"cebpf4jnsgd1na2vs0mg"},{"bike_id":"c9efb63e-b0f0-47bc-9979-73e35fef1fe0","system_id":"levelo_inurba_marseille","lat":43.21749,"lon":5.34615,"is_reserved":false,"is_disabled":false,"rental_uris":{"android":"levelo://app?vid=c9efb63e-b0f0-47bc-9979-73e35fef1fe0","ios":"levelo://app?vid=c9efb63e-b0f0-47bc-9979-73e35fef1fe0"},"vehicle_type_id":"4","last_reported":1766236840,"current_range_meters":14000,"station_id":"st_cvj6r9ubvosntc0bgbag","pricing_plan_id":"cebpf4jnsgd1na2vs0mg"},{"bike_id":"c68cd317-586e-444b-8663-5f96860bb04a","system_id":"levelo_inurba_marseille","lat":43.3018,"lon":5.38081,"is_reserved":false,"is_disabled":false,"rental_uris":{"android":"levelo://app?vid=c68cd317-586e-444b-8663-5f96860bb04a","ios":"levelo://app?vid=c68cd317-586e-444b-8663-5f96860bb04a"},"vehicle_type_id":"4","last_reported":1766236840,"current_range_meters":14000,"station_id":"ce4bgjp2rcd13ifvqbh0","pricing_plan_id":"cebpf4jnsgd1na2vs0mg"},{"bike_id":"cab542db-096a-444a-90d1-6409e0b3dd34","system_id":"levelo_inurba_marseille","lat":43.2905,"lon":5.37567,"is_reserved":false,"is_disabled":false,"rental_uris":{"android":"levelo://app?vid=cab542db-096a-444a-90d1-6409e0b3dd34","ios":"levelo://app?vid=cab542db-096a-444a-90d1-6409e0b3dd34"},"vehicle_type_id":"4","last_reported":1766236840,"current_range_meters":14000,"station_id":"ce4bh692rcd13ifvqe90","pricing_plan_id":"cebpf4jnsgd1na2vs0mg"},{"bike_id":"f1a91494-4ea9-498a-8b4d-c2877ea07d2f","system_id":"levelo_inurba_marseille","lat":43.33537,"lon":5.37461,"is_reserved":false,"is_disabled":false,"rental_uris":{"android":"levelo://app?vid=f1a91494-4ea9-498a-8b4d-c2877ea07d2f","ios":"levelo://app?vid=f1a91494-4ea9-498a-8b4d-c2877ea07d2f"},"vehicle_type_id":"4","last_reported":1766236840,"current_range_meters":14000,"station_id":"st_d46tts09ee8s73dlu43g","pricing_plan_id":"cebpf4jnsgd1na2vs0mg"},{"bike_id":"a8848b83-4516-4b82-bd01-22d44a0d2599","system_id":"levelo_inurba_marseille","lat":43.29023,"lon":5.38134,"is_reserved":false,"is_disabled":false,"rental_uris":{"android":"levelo://app?vid=a8848b83-4516-4b82-bd01-22d44a0d2599","ios":"levelo://app?vid=a8848b83-4516-4b82-bd01-22d44a0d2599"},"vehicle_type_id":"4","last_reported":1766236840,"current_range_meters":14000,"station_id":"ce4bh4p2rcd13ifvqe1g","pricing_plan_id":"cebpf4jnsgd1na2vs0mg"},{"bike_id":"c0fb8cc1-ebe9-4001-a3ec-0d3fc87db3d9","system_id":"levelo_inurba_marseille","lat":43.34363,"lon":5.3552,"is_reserved":false,"is_disabled":false,"rental_uris":{"android":"levelo://app?vid=c0fb8cc1-ebe9-4001-a3ec-0d3fc87db3d9","ios":"levelo://app?vid=c0fb8cc1-ebe9-4001-a3ec-0d3fc87db3d9"},"vehicle_type_id":"4","last_reported":1766236840,"current_range_meters":14000,"station_id":"","pricing_plan_id":"cebpf4jnsgd1na2vs0mg"},{"bike_id":"9d21dcb0-ce26-48db-a303-317550439f40","system_id":"levelo_inurba_marseille","lat":43.284822,"lon":5.483947,"is_reserved":false,"is_disabled":false,"rental_uris":{"android":"levelo://app?vid=9d21dcb0-ce26-48db-a303-317550439f40","ios":"levelo://app?vid=9d21dcb0-ce26-48db-a303-317550439f40"},"vehicle_type_id":"4","last_reported":1766236840,"current_range_meters":14000,"station_id":"st_d3svhcjqgbts73a3dn0g","pricing_plan_id":"cebpf4jnsgd1na2vs0mg"},{"bike_id":"49b32667-a5b9-4886-84eb-14582b80721d","system_id":"levelo_inurba_marseille","lat":43.29758,"lon":5.3766,"is_reserved":false,"is_disabled":false,"rental_uris":{"android":"levelo://app?vid=49b32667-a5b9-4886-84eb-14582b80721d","ios":"levelo://app?vid=49b32667-a5b9-4886-84eb-14582b80721d"},"vehicle_type_id":"4","last_reported":1766236840,"current_range_meters":14000,"station_id":"","pricing_plan_id":"cebpf4jnsgd1na2vs0mg"},{"bike_id":"f9df09a0-3737-4582-8136-0e0c747a0f9b","system_id":"levelo_inurba_marseille","lat":43.32414,"lon":5.36673,"is_reserved":false,"is_disabled":false,"rental_uris":{"android":"levelo://app?vid=f9df09a0-3737-4582-8136-0e0c747a0f9b","ios":"levelo://app?vid=f9df09a0-3737-4582-8136-0e0c747a0f9b"},"vehicle_type_id":"4","last_reported":1766236840,"current_range_meters":14000,"station_id":"","pricing_plan_id":"cebpf4jnsgd1na2vs0mg"},{"bike_id":"094e61ca-21ca-45fc-8f77-0315bd19675c","system_id":"levelo_inurba_marseille","lat":43.2706,"lon":5.38309,"is_reserved":false,"is_disabled":false,"rental_uris":{"android":"levelo://app?vid=094e61ca-21ca-45fc-8f77-0315bd19675c","ios":"levelo://app?vid=094e61ca-21ca-45fc-8f77-0315bd19675c"},"vehicle_type_id":"4","last_reported":1766236840,"current_range_meters":14000,"station_id":"st_d3n2fo6cfp8s73cte1j0","pricing_plan_id":"cebpf4jnsgd1na2vs0mg"},{"bike_id":"2154a936-f819-49ae-b7ae-2734365f2c42","system_id":"levelo_inurba_marseille","lat":43.335436,"lon":5.374693,"is_reserved":false,"is_disabled":false,"rental_uris":{"android":"levelo://app?vid=2154a936-f819-49ae-b7ae-2734365f2c42","ios":"levelo://app?vid=2154a936-f819-49ae-b7ae-2734365f2c42"},"vehicle_type_id":"4","last_reported":1766236840,"current_range_meters":14400,"station_id":"st_d46tts09ee8s73dlu43g","pricing_plan_id":"cebpf4jnsgd1na2vs0mg"},{"bike_id":"1297d7d4-6788-43a1-ac73-4fb6d116076e","system_id":"levelo_inurba_marseille","lat":43.29533,"lon":5.37504,"is_reserved":false,"is_disabled":true,"rental_uris":{"android":"levelo://app?vid=1297d7d4-6788-43a1-ac73-4fb6d116076e","ios":"levelo://app?vid=1297d7d4-6788-43a1-ac73-4fb6d116076e"},"vehicle_type_id":"4","last_reported":1766236840,"current_range_meters":14400,"station_id":"ce4bgkp2rcd13ifvqbmg","pricing_plan_id":"cebpf4jnsgd1na2vs0mg"},{"bike_id":"698032aa-e78c-409e-bed4-f8f4309f7e0c","system_id":"levelo_inurba_marseille","lat":43.294513,"lon":5.396208,"is_reserved":false,"is_disabled":false,"rental_uris":{"android":"levelo://app?vid=698032aa-e78c-409e-bed4-f8f4309f7e0c","ios":"levelo://app?vid=698032aa-e78c-409e-bed4-f8f4309f7e0c"},"vehicle_type_id":"4","last_reported":1766236840,"current_range_meters":14400,"station_id":"","pricing_plan_id":"cebpf4jnsgd1na2vs0mg"},{"bike_id":"f05b1d45-099e-428c-8304-1aeb2bda8a9a","system_id":"levelo_inurba_marseille","lat":43.231893,"lon":5.355693,"is_reserved":false,"is_disabled":true,"rental_uris":{"android":"levelo://app?vid=f05b1d45-099e-428c-8304-1aeb2bda8a9a","ios":"levelo://app?vid=f05b1d45-099e-428c-8304-1aeb2bda8a9a"},"vehicle_type_id":"4","last_reported":1766236840,"current_range_meters":14800,"station_id":"ce4bhu92rcd13ifvqi70","pricing_plan_id":"cebpf4jnsgd1na2vs0mg"},{"bike_id":"5795e59f-81a8-4cc9-a7c3-2e2235a3bf81","system_id":"levelo_inurba_marseille","lat":43.29033,"lon":5.39967,"is_reserved":false,"is_disabled":false,"rental_uris":{"android":"levelo://app?vid=5795e59f-81a8-4cc9-a7c3-2e2235a3bf81","ios":"levelo://app?vid=5795e59f-81a8-4cc9-a7c3-2e2235a3bf81"},"vehicle_type_id":"4","last_reported":1766236840,"current_range_meters":14800,"station_id":"ce4bh392rcd13ifvqdm0","pricing_plan_id":"cebpf4jnsgd1na2vs0mg"},{"bike_id":"9bace714-42cd-41e4-9aa6-82a8c1875c2b","system_id":"levelo_inurba_marseille","lat":43.29578,"lon":5.36743,"is_reserved":false,"is_disabled":false,"rental_uris":{"android":"levelo://app?vid=9bace714-42cd-41e4-9aa6-82a8c1875c2b","ios":"levelo://app?vid=9bace714-42cd-41e4-9aa6-82a8c1875c2b"},"vehicle_type_id":"4","last_reported":1766236840,"current_range_meters":14800,"station_id":"ce4bgph2rcd13ifvqc2g","pricing_plan_id":"cebpf4jnsgd1na2vs0mg"},{"bike_id":"6321fe57-59f4-4d15-83e3-f64320476ab2","system_id":"levelo_inurba_marseille","lat":43.21194,"lon":5.35073,"is_reserved":false,"is_disabled":false,"rental_uris":{"android":"levelo://app?vid=6321fe57-59f4-4d15-83e3-f64320476ab2","ios":"levelo://app?vid=6321fe57-59f4-4d15-83e3-f64320476ab2"},"vehicle_type_id":"4","last_reported":1766236840,"current_range_meters":14800,"station_id":"st_cvj6sg6p6f1abm77japg","pricing_plan_id":"cebpf4jnsgd1na2vs0mg"},{"bike_id":"6330cb15-0f6e-45cb-85da-449910e4e612","system_id":"levelo_inurba_marseille","lat":43.26791,"lon":5.39416,"is_reserved":false,"is_disabled":false,"rental_uris":{"android":"levelo://app?vid=6330cb15-0f6e-45cb-85da-449910e4e612","ios":"levelo://app?vid=6330cb15-0f6e-45cb-85da-449910e4e612"},"vehicle_type_id":"4","last_reported":1766236840,"current_range_meters":14800,"station_id":"ce4bhh12rcd13ifvqfg0","pricing_plan_id":"cebpf4jnsgd1na2vs0mg"},{"bike_id":"b9fd4cfe-8ada-4a37-b6cf-a845383e4bbf","system_id":"levelo_inurba_marseille","lat":43.29843,"lon":5.36322,"is_reserved":false,"is_disabled":false,"rental_uris":{"android":"levelo://app?vid=b9fd4cfe-8ada-4a37-b6cf-a845383e4bbf","ios":"levelo://app?vid=b9fd4cfe-8ada-4a37-b6cf-a845383e4bbf"},"vehicle_type_id":"4","last_reported":1766236840,"current_range_meters":14800,"station_id":"ce4bgpp2rcd13ifvqc3g","pricing_plan_id":"cebpf4jnsgd1na2vs0mg"},{"bike_id":"855d16cb-a0fd-4e07-9270-f8edf3ac4bcb","system_id":"levelo_inurba_marseille","lat":43.27988,"lon":5.41657,"is_reserved":false,"is_disabled":false,"rental_uris":{"android":"levelo://app?vid=855d16cb-a0fd-4e07-9270-f8edf3ac4bcb","ios":"levelo://app?vid=855d16cb-a0fd-4e07-9270-f8edf3ac4bcb"},"vehicle_type_id":"4","last_reported":1766236840,"current_range_meters":14800,"station_id":"ce4bho12rcd13ifvqh1g","pricing_plan_id":"cebpf4jnsgd1na2vs0mg"},{"bike_id":"1fa71cc5-277a-46e1-a0d2-6e2b80af130e","system_id":"levelo_inurba_marseille","lat":43.29596,"lon":5.37524,"is_reserved":false,"is_disabled":false,"rental_uris":{"android":"levelo://app?vid=1fa71cc5-277a-46e1-a0d2-6e2b80af130e","ios":"levelo://app?vid=1fa71cc5-277a-46e1-a0d2-6e2b80af130e"},"vehicle_type_id":"4","last_reported":1766236840,"current_range_meters":14800,"station_id":"ce4bgh92rcd13ifvqb50","pricing_plan_id":"cebpf4jnsgd1na2vs0mg"},{"bike_id":"017e579a-42f2-4237-be80-bca2779702d4","system_id":"levelo_inurba_marseille","lat":43.292978,"lon":5.37458,"is_reserved":false,"is_disabled":false,"rental_uris":{"android":"levelo://app?vid=017e579a-42f2-4237-be80-bca2779702d4","ios":"levelo://app?vid=017e579a-42f2-4237-be80-bca2779702d4"},"vehicle_type_id":"4","last_reported":1766236840,"current_range_meters":14800,"station_id":"","pricing_plan_id":"cebpf4jnsgd1na2vs0mg"},{"bike_id":"6cb32061-abd9-4acf-b050-46a7d66b8826","system_id":"levelo_inurba_marseille","lat":43.239624,"lon":5.36633,"is_reserved":false,"is_disabled":false,"rental_uris":{"android":"levelo://app?vid=6cb32061-abd9-4acf-b050-46a7d66b8826","ios":"levelo://app?vid=6cb32061-abd9-4acf-b050-46a7d66b8826"},"vehicle_type_id":"4","last_reported":1766236840,"current_range_meters":14800,"station_id":"ce4bhi12rcd13ifvqfp0","pricing_plan_id":"cebpf4jnsgd1na2vs0mg"},{"bike_id":"7e51efbd-b0d8-4b36-a762-988a4ccb29e6","system_id":"levelo_inurba_marseille","lat":43.302483,"lon":5.400659,"is_reserved":false,"is_disabled":false,"rental_uris":{"android":"levelo://app?vid=7e51efbd-b0d8-4b36-a762-988a4ccb29e6","ios":"levelo://app?vid=7e51efbd-b0d8-4b36-a762-988a4ccb29e6"},"vehicle_type_id":"4","last_reported":1766236840,"current_range_meters":14800,"station_id":"ce4bgvh2rcd13ifvqcs0","pricing_plan_id":"cebpf4jnsgd1na2vs0mg"},{"bike_id":"57aeae82-faa5-47ed-8858-bb2d0ef27b66","system_id":"levelo_inurba_marseille","lat":43.29562,"lon":5.42292,"is_reserved":false,"is_disabled":false,"rental_uris":{"android":"levelo://app?vid=57aeae82-faa5-47ed-8858-bb2d0ef27b66","ios":"levelo://app?vid=57aeae82-faa5-47ed-8858-bb2d0ef27b66"},"vehicle_type_id":"4","last_reported":1766236840,"current_range_meters":14800,"station_id":"ce4bhph2rcd13ifvqhdg","pricing_plan_id":"cebpf4jnsgd1na2vs0mg"},{"bike_id":"f3fdb73c-e2e3-4dd3-a99d-4f3e3986936b","system_id":"levelo_inurba_marseille","lat":43.22563,"lon":5.4162,"is_reserved":false,"is_disabled":false,"rental_uris":{"android":"levelo://app?vid=f3fdb73c-e2e3-4dd3-a99d-4f3e3986936b","ios":"levelo://app?vid=f3fdb73c-e2e3-4dd3-a99d-4f3e3986936b"},"vehicle_type_id":"4","last_reported":1766236840,"current_range_meters":14800,"station_id":"st_d2o4gvlbi1j2169b742g","pricing_plan_id":"cebpf4jnsgd1na2vs0mg"},{"bike_id":"4c78dd1f-142e-4678-9ed9-4be39e68c023","system_id":"levelo_inurba_marseille","lat":43.30536,"lon":5.36533,"is_reserved":false,"is_disabled":false,"rental_uris":{"android":"levelo://app?vid=4c78dd1f-142e-4678-9ed9-4be39e68c023","ios":"levelo://app?vid=4c78dd1f-142e-4678-9ed9-4be39e68c023"},"vehicle_type_id":"4","last_reported":1766236840,"current_range_meters":14800,"station_id":"ce4bgs12rcd13ifvqcag","pricing_plan_id":"cebpf4jnsgd1na2vs0mg"},{"bike_id":"3d57b30e-5b5e-43c6-9bc4-2f2f8df4be2c","system_id":"levelo_inurba_marseille","lat":43.31367,"lon":5.38493,"is_reserved":false,"is_disabled":false,"rental_uris":{"android":"levelo://app?vid=3d57b30e-5b5e-43c6-9bc4-2f2f8df4be2c","ios":"levelo://app?vid=3d57b30e-5b5e-43c6-9bc4-2f2f8df4be2c"},"vehicle_type_id":"4","last_reported":1766236840,"current_range_meters":14800,"station_id":"ce4bgt92rcd13ifvqcf0","pricing_plan_id":"cebpf4jnsgd1na2vs0mg"},{"bike_id":"bb1bac4a-f6e1-44d2-8446-b9ba9901e546","system_id":"levelo_inurba_marseille","lat":43.29626,"lon":5.37728,"is_reserved":false,"is_disabled":false,"rental_uris":{"android":"levelo://app?vid=bb1bac4a-f6e1-44d2-8446-b9ba9901e546","ios":"levelo://app?vid=bb1bac4a-f6e1-44d2-8446-b9ba9901e546"},"vehicle_type_id":"4","last_reported":1766236840,"current_range_meters":15200,"station_id":"ce4bgi92rcd13ifvqb90","pricing_plan_id":"cebpf4jnsgd1na2vs0mg"},{"bike_id":"8a14a0b5-f5e2-48e0-aafa-2b19c32699ae","system_id":"levelo_inurba_marseille","lat":43.29277,"lon":5.37614,"is_reserved":false,"is_disabled":false,"rental_uris":{"android":"levelo://app?vid=8a14a0b5-f5e2-48e0-aafa-2b19c32699ae","ios":"levelo://app?vid=8a14a0b5-f5e2-48e0-aafa-2b19c32699ae"},"vehicle_type_id":"4","last_reported":1766236840,"current_range_meters":15200,"station_id":"ce4bgi12rcd13ifvqb80","pricing_plan_id":"cebpf4jnsgd1na2vs0mg"},{"bike_id":"ba569559-5662-4606-a282-4b8410d4c809","system_id":"levelo_inurba_marseille","lat":43.30443,"lon":5.38905,"is_reserved":false,"is_disabled":false,"rental_uris":{"android":"levelo://app?vid=ba569559-5662-4606-a282-4b8410d4c809","ios":"levelo://app?vid=ba569559-5662-4606-a282-4b8410d4c809"},"vehicle_type_id":"4","last_reported":1766236840,"current_range_meters":15200,"station_id":"ce4bgk12rcd13ifvqbi0","pricing_plan_id":"cebpf4jnsgd1na2vs0mg"},{"bike_id":"be6edca5-cbaf-425d-ba3c-7981181dd2c6","system_id":"levelo_inurba_marseille","lat":43.283626,"lon":5.386419,"is_reserved":false,"is_disabled":true,"rental_uris":{"android":"levelo://app?vid=be6edca5-cbaf-425d-ba3c-7981181dd2c6","ios":"levelo://app?vid=be6edca5-cbaf-425d-ba3c-7981181dd2c6"},"vehicle_type_id":"4","last_reported":1766236840,"current_range_meters":15200,"station_id":"ce4bhi12rcd13ifvqfo0","pricing_plan_id":"cebpf4jnsgd1na2vs0mg"},{"bike_id":"27c6cab6-027c-4350-9b9c-20490c10cfe9","system_id":"levelo_inurba_marseille","lat":43.32479,"lon":5.38286,"is_reserved":false,"is_disabled":false,"rental_uris":{"android":"levelo://app?vid=27c6cab6-027c-4350-9b9c-20490c10cfe9","ios":"levelo://app?vid=27c6cab6-027c-4350-9b9c-20490c10cfe9"},"vehicle_type_id":"4","last_reported":1766236840,"current_range_meters":15200,"station_id":"st_d4asgbiv49dc73anf9m0","pricing_plan_id":"cebpf4jnsgd1na2vs0mg"},{"bike_id":"7a2810d9-a7a2-4f55-a626-e3338912c6bf","system_id":"levelo_inurba_marseille","lat":43.33741,"lon":5.37506,"is_reserved":false,"is_disabled":false,"rental_uris":{"android":"levelo://app?vid=7a2810d9-a7a2-4f55-a626-e3338912c6bf","ios":"levelo://app?vid=7a2810d9-a7a2-4f55-a626-e3338912c6bf"},"vehicle_type_id":"4","last_reported":1766236840,"current_range_meters":15200,"station_id":"","pricing_plan_id":"cebpf4jnsgd1na2vs0mg"},{"bike_id":"ad96ab35-147e-4b00-8b43-b29c4d85a4c0","system_id":"levelo_inurba_marseille","lat":43.295796,"lon":5.367205,"is_reserved":false,"is_disabled":false,"rental_uris":{"android":"levelo://app?vid=ad96ab35-147e-4b00-8b43-b29c4d85a4c0","ios":"levelo://app?vid=ad96ab35-147e-4b00-8b43-b29c4d85a4c0"},"vehicle_type_id":"4","last_reported":1766236840,"current_range_meters":15200,"station_id":"ce4bgph2rcd13ifvqc2g","pricing_plan_id":"cebpf4jnsgd1na2vs0mg"},{"bike_id":"69c3bf49-dc0b-4726-91ee-b4e37e9a81d0","system_id":"levelo_inurba_marseille","lat":43.22926,"lon":5.35378,"is_reserved":false,"is_disabled":false,"rental_uris":{"android":"levelo://app?vid=69c3bf49-dc0b-4726-91ee-b4e37e9a81d0","ios":"levelo://app?vid=69c3bf49-dc0b-4726-91ee-b4e37e9a81d0"},"vehicle_type_id":"4","last_reported":1766236840,"current_range_meters":15200,"station_id":"cpo3532slgdg3j2ikp40","pricing_plan_id":"cebpf4jnsgd1na2vs0mg"},{"bike_id":"f86781ed-742e-44ae-a740-41a7e6e17f13","system_id":"levelo_inurba_marseille","lat":43.26462,"lon":5.39544,"is_reserved":false,"is_disabled":false,"rental_uris":{"android":"levelo://app?vid=f86781ed-742e-44ae-a740-41a7e6e17f13","ios":"levelo://app?vid=f86781ed-742e-44ae-a740-41a7e6e17f13"},"vehicle_type_id":"4","last_reported":1766236840,"current_range_meters":15200,"station_id":"ce4bhi12rcd13ifvqfq0","pricing_plan_id":"cebpf4jnsgd1na2vs0mg"},{"bike_id":"8b51e427-7c13-4b57-9cd5-bf603542e006","system_id":"levelo_inurba_marseille","lat":43.237854,"lon":5.366293,"is_reserved":false,"is_disabled":false,"rental_uris":{"android":"levelo://app?vid=8b51e427-7c13-4b57-9cd5-bf603542e006","ios":"levelo://app?vid=8b51e427-7c13-4b57-9cd5-bf603542e006"},"vehicle_type_id":"4","last_reported":1766236840,"current_range_meters":15200,"station_id":"st_d3nk18o9ro0c73en2l3g","pricing_plan_id":"cebpf4jnsgd1na2vs0mg"},{"bike_id":"e1e0c5d5-d1ff-4328-abce-0032e41eb0b8","system_id":"levelo_inurba_marseille","lat":43.246197,"lon":5.431502,"is_reserved":false,"is_disabled":false,"rental_uris":{"android":"levelo://app?vid=e1e0c5d5-d1ff-4328-abce-0032e41eb0b8","ios":"levelo://app?vid=e1e0c5d5-d1ff-4328-abce-0032e41eb0b8"},"vehicle_type_id":"4","last_reported":1766236840,"current_range_meters":16000,"station_id":"st_d2m6c4gdas8pm72e190g","pricing_plan_id":"cebpf4jnsgd1na2vs0mg"},{"bike_id":"6721e4a5-7307-40c6-a4b2-6b5fc5cd0790","system_id":"levelo_inurba_marseille","lat":43.295482,"lon":5.422778,"is_reserved":false,"is_disabled":true,"rental_uris":{"android":"levelo://app?vid=6721e4a5-7307-40c6-a4b2-6b5fc5cd0790","ios":"levelo://app?vid=6721e4a5-7307-40c6-a4b2-6b5fc5cd0790"},"vehicle_type_id":"4","last_reported":1766236840,"current_range_meters":16000,"station_id":"ce4bhph2rcd13ifvqhdg","pricing_plan_id":"cebpf4jnsgd1na2vs0mg"},{"bike_id":"5549c5d4-40ee-4672-8eb6-d9e741467e36","system_id":"levelo_inurba_marseille","lat":43.29889,"lon":5.37461,"is_reserved":false,"is_disabled":true,"rental_uris":{"android":"levelo://app?vid=5549c5d4-40ee-4672-8eb6-d9e741467e36","ios":"levelo://app?vid=5549c5d4-40ee-4672-8eb6-d9e741467e36"},"vehicle_type_id":"4","last_reported":1766236840,"current_range_meters":16000,"station_id":"ce4bgjh2rcd13ifvqbg0","pricing_plan_id":"cebpf4jnsgd1na2vs0mg"},{"bike_id":"ae6c1aeb-ea56-4930-8ca5-97f00c057268","system_id":"levelo_inurba_marseille","lat":43.25035,"lon":5.38973,"is_reserved":false,"is_disabled":false,"rental_uris":{"android":"levelo://app?vid=ae6c1aeb-ea56-4930-8ca5-97f00c057268","ios":"levelo://app?vid=ae6c1aeb-ea56-4930-8ca5-97f00c057268"},"vehicle_type_id":"4","last_reported":1766236840,"current_range_meters":16000,"station_id":"","pricing_plan_id":"cebpf4jnsgd1na2vs0mg"},{"bike_id":"1db0db8a-631c-4b4e-8a5c-315f8a7567ae","system_id":"levelo_inurba_marseille","lat":43.30599,"lon":5.3724,"is_reserved":false,"is_disabled":false,"rental_uris":{"android":"levelo://app?vid=1db0db8a-631c-4b4e-8a5c-315f8a7567ae","ios":"levelo://app?vid=1db0db8a-631c-4b4e-8a5c-315f8a7567ae"},"vehicle_type_id":"4","last_reported":1766236840,"current_range_meters":16000,"station_id":"","pricing_plan_id":"cebpf4jnsgd1na2vs0mg"},{"bike_id":"785156da-0593-4b75-94f6-e2ccbbaee3ef","system_id":"levelo_inurba_marseille","lat":43.27445,"lon":5.39416,"is_reserved":false,"is_disabled":false,"rental_uris":{"android":"levelo://app?vid=785156da-0593-4b75-94f6-e2ccbbaee3ef","ios":"levelo://app?vid=785156da-0593-4b75-94f6-e2ccbbaee3ef"},"vehicle_type_id":"4","last_reported":1766236840,"current_range_meters":16000,"station_id":"ce4bhdp2rcd13ifvqf20","pricing_plan_id":"cebpf4jnsgd1na2vs0mg"},{"bike_id":"83684837-97e8-4ba6-b2c9-a00c6726d825","system_id":"levelo_inurba_marseille","lat":43.24632,"lon":5.43147,"is_reserved":false,"is_disabled":false,"rental_uris":{"android":"levelo://app?vid=83684837-97e8-4ba6-b2c9-a00c6726d825","ios":"levelo://app?vid=83684837-97e8-4ba6-b2c9-a00c6726d825"},"vehicle_type_id":"4","last_reported":1766236840,"current_range_meters":16000,"station_id":"st_d2m6c4gdas8pm72e190g","pricing_plan_id":"cebpf4jnsgd1na2vs0mg"},{"bike_id":"e9709ae1-44e1-4d2d-b239-cb5565fc7a9c","system_id":"levelo_inurba_marseille","lat":43.30807,"lon":5.37658,"is_reserved":false,"is_disabled":false,"rental_uris":{"android":"levelo://app?vid=e9709ae1-44e1-4d2d-b239-cb5565fc7a9c","ios":"levelo://app?vid=e9709ae1-44e1-4d2d-b239-cb5565fc7a9c"},"vehicle_type_id":"4","last_reported":1766236840,"current_range_meters":16000,"station_id":"ce4bgv92rcd13ifvqcq0","pricing_plan_id":"cebpf4jnsgd1na2vs0mg"},{"bike_id":"611bb42d-81f1-42fc-b832-157e5dfb6bb7","system_id":"levelo_inurba_marseille","lat":43.285341,"lon":5.441086,"is_reserved":false,"is_disabled":false,"rental_uris":{"android":"levelo://app?vid=611bb42d-81f1-42fc-b832-157e5dfb6bb7","ios":"levelo://app?vid=611bb42d-81f1-42fc-b832-157e5dfb6bb7"},"vehicle_type_id":"4","last_reported":1766236840,"current_range_meters":16000,"station_id":"st_d3j3df2ikq2c7380ej80","pricing_plan_id":"cebpf4jnsgd1na2vs0mg"},{"bike_id":"b79cb017-d598-4262-b3c2-034704c280e1","system_id":"levelo_inurba_marseille","lat":43.284738,"lon":5.38426,"is_reserved":false,"is_disabled":false,"rental_uris":{"android":"levelo://app?vid=b79cb017-d598-4262-b3c2-034704c280e1","ios":"levelo://app?vid=b79cb017-d598-4262-b3c2-034704c280e1"},"vehicle_type_id":"4","last_reported":1766236840,"current_range_meters":16000,"station_id":"ce4bh512rcd13ifvqe3g","pricing_plan_id":"cebpf4jnsgd1na2vs0mg"},{"bike_id":"4c0d6fce-33ab-431d-b903-8bcf563c13d6","system_id":"levelo_inurba_marseille","lat":43.27216,"lon":5.3916,"is_reserved":false,"is_disabled":false,"rental_uris":{"android":"levelo://app?vid=4c0d6fce-33ab-431d-b903-8bcf563c13d6","ios":"levelo://app?vid=4c0d6fce-33ab-431d-b903-8bcf563c13d6"},"vehicle_type_id":"4","last_reported":1766236840,"current_range_meters":16000,"station_id":"ce4bhhp2rcd13ifvqfm0","pricing_plan_id":"cebpf4jnsgd1na2vs0mg"},{"bike_id":"24bdf439-eafa-4725-949f-48e8f3329db0","system_id":"levelo_inurba_marseille","lat":43.28421,"lon":5.34994,"is_reserved":false,"is_disabled":false,"rental_uris":{"android":"levelo://app?vid=24bdf439-eafa-4725-949f-48e8f3329db0","ios":"levelo://app?vid=24bdf439-eafa-4725-949f-48e8f3329db0"},"vehicle_type_id":"4","last_reported":1766236840,"current_range_meters":16400,"station_id":"ce4bhbh2rcd13ifvqepg","pricing_plan_id":"cebpf4jnsgd1na2vs0mg"},{"bike_id":"674911cf-1cfd-40f1-9e5e-f3941e7b6fc6","system_id":"levelo_inurba_marseille","lat":43.337444,"lon":5.374475,"is_reserved":false,"is_disabled":false,"rental_uris":{"android":"levelo://app?vid=674911cf-1cfd-40f1-9e5e-f3941e7b6fc6","ios":"levelo://app?vid=674911cf-1cfd-40f1-9e5e-f3941e7b6fc6"},"vehicle_type_id":"4","last_reported":1766236840,"current_range_meters":16400,"station_id":"","pricing_plan_id":"cebpf4jnsgd1na2vs0mg"},{"bike_id":"3b42393c-b293-4707-a89f-72f8a29ac58d","system_id":"levelo_inurba_marseille","lat":43.26551,"lon":5.37306,"is_reserved":false,"is_disabled":false,"rental_uris":{"android":"levelo://app?vid=3b42393c-b293-4707-a89f-72f8a29ac58d","ios":"levelo://app?vid=3b42393c-b293-4707-a89f-72f8a29ac58d"},"vehicle_type_id":"4","last_reported":1766236840,"current_range_meters":16400,"station_id":"ce4bhg12rcd13ifvqf70","pricing_plan_id":"cebpf4jnsgd1na2vs0mg"},{"bike_id":"17bd9bcf-5e3b-4aca-9694-8c335f1de462","system_id":"levelo_inurba_marseille","lat":43.30139,"lon":5.43152,"is_reserved":false,"is_disabled":false,"rental_uris":{"android":"levelo://app?vid=17bd9bcf-5e3b-4aca-9694-8c335f1de462","ios":"levelo://app?vid=17bd9bcf-5e3b-4aca-9694-8c335f1de462"},"vehicle_type_id":"4","last_reported":1766236840,"current_range_meters":16400,"station_id":"st_d3js3co5814s73ftftug","pricing_plan_id":"cebpf4jnsgd1na2vs0mg"},{"bike_id":"1893459f-25e5-4938-bc7d-026b79502212","system_id":"levelo_inurba_marseille","lat":43.29785,"lon":5.37715,"is_reserved":false,"is_disabled":false,"rental_uris":{"android":"levelo://app?vid=1893459f-25e5-4938-bc7d-026b79502212","ios":"levelo://app?vid=1893459f-25e5-4938-bc7d-026b79502212"},"vehicle_type_id":"4","last_reported":1766236840,"current_range_meters":16400,"station_id":"","pricing_plan_id":"cebpf4jnsgd1na2vs0mg"},