{"last_updated":1732105080,"ttl":60,"version":"2.2","data":{"bikes":[{"bike_id":"564ca4d4-8633-4b7d-bb3b-c9c0df6ad701","system_id":"levelo_inurba_marseille","lat":43.3046,"lon":5.37907,"is_reserved":false,"is_disabled":false,"rental_uris":{"android":"levelo://app?vid=564ca4d4-8633-4b7d-bb3b-c9c0df6ad701","ios":"levelo://app?vid=564ca4d4-8633-4b7d-bb3b-c9c0df6ad701"},"vehicle_type_id":"4","last_reported":1732105081,"current_range_meters":24800,"station_id":"ce4bgup2rcd13ifvqcn0","pricing_plan_id":"cebpf4jnsgd1na2vs0mg"},{"bike_id":"cf2b14df-624f-4874-a035-fbf497ed7ded","system_id":"levelo_inurba_marseille","lat":43.30949,"lon":5.39036,"is_reserved":false,"is_disabled":false,"rental_uris":{"android":"levelo://app?vid=cf2b14df-624f-4874-a035-fbf497ed7ded","ios":"levelo://app?vid=cf2b14df-624f-4874-a035-fbf497ed7ded"},"vehicle_type_id":"4","last_reported":1732105081,"current_range_meters":38800,"station_id":"ce4bgup2rcd13ifvqco0","pricing_plan_id":"cebpf4jnsgd1na2vs0mg"},{"bike_id":"b21da081-9879-40dd-84c5-23f42e6f5e53","system_id":"levelo_inurba_marseille","lat":43.27948,"lon":5.41049,"is_reserved":false,"is_disabled":true,"rental_uris":{"android":"levelo://app?vid=b21da081-9879-40dd-84c5-23f42e6f5e53","ios":"levelo://app?vid=b21da081-9879-40dd-84c5-23f42e6f5e53"},"vehicle_type_id":"4","last_reported":1732105081,"current_range_meters":12800,"station_id":"ce4bhnp2rcd13ifvqh0g","pricing_plan_id":"cebpf4jnsgd1na2vs0mg"},{"bike_id":"c9c0886d-6933-4753-9864-998e063335cf","system_id":"levelo_inurba_marseille","lat":43.25004,"lon":5.38934,"is_reserved":false,"is_disabled":true,"rental_uris":{"android":"levelo://app?vid=c9c0886d-6933-4753-9864-998e063335cf","ios":"levelo://app?vid=c9c0886d-6933-4753-9864-998e063335cf"},"vehicle_type_id":"4","last_reported":1732105081,"current_range_meters":38400,"station_id":"ce4bhgp2rcd13ifvqfd0","pricing_plan_id":"cebpf4jnsgd1na2vs0mg"},{"bike_id":"740ae0f4-690e-4909-a4ab-8443a16c90b8","system_id":"levelo_inurba_marseille","lat":43.28029,"lon":5.36958,"is_reserved":false,"is_disabled":false,"rental_uris":{"android":"levelo://app?vid=740ae0f4-690e-4909-a4ab-8443a16c90b8","ios":"levelo://app?vid=740ae0f4-690e-4909-a4ab-8443a16c90b8"},"vehicle_type_id":"4","last_reported":1732105081,"current_range_meters":38800,"station_id":"ce4bha12rcd13ifvqef0","pricing_plan_id":"cebpf4jnsgd1na2vs0mg"},{"bike_id":"ad065e1b-a695-4ca7-9c8e-fe7c98272c45","system_id":"levelo_inurba_marseille","lat":43.28041,"lon":5.36947,"is_reserved":false,"is_disabled":false,"rental_uris":{"android":"levelo://app?vid=ad065e1b-a695-4ca7-9c8e-fe7c98272c45","ios":"levelo://app?vid=ad065e1b-a695-4ca7-9c8e-fe7c98272c45"},"vehicle_type_id":"4","last_reported":1732105081,"current_range_meters":38400,"station_id":"ce4bha12rcd13ifvqef0","pricing_plan_id":"cebpf4jnsgd1na2vs0mg"},{"bike_id":"81d34042-a037-42c7-9436-1187b5706698","system_id":"levelo_inurba_marseille","lat":43.3102,"lon":5.40299,"is_reserved":false,"is_disabled":false,"rental_uris":{"android":"levelo://app?vid=81d34042-a037-42c7-9436-1187b5706698","ios":"levelo://app?vid=81d34042-a037-42c7-9436-1187b5706698"},"vehicle_type_id":"4","last_reported":1732105081,"current_range_meters":17600,"station_id":"","pricing_plan_id":"cebpf4jnsgd1na2vs0mg"},{"bike_id":"beab6fbf-c410-445e-ac19-e4db447e6dba","system_id":"levelo_inurba_marseille","lat":43.25027,"lon":5.38074,"is_reserved":false,"is_disabled":true,"rental_uris":{"android":"levelo://app?vid=beab6fbf-c410-445e-ac19-e4db447e6dba","ios":"levelo://app?vid=beab6fbf-c410-445e-ac19-e4db447e6dba"},"vehicle_type_id":"4","last_reported":1732105081,"current_range_meters":28400,"station_id":"","pricing_plan_id":"cebpf4jnsgd1na2vs0mg"},{"bike_id":"7273661f-52fe-4857-8bbf-02fc068dfa84","system_id":"levelo_inurba_marseille","lat":43.28928,"lon":5.38385,"is_reserved":false,"is_disabled":false,"rental_uris":{"android":"levelo://app?vid=7273661f-52fe-4857-8bbf-02fc068dfa84","ios":"levelo://app?vid=7273661f-52fe-4857-8bbf-02fc068dfa84"},"vehicle_type_id":"4","last_reported":1732105081,"current_range_meters":30800,"station_id":"ce4bh612rcd13ifvqe6g","pricing_plan_id":"cebpf4jnsgd1na2vs0mg"},{"bike_id":"84d4df27-2b97-423b-bf7d-6029ee544425","system_id":"levelo_inurba_marseille","lat":43.32476,"lon":5.36562,"is_reserved":false,"is_disabled":false,"rental_uris":{"android":"levelo://app?vid=84d4df27-2b97-423b-bf7d-6029ee544425","ios":"levelo://app?vid=84d4df27-2b97-423b-bf7d-6029ee544425"},"vehicle_type_id":"4","last_reported":1732105081,"current_range_meters":39200,"station_id":"ce4bhs12rcd13ifvqhvg","pricing_plan_id":"cebpf4jnsgd1na2vs0mg"},{"bike_id":"634c2ce9-823c-4db7-af8c-d2225e008126","system_id":"levelo_inurba_marseille","lat":43.30235,"lon":5.40045,"is_reserved":false,"is_disabled":false,"rental_uris":{"android":"levelo://app?vid=634c2ce9-823c-4db7-af8c-d2225e008126","ios":"levelo://app?vid=634c2ce9-823c-4db7-af8c-d2225e008126"},"vehicle_type_id":"4","last_reported":1732105081,"current_range_meters":38400,"station_id":"ce4bgvh2rcd13ifvqcs0","pricing_plan_id":"cebpf4jnsgd1na2vs0mg"},{"bike_id":"83a0bcec-55e4-493a-af67-0ea7e0a8a0d7","system_id":"levelo_inurba_marseille","lat":43.28669,"lon":5.3867,"is_reserved":false,"is_disabled":false,"rental_uris":{"android":"levelo://app?vid=83a0bcec-55e4-493a-af67-0ea7e0a8a0d7","ios":"levelo://app?vid=83a0bcec-55e4-493a-af67-0ea7e0a8a0d7"},"vehicle_type_id":"4","last_reported":1732105081,"current_range_meters":2800,"station_id":"ce4bh492rcd13ifvqdug","pricing_plan_id":"cebpf4jnsgd1na2vs0mg"},{"bike_id":"c927b74d-29b7-42c1-8253-95810c18b6dc","system_id":"levelo_inurba_marseille","lat":43.25928,"lon":5.40905,"is_reserved":false,"is_disabled":true,"rental_uris":{"android":"levelo://app?vid=c927b74d-29b7-42c1-8253-95810c18b6dc","ios":"levelo://app?vid=c927b74d-29b7-42c1-8253-95810c18b6dc"},"vehicle_type_id":"4","last_reported":1732105081,"current_range_meters":33200,"station_id":"ce4bhm92rcd13ifvqglg","pricing_plan_id":"cebpf4jnsgd1na2vs0mg"},{"bike_id":"2d8d0a7f-9e9f-4593-a77a-a1728d392da5","system_id":"levelo_inurba_marseille","lat":43.32653,"lon":5.40996,"is_reserved":false,"is_disabled":false,"rental_uris":{"android":"levelo://app?vid=2d8d0a7f-9e9f-4593-a77a-a1728d392da5","ios":"levelo://app?vid=2d8d0a7f-9e9f-4593-a77a-a1728d392da5"},"vehicle_type_id":"4","last_reported":1732105081,"current_range_meters":20000,"station_id":"ce4bhpp2rcd13ifvqhgg","pricing_plan_id":"cebpf4jnsgd1na2vs0mg"},{"bike_id":"887415dd-5e2e-4fc8-a0cb-d1e8a6d86ef5","system_id":"levelo_inurba_marseille","lat":43.32657,"lon":5.40995,"is_reserved":false,"is_disabled":false,"rental_uris":{"android":"levelo://app?vid=887415dd-5e2e-4fc8-a0cb-d1e8a6d86ef5","ios":"levelo://app?vid=887415dd-5e2e-4fc8-a0cb-d1e8a6d86ef5"},"vehicle_type_id":"4","last_reported":1732105081,"current_range_meters":38800,"station_id":"ce4bhpp2rcd13ifvqhgg","pricing_plan_id":"cebpf4jnsgd1na2vs0mg"},{"bike_id":"1cb797b5-4856-4e1e-9f22-d756158931ad","system_id":"levelo_inurba_marseille","lat":43.30129,"lon":5.39866,"is_reserved":false,"is_disabled":true,"rental_uris":{"android":"levelo://app?vid=1cb797b5-4856-4e1e-9f22-d756158931ad","ios":"levelo://app?vid=1cb797b5-4856-4e1e-9f22-d756158931ad"},"vehicle_type_id":"4","last_reported":1732105081,"current_range_meters":36000,"station_id":"ce4bh0h2rcd13ifvqd40","pricing_plan_id":"cebpf4jnsgd1na2vs0mg"},{"bike_id":"cd3c4b1e-8c00-4360-85b9-156a2c6811b0","system_id":"levelo_inurba_marseille","lat":43.3136,"lon":5.38489,"is_reserved":false,"is_disabled":false,"rental_uris":{"android":"levelo://app?vid=cd3c4b1e-8c00-4360-85b9-156a2c6811b0","ios":"levelo://app?vid=cd3c4b1e-8c00-4360-85b9-156a2c6811b0"},"vehicle_type_id":"4","last_reported":1732105081,"current_range_meters":38800,"station_id":"ce4bgt92rcd13ifvqcf0","pricing_plan_id":"cebpf4jnsgd1na2vs0mg"},{"bike_id":"0ea93326-5034-4b5e-97b8-0a33b4d38611","system_id":"levelo_inurba_marseille","lat":43.30152,"lon":5.38103,"is_reserved":false,"is_disabled":true,"rental_uris":{"android":"levelo://app?vid=0ea93326-5034-4b5e-97b8-0a33b4d38611","ios":"levelo://app?vid=0ea93326-5034-4b5e-97b8-0a33b4d38611"},"vehicle_type_id":"4","last_reported":1732105081,"current_range_meters":0,"station_id":"","pricing_plan_id":"cebpf4jnsgd1na2vs0mg"},{"bike_id":"4f13bb01-ca73-4886-b605-ebaf666e4c70","system_id":"levelo_inurba_marseille","lat":43.28458,"lon":5.37838,"is_reserved":false,"is_disabled":false,"rental_uris":{"android":"levelo://app?vid=4f13bb01-ca73-4886-b605-ebaf666e4c70","ios":"levelo://app?vid=4f13bb01-ca73-4886-b605-ebaf666e4c70"},"vehicle_type_id":"4","last_reported":1732105081,"current_range_meters":28000,"station_id":"ce4bha12rcd13ifvqee0","pricing_plan_id":"cebpf4jnsgd1na2vs0mg"},{"bike_id":"c81dbd26-21d6-4794-b4fd-f4ccaee08f98","system_id":"levelo_inurba_marseille","lat":43.29933,"lon":5.36555,"is_reserved":false,"is_disabled":false,"rental_uris":{"android":"levelo://app?vid=c81dbd26-21d6-4794-b4fd-f4ccaee08f98","ios":"levelo://app?vid=c81dbd26-21d6-4794-b4fd-f4ccaee08f98"},"vehicle_type_id":"4","last_reported":1732105081,"current_range_meters":34000,"station_id":"ce4bgm92rcd13ifvqbr0","pricing_plan_id":"cebpf4jnsgd1na2vs0mg"},{"bike_id":"19b726e0-77db-43f4-ad7f-422032e9811f","system_id":"levelo_inurba_marseille","lat":43.29027,"lon":5.38648,"is_reserved":false,"is_disabled":true,"rental_uris":{"android":"levelo://app?vid=19b726e0-77db-43f4-ad7f-422032e9811f","ios":"levelo://app?vid=19b726e0-77db-43f4-ad7f-422032e9811f"},"vehicle_type_id":"4","last_reported":1732105081,"current_range_meters":22000,"station_id":"ce4bh4p2rcd13ifvqe0g","pricing_plan_id":"cebpf4jnsgd1na2vs0mg"},{"bike_id":"1bc822dd-2984-45cc-aaeb-bb88f56c344d","system_id":"levelo_inurba_marseille","lat":43.23177,"lon":5.39989,"is_reserved":false,"is_disabled":false,"rental_uris":{"android":"levelo://app?vid=1bc822dd-2984-45cc-aaeb-bb88f56c344d","ios":"levelo://app?vid=1bc822dd-2984-45cc-aaeb-bb88f56c344d"},"vehicle_type_id":"4","last_reported":1732105081,"current_range_meters":38400,"station_id":"ce4bhn12rcd13ifvqgqg","pricing_plan_id":"cebpf4jnsgd1na2vs0mg"},{"bike_id":"837d9479-5470-46d1-8a03-bdf27063ea4e","system_id":"levelo_inurba_marseille","lat":43.30538,"lon":5.36563,"is_reserved":false,"is_disabled":false,"rental_uris":{"android":"levelo://app?vid=837d9479-5470-46d1-8a03-bdf27063ea4e","ios":"levelo://app?vid=837d9479-5470-46d1-8a03-bdf27063ea4e"},"vehicle_type_id":"4","last_reported":1732105081,"current_range_meters":26800,"station_id":"ce4bgs12rcd13ifvqcag","pricing_plan_id":"cebpf4jnsgd1na2vs0mg"},{"bike_id":"123b7649-411d-495b-95bb-d79f349cc62b","system_id":"levelo_inurba_marseille","lat":43.30804,"lon":5.43526,"is_reserved":false,"is_disabled":false,"rental_uris":{"android":"levelo://app?vid=123b7649-411d-495b-95bb-d79f349cc62b","ios":"levelo://app?vid=123b7649-411d-495b-95bb-d79f349cc62b"},"vehicle_type_id":"4","last_reported":1732105081,"current_range_meters":30800,"station_id":"ce4bhph2rcd13ifvqheg","pricing_plan_id":"cebpf4jnsgd1na2vs0mg"},{"bike_id":"dbe74249-58cd-403e-a63d-5e0a1c17b552","system_id":"levelo_inurba_marseille","lat":43.24655,"lon":5.38156,"is_reserved":false,"is_disabled":true,"rental_uris":{"android":"levelo://app?vid=dbe74249-58cd-403e-a63d-5e0a1c17b552","ios":"levelo://app?vid=dbe74249-58cd-403e-a63d-5e0a1c17b552"},"vehicle_type_id":"4","last_reported":1732105081,"current_range_meters":0,"station_id":"","pricing_plan_id":"cebpf4jnsgd1na2vs0mg"},{"bike_id":"e4624f32-fae1-428f-a986-44f323453b9a","system_id":"levelo_inurba_marseille","lat":43.29561,"lon":5.42273,"is_reserved":false,"is_disabled":false,"rental_uris":{"android":"levelo://app?vid=e4624f32-fae1-428f-a986-44f323453b9a","ios":"levelo://app?vid=e4624f32-fae1-428f-a986-44f323453b9a"},"vehicle_type_id":"4","last_reported":1732105081,"current_range_meters":32000,"station_id":"ce4bhph2rcd13ifvqhdg","pricing_plan_id":"cebpf4jnsgd1na2vs0mg"},{"bike_id":"c856e729-2063-41ef-bd6b-84efb18c43f5","system_id":"levelo_inurba_marseille","lat":43.25084,"lon":5.39512,"is_reserved":false,"is_disabled":false,"rental_uris":{"android":"levelo://app?vid=c856e729-2063-41ef-bd6b-84efb18c43f5","ios":"levelo://app?vid=c856e729-2063-41ef-bd6b-84efb18c43f5"},"vehicle_type_id":"4","last_reported":1732105081,"current_range_meters":12400,"station_id":"ce4bhm12rcd13ifvqgkg","pricing_plan_id":"cebpf4jnsgd1na2vs0mg"},{"bike_id":"1424f8c1-984e-4d56-b700-0f6f90247804","system_id":"levelo_inurba_marseille","lat":43.28366,"lon":5.38635,"is_reserved":false,"is_disabled":false,"rental_uris":{"android":"levelo://app?vid=1424f8c1-984e-4d56-b700-0f6f90247804","ios":"levelo://app?vid=1424f8c1-984e-4d56-b700-0f6f90247804"},"vehicle_type_id":"4","last_reported":1732105081,"current_range_meters":26000,"station_id":"ce4bh492rcd13ifvqdvg","pricing_plan_id":"cebpf4jnsgd1na2vs0mg"},{"bike_id":"dfb656ce-a952-4232-be58-58af15a24d97","system_id":"levelo_inurba_marseille","lat":43.23146,"lon":5.43713,"is_reserved":false,"is_disabled":false,"rental_uris":{"android":"levelo://app?vid=dfb656ce-a952-4232-be58-58af15a24d97","ios":"levelo://app?vid=dfb656ce-a952-4232-be58-58af15a24d97"},"vehicle_type_id":"4","last_reported":1732105081,"current_range_meters":20400,"station_id":"ce4bhmp2rcd13ifvqgog","pricing_plan_id":"cebpf4jnsgd1na2vs0mg"},{"bike_id":"5c3000a0-a190-4007-a723-aa2707fd1ce3","system_id":"levelo_inurba_marseille","lat":43.22915,"lon":5.35401,"is_reserved":false,"is_disabled":false,"rental_uris":{"android":"levelo://app?vid=5c3000a0-a190-4007-a723-aa2707fd1ce3","ios":"levelo://app?vid=5c3000a0-a190-4007-a723-aa2707fd1ce3"},"vehicle_type_id":"4","last_reported":1732105081,"current_range_meters":38800,"station_id":"cpo3532slgdg3j2ikp40","pricing_plan_id":"cebpf4jnsgd1na2vs0mg"},{"bike_id":"07dfa307-72b1-4fd3-aaec-cc158bba164b","system_id":"levelo_inurba_marseille","lat":43.31912,"lon":5.37443,"is_reserved":false,"is_disabled":false,"rental_uris":{"android":"levelo://app?vid=07dfa307-72b1-4fd3-aaec-cc158bba164b","ios":"levelo://app?vid=07dfa307-72b1-4fd3-aaec-cc158bba164b"},"vehicle_type_id":"4","last_reported":1732105081,"current_range_meters":38400,"station_id":"","pricing_plan_id":"cebpf4jnsgd1na2vs0mg"},{"bike_id":"80c97958-4d55-4d04-b0ef-a5b1a09d0125","system_id":"levelo_inurba_marseille","lat":43.31366,"lon":5.36698,"is_reserved":false,"is_disabled":false,"rental_uris":{"android":"levelo://app?vid=80c97958-4d55-4d04-b0ef-a5b1a09d0125","ios":"levelo://app?vid=80c97958-4d55-4d04-b0ef-a5b1a09d0125"},"vehicle_type_id":"4","last_reported":1732105081,"current_range_meters":25200,"station_id":"ce4bgr92rcd13ifvqc6g","pricing_plan_id":"cebpf4jnsgd1na2vs0mg"},{"bike_id":"ec51f7ad-0861-4585-8f3f-3cbf119f2ea1","system_id":"levelo_inurba_marseille","lat":43.28577,"lon":5.39543,"is_reserved":false,"is_disabled":true,"rental_uris":{"android":"levelo://app?vid=ec51f7ad-0861-4585-8f3f-3cbf119f2ea1","ios":"levelo://app?vid=ec51f7ad-0861-4585-8f3f-3cbf119f2ea1"},"vehicle_type_id":"4","last_reported":1732105081,"current_range_meters":400,"station_id":"ce4bh292rcd13ifvqdg0","pricing_plan_id":"cebpf4jnsgd1na2vs0mg"},{"bike_id":"94c0b76e-9db8-468e-ab71-cb010030db6b","system_id":"levelo_inurba_marseille","lat":43.30589,"lon":5.39363,"is_reserved":false,"is_disabled":false,"rental_uris":{"android":"levelo://app?vid=94c0b76e-9db8-468e-ab71-cb010030db6b","ios":"levelo://app?vid=94c0b76e-9db8-468e-ab71-cb010030db6b"},"vehicle_type_id":"4","last_reported":1732105081,"current_range_meters":9600,"station_id":"ce4bh0p2rcd13ifvqd80","pricing_plan_id":"cebpf4jnsgd1na2vs0mg"},{"bike_id":"ee2c1471-927f-47bd-9306-c798c41b58b5","system_id":"levelo_inurba_marseille","lat":43.30533,"lon":5.36706,"is_reserved":false,"is_disabled":false,"rental_uris":{"android":"levelo://app?vid=ee2c1471-927f-47bd-9306-c798c41b58b5","ios":"levelo://app?vid=ee2c1471-927f-47bd-9306-c798c41b58b5"},"vehicle_type_id":"4","last_reported":1732105081,"current_range_meters":18800,"station_id":"ce4bgrp2rcd13ifvqc9g","pricing_plan_id":"cebpf4jnsgd1na2vs0mg"},{"bike_id":"a1268cd6-3fef-4d8d-a3c3-f2c3e15b42cc","system_id":"levelo_inurba_marseille","lat":43.2984,"lon":5.36267,"is_reserved":false,"is_disabled":false,"rental_uris":{"android":"levelo://app?vid=a1268cd6-3fef-4d8d-a3c3-f2c3e15b42cc","ios":"levelo://app?vid=a1268cd6-3fef-4d8d-a3c3-f2c3e15b42cc"},"vehicle_type_id":"4","last_reported":1732105081,"current_range_meters":24000,"station_id":"ce4bgpp2rcd13ifvqc3g","pricing_plan_id":"cebpf4jnsgd1na2vs0mg"},{"bike_id":"3a698a5b-c28d-41bd-a952-684ab6cd36fd","system_id":"levelo_inurba_marseille","lat":43.28036,"lon":5.36948,"is_reserved":false,"is_disabled":false,"rental_uris":{"android":"levelo://app?vid=3a698a5b-c28d-41bd-a952-684ab6cd36fd","ios":"levelo://app?vid=3a698a5b-c28d-41bd-a952-684ab6cd36fd"},"vehicle_type_id":"4","last_reported":1732105081,"current_range_meters":25600,"station_id":"ce4bha12rcd13ifvqef0","pricing_plan_id":"cebpf4jnsgd1na2vs0mg"},{"bike_id":"1cd0daee-d68a-4e66-9883-fbe67fd8260f","system_id":"levelo_inurba_marseille","lat":43.30604,"lon":5.37234,"is_reserved":false,"is_disabled":true,"rental_uris":{"android":"levelo://app?vid=1cd0daee-d68a-4e66-9883-fbe67fd8260f","ios":"levelo://app?vid=1cd0daee-d68a-4e66-9883-fbe67fd8260f"},"vehicle_type_id":"4","last_reported":1732105081,"current_range_meters":0,"station_id":"ce4bgqh2rcd13ifvqc4g","pricing_plan_id":"cebpf4jnsgd1na2vs0mg"},{"bike_id":"323f8ada-1479-4782-9eeb-af80cb01ce8c","system_id":"levelo_inurba_marseille","lat":43.31994,"lon":5.3816,"is_reserved":false,"is_disabled":false,"rental_uris":{"android":"levelo://app?vid=323f8ada-1479-4782-9eeb-af80cb01ce8c","ios":"levelo://app?vid=323f8ada-1479-4782-9eeb-af80cb01ce8c"},"vehicle_type_id":"4","last_reported":1732105081,"current_range_meters":22000,"station_id":"ce4bhr12rcd13ifvqhpg","pricing_plan_id":"cebpf4jnsgd1na2vs0mg"},{"bike_id":"772ce743-8958-4198-b3ba-b6e0d96fa296","system_id":"levelo_inurba_marseille","lat":43.24168,"lon":5.36404,"is_reserved":false,"is_disabled":false,"rental_uris":{"android":"levelo://app?vid=772ce743-8958-4198-b3ba-b6e0d96fa296","ios":"levelo://app?vid=772ce743-8958-4198-b3ba-b6e0d96fa296"},"vehicle_type_id":"4","last_reported":1732105081,"current_range_meters":10800,"station_id":"cpo36qri1sfpv3e86is0","pricing_plan_id":"cebpf4jnsgd1na2vs0mg"},{"bike_id":"fdd9bebd-5af7-4b1b-b56c-054db0f52031","system_id":"levelo_inurba_marseille","lat":43.29533,"lon":5.37487,"is_reserved":false,"is_disabled":true,"rental_uris":{"android":"levelo://app?vid=fdd9bebd-5af7-4b1b-b56c-054db0f52031","ios":"levelo://app?vid=fdd9bebd-5af7-4b1b-b56c-054db0f52031"},"vehicle_type_id":"4","last_reported":1732105081,"current_range_meters":800,"station_id":"ce4bgkp2rcd13ifvqbmg","pricing_plan_id":"cebpf4jnsgd1na2vs0mg"},{"bike_id":"597cb1c5-c680-49ef-9a1a-84a53b157037","system_id":"levelo_inurba_marseille","lat":43.32369,"lon":5.38894,"is_reserved":false,"is_disabled":false,"rental_uris":{"android":"levelo://app?vid=597cb1c5-c680-49ef-9a1a-84a53b157037","ios":"levelo://app?vid=597cb1c5-c680-49ef-9a1a-84a53b157037"},"vehicle_type_id":"4","last_reported":1732105081,"current_range_meters":22400,"station_id":"ce4bhqp2rcd13ifvqhog","pricing_plan_id":"cebpf4jnsgd1na2vs0mg"},{"bike_id":"3b1d62f8-a2e9-40bf-864e-d3ff5d8aeef2","system_id":"levelo_inurba_marseille","lat":43.2707,"lon":5.4228,"is_reserved":false,"is_disabled":false,"rental_uris":{"android":"levelo://app?vid=3b1d62f8-a2e9-40bf-864e-d3ff5d8aeef2","ios":"levelo://app?vid=3b1d62f8-a2e9-40bf-864e-d3ff5d8aeef2"},"vehicle_type_id":"4","last_reported":1732105081,"current_range_meters":38800,"station_id":"ce4bhk92rcd13ifvqgb0","pricing_plan_id":"cebpf4jnsgd1na2vs0mg"},{"bike_id":"eeb3226e-788c-43ec-9c5e-af5a3517eafd","system_id":"levelo_inurba_marseille","lat":43.24534,"lon":5.41247,"is_reserved":false,"is_disabled":false,"rental_uris":{"android":"levelo://app?vid=eeb3226e-788c-43ec-9c5e-af5a3517eafd","ios":"levelo://app?vid=eeb3226e-788c-43ec-9c5e-af5a3517eafd"},"vehicle_type_id":"4","last_reported":1732105081,"current_range_meters":24800,"station_id":"","pricing_plan_id":"cebpf4jnsgd1na2vs0mg"},{"bike_id":"e3511c0c-eb2b-4100-bb2d-c5ebcd644bea","system_id":"levelo_inurba_marseille","lat":43.23951,"lon":5.36639,"is_reserved":false,"is_disabled":false,"rental_uris":{"android":"levelo://app?vid=e3511c0c-eb2b-4100-bb2d-c5ebcd644bea","ios":"levelo://app?vid=e3511c0c-eb2b-4100-bb2d-c5ebcd644bea"},"vehicle_type_id":"4","last_reported":1732105081,"current_range_meters":30400,"station_id":"ce4bhi12rcd13ifvqfp0","pricing_plan_id":"cebpf4jnsgd1na2vs0mg"},{"bike_id":"aa3d19da-77a0-4e6d-965d-eb61bb7b10d4","system_id":"levelo_inurba_marseille","lat":43.2972,"lon":5.37697,"is_reserved":false,"is_disabled":false,"rental_uris":{"android":"levelo://app?vid=aa3d19da-77a0-4e6d-965d-eb61bb7b10d4","ios":"levelo://app?vid=aa3d19da-77a0-4e6d-965d-eb61bb7b10d4"},"vehicle_type_id":"4","last_reported":1732105081,"current_range_meters":30800,"station_id":"ce4bgkh2rcd13ifvqbl0","pricing_plan_id":"cebpf4jnsgd1na2vs0mg"},{"bike_id":"b6097092-fb5d-4474-b587-3de684e96597","system_id":"levelo_inurba_marseille","lat":43.29847,"lon":5.39717,"is_reserved":false,"is_disabled":false,"rental_uris":{"android":"levelo://app?vid=b6097092-fb5d-4474-b587-3de684e96597","ios":"levelo://app?vid=b6097092-fb5d-4474-b587-3de684e96597"},"vehicle_type_id":"4","last_reported":1732105081,"current_range_meters":35200,"station_id":"ce4bh0h2rcd13ifvqd50","pricing_plan_id":"cebpf4jnsgd1na2vs0mg"},{"bike_id":"0b638473-1411-434e-9d66-cbfde13ae8a3","system_id":"levelo_inurba_marseille","lat":43.29942,"lon":5.36542,"is_reserved":false,"is_disabled":false,"rental_uris":{"android":"levelo://app?vid=0b638473-1411-434e-9d66-cbfde13ae8a3","ios":"levelo://app?vid=0b638473-1411-434e-9d66-cbfde13ae8a3"},"vehicle_type_id":"4","last_reported":1732105081,"current_range_meters":28400,"station_id":"ce4bgm92rcd13ifvqbr0","pricing_plan_id":"cebpf4jnsgd1na2vs0mg"},{"bike_id":"1f5f269a-fac0-4b65-81d0-4ad9a7d993c1","system_id":"levelo_inurba_marseille","lat":43.320404,"lon":5.415281,"is_reserved":false,"is_disabled":false,"rental_uris":{"android":"levelo://app?vid=1f5f269a-fac0-4b65-81d0-4ad9a7d993c1","ios":"levelo://app?vid=1f5f269a-fac0-4b65-81d0-4ad9a7d993c1"},"vehicle_type_id":"4","last_reported":1732105081,"current_range_meters":34000,"station_id":"ce4bhq92rcd13ifvqhkg","pricing_plan_id":"cebpf4jnsgd1na2vs0mg"},{"bike_id":"2d432598-efb1-4ea4-b408-58c9aa361e25","system_id":"levelo_inurba_marseille","lat":43.29966,"lon":5.38498,"is_reserved":false,"is_disabled":false,"rental_uris":{"android":"levelo://app?vid=2d432598-efb1-4ea4-b408-58c9aa361e25","ios":"levelo://app?vid=2d432598-efb1-4ea4-b408-58c9aa361e25"},"vehicle_type_id":"4","last_reported":1732105081,"current_range_meters":29600,"station_id":"ce4bgj92rcd13ifvqbd0","pricing_plan_id":"cebpf4jnsgd1na2vs0mg"},{"bike_id":"57ec9743-90b9-4412-ac6c-aa4a5b7316d8","system_id":"levelo_inurba_marseille","lat":43.29965,"lon":5.38495,"is_reserved":false,"is_disabled":true,"rental_uris":{"android":"levelo://app?vid=57ec9743-90b9-4412-ac6c-aa4a5b7316d8","ios":"levelo://app?vid=57ec9743-90b9-4412-ac6c-aa4a5b7316d8"},"vehicle_type_id":"4","last_reported":1732105081,"current_range_meters":400,"station_id":"ce4bgj92rcd13ifvqbd0","pricing_plan_id":"cebpf4jnsgd1na2vs0mg"},{"bike_id":"c7c133c2-0a8d-40a8-9b43-d3bc14e56bef","system_id":"levelo_inurba_marseille","lat":43.27569,"lon":5.38423,"is_reserved":false,"is_disabled":true,"rental_uris":{"android":"levelo://app?vid=c7c133c2-0a8d-40a8-9b43-d3bc14e56bef","ios":"levelo://app?vid=c7c133c2-0a8d-40a8-9b43-d3bc14e56bef"},"vehicle_type_id":"4","last_reported":1732105081,"current_range_meters":1200,"station_id":"ce4bhh92rcd13ifvqfi0","pricing_plan_id":"cebpf4jnsgd1na2vs0mg"},{"bike_id":"9dca6eee-44cb-49e6-9031-9b11543291c1","system_id":"levelo_inurba_marseille","lat":43.2572,"lon":5.41118,"is_reserved":false,"is_disabled":false,"rental_uris":{"android":"levelo://app?vid=9dca6eee-44cb-49e6-9031-9b11543291c1","ios":"levelo://app?vid=9dca6eee-44cb-49e6-9031-9b11543291c1"},"vehicle_type_id":"4","last_reported":1732105081,"current_range_meters":13600,"station_id":"ce4bhkp2rcd13ifvqgd0","pricing_plan_id":"cebpf4jnsgd1na2vs0mg"},{"bike_id":"43deaf34-4371-406e-8947-35f8a699a8ac","system_id":"levelo_inurba_marseille","lat":43.28452,"lon":5.35894,"is_reserved":false,"is_disabled":false,"rental_uris":{"android":"levelo://app?vid=43deaf34-4371-406e-8947-35f8a699a8ac","ios":"levelo://app?vid=43deaf34-4371-406e-8947-35f8a699a8ac"},"vehicle_type_id":"4","last_reported":1732105081,"current_range_meters":19600,"station_id":"ce4bhah2rcd13ifvqei0","pricing_plan_id":"cebpf4jnsgd1na2vs0mg"},{"bike_id":"88f9ab07-2ae2-48dd-93d9-208c706ccab4","system_id":"levelo_inurba_marseille","lat":43.29279,"lon":5.40123,"is_reserved":false,"is_disabled":true,"rental_uris":{"android":"levelo://app?vid=88f9ab07-2ae2-48dd-93d9-208c706ccab4","ios":"levelo://app?vid=88f9ab07-2ae2-48dd-93d9-208c706ccab4"},"vehicle_type_id":"4","last_reported":1732105081,"current_range_meters":800,"station_id":"ce4bh312rcd13ifvqdk0","pricing_plan_id":"cebpf4jnsgd1na2vs0mg"},{"bike_id":"0dcd8cb5-6d23-418f-8621-d4558f7ce32b","system_id":"levelo_inurba_marseille","lat":43.28033,"lon":5.36944,"is_reserved":false,"is_disabled":false,"rental_uris":{"android":"levelo://app?vid=0dcd8cb5-6d23-418f-8621-d4558f7ce32b","ios":"levelo://app?vid=0dcd8cb5-6d23-418f-8621-d4558f7ce32b"},"vehicle_type_id":"4","last_reported":1732105081,"current_range_meters":8000,"station_id":"ce4bha12rcd13ifvqef0","pricing_plan_id":"cebpf4jnsgd1na2vs0mg"},{"bike_id":"0dc4a3bf-2fba-424f-bfdf-6329c2972485","system_id":"levelo_inurba_marseille","lat":43.26689,"lon":5.38282,"is_reserved":false,"is_disabled":false,"rental_uris":{"android":"levelo://app?vid=0dc4a3bf-2fba-424f-bfdf-6329c2972485","ios":"levelo://app?vid=0dc4a3bf-2fba-424f-bfdf-6329c2972485"},"vehicle_type_id":"4","last_reported":1732105081,"current_range_meters":25600,"station_id":"ce4bhg92rcd13ifvqf90","pricing_plan_id":"cebpf4jnsgd1na2vs0mg"},{"bike_id":"2b63e345-28e7-42bf-a8a6-8690ecf41eb8","system_id":"levelo_inurba_marseille","lat":43.27047,"lon":5.4026,"is_reserved":false,"is_disabled":true,"rental_uris":{"android":"levelo://app?vid=2b63e345-28e7-42bf-a8a6-8690ecf41eb8","ios":"levelo://app?vid=2b63e345-28e7-42bf-a8a6-8690ecf41eb8"},"vehicle_type_id":"4","last_reported":1732105081,"current_range_meters":0,"station_id":"ce4bhk92rcd13ifvqgc0","pricing_plan_id":"cebpf4jnsgd1na2vs0mg"},{"bike_id":"f5bb638a-7409-4711-9820-4d05cef04834","system_id":"levelo_inurba_marseille","lat":43.29503,"lon":5.37848,"is_reserved":false,"is_disabled":false,"rental_uris":{"android":"levelo://app?vid=f5bb638a-7409-4711-9820-4d05cef04834","ios":"levelo://app?vid=f5bb638a-7409-4711-9820-4d05cef04834"},"vehicle_type_id":"4","last_reported":1732105081,"current_range_meters":11600,"station_id":"","pricing_plan_id":"cebpf4jnsgd1na2vs0mg"},{"bike_id":"62f1cdfa-af3d-4381-9bc8-f58008292a3e","system_id":"levelo_inurba_marseille","lat":43.28683,"lon":5.4001,"is_reserved":false,"is_disabled":false,"rental_uris":{"android":"levelo://app?vid=62f1cdfa-af3d-4381-9bc8-f58008292a3e","ios":"levelo://app?vid=62f1cdfa-af3d-4381-9bc8-f58008292a3e"},"vehicle_type_id":"4","last_reported":1732105081,"current_range_meters":30800,"station_id":"ce4bho92rcd13ifvqh3g","pricing_plan_id":"cebpf4jnsgd1na2vs0mg"},{"bike_id":"d674a550-723f-4e20-a0c2-89aa344c2ade","system_id":"levelo_inurba_marseille","lat":43.28213,"lon":5.44387,"is_reserved":false,"is_disabled":true,"rental_uris":{"android":"levelo://app?vid=d674a550-723f-4e20-a0c2-89aa344c2ade","ios":"levelo://app?vid=d674a550-723f-4e20-a0c2-89aa344c2ade"},"vehicle_type_id":"4","last_reported":1732105081,"current_range_meters":0,"station_id":"","pricing_plan_id":"cebpf4jnsgd1na2vs0mg"},{"bike_id":"c9189744-fc44-4511-b823-e10e7c063f95","system_id":"levelo_inurba_marseille","lat":43.30458,"lon":5.379,"is_reserved":false,"is_disabled":false,"rental_uris":{"android":"levelo://app?vid=c9189744-fc44-4511-b823-e10e7c063f95","ios":"levelo://app?vid=c9189744-fc44-4511-b823-e10e7c063f95"},"vehicle_type_id":"4","last_reported":1732105081,"current_range_meters":7200,"station_id":"ce4bgup2rcd13ifvqcn0","pricing_plan_id":"cebpf4jnsgd1na2vs0mg"},{"bike_id":"6ff2b797-23e9-4a9c-8cd0-6471cc01eec6","system_id":"levelo_inurba_marseille","lat":43.25726,"lon":5.41112,"is_reserved":false,"is_disabled":true,"rental_uris":{"android":"levelo://app?vid=6ff2b797-23e9-4a9c-8cd0-6471cc01eec6","ios":"levelo://app?vid=6ff2b797-23e9-4a9c-8cd0-6471cc01eec6"},"vehicle_type_id":"4","last_reported":1732105081,"current_range_meters":30800,"station_id":"ce4bhkp2rcd13ifvqgd0","pricing_plan_id":"cebpf4jnsgd1na2vs0mg"},{"bike_id":"f5cf085e-8694-4c6f-ba9c-aa6e0d3c58c6","system_id":"levelo_inurba_marseille","lat":43.336633,"lon":5.35556,"is_reserved":false,"is_disabled":true,"rental_uris":{"android":"levelo://app?vid=f5cf085e-8694-4c6f-ba9c-aa6e0d3c58c6","ios":"levelo://app?vid=f5cf085e-8694-4c6f-ba9c-aa6e0d3c58c6"},"vehicle_type_id":"4","last_reported":1732105081,"current_range_meters":11600,"station_id":"","pricing_plan_id":"cebpf4jnsgd1na2vs0mg"},{"bike_id":"3d2beca7-eef0-4bae-98e1-8b3de347272c","system_id":"levelo_inurba_marseille","lat":43.23192,"lon":5.35554,"is_reserved":false,"is_disabled":false,"rental_uris":{"android":"levelo://app?vid=3d2beca7-eef0-4bae-98e1-8b3de347272c","ios":"levelo://app?vid=3d2beca7-eef0-4bae-98e1-8b3de347272c"},"vehicle_type_id":"4","last_reported":1732105081,"current_range_meters":38000,"station_id":"ce4bhu92rcd13ifvqi70","pricing_plan_id":"cebpf4jnsgd1na2vs0mg"},{"bike_id":"e283ccdf-f3b5-4c39-9833-f06603559bd6","system_id":"levelo_inurba_marseille","lat":43.2781,"lon":5.40719,"is_reserved":false,"is_disabled":false,"rental_uris":{"android":"levelo://app?vid=e283ccdf-f3b5-4c39-9833-f06603559bd6","ios":"levelo://app?vid=e283ccdf-f3b5-4c39-9833-f06603559bd6"},"vehicle_type_id":"4","last_reported":1732105081,"current_range_meters":18000,"station_id":"ce4bhnh2rcd13ifvqgtg","pricing_plan_id":"cebpf4jnsgd1na2vs0mg"},{"bike_id":"8936b6e9-b73e-463f-af9e-5bf873f7729a","system_id":"levelo_inurba_marseille","lat":43.31223,"lon":5.36861,"is_reserved":false,"is_disabled":false,"rental_uris":{"android":"levelo://app?vid=8936b6e9-b73e-463f-af9e-5bf873f7729a","ios":"levelo://app?vid=8936b6e9-b73e-463f-af9e-5bf873f7729a"},"vehicle_type_id":"4","last_reported":1732105081,"current_range_meters":23200,"station_id":"ce4bgl92rcd13ifvqbq0","pricing_plan_id":"cebpf4jnsgd1na2vs0mg"},{"bike_id":"e008ea5b-9c85-47a4-8557-75f660f9a13d","system_id":"levelo_inurba_marseille","lat":43.24389,"lon":5.37051,"is_reserved":false,"is_disabled":false,"rental_uris":{"android":"levelo://app?vid=e008ea5b-9c85-47a4-8557-75f660f9a13d","ios":"levelo://app?vid=e008ea5b-9c85-47a4-8557-75f660f9a13d"},"vehicle_type_id":"4","last_reported":1732105081,"current_range_meters":38800,"station_id":"ce4bhhh2rcd13ifvqfk0","pricing_plan_id":"cebpf4jnsgd1na2vs0mg"},{"bike_id":"e57590cc-a844-462b-b95c-023047b497c3","system_id":"levelo_inurba_marseille","lat":43.26024,"lon":5.37551,"is_reserved":false,"is_disabled":true,"rental_uris":{"android":"levelo://app?vid=e57590cc-a844-462b-b95c-023047b497c3","ios":"levelo://app?vid=e57590cc-a844-462b-b95c-023047b497c3"},"vehicle_type_id":"4","last_reported":1732105081,"current_range_meters":0,"station_id":"ce4bhgh2rcd13ifvqfa0","pricing_plan_id":"cebpf4jnsgd1na2vs0mg"},{"bike_id":"4bdced9e-5467-4452-8ad4-4164dcfe0455","system_id":"levelo_inurba_marseille","lat":43.28355,"lon":5.35014,"is_reserved":false,"is_disabled":false,"rental_uris":{"android":"levelo://app?vid=4bdced9e-5467-4452-8ad4-4164dcfe0455","ios":"levelo://app?vid=4bdced9e-5467-4452-8ad4-4164dcfe0455"},"vehicle_type_id":"4","last_reported":1732105081,"current_range_meters":30800,"station_id":"ce4bgi92rcd13ifvqb90","pricing_plan_id":"cebpf4jnsgd1na2vs0mg"},{"bike_id":"5c5471d0-269c-4340-9f49-f1fc68501512","system_id":"levelo_inurba_marseille","lat":43.30461,"lon":5.37913,"is_reserved":false,"is_disabled":false,"rental_uris":{"android":"levelo://app?vid=5c5471d0-269c-4340-9f49-f1fc68501512","ios":"levelo://app?vid=5c5471d0-269c-4340-9f49-f1fc68501512"},"vehicle_type_id":"4","last_reported":1732105081,"current_range_meters":34000,"station_id":"ce4bgup2rcd13ifvqcn0","pricing_plan_id":"cebpf4jnsgd1na2vs0mg"},{"bike_id":"554cf1e6-d864-43af-9eae-d2f5884086cb","system_id":"levelo_inurba_marseille","lat":43.29914,"lon":5.37472,"is_reserved":false,"is_disabled":false,"rental_uris":{"android":"levelo://app?vid=554cf1e6-d864-43af-9eae-d2f5884086cb","ios":"levelo://app?vid=554cf1e6-d864-43af-9eae-d2f5884086cb"},"vehicle_type_id":"4","last_reported":1732105081,"current_range_meters":38800,"station_id":"ce4bgjh2rcd13ifvqbg0","pricing_plan_id":"cebpf4jnsgd1na2vs0mg"},{"bike_id":"985d2807-5650-46e8-97ac-f6810dc62410","system_id":"levelo_inurba_marseille","lat":43.32535,"lon":5.41434,"is_reserved":false,"is_disabled":false,"rental_uris":{"android":"levelo://app?vid=985d2807-5650-46e8-97ac-f6810dc62410","ios":"levelo://app?vid=985d2807-5650-46e8-97ac-f6810dc62410"},"vehicle_type_id":"4","last_reported":1732105081,"current_range_meters":26000,"station_id":"ce4bhq12rcd13ifvqhhg","pricing_plan_id":"cebpf4jnsgd1na2vs0mg"},{"bike_id":"b3e6e4eb-72b2-402d-94cb-19679f24efb5","system_id":"levelo_inurba_marseille","lat":43.28394,"lon":5.3751,"is_reserved":false,"is_disabled":false,"rental_uris":{"android":"levelo://app?vid=b3e6e4eb-72b2-402d-94cb-19679f24efb5","ios":"levelo://app?vid=b3e6e4eb-72b2-402d-94cb-19679f24efb5"},"vehicle_type_id":"4","last_reported":1732105081,"current_range_meters":12000,"station_id":"ce4bh412rcd13ifvqds0","pricing_plan_id":"cebpf4jnsgd1na2vs0mg"},{"bike_id":"a53d5179-303f-4b0c-b63c-286f519ba35d","system_id":"levelo_inurba_marseille","lat":43.26944,"lon":5.38632,"is_reserved":false,"is_disabled":false,"rental_uris":{"android":"levelo://app?vid=a53d5179-303f-4b0c-b63c-286f519ba35d","ios":"levelo://app?vid=a53d5179-303f-4b0c-b63c-286f519ba35d"},"vehicle_type_id":"4","last_reported":1732105081,"current_range_meters":2800,"station_id":"ce4bhh92rcd13ifvqfh0","pricing_plan_id":"cebpf4jnsgd1na2vs0mg"},{"bike_id":"26b63fb5-6be1-4fc5-92e0-6030f516e096","system_id":"levelo_inurba_marseille","lat":43.31756,"lon":5.39019,"is_reserved":false,"is_disabled":false,"rental_uris":{"android":"levelo://app?vid=26b63fb5-6be1-4fc5-92e0-6030f516e096","ios":"levelo://app?vid=26b63fb5-6be1-4fc5-92e0-6030f516e096"},"vehicle_type_id":"4","last_reported":1732105081,"current_range_meters":16400,"station_id":"ce4bhqp2rcd13ifvqhng","pricing_plan_id":"cebpf4jnsgd1na2vs0mg"},{"bike_id":"d37cb7b9-0847-49fe-852a-c61eaf0e2196","system_id":"levelo_inurba_marseille","lat":43.29549,"lon":5.4228,"is_reserved":false,"is_disabled":false,"rental_uris":{"android":"levelo://app?vid=d37cb7b9-0847-49fe-852a-c61eaf0e2196","ios":"levelo://app?vid=d37cb7b9-0847-49fe-852a-c61eaf0e2196"},"vehicle_type_id":"4","last_reported":1732105081,"current_range_meters":38800,"station_id":"ce4bhph2rcd13ifvqhdg","pricing_plan_id":"cebpf4jnsgd1na2vs0mg"},{"bike_id":"c7ab6b73-fbed-4f6b-8740-33063728624e","system_id":"levelo_inurba_marseille","lat":43.29201,"lon":5.39323,"is_reserved":false,"is_disabled":false,"rental_uris":{"android":"levelo://app?vid=c7ab6b73-fbed-4f6b-8740-33063728624e","ios":"levelo://app?vid=c7ab6b73-fbed-4f6b-8740-33063728624e"},"vehicle_type_id":"4","last_reported":1732105081,"current_range_meters":12400,"station_id":"ce4bh192rcd13ifvqdd0","pricing_plan_id":"cebpf4jnsgd1na2vs0mg"},{"bike_id":"d3ef3091-549d-48f2-95f2-cf213e4174f4","system_id":"levelo_inurba_marseille","lat":43.25501,"lon":5.37652,"is_reserved":false,"is_disabled":false,"rental_uris":{"android":"levelo://app?vid=d3ef3091-549d-48f2-95f2-cf213e4174f4","ios":"levelo://app?vid=d3ef3091-549d-48f2-95f2-cf213e4174f4"},"vehicle_type_id":"4","last_reported":1732105081,"current_range_meters":38800,"station_id":"ce4bhh12rcd13ifvqff0","pricing_plan_id":"cebpf4jnsgd1na2vs0mg"},{"bike_id":"4e055ca4-1bd0-412d-8571-b1353e2c6b64","system_id":"levelo_inurba_marseille","lat":43.28457,"lon":5.35883,"is_reserved":false,"is_disabled":false,"rental_uris":{"android":"levelo://app?vid=4e055ca4-1bd0-412d-8571-b1353e2c6b64","ios":"levelo://app?vid=4e055ca4-1bd0-412d-8571-b1353e2c6b64"},"vehicle_type_id":"4","last_reported":1732105081,"current_range_meters":32800,"station_id":"ce4bhah2rcd13ifvqei0","pricing_plan_id":"cebpf4jnsgd1na2vs0mg"},{"bike_id":"b577db40-99a8-416c-97ee-c118609a215a","system_id":"levelo_inurba_marseille","lat":43.26034,"lon":5.3755,"is_reserved":false,"is_disabled":false,"rental_uris":{"android":"levelo://app?vid=b577db40-99a8-416c-97ee-c118609a215a","ios":"levelo://app?vid=b577db40-99a8-416c-97ee-c118609a215a"},"vehicle_type_id":"4","last_reported":1732105081,"current_range_meters":36000,"station_id":"","pricing_plan_id":"cebpf4jnsgd1na2vs0mg"},{"bike_id":"f31fd669-b56e-4cd4-a617-abb79ad4b803","system_id":"levelo_inurba_marseille","lat":43.2941,"lon":5.3861,"is_reserved":false,"is_disabled":false,"rental_uris":{"android":"levelo://app?vid=f31fd669-b56e-4cd4-a617-abb79ad4b803","ios":"levelo://app?vid=f31fd669-b56e-4cd4-a617-abb79ad4b803"},"vehicle_type_id":"4","last_reported":1732105081,"current_range_meters":20000,"station_id":"ce4bh2h2rcd13ifvqdh0","pricing_plan_id":"cebpf4jnsgd1na2vs0mg"},{"bike_id":"cdaafd2d-0da1-4fac-9881-15c66a7cd7c0","system_id":"levelo_inurba_marseille","lat":43.2315,"lon":5.43707,"is_reserved":false,"is_disabled":true,"rental_uris":{"android":"levelo://app?vid=cdaafd2d-0da1-4fac-9881-15c66a7cd7c0","ios":"levelo://app?vid=cdaafd2d-0da1-4fac-9881-15c66a7cd7c0"},"vehicle_type_id":"4","last_reported":1732105081,"current_range_meters":0,"station_id":"ce4bhmp2rcd13ifvqgog","pricing_plan_id":"cebpf4jnsgd1na2vs0mg"},{"bike_id":"571ebf17-9551-4693-af9a-d47668470fe6","system_id":"levelo_inurba_marseille","lat":43.32357,"lon":5.38877,"is_reserved":false,"is_disabled":false,"rental_uris":{"android":"levelo://app?vid=571ebf17-9551-4693-af9a-d47668470fe6","ios":"levelo://app?vid=571ebf17-9551-4693-af9a-d47668470fe6"},"vehicle_type_id":"4","last_reported":1732105081,"current_range_meters":8800,"station_id":"ce4bhqp2rcd13ifvqhog","pricing_plan_id":"cebpf4jnsgd1na2vs0mg"},{"bike_id":"151ea067-14d1-432d-a994-9465d614138c","system_id":"levelo_inurba_marseille","lat":43.31364,"lon":5.38497,"is_reserved":false,"is_disabled":false,"rental_uris":{"android":"levelo://app?vid=151ea067-14d1-432d-a994-9465d614138c","ios":"levelo://app?vid=151ea067-14d1-432d-a994-9465d614138c"},"vehicle_type_id":"4","last_reported":1732105081,"current_range_meters":9600,"station_id":"ce4bgt92rcd13ifvqcf0","pricing_plan_id":"cebpf4jnsgd1na2vs0mg"},{"bike_id":"8d5ad0a8-268e-4afd-be61-7919f93826c7","system_id":"levelo_inurba_marseille","lat":43.29915,"lon":5.3748,"is_reserved":false,"is_disabled":true,"rental_uris":{"android":"levelo://app?vid=8d5ad0a8-268e-4afd-be61-7919f93826c7","ios":"levelo://app?vid=8d5ad0a8-268e-4afd-be61-7919f93826c7"},"vehicle_type_id":"4","last_reported":1732105081,"current_range_meters":37600,"station_id":"ce4bgjh2rcd13ifvqbg0","pricing_plan_id":"cebpf4jnsgd1na2vs0mg"},{"bike_id":"f198b97b-88d4-49aa-b205-4610520421a6","system_id":"levelo_inurba_marseille","lat":43.33026,"lon":5.39039,"is_reserved":false,"is_disabled":false,"rental_uris":{"android":"levelo://app?vid=f198b97b-88d4-49aa-b205-4610520421a6","ios":"levelo://app?vid=f198b97b-88d4-49aa-b205-4610520421a6"},"vehicle_type_id":"4","last_reported":1732105081,"current_range_meters":29600,"station_id":"ce4bhr92rcd13ifvqhrg","pricing_plan_id":"cebpf4jnsgd1na2vs0mg"},{"bike_id":"b7975300-ba63-480b-8a82-8c5a1cbb8034","system_id":"levelo_inurba_marseille","lat":43.30599,"lon":5.38202,"is_reserved":false,"is_disabled":false,"rental_uris":{"android":"levelo://app?vid=b7975300-ba63-480b-8a82-8c5a1cbb8034","ios":"levelo://app?vid=b7975300-ba63-480b-8a82-8c5a1cbb8034"},"vehicle_type_id":"4","last_reported":1732105081,"current_range_meters":28400,"station_id":"ce4bgup2rcd13ifvqco0","pricing_plan_id":"cebpf4jnsgd1na2vs0mg"},{"bike_id":"20231e00-bfca-448e-9021-13e01c2711d0","system_id":"levelo_inurba_marseille","lat":43.25862,"lon":5.39897,"is_reserved":false,"is_disabled":false,"rental_uris":{"android":"levelo://app?vid=20231e00-bfca-448e-9021-13e01c2711d0","ios":"levelo://app?vid=20231e00-bfca-448e-9021-13e01c2711d0"},"vehicle_type_id":"4","last_reported":1732105081,"current_range_meters":27200,"station_id":"ce4bhl92rcd13ifvqghg","pricing_plan_id":"cebpf4jnsgd1na2vs0mg"},{"bike_id":"4a9a7800-13f1-427a-9c81-000b981e4c98","system_id":"levelo_inurba_marseille","lat":43.27356,"lon":5.36255,"is_reserved":false,"is_disabled":true,"rental_uris":{"android":"levelo://app?vid=4a9a7800-13f1-427a-9c81-000b981e4c98","ios":"levelo://app?vid=4a9a7800-13f1-427a-9c81-000b981e4c98"},"vehicle_type_id":"4","last_reported":1732105081,"current_range_meters":800,"station_id":"ce4bhbh2rcd13ifvqeo0","pricing_plan_id":"cebpf4jnsgd1na2vs0mg"},{"bike_id":"6a9c3b42-bbed-4a17-9d21-9d400d11f331","system_id":"levelo_inurba_marseille","lat":43.32476,"lon":5.36565,"is_reserved":false,"is_disabled":false,"rental_uris":{"android":"levelo://app?vid=6a9c3b42-bbed-4a17-9d21-9d400d11f331","ios":"levelo://app?vid=6a9c3b42-bbed-4a17-9d21-9d400d11f331"},"vehicle_type_id":"4","last_reported":1732105081,"current_range_meters":38000,"station_id":"ce4bhs12rcd13ifvqhvg","pricing_plan_id":"cebpf4jnsgd1na2vs0mg"},{"bike_id":"d77e99d3-4473-4f3a-a588-d856cf1dc59a","system_id":"levelo_inurba_marseille","lat":43.29189,"lon":5.35779,"is_reserved":false,"is_disabled":true,"rental_uris":{"android":"levelo://app?vid=d77e99d3-4473-4f3a-a588-d856cf1dc59a","ios":"levelo://app?vid=d77e99d3-4473-4f3a-a588-d856cf1dc59a"},"vehicle_type_id":"4","last_reported":1732105081,"current_range_meters":0,"station_id":"ce4bhb12rcd13ifvqel0","pricing_plan_id":"cebpf4jnsgd1na2vs0mg"},{"bike_id":"7d3c1b57-5722-493d-af8a-36155bbf6d08","system_id":"levelo_inurba_marseille","lat":43.28453,"lon":5.35891,"is_reserved":false,"is_disabled":false,"rental_uris":{"android":"levelo://app?vid=7d3c1b57-5722-493d-af8a-36155bbf6d08","ios":"levelo://app?vid=7d3c1b57-5722-493d-af8a-36155bbf6d08"},"vehicle_type_id":"4","last_reported":1732105081,"current_range_meters":34000,"station_id":"ce4bhah2rcd13ifvqei0","pricing_plan_id":"cebpf4jnsgd1na2vs0mg"},{"bike_id":"cbfb4183-ee02-47d0-bec0-be09fe1d50db","system_id":"levelo_inurba_marseille","lat":43.28935,"lon":5.36638,"is_reserved":false,"is_disabled":false,"rental_uris":{"android":"levelo://app?vid=cbfb4183-ee02-47d0-bec0-be09fe1d50db","ios":"levelo://app?vid=cbfb4183-ee02-47d0-bec0-be09fe1d50db"},"vehicle_type_id":"4","last_reported":1732105081,"current_range_meters":9600,"station_id":"ce4bhap2rcd13ifvqek0","pricing_plan_id":"cebpf4jnsgd1na2vs0mg"},{"bike_id":"4bd268f3-b708-480d-b1f5-141d19aa9947","system_id":"levelo_inurba_marseille","lat":43.24473,"lon":5.37791,"is_reserved":false,"is_disabled":true,"rental_uris":{"android":"levelo://app?vid=4bd268f3-b708-480d-b1f5-141d19aa9947","ios":"levelo://app?vid=4bd268f3-b708-480d-b1f5-141d19aa9947"},"vehicle_type_id":"4","last_reported":1732105081,"current_range_meters":0,"station_id":"","pricing_plan_id":"cebpf4jnsgd1na2vs0mg"},{"bike_id":"c98bf22e-613a-4750-89e3-739b7a45ed45","system_id":"levelo_inurba_marseille","lat":43.31326,"lon":5.39693,"is_reserved":false,"is_disabled":false,"rental_uris":{"android":"levelo://app?vid=c98bf22e-613a-4750-89e3-739b7a45ed45","ios":"levelo://app?vid=c98bf22e-613a-4750-89e3-739b7a45ed45"},"vehicle_type_id":"4","last_reported":1732105081,"current_range_meters":37600,"station_id":"ce4bgvp2rcd13ifvqcu0","pricing_plan_id":"cebpf4jnsgd1na2vs0mg"},{"bike_id":"9b4d52a8-a22b-418c-a556-65afaca3a235","system_id":"levelo_inurba_marseille","lat":43.33754,"lon":5.37456,"is_reserved":false,"is_disabled":false,"rental_uris":{"android":"levelo://app?vid=9b4d52a8-a22b-418c-a556-65afaca3a235","ios":"levelo://app?vid=9b4d52a8-a22b-418c-a556-65afaca3a235"},"vehicle_type_id":"4","last_reported":1732105081,"current_range_meters":16800,"station_id":"","pricing_plan_id":"cebpf4jnsgd1na2vs0mg"},{"bike_id":"4a480100-024d-48c9-89da-2b1b4df99533","system_id":"levelo_inurba_marseille","lat":43.30139,"lon":5.37416,"is_reserved":false,"is_disabled":false,"rental_uris":{"android":"levelo://app?vid=4a480100-024d-48c9-89da-2b1b4df99533","ios":"levelo://app?vid=4a480100-024d-48c9-89da-2b1b4df99533"},"vehicle_type_id":"4","last_reported":1732105081,"current_range_meters":19600,"station_id":"ce4bgs92rcd13ifvqcc0","pricing_plan_id":"cebpf4jnsgd1na2vs0mg"},{"bike_id":"28013382-a13f-438d-a816-6c0d874cbecc","system_id":"levelo_inurba_marseille","lat":43.32654,"lon":5.40996,"is_reserved":false,"is_disabled":false,"rental_uris":{"android":"levelo://app?vid=28013382-a13f-438d-a816-6c0d874cbecc","ios":"levelo://app?vid=28013382-a13f-438d-a816-6c0d874cbecc"},"vehicle_type_id":"4","last_reported":1732105081,"current_range_meters":16000,"station_id":"ce4bhpp2rcd13ifvqhgg","pricing_plan_id":"cebpf4jnsgd1na2vs0mg"},{"bike_id":"b483aa49-d973-45b3-9e82-f4a2b89610a3","system_id":"levelo_inurba_marseille","lat":43.28069,"lon":5.39652,"is_reserved":false,"is_disabled":false,"rental_uris":{"android":"levelo://app?vid=b483aa49-d973-45b3-9e82-f4a2b89610a3","ios":"levelo://app?vid=b483aa49-d973-45b3-9e82-f4a2b89610a3"},"vehicle_type_id":"4","last_reported":1732105081,"current_range_meters":38000,"station_id":"ce4bho12rcd13ifvqh2g","pricing_plan_id":"cebpf4jnsgd1na2vs0mg"},{"bike_id":"cf998ad2-a995-440d-933b-1091fe8b94ef","system_id":"levelo_inurba_marseille","lat":43.29433,"lon":5.39754,"is_reserved":false,"is_disabled":false,"rental_uris":{"android":"levelo://app?vid=cf998ad2-a995-440d-933b-1091fe8b94ef","ios":"levelo://app?vid=cf998ad2-a995-440d-933b-1091fe8b94ef"},"vehicle_type_id":"4","last_reported":1732105081,"current_range_meters":30800,"station_id":"ce4bh3h2rcd13ifvqdo0","pricing_plan_id":"cebpf4jnsgd1na2vs0mg"},{"bike_id":"5adc63a5-1251-4e0f-a23d-8ee6ab24af22","system_id":"levelo_inurba_marseille","lat":43.27575,"lon":5.36065,"is_reserved":false,"is_disabled":false,"rental_uris":{"android":"levelo://app?vid=5adc63a5-1251-4e0f-a23d-8ee6ab24af22","ios":"levelo://app?vid=5adc63a5-1251-4e0f-a23d-8ee6ab24af22"},"vehicle_type_id":"4","last_reported":1732105081,"current_range_meters":20000,"station_id":"ce4bgj92rcd13ifvqbe0","pricing_plan_id":"cebpf4jnsgd1na2vs0mg"},{"bike_id":"e74e8692-56b5-455e-b107-3674a73c30f0","system_id":"levelo_inurba_marseille","lat":43.29276,"lon":5.36849,"is_reserved":false,"is_disabled":true,"rental_uris":{"android":"levelo://app?vid=e74e8692-56b5-455e-b107-3674a73c30f0","ios":"levelo://app?vid=e74e8692-56b5-455e-b107-3674a73c30f0"},"vehicle_type_id":"4","last_reported":1732105081,"current_range_meters":0,"station_id":"ce4bhbp2rcd13ifvqesg","pricing_plan_id":"cebpf4jnsgd1na2vs0mg"},{"bike_id":"b8e0ff19-cfbf-49c3-a9f8-f8dcefd4b613","system_id":"levelo_inurba_marseille","lat":43.27669,"lon":5.38905,"is_reserved":false,"is_disabled":true,"rental_uris":{"android":"levelo://app?vid=b8e0ff19-cfbf-49c3-a9f8-f8dcefd4b613","ios":"levelo://app?vid=b8e0ff19-cfbf-49c3-a9f8-f8dcefd4b613"},"vehicle_type_id":"4","last_reported":1732105081,"current_range_meters":33200,"station_id":"ce4bhi12rcd13ifvqfo0","pricing_plan_id":"cebpf4jnsgd1na2vs0mg"},{"bike_id":"6062c814-b29e-4547-857c-6b4aba6ee686","system_id":"levelo_inurba_marseille","lat":43.31355,"lon":5.36711,"is_reserved":false,"is_disabled":false,"rental_uris":{"android":"levelo://app?vid=6062c814-b29e-4547-857c-6b4aba6ee686","ios":"levelo://app?vid=6062c814-b29e-4547-857c-6b4aba6ee686"},"vehicle_type_id":"4","last_reported":1732105081,"current_range_meters":32000,"station_id":"ce4bgr92rcd13ifvqc6g","pricing_plan_id":"cebpf4jnsgd1na2vs0mg"},{"bike_id":"a37297ca-ecd8-4874-9a25-070d851e8a8d","system_id":"levelo_inurba_marseille","lat":43.25931,"lon":5.40899,"is_reserved":false,"is_disabled":false,"rental_uris":{"android":"levelo://app?vid=a37297ca-ecd8-4874-9a25-070d851e8a8d","ios":"levelo://app?vid=a37297ca-ecd8-4874-9a25-070d851e8a8d"},"vehicle_type_id":"4","last_reported":1732105081,"current_range_meters":15200,"station_id":"ce4bhm92rcd13ifvqglg","pricing_plan_id":"cebpf4jnsgd1na2vs0mg"},{"bike_id":"93df6ddb-116b-49af-8d27-10fad5b24377","system_id":"levelo_inurba_marseille","lat":43.29728,"lon":5.37695,"is_reserved":false,"is_disabled":false,"rental_uris":{"android":"levelo://app?vid=93df6ddb-116b-49af-8d27-10fad5b24377","ios":"levelo://app?vid=93df6ddb-116b-49af-8d27-10fad5b24377"},"vehicle_type_id":"4","last_reported":1732105081,"current_range_meters":26000,"station_id":"ce4bgkh2rcd13ifvqbl0","pricing_plan_id":"cebpf4jnsgd1na2vs0mg"},{"bike_id":"156ef920-6ce3-4644-a2e4-9c9bc898f7e4","system_id":"levelo_inurba_marseille","lat":43.30931,"lon":5.40143,"is_reserved":false,"is_disabled":true,"rental_uris":{"android":"levelo://app?vid=156ef920-6ce3-4644-a2e4-9c9bc898f7e4","ios":"levelo://app?vid=156ef920-6ce3-4644-a2e4-9c9bc898f7e4"},"vehicle_type_id":"4","last_reported":1732105081,"current_range_meters":0,"station_id":"ce4bgvp2rcd13ifvqct0","pricing_plan_id":"cebpf4jnsgd1na2vs0mg"},{"bike_id":"f4431127-8611-44b3-93ec-07b172a6f2aa","system_id":"levelo_inurba_marseille","lat":43.30351,"lon":5.4188,"is_reserved":false,"is_disabled":false,"rental_uris":{"android":"levelo://app?vid=f4431127-8611-44b3-93ec-07b172a6f2aa","ios":"levelo://app?vid=f4431127-8611-44b3-93ec-07b172a6f2aa"},"vehicle_type_id":"4","last_reported":1732105081,"current_range_meters":6400,"station_id":"ce4bhop2rcd13ifvqh7g","pricing_plan_id":"cebpf4jnsgd1na2vs0mg"},{"bike_id":"0b733133-03c9-4766-961e-92b775b50bbc","system_id":"levelo_inurba_marseille","lat":43.28222,"lon":5.4429,"is_reserved":false,"is_disabled":true,"rental_uris":{"android":"levelo://app?vid=0b733133-03c9-4766-961e-92b775b50bbc","ios":"levelo://app?vid=0b733133-03c9-4766-961e-92b775b50bbc"},"vehicle_type_id":"4","last_reported":1732105081,"current_range_meters":0,"station_id":"","pricing_plan_id":"cebpf4jnsgd1na2vs0mg"},{"bike_id":"e4c11769-2c19-46a4-a622-9a2180bb2646","system_id":"levelo_inurba_marseille","lat":43.2315,"lon":5.43708,"is_reserved":false,"is_disabled":false,"rental_uris":{"android":"levelo://app?vid=e4c11769-2c19-46a4-a622-9a2180bb2646","ios":"levelo://app?vid=e4c11769-2c19-46a4-a622-9a2180bb2646"},"vehicle_type_id":"4","last_reported":1732105081,"current_range_meters":38800,"station_id":"ce4bhmp2rcd13ifvqgog","pricing_plan_id":"cebpf4jnsgd1na2vs0mg"},{"bike_id":"61d1bc76-6342-4e0d-8c6b-3e2cda2435e7","system_id":"levelo_inurba_marseille","lat":43.30137,"lon":5.3878,"is_reserved":false,"is_disabled":true,"rental_uris":{"android":"levelo://app?vid=61d1bc76-6342-4e0d-8c6b-3e2cda2435e7","ios":"levelo://app?vid=61d1bc76-6342-4e0d-8c6b-3e2cda2435e7"},"vehicle_type_id":"4","last_reported":1732105081,"current_range_meters":1200,"station_id":"ce4bghh2rcd13ifvqb60","pricing_plan_id":"cebpf4jnsgd1na2vs0mg"},{"bike_id":"a6eb028f-ec3f-4274-b618-56c594a327df","system_id":"levelo_inurba_marseille","lat":43.27553,"lon":5.38425,"is_reserved":false,"is_disabled":false,"rental_uris":{"android":"levelo://app?vid=a6eb028f-ec3f-4274-b618-56c594a327df","ios":"levelo://app?vid=a6eb028f-ec3f-4274-b618-56c594a327df"},"vehicle_type_id":"4","last_reported":1732105081,"current_range_meters":24800,"station_id":"ce4bhh92rcd13ifvqfi0","pricing_plan_id":"cebpf4jnsgd1na2vs0mg"},{"bike_id":"ff88d50d-abfe-4c0b-a255-a6b96b8f5411","system_id":"levelo_inurba_marseille","lat":43.30126,"lon":5.38784,"is_reserved":false,"is_disabled":false,"rental_uris":{"android":"levelo://app?vid=ff88d50d-abfe-4c0b-a255-a6b96b8f5411","ios":"levelo://app?vid=ff88d50d-abfe-4c0b-a255-a6b96b8f5411"},"vehicle_type_id":"4","last_reported":1732105081,"current_range_meters":10800,"station_id":"ce4bghh2rcd13ifvqb60","pricing_plan_id":"cebpf4jnsgd1na2vs0mg"},{"bike_id":"8818b0a7-c814-4461-bb43-5fd8c33bac08","system_id":"levelo_inurba_marseille","lat":43.3302,"lon":5.39033,"is_reserved":false,"is_disabled":false,"rental_uris":{"android":"levelo://app?vid=8818b0a7-c814-4461-bb43-5fd8c33bac08","ios":"levelo://app?vid=8818b0a7-c814-4461-bb43-5fd8c33bac08"},"vehicle_type_id":"4","last_reported":1732105081,"current_range_meters":30800,"station_id":"ce4bhr92rcd13ifvqhrg","pricing_plan_id":"cebpf4jnsgd1na2vs0mg"},{"bike_id":"1904e4d6-e1e0-456f-9800-8b0e0e7107b4","system_id":"levelo_inurba_marseille","lat":43.23153,"lon":5.4371,"is_reserved":false,"is_disabled":true,"rental_uris":{"android":"levelo://app?vid=1904e4d6-e1e0-456f-9800-8b0e0e7107b4","ios":"levelo://app?vid=1904e4d6-e1e0-456f-9800-8b0e0e7107b4"},"vehicle_type_id":"4","last_reported":1732105081,"current_range_meters":0,"station_id":"ce4bhmp2rcd13ifvqgog","pricing_plan_id":"cebpf4jnsgd1na2vs0mg"},{"bike_id":"2bb4d3df-ce00-4b9f-88b5-817fd0bd8861","system_id":"levelo_inurba_marseille","lat":43.30136,"lon":5.37423,"is_reserved":false,"is_disabled":false,"rental_uris":{"android":"levelo://app?vid=2bb4d3df-ce00-4b9f-88b5-817fd0bd8861","ios":"levelo://app?vid=2bb4d3df-ce00-4b9f-88b5-817fd0bd8861"},"vehicle_type_id":"4","last_reported":1732105081,"current_range_meters":29600,"station_id":"ce4bgs92rcd13ifvqcc0","pricing_plan_id":"cebpf4jnsgd1na2vs0mg"},{"bike_id":"b73b82dc-6224-435a-92e5-8c2bac8703e2","system_id":"levelo_inurba_marseille","lat":43.28704,"lon":5.39994,"is_reserved":false,"is_disabled":false,"rental_uris":{"android":"levelo://app?vid=b73b82dc-6224-435a-92e5-8c2bac8703e2","ios":"levelo://app?vid=b73b82dc-6224-435a-92e5-8c2bac8703e2"},"vehicle_type_id":"4","last_reported":1732105081,"current_range_meters":32800,"station_id":"ce4bho92rcd13ifvqh3g","pricing_plan_id":"cebpf4jnsgd1na2vs0mg"},{"bike_id":"a2708557-70e1-4d18-b5aa-f0b2622febe1","system_id":"levelo_inurba_marseille","lat":43.31992,"lon":5.38165,"is_reserved":false,"is_disabled":true,"rental_uris":{"android":"levelo://app?vid=a2708557-70e1-4d18-b5aa-f0b2622febe1","ios":"levelo://app?vid=a2708557-70e1-4d18-b5aa-f0b2622febe1"},"vehicle_type_id":"4","last_reported":1732105081,"current_range_meters":400,"station_id":"ce4bhr12rcd13ifvqhpg","pricing_plan_id":"cebpf4jnsgd1na2vs0mg"},{"bike_id":"5bed771e-39e5-41eb-a8cc-e9dd79035ab2","system_id":"levelo_inurba_marseille","lat":43.32107,"lon":5.36766,"is_reserved":false,"is_disabled":false,"rental_uris":{"android":"levelo://app?vid=5bed771e-39e5-41eb-a8cc-e9dd79035ab2","ios":"levelo://app?vid=5bed771e-39e5-41eb-a8cc-e9dd79035ab2"},"vehicle_type_id":"4","last_reported":1732105081,"current_range_meters":26000,"station_id":"ce4bhrh2rcd13ifvqhug","pricing_plan_id":"cebpf4jnsgd1na2vs0mg"},{"bike_id":"1eff5ce5-2d56-4465-a12c-60db9ec2175a","system_id":"levelo_inurba_marseille","lat":43.22928,"lon":5.35375,"is_reserved":false,"is_disabled":false,"rental_uris":{"android":"levelo://app?vid=1eff5ce5-2d56-4465-a12c-60db9ec2175a","ios":"levelo://app?vid=1eff5ce5-2d56-4465-a12c-60db9ec2175a"},"vehicle_type_id":"4","last_reported":1732105081,"current_range_meters":16400,"station_id":"cpo3532slgdg3j2ikp40","pricing_plan_id":"cebpf4jnsgd1na2vs0mg"},{"bike_id":"dea08024-d422-419e-86b3-028542e8cdf6","system_id":"levelo_inurba_marseille","lat":43.30433,"lon":5.38894,"is_reserved":false,"is_disabled":false,"rental_uris":{"android":"levelo://app?vid=dea08024-d422-419e-86b3-028542e8cdf6","ios":"levelo://app?vid=dea08024-d422-419e-86b3-028542e8cdf6"},"vehicle_type_id":"4","last_reported":1732105081,"current_range_meters":17200,"station_id":"ce4bgk12rcd13ifvqbi0","pricing_plan_id":"cebpf4jnsgd1na2vs0mg"},{"bike_id":"f1126846-151c-41db-a723-1b5f4b356b87","system_id":"levelo_inurba_marseille","lat":43.32363,"lon":5.38884,"is_reserved":false,"is_disabled":false,"rental_uris":{"android":"levelo://app?vid=f1126846-151c-41db-a723-1b5f4b356b87","ios":"levelo://app?vid=f1126846-151c-41db-a723-1b5f4b356b87"},"vehicle_type_id":"4","last_reported":1732105081,"current_range_meters":14400,"station_id":"ce4bhqp2rcd13ifvqhog","pricing_plan_id":"cebpf4jnsgd1na2vs0mg"},{"bike_id":"9f3572b0-c0a7-43aa-8c1e-c100148af63b","system_id":"levelo_inurba_marseille","lat":43.29187,"lon":5.35792,"is_reserved":false,"is_disabled":true,"rental_uris":{"android":"levelo://app?vid=9f3572b0-c0a7-43aa-8c1e-c100148af63b","ios":"levelo://app?vid=9f3572b0-c0a7-43aa-8c1e-c100148af63b"},"vehicle_type_id":"4","last_reported":1732105081,"current_range_meters":38000,"station_id":"ce4bhb12rcd13ifvqel0","pricing_plan_id":"cebpf4jnsgd1na2vs0mg"},{"bike_id":"954054ad-77ac-46c3-a1b5-c8fc266a522b","system_id":"levelo_inurba_marseille","lat":43.31725,"lon":5.42397,"is_reserved":false,"is_disabled":false,"rental_uris":{"android":"levelo://app?vid=954054ad-77ac-46c3-a1b5-c8fc266a522b","ios":"levelo://app?vid=954054ad-77ac-46c3-a1b5-c8fc266a522b"},"vehicle_type_id":"4","last_reported":1732105081,"current_range_meters":38800,"station_id":"ce4bhp92rcd13ifvqhbg","pricing_plan_id":"cebpf4jnsgd1na2vs0mg"},{"bike_id":"84616ed4-c805-47f3-b5e2-c74c21362174","system_id":"levelo_inurba_marseille","lat":43.30892,"lon":5.37198,"is_reserved":false,"is_disabled":false,"rental_uris":{"android":"levelo://app?vid=84616ed4-c805-47f3-b5e2-c74c21362174","ios":"levelo://app?vid=84616ed4-c805-47f3-b5e2-c74c21362174"},"vehicle_type_id":"4","last_reported":1732105081,"current_range_meters":11600,"station_id":"ce4bguh2rcd13ifvqckg","pricing_plan_id":"cebpf4jnsgd1na2vs0mg"},{"bike_id":"9c4a655e-2680-4a60-a844-6a2ea62fb4b1","system_id":"levelo_inurba_marseille","lat":43.26063,"lon":5.39395,"is_reserved":false,"is_disabled":false,"rental_uris":{"android":"levelo://app?vid=9c4a655e-2680-4a60-a844-6a2ea62fb4b1","ios":"levelo://app?vid=9c4a655e-2680-4a60-a844-6a2ea62fb4b1"},"vehicle_type_id":"4","last_reported":1732105081,"current_range_meters":24800,"station_id":"ce4bhh92rcd13ifvqfj0","pricing_plan_id":"cebpf4jnsgd1na2vs0mg"},{"bike_id":"acc35ef4-01ac-4d02-9608-8867c9265e92","system_id":"levelo_inurba_marseille","lat":43.25498,"lon":5.3765,"is_reserved":false,"is_disabled":false,"rental_uris":{"android":"levelo://app?vid=acc35ef4-01ac-4d02-9608-8867c9265e92","ios":"levelo://app?vid=acc35ef4-01ac-4d02-9608-8867c9265e92"},"vehicle_type_id":"4","last_reported":1732105081,"current_range_meters":36800,"station_id":"ce4bhh12rcd13ifvqff0","pricing_plan_id":"cebpf4jnsgd1na2vs0mg"},{"bike_id":"f4314a8a-82cc-4e28-9519-7b232ac298b7","system_id":"levelo_inurba_marseille","lat":43.299158,"lon":5.374687,"is_reserved":false,"is_disabled":false,"rental_uris":{"android":"levelo://app?vid=f4314a8a-82cc-4e28-9519-7b232ac298b7","ios":"levelo://app?vid=f4314a8a-82cc-4e28-9519-7b232ac298b7"},"vehicle_type_id":"4","last_reported":1732105081,"current_range_meters":38800,"station_id":"ce4bgjh2rcd13ifvqbg0","pricing_plan_id":"cebpf4jnsgd1na2vs0mg"},{"bike_id":"ff11b968-7752-4e13-865e-360e7723ecd2","system_id":"levelo_inurba_marseille","lat":43.30537,"lon":5.36705,"is_reserved":false,"is_disabled":false,"rental_uris":{"android":"levelo://app?vid=ff11b968-7752-4e13-865e-360e7723ecd2","ios":"levelo://app?vid=ff11b968-7752-4e13-865e-360e7723ecd2"},"vehicle_type_id":"4","last_reported":1732105081,"current_range_meters":30800,"station_id":"ce4bgrp2rcd13ifvqc9g","pricing_plan_id":"cebpf4jnsgd1na2vs0mg"},{"bike_id":"e840fe4f-47a0-4d31-8133-7c332a3d517a","system_id":"levelo_inurba_marseille","lat":43.31078,"lon":5.42432,"is_reserved":false,"is_disabled":true,"rental_uris":{"android":"levelo://app?vid=e840fe4f-47a0-4d31-8133-7c332a3d517a","ios":"levelo://app?vid=e840fe4f-47a0-4d31-8133-7c332a3d517a"},"vehicle_type_id":"4","last_reported":1732105081,"current_range_meters":11200,"station_id":"ce4bhp92rcd13ifvqhag","pricing_plan_id":"cebpf4jnsgd1na2vs0mg"},{"bike_id":"43fbabc0-6e3a-45c4-92e5-c6fffcee569e","system_id":"levelo_inurba_marseille","lat":43.28936,"lon":5.36641,"is_reserved":false,"is_disabled":false,"rental_uris":{"android":"levelo://app?vid=43fbabc0-6e3a-45c4-92e5-c6fffcee569e","ios":"levelo://app?vid=43fbabc0-6e3a-45c4-92e5-c6fffcee569e"},"vehicle_type_id":"4","last_reported":1732105081,"current_range_meters":36800,"station_id":"ce4bhap2rcd13ifvqek0","pricing_plan_id":"cebpf4jnsgd1na2vs0mg"},{"bike_id":"32224222-2d99-4fea-b67c-a58c8fd27583","system_id":"levelo_inurba_marseille","lat":43.3136,"lon":5.38494,"is_reserved":false,"is_disabled":false,"rental_uris":{"android":"levelo://app?vid=32224222-2d99-4fea-b67c-a58c8fd27583","ios":"levelo://app?vid=32224222-2d99-4fea-b67c-a58c8fd27583"},"vehicle_type_id":"4","last_reported":1732105081,"current_range_meters":16800,"station_id":"ce4bgt92rcd13ifvqcf0","pricing_plan_id":"cebpf4jnsgd1na2vs0mg"},{"bike_id":"d42b59cb-0784-4ac2-915e-442f4f731589","system_id":"levelo_inurba_marseille","lat":43.30505,"lon":5.38283,"is_reserved":false,"is_disabled":false,"rental_uris":{"android":"levelo://app?vid=d42b59cb-0784-4ac2-915e-442f4f731589","ios":"levelo://app?vid=d42b59cb-0784-4ac2-915e-442f4f731589"},"vehicle_type_id":"4","last_reported":1732105081,"current_range_meters":28000,"station_id":"ce4bgg92rcd13ifvqb30","pricing_plan_id":"cebpf4jnsgd1na2vs0mg"},{"bike_id":"ebddf879-b243-4713-9208-7c88740536b3","system_id":"levelo_inurba_marseille","lat":43.29279,"lon":5.40121,"is_reserved":false,"is_disabled":false,"rental_uris":{"android":"levelo://app?vid=ebddf879-b243-4713-9208-7c88740536b3","ios":"levelo://app?vid=ebddf879-b243-4713-9208-7c88740536b3"},"vehicle_type_id":"4","last_reported":1732105081,"current_range_meters":30000,"station_id":"ce4bh312rcd13ifvqdk0","pricing_plan_id":"cebpf4jnsgd1na2vs0mg"},{"bike_id":"a1cf6f06-44aa-4bc8-9eb2-8055a5e207a9","system_id":"levelo_inurba_marseille","lat":43.32474,"lon":5.36562,"is_reserved":false,"is_disabled":false,"rental_uris":{"android":"levelo://app?vid=a1cf6f06-44aa-4bc8-9eb2-8055a5e207a9","ios":"levelo://app?vid=a1cf6f06-44aa-4bc8-9eb2-8055a5e207a9"},"vehicle_type_id":"4","last_reported":1732105081,"current_range_meters":39200,"station_id":"ce4bhs12rcd13ifvqhvg","pricing_plan_id":"cebpf4jnsgd1na2vs0mg"},{"bike_id":"98b32e58-9186-4741-afff-13e77a09e04c","system_id":"levelo_inurba_marseille","lat":43.25082,"lon":5.3951,"is_reserved":false,"is_disabled":false,"rental_uris":{"android":"levelo://app?vid=98b32e58-9186-4741-afff-13e77a09e04c","ios":"levelo://app?vid=98b32e58-9186-4741-afff-13e77a09e04c"},"vehicle_type_id":"4","last_reported":1732105081,"current_range_meters":27200,"station_id":"ce4bhm12rcd13ifvqgkg","pricing_plan_id":"cebpf4jnsgd1na2vs0mg"},{"bike_id":"573e12ee-8451-4192-8169-3aa867aec2a8","system_id":"levelo_inurba_marseille","lat":43.30531,"lon":5.36717,"is_reserved":false,"is_disabled":false,"rental_uris":{"android":"levelo://app?vid=573e12ee-8451-4192-8169-3aa867aec2a8","ios":"levelo://app?vid=573e12ee-8451-4192-8169-3aa867aec2a8"},"vehicle_type_id":"4","last_reported":1732105081,"current_range_meters":22000,"station_id":"ce4bgrp2rcd13ifvqc9g","pricing_plan_id":"cebpf4jnsgd1na2vs0mg"},{"bike_id":"7bec47bd-edd4-4415-924c-dbdf57e3d376","system_id":"levelo_inurba_marseille","lat":43.31353,"lon":5.36708,"is_reserved":false,"is_disabled":false,"rental_uris":{"android":"levelo://app?vid=7bec47bd-edd4-4415-924c-dbdf57e3d376","ios":"levelo://app?vid=7bec47bd-edd4-4415-924c-dbdf57e3d376"},"vehicle_type_id":"4","last_reported":1732105081,"current_range_meters":38800,"station_id":"ce4bgr92rcd13ifvqc6g","pricing_plan_id":"cebpf4jnsgd1na2vs0mg"},{"bike_id":"bd3d0ea8-7d56-4858-8e5d-b32a9764d3b4","system_id":"levelo_inurba_marseille","lat":43.30148,"lon":5.38077,"is_reserved":false,"is_disabled":true,"rental_uris":{"android":"levelo://app?vid=bd3d0ea8-7d56-4858-8e5d-b32a9764d3b4","ios":"levelo://app?vid=bd3d0ea8-7d56-4858-8e5d-b32a9764d3b4"},"vehicle_type_id":"4","last_reported":1732105081,"current_range_meters":24000,"station_id":"ce4bgjp2rcd13ifvqbh0","pricing_plan_id":"cebpf4jnsgd1na2vs0mg"},{"bike_id":"144b7443-439b-4eb3-a8bb-304f595a9422","system_id":"levelo_inurba_marseille","lat":43.27997,"lon":5.40013,"is_reserved":false,"is_disabled":false,"rental_uris":{"android":"levelo://app?vid=144b7443-439b-4eb3-a8bb-304f595a9422","ios":"levelo://app?vid=144b7443-439b-4eb3-a8bb-304f595a9422"},"vehicle_type_id":"4","last_reported":1732105081,"current_range_meters":38800,"station_id":"ce4bho92rcd13ifvqh4g","pricing_plan_id":"cebpf4jnsgd1na2vs0mg"},{"bike_id":"05725ad4-e1a4-4023-9f02-37bc3fcd6926","system_id":"levelo_inurba_marseille","lat":43.2315,"lon":5.43706,"is_reserved":false,"is_disabled":false,"rental_uris":{"android":"levelo://app?vid=05725ad4-e1a4-4023-9f02-37bc3fcd6926","ios":"levelo://app?vid=05725ad4-e1a4-4023-9f02-37bc3fcd6926"},"vehicle_type_id":"4","last_reported":1732105081,"current_range_meters":33600,"station_id":"ce4bhmp2rcd13ifvqgog","pricing_plan_id":"cebpf4jnsgd1na2vs0mg"},{"bike_id":"4201d656-e153-48a5-b895-6c8c25ff4eb3","system_id":"levelo_inurba_marseille","lat":43.29698,"lon":5.3769,"is_reserved":false,"is_disabled":false,"rental_uris":{"android":"levelo://app?vid=4201d656-e153-48a5-b895-6c8c25ff4eb3","ios":"levelo://app?vid=4201d656-e153-48a5-b895-6c8c25ff4eb3"},"vehicle_type_id":"4","last_reported":1732105081,"current_range_meters":28000,"station_id":"ce4bgkh2rcd13ifvqbl0","pricing_plan_id":"cebpf4jnsgd1na2vs0mg"},{"bike_id":"c8cfc3df-530d-4c07-8631-f9e7aa1ea148","system_id":"levelo_inurba_marseille","lat":43.30543,"lon":5.36688,"is_reserved":false,"is_disabled":false,"rental_uris":{"android":"levelo://app?vid=c8cfc3df-530d-4c07-8631-f9e7aa1ea148","ios":"levelo://app?vid=c8cfc3df-530d-4c07-8631-f9e7aa1ea148"},"vehicle_type_id":"4","last_reported":1732105081,"current_range_meters":8800,"station_id":"ce4bgrp2rcd13ifvqc9g","pricing_plan_id":"cebpf4jnsgd1na2vs0mg"},{"bike_id":"07aefd15-a845-40e1-b682-f0d6059f2cb6","system_id":"levelo_inurba_marseille","lat":43.319942,"lon":5.381515,"is_reserved":false,"is_disabled":false,"rental_uris":{"android":"levelo://app?vid=07aefd15-a845-40e1-b682-f0d6059f2cb6","ios":"levelo://app?vid=07aefd15-a845-40e1-b682-f0d6059f2cb6"},"vehicle_type_id":"4","last_reported":1732105081,"current_range_meters":38800,"station_id":"ce4bhr12rcd13ifvqhpg","pricing_plan_id":"cebpf4jnsgd1na2vs0mg"},{"bike_id":"245918fc-f8f1-4b3e-9437-f5fd3ada3c6b","system_id":"levelo_inurba_marseille","lat":43.28947,"lon":5.36644,"is_reserved":false,"is_disabled":false,"rental_uris":{"android":"levelo://app?vid=245918fc-f8f1-4b3e-9437-f5fd3ada3c6b","ios":"levelo://app?vid=245918fc-f8f1-4b3e-9437-f5fd3ada3c6b"},"vehicle_type_id":"4","last_reported":1732105081,"current_range_meters":11600,"station_id":"ce4bhap2rcd13ifvqek0","pricing_plan_id":"cebpf4jnsgd1na2vs0mg"},{"bike_id":"5b5f4604-3a82-4584-a08b-4bc79bf3d12b","system_id":"levelo_inurba_marseille","lat":43.308628,"lon":5.371443,"is_reserved":false,"is_disabled":false,"rental_uris":{"android":"levelo://app?vid=5b5f4604-3a82-4584-a08b-4bc79bf3d12b","ios":"levelo://app?vid=5b5f4604-3a82-4584-a08b-4bc79bf3d12b"},"vehicle_type_id":"4","last_reported":1732105081,"current_range_meters":14800,"station_id":"","pricing_plan_id":"cebpf4jnsgd1na2vs0mg"},{"bike_id":"4be42907-a17d-4528-aadb-4ee1624a0554","system_id":"levelo_inurba_marseille","lat":43.28039,"lon":5.36949,"is_reserved":false,"is_disabled":false,"rental_uris":{"android":"levelo://app?vid=4be42907-a17d-4528-aadb-4ee1624a0554","ios":"levelo://app?vid=4be42907-a17d-4528-aadb-4ee1624a0554"},"vehicle_type_id":"4","last_reported":1732105081,"current_range_meters":38400,"station_id":"ce4bha12rcd13ifvqef0","pricing_plan_id":"cebpf4jnsgd1na2vs0mg"},{"bike_id":"63f8d99e-f6f0-4bcb-b919-f810bafda0bf","system_id":"levelo_inurba_marseille","lat":43.3059,"lon":5.39363,"is_reserved":false,"is_disabled":false,"rental_uris":{"android":"levelo://app?vid=63f8d99e-f6f0-4bcb-b919-f810bafda0bf","ios":"levelo://app?vid=63f8d99e-f6f0-4bcb-b919-f810bafda0bf"},"vehicle_type_id":"4","last_reported":1732105081,"current_range_meters":10800,"station_id":"ce4bh0p2rcd13ifvqd80","pricing_plan_id":"cebpf4jnsgd1na2vs0mg"},{"bike_id":"9b5e5bea-3e3b-450c-a020-88b9c17cb368","system_id":"levelo_inurba_marseille","lat":43.30136,"lon":5.37428,"is_reserved":false,"is_disabled":true,"rental_uris":{"android":"levelo://app?vid=9b5e5bea-3e3b-450c-a020-88b9c17cb368","ios":"levelo://app?vid=9b5e5bea-3e3b-450c-a020-88b9c17cb368"},"vehicle_type_id":"4","last_reported":1732105081,"current_range_meters":400,"station_id":"ce4bgs92rcd13ifvqcc0","pricing_plan_id":"cebpf4jnsgd1na2vs0mg"},{"bike_id":"22b0e1c8-ad96-47aa-aaf4-f320d596a8f1","system_id":"levelo_inurba_marseille","lat":43.2737,"lon":5.36257,"is_reserved":false,"is_disabled":false,"rental_uris":{"android":"levelo://app?vid=22b0e1c8-ad96-47aa-aaf4-f320d596a8f1","ios":"levelo://app?vid=22b0e1c8-ad96-47aa-aaf4-f320d596a8f1"},"vehicle_type_id":"4","last_reported":1732105081,"current_range_meters":28800,"station_id":"ce4bhbh2rcd13ifvqeo0","pricing_plan_id":"cebpf4jnsgd1na2vs0mg"},{"bike_id":"efaa20f7-d2fb-4778-9ca3-b17e9193d440","system_id":"levelo_inurba_marseille","lat":43.33714,"lon":5.39168,"is_reserved":false,"is_disabled":false,"rental_uris":{"android":"levelo://app?vid=efaa20f7-d2fb-4778-9ca3-b17e9193d440","ios":"levelo://app?vid=efaa20f7-d2fb-4778-9ca3-b17e9193d440"},"vehicle_type_id":"4","last_reported":1732105081,"current_range_meters":35200,"station_id":"ce4bhr92rcd13ifvqhsg","pricing_plan_id":"cebpf4jnsgd1na2vs0mg"},{"bike_id":"c44b2a0f-3a33-4390-9711-e20dad412f23","system_id":"levelo_inurba_marseille","lat":43.29525,"lon":5.39036,"is_reserved":false,"is_disabled":false,"rental_uris":{"android":"levelo://app?vid=c44b2a0f-3a33-4390-9711-e20dad412f23","ios":"levelo://app?vid=c44b2a0f-3a33-4390-9711-e20dad412f23"},"vehicle_type_id":"4","last_reported":1732105081,"current_range_meters":19600,"station_id":"ce4bh3p2rcd13ifvqdp0","pricing_plan_id":"cebpf4jnsgd1na2vs0mg"},{"bike_id":"cbb19e09-aa20-4763-8e71-dc123172ec07","system_id":"levelo_inurba_marseille","lat":43.23152,"lon":5.4371,"is_reserved":false,"is_disabled":true,"rental_uris":{"android":"levelo://app?vid=cbb19e09-aa20-4763-8e71-dc123172ec07","ios":"levelo://app?vid=cbb19e09-aa20-4763-8e71-dc123172ec07"},"vehicle_type_id":"4","last_reported":1732105081,"current_range_meters":38800,"station_id":"ce4bhmp2rcd13ifvqgog","pricing_plan_id":"cebpf4jnsgd1na2vs0mg"},{"bike_id":"5aa87665-57ec-401b-b28f-9f0910f74ce3","system_id":"levelo_inurba_marseille","lat":43.32653,"lon":5.40996,"is_reserved":false,"is_disabled":false,"rental_uris":{"android":"levelo://app?vid=5aa87665-57ec-401b-b28f-9f0910f74ce3","ios":"levelo://app?vid=5aa87665-57ec-401b-b28f-9f0910f74ce3"},"vehicle_type_id":"4","last_reported":1732105081,"current_range_meters":27200,"station_id":"ce4bhpp2rcd13ifvqhgg","pricing_plan_id":"cebpf4jnsgd1na2vs0mg"},{"bike_id":"028e5427-36e2-49e1-b3db-260058fffb58","system_id":"levelo_inurba_marseille","lat":43.25574,"lon":5.38238,"is_reserved":false,"is_disabled":false,"rental_uris":{"android":"levelo://app?vid=028e5427-36e2-49e1-b3db-260058fffb58","ios":"levelo://app?vid=028e5427-36e2-49e1-b3db-260058fffb58"},"vehicle_type_id":"4","last_reported":1732105081,"current_range_meters":28000,"station_id":"ce4bhih2rcd13ifvqfs0","pricing_plan_id":"cebpf4jnsgd1na2vs0mg"},{"bike_id":"87ab87c3-b0c0-433f-bc72-370f3dff3d3b","system_id":"levelo_inurba_marseille","lat":43.29727,"lon":5.37698,"is_reserved":false,"is_disabled":false,"rental_uris":{"android":"levelo://app?vid=87ab87c3-b0c0-433f-bc72-370f3dff3d3b","ios":"levelo://app?vid=87ab87c3-b0c0-433f-bc72-370f3dff3d3b"},"vehicle_type_id":"4","last_reported":1732105081,"current_range_meters":33200,"station_id":"ce4bgkh2rcd13ifvqbl0","pricing_plan_id":"cebpf4jnsgd1na2vs0mg"},{"bike_id":"9e5155cc-9158-47b5-bb3f-3254ca5454c2","system_id":"levelo_inurba_marseille","lat":43.31347,"lon":5.36718,"is_reserved":false,"is_disabled":false,"rental_uris":{"android":"levelo://app?vid=9e5155cc-9158-47b5-bb3f-3254ca5454c2","ios":"levelo://app?vid=9e5155cc-9158-47b5-bb3f-3254ca5454c2"},"vehicle_type_id":"4","last_reported":1732105081,"current_range_meters":38800,"station_id":"ce4bgr92rcd13ifvqc6g","pricing_plan_id":"cebpf4jnsgd1na2vs0mg"},{"bike_id":"401c2a19-8b43-4a12-92ed-f8e71f230e4b","system_id":"levelo_inurba_marseille","lat":43.30158,"lon":5.38083,"is_reserved":false,"is_disabled":false,"rental_uris":{"android":"levelo://app?vid=401c2a19-8b43-4a12-92ed-f8e71f230e4b","ios":"levelo://app?vid=401c2a19-8b43-4a12-92ed-f8e71f230e4b"},"vehicle_type_id":"4","last_reported":1732105081,"current_range_meters":30800,"station_id":"ce4bgjp2rcd13ifvqbh0","pricing_plan_id":"cebpf4jnsgd1na2vs0mg"},{"bike_id":"d844fd78-dab2-432a-a1c7-259ceea58301","system_id":"levelo_inurba_marseille","lat":43.29189,"lon":5.35791,"is_reserved":false,"is_disabled":true,"rental_uris":{"android":"levelo://app?vid=d844fd78-dab2-432a-a1c7-259ceea58301","ios":"levelo://app?vid=d844fd78-dab2-432a-a1c7-259ceea58301"},"vehicle_type_id":"4","last_reported":1732105081,"current_range_meters":39200,"station_id":"ce4bhb12rcd13ifvqel0","pricing_plan_id":"cebpf4jnsgd1na2vs0mg"},{"bike_id":"ae28f309-442b-481a-b36d-497f21a8e6e0","system_id":"levelo_inurba_marseille","lat":43.31759,"lon":5.39017,"is_reserved":false,"is_disabled":false,"rental_uris":{"android":"levelo://app?vid=ae28f309-442b-481a-b36d-497f21a8e6e0","ios":"levelo://app?vid=ae28f309-442b-481a-b36d-497f21a8e6e0"},"vehicle_type_id":"4","last_reported":1732105081,"current_range_meters":38800,"station_id":"ce4bhqp2rcd13ifvqhng","pricing_plan_id":"cebpf4jnsgd1na2vs0mg"},{"bike_id":"ef49b675-893d-47ff-b28c-63d9c9308425","system_id":"levelo_inurba_marseille","lat":43.28,"lon":5.40011,"is_reserved":false,"is_disabled":false,"rental_uris":{"android":"levelo://app?vid=ef49b675-893d-47ff-b28c-63d9c9308425","ios":"levelo://app?vid=ef49b675-893d-47ff-b28c-63d9c9308425"},"vehicle_type_id":"4","last_reported":1732105081,"current_range_meters":4400,"station_id":"ce4bho92rcd13ifvqh4g","pricing_plan_id":"cebpf4jnsgd1na2vs0mg"},{"bike_id":"7e355d9d-3bbe-4a9a-99a2-5cff40267267","system_id":"levelo_inurba_marseille","lat":43.32652,"lon":5.40992,"is_reserved":false,"is_disabled":false,"rental_uris":{"android":"levelo://app?vid=7e355d9d-3bbe-4a9a-99a2-5cff40267267","ios":"levelo://app?vid=7e355d9d-3bbe-4a9a-99a2-5cff40267267"},"vehicle_type_id":"4","last_reported":1732105081,"current_range_meters":10800,"station_id":"ce4bhpp2rcd13ifvqhgg","pricing_plan_id":"cebpf4jnsgd1na2vs0mg"},{"bike_id":"b6a5dd45-3299-4794-bb3d-6c5c2b5a78a1","system_id":"levelo_inurba_marseille","lat":43.33023,"lon":5.39041,"is_reserved":false,"is_disabled":false,"rental_uris":{"android":"levelo://app?vid=b6a5dd45-3299-4794-bb3d-6c5c2b5a78a1","ios":"levelo://app?vid=b6a5dd45-3299-4794-bb3d-6c5c2b5a78a1"},"vehicle_type_id":"4","last_reported":1732105081,"current_range_meters":38000,"station_id":"ce4bhr92rcd13ifvqhrg","pricing_plan_id":"cebpf4jnsgd1na2vs0mg"},{"bike_id":"ea3698ba-4aa8-4712-b521-18ff56838777","system_id":"levelo_inurba_marseille","lat":43.25492,"lon":5.37644,"is_reserved":false,"is_disabled":false,"rental_uris":{"android":"levelo://app?vid=ea3698ba-4aa8-4712-b521-18ff56838777","ios":"levelo://app?vid=ea3698ba-4aa8-4712-b521-18ff56838777"},"vehicle_type_id":"4","last_reported":1732105081,"current_range_meters":37600,"station_id":"ce4bhh12rcd13ifvqff0","pricing_plan_id":"cebpf4jnsgd1na2vs0mg"},{"bike_id":"422724e5-20b6-4c82-99a6-14994c43927d","system_id":"levelo_inurba_marseille","lat":43.29003,"lon":5.35608,"is_reserved":false,"is_disabled":false,"rental_uris":{"android":"levelo://app?vid=422724e5-20b6-4c82-99a6-14994c43927d","ios":"levelo://app?vid=422724e5-20b6-4c82-99a6-14994c43927d"},"vehicle_type_id":"4","last_reported":1732105081,"current_range_meters":38800,"station_id":"ce4bhb92rcd13ifvqen0","pricing_plan_id":"cebpf4jnsgd1na2vs0mg"},{"bike_id":"084b2ba3-8231-409c-9e1f-fb7dd13211df","system_id":"levelo_inurba_marseille","lat":43.26679,"lon":5.38274,"is_reserved":false,"is_disabled":false,"rental_uris":{"android":"levelo://app?vid=084b2ba3-8231-409c-9e1f-fb7dd13211df","ios":"levelo://app?vid=084b2ba3-8231-409c-9e1f-fb7dd13211df"},"vehicle_type_id":"4","last_reported":1732105081,"current_range_meters":11600,"station_id":"ce4bhg92rcd13ifvqf90","pricing_plan_id":"cebpf4jnsgd1na2vs0mg"},{"bike_id":"d9adbc69-3614-4a1e-a3cc-4d4d9b2ce43c","system_id":"levelo_inurba_marseille","lat":43.30597,"lon":5.3935,"is_reserved":false,"is_disabled":false,"rental_uris":{"android":"levelo://app?vid=d9adbc69-3614-4a1e-a3cc-4d4d9b2ce43c","ios":"levelo://app?vid=d9adbc69-3614-4a1e-a3cc-4d4d9b2ce43c"},"vehicle_type_id":"4","last_reported":1732105081,"current_range_meters":38800,"station_id":"ce4bh0p2rcd13ifvqd80","pricing_plan_id":"cebpf4jnsgd1na2vs0mg"},{"bike_id":"5fd9db30-2295-4cc6-809d-990009cce8f6","system_id":"levelo_inurba_marseille","lat":43.26786,"lon":5.3941,"is_reserved":false,"is_disabled":false,"rental_uris":{"android":"levelo://app?vid=5fd9db30-2295-4cc6-809d-990009cce8f6","ios":"levelo://app?vid=5fd9db30-2295-4cc6-809d-990009cce8f6"},"vehicle_type_id":"4","last_reported":1732105081,"current_range_meters":38000,"station_id":"ce4bhh12rcd13ifvqfg0","pricing_plan_id":"cebpf4jnsgd1na2vs0mg"},{"bike_id":"0227366f-4b96-4ec6-b83a-f587254b2af6","system_id":"levelo_inurba_marseille","lat":43.31753,"lon":5.39031,"is_reserved":false,"is_disabled":false,"rental_uris":{"android":"levelo://app?vid=0227366f-4b96-4ec6-b83a-f587254b2af6","ios":"levelo://app?vid=0227366f-4b96-4ec6-b83a-f587254b2af6"},"vehicle_type_id":"4","last_reported":1732105081,"current_range_meters":25600,"station_id":"ce4bhqp2rcd13ifvqhng","pricing_plan_id":"cebpf4jnsgd1na2vs0mg"},{"bike_id":"44f1c56e-9ee5-48c3-9f67-5ed57fbc1b5d","system_id":"levelo_inurba_marseille","lat":43.25819,"lon":5.39434,"is_reserved":false,"is_disabled":false,"rental_uris":{"android":"levelo://app?vid=44f1c56e-9ee5-48c3-9f67-5ed57fbc1b5d","ios":"levelo://app?vid=44f1c56e-9ee5-48c3-9f67-5ed57fbc1b5d"},"vehicle_type_id":"4","last_reported":1732105081,"current_range_meters":31200,"station_id":"ce4bhip2rcd13ifvqft0","pricing_plan_id":"cebpf4jnsgd1na2vs0mg"},{"bike_id":"e5951ee3-4a5a-4ebb-b469-096c5188dfa3","system_id":"levelo_inurba_marseille","lat":43.23191,"lon":5.35561,"is_reserved":false,"is_disabled":true,"rental_uris":{"android":"levelo://app?vid=e5951ee3-4a5a-4ebb-b469-096c5188dfa3","ios":"levelo://app?vid=e5951ee3-4a5a-4ebb-b469-096c5188dfa3"},"vehicle_type_id":"4","last_reported":1732105081,"current_range_meters":0,"station_id":"ce4bhu92rcd13ifvqi70","pricing_plan_id":"cebpf4jnsgd1na2vs0mg"},{"bike_id":"66784a2d-07a2-4fa4-bc4b-54416a63e78d","system_id":"levelo_inurba_marseille","lat":43.30148,"lon":5.38085,"is_reserved":false,"is_disabled":false,"rental_uris":{"android":"levelo://app?vid=66784a2d-07a2-4fa4-bc4b-54416a63e78d","ios":"levelo://app?vid=66784a2d-07a2-4fa4-bc4b-54416a63e78d"},"vehicle_type_id":"4","last_reported":1732105081,"current_range_meters":19200,"station_id":"ce4bgjp2rcd13ifvqbh0","pricing_plan_id":"cebpf4jnsgd1na2vs0mg"},{"bike_id":"b2f6b9cf-69db-40ab-8230-689c41a2c16c","system_id":"levelo_inurba_marseille","lat":43.24161,"lon":5.36403,"is_reserved":false,"is_disabled":false,"rental_uris":{"android":"levelo://app?vid=b2f6b9cf-69db-40ab-8230-689c41a2c16c","ios":"levelo://app?vid=b2f6b9cf-69db-40ab-8230-689c41a2c16c"},"vehicle_type_id":"4","last_reported":1732105081,"current_range_meters":38000,"station_id":"cpo36qri1sfpv3e86is0","pricing_plan_id":"cebpf4jnsgd1na2vs0mg"},{"bike_id":"b8ccf5c1-5ac6-47e7-b7ff-56c39cc2dd57","system_id":"levelo_inurba_marseille","lat":43.33606,"lon":5.41033,"is_reserved":false,"is_disabled":false,"rental_uris":{"android":"levelo://app?vid=b8ccf5c1-5ac6-47e7-b7ff-56c39cc2dd57","ios":"levelo://app?vid=b8ccf5c1-5ac6-47e7-b7ff-56c39cc2dd57"},"vehicle_type_id":"4","last_reported":1732105081,"current_range_meters":12800,"station_id":"ce4bhqh2rcd13ifvqhmg","pricing_plan_id":"cebpf4jnsgd1na2vs0mg"},{"bike_id":"2910f69a-6dac-4d69-a60d-e4f1b8cce200","system_id":"levelo_inurba_marseille","lat":43.27811,"lon":5.4072,"is_reserved":false,"is_disabled":true,"rental_uris":{"android":"levelo://app?vid=2910f69a-6dac-4d69-a60d-e4f1b8cce200","ios":"levelo://app?vid=2910f69a-6dac-4d69-a60d-e4f1b8cce200"},"vehicle_type_id":"4","last_reported":1732105081,"current_range_meters":13600,"station_id":"ce4bhnh2rcd13ifvqgtg","pricing_plan_id":"cebpf4jnsgd1na2vs0mg"},{"bike_id":"7552fdf6-68b4-42db-aad1-86f289198bda","system_id":"levelo_inurba_marseille","lat":43.26547,"lon":5.37292,"is_reserved":false,"is_disabled":false,"rental_uris":{"android":"levelo://app?vid=7552fdf6-68b4-42db-aad1-86f289198bda","ios":"levelo://app?vid=7552fdf6-68b4-42db-aad1-86f289198bda"},"vehicle_type_id":"4","last_reported":1732105081,"current_range_meters":36000,"station_id":"ce4bhg12rcd13ifvqf70","pricing_plan_id":"cebpf4jnsgd1na2vs0mg"},{"bike_id":"9c2f2764-6c98-4600-8b7b-4a479e36ad6f","system_id":"levelo_inurba_marseille","lat":43.28663,"lon":5.3635,"is_reserved":false,"is_disabled":false,"rental_uris":{"android":"levelo://app?vid=9c2f2764-6c98-4600-8b7b-4a479e36ad6f","ios":"levelo://app?vid=9c2f2764-6c98-4600-8b7b-4a479e36ad6f"},"vehicle_type_id":"4","last_reported":1732105081,"current_range_meters":37600,"station_id":"ce4bhah2rcd13ifvqej0","pricing_plan_id":"cebpf4jnsgd1na2vs0mg"},{"bike_id":"42631039-a1b1-42c3-96cb-261ddb2b0ee4","system_id":"levelo_inurba_marseille","lat":43.30183,"lon":5.36615,"is_reserved":false,"is_disabled":false,"rental_uris":{"android":"levelo://app?vid=42631039-a1b1-42c3-96cb-261ddb2b0ee4","ios":"levelo://app?vid=42631039-a1b1-42c3-96cb-261ddb2b0ee4"},"vehicle_type_id":"4","last_reported":1732105081,"current_range_meters":38000,"station_id":"ce4bgrh2rcd13ifvqc8g","pricing_plan_id":"cebpf4jnsgd1na2vs0mg"},{"bike_id":"9f4d3b90-5e50-4e7e-be07-31fde83c9198","system_id":"levelo_inurba_marseille","lat":43.30098,"lon":5.39096,"is_reserved":false,"is_disabled":false,"rental_uris":{"android":"levelo://app?vid=9f4d3b90-5e50-4e7e-be07-31fde83c9198","ios":"levelo://app?vid=9f4d3b90-5e50-4e7e-be07-31fde83c9198"},"vehicle_type_id":"4","last_reported":1732105081,"current_range_meters":16000,"station_id":"ce4bh192rcd13ifvqdb0","pricing_plan_id":"cebpf4jnsgd1na2vs0mg"},{"bike_id":"da118503-6ab7-4c94-98bc-2b63accd50d2","system_id":"levelo_inurba_marseille","lat":43.31083,"lon":5.42433,"is_reserved":false,"is_disabled":false,"rental_uris":{"android":"levelo://app?vid=da118503-6ab7-4c94-98bc-2b63accd50d2","ios":"levelo://app?vid=da118503-6ab7-4c94-98bc-2b63accd50d2"},"vehicle_type_id":"4","last_reported":1732105081,"current_range_meters":38800,"station_id":"ce4bhp92rcd13ifvqhag","pricing_plan_id":"cebpf4jnsgd1na2vs0mg"},{"bike_id":"9a21a647-3f75-4028-9019-d40037d0d31d","system_id":"levelo_inurba_marseille","lat":43.27942,"lon":5.41049,"is_reserved":false,"is_disabled":false,"rental_uris":{"android":"levelo://app?vid=9a21a647-3f75-4028-9019-d40037d0d31d","ios":"levelo://app?vid=9a21a647-3f75-4028-9019-d40037d0d31d"},"vehicle_type_id":"4","last_reported":1732105081,"current_range_meters":3200,"station_id":"ce4bhnp2rcd13ifvqh0g","pricing_plan_id":"cebpf4jnsgd1na2vs0mg"},{"bike_id":"f55181d4-2053-40e2-9cda-06227a4b9bdf","system_id":"levelo_inurba_marseille","lat":43.32478,"lon":5.36554,"is_reserved":false,"is_disabled":false,"rental_uris":{"android":"levelo://app?vid=f55181d4-2053-40e2-9cda-06227a4b9bdf","ios":"levelo://app?vid=f55181d4-2053-40e2-9cda-06227a4b9bdf"},"vehicle_type_id":"4","last_reported":1732105081,"current_range_meters":38400,"station_id":"ce4bhs12rcd13ifvqhvg","pricing_plan_id":"cebpf4jnsgd1na2vs0mg"},{"bike_id":"036145f2-25f3-431d-8452-bf74254a5141","system_id":"levelo_inurba_marseille","lat":43.31756,"lon":5.39012,"is_reserved":false,"is_disabled":false,"rental_uris":{"android":"levelo://app?vid=036145f2-25f3-431d-8452-bf74254a5141","ios":"levelo://app?vid=036145f2-25f3-431d-8452-bf74254a5141"},"vehicle_type_id":"4","last_reported":1732105081,"current_range_meters":38800,"station_id":"ce4bhqp2rcd13ifvqhng","pricing_plan_id":"cebpf4jnsgd1na2vs0mg"},{"bike_id":"1f58a098-e7ea-4ea8-8ed7-a4f95f7c3a27","system_id":"levelo_inurba_marseille","lat":43.27068,"lon":5.42275,"is_reserved":false,"is_disabled":false,"rental_uris":{"android":"levelo://app?vid=1f58a098-e7ea-4ea8-8ed7-a4f95f7c3a27","ios":"levelo://app?vid=1f58a098-e7ea-4ea8-8ed7-a4f95f7c3a27"},"vehicle_type_id":"4","last_reported":1732105081,"current_range_meters":4000,"station_id":"ce4bhk92rcd13ifvqgb0","pricing_plan_id":"cebpf4jnsgd1na2vs0mg"},{"bike_id":"59b314a2-8d26-4344-9152-8d5fbe4bc210","system_id":"levelo_inurba_marseille","lat":43.26952,"lon":5.38633,"is_reserved":false,"is_disabled":false,"rental_uris":{"android":"levelo://app?vid=59b314a2-8d26-4344-9152-8d5fbe4bc210","ios":"levelo://app?vid=59b314a2-8d26-4344-9152-8d5fbe4bc210"},"vehicle_type_id":"4","last_reported":1732105081,"current_range_meters":1600,"station_id":"ce4bhh92rcd13ifvqfh0","pricing_plan_id":"cebpf4jnsgd1na2vs0mg"},{"bike_id":"4c8ed69d-903a-47a6-a719-b8a1ba33ec6e","system_id":"levelo_inurba_marseille","lat":43.260338,"lon":5.375402,"is_reserved":false,"is_disabled":false,"rental_uris":{"android":"levelo://app?vid=4c8ed69d-903a-47a6-a719-b8a1ba33ec6e","ios":"levelo://app?vid=4c8ed69d-903a-47a6-a719-b8a1ba33ec6e"},"vehicle_type_id":"4","last_reported":1732105081,"current_range_meters":24000,"station_id":"ce4bhgh2rcd13ifvqfa0","pricing_plan_id":"cebpf4jnsgd1na2vs0mg"},{"bike_id":"dcf8e606-faea-4af0-b779-752c347cf535","system_id":"levelo_inurba_marseille","lat":43.30138,"lon":5.37431,"is_reserved":false,"is_disabled":false,"rental_uris":{"android":"levelo://app?vid=dcf8e606-faea-4af0-b779-752c347cf535","ios":"levelo://app?vid=dcf8e606-faea-4af0-b779-752c347cf535"},"vehicle_type_id":"4","last_reported":1732105081,"current_range_meters":36000,"station_id":"ce4bgs92rcd13ifvqcc0","pricing_plan_id":"cebpf4jnsgd1na2vs0mg"},{"bike_id":"18375270-5c96-4148-9480-b075066f6b66","system_id":"levelo_inurba_marseille","lat":43.3054,"lon":5.36527,"is_reserved":false,"is_disabled":true,"rental_uris":{"android":"levelo://app?vid=18375270-5c96-4148-9480-b075066f6b66","ios":"levelo://app?vid=18375270-5c96-4148-9480-b075066f6b66"},"vehicle_type_id":"4","last_reported":1732105081,"current_range_meters":30000,"station_id":"ce4bgs12rcd13ifvqcag","pricing_plan_id":"cebpf4jnsgd1na2vs0mg"},{"bike_id":"a7adcab0-3ff0-47f5-9771-4c26f4b29439","system_id":"levelo_inurba_marseille","lat":43.27809,"lon":5.40714,"is_reserved":false,"is_disabled":false,"rental_uris":{"android":"levelo://app?vid=a7adcab0-3ff0-47f5-9771-4c26f4b29439","ios":"levelo://app?vid=a7adcab0-3ff0-47f5-9771-4c26f4b29439"},"vehicle_type_id":"4","last_reported":1732105081,"current_range_meters":6800,"station_id":"ce4bhnh2rcd13ifvqgtg","pricing_plan_id":"cebpf4jnsgd1na2vs0mg"},{"bike_id":"1f6184e6-16e9-423d-b3e0-a3aa386ef26b","system_id":"levelo_inurba_marseille","lat":43.33023,"lon":5.39036,"is_reserved":false,"is_disabled":false,"rental_uris":{"android":"levelo://app?vid=1f6184e6-16e9-423d-b3e0-a3aa386ef26b","ios":"levelo://app?vid=1f6184e6-16e9-423d-b3e0-a3aa386ef26b"},"vehicle_type_id":"4","last_reported":1732105081,"current_range_meters":36400,"station_id":"ce4bhr92rcd13ifvqhrg","pricing_plan_id":"cebpf4jnsgd1na2vs0mg"},{"bike_id":"b84181a1-2802-4ec2-a40a-353da3be1193","system_id":"levelo_inurba_marseille","lat":43.22933,"lon":5.35377,"is_reserved":false,"is_disabled":false,"rental_uris":{"android":"levelo://app?vid=b84181a1-2802-4ec2-a40a-353da3be1193","ios":"levelo://app?vid=b84181a1-2802-4ec2-a40a-353da3be1193"},"vehicle_type_id":"4","last_reported":1732105081,"current_range_meters":36000,"station_id":"cpo3532slgdg3j2ikp40","pricing_plan_id":"cebpf4jnsgd1na2vs0mg"},{"bike_id":"cde5eb04-35f5-4971-aec4-8004f9b2dcd9","system_id":"levelo_inurba_marseille","lat":43.28271,"lon":5.35069,"is_reserved":false,"is_disabled":true,"rental_uris":{"android":"levelo://app?vid=cde5eb04-35f5-4971-aec4-8004f9b2dcd9","ios":"levelo://app?vid=cde5eb04-35f5-4971-aec4-8004f9b2dcd9"},"vehicle_type_id":"4","last_reported":1732105081,"current_range_meters":0,"station_id":"ce4bhbp2rcd13ifvqerg","pricing_plan_id":"cebpf4jnsgd1na2vs0mg"},{"bike_id":"daf04fcd-c935-4aac-a351-f6674c5ab957","system_id":"levelo_inurba_marseille","lat":43.2603,"lon":5.37546,"is_reserved":false,"is_disabled":false,"rental_uris":{"android":"levelo://app?vid=daf04fcd-c935-4aac-a351-f6674c5ab957","ios":"levelo://app?vid=daf04fcd-c935-4aac-a351-f6674c5ab957"},"vehicle_type_id":"4","last_reported":1732105081,"current_range_meters":25200,"station_id":"ce4bhgh2rcd13ifvqfa0","pricing_plan_id":"cebpf4jnsgd1na2vs0mg"},{"bike_id":"745c81c8-f72f-42a3-97c1-f5402c23afe2","system_id":"levelo_inurba_marseille","lat":43.27958,"lon":5.38724,"is_reserved":false,"is_disabled":true,"rental_uris":{"android":"levelo://app?vid=745c81c8-f72f-42a3-97c1-f5402c23afe2","ios":"levelo://app?vid=745c81c8-f72f-42a3-97c1-f5402c23afe2"},"vehicle_type_id":"4","last_reported":1732105081,"current_range_meters":400,"station_id":"ce4bhg12rcd13ifvqf80","pricing_plan_id":"cebpf4jnsgd1na2vs0mg"},{"bike_id":"dafe288f-6610-42cc-8445-fee21019d8dc","system_id":"levelo_inurba_marseille","lat":43.23152,"lon":5.43714,"is_reserved":false,"is_disabled":false,"rental_uris":{"android":"levelo://app?vid=dafe288f-6610-42cc-8445-fee21019d8dc","ios":"levelo://app?vid=dafe288f-6610-42cc-8445-fee21019d8dc"},"vehicle_type_id":"4","last_reported":1732105081,"current_range_meters":13600,"station_id":"ce4bhmp2rcd13ifvqgog","pricing_plan_id":"cebpf4jnsgd1na2vs0mg"},{"bike_id":"1e32d089-9836-4b1d-b09a-6f77cbbbcbf2","system_id":"levelo_inurba_marseille","lat":43.30901,"lon":5.36852,"is_reserved":false,"is_disabled":false,"rental_uris":{"android":"levelo://app?vid=1e32d089-9836-4b1d-b09a-6f77cbbbcbf2","ios":"levelo://app?vid=1e32d089-9836-4b1d-b09a-6f77cbbbcbf2"},"vehicle_type_id":"4","last_reported":1732105081,"current_range_meters":38800,"station_id":"ce4bgn92rcd13ifvqbvg","pricing_plan_id":"cebpf4jnsgd1na2vs0mg"},{"bike_id":"26e5900e-3780-4940-8a93-a20b5b8ef068","system_id":"levelo_inurba_marseille","lat":43.30548,"lon":5.36555,"is_reserved":false,"is_disabled":false,"rental_uris":{"android":"levelo://app?vid=26e5900e-3780-4940-8a93-a20b5b8ef068","ios":"levelo://app?vid=26e5900e-3780-4940-8a93-a20b5b8ef068"},"vehicle_type_id":"4","last_reported":1732105081,"current_range_meters":28800,"station_id":"ce4bgs12rcd13ifvqcag","pricing_plan_id":"cebpf4jnsgd1na2vs0mg"},{"bike_id":"b3bdc194-aba5-48fb-a01c-83a5adf8f8f5","system_id":"levelo_inurba_marseille","lat":43.30936,"lon":5.40147,"is_reserved":false,"is_disabled":false,"rental_uris":{"android":"levelo://app?vid=b3bdc194-aba5-48fb-a01c-83a5adf8f8f5","ios":"levelo://app?vid=b3bdc194-aba5-48fb-a01c-83a5adf8f8f5"},"vehicle_type_id":"4","last_reported":1732105081,"current_range_meters":26800,"station_id":"ce4bgvp2rcd13ifvqct0","pricing_plan_id":"cebpf4jnsgd1na2vs0mg"},{"bike_id":"bd0f3ed6-4cba-4f56-9205-c76f2a9cc9c8","system_id":"levelo_inurba_marseille","lat":43.30181,"lon":5.36609,"is_reserved":false,"is_disabled":false,"rental_uris":{"android":"levelo://app?vid=bd0f3ed6-4cba-4f56-9205-c76f2a9cc9c8","ios":"levelo://app?vid=bd0f3ed6-4cba-4f56-9205-c76f2a9cc9c8"},"vehicle_type_id":"4","last_reported":1732105081,"current_range_meters":38800,"station_id":"ce4bgrh2rcd13ifvqc8g","pricing_plan_id":"cebpf4jnsgd1na2vs0mg"},{"bike_id":"c3bc0f64-f384-48a7-9517-04f95522a7e3","system_id":"levelo_inurba_marseille","lat":43.318242,"lon":5.37611,"is_reserved":false,"is_disabled":true,"rental_uris":{"android":"levelo://app?vid=c3bc0f64-f384-48a7-9517-04f95522a7e3","ios":"levelo://app?vid=c3bc0f64-f384-48a7-9517-04f95522a7e3"},"vehicle_type_id":"4","last_reported":1732105081,"current_range_meters":11200,"station_id":"","pricing_plan_id":"cebpf4jnsgd1na2vs0mg"},{"bike_id":"89429ed2-f839-4749-bcb9-3e5230fe3bfb","system_id":"levelo_inurba_marseille","lat":43.3372,"lon":5.39183,"is_reserved":false,"is_disabled":false,"rental_uris":{"android":"levelo://app?vid=89429ed2-f839-4749-bcb9-3e5230fe3bfb","ios":"levelo://app?vid=89429ed2-f839-4749-bcb9-3e5230fe3bfb"},"vehicle_type_id":"4","last_reported":1732105081,"current_range_meters":32400,"station_id":"ce4bhr92rcd13ifvqhsg","pricing_plan_id":"cebpf4jnsgd1na2vs0mg"},{"bike_id":"4d7daa92-098a-4d38-b26f-4629da77392e","system_id":"levelo_inurba_marseille","lat":43.30883,"lon":5.39659,"is_reserved":false,"is_disabled":false,"rental_uris":{"android":"levelo://app?vid=4d7daa92-098a-4d38-b26f-4629da77392e","ios":"levelo://app?vid=4d7daa92-098a-4d38-b26f-4629da77392e"},"vehicle_type_id":"4","last_reported":1732105081,"current_range_meters":17600,"station_id":"ce4bh012rcd13ifvqcv0","pricing_plan_id":"cebpf4jnsgd1na2vs0mg"},{"bike_id":"bb8bc886-b16d-46c8-b54d-72fcf2a3b828","system_id":"levelo_inurba_marseille","lat":43.31354,"lon":5.36705,"is_reserved":false,"is_disabled":false,"rental_uris":{"android":"levelo://app?vid=bb8bc886-b16d-46c8-b54d-72fcf2a3b828","ios":"levelo://app?vid=bb8bc886-b16d-46c8-b54d-72fcf2a3b828"},"vehicle_type_id":"4","last_reported":1732105081,"current_range_meters":28400,"station_id":"ce4bgr92rcd13ifvqc6g","pricing_plan_id":"cebpf4jnsgd1na2vs0mg"},{"bike_id":"28a1bdc2-51eb-4a09-9ce0-3f693df9f09d","system_id":"levelo_inurba_marseille","lat":43.30147,"lon":5.38079,"is_reserved":false,"is_disabled":true,"rental_uris":{"android":"levelo://app?vid=28a1bdc2-51eb-4a09-9ce0-3f693df9f09d","ios":"levelo://app?vid=28a1bdc2-51eb-4a09-9ce0-3f693df9f09d"},"vehicle_type_id":"4","last_reported":1732105081,"current_range_meters":4000,"station_id":"ce4bgjp2rcd13ifvqbh0","pricing_plan_id":"cebpf4jnsgd1na2vs0mg"},{"bike_id":"5374d838-41b1-4cbd-a822-814645d57a6b","system_id":"levelo_inurba_marseille","lat":43.26212,"lon":5.37443,"is_reserved":false,"is_disabled":false,"rental_uris":{"android":"levelo://app?vid=5374d838-41b1-4cbd-a822-814645d57a6b","ios":"levelo://app?vid=5374d838-41b1-4cbd-a822-814645d57a6b"},"vehicle_type_id":"4","last_reported":1732105081,"current_range_meters":36000,"station_id":"ce4bhgp2rcd13ifvqfc0","pricing_plan_id":"cebpf4jnsgd1na2vs0mg"},{"bike_id":"16ff428c-a201-4a64-b99c-c0f7c0d8fe65","system_id":"levelo_inurba_marseille","lat":43.30482,"lon":5.37913,"is_reserved":false,"is_disabled":false,"rental_uris":{"android":"levelo://app?vid=16ff428c-a201-4a64-b99c-c0f7c0d8fe65","ios":"levelo://app?vid=16ff428c-a201-4a64-b99c-c0f7c0d8fe65"},"vehicle_type_id":"4","last_reported":1732105081,"current_range_meters":18800,"station_id":"ce4bgup2rcd13ifvqcn0","pricing_plan_id":"cebpf4jnsgd1na2vs0mg"},{"bike_id":"a288582f-e609-4b1f-9e1f-4b407176785e","system_id":"levelo_inurba_marseille","lat":43.299,"lon":5.37459,"is_reserved":false,"is_disabled":true,"rental_uris":{"android":"levelo://app?vid=a288582f-e609-4b1f-9e1f-4b407176785e","ios":"levelo://app?vid=a288582f-e609-4b1f-9e1f-4b407176785e"},"vehicle_type_id":"4","last_reported":1732105081,"current_range_meters":0,"station_id":"ce4bgjh2rcd13ifvqbg0","pricing_plan_id":"cebpf4jnsgd1na2vs0mg"},{"bike_id":"1f6e2a5b-f640-42ed-a4e7-69add8b6d721","system_id":"levelo_inurba_marseille","lat":43.29034,"lon":5.39965,"is_reserved":false,"is_disabled":false,"rental_uris":{"android":"levelo://app?vid=1f6e2a5b-f640-42ed-a4e7-69add8b6d721","ios":"levelo://app?vid=1f6e2a5b-f640-42ed-a4e7-69add8b6d721"},"vehicle_type_id":"4","last_reported":1732105081,"current_range_meters":30400,"station_id":"ce4bh392rcd13ifvqdm0","pricing_plan_id":"cebpf4jnsgd1na2vs0mg"},{"bike_id":"79d8c574-9062-423c-8a03-76b3dbc58333","system_id":"levelo_inurba_marseille","lat":43.27823,"lon":5.39203,"is_reserved":false,"is_disabled":true,"rental_uris":{"android":"levelo://app?vid=79d8c574-9062-423c-8a03-76b3dbc58333","ios":"levelo://app?vid=79d8c574-9062-423c-8a03-76b3dbc58333"},"vehicle_type_id":"4","last_reported":1732105081,"current_range_meters":0,"station_id":"ce4bhjp2rcd13ifvqga0","pricing_plan_id":"cebpf4jnsgd1na2vs0mg"},{"bike_id":"7770b1cc-2a54-4d08-8255-6bed2fc397aa","system_id":"levelo_inurba_marseille","lat":43.2319,"lon":5.35544,"is_reserved":false,"is_disabled":false,"rental_uris":{"android":"levelo://app?vid=7770b1cc-2a54-4d08-8255-6bed2fc397aa","ios":"levelo://app?vid=7770b1cc-2a54-4d08-8255-6bed2fc397aa"},"vehicle_type_id":"4","last_reported":1732105081,"current_range_meters":25600,"station_id":"ce4bhu92rcd13ifvqi70","pricing_plan_id":"cebpf4jnsgd1na2vs0mg"},{"bike_id":"eb6d4e71-1cd0-4f82-88e5-7bd4e828f615","system_id":"levelo_inurba_marseille","lat":43.29612,"lon":5.37083,"is_reserved":false,"is_disabled":false,"rental_uris":{"android":"levelo://app?vid=eb6d4e71-1cd0-4f82-88e5-7bd4e828f615","ios":"levelo://app?vid=eb6d4e71-1cd0-4f82-88e5-7bd4e828f615"},"vehicle_type_id":"4","last_reported":1732105081,"current_range_meters":36000,"station_id":"ce4bha92rcd13ifvqeh0","pricing_plan_id":"cebpf4jnsgd1na2vs0mg"},{"bike_id":"c7cf0c86-20a3-47da-b19c-ad17aab67602","system_id":"levelo_inurba_marseille","lat":43.2835,"lon":5.38104,"is_reserved":false,"is_disabled":true,"rental_uris":{"android":"levelo://app?vid=c7cf0c86-20a3-47da-b19c-ad17aab67602","ios":"levelo://app?vid=c7cf0c86-20a3-47da-b19c-ad17aab67602"},"vehicle_type_id":"4","last_reported":1732105081,"current_range_meters":1600,"station_id":"ce4bh412rcd13ifvqdr0","pricing_plan_id":"cebpf4jnsgd1na2vs0mg"},{"bike_id":"a631153c-0ea2-4839-8bdc-f0b688f4f666","system_id":"levelo_inurba_marseille","lat":43.31166,"lon":5.38721,"is_reserved":false,"is_disabled":false,"rental_uris":{"android":"levelo://app?vid=a631153c-0ea2-4839-8bdc-f0b688f4f666","ios":"levelo://app?vid=a631153c-0ea2-4839-8bdc-f0b688f4f666"},"vehicle_type_id":"4","last_reported":1732105081,"current_range_meters":36800,"station_id":"ce4bgv12rcd13ifvqcp0","pricing_plan_id":"cebpf4jnsgd1na2vs0mg"},{"bike_id":"b9c2f42f-19e8-42c4-bc93-b38e899ced39","system_id":"levelo_inurba_marseille","lat":43.31324,"lon":5.39695,"is_reserved":false,"is_disabled":false,"rental_uris":{"android":"levelo://app?vid=b9c2f42f-19e8-42c4-bc93-b38e899ced39","ios":"levelo://app?vid=b9c2f42f-19e8-42c4-bc93-b38e899ced39"},"vehicle_type_id":"4","last_reported":1732105081,"current_range_meters":16800,"station_id":"ce4bgvp2rcd13ifvqcu0","pricing_plan_id":"cebpf4jnsgd1na2vs0mg"},{"bike_id":"3d25d818-80cf-415a-996a-afc2d01ce97b","system_id":"levelo_inurba_marseille","lat":43.2779,"lon":5.40731,"is_reserved":false,"is_disabled":false,"rental_uris":{"android":"levelo://app?vid=3d25d818-80cf-415a-996a-afc2d01ce97b","ios":"levelo://app?vid=3d25d818-80cf-415a-996a-afc2d01ce97b"},"vehicle_type_id":"4","last_reported":1732105081,"current_range_meters":9600,"station_id":"ce4bhnh2rcd13ifvqgtg","pricing_plan_id":"cebpf4jnsgd1na2vs0mg"},{"bike_id":"ad39a7d8-4bd9-4555-8a96-26aebb5c379c","system_id":"levelo_inurba_marseille","lat":43.23147,"lon":5.43714,"is_reserved":false,"is_disabled":false,"rental_uris":{"android":"levelo://app?vid=ad39a7d8-4bd9-4555-8a96-26aebb5c379c","ios":"levelo://app?vid=ad39a7d8-4bd9-4555-8a96-26aebb5c379c"},"vehicle_type_id":"4","last_reported":1732105081,"current_range_meters":18000,"station_id":"ce4bhmp2rcd13ifvqgog","pricing_plan_id":"cebpf4jnsgd1na2vs0mg"},{"bike_id":"83c3d2b4-6d0d-4355-84fd-74ac4ec760ea","system_id":"levelo_inurba_marseille","lat":43.31086,"lon":5.42429,"is_reserved":false,"is_disabled":false,"rental_uris":{"android":"levelo://app?vid=83c3d2b4-6d0d-4355-84fd-74ac4ec760ea","ios":"levelo://app?vid=83c3d2b4-6d0d-4355-84fd-74ac4ec760ea"},"vehicle_type_id":"4","last_reported":1732105081,"current_range_meters":38800,"station_id":"ce4bhp92rcd13ifvqhag","pricing_plan_id":"cebpf4jnsgd1na2vs0mg"},{"bike_id":"32b29fb2-dfde-4d04-b087-989cd944a33c","system_id":"levelo_inurba_marseille","lat":43.23149,"lon":5.43727,"is_reserved":false,"is_disabled":false,"rental_uris":{"android":"levelo://app?vid=32b29fb2-dfde-4d04-b087-989cd944a33c","ios":"levelo://app?vid=32b29fb2-dfde-4d04-b087-989cd944a33c"},"vehicle_type_id":"4","last_reported":1732105081,"current_range_meters":38800,"station_id":"ce4bhmp2rcd13ifvqgog","pricing_plan_id":"cebpf4jnsgd1na2vs0mg"},{"bike_id":"5a35b8cc-a9f0-4da4-ab01-0037fbd351fe","system_id":"levelo_inurba_marseille","lat":43.251129,"lon":5.403204,"is_reserved":false,"is_disabled":false,"rental_uris":{"android":"levelo://app?vid=5a35b8cc-a9f0-4da4-ab01-0037fbd351fe","ios":"levelo://app?vid=5a35b8cc-a9f0-4da4-ab01-0037fbd351fe"},