{"last_updated":1745788074,"ttl":60,"version":"2.2","data":{"bikes":[{"bike_id":"837b078e-256e-4a12-af17-3aaba6d928b5","system_id":"levelo_inurba_marseille","lat":43.27277,"lon":5.39165,"is_reserved":false,"is_disabled":true,"rental_uris":{"android":"levelo://app?vid=837b078e-256e-4a12-af17-3aaba6d928b5","ios":"levelo://app?vid=837b078e-256e-4a12-af17-3aaba6d928b5"},"vehicle_type_id":"4","last_reported":1745788074,"current_range_meters":2800,"station_id":"","pricing_plan_id":"cebpf4jnsgd1na2vs0mg"},{"bike_id":"951c826e-1fb2-4d06-b193-5f083401a77e","system_id":"levelo_inurba_marseille","lat":43.27414,"lon":5.390296,"is_reserved":false,"is_disabled":false,"rental_uris":{"android":"levelo://app?vid=951c826e-1fb2-4d06-b193-5f083401a77e","ios":"levelo://app?vid=951c826e-1fb2-4d06-b193-5f083401a77e"},"vehicle_type_id":"4","last_reported":1745788074,"current_range_meters":3600,"station_id":"ce4bh2p2rcd13ifvqdi0","pricing_plan_id":"cebpf4jnsgd1na2vs0mg"},{"bike_id":"d48770ea-271d-480f-a83f-8620fe6a1833","system_id":"levelo_inurba_marseille","lat":43.28176,"lon":5.40462,"is_reserved":false,"is_disabled":true,"rental_uris":{"android":"levelo://app?vid=d48770ea-271d-480f-a83f-8620fe6a1833","ios":"levelo://app?vid=d48770ea-271d-480f-a83f-8620fe6a1833"},"vehicle_type_id":"4","last_reported":1745788074,"current_range_meters":4000,"station_id":"","pricing_plan_id":"cebpf4jnsgd1na2vs0mg"},{"bike_id":"238961a6-c4be-4c39-a96b-91bea8a0b401","system_id":"levelo_inurba_marseille","lat":43.26224,"lon":5.40449,"is_reserved":false,"is_disabled":false,"rental_uris":{"android":"levelo://app?vid=238961a6-c4be-4c39-a96b-91bea8a0b401","ios":"levelo://app?vid=238961a6-c4be-4c39-a96b-91bea8a0b401"},"vehicle_type_id":"4","last_reported":1745788074,"current_range_meters":4800,"station_id":"ce4bhmh2rcd13ifvqgmg","pricing_plan_id":"cebpf4jnsgd1na2vs0mg"},{"bike_id":"d207e63a-1126-4002-8817-099b9155cf2f","system_id":"levelo_inurba_marseille","lat":43.26201,"lon":5.37926,"is_reserved":false,"is_disabled":false,"rental_uris":{"android":"levelo://app?vid=d207e63a-1126-4002-8817-099b9155cf2f","ios":"levelo://app?vid=d207e63a-1126-4002-8817-099b9155cf2f"},"vehicle_type_id":"4","last_reported":1745788074,"current_range_meters":6400,"station_id":"ce4bhjp2rcd13ifvqg90","pricing_plan_id":"cebpf4jnsgd1na2vs0mg"},{"bike_id":"308ce0d7-54d5-4aec-879f-da2149307f93","system_id":"levelo_inurba_marseille","lat":43.22526,"lon":5.34762,"is_reserved":false,"is_disabled":true,"rental_uris":{"android":"levelo://app?vid=308ce0d7-54d5-4aec-879f-da2149307f93","ios":"levelo://app?vid=308ce0d7-54d5-4aec-879f-da2149307f93"},"vehicle_type_id":"4","last_reported":1745788074,"current_range_meters":6400,"station_id":"st_cvj5dfep6f1abm77gieg","pricing_plan_id":"cebpf4jnsgd1na2vs0mg"},{"bike_id":"b9573801-f8cd-450a-943a-86a4083bccfa","system_id":"levelo_inurba_marseille","lat":43.25109,"lon":5.40321,"is_reserved":false,"is_disabled":false,"rental_uris":{"android":"levelo://app?vid=b9573801-f8cd-450a-943a-86a4083bccfa","ios":"levelo://app?vid=b9573801-f8cd-450a-943a-86a4083bccfa"},"vehicle_type_id":"4","last_reported":1745788074,"current_range_meters":6400,"station_id":"ce4bhlh2rcd13ifvqgig","pricing_plan_id":"cebpf4jnsgd1na2vs0mg"},{"bike_id":"042a36cf-a68c-4f02-8fbe-a3d4f36fa492","system_id":"levelo_inurba_marseille","lat":43.21207,"lon":5.35087,"is_reserved":false,"is_disabled":false,"rental_uris":{"android":"levelo://app?vid=042a36cf-a68c-4f02-8fbe-a3d4f36fa492","ios":"levelo://app?vid=042a36cf-a68c-4f02-8fbe-a3d4f36fa492"},"vehicle_type_id":"4","last_reported":1745788074,"current_range_meters":6400,"station_id":"st_cvj6sg6p6f1abm77japg","pricing_plan_id":"cebpf4jnsgd1na2vs0mg"},{"bike_id":"e7700b32-7460-4264-83d7-2dd5db8dccaa","system_id":"levelo_inurba_marseille","lat":43.27997,"lon":5.41661,"is_reserved":false,"is_disabled":false,"rental_uris":{"android":"levelo://app?vid=e7700b32-7460-4264-83d7-2dd5db8dccaa","ios":"levelo://app?vid=e7700b32-7460-4264-83d7-2dd5db8dccaa"},"vehicle_type_id":"4","last_reported":1745788074,"current_range_meters":6400,"station_id":"ce4bho12rcd13ifvqh1g","pricing_plan_id":"cebpf4jnsgd1na2vs0mg"},{"bike_id":"089a414a-a400-477a-85af-614ecccd0cb0","system_id":"levelo_inurba_marseille","lat":43.272064,"lon":5.391166,"is_reserved":false,"is_disabled":false,"rental_uris":{"android":"levelo://app?vid=089a414a-a400-477a-85af-614ecccd0cb0","ios":"levelo://app?vid=089a414a-a400-477a-85af-614ecccd0cb0"},"vehicle_type_id":"4","last_reported":1745788074,"current_range_meters":6400,"station_id":"ce4bha12rcd13ifvqee0","pricing_plan_id":"cebpf4jnsgd1na2vs0mg"},{"bike_id":"1d884504-789c-44c0-983d-19af378fb0f3","system_id":"levelo_inurba_marseille","lat":43.21749,"lon":5.34617,"is_reserved":false,"is_disabled":false,"rental_uris":{"android":"levelo://app?vid=1d884504-789c-44c0-983d-19af378fb0f3","ios":"levelo://app?vid=1d884504-789c-44c0-983d-19af378fb0f3"},"vehicle_type_id":"4","last_reported":1745788074,"current_range_meters":6400,"station_id":"st_cvj6r9ubvosntc0bgbag","pricing_plan_id":"cebpf4jnsgd1na2vs0mg"},{"bike_id":"82016555-1022-467f-b7e9-084b6d838aac","system_id":"levelo_inurba_marseille","lat":43.25526,"lon":5.37624,"is_reserved":false,"is_disabled":false,"rental_uris":{"android":"levelo://app?vid=82016555-1022-467f-b7e9-084b6d838aac","ios":"levelo://app?vid=82016555-1022-467f-b7e9-084b6d838aac"},"vehicle_type_id":"4","last_reported":1745788074,"current_range_meters":6800,"station_id":"ce4bhh12rcd13ifvqff0","pricing_plan_id":"cebpf4jnsgd1na2vs0mg"},{"bike_id":"2d4820d4-569a-4ec0-b000-e82a960dd30b","system_id":"levelo_inurba_marseille","lat":43.2314,"lon":5.35484,"is_reserved":false,"is_disabled":false,"rental_uris":{"android":"levelo://app?vid=2d4820d4-569a-4ec0-b000-e82a960dd30b","ios":"levelo://app?vid=2d4820d4-569a-4ec0-b000-e82a960dd30b"},"vehicle_type_id":"4","last_reported":1745788074,"current_range_meters":6800,"station_id":"","pricing_plan_id":"cebpf4jnsgd1na2vs0mg"},{"bike_id":"8d60a86d-bdb3-459a-b176-2853abd28ea1","system_id":"levelo_inurba_marseille","lat":43.27296,"lon":5.39108,"is_reserved":false,"is_disabled":true,"rental_uris":{"android":"levelo://app?vid=8d60a86d-bdb3-459a-b176-2853abd28ea1","ios":"levelo://app?vid=8d60a86d-bdb3-459a-b176-2853abd28ea1"},"vehicle_type_id":"4","last_reported":1745788074,"current_range_meters":6800,"station_id":"ce4bhgp2rcd13ifvqfe0","pricing_plan_id":"cebpf4jnsgd1na2vs0mg"},{"bike_id":"d9d42592-3084-4d0e-9bdc-dde1c8c2459a","system_id":"levelo_inurba_marseille","lat":43.23195,"lon":5.39981,"is_reserved":false,"is_disabled":false,"rental_uris":{"android":"levelo://app?vid=d9d42592-3084-4d0e-9bdc-dde1c8c2459a","ios":"levelo://app?vid=d9d42592-3084-4d0e-9bdc-dde1c8c2459a"},"vehicle_type_id":"4","last_reported":1745788074,"current_range_meters":6800,"station_id":"ce4bhn12rcd13ifvqgqg","pricing_plan_id":"cebpf4jnsgd1na2vs0mg"},{"bike_id":"7c0299c1-21cf-46f7-b65a-7138a191a071","system_id":"levelo_inurba_marseille","lat":43.25493,"lon":5.37645,"is_reserved":false,"is_disabled":false,"rental_uris":{"android":"levelo://app?vid=7c0299c1-21cf-46f7-b65a-7138a191a071","ios":"levelo://app?vid=7c0299c1-21cf-46f7-b65a-7138a191a071"},"vehicle_type_id":"4","last_reported":1745788074,"current_range_meters":6800,"station_id":"ce4bhh12rcd13ifvqff0","pricing_plan_id":"cebpf4jnsgd1na2vs0mg"},{"bike_id":"b203106f-15ad-4224-a9bb-aef6d708468c","system_id":"levelo_inurba_marseille","lat":43.275016,"lon":5.424456,"is_reserved":false,"is_disabled":false,"rental_uris":{"android":"levelo://app?vid=b203106f-15ad-4224-a9bb-aef6d708468c","ios":"levelo://app?vid=b203106f-15ad-4224-a9bb-aef6d708468c"},"vehicle_type_id":"4","last_reported":1745788074,"current_range_meters":6800,"station_id":"ce4bhn92rcd13ifvqgrg","pricing_plan_id":"cebpf4jnsgd1na2vs0mg"},{"bike_id":"284efe7b-2e61-45b1-a1e4-7089a3b3d2dd","system_id":"levelo_inurba_marseille","lat":43.25925,"lon":5.4091,"is_reserved":false,"is_disabled":false,"rental_uris":{"android":"levelo://app?vid=284efe7b-2e61-45b1-a1e4-7089a3b3d2dd","ios":"levelo://app?vid=284efe7b-2e61-45b1-a1e4-7089a3b3d2dd"},"vehicle_type_id":"4","last_reported":1745788074,"current_range_meters":6800,"station_id":"ce4bhm92rcd13ifvqglg","pricing_plan_id":"cebpf4jnsgd1na2vs0mg"},{"bike_id":"c1b1b433-bcb9-4a7d-8963-3218bcdcba1e","system_id":"levelo_inurba_marseille","lat":43.2336,"lon":5.36065,"is_reserved":false,"is_disabled":false,"rental_uris":{"android":"levelo://app?vid=c1b1b433-bcb9-4a7d-8963-3218bcdcba1e","ios":"levelo://app?vid=c1b1b433-bcb9-4a7d-8963-3218bcdcba1e"},"vehicle_type_id":"4","last_reported":1745788074,"current_range_meters":6800,"station_id":"","pricing_plan_id":"cebpf4jnsgd1na2vs0mg"},{"bike_id":"4a5edcf1-6727-4c60-8f88-19c6d2a1f8fa","system_id":"levelo_inurba_marseille","lat":43.2293,"lon":5.35377,"is_reserved":false,"is_disabled":false,"rental_uris":{"android":"levelo://app?vid=4a5edcf1-6727-4c60-8f88-19c6d2a1f8fa","ios":"levelo://app?vid=4a5edcf1-6727-4c60-8f88-19c6d2a1f8fa"},"vehicle_type_id":"4","last_reported":1745788074,"current_range_meters":6800,"station_id":"cpo3532slgdg3j2ikp40","pricing_plan_id":"cebpf4jnsgd1na2vs0mg"},{"bike_id":"f17b8bc9-cb61-461c-a30c-7a4a35ea4852","system_id":"levelo_inurba_marseille","lat":43.28456,"lon":5.35889,"is_reserved":false,"is_disabled":false,"rental_uris":{"android":"levelo://app?vid=f17b8bc9-cb61-461c-a30c-7a4a35ea4852","ios":"levelo://app?vid=f17b8bc9-cb61-461c-a30c-7a4a35ea4852"},"vehicle_type_id":"4","last_reported":1745788074,"current_range_meters":7200,"station_id":"ce4bhah2rcd13ifvqei0","pricing_plan_id":"cebpf4jnsgd1na2vs0mg"},{"bike_id":"a71a1767-ca84-44aa-86fa-fca0811af48d","system_id":"levelo_inurba_marseille","lat":43.27064,"lon":5.40262,"is_reserved":false,"is_disabled":false,"rental_uris":{"android":"levelo://app?vid=a71a1767-ca84-44aa-86fa-fca0811af48d","ios":"levelo://app?vid=a71a1767-ca84-44aa-86fa-fca0811af48d"},"vehicle_type_id":"4","last_reported":1745788074,"current_range_meters":8000,"station_id":"ce4bhk92rcd13ifvqgc0","pricing_plan_id":"cebpf4jnsgd1na2vs0mg"},{"bike_id":"81159e63-3b35-42d5-8e59-a6400c53568e","system_id":"levelo_inurba_marseille","lat":43.21748,"lon":5.346,"is_reserved":false,"is_disabled":false,"rental_uris":{"android":"levelo://app?vid=81159e63-3b35-42d5-8e59-a6400c53568e","ios":"levelo://app?vid=81159e63-3b35-42d5-8e59-a6400c53568e"},"vehicle_type_id":"4","last_reported":1745788074,"current_range_meters":7200,"station_id":"st_cvj6r9ubvosntc0bgbag","pricing_plan_id":"cebpf4jnsgd1na2vs0mg"},{"bike_id":"cfedda18-f895-49da-bc3d-8d22c0dd79d7","system_id":"levelo_inurba_marseille","lat":43.25746,"lon":5.41093,"is_reserved":false,"is_disabled":false,"rental_uris":{"android":"levelo://app?vid=cfedda18-f895-49da-bc3d-8d22c0dd79d7","ios":"levelo://app?vid=cfedda18-f895-49da-bc3d-8d22c0dd79d7"},"vehicle_type_id":"4","last_reported":1745788074,"current_range_meters":7200,"station_id":"ce4bhkp2rcd13ifvqgd0","pricing_plan_id":"cebpf4jnsgd1na2vs0mg"},{"bike_id":"4f237f57-7e6d-4454-a0e6-195d0a8fae7b","system_id":"levelo_inurba_marseille","lat":43.32489,"lon":5.43884,"is_reserved":false,"is_disabled":false,"rental_uris":{"android":"levelo://app?vid=4f237f57-7e6d-4454-a0e6-195d0a8fae7b","ios":"levelo://app?vid=4f237f57-7e6d-4454-a0e6-195d0a8fae7b"},"vehicle_type_id":"4","last_reported":1745788074,"current_range_meters":7200,"station_id":"","pricing_plan_id":"cebpf4jnsgd1na2vs0mg"},{"bike_id":"b4ab71dc-7ecc-4fcb-bfaf-2cb4e735be46","system_id":"levelo_inurba_marseille","lat":43.24157,"lon":5.3973,"is_reserved":false,"is_disabled":false,"rental_uris":{"android":"levelo://app?vid=b4ab71dc-7ecc-4fcb-bfaf-2cb4e735be46","ios":"levelo://app?vid=b4ab71dc-7ecc-4fcb-bfaf-2cb4e735be46"},"vehicle_type_id":"4","last_reported":1745788074,"current_range_meters":7200,"station_id":"ce4bhn12rcd13ifvqgpg","pricing_plan_id":"cebpf4jnsgd1na2vs0mg"},{"bike_id":"53d01398-6662-4f30-afa3-87fe6b07bcf3","system_id":"levelo_inurba_marseille","lat":43.31519,"lon":5.37277,"is_reserved":false,"is_disabled":false,"rental_uris":{"android":"levelo://app?vid=53d01398-6662-4f30-afa3-87fe6b07bcf3","ios":"levelo://app?vid=53d01398-6662-4f30-afa3-87fe6b07bcf3"},"vehicle_type_id":"4","last_reported":1745788074,"current_range_meters":7200,"station_id":"","pricing_plan_id":"cebpf4jnsgd1na2vs0mg"},{"bike_id":"647eceb0-396c-4b66-9b6a-15942a39bd89","system_id":"levelo_inurba_marseille","lat":43.24153,"lon":5.36411,"is_reserved":false,"is_disabled":false,"rental_uris":{"android":"levelo://app?vid=647eceb0-396c-4b66-9b6a-15942a39bd89","ios":"levelo://app?vid=647eceb0-396c-4b66-9b6a-15942a39bd89"},"vehicle_type_id":"4","last_reported":1745788074,"current_range_meters":8000,"station_id":"cpo36qri1sfpv3e86is0","pricing_plan_id":"cebpf4jnsgd1na2vs0mg"},{"bike_id":"c596ab54-4f89-4649-a442-12778ac8adc4","system_id":"levelo_inurba_marseille","lat":43.31716,"lon":5.43704,"is_reserved":false,"is_disabled":true,"rental_uris":{"android":"levelo://app?vid=c596ab54-4f89-4649-a442-12778ac8adc4","ios":"levelo://app?vid=c596ab54-4f89-4649-a442-12778ac8adc4"},"vehicle_type_id":"4","last_reported":1745788074,"current_range_meters":8000,"station_id":"ce4bhp92rcd13ifvqhcg","pricing_plan_id":"cebpf4jnsgd1na2vs0mg"},{"bike_id":"64d4c2a4-c8f7-4762-af83-98c376c7623f","system_id":"levelo_inurba_marseille","lat":43.21758,"lon":5.34636,"is_reserved":false,"is_disabled":false,"rental_uris":{"android":"levelo://app?vid=64d4c2a4-c8f7-4762-af83-98c376c7623f","ios":"levelo://app?vid=64d4c2a4-c8f7-4762-af83-98c376c7623f"},"vehicle_type_id":"4","last_reported":1745788074,"current_range_meters":8000,"station_id":"st_cvj6r9ubvosntc0bgbag","pricing_plan_id":"cebpf4jnsgd1na2vs0mg"},{"bike_id":"4e09e2f3-6329-4563-9a1f-79c5001029cb","system_id":"levelo_inurba_marseille","lat":43.3243,"lon":5.39145,"is_reserved":false,"is_disabled":true,"rental_uris":{"android":"levelo://app?vid=4e09e2f3-6329-4563-9a1f-79c5001029cb","ios":"levelo://app?vid=4e09e2f3-6329-4563-9a1f-79c5001029cb"},"vehicle_type_id":"4","last_reported":1745788074,"current_range_meters":8000,"station_id":"","pricing_plan_id":"cebpf4jnsgd1na2vs0mg"},{"bike_id":"5ddba1f1-1747-4179-b91f-b8778028cd60","system_id":"levelo_inurba_marseille","lat":43.25624,"lon":5.411989,"is_reserved":false,"is_disabled":false,"rental_uris":{"android":"levelo://app?vid=5ddba1f1-1747-4179-b91f-b8778028cd60","ios":"levelo://app?vid=5ddba1f1-1747-4179-b91f-b8778028cd60"},"vehicle_type_id":"4","last_reported":1745788074,"current_range_meters":8000,"station_id":"","pricing_plan_id":"cebpf4jnsgd1na2vs0mg"},{"bike_id":"ed60544f-d4ed-4ba8-8dde-4adf13d4fa92","system_id":"levelo_inurba_marseille","lat":43.31222,"lon":5.36855,"is_reserved":false,"is_disabled":false,"rental_uris":{"android":"levelo://app?vid=ed60544f-d4ed-4ba8-8dde-4adf13d4fa92","ios":"levelo://app?vid=ed60544f-d4ed-4ba8-8dde-4adf13d4fa92"},"vehicle_type_id":"4","last_reported":1745788074,"current_range_meters":8400,"station_id":"ce4bgl92rcd13ifvqbq0","pricing_plan_id":"cebpf4jnsgd1na2vs0mg"},{"bike_id":"7d727c0a-6c28-48dc-bed3-bc7b1f3ba7ba","system_id":"levelo_inurba_marseille","lat":43.2923,"lon":5.36472,"is_reserved":false,"is_disabled":true,"rental_uris":{"android":"levelo://app?vid=7d727c0a-6c28-48dc-bed3-bc7b1f3ba7ba","ios":"levelo://app?vid=7d727c0a-6c28-48dc-bed3-bc7b1f3ba7ba"},"vehicle_type_id":"4","last_reported":1745788074,"current_range_meters":8400,"station_id":"","pricing_plan_id":"cebpf4jnsgd1na2vs0mg"},{"bike_id":"1e6778b1-a8b4-4d99-84b7-a446771adee7","system_id":"levelo_inurba_marseille","lat":43.23188,"lon":5.39983,"is_reserved":false,"is_disabled":false,"rental_uris":{"android":"levelo://app?vid=1e6778b1-a8b4-4d99-84b7-a446771adee7","ios":"levelo://app?vid=1e6778b1-a8b4-4d99-84b7-a446771adee7"},"vehicle_type_id":"4","last_reported":1745788074,"current_range_meters":8400,"station_id":"ce4bhn12rcd13ifvqgqg","pricing_plan_id":"cebpf4jnsgd1na2vs0mg"},{"bike_id":"721ac694-ddc1-45a4-93fe-2aef08d4b564","system_id":"levelo_inurba_marseille","lat":43.24167,"lon":5.36447,"is_reserved":false,"is_disabled":false,"rental_uris":{"android":"levelo://app?vid=721ac694-ddc1-45a4-93fe-2aef08d4b564","ios":"levelo://app?vid=721ac694-ddc1-45a4-93fe-2aef08d4b564"},"vehicle_type_id":"4","last_reported":1745788074,"current_range_meters":8400,"station_id":"cpo36qri1sfpv3e86is0","pricing_plan_id":"cebpf4jnsgd1na2vs0mg"},{"bike_id":"9a0a88c4-e20e-4eec-90d2-0c0ca0de7f78","system_id":"levelo_inurba_marseille","lat":43.30374,"lon":5.42484,"is_reserved":false,"is_disabled":false,"rental_uris":{"android":"levelo://app?vid=9a0a88c4-e20e-4eec-90d2-0c0ca0de7f78","ios":"levelo://app?vid=9a0a88c4-e20e-4eec-90d2-0c0ca0de7f78"},"vehicle_type_id":"4","last_reported":1745788074,"current_range_meters":8400,"station_id":"ce4bhoh2rcd13ifvqh6g","pricing_plan_id":"cebpf4jnsgd1na2vs0mg"},{"bike_id":"374695c7-05ae-441b-90bd-19811cb2defe","system_id":"levelo_inurba_marseille","lat":43.30739,"lon":5.4245,"is_reserved":false,"is_disabled":false,"rental_uris":{"android":"levelo://app?vid=374695c7-05ae-441b-90bd-19811cb2defe","ios":"levelo://app?vid=374695c7-05ae-441b-90bd-19811cb2defe"},"vehicle_type_id":"4","last_reported":1745788074,"current_range_meters":8400,"station_id":"st_cvj6ca6bvosntc0bfgr0","pricing_plan_id":"cebpf4jnsgd1na2vs0mg"},{"bike_id":"7285c221-847b-46d9-b086-1b7053cfaa3d","system_id":"levelo_inurba_marseille","lat":43.24158,"lon":5.39695,"is_reserved":false,"is_disabled":false,"rental_uris":{"android":"levelo://app?vid=7285c221-847b-46d9-b086-1b7053cfaa3d","ios":"levelo://app?vid=7285c221-847b-46d9-b086-1b7053cfaa3d"},"vehicle_type_id":"4","last_reported":1745788074,"current_range_meters":8800,"station_id":"ce4bhn12rcd13ifvqgpg","pricing_plan_id":"cebpf4jnsgd1na2vs0mg"},{"bike_id":"cecf372e-f99d-4092-9fb9-aba0fb187411","system_id":"levelo_inurba_marseille","lat":43.32414,"lon":5.39099,"is_reserved":false,"is_disabled":false,"rental_uris":{"android":"levelo://app?vid=cecf372e-f99d-4092-9fb9-aba0fb187411","ios":"levelo://app?vid=cecf372e-f99d-4092-9fb9-aba0fb187411"},"vehicle_type_id":"4","last_reported":1745788074,"current_range_meters":8800,"station_id":"","pricing_plan_id":"cebpf4jnsgd1na2vs0mg"},{"bike_id":"7a629823-3cc9-4265-bbd8-788e1b6db938","system_id":"levelo_inurba_marseille","lat":43.25493,"lon":5.37644,"is_reserved":false,"is_disabled":false,"rental_uris":{"android":"levelo://app?vid=7a629823-3cc9-4265-bbd8-788e1b6db938","ios":"levelo://app?vid=7a629823-3cc9-4265-bbd8-788e1b6db938"},"vehicle_type_id":"4","last_reported":1745788074,"current_range_meters":8800,"station_id":"ce4bhh12rcd13ifvqff0","pricing_plan_id":"cebpf4jnsgd1na2vs0mg"},{"bike_id":"8e69b43d-2709-436e-81af-04565d304827","system_id":"levelo_inurba_marseille","lat":43.27912,"lon":5.395851,"is_reserved":false,"is_disabled":false,"rental_uris":{"android":"levelo://app?vid=8e69b43d-2709-436e-81af-04565d304827","ios":"levelo://app?vid=8e69b43d-2709-436e-81af-04565d304827"},"vehicle_type_id":"4","last_reported":1745788074,"current_range_meters":9200,"station_id":"ce4bhf92rcd13ifvqf40","pricing_plan_id":"cebpf4jnsgd1na2vs0mg"},{"bike_id":"574c21c3-5de9-4bfa-a3aa-ac4e3698f0a7","system_id":"levelo_inurba_marseille","lat":43.27213,"lon":5.39204,"is_reserved":false,"is_disabled":true,"rental_uris":{"android":"levelo://app?vid=574c21c3-5de9-4bfa-a3aa-ac4e3698f0a7","ios":"levelo://app?vid=574c21c3-5de9-4bfa-a3aa-ac4e3698f0a7"},"vehicle_type_id":"4","last_reported":1745788074,"current_range_meters":9200,"station_id":"ce4bhhp2rcd13ifvqfm0","pricing_plan_id":"cebpf4jnsgd1na2vs0mg"},{"bike_id":"3a329fe9-deb6-4729-bbed-973ea17872b9","system_id":"levelo_inurba_marseille","lat":43.25115,"lon":5.40318,"is_reserved":false,"is_disabled":false,"rental_uris":{"android":"levelo://app?vid=3a329fe9-deb6-4729-bbed-973ea17872b9","ios":"levelo://app?vid=3a329fe9-deb6-4729-bbed-973ea17872b9"},"vehicle_type_id":"4","last_reported":1745788074,"current_range_meters":9200,"station_id":"ce4bhlh2rcd13ifvqgig","pricing_plan_id":"cebpf4jnsgd1na2vs0mg"},{"bike_id":"ab08e698-0e23-4805-8aaa-b39648eaffad","system_id":"levelo_inurba_marseille","lat":43.28515,"lon":5.3845,"is_reserved":false,"is_disabled":true,"rental_uris":{"android":"levelo://app?vid=ab08e698-0e23-4805-8aaa-b39648eaffad","ios":"levelo://app?vid=ab08e698-0e23-4805-8aaa-b39648eaffad"},"vehicle_type_id":"4","last_reported":1745788074,"current_range_meters":9200,"station_id":"ce4bh512rcd13ifvqe3g","pricing_plan_id":"cebpf4jnsgd1na2vs0mg"},{"bike_id":"aae164b7-1114-49aa-b004-978d7030ee91","system_id":"levelo_inurba_marseille","lat":43.25,"lon":5.38907,"is_reserved":false,"is_disabled":false,"rental_uris":{"android":"levelo://app?vid=aae164b7-1114-49aa-b004-978d7030ee91","ios":"levelo://app?vid=aae164b7-1114-49aa-b004-978d7030ee91"},"vehicle_type_id":"4","last_reported":1745788074,"current_range_meters":9200,"station_id":"ce4bhgp2rcd13ifvqfd0","pricing_plan_id":"cebpf4jnsgd1na2vs0mg"},{"bike_id":"0053b840-de47-4900-98aa-cc8575176b05","system_id":"levelo_inurba_marseille","lat":43.24175,"lon":5.36392,"is_reserved":false,"is_disabled":true,"rental_uris":{"android":"levelo://app?vid=0053b840-de47-4900-98aa-cc8575176b05","ios":"levelo://app?vid=0053b840-de47-4900-98aa-cc8575176b05"},"vehicle_type_id":"4","last_reported":1745788074,"current_range_meters":9600,"station_id":"cpo36qri1sfpv3e86is0","pricing_plan_id":"cebpf4jnsgd1na2vs0mg"},{"bike_id":"ae1d96a0-b0a2-41e1-be14-e78907f9338a","system_id":"levelo_inurba_marseille","lat":43.29516,"lon":5.39402,"is_reserved":false,"is_disabled":true,"rental_uris":{"android":"levelo://app?vid=ae1d96a0-b0a2-41e1-be14-e78907f9338a","ios":"levelo://app?vid=ae1d96a0-b0a2-41e1-be14-e78907f9338a"},"vehicle_type_id":"4","last_reported":1745788074,"current_range_meters":9600,"station_id":"ce4bh292rcd13ifvqdf0","pricing_plan_id":"cebpf4jnsgd1na2vs0mg"},{"bike_id":"9c11351b-6d33-476e-a8cb-9503ab8a6236","system_id":"levelo_inurba_marseille","lat":43.31301,"lon":5.38251,"is_reserved":false,"is_disabled":false,"rental_uris":{"android":"levelo://app?vid=9c11351b-6d33-476e-a8cb-9503ab8a6236","ios":"levelo://app?vid=9c11351b-6d33-476e-a8cb-9503ab8a6236"},"vehicle_type_id":"4","last_reported":1745788074,"current_range_meters":9600,"station_id":"","pricing_plan_id":"cebpf4jnsgd1na2vs0mg"},{"bike_id":"554c7222-d609-4841-a832-33adb157bebb","system_id":"levelo_inurba_marseille","lat":43.21194,"lon":5.35072,"is_reserved":false,"is_disabled":false,"rental_uris":{"android":"levelo://app?vid=554c7222-d609-4841-a832-33adb157bebb","ios":"levelo://app?vid=554c7222-d609-4841-a832-33adb157bebb"},"vehicle_type_id":"4","last_reported":1745788074,"current_range_meters":9600,"station_id":"st_cvj6sg6p6f1abm77japg","pricing_plan_id":"cebpf4jnsgd1na2vs0mg"},{"bike_id":"66c89bb7-3b13-49ff-b8c5-0823b0bd91cb","system_id":"levelo_inurba_marseille","lat":43.26187,"lon":5.37454,"is_reserved":false,"is_disabled":true,"rental_uris":{"android":"levelo://app?vid=66c89bb7-3b13-49ff-b8c5-0823b0bd91cb","ios":"levelo://app?vid=66c89bb7-3b13-49ff-b8c5-0823b0bd91cb"},"vehicle_type_id":"4","last_reported":1745788074,"current_range_meters":9600,"station_id":"ce4bhgp2rcd13ifvqfc0","pricing_plan_id":"cebpf4jnsgd1na2vs0mg"},{"bike_id":"91474842-32bf-45c2-856a-80fd91d22aa5","system_id":"levelo_inurba_marseille","lat":43.211946,"lon":5.350718,"is_reserved":false,"is_disabled":false,"rental_uris":{"android":"levelo://app?vid=91474842-32bf-45c2-856a-80fd91d22aa5","ios":"levelo://app?vid=91474842-32bf-45c2-856a-80fd91d22aa5"},"vehicle_type_id":"4","last_reported":1745788074,"current_range_meters":9600,"station_id":"st_cvj6sg6p6f1abm77japg","pricing_plan_id":"cebpf4jnsgd1na2vs0mg"},{"bike_id":"3a98c0df-de3e-40ca-9407-20a56af778c7","system_id":"levelo_inurba_marseille","lat":43.251188,"lon":5.403242,"is_reserved":false,"is_disabled":false,"rental_uris":{"android":"levelo://app?vid=3a98c0df-de3e-40ca-9407-20a56af778c7","ios":"levelo://app?vid=3a98c0df-de3e-40ca-9407-20a56af778c7"},"vehicle_type_id":"4","last_reported":1745788074,"current_range_meters":10000,"station_id":"ce4bhlh2rcd13ifvqgig","pricing_plan_id":"cebpf4jnsgd1na2vs0mg"},{"bike_id":"30288cb7-e849-4b02-8ab1-96deccfd974f","system_id":"levelo_inurba_marseille","lat":43.23954,"lon":5.36634,"is_reserved":false,"is_disabled":false,"rental_uris":{"android":"levelo://app?vid=30288cb7-e849-4b02-8ab1-96deccfd974f","ios":"levelo://app?vid=30288cb7-e849-4b02-8ab1-96deccfd974f"},"vehicle_type_id":"4","last_reported":1745788074,"current_range_meters":10000,"station_id":"ce4bhi12rcd13ifvqfp0","pricing_plan_id":"cebpf4jnsgd1na2vs0mg"},{"bike_id":"44530a1d-b48a-47f5-a929-63b20a3c24dc","system_id":"levelo_inurba_marseille","lat":43.24156,"lon":5.36401,"is_reserved":false,"is_disabled":false,"rental_uris":{"android":"levelo://app?vid=44530a1d-b48a-47f5-a929-63b20a3c24dc","ios":"levelo://app?vid=44530a1d-b48a-47f5-a929-63b20a3c24dc"},"vehicle_type_id":"4","last_reported":1745788074,"current_range_meters":10000,"station_id":"cpo36qri1sfpv3e86is0","pricing_plan_id":"cebpf4jnsgd1na2vs0mg"},{"bike_id":"af4a97e0-dded-4da0-9eba-7bcd01c44383","system_id":"levelo_inurba_marseille","lat":43.30304,"lon":5.39197,"is_reserved":false,"is_disabled":true,"rental_uris":{"android":"levelo://app?vid=af4a97e0-dded-4da0-9eba-7bcd01c44383","ios":"levelo://app?vid=af4a97e0-dded-4da0-9eba-7bcd01c44383"},"vehicle_type_id":"4","last_reported":1745788074,"current_range_meters":10000,"station_id":"ce4bgkh2rcd13ifvqbk0","pricing_plan_id":"cebpf4jnsgd1na2vs0mg"},{"bike_id":"c1faacd0-1f5b-4c1f-996a-7cfb70349eca","system_id":"levelo_inurba_marseille","lat":43.2572,"lon":5.41114,"is_reserved":false,"is_disabled":false,"rental_uris":{"android":"levelo://app?vid=c1faacd0-1f5b-4c1f-996a-7cfb70349eca","ios":"levelo://app?vid=c1faacd0-1f5b-4c1f-996a-7cfb70349eca"},"vehicle_type_id":"4","last_reported":1745788074,"current_range_meters":10000,"station_id":"ce4bhkp2rcd13ifvqgd0","pricing_plan_id":"cebpf4jnsgd1na2vs0mg"},{"bike_id":"21a5b78b-6652-49fa-a8ee-70531791ccf1","system_id":"levelo_inurba_marseille","lat":43.24895,"lon":5.42509,"is_reserved":false,"is_disabled":false,"rental_uris":{"android":"levelo://app?vid=21a5b78b-6652-49fa-a8ee-70531791ccf1","ios":"levelo://app?vid=21a5b78b-6652-49fa-a8ee-70531791ccf1"},"vehicle_type_id":"4","last_reported":1745788074,"current_range_meters":10000,"station_id":"","pricing_plan_id":"cebpf4jnsgd1na2vs0mg"},{"bike_id":"cd177435-770b-406f-8c88-405a89734813","system_id":"levelo_inurba_marseille","lat":43.28035,"lon":5.36952,"is_reserved":false,"is_disabled":false,"rental_uris":{"android":"levelo://app?vid=cd177435-770b-406f-8c88-405a89734813","ios":"levelo://app?vid=cd177435-770b-406f-8c88-405a89734813"},"vehicle_type_id":"4","last_reported":1745788074,"current_range_meters":10000,"station_id":"ce4bha12rcd13ifvqef0","pricing_plan_id":"cebpf4jnsgd1na2vs0mg"},{"bike_id":"8840b7d1-badd-45b4-91db-50feaeb6b7ed","system_id":"levelo_inurba_marseille","lat":43.31062,"lon":5.36714,"is_reserved":false,"is_disabled":false,"rental_uris":{"android":"levelo://app?vid=8840b7d1-badd-45b4-91db-50feaeb6b7ed","ios":"levelo://app?vid=8840b7d1-badd-45b4-91db-50feaeb6b7ed"},"vehicle_type_id":"4","last_reported":1745788074,"current_range_meters":10000,"station_id":"","pricing_plan_id":"cebpf4jnsgd1na2vs0mg"},{"bike_id":"a2e988ca-4cad-46d4-8096-1d1b1de4b0e4","system_id":"levelo_inurba_marseille","lat":43.32359,"lon":5.36756,"is_reserved":false,"is_disabled":false,"rental_uris":{"android":"levelo://app?vid=a2e988ca-4cad-46d4-8096-1d1b1de4b0e4","ios":"levelo://app?vid=a2e988ca-4cad-46d4-8096-1d1b1de4b0e4"},"vehicle_type_id":"4","last_reported":1745788074,"current_range_meters":10800,"station_id":"ce4bhsh2rcd13ifvqi2g","pricing_plan_id":"cebpf4jnsgd1na2vs0mg"},{"bike_id":"a08e6535-7d97-4f82-b424-5e6daf2d2362","system_id":"levelo_inurba_marseille","lat":43.29512,"lon":5.39394,"is_reserved":false,"is_disabled":true,"rental_uris":{"android":"levelo://app?vid=a08e6535-7d97-4f82-b424-5e6daf2d2362","ios":"levelo://app?vid=a08e6535-7d97-4f82-b424-5e6daf2d2362"},"vehicle_type_id":"4","last_reported":1745788074,"current_range_meters":10800,"station_id":"ce4bh292rcd13ifvqdf0","pricing_plan_id":"cebpf4jnsgd1na2vs0mg"},{"bike_id":"42714ffe-c42c-407f-8e86-4a0c4f465a7a","system_id":"levelo_inurba_marseille","lat":43.24542,"lon":5.39515,"is_reserved":false,"is_disabled":false,"rental_uris":{"android":"levelo://app?vid=42714ffe-c42c-407f-8e86-4a0c4f465a7a","ios":"levelo://app?vid=42714ffe-c42c-407f-8e86-4a0c4f465a7a"},"vehicle_type_id":"4","last_reported":1745788074,"current_range_meters":10800,"station_id":"ce4bhlp2rcd13ifvqgjg","pricing_plan_id":"cebpf4jnsgd1na2vs0mg"},{"bike_id":"9508c147-ffab-4ccc-b33c-ffdb21da9f90","system_id":"levelo_inurba_marseille","lat":43.29038,"lon":5.35924,"is_reserved":false,"is_disabled":false,"rental_uris":{"android":"levelo://app?vid=9508c147-ffab-4ccc-b33c-ffdb21da9f90","ios":"levelo://app?vid=9508c147-ffab-4ccc-b33c-ffdb21da9f90"},"vehicle_type_id":"4","last_reported":1745788074,"current_range_meters":10000,"station_id":"ce4bha92rcd13ifvqeg0","pricing_plan_id":"cebpf4jnsgd1na2vs0mg"},{"bike_id":"e1b84f42-92bc-49b3-afbe-e0f83fe8369e","system_id":"levelo_inurba_marseille","lat":43.2319,"lon":5.39987,"is_reserved":false,"is_disabled":false,"rental_uris":{"android":"levelo://app?vid=e1b84f42-92bc-49b3-afbe-e0f83fe8369e","ios":"levelo://app?vid=e1b84f42-92bc-49b3-afbe-e0f83fe8369e"},"vehicle_type_id":"4","last_reported":1745788074,"current_range_meters":10800,"station_id":"ce4bhn12rcd13ifvqgqg","pricing_plan_id":"cebpf4jnsgd1na2vs0mg"},{"bike_id":"7014e259-aed7-42e6-8369-bd3518db2318","system_id":"levelo_inurba_marseille","lat":43.26925,"lon":5.38671,"is_reserved":false,"is_disabled":false,"rental_uris":{"android":"levelo://app?vid=7014e259-aed7-42e6-8369-bd3518db2318","ios":"levelo://app?vid=7014e259-aed7-42e6-8369-bd3518db2318"},"vehicle_type_id":"4","last_reported":1745788074,"current_range_meters":10800,"station_id":"ce4bhhh2rcd13ifvqfl0","pricing_plan_id":"cebpf4jnsgd1na2vs0mg"},{"bike_id":"356b76a1-af1a-4bef-951e-98e5b057a721","system_id":"levelo_inurba_marseille","lat":43.292569,"lon":5.384319,"is_reserved":false,"is_disabled":true,"rental_uris":{"android":"levelo://app?vid=356b76a1-af1a-4bef-951e-98e5b057a721","ios":"levelo://app?vid=356b76a1-af1a-4bef-951e-98e5b057a721"},"vehicle_type_id":"4","last_reported":1745788074,"current_range_meters":11200,"station_id":"ce4bh692rcd13ifvqea0","pricing_plan_id":"cebpf4jnsgd1na2vs0mg"},{"bike_id":"3390a30f-8d81-4c67-b744-cb166fd0067b","system_id":"levelo_inurba_marseille","lat":43.29553,"lon":5.42295,"is_reserved":false,"is_disabled":false,"rental_uris":{"android":"levelo://app?vid=3390a30f-8d81-4c67-b744-cb166fd0067b","ios":"levelo://app?vid=3390a30f-8d81-4c67-b744-cb166fd0067b"},"vehicle_type_id":"4","last_reported":1745788074,"current_range_meters":10800,"station_id":"ce4bhph2rcd13ifvqhdg","pricing_plan_id":"cebpf4jnsgd1na2vs0mg"},{"bike_id":"8235d872-096e-497c-a719-c2fcbf16281e","system_id":"levelo_inurba_marseille","lat":43.24652,"lon":5.38896,"is_reserved":false,"is_disabled":false,"rental_uris":{"android":"levelo://app?vid=8235d872-096e-497c-a719-c2fcbf16281e","ios":"levelo://app?vid=8235d872-096e-497c-a719-c2fcbf16281e"},"vehicle_type_id":"4","last_reported":1745788074,"current_range_meters":11200,"station_id":"ce4bhg12rcd13ifvqf60","pricing_plan_id":"cebpf4jnsgd1na2vs0mg"},{"bike_id":"560f12bb-1614-4d7c-b78e-ccf5bdec9ea6","system_id":"levelo_inurba_marseille","lat":43.28454,"lon":5.35899,"is_reserved":false,"is_disabled":true,"rental_uris":{"android":"levelo://app?vid=560f12bb-1614-4d7c-b78e-ccf5bdec9ea6","ios":"levelo://app?vid=560f12bb-1614-4d7c-b78e-ccf5bdec9ea6"},"vehicle_type_id":"4","last_reported":1745788074,"current_range_meters":11200,"station_id":"ce4bhah2rcd13ifvqei0","pricing_plan_id":"cebpf4jnsgd1na2vs0mg"},{"bike_id":"7626ed72-c0f8-4eb9-adb3-f027b3fcb3d9","system_id":"levelo_inurba_marseille","lat":43.2467,"lon":5.38161,"is_reserved":false,"is_disabled":false,"rental_uris":{"android":"levelo://app?vid=7626ed72-c0f8-4eb9-adb3-f027b3fcb3d9","ios":"levelo://app?vid=7626ed72-c0f8-4eb9-adb3-f027b3fcb3d9"},"vehicle_type_id":"4","last_reported":1745788074,"current_range_meters":11600,"station_id":"ce4bhih2rcd13ifvqfr0","pricing_plan_id":"cebpf4jnsgd1na2vs0mg"},{"bike_id":"717cabec-6d1e-4fbd-94f4-9e9366fab599","system_id":"levelo_inurba_marseille","lat":43.22509,"lon":5.34779,"is_reserved":false,"is_disabled":true,"rental_uris":{"android":"levelo://app?vid=717cabec-6d1e-4fbd-94f4-9e9366fab599","ios":"levelo://app?vid=717cabec-6d1e-4fbd-94f4-9e9366fab599"},"vehicle_type_id":"4","last_reported":1745788074,"current_range_meters":12000,"station_id":"st_cvj5dfep6f1abm77gieg","pricing_plan_id":"cebpf4jnsgd1na2vs0mg"},{"bike_id":"57ebd52c-bbc8-4a4d-8d80-2da8f6250dbd","system_id":"levelo_inurba_marseille","lat":43.27821,"lon":5.40722,"is_reserved":false,"is_disabled":true,"rental_uris":{"android":"levelo://app?vid=57ebd52c-bbc8-4a4d-8d80-2da8f6250dbd","ios":"levelo://app?vid=57ebd52c-bbc8-4a4d-8d80-2da8f6250dbd"},"vehicle_type_id":"4","last_reported":1745788074,"current_range_meters":12000,"station_id":"ce4bhnh2rcd13ifvqgtg","pricing_plan_id":"cebpf4jnsgd1na2vs0mg"},{"bike_id":"6303aeb8-901b-4f8f-8588-7c345791c8ea","system_id":"levelo_inurba_marseille","lat":43.24731,"lon":5.41204,"is_reserved":false,"is_disabled":false,"rental_uris":{"android":"levelo://app?vid=6303aeb8-901b-4f8f-8588-7c345791c8ea","ios":"levelo://app?vid=6303aeb8-901b-4f8f-8588-7c345791c8ea"},"vehicle_type_id":"4","last_reported":1745788074,"current_range_meters":12400,"station_id":"","pricing_plan_id":"cebpf4jnsgd1na2vs0mg"},{"bike_id":"a98c21cc-f07c-4868-91de-19d3f5bf3efd","system_id":"levelo_inurba_marseille","lat":43.27173,"lon":5.40995,"is_reserved":false,"is_disabled":false,"rental_uris":{"android":"levelo://app?vid=a98c21cc-f07c-4868-91de-19d3f5bf3efd","ios":"levelo://app?vid=a98c21cc-f07c-4868-91de-19d3f5bf3efd"},"vehicle_type_id":"4","last_reported":1745788074,"current_range_meters":12400,"station_id":"ce4bhl12rcd13ifvqgf0","pricing_plan_id":"cebpf4jnsgd1na2vs0mg"},{"bike_id":"bab391eb-e982-4066-b94b-52cc02253741","system_id":"levelo_inurba_marseille","lat":43.30244,"lon":5.40088,"is_reserved":false,"is_disabled":true,"rental_uris":{"android":"levelo://app?vid=bab391eb-e982-4066-b94b-52cc02253741","ios":"levelo://app?vid=bab391eb-e982-4066-b94b-52cc02253741"},"vehicle_type_id":"4","last_reported":1745788074,"current_range_meters":12400,"station_id":"ce4bgvh2rcd13ifvqcs0","pricing_plan_id":"cebpf4jnsgd1na2vs0mg"},{"bike_id":"6d593226-0a2e-46d4-8de3-9c8bd9d3e674","system_id":"levelo_inurba_marseille","lat":43.29542,"lon":5.37726,"is_reserved":false,"is_disabled":true,"rental_uris":{"android":"levelo://app?vid=6d593226-0a2e-46d4-8de3-9c8bd9d3e674","ios":"levelo://app?vid=6d593226-0a2e-46d4-8de3-9c8bd9d3e674"},"vehicle_type_id":"4","last_reported":1745788074,"current_range_meters":12400,"station_id":"","pricing_plan_id":"cebpf4jnsgd1na2vs0mg"},{"bike_id":"b330c3b4-8203-49c9-a4bf-5485d09a1d2d","system_id":"levelo_inurba_marseille","lat":43.30234,"lon":5.39468,"is_reserved":false,"is_disabled":true,"rental_uris":{"android":"levelo://app?vid=b330c3b4-8203-49c9-a4bf-5485d09a1d2d","ios":"levelo://app?vid=b330c3b4-8203-49c9-a4bf-5485d09a1d2d"},"vehicle_type_id":"4","last_reported":1745788074,"current_range_meters":12400,"station_id":"ce4bh0p2rcd13ifvqd70","pricing_plan_id":"cebpf4jnsgd1na2vs0mg"},{"bike_id":"7701295f-00c0-4fc0-993e-7aded7458e1b","system_id":"levelo_inurba_marseille","lat":43.33605,"lon":5.4103,"is_reserved":false,"is_disabled":false,"rental_uris":{"android":"levelo://app?vid=7701295f-00c0-4fc0-993e-7aded7458e1b","ios":"levelo://app?vid=7701295f-00c0-4fc0-993e-7aded7458e1b"},"vehicle_type_id":"4","last_reported":1745788074,"current_range_meters":12400,"station_id":"ce4bhqh2rcd13ifvqhmg","pricing_plan_id":"cebpf4jnsgd1na2vs0mg"},{"bike_id":"03bd42f6-231b-41f0-967c-979162658d23","system_id":"levelo_inurba_marseille","lat":43.24649,"lon":5.38194,"is_reserved":false,"is_disabled":false,"rental_uris":{"android":"levelo://app?vid=03bd42f6-231b-41f0-967c-979162658d23","ios":"levelo://app?vid=03bd42f6-231b-41f0-967c-979162658d23"},"vehicle_type_id":"4","last_reported":1745788074,"current_range_meters":12800,"station_id":"ce4bhih2rcd13ifvqfr0","pricing_plan_id":"cebpf4jnsgd1na2vs0mg"},{"bike_id":"3ccac05c-9dfe-40ab-8170-c07c58eafdc3","system_id":"levelo_inurba_marseille","lat":43.26226,"lon":5.40448,"is_reserved":false,"is_disabled":false,"rental_uris":{"android":"levelo://app?vid=3ccac05c-9dfe-40ab-8170-c07c58eafdc3","ios":"levelo://app?vid=3ccac05c-9dfe-40ab-8170-c07c58eafdc3"},"vehicle_type_id":"4","last_reported":1745788074,"current_range_meters":12800,"station_id":"ce4bhmh2rcd13ifvqgmg","pricing_plan_id":"cebpf4jnsgd1na2vs0mg"},{"bike_id":"a5903229-b31f-421f-9c07-ee7e22bcdbb0","system_id":"levelo_inurba_marseille","lat":43.21239,"lon":5.35134,"is_reserved":false,"is_disabled":false,"rental_uris":{"android":"levelo://app?vid=a5903229-b31f-421f-9c07-ee7e22bcdbb0","ios":"levelo://app?vid=a5903229-b31f-421f-9c07-ee7e22bcdbb0"},"vehicle_type_id":"4","last_reported":1745788074,"current_range_meters":12800,"station_id":"","pricing_plan_id":"cebpf4jnsgd1na2vs0mg"},{"bike_id":"3d934169-6946-46cc-87a4-ce5d03b77075","system_id":"levelo_inurba_marseille","lat":43.2176,"lon":5.34593,"is_reserved":false,"is_disabled":false,"rental_uris":{"android":"levelo://app?vid=3d934169-6946-46cc-87a4-ce5d03b77075","ios":"levelo://app?vid=3d934169-6946-46cc-87a4-ce5d03b77075"},"vehicle_type_id":"4","last_reported":1745788074,"current_range_meters":12800,"station_id":"st_cvj6r9ubvosntc0bgbag","pricing_plan_id":"cebpf4jnsgd1na2vs0mg"},{"bike_id":"1fe84233-d6e6-400c-ba7e-765c53207954","system_id":"levelo_inurba_marseille","lat":43.261,"lon":5.39356,"is_reserved":false,"is_disabled":false,"rental_uris":{"android":"levelo://app?vid=1fe84233-d6e6-400c-ba7e-765c53207954","ios":"levelo://app?vid=1fe84233-d6e6-400c-ba7e-765c53207954"},"vehicle_type_id":"4","last_reported":1745788074,"current_range_meters":12800,"station_id":"ce4bhh92rcd13ifvqfj0","pricing_plan_id":"cebpf4jnsgd1na2vs0mg"},{"bike_id":"0d777af5-4166-475a-a6b9-6a0197032592","system_id":"levelo_inurba_marseille","lat":43.23255,"lon":5.35211,"is_reserved":false,"is_disabled":false,"rental_uris":{"android":"levelo://app?vid=0d777af5-4166-475a-a6b9-6a0197032592","ios":"levelo://app?vid=0d777af5-4166-475a-a6b9-6a0197032592"},"vehicle_type_id":"4","last_reported":1745788074,"current_range_meters":13600,"station_id":"","pricing_plan_id":"cebpf4jnsgd1na2vs0mg"},{"bike_id":"a6ef5e73-9c2a-4c3a-b853-48e28d6dc161","system_id":"levelo_inurba_marseille","lat":43.317223,"lon":5.436987,"is_reserved":false,"is_disabled":true,"rental_uris":{"android":"levelo://app?vid=a6ef5e73-9c2a-4c3a-b853-48e28d6dc161","ios":"levelo://app?vid=a6ef5e73-9c2a-4c3a-b853-48e28d6dc161"},"vehicle_type_id":"4","last_reported":1745788074,"current_range_meters":13600,"station_id":"ce4bhp92rcd13ifvqhcg","pricing_plan_id":"cebpf4jnsgd1na2vs0mg"},{"bike_id":"b65926c2-3032-447d-982d-ccd4941bf335","system_id":"levelo_inurba_marseille","lat":43.294647,"lon":5.395923,"is_reserved":false,"is_disabled":false,"rental_uris":{"android":"levelo://app?vid=b65926c2-3032-447d-982d-ccd4941bf335","ios":"levelo://app?vid=b65926c2-3032-447d-982d-ccd4941bf335"},"vehicle_type_id":"4","last_reported":1745788074,"current_range_meters":12800,"station_id":"ce4bh292rcd13ifvqdf0","pricing_plan_id":"cebpf4jnsgd1na2vs0mg"},{"bike_id":"99be1414-58ff-4752-826b-d0dcc4401711","system_id":"levelo_inurba_marseille","lat":43.24824,"lon":5.37452,"is_reserved":false,"is_disabled":true,"rental_uris":{"android":"levelo://app?vid=99be1414-58ff-4752-826b-d0dcc4401711","ios":"levelo://app?vid=99be1414-58ff-4752-826b-d0dcc4401711"},"vehicle_type_id":"4","last_reported":1745788074,"current_range_meters":13600,"station_id":"ce4bhgh2rcd13ifvqfb0","pricing_plan_id":"cebpf4jnsgd1na2vs0mg"},{"bike_id":"89e7ab08-7fc9-416d-a96f-130de8b43266","system_id":"levelo_inurba_marseille","lat":43.33736,"lon":5.39194,"is_reserved":false,"is_disabled":false,"rental_uris":{"android":"levelo://app?vid=89e7ab08-7fc9-416d-a96f-130de8b43266","ios":"levelo://app?vid=89e7ab08-7fc9-416d-a96f-130de8b43266"},"vehicle_type_id":"4","last_reported":1745788074,"current_range_meters":14000,"station_id":"ce4bhr92rcd13ifvqhsg","pricing_plan_id":"cebpf4jnsgd1na2vs0mg"},{"bike_id":"d4ce7eab-d2e5-4dd9-bd61-f458b6331907","system_id":"levelo_inurba_marseille","lat":43.31362,"lon":5.38504,"is_reserved":false,"is_disabled":false,"rental_uris":{"android":"levelo://app?vid=d4ce7eab-d2e5-4dd9-bd61-f458b6331907","ios":"levelo://app?vid=d4ce7eab-d2e5-4dd9-bd61-f458b6331907"},"vehicle_type_id":"4","last_reported":1745788074,"current_range_meters":14000,"station_id":"ce4bgt92rcd13ifvqcf0","pricing_plan_id":"cebpf4jnsgd1na2vs0mg"},{"bike_id":"f360aaad-e350-49e9-8191-58ce4616eb13","system_id":"levelo_inurba_marseille","lat":43.21211,"lon":5.35143,"is_reserved":false,"is_disabled":true,"rental_uris":{"android":"levelo://app?vid=f360aaad-e350-49e9-8191-58ce4616eb13","ios":"levelo://app?vid=f360aaad-e350-49e9-8191-58ce4616eb13"},"vehicle_type_id":"4","last_reported":1745788074,"current_range_meters":14800,"station_id":"","pricing_plan_id":"cebpf4jnsgd1na2vs0mg"},{"bike_id":"647355cc-822f-41e4-b0fe-856d5a69a337","system_id":"levelo_inurba_marseille","lat":43.21195,"lon":5.35072,"is_reserved":false,"is_disabled":false,"rental_uris":{"android":"levelo://app?vid=647355cc-822f-41e4-b0fe-856d5a69a337","ios":"levelo://app?vid=647355cc-822f-41e4-b0fe-856d5a69a337"},"vehicle_type_id":"4","last_reported":1745788074,"current_range_meters":15200,"station_id":"st_cvj6sg6p6f1abm77japg","pricing_plan_id":"cebpf4jnsgd1na2vs0mg"},{"bike_id":"4046a82f-66e8-4b55-bd0a-356edea772d8","system_id":"levelo_inurba_marseille","lat":43.30604,"lon":5.38176,"is_reserved":false,"is_disabled":false,"rental_uris":{"android":"levelo://app?vid=4046a82f-66e8-4b55-bd0a-356edea772d8","ios":"levelo://app?vid=4046a82f-66e8-4b55-bd0a-356edea772d8"},"vehicle_type_id":"4","last_reported":1745788074,"current_range_meters":15200,"station_id":"","pricing_plan_id":"cebpf4jnsgd1na2vs0mg"},{"bike_id":"9979a00e-2e44-430d-a52a-2c59b70df091","system_id":"levelo_inurba_marseille","lat":43.23195,"lon":5.39961,"is_reserved":false,"is_disabled":false,"rental_uris":{"android":"levelo://app?vid=9979a00e-2e44-430d-a52a-2c59b70df091","ios":"levelo://app?vid=9979a00e-2e44-430d-a52a-2c59b70df091"},"vehicle_type_id":"4","last_reported":1745788074,"current_range_meters":15200,"station_id":"ce4bhn12rcd13ifvqgqg","pricing_plan_id":"cebpf4jnsgd1na2vs0mg"},{"bike_id":"2dcfc1d6-ee6e-416e-9633-648a26105c00","system_id":"levelo_inurba_marseille","lat":43.27921,"lon":5.37993,"is_reserved":false,"is_disabled":false,"rental_uris":{"android":"levelo://app?vid=2dcfc1d6-ee6e-416e-9633-648a26105c00","ios":"levelo://app?vid=2dcfc1d6-ee6e-416e-9633-648a26105c00"},"vehicle_type_id":"4","last_reported":1745788074,"current_range_meters":14800,"station_id":"ce4bhf92rcd13ifvqf50","pricing_plan_id":"cebpf4jnsgd1na2vs0mg"},{"bike_id":"97f36b89-3f79-4d54-80b9-0001fe6da6bb","system_id":"levelo_inurba_marseille","lat":43.32445,"lon":5.39134,"is_reserved":false,"is_disabled":true,"rental_uris":{"android":"levelo://app?vid=97f36b89-3f79-4d54-80b9-0001fe6da6bb","ios":"levelo://app?vid=97f36b89-3f79-4d54-80b9-0001fe6da6bb"},"vehicle_type_id":"4","last_reported":1745788074,"current_range_meters":15200,"station_id":"","pricing_plan_id":"cebpf4jnsgd1na2vs0mg"},{"bike_id":"510d1b76-27be-4268-aedc-46993a5973e8","system_id":"levelo_inurba_marseille","lat":43.2465,"lon":5.38889,"is_reserved":false,"is_disabled":false,"rental_uris":{"android":"levelo://app?vid=510d1b76-27be-4268-aedc-46993a5973e8","ios":"levelo://app?vid=510d1b76-27be-4268-aedc-46993a5973e8"},"vehicle_type_id":"4","last_reported":1745788074,"current_range_meters":16000,"station_id":"ce4bhg12rcd13ifvqf60","pricing_plan_id":"cebpf4jnsgd1na2vs0mg"},{"bike_id":"d8e186e0-8d9f-4c16-bb12-3c50f63fd666","system_id":"levelo_inurba_marseille","lat":43.27498,"lon":5.42451,"is_reserved":false,"is_disabled":false,"rental_uris":{"android":"levelo://app?vid=d8e186e0-8d9f-4c16-bb12-3c50f63fd666","ios":"levelo://app?vid=d8e186e0-8d9f-4c16-bb12-3c50f63fd666"},"vehicle_type_id":"4","last_reported":1745788074,"current_range_meters":16000,"station_id":"ce4bhn92rcd13ifvqgrg","pricing_plan_id":"cebpf4jnsgd1na2vs0mg"},{"bike_id":"24eb360c-178a-413d-9466-594d1f75c693","system_id":"levelo_inurba_marseille","lat":43.27431,"lon":5.39416,"is_reserved":false,"is_disabled":false,"rental_uris":{"android":"levelo://app?vid=24eb360c-178a-413d-9466-594d1f75c693","ios":"levelo://app?vid=24eb360c-178a-413d-9466-594d1f75c693"},"vehicle_type_id":"4","last_reported":1745788074,"current_range_meters":16000,"station_id":"ce4bhdp2rcd13ifvqf20","pricing_plan_id":"cebpf4jnsgd1na2vs0mg"},{"bike_id":"a1300fa1-43f7-47bc-be68-1621591c429e","system_id":"levelo_inurba_marseille","lat":43.24988,"lon":5.38893,"is_reserved":false,"is_disabled":true,"rental_uris":{"android":"levelo://app?vid=a1300fa1-43f7-47bc-be68-1621591c429e","ios":"levelo://app?vid=a1300fa1-43f7-47bc-be68-1621591c429e"},"vehicle_type_id":"4","last_reported":1745788074,"current_range_meters":16000,"station_id":"ce4bhgp2rcd13ifvqfd0","pricing_plan_id":"cebpf4jnsgd1na2vs0mg"},{"bike_id":"3f5f2c9a-9e49-4b78-9b1b-0708da9fec39","system_id":"levelo_inurba_marseille","lat":43.22496,"lon":5.34781,"is_reserved":false,"is_disabled":false,"rental_uris":{"android":"levelo://app?vid=3f5f2c9a-9e49-4b78-9b1b-0708da9fec39","ios":"levelo://app?vid=3f5f2c9a-9e49-4b78-9b1b-0708da9fec39"},"vehicle_type_id":"4","last_reported":1745788074,"current_range_meters":16400,"station_id":"st_cvj5dfep6f1abm77gieg","pricing_plan_id":"cebpf4jnsgd1na2vs0mg"},{"bike_id":"7d642a85-a2ce-4a2b-8b78-82205bdd50c2","system_id":"levelo_inurba_marseille","lat":43.2318,"lon":5.39989,"is_reserved":false,"is_disabled":false,"rental_uris":{"android":"levelo://app?vid=7d642a85-a2ce-4a2b-8b78-82205bdd50c2","ios":"levelo://app?vid=7d642a85-a2ce-4a2b-8b78-82205bdd50c2"},"vehicle_type_id":"4","last_reported":1745788074,"current_range_meters":16400,"station_id":"ce4bhn12rcd13ifvqgqg","pricing_plan_id":"cebpf4jnsgd1na2vs0mg"},{"bike_id":"e492037e-60a9-4864-84d6-2fe9ea031f90","system_id":"levelo_inurba_marseille","lat":43.2798,"lon":5.38749,"is_reserved":false,"is_disabled":false,"rental_uris":{"android":"levelo://app?vid=e492037e-60a9-4864-84d6-2fe9ea031f90","ios":"levelo://app?vid=e492037e-60a9-4864-84d6-2fe9ea031f90"},"vehicle_type_id":"4","last_reported":1745788074,"current_range_meters":16400,"station_id":"ce4bhg12rcd13ifvqf80","pricing_plan_id":"cebpf4jnsgd1na2vs0mg"},{"bike_id":"94c15021-409d-4859-9cbd-f2897516165d","system_id":"levelo_inurba_marseille","lat":43.23944,"lon":5.36654,"is_reserved":false,"is_disabled":false,"rental_uris":{"android":"levelo://app?vid=94c15021-409d-4859-9cbd-f2897516165d","ios":"levelo://app?vid=94c15021-409d-4859-9cbd-f2897516165d"},"vehicle_type_id":"4","last_reported":1745788074,"current_range_meters":16400,"station_id":"ce4bhi12rcd13ifvqfp0","pricing_plan_id":"cebpf4jnsgd1na2vs0mg"},{"bike_id":"7046c6e0-63e7-4772-821a-9dbb15a79431","system_id":"levelo_inurba_marseille","lat":43.31355,"lon":5.38483,"is_reserved":false,"is_disabled":false,"rental_uris":{"android":"levelo://app?vid=7046c6e0-63e7-4772-821a-9dbb15a79431","ios":"levelo://app?vid=7046c6e0-63e7-4772-821a-9dbb15a79431"},"vehicle_type_id":"4","last_reported":1745788074,"current_range_meters":16400,"station_id":"ce4bgt92rcd13ifvqcf0","pricing_plan_id":"cebpf4jnsgd1na2vs0mg"},{"bike_id":"97fd7a4c-36e8-401d-b12d-1b4015a01ebe","system_id":"levelo_inurba_marseille","lat":43.26571,"lon":5.42195,"is_reserved":false,"is_disabled":false,"rental_uris":{"android":"levelo://app?vid=97fd7a4c-36e8-401d-b12d-1b4015a01ebe","ios":"levelo://app?vid=97fd7a4c-36e8-401d-b12d-1b4015a01ebe"},"vehicle_type_id":"4","last_reported":1745788074,"current_range_meters":16400,"station_id":"","pricing_plan_id":"cebpf4jnsgd1na2vs0mg"},{"bike_id":"4d4b5f61-e3dc-4b08-8550-5a853ebadb9d","system_id":"levelo_inurba_marseille","lat":43.26817,"lon":5.40258,"is_reserved":false,"is_disabled":false,"rental_uris":{"android":"levelo://app?vid=4d4b5f61-e3dc-4b08-8550-5a853ebadb9d","ios":"levelo://app?vid=4d4b5f61-e3dc-4b08-8550-5a853ebadb9d"},"vehicle_type_id":"4","last_reported":1745788074,"current_range_meters":16400,"station_id":"ce501612rcd8frsf0b60","pricing_plan_id":"cebpf4jnsgd1na2vs0mg"},{"bike_id":"683b45fe-d6d7-4560-ae22-95bdbf4d269a","system_id":"levelo_inurba_marseille","lat":43.21754,"lon":5.34603,"is_reserved":false,"is_disabled":false,"rental_uris":{"android":"levelo://app?vid=683b45fe-d6d7-4560-ae22-95bdbf4d269a","ios":"levelo://app?vid=683b45fe-d6d7-4560-ae22-95bdbf4d269a"},"vehicle_type_id":"4","last_reported":1745788074,"current_range_meters":16400,"station_id":"st_cvj6r9ubvosntc0bgbag","pricing_plan_id":"cebpf4jnsgd1na2vs0mg"},{"bike_id":"5debd579-c045-4892-a39c-8ac3bb501315","system_id":"levelo_inurba_marseille","lat":43.28417,"lon":5.37509,"is_reserved":false,"is_disabled":false,"rental_uris":{"android":"levelo://app?vid=5debd579-c045-4892-a39c-8ac3bb501315","ios":"levelo://app?vid=5debd579-c045-4892-a39c-8ac3bb501315"},"vehicle_type_id":"4","last_reported":1745788074,"current_range_meters":16400,"station_id":"ce4bh412rcd13ifvqds0","pricing_plan_id":"cebpf4jnsgd1na2vs0mg"},{"bike_id":"b532cbc6-d603-4b6c-8eb1-6da63ec873ab","system_id":"levelo_inurba_marseille","lat":43.27038,"lon":5.40307,"is_reserved":false,"is_disabled":false,"rental_uris":{"android":"levelo://app?vid=b532cbc6-d603-4b6c-8eb1-6da63ec873ab","ios":"levelo://app?vid=b532cbc6-d603-4b6c-8eb1-6da63ec873ab"},"vehicle_type_id":"4","last_reported":1745788074,"current_range_meters":16400,"station_id":"ce4bhk92rcd13ifvqgc0","pricing_plan_id":"cebpf4jnsgd1na2vs0mg"},{"bike_id":"ae755374-e890-4b3b-be32-9701aa01ce00","system_id":"levelo_inurba_marseille","lat":43.30939,"lon":5.40135,"is_reserved":false,"is_disabled":false,"rental_uris":{"android":"levelo://app?vid=ae755374-e890-4b3b-be32-9701aa01ce00","ios":"levelo://app?vid=ae755374-e890-4b3b-be32-9701aa01ce00"},"vehicle_type_id":"4","last_reported":1745788074,"current_range_meters":16400,"station_id":"ce4bgvp2rcd13ifvqct0","pricing_plan_id":"cebpf4jnsgd1na2vs0mg"},{"bike_id":"7cb17432-a062-465f-85a4-b60c350ddacd","system_id":"levelo_inurba_marseille","lat":43.29555,"lon":5.37508,"is_reserved":false,"is_disabled":true,"rental_uris":{"android":"levelo://app?vid=7cb17432-a062-465f-85a4-b60c350ddacd","ios":"levelo://app?vid=7cb17432-a062-465f-85a4-b60c350ddacd"},"vehicle_type_id":"4","last_reported":1745788074,"current_range_meters":16400,"station_id":"ce4bgh92rcd13ifvqb50","pricing_plan_id":"cebpf4jnsgd1na2vs0mg"},{"bike_id":"2e7ac15a-983b-44da-a8d0-533b1e803195","system_id":"levelo_inurba_marseille","lat":43.2557,"lon":5.38243,"is_reserved":false,"is_disabled":false,"rental_uris":{"android":"levelo://app?vid=2e7ac15a-983b-44da-a8d0-533b1e803195","ios":"levelo://app?vid=2e7ac15a-983b-44da-a8d0-533b1e803195"},"vehicle_type_id":"4","last_reported":1745788074,"current_range_meters":16800,"station_id":"ce4bhih2rcd13ifvqfs0","pricing_plan_id":"cebpf4jnsgd1na2vs0mg"},{"bike_id":"63549265-1c39-4cd7-9245-fca637cde159","system_id":"levelo_inurba_marseille","lat":43.31756,"lon":5.39011,"is_reserved":false,"is_disabled":false,"rental_uris":{"android":"levelo://app?vid=63549265-1c39-4cd7-9245-fca637cde159","ios":"levelo://app?vid=63549265-1c39-4cd7-9245-fca637cde159"},"vehicle_type_id":"4","last_reported":1745788074,"current_range_meters":16400,"station_id":"ce4bhqp2rcd13ifvqhng","pricing_plan_id":"cebpf4jnsgd1na2vs0mg"},{"bike_id":"f72503b4-b27f-4729-bb2a-1f3df14b41e0","system_id":"levelo_inurba_marseille","lat":43.31358,"lon":5.38494,"is_reserved":false,"is_disabled":false,"rental_uris":{"android":"levelo://app?vid=f72503b4-b27f-4729-bb2a-1f3df14b41e0","ios":"levelo://app?vid=f72503b4-b27f-4729-bb2a-1f3df14b41e0"},"vehicle_type_id":"4","last_reported":1745788074,"current_range_meters":16800,"station_id":"ce4bgt92rcd13ifvqcf0","pricing_plan_id":"cebpf4jnsgd1na2vs0mg"},{"bike_id":"02b3b6da-d67b-490c-8691-301aea41ade1","system_id":"levelo_inurba_marseille","lat":43.28457,"lon":5.35892,"is_reserved":false,"is_disabled":false,"rental_uris":{"android":"levelo://app?vid=02b3b6da-d67b-490c-8691-301aea41ade1","ios":"levelo://app?vid=02b3b6da-d67b-490c-8691-301aea41ade1"},"vehicle_type_id":"4","last_reported":1745788074,"current_range_meters":16800,"station_id":"ce4bhah2rcd13ifvqei0","pricing_plan_id":"cebpf4jnsgd1na2vs0mg"},{"bike_id":"181ed326-b471-49b5-9f00-acd48cb5b299","system_id":"levelo_inurba_marseille","lat":43.28275,"lon":5.35075,"is_reserved":false,"is_disabled":true,"rental_uris":{"android":"levelo://app?vid=181ed326-b471-49b5-9f00-acd48cb5b299","ios":"levelo://app?vid=181ed326-b471-49b5-9f00-acd48cb5b299"},"vehicle_type_id":"4","last_reported":1745788074,"current_range_meters":16800,"station_id":"ce4bhbp2rcd13ifvqerg","pricing_plan_id":"cebpf4jnsgd1na2vs0mg"},{"bike_id":"f8b82dd5-2d85-4846-8b9d-5afc30043cf6","system_id":"levelo_inurba_marseille","lat":43.2251,"lon":5.34783,"is_reserved":false,"is_disabled":false,"rental_uris":{"android":"levelo://app?vid=f8b82dd5-2d85-4846-8b9d-5afc30043cf6","ios":"levelo://app?vid=f8b82dd5-2d85-4846-8b9d-5afc30043cf6"},"vehicle_type_id":"4","last_reported":1745788074,"current_range_meters":16800,"station_id":"st_cvj5dfep6f1abm77gieg","pricing_plan_id":"cebpf4jnsgd1na2vs0mg"},{"bike_id":"6a3ad0ca-897c-414f-a69a-aae8b2ea7b61","system_id":"levelo_inurba_marseille","lat":43.2174,"lon":5.34589,"is_reserved":false,"is_disabled":false,"rental_uris":{"android":"levelo://app?vid=6a3ad0ca-897c-414f-a69a-aae8b2ea7b61","ios":"levelo://app?vid=6a3ad0ca-897c-414f-a69a-aae8b2ea7b61"},"vehicle_type_id":"4","last_reported":1745788074,"current_range_meters":16800,"station_id":"st_cvj6r9ubvosntc0bgbag","pricing_plan_id":"cebpf4jnsgd1na2vs0mg"},{"bike_id":"0f708391-a7ed-4e44-bc44-cf2926cd4a0c","system_id":"levelo_inurba_marseille","lat":43.26234,"lon":5.40447,"is_reserved":false,"is_disabled":false,"rental_uris":{"android":"levelo://app?vid=0f708391-a7ed-4e44-bc44-cf2926cd4a0c","ios":"levelo://app?vid=0f708391-a7ed-4e44-bc44-cf2926cd4a0c"},"vehicle_type_id":"4","last_reported":1745788074,"current_range_meters":16800,"station_id":"ce4bhmh2rcd13ifvqgmg","pricing_plan_id":"cebpf4jnsgd1na2vs0mg"},{"bike_id":"108f59fb-eb2a-4cbe-8505-53cb6dba5b17","system_id":"levelo_inurba_marseille","lat":43.26905,"lon":5.39344,"is_reserved":false,"is_disabled":false,"rental_uris":{"android":"levelo://app?vid=108f59fb-eb2a-4cbe-8505-53cb6dba5b17","ios":"levelo://app?vid=108f59fb-eb2a-4cbe-8505-53cb6dba5b17"},"vehicle_type_id":"4","last_reported":1745788074,"current_range_meters":17200,"station_id":"","pricing_plan_id":"cebpf4jnsgd1na2vs0mg"},{"bike_id":"9275afeb-620b-4a3c-83d1-31bc14709d93","system_id":"levelo_inurba_marseille","lat":43.28866,"lon":5.3584,"is_reserved":false,"is_disabled":true,"rental_uris":{"android":"levelo://app?vid=9275afeb-620b-4a3c-83d1-31bc14709d93","ios":"levelo://app?vid=9275afeb-620b-4a3c-83d1-31bc14709d93"},"vehicle_type_id":"4","last_reported":1745788074,"current_range_meters":17200,"station_id":"ce4bhb12rcd13ifvqem0","pricing_plan_id":"cebpf4jnsgd1na2vs0mg"},{"bike_id":"5e29bb99-7a29-4bbf-a514-99195c8fa20f","system_id":"levelo_inurba_marseille","lat":43.29921,"lon":5.43644,"is_reserved":false,"is_disabled":false,"rental_uris":{"android":"levelo://app?vid=5e29bb99-7a29-4bbf-a514-99195c8fa20f","ios":"levelo://app?vid=5e29bb99-7a29-4bbf-a514-99195c8fa20f"},"vehicle_type_id":"4","last_reported":1745788074,"current_range_meters":17200,"station_id":"ce4bhpp2rcd13ifvqhfg","pricing_plan_id":"cebpf4jnsgd1na2vs0mg"},{"bike_id":"5a983abf-1f6f-4a2d-880b-bac58e63b800","system_id":"levelo_inurba_marseille","lat":43.27836,"lon":5.40689,"is_reserved":false,"is_disabled":true,"rental_uris":{"android":"levelo://app?vid=5a983abf-1f6f-4a2d-880b-bac58e63b800","ios":"levelo://app?vid=5a983abf-1f6f-4a2d-880b-bac58e63b800"},"vehicle_type_id":"4","last_reported":1745788074,"current_range_meters":17200,"station_id":"ce4bhnh2rcd13ifvqgtg","pricing_plan_id":"cebpf4jnsgd1na2vs0mg"},{"bike_id":"988d3e51-0f81-4d05-9256-41d5bf2a54ae","system_id":"levelo_inurba_marseille","lat":43.29689,"lon":5.36589,"is_reserved":false,"is_disabled":true,"rental_uris":{"android":"levelo://app?vid=988d3e51-0f81-4d05-9256-41d5bf2a54ae","ios":"levelo://app?vid=988d3e51-0f81-4d05-9256-41d5bf2a54ae"},"vehicle_type_id":"4","last_reported":1745788074,"current_range_meters":17200,"station_id":"ce4bgn12rcd13ifvqbt0","pricing_plan_id":"cebpf4jnsgd1na2vs0mg"},{"bike_id":"2d8ee308-03ed-4761-9d96-95839d6c6deb","system_id":"levelo_inurba_marseille","lat":43.28604,"lon":5.37077,"is_reserved":false,"is_disabled":false,"rental_uris":{"android":"levelo://app?vid=2d8ee308-03ed-4761-9d96-95839d6c6deb","ios":"levelo://app?vid=2d8ee308-03ed-4761-9d96-95839d6c6deb"},"vehicle_type_id":"4","last_reported":1745788074,"current_range_meters":17200,"station_id":"","pricing_plan_id":"cebpf4jnsgd1na2vs0mg"},{"bike_id":"ff75ad8a-84a8-4e09-b733-5fb0903ef15d","system_id":"levelo_inurba_marseille","lat":43.32288,"lon":5.38296,"is_reserved":false,"is_disabled":false,"rental_uris":{"android":"levelo://app?vid=ff75ad8a-84a8-4e09-b733-5fb0903ef15d","ios":"levelo://app?vid=ff75ad8a-84a8-4e09-b733-5fb0903ef15d"},"vehicle_type_id":"4","last_reported":1745788074,"current_range_meters":17600,"station_id":"ce4bhr12rcd13ifvqhqg","pricing_plan_id":"cebpf4jnsgd1na2vs0mg"},{"bike_id":"db9128d4-fa4b-4b3d-b5d8-0462404fa361","system_id":"levelo_inurba_marseille","lat":43.32159,"lon":5.36781,"is_reserved":false,"is_disabled":false,"rental_uris":{"android":"levelo://app?vid=db9128d4-fa4b-4b3d-b5d8-0462404fa361","ios":"levelo://app?vid=db9128d4-fa4b-4b3d-b5d8-0462404fa361"},"vehicle_type_id":"4","last_reported":1745788074,"current_range_meters":17600,"station_id":"ce4bhrh2rcd13ifvqhug","pricing_plan_id":"cebpf4jnsgd1na2vs0mg"},{"bike_id":"74fe4e28-7e92-4dc6-8b3d-87e4751f1bc9","system_id":"levelo_inurba_marseille","lat":43.32347,"lon":5.40617,"is_reserved":false,"is_disabled":false,"rental_uris":{"android":"levelo://app?vid=74fe4e28-7e92-4dc6-8b3d-87e4751f1bc9","ios":"levelo://app?vid=74fe4e28-7e92-4dc6-8b3d-87e4751f1bc9"},"vehicle_type_id":"4","last_reported":1745788074,"current_range_meters":18000,"station_id":"ce4bhq92rcd13ifvqhjg","pricing_plan_id":"cebpf4jnsgd1na2vs0mg"},{"bike_id":"b573a0db-e96e-477a-90b5-ff9863902df8","system_id":"levelo_inurba_marseille","lat":43.31333,"lon":5.39692,"is_reserved":false,"is_disabled":false,"rental_uris":{"android":"levelo://app?vid=b573a0db-e96e-477a-90b5-ff9863902df8","ios":"levelo://app?vid=b573a0db-e96e-477a-90b5-ff9863902df8"},"vehicle_type_id":"4","last_reported":1745788074,"current_range_meters":17600,"station_id":"ce4bgvp2rcd13ifvqcu0","pricing_plan_id":"cebpf4jnsgd1na2vs0mg"},{"bike_id":"6058bcf2-eeff-4bb1-b3c5-02cf3f2b3c6f","system_id":"levelo_inurba_marseille","lat":43.24665,"lon":5.38146,"is_reserved":false,"is_disabled":false,"rental_uris":{"android":"levelo://app?vid=6058bcf2-eeff-4bb1-b3c5-02cf3f2b3c6f","ios":"levelo://app?vid=6058bcf2-eeff-4bb1-b3c5-02cf3f2b3c6f"},"vehicle_type_id":"4","last_reported":1745788074,"current_range_meters":18000,"station_id":"ce4bhih2rcd13ifvqfr0","pricing_plan_id":"cebpf4jnsgd1na2vs0mg"},{"bike_id":"5d80cec4-cf0d-4b75-87cc-4649871dd5da","system_id":"levelo_inurba_marseille","lat":43.27509,"lon":5.42447,"is_reserved":false,"is_disabled":false,"rental_uris":{"android":"levelo://app?vid=5d80cec4-cf0d-4b75-87cc-4649871dd5da","ios":"levelo://app?vid=5d80cec4-cf0d-4b75-87cc-4649871dd5da"},"vehicle_type_id":"4","last_reported":1745788074,"current_range_meters":18000,"station_id":"ce4bhn92rcd13ifvqgrg","pricing_plan_id":"cebpf4jnsgd1na2vs0mg"},{"bike_id":"4b22e947-61d9-47ed-9031-26e7d7a9e388","system_id":"levelo_inurba_marseille","lat":43.25111,"lon":5.40322,"is_reserved":false,"is_disabled":false,"rental_uris":{"android":"levelo://app?vid=4b22e947-61d9-47ed-9031-26e7d7a9e388","ios":"levelo://app?vid=4b22e947-61d9-47ed-9031-26e7d7a9e388"},"vehicle_type_id":"4","last_reported":1745788074,"current_range_meters":18000,"station_id":"ce4bhlh2rcd13ifvqgig","pricing_plan_id":"cebpf4jnsgd1na2vs0mg"},{"bike_id":"b45721df-1911-4bd0-96bb-0c84adb69cfd","system_id":"levelo_inurba_marseille","lat":43.2396,"lon":5.36631,"is_reserved":false,"is_disabled":false,"rental_uris":{"android":"levelo://app?vid=b45721df-1911-4bd0-96bb-0c84adb69cfd","ios":"levelo://app?vid=b45721df-1911-4bd0-96bb-0c84adb69cfd"},"vehicle_type_id":"4","last_reported":1745788074,"current_range_meters":18000,"station_id":"ce4bhi12rcd13ifvqfp0","pricing_plan_id":"cebpf4jnsgd1na2vs0mg"},{"bike_id":"6c70f2f1-a5f1-416b-b8ac-547d12a37f95","system_id":"levelo_inurba_marseille","lat":43.30434,"lon":5.3889,"is_reserved":false,"is_disabled":false,"rental_uris":{"android":"levelo://app?vid=6c70f2f1-a5f1-416b-b8ac-547d12a37f95","ios":"levelo://app?vid=6c70f2f1-a5f1-416b-b8ac-547d12a37f95"},"vehicle_type_id":"4","last_reported":1745788074,"current_range_meters":18000,"station_id":"ce4bgk12rcd13ifvqbi0","pricing_plan_id":"cebpf4jnsgd1na2vs0mg"},{"bike_id":"76e63d71-8810-488e-953a-865ffc6ba6e6","system_id":"levelo_inurba_marseille","lat":43.2468,"lon":5.3815,"is_reserved":false,"is_disabled":false,"rental_uris":{"android":"levelo://app?vid=76e63d71-8810-488e-953a-865ffc6ba6e6","ios":"levelo://app?vid=76e63d71-8810-488e-953a-865ffc6ba6e6"},"vehicle_type_id":"4","last_reported":1745788074,"current_range_meters":18000,"station_id":"ce4bhih2rcd13ifvqfr0","pricing_plan_id":"cebpf4jnsgd1na2vs0mg"},{"bike_id":"5f363fb2-65d6-4f54-a7e8-9f0969c18dcf","system_id":"levelo_inurba_marseille","lat":43.30538,"lon":5.36506,"is_reserved":false,"is_disabled":true,"rental_uris":{"android":"levelo://app?vid=5f363fb2-65d6-4f54-a7e8-9f0969c18dcf","ios":"levelo://app?vid=5f363fb2-65d6-4f54-a7e8-9f0969c18dcf"},"vehicle_type_id":"4","last_reported":1745788074,"current_range_meters":18800,"station_id":"ce4bgs12rcd13ifvqcag","pricing_plan_id":"cebpf4jnsgd1na2vs0mg"},{"bike_id":"d5792b96-81ae-4816-accb-680dcd29aa8e","system_id":"levelo_inurba_marseille","lat":43.24682,"lon":5.38166,"is_reserved":false,"is_disabled":true,"rental_uris":{"android":"levelo://app?vid=d5792b96-81ae-4816-accb-680dcd29aa8e","ios":"levelo://app?vid=d5792b96-81ae-4816-accb-680dcd29aa8e"},"vehicle_type_id":"4","last_reported":1745788074,"current_range_meters":18800,"station_id":"ce4bhih2rcd13ifvqfr0","pricing_plan_id":"cebpf4jnsgd1na2vs0mg"},{"bike_id":"daa5fb12-4e0b-4bce-a6b1-6719a5e359ca","system_id":"levelo_inurba_marseille","lat":43.23158,"lon":5.43715,"is_reserved":false,"is_disabled":false,"rental_uris":{"android":"levelo://app?vid=daa5fb12-4e0b-4bce-a6b1-6719a5e359ca","ios":"levelo://app?vid=daa5fb12-4e0b-4bce-a6b1-6719a5e359ca"},"vehicle_type_id":"4","last_reported":1745788074,"current_range_meters":18800,"station_id":"ce4bhmp2rcd13ifvqgog","pricing_plan_id":"cebpf4jnsgd1na2vs0mg"},{"bike_id":"f01c2b13-c4ae-4a7f-b2c7-df35222df932","system_id":"levelo_inurba_marseille","lat":43.27429,"lon":5.39397,"is_reserved":false,"is_disabled":false,"rental_uris":{"android":"levelo://app?vid=f01c2b13-c4ae-4a7f-b2c7-df35222df932","ios":"levelo://app?vid=f01c2b13-c4ae-4a7f-b2c7-df35222df932"},"vehicle_type_id":"4","last_reported":1745788074,"current_range_meters":18800,"station_id":"ce4bhdp2rcd13ifvqf20","pricing_plan_id":"cebpf4jnsgd1na2vs0mg"},{"bike_id":"854b6f67-ca9a-45bb-a87f-9accf64bf40e","system_id":"levelo_inurba_marseille","lat":43.27567,"lon":5.38399,"is_reserved":false,"is_disabled":true,"rental_uris":{"android":"levelo://app?vid=854b6f67-ca9a-45bb-a87f-9accf64bf40e","ios":"levelo://app?vid=854b6f67-ca9a-45bb-a87f-9accf64bf40e"},"vehicle_type_id":"4","last_reported":1745788074,"current_range_meters":19200,"station_id":"ce4bhh92rcd13ifvqfi0","pricing_plan_id":"cebpf4jnsgd1na2vs0mg"},{"bike_id":"e82d3078-1f25-45e1-b1d5-2c16802a8b4f","system_id":"levelo_inurba_marseille","lat":43.31074,"lon":5.3835,"is_reserved":false,"is_disabled":false,"rental_uris":{"android":"levelo://app?vid=e82d3078-1f25-45e1-b1d5-2c16802a8b4f","ios":"levelo://app?vid=e82d3078-1f25-45e1-b1d5-2c16802a8b4f"},"vehicle_type_id":"4","last_reported":1745788074,"current_range_meters":19200,"station_id":"ce4bgv92rcd13ifvqcr0","pricing_plan_id":"cebpf4jnsgd1na2vs0mg"},{"bike_id":"d215f1dd-771d-414e-97b1-668c724f2150","system_id":"levelo_inurba_marseille","lat":43.25111,"lon":5.40322,"is_reserved":false,"is_disabled":false,"rental_uris":{"android":"levelo://app?vid=d215f1dd-771d-414e-97b1-668c724f2150","ios":"levelo://app?vid=d215f1dd-771d-414e-97b1-668c724f2150"},"vehicle_type_id":"4","last_reported":1745788074,"current_range_meters":19200,"station_id":"ce4bhlh2rcd13ifvqgig","pricing_plan_id":"cebpf4jnsgd1na2vs0mg"},{"bike_id":"4bf08038-f5c2-4f98-a256-2270055407f1","system_id":"levelo_inurba_marseille","lat":43.27496,"lon":5.42454,"is_reserved":false,"is_disabled":false,"rental_uris":{"android":"levelo://app?vid=4bf08038-f5c2-4f98-a256-2270055407f1","ios":"levelo://app?vid=4bf08038-f5c2-4f98-a256-2270055407f1"},"vehicle_type_id":"4","last_reported":1745788074,"current_range_meters":19200,"station_id":"ce4bhn92rcd13ifvqgrg","pricing_plan_id":"cebpf4jnsgd1na2vs0mg"},{"bike_id":"26e2563a-5614-46af-9839-4e09e7d33768","system_id":"levelo_inurba_marseille","lat":43.33613,"lon":5.40977,"is_reserved":false,"is_disabled":false,"rental_uris":{"android":"levelo://app?vid=26e2563a-5614-46af-9839-4e09e7d33768","ios":"levelo://app?vid=26e2563a-5614-46af-9839-4e09e7d33768"},"vehicle_type_id":"4","last_reported":1745788074,"current_range_meters":19600,"station_id":"ce4bhqh2rcd13ifvqhmg","pricing_plan_id":"cebpf4jnsgd1na2vs0mg"},{"bike_id":"6c72de35-de49-45aa-84fb-0f4a50376358","system_id":"levelo_inurba_marseille","lat":43.329854,"lon":5.438556,"is_reserved":false,"is_disabled":false,"rental_uris":{"android":"levelo://app?vid=6c72de35-de49-45aa-84fb-0f4a50376358","ios":"levelo://app?vid=6c72de35-de49-45aa-84fb-0f4a50376358"},"vehicle_type_id":"4","last_reported":1745788074,"current_range_meters":19600,"station_id":"","pricing_plan_id":"cebpf4jnsgd1na2vs0mg"},{"bike_id":"9ba0e8b6-ad8b-438b-a871-21c5f61ceab1","system_id":"levelo_inurba_marseille","lat":43.31492,"lon":5.37309,"is_reserved":false,"is_disabled":false,"rental_uris":{"android":"levelo://app?vid=9ba0e8b6-ad8b-438b-a871-21c5f61ceab1","ios":"levelo://app?vid=9ba0e8b6-ad8b-438b-a871-21c5f61ceab1"},"vehicle_type_id":"4","last_reported":1745788074,"current_range_meters":19600,"station_id":"ce4bgt12rcd13ifvqcd0","pricing_plan_id":"cebpf4jnsgd1na2vs0mg"},{"bike_id":"2420ad39-a5b7-4ea3-b775-69cf92e1a47f","system_id":"levelo_inurba_marseille","lat":43.25919,"lon":5.40909,"is_reserved":false,"is_disabled":false,"rental_uris":{"android":"levelo://app?vid=2420ad39-a5b7-4ea3-b775-69cf92e1a47f","ios":"levelo://app?vid=2420ad39-a5b7-4ea3-b775-69cf92e1a47f"},"vehicle_type_id":"4","last_reported":1745788074,"current_range_meters":19600,"station_id":"ce4bhm92rcd13ifvqglg","pricing_plan_id":"cebpf4jnsgd1na2vs0mg"},{"bike_id":"120277a4-e644-406f-9354-c1381245ac98","system_id":"levelo_inurba_marseille","lat":43.287876,"lon":5.362604,"is_reserved":false,"is_disabled":false,"rental_uris":{"android":"levelo://app?vid=120277a4-e644-406f-9354-c1381245ac98","ios":"levelo://app?vid=120277a4-e644-406f-9354-c1381245ac98"},"vehicle_type_id":"4","last_reported":1745788074,"current_range_meters":19600,"station_id":"cki0cbj6b192h4jlfktg","pricing_plan_id":"cebpf4jnsgd1na2vs0mg"},{"bike_id":"abf2dc50-2eb1-45c0-80d0-deafb929859f","system_id":"levelo_inurba_marseille","lat":43.326602,"lon":5.409938,"is_reserved":false,"is_disabled":false,"rental_uris":{"android":"levelo://app?vid=abf2dc50-2eb1-45c0-80d0-deafb929859f","ios":"levelo://app?vid=abf2dc50-2eb1-45c0-80d0-deafb929859f"},"vehicle_type_id":"4","last_reported":1745788074,"current_range_meters":19600,"station_id":"ce4bhpp2rcd13ifvqhgg","pricing_plan_id":"cebpf4jnsgd1na2vs0mg"},{"bike_id":"c75abcf6-de3b-42ae-9798-9d602d2b245e","system_id":"levelo_inurba_marseille","lat":43.31276,"lon":5.38324,"is_reserved":false,"is_disabled":false,"rental_uris":{"android":"levelo://app?vid=c75abcf6-de3b-42ae-9798-9d602d2b245e","ios":"levelo://app?vid=c75abcf6-de3b-42ae-9798-9d602d2b245e"},"vehicle_type_id":"4","last_reported":1745788074,"current_range_meters":19600,"station_id":"","pricing_plan_id":"cebpf4jnsgd1na2vs0mg"},{"bike_id":"ae024c84-7e44-4a33-b963-d7705c42478f","system_id":"levelo_inurba_marseille","lat":43.23948,"lon":5.36665,"is_reserved":false,"is_disabled":false,"rental_uris":{"android":"levelo://app?vid=ae024c84-7e44-4a33-b963-d7705c42478f","ios":"levelo://app?vid=ae024c84-7e44-4a33-b963-d7705c42478f"},"vehicle_type_id":"4","last_reported":1745788074,"current_range_meters":19600,"station_id":"ce4bhi12rcd13ifvqfp0","pricing_plan_id":"cebpf4jnsgd1na2vs0mg"},{"bike_id":"e2db68dd-f47f-4e15-8fe0-c97738bddb69","system_id":"levelo_inurba_marseille","lat":43.29277,"lon":5.36844,"is_reserved":false,"is_disabled":true,"rental_uris":{"android":"levelo://app?vid=e2db68dd-f47f-4e15-8fe0-c97738bddb69","ios":"levelo://app?vid=e2db68dd-f47f-4e15-8fe0-c97738bddb69"},"vehicle_type_id":"4","last_reported":1745788074,"current_range_meters":20000,"station_id":"ce4bhbp2rcd13ifvqesg","pricing_plan_id":"cebpf4jnsgd1na2vs0mg"},{"bike_id":"137dc614-9e9e-4af2-8da7-0219fe59fd22","system_id":"levelo_inurba_marseille","lat":43.27996,"lon":5.40006,"is_reserved":false,"is_disabled":false,"rental_uris":{"android":"levelo://app?vid=137dc614-9e9e-4af2-8da7-0219fe59fd22","ios":"levelo://app?vid=137dc614-9e9e-4af2-8da7-0219fe59fd22"},"vehicle_type_id":"4","last_reported":1745788074,"current_range_meters":20000,"station_id":"ce4bho92rcd13ifvqh4g","pricing_plan_id":"cebpf4jnsgd1na2vs0mg"},{"bike_id":"579b9d02-e6b0-4faa-8aa6-d259af964e22","system_id":"levelo_inurba_marseille","lat":43.23958,"lon":5.36642,"is_reserved":false,"is_disabled":false,"rental_uris":{"android":"levelo://app?vid=579b9d02-e6b0-4faa-8aa6-d259af964e22","ios":"levelo://app?vid=579b9d02-e6b0-4faa-8aa6-d259af964e22"},"vehicle_type_id":"4","last_reported":1745788074,"current_range_meters":20400,"station_id":"ce4bhi12rcd13ifvqfp0","pricing_plan_id":"cebpf4jnsgd1na2vs0mg"},{"bike_id":"0ab928f1-313f-453f-a075-ecf067324cdb","system_id":"levelo_inurba_marseille","lat":43.26225,"lon":5.40453,"is_reserved":false,"is_disabled":false,"rental_uris":{"android":"levelo://app?vid=0ab928f1-313f-453f-a075-ecf067324cdb","ios":"levelo://app?vid=0ab928f1-313f-453f-a075-ecf067324cdb"},"vehicle_type_id":"4","last_reported":1745788074,"current_range_meters":20400,"station_id":"ce4bhmh2rcd13ifvqgmg","pricing_plan_id":"cebpf4jnsgd1na2vs0mg"},{"bike_id":"9cbcc298-7276-4faa-a3f3-5f54c8726ff4","system_id":"levelo_inurba_marseille","lat":43.24537,"lon":5.41221,"is_reserved":false,"is_disabled":false,"rental_uris":{"android":"levelo://app?vid=9cbcc298-7276-4faa-a3f3-5f54c8726ff4","ios":"levelo://app?vid=9cbcc298-7276-4faa-a3f3-5f54c8726ff4"},"vehicle_type_id":"4","last_reported":1745788074,"current_range_meters":20400,"station_id":"","pricing_plan_id":"cebpf4jnsgd1na2vs0mg"},{"bike_id":"1589dba7-8029-4d4a-b1cf-7fa9279ef7ad","system_id":"levelo_inurba_marseille","lat":43.32426,"lon":5.39086,"is_reserved":false,"is_disabled":false,"rental_uris":{"android":"levelo://app?vid=1589dba7-8029-4d4a-b1cf-7fa9279ef7ad","ios":"levelo://app?vid=1589dba7-8029-4d4a-b1cf-7fa9279ef7ad"},"vehicle_type_id":"4","last_reported":1745788074,"current_range_meters":20400,"station_id":"ce4bhqp2rcd13ifvqhog","pricing_plan_id":"cebpf4jnsgd1na2vs0mg"},{"bike_id":"c5dd0f5a-bd05-416f-8ecd-ebe171ba88f1","system_id":"levelo_inurba_marseille","lat":43.28863,"lon":5.39333,"is_reserved":false,"is_disabled":false,"rental_uris":{"android":"levelo://app?vid=c5dd0f5a-bd05-416f-8ecd-ebe171ba88f1","ios":"levelo://app?vid=c5dd0f5a-bd05-416f-8ecd-ebe171ba88f1"},"vehicle_type_id":"4","last_reported":1745788074,"current_range_meters":20400,"station_id":"ce4bh2p2rcd13ifvqdi0","pricing_plan_id":"cebpf4jnsgd1na2vs0mg"},{"bike_id":"d0084b40-0977-469b-a971-471d5dd9a078","system_id":"levelo_inurba_marseille","lat":43.25935,"lon":5.40894,"is_reserved":false,"is_disabled":false,"rental_uris":{"android":"levelo://app?vid=d0084b40-0977-469b-a971-471d5dd9a078","ios":"levelo://app?vid=d0084b40-0977-469b-a971-471d5dd9a078"},"vehicle_type_id":"4","last_reported":1745788074,"current_range_meters":20400,"station_id":"ce4bhm92rcd13ifvqglg","pricing_plan_id":"cebpf4jnsgd1na2vs0mg"},{"bike_id":"9d7be560-5444-46ca-bc57-fc04a058c458","system_id":"levelo_inurba_marseille","lat":43.30935,"lon":5.40153,"is_reserved":false,"is_disabled":true,"rental_uris":{"android":"levelo://app?vid=9d7be560-5444-46ca-bc57-fc04a058c458","ios":"levelo://app?vid=9d7be560-5444-46ca-bc57-fc04a058c458"},"vehicle_type_id":"4","last_reported":1745788074,"current_range_meters":20400,"station_id":"ce4bgvp2rcd13ifvqct0","pricing_plan_id":"cebpf4jnsgd1na2vs0mg"},{"bike_id":"c4e882de-82cc-40fc-8fdc-d03d27c35a19","system_id":"levelo_inurba_marseille","lat":43.3052,"lon":5.36691,"is_reserved":false,"is_disabled":true,"rental_uris":{"android":"levelo://app?vid=c4e882de-82cc-40fc-8fdc-d03d27c35a19","ios":"levelo://app?vid=c4e882de-82cc-40fc-8fdc-d03d27c35a19"},"vehicle_type_id":"4","last_reported":1745788074,"current_range_meters":20400,"station_id":"ce4bgrp2rcd13ifvqc9g","pricing_plan_id":"cebpf4jnsgd1na2vs0mg"},{"bike_id":"f977d8fc-a486-45df-8727-671d07539b11","system_id":"levelo_inurba_marseille","lat":43.26198,"lon":5.37916,"is_reserved":false,"is_disabled":true,"rental_uris":{"android":"levelo://app?vid=f977d8fc-a486-45df-8727-671d07539b11","ios":"levelo://app?vid=f977d8fc-a486-45df-8727-671d07539b11"},"vehicle_type_id":"4","last_reported":1745788074,"current_range_meters":20800,"station_id":"ce4bhjp2rcd13ifvqg90","pricing_plan_id":"cebpf4jnsgd1na2vs0mg"},{"bike_id":"e10dac24-cce6-4d7c-971a-3a12ee500d3a","system_id":"levelo_inurba_marseille","lat":43.2926,"lon":5.38439,"is_reserved":false,"is_disabled":true,"rental_uris":{"android":"levelo://app?vid=e10dac24-cce6-4d7c-971a-3a12ee500d3a","ios":"levelo://app?vid=e10dac24-cce6-4d7c-971a-3a12ee500d3a"},"vehicle_type_id":"4","last_reported":1745788074,"current_range_meters":20800,"station_id":"ce4bh692rcd13ifvqea0","pricing_plan_id":"cebpf4jnsgd1na2vs0mg"},{"bike_id":"dd8ba2ea-896c-46a8-a041-af1fe4723729","system_id":"levelo_inurba_marseille","lat":43.25721,"lon":5.41112,"is_reserved":false,"is_disabled":false,"rental_uris":{"android":"levelo://app?vid=dd8ba2ea-896c-46a8-a041-af1fe4723729","ios":"levelo://app?vid=dd8ba2ea-896c-46a8-a041-af1fe4723729"},"vehicle_type_id":"4","last_reported":1745788074,"current_range_meters":20800,"station_id":"ce4bhkp2rcd13ifvqgd0","pricing_plan_id":"cebpf4jnsgd1na2vs0mg"},{"bike_id":"1b5dfaf4-fc89-4855-8a43-c4b154b91948","system_id":"levelo_inurba_marseille","lat":43.30296,"lon":5.39202,"is_reserved":false,"is_disabled":true,"rental_uris":{"android":"levelo://app?vid=1b5dfaf4-fc89-4855-8a43-c4b154b91948","ios":"levelo://app?vid=1b5dfaf4-fc89-4855-8a43-c4b154b91948"},"vehicle_type_id":"4","last_reported":1745788074,"current_range_meters":20800,"station_id":"ce4bgkh2rcd13ifvqbk0","pricing_plan_id":"cebpf4jnsgd1na2vs0mg"},{"bike_id":"0fb95db4-3758-4383-9f1c-f2e7a306715e","system_id":"levelo_inurba_marseille","lat":43.30087,"lon":5.39079,"is_reserved":false,"is_disabled":false,"rental_uris":{"android":"levelo://app?vid=0fb95db4-3758-4383-9f1c-f2e7a306715e","ios":"levelo://app?vid=0fb95db4-3758-4383-9f1c-f2e7a306715e"},"vehicle_type_id":"4","last_reported":1745788074,"current_range_meters":22000,"station_id":"ce4bh192rcd13ifvqdb0","pricing_plan_id":"cebpf4jnsgd1na2vs0mg"},{"bike_id":"0d9927d6-73fe-43e5-801f-68706655e5ec","system_id":"levelo_inurba_marseille","lat":43.24082,"lon":5.37752,"is_reserved":false,"is_disabled":false,"rental_uris":{"android":"levelo://app?vid=0d9927d6-73fe-43e5-801f-68706655e5ec","ios":"levelo://app?vid=0d9927d6-73fe-43e5-801f-68706655e5ec"},"vehicle_type_id":"4","last_reported":1745788074,"current_range_meters":20800,"station_id":"ce4bhnp2rcd13ifvqgvg","pricing_plan_id":"cebpf4jnsgd1na2vs0mg"},{"bike_id":"425564c4-f883-4f68-876f-947748498d1f","system_id":"levelo_inurba_marseille","lat":43.26943,"lon":5.4027,"is_reserved":false,"is_disabled":true,"rental_uris":{"android":"levelo://app?vid=425564c4-f883-4f68-876f-947748498d1f","ios":"levelo://app?vid=425564c4-f883-4f68-876f-947748498d1f"},"vehicle_type_id":"4","last_reported":1745788074,"current_range_meters":21600,"station_id":"cjm6bp8fraef2m0cb0m0","pricing_plan_id":"cebpf4jnsgd1na2vs0mg"},{"bike_id":"751abbc2-9741-4473-8e18-124bb0a57422","system_id":"levelo_inurba_marseille","lat":43.34148,"lon":5.40906,"is_reserved":false,"is_disabled":false,"rental_uris":{"android":"levelo://app?vid=751abbc2-9741-4473-8e18-124bb0a57422","ios":"levelo://app?vid=751abbc2-9741-4473-8e18-124bb0a57422"},"vehicle_type_id":"4","last_reported":1745788074,"current_range_meters":21600,"station_id":"ce4bhqh2rcd13ifvqhlg","pricing_plan_id":"cebpf4jnsgd1na2vs0mg"},{"bike_id":"84d38ff1-bf38-458f-aed7-b567f332d798","system_id":"levelo_inurba_marseille","lat":43.27411,"lon":5.39412,"is_reserved":false,"is_disabled":false,"rental_uris":{"android":"levelo://app?vid=84d38ff1-bf38-458f-aed7-b567f332d798","ios":"levelo://app?vid=84d38ff1-bf38-458f-aed7-b567f332d798"},"vehicle_type_id":"4","last_reported":1745788074,"current_range_meters":22000,"station_id":"ce4bhdp2rcd13ifvqf20","pricing_plan_id":"cebpf4jnsgd1na2vs0mg"},{"bike_id":"504af8b5-2522-4176-8201-9c37815f0fa0","system_id":"levelo_inurba_marseille","lat":43.23962,"lon":5.36645,"is_reserved":false,"is_disabled":false,"rental_uris":{"android":"levelo://app?vid=504af8b5-2522-4176-8201-9c37815f0fa0","ios":"levelo://app?vid=504af8b5-2522-4176-8201-9c37815f0fa0"},"vehicle_type_id":"4","last_reported":1745788074,"current_range_meters":22000,"station_id":"ce4bhi12rcd13ifvqfp0","pricing_plan_id":"cebpf4jnsgd1na2vs0mg"},{"bike_id":"406d7795-4188-429e-aaff-5816755cbb94","system_id":"levelo_inurba_marseille","lat":43.29377,"lon":5.37851,"is_reserved":false,"is_disabled":true,"rental_uris":{"android":"levelo://app?vid=406d7795-4188-429e-aaff-5816755cbb94","ios":"levelo://app?vid=406d7795-4188-429e-aaff-5816755cbb94"},"vehicle_type_id":"4","last_reported":1745788074,"current_range_meters":22000,"station_id":"ce4bgjh2rcd13ifvqbf0","pricing_plan_id":"cebpf4jnsgd1na2vs0mg"},{"bike_id":"d8b9b350-6636-4922-af94-8fbc6798af45","system_id":"levelo_inurba_marseille","lat":43.23964,"lon":5.36624,"is_reserved":false,"is_disabled":false,"rental_uris":{"android":"levelo://app?vid=d8b9b350-6636-4922-af94-8fbc6798af45","ios":"levelo://app?vid=d8b9b350-6636-4922-af94-8fbc6798af45"},"vehicle_type_id":"4","last_reported":1745788074,"current_range_meters":22000,"station_id":"ce4bhi12rcd13ifvqfp0","pricing_plan_id":"cebpf4jnsgd1na2vs0mg"},{"bike_id":"d05f9ebc-12f2-49f2-b6da-830e9ca7ec26","system_id":"levelo_inurba_marseille","lat":43.269395,"lon":5.402593,"is_reserved":false,"is_disabled":false,"rental_uris":{"android":"levelo://app?vid=d05f9ebc-12f2-49f2-b6da-830e9ca7ec26","ios":"levelo://app?vid=d05f9ebc-12f2-49f2-b6da-830e9ca7ec26"},"vehicle_type_id":"4","last_reported":1745788074,"current_range_meters":22000,"station_id":"ce4bhip2rcd13ifvqft0","pricing_plan_id":"cebpf4jnsgd1na2vs0mg"},{"bike_id":"3b73e112-a19d-47d3-8128-205527bc344a","system_id":"levelo_inurba_marseille","lat":43.28413,"lon":5.37505,"is_reserved":false,"is_disabled":false,"rental_uris":{"android":"levelo://app?vid=3b73e112-a19d-47d3-8128-205527bc344a","ios":"levelo://app?vid=3b73e112-a19d-47d3-8128-205527bc344a"},"vehicle_type_id":"4","last_reported":1745788074,"current_range_meters":22400,"station_id":"ce4bh412rcd13ifvqds0","pricing_plan_id":"cebpf4jnsgd1na2vs0mg"},{"bike_id":"d38fc094-00f5-4838-9bec-629159796efa","system_id":"levelo_inurba_marseille","lat":43.23151,"lon":5.43721,"is_reserved":false,"is_disabled":false,"rental_uris":{"android":"levelo://app?vid=d38fc094-00f5-4838-9bec-629159796efa","ios":"levelo://app?vid=d38fc094-00f5-4838-9bec-629159796efa"},"vehicle_type_id":"4","last_reported":1745788074,"current_range_meters":22400,"station_id":"ce4bhmp2rcd13ifvqgog","pricing_plan_id":"cebpf4jnsgd1na2vs0mg"},{"bike_id":"6de82b3f-55f7-4162-8251-5917d974025f","system_id":"levelo_inurba_marseille","lat":43.3075,"lon":5.42438,"is_reserved":false,"is_disabled":false,"rental_uris":{"android":"levelo://app?vid=6de82b3f-55f7-4162-8251-5917d974025f","ios":"levelo://app?vid=6de82b3f-55f7-4162-8251-5917d974025f"},"vehicle_type_id":"4","last_reported":1745788074,"current_range_meters":22400,"station_id":"st_cvj6ca6bvosntc0bfgr0","pricing_plan_id":"cebpf4jnsgd1na2vs0mg"},{"bike_id":"d3881236-172c-42f8-a3e0-7e01c42f9e73","system_id":"levelo_inurba_marseille","lat":43.30076,"lon":5.38604,"is_reserved":false,"is_disabled":true,"rental_uris":{"android":"levelo://app?vid=d3881236-172c-42f8-a3e0-7e01c42f9e73","ios":"levelo://app?vid=d3881236-172c-42f8-a3e0-7e01c42f9e73"},"vehicle_type_id":"4","last_reported":1745788074,"current_range_meters":22800,"station_id":"","pricing_plan_id":"cebpf4jnsgd1na2vs0mg"},{"bike_id":"b5fe6816-f873-4cb9-8652-42ccdeb37fe9","system_id":"levelo_inurba_marseille","lat":43.27218,"lon":5.40998,"is_reserved":false,"is_disabled":false,"rental_uris":{"android":"levelo://app?vid=b5fe6816-f873-4cb9-8652-42ccdeb37fe9","ios":"levelo://app?vid=b5fe6816-f873-4cb9-8652-42ccdeb37fe9"},"vehicle_type_id":"4","last_reported":1745788074,"current_range_meters":22800,"station_id":"ce4bhl12rcd13ifvqgf0","pricing_plan_id":"cebpf4jnsgd1na2vs0mg"},{"bike_id":"40b2c480-18b8-4327-8d0a-626a204173d3","system_id":"levelo_inurba_marseille","lat":43.31287,"lon":5.40152,"is_reserved":false,"is_disabled":false,"rental_uris":{"android":"levelo://app?vid=40b2c480-18b8-4327-8d0a-626a204173d3","ios":"levelo://app?vid=40b2c480-18b8-4327-8d0a-626a204173d3"},"vehicle_type_id":"4","last_reported":1745788074,"current_range_meters":22400,"station_id":"ce4bh092rcd13ifvqd30","pricing_plan_id":"cebpf4jnsgd1na2vs0mg"},{"bike_id":"faf8a5d0-574c-4c7d-adc1-8a57e4375967","system_id":"levelo_inurba_marseille","lat":43.28155,"lon":5.42637,"is_reserved":false,"is_disabled":false,"rental_uris":{"android":"levelo://app?vid=faf8a5d0-574c-4c7d-adc1-8a57e4375967","ios":"levelo://app?vid=faf8a5d0-574c-4c7d-adc1-8a57e4375967"},"vehicle_type_id":"4","last_reported":1745788074,"current_range_meters":22800,"station_id":"ce4bhnh2rcd13ifvqgug","pricing_plan_id":"cebpf4jnsgd1na2vs0mg"},{"bike_id":"a7a5c59b-8fdc-4ceb-a16c-2fd89466328d","system_id":"levelo_inurba_marseille","lat":43.32142,"lon":5.36764,"is_reserved":false,"is_disabled":false,"rental_uris":{"android":"levelo://app?vid=a7a5c59b-8fdc-4ceb-a16c-2fd89466328d","ios":"levelo://app?vid=a7a5c59b-8fdc-4ceb-a16c-2fd89466328d"},"vehicle_type_id":"4","last_reported":1745788074,"current_range_meters":22800,"station_id":"ce4bhrh2rcd13ifvqhug","pricing_plan_id":"cebpf4jnsgd1na2vs0mg"},{"bike_id":"aaecc94e-a371-48c8-8300-38cd0d87784e","system_id":"levelo_inurba_marseille","lat":43.24661,"lon":5.38903,"is_reserved":false,"is_disabled":false,"rental_uris":{"android":"levelo://app?vid=aaecc94e-a371-48c8-8300-38cd0d87784e","ios":"levelo://app?vid=aaecc94e-a371-48c8-8300-38cd0d87784e"},"vehicle_type_id":"4","last_reported":1745788074,"current_range_meters":22800,"station_id":"ce4bhg12rcd13ifvqf60","pricing_plan_id":"cebpf4jnsgd1na2vs0mg"},{"bike_id":"be96cf12-1bfe-4b12-b9a9-b4a285b05aae","system_id":"levelo_inurba_marseille","lat":43.27463,"lon":5.42458,"is_reserved":false,"is_disabled":false,"rental_uris":{"android":"levelo://app?vid=be96cf12-1bfe-4b12-b9a9-b4a285b05aae","ios":"levelo://app?vid=be96cf12-1bfe-4b12-b9a9-b4a285b05aae"},"vehicle_type_id":"4","last_reported":1745788074,"current_range_meters":22800,"station_id":"ce4bhn92rcd13ifvqgrg","pricing_plan_id":"cebpf4jnsgd1na2vs0mg"},{"bike_id":"ffeda105-d648-4099-b476-8e0c4300d627","system_id":"levelo_inurba_marseille","lat":43.27995,"lon":5.41661,"is_reserved":false,"is_disabled":false,"rental_uris":{"android":"levelo://app?vid=ffeda105-d648-4099-b476-8e0c4300d627","ios":"levelo://app?vid=ffeda105-d648-4099-b476-8e0c4300d627"},"vehicle_type_id":"4","last_reported":1745788074,"current_range_meters":22800,"station_id":"ce4bho12rcd13ifvqh1g","pricing_plan_id":"cebpf4jnsgd1na2vs0mg"},{"bike_id":"e63d8cc9-5fe2-481a-87a4-6791e0727fcd","system_id":"levelo_inurba_marseille","lat":43.25097,"lon":5.40357,"is_reserved":false,"is_disabled":false,"rental_uris":{"android":"levelo://app?vid=e63d8cc9-5fe2-481a-87a4-6791e0727fcd","ios":"levelo://app?vid=e63d8cc9-5fe2-481a-87a4-6791e0727fcd"},"vehicle_type_id":"4","last_reported":1745788074,"current_range_meters":23200,"station_id":"ce4bhlh2rcd13ifvqgig","pricing_plan_id":"cebpf4jnsgd1na2vs0mg"},{"bike_id":"42672168-fb8e-482e-b020-c3233ac3b858","system_id":"levelo_inurba_marseille","lat":43.3234,"lon":5.40617,"is_reserved":false,"is_disabled":false,"rental_uris":{"android":"levelo://app?vid=42672168-fb8e-482e-b020-c3233ac3b858","ios":"levelo://app?vid=42672168-fb8e-482e-b020-c3233ac3b858"},"vehicle_type_id":"4","last_reported":1745788074,"current_range_meters":23200,"station_id":"ce4bhq92rcd13ifvqhjg","pricing_plan_id":"cebpf4jnsgd1na2vs0mg"},{"bike_id":"1e4448ba-2167-4f3a-b07d-7b70baaf89c8","system_id":"levelo_inurba_marseille","lat":43.28432,"lon":5.37534,"is_reserved":false,"is_disabled":false,"rental_uris":{"android":"levelo://app?vid=1e4448ba-2167-4f3a-b07d-7b70baaf89c8","ios":"levelo://app?vid=1e4448ba-2167-4f3a-b07d-7b70baaf89c8"},"vehicle_type_id":"4","last_reported":1745788074,"current_range_meters":23200,"station_id":"ce4bh412rcd13ifvqds0","pricing_plan_id":"cebpf4jnsgd1na2vs0mg"},{"bike_id":"ded63ce0-b6c6-4275-8aae-28a95aaf954a","system_id":"levelo_inurba_marseille","lat":43.30896,"lon":5.39615,"is_reserved":false,"is_disabled":false,"rental_uris":{"android":"levelo://app?vid=ded63ce0-b6c6-4275-8aae-28a95aaf954a","ios":"levelo://app?vid=ded63ce0-b6c6-4275-8aae-28a95aaf954a"},"vehicle_type_id":"4","last_reported":1745788074,"current_range_meters":23200,"station_id":"ce4bh012rcd13ifvqcv0","pricing_plan_id":"cebpf4jnsgd1na2vs0mg"},{"bike_id":"e30f209b-b44b-4b2a-adc0-e7c89017a238","system_id":"levelo_inurba_marseille","lat":43.28451,"lon":5.35905,"is_reserved":false,"is_disabled":false,"rental_uris":{"android":"levelo://app?vid=e30f209b-b44b-4b2a-adc0-e7c89017a238","ios":"levelo://app?vid=e30f209b-b44b-4b2a-adc0-e7c89017a238"},"vehicle_type_id":"4","last_reported":1745788074,"current_range_meters":23200,"station_id":"ce4bhah2rcd13ifvqei0","pricing_plan_id":"cebpf4jnsgd1na2vs0mg"},{"bike_id":"b5482998-a5d9-47b1-9027-9150138fc049","system_id":"levelo_inurba_marseille","lat":43.29207,"lon":5.3604,"is_reserved":false,"is_disabled":true,"rental_uris":{"android":"levelo://app?vid=b5482998-a5d9-47b1-9027-9150138fc049","ios":"levelo://app?vid=b5482998-a5d9-47b1-9027-9150138fc049"},"vehicle_type_id":"4","last_reported":1745788074,"current_range_meters":23200,"station_id":"ce4bhbh2rcd13ifvqeqg","pricing_plan_id":"cebpf4jnsgd1na2vs0mg"},{"bike_id":"25a05a73-caea-46c7-b690-408443b34312","system_id":"levelo_inurba_marseille","lat":43.270496,"lon":5.402628,"is_reserved":false,"is_disabled":false,"rental_uris":{"android":"levelo://app?vid=25a05a73-caea-46c7-b690-408443b34312","ios":"levelo://app?vid=25a05a73-caea-46c7-b690-408443b34312"},"vehicle_type_id":"4","last_reported":1745788074,"current_range_meters":24000,"station_id":"ce4bh112rcd13ifvqda0","pricing_plan_id":"cebpf4jnsgd1na2vs0mg"},{"bike_id":"72822771-67fc-41dc-81f6-8a81f8e72774","system_id":"levelo_inurba_marseille","lat":43.25121,"lon":5.40335,"is_reserved":false,"is_disabled":false,"rental_uris":{"android":"levelo://app?vid=72822771-67fc-41dc-81f6-8a81f8e72774","ios":"levelo://app?vid=72822771-67fc-41dc-81f6-8a81f8e72774"},"vehicle_type_id":"4","last_reported":1745788074,"current_range_meters":24000,"station_id":"ce4bhlh2rcd13ifvqgig","pricing_plan_id":"cebpf4jnsgd1na2vs0mg"},{"bike_id":"71ca96dd-db42-4214-9c4d-38d92215a366","system_id":"levelo_inurba_marseille","lat":43.27177,"lon":5.4099,"is_reserved":false,"is_disabled":false,"rental_uris":{"android":"levelo://app?vid=71ca96dd-db42-4214-9c4d-38d92215a366","ios":"levelo://app?vid=71ca96dd-db42-4214-9c4d-38d92215a366"},"vehicle_type_id":"4","last_reported":1745788074,"current_range_meters":24000,"station_id":"ce4bhl12rcd13ifvqgf0","pricing_plan_id":"cebpf4jnsgd1na2vs0mg"},{"bike_id":"2b077e0b-945a-4b8e-9e51-8b16fd0ed4dc","system_id":"levelo_inurba_marseille","lat":43.28939,"lon":5.36628,"is_reserved":false,"is_disabled":true,"rental_uris":{"android":"levelo://app?vid=2b077e0b-945a-4b8e-9e51-8b16fd0ed4dc","ios":"levelo://app?vid=2b077e0b-945a-4b8e-9e51-8b16fd0ed4dc"},"vehicle_type_id":"4","last_reported":1745788074,"current_range_meters":24000,"station_id":"ce4bhap2rcd13ifvqek0","pricing_plan_id":"cebpf4jnsgd1na2vs0mg"},{"bike_id":"c9a186da-b941-47bb-b124-488b5449bd4e","system_id":"levelo_inurba_marseille","lat":43.33655,"lon":5.40977,"is_reserved":false,"is_disabled":false,"rental_uris":{"android":"levelo://app?vid=c9a186da-b941-47bb-b124-488b5449bd4e","ios":"levelo://app?vid=c9a186da-b941-47bb-b124-488b5449bd4e"},"vehicle_type_id":"4","last_reported":1745788074,"current_range_meters":24000,"station_id":"","pricing_plan_id":"cebpf4jnsgd1na2vs0mg"},{"bike_id":"375b5e74-dcb2-40d0-974b-f1b5fe12313b","system_id":"levelo_inurba_marseille","lat":43.28936,"lon":5.36636,"is_reserved":false,"is_disabled":false,"rental_uris":{"android":"levelo://app?vid=375b5e74-dcb2-40d0-974b-f1b5fe12313b","ios":"levelo://app?vid=375b5e74-dcb2-40d0-974b-f1b5fe12313b"},"vehicle_type_id":"4","last_reported":1745788074,"current_range_meters":24000,"station_id":"ce4bhap2rcd13ifvqek0","pricing_plan_id":"cebpf4jnsgd1na2vs0mg"},{"bike_id":"889330a8-c5a1-4244-a28d-0d79658ba1e3","system_id":"levelo_inurba_marseille","lat":43.27429,"lon":5.39404,"is_reserved":false,"is_disabled":false,"rental_uris":{"android":"levelo://app?vid=889330a8-c5a1-4244-a28d-0d79658ba1e3","ios":"levelo://app?vid=889330a8-c5a1-4244-a28d-0d79658ba1e3"},"vehicle_type_id":"4","last_reported":1745788074,"current_range_meters":24000,"station_id":"ce4bhdp2rcd13ifvqf20","pricing_plan_id":"cebpf4jnsgd1na2vs0mg"},{"bike_id":"d7f0f05d-3cc9-442a-8a8d-6275e283d032","system_id":"levelo_inurba_marseille","lat":43.29762,"lon":5.46027,"is_reserved":false,"is_disabled":false,"rental_uris":{"android":"levelo://app?vid=d7f0f05d-3cc9-442a-8a8d-6275e283d032","ios":"levelo://app?vid=d7f0f05d-3cc9-442a-8a8d-6275e283d032"},"vehicle_type_id":"4","last_reported":1745788074,"current_range_meters":24000,"station_id":"","pricing_plan_id":"cebpf4jnsgd1na2vs0mg"},{"bike_id":"3994c53a-428f-479b-9b4b-2f1ca60eb458","system_id":"levelo_inurba_marseille","lat":43.25112,"lon":5.40322,"is_reserved":false,"is_disabled":false,"rental_uris":{"android":"levelo://app?vid=3994c53a-428f-479b-9b4b-2f1ca60eb458","ios":"levelo://app?vid=3994c53a-428f-479b-9b4b-2f1ca60eb458"},"vehicle_type_id":"4","last_reported":1745788074,"current_range_meters":24000,"station_id":"ce4bhlh2rcd13ifvqgig","pricing_plan_id":"cebpf4jnsgd1na2vs0mg"},{"bike_id":"69f6c741-8d55-45ca-a3b6-1ee791aa2949","system_id":"levelo_inurba_marseille","lat":43.28361,"lon":5.38656,"is_reserved":false,"is_disabled":false,"rental_uris":{"android":"levelo://app?vid=69f6c741-8d55-45ca-a3b6-1ee791aa2949","ios":"levelo://app?vid=69f6c741-8d55-45ca-a3b6-1ee791aa2949"},"vehicle_type_id":"4","last_reported":1745788074,"current_range_meters":23200,"station_id":"ce4bh492rcd13ifvqdvg","pricing_plan_id":"cebpf4jnsgd1na2vs0mg"},{"bike_id":"b62fe0d9-8da4-4a44-9a12-23196ee2755f","system_id":"levelo_inurba_marseille","lat":43.2979,"lon":5.40399,"is_reserved":false,"is_disabled":false,"rental_uris":{"android":"levelo://app?vid=b62fe0d9-8da4-4a44-9a12-23196ee2755f","ios":"levelo://app?vid=b62fe0d9-8da4-4a44-9a12-23196ee2755f"},"vehicle_type_id":"4","last_reported":1745788074,"current_range_meters":24000,"station_id":"ce4bh112rcd13ifvqd90","pricing_plan_id":"cebpf4jnsgd1na2vs0mg"},{"bike_id":"68de13d4-ac24-4aa5-ad10-29ab28773ce8","system_id":"levelo_inurba_marseille","lat":43.29914,"lon":5.37473,"is_reserved":false,"is_disabled":false,"rental_uris":{"android":"levelo://app?vid=68de13d4-ac24-4aa5-ad10-29ab28773ce8","ios":"levelo://app?vid=68de13d4-ac24-4aa5-ad10-29ab28773ce8"},"vehicle_type_id":"4","last_reported":1745788074,"current_range_meters":24000,"station_id":"ce4bgjh2rcd13ifvqbg0","pricing_plan_id":"cebpf4jnsgd1na2vs0mg"},{"bike_id":"214fc918-0cac-4df8-99f7-5538aa4ddaa2","system_id":"levelo_inurba_marseille","lat":43.28463,"lon":5.35891,"is_reserved":false,"is_disabled":true,"rental_uris":{"android":"levelo://app?vid=214fc918-0cac-4df8-99f7-5538aa4ddaa2","ios":"levelo://app?vid=214fc918-0cac-4df8-99f7-5538aa4ddaa2"},"vehicle_type_id":"4","last_reported":1745788074,"current_range_meters":24400,"station_id":"ce4bhah2rcd13ifvqei0","pricing_plan_id":"cebpf4jnsgd1na2vs0mg"},{"bike_id":"d835fb20-418e-4350-8305-fc0f668180d7","system_id":"levelo_inurba_marseille","lat":43.32072,"lon":5.36558,"is_reserved":false,"is_disabled":false,"rental_uris":{"android":"levelo://app?vid=d835fb20-418e-4350-8305-fc0f668180d7","ios":"levelo://app?vid=d835fb20-418e-4350-8305-fc0f668180d7"},"vehicle_type_id":"4","last_reported":1745788074,"current_range_meters":24400,"station_id":"","pricing_plan_id":"cebpf4jnsgd1na2vs0mg"},{"bike_id":"ccfa8a49-935d-4411-adfe-72c702fb2679","system_id":"levelo_inurba_marseille","lat":43.23192,"lon":5.39971,"is_reserved":false,"is_disabled":false,"rental_uris":{"android":"levelo://app?vid=ccfa8a49-935d-4411-adfe-72c702fb2679","ios":"levelo://app?vid=ccfa8a49-935d-4411-adfe-72c702fb2679"},"vehicle_type_id":"4","last_reported":1745788074,"current_range_meters":24400,"station_id":"ce4bhn12rcd13ifvqgqg","pricing_plan_id":"cebpf4jnsgd1na2vs0mg"},{"bike_id":"24aaf325-26b7-4657-8ec3-ef2f0ff302e4","system_id":"levelo_inurba_marseille","lat":43.23194,"lon":5.35552,"is_reserved":false,"is_disabled":false,"rental_uris":{"android":"levelo://app?vid=24aaf325-26b7-4657-8ec3-ef2f0ff302e4","ios":"levelo://app?vid=24aaf325-26b7-4657-8ec3-ef2f0ff302e4"},"vehicle_type_id":"4","last_reported":1745788074,"current_range_meters":24400,"station_id":"ce4bhu92rcd13ifvqi70","pricing_plan_id":"cebpf4jnsgd1na2vs0mg"},{"bike_id":"9db023e7-cfd5-42d5-8cd5-7836bd3239c3","system_id":"levelo_inurba_marseille","lat":43.30887,"lon":5.39645,"is_reserved":false,"is_disabled":false,"rental_uris":{"android":"levelo://app?vid=9db023e7-cfd5-42d5-8cd5-7836bd3239c3","ios":"levelo://app?vid=9db023e7-cfd5-42d5-8cd5-7836bd3239c3"},"vehicle_type_id":"4","last_reported":1745788074,"current_range_meters":24400,"station_id":"ce4bh012rcd13ifvqcv0","pricing_plan_id":"cebpf4jnsgd1na2vs0mg"},{"bike_id":"cbb8c955-1c4d-438b-a40e-28f76a411642","system_id":"levelo_inurba_marseille","lat":43.23953,"lon":5.36633,"is_reserved":false,"is_disabled":true,"rental_uris":{"android":"levelo://app?vid=cbb8c955-1c4d-438b-a40e-28f76a411642","ios":"levelo://app?vid=cbb8c955-1c4d-438b-a40e-28f76a411642"},"vehicle_type_id":"4","last_reported":1745788074,"current_range_meters":24400,"station_id":"ce4bhi12rcd13ifvqfp0","pricing_plan_id":"cebpf4jnsgd1na2vs0mg"},{"bike_id":"499cf8cf-6dc3-483a-bfa0-938414fa5ff8","system_id":"levelo_inurba_marseille","lat":43.32283,"lon":5.38263,"is_reserved":false,"is_disabled":false,"rental_uris":{"android":"levelo://app?vid=499cf8cf-6dc3-483a-bfa0-938414fa5ff8","ios":"levelo://app?vid=499cf8cf-6dc3-483a-bfa0-938414fa5ff8"},"vehicle_type_id":"4","last_reported":1745788074,"current_range_meters":24400,"station_id":"ce4bhr12rcd13ifvqhqg","pricing_plan_id":"cebpf4jnsgd1na2vs0mg"},{"bike_id":"e0e0a52a-57f9-448e-b7ef-0232403aef34","system_id":"levelo_inurba_marseille","lat":43.24156,"lon":5.36406,"is_reserved":false,"is_disabled":false,"rental_uris":{"android":"levelo://app?vid=e0e0a52a-57f9-448e-b7ef-0232403aef34","ios":"levelo://app?vid=e0e0a52a-57f9-448e-b7ef-0232403aef34"},"vehicle_type_id":"4","last_reported":1745788074,"current_range_meters":24400,"station_id":"cpo36qri1sfpv3e86is0","pricing_plan_id":"cebpf4jnsgd1na2vs0mg"},{"bike_id":"cf4e5c58-f52b-4255-913e-43d7dec326ab","system_id":"levelo_inurba_marseille","lat":43.24163,"lon":5.36407,"is_reserved":false,"is_disabled":false,"rental_uris":{"android":"levelo://app?vid=cf4e5c58-f52b-4255-913e-43d7dec326ab","ios":"levelo://app?vid=cf4e5c58-f52b-4255-913e-43d7dec326ab"},"vehicle_type_id":"4","last_reported":1745788074,"current_range_meters":24400,"station_id":"cpo36qri1sfpv3e86is0","pricing_plan_id":"cebpf4jnsgd1na2vs0mg"},{"bike_id":"02db49bf-95a5-4a10-b7d5-1feb9774f44c","system_id":"levelo_inurba_marseille","lat":43.28369,"lon":5.398747,"is_reserved":false,"is_disabled":false,"rental_uris":{"android":"levelo://app?vid=02db49bf-95a5-4a10-b7d5-1feb9774f44c","ios":"levelo://app?vid=02db49bf-95a5-4a10-b7d5-1feb9774f44c"},"vehicle_type_id":"4","last_reported":1745788074,"current_range_meters":24400,"station_id":"ce4bho92rcd13ifvqh3g","pricing_plan_id":"cebpf4jnsgd1na2vs0mg"},{"bike_id":"09e4961e-f0a2-4ac3-8d35-d46f40d285af","system_id":"levelo_inurba_marseille","lat":43.29787,"lon":5.39344,"is_reserved":false,"is_disabled":false,"rental_uris":{"android":"levelo://app?vid=09e4961e-f0a2-4ac3-8d35-d46f40d285af","ios":"levelo://app?vid=09e4961e-f0a2-4ac3-8d35-d46f40d285af"},"vehicle_type_id":"4","last_reported":1745788074,"current_range_meters":24000,"station_id":"chh1huq6cuj3fo74tm60","pricing_plan_id":"cebpf4jnsgd1na2vs0mg"},{"bike_id":"03e972c9-0324-4f2e-95ed-782d4d7614d7","system_id":"levelo_inurba_marseille","lat":43.25929,"lon":5.4091,"is_reserved":false,"is_disabled":true,"rental_uris":{"android":"levelo://app?vid=03e972c9-0324-4f2e-95ed-782d4d7614d7","ios":"levelo://app?vid=03e972c9-0324-4f2e-95ed-782d4d7614d7"},"vehicle_type_id":"4","last_reported":1745788074,"current_range_meters":24800,"station_id":"ce4bhm92rcd13ifvqglg","pricing_plan_id":"cebpf4jnsgd1na2vs0mg"},{"bike_id":"f16b9d18-cc63-4269-b7d6-c5c40fe132ec","system_id":"levelo_inurba_marseille","lat":43.29777,"lon":5.39329,"is_reserved":false,"is_disabled":false,"rental_uris":{"android":"levelo://app?vid=f16b9d18-cc63-4269-b7d6-c5c40fe132ec","ios":"levelo://app?vid=f16b9d18-cc63-4269-b7d6-c5c40fe132ec"},"vehicle_type_id":"4","last_reported":1745788074,"current_range_meters":24800,"station_id":"chh1huq6cuj3fo74tm60","pricing_plan_id":"cebpf4jnsgd1na2vs0mg"},{"bike_id":"d232cd8c-8ddd-4492-9393-2a202dde70cb","system_id":"levelo_inurba_marseille","lat":43.309264,"lon":5.401513,"is_reserved":false,"is_disabled":true,"rental_uris":{"android":"levelo://app?vid=d232cd8c-8ddd-4492-9393-2a202dde70cb","ios":"levelo://app?vid=d232cd8c-8ddd-4492-9393-2a202dde70cb"},"vehicle_type_id":"4","last_reported":1745788074,"current_range_meters":24800,"station_id":"ce4bgvp2rcd13ifvqct0","pricing_plan_id":"cebpf4jnsgd1na2vs0mg"},{"bike_id":"07445598-68fe-40db-b19b-e14bab0e7c33","system_id":"levelo_inurba_marseille","lat":43.31449,"lon":5.37389,"is_reserved":false,"is_disabled":false,"rental_uris":{"android":"levelo://app?vid=07445598-68fe-40db-b19b-e14bab0e7c33","ios":"levelo://app?vid=07445598-68fe-40db-b19b-e14bab0e7c33"},"vehicle_type_id":"4","last_reported":1745788074,"current_range_meters":24800,"station_id":"","pricing_plan_id":"cebpf4jnsgd1na2vs0mg"},{"bike_id":"e155e81c-ad4c-43e9-8d2b-3a3382f15837","system_id":"levelo_inurba_marseille","lat":43.24648,"lon":5.38901,"is_reserved":false,"is_disabled":false,"rental_uris":{"android":"levelo://app?vid=e155e81c-ad4c-43e9-8d2b-3a3382f15837","ios":"levelo://app?vid=e155e81c-ad4c-43e9-8d2b-3a3382f15837"},"vehicle_type_id":"4","last_reported":1745788074,"current_range_meters":24000,"station_id":"ce4bhg12rcd13ifvqf60","pricing_plan_id":"cebpf4jnsgd1na2vs0mg"},