{"last_updated":1771446445,"ttl":60,"version":"2.2","data":{"bikes":[{"bike_id":"f172b5b3-c333-47ea-9d5e-14a1e1c1e1bd","system_id":"levelo_inurba_marseille","lat":43.264957,"lon":5.395467,"is_reserved":false,"is_disabled":false,"rental_uris":{"android":"levelo://app?vid=f172b5b3-c333-47ea-9d5e-14a1e1c1e1bd","ios":"levelo://app?vid=f172b5b3-c333-47ea-9d5e-14a1e1c1e1bd"},"vehicle_type_id":"4","last_reported":1771446446,"current_range_meters":27600,"station_id":"ce4bhi12rcd13ifvqfq0","pricing_plan_id":"cebpf4jnsgd1na2vs0mg"},{"bike_id":"082c18e4-001a-495d-847f-c5ad36f2a9ff","system_id":"levelo_inurba_marseille","lat":43.25109,"lon":5.40323,"is_reserved":false,"is_disabled":false,"rental_uris":{"android":"levelo://app?vid=082c18e4-001a-495d-847f-c5ad36f2a9ff","ios":"levelo://app?vid=082c18e4-001a-495d-847f-c5ad36f2a9ff"},"vehicle_type_id":"4","last_reported":1771446446,"current_range_meters":8800,"station_id":"ce4bhlh2rcd13ifvqgig","pricing_plan_id":"cebpf4jnsgd1na2vs0mg"},{"bike_id":"d2556e92-2ca9-4a78-9f71-9255354e5fd9","system_id":"levelo_inurba_marseille","lat":43.28824,"lon":5.39341,"is_reserved":false,"is_disabled":true,"rental_uris":{"android":"levelo://app?vid=d2556e92-2ca9-4a78-9f71-9255354e5fd9","ios":"levelo://app?vid=d2556e92-2ca9-4a78-9f71-9255354e5fd9"},"vehicle_type_id":"4","last_reported":1771446446,"current_range_meters":31200,"station_id":"ce4bh2p2rcd13ifvqdi0","pricing_plan_id":"cebpf4jnsgd1na2vs0mg"},{"bike_id":"dbe62130-e121-40a4-b1a1-4ef6ea44b060","system_id":"levelo_inurba_marseille","lat":43.312,"lon":5.36862,"is_reserved":false,"is_disabled":false,"rental_uris":{"android":"levelo://app?vid=dbe62130-e121-40a4-b1a1-4ef6ea44b060","ios":"levelo://app?vid=dbe62130-e121-40a4-b1a1-4ef6ea44b060"},"vehicle_type_id":"4","last_reported":1771446446,"current_range_meters":14000,"station_id":"ce4bgl92rcd13ifvqbq0","pricing_plan_id":"cebpf4jnsgd1na2vs0mg"},{"bike_id":"d8078990-2633-4921-9e81-c73d420fcb12","system_id":"levelo_inurba_marseille","lat":43.28412,"lon":5.37515,"is_reserved":false,"is_disabled":true,"rental_uris":{"android":"levelo://app?vid=d8078990-2633-4921-9e81-c73d420fcb12","ios":"levelo://app?vid=d8078990-2633-4921-9e81-c73d420fcb12"},"vehicle_type_id":"4","last_reported":1771446446,"current_range_meters":17600,"station_id":"ce4bh412rcd13ifvqds0","pricing_plan_id":"cebpf4jnsgd1na2vs0mg"},{"bike_id":"f56469d6-156e-4dc9-9c3e-3416ed76c4ba","system_id":"levelo_inurba_marseille","lat":43.33155,"lon":5.37695,"is_reserved":false,"is_disabled":false,"rental_uris":{"android":"levelo://app?vid=f56469d6-156e-4dc9-9c3e-3416ed76c4ba","ios":"levelo://app?vid=f56469d6-156e-4dc9-9c3e-3416ed76c4ba"},"vehicle_type_id":"4","last_reported":1771446446,"current_range_meters":24800,"station_id":"st_d46cu089ee8s73dldbu0","pricing_plan_id":"cebpf4jnsgd1na2vs0mg"},{"bike_id":"6fdf3c0c-e2fd-48ef-ba20-cd96942d8a55","system_id":"levelo_inurba_marseille","lat":43.26229,"lon":5.40453,"is_reserved":false,"is_disabled":true,"rental_uris":{"android":"levelo://app?vid=6fdf3c0c-e2fd-48ef-ba20-cd96942d8a55","ios":"levelo://app?vid=6fdf3c0c-e2fd-48ef-ba20-cd96942d8a55"},"vehicle_type_id":"4","last_reported":1771446446,"current_range_meters":15200,"station_id":"ce4bhmh2rcd13ifvqgmg","pricing_plan_id":"cebpf4jnsgd1na2vs0mg"},{"bike_id":"fa80ce28-91be-4d7b-a322-0ac4cb570416","system_id":"levelo_inurba_marseille","lat":43.29539,"lon":5.38558,"is_reserved":false,"is_disabled":false,"rental_uris":{"android":"levelo://app?vid=fa80ce28-91be-4d7b-a322-0ac4cb570416","ios":"levelo://app?vid=fa80ce28-91be-4d7b-a322-0ac4cb570416"},"vehicle_type_id":"4","last_reported":1771446446,"current_range_meters":40000,"station_id":"ce4bgih2rcd13ifvqba0","pricing_plan_id":"cebpf4jnsgd1na2vs0mg"},{"bike_id":"f4a3de1f-838f-4ce3-a51a-063a91f5c9eb","system_id":"levelo_inurba_marseille","lat":43.29257,"lon":5.38447,"is_reserved":false,"is_disabled":false,"rental_uris":{"android":"levelo://app?vid=f4a3de1f-838f-4ce3-a51a-063a91f5c9eb","ios":"levelo://app?vid=f4a3de1f-838f-4ce3-a51a-063a91f5c9eb"},"vehicle_type_id":"4","last_reported":1771446446,"current_range_meters":38000,"station_id":"ce4bh692rcd13ifvqea0","pricing_plan_id":"cebpf4jnsgd1na2vs0mg"},{"bike_id":"d8c9f9c3-dee7-4958-bac5-b856a984d157","system_id":"levelo_inurba_marseille","lat":43.28618,"lon":5.35109,"is_reserved":false,"is_disabled":false,"rental_uris":{"android":"levelo://app?vid=d8c9f9c3-dee7-4958-bac5-b856a984d157","ios":"levelo://app?vid=d8c9f9c3-dee7-4958-bac5-b856a984d157"},"vehicle_type_id":"4","last_reported":1771446446,"current_range_meters":28000,"station_id":"ce4bhch2rcd13ifvqeug","pricing_plan_id":"cebpf4jnsgd1na2vs0mg"},{"bike_id":"9b4147d3-5663-4f32-8068-bd399091be97","system_id":"levelo_inurba_marseille","lat":43.29248,"lon":5.39344,"is_reserved":false,"is_disabled":false,"rental_uris":{"android":"levelo://app?vid=9b4147d3-5663-4f32-8068-bd399091be97","ios":"levelo://app?vid=9b4147d3-5663-4f32-8068-bd399091be97"},"vehicle_type_id":"4","last_reported":1771446446,"current_range_meters":38000,"station_id":"","pricing_plan_id":"cebpf4jnsgd1na2vs0mg"},{"bike_id":"37b7f341-16d7-4eb9-9d63-c0dc411fcc94","system_id":"levelo_inurba_marseille","lat":43.24187,"lon":5.39748,"is_reserved":false,"is_disabled":false,"rental_uris":{"android":"levelo://app?vid=37b7f341-16d7-4eb9-9d63-c0dc411fcc94","ios":"levelo://app?vid=37b7f341-16d7-4eb9-9d63-c0dc411fcc94"},"vehicle_type_id":"4","last_reported":1771446446,"current_range_meters":20800,"station_id":"ce4bhn12rcd13ifvqgpg","pricing_plan_id":"cebpf4jnsgd1na2vs0mg"},{"bike_id":"d2bb17c7-6558-4b9c-ae8a-0d2292552853","system_id":"levelo_inurba_marseille","lat":43.28525,"lon":5.48444,"is_reserved":false,"is_disabled":false,"rental_uris":{"android":"levelo://app?vid=d2bb17c7-6558-4b9c-ae8a-0d2292552853","ios":"levelo://app?vid=d2bb17c7-6558-4b9c-ae8a-0d2292552853"},"vehicle_type_id":"4","last_reported":1771446446,"current_range_meters":37600,"station_id":"","pricing_plan_id":"cebpf4jnsgd1na2vs0mg"},{"bike_id":"da4093a5-6673-43a8-b7ee-b4859a45cac4","system_id":"levelo_inurba_marseille","lat":43.24433,"lon":5.37083,"is_reserved":false,"is_disabled":false,"rental_uris":{"android":"levelo://app?vid=da4093a5-6673-43a8-b7ee-b4859a45cac4","ios":"levelo://app?vid=da4093a5-6673-43a8-b7ee-b4859a45cac4"},"vehicle_type_id":"4","last_reported":1771446446,"current_range_meters":8400,"station_id":"ce4bhhh2rcd13ifvqfk0","pricing_plan_id":"cebpf4jnsgd1na2vs0mg"},{"bike_id":"d0efee54-ca3b-413f-be50-86575cf0614e","system_id":"levelo_inurba_marseille","lat":43.302712,"lon":5.40061,"is_reserved":false,"is_disabled":true,"rental_uris":{"android":"levelo://app?vid=d0efee54-ca3b-413f-be50-86575cf0614e","ios":"levelo://app?vid=d0efee54-ca3b-413f-be50-86575cf0614e"},"vehicle_type_id":"4","last_reported":1771446446,"current_range_meters":8400,"station_id":"ce4bgvh2rcd13ifvqcs0","pricing_plan_id":"cebpf4jnsgd1na2vs0mg"},{"bike_id":"7cc7ae6d-fe1b-4556-aa28-0dd3a5e0cb66","system_id":"levelo_inurba_marseille","lat":43.28722,"lon":5.36091,"is_reserved":false,"is_disabled":false,"rental_uris":{"android":"levelo://app?vid=7cc7ae6d-fe1b-4556-aa28-0dd3a5e0cb66","ios":"levelo://app?vid=7cc7ae6d-fe1b-4556-aa28-0dd3a5e0cb66"},"vehicle_type_id":"4","last_reported":1771446446,"current_range_meters":35200,"station_id":"cki0cbj6b192h4jlfktg","pricing_plan_id":"cebpf4jnsgd1na2vs0mg"},{"bike_id":"0e39e80b-313b-42d8-a5e6-32e1d6a85fd6","system_id":"levelo_inurba_marseille","lat":43.28876,"lon":5.35919,"is_reserved":false,"is_disabled":false,"rental_uris":{"android":"levelo://app?vid=0e39e80b-313b-42d8-a5e6-32e1d6a85fd6","ios":"levelo://app?vid=0e39e80b-313b-42d8-a5e6-32e1d6a85fd6"},"vehicle_type_id":"4","last_reported":1771446446,"current_range_meters":4400,"station_id":"","pricing_plan_id":"cebpf4jnsgd1na2vs0mg"},{"bike_id":"91416439-b37a-4b2d-b98e-28f7d27e0074","system_id":"levelo_inurba_marseille","lat":43.26555,"lon":5.39021,"is_reserved":false,"is_disabled":false,"rental_uris":{"android":"levelo://app?vid=91416439-b37a-4b2d-b98e-28f7d27e0074","ios":"levelo://app?vid=91416439-b37a-4b2d-b98e-28f7d27e0074"},"vehicle_type_id":"4","last_reported":1771446446,"current_range_meters":34000,"station_id":"ce4bhe12rcd13ifvqf30","pricing_plan_id":"cebpf4jnsgd1na2vs0mg"},{"bike_id":"0755867f-5640-414a-b41f-a3c933ce811e","system_id":"levelo_inurba_marseille","lat":43.29026,"lon":5.3812,"is_reserved":false,"is_disabled":false,"rental_uris":{"android":"levelo://app?vid=0755867f-5640-414a-b41f-a3c933ce811e","ios":"levelo://app?vid=0755867f-5640-414a-b41f-a3c933ce811e"},"vehicle_type_id":"4","last_reported":1771446446,"current_range_meters":35600,"station_id":"ce4bh4p2rcd13ifvqe1g","pricing_plan_id":"cebpf4jnsgd1na2vs0mg"},{"bike_id":"351bcd66-96e5-4e62-ae12-2c87a2f81846","system_id":"levelo_inurba_marseille","lat":43.27571,"lon":5.38427,"is_reserved":false,"is_disabled":false,"rental_uris":{"android":"levelo://app?vid=351bcd66-96e5-4e62-ae12-2c87a2f81846","ios":"levelo://app?vid=351bcd66-96e5-4e62-ae12-2c87a2f81846"},"vehicle_type_id":"4","last_reported":1771446446,"current_range_meters":40000,"station_id":"ce4bhh92rcd13ifvqfi0","pricing_plan_id":"cebpf4jnsgd1na2vs0mg"},{"bike_id":"d9e94a01-ed1a-4565-956a-738ca2f2f968","system_id":"levelo_inurba_marseille","lat":43.31896,"lon":5.40739,"is_reserved":false,"is_disabled":false,"rental_uris":{"android":"levelo://app?vid=d9e94a01-ed1a-4565-956a-738ca2f2f968","ios":"levelo://app?vid=d9e94a01-ed1a-4565-956a-738ca2f2f968"},"vehicle_type_id":"4","last_reported":1771446446,"current_range_meters":30000,"station_id":"ce4bhq12rcd13ifvqhig","pricing_plan_id":"cebpf4jnsgd1na2vs0mg"},{"bike_id":"995dd4aa-d943-4547-aee8-c3325bdb05ae","system_id":"levelo_inurba_marseille","lat":43.31275,"lon":5.40165,"is_reserved":false,"is_disabled":true,"rental_uris":{"android":"levelo://app?vid=995dd4aa-d943-4547-aee8-c3325bdb05ae","ios":"levelo://app?vid=995dd4aa-d943-4547-aee8-c3325bdb05ae"},"vehicle_type_id":"4","last_reported":1771446446,"current_range_meters":24800,"station_id":"ce4bh092rcd13ifvqd30","pricing_plan_id":"cebpf4jnsgd1na2vs0mg"},{"bike_id":"b7e66e04-df8a-47f2-bad3-fe275c5c95e1","system_id":"levelo_inurba_marseille","lat":43.30864,"lon":5.39635,"is_reserved":false,"is_disabled":false,"rental_uris":{"android":"levelo://app?vid=b7e66e04-df8a-47f2-bad3-fe275c5c95e1","ios":"levelo://app?vid=b7e66e04-df8a-47f2-bad3-fe275c5c95e1"},"vehicle_type_id":"4","last_reported":1771446446,"current_range_meters":24800,"station_id":"ce4bh012rcd13ifvqcv0","pricing_plan_id":"cebpf4jnsgd1na2vs0mg"},{"bike_id":"0d556e9f-0611-4f3c-8a2c-f68279a59dec","system_id":"levelo_inurba_marseille","lat":43.28615,"lon":5.35097,"is_reserved":false,"is_disabled":false,"rental_uris":{"android":"levelo://app?vid=0d556e9f-0611-4f3c-8a2c-f68279a59dec","ios":"levelo://app?vid=0d556e9f-0611-4f3c-8a2c-f68279a59dec"},"vehicle_type_id":"4","last_reported":1771446446,"current_range_meters":30800,"station_id":"ce4bhch2rcd13ifvqeug","pricing_plan_id":"cebpf4jnsgd1na2vs0mg"},{"bike_id":"97e5b8bb-9ce2-4a3e-b4a9-8b7acc5a9dcc","system_id":"levelo_inurba_marseille","lat":43.292231,"lon":5.360717,"is_reserved":false,"is_disabled":false,"rental_uris":{"android":"levelo://app?vid=97e5b8bb-9ce2-4a3e-b4a9-8b7acc5a9dcc","ios":"levelo://app?vid=97e5b8bb-9ce2-4a3e-b4a9-8b7acc5a9dcc"},"vehicle_type_id":"4","last_reported":1771446446,"current_range_meters":38800,"station_id":"ce4bhbh2rcd13ifvqeqg","pricing_plan_id":"cebpf4jnsgd1na2vs0mg"},{"bike_id":"420c5861-db94-4f0d-a547-0e7febfa4863","system_id":"levelo_inurba_marseille","lat":43.29537,"lon":5.38563,"is_reserved":false,"is_disabled":false,"rental_uris":{"android":"levelo://app?vid=420c5861-db94-4f0d-a547-0e7febfa4863","ios":"levelo://app?vid=420c5861-db94-4f0d-a547-0e7febfa4863"},"vehicle_type_id":"4","last_reported":1771446446,"current_range_meters":22400,"station_id":"ce4bgih2rcd13ifvqba0","pricing_plan_id":"cebpf4jnsgd1na2vs0mg"},{"bike_id":"f61767a7-647a-4b75-b892-1e88aebefcb5","system_id":"levelo_inurba_marseille","lat":43.28162,"lon":5.42653,"is_reserved":false,"is_disabled":false,"rental_uris":{"android":"levelo://app?vid=f61767a7-647a-4b75-b892-1e88aebefcb5","ios":"levelo://app?vid=f61767a7-647a-4b75-b892-1e88aebefcb5"},"vehicle_type_id":"4","last_reported":1771446446,"current_range_meters":40000,"station_id":"ce4bhnh2rcd13ifvqgug","pricing_plan_id":"cebpf4jnsgd1na2vs0mg"},{"bike_id":"9daa25c7-d524-46ae-8d41-0a3c36c8c2a4","system_id":"levelo_inurba_marseille","lat":43.29043,"lon":5.399595,"is_reserved":false,"is_disabled":true,"rental_uris":{"android":"levelo://app?vid=9daa25c7-d524-46ae-8d41-0a3c36c8c2a4","ios":"levelo://app?vid=9daa25c7-d524-46ae-8d41-0a3c36c8c2a4"},"vehicle_type_id":"4","last_reported":1771446446,"current_range_meters":19200,"station_id":"ce4bh392rcd13ifvqdm0","pricing_plan_id":"cebpf4jnsgd1na2vs0mg"},{"bike_id":"748e0f94-1d84-4e99-a2d8-3ed4f6188416","system_id":"levelo_inurba_marseille","lat":43.25092,"lon":5.4035,"is_reserved":false,"is_disabled":false,"rental_uris":{"android":"levelo://app?vid=748e0f94-1d84-4e99-a2d8-3ed4f6188416","ios":"levelo://app?vid=748e0f94-1d84-4e99-a2d8-3ed4f6188416"},"vehicle_type_id":"4","last_reported":1771446446,"current_range_meters":35200,"station_id":"ce4bhlh2rcd13ifvqgig","pricing_plan_id":"cebpf4jnsgd1na2vs0mg"},{"bike_id":"27ff9886-ae8f-4983-bb6a-dbb7908dc149","system_id":"levelo_inurba_marseille","lat":43.31296,"lon":5.40166,"is_reserved":false,"is_disabled":false,"rental_uris":{"android":"levelo://app?vid=27ff9886-ae8f-4983-bb6a-dbb7908dc149","ios":"levelo://app?vid=27ff9886-ae8f-4983-bb6a-dbb7908dc149"},"vehicle_type_id":"4","last_reported":1771446446,"current_range_meters":37600,"station_id":"ce4bh092rcd13ifvqd30","pricing_plan_id":"cebpf4jnsgd1na2vs0mg"},{"bike_id":"d81b012e-cd71-4293-a4ed-643f502b29b7","system_id":"levelo_inurba_marseille","lat":43.29745,"lon":5.36636,"is_reserved":false,"is_disabled":false,"rental_uris":{"android":"levelo://app?vid=d81b012e-cd71-4293-a4ed-643f502b29b7","ios":"levelo://app?vid=d81b012e-cd71-4293-a4ed-643f502b29b7"},"vehicle_type_id":"4","last_reported":1771446446,"current_range_meters":34000,"station_id":"ce4bgn12rcd13ifvqbt0","pricing_plan_id":"cebpf4jnsgd1na2vs0mg"},{"bike_id":"f2d30de6-4c83-468b-9ea0-b4022ee843f0","system_id":"levelo_inurba_marseille","lat":43.32349,"lon":5.3675,"is_reserved":false,"is_disabled":false,"rental_uris":{"android":"levelo://app?vid=f2d30de6-4c83-468b-9ea0-b4022ee843f0","ios":"levelo://app?vid=f2d30de6-4c83-468b-9ea0-b4022ee843f0"},"vehicle_type_id":"4","last_reported":1771446446,"current_range_meters":28000,"station_id":"ce4bhsh2rcd13ifvqi2g","pricing_plan_id":"cebpf4jnsgd1na2vs0mg"},{"bike_id":"c2601411-1596-4294-8a6c-6b3d2a9b9b83","system_id":"levelo_inurba_marseille","lat":43.303085,"lon":5.369087,"is_reserved":false,"is_disabled":false,"rental_uris":{"android":"levelo://app?vid=c2601411-1596-4294-8a6c-6b3d2a9b9b83","ios":"levelo://app?vid=c2601411-1596-4294-8a6c-6b3d2a9b9b83"},"vehicle_type_id":"4","last_reported":1771446446,"current_range_meters":34800,"station_id":"ce4bgqh2rcd13ifvqc5g","pricing_plan_id":"cebpf4jnsgd1na2vs0mg"},{"bike_id":"03c3223d-ff56-49ae-bb62-09670a4dd560","system_id":"levelo_inurba_marseille","lat":43.29538,"lon":5.38542,"is_reserved":false,"is_disabled":false,"rental_uris":{"android":"levelo://app?vid=03c3223d-ff56-49ae-bb62-09670a4dd560","ios":"levelo://app?vid=03c3223d-ff56-49ae-bb62-09670a4dd560"},"vehicle_type_id":"4","last_reported":1771446446,"current_range_meters":30000,"station_id":"ce4bgih2rcd13ifvqba0","pricing_plan_id":"cebpf4jnsgd1na2vs0mg"},{"bike_id":"a6d502c5-4522-456f-b40b-d357949369ec","system_id":"levelo_inurba_marseille","lat":43.25111,"lon":5.40279,"is_reserved":false,"is_disabled":false,"rental_uris":{"android":"levelo://app?vid=a6d502c5-4522-456f-b40b-d357949369ec","ios":"levelo://app?vid=a6d502c5-4522-456f-b40b-d357949369ec"},"vehicle_type_id":"4","last_reported":1771446446,"current_range_meters":36000,"station_id":"ce4bhlh2rcd13ifvqgig","pricing_plan_id":"cebpf4jnsgd1na2vs0mg"},{"bike_id":"e071cb6b-00dd-46cc-bbae-0c336769674f","system_id":"levelo_inurba_marseille","lat":43.26464,"lon":5.39495,"is_reserved":false,"is_disabled":false,"rental_uris":{"android":"levelo://app?vid=e071cb6b-00dd-46cc-bbae-0c336769674f","ios":"levelo://app?vid=e071cb6b-00dd-46cc-bbae-0c336769674f"},"vehicle_type_id":"4","last_reported":1771446446,"current_range_meters":31200,"station_id":"","pricing_plan_id":"cebpf4jnsgd1na2vs0mg"},{"bike_id":"01c62984-a2ae-4489-84a9-6a173aa3a0f3","system_id":"levelo_inurba_marseille","lat":43.31238,"lon":5.36827,"is_reserved":false,"is_disabled":true,"rental_uris":{"android":"levelo://app?vid=01c62984-a2ae-4489-84a9-6a173aa3a0f3","ios":"levelo://app?vid=01c62984-a2ae-4489-84a9-6a173aa3a0f3"},"vehicle_type_id":"4","last_reported":1771446446,"current_range_meters":32000,"station_id":"ce4bgl92rcd13ifvqbq0","pricing_plan_id":"cebpf4jnsgd1na2vs0mg"},{"bike_id":"b4a5fa8d-9e9e-4d85-90b9-ca39084b3e7a","system_id":"levelo_inurba_marseille","lat":43.27574,"lon":5.38413,"is_reserved":false,"is_disabled":false,"rental_uris":{"android":"levelo://app?vid=b4a5fa8d-9e9e-4d85-90b9-ca39084b3e7a","ios":"levelo://app?vid=b4a5fa8d-9e9e-4d85-90b9-ca39084b3e7a"},"vehicle_type_id":"4","last_reported":1771446446,"current_range_meters":36000,"station_id":"ce4bhh92rcd13ifvqfi0","pricing_plan_id":"cebpf4jnsgd1na2vs0mg"},{"bike_id":"e9c8c195-4938-4494-9005-66aa872cbce1","system_id":"levelo_inurba_marseille","lat":43.31123,"lon":5.36943,"is_reserved":false,"is_disabled":false,"rental_uris":{"android":"levelo://app?vid=e9c8c195-4938-4494-9005-66aa872cbce1","ios":"levelo://app?vid=e9c8c195-4938-4494-9005-66aa872cbce1"},"vehicle_type_id":"4","last_reported":1771446446,"current_range_meters":16000,"station_id":"","pricing_plan_id":"cebpf4jnsgd1na2vs0mg"},{"bike_id":"f264c9df-7cd6-4017-a93e-7185ac48022b","system_id":"levelo_inurba_marseille","lat":43.29739,"lon":5.42794,"is_reserved":false,"is_disabled":false,"rental_uris":{"android":"levelo://app?vid=f264c9df-7cd6-4017-a93e-7185ac48022b","ios":"levelo://app?vid=f264c9df-7cd6-4017-a93e-7185ac48022b"},"vehicle_type_id":"4","last_reported":1771446446,"current_range_meters":38000,"station_id":"st_d3md5207bmas73dh9klg","pricing_plan_id":"cebpf4jnsgd1na2vs0mg"},{"bike_id":"ec4307b6-1774-4d2c-a688-1693e5100784","system_id":"levelo_inurba_marseille","lat":43.28859,"lon":5.35872,"is_reserved":false,"is_disabled":false,"rental_uris":{"android":"levelo://app?vid=ec4307b6-1774-4d2c-a688-1693e5100784","ios":"levelo://app?vid=ec4307b6-1774-4d2c-a688-1693e5100784"},"vehicle_type_id":"4","last_reported":1771446446,"current_range_meters":39200,"station_id":"ce4bhb12rcd13ifvqem0","pricing_plan_id":"cebpf4jnsgd1na2vs0mg"},{"bike_id":"a2aac6db-ff2a-410f-9224-52b6b4391027","system_id":"levelo_inurba_marseille","lat":43.25109,"lon":5.40348,"is_reserved":false,"is_disabled":false,"rental_uris":{"android":"levelo://app?vid=a2aac6db-ff2a-410f-9224-52b6b4391027","ios":"levelo://app?vid=a2aac6db-ff2a-410f-9224-52b6b4391027"},"vehicle_type_id":"4","last_reported":1771446446,"current_range_meters":27200,"station_id":"ce4bhlh2rcd13ifvqgig","pricing_plan_id":"cebpf4jnsgd1na2vs0mg"},{"bike_id":"d2792f52-a3ea-4b59-a60c-c5ab8feca184","system_id":"levelo_inurba_marseille","lat":43.26511,"lon":5.39578,"is_reserved":false,"is_disabled":false,"rental_uris":{"android":"levelo://app?vid=d2792f52-a3ea-4b59-a60c-c5ab8feca184","ios":"levelo://app?vid=d2792f52-a3ea-4b59-a60c-c5ab8feca184"},"vehicle_type_id":"4","last_reported":1771446446,"current_range_meters":28800,"station_id":"ce4bhi12rcd13ifvqfq0","pricing_plan_id":"cebpf4jnsgd1na2vs0mg"},{"bike_id":"86b2e83a-5326-439b-8dcf-cb123b445812","system_id":"levelo_inurba_marseille","lat":43.29278,"lon":5.36855,"is_reserved":false,"is_disabled":false,"rental_uris":{"android":"levelo://app?vid=86b2e83a-5326-439b-8dcf-cb123b445812","ios":"levelo://app?vid=86b2e83a-5326-439b-8dcf-cb123b445812"},"vehicle_type_id":"4","last_reported":1771446446,"current_range_meters":23200,"station_id":"ce4bhbp2rcd13ifvqesg","pricing_plan_id":"cebpf4jnsgd1na2vs0mg"},{"bike_id":"81d0320a-a61a-4244-81e4-d2e5c4269b7c","system_id":"levelo_inurba_marseille","lat":43.25579,"lon":5.38246,"is_reserved":false,"is_disabled":false,"rental_uris":{"android":"levelo://app?vid=81d0320a-a61a-4244-81e4-d2e5c4269b7c","ios":"levelo://app?vid=81d0320a-a61a-4244-81e4-d2e5c4269b7c"},"vehicle_type_id":"4","last_reported":1771446446,"current_range_meters":12400,"station_id":"ce4bhih2rcd13ifvqfs0","pricing_plan_id":"cebpf4jnsgd1na2vs0mg"},{"bike_id":"06df2014-e9a7-4eea-a10c-90e91f6aa7ca","system_id":"levelo_inurba_marseille","lat":43.2649,"lon":5.39554,"is_reserved":false,"is_disabled":false,"rental_uris":{"android":"levelo://app?vid=06df2014-e9a7-4eea-a10c-90e91f6aa7ca","ios":"levelo://app?vid=06df2014-e9a7-4eea-a10c-90e91f6aa7ca"},"vehicle_type_id":"4","last_reported":1771446446,"current_range_meters":30400,"station_id":"ce4bhi12rcd13ifvqfq0","pricing_plan_id":"cebpf4jnsgd1na2vs0mg"},{"bike_id":"d2fb2733-88e8-46aa-a903-dc7e062bbe51","system_id":"levelo_inurba_marseille","lat":43.2606,"lon":5.39383,"is_reserved":false,"is_disabled":true,"rental_uris":{"android":"levelo://app?vid=d2fb2733-88e8-46aa-a903-dc7e062bbe51","ios":"levelo://app?vid=d2fb2733-88e8-46aa-a903-dc7e062bbe51"},"vehicle_type_id":"4","last_reported":1771446446,"current_range_meters":4400,"station_id":"ce4bhh92rcd13ifvqfj0","pricing_plan_id":"cebpf4jnsgd1na2vs0mg"},{"bike_id":"091f7dbf-a446-496b-9e4a-a29b4a835f56","system_id":"levelo_inurba_marseille","lat":43.2769,"lon":5.38948,"is_reserved":false,"is_disabled":true,"rental_uris":{"android":"levelo://app?vid=091f7dbf-a446-496b-9e4a-a29b4a835f56","ios":"levelo://app?vid=091f7dbf-a446-496b-9e4a-a29b4a835f56"},"vehicle_type_id":"4","last_reported":1771446446,"current_range_meters":10800,"station_id":"","pricing_plan_id":"cebpf4jnsgd1na2vs0mg"},{"bike_id":"659923c1-de2a-425b-b089-253fcf51c04f","system_id":"levelo_inurba_marseille","lat":43.2416,"lon":5.36447,"is_reserved":false,"is_disabled":false,"rental_uris":{"android":"levelo://app?vid=659923c1-de2a-425b-b089-253fcf51c04f","ios":"levelo://app?vid=659923c1-de2a-425b-b089-253fcf51c04f"},"vehicle_type_id":"4","last_reported":1771446446,"current_range_meters":27600,"station_id":"cpo36qri1sfpv3e86is0","pricing_plan_id":"cebpf4jnsgd1na2vs0mg"},{"bike_id":"388b1bc2-2ad3-42a2-a7e4-94066aa5b495","system_id":"levelo_inurba_marseille","lat":43.29979,"lon":5.38496,"is_reserved":false,"is_disabled":true,"rental_uris":{"android":"levelo://app?vid=388b1bc2-2ad3-42a2-a7e4-94066aa5b495","ios":"levelo://app?vid=388b1bc2-2ad3-42a2-a7e4-94066aa5b495"},"vehicle_type_id":"4","last_reported":1771446446,"current_range_meters":39200,"station_id":"ce4bgj92rcd13ifvqbd0","pricing_plan_id":"cebpf4jnsgd1na2vs0mg"},{"bike_id":"74c885ab-64ab-448e-99c0-d2dd694de67f","system_id":"levelo_inurba_marseille","lat":43.28184,"lon":5.42686,"is_reserved":false,"is_disabled":false,"rental_uris":{"android":"levelo://app?vid=74c885ab-64ab-448e-99c0-d2dd694de67f","ios":"levelo://app?vid=74c885ab-64ab-448e-99c0-d2dd694de67f"},"vehicle_type_id":"4","last_reported":1771446446,"current_range_meters":16400,"station_id":"ce4bhnh2rcd13ifvqgug","pricing_plan_id":"cebpf4jnsgd1na2vs0mg"},{"bike_id":"7a15b882-a18b-490f-bd79-31c4f4320458","system_id":"levelo_inurba_marseille","lat":43.30594,"lon":5.37243,"is_reserved":false,"is_disabled":false,"rental_uris":{"android":"levelo://app?vid=7a15b882-a18b-490f-bd79-31c4f4320458","ios":"levelo://app?vid=7a15b882-a18b-490f-bd79-31c4f4320458"},"vehicle_type_id":"4","last_reported":1771446446,"current_range_meters":30000,"station_id":"ce4bgqh2rcd13ifvqc4g","pricing_plan_id":"cebpf4jnsgd1na2vs0mg"},{"bike_id":"9711b1e4-7edd-43ea-be74-00f2c718403c","system_id":"levelo_inurba_marseille","lat":43.301473,"lon":5.398857,"is_reserved":false,"is_disabled":false,"rental_uris":{"android":"levelo://app?vid=9711b1e4-7edd-43ea-be74-00f2c718403c","ios":"levelo://app?vid=9711b1e4-7edd-43ea-be74-00f2c718403c"},"vehicle_type_id":"4","last_reported":1771446446,"current_range_meters":15200,"station_id":"ce4bh0h2rcd13ifvqd40","pricing_plan_id":"cebpf4jnsgd1na2vs0mg"},{"bike_id":"19d3787d-1c8e-4249-902d-f5e776447478","system_id":"levelo_inurba_marseille","lat":43.25521,"lon":5.37659,"is_reserved":false,"is_disabled":false,"rental_uris":{"android":"levelo://app?vid=19d3787d-1c8e-4249-902d-f5e776447478","ios":"levelo://app?vid=19d3787d-1c8e-4249-902d-f5e776447478"},"vehicle_type_id":"4","last_reported":1771446446,"current_range_meters":29600,"station_id":"ce4bhh12rcd13ifvqff0","pricing_plan_id":"cebpf4jnsgd1na2vs0mg"},{"bike_id":"5c0952e3-3469-48d1-b0ac-88596b084e30","system_id":"levelo_inurba_marseille","lat":43.33736,"lon":5.375,"is_reserved":false,"is_disabled":false,"rental_uris":{"android":"levelo://app?vid=5c0952e3-3469-48d1-b0ac-88596b084e30","ios":"levelo://app?vid=5c0952e3-3469-48d1-b0ac-88596b084e30"},"vehicle_type_id":"4","last_reported":1771446446,"current_range_meters":36000,"station_id":"","pricing_plan_id":"cebpf4jnsgd1na2vs0mg"},{"bike_id":"5a1af070-86ca-48c8-b37d-4c3389211551","system_id":"levelo_inurba_marseille","lat":43.30773,"lon":5.38136,"is_reserved":false,"is_disabled":false,"rental_uris":{"android":"levelo://app?vid=5a1af070-86ca-48c8-b37d-4c3389211551","ios":"levelo://app?vid=5a1af070-86ca-48c8-b37d-4c3389211551"},"vehicle_type_id":"4","last_reported":1771446446,"current_range_meters":25600,"station_id":"ce4bgt12rcd13ifvqce0","pricing_plan_id":"cebpf4jnsgd1na2vs0mg"},{"bike_id":"c4194e41-de52-45db-97b1-1968612c04dc","system_id":"levelo_inurba_marseille","lat":43.29996,"lon":5.41383,"is_reserved":false,"is_disabled":false,"rental_uris":{"android":"levelo://app?vid=c4194e41-de52-45db-97b1-1968612c04dc","ios":"levelo://app?vid=c4194e41-de52-45db-97b1-1968612c04dc"},"vehicle_type_id":"4","last_reported":1771446446,"current_range_meters":35600,"station_id":"ce4bhp12rcd13ifvqh9g","pricing_plan_id":"cebpf4jnsgd1na2vs0mg"},{"bike_id":"bed41149-38f8-408d-8611-69a2e9969374","system_id":"levelo_inurba_marseille","lat":43.29529,"lon":5.39056,"is_reserved":false,"is_disabled":false,"rental_uris":{"android":"levelo://app?vid=bed41149-38f8-408d-8611-69a2e9969374","ios":"levelo://app?vid=bed41149-38f8-408d-8611-69a2e9969374"},"vehicle_type_id":"4","last_reported":1771446446,"current_range_meters":25200,"station_id":"ce4bh3p2rcd13ifvqdp0","pricing_plan_id":"cebpf4jnsgd1na2vs0mg"},{"bike_id":"fb88335b-6930-4438-a3ac-11dea9610ee4","system_id":"levelo_inurba_marseille","lat":43.28159,"lon":5.42772,"is_reserved":false,"is_disabled":false,"rental_uris":{"android":"levelo://app?vid=fb88335b-6930-4438-a3ac-11dea9610ee4","ios":"levelo://app?vid=fb88335b-6930-4438-a3ac-11dea9610ee4"},"vehicle_type_id":"4","last_reported":1771446446,"current_range_meters":19600,"station_id":"","pricing_plan_id":"cebpf4jnsgd1na2vs0mg"},{"bike_id":"166e35c4-ba58-48ae-81a6-945bb5d753ca","system_id":"levelo_inurba_marseille","lat":43.24643,"lon":5.38908,"is_reserved":false,"is_disabled":false,"rental_uris":{"android":"levelo://app?vid=166e35c4-ba58-48ae-81a6-945bb5d753ca","ios":"levelo://app?vid=166e35c4-ba58-48ae-81a6-945bb5d753ca"},"vehicle_type_id":"4","last_reported":1771446446,"current_range_meters":14400,"station_id":"ce4bhg12rcd13ifvqf60","pricing_plan_id":"cebpf4jnsgd1na2vs0mg"},{"bike_id":"e52969ea-e41a-4b4f-8b3e-e0a9baa48bf6","system_id":"levelo_inurba_marseille","lat":43.29508,"lon":5.43323,"is_reserved":false,"is_disabled":false,"rental_uris":{"android":"levelo://app?vid=e52969ea-e41a-4b4f-8b3e-e0a9baa48bf6","ios":"levelo://app?vid=e52969ea-e41a-4b4f-8b3e-e0a9baa48bf6"},"vehicle_type_id":"4","last_reported":1771446446,"current_range_meters":39200,"station_id":"st_d3j5ugp08ojc73fj9d10","pricing_plan_id":"cebpf4jnsgd1na2vs0mg"},{"bike_id":"44efe955-55b3-4aa2-9980-b386fed81fe9","system_id":"levelo_inurba_marseille","lat":43.27999,"lon":5.40019,"is_reserved":false,"is_disabled":false,"rental_uris":{"android":"levelo://app?vid=44efe955-55b3-4aa2-9980-b386fed81fe9","ios":"levelo://app?vid=44efe955-55b3-4aa2-9980-b386fed81fe9"},"vehicle_type_id":"4","last_reported":1771446446,"current_range_meters":39200,"station_id":"ce4bho92rcd13ifvqh4g","pricing_plan_id":"cebpf4jnsgd1na2vs0mg"},{"bike_id":"2cbbc2f5-92a3-4c38-a0e2-181ee10ae410","system_id":"levelo_inurba_marseille","lat":43.27499,"lon":5.4244,"is_reserved":false,"is_disabled":false,"rental_uris":{"android":"levelo://app?vid=2cbbc2f5-92a3-4c38-a0e2-181ee10ae410","ios":"levelo://app?vid=2cbbc2f5-92a3-4c38-a0e2-181ee10ae410"},"vehicle_type_id":"4","last_reported":1771446446,"current_range_meters":37600,"station_id":"ce4bhn92rcd13ifvqgrg","pricing_plan_id":"cebpf4jnsgd1na2vs0mg"},{"bike_id":"77c84e28-a226-4c9d-bcc9-76b7f8c0d11c","system_id":"levelo_inurba_marseille","lat":43.24553,"lon":5.39538,"is_reserved":false,"is_disabled":true,"rental_uris":{"android":"levelo://app?vid=77c84e28-a226-4c9d-bcc9-76b7f8c0d11c","ios":"levelo://app?vid=77c84e28-a226-4c9d-bcc9-76b7f8c0d11c"},"vehicle_type_id":"4","last_reported":1771446446,"current_range_meters":37600,"station_id":"ce4bhlp2rcd13ifvqgjg","pricing_plan_id":"cebpf4jnsgd1na2vs0mg"},{"bike_id":"c9b743d2-ea19-486c-9150-6905c9d98a27","system_id":"levelo_inurba_marseille","lat":43.26554,"lon":5.40321,"is_reserved":false,"is_disabled":false,"rental_uris":{"android":"levelo://app?vid=c9b743d2-ea19-486c-9150-6905c9d98a27","ios":"levelo://app?vid=c9b743d2-ea19-486c-9150-6905c9d98a27"},"vehicle_type_id":"4","last_reported":1771446446,"current_range_meters":24400,"station_id":"ce4bhmp2rcd13ifvqgng","pricing_plan_id":"cebpf4jnsgd1na2vs0mg"},{"bike_id":"bc4aca59-1548-4c6c-9b4b-d48c12a614aa","system_id":"levelo_inurba_marseille","lat":43.30251,"lon":5.40094,"is_reserved":false,"is_disabled":false,"rental_uris":{"android":"levelo://app?vid=bc4aca59-1548-4c6c-9b4b-d48c12a614aa","ios":"levelo://app?vid=bc4aca59-1548-4c6c-9b4b-d48c12a614aa"},"vehicle_type_id":"4","last_reported":1771446446,"current_range_meters":40000,"station_id":"ce4bgvh2rcd13ifvqcs0","pricing_plan_id":"cebpf4jnsgd1na2vs0mg"},{"bike_id":"55e798b8-c3a1-4483-a648-b2dc68f4f4d3","system_id":"levelo_inurba_marseille","lat":43.24658,"lon":5.38157,"is_reserved":false,"is_disabled":false,"rental_uris":{"android":"levelo://app?vid=55e798b8-c3a1-4483-a648-b2dc68f4f4d3","ios":"levelo://app?vid=55e798b8-c3a1-4483-a648-b2dc68f4f4d3"},"vehicle_type_id":"4","last_reported":1771446446,"current_range_meters":11600,"station_id":"ce4bhih2rcd13ifvqfr0","pricing_plan_id":"cebpf4jnsgd1na2vs0mg"},{"bike_id":"fc1aa6b8-6e5e-467f-92e9-aae02099ae9d","system_id":"levelo_inurba_marseille","lat":43.2464,"lon":5.43156,"is_reserved":false,"is_disabled":false,"rental_uris":{"android":"levelo://app?vid=fc1aa6b8-6e5e-467f-92e9-aae02099ae9d","ios":"levelo://app?vid=fc1aa6b8-6e5e-467f-92e9-aae02099ae9d"},"vehicle_type_id":"4","last_reported":1771446446,"current_range_meters":8800,"station_id":"st_d2m6c4gdas8pm72e190g","pricing_plan_id":"cebpf4jnsgd1na2vs0mg"},{"bike_id":"67285332-5652-4c2b-b8be-d99c6194277d","system_id":"levelo_inurba_marseille","lat":43.26055,"lon":5.39404,"is_reserved":false,"is_disabled":false,"rental_uris":{"android":"levelo://app?vid=67285332-5652-4c2b-b8be-d99c6194277d","ios":"levelo://app?vid=67285332-5652-4c2b-b8be-d99c6194277d"},"vehicle_type_id":"4","last_reported":1771446446,"current_range_meters":25600,"station_id":"ce4bhh92rcd13ifvqfj0","pricing_plan_id":"cebpf4jnsgd1na2vs0mg"},{"bike_id":"247929ef-06db-4867-a845-71bf576c71e1","system_id":"levelo_inurba_marseille","lat":43.28863,"lon":5.4251,"is_reserved":false,"is_disabled":false,"rental_uris":{"android":"levelo://app?vid=247929ef-06db-4867-a845-71bf576c71e1","ios":"levelo://app?vid=247929ef-06db-4867-a845-71bf576c71e1"},"vehicle_type_id":"4","last_reported":1771446446,"current_range_meters":38400,"station_id":"st_d3b462108ojc7389ooeg","pricing_plan_id":"cebpf4jnsgd1na2vs0mg"},{"bike_id":"4585df67-5569-4771-aa03-6e87fdd568df","system_id":"levelo_inurba_marseille","lat":43.23136,"lon":5.43725,"is_reserved":false,"is_disabled":false,"rental_uris":{"android":"levelo://app?vid=4585df67-5569-4771-aa03-6e87fdd568df","ios":"levelo://app?vid=4585df67-5569-4771-aa03-6e87fdd568df"},"vehicle_type_id":"4","last_reported":1771446446,"current_range_meters":28800,"station_id":"ce4bhmp2rcd13ifvqgog","pricing_plan_id":"cebpf4jnsgd1na2vs0mg"},{"bike_id":"1bdf262b-5b53-4108-b666-339efbe4431c","system_id":"levelo_inurba_marseille","lat":43.28974,"lon":5.38114,"is_reserved":false,"is_disabled":true,"rental_uris":{"android":"levelo://app?vid=1bdf262b-5b53-4108-b666-339efbe4431c","ios":"levelo://app?vid=1bdf262b-5b53-4108-b666-339efbe4431c"},"vehicle_type_id":"4","last_reported":1771446446,"current_range_meters":36800,"station_id":"ce4bh4p2rcd13ifvqe1g","pricing_plan_id":"cebpf4jnsgd1na2vs0mg"},{"bike_id":"57723f7a-061e-46b7-a0ae-b6210e118d77","system_id":"levelo_inurba_marseille","lat":43.309062,"lon":5.368533,"is_reserved":false,"is_disabled":false,"rental_uris":{"android":"levelo://app?vid=57723f7a-061e-46b7-a0ae-b6210e118d77","ios":"levelo://app?vid=57723f7a-061e-46b7-a0ae-b6210e118d77"},"vehicle_type_id":"4","last_reported":1771446446,"current_range_meters":32400,"station_id":"ce4bgn92rcd13ifvqbvg","pricing_plan_id":"cebpf4jnsgd1na2vs0mg"},{"bike_id":"c1b26ae8-8837-4bd2-b0e2-b890b8516fff","system_id":"levelo_inurba_marseille","lat":43.31189,"lon":5.36764,"is_reserved":false,"is_disabled":false,"rental_uris":{"android":"levelo://app?vid=c1b26ae8-8837-4bd2-b0e2-b890b8516fff","ios":"levelo://app?vid=c1b26ae8-8837-4bd2-b0e2-b890b8516fff"},"vehicle_type_id":"4","last_reported":1771446446,"current_range_meters":39200,"station_id":"","pricing_plan_id":"cebpf4jnsgd1na2vs0mg"},{"bike_id":"ec0033cb-7a0e-4fe5-935f-da3a7db0b913","system_id":"levelo_inurba_marseille","lat":43.29876,"lon":5.38908,"is_reserved":false,"is_disabled":false,"rental_uris":{"android":"levelo://app?vid=ec0033cb-7a0e-4fe5-935f-da3a7db0b913","ios":"levelo://app?vid=ec0033cb-7a0e-4fe5-935f-da3a7db0b913"},"vehicle_type_id":"4","last_reported":1771446446,"current_range_meters":35600,"station_id":"ce4bh392rcd13ifvqdl0","pricing_plan_id":"cebpf4jnsgd1na2vs0mg"},{"bike_id":"f4b72c32-b078-47bf-bd6e-2a4cf9260d45","system_id":"levelo_inurba_marseille","lat":43.28699,"lon":5.3552,"is_reserved":false,"is_disabled":true,"rental_uris":{"android":"levelo://app?vid=f4b72c32-b078-47bf-bd6e-2a4cf9260d45","ios":"levelo://app?vid=f4b72c32-b078-47bf-bd6e-2a4cf9260d45"},"vehicle_type_id":"4","last_reported":1771446446,"current_range_meters":34000,"station_id":"","pricing_plan_id":"cebpf4jnsgd1na2vs0mg"},{"bike_id":"786db946-01e6-401d-825a-5be2365421b8","system_id":"levelo_inurba_marseille","lat":43.25557,"lon":5.38266,"is_reserved":false,"is_disabled":false,"rental_uris":{"android":"levelo://app?vid=786db946-01e6-401d-825a-5be2365421b8","ios":"levelo://app?vid=786db946-01e6-401d-825a-5be2365421b8"},"vehicle_type_id":"4","last_reported":1771446446,"current_range_meters":20000,"station_id":"ce4bhih2rcd13ifvqfs0","pricing_plan_id":"cebpf4jnsgd1na2vs0mg"},{"bike_id":"8930a95b-4ca3-49e4-8aa0-cd2fe3c9e785","system_id":"levelo_inurba_marseille","lat":43.29249,"lon":5.38446,"is_reserved":false,"is_disabled":false,"rental_uris":{"android":"levelo://app?vid=8930a95b-4ca3-49e4-8aa0-cd2fe3c9e785","ios":"levelo://app?vid=8930a95b-4ca3-49e4-8aa0-cd2fe3c9e785"},"vehicle_type_id":"4","last_reported":1771446446,"current_range_meters":25600,"station_id":"ce4bh692rcd13ifvqea0","pricing_plan_id":"cebpf4jnsgd1na2vs0mg"},{"bike_id":"f5d22547-d06e-4fad-85c6-2cbbdcd29ad4","system_id":"levelo_inurba_marseille","lat":43.29167,"lon":5.37219,"is_reserved":false,"is_disabled":false,"rental_uris":{"android":"levelo://app?vid=f5d22547-d06e-4fad-85c6-2cbbdcd29ad4","ios":"levelo://app?vid=f5d22547-d06e-4fad-85c6-2cbbdcd29ad4"},"vehicle_type_id":"4","last_reported":1771446446,"current_range_meters":30400,"station_id":"","pricing_plan_id":"cebpf4jnsgd1na2vs0mg"},{"bike_id":"b7832889-4ff5-4ee2-9a8d-e7dc3953a51e","system_id":"levelo_inurba_marseille","lat":43.24816,"lon":5.37465,"is_reserved":false,"is_disabled":false,"rental_uris":{"android":"levelo://app?vid=b7832889-4ff5-4ee2-9a8d-e7dc3953a51e","ios":"levelo://app?vid=b7832889-4ff5-4ee2-9a8d-e7dc3953a51e"},"vehicle_type_id":"4","last_reported":1771446446,"current_range_meters":22400,"station_id":"ce4bhgh2rcd13ifvqfb0","pricing_plan_id":"cebpf4jnsgd1na2vs0mg"},{"bike_id":"6946a672-f062-4471-84f8-45eb3b2d6e19","system_id":"levelo_inurba_marseille","lat":43.27475,"lon":5.42454,"is_reserved":false,"is_disabled":false,"rental_uris":{"android":"levelo://app?vid=6946a672-f062-4471-84f8-45eb3b2d6e19","ios":"levelo://app?vid=6946a672-f062-4471-84f8-45eb3b2d6e19"},"vehicle_type_id":"4","last_reported":1771446446,"current_range_meters":7200,"station_id":"ce4bhn92rcd13ifvqgrg","pricing_plan_id":"cebpf4jnsgd1na2vs0mg"},{"bike_id":"f3ffcc50-55da-447e-92e7-be6f2d3dd489","system_id":"levelo_inurba_marseille","lat":43.29083,"lon":5.38144,"is_reserved":false,"is_disabled":false,"rental_uris":{"android":"levelo://app?vid=f3ffcc50-55da-447e-92e7-be6f2d3dd489","ios":"levelo://app?vid=f3ffcc50-55da-447e-92e7-be6f2d3dd489"},"vehicle_type_id":"4","last_reported":1771446446,"current_range_meters":32400,"station_id":"ce4bh512rcd13ifvqe2g","pricing_plan_id":"cebpf4jnsgd1na2vs0mg"},{"bike_id":"becfc6a0-43e9-4656-918f-689d3f6fdabf","system_id":"levelo_inurba_marseille","lat":43.29006,"lon":5.35614,"is_reserved":false,"is_disabled":false,"rental_uris":{"android":"levelo://app?vid=becfc6a0-43e9-4656-918f-689d3f6fdabf","ios":"levelo://app?vid=becfc6a0-43e9-4656-918f-689d3f6fdabf"},"vehicle_type_id":"4","last_reported":1771446446,"current_range_meters":39200,"station_id":"ce4bhb92rcd13ifvqen0","pricing_plan_id":"cebpf4jnsgd1na2vs0mg"},{"bike_id":"773834ea-ff1c-49ce-a476-0ea1cdab2b0e","system_id":"levelo_inurba_marseille","lat":43.29724,"lon":5.37688,"is_reserved":false,"is_disabled":false,"rental_uris":{"android":"levelo://app?vid=773834ea-ff1c-49ce-a476-0ea1cdab2b0e","ios":"levelo://app?vid=773834ea-ff1c-49ce-a476-0ea1cdab2b0e"},"vehicle_type_id":"4","last_reported":1771446446,"current_range_meters":39200,"station_id":"ce4bgkh2rcd13ifvqbl0","pricing_plan_id":"cebpf4jnsgd1na2vs0mg"},{"bike_id":"7dd58a6c-4c72-4038-bd61-d53d78e56f8b","system_id":"levelo_inurba_marseille","lat":43.24802,"lon":5.37461,"is_reserved":false,"is_disabled":true,"rental_uris":{"android":"levelo://app?vid=7dd58a6c-4c72-4038-bd61-d53d78e56f8b","ios":"levelo://app?vid=7dd58a6c-4c72-4038-bd61-d53d78e56f8b"},"vehicle_type_id":"4","last_reported":1771446446,"current_range_meters":0,"station_id":"ce4bhgh2rcd13ifvqfb0","pricing_plan_id":"cebpf4jnsgd1na2vs0mg"},{"bike_id":"8e88b741-7fc5-4239-947a-128f1d311f8c","system_id":"levelo_inurba_marseille","lat":43.2994,"lon":5.36525,"is_reserved":false,"is_disabled":false,"rental_uris":{"android":"levelo://app?vid=8e88b741-7fc5-4239-947a-128f1d311f8c","ios":"levelo://app?vid=8e88b741-7fc5-4239-947a-128f1d311f8c"},"vehicle_type_id":"4","last_reported":1771446446,"current_range_meters":37600,"station_id":"ce4bgm92rcd13ifvqbr0","pricing_plan_id":"cebpf4jnsgd1na2vs0mg"},{"bike_id":"ddf93bb3-cd44-414c-aab6-ad104c193c9f","system_id":"levelo_inurba_marseille","lat":43.29814,"lon":5.40415,"is_reserved":false,"is_disabled":false,"rental_uris":{"android":"levelo://app?vid=ddf93bb3-cd44-414c-aab6-ad104c193c9f","ios":"levelo://app?vid=ddf93bb3-cd44-414c-aab6-ad104c193c9f"},"vehicle_type_id":"4","last_reported":1771446446,"current_range_meters":36000,"station_id":"ce4bh112rcd13ifvqd90","pricing_plan_id":"cebpf4jnsgd1na2vs0mg"},{"bike_id":"cdcd8c42-d26a-4e42-9873-59170e37aa87","system_id":"levelo_inurba_marseille","lat":43.230635,"lon":5.354896,"is_reserved":false,"is_disabled":false,"rental_uris":{"android":"levelo://app?vid=cdcd8c42-d26a-4e42-9873-59170e37aa87","ios":"levelo://app?vid=cdcd8c42-d26a-4e42-9873-59170e37aa87"},"vehicle_type_id":"4","last_reported":1771446446,"current_range_meters":39200,"station_id":"cpo3342slgdg3j2ifvpg","pricing_plan_id":"cebpf4jnsgd1na2vs0mg"},{"bike_id":"12ad18fd-3d3e-4eb8-9bf9-145233c696a5","system_id":"levelo_inurba_marseille","lat":43.26058,"lon":5.39399,"is_reserved":false,"is_disabled":false,"rental_uris":{"android":"levelo://app?vid=12ad18fd-3d3e-4eb8-9bf9-145233c696a5","ios":"levelo://app?vid=12ad18fd-3d3e-4eb8-9bf9-145233c696a5"},"vehicle_type_id":"4","last_reported":1771446446,"current_range_meters":39200,"station_id":"ce4bhh92rcd13ifvqfj0","pricing_plan_id":"cebpf4jnsgd1na2vs0mg"},{"bike_id":"66df1037-c1c8-42b9-b5c7-b69052cae607","system_id":"levelo_inurba_marseille","lat":43.30129,"lon":5.39883,"is_reserved":false,"is_disabled":false,"rental_uris":{"android":"levelo://app?vid=66df1037-c1c8-42b9-b5c7-b69052cae607","ios":"levelo://app?vid=66df1037-c1c8-42b9-b5c7-b69052cae607"},"vehicle_type_id":"4","last_reported":1771446446,"current_range_meters":25200,"station_id":"ce4bh0h2rcd13ifvqd40","pricing_plan_id":"cebpf4jnsgd1na2vs0mg"},{"bike_id":"198eeded-e84c-4ee1-b12c-b248b5e65029","system_id":"levelo_inurba_marseille","lat":43.27905,"lon":5.39583,"is_reserved":false,"is_disabled":false,"rental_uris":{"android":"levelo://app?vid=198eeded-e84c-4ee1-b12c-b248b5e65029","ios":"levelo://app?vid=198eeded-e84c-4ee1-b12c-b248b5e65029"},"vehicle_type_id":"4","last_reported":1771446446,"current_range_meters":10800,"station_id":"ce4bhf92rcd13ifvqf40","pricing_plan_id":"cebpf4jnsgd1na2vs0mg"},{"bike_id":"91f95071-cb44-4294-8d05-12a1be58ba9d","system_id":"levelo_inurba_marseille","lat":43.2511,"lon":5.40294,"is_reserved":false,"is_disabled":false,"rental_uris":{"android":"levelo://app?vid=91f95071-cb44-4294-8d05-12a1be58ba9d","ios":"levelo://app?vid=91f95071-cb44-4294-8d05-12a1be58ba9d"},"vehicle_type_id":"4","last_reported":1771446446,"current_range_meters":36800,"station_id":"ce4bhlh2rcd13ifvqgig","pricing_plan_id":"cebpf4jnsgd1na2vs0mg"},{"bike_id":"db431b3d-08ce-49b0-a879-1bdede527f7e","system_id":"levelo_inurba_marseille","lat":43.31175,"lon":5.38735,"is_reserved":false,"is_disabled":false,"rental_uris":{"android":"levelo://app?vid=db431b3d-08ce-49b0-a879-1bdede527f7e","ios":"levelo://app?vid=db431b3d-08ce-49b0-a879-1bdede527f7e"},"vehicle_type_id":"4","last_reported":1771446446,"current_range_meters":10000,"station_id":"ce4bgv12rcd13ifvqcp0","pricing_plan_id":"cebpf4jnsgd1na2vs0mg"},{"bike_id":"ed62a73a-4bd7-49f5-ba79-79b7cfcd0252","system_id":"levelo_inurba_marseille","lat":43.28466,"lon":5.35015,"is_reserved":false,"is_disabled":true,"rental_uris":{"android":"levelo://app?vid=ed62a73a-4bd7-49f5-ba79-79b7cfcd0252","ios":"levelo://app?vid=ed62a73a-4bd7-49f5-ba79-79b7cfcd0252"},"vehicle_type_id":"4","last_reported":1771446446,"current_range_meters":28800,"station_id":"ce4bhbh2rcd13ifvqepg","pricing_plan_id":"cebpf4jnsgd1na2vs0mg"},{"bike_id":"42b6100a-41f2-4d60-944d-8dd96a15e3d1","system_id":"levelo_inurba_marseille","lat":43.31419,"lon":5.37358,"is_reserved":false,"is_disabled":false,"rental_uris":{"android":"levelo://app?vid=42b6100a-41f2-4d60-944d-8dd96a15e3d1","ios":"levelo://app?vid=42b6100a-41f2-4d60-944d-8dd96a15e3d1"},"vehicle_type_id":"4","last_reported":1771446446,"current_range_meters":36400,"station_id":"","pricing_plan_id":"cebpf4jnsgd1na2vs0mg"},{"bike_id":"808e17f3-e8fb-4322-91e5-e0d3af4ac05c","system_id":"levelo_inurba_marseille","lat":43.23215,"lon":5.40004,"is_reserved":false,"is_disabled":false,"rental_uris":{"android":"levelo://app?vid=808e17f3-e8fb-4322-91e5-e0d3af4ac05c","ios":"levelo://app?vid=808e17f3-e8fb-4322-91e5-e0d3af4ac05c"},"vehicle_type_id":"4","last_reported":1771446446,"current_range_meters":4000,"station_id":"ce4bhn12rcd13ifvqgqg","pricing_plan_id":"cebpf4jnsgd1na2vs0mg"},{"bike_id":"687d21ec-14a2-41fc-8082-f39304bc5e07","system_id":"levelo_inurba_marseille","lat":43.24703,"lon":5.38119,"is_reserved":false,"is_disabled":false,"rental_uris":{"android":"levelo://app?vid=687d21ec-14a2-41fc-8082-f39304bc5e07","ios":"levelo://app?vid=687d21ec-14a2-41fc-8082-f39304bc5e07"},"vehicle_type_id":"4","last_reported":1771446446,"current_range_meters":8800,"station_id":"","pricing_plan_id":"cebpf4jnsgd1na2vs0mg"},{"bike_id":"99b21152-e766-4b5f-b9a3-a676677d8462","system_id":"levelo_inurba_marseille","lat":43.24385,"lon":5.37043,"is_reserved":false,"is_disabled":false,"rental_uris":{"android":"levelo://app?vid=99b21152-e766-4b5f-b9a3-a676677d8462","ios":"levelo://app?vid=99b21152-e766-4b5f-b9a3-a676677d8462"},"vehicle_type_id":"4","last_reported":1771446446,"current_range_meters":32000,"station_id":"ce4bhhh2rcd13ifvqfk0","pricing_plan_id":"cebpf4jnsgd1na2vs0mg"},{"bike_id":"ed801aba-6299-4abc-846c-98c2ac128308","system_id":"levelo_inurba_marseille","lat":43.24387,"lon":5.37081,"is_reserved":false,"is_disabled":false,"rental_uris":{"android":"levelo://app?vid=ed801aba-6299-4abc-846c-98c2ac128308","ios":"levelo://app?vid=ed801aba-6299-4abc-846c-98c2ac128308"},"vehicle_type_id":"4","last_reported":1771446446,"current_range_meters":22000,"station_id":"ce4bhhh2rcd13ifvqfk0","pricing_plan_id":"cebpf4jnsgd1na2vs0mg"},{"bike_id":"bcb5c2f0-34f3-4d59-a83f-d2e5fc0fddae","system_id":"levelo_inurba_marseille","lat":43.24094,"lon":5.37763,"is_reserved":false,"is_disabled":false,"rental_uris":{"android":"levelo://app?vid=bcb5c2f0-34f3-4d59-a83f-d2e5fc0fddae","ios":"levelo://app?vid=bcb5c2f0-34f3-4d59-a83f-d2e5fc0fddae"},"vehicle_type_id":"4","last_reported":1771446446,"current_range_meters":38000,"station_id":"ce4bhnp2rcd13ifvqgvg","pricing_plan_id":"cebpf4jnsgd1na2vs0mg"},{"bike_id":"e59f665b-ca8e-40ab-a2ed-9455369e7fbf","system_id":"levelo_inurba_marseille","lat":43.284761,"lon":5.484036,"is_reserved":false,"is_disabled":false,"rental_uris":{"android":"levelo://app?vid=e59f665b-ca8e-40ab-a2ed-9455369e7fbf","ios":"levelo://app?vid=e59f665b-ca8e-40ab-a2ed-9455369e7fbf"},"vehicle_type_id":"4","last_reported":1771446446,"current_range_meters":27600,"station_id":"","pricing_plan_id":"cebpf4jnsgd1na2vs0mg"},{"bike_id":"c2f7603f-62b4-4a9b-9088-a52a3dabc7aa","system_id":"levelo_inurba_marseille","lat":43.25506,"lon":5.37668,"is_reserved":false,"is_disabled":false,"rental_uris":{"android":"levelo://app?vid=c2f7603f-62b4-4a9b-9088-a52a3dabc7aa","ios":"levelo://app?vid=c2f7603f-62b4-4a9b-9088-a52a3dabc7aa"},"vehicle_type_id":"4","last_reported":1771446446,"current_range_meters":39200,"station_id":"ce4bhh12rcd13ifvqff0","pricing_plan_id":"cebpf4jnsgd1na2vs0mg"},{"bike_id":"7b8c7193-f1f2-43c9-91a4-a4cc93269862","system_id":"levelo_inurba_marseille","lat":43.29539,"lon":5.42293,"is_reserved":false,"is_disabled":false,"rental_uris":{"android":"levelo://app?vid=7b8c7193-f1f2-43c9-91a4-a4cc93269862","ios":"levelo://app?vid=7b8c7193-f1f2-43c9-91a4-a4cc93269862"},"vehicle_type_id":"4","last_reported":1771446446,"current_range_meters":39200,"station_id":"ce4bhph2rcd13ifvqhdg","pricing_plan_id":"cebpf4jnsgd1na2vs0mg"},{"bike_id":"8c21ace2-0801-4586-8cea-064ccad16c99","system_id":"levelo_inurba_marseille","lat":43.22555,"lon":5.41639,"is_reserved":false,"is_disabled":true,"rental_uris":{"android":"levelo://app?vid=8c21ace2-0801-4586-8cea-064ccad16c99","ios":"levelo://app?vid=8c21ace2-0801-4586-8cea-064ccad16c99"},"vehicle_type_id":"4","last_reported":1771446446,"current_range_meters":400,"station_id":"st_d2o4gvlbi1j2169b742g","pricing_plan_id":"cebpf4jnsgd1na2vs0mg"},{"bike_id":"b0008639-ff90-4492-beeb-42210ff9b3c5","system_id":"levelo_inurba_marseille","lat":43.27996,"lon":5.40034,"is_reserved":false,"is_disabled":false,"rental_uris":{"android":"levelo://app?vid=b0008639-ff90-4492-beeb-42210ff9b3c5","ios":"levelo://app?vid=b0008639-ff90-4492-beeb-42210ff9b3c5"},"vehicle_type_id":"4","last_reported":1771446446,"current_range_meters":37600,"station_id":"ce4bho92rcd13ifvqh4g","pricing_plan_id":"cebpf4jnsgd1na2vs0mg"},{"bike_id":"ae1526ac-94c0-4471-b06e-92c0bff1ac42","system_id":"levelo_inurba_marseille","lat":43.28084,"lon":5.39663,"is_reserved":false,"is_disabled":false,"rental_uris":{"android":"levelo://app?vid=ae1526ac-94c0-4471-b06e-92c0bff1ac42","ios":"levelo://app?vid=ae1526ac-94c0-4471-b06e-92c0bff1ac42"},"vehicle_type_id":"4","last_reported":1771446446,"current_range_meters":24400,"station_id":"ce4bho12rcd13ifvqh2g","pricing_plan_id":"cebpf4jnsgd1na2vs0mg"},{"bike_id":"14a17353-bb50-4bd9-8cc0-7441881f4266","system_id":"levelo_inurba_marseille","lat":43.29273,"lon":5.40147,"is_reserved":false,"is_disabled":false,"rental_uris":{"android":"levelo://app?vid=14a17353-bb50-4bd9-8cc0-7441881f4266","ios":"levelo://app?vid=14a17353-bb50-4bd9-8cc0-7441881f4266"},"vehicle_type_id":"4","last_reported":1771446446,"current_range_meters":18000,"station_id":"ce4bh312rcd13ifvqdk0","pricing_plan_id":"cebpf4jnsgd1na2vs0mg"},{"bike_id":"6a073e53-b7ba-45d5-a82b-20ab8b7b8e96","system_id":"levelo_inurba_marseille","lat":43.33552,"lon":5.37472,"is_reserved":false,"is_disabled":false,"rental_uris":{"android":"levelo://app?vid=6a073e53-b7ba-45d5-a82b-20ab8b7b8e96","ios":"levelo://app?vid=6a073e53-b7ba-45d5-a82b-20ab8b7b8e96"},"vehicle_type_id":"4","last_reported":1771446446,"current_range_meters":20000,"station_id":"st_d46tts09ee8s73dlu43g","pricing_plan_id":"cebpf4jnsgd1na2vs0mg"},{"bike_id":"835b9c27-9152-4b4e-addb-a3f5b3ebec20","system_id":"levelo_inurba_marseille","lat":43.291866,"lon":5.39334,"is_reserved":false,"is_disabled":false,"rental_uris":{"android":"levelo://app?vid=835b9c27-9152-4b4e-addb-a3f5b3ebec20","ios":"levelo://app?vid=835b9c27-9152-4b4e-addb-a3f5b3ebec20"},"vehicle_type_id":"4","last_reported":1771446446,"current_range_meters":39200,"station_id":"","pricing_plan_id":"cebpf4jnsgd1na2vs0mg"},{"bike_id":"27586e15-78a0-41b9-981d-e5de2751a5b3","system_id":"levelo_inurba_marseille","lat":43.30306,"lon":5.36886,"is_reserved":false,"is_disabled":false,"rental_uris":{"android":"levelo://app?vid=27586e15-78a0-41b9-981d-e5de2751a5b3","ios":"levelo://app?vid=27586e15-78a0-41b9-981d-e5de2751a5b3"},"vehicle_type_id":"4","last_reported":1771446446,"current_range_meters":18000,"station_id":"ce4bgqh2rcd13ifvqc5g","pricing_plan_id":"cebpf4jnsgd1na2vs0mg"},{"bike_id":"4e6ae03e-50eb-4e46-ad3a-b607c4b7ae2f","system_id":"levelo_inurba_marseille","lat":43.26949,"lon":5.4031,"is_reserved":false,"is_disabled":false,"rental_uris":{"android":"levelo://app?vid=4e6ae03e-50eb-4e46-ad3a-b607c4b7ae2f","ios":"levelo://app?vid=4e6ae03e-50eb-4e46-ad3a-b607c4b7ae2f"},"vehicle_type_id":"4","last_reported":1771446446,"current_range_meters":38400,"station_id":"cjm6bp8fraef2m0cb0m0","pricing_plan_id":"cebpf4jnsgd1na2vs0mg"},{"bike_id":"3ccb6134-eac1-45ce-be50-f0bf3ac2efba","system_id":"levelo_inurba_marseille","lat":43.287212,"lon":5.379359,"is_reserved":false,"is_disabled":false,"rental_uris":{"android":"levelo://app?vid=3ccb6134-eac1-45ce-be50-f0bf3ac2efba","ios":"levelo://app?vid=3ccb6134-eac1-45ce-be50-f0bf3ac2efba"},"vehicle_type_id":"4","last_reported":1771446446,"current_range_meters":30000,"station_id":"ce4bh9p2rcd13ifvqec0","pricing_plan_id":"cebpf4jnsgd1na2vs0mg"},{"bike_id":"13f19fd6-a0d1-4054-9f38-916998844fdb","system_id":"levelo_inurba_marseille","lat":43.273735,"lon":5.362646,"is_reserved":false,"is_disabled":true,"rental_uris":{"android":"levelo://app?vid=13f19fd6-a0d1-4054-9f38-916998844fdb","ios":"levelo://app?vid=13f19fd6-a0d1-4054-9f38-916998844fdb"},"vehicle_type_id":"4","last_reported":1771446446,"current_range_meters":18000,"station_id":"ce4bgj92rcd13ifvqbe0","pricing_plan_id":"cebpf4jnsgd1na2vs0mg"},{"bike_id":"75f7a0e2-61c0-4181-be45-13a97be88154","system_id":"levelo_inurba_marseille","lat":43.29259,"lon":5.38453,"is_reserved":false,"is_disabled":false,"rental_uris":{"android":"levelo://app?vid=75f7a0e2-61c0-4181-be45-13a97be88154","ios":"levelo://app?vid=75f7a0e2-61c0-4181-be45-13a97be88154"},"vehicle_type_id":"4","last_reported":1771446446,"current_range_meters":28000,"station_id":"ce4bh692rcd13ifvqea0","pricing_plan_id":"cebpf4jnsgd1na2vs0mg"},{"bike_id":"cdedfe68-8f81-48b1-a1d4-83bdd88645c6","system_id":"levelo_inurba_marseille","lat":43.22925,"lon":5.35406,"is_reserved":false,"is_disabled":false,"rental_uris":{"android":"levelo://app?vid=cdedfe68-8f81-48b1-a1d4-83bdd88645c6","ios":"levelo://app?vid=cdedfe68-8f81-48b1-a1d4-83bdd88645c6"},"vehicle_type_id":"4","last_reported":1771446446,"current_range_meters":30800,"station_id":"cpo3532slgdg3j2ikp40","pricing_plan_id":"cebpf4jnsgd1na2vs0mg"},{"bike_id":"968dae4e-8aca-414d-a7c1-653683bf25c2","system_id":"levelo_inurba_marseille","lat":43.28715,"lon":5.37448,"is_reserved":false,"is_disabled":false,"rental_uris":{"android":"levelo://app?vid=968dae4e-8aca-414d-a7c1-653683bf25c2","ios":"levelo://app?vid=968dae4e-8aca-414d-a7c1-653683bf25c2"},"vehicle_type_id":"4","last_reported":1771446446,"current_range_meters":39200,"station_id":"ce4bh3p2rcd13ifvqdq0","pricing_plan_id":"cebpf4jnsgd1na2vs0mg"},{"bike_id":"58b4273a-f897-4788-bdab-d92d73414703","system_id":"levelo_inurba_marseille","lat":43.268021,"lon":5.394164,"is_reserved":false,"is_disabled":false,"rental_uris":{"android":"levelo://app?vid=58b4273a-f897-4788-bdab-d92d73414703","ios":"levelo://app?vid=58b4273a-f897-4788-bdab-d92d73414703"},"vehicle_type_id":"4","last_reported":1771446446,"current_range_meters":27600,"station_id":"ce4bhh12rcd13ifvqfg0","pricing_plan_id":"cebpf4jnsgd1na2vs0mg"},{"bike_id":"18fcf60f-c9b5-4047-b45e-4df8c4238ebc","system_id":"levelo_inurba_marseille","lat":43.30679,"lon":5.40106,"is_reserved":false,"is_disabled":false,"rental_uris":{"android":"levelo://app?vid=18fcf60f-c9b5-4047-b45e-4df8c4238ebc","ios":"levelo://app?vid=18fcf60f-c9b5-4047-b45e-4df8c4238ebc"},"vehicle_type_id":"4","last_reported":1771446446,"current_range_meters":16400,"station_id":"ce4bh112rcd13ifvqda0","pricing_plan_id":"cebpf4jnsgd1na2vs0mg"},{"bike_id":"12673977-5b25-450a-8cdc-00ac951258dd","system_id":"levelo_inurba_marseille","lat":43.31047,"lon":5.37171,"is_reserved":false,"is_disabled":true,"rental_uris":{"android":"levelo://app?vid=12673977-5b25-450a-8cdc-00ac951258dd","ios":"levelo://app?vid=12673977-5b25-450a-8cdc-00ac951258dd"},"vehicle_type_id":"4","last_reported":1771446446,"current_range_meters":36000,"station_id":"st_d4kl2rp97mjs73e7tdfg","pricing_plan_id":"cebpf4jnsgd1na2vs0mg"},{"bike_id":"5104b6cf-2449-455e-b633-8680fde70a0b","system_id":"levelo_inurba_marseille","lat":43.29274,"lon":5.38425,"is_reserved":false,"is_disabled":false,"rental_uris":{"android":"levelo://app?vid=5104b6cf-2449-455e-b633-8680fde70a0b","ios":"levelo://app?vid=5104b6cf-2449-455e-b633-8680fde70a0b"},"vehicle_type_id":"4","last_reported":1771446446,"current_range_meters":21600,"station_id":"ce4bh692rcd13ifvqea0","pricing_plan_id":"cebpf4jnsgd1na2vs0mg"},{"bike_id":"c3b83cd0-cb15-4df1-a612-db6baab524fe","system_id":"levelo_inurba_marseille","lat":43.279988,"lon":5.400127,"is_reserved":false,"is_disabled":false,"rental_uris":{"android":"levelo://app?vid=c3b83cd0-cb15-4df1-a612-db6baab524fe","ios":"levelo://app?vid=c3b83cd0-cb15-4df1-a612-db6baab524fe"},"vehicle_type_id":"4","last_reported":1771446446,"current_range_meters":40000,"station_id":"ce4bho92rcd13ifvqh4g","pricing_plan_id":"cebpf4jnsgd1na2vs0mg"},{"bike_id":"c1305435-7ac9-4c1c-bdb9-e901200687d8","system_id":"levelo_inurba_marseille","lat":43.29276,"lon":5.3834,"is_reserved":false,"is_disabled":false,"rental_uris":{"android":"levelo://app?vid=c1305435-7ac9-4c1c-bdb9-e901200687d8","ios":"levelo://app?vid=c1305435-7ac9-4c1c-bdb9-e901200687d8"},"vehicle_type_id":"4","last_reported":1771446446,"current_range_meters":23200,"station_id":"","pricing_plan_id":"cebpf4jnsgd1na2vs0mg"},{"bike_id":"201ca36c-c632-433f-8e63-028103426023","system_id":"levelo_inurba_marseille","lat":43.28473,"lon":5.48398,"is_reserved":false,"is_disabled":false,"rental_uris":{"android":"levelo://app?vid=201ca36c-c632-433f-8e63-028103426023","ios":"levelo://app?vid=201ca36c-c632-433f-8e63-028103426023"},"vehicle_type_id":"4","last_reported":1771446446,"current_range_meters":13600,"station_id":"","pricing_plan_id":"cebpf4jnsgd1na2vs0mg"},{"bike_id":"ef70ce12-fd44-42a0-88ed-3b2ca489b7fa","system_id":"levelo_inurba_marseille","lat":43.28837,"lon":5.42531,"is_reserved":false,"is_disabled":false,"rental_uris":{"android":"levelo://app?vid=ef70ce12-fd44-42a0-88ed-3b2ca489b7fa","ios":"levelo://app?vid=ef70ce12-fd44-42a0-88ed-3b2ca489b7fa"},"vehicle_type_id":"4","last_reported":1771446446,"current_range_meters":38000,"station_id":"st_d3b462108ojc7389ooeg","pricing_plan_id":"cebpf4jnsgd1na2vs0mg"},{"bike_id":"ec6770e7-ed64-4495-878f-8ee65c0e3087","system_id":"levelo_inurba_marseille","lat":43.27909,"lon":5.38005,"is_reserved":false,"is_disabled":false,"rental_uris":{"android":"levelo://app?vid=ec6770e7-ed64-4495-878f-8ee65c0e3087","ios":"levelo://app?vid=ec6770e7-ed64-4495-878f-8ee65c0e3087"},"vehicle_type_id":"4","last_reported":1771446446,"current_range_meters":6800,"station_id":"ce4bhf92rcd13ifvqf50","pricing_plan_id":"cebpf4jnsgd1na2vs0mg"},{"bike_id":"0a19b8ea-5646-43e3-9c33-b9ffd92b9fe4","system_id":"levelo_inurba_marseille","lat":43.2848,"lon":5.38454,"is_reserved":false,"is_disabled":true,"rental_uris":{"android":"levelo://app?vid=0a19b8ea-5646-43e3-9c33-b9ffd92b9fe4","ios":"levelo://app?vid=0a19b8ea-5646-43e3-9c33-b9ffd92b9fe4"},"vehicle_type_id":"4","last_reported":1771446446,"current_range_meters":19600,"station_id":"ce4bh512rcd13ifvqe3g","pricing_plan_id":"cebpf4jnsgd1na2vs0mg"},{"bike_id":"2869ecff-d536-4cb2-8e34-6173355891f6","system_id":"levelo_inurba_marseille","lat":43.31174,"lon":5.36937,"is_reserved":false,"is_disabled":false,"rental_uris":{"android":"levelo://app?vid=2869ecff-d536-4cb2-8e34-6173355891f6","ios":"levelo://app?vid=2869ecff-d536-4cb2-8e34-6173355891f6"},"vehicle_type_id":"4","last_reported":1771446446,"current_range_meters":24000,"station_id":"ce4bgl92rcd13ifvqbq0","pricing_plan_id":"cebpf4jnsgd1na2vs0mg"},{"bike_id":"e6dcc18a-88f9-4a06-a9ba-f44311cce2a6","system_id":"levelo_inurba_marseille","lat":43.2686,"lon":5.40175,"is_reserved":false,"is_disabled":false,"rental_uris":{"android":"levelo://app?vid=e6dcc18a-88f9-4a06-a9ba-f44311cce2a6","ios":"levelo://app?vid=e6dcc18a-88f9-4a06-a9ba-f44311cce2a6"},"vehicle_type_id":"4","last_reported":1771446446,"current_range_meters":33600,"station_id":"ce501612rcd8frsf0b60","pricing_plan_id":"cebpf4jnsgd1na2vs0mg"},{"bike_id":"55c24a01-1e06-4fd3-a7c4-6a79d921fc29","system_id":"levelo_inurba_marseille","lat":43.29999,"lon":5.37201,"is_reserved":false,"is_disabled":false,"rental_uris":{"android":"levelo://app?vid=55c24a01-1e06-4fd3-a7c4-6a79d921fc29","ios":"levelo://app?vid=55c24a01-1e06-4fd3-a7c4-6a79d921fc29"},"vehicle_type_id":"4","last_reported":1771446446,"current_range_meters":10800,"station_id":"ce4bgr92rcd13ifvqc7g","pricing_plan_id":"cebpf4jnsgd1na2vs0mg"},{"bike_id":"5b012de4-7e8b-4538-86be-6640a0946719","system_id":"levelo_inurba_marseille","lat":43.24204,"lon":5.36458,"is_reserved":false,"is_disabled":true,"rental_uris":{"android":"levelo://app?vid=5b012de4-7e8b-4538-86be-6640a0946719","ios":"levelo://app?vid=5b012de4-7e8b-4538-86be-6640a0946719"},"vehicle_type_id":"4","last_reported":1771446446,"current_range_meters":16000,"station_id":"","pricing_plan_id":"cebpf4jnsgd1na2vs0mg"},{"bike_id":"73a0f084-2b1d-4d97-97da-f814106cb099","system_id":"levelo_inurba_marseille","lat":43.24645,"lon":5.3891,"is_reserved":false,"is_disabled":false,"rental_uris":{"android":"levelo://app?vid=73a0f084-2b1d-4d97-97da-f814106cb099","ios":"levelo://app?vid=73a0f084-2b1d-4d97-97da-f814106cb099"},"vehicle_type_id":"4","last_reported":1771446446,"current_range_meters":39200,"station_id":"ce4bhg12rcd13ifvqf60","pricing_plan_id":"cebpf4jnsgd1na2vs0mg"},{"bike_id":"4455645d-a31e-4811-bd5e-9830c8ef57b4","system_id":"levelo_inurba_marseille","lat":43.30523,"lon":5.36471,"is_reserved":false,"is_disabled":false,"rental_uris":{"android":"levelo://app?vid=4455645d-a31e-4811-bd5e-9830c8ef57b4","ios":"levelo://app?vid=4455645d-a31e-4811-bd5e-9830c8ef57b4"},"vehicle_type_id":"4","last_reported":1771446446,"current_range_meters":39200,"station_id":"","pricing_plan_id":"cebpf4jnsgd1na2vs0mg"},{"bike_id":"0e428826-a1fd-4db3-8b5c-909d1d1b1078","system_id":"levelo_inurba_marseille","lat":43.27563,"lon":5.38408,"is_reserved":false,"is_disabled":false,"rental_uris":{"android":"levelo://app?vid=0e428826-a1fd-4db3-8b5c-909d1d1b1078","ios":"levelo://app?vid=0e428826-a1fd-4db3-8b5c-909d1d1b1078"},"vehicle_type_id":"4","last_reported":1771446446,"current_range_meters":21600,"station_id":"ce4bhh92rcd13ifvqfi0","pricing_plan_id":"cebpf4jnsgd1na2vs0mg"},{"bike_id":"96438059-8ec7-4cad-b18f-887d9f3a4374","system_id":"levelo_inurba_marseille","lat":43.31481,"lon":5.37266,"is_reserved":false,"is_disabled":false,"rental_uris":{"android":"levelo://app?vid=96438059-8ec7-4cad-b18f-887d9f3a4374","ios":"levelo://app?vid=96438059-8ec7-4cad-b18f-887d9f3a4374"},"vehicle_type_id":"4","last_reported":1771446446,"current_range_meters":35600,"station_id":"ce4bgt12rcd13ifvqcd0","pricing_plan_id":"cebpf4jnsgd1na2vs0mg"},{"bike_id":"65b90786-eaff-4bba-b947-7726467f0166","system_id":"levelo_inurba_marseille","lat":43.28102,"lon":5.37849,"is_reserved":false,"is_disabled":false,"rental_uris":{"android":"levelo://app?vid=65b90786-eaff-4bba-b947-7726467f0166","ios":"levelo://app?vid=65b90786-eaff-4bba-b947-7726467f0166"},"vehicle_type_id":"4","last_reported":1771446446,"current_range_meters":18000,"station_id":"ce4bha12rcd13ifvqee0","pricing_plan_id":"cebpf4jnsgd1na2vs0mg"},{"bike_id":"f3d259b4-25e0-49a8-aeac-3a893d02b8fe","system_id":"levelo_inurba_marseille","lat":43.298784,"lon":5.389053,"is_reserved":false,"is_disabled":false,"rental_uris":{"android":"levelo://app?vid=f3d259b4-25e0-49a8-aeac-3a893d02b8fe","ios":"levelo://app?vid=f3d259b4-25e0-49a8-aeac-3a893d02b8fe"},"vehicle_type_id":"4","last_reported":1771446446,"current_range_meters":19600,"station_id":"ce4bh392rcd13ifvqdl0","pricing_plan_id":"cebpf4jnsgd1na2vs0mg"},{"bike_id":"ba43fe86-105f-4d57-9b53-a869ad7ae289","system_id":"levelo_inurba_marseille","lat":43.29034,"lon":5.38639,"is_reserved":false,"is_disabled":false,"rental_uris":{"android":"levelo://app?vid=ba43fe86-105f-4d57-9b53-a869ad7ae289","ios":"levelo://app?vid=ba43fe86-105f-4d57-9b53-a869ad7ae289"},"vehicle_type_id":"4","last_reported":1771446446,"current_range_meters":25200,"station_id":"ce4bh4p2rcd13ifvqe0g","pricing_plan_id":"cebpf4jnsgd1na2vs0mg"},{"bike_id":"e390ac40-4c81-47e8-a38f-4b796f459810","system_id":"levelo_inurba_marseille","lat":43.30921,"lon":5.37202,"is_reserved":false,"is_disabled":false,"rental_uris":{"android":"levelo://app?vid=e390ac40-4c81-47e8-a38f-4b796f459810","ios":"levelo://app?vid=e390ac40-4c81-47e8-a38f-4b796f459810"},"vehicle_type_id":"4","last_reported":1771446446,"current_range_meters":40000,"station_id":"ce4bguh2rcd13ifvqckg","pricing_plan_id":"cebpf4jnsgd1na2vs0mg"},{"bike_id":"60d19533-d916-46e5-9e83-963557cfb5f0","system_id":"levelo_inurba_marseille","lat":43.30962,"lon":5.36868,"is_reserved":false,"is_disabled":false,"rental_uris":{"android":"levelo://app?vid=60d19533-d916-46e5-9e83-963557cfb5f0","ios":"levelo://app?vid=60d19533-d916-46e5-9e83-963557cfb5f0"},"vehicle_type_id":"4","last_reported":1771446446,"current_range_meters":35600,"station_id":"","pricing_plan_id":"cebpf4jnsgd1na2vs0mg"},{"bike_id":"200f07f2-6ab6-46ed-9f22-639cf1d5ab95","system_id":"levelo_inurba_marseille","lat":43.27066,"lon":5.42276,"is_reserved":false,"is_disabled":false,"rental_uris":{"android":"levelo://app?vid=200f07f2-6ab6-46ed-9f22-639cf1d5ab95","ios":"levelo://app?vid=200f07f2-6ab6-46ed-9f22-639cf1d5ab95"},"vehicle_type_id":"4","last_reported":1771446446,"current_range_meters":32400,"station_id":"ce4bhk92rcd13ifvqgb0","pricing_plan_id":"cebpf4jnsgd1na2vs0mg"},{"bike_id":"a8c134fb-7dd4-48bb-8009-86b393d03db7","system_id":"levelo_inurba_marseille","lat":43.28088,"lon":5.37843,"is_reserved":false,"is_disabled":false,"rental_uris":{"android":"levelo://app?vid=a8c134fb-7dd4-48bb-8009-86b393d03db7","ios":"levelo://app?vid=a8c134fb-7dd4-48bb-8009-86b393d03db7"},"vehicle_type_id":"4","last_reported":1771446446,"current_range_meters":28000,"station_id":"ce4bha12rcd13ifvqee0","pricing_plan_id":"cebpf4jnsgd1na2vs0mg"},{"bike_id":"7dbed4a4-6963-4ee2-855d-a74bfee58ad8","system_id":"levelo_inurba_marseille","lat":43.30913,"lon":5.40207,"is_reserved":false,"is_disabled":false,"rental_uris":{"android":"levelo://app?vid=7dbed4a4-6963-4ee2-855d-a74bfee58ad8","ios":"levelo://app?vid=7dbed4a4-6963-4ee2-855d-a74bfee58ad8"},"vehicle_type_id":"4","last_reported":1771446446,"current_range_meters":34000,"station_id":"ce4bgvp2rcd13ifvqct0","pricing_plan_id":"cebpf4jnsgd1na2vs0mg"},{"bike_id":"004e9efc-41b9-4ccd-9660-b4076f684882","system_id":"levelo_inurba_marseille","lat":43.28575,"lon":5.37086,"is_reserved":false,"is_disabled":false,"rental_uris":{"android":"levelo://app?vid=004e9efc-41b9-4ccd-9660-b4076f684882","ios":"levelo://app?vid=004e9efc-41b9-4ccd-9660-b4076f684882"},"vehicle_type_id":"4","last_reported":1771446446,"current_range_meters":27600,"station_id":"ce4bht12rcd13ifvqi60","pricing_plan_id":"cebpf4jnsgd1na2vs0mg"},{"bike_id":"f6041667-a189-4c35-8328-024fab0e230c","system_id":"levelo_inurba_marseille","lat":43.26482,"lon":5.39557,"is_reserved":false,"is_disabled":false,"rental_uris":{"android":"levelo://app?vid=f6041667-a189-4c35-8328-024fab0e230c","ios":"levelo://app?vid=f6041667-a189-4c35-8328-024fab0e230c"},"vehicle_type_id":"4","last_reported":1771446446,"current_range_meters":12800,"station_id":"ce4bhi12rcd13ifvqfq0","pricing_plan_id":"cebpf4jnsgd1na2vs0mg"},{"bike_id":"9da307a9-6eeb-417a-bd1a-5a2bc5ec4b21","system_id":"levelo_inurba_marseille","lat":43.297003,"lon":5.376916,"is_reserved":false,"is_disabled":false,"rental_uris":{"android":"levelo://app?vid=9da307a9-6eeb-417a-bd1a-5a2bc5ec4b21","ios":"levelo://app?vid=9da307a9-6eeb-417a-bd1a-5a2bc5ec4b21"},"vehicle_type_id":"4","last_reported":1771446446,"current_range_meters":28800,"station_id":"ce4bh4p2rcd13ifvqe1g","pricing_plan_id":"cebpf4jnsgd1na2vs0mg"},{"bike_id":"c7d2b54a-d383-408d-9a81-b600a9105a37","system_id":"levelo_inurba_marseille","lat":43.33545,"lon":5.37481,"is_reserved":false,"is_disabled":false,"rental_uris":{"android":"levelo://app?vid=c7d2b54a-d383-408d-9a81-b600a9105a37","ios":"levelo://app?vid=c7d2b54a-d383-408d-9a81-b600a9105a37"},"vehicle_type_id":"4","last_reported":1771446446,"current_range_meters":24000,"station_id":"st_d46tts09ee8s73dlu43g","pricing_plan_id":"cebpf4jnsgd1na2vs0mg"},{"bike_id":"6fe58f3a-4ff0-4bc8-9d59-03b1c6e1d656","system_id":"levelo_inurba_marseille","lat":43.30328,"lon":5.40452,"is_reserved":false,"is_disabled":false,"rental_uris":{"android":"levelo://app?vid=6fe58f3a-4ff0-4bc8-9d59-03b1c6e1d656","ios":"levelo://app?vid=6fe58f3a-4ff0-4bc8-9d59-03b1c6e1d656"},"vehicle_type_id":"4","last_reported":1771446446,"current_range_meters":40000,"station_id":"ce4bh012rcd13ifvqd10","pricing_plan_id":"cebpf4jnsgd1na2vs0mg"},{"bike_id":"90e6b2ea-0402-46b4-a481-71a4e01f9a43","system_id":"levelo_inurba_marseille","lat":43.2899,"lon":5.38639,"is_reserved":false,"is_disabled":false,"rental_uris":{"android":"levelo://app?vid=90e6b2ea-0402-46b4-a481-71a4e01f9a43","ios":"levelo://app?vid=90e6b2ea-0402-46b4-a481-71a4e01f9a43"},"vehicle_type_id":"4","last_reported":1771446446,"current_range_meters":32800,"station_id":"ce4bh4p2rcd13ifvqe0g","pricing_plan_id":"cebpf4jnsgd1na2vs0mg"},{"bike_id":"f7eee68b-86e9-421f-b580-7f46a3eedbc3","system_id":"levelo_inurba_marseille","lat":43.26492,"lon":5.39531,"is_reserved":false,"is_disabled":false,"rental_uris":{"android":"levelo://app?vid=f7eee68b-86e9-421f-b580-7f46a3eedbc3","ios":"levelo://app?vid=f7eee68b-86e9-421f-b580-7f46a3eedbc3"},"vehicle_type_id":"4","last_reported":1771446446,"current_range_meters":32400,"station_id":"ce4bhi12rcd13ifvqfq0","pricing_plan_id":"cebpf4jnsgd1na2vs0mg"},{"bike_id":"c99d9323-8589-43b3-b458-80d5335d8427","system_id":"levelo_inurba_marseille","lat":43.29945,"lon":5.38394,"is_reserved":false,"is_disabled":false,"rental_uris":{"android":"levelo://app?vid=c99d9323-8589-43b3-b458-80d5335d8427","ios":"levelo://app?vid=c99d9323-8589-43b3-b458-80d5335d8427"},"vehicle_type_id":"4","last_reported":1771446446,"current_range_meters":27600,"station_id":"","pricing_plan_id":"cebpf4jnsgd1na2vs0mg"},{"bike_id":"bc33fc08-f85a-4f32-84fb-8b24d5daa10d","system_id":"levelo_inurba_marseille","lat":43.27976,"lon":5.41668,"is_reserved":false,"is_disabled":false,"rental_uris":{"android":"levelo://app?vid=bc33fc08-f85a-4f32-84fb-8b24d5daa10d","ios":"levelo://app?vid=bc33fc08-f85a-4f32-84fb-8b24d5daa10d"},"vehicle_type_id":"4","last_reported":1771446446,"current_range_meters":33600,"station_id":"ce4bho12rcd13ifvqh1g","pricing_plan_id":"cebpf4jnsgd1na2vs0mg"},{"bike_id":"e1a61811-576f-4910-bda6-0a518460bff9","system_id":"levelo_inurba_marseille","lat":43.30884,"lon":5.39652,"is_reserved":false,"is_disabled":false,"rental_uris":{"android":"levelo://app?vid=e1a61811-576f-4910-bda6-0a518460bff9","ios":"levelo://app?vid=e1a61811-576f-4910-bda6-0a518460bff9"},"vehicle_type_id":"4","last_reported":1771446446,"current_range_meters":11200,"station_id":"ce4bh012rcd13ifvqcv0","pricing_plan_id":"cebpf4jnsgd1na2vs0mg"},{"bike_id":"b56380f9-a759-4bad-ae97-ee9b0c34fdbe","system_id":"levelo_inurba_marseille","lat":43.33552,"lon":5.37456,"is_reserved":false,"is_disabled":false,"rental_uris":{"android":"levelo://app?vid=b56380f9-a759-4bad-ae97-ee9b0c34fdbe","ios":"levelo://app?vid=b56380f9-a759-4bad-ae97-ee9b0c34fdbe"},"vehicle_type_id":"4","last_reported":1771446446,"current_range_meters":24000,"station_id":"st_d46tts09ee8s73dlu43g","pricing_plan_id":"cebpf4jnsgd1na2vs0mg"},{"bike_id":"d46ff8f5-2d55-4dc1-9925-9ef5cdf12eac","system_id":"levelo_inurba_marseille","lat":43.30133,"lon":5.39879,"is_reserved":false,"is_disabled":false,"rental_uris":{"android":"levelo://app?vid=d46ff8f5-2d55-4dc1-9925-9ef5cdf12eac","ios":"levelo://app?vid=d46ff8f5-2d55-4dc1-9925-9ef5cdf12eac"},"vehicle_type_id":"4","last_reported":1771446446,"current_range_meters":38000,"station_id":"ce4bh0h2rcd13ifvqd40","pricing_plan_id":"cebpf4jnsgd1na2vs0mg"},{"bike_id":"bd53aed5-7e21-4982-abd8-7f81c8a49ba3","system_id":"levelo_inurba_marseille","lat":43.29257,"lon":5.3845,"is_reserved":false,"is_disabled":false,"rental_uris":{"android":"levelo://app?vid=bd53aed5-7e21-4982-abd8-7f81c8a49ba3","ios":"levelo://app?vid=bd53aed5-7e21-4982-abd8-7f81c8a49ba3"},"vehicle_type_id":"4","last_reported":1771446446,"current_range_meters":16800,"station_id":"ce4bh692rcd13ifvqea0","pricing_plan_id":"cebpf4jnsgd1na2vs0mg"},{"bike_id":"e5c37de4-5b20-40fe-851e-2d0c03d75c93","system_id":"levelo_inurba_marseille","lat":43.33125,"lon":5.39271,"is_reserved":false,"is_disabled":false,"rental_uris":{"android":"levelo://app?vid=e5c37de4-5b20-40fe-851e-2d0c03d75c93","ios":"levelo://app?vid=e5c37de4-5b20-40fe-851e-2d0c03d75c93"},"vehicle_type_id":"4","last_reported":1771446446,"current_range_meters":14800,"station_id":"","pricing_plan_id":"cebpf4jnsgd1na2vs0mg"},{"bike_id":"07b0f432-5e82-4f8c-81ee-67d93dfdf4d8","system_id":"levelo_inurba_marseille","lat":43.28626,"lon":5.35104,"is_reserved":false,"is_disabled":false,"rental_uris":{"android":"levelo://app?vid=07b0f432-5e82-4f8c-81ee-67d93dfdf4d8","ios":"levelo://app?vid=07b0f432-5e82-4f8c-81ee-67d93dfdf4d8"},"vehicle_type_id":"4","last_reported":1771446446,"current_range_meters":8400,"station_id":"ce4bhch2rcd13ifvqeug","pricing_plan_id":"cebpf4jnsgd1na2vs0mg"},{"bike_id":"127677c5-4cab-4685-9cfe-a1e546a48838","system_id":"levelo_inurba_marseille","lat":43.32095,"lon":5.36769,"is_reserved":false,"is_disabled":false,"rental_uris":{"android":"levelo://app?vid=127677c5-4cab-4685-9cfe-a1e546a48838","ios":"levelo://app?vid=127677c5-4cab-4685-9cfe-a1e546a48838"},"vehicle_type_id":"4","last_reported":1771446446,"current_range_meters":18800,"station_id":"ce4bhrh2rcd13ifvqhug","pricing_plan_id":"cebpf4jnsgd1na2vs0mg"},{"bike_id":"dcd0cf55-ffb3-4ae8-85bc-3fda68997124","system_id":"levelo_inurba_marseille","lat":43.26924,"lon":5.38712,"is_reserved":false,"is_disabled":true,"rental_uris":{"android":"levelo://app?vid=dcd0cf55-ffb3-4ae8-85bc-3fda68997124","ios":"levelo://app?vid=dcd0cf55-ffb3-4ae8-85bc-3fda68997124"},"vehicle_type_id":"4","last_reported":1771446446,"current_range_meters":9200,"station_id":"","pricing_plan_id":"cebpf4jnsgd1na2vs0mg"},{"bike_id":"f6b569a8-c672-4ee1-94ea-9fcb680fc5a7","system_id":"levelo_inurba_marseille","lat":43.29159,"lon":5.37166,"is_reserved":false,"is_disabled":false,"rental_uris":{"android":"levelo://app?vid=f6b569a8-c672-4ee1-94ea-9fcb680fc5a7","ios":"levelo://app?vid=f6b569a8-c672-4ee1-94ea-9fcb680fc5a7"},"vehicle_type_id":"4","last_reported":1771446446,"current_range_meters":16400,"station_id":"ce4bha92rcd13ifvqeh0","pricing_plan_id":"cebpf4jnsgd1na2vs0mg"},{"bike_id":"231848c4-1b00-4ccb-9349-c07363080439","system_id":"levelo_inurba_marseille","lat":43.28692,"lon":5.40007,"is_reserved":false,"is_disabled":false,"rental_uris":{"android":"levelo://app?vid=231848c4-1b00-4ccb-9349-c07363080439","ios":"levelo://app?vid=231848c4-1b00-4ccb-9349-c07363080439"},"vehicle_type_id":"4","last_reported":1771446446,"current_range_meters":39200,"station_id":"ce4bho92rcd13ifvqh3g","pricing_plan_id":"cebpf4jnsgd1na2vs0mg"},{"bike_id":"47788a9b-3d71-4615-adaa-2c88572889ac","system_id":"levelo_inurba_marseille","lat":43.31479,"lon":5.37282,"is_reserved":false,"is_disabled":false,"rental_uris":{"android":"levelo://app?vid=47788a9b-3d71-4615-adaa-2c88572889ac","ios":"levelo://app?vid=47788a9b-3d71-4615-adaa-2c88572889ac"},"vehicle_type_id":"4","last_reported":1771446446,"current_range_meters":33600,"station_id":"ce4bgt12rcd13ifvqcd0","pricing_plan_id":"cebpf4jnsgd1na2vs0mg"},{"bike_id":"fb4c81e1-59ab-4a96-ad75-2e8d74c036e5","system_id":"levelo_inurba_marseille","lat":43.3113,"lon":5.38598,"is_reserved":false,"is_disabled":false,"rental_uris":{"android":"levelo://app?vid=fb4c81e1-59ab-4a96-ad75-2e8d74c036e5","ios":"levelo://app?vid=fb4c81e1-59ab-4a96-ad75-2e8d74c036e5"},"vehicle_type_id":"4","last_reported":1771446446,"current_range_meters":13600,"station_id":"ce4bgv12rcd13ifvqcp0","pricing_plan_id":"cebpf4jnsgd1na2vs0mg"},{"bike_id":"3cf17d3c-847b-4e36-946e-46ab84562c9a","system_id":"levelo_inurba_marseille","lat":43.25097,"lon":5.39507,"is_reserved":false,"is_disabled":true,"rental_uris":{"android":"levelo://app?vid=3cf17d3c-847b-4e36-946e-46ab84562c9a","ios":"levelo://app?vid=3cf17d3c-847b-4e36-946e-46ab84562c9a"},"vehicle_type_id":"4","last_reported":1771446446,"current_range_meters":0,"station_id":"ce4bhm12rcd13ifvqgkg","pricing_plan_id":"cebpf4jnsgd1na2vs0mg"},{"bike_id":"1dfc9df6-efc3-44e1-bfa7-eabdccc695a9","system_id":"levelo_inurba_marseille","lat":43.33527,"lon":5.37484,"is_reserved":false,"is_disabled":false,"rental_uris":{"android":"levelo://app?vid=1dfc9df6-efc3-44e1-bfa7-eabdccc695a9","ios":"levelo://app?vid=1dfc9df6-efc3-44e1-bfa7-eabdccc695a9"},"vehicle_type_id":"4","last_reported":1771446446,"current_range_meters":12800,"station_id":"st_d46tts09ee8s73dlu43g","pricing_plan_id":"cebpf4jnsgd1na2vs0mg"},{"bike_id":"16fc34bf-65ec-4c81-ba21-ad880e0c1ac1","system_id":"levelo_inurba_marseille","lat":43.29917,"lon":5.36324,"is_reserved":false,"is_disabled":true,"rental_uris":{"android":"levelo://app?vid=16fc34bf-65ec-4c81-ba21-ad880e0c1ac1","ios":"levelo://app?vid=16fc34bf-65ec-4c81-ba21-ad880e0c1ac1"},"vehicle_type_id":"4","last_reported":1771446446,"current_range_meters":12400,"station_id":"","pricing_plan_id":"cebpf4jnsgd1na2vs0mg"},{"bike_id":"feddf533-e694-4295-8a00-2ac5034dd517","system_id":"levelo_inurba_marseille","lat":43.26945,"lon":5.40252,"is_reserved":false,"is_disabled":false,"rental_uris":{"android":"levelo://app?vid=feddf533-e694-4295-8a00-2ac5034dd517","ios":"levelo://app?vid=feddf533-e694-4295-8a00-2ac5034dd517"},"vehicle_type_id":"4","last_reported":1771446446,"current_range_meters":38000,"station_id":"cjm6bp8fraef2m0cb0m0","pricing_plan_id":"cebpf4jnsgd1na2vs0mg"},{"bike_id":"14867868-6aed-41c1-9296-5792e4f862f8","system_id":"levelo_inurba_marseille","lat":43.25376,"lon":5.42264,"is_reserved":false,"is_disabled":false,"rental_uris":{"android":"levelo://app?vid=14867868-6aed-41c1-9296-5792e4f862f8","ios":"levelo://app?vid=14867868-6aed-41c1-9296-5792e4f862f8"},"vehicle_type_id":"4","last_reported":1771446446,"current_range_meters":27200,"station_id":"","pricing_plan_id":"cebpf4jnsgd1na2vs0mg"},{"bike_id":"2f84c6f6-1af1-4f12-9943-f4b364371f34","system_id":"levelo_inurba_marseille","lat":43.305502,"lon":5.365259,"is_reserved":false,"is_disabled":false,"rental_uris":{"android":"levelo://app?vid=2f84c6f6-1af1-4f12-9943-f4b364371f34","ios":"levelo://app?vid=2f84c6f6-1af1-4f12-9943-f4b364371f34"},"vehicle_type_id":"4","last_reported":1771446446,"current_range_meters":8400,"station_id":"ce4bgs12rcd13ifvqcag","pricing_plan_id":"cebpf4jnsgd1na2vs0mg"},{"bike_id":"baf5634a-458e-4f5a-a6f0-61ff3624b257","system_id":"levelo_inurba_marseille","lat":43.27571,"lon":5.38401,"is_reserved":false,"is_disabled":false,"rental_uris":{"android":"levelo://app?vid=baf5634a-458e-4f5a-a6f0-61ff3624b257","ios":"levelo://app?vid=baf5634a-458e-4f5a-a6f0-61ff3624b257"},"vehicle_type_id":"4","last_reported":1771446446,"current_range_meters":35200,"station_id":"ce4bhh92rcd13ifvqfi0","pricing_plan_id":"cebpf4jnsgd1na2vs0mg"},{"bike_id":"e5ddf298-59a6-48a6-9f22-1ea1820e4aeb","system_id":"levelo_inurba_marseille","lat":43.28092,"lon":5.39662,"is_reserved":false,"is_disabled":false,"rental_uris":{"android":"levelo://app?vid=e5ddf298-59a6-48a6-9f22-1ea1820e4aeb","ios":"levelo://app?vid=e5ddf298-59a6-48a6-9f22-1ea1820e4aeb"},"vehicle_type_id":"4","last_reported":1771446446,"current_range_meters":38800,"station_id":"ce4bho12rcd13ifvqh2g","pricing_plan_id":"cebpf4jnsgd1na2vs0mg"},{"bike_id":"a064d16f-bc47-4f73-afc0-71fb9fcd9d35","system_id":"levelo_inurba_marseille","lat":43.25121,"lon":5.40356,"is_reserved":false,"is_disabled":false,"rental_uris":{"android":"levelo://app?vid=a064d16f-bc47-4f73-afc0-71fb9fcd9d35","ios":"levelo://app?vid=a064d16f-bc47-4f73-afc0-71fb9fcd9d35"},"vehicle_type_id":"4","last_reported":1771446446,"current_range_meters":33200,"station_id":"ce4bhlh2rcd13ifvqgig","pricing_plan_id":"cebpf4jnsgd1na2vs0mg"},{"bike_id":"7f321c7d-78b5-4a6f-b7ea-56a17c177a03","system_id":"levelo_inurba_marseille","lat":43.276698,"lon":5.388737,"is_reserved":false,"is_disabled":false,"rental_uris":{"android":"levelo://app?vid=7f321c7d-78b5-4a6f-b7ea-56a17c177a03","ios":"levelo://app?vid=7f321c7d-78b5-4a6f-b7ea-56a17c177a03"},"vehicle_type_id":"4","last_reported":1771446446,"current_range_meters":26800,"station_id":"ce4bhi12rcd13ifvqfo0","pricing_plan_id":"cebpf4jnsgd1na2vs0mg"},{"bike_id":"0a9805da-4766-4522-9e65-e3830b56acec","system_id":"levelo_inurba_marseille","lat":43.24674,"lon":5.38164,"is_reserved":false,"is_disabled":false,"rental_uris":{"android":"levelo://app?vid=0a9805da-4766-4522-9e65-e3830b56acec","ios":"levelo://app?vid=0a9805da-4766-4522-9e65-e3830b56acec"},"vehicle_type_id":"4","last_reported":1771446446,"current_range_meters":38400,"station_id":"ce4bhih2rcd13ifvqfr0","pricing_plan_id":"cebpf4jnsgd1na2vs0mg"},{"bike_id":"cce90230-8f68-4635-9765-03afac211625","system_id":"levelo_inurba_marseille","lat":43.28711,"lon":5.36357,"is_reserved":false,"is_disabled":false,"rental_uris":{"android":"levelo://app?vid=cce90230-8f68-4635-9765-03afac211625","ios":"levelo://app?vid=cce90230-8f68-4635-9765-03afac211625"},"vehicle_type_id":"4","last_reported":1771446446,"current_range_meters":19600,"station_id":"ce4bhah2rcd13ifvqej0","pricing_plan_id":"cebpf4jnsgd1na2vs0mg"},{"bike_id":"a390b538-2807-40e2-95f9-4ed175e72a0b","system_id":"levelo_inurba_marseille","lat":43.24954,"lon":5.40539,"is_reserved":false,"is_disabled":false,"rental_uris":{"android":"levelo://app?vid=a390b538-2807-40e2-95f9-4ed175e72a0b","ios":"levelo://app?vid=a390b538-2807-40e2-95f9-4ed175e72a0b"},"vehicle_type_id":"4","last_reported":1771446446,"current_range_meters":24800,"station_id":"st_d2ngiaodas8pm72gd1h0","pricing_plan_id":"cebpf4jnsgd1na2vs0mg"},{"bike_id":"822a37e9-cc86-4db6-b810-29ef8016af0b","system_id":"levelo_inurba_marseille","lat":43.29809,"lon":5.44051,"is_reserved":false,"is_disabled":false,"rental_uris":{"android":"levelo://app?vid=822a37e9-cc86-4db6-b810-29ef8016af0b","ios":"levelo://app?vid=822a37e9-cc86-4db6-b810-29ef8016af0b"},"vehicle_type_id":"4","last_reported":1771446446,"current_range_meters":23200,"station_id":"st_d3jp68qikq2c7381ktn0","pricing_plan_id":"cebpf4jnsgd1na2vs0mg"},{"bike_id":"3886e246-de3b-4bd8-9bb1-b4fd43c2effc","system_id":"levelo_inurba_marseille","lat":43.30606,"lon":5.37253,"is_reserved":false,"is_disabled":false,"rental_uris":{"android":"levelo://app?vid=3886e246-de3b-4bd8-9bb1-b4fd43c2effc","ios":"levelo://app?vid=3886e246-de3b-4bd8-9bb1-b4fd43c2effc"},"vehicle_type_id":"4","last_reported":1771446446,"current_range_meters":38800,"station_id":"ce4bgqh2rcd13ifvqc4g","pricing_plan_id":"cebpf4jnsgd1na2vs0mg"},{"bike_id":"03aee3db-9f4f-47df-b3ec-8d0bacddcdbc","system_id":"levelo_inurba_marseille","lat":43.27182,"lon":5.409904,"is_reserved":false,"is_disabled":false,"rental_uris":{"android":"levelo://app?vid=03aee3db-9f4f-47df-b3ec-8d0bacddcdbc","ios":"levelo://app?vid=03aee3db-9f4f-47df-b3ec-8d0bacddcdbc"},"vehicle_type_id":"4","last_reported":1771446446,"current_range_meters":37600,"station_id":"ce4bhl12rcd13ifvqgf0","pricing_plan_id":"cebpf4jnsgd1na2vs0mg"},{"bike_id":"55eb0aad-f6b5-4ef8-8c2b-ee220d251165","system_id":"levelo_inurba_marseille","lat":43.26929,"lon":5.40214,"is_reserved":false,"is_disabled":false,"rental_uris":{"android":"levelo://app?vid=55eb0aad-f6b5-4ef8-8c2b-ee220d251165","ios":"levelo://app?vid=55eb0aad-f6b5-4ef8-8c2b-ee220d251165"},"vehicle_type_id":"4","last_reported":1771446446,"current_range_meters":29600,"station_id":"cjm6bp8fraef2m0cb0m0","pricing_plan_id":"cebpf4jnsgd1na2vs0mg"},{"bike_id":"59aabee3-6211-4f8a-9630-29cde1e1b3d7","system_id":"levelo_inurba_marseille","lat":43.29541,"lon":5.37488,"is_reserved":false,"is_disabled":false,"rental_uris":{"android":"levelo://app?vid=59aabee3-6211-4f8a-9630-29cde1e1b3d7","ios":"levelo://app?vid=59aabee3-6211-4f8a-9630-29cde1e1b3d7"},"vehicle_type_id":"4","last_reported":1771446446,"current_range_meters":19200,"station_id":"ce4bgkp2rcd13ifvqbmg","pricing_plan_id":"cebpf4jnsgd1na2vs0mg"},{"bike_id":"89b3e01c-4867-4ddb-b4c3-f53bd946fe77","system_id":"levelo_inurba_marseille","lat":43.29238,"lon":5.36054,"is_reserved":false,"is_disabled":false,"rental_uris":{"android":"levelo://app?vid=89b3e01c-4867-4ddb-b4c3-f53bd946fe77","ios":"levelo://app?vid=89b3e01c-4867-4ddb-b4c3-f53bd946fe77"},"vehicle_type_id":"4","last_reported":1771446446,"current_range_meters":6000,"station_id":"ce4bhbh2rcd13ifvqeqg","pricing_plan_id":"cebpf4jnsgd1na2vs0mg"},{"bike_id":"012436c7-b0d2-44f6-9f1e-20d7a40c23a6","system_id":"levelo_inurba_marseille","lat":43.26211,"lon":5.4046,"is_reserved":false,"is_disabled":false,"rental_uris":{"android":"levelo://app?vid=012436c7-b0d2-44f6-9f1e-20d7a40c23a6","ios":"levelo://app?vid=012436c7-b0d2-44f6-9f1e-20d7a40c23a6"},"vehicle_type_id":"4","last_reported":1771446446,"current_range_meters":36000,"station_id":"ce4bhmh2rcd13ifvqgmg","pricing_plan_id":"cebpf4jnsgd1na2vs0mg"},{"bike_id":"ddb35e99-7580-4184-b1a3-39dee08fd05d","system_id":"levelo_inurba_marseille","lat":43.29549,"lon":5.43916,"is_reserved":false,"is_disabled":false,"rental_uris":{"android":"levelo://app?vid=ddb35e99-7580-4184-b1a3-39dee08fd05d","ios":"levelo://app?vid=ddb35e99-7580-4184-b1a3-39dee08fd05d"},"vehicle_type_id":"4","last_reported":1771446446,"current_range_meters":14800,"station_id":"","pricing_plan_id":"cebpf4jnsgd1na2vs0mg"},{"bike_id":"4d976bf5-f813-4b36-99cd-ae82b3487f1d","system_id":"levelo_inurba_marseille","lat":43.27999,"lon":5.41683,"is_reserved":false,"is_disabled":false,"rental_uris":{"android":"levelo://app?vid=4d976bf5-f813-4b36-99cd-ae82b3487f1d","ios":"levelo://app?vid=4d976bf5-f813-4b36-99cd-ae82b3487f1d"},"vehicle_type_id":"4","last_reported":1771446446,"current_range_meters":8800,"station_id":"ce4bho12rcd13ifvqh1g","pricing_plan_id":"cebpf4jnsgd1na2vs0mg"},{"bike_id":"827af7a8-8b57-41eb-99ae-02b02347eaab","system_id":"levelo_inurba_marseille","lat":43.2925,"lon":5.38442,"is_reserved":false,"is_disabled":false,"rental_uris":{"android":"levelo://app?vid=827af7a8-8b57-41eb-99ae-02b02347eaab","ios":"levelo://app?vid=827af7a8-8b57-41eb-99ae-02b02347eaab"},"vehicle_type_id":"4","last_reported":1771446446,"current_range_meters":30000,"station_id":"ce4bh692rcd13ifvqea0","pricing_plan_id":"cebpf4jnsgd1na2vs0mg"},{"bike_id":"9f3630eb-dbc9-48cb-9dc8-34da35d113eb","system_id":"levelo_inurba_marseille","lat":43.286,"lon":5.35019,"is_reserved":false,"is_disabled":false,"rental_uris":{"android":"levelo://app?vid=9f3630eb-dbc9-48cb-9dc8-34da35d113eb","ios":"levelo://app?vid=9f3630eb-dbc9-48cb-9dc8-34da35d113eb"},"vehicle_type_id":"4","last_reported":1771446446,"current_range_meters":31200,"station_id":"","pricing_plan_id":"cebpf4jnsgd1na2vs0mg"},{"bike_id":"4e4a9dab-9cef-4b15-af20-700cc63ae5ad","system_id":"levelo_inurba_marseille","lat":43.30337,"lon":5.40472,"is_reserved":false,"is_disabled":false,"rental_uris":{"android":"levelo://app?vid=4e4a9dab-9cef-4b15-af20-700cc63ae5ad","ios":"levelo://app?vid=4e4a9dab-9cef-4b15-af20-700cc63ae5ad"},"vehicle_type_id":"4","last_reported":1771446446,"current_range_meters":19600,"station_id":"ce4bh012rcd13ifvqd10","pricing_plan_id":"cebpf4jnsgd1na2vs0mg"},{"bike_id":"e20c4760-3d10-4402-8539-0046b00120e2","system_id":"levelo_inurba_marseille","lat":43.25729,"lon":5.41116,"is_reserved":false,"is_disabled":false,"rental_uris":{"android":"levelo://app?vid=e20c4760-3d10-4402-8539-0046b00120e2","ios":"levelo://app?vid=e20c4760-3d10-4402-8539-0046b00120e2"},"vehicle_type_id":"4","last_reported":1771446446,"current_range_meters":38000,"station_id":"ce4bhkp2rcd13ifvqgd0","pricing_plan_id":"cebpf4jnsgd1na2vs0mg"},{"bike_id":"d86a2c13-95bd-4c59-a29c-e97a26944660","system_id":"levelo_inurba_marseille","lat":43.29261,"lon":5.38445,"is_reserved":false,"is_disabled":false,"rental_uris":{"android":"levelo://app?vid=d86a2c13-95bd-4c59-a29c-e97a26944660","ios":"levelo://app?vid=d86a2c13-95bd-4c59-a29c-e97a26944660"},"vehicle_type_id":"4","last_reported":1771446446,"current_range_meters":22000,"station_id":"ce4bh692rcd13ifvqea0","pricing_plan_id":"cebpf4jnsgd1na2vs0mg"},{"bike_id":"a99f4834-6397-4852-872f-80cdc766c1ad","system_id":"levelo_inurba_marseille","lat":43.26779,"lon":5.39426,"is_reserved":false,"is_disabled":true,"rental_uris":{"android":"levelo://app?vid=a99f4834-6397-4852-872f-80cdc766c1ad","ios":"levelo://app?vid=a99f4834-6397-4852-872f-80cdc766c1ad"},"vehicle_type_id":"4","last_reported":1771446446,"current_range_meters":39200,"station_id":"ce4bhh12rcd13ifvqfg0","pricing_plan_id":"cebpf4jnsgd1na2vs0mg"},{"bike_id":"9c172d57-948f-4ac1-8a95-38faf58b614f","system_id":"levelo_inurba_marseille","lat":43.31024,"lon":5.40903,"is_reserved":false,"is_disabled":false,"rental_uris":{"android":"levelo://app?vid=9c172d57-948f-4ac1-8a95-38faf58b614f","ios":"levelo://app?vid=9c172d57-948f-4ac1-8a95-38faf58b614f"},"vehicle_type_id":"4","last_reported":1771446446,"current_range_meters":10000,"station_id":"","pricing_plan_id":"cebpf4jnsgd1na2vs0mg"},{"bike_id":"fe6f5b89-f23b-49b2-9ff6-1649351eda2e","system_id":"levelo_inurba_marseille","lat":43.28581,"lon":5.39507,"is_reserved":false,"is_disabled":false,"rental_uris":{"android":"levelo://app?vid=fe6f5b89-f23b-49b2-9ff6-1649351eda2e","ios":"levelo://app?vid=fe6f5b89-f23b-49b2-9ff6-1649351eda2e"},"vehicle_type_id":"4","last_reported":1771446446,"current_range_meters":25200,"station_id":"ce4bh292rcd13ifvqdg0","pricing_plan_id":"cebpf4jnsgd1na2vs0mg"},{"bike_id":"bc27f817-2110-4022-81c0-1b6ce9a635da","system_id":"levelo_inurba_marseille","lat":43.29618,"lon":5.37747,"is_reserved":false,"is_disabled":false,"rental_uris":{"android":"levelo://app?vid=bc27f817-2110-4022-81c0-1b6ce9a635da","ios":"levelo://app?vid=bc27f817-2110-4022-81c0-1b6ce9a635da"},"vehicle_type_id":"4","last_reported":1771446446,"current_range_meters":13600,"station_id":"ce4bgi92rcd13ifvqb90","pricing_plan_id":"cebpf4jnsgd1na2vs0mg"},{"bike_id":"f4aaf131-409b-475c-af21-9b8c8efe9337","system_id":"levelo_inurba_marseille","lat":43.2904,"lon":5.38143,"is_reserved":false,"is_disabled":false,"rental_uris":{"android":"levelo://app?vid=f4aaf131-409b-475c-af21-9b8c8efe9337","ios":"levelo://app?vid=f4aaf131-409b-475c-af21-9b8c8efe9337"},"vehicle_type_id":"4","last_reported":1771446446,"current_range_meters":3200,"station_id":"ce4bh4p2rcd13ifvqe1g","pricing_plan_id":"cebpf4jnsgd1na2vs0mg"},{"bike_id":"759f0a09-9669-46dc-9822-7ecc825b93de","system_id":"levelo_inurba_marseille","lat":43.30561,"lon":5.36517,"is_reserved":false,"is_disabled":false,"rental_uris":{"android":"levelo://app?vid=759f0a09-9669-46dc-9822-7ecc825b93de","ios":"levelo://app?vid=759f0a09-9669-46dc-9822-7ecc825b93de"},"vehicle_type_id":"4","last_reported":1771446446,"current_range_meters":38000,"station_id":"ce4bgs12rcd13ifvqcag","pricing_plan_id":"cebpf4jnsgd1na2vs0mg"},{"bike_id":"44710410-0004-44c2-ab47-3fa8e9404426","system_id":"levelo_inurba_marseille","lat":43.29808,"lon":5.38135,"is_reserved":false,"is_disabled":false,"rental_uris":{"android":"levelo://app?vid=44710410-0004-44c2-ab47-3fa8e9404426","ios":"levelo://app?vid=44710410-0004-44c2-ab47-3fa8e9404426"},"vehicle_type_id":"4","last_reported":1771446446,"current_range_meters":38800,"station_id":"ce4bgip2rcd13ifvqbb0","pricing_plan_id":"cebpf4jnsgd1na2vs0mg"},{"bike_id":"52f61550-53ac-43ca-b4ac-25520a40692b","system_id":"levelo_inurba_marseille","lat":43.26239,"lon":5.40382,"is_reserved":false,"is_disabled":false,"rental_uris":{"android":"levelo://app?vid=52f61550-53ac-43ca-b4ac-25520a40692b","ios":"levelo://app?vid=52f61550-53ac-43ca-b4ac-25520a40692b"},"vehicle_type_id":"4","last_reported":1771446446,"current_range_meters":17200,"station_id":"","pricing_plan_id":"cebpf4jnsgd1na2vs0mg"},{"bike_id":"4bc97a73-7396-473d-9bb9-41939ec0f865","system_id":"levelo_inurba_marseille","lat":43.29517,"lon":5.37518,"is_reserved":false,"is_disabled":false,"rental_uris":{"android":"levelo://app?vid=4bc97a73-7396-473d-9bb9-41939ec0f865","ios":"levelo://app?vid=4bc97a73-7396-473d-9bb9-41939ec0f865"},"vehicle_type_id":"4","last_reported":1771446446,"current_range_meters":38000,"station_id":"ce4bgkp2rcd13ifvqbmg","pricing_plan_id":"cebpf4jnsgd1na2vs0mg"},{"bike_id":"1f736713-40bb-4417-989e-c059341c3cc8","system_id":"levelo_inurba_marseille","lat":43.29841,"lon":5.44066,"is_reserved":false,"is_disabled":false,"rental_uris":{"android":"levelo://app?vid=1f736713-40bb-4417-989e-c059341c3cc8","ios":"levelo://app?vid=1f736713-40bb-4417-989e-c059341c3cc8"},"vehicle_type_id":"4","last_reported":1771446446,"current_range_meters":3200,"station_id":"st_d3jp68qikq2c7381ktn0","pricing_plan_id":"cebpf4jnsgd1na2vs0mg"},{"bike_id":"17f7ca05-9ff1-4847-81f4-6f637ce906bc","system_id":"levelo_inurba_marseille","lat":43.25342,"lon":5.42179,"is_reserved":false,"is_disabled":true,"rental_uris":{"android":"levelo://app?vid=17f7ca05-9ff1-4847-81f4-6f637ce906bc","ios":"levelo://app?vid=17f7ca05-9ff1-4847-81f4-6f637ce906bc"},"vehicle_type_id":"4","last_reported":1771446446,"current_range_meters":800,"station_id":"st_d2m65c5bi1j21697t3ng","pricing_plan_id":"cebpf4jnsgd1na2vs0mg"},{"bike_id":"b7133417-6420-4ab8-aa96-2612da39a8a1","system_id":"levelo_inurba_marseille","lat":43.29973,"lon":5.38505,"is_reserved":false,"is_disabled":false,"rental_uris":{"android":"levelo://app?vid=b7133417-6420-4ab8-aa96-2612da39a8a1","ios":"levelo://app?vid=b7133417-6420-4ab8-aa96-2612da39a8a1"},"vehicle_type_id":"4","last_reported":1771446446,"current_range_meters":18000,"station_id":"ce4bgj92rcd13ifvqbd0","pricing_plan_id":"cebpf4jnsgd1na2vs0mg"},{"bike_id":"e90851a6-2d4f-47a9-a7a1-4b5348459c73","system_id":"levelo_inurba_marseille","lat":43.29045,"lon":5.38163,"is_reserved":false,"is_disabled":false,"rental_uris":{"android":"levelo://app?vid=e90851a6-2d4f-47a9-a7a1-4b5348459c73","ios":"levelo://app?vid=e90851a6-2d4f-47a9-a7a1-4b5348459c73"},"vehicle_type_id":"4","last_reported":1771446446,"current_range_meters":39200,"station_id":"ce4bh4p2rcd13ifvqe1g","pricing_plan_id":"cebpf4jnsgd1na2vs0mg"},{"bike_id":"95ac3875-f146-4303-af46-f73fc1aee76b","system_id":"levelo_inurba_marseille","lat":43.28471,"lon":5.48413,"is_reserved":false,"is_disabled":false,"rental_uris":{"android":"levelo://app?vid=95ac3875-f146-4303-af46-f73fc1aee76b","ios":"levelo://app?vid=95ac3875-f146-4303-af46-f73fc1aee76b"},"vehicle_type_id":"4","last_reported":1771446446,"current_range_meters":4000,"station_id":"st_d3svhcjqgbts73a3dn0g","pricing_plan_id":"cebpf4jnsgd1na2vs0mg"},{"bike_id":"1cb00c57-3dad-48c3-a5be-edff5b48b8a0","system_id":"levelo_inurba_marseille","lat":43.29791,"lon":5.37107,"is_reserved":false,"is_disabled":false,"rental_uris":{"android":"levelo://app?vid=1cb00c57-3dad-48c3-a5be-edff5b48b8a0","ios":"levelo://app?vid=1cb00c57-3dad-48c3-a5be-edff5b48b8a0"},"vehicle_type_id":"4","last_reported":1771446446,"current_range_meters":32800,"station_id":"ce4bgop2rcd13ifvqc1g","pricing_plan_id":"cebpf4jnsgd1na2vs0mg"},{"bike_id":"783b5e66-d78c-4ae3-9d04-cbcffaa3b0ab","system_id":"levelo_inurba_marseille","lat":43.24436,"lon":5.37119,"is_reserved":false,"is_disabled":false,"rental_uris":{"android":"levelo://app?vid=783b5e66-d78c-4ae3-9d04-cbcffaa3b0ab","ios":"levelo://app?vid=783b5e66-d78c-4ae3-9d04-cbcffaa3b0ab"},"vehicle_type_id":"4","last_reported":1771446446,"current_range_meters":14400,"station_id":"","pricing_plan_id":"cebpf4jnsgd1na2vs0mg"},{"bike_id":"d784bea9-82a5-430c-9ec4-f5350b864266","system_id":"levelo_inurba_marseille","lat":43.24086,"lon":5.37759,"is_reserved":false,"is_disabled":false,"rental_uris":{"android":"levelo://app?vid=d784bea9-82a5-430c-9ec4-f5350b864266","ios":"levelo://app?vid=d784bea9-82a5-430c-9ec4-f5350b864266"},"vehicle_type_id":"4","last_reported":1771446446,"current_range_meters":12400,"station_id":"ce4bhnp2rcd13ifvqgvg","pricing_plan_id":"cebpf4jnsgd1na2vs0mg"},{"bike_id":"00fcc252-a609-4cef-8bbc-4e701d14566c","system_id":"levelo_inurba_marseille","lat":43.306,"lon":5.39359,"is_reserved":false,"is_disabled":false,"rental_uris":{"android":"levelo://app?vid=00fcc252-a609-4cef-8bbc-4e701d14566c","ios":"levelo://app?vid=00fcc252-a609-4cef-8bbc-4e701d14566c"},"vehicle_type_id":"4","last_reported":1771446446,"current_range_meters":33200,"station_id":"ce4bh0p2rcd13ifvqd80","pricing_plan_id":"cebpf4jnsgd1na2vs0mg"},{"bike_id":"ff7c6076-03ef-481d-ba9a-a74982616a5f","system_id":"levelo_inurba_marseille","lat":43.28711,"lon":5.37937,"is_reserved":false,"is_disabled":false,"rental_uris":{"android":"levelo://app?vid=ff7c6076-03ef-481d-ba9a-a74982616a5f","ios":"levelo://app?vid=ff7c6076-03ef-481d-ba9a-a74982616a5f"},"vehicle_type_id":"4","last_reported":1771446446,"current_range_meters":40000,"station_id":"ce4bh9p2rcd13ifvqec0","pricing_plan_id":"cebpf4jnsgd1na2vs0mg"},{"bike_id":"883ef81b-2398-40c3-8b0c-1943ff78bd3f","system_id":"levelo_inurba_marseille","lat":43.24687,"lon":5.38172,"is_reserved":false,"is_disabled":true,"rental_uris":{"android":"levelo://app?vid=883ef81b-2398-40c3-8b0c-1943ff78bd3f","ios":"levelo://app?vid=883ef81b-2398-40c3-8b0c-1943ff78bd3f"},"vehicle_type_id":"4","last_reported":1771446446,"current_range_meters":39200,"station_id":"ce4bhih2rcd13ifvqfr0","pricing_plan_id":"cebpf4jnsgd1na2vs0mg"},{"bike_id":"6490eec2-c2e9-42ad-aca0-95d82ccfc451","system_id":"levelo_inurba_marseille","lat":43.29256,"lon":5.36086,"is_reserved":false,"is_disabled":false,"rental_uris":{"android":"levelo://app?vid=6490eec2-c2e9-42ad-aca0-95d82ccfc451","ios":"levelo://app?vid=6490eec2-c2e9-42ad-aca0-95d82ccfc451"},"vehicle_type_id":"4","last_reported":1771446446,"current_range_meters":12000,"station_id":"ce4bhbh2rcd13ifvqeqg","pricing_plan_id":"cebpf4jnsgd1na2vs0mg"},{"bike_id":"6155bb94-0027-430a-a184-064ee2103de4","system_id":"levelo_inurba_marseille","lat":43.24656,"lon":5.38172,"is_reserved":false,"is_disabled":false,"rental_uris":{"android":"levelo://app?vid=6155bb94-0027-430a-a184-064ee2103de4","ios":"levelo://app?vid=6155bb94-0027-430a-a184-064ee2103de4"},"vehicle_type_id":"4","last_reported":1771446446,"current_range_meters":25200,"station_id":"ce4bhih2rcd13ifvqfr0","pricing_plan_id":"cebpf4jnsgd1na2vs0mg"},{"bike_id":"10a2dea5-76af-489d-bde2-bf96f99e6687","system_id":"levelo_inurba_marseille","lat":43.29554,"lon":5.40005,"is_reserved":false,"is_disabled":true,"rental_uris":{"android":"levelo://app?vid=10a2dea5-76af-489d-bde2-bf96f99e6687","ios":"levelo://app?vid=10a2dea5-76af-489d-bde2-bf96f99e6687"},"vehicle_type_id":"4","last_reported":1771446446,"current_range_meters":38000,"station_id":"ce4bh312rcd13ifvqdj0","pricing_plan_id":"cebpf4jnsgd1na2vs0mg"},{"bike_id":"2f23e05b-5173-4376-83e2-eba7b9bdc046","system_id":"levelo_inurba_marseille","lat":43.29693,"lon":5.43846,"is_reserved":false,"is_disabled":false,"rental_uris":{"android":"levelo://app?vid=2f23e05b-5173-4376-83e2-eba7b9bdc046","ios":"levelo://app?vid=2f23e05b-5173-4376-83e2-eba7b9bdc046"},"vehicle_type_id":"4","last_reported":1771446446,"current_range_meters":26000,"station_id":"st_d3jp68qikq2c7381ktn0","pricing_plan_id":"cebpf4jnsgd1na2vs0mg"},{"bike_id":"f5a83828-f353-4692-b521-be18cc9b6b45","system_id":"levelo_inurba_marseille","lat":43.29005,"lon":5.35627,"is_reserved":false,"is_disabled":false,"rental_uris":{"android":"levelo://app?vid=f5a83828-f353-4692-b521-be18cc9b6b45","ios":"levelo://app?vid=f5a83828-f353-4692-b521-be18cc9b6b45"},"vehicle_type_id":"4","last_reported":1771446446,"current_range_meters":24000,"station_id":"ce4bhb92rcd13ifvqen0","pricing_plan_id":"cebpf4jnsgd1na2vs0mg"},{"bike_id":"a359b0b3-2485-41e6-b865-220e1657ca32","system_id":"levelo_inurba_marseille","lat":43.28531,"lon":5.38472,"is_reserved":false,"is_disabled":false,"rental_uris":{"android":"levelo://app?vid=a359b0b3-2485-41e6-b865-220e1657ca32","ios":"levelo://app?vid=a359b0b3-2485-41e6-b865-220e1657ca32"},"vehicle_type_id":"4","last_reported":1771446446,"current_range_meters":36400,"station_id":"","pricing_plan_id":"cebpf4jnsgd1na2vs0mg"},{"bike_id":"effcabf8-7167-4bc3-9f77-4c6283c842bb","system_id":"levelo_inurba_marseille","lat":43.31101,"lon":5.37778,"is_reserved":false,"is_disabled":false,"rental_uris":{"android":"levelo://app?vid=effcabf8-7167-4bc3-9f77-4c6283c842bb","ios":"levelo://app?vid=effcabf8-7167-4bc3-9f77-4c6283c842bb"},"vehicle_type_id":"4","last_reported":1771446446,"current_range_meters":32400,"station_id":"ce4bgt92rcd13ifvqcg0","pricing_plan_id":"cebpf4jnsgd1na2vs0mg"},{"bike_id":"3eb6f4a2-1d98-4d78-b638-5aa708899439","system_id":"levelo_inurba_marseille","lat":43.30649,"lon":5.40102,"is_reserved":false,"is_disabled":false,"rental_uris":{"android":"levelo://app?vid=3eb6f4a2-1d98-4d78-b638-5aa708899439","ios":"levelo://app?vid=3eb6f4a2-1d98-4d78-b638-5aa708899439"},"vehicle_type_id":"4","last_reported":1771446446,"current_range_meters":26800,"station_id":"ce4bh112rcd13ifvqda0","pricing_plan_id":"cebpf4jnsgd1na2vs0mg"},{"bike_id":"aa2207b7-265c-4ad3-bf19-8d2f813f1c3e","system_id":"levelo_inurba_marseille","lat":43.2455,"lon":5.39525,"is_reserved":false,"is_disabled":false,"rental_uris":{"android":"levelo://app?vid=aa2207b7-265c-4ad3-bf19-8d2f813f1c3e","ios":"levelo://app?vid=aa2207b7-265c-4ad3-bf19-8d2f813f1c3e"},"vehicle_type_id":"4","last_reported":1771446446,"current_range_meters":29600,"station_id":"ce4bhlp2rcd13ifvqgjg","pricing_plan_id":"cebpf4jnsgd1na2vs0mg"},{"bike_id":"73bf502a-28e1-47b3-aaa9-7c0f62e718cb","system_id":"levelo_inurba_marseille","lat":43.298717,"lon":5.397746,"is_reserved":false,"is_disabled":false,"rental_uris":{"android":"levelo://app?vid=73bf502a-28e1-47b3-aaa9-7c0f62e718cb","ios":"levelo://app?vid=73bf502a-28e1-47b3-aaa9-7c0f62e718cb"},"vehicle_type_id":"4","last_reported":1771446446,"current_range_meters":6000,"station_id":"ce4bh0h2rcd13ifvqd50","pricing_plan_id":"cebpf4jnsgd1na2vs0mg"},