{"last_updated":1761584946,"ttl":60,"version":"2.2","data":{"bikes":[{"bike_id":"89c6eee6-ef8c-458c-a2ba-349804630ba8","system_id":"levelo_inurba_marseille","lat":43.27807,"lon":5.40715,"is_reserved":false,"is_disabled":false,"rental_uris":{"android":"levelo://app?vid=89c6eee6-ef8c-458c-a2ba-349804630ba8","ios":"levelo://app?vid=89c6eee6-ef8c-458c-a2ba-349804630ba8"},"vehicle_type_id":"4","last_reported":1761584947,"current_range_meters":2800,"station_id":"ce4bhnh2rcd13ifvqgtg","pricing_plan_id":"cebpf4jnsgd1na2vs0mg"},{"bike_id":"8be6a47c-9542-4fed-8109-f6d91a0f2b3f","system_id":"levelo_inurba_marseille","lat":43.29174,"lon":5.37161,"is_reserved":false,"is_disabled":false,"rental_uris":{"android":"levelo://app?vid=8be6a47c-9542-4fed-8109-f6d91a0f2b3f","ios":"levelo://app?vid=8be6a47c-9542-4fed-8109-f6d91a0f2b3f"},"vehicle_type_id":"4","last_reported":1761584947,"current_range_meters":2800,"station_id":"ce4bha92rcd13ifvqeh0","pricing_plan_id":"cebpf4jnsgd1na2vs0mg"},{"bike_id":"1ee427fe-720e-4957-937b-3cb0e8ce98a3","system_id":"levelo_inurba_marseille","lat":43.295176,"lon":5.389873,"is_reserved":false,"is_disabled":false,"rental_uris":{"android":"levelo://app?vid=1ee427fe-720e-4957-937b-3cb0e8ce98a3","ios":"levelo://app?vid=1ee427fe-720e-4957-937b-3cb0e8ce98a3"},"vehicle_type_id":"4","last_reported":1761584947,"current_range_meters":2800,"station_id":"ce4bh3p2rcd13ifvqdp0","pricing_plan_id":"cebpf4jnsgd1na2vs0mg"},{"bike_id":"33db028f-e572-4741-847e-e567bc868d75","system_id":"levelo_inurba_marseille","lat":43.28413,"lon":5.34988,"is_reserved":false,"is_disabled":false,"rental_uris":{"android":"levelo://app?vid=33db028f-e572-4741-847e-e567bc868d75","ios":"levelo://app?vid=33db028f-e572-4741-847e-e567bc868d75"},"vehicle_type_id":"4","last_reported":1761584947,"current_range_meters":2800,"station_id":"ce4bhbh2rcd13ifvqepg","pricing_plan_id":"cebpf4jnsgd1na2vs0mg"},{"bike_id":"e26dfca1-740a-41c0-837d-afe5269b9ddc","system_id":"levelo_inurba_marseille","lat":43.24543,"lon":5.39531,"is_reserved":false,"is_disabled":false,"rental_uris":{"android":"levelo://app?vid=e26dfca1-740a-41c0-837d-afe5269b9ddc","ios":"levelo://app?vid=e26dfca1-740a-41c0-837d-afe5269b9ddc"},"vehicle_type_id":"4","last_reported":1761584947,"current_range_meters":3200,"station_id":"ce4bhlp2rcd13ifvqgjg","pricing_plan_id":"cebpf4jnsgd1na2vs0mg"},{"bike_id":"594cac0e-0d49-4921-9849-66b545f0c4c2","system_id":"levelo_inurba_marseille","lat":43.29533,"lon":5.38548,"is_reserved":false,"is_disabled":false,"rental_uris":{"android":"levelo://app?vid=594cac0e-0d49-4921-9849-66b545f0c4c2","ios":"levelo://app?vid=594cac0e-0d49-4921-9849-66b545f0c4c2"},"vehicle_type_id":"4","last_reported":1761584947,"current_range_meters":3600,"station_id":"ce4bgih2rcd13ifvqba0","pricing_plan_id":"cebpf4jnsgd1na2vs0mg"},{"bike_id":"44aff561-0aa7-4ed3-8394-3d4eb76aadfb","system_id":"levelo_inurba_marseille","lat":43.311627,"lon":5.387254,"is_reserved":false,"is_disabled":false,"rental_uris":{"android":"levelo://app?vid=44aff561-0aa7-4ed3-8394-3d4eb76aadfb","ios":"levelo://app?vid=44aff561-0aa7-4ed3-8394-3d4eb76aadfb"},"vehicle_type_id":"4","last_reported":1761584947,"current_range_meters":3600,"station_id":"ce4bgv12rcd13ifvqcp0","pricing_plan_id":"cebpf4jnsgd1na2vs0mg"},{"bike_id":"9d6b4013-791e-4fb5-9429-e9cb1dcfb06f","system_id":"levelo_inurba_marseille","lat":43.29196,"lon":5.39326,"is_reserved":false,"is_disabled":false,"rental_uris":{"android":"levelo://app?vid=9d6b4013-791e-4fb5-9429-e9cb1dcfb06f","ios":"levelo://app?vid=9d6b4013-791e-4fb5-9429-e9cb1dcfb06f"},"vehicle_type_id":"4","last_reported":1761584947,"current_range_meters":3600,"station_id":"ce4bh192rcd13ifvqdd0","pricing_plan_id":"cebpf4jnsgd1na2vs0mg"},{"bike_id":"69880247-38f2-48e7-ab49-326f3d5eca30","system_id":"levelo_inurba_marseille","lat":43.21185,"lon":5.35088,"is_reserved":false,"is_disabled":false,"rental_uris":{"android":"levelo://app?vid=69880247-38f2-48e7-ab49-326f3d5eca30","ios":"levelo://app?vid=69880247-38f2-48e7-ab49-326f3d5eca30"},"vehicle_type_id":"4","last_reported":1761584947,"current_range_meters":3600,"station_id":"st_cvj6sg6p6f1abm77japg","pricing_plan_id":"cebpf4jnsgd1na2vs0mg"},{"bike_id":"cc60ad57-edf9-43e3-a633-3db7f7ee585e","system_id":"levelo_inurba_marseille","lat":43.29557,"lon":5.42297,"is_reserved":false,"is_disabled":false,"rental_uris":{"android":"levelo://app?vid=cc60ad57-edf9-43e3-a633-3db7f7ee585e","ios":"levelo://app?vid=cc60ad57-edf9-43e3-a633-3db7f7ee585e"},"vehicle_type_id":"4","last_reported":1761584947,"current_range_meters":4000,"station_id":"ce4bhph2rcd13ifvqhdg","pricing_plan_id":"cebpf4jnsgd1na2vs0mg"},{"bike_id":"27497e9e-a315-4973-a119-b689267fd71e","system_id":"levelo_inurba_marseille","lat":43.28604,"lon":5.37059,"is_reserved":false,"is_disabled":false,"rental_uris":{"android":"levelo://app?vid=27497e9e-a315-4973-a119-b689267fd71e","ios":"levelo://app?vid=27497e9e-a315-4973-a119-b689267fd71e"},"vehicle_type_id":"4","last_reported":1761584947,"current_range_meters":4000,"station_id":"ce4bht12rcd13ifvqi60","pricing_plan_id":"cebpf4jnsgd1na2vs0mg"},{"bike_id":"e4983d77-017e-409a-abfd-357eb9bfd10d","system_id":"levelo_inurba_marseille","lat":43.28615,"lon":5.35104,"is_reserved":false,"is_disabled":false,"rental_uris":{"android":"levelo://app?vid=e4983d77-017e-409a-abfd-357eb9bfd10d","ios":"levelo://app?vid=e4983d77-017e-409a-abfd-357eb9bfd10d"},"vehicle_type_id":"4","last_reported":1761584947,"current_range_meters":4400,"station_id":"ce4bhch2rcd13ifvqeug","pricing_plan_id":"cebpf4jnsgd1na2vs0mg"},{"bike_id":"e45589e6-7464-42c0-85d1-eba0dc1f05ac","system_id":"levelo_inurba_marseille","lat":43.32105,"lon":5.36771,"is_reserved":false,"is_disabled":false,"rental_uris":{"android":"levelo://app?vid=e45589e6-7464-42c0-85d1-eba0dc1f05ac","ios":"levelo://app?vid=e45589e6-7464-42c0-85d1-eba0dc1f05ac"},"vehicle_type_id":"4","last_reported":1761584947,"current_range_meters":4800,"station_id":"ce4bhrh2rcd13ifvqhug","pricing_plan_id":"cebpf4jnsgd1na2vs0mg"},{"bike_id":"b46bdf52-4cdb-4a90-a88d-d6930918d633","system_id":"levelo_inurba_marseille","lat":43.294061,"lon":5.386702,"is_reserved":false,"is_disabled":false,"rental_uris":{"android":"levelo://app?vid=b46bdf52-4cdb-4a90-a88d-d6930918d633","ios":"levelo://app?vid=b46bdf52-4cdb-4a90-a88d-d6930918d633"},"vehicle_type_id":"4","last_reported":1761584947,"current_range_meters":4800,"station_id":"ce4bhr12rcd13ifvqhpg","pricing_plan_id":"cebpf4jnsgd1na2vs0mg"},{"bike_id":"042a2bf9-3287-4200-b358-f4cd33c4515f","system_id":"levelo_inurba_marseille","lat":43.279982,"lon":5.416645,"is_reserved":false,"is_disabled":false,"rental_uris":{"android":"levelo://app?vid=042a2bf9-3287-4200-b358-f4cd33c4515f","ios":"levelo://app?vid=042a2bf9-3287-4200-b358-f4cd33c4515f"},"vehicle_type_id":"4","last_reported":1761584947,"current_range_meters":4800,"station_id":"ce4bho12rcd13ifvqh1g","pricing_plan_id":"cebpf4jnsgd1na2vs0mg"},{"bike_id":"931e0026-13e6-46f0-a74d-4c2650724c27","system_id":"levelo_inurba_marseille","lat":43.29938,"lon":5.3656,"is_reserved":false,"is_disabled":false,"rental_uris":{"android":"levelo://app?vid=931e0026-13e6-46f0-a74d-4c2650724c27","ios":"levelo://app?vid=931e0026-13e6-46f0-a74d-4c2650724c27"},"vehicle_type_id":"4","last_reported":1761584947,"current_range_meters":4800,"station_id":"ce4bgm92rcd13ifvqbr0","pricing_plan_id":"cebpf4jnsgd1na2vs0mg"},{"bike_id":"6ee611b3-bf13-495e-a0dc-dfd1a8718271","system_id":"levelo_inurba_marseille","lat":43.29806,"lon":5.44062,"is_reserved":false,"is_disabled":false,"rental_uris":{"android":"levelo://app?vid=6ee611b3-bf13-495e-a0dc-dfd1a8718271","ios":"levelo://app?vid=6ee611b3-bf13-495e-a0dc-dfd1a8718271"},"vehicle_type_id":"4","last_reported":1761584947,"current_range_meters":5600,"station_id":"st_d3jp68qikq2c7381ktn0","pricing_plan_id":"cebpf4jnsgd1na2vs0mg"},{"bike_id":"376f37db-9367-433a-9ac4-7f57991dd845","system_id":"levelo_inurba_marseille","lat":43.32082,"lon":5.36809,"is_reserved":false,"is_disabled":false,"rental_uris":{"android":"levelo://app?vid=376f37db-9367-433a-9ac4-7f57991dd845","ios":"levelo://app?vid=376f37db-9367-433a-9ac4-7f57991dd845"},"vehicle_type_id":"4","last_reported":1761584947,"current_range_meters":5600,"station_id":"ce4bhrh2rcd13ifvqhug","pricing_plan_id":"cebpf4jnsgd1na2vs0mg"},{"bike_id":"120855c7-e689-42b8-9d39-8c8e8822fe83","system_id":"levelo_inurba_marseille","lat":43.27834,"lon":5.39205,"is_reserved":false,"is_disabled":false,"rental_uris":{"android":"levelo://app?vid=120855c7-e689-42b8-9d39-8c8e8822fe83","ios":"levelo://app?vid=120855c7-e689-42b8-9d39-8c8e8822fe83"},"vehicle_type_id":"4","last_reported":1761584947,"current_range_meters":5600,"station_id":"ce4bhjp2rcd13ifvqga0","pricing_plan_id":"cebpf4jnsgd1na2vs0mg"},{"bike_id":"7f5aacd5-58b3-4fa2-9567-70f3a2cb8a90","system_id":"levelo_inurba_marseille","lat":43.28281,"lon":5.35064,"is_reserved":false,"is_disabled":false,"rental_uris":{"android":"levelo://app?vid=7f5aacd5-58b3-4fa2-9567-70f3a2cb8a90","ios":"levelo://app?vid=7f5aacd5-58b3-4fa2-9567-70f3a2cb8a90"},"vehicle_type_id":"4","last_reported":1761584947,"current_range_meters":5600,"station_id":"ce4bhbp2rcd13ifvqerg","pricing_plan_id":"cebpf4jnsgd1na2vs0mg"},{"bike_id":"8b731966-fea9-408d-ad51-61579cf4f05b","system_id":"levelo_inurba_marseille","lat":43.309083,"lon":5.368446,"is_reserved":false,"is_disabled":false,"rental_uris":{"android":"levelo://app?vid=8b731966-fea9-408d-ad51-61579cf4f05b","ios":"levelo://app?vid=8b731966-fea9-408d-ad51-61579cf4f05b"},"vehicle_type_id":"4","last_reported":1761584947,"current_range_meters":5600,"station_id":"ce4bgn92rcd13ifvqbvg","pricing_plan_id":"cebpf4jnsgd1na2vs0mg"},{"bike_id":"43f205a2-e983-4614-8736-553bf1acc168","system_id":"levelo_inurba_marseille","lat":43.23783,"lon":5.3664,"is_reserved":false,"is_disabled":false,"rental_uris":{"android":"levelo://app?vid=43f205a2-e983-4614-8736-553bf1acc168","ios":"levelo://app?vid=43f205a2-e983-4614-8736-553bf1acc168"},"vehicle_type_id":"4","last_reported":1761584947,"current_range_meters":5600,"station_id":"st_d3nk18o9ro0c73en2l3g","pricing_plan_id":"cebpf4jnsgd1na2vs0mg"},{"bike_id":"5a3d5874-af34-4968-8e26-81c95e5640d0","system_id":"levelo_inurba_marseille","lat":43.27309,"lon":5.39071,"is_reserved":false,"is_disabled":false,"rental_uris":{"android":"levelo://app?vid=5a3d5874-af34-4968-8e26-81c95e5640d0","ios":"levelo://app?vid=5a3d5874-af34-4968-8e26-81c95e5640d0"},"vehicle_type_id":"4","last_reported":1761584947,"current_range_meters":6000,"station_id":"ce4bhgp2rcd13ifvqfe0","pricing_plan_id":"cebpf4jnsgd1na2vs0mg"},{"bike_id":"3f7dbc8e-1fa1-44de-9e0c-7fa12176ef1b","system_id":"levelo_inurba_marseille","lat":43.28468,"lon":5.3843,"is_reserved":false,"is_disabled":false,"rental_uris":{"android":"levelo://app?vid=3f7dbc8e-1fa1-44de-9e0c-7fa12176ef1b","ios":"levelo://app?vid=3f7dbc8e-1fa1-44de-9e0c-7fa12176ef1b"},"vehicle_type_id":"4","last_reported":1761584947,"current_range_meters":6000,"station_id":"ce4bh512rcd13ifvqe3g","pricing_plan_id":"cebpf4jnsgd1na2vs0mg"},{"bike_id":"b5b62287-d3ee-447e-9fe2-9f2b8112a684","system_id":"levelo_inurba_marseille","lat":43.21193,"lon":5.35078,"is_reserved":false,"is_disabled":true,"rental_uris":{"android":"levelo://app?vid=b5b62287-d3ee-447e-9fe2-9f2b8112a684","ios":"levelo://app?vid=b5b62287-d3ee-447e-9fe2-9f2b8112a684"},"vehicle_type_id":"4","last_reported":1761584947,"current_range_meters":6000,"station_id":"","pricing_plan_id":"cebpf4jnsgd1na2vs0mg"},{"bike_id":"60cc052a-9673-41ae-a476-a3131b2a3df2","system_id":"levelo_inurba_marseille","lat":43.26558,"lon":5.3902,"is_reserved":false,"is_disabled":false,"rental_uris":{"android":"levelo://app?vid=60cc052a-9673-41ae-a476-a3131b2a3df2","ios":"levelo://app?vid=60cc052a-9673-41ae-a476-a3131b2a3df2"},"vehicle_type_id":"4","last_reported":1761584947,"current_range_meters":6000,"station_id":"ce4bhe12rcd13ifvqf30","pricing_plan_id":"cebpf4jnsgd1na2vs0mg"},{"bike_id":"e1aa20f8-799a-4567-bfd0-31e71eee617f","system_id":"levelo_inurba_marseille","lat":43.31437,"lon":5.38885,"is_reserved":false,"is_disabled":false,"rental_uris":{"android":"levelo://app?vid=e1aa20f8-799a-4567-bfd0-31e71eee617f","ios":"levelo://app?vid=e1aa20f8-799a-4567-bfd0-31e71eee617f"},"vehicle_type_id":"4","last_reported":1761584947,"current_range_meters":6400,"station_id":"","pricing_plan_id":"cebpf4jnsgd1na2vs0mg"},{"bike_id":"061179e7-5210-4852-a882-a2e14e0bd369","system_id":"levelo_inurba_marseille","lat":43.30789,"lon":5.37659,"is_reserved":false,"is_disabled":false,"rental_uris":{"android":"levelo://app?vid=061179e7-5210-4852-a882-a2e14e0bd369","ios":"levelo://app?vid=061179e7-5210-4852-a882-a2e14e0bd369"},"vehicle_type_id":"4","last_reported":1761584947,"current_range_meters":6400,"station_id":"ce4bgv92rcd13ifvqcq0","pricing_plan_id":"cebpf4jnsgd1na2vs0mg"},{"bike_id":"2bc3dfb0-336a-44a4-a38f-9947d4baf93c","system_id":"levelo_inurba_marseille","lat":43.2439,"lon":5.37069,"is_reserved":false,"is_disabled":false,"rental_uris":{"android":"levelo://app?vid=2bc3dfb0-336a-44a4-a38f-9947d4baf93c","ios":"levelo://app?vid=2bc3dfb0-336a-44a4-a38f-9947d4baf93c"},"vehicle_type_id":"4","last_reported":1761584947,"current_range_meters":6400,"station_id":"ce4bhhh2rcd13ifvqfk0","pricing_plan_id":"cebpf4jnsgd1na2vs0mg"},{"bike_id":"985cf2a5-6560-4622-9131-59ec4174ede8","system_id":"levelo_inurba_marseille","lat":43.28819,"lon":5.35265,"is_reserved":false,"is_disabled":false,"rental_uris":{"android":"levelo://app?vid=985cf2a5-6560-4622-9131-59ec4174ede8","ios":"levelo://app?vid=985cf2a5-6560-4622-9131-59ec4174ede8"},"vehicle_type_id":"4","last_reported":1761584947,"current_range_meters":6400,"station_id":"","pricing_plan_id":"cebpf4jnsgd1na2vs0mg"},{"bike_id":"4ade9d83-f2d5-4d19-a54e-74fbd9ec2b53","system_id":"levelo_inurba_marseille","lat":43.32064,"lon":5.38585,"is_reserved":false,"is_disabled":false,"rental_uris":{"android":"levelo://app?vid=4ade9d83-f2d5-4d19-a54e-74fbd9ec2b53","ios":"levelo://app?vid=4ade9d83-f2d5-4d19-a54e-74fbd9ec2b53"},"vehicle_type_id":"4","last_reported":1761584947,"current_range_meters":6400,"station_id":"","pricing_plan_id":"cebpf4jnsgd1na2vs0mg"},{"bike_id":"20a57c48-57ff-4649-b3c4-666eedc5cec4","system_id":"levelo_inurba_marseille","lat":43.25813,"lon":5.39427,"is_reserved":false,"is_disabled":false,"rental_uris":{"android":"levelo://app?vid=20a57c48-57ff-4649-b3c4-666eedc5cec4","ios":"levelo://app?vid=20a57c48-57ff-4649-b3c4-666eedc5cec4"},"vehicle_type_id":"4","last_reported":1761584947,"current_range_meters":6400,"station_id":"ce4bhip2rcd13ifvqft0","pricing_plan_id":"cebpf4jnsgd1na2vs0mg"},{"bike_id":"23b4d36e-b9af-4abc-80a7-00baee2d05d7","system_id":"levelo_inurba_marseille","lat":43.29077,"lon":5.37167,"is_reserved":false,"is_disabled":false,"rental_uris":{"android":"levelo://app?vid=23b4d36e-b9af-4abc-80a7-00baee2d05d7","ios":"levelo://app?vid=23b4d36e-b9af-4abc-80a7-00baee2d05d7"},"vehicle_type_id":"4","last_reported":1761584947,"current_range_meters":6800,"station_id":"ce4bh5p2rcd13ifvqe4g","pricing_plan_id":"cebpf4jnsgd1na2vs0mg"},{"bike_id":"54f99dfb-63a2-4cf6-9bbc-749fce55baf7","system_id":"levelo_inurba_marseille","lat":43.3206,"lon":5.41544,"is_reserved":false,"is_disabled":false,"rental_uris":{"android":"levelo://app?vid=54f99dfb-63a2-4cf6-9bbc-749fce55baf7","ios":"levelo://app?vid=54f99dfb-63a2-4cf6-9bbc-749fce55baf7"},"vehicle_type_id":"4","last_reported":1761584947,"current_range_meters":7200,"station_id":"ce4bhq92rcd13ifvqhkg","pricing_plan_id":"cebpf4jnsgd1na2vs0mg"},{"bike_id":"5081dcee-1f8b-48cc-b438-d995eec300f4","system_id":"levelo_inurba_marseille","lat":43.29034,"lon":5.37563,"is_reserved":false,"is_disabled":false,"rental_uris":{"android":"levelo://app?vid=5081dcee-1f8b-48cc-b438-d995eec300f4","ios":"levelo://app?vid=5081dcee-1f8b-48cc-b438-d995eec300f4"},"vehicle_type_id":"4","last_reported":1761584947,"current_range_meters":7200,"station_id":"ce4bh692rcd13ifvqe90","pricing_plan_id":"cebpf4jnsgd1na2vs0mg"},{"bike_id":"3deab2f6-586a-4085-a4c2-311bc4cb169f","system_id":"levelo_inurba_marseille","lat":43.28348,"lon":5.3811,"is_reserved":false,"is_disabled":false,"rental_uris":{"android":"levelo://app?vid=3deab2f6-586a-4085-a4c2-311bc4cb169f","ios":"levelo://app?vid=3deab2f6-586a-4085-a4c2-311bc4cb169f"},"vehicle_type_id":"4","last_reported":1761584947,"current_range_meters":7200,"station_id":"ce4bh412rcd13ifvqdr0","pricing_plan_id":"cebpf4jnsgd1na2vs0mg"},{"bike_id":"b3ee7f03-939b-4db8-af96-b34c06fee94b","system_id":"levelo_inurba_marseille","lat":43.302144,"lon":5.394659,"is_reserved":false,"is_disabled":false,"rental_uris":{"android":"levelo://app?vid=b3ee7f03-939b-4db8-af96-b34c06fee94b","ios":"levelo://app?vid=b3ee7f03-939b-4db8-af96-b34c06fee94b"},"vehicle_type_id":"4","last_reported":1761584947,"current_range_meters":7200,"station_id":"ce4bh0p2rcd13ifvqd70","pricing_plan_id":"cebpf4jnsgd1na2vs0mg"},{"bike_id":"8f89d206-df77-4af5-81a8-db0f78d9fd56","system_id":"levelo_inurba_marseille","lat":43.30144,"lon":5.39868,"is_reserved":false,"is_disabled":false,"rental_uris":{"android":"levelo://app?vid=8f89d206-df77-4af5-81a8-db0f78d9fd56","ios":"levelo://app?vid=8f89d206-df77-4af5-81a8-db0f78d9fd56"},"vehicle_type_id":"4","last_reported":1761584947,"current_range_meters":7200,"station_id":"ce4bh0h2rcd13ifvqd40","pricing_plan_id":"cebpf4jnsgd1na2vs0mg"},{"bike_id":"6e71b972-d279-435f-b20d-ed8a5fd1de21","system_id":"levelo_inurba_marseille","lat":43.29537,"lon":5.38543,"is_reserved":false,"is_disabled":false,"rental_uris":{"android":"levelo://app?vid=6e71b972-d279-435f-b20d-ed8a5fd1de21","ios":"levelo://app?vid=6e71b972-d279-435f-b20d-ed8a5fd1de21"},"vehicle_type_id":"4","last_reported":1761584947,"current_range_meters":7200,"station_id":"ce4bgih2rcd13ifvqba0","pricing_plan_id":"cebpf4jnsgd1na2vs0mg"},{"bike_id":"be7d5fca-568e-4dd9-a826-8290438c6644","system_id":"levelo_inurba_marseille","lat":43.31171,"lon":5.38712,"is_reserved":false,"is_disabled":false,"rental_uris":{"android":"levelo://app?vid=be7d5fca-568e-4dd9-a826-8290438c6644","ios":"levelo://app?vid=be7d5fca-568e-4dd9-a826-8290438c6644"},"vehicle_type_id":"4","last_reported":1761584947,"current_range_meters":8000,"station_id":"ce4bgv12rcd13ifvqcp0","pricing_plan_id":"cebpf4jnsgd1na2vs0mg"},{"bike_id":"0dc836c5-f89d-49ee-98b8-88a8e67bc0ea","system_id":"levelo_inurba_marseille","lat":43.29034,"lon":5.35902,"is_reserved":false,"is_disabled":false,"rental_uris":{"android":"levelo://app?vid=0dc836c5-f89d-49ee-98b8-88a8e67bc0ea","ios":"levelo://app?vid=0dc836c5-f89d-49ee-98b8-88a8e67bc0ea"},"vehicle_type_id":"4","last_reported":1761584947,"current_range_meters":8000,"station_id":"ce4bha92rcd13ifvqeg0","pricing_plan_id":"cebpf4jnsgd1na2vs0mg"},{"bike_id":"65b7c6f6-3902-4971-80aa-5cb809525236","system_id":"levelo_inurba_marseille","lat":43.29961,"lon":5.385,"is_reserved":false,"is_disabled":false,"rental_uris":{"android":"levelo://app?vid=65b7c6f6-3902-4971-80aa-5cb809525236","ios":"levelo://app?vid=65b7c6f6-3902-4971-80aa-5cb809525236"},"vehicle_type_id":"4","last_reported":1761584947,"current_range_meters":8000,"station_id":"ce4bgj92rcd13ifvqbd0","pricing_plan_id":"cebpf4jnsgd1na2vs0mg"},{"bike_id":"9b22cd7e-7f13-4747-8bb9-0eff6d71fc0e","system_id":"levelo_inurba_marseille","lat":43.26053,"lon":5.3941,"is_reserved":false,"is_disabled":false,"rental_uris":{"android":"levelo://app?vid=9b22cd7e-7f13-4747-8bb9-0eff6d71fc0e","ios":"levelo://app?vid=9b22cd7e-7f13-4747-8bb9-0eff6d71fc0e"},"vehicle_type_id":"4","last_reported":1761584947,"current_range_meters":8000,"station_id":"ce4bhh92rcd13ifvqfj0","pricing_plan_id":"cebpf4jnsgd1na2vs0mg"},{"bike_id":"c0b81f28-bbba-4247-a74b-c55a34b31846","system_id":"levelo_inurba_marseille","lat":43.33258,"lon":5.41086,"is_reserved":false,"is_disabled":false,"rental_uris":{"android":"levelo://app?vid=c0b81f28-bbba-4247-a74b-c55a34b31846","ios":"levelo://app?vid=c0b81f28-bbba-4247-a74b-c55a34b31846"},"vehicle_type_id":"4","last_reported":1761584947,"current_range_meters":8400,"station_id":"","pricing_plan_id":"cebpf4jnsgd1na2vs0mg"},{"bike_id":"eee0e49a-bf39-439c-ac2b-695984aa2671","system_id":"levelo_inurba_marseille","lat":43.25339,"lon":5.42173,"is_reserved":false,"is_disabled":false,"rental_uris":{"android":"levelo://app?vid=eee0e49a-bf39-439c-ac2b-695984aa2671","ios":"levelo://app?vid=eee0e49a-bf39-439c-ac2b-695984aa2671"},"vehicle_type_id":"4","last_reported":1761584947,"current_range_meters":8400,"station_id":"st_d2m65c5bi1j21697t3ng","pricing_plan_id":"cebpf4jnsgd1na2vs0mg"},{"bike_id":"41d45b45-3a52-4b5a-b2b3-1e62d5490ada","system_id":"levelo_inurba_marseille","lat":43.285324,"lon":5.440948,"is_reserved":false,"is_disabled":false,"rental_uris":{"android":"levelo://app?vid=41d45b45-3a52-4b5a-b2b3-1e62d5490ada","ios":"levelo://app?vid=41d45b45-3a52-4b5a-b2b3-1e62d5490ada"},"vehicle_type_id":"4","last_reported":1761584947,"current_range_meters":8400,"station_id":"st_d3j3df2ikq2c7380ej80","pricing_plan_id":"cebpf4jnsgd1na2vs0mg"},{"bike_id":"e843a755-d243-45b3-accf-91dfcfa1b5f8","system_id":"levelo_inurba_marseille","lat":43.26569,"lon":5.39004,"is_reserved":false,"is_disabled":false,"rental_uris":{"android":"levelo://app?vid=e843a755-d243-45b3-accf-91dfcfa1b5f8","ios":"levelo://app?vid=e843a755-d243-45b3-accf-91dfcfa1b5f8"},"vehicle_type_id":"4","last_reported":1761584947,"current_range_meters":8400,"station_id":"ce4bhe12rcd13ifvqf30","pricing_plan_id":"cebpf4jnsgd1na2vs0mg"},{"bike_id":"42b5946b-746f-472c-8152-88ab1c732584","system_id":"levelo_inurba_marseille","lat":43.25109,"lon":5.40325,"is_reserved":false,"is_disabled":false,"rental_uris":{"android":"levelo://app?vid=42b5946b-746f-472c-8152-88ab1c732584","ios":"levelo://app?vid=42b5946b-746f-472c-8152-88ab1c732584"},"vehicle_type_id":"4","last_reported":1761584947,"current_range_meters":8400,"station_id":"ce4bhlh2rcd13ifvqgig","pricing_plan_id":"cebpf4jnsgd1na2vs0mg"},{"bike_id":"28cc9e06-3b6c-4820-a97b-ba0eb3660048","system_id":"levelo_inurba_marseille","lat":43.25335,"lon":5.42178,"is_reserved":false,"is_disabled":false,"rental_uris":{"android":"levelo://app?vid=28cc9e06-3b6c-4820-a97b-ba0eb3660048","ios":"levelo://app?vid=28cc9e06-3b6c-4820-a97b-ba0eb3660048"},"vehicle_type_id":"4","last_reported":1761584947,"current_range_meters":8800,"station_id":"st_d2m65c5bi1j21697t3ng","pricing_plan_id":"cebpf4jnsgd1na2vs0mg"},{"bike_id":"64b75b4a-3497-4861-8cc2-90dd62cd9f5e","system_id":"levelo_inurba_marseille","lat":43.29305,"lon":5.43452,"is_reserved":false,"is_disabled":false,"rental_uris":{"android":"levelo://app?vid=64b75b4a-3497-4861-8cc2-90dd62cd9f5e","ios":"levelo://app?vid=64b75b4a-3497-4861-8cc2-90dd62cd9f5e"},"vehicle_type_id":"4","last_reported":1761584947,"current_range_meters":8800,"station_id":"","pricing_plan_id":"cebpf4jnsgd1na2vs0mg"},{"bike_id":"268bc935-0780-400b-9081-850c67f90cf0","system_id":"levelo_inurba_marseille","lat":43.26953,"lon":5.3864,"is_reserved":false,"is_disabled":false,"rental_uris":{"android":"levelo://app?vid=268bc935-0780-400b-9081-850c67f90cf0","ios":"levelo://app?vid=268bc935-0780-400b-9081-850c67f90cf0"},"vehicle_type_id":"4","last_reported":1761584947,"current_range_meters":8800,"station_id":"ce4bhh92rcd13ifvqfh0","pricing_plan_id":"cebpf4jnsgd1na2vs0mg"},{"bike_id":"e4ccce50-4824-4895-aa8c-033835526f23","system_id":"levelo_inurba_marseille","lat":43.318832,"lon":5.399804,"is_reserved":false,"is_disabled":false,"rental_uris":{"android":"levelo://app?vid=e4ccce50-4824-4895-aa8c-033835526f23","ios":"levelo://app?vid=e4ccce50-4824-4895-aa8c-033835526f23"},"vehicle_type_id":"4","last_reported":1761584947,"current_range_meters":8800,"station_id":"","pricing_plan_id":"cebpf4jnsgd1na2vs0mg"},{"bike_id":"b4161da3-6410-487c-842a-c71723a5ee6e","system_id":"levelo_inurba_marseille","lat":43.23484,"lon":5.35975,"is_reserved":false,"is_disabled":false,"rental_uris":{"android":"levelo://app?vid=b4161da3-6410-487c-842a-c71723a5ee6e","ios":"levelo://app?vid=b4161da3-6410-487c-842a-c71723a5ee6e"},"vehicle_type_id":"4","last_reported":1761584947,"current_range_meters":8800,"station_id":"","pricing_plan_id":"cebpf4jnsgd1na2vs0mg"},{"bike_id":"cbadf177-9e49-4fd3-aa11-81e7a8e56f60","system_id":"levelo_inurba_marseille","lat":43.27557,"lon":5.38429,"is_reserved":false,"is_disabled":false,"rental_uris":{"android":"levelo://app?vid=cbadf177-9e49-4fd3-aa11-81e7a8e56f60","ios":"levelo://app?vid=cbadf177-9e49-4fd3-aa11-81e7a8e56f60"},"vehicle_type_id":"4","last_reported":1761584947,"current_range_meters":8800,"station_id":"ce4bhh92rcd13ifvqfi0","pricing_plan_id":"cebpf4jnsgd1na2vs0mg"},{"bike_id":"de5cece4-6186-4ccb-b70e-a25e8bd3fc86","system_id":"levelo_inurba_marseille","lat":43.337444,"lon":5.374475,"is_reserved":false,"is_disabled":false,"rental_uris":{"android":"levelo://app?vid=de5cece4-6186-4ccb-b70e-a25e8bd3fc86","ios":"levelo://app?vid=de5cece4-6186-4ccb-b70e-a25e8bd3fc86"},"vehicle_type_id":"4","last_reported":1761584947,"current_range_meters":8800,"station_id":"","pricing_plan_id":"cebpf4jnsgd1na2vs0mg"},{"bike_id":"0066be3a-9a32-4fe7-aec3-818acab1ea2f","system_id":"levelo_inurba_marseille","lat":43.279754,"lon":5.418126,"is_reserved":false,"is_disabled":false,"rental_uris":{"android":"levelo://app?vid=0066be3a-9a32-4fe7-aec3-818acab1ea2f","ios":"levelo://app?vid=0066be3a-9a32-4fe7-aec3-818acab1ea2f"},"vehicle_type_id":"4","last_reported":1761584947,"current_range_meters":9200,"station_id":"ce4bhnh2rcd13ifvqgug","pricing_plan_id":"cebpf4jnsgd1na2vs0mg"},{"bike_id":"8847af5d-c1ad-4d8d-a5c1-273c3b41c105","system_id":"levelo_inurba_marseille","lat":43.32242,"lon":5.41962,"is_reserved":false,"is_disabled":false,"rental_uris":{"android":"levelo://app?vid=8847af5d-c1ad-4d8d-a5c1-273c3b41c105","ios":"levelo://app?vid=8847af5d-c1ad-4d8d-a5c1-273c3b41c105"},"vehicle_type_id":"4","last_reported":1761584947,"current_range_meters":9200,"station_id":"","pricing_plan_id":"cebpf4jnsgd1na2vs0mg"},{"bike_id":"de0ca7a8-116a-46c8-8c50-6b445a473423","system_id":"levelo_inurba_marseille","lat":43.28867,"lon":5.42512,"is_reserved":false,"is_disabled":false,"rental_uris":{"android":"levelo://app?vid=de0ca7a8-116a-46c8-8c50-6b445a473423","ios":"levelo://app?vid=de0ca7a8-116a-46c8-8c50-6b445a473423"},"vehicle_type_id":"4","last_reported":1761584947,"current_range_meters":9200,"station_id":"st_d3b462108ojc7389ooeg","pricing_plan_id":"cebpf4jnsgd1na2vs0mg"},{"bike_id":"1cfb0990-a840-4e8a-81c5-1ebf5cb081d5","system_id":"levelo_inurba_marseille","lat":43.295275,"lon":5.37505,"is_reserved":false,"is_disabled":false,"rental_uris":{"android":"levelo://app?vid=1cfb0990-a840-4e8a-81c5-1ebf5cb081d5","ios":"levelo://app?vid=1cfb0990-a840-4e8a-81c5-1ebf5cb081d5"},"vehicle_type_id":"4","last_reported":1761584947,"current_range_meters":9200,"station_id":"ce4bgkp2rcd13ifvqbmg","pricing_plan_id":"cebpf4jnsgd1na2vs0mg"},{"bike_id":"523d255b-f530-4fb1-bc9d-ee67b52a9b1a","system_id":"levelo_inurba_marseille","lat":43.29776,"lon":5.39341,"is_reserved":false,"is_disabled":false,"rental_uris":{"android":"levelo://app?vid=523d255b-f530-4fb1-bc9d-ee67b52a9b1a","ios":"levelo://app?vid=523d255b-f530-4fb1-bc9d-ee67b52a9b1a"},"vehicle_type_id":"4","last_reported":1761584947,"current_range_meters":9600,"station_id":"chh1huq6cuj3fo74tm60","pricing_plan_id":"cebpf4jnsgd1na2vs0mg"},{"bike_id":"d9bb607d-1ecc-49cc-9f82-e52383a3bc84","system_id":"levelo_inurba_marseille","lat":43.29332,"lon":5.41149,"is_reserved":false,"is_disabled":false,"rental_uris":{"android":"levelo://app?vid=d9bb607d-1ecc-49cc-9f82-e52383a3bc84","ios":"levelo://app?vid=d9bb607d-1ecc-49cc-9f82-e52383a3bc84"},"vehicle_type_id":"4","last_reported":1761584947,"current_range_meters":9600,"station_id":"","pricing_plan_id":"cebpf4jnsgd1na2vs0mg"},{"bike_id":"d27d7c57-3a64-4abc-af13-c31838ac7048","system_id":"levelo_inurba_marseille","lat":43.2808,"lon":5.3966,"is_reserved":false,"is_disabled":false,"rental_uris":{"android":"levelo://app?vid=d27d7c57-3a64-4abc-af13-c31838ac7048","ios":"levelo://app?vid=d27d7c57-3a64-4abc-af13-c31838ac7048"},"vehicle_type_id":"4","last_reported":1761584947,"current_range_meters":9600,"station_id":"ce4bho12rcd13ifvqh2g","pricing_plan_id":"cebpf4jnsgd1na2vs0mg"},{"bike_id":"fed12bd8-75f3-4596-a175-79ce7bc9aaa7","system_id":"levelo_inurba_marseille","lat":43.30148,"lon":5.39877,"is_reserved":false,"is_disabled":false,"rental_uris":{"android":"levelo://app?vid=fed12bd8-75f3-4596-a175-79ce7bc9aaa7","ios":"levelo://app?vid=fed12bd8-75f3-4596-a175-79ce7bc9aaa7"},"vehicle_type_id":"4","last_reported":1761584947,"current_range_meters":9600,"station_id":"ce4bh0h2rcd13ifvqd40","pricing_plan_id":"cebpf4jnsgd1na2vs0mg"},{"bike_id":"4315e312-91dd-4524-9427-1f1035e218f2","system_id":"levelo_inurba_marseille","lat":43.2844,"lon":5.39206,"is_reserved":false,"is_disabled":false,"rental_uris":{"android":"levelo://app?vid=4315e312-91dd-4524-9427-1f1035e218f2","ios":"levelo://app?vid=4315e312-91dd-4524-9427-1f1035e218f2"},"vehicle_type_id":"4","last_reported":1761584947,"current_range_meters":9600,"station_id":"ce4bhoh2rcd13ifvqh5g","pricing_plan_id":"cebpf4jnsgd1na2vs0mg"},{"bike_id":"0a57cc2c-de63-413b-99aa-9c76333e6184","system_id":"levelo_inurba_marseille","lat":43.28364,"lon":5.38631,"is_reserved":false,"is_disabled":false,"rental_uris":{"android":"levelo://app?vid=0a57cc2c-de63-413b-99aa-9c76333e6184","ios":"levelo://app?vid=0a57cc2c-de63-413b-99aa-9c76333e6184"},"vehicle_type_id":"4","last_reported":1761584947,"current_range_meters":9600,"station_id":"ce4bh492rcd13ifvqdvg","pricing_plan_id":"cebpf4jnsgd1na2vs0mg"},{"bike_id":"7348219f-62a2-4f61-9dc3-4c6ae6e126f0","system_id":"levelo_inurba_marseille","lat":43.33733,"lon":5.37447,"is_reserved":false,"is_disabled":false,"rental_uris":{"android":"levelo://app?vid=7348219f-62a2-4f61-9dc3-4c6ae6e126f0","ios":"levelo://app?vid=7348219f-62a2-4f61-9dc3-4c6ae6e126f0"},"vehicle_type_id":"4","last_reported":1761584947,"current_range_meters":10000,"station_id":"","pricing_plan_id":"cebpf4jnsgd1na2vs0mg"},{"bike_id":"74ad1e51-e842-41b7-aab9-70c940e25f55","system_id":"levelo_inurba_marseille","lat":43.21744,"lon":5.34607,"is_reserved":false,"is_disabled":true,"rental_uris":{"android":"levelo://app?vid=74ad1e51-e842-41b7-aab9-70c940e25f55","ios":"levelo://app?vid=74ad1e51-e842-41b7-aab9-70c940e25f55"},"vehicle_type_id":"4","last_reported":1761584947,"current_range_meters":10000,"station_id":"st_cvj6r9ubvosntc0bgbag","pricing_plan_id":"cebpf4jnsgd1na2vs0mg"},{"bike_id":"19d7412f-588c-4540-9681-575d42df61e7","system_id":"levelo_inurba_marseille","lat":43.29029,"lon":5.38647,"is_reserved":false,"is_disabled":false,"rental_uris":{"android":"levelo://app?vid=19d7412f-588c-4540-9681-575d42df61e7","ios":"levelo://app?vid=19d7412f-588c-4540-9681-575d42df61e7"},"vehicle_type_id":"4","last_reported":1761584947,"current_range_meters":10000,"station_id":"ce4bh4p2rcd13ifvqe0g","pricing_plan_id":"cebpf4jnsgd1na2vs0mg"},{"bike_id":"abd1f835-703a-4547-8e1e-1b5622daae5b","system_id":"levelo_inurba_marseille","lat":43.31162,"lon":5.38728,"is_reserved":false,"is_disabled":false,"rental_uris":{"android":"levelo://app?vid=abd1f835-703a-4547-8e1e-1b5622daae5b","ios":"levelo://app?vid=abd1f835-703a-4547-8e1e-1b5622daae5b"},"vehicle_type_id":"4","last_reported":1761584947,"current_range_meters":10000,"station_id":"ce4bgv12rcd13ifvqcp0","pricing_plan_id":"cebpf4jnsgd1na2vs0mg"},{"bike_id":"8220ba87-c5c1-44ec-a3cc-6bde40ecc34b","system_id":"levelo_inurba_marseille","lat":43.304287,"lon":5.388957,"is_reserved":false,"is_disabled":false,"rental_uris":{"android":"levelo://app?vid=8220ba87-c5c1-44ec-a3cc-6bde40ecc34b","ios":"levelo://app?vid=8220ba87-c5c1-44ec-a3cc-6bde40ecc34b"},"vehicle_type_id":"4","last_reported":1761584947,"current_range_meters":10000,"station_id":"ce4bgk12rcd13ifvqbi0","pricing_plan_id":"cebpf4jnsgd1na2vs0mg"},{"bike_id":"3649abed-02a7-4f2d-af4e-80269bab9949","system_id":"levelo_inurba_marseille","lat":43.29852,"lon":5.36288,"is_reserved":false,"is_disabled":false,"rental_uris":{"android":"levelo://app?vid=3649abed-02a7-4f2d-af4e-80269bab9949","ios":"levelo://app?vid=3649abed-02a7-4f2d-af4e-80269bab9949"},"vehicle_type_id":"4","last_reported":1761584947,"current_range_meters":10800,"station_id":"ce4bgpp2rcd13ifvqc3g","pricing_plan_id":"cebpf4jnsgd1na2vs0mg"},{"bike_id":"5ee58c9b-33f8-42e3-bac8-bb363eac01e8","system_id":"levelo_inurba_marseille","lat":43.24386,"lon":5.37056,"is_reserved":false,"is_disabled":false,"rental_uris":{"android":"levelo://app?vid=5ee58c9b-33f8-42e3-bac8-bb363eac01e8","ios":"levelo://app?vid=5ee58c9b-33f8-42e3-bac8-bb363eac01e8"},"vehicle_type_id":"4","last_reported":1761584947,"current_range_meters":10800,"station_id":"ce4bhhh2rcd13ifvqfk0","pricing_plan_id":"cebpf4jnsgd1na2vs0mg"},{"bike_id":"34c394a6-84e4-4122-94a2-f760495f6194","system_id":"levelo_inurba_marseille","lat":43.295145,"lon":5.389727,"is_reserved":false,"is_disabled":false,"rental_uris":{"android":"levelo://app?vid=34c394a6-84e4-4122-94a2-f760495f6194","ios":"levelo://app?vid=34c394a6-84e4-4122-94a2-f760495f6194"},"vehicle_type_id":"4","last_reported":1761584947,"current_range_meters":10800,"station_id":"ce4bh3p2rcd13ifvqdp0","pricing_plan_id":"cebpf4jnsgd1na2vs0mg"},{"bike_id":"2f9052af-3d8d-4232-8900-ec445969cf07","system_id":"levelo_inurba_marseille","lat":43.30318,"lon":5.40441,"is_reserved":false,"is_disabled":false,"rental_uris":{"android":"levelo://app?vid=2f9052af-3d8d-4232-8900-ec445969cf07","ios":"levelo://app?vid=2f9052af-3d8d-4232-8900-ec445969cf07"},"vehicle_type_id":"4","last_reported":1761584947,"current_range_meters":10800,"station_id":"ce4bh012rcd13ifvqd10","pricing_plan_id":"cebpf4jnsgd1na2vs0mg"},{"bike_id":"7ebed296-9c39-4448-8c31-14084ae11589","system_id":"levelo_inurba_marseille","lat":43.29624,"lon":5.381112,"is_reserved":false,"is_disabled":false,"rental_uris":{"android":"levelo://app?vid=7ebed296-9c39-4448-8c31-14084ae11589","ios":"levelo://app?vid=7ebed296-9c39-4448-8c31-14084ae11589"},"vehicle_type_id":"4","last_reported":1761584947,"current_range_meters":10800,"station_id":"ce4bgl12rcd13ifvqbo0","pricing_plan_id":"cebpf4jnsgd1na2vs0mg"},{"bike_id":"eb7126d9-5caa-4541-a247-2fae0f999abc","system_id":"levelo_inurba_marseille","lat":43.2997,"lon":5.384962,"is_reserved":false,"is_disabled":false,"rental_uris":{"android":"levelo://app?vid=eb7126d9-5caa-4541-a247-2fae0f999abc","ios":"levelo://app?vid=eb7126d9-5caa-4541-a247-2fae0f999abc"},"vehicle_type_id":"4","last_reported":1761584947,"current_range_meters":10800,"station_id":"ce4bgj92rcd13ifvqbd0","pricing_plan_id":"cebpf4jnsgd1na2vs0mg"},{"bike_id":"520a923d-8393-46c2-9fe4-754780c4305a","system_id":"levelo_inurba_marseille","lat":43.29484,"lon":5.43298,"is_reserved":false,"is_disabled":false,"rental_uris":{"android":"levelo://app?vid=520a923d-8393-46c2-9fe4-754780c4305a","ios":"levelo://app?vid=520a923d-8393-46c2-9fe4-754780c4305a"},"vehicle_type_id":"4","last_reported":1761584947,"current_range_meters":10800,"station_id":"st_d3j5ugp08ojc73fj9d10","pricing_plan_id":"cebpf4jnsgd1na2vs0mg"},{"bike_id":"9e766c0e-118a-4b7d-8f04-112f1f817cd3","system_id":"levelo_inurba_marseille","lat":43.29008,"lon":5.37864,"is_reserved":false,"is_disabled":true,"rental_uris":{"android":"levelo://app?vid=9e766c0e-118a-4b7d-8f04-112f1f817cd3","ios":"levelo://app?vid=9e766c0e-118a-4b7d-8f04-112f1f817cd3"},"vehicle_type_id":"4","last_reported":1761584947,"current_range_meters":10800,"station_id":"ce4bh9p2rcd13ifvqed0","pricing_plan_id":"cebpf4jnsgd1na2vs0mg"},{"bike_id":"4138d7f9-1746-48a7-a043-b88e6a819d33","system_id":"levelo_inurba_marseille","lat":43.2926,"lon":5.40903,"is_reserved":false,"is_disabled":false,"rental_uris":{"android":"levelo://app?vid=4138d7f9-1746-48a7-a043-b88e6a819d33","ios":"levelo://app?vid=4138d7f9-1746-48a7-a043-b88e6a819d33"},"vehicle_type_id":"4","last_reported":1761584947,"current_range_meters":11200,"station_id":"ce4bh192rcd13ifvqdc0","pricing_plan_id":"cebpf4jnsgd1na2vs0mg"},{"bike_id":"bca3b18c-0d56-4a2c-9a66-c7302ddd90dd","system_id":"levelo_inurba_marseille","lat":43.28233,"lon":5.39058,"is_reserved":false,"is_disabled":false,"rental_uris":{"android":"levelo://app?vid=bca3b18c-0d56-4a2c-9a66-c7302ddd90dd","ios":"levelo://app?vid=bca3b18c-0d56-4a2c-9a66-c7302ddd90dd"},"vehicle_type_id":"4","last_reported":1761584947,"current_range_meters":11200,"station_id":"ce4bhn92rcd13ifvqgsg","pricing_plan_id":"cebpf4jnsgd1na2vs0mg"},{"bike_id":"5a460eab-7cbd-4d20-8844-9a605de8a747","system_id":"levelo_inurba_marseille","lat":43.295301,"lon":5.394064,"is_reserved":false,"is_disabled":false,"rental_uris":{"android":"levelo://app?vid=5a460eab-7cbd-4d20-8844-9a605de8a747","ios":"levelo://app?vid=5a460eab-7cbd-4d20-8844-9a605de8a747"},"vehicle_type_id":"4","last_reported":1761584947,"current_range_meters":11200,"station_id":"ce4bh292rcd13ifvqdf0","pricing_plan_id":"cebpf4jnsgd1na2vs0mg"},{"bike_id":"862c7ef3-4cdf-4803-a29b-a600461c4f79","system_id":"levelo_inurba_marseille","lat":43.29223,"lon":5.36081,"is_reserved":false,"is_disabled":false,"rental_uris":{"android":"levelo://app?vid=862c7ef3-4cdf-4803-a29b-a600461c4f79","ios":"levelo://app?vid=862c7ef3-4cdf-4803-a29b-a600461c4f79"},"vehicle_type_id":"4","last_reported":1761584947,"current_range_meters":11200,"station_id":"ce4bhbh2rcd13ifvqeqg","pricing_plan_id":"cebpf4jnsgd1na2vs0mg"},{"bike_id":"0409a64e-f320-4495-984b-f0594096fbcf","system_id":"levelo_inurba_marseille","lat":43.28607,"lon":5.35109,"is_reserved":false,"is_disabled":false,"rental_uris":{"android":"levelo://app?vid=0409a64e-f320-4495-984b-f0594096fbcf","ios":"levelo://app?vid=0409a64e-f320-4495-984b-f0594096fbcf"},"vehicle_type_id":"4","last_reported":1761584947,"current_range_meters":11600,"station_id":"ce4bhch2rcd13ifvqeug","pricing_plan_id":"cebpf4jnsgd1na2vs0mg"},{"bike_id":"85728c96-56be-48e3-abfe-9ecc31db8b1a","system_id":"levelo_inurba_marseille","lat":43.26476,"lon":5.39558,"is_reserved":false,"is_disabled":false,"rental_uris":{"android":"levelo://app?vid=85728c96-56be-48e3-abfe-9ecc31db8b1a","ios":"levelo://app?vid=85728c96-56be-48e3-abfe-9ecc31db8b1a"},"vehicle_type_id":"4","last_reported":1761584947,"current_range_meters":11600,"station_id":"ce4bhi12rcd13ifvqfq0","pricing_plan_id":"cebpf4jnsgd1na2vs0mg"},{"bike_id":"b17d802e-f898-4b39-801f-bfe55e9eb63b","system_id":"levelo_inurba_marseille","lat":43.287236,"lon":5.360911,"is_reserved":false,"is_disabled":false,"rental_uris":{"android":"levelo://app?vid=b17d802e-f898-4b39-801f-bfe55e9eb63b","ios":"levelo://app?vid=b17d802e-f898-4b39-801f-bfe55e9eb63b"},"vehicle_type_id":"4","last_reported":1761584947,"current_range_meters":11600,"station_id":"cki0cbj6b192h4jlfktg","pricing_plan_id":"cebpf4jnsgd1na2vs0mg"},{"bike_id":"d9ef5462-f283-4c70-90db-fdb906b67df3","system_id":"levelo_inurba_marseille","lat":43.2799,"lon":5.41696,"is_reserved":false,"is_disabled":false,"rental_uris":{"android":"levelo://app?vid=d9ef5462-f283-4c70-90db-fdb906b67df3","ios":"levelo://app?vid=d9ef5462-f283-4c70-90db-fdb906b67df3"},"vehicle_type_id":"4","last_reported":1761584947,"current_range_meters":11600,"station_id":"ce4bho12rcd13ifvqh1g","pricing_plan_id":"cebpf4jnsgd1na2vs0mg"},{"bike_id":"97d4ce55-e0f1-43ae-843a-117dc12883bc","system_id":"levelo_inurba_marseille","lat":43.30292,"lon":5.36746,"is_reserved":false,"is_disabled":false,"rental_uris":{"android":"levelo://app?vid=97d4ce55-e0f1-43ae-843a-117dc12883bc","ios":"levelo://app?vid=97d4ce55-e0f1-43ae-843a-117dc12883bc"},"vehicle_type_id":"4","last_reported":1761584947,"current_range_meters":11600,"station_id":"","pricing_plan_id":"cebpf4jnsgd1na2vs0mg"},{"bike_id":"5c4cb641-1e54-4c27-9d52-a9221a19e2d2","system_id":"levelo_inurba_marseille","lat":43.29754,"lon":5.42784,"is_reserved":false,"is_disabled":false,"rental_uris":{"android":"levelo://app?vid=5c4cb641-1e54-4c27-9d52-a9221a19e2d2","ios":"levelo://app?vid=5c4cb641-1e54-4c27-9d52-a9221a19e2d2"},"vehicle_type_id":"4","last_reported":1761584947,"current_range_meters":12000,"station_id":"st_d3md5207bmas73dh9klg","pricing_plan_id":"cebpf4jnsgd1na2vs0mg"},{"bike_id":"a5e97cf5-21a8-40b7-8e91-21aa332d6351","system_id":"levelo_inurba_marseille","lat":43.30099,"lon":5.43116,"is_reserved":false,"is_disabled":false,"rental_uris":{"android":"levelo://app?vid=a5e97cf5-21a8-40b7-8e91-21aa332d6351","ios":"levelo://app?vid=a5e97cf5-21a8-40b7-8e91-21aa332d6351"},"vehicle_type_id":"4","last_reported":1761584947,"current_range_meters":12000,"station_id":"st_d3js3co5814s73ftftug","pricing_plan_id":"cebpf4jnsgd1na2vs0mg"},{"bike_id":"f6f41915-49e3-4fb8-8c5c-96d42e084e15","system_id":"levelo_inurba_marseille","lat":43.32057,"lon":5.37117,"is_reserved":false,"is_disabled":false,"rental_uris":{"android":"levelo://app?vid=f6f41915-49e3-4fb8-8c5c-96d42e084e15","ios":"levelo://app?vid=f6f41915-49e3-4fb8-8c5c-96d42e084e15"},"vehicle_type_id":"4","last_reported":1761584947,"current_range_meters":12000,"station_id":"","pricing_plan_id":"cebpf4jnsgd1na2vs0mg"},{"bike_id":"ae52d081-45a5-47a2-b24e-b3f52675f8d2","system_id":"levelo_inurba_marseille","lat":43.286653,"lon":5.363476,"is_reserved":false,"is_disabled":false,"rental_uris":{"android":"levelo://app?vid=ae52d081-45a5-47a2-b24e-b3f52675f8d2","ios":"levelo://app?vid=ae52d081-45a5-47a2-b24e-b3f52675f8d2"},"vehicle_type_id":"4","last_reported":1761584947,"current_range_meters":12000,"station_id":"ce4bhah2rcd13ifvqej0","pricing_plan_id":"cebpf4jnsgd1na2vs0mg"},{"bike_id":"2750492c-2b2a-461b-b4d4-accb4cb60a3a","system_id":"levelo_inurba_marseille","lat":43.2551,"lon":5.37656,"is_reserved":false,"is_disabled":false,"rental_uris":{"android":"levelo://app?vid=2750492c-2b2a-461b-b4d4-accb4cb60a3a","ios":"levelo://app?vid=2750492c-2b2a-461b-b4d4-accb4cb60a3a"},"vehicle_type_id":"4","last_reported":1761584947,"current_range_meters":12000,"station_id":"ce4bhh12rcd13ifvqff0","pricing_plan_id":"cebpf4jnsgd1na2vs0mg"},{"bike_id":"e71b6206-a6d5-4005-9482-16dc6b7bd81c","system_id":"levelo_inurba_marseille","lat":43.29875,"lon":5.39742,"is_reserved":false,"is_disabled":false,"rental_uris":{"android":"levelo://app?vid=e71b6206-a6d5-4005-9482-16dc6b7bd81c","ios":"levelo://app?vid=e71b6206-a6d5-4005-9482-16dc6b7bd81c"},"vehicle_type_id":"4","last_reported":1761584947,"current_range_meters":12000,"station_id":"ce4bh0h2rcd13ifvqd50","pricing_plan_id":"cebpf4jnsgd1na2vs0mg"},{"bike_id":"70eca546-3e4c-4347-a33c-f4ed582fa2eb","system_id":"levelo_inurba_marseille","lat":43.289437,"lon":5.363867,"is_reserved":false,"is_disabled":false,"rental_uris":{"android":"levelo://app?vid=70eca546-3e4c-4347-a33c-f4ed582fa2eb","ios":"levelo://app?vid=70eca546-3e4c-4347-a33c-f4ed582fa2eb"},"vehicle_type_id":"4","last_reported":1761584947,"current_range_meters":12000,"station_id":"ce4bhc92rcd13ifvqetg","pricing_plan_id":"cebpf4jnsgd1na2vs0mg"},{"bike_id":"71fe0d6a-f99e-45a0-9c75-e294b78524b2","system_id":"levelo_inurba_marseille","lat":43.21668,"lon":5.34628,"is_reserved":false,"is_disabled":false,"rental_uris":{"android":"levelo://app?vid=71fe0d6a-f99e-45a0-9c75-e294b78524b2","ios":"levelo://app?vid=71fe0d6a-f99e-45a0-9c75-e294b78524b2"},"vehicle_type_id":"4","last_reported":1761584947,"current_range_meters":12400,"station_id":"","pricing_plan_id":"cebpf4jnsgd1na2vs0mg"},{"bike_id":"6917b877-4b9f-44c4-9ded-b5f9bf4a0ba8","system_id":"levelo_inurba_marseille","lat":43.293091,"lon":5.374489,"is_reserved":false,"is_disabled":false,"rental_uris":{"android":"levelo://app?vid=6917b877-4b9f-44c4-9ded-b5f9bf4a0ba8","ios":"levelo://app?vid=6917b877-4b9f-44c4-9ded-b5f9bf4a0ba8"},"vehicle_type_id":"4","last_reported":1761584947,"current_range_meters":12400,"station_id":"ce4bgi12rcd13ifvqb70","pricing_plan_id":"cebpf4jnsgd1na2vs0mg"},{"bike_id":"f5adc0f6-8f78-420c-a3cc-2381696afa4a","system_id":"levelo_inurba_marseille","lat":43.28862,"lon":5.42518,"is_reserved":false,"is_disabled":false,"rental_uris":{"android":"levelo://app?vid=f5adc0f6-8f78-420c-a3cc-2381696afa4a","ios":"levelo://app?vid=f5adc0f6-8f78-420c-a3cc-2381696afa4a"},"vehicle_type_id":"4","last_reported":1761584947,"current_range_meters":12400,"station_id":"st_d3b462108ojc7389ooeg","pricing_plan_id":"cebpf4jnsgd1na2vs0mg"},{"bike_id":"d7e10567-5cf9-46b6-b177-742874b8ca9f","system_id":"levelo_inurba_marseille","lat":43.28412,"lon":5.34984,"is_reserved":false,"is_disabled":false,"rental_uris":{"android":"levelo://app?vid=d7e10567-5cf9-46b6-b177-742874b8ca9f","ios":"levelo://app?vid=d7e10567-5cf9-46b6-b177-742874b8ca9f"},"vehicle_type_id":"4","last_reported":1761584947,"current_range_meters":12800,"station_id":"ce4bhbh2rcd13ifvqepg","pricing_plan_id":"cebpf4jnsgd1na2vs0mg"},{"bike_id":"b83891d3-7971-45ae-9af3-651a6e6209e2","system_id":"levelo_inurba_marseille","lat":43.231896,"lon":5.35554,"is_reserved":false,"is_disabled":true,"rental_uris":{"android":"levelo://app?vid=b83891d3-7971-45ae-9af3-651a6e6209e2","ios":"levelo://app?vid=b83891d3-7971-45ae-9af3-651a6e6209e2"},"vehicle_type_id":"4","last_reported":1761584947,"current_range_meters":12800,"station_id":"ce4bhu92rcd13ifvqi70","pricing_plan_id":"cebpf4jnsgd1na2vs0mg"},{"bike_id":"33536d63-32c5-4dda-b600-be1d3fbb9bcc","system_id":"levelo_inurba_marseille","lat":43.21197,"lon":5.35078,"is_reserved":false,"is_disabled":true,"rental_uris":{"android":"levelo://app?vid=33536d63-32c5-4dda-b600-be1d3fbb9bcc","ios":"levelo://app?vid=33536d63-32c5-4dda-b600-be1d3fbb9bcc"},"vehicle_type_id":"4","last_reported":1761584947,"current_range_meters":12800,"station_id":"","pricing_plan_id":"cebpf4jnsgd1na2vs0mg"},{"bike_id":"3702874d-4839-4e4b-9a49-30663a0deac1","system_id":"levelo_inurba_marseille","lat":43.30252,"lon":5.4008,"is_reserved":false,"is_disabled":false,"rental_uris":{"android":"levelo://app?vid=3702874d-4839-4e4b-9a49-30663a0deac1","ios":"levelo://app?vid=3702874d-4839-4e4b-9a49-30663a0deac1"},"vehicle_type_id":"4","last_reported":1761584947,"current_range_meters":12800,"station_id":"ce4bgvh2rcd13ifvqcs0","pricing_plan_id":"cebpf4jnsgd1na2vs0mg"},{"bike_id":"bbbf3dbb-fbe2-4b7e-bfad-c027ca4e1c25","system_id":"levelo_inurba_marseille","lat":43.28477,"lon":5.48404,"is_reserved":false,"is_disabled":false,"rental_uris":{"android":"levelo://app?vid=bbbf3dbb-fbe2-4b7e-bfad-c027ca4e1c25","ios":"levelo://app?vid=bbbf3dbb-fbe2-4b7e-bfad-c027ca4e1c25"},"vehicle_type_id":"4","last_reported":1761584947,"current_range_meters":12800,"station_id":"st_d3svhcjqgbts73a3dn0g","pricing_plan_id":"cebpf4jnsgd1na2vs0mg"},{"bike_id":"ae40fd14-1e19-4a0b-a582-45bd8a8cbb45","system_id":"levelo_inurba_marseille","lat":43.28482,"lon":5.38555,"is_reserved":false,"is_disabled":false,"rental_uris":{"android":"levelo://app?vid=ae40fd14-1e19-4a0b-a582-45bd8a8cbb45","ios":"levelo://app?vid=ae40fd14-1e19-4a0b-a582-45bd8a8cbb45"},"vehicle_type_id":"4","last_reported":1761584947,"current_range_meters":12800,"station_id":"ce4bh8p2rcd13ifvqeb0","pricing_plan_id":"cebpf4jnsgd1na2vs0mg"},{"bike_id":"00df8af5-2871-4455-9979-a6af2c05d879","system_id":"levelo_inurba_marseille","lat":43.31379,"lon":5.38507,"is_reserved":false,"is_disabled":false,"rental_uris":{"android":"levelo://app?vid=00df8af5-2871-4455-9979-a6af2c05d879","ios":"levelo://app?vid=00df8af5-2871-4455-9979-a6af2c05d879"},"vehicle_type_id":"4","last_reported":1761584947,"current_range_meters":12800,"station_id":"ce4bgt92rcd13ifvqcf0","pricing_plan_id":"cebpf4jnsgd1na2vs0mg"},{"bike_id":"f3673a60-efd2-465f-aa18-cb0baaf105f7","system_id":"levelo_inurba_marseille","lat":43.32167,"lon":5.38636,"is_reserved":false,"is_disabled":false,"rental_uris":{"android":"levelo://app?vid=f3673a60-efd2-465f-aa18-cb0baaf105f7","ios":"levelo://app?vid=f3673a60-efd2-465f-aa18-cb0baaf105f7"},"vehicle_type_id":"4","last_reported":1761584947,"current_range_meters":12800,"station_id":"","pricing_plan_id":"cebpf4jnsgd1na2vs0mg"},{"bike_id":"d9c89d14-ffce-46f4-8ae6-64b1c7d2adfc","system_id":"levelo_inurba_marseille","lat":43.29536,"lon":5.38539,"is_reserved":false,"is_disabled":false,"rental_uris":{"android":"levelo://app?vid=d9c89d14-ffce-46f4-8ae6-64b1c7d2adfc","ios":"levelo://app?vid=d9c89d14-ffce-46f4-8ae6-64b1c7d2adfc"},"vehicle_type_id":"4","last_reported":1761584947,"current_range_meters":12800,"station_id":"ce4bgih2rcd13ifvqba0","pricing_plan_id":"cebpf4jnsgd1na2vs0mg"},{"bike_id":"02dd205b-e97c-4104-9683-066d2523fd3f","system_id":"levelo_inurba_marseille","lat":43.2196,"lon":5.34548,"is_reserved":false,"is_disabled":false,"rental_uris":{"android":"levelo://app?vid=02dd205b-e97c-4104-9683-066d2523fd3f","ios":"levelo://app?vid=02dd205b-e97c-4104-9683-066d2523fd3f"},"vehicle_type_id":"4","last_reported":1761584947,"current_range_meters":12800,"station_id":"","pricing_plan_id":"cebpf4jnsgd1na2vs0mg"},{"bike_id":"d0c081ad-3486-48c9-8966-70405df77a5b","system_id":"levelo_inurba_marseille","lat":43.22934,"lon":5.353772,"is_reserved":false,"is_disabled":false,"rental_uris":{"android":"levelo://app?vid=d0c081ad-3486-48c9-8966-70405df77a5b","ios":"levelo://app?vid=d0c081ad-3486-48c9-8966-70405df77a5b"},"vehicle_type_id":"4","last_reported":1761584947,"current_range_meters":13600,"station_id":"cpo3532slgdg3j2ikp40","pricing_plan_id":"cebpf4jnsgd1na2vs0mg"},{"bike_id":"2319520a-fc10-4ea5-a5ca-d3a4702f6c7b","system_id":"levelo_inurba_marseille","lat":43.29888,"lon":5.43654,"is_reserved":false,"is_disabled":true,"rental_uris":{"android":"levelo://app?vid=2319520a-fc10-4ea5-a5ca-d3a4702f6c7b","ios":"levelo://app?vid=2319520a-fc10-4ea5-a5ca-d3a4702f6c7b"},"vehicle_type_id":"4","last_reported":1761584947,"current_range_meters":13600,"station_id":"ce4bhpp2rcd13ifvqhfg","pricing_plan_id":"cebpf4jnsgd1na2vs0mg"},{"bike_id":"e92a5181-3093-4535-adde-2230374de0aa","system_id":"levelo_inurba_marseille","lat":43.31343,"lon":5.37686,"is_reserved":false,"is_disabled":false,"rental_uris":{"android":"levelo://app?vid=e92a5181-3093-4535-adde-2230374de0aa","ios":"levelo://app?vid=e92a5181-3093-4535-adde-2230374de0aa"},"vehicle_type_id":"4","last_reported":1761584947,"current_range_meters":13600,"station_id":"","pricing_plan_id":"cebpf4jnsgd1na2vs0mg"},{"bike_id":"439f658a-681a-4c58-ae7a-a72e571df742","system_id":"levelo_inurba_marseille","lat":43.27551,"lon":5.38449,"is_reserved":false,"is_disabled":false,"rental_uris":{"android":"levelo://app?vid=439f658a-681a-4c58-ae7a-a72e571df742","ios":"levelo://app?vid=439f658a-681a-4c58-ae7a-a72e571df742"},"vehicle_type_id":"4","last_reported":1761584947,"current_range_meters":13600,"station_id":"ce4bhh92rcd13ifvqfi0","pricing_plan_id":"cebpf4jnsgd1na2vs0mg"},{"bike_id":"2ed37529-6301-42ea-bc95-fde81eb65e1b","system_id":"levelo_inurba_marseille","lat":43.3116,"lon":5.38736,"is_reserved":false,"is_disabled":false,"rental_uris":{"android":"levelo://app?vid=2ed37529-6301-42ea-bc95-fde81eb65e1b","ios":"levelo://app?vid=2ed37529-6301-42ea-bc95-fde81eb65e1b"},"vehicle_type_id":"4","last_reported":1761584947,"current_range_meters":13600,"station_id":"ce4bgv12rcd13ifvqcp0","pricing_plan_id":"cebpf4jnsgd1na2vs0mg"},{"bike_id":"1b7829fd-c993-41fc-94f6-0cddf3da8a25","system_id":"levelo_inurba_marseille","lat":43.24811,"lon":5.37467,"is_reserved":false,"is_disabled":false,"rental_uris":{"android":"levelo://app?vid=1b7829fd-c993-41fc-94f6-0cddf3da8a25","ios":"levelo://app?vid=1b7829fd-c993-41fc-94f6-0cddf3da8a25"},"vehicle_type_id":"4","last_reported":1761584947,"current_range_meters":13600,"station_id":"ce4bhgh2rcd13ifvqfb0","pricing_plan_id":"cebpf4jnsgd1na2vs0mg"},{"bike_id":"763dedad-f3f7-4198-bc42-a8f8d4bc1d9e","system_id":"levelo_inurba_marseille","lat":43.22931,"lon":5.35386,"is_reserved":false,"is_disabled":false,"rental_uris":{"android":"levelo://app?vid=763dedad-f3f7-4198-bc42-a8f8d4bc1d9e","ios":"levelo://app?vid=763dedad-f3f7-4198-bc42-a8f8d4bc1d9e"},"vehicle_type_id":"4","last_reported":1761584947,"current_range_meters":13600,"station_id":"cpo3532slgdg3j2ikp40","pricing_plan_id":"cebpf4jnsgd1na2vs0mg"},{"bike_id":"6b27b53b-ade4-4e59-9555-b40b30fb2fb2","system_id":"levelo_inurba_marseille","lat":43.25336,"lon":5.42175,"is_reserved":false,"is_disabled":false,"rental_uris":{"android":"levelo://app?vid=6b27b53b-ade4-4e59-9555-b40b30fb2fb2","ios":"levelo://app?vid=6b27b53b-ade4-4e59-9555-b40b30fb2fb2"},"vehicle_type_id":"4","last_reported":1761584947,"current_range_meters":13600,"station_id":"st_d2m65c5bi1j21697t3ng","pricing_plan_id":"cebpf4jnsgd1na2vs0mg"},{"bike_id":"fdc43030-5704-454e-ad42-cd94061c06a1","system_id":"levelo_inurba_marseille","lat":43.32097,"lon":5.36769,"is_reserved":false,"is_disabled":false,"rental_uris":{"android":"levelo://app?vid=fdc43030-5704-454e-ad42-cd94061c06a1","ios":"levelo://app?vid=fdc43030-5704-454e-ad42-cd94061c06a1"},"vehicle_type_id":"4","last_reported":1761584947,"current_range_meters":13600,"station_id":"ce4bhrh2rcd13ifvqhug","pricing_plan_id":"cebpf4jnsgd1na2vs0mg"},{"bike_id":"93ef566c-0909-48d1-8deb-d11c9c5aea5b","system_id":"levelo_inurba_marseille","lat":43.32357,"lon":5.36742,"is_reserved":false,"is_disabled":false,"rental_uris":{"android":"levelo://app?vid=93ef566c-0909-48d1-8deb-d11c9c5aea5b","ios":"levelo://app?vid=93ef566c-0909-48d1-8deb-d11c9c5aea5b"},"vehicle_type_id":"4","last_reported":1761584947,"current_range_meters":14000,"station_id":"ce4bhsh2rcd13ifvqi2g","pricing_plan_id":"cebpf4jnsgd1na2vs0mg"},{"bike_id":"72692e77-b537-477c-ba7d-fdff69794bfb","system_id":"levelo_inurba_marseille","lat":43.25331,"lon":5.42179,"is_reserved":false,"is_disabled":false,"rental_uris":{"android":"levelo://app?vid=72692e77-b537-477c-ba7d-fdff69794bfb","ios":"levelo://app?vid=72692e77-b537-477c-ba7d-fdff69794bfb"},"vehicle_type_id":"4","last_reported":1761584947,"current_range_meters":14000,"station_id":"st_d2m65c5bi1j21697t3ng","pricing_plan_id":"cebpf4jnsgd1na2vs0mg"},{"bike_id":"49fa6531-c087-49d3-81ea-14a5221ba878","system_id":"levelo_inurba_marseille","lat":43.29969,"lon":5.385,"is_reserved":false,"is_disabled":false,"rental_uris":{"android":"levelo://app?vid=49fa6531-c087-49d3-81ea-14a5221ba878","ios":"levelo://app?vid=49fa6531-c087-49d3-81ea-14a5221ba878"},"vehicle_type_id":"4","last_reported":1761584947,"current_range_meters":14000,"station_id":"ce4bgj92rcd13ifvqbd0","pricing_plan_id":"cebpf4jnsgd1na2vs0mg"},{"bike_id":"1880ebb9-7edb-463e-976b-226e958b9ebe","system_id":"levelo_inurba_marseille","lat":43.31097,"lon":5.37487,"is_reserved":false,"is_disabled":false,"rental_uris":{"android":"levelo://app?vid=1880ebb9-7edb-463e-976b-226e958b9ebe","ios":"levelo://app?vid=1880ebb9-7edb-463e-976b-226e958b9ebe"},"vehicle_type_id":"4","last_reported":1761584947,"current_range_meters":14400,"station_id":"ce4bgt12rcd13ifvqce0","pricing_plan_id":"cebpf4jnsgd1na2vs0mg"},{"bike_id":"5955239c-650d-4e94-9179-69b3c1b40a2b","system_id":"levelo_inurba_marseille","lat":43.248406,"lon":5.374761,"is_reserved":false,"is_disabled":false,"rental_uris":{"android":"levelo://app?vid=5955239c-650d-4e94-9179-69b3c1b40a2b","ios":"levelo://app?vid=5955239c-650d-4e94-9179-69b3c1b40a2b"},"vehicle_type_id":"4","last_reported":1761584947,"current_range_meters":14400,"station_id":"","pricing_plan_id":"cebpf4jnsgd1na2vs0mg"},{"bike_id":"b5f3f829-b250-45e8-8135-b7cc5a18d792","system_id":"levelo_inurba_marseille","lat":43.29758,"lon":5.42782,"is_reserved":false,"is_disabled":false,"rental_uris":{"android":"levelo://app?vid=b5f3f829-b250-45e8-8135-b7cc5a18d792","ios":"levelo://app?vid=b5f3f829-b250-45e8-8135-b7cc5a18d792"},"vehicle_type_id":"4","last_reported":1761584947,"current_range_meters":14400,"station_id":"st_d3md5207bmas73dh9klg","pricing_plan_id":"cebpf4jnsgd1na2vs0mg"},{"bike_id":"61c3e209-e8d9-41f8-85fb-04dfe6dddac0","system_id":"levelo_inurba_marseille","lat":43.2882,"lon":5.3526,"is_reserved":false,"is_disabled":false,"rental_uris":{"android":"levelo://app?vid=61c3e209-e8d9-41f8-85fb-04dfe6dddac0","ios":"levelo://app?vid=61c3e209-e8d9-41f8-85fb-04dfe6dddac0"},"vehicle_type_id":"4","last_reported":1761584947,"current_range_meters":14400,"station_id":"","pricing_plan_id":"cebpf4jnsgd1na2vs0mg"},{"bike_id":"0b4cc5f4-c6b9-4e81-8ba9-74cdecab57fb","system_id":"levelo_inurba_marseille","lat":43.26259,"lon":5.41633,"is_reserved":false,"is_disabled":false,"rental_uris":{"android":"levelo://app?vid=0b4cc5f4-c6b9-4e81-8ba9-74cdecab57fb","ios":"levelo://app?vid=0b4cc5f4-c6b9-4e81-8ba9-74cdecab57fb"},"vehicle_type_id":"4","last_reported":1761584947,"current_range_meters":14400,"station_id":"","pricing_plan_id":"cebpf4jnsgd1na2vs0mg"},{"bike_id":"0e3f2b40-12aa-458f-9402-3f0149c70782","system_id":"levelo_inurba_marseille","lat":43.249458,"lon":5.404939,"is_reserved":false,"is_disabled":false,"rental_uris":{"android":"levelo://app?vid=0e3f2b40-12aa-458f-9402-3f0149c70782","ios":"levelo://app?vid=0e3f2b40-12aa-458f-9402-3f0149c70782"},"vehicle_type_id":"4","last_reported":1761584947,"current_range_meters":14400,"station_id":"st_d2ngiaodas8pm72gd1h0","pricing_plan_id":"cebpf4jnsgd1na2vs0mg"},{"bike_id":"8c71c05b-dd29-470b-8b05-4159f459865a","system_id":"levelo_inurba_marseille","lat":43.27673,"lon":5.38864,"is_reserved":false,"is_disabled":false,"rental_uris":{"android":"levelo://app?vid=8c71c05b-dd29-470b-8b05-4159f459865a","ios":"levelo://app?vid=8c71c05b-dd29-470b-8b05-4159f459865a"},"vehicle_type_id":"4","last_reported":1761584947,"current_range_meters":14400,"station_id":"ce4bhi12rcd13ifvqfo0","pricing_plan_id":"cebpf4jnsgd1na2vs0mg"},{"bike_id":"2f73b29a-32c1-403a-a80f-bfc12686a9c6","system_id":"levelo_inurba_marseille","lat":43.30579,"lon":5.39362,"is_reserved":false,"is_disabled":false,"rental_uris":{"android":"levelo://app?vid=2f73b29a-32c1-403a-a80f-bfc12686a9c6","ios":"levelo://app?vid=2f73b29a-32c1-403a-a80f-bfc12686a9c6"},"vehicle_type_id":"4","last_reported":1761584947,"current_range_meters":14400,"station_id":"ce4bh0p2rcd13ifvqd80","pricing_plan_id":"cebpf4jnsgd1na2vs0mg"},{"bike_id":"4c888f7a-a3cd-4aff-ab0b-fe318b78464b","system_id":"levelo_inurba_marseille","lat":43.21721,"lon":5.34615,"is_reserved":false,"is_disabled":false,"rental_uris":{"android":"levelo://app?vid=4c888f7a-a3cd-4aff-ab0b-fe318b78464b","ios":"levelo://app?vid=4c888f7a-a3cd-4aff-ab0b-fe318b78464b"},"vehicle_type_id":"4","last_reported":1761584947,"current_range_meters":14400,"station_id":"st_cvj6r9ubvosntc0bgbag","pricing_plan_id":"cebpf4jnsgd1na2vs0mg"},{"bike_id":"874591d8-e407-49af-b2d3-95e72c4a2de2","system_id":"levelo_inurba_marseille","lat":43.26482,"lon":5.39552,"is_reserved":false,"is_disabled":false,"rental_uris":{"android":"levelo://app?vid=874591d8-e407-49af-b2d3-95e72c4a2de2","ios":"levelo://app?vid=874591d8-e407-49af-b2d3-95e72c4a2de2"},"vehicle_type_id":"4","last_reported":1761584947,"current_range_meters":14400,"station_id":"ce4bhi12rcd13ifvqfq0","pricing_plan_id":"cebpf4jnsgd1na2vs0mg"},{"bike_id":"a507e789-f440-40a8-85cf-09841d81676c","system_id":"levelo_inurba_marseille","lat":43.22527,"lon":5.34854,"is_reserved":false,"is_disabled":false,"rental_uris":{"android":"levelo://app?vid=a507e789-f440-40a8-85cf-09841d81676c","ios":"levelo://app?vid=a507e789-f440-40a8-85cf-09841d81676c"},"vehicle_type_id":"4","last_reported":1761584947,"current_range_meters":14800,"station_id":"","pricing_plan_id":"cebpf4jnsgd1na2vs0mg"},{"bike_id":"7441375d-6bb9-4805-93a2-88b6f4f252bf","system_id":"levelo_inurba_marseille","lat":43.272215,"lon":5.39106,"is_reserved":false,"is_disabled":false,"rental_uris":{"android":"levelo://app?vid=7441375d-6bb9-4805-93a2-88b6f4f252bf","ios":"levelo://app?vid=7441375d-6bb9-4805-93a2-88b6f4f252bf"},"vehicle_type_id":"4","last_reported":1761584947,"current_range_meters":14800,"station_id":"ce4bhgp2rcd13ifvqfe0","pricing_plan_id":"cebpf4jnsgd1na2vs0mg"},{"bike_id":"eea3c3c3-734f-4fd3-8061-ed84cfe47b38","system_id":"levelo_inurba_marseille","lat":43.32557,"lon":5.39145,"is_reserved":false,"is_disabled":false,"rental_uris":{"android":"levelo://app?vid=eea3c3c3-734f-4fd3-8061-ed84cfe47b38","ios":"levelo://app?vid=eea3c3c3-734f-4fd3-8061-ed84cfe47b38"},"vehicle_type_id":"4","last_reported":1761584947,"current_range_meters":14800,"station_id":"","pricing_plan_id":"cebpf4jnsgd1na2vs0mg"},{"bike_id":"a3100ff0-76ab-498b-bebf-b9c52f3d2538","system_id":"levelo_inurba_marseille","lat":43.28573,"lon":5.48373,"is_reserved":false,"is_disabled":false,"rental_uris":{"android":"levelo://app?vid=a3100ff0-76ab-498b-bebf-b9c52f3d2538","ios":"levelo://app?vid=a3100ff0-76ab-498b-bebf-b9c52f3d2538"},"vehicle_type_id":"4","last_reported":1761584947,"current_range_meters":14800,"station_id":"","pricing_plan_id":"cebpf4jnsgd1na2vs0mg"},{"bike_id":"515e48fc-ab01-4de1-8cab-9093130784c5","system_id":"levelo_inurba_marseille","lat":43.30305,"lon":5.39212,"is_reserved":false,"is_disabled":false,"rental_uris":{"android":"levelo://app?vid=515e48fc-ab01-4de1-8cab-9093130784c5","ios":"levelo://app?vid=515e48fc-ab01-4de1-8cab-9093130784c5"},"vehicle_type_id":"4","last_reported":1761584947,"current_range_meters":14800,"station_id":"ce4bgkh2rcd13ifvqbk0","pricing_plan_id":"cebpf4jnsgd1na2vs0mg"},{"bike_id":"3058617f-719f-49d6-b82e-af0006a0c0a9","system_id":"levelo_inurba_marseille","lat":43.26483,"lon":5.39548,"is_reserved":false,"is_disabled":false,"rental_uris":{"android":"levelo://app?vid=3058617f-719f-49d6-b82e-af0006a0c0a9","ios":"levelo://app?vid=3058617f-719f-49d6-b82e-af0006a0c0a9"},"vehicle_type_id":"4","last_reported":1761584947,"current_range_meters":15200,"station_id":"ce4bhi12rcd13ifvqfq0","pricing_plan_id":"cebpf4jnsgd1na2vs0mg"},{"bike_id":"99c35bc4-9b23-47bf-adb0-b876259c2867","system_id":"levelo_inurba_marseille","lat":43.29577,"lon":5.37895,"is_reserved":false,"is_disabled":false,"rental_uris":{"android":"levelo://app?vid=99c35bc4-9b23-47bf-adb0-b876259c2867","ios":"levelo://app?vid=99c35bc4-9b23-47bf-adb0-b876259c2867"},"vehicle_type_id":"4","last_reported":1761584947,"current_range_meters":15200,"station_id":"","pricing_plan_id":"cebpf4jnsgd1na2vs0mg"},{"bike_id":"30fb2cde-d9fd-40ac-bedf-d73a6980ec0f","system_id":"levelo_inurba_marseille","lat":43.302969,"lon":5.368839,"is_reserved":false,"is_disabled":false,"rental_uris":{"android":"levelo://app?vid=30fb2cde-d9fd-40ac-bedf-d73a6980ec0f","ios":"levelo://app?vid=30fb2cde-d9fd-40ac-bedf-d73a6980ec0f"},"vehicle_type_id":"4","last_reported":1761584947,"current_range_meters":15200,"station_id":"","pricing_plan_id":"cebpf4jnsgd1na2vs0mg"},{"bike_id":"76d808cc-23fa-4bbc-aaab-21fd846db176","system_id":"levelo_inurba_marseille","lat":43.29376,"lon":5.37844,"is_reserved":false,"is_disabled":false,"rental_uris":{"android":"levelo://app?vid=76d808cc-23fa-4bbc-aaab-21fd846db176","ios":"levelo://app?vid=76d808cc-23fa-4bbc-aaab-21fd846db176"},"vehicle_type_id":"4","last_reported":1761584947,"current_range_meters":15200,"station_id":"ce4bgjh2rcd13ifvqbf0","pricing_plan_id":"cebpf4jnsgd1na2vs0mg"},{"bike_id":"21dbf7f2-eb19-4663-b1c0-879822879492","system_id":"levelo_inurba_marseille","lat":43.337631,"lon":5.374577,"is_reserved":false,"is_disabled":false,"rental_uris":{"android":"levelo://app?vid=21dbf7f2-eb19-4663-b1c0-879822879492","ios":"levelo://app?vid=21dbf7f2-eb19-4663-b1c0-879822879492"},"vehicle_type_id":"4","last_reported":1761584947,"current_range_meters":15200,"station_id":"","pricing_plan_id":"cebpf4jnsgd1na2vs0mg"},{"bike_id":"78db3261-2e37-4fa8-bfac-3bffd1fb4c0c","system_id":"levelo_inurba_marseille","lat":43.255012,"lon":5.376493,"is_reserved":false,"is_disabled":false,"rental_uris":{"android":"levelo://app?vid=78db3261-2e37-4fa8-bfac-3bffd1fb4c0c","ios":"levelo://app?vid=78db3261-2e37-4fa8-bfac-3bffd1fb4c0c"},"vehicle_type_id":"4","last_reported":1761584947,"current_range_meters":16000,"station_id":"ce4bhh12rcd13ifvqff0","pricing_plan_id":"cebpf4jnsgd1na2vs0mg"},{"bike_id":"08cf5f2f-adc1-4926-9099-16dad2f5dd00","system_id":"levelo_inurba_marseille","lat":43.269283,"lon":5.389195,"is_reserved":false,"is_disabled":false,"rental_uris":{"android":"levelo://app?vid=08cf5f2f-adc1-4926-9099-16dad2f5dd00","ios":"levelo://app?vid=08cf5f2f-adc1-4926-9099-16dad2f5dd00"},"vehicle_type_id":"4","last_reported":1761584947,"current_range_meters":16000,"station_id":"ce4bhhh2rcd13ifvqfl0","pricing_plan_id":"cebpf4jnsgd1na2vs0mg"},{"bike_id":"c9caf97a-f389-49be-a1d0-bc8665936731","system_id":"levelo_inurba_marseille","lat":43.31722,"lon":5.42397,"is_reserved":false,"is_disabled":false,"rental_uris":{"android":"levelo://app?vid=c9caf97a-f389-49be-a1d0-bc8665936731","ios":"levelo://app?vid=c9caf97a-f389-49be-a1d0-bc8665936731"},"vehicle_type_id":"4","last_reported":1761584947,"current_range_meters":16000,"station_id":"ce4bhp92rcd13ifvqhbg","pricing_plan_id":"cebpf4jnsgd1na2vs0mg"},{"bike_id":"c2cd8f4e-6ff1-41f4-a719-dbf167928b6f","system_id":"levelo_inurba_marseille","lat":43.298509,"lon":5.362882,"is_reserved":false,"is_disabled":false,"rental_uris":{"android":"levelo://app?vid=c2cd8f4e-6ff1-41f4-a719-dbf167928b6f","ios":"levelo://app?vid=c2cd8f4e-6ff1-41f4-a719-dbf167928b6f"},"vehicle_type_id":"4","last_reported":1761584947,"current_range_meters":16000,"station_id":"ce4bgpp2rcd13ifvqc3g","pricing_plan_id":"cebpf4jnsgd1na2vs0mg"},{"bike_id":"50d0255b-3ba9-4d58-8c8f-beb14a68dfc5","system_id":"levelo_inurba_marseille","lat":43.2849,"lon":5.38418,"is_reserved":false,"is_disabled":false,"rental_uris":{"android":"levelo://app?vid=50d0255b-3ba9-4d58-8c8f-beb14a68dfc5","ios":"levelo://app?vid=50d0255b-3ba9-4d58-8c8f-beb14a68dfc5"},"vehicle_type_id":"4","last_reported":1761584947,"current_range_meters":16400,"station_id":"ce4bh512rcd13ifvqe3g","pricing_plan_id":"cebpf4jnsgd1na2vs0mg"},{"bike_id":"f29eaddb-94cf-4247-91ec-2cd8ddfb9faf","system_id":"levelo_inurba_marseille","lat":43.33022,"lon":5.39044,"is_reserved":false,"is_disabled":false,"rental_uris":{"android":"levelo://app?vid=f29eaddb-94cf-4247-91ec-2cd8ddfb9faf","ios":"levelo://app?vid=f29eaddb-94cf-4247-91ec-2cd8ddfb9faf"},"vehicle_type_id":"4","last_reported":1761584947,"current_range_meters":16400,"station_id":"ce4bhr92rcd13ifvqhrg","pricing_plan_id":"cebpf4jnsgd1na2vs0mg"},{"bike_id":"b1a13ed2-a977-4f71-b206-ab34a7f83b41","system_id":"levelo_inurba_marseille","lat":43.3236,"lon":5.38887,"is_reserved":false,"is_disabled":false,"rental_uris":{"android":"levelo://app?vid=b1a13ed2-a977-4f71-b206-ab34a7f83b41","ios":"levelo://app?vid=b1a13ed2-a977-4f71-b206-ab34a7f83b41"},"vehicle_type_id":"4","last_reported":1761584947,"current_range_meters":16400,"station_id":"ce4bhqp2rcd13ifvqhog","pricing_plan_id":"cebpf4jnsgd1na2vs0mg"},{"bike_id":"0045d293-fc25-4f9a-9434-47036bd87e67","system_id":"levelo_inurba_marseille","lat":43.229289,"lon":5.35376,"is_reserved":false,"is_disabled":false,"rental_uris":{"android":"levelo://app?vid=0045d293-fc25-4f9a-9434-47036bd87e67","ios":"levelo://app?vid=0045d293-fc25-4f9a-9434-47036bd87e67"},"vehicle_type_id":"4","last_reported":1761584947,"current_range_meters":16400,"station_id":"cpo3532slgdg3j2ikp40","pricing_plan_id":"cebpf4jnsgd1na2vs0mg"},{"bike_id":"042e557a-ecad-459b-b696-e229ce002c96","system_id":"levelo_inurba_marseille","lat":43.26941,"lon":5.40263,"is_reserved":false,"is_disabled":false,"rental_uris":{"android":"levelo://app?vid=042e557a-ecad-459b-b696-e229ce002c96","ios":"levelo://app?vid=042e557a-ecad-459b-b696-e229ce002c96"},"vehicle_type_id":"4","last_reported":1761584947,"current_range_meters":16400,"station_id":"cjm6bp8fraef2m0cb0m0","pricing_plan_id":"cebpf4jnsgd1na2vs0mg"},{"bike_id":"b1ad8432-4d89-45ac-bb7c-60194adfd7f9","system_id":"levelo_inurba_marseille","lat":43.29494,"lon":5.43309,"is_reserved":false,"is_disabled":false,"rental_uris":{"android":"levelo://app?vid=b1ad8432-4d89-45ac-bb7c-60194adfd7f9","ios":"levelo://app?vid=b1ad8432-4d89-45ac-bb7c-60194adfd7f9"},"vehicle_type_id":"4","last_reported":1761584947,"current_range_meters":16400,"station_id":"st_d3j5ugp08ojc73fj9d10","pricing_plan_id":"cebpf4jnsgd1na2vs0mg"},{"bike_id":"3abd12d0-4cde-4d37-9bcc-e8155ba83e14","system_id":"levelo_inurba_marseille","lat":43.309325,"lon":5.401368,"is_reserved":false,"is_disabled":false,"rental_uris":{"android":"levelo://app?vid=3abd12d0-4cde-4d37-9bcc-e8155ba83e14","ios":"levelo://app?vid=3abd12d0-4cde-4d37-9bcc-e8155ba83e14"},"vehicle_type_id":"4","last_reported":1761584947,"current_range_meters":16400,"station_id":"ce4bgvp2rcd13ifvqct0","pricing_plan_id":"cebpf4jnsgd1na2vs0mg"},{"bike_id":"b689a5bf-875d-4ab1-9212-a71e85899faa","system_id":"levelo_inurba_marseille","lat":43.29747,"lon":5.42783,"is_reserved":false,"is_disabled":false,"rental_uris":{"android":"levelo://app?vid=b689a5bf-875d-4ab1-9212-a71e85899faa","ios":"levelo://app?vid=b689a5bf-875d-4ab1-9212-a71e85899faa"},"vehicle_type_id":"4","last_reported":1761584947,"current_range_meters":16800,"station_id":"st_d3md5207bmas73dh9klg","pricing_plan_id":"cebpf4jnsgd1na2vs0mg"},{"bike_id":"7b1b6fda-acbf-4bcc-9c4e-eb02a7bb672a","system_id":"levelo_inurba_marseille","lat":43.24168,"lon":5.36393,"is_reserved":false,"is_disabled":false,"rental_uris":{"android":"levelo://app?vid=7b1b6fda-acbf-4bcc-9c4e-eb02a7bb672a","ios":"levelo://app?vid=7b1b6fda-acbf-4bcc-9c4e-eb02a7bb672a"},"vehicle_type_id":"4","last_reported":1761584947,"current_range_meters":16800,"station_id":"cpo36qri1sfpv3e86is0","pricing_plan_id":"cebpf4jnsgd1na2vs0mg"},{"bike_id":"ab285fa4-5f03-49ee-8cad-c6b00bd5f071","system_id":"levelo_inurba_marseille","lat":43.2827,"lon":5.35077,"is_reserved":false,"is_disabled":false,"rental_uris":{"android":"levelo://app?vid=ab285fa4-5f03-49ee-8cad-c6b00bd5f071","ios":"levelo://app?vid=ab285fa4-5f03-49ee-8cad-c6b00bd5f071"},"vehicle_type_id":"4","last_reported":1761584947,"current_range_meters":16800,"station_id":"ce4bhbp2rcd13ifvqerg","pricing_plan_id":"cebpf4jnsgd1na2vs0mg"},{"bike_id":"4a887c65-1734-4483-9eb5-efdbb0d07047","system_id":"levelo_inurba_marseille","lat":43.29771,"lon":5.37104,"is_reserved":false,"is_disabled":false,"rental_uris":{"android":"levelo://app?vid=4a887c65-1734-4483-9eb5-efdbb0d07047","ios":"levelo://app?vid=4a887c65-1734-4483-9eb5-efdbb0d07047"},"vehicle_type_id":"4","last_reported":1761584947,"current_range_meters":16800,"station_id":"ce4bgop2rcd13ifvqc1g","pricing_plan_id":"cebpf4jnsgd1na2vs0mg"},{"bike_id":"61582872-d791-4b1e-b140-850838a7e879","system_id":"levelo_inurba_marseille","lat":43.24164,"lon":5.36404,"is_reserved":false,"is_disabled":false,"rental_uris":{"android":"levelo://app?vid=61582872-d791-4b1e-b140-850838a7e879","ios":"levelo://app?vid=61582872-d791-4b1e-b140-850838a7e879"},"vehicle_type_id":"4","last_reported":1761584947,"current_range_meters":16800,"station_id":"cpo36qri1sfpv3e86is0","pricing_plan_id":"cebpf4jnsgd1na2vs0mg"},{"bike_id":"d7b556e6-ac3d-4fe4-b136-c7cd05c756e3","system_id":"levelo_inurba_marseille","lat":43.23053,"lon":5.355,"is_reserved":false,"is_disabled":false,"rental_uris":{"android":"levelo://app?vid=d7b556e6-ac3d-4fe4-b136-c7cd05c756e3","ios":"levelo://app?vid=d7b556e6-ac3d-4fe4-b136-c7cd05c756e3"},"vehicle_type_id":"4","last_reported":1761584947,"current_range_meters":16800,"station_id":"cpo3342slgdg3j2ifvpg","pricing_plan_id":"cebpf4jnsgd1na2vs0mg"},{"bike_id":"fd443f2b-ca65-44b4-a01a-304d69169d16","system_id":"levelo_inurba_marseille","lat":43.302495,"lon":5.400625,"is_reserved":false,"is_disabled":false,"rental_uris":{"android":"levelo://app?vid=fd443f2b-ca65-44b4-a01a-304d69169d16","ios":"levelo://app?vid=fd443f2b-ca65-44b4-a01a-304d69169d16"},"vehicle_type_id":"4","last_reported":1761584947,"current_range_meters":16800,"station_id":"ce4bgvh2rcd13ifvqcs0","pricing_plan_id":"cebpf4jnsgd1na2vs0mg"},{"bike_id":"d4afeea3-ce4c-40ef-9ccb-1faab8ee4555","system_id":"levelo_inurba_marseille","lat":43.29934,"lon":5.36558,"is_reserved":false,"is_disabled":false,"rental_uris":{"android":"levelo://app?vid=d4afeea3-ce4c-40ef-9ccb-1faab8ee4555","ios":"levelo://app?vid=d4afeea3-ce4c-40ef-9ccb-1faab8ee4555"},"vehicle_type_id":"4","last_reported":1761584947,"current_range_meters":16800,"station_id":"ce4bgm92rcd13ifvqbr0","pricing_plan_id":"cebpf4jnsgd1na2vs0mg"},{"bike_id":"9fbd96ee-563a-43f7-87fd-6fffaeedac55","system_id":"levelo_inurba_marseille","lat":43.25861,"lon":5.39911,"is_reserved":false,"is_disabled":true,"rental_uris":{"android":"levelo://app?vid=9fbd96ee-563a-43f7-87fd-6fffaeedac55","ios":"levelo://app?vid=9fbd96ee-563a-43f7-87fd-6fffaeedac55"},"vehicle_type_id":"4","last_reported":1761584947,"current_range_meters":16800,"station_id":"ce4bhl92rcd13ifvqghg","pricing_plan_id":"cebpf4jnsgd1na2vs0mg"},{"bike_id":"0597d916-1f73-4861-b110-857d0c1982ff","system_id":"levelo_inurba_marseille","lat":43.2316,"lon":5.43712,"is_reserved":false,"is_disabled":false,"rental_uris":{"android":"levelo://app?vid=0597d916-1f73-4861-b110-857d0c1982ff","ios":"levelo://app?vid=0597d916-1f73-4861-b110-857d0c1982ff"},"vehicle_type_id":"4","last_reported":1761584947,"current_range_meters":16800,"station_id":"ce4bhmp2rcd13ifvqgog","pricing_plan_id":"cebpf4jnsgd1na2vs0mg"},{"bike_id":"d5ca831f-8041-403e-ada8-7b4196c3d5be","system_id":"levelo_inurba_marseille","lat":43.293714,"lon":5.379385,"is_reserved":false,"is_disabled":false,"rental_uris":{"android":"levelo://app?vid=d5ca831f-8041-403e-ada8-7b4196c3d5be","ios":"levelo://app?vid=d5ca831f-8041-403e-ada8-7b4196c3d5be"},"vehicle_type_id":"4","last_reported":1761584947,"current_range_meters":16800,"station_id":"","pricing_plan_id":"cebpf4jnsgd1na2vs0mg"},{"bike_id":"a76b98ac-a93f-4772-9265-9d2fc26672f9","system_id":"levelo_inurba_marseille","lat":43.288754,"lon":5.382939,"is_reserved":false,"is_disabled":false,"rental_uris":{"android":"levelo://app?vid=a76b98ac-a93f-4772-9265-9d2fc26672f9","ios":"levelo://app?vid=a76b98ac-a93f-4772-9265-9d2fc26672f9"},"vehicle_type_id":"4","last_reported":1761584947,"current_range_meters":16800,"station_id":"ce4bh512rcd13ifvqe2g","pricing_plan_id":"cebpf4jnsgd1na2vs0mg"},{"bike_id":"0709da96-3569-4b3f-9bc8-3bb4680af42a","system_id":"levelo_inurba_marseille","lat":43.31506,"lon":5.37318,"is_reserved":false,"is_disabled":false,"rental_uris":{"android":"levelo://app?vid=0709da96-3569-4b3f-9bc8-3bb4680af42a","ios":"levelo://app?vid=0709da96-3569-4b3f-9bc8-3bb4680af42a"},"vehicle_type_id":"4","last_reported":1761584947,"current_range_meters":17200,"station_id":"ce4bgt12rcd13ifvqcd0","pricing_plan_id":"cebpf4jnsgd1na2vs0mg"},{"bike_id":"a630ed88-3f05-4926-bbab-8387ab6b6a28","system_id":"levelo_inurba_marseille","lat":43.23144,"lon":5.43714,"is_reserved":false,"is_disabled":true,"rental_uris":{"android":"levelo://app?vid=a630ed88-3f05-4926-bbab-8387ab6b6a28","ios":"levelo://app?vid=a630ed88-3f05-4926-bbab-8387ab6b6a28"},"vehicle_type_id":"4","last_reported":1761584947,"current_range_meters":17200,"station_id":"ce4bhmp2rcd13ifvqgog","pricing_plan_id":"cebpf4jnsgd1na2vs0mg"},{"bike_id":"60c8bf16-d5f8-4e63-b7c2-b0fa2a4b004b","system_id":"levelo_inurba_marseille","lat":43.27995,"lon":5.40013,"is_reserved":false,"is_disabled":false,"rental_uris":{"android":"levelo://app?vid=60c8bf16-d5f8-4e63-b7c2-b0fa2a4b004b","ios":"levelo://app?vid=60c8bf16-d5f8-4e63-b7c2-b0fa2a4b004b"},"vehicle_type_id":"4","last_reported":1761584947,"current_range_meters":17200,"station_id":"ce4bho92rcd13ifvqh4g","pricing_plan_id":"cebpf4jnsgd1na2vs0mg"},{"bike_id":"584373b2-7857-4514-ba1b-a8cbf8f807e7","system_id":"levelo_inurba_marseille","lat":43.298577,"lon":5.362886,"is_reserved":false,"is_disabled":false,"rental_uris":{"android":"levelo://app?vid=584373b2-7857-4514-ba1b-a8cbf8f807e7","ios":"levelo://app?vid=584373b2-7857-4514-ba1b-a8cbf8f807e7"},"vehicle_type_id":"4","last_reported":1761584947,"current_range_meters":17600,"station_id":"ce4bgpp2rcd13ifvqc3g","pricing_plan_id":"cebpf4jnsgd1na2vs0mg"},{"bike_id":"fab9cdec-01f4-4909-b8a8-958759e32848","system_id":"levelo_inurba_marseille","lat":43.313304,"lon":5.396894,"is_reserved":false,"is_disabled":false,"rental_uris":{"android":"levelo://app?vid=fab9cdec-01f4-4909-b8a8-958759e32848","ios":"levelo://app?vid=fab9cdec-01f4-4909-b8a8-958759e32848"},"vehicle_type_id":"4","last_reported":1761584947,"current_range_meters":17600,"station_id":"ce4bgvp2rcd13ifvqcu0","pricing_plan_id":"cebpf4jnsgd1na2vs0mg"},{"bike_id":"db88a8a5-5637-4384-a6d7-41d8f099747a","system_id":"levelo_inurba_marseille","lat":43.312379,"lon":5.368484,"is_reserved":false,"is_disabled":false,"rental_uris":{"android":"levelo://app?vid=db88a8a5-5637-4384-a6d7-41d8f099747a","ios":"levelo://app?vid=db88a8a5-5637-4384-a6d7-41d8f099747a"},"vehicle_type_id":"4","last_reported":1761584947,"current_range_meters":17600,"station_id":"ce4bgr92rcd13ifvqc6g","pricing_plan_id":"cebpf4jnsgd1na2vs0mg"},{"bike_id":"44c09f5f-0f0f-40a3-9e09-8d8c0349abec","system_id":"levelo_inurba_marseille","lat":43.28943,"lon":5.36643,"is_reserved":false,"is_disabled":false,"rental_uris":{"android":"levelo://app?vid=44c09f5f-0f0f-40a3-9e09-8d8c0349abec","ios":"levelo://app?vid=44c09f5f-0f0f-40a3-9e09-8d8c0349abec"},"vehicle_type_id":"4","last_reported":1761584947,"current_range_meters":17600,"station_id":"ce4bhap2rcd13ifvqek0","pricing_plan_id":"cebpf4jnsgd1na2vs0mg"},{"bike_id":"9c3d0ad2-616b-4511-9f46-20500dd62ad6","system_id":"levelo_inurba_marseille","lat":43.30315,"lon":5.40442,"is_reserved":false,"is_disabled":false,"rental_uris":{"android":"levelo://app?vid=9c3d0ad2-616b-4511-9f46-20500dd62ad6","ios":"levelo://app?vid=9c3d0ad2-616b-4511-9f46-20500dd62ad6"},"vehicle_type_id":"4","last_reported":1761584947,"current_range_meters":17600,"station_id":"ce4bh012rcd13ifvqd10","pricing_plan_id":"cebpf4jnsgd1na2vs0mg"},{"bike_id":"edf5f0fb-0959-44c0-b6b3-9db9d272d2c0","system_id":"levelo_inurba_marseille","lat":43.24176,"lon":5.39723,"is_reserved":false,"is_disabled":false,"rental_uris":{"android":"levelo://app?vid=edf5f0fb-0959-44c0-b6b3-9db9d272d2c0","ios":"levelo://app?vid=edf5f0fb-0959-44c0-b6b3-9db9d272d2c0"},"vehicle_type_id":"4","last_reported":1761584947,"current_range_meters":18000,"station_id":"ce4bhn12rcd13ifvqgpg","pricing_plan_id":"cebpf4jnsgd1na2vs0mg"},{"bike_id":"74cd8338-a4b2-42fe-9981-9f2d2909db46","system_id":"levelo_inurba_marseille","lat":43.295224,"lon":5.390421,"is_reserved":false,"is_disabled":false,"rental_uris":{"android":"levelo://app?vid=74cd8338-a4b2-42fe-9981-9f2d2909db46","ios":"levelo://app?vid=74cd8338-a4b2-42fe-9981-9f2d2909db46"},"vehicle_type_id":"4","last_reported":1761584947,"current_range_meters":18000,"station_id":"ce4bh3p2rcd13ifvqdp0","pricing_plan_id":"cebpf4jnsgd1na2vs0mg"},{"bike_id":"883bc9b4-cfb9-4127-8706-5d33bb052860","system_id":"levelo_inurba_marseille","lat":43.2481,"lon":5.37457,"is_reserved":false,"is_disabled":false,"rental_uris":{"android":"levelo://app?vid=883bc9b4-cfb9-4127-8706-5d33bb052860","ios":"levelo://app?vid=883bc9b4-cfb9-4127-8706-5d33bb052860"},"vehicle_type_id":"4","last_reported":1761584947,"current_range_meters":18000,"station_id":"ce4bhgh2rcd13ifvqfb0","pricing_plan_id":"cebpf4jnsgd1na2vs0mg"},{"bike_id":"23c35866-c5b5-4225-bc29-bfd999866d3b","system_id":"levelo_inurba_marseille","lat":43.2844,"lon":5.3921,"is_reserved":false,"is_disabled":false,"rental_uris":{"android":"levelo://app?vid=23c35866-c5b5-4225-bc29-bfd999866d3b","ios":"levelo://app?vid=23c35866-c5b5-4225-bc29-bfd999866d3b"},"vehicle_type_id":"4","last_reported":1761584947,"current_range_meters":18000,"station_id":"ce4bhoh2rcd13ifvqh5g","pricing_plan_id":"cebpf4jnsgd1na2vs0mg"},{"bike_id":"e1ca1064-3ac1-495e-b8d2-df8047d11b2e","system_id":"levelo_inurba_marseille","lat":43.28476,"lon":5.484097,"is_reserved":false,"is_disabled":false,"rental_uris":{"android":"levelo://app?vid=e1ca1064-3ac1-495e-b8d2-df8047d11b2e","ios":"levelo://app?vid=e1ca1064-3ac1-495e-b8d2-df8047d11b2e"},"vehicle_type_id":"4","last_reported":1761584947,"current_range_meters":18000,"station_id":"st_d3svhcjqgbts73a3dn0g","pricing_plan_id":"cebpf4jnsgd1na2vs0mg"},{"bike_id":"310e927d-d5b8-4a6f-82be-2d623690659d","system_id":"levelo_inurba_marseille","lat":43.31291,"lon":5.37783,"is_reserved":false,"is_disabled":false,"rental_uris":{"android":"levelo://app?vid=310e927d-d5b8-4a6f-82be-2d623690659d","ios":"levelo://app?vid=310e927d-d5b8-4a6f-82be-2d623690659d"},"vehicle_type_id":"4","last_reported":1761584947,"current_range_meters":18800,"station_id":"","pricing_plan_id":"cebpf4jnsgd1na2vs0mg"},{"bike_id":"f614f847-6e80-4747-a7be-563773d0352d","system_id":"levelo_inurba_marseille","lat":43.28486,"lon":5.38572,"is_reserved":false,"is_disabled":false,"rental_uris":{"android":"levelo://app?vid=f614f847-6e80-4747-a7be-563773d0352d","ios":"levelo://app?vid=f614f847-6e80-4747-a7be-563773d0352d"},"vehicle_type_id":"4","last_reported":1761584947,"current_range_meters":18800,"station_id":"ce4bh8p2rcd13ifvqeb0","pricing_plan_id":"cebpf4jnsgd1na2vs0mg"},{"bike_id":"d5a49dbd-284f-44d1-bf21-988be425a5e5","system_id":"levelo_inurba_marseille","lat":43.255767,"lon":5.3824,"is_reserved":false,"is_disabled":true,"rental_uris":{"android":"levelo://app?vid=d5a49dbd-284f-44d1-bf21-988be425a5e5","ios":"levelo://app?vid=d5a49dbd-284f-44d1-bf21-988be425a5e5"},"vehicle_type_id":"4","last_reported":1761584947,"current_range_meters":18800,"station_id":"ce4bhih2rcd13ifvqfs0","pricing_plan_id":"cebpf4jnsgd1na2vs0mg"},{"bike_id":"dccef0b1-edb3-49b5-866c-43e10e5763cc","system_id":"levelo_inurba_marseille","lat":43.2878,"lon":5.43811,"is_reserved":false,"is_disabled":false,"rental_uris":{"android":"levelo://app?vid=dccef0b1-edb3-49b5-866c-43e10e5763cc","ios":"levelo://app?vid=dccef0b1-edb3-49b5-866c-43e10e5763cc"},"vehicle_type_id":"4","last_reported":1761584947,"current_range_meters":18800,"station_id":"","pricing_plan_id":"cebpf4jnsgd1na2vs0mg"},{"bike_id":"8957da31-2549-4ab6-abc0-615293ac1acd","system_id":"levelo_inurba_marseille","lat":43.26559,"lon":5.38998,"is_reserved":false,"is_disabled":true,"rental_uris":{"android":"levelo://app?vid=8957da31-2549-4ab6-abc0-615293ac1acd","ios":"levelo://app?vid=8957da31-2549-4ab6-abc0-615293ac1acd"},"vehicle_type_id":"4","last_reported":1761584947,"current_range_meters":18800,"station_id":"ce4bhe12rcd13ifvqf30","pricing_plan_id":"cebpf4jnsgd1na2vs0mg"},{"bike_id":"dced2bcc-e95f-44ce-b7d8-7bb47def612a","system_id":"levelo_inurba_marseille","lat":43.2306,"lon":5.35489,"is_reserved":false,"is_disabled":false,"rental_uris":{"android":"levelo://app?vid=dced2bcc-e95f-44ce-b7d8-7bb47def612a","ios":"levelo://app?vid=dced2bcc-e95f-44ce-b7d8-7bb47def612a"},"vehicle_type_id":"4","last_reported":1761584947,"current_range_meters":18800,"station_id":"cpo3342slgdg3j2ifvpg","pricing_plan_id":"cebpf4jnsgd1na2vs0mg"},{"bike_id":"7d59f33e-f752-4c5e-afb9-49a856da2fb7","system_id":"levelo_inurba_marseille","lat":43.29533,"lon":5.38541,"is_reserved":false,"is_disabled":false,"rental_uris":{"android":"levelo://app?vid=7d59f33e-f752-4c5e-afb9-49a856da2fb7","ios":"levelo://app?vid=7d59f33e-f752-4c5e-afb9-49a856da2fb7"},"vehicle_type_id":"4","last_reported":1761584947,"current_range_meters":18800,"station_id":"ce4bgih2rcd13ifvqba0","pricing_plan_id":"cebpf4jnsgd1na2vs0mg"},{"bike_id":"17035f4d-e4fc-42f3-abec-c160715cc3e5","system_id":"levelo_inurba_marseille","lat":43.2951,"lon":5.37516,"is_reserved":false,"is_disabled":false,"rental_uris":{"android":"levelo://app?vid=17035f4d-e4fc-42f3-abec-c160715cc3e5","ios":"levelo://app?vid=17035f4d-e4fc-42f3-abec-c160715cc3e5"},"vehicle_type_id":"4","last_reported":1761584947,"current_range_meters":18800,"station_id":"ce4bgkp2rcd13ifvqbmg","pricing_plan_id":"cebpf4jnsgd1na2vs0mg"},{"bike_id":"021e2773-71f7-4902-84c6-5e91af9a8aba","system_id":"levelo_inurba_marseille","lat":43.295573,"lon":5.394809,"is_reserved":false,"is_disabled":false,"rental_uris":{"android":"levelo://app?vid=021e2773-71f7-4902-84c6-5e91af9a8aba","ios":"levelo://app?vid=021e2773-71f7-4902-84c6-5e91af9a8aba"},"vehicle_type_id":"4","last_reported":1761584947,"current_range_meters":18800,"station_id":"ce4bho92rcd13ifvqh4g","pricing_plan_id":"cebpf4jnsgd1na2vs0mg"},{"bike_id":"df58d520-285a-44d2-b020-823606a8d129","system_id":"levelo_inurba_marseille","lat":43.31055,"lon":5.38356,"is_reserved":false,"is_disabled":false,"rental_uris":{"android":"levelo://app?vid=df58d520-285a-44d2-b020-823606a8d129","ios":"levelo://app?vid=df58d520-285a-44d2-b020-823606a8d129"},"vehicle_type_id":"4","last_reported":1761584947,"current_range_meters":18800,"station_id":"ce4bgv92rcd13ifvqcr0","pricing_plan_id":"cebpf4jnsgd1na2vs0mg"},{"bike_id":"b17bda9b-35b3-4a3a-bbaf-0fd1ff5c28e3","system_id":"levelo_inurba_marseille","lat":43.28939,"lon":5.39639,"is_reserved":false,"is_disabled":false,"rental_uris":{"android":"levelo://app?vid=b17bda9b-35b3-4a3a-bbaf-0fd1ff5c28e3","ios":"levelo://app?vid=b17bda9b-35b3-4a3a-bbaf-0fd1ff5c28e3"},"vehicle_type_id":"4","last_reported":1761584947,"current_range_meters":18800,"station_id":"ce4bh3h2rcd13ifvqdn0","pricing_plan_id":"cebpf4jnsgd1na2vs0mg"},{"bike_id":"316ded5d-28c9-4663-be5c-04dc90d5b34c","system_id":"levelo_inurba_marseille","lat":43.28382,"lon":5.38753,"is_reserved":false,"is_disabled":false,"rental_uris":{"android":"levelo://app?vid=316ded5d-28c9-4663-be5c-04dc90d5b34c","ios":"levelo://app?vid=316ded5d-28c9-4663-be5c-04dc90d5b34c"},"vehicle_type_id":"4","last_reported":1761584947,"current_range_meters":19200,"station_id":"","pricing_plan_id":"cebpf4jnsgd1na2vs0mg"},{"bike_id":"f4ae8a8d-d71a-4e48-9339-66550bde7b84","system_id":"levelo_inurba_marseille","lat":43.296782,"lon":5.378637,"is_reserved":false,"is_disabled":false,"rental_uris":{"android":"levelo://app?vid=f4ae8a8d-d71a-4e48-9339-66550bde7b84","ios":"levelo://app?vid=f4ae8a8d-d71a-4e48-9339-66550bde7b84"},"vehicle_type_id":"4","last_reported":1761584947,"current_range_meters":19200,"station_id":"","pricing_plan_id":"cebpf4jnsgd1na2vs0mg"},{"bike_id":"3771686b-230a-47c5-8fd0-c9436373ca9f","system_id":"levelo_inurba_marseille","lat":43.29776,"lon":5.37109,"is_reserved":false,"is_disabled":true,"rental_uris":{"android":"levelo://app?vid=3771686b-230a-47c5-8fd0-c9436373ca9f","ios":"levelo://app?vid=3771686b-230a-47c5-8fd0-c9436373ca9f"},"vehicle_type_id":"4","last_reported":1761584947,"current_range_meters":19200,"station_id":"ce4bgop2rcd13ifvqc1g","pricing_plan_id":"cebpf4jnsgd1na2vs0mg"},{"bike_id":"2be3bf9b-39f4-4c37-8c01-9e9bcabe1c53","system_id":"levelo_inurba_marseille","lat":43.33741,"lon":5.37444,"is_reserved":false,"is_disabled":false,"rental_uris":{"android":"levelo://app?vid=2be3bf9b-39f4-4c37-8c01-9e9bcabe1c53","ios":"levelo://app?vid=2be3bf9b-39f4-4c37-8c01-9e9bcabe1c53"},"vehicle_type_id":"4","last_reported":1761584947,"current_range_meters":19200,"station_id":"","pricing_plan_id":"cebpf4jnsgd1na2vs0mg"},{"bike_id":"455ef50d-b33b-4523-8ad5-a87befbae6f9","system_id":"levelo_inurba_marseille","lat":43.29875,"lon":5.36493,"is_reserved":false,"is_disabled":false,"rental_uris":{"android":"levelo://app?vid=455ef50d-b33b-4523-8ad5-a87befbae6f9","ios":"levelo://app?vid=455ef50d-b33b-4523-8ad5-a87befbae6f9"},"vehicle_type_id":"4","last_reported":1761584947,"current_range_meters":19200,"station_id":"","pricing_plan_id":"cebpf4jnsgd1na2vs0mg"},{"bike_id":"f568391f-b71f-4807-9099-53eb6b0dc22d","system_id":"levelo_inurba_marseille","lat":43.29768,"lon":5.38182,"is_reserved":false,"is_disabled":false,"rental_uris":{"android":"levelo://app?vid=f568391f-b71f-4807-9099-53eb6b0dc22d","ios":"levelo://app?vid=f568391f-b71f-4807-9099-53eb6b0dc22d"},"vehicle_type_id":"4","last_reported":1761584947,"current_range_meters":19200,"station_id":"","pricing_plan_id":"cebpf4jnsgd1na2vs0mg"},{"bike_id":"370fce8d-4755-4142-b16d-80940e3abd91","system_id":"levelo_inurba_marseille","lat":43.28717,"lon":5.37389,"is_reserved":false,"is_disabled":false,"rental_uris":{"android":"levelo://app?vid=370fce8d-4755-4142-b16d-80940e3abd91","ios":"levelo://app?vid=370fce8d-4755-4142-b16d-80940e3abd91"},"vehicle_type_id":"4","last_reported":1761584947,"current_range_meters":19200,"station_id":"ce4bh3p2rcd13ifvqdq0","pricing_plan_id":"cebpf4jnsgd1na2vs0mg"},{"bike_id":"49ed0d39-51fe-4cd4-8527-50556baa8749","system_id":"levelo_inurba_marseille","lat":43.22513,"lon":5.34838,"is_reserved":false,"is_disabled":false,"rental_uris":{"android":"levelo://app?vid=49ed0d39-51fe-4cd4-8527-50556baa8749","ios":"levelo://app?vid=49ed0d39-51fe-4cd4-8527-50556baa8749"},"vehicle_type_id":"4","last_reported":1761584947,"current_range_meters":19200,"station_id":"","pricing_plan_id":"cebpf4jnsgd1na2vs0mg"},{"bike_id":"11a6c4d6-5b0b-4568-b5fa-df22c991564a","system_id":"levelo_inurba_marseille","lat":43.24385,"lon":5.37054,"is_reserved":false,"is_disabled":false,"rental_uris":{"android":"levelo://app?vid=11a6c4d6-5b0b-4568-b5fa-df22c991564a","ios":"levelo://app?vid=11a6c4d6-5b0b-4568-b5fa-df22c991564a"},"vehicle_type_id":"4","last_reported":1761584947,"current_range_meters":19200,"station_id":"ce4bhhh2rcd13ifvqfk0","pricing_plan_id":"cebpf4jnsgd1na2vs0mg"},{"bike_id":"eaed6499-9973-47d4-9735-9e2c2bd97da4","system_id":"levelo_inurba_marseille","lat":43.28531,"lon":5.44122,"is_reserved":false,"is_disabled":false,"rental_uris":{"android":"levelo://app?vid=eaed6499-9973-47d4-9735-9e2c2bd97da4","ios":"levelo://app?vid=eaed6499-9973-47d4-9735-9e2c2bd97da4"},"vehicle_type_id":"4","last_reported":1761584947,"current_range_meters":19200,"station_id":"st_d3j3df2ikq2c7380ej80","pricing_plan_id":"cebpf4jnsgd1na2vs0mg"},{"bike_id":"ae8ebe94-fc0f-4409-8f77-39eb5c613a67","system_id":"levelo_inurba_marseille","lat":43.337444,"lon":5.374475,"is_reserved":false,"is_disabled":false,"rental_uris":{"android":"levelo://app?vid=ae8ebe94-fc0f-4409-8f77-39eb5c613a67","ios":"levelo://app?vid=ae8ebe94-fc0f-4409-8f77-39eb5c613a67"},"vehicle_type_id":"4","last_reported":1761584947,"current_range_meters":19600,"station_id":"","pricing_plan_id":"cebpf4jnsgd1na2vs0mg"},{"bike_id":"32d7653e-b033-4183-b4c0-f44169bb9067","system_id":"levelo_inurba_marseille","lat":43.32707,"lon":5.39216,"is_reserved":false,"is_disabled":false,"rental_uris":{"android":"levelo://app?vid=32d7653e-b033-4183-b4c0-f44169bb9067","ios":"levelo://app?vid=32d7653e-b033-4183-b4c0-f44169bb9067"},"vehicle_type_id":"4","last_reported":1761584947,"current_range_meters":19600,"station_id":"","pricing_plan_id":"cebpf4jnsgd1na2vs0mg"},{"bike_id":"1fb8da74-56ee-4eba-8a63-259ad3c7054b","system_id":"levelo_inurba_marseille","lat":43.30153,"lon":5.380877,"is_reserved":false,"is_disabled":false,"rental_uris":{"android":"levelo://app?vid=1fb8da74-56ee-4eba-8a63-259ad3c7054b","ios":"levelo://app?vid=1fb8da74-56ee-4eba-8a63-259ad3c7054b"},"vehicle_type_id":"4","last_reported":1761584947,"current_range_meters":19600,"station_id":"ce4bgjp2rcd13ifvqbh0","pricing_plan_id":"cebpf4jnsgd1na2vs0mg"},{"bike_id":"968095c0-90f2-47fe-81b5-0450d51371b0","system_id":"levelo_inurba_marseille","lat":43.31481,"lon":5.37308,"is_reserved":false,"is_disabled":false,"rental_uris":{"android":"levelo://app?vid=968095c0-90f2-47fe-81b5-0450d51371b0","ios":"levelo://app?vid=968095c0-90f2-47fe-81b5-0450d51371b0"},"vehicle_type_id":"4","last_reported":1761584947,"current_range_meters":19600,"station_id":"ce4bgt12rcd13ifvqcd0","pricing_plan_id":"cebpf4jnsgd1na2vs0mg"},{"bike_id":"5711cce2-6dae-4f54-9b49-2999858b9adf","system_id":"levelo_inurba_marseille","lat":43.25509,"lon":5.37654,"is_reserved":false,"is_disabled":false,"rental_uris":{"android":"levelo://app?vid=5711cce2-6dae-4f54-9b49-2999858b9adf","ios":"levelo://app?vid=5711cce2-6dae-4f54-9b49-2999858b9adf"},"vehicle_type_id":"4","last_reported":1761584947,"current_range_meters":20000,"station_id":"ce4bhh12rcd13ifvqff0","pricing_plan_id":"cebpf4jnsgd1na2vs0mg"},{"bike_id":"46292dbd-4a2f-46bb-964b-a4a3d10786f9","system_id":"levelo_inurba_marseille","lat":43.24807,"lon":5.3746,"is_reserved":false,"is_disabled":false,"rental_uris":{"android":"levelo://app?vid=46292dbd-4a2f-46bb-964b-a4a3d10786f9","ios":"levelo://app?vid=46292dbd-4a2f-46bb-964b-a4a3d10786f9"},"vehicle_type_id":"4","last_reported":1761584947,"current_range_meters":20000,"station_id":"ce4bhgh2rcd13ifvqfb0","pricing_plan_id":"cebpf4jnsgd1na2vs0mg"},{"bike_id":"4d1e3623-51f6-48d0-bfd0-e56b193f41a2","system_id":"levelo_inurba_marseille","lat":43.29449,"lon":5.39753,"is_reserved":false,"is_disabled":false,"rental_uris":{"android":"levelo://app?vid=4d1e3623-51f6-48d0-bfd0-e56b193f41a2","ios":"levelo://app?vid=4d1e3623-51f6-48d0-bfd0-e56b193f41a2"},"vehicle_type_id":"4","last_reported":1761584947,"current_range_meters":20000,"station_id":"ce4bh3h2rcd13ifvqdo0","pricing_plan_id":"cebpf4jnsgd1na2vs0mg"},{"bike_id":"3101b0db-43ca-45dc-b27b-8d591c267f6e","system_id":"levelo_inurba_marseille","lat":43.28414,"lon":5.37519,"is_reserved":false,"is_disabled":false,"rental_uris":{"android":"levelo://app?vid=3101b0db-43ca-45dc-b27b-8d591c267f6e","ios":"levelo://app?vid=3101b0db-43ca-45dc-b27b-8d591c267f6e"},"vehicle_type_id":"4","last_reported":1761584947,"current_range_meters":20000,"station_id":"ce4bh412rcd13ifvqds0","pricing_plan_id":"cebpf4jnsgd1na2vs0mg"},{"bike_id":"d778ab8e-5847-4801-81f7-e77f727480ec","system_id":"levelo_inurba_marseille","lat":43.27052,"lon":5.40261,"is_reserved":false,"is_disabled":false,"rental_uris":{"android":"levelo://app?vid=d778ab8e-5847-4801-81f7-e77f727480ec","ios":"levelo://app?vid=d778ab8e-5847-4801-81f7-e77f727480ec"},"vehicle_type_id":"4","last_reported":1761584947,"current_range_meters":20000,"station_id":"ce4bhk92rcd13ifvqgc0","pricing_plan_id":"cebpf4jnsgd1na2vs0mg"},{"bike_id":"583368cd-161d-459a-8e7b-daed7977281f","system_id":"levelo_inurba_marseille","lat":43.30354,"lon":5.41884,"is_reserved":false,"is_disabled":false,"rental_uris":{"android":"levelo://app?vid=583368cd-161d-459a-8e7b-daed7977281f","ios":"levelo://app?vid=583368cd-161d-459a-8e7b-daed7977281f"},"vehicle_type_id":"4","last_reported":1761584947,"current_range_meters":20000,"station_id":"ce4bhop2rcd13ifvqh7g","pricing_plan_id":"cebpf4jnsgd1na2vs0mg"},{"bike_id":"6aa9a1ee-9778-4d45-859f-f81494315a8d","system_id":"levelo_inurba_marseille","lat":43.211926,"lon":5.350734,"is_reserved":false,"is_disabled":false,"rental_uris":{"android":"levelo://app?vid=6aa9a1ee-9778-4d45-859f-f81494315a8d","ios":"levelo://app?vid=6aa9a1ee-9778-4d45-859f-f81494315a8d"},"vehicle_type_id":"4","last_reported":1761584947,"current_range_meters":20000,"station_id":"","pricing_plan_id":"cebpf4jnsgd1na2vs0mg"},{"bike_id":"34add431-2e21-4f9a-ba4d-ec04cdccde26","system_id":"levelo_inurba_marseille","lat":43.29615,"lon":5.37752,"is_reserved":false,"is_disabled":false,"rental_uris":{"android":"levelo://app?vid=34add431-2e21-4f9a-ba4d-ec04cdccde26","ios":"levelo://app?vid=34add431-2e21-4f9a-ba4d-ec04cdccde26"},"vehicle_type_id":"4","last_reported":1761584947,"current_range_meters":20000,"station_id":"ce4bgi92rcd13ifvqb90","pricing_plan_id":"cebpf4jnsgd1na2vs0mg"},{"bike_id":"54aae848-7c5d-4a13-ab11-380a33bb6076","system_id":"levelo_inurba_marseille","lat":43.28619,"lon":5.3511,"is_reserved":false,"is_disabled":false,"rental_uris":{"android":"levelo://app?vid=54aae848-7c5d-4a13-ab11-380a33bb6076","ios":"levelo://app?vid=54aae848-7c5d-4a13-ab11-380a33bb6076"},"vehicle_type_id":"4","last_reported":1761584947,"current_range_meters":20400,"station_id":"ce4bhch2rcd13ifvqeug","pricing_plan_id":"cebpf4jnsgd1na2vs0mg"},{"bike_id":"c244353a-9144-4024-b746-5b158f4aa021","system_id":"levelo_inurba_marseille","lat":43.30429,"lon":5.3889,"is_reserved":false,"is_disabled":false,"rental_uris":{"android":"levelo://app?vid=c244353a-9144-4024-b746-5b158f4aa021","ios":"levelo://app?vid=c244353a-9144-4024-b746-5b158f4aa021"},"vehicle_type_id":"4","last_reported":1761584947,"current_range_meters":20400,"station_id":"ce4bgk12rcd13ifvqbi0","pricing_plan_id":"cebpf4jnsgd1na2vs0mg"},{"bike_id":"9d447215-7097-463a-ab01-ffec67831b86","system_id":"levelo_inurba_marseille","lat":43.32367,"lon":5.36771,"is_reserved":false,"is_disabled":false,"rental_uris":{"android":"levelo://app?vid=9d447215-7097-463a-ab01-ffec67831b86","ios":"levelo://app?vid=9d447215-7097-463a-ab01-ffec67831b86"},"vehicle_type_id":"4","last_reported":1761584947,"current_range_meters":20400,"station_id":"ce4bhsh2rcd13ifvqi2g","pricing_plan_id":"cebpf4jnsgd1na2vs0mg"},{"bike_id":"39d094ac-6017-4390-8e80-c3e2498dcfcf","system_id":"levelo_inurba_marseille","lat":43.2463,"lon":5.43148,"is_reserved":false,"is_disabled":false,"rental_uris":{"android":"levelo://app?vid=39d094ac-6017-4390-8e80-c3e2498dcfcf","ios":"levelo://app?vid=39d094ac-6017-4390-8e80-c3e2498dcfcf"},"vehicle_type_id":"4","last_reported":1761584947,"current_range_meters":20800,"station_id":"st_d2m6c4gdas8pm72e190g","pricing_plan_id":"cebpf4jnsgd1na2vs0mg"},{"bike_id":"b1f66035-6999-426f-96c9-e3a9ddb7cd79","system_id":"levelo_inurba_marseille","lat":43.31522,"lon":5.38042,"is_reserved":false,"is_disabled":false,"rental_uris":{"android":"levelo://app?vid=b1f66035-6999-426f-96c9-e3a9ddb7cd79","ios":"levelo://app?vid=b1f66035-6999-426f-96c9-e3a9ddb7cd79"},"vehicle_type_id":"4","last_reported":1761584947,"current_range_meters":20800,"station_id":"ce4bhsp2rcd13ifvqi50","pricing_plan_id":"cebpf4jnsgd1na2vs0mg"},{"bike_id":"c5357aaa-f358-42dd-a7b4-114e2fddc718","system_id":"levelo_inurba_marseille","lat":43.24808,"lon":5.37458,"is_reserved":false,"is_disabled":false,"rental_uris":{"android":"levelo://app?vid=c5357aaa-f358-42dd-a7b4-114e2fddc718","ios":"levelo://app?vid=c5357aaa-f358-42dd-a7b4-114e2fddc718"},"vehicle_type_id":"4","last_reported":1761584947,"current_range_meters":20800,"station_id":"ce4bhgh2rcd13ifvqfb0","pricing_plan_id":"cebpf4jnsgd1na2vs0mg"},{"bike_id":"376147ca-99e4-4263-961d-ece504f2f594","system_id":"levelo_inurba_marseille","lat":43.28826,"lon":5.35261,"is_reserved":false,"is_disabled":false,"rental_uris":{"android":"levelo://app?vid=376147ca-99e4-4263-961d-ece504f2f594","ios":"levelo://app?vid=376147ca-99e4-4263-961d-ece504f2f594"},"vehicle_type_id":"4","last_reported":1761584947,"current_range_meters":20800,"station_id":"","pricing_plan_id":"cebpf4jnsgd1na2vs0mg"},{"bike_id":"f839edbc-4f95-4b25-bbde-e5eed05980f5","system_id":"levelo_inurba_marseille","lat":43.31125,"lon":5.37766,"is_reserved":false,"is_disabled":false,"rental_uris":{"android":"levelo://app?vid=f839edbc-4f95-4b25-bbde-e5eed05980f5","ios":"levelo://app?vid=f839edbc-4f95-4b25-bbde-e5eed05980f5"},"vehicle_type_id":"4","last_reported":1761584947,"current_range_meters":21600,"station_id":"ce4bgt92rcd13ifvqcg0","pricing_plan_id":"cebpf4jnsgd1na2vs0mg"},{"bike_id":"30be3bd8-ecb4-4749-acf1-2b8d8d14222d","system_id":"levelo_inurba_marseille","lat":43.27909,"lon":5.39585,"is_reserved":false,"is_disabled":false,"rental_uris":{"android":"levelo://app?vid=30be3bd8-ecb4-4749-acf1-2b8d8d14222d","ios":"levelo://app?vid=30be3bd8-ecb4-4749-acf1-2b8d8d14222d"},"vehicle_type_id":"4","last_reported":1761584947,"current_range_meters":21600,"station_id":"ce4bhf92rcd13ifvqf40","pricing_plan_id":"cebpf4jnsgd1na2vs0mg"},{"bike_id":"51a7e268-9562-4b96-8e84-f568b0acc7b7","system_id":"levelo_inurba_marseille","lat":43.247969,"lon":5.37456,"is_reserved":false,"is_disabled":false,"rental_uris":{"android":"levelo://app?vid=51a7e268-9562-4b96-8e84-f568b0acc7b7","ios":"levelo://app?vid=51a7e268-9562-4b96-8e84-f568b0acc7b7"},"vehicle_type_id":"4","last_reported":1761584947,"current_range_meters":21600,"station_id":"","pricing_plan_id":"cebpf4jnsgd1na2vs0mg"},{"bike_id":"4ee3355b-52ba-4625-ad35-0c32a0d4d9d6","system_id":"levelo_inurba_marseille","lat":43.279205,"lon":5.392023,"is_reserved":false,"is_disabled":false,"rental_uris":{"android":"levelo://app?vid=4ee3355b-52ba-4625-ad35-0c32a0d4d9d6","ios":"levelo://app?vid=4ee3355b-52ba-4625-ad35-0c32a0d4d9d6"},"vehicle_type_id":"4","last_reported":1761584947,"current_range_meters":21600,"station_id":"ce4bhjp2rcd13ifvqga0","pricing_plan_id":"cebpf4jnsgd1na2vs0mg"},{"bike_id":"6daca031-efb5-4517-911c-f1bf58b277b7","system_id":"levelo_inurba_marseille","lat":43.21184,"lon":5.35079,"is_reserved":false,"is_disabled":false,"rental_uris":{"android":"levelo://app?vid=6daca031-efb5-4517-911c-f1bf58b277b7","ios":"levelo://app?vid=6daca031-efb5-4517-911c-f1bf58b277b7"},"vehicle_type_id":"4","last_reported":1761584947,"current_range_meters":21600,"station_id":"st_cvj6sg6p6f1abm77japg","pricing_plan_id":"cebpf4jnsgd1na2vs0mg"},