{"last_updated":1721585381,"ttl":30,"version":"2.2","data":{"bikes":[{"bike_id":"fca16903-93d9-4dd3-905e-f3e2313b758f","system_id":"levelo_inurba_marseille","lat":43.312239,"lon":5.368562,"is_reserved":false,"is_disabled":false,"rental_uris":{"android":"levelo://app?vid=fca16903-93d9-4dd3-905e-f3e2313b758f","ios":"levelo://app?vid=fca16903-93d9-4dd3-905e-f3e2313b758f"},"vehicle_type_id":"4","last_reported":1721585382,"current_range_meters":3200,"station_id":"ce4bgl92rcd13ifvqbq0","pricing_plan_id":"cebpf4jnsgd1na2vs0mg"},{"bike_id":"f3961fdc-d09e-485e-957c-43ed5f11aa69","system_id":"levelo_inurba_marseille","lat":43.312239,"lon":5.368562,"is_reserved":false,"is_disabled":false,"rental_uris":{"android":"levelo://app?vid=f3961fdc-d09e-485e-957c-43ed5f11aa69","ios":"levelo://app?vid=f3961fdc-d09e-485e-957c-43ed5f11aa69"},"vehicle_type_id":"4","last_reported":1721585382,"current_range_meters":6000,"station_id":"ce4bgl92rcd13ifvqbq0","pricing_plan_id":"cebpf4jnsgd1na2vs0mg"},{"bike_id":"81a24f88-4f05-487a-b741-47dcadd8c5c8","system_id":"levelo_inurba_marseille","lat":43.3123,"lon":5.36859,"is_reserved":false,"is_disabled":false,"rental_uris":{"android":"levelo://app?vid=81a24f88-4f05-487a-b741-47dcadd8c5c8","ios":"levelo://app?vid=81a24f88-4f05-487a-b741-47dcadd8c5c8"},"vehicle_type_id":"4","last_reported":1721585382,"current_range_meters":29600,"station_id":"ce4bgl92rcd13ifvqbq0","pricing_plan_id":"cebpf4jnsgd1na2vs0mg"},{"bike_id":"04b5e66a-652c-4d46-8008-8cb8f17682af","system_id":"levelo_inurba_marseille","lat":43.309076,"lon":5.368465,"is_reserved":false,"is_disabled":false,"rental_uris":{"android":"levelo://app?vid=04b5e66a-652c-4d46-8008-8cb8f17682af","ios":"levelo://app?vid=04b5e66a-652c-4d46-8008-8cb8f17682af"},"vehicle_type_id":"4","last_reported":1721585382,"current_range_meters":30800,"station_id":"ce4bgn92rcd13ifvqbvg","pricing_plan_id":"cebpf4jnsgd1na2vs0mg"},{"bike_id":"8daf811f-7478-4d32-9583-72b68fc62612","system_id":"levelo_inurba_marseille","lat":43.315,"lon":5.37303,"is_reserved":false,"is_disabled":false,"rental_uris":{"android":"levelo://app?vid=8daf811f-7478-4d32-9583-72b68fc62612","ios":"levelo://app?vid=8daf811f-7478-4d32-9583-72b68fc62612"},"vehicle_type_id":"4","last_reported":1721585382,"current_range_meters":5600,"station_id":"ce4bgt12rcd13ifvqcd0","pricing_plan_id":"cebpf4jnsgd1na2vs0mg"},{"bike_id":"7fb93600-9047-486f-80dd-62d2739abfde","system_id":"levelo_inurba_marseille","lat":43.30739,"lon":5.3716,"is_reserved":false,"is_disabled":false,"rental_uris":{"android":"levelo://app?vid=7fb93600-9047-486f-80dd-62d2739abfde","ios":"levelo://app?vid=7fb93600-9047-486f-80dd-62d2739abfde"},"vehicle_type_id":"4","last_reported":1721585382,"current_range_meters":13200,"station_id":"","pricing_plan_id":"cebpf4jnsgd1na2vs0mg"},{"bike_id":"32bf86fb-39c7-4520-b12e-60e8f91c25e9","system_id":"levelo_inurba_marseille","lat":43.30643,"lon":5.36802,"is_reserved":false,"is_disabled":false,"rental_uris":{"android":"levelo://app?vid=32bf86fb-39c7-4520-b12e-60e8f91c25e9","ios":"levelo://app?vid=32bf86fb-39c7-4520-b12e-60e8f91c25e9"},"vehicle_type_id":"4","last_reported":1721585382,"current_range_meters":27200,"station_id":"","pricing_plan_id":"cebpf4jnsgd1na2vs0mg"},{"bike_id":"b5fd17fd-ada6-4f9e-ac5f-bd5ed6acd247","system_id":"levelo_inurba_marseille","lat":43.317075,"lon":5.377367,"is_reserved":false,"is_disabled":false,"rental_uris":{"android":"levelo://app?vid=b5fd17fd-ada6-4f9e-ac5f-bd5ed6acd247","ios":"levelo://app?vid=b5fd17fd-ada6-4f9e-ac5f-bd5ed6acd247"},"vehicle_type_id":"4","last_reported":1721585382,"current_range_meters":11200,"station_id":"ce4bgth2rcd13ifvqch0","pricing_plan_id":"cebpf4jnsgd1na2vs0mg"},{"bike_id":"e1f2ced9-c6e4-460d-93ee-052145e98bef","system_id":"levelo_inurba_marseille","lat":43.317075,"lon":5.377367,"is_reserved":false,"is_disabled":false,"rental_uris":{"android":"levelo://app?vid=e1f2ced9-c6e4-460d-93ee-052145e98bef","ios":"levelo://app?vid=e1f2ced9-c6e4-460d-93ee-052145e98bef"},"vehicle_type_id":"4","last_reported":1721585382,"current_range_meters":20000,"station_id":"ce4bgth2rcd13ifvqch0","pricing_plan_id":"cebpf4jnsgd1na2vs0mg"},{"bike_id":"558fc339-2f15-44ba-95cc-10246ab7422c","system_id":"levelo_inurba_marseille","lat":43.317075,"lon":5.377367,"is_reserved":false,"is_disabled":false,"rental_uris":{"android":"levelo://app?vid=558fc339-2f15-44ba-95cc-10246ab7422c","ios":"levelo://app?vid=558fc339-2f15-44ba-95cc-10246ab7422c"},"vehicle_type_id":"4","last_reported":1721585382,"current_range_meters":4000,"station_id":"ce4bgth2rcd13ifvqch0","pricing_plan_id":"cebpf4jnsgd1na2vs0mg"},{"bike_id":"c2af6daf-d4dd-4495-9a21-df5dddd4e3ce","system_id":"levelo_inurba_marseille","lat":43.315289,"lon":5.380349,"is_reserved":false,"is_disabled":false,"rental_uris":{"android":"levelo://app?vid=c2af6daf-d4dd-4495-9a21-df5dddd4e3ce","ios":"levelo://app?vid=c2af6daf-d4dd-4495-9a21-df5dddd4e3ce"},"vehicle_type_id":"4","last_reported":1721585382,"current_range_meters":30800,"station_id":"ce4bhsp2rcd13ifvqi50","pricing_plan_id":"cebpf4jnsgd1na2vs0mg"},{"bike_id":"6c25c81d-67a9-4cc5-b46c-2363031fa36f","system_id":"levelo_inurba_marseille","lat":43.301939,"lon":5.366286,"is_reserved":false,"is_disabled":false,"rental_uris":{"android":"levelo://app?vid=6c25c81d-67a9-4cc5-b46c-2363031fa36f","ios":"levelo://app?vid=6c25c81d-67a9-4cc5-b46c-2363031fa36f"},"vehicle_type_id":"4","last_reported":1721585382,"current_range_meters":22000,"station_id":"ce4bgrh2rcd13ifvqc8g","pricing_plan_id":"cebpf4jnsgd1na2vs0mg"},{"bike_id":"4ad045e9-0e29-4b13-a0a6-53fcfa04d057","system_id":"levelo_inurba_marseille","lat":43.308012,"lon":5.381511,"is_reserved":false,"is_disabled":false,"rental_uris":{"android":"levelo://app?vid=4ad045e9-0e29-4b13-a0a6-53fcfa04d057","ios":"levelo://app?vid=4ad045e9-0e29-4b13-a0a6-53fcfa04d057"},"vehicle_type_id":"4","last_reported":1721585382,"current_range_meters":12000,"station_id":"ce4bgt12rcd13ifvqce0","pricing_plan_id":"cebpf4jnsgd1na2vs0mg"},{"bike_id":"27a01155-05e9-4c1b-a93b-7788217cbd5d","system_id":"levelo_inurba_marseille","lat":43.301429,"lon":5.37413,"is_reserved":false,"is_disabled":false,"rental_uris":{"android":"levelo://app?vid=27a01155-05e9-4c1b-a93b-7788217cbd5d","ios":"levelo://app?vid=27a01155-05e9-4c1b-a93b-7788217cbd5d"},"vehicle_type_id":"4","last_reported":1721585382,"current_range_meters":1600,"station_id":"ce4bgs92rcd13ifvqcc0","pricing_plan_id":"cebpf4jnsgd1na2vs0mg"},{"bike_id":"cd83e627-434c-45a4-98f2-e9c2441b0e6b","system_id":"levelo_inurba_marseille","lat":43.304606,"lon":5.379026,"is_reserved":false,"is_disabled":false,"rental_uris":{"android":"levelo://app?vid=cd83e627-434c-45a4-98f2-e9c2441b0e6b","ios":"levelo://app?vid=cd83e627-434c-45a4-98f2-e9c2441b0e6b"},"vehicle_type_id":"4","last_reported":1721585382,"current_range_meters":18800,"station_id":"ce4bgup2rcd13ifvqcn0","pricing_plan_id":"cebpf4jnsgd1na2vs0mg"},{"bike_id":"dc51db12-5b99-4600-b13e-389337294c2f","system_id":"levelo_inurba_marseille","lat":43.304606,"lon":5.379026,"is_reserved":false,"is_disabled":false,"rental_uris":{"android":"levelo://app?vid=dc51db12-5b99-4600-b13e-389337294c2f","ios":"levelo://app?vid=dc51db12-5b99-4600-b13e-389337294c2f"},"vehicle_type_id":"4","last_reported":1721585382,"current_range_meters":23200,"station_id":"ce4bgup2rcd13ifvqcn0","pricing_plan_id":"cebpf4jnsgd1na2vs0mg"},{"bike_id":"84d27da4-8167-4878-b2fd-811843427645","system_id":"levelo_inurba_marseille","lat":43.304606,"lon":5.379026,"is_reserved":false,"is_disabled":false,"rental_uris":{"android":"levelo://app?vid=84d27da4-8167-4878-b2fd-811843427645","ios":"levelo://app?vid=84d27da4-8167-4878-b2fd-811843427645"},"vehicle_type_id":"4","last_reported":1721585382,"current_range_meters":29200,"station_id":"ce4bgup2rcd13ifvqcn0","pricing_plan_id":"cebpf4jnsgd1na2vs0mg"},{"bike_id":"38d24c98-fb22-4447-8c2a-b2a9efae06ce","system_id":"levelo_inurba_marseille","lat":43.304606,"lon":5.379026,"is_reserved":false,"is_disabled":false,"rental_uris":{"android":"levelo://app?vid=38d24c98-fb22-4447-8c2a-b2a9efae06ce","ios":"levelo://app?vid=38d24c98-fb22-4447-8c2a-b2a9efae06ce"},"vehicle_type_id":"4","last_reported":1721585382,"current_range_meters":31200,"station_id":"ce4bgup2rcd13ifvqcn0","pricing_plan_id":"cebpf4jnsgd1na2vs0mg"},{"bike_id":"2baca4ef-0d69-4564-91f0-6aa88a9ace5b","system_id":"levelo_inurba_marseille","lat":43.32473,"lon":5.36573,"is_reserved":false,"is_disabled":false,"rental_uris":{"android":"levelo://app?vid=2baca4ef-0d69-4564-91f0-6aa88a9ace5b","ios":"levelo://app?vid=2baca4ef-0d69-4564-91f0-6aa88a9ace5b"},"vehicle_type_id":"4","last_reported":1721585382,"current_range_meters":6400,"station_id":"ce4bhs12rcd13ifvqhvg","pricing_plan_id":"cebpf4jnsgd1na2vs0mg"},{"bike_id":"cca907d5-b315-4709-9e1e-5a6e61ca8091","system_id":"levelo_inurba_marseille","lat":43.3248,"lon":5.36573,"is_reserved":false,"is_disabled":false,"rental_uris":{"android":"levelo://app?vid=cca907d5-b315-4709-9e1e-5a6e61ca8091","ios":"levelo://app?vid=cca907d5-b315-4709-9e1e-5a6e61ca8091"},"vehicle_type_id":"4","last_reported":1721585382,"current_range_meters":29200,"station_id":"ce4bhs12rcd13ifvqhvg","pricing_plan_id":"cebpf4jnsgd1na2vs0mg"},{"bike_id":"d36ada01-9704-436e-bead-e3ba678f37e7","system_id":"levelo_inurba_marseille","lat":43.3248,"lon":5.365607,"is_reserved":false,"is_disabled":false,"rental_uris":{"android":"levelo://app?vid=d36ada01-9704-436e-bead-e3ba678f37e7","ios":"levelo://app?vid=d36ada01-9704-436e-bead-e3ba678f37e7"},"vehicle_type_id":"4","last_reported":1721585382,"current_range_meters":28800,"station_id":"ce4bhs12rcd13ifvqhvg","pricing_plan_id":"cebpf4jnsgd1na2vs0mg"},{"bike_id":"3cf9f690-12ec-4ec2-8991-c2d1722723c7","system_id":"levelo_inurba_marseille","lat":43.32481,"lon":5.36565,"is_reserved":false,"is_disabled":false,"rental_uris":{"android":"levelo://app?vid=3cf9f690-12ec-4ec2-8991-c2d1722723c7","ios":"levelo://app?vid=3cf9f690-12ec-4ec2-8991-c2d1722723c7"},"vehicle_type_id":"4","last_reported":1721585382,"current_range_meters":5600,"station_id":"ce4bhs12rcd13ifvqhvg","pricing_plan_id":"cebpf4jnsgd1na2vs0mg"},{"bike_id":"b93f7c73-4e77-42cd-bee5-2ed46c2dcba0","system_id":"levelo_inurba_marseille","lat":43.32482,"lon":5.36571,"is_reserved":false,"is_disabled":false,"rental_uris":{"android":"levelo://app?vid=b93f7c73-4e77-42cd-bee5-2ed46c2dcba0","ios":"levelo://app?vid=b93f7c73-4e77-42cd-bee5-2ed46c2dcba0"},"vehicle_type_id":"4","last_reported":1721585382,"current_range_meters":30800,"station_id":"ce4bhs12rcd13ifvqhvg","pricing_plan_id":"cebpf4jnsgd1na2vs0mg"},{"bike_id":"751b495a-ded5-440d-924d-2bf060460f69","system_id":"levelo_inurba_marseille","lat":43.32484,"lon":5.3659,"is_reserved":false,"is_disabled":false,"rental_uris":{"android":"levelo://app?vid=751b495a-ded5-440d-924d-2bf060460f69","ios":"levelo://app?vid=751b495a-ded5-440d-924d-2bf060460f69"},"vehicle_type_id":"4","last_reported":1721585382,"current_range_meters":12800,"station_id":"ce4bhs12rcd13ifvqhvg","pricing_plan_id":"cebpf4jnsgd1na2vs0mg"},{"bike_id":"fa7acdd3-4b4e-46d8-b6d5-ce3ba98c1061","system_id":"levelo_inurba_marseille","lat":43.32484,"lon":5.36559,"is_reserved":false,"is_disabled":false,"rental_uris":{"android":"levelo://app?vid=fa7acdd3-4b4e-46d8-b6d5-ce3ba98c1061","ios":"levelo://app?vid=fa7acdd3-4b4e-46d8-b6d5-ce3ba98c1061"},"vehicle_type_id":"4","last_reported":1721585382,"current_range_meters":24800,"station_id":"ce4bhs12rcd13ifvqhvg","pricing_plan_id":"cebpf4jnsgd1na2vs0mg"},{"bike_id":"5499b63c-39ce-4053-bfc3-11df02cfa2fa","system_id":"levelo_inurba_marseille","lat":43.324771,"lon":5.36557,"is_reserved":false,"is_disabled":false,"rental_uris":{"android":"levelo://app?vid=5499b63c-39ce-4053-bfc3-11df02cfa2fa","ios":"levelo://app?vid=5499b63c-39ce-4053-bfc3-11df02cfa2fa"},"vehicle_type_id":"4","last_reported":1721585382,"current_range_meters":16000,"station_id":"ce4bhs12rcd13ifvqhvg","pricing_plan_id":"cebpf4jnsgd1na2vs0mg"},{"bike_id":"13ca473e-bca8-4d1f-8c92-cd2977d3b666","system_id":"levelo_inurba_marseille","lat":43.32489,"lon":5.36558,"is_reserved":false,"is_disabled":false,"rental_uris":{"android":"levelo://app?vid=13ca473e-bca8-4d1f-8c92-cd2977d3b666","ios":"levelo://app?vid=13ca473e-bca8-4d1f-8c92-cd2977d3b666"},"vehicle_type_id":"4","last_reported":1721585382,"current_range_meters":14800,"station_id":"ce4bhs12rcd13ifvqhvg","pricing_plan_id":"cebpf4jnsgd1na2vs0mg"},{"bike_id":"e26e8d6f-5b99-4dec-8fd7-4acac3bae8f7","system_id":"levelo_inurba_marseille","lat":43.32489,"lon":5.36557,"is_reserved":false,"is_disabled":false,"rental_uris":{"android":"levelo://app?vid=e26e8d6f-5b99-4dec-8fd7-4acac3bae8f7","ios":"levelo://app?vid=e26e8d6f-5b99-4dec-8fd7-4acac3bae8f7"},"vehicle_type_id":"4","last_reported":1721585382,"current_range_meters":27600,"station_id":"ce4bhs12rcd13ifvqhvg","pricing_plan_id":"cebpf4jnsgd1na2vs0mg"},{"bike_id":"c64effb7-c089-4b66-b2d3-747fccb375e4","system_id":"levelo_inurba_marseille","lat":43.302784,"lon":5.377158,"is_reserved":false,"is_disabled":false,"rental_uris":{"android":"levelo://app?vid=c64effb7-c089-4b66-b2d3-747fccb375e4","ios":"levelo://app?vid=c64effb7-c089-4b66-b2d3-747fccb375e4"},"vehicle_type_id":"4","last_reported":1721585382,"current_range_meters":10400,"station_id":"ce4bguh2rcd13ifvqcj0","pricing_plan_id":"cebpf4jnsgd1na2vs0mg"},{"bike_id":"af1c780d-427e-4074-81ac-cdbdc4d59556","system_id":"levelo_inurba_marseille","lat":43.301429,"lon":5.37413,"is_reserved":false,"is_disabled":false,"rental_uris":{"android":"levelo://app?vid=af1c780d-427e-4074-81ac-cdbdc4d59556","ios":"levelo://app?vid=af1c780d-427e-4074-81ac-cdbdc4d59556"},"vehicle_type_id":"4","last_reported":1721585382,"current_range_meters":3200,"station_id":"ce4bgs92rcd13ifvqcc0","pricing_plan_id":"cebpf4jnsgd1na2vs0mg"},{"bike_id":"dd7a74ed-232b-495b-9e98-3ff41d270337","system_id":"levelo_inurba_marseille","lat":43.302784,"lon":5.377158,"is_reserved":false,"is_disabled":false,"rental_uris":{"android":"levelo://app?vid=dd7a74ed-232b-495b-9e98-3ff41d270337","ios":"levelo://app?vid=dd7a74ed-232b-495b-9e98-3ff41d270337"},"vehicle_type_id":"4","last_reported":1721585382,"current_range_meters":31200,"station_id":"ce4bguh2rcd13ifvqcj0","pricing_plan_id":"cebpf4jnsgd1na2vs0mg"},{"bike_id":"21308db6-6c97-41d0-b3a0-492071fe519d","system_id":"levelo_inurba_marseille","lat":43.301429,"lon":5.37413,"is_reserved":false,"is_disabled":false,"rental_uris":{"android":"levelo://app?vid=21308db6-6c97-41d0-b3a0-492071fe519d","ios":"levelo://app?vid=21308db6-6c97-41d0-b3a0-492071fe519d"},"vehicle_type_id":"4","last_reported":1721585382,"current_range_meters":13200,"station_id":"ce4bgs92rcd13ifvqcc0","pricing_plan_id":"cebpf4jnsgd1na2vs0mg"},{"bike_id":"0d11cdc9-2c17-4f6b-b4b3-964c0b9c347d","system_id":"levelo_inurba_marseille","lat":43.301429,"lon":5.37413,"is_reserved":false,"is_disabled":false,"rental_uris":{"android":"levelo://app?vid=0d11cdc9-2c17-4f6b-b4b3-964c0b9c347d","ios":"levelo://app?vid=0d11cdc9-2c17-4f6b-b4b3-964c0b9c347d"},"vehicle_type_id":"4","last_reported":1721585382,"current_range_meters":12800,"station_id":"ce4bgs92rcd13ifvqcc0","pricing_plan_id":"cebpf4jnsgd1na2vs0mg"},{"bike_id":"73fde29b-3596-45b9-be89-dd75dab69e90","system_id":"levelo_inurba_marseille","lat":43.301429,"lon":5.37413,"is_reserved":false,"is_disabled":false,"rental_uris":{"android":"levelo://app?vid=73fde29b-3596-45b9-be89-dd75dab69e90","ios":"levelo://app?vid=73fde29b-3596-45b9-be89-dd75dab69e90"},"vehicle_type_id":"4","last_reported":1721585382,"current_range_meters":15200,"station_id":"ce4bgs92rcd13ifvqcc0","pricing_plan_id":"cebpf4jnsgd1na2vs0mg"},{"bike_id":"b8f20cfb-05f6-4192-bc2f-10b3a5feb963","system_id":"levelo_inurba_marseille","lat":43.30143,"lon":5.37413,"is_reserved":false,"is_disabled":false,"rental_uris":{"android":"levelo://app?vid=b8f20cfb-05f6-4192-bc2f-10b3a5feb963","ios":"levelo://app?vid=b8f20cfb-05f6-4192-bc2f-10b3a5feb963"},"vehicle_type_id":"4","last_reported":1721585382,"current_range_meters":22400,"station_id":"ce4bgs92rcd13ifvqcc0","pricing_plan_id":"cebpf4jnsgd1na2vs0mg"},{"bike_id":"c7995120-3995-405f-8dd5-7294629cc4d8","system_id":"levelo_inurba_marseille","lat":43.319935,"lon":5.381699,"is_reserved":false,"is_disabled":false,"rental_uris":{"android":"levelo://app?vid=c7995120-3995-405f-8dd5-7294629cc4d8","ios":"levelo://app?vid=c7995120-3995-405f-8dd5-7294629cc4d8"},"vehicle_type_id":"4","last_reported":1721585382,"current_range_meters":20400,"station_id":"ce4bhr12rcd13ifvqhpg","pricing_plan_id":"cebpf4jnsgd1na2vs0mg"},{"bike_id":"6a233bd7-c2a4-4aa4-a005-a3402baf4987","system_id":"levelo_inurba_marseille","lat":43.313571,"lon":5.384829,"is_reserved":false,"is_disabled":false,"rental_uris":{"android":"levelo://app?vid=6a233bd7-c2a4-4aa4-a005-a3402baf4987","ios":"levelo://app?vid=6a233bd7-c2a4-4aa4-a005-a3402baf4987"},"vehicle_type_id":"4","last_reported":1721585382,"current_range_meters":11600,"station_id":"ce4bgt92rcd13ifvqcf0","pricing_plan_id":"cebpf4jnsgd1na2vs0mg"},{"bike_id":"72c8a169-8075-4155-8753-a6f8bb13493c","system_id":"levelo_inurba_marseille","lat":43.313571,"lon":5.384829,"is_reserved":false,"is_disabled":false,"rental_uris":{"android":"levelo://app?vid=72c8a169-8075-4155-8753-a6f8bb13493c","ios":"levelo://app?vid=72c8a169-8075-4155-8753-a6f8bb13493c"},"vehicle_type_id":"4","last_reported":1721585382,"current_range_meters":1600,"station_id":"ce4bgt92rcd13ifvqcf0","pricing_plan_id":"cebpf4jnsgd1na2vs0mg"},{"bike_id":"eee7bb12-68d0-4363-b626-c930ec9f9656","system_id":"levelo_inurba_marseille","lat":43.313571,"lon":5.384829,"is_reserved":false,"is_disabled":false,"rental_uris":{"android":"levelo://app?vid=eee7bb12-68d0-4363-b626-c930ec9f9656","ios":"levelo://app?vid=eee7bb12-68d0-4363-b626-c930ec9f9656"},"vehicle_type_id":"4","last_reported":1721585382,"current_range_meters":1600,"station_id":"ce4bgt92rcd13ifvqcf0","pricing_plan_id":"cebpf4jnsgd1na2vs0mg"},{"bike_id":"74238193-6690-47c4-81db-c5c0e39102e9","system_id":"levelo_inurba_marseille","lat":43.299724,"lon":5.371829,"is_reserved":false,"is_disabled":false,"rental_uris":{"android":"levelo://app?vid=74238193-6690-47c4-81db-c5c0e39102e9","ios":"levelo://app?vid=74238193-6690-47c4-81db-c5c0e39102e9"},"vehicle_type_id":"4","last_reported":1721585382,"current_range_meters":23600,"station_id":"ce4bgr92rcd13ifvqc7g","pricing_plan_id":"cebpf4jnsgd1na2vs0mg"},{"bike_id":"c2b70bee-a5ac-454e-a975-8696c8ee724b","system_id":"levelo_inurba_marseille","lat":43.298433,"lon":5.362774,"is_reserved":false,"is_disabled":false,"rental_uris":{"android":"levelo://app?vid=c2b70bee-a5ac-454e-a975-8696c8ee724b","ios":"levelo://app?vid=c2b70bee-a5ac-454e-a975-8696c8ee724b"},"vehicle_type_id":"4","last_reported":1721585382,"current_range_meters":23200,"station_id":"ce4bgpp2rcd13ifvqc3g","pricing_plan_id":"cebpf4jnsgd1na2vs0mg"},{"bike_id":"853fdfe1-161b-4cb4-8f49-44838e32b285","system_id":"levelo_inurba_marseille","lat":43.311722,"lon":5.387247,"is_reserved":false,"is_disabled":false,"rental_uris":{"android":"levelo://app?vid=853fdfe1-161b-4cb4-8f49-44838e32b285","ios":"levelo://app?vid=853fdfe1-161b-4cb4-8f49-44838e32b285"},"vehicle_type_id":"4","last_reported":1721585382,"current_range_meters":14000,"station_id":"ce4bgv12rcd13ifvqcp0","pricing_plan_id":"cebpf4jnsgd1na2vs0mg"},{"bike_id":"8117cde1-ddf4-42b1-815f-0e933d18614f","system_id":"levelo_inurba_marseille","lat":43.29875,"lon":5.37521,"is_reserved":false,"is_disabled":false,"rental_uris":{"android":"levelo://app?vid=8117cde1-ddf4-42b1-815f-0e933d18614f","ios":"levelo://app?vid=8117cde1-ddf4-42b1-815f-0e933d18614f"},"vehicle_type_id":"4","last_reported":1721585382,"current_range_meters":17200,"station_id":"","pricing_plan_id":"cebpf4jnsgd1na2vs0mg"},{"bike_id":"765d6a12-e855-4cff-afe8-80cc1fb85794","system_id":"levelo_inurba_marseille","lat":43.322885,"lon":5.382594,"is_reserved":false,"is_disabled":false,"rental_uris":{"android":"levelo://app?vid=765d6a12-e855-4cff-afe8-80cc1fb85794","ios":"levelo://app?vid=765d6a12-e855-4cff-afe8-80cc1fb85794"},"vehicle_type_id":"4","last_reported":1721585382,"current_range_meters":23600,"station_id":"ce4bhr12rcd13ifvqhqg","pricing_plan_id":"cebpf4jnsgd1na2vs0mg"},{"bike_id":"5e66a98c-7fc3-4cff-a069-20545dff3ed9","system_id":"levelo_inurba_marseille","lat":43.32283,"lon":5.38268,"is_reserved":false,"is_disabled":false,"rental_uris":{"android":"levelo://app?vid=5e66a98c-7fc3-4cff-a069-20545dff3ed9","ios":"levelo://app?vid=5e66a98c-7fc3-4cff-a069-20545dff3ed9"},"vehicle_type_id":"4","last_reported":1721585382,"current_range_meters":13200,"station_id":"ce4bhr12rcd13ifvqhqg","pricing_plan_id":"cebpf4jnsgd1na2vs0mg"},{"bike_id":"47511488-9e51-407f-95c1-0129806c910f","system_id":"levelo_inurba_marseille","lat":43.32292,"lon":5.38258,"is_reserved":false,"is_disabled":false,"rental_uris":{"android":"levelo://app?vid=47511488-9e51-407f-95c1-0129806c910f","ios":"levelo://app?vid=47511488-9e51-407f-95c1-0129806c910f"},"vehicle_type_id":"4","last_reported":1721585382,"current_range_meters":23600,"station_id":"ce4bhr12rcd13ifvqhqg","pricing_plan_id":"cebpf4jnsgd1na2vs0mg"},{"bike_id":"05f419f0-7d10-4683-a23a-e930531839f5","system_id":"levelo_inurba_marseille","lat":43.322872,"lon":5.382756,"is_reserved":false,"is_disabled":false,"rental_uris":{"android":"levelo://app?vid=05f419f0-7d10-4683-a23a-e930531839f5","ios":"levelo://app?vid=05f419f0-7d10-4683-a23a-e930531839f5"},"vehicle_type_id":"4","last_reported":1721585382,"current_range_meters":31200,"station_id":"ce4bhr12rcd13ifvqhqg","pricing_plan_id":"cebpf4jnsgd1na2vs0mg"},{"bike_id":"8bbb2f7b-401f-4d2b-a904-5ff22178f105","system_id":"levelo_inurba_marseille","lat":43.322872,"lon":5.382756,"is_reserved":false,"is_disabled":false,"rental_uris":{"android":"levelo://app?vid=8bbb2f7b-401f-4d2b-a904-5ff22178f105","ios":"levelo://app?vid=8bbb2f7b-401f-4d2b-a904-5ff22178f105"},"vehicle_type_id":"4","last_reported":1721585382,"current_range_meters":30400,"station_id":"ce4bhr12rcd13ifvqhqg","pricing_plan_id":"cebpf4jnsgd1na2vs0mg"},{"bike_id":"8cf1bcd7-c540-4393-83fb-58652ed92bc5","system_id":"levelo_inurba_marseille","lat":43.322872,"lon":5.382756,"is_reserved":false,"is_disabled":false,"rental_uris":{"android":"levelo://app?vid=8cf1bcd7-c540-4393-83fb-58652ed92bc5","ios":"levelo://app?vid=8cf1bcd7-c540-4393-83fb-58652ed92bc5"},"vehicle_type_id":"4","last_reported":1721585382,"current_range_meters":30400,"station_id":"ce4bhr12rcd13ifvqhqg","pricing_plan_id":"cebpf4jnsgd1na2vs0mg"},{"bike_id":"77b2323a-b4ee-4a99-ba00-b7410191cbd0","system_id":"levelo_inurba_marseille","lat":43.322927,"lon":5.382742,"is_reserved":false,"is_disabled":false,"rental_uris":{"android":"levelo://app?vid=77b2323a-b4ee-4a99-ba00-b7410191cbd0","ios":"levelo://app?vid=77b2323a-b4ee-4a99-ba00-b7410191cbd0"},"vehicle_type_id":"4","last_reported":1721585382,"current_range_meters":27600,"station_id":"ce4bhr12rcd13ifvqhqg","pricing_plan_id":"cebpf4jnsgd1na2vs0mg"},{"bike_id":"e980c366-b1ff-43a2-95dc-151f4bf6b925","system_id":"levelo_inurba_marseille","lat":43.297163,"lon":5.365866,"is_reserved":false,"is_disabled":false,"rental_uris":{"android":"levelo://app?vid=e980c366-b1ff-43a2-95dc-151f4bf6b925","ios":"levelo://app?vid=e980c366-b1ff-43a2-95dc-151f4bf6b925"},"vehicle_type_id":"4","last_reported":1721585382,"current_range_meters":29200,"station_id":"ce4bgn12rcd13ifvqbt0","pricing_plan_id":"cebpf4jnsgd1na2vs0mg"},{"bike_id":"77c92b09-a899-472b-ab9a-50634ce6f955","system_id":"levelo_inurba_marseille","lat":43.2968,"lon":5.37291,"is_reserved":false,"is_disabled":false,"rental_uris":{"android":"levelo://app?vid=77c92b09-a899-472b-ab9a-50634ce6f955","ios":"levelo://app?vid=77c92b09-a899-472b-ab9a-50634ce6f955"},"vehicle_type_id":"4","last_reported":1721585382,"current_range_meters":14400,"station_id":"ce4bgk12rcd13ifvqbj0","pricing_plan_id":"cebpf4jnsgd1na2vs0mg"},{"bike_id":"0a1a1e65-4aa5-4120-880f-9ea920580b4e","system_id":"levelo_inurba_marseille","lat":43.2968,"lon":5.37291,"is_reserved":false,"is_disabled":false,"rental_uris":{"android":"levelo://app?vid=0a1a1e65-4aa5-4120-880f-9ea920580b4e","ios":"levelo://app?vid=0a1a1e65-4aa5-4120-880f-9ea920580b4e"},"vehicle_type_id":"4","last_reported":1721585382,"current_range_meters":14000,"station_id":"ce4bgk12rcd13ifvqbj0","pricing_plan_id":"cebpf4jnsgd1na2vs0mg"},{"bike_id":"4f071ffb-ae52-429f-bc2e-669cd2ae2229","system_id":"levelo_inurba_marseille","lat":43.29607,"lon":5.36944,"is_reserved":false,"is_disabled":false,"rental_uris":{"android":"levelo://app?vid=4f071ffb-ae52-429f-bc2e-669cd2ae2229","ios":"levelo://app?vid=4f071ffb-ae52-429f-bc2e-669cd2ae2229"},"vehicle_type_id":"4","last_reported":1721585382,"current_range_meters":5200,"station_id":"","pricing_plan_id":"cebpf4jnsgd1na2vs0mg"},{"bike_id":"bfc039a4-96b7-47c7-8d69-2eeeb81b3971","system_id":"levelo_inurba_marseille","lat":43.29605,"lon":5.36947,"is_reserved":false,"is_disabled":false,"rental_uris":{"android":"levelo://app?vid=bfc039a4-96b7-47c7-8d69-2eeeb81b3971","ios":"levelo://app?vid=bfc039a4-96b7-47c7-8d69-2eeeb81b3971"},"vehicle_type_id":"4","last_reported":1721585382,"current_range_meters":8000,"station_id":"","pricing_plan_id":"cebpf4jnsgd1na2vs0mg"},{"bike_id":"492ebc4e-7467-4e7e-981d-434d7558a6ca","system_id":"levelo_inurba_marseille","lat":43.296129,"lon":5.370777,"is_reserved":false,"is_disabled":false,"rental_uris":{"android":"levelo://app?vid=492ebc4e-7467-4e7e-981d-434d7558a6ca","ios":"levelo://app?vid=492ebc4e-7467-4e7e-981d-434d7558a6ca"},"vehicle_type_id":"4","last_reported":1721585382,"current_range_meters":15200,"station_id":"ce4bgnh2rcd13ifvqc0g","pricing_plan_id":"cebpf4jnsgd1na2vs0mg"},{"bike_id":"b212d6a5-4e83-4726-936c-71f5f0c5189c","system_id":"levelo_inurba_marseille","lat":43.29573,"lon":5.367355,"is_reserved":false,"is_disabled":false,"rental_uris":{"android":"levelo://app?vid=b212d6a5-4e83-4726-936c-71f5f0c5189c","ios":"levelo://app?vid=b212d6a5-4e83-4726-936c-71f5f0c5189c"},"vehicle_type_id":"4","last_reported":1721585382,"current_range_meters":28800,"station_id":"ce4bgph2rcd13ifvqc2g","pricing_plan_id":"cebpf4jnsgd1na2vs0mg"},{"bike_id":"e11899fe-4568-4f27-80ca-e9b8371157d8","system_id":"levelo_inurba_marseille","lat":43.296131,"lon":5.370773,"is_reserved":false,"is_disabled":false,"rental_uris":{"android":"levelo://app?vid=e11899fe-4568-4f27-80ca-e9b8371157d8","ios":"levelo://app?vid=e11899fe-4568-4f27-80ca-e9b8371157d8"},"vehicle_type_id":"4","last_reported":1721585382,"current_range_meters":0,"station_id":"ce4bgnh2rcd13ifvqc0g","pricing_plan_id":"cebpf4jnsgd1na2vs0mg"},{"bike_id":"57a2a991-f0e1-4151-bf2c-6d25de4a691d","system_id":"levelo_inurba_marseille","lat":43.29573,"lon":5.367355,"is_reserved":false,"is_disabled":false,"rental_uris":{"android":"levelo://app?vid=57a2a991-f0e1-4151-bf2c-6d25de4a691d","ios":"levelo://app?vid=57a2a991-f0e1-4151-bf2c-6d25de4a691d"},"vehicle_type_id":"4","last_reported":1721585382,"current_range_meters":16400,"station_id":"ce4bgph2rcd13ifvqc2g","pricing_plan_id":"cebpf4jnsgd1na2vs0mg"},{"bike_id":"a35d3175-e143-42d3-a191-914b70aa341f","system_id":"levelo_inurba_marseille","lat":43.29573,"lon":5.367355,"is_reserved":false,"is_disabled":false,"rental_uris":{"android":"levelo://app?vid=a35d3175-e143-42d3-a191-914b70aa341f","ios":"levelo://app?vid=a35d3175-e143-42d3-a191-914b70aa341f"},"vehicle_type_id":"4","last_reported":1721585382,"current_range_meters":26000,"station_id":"ce4bgph2rcd13ifvqc2g","pricing_plan_id":"cebpf4jnsgd1na2vs0mg"},{"bike_id":"9dadb301-d7e4-4597-bdff-c821663e8eb4","system_id":"levelo_inurba_marseille","lat":43.29573,"lon":5.367355,"is_reserved":false,"is_disabled":false,"rental_uris":{"android":"levelo://app?vid=9dadb301-d7e4-4597-bdff-c821663e8eb4","ios":"levelo://app?vid=9dadb301-d7e4-4597-bdff-c821663e8eb4"},"vehicle_type_id":"4","last_reported":1721585382,"current_range_meters":22400,"station_id":"ce4bgph2rcd13ifvqc2g","pricing_plan_id":"cebpf4jnsgd1na2vs0mg"},{"bike_id":"41cdafef-62d2-4d05-8701-e8d4ca7542c1","system_id":"levelo_inurba_marseille","lat":43.32887,"lon":5.374937,"is_reserved":false,"is_disabled":false,"rental_uris":{"android":"levelo://app?vid=41cdafef-62d2-4d05-8701-e8d4ca7542c1","ios":"levelo://app?vid=41cdafef-62d2-4d05-8701-e8d4ca7542c1"},"vehicle_type_id":"4","last_reported":1721585382,"current_range_meters":21200,"station_id":"","pricing_plan_id":"cebpf4jnsgd1na2vs0mg"},{"bike_id":"b90e7cb1-0edb-4f97-b000-247659c7d4ff","system_id":"levelo_inurba_marseille","lat":43.309589,"lon":5.390258,"is_reserved":false,"is_disabled":false,"rental_uris":{"android":"levelo://app?vid=b90e7cb1-0edb-4f97-b000-247659c7d4ff","ios":"levelo://app?vid=b90e7cb1-0edb-4f97-b000-247659c7d4ff"},"vehicle_type_id":"4","last_reported":1721585382,"current_range_meters":0,"station_id":"ce4bgup2rcd13ifvqco0","pricing_plan_id":"cebpf4jnsgd1na2vs0mg"},{"bike_id":"edb87f74-afff-4b94-8bb6-1ec3dc9df446","system_id":"levelo_inurba_marseille","lat":43.296935,"lon":5.376544,"is_reserved":false,"is_disabled":false,"rental_uris":{"android":"levelo://app?vid=edb87f74-afff-4b94-8bb6-1ec3dc9df446","ios":"levelo://app?vid=edb87f74-afff-4b94-8bb6-1ec3dc9df446"},"vehicle_type_id":"4","last_reported":1721585382,"current_range_meters":4400,"station_id":"ce4bgkh2rcd13ifvqbl0","pricing_plan_id":"cebpf4jnsgd1na2vs0mg"},{"bike_id":"4926c68e-8102-471c-85ed-3d81aa3552e2","system_id":"levelo_inurba_marseille","lat":43.317557,"lon":5.390173,"is_reserved":false,"is_disabled":false,"rental_uris":{"android":"levelo://app?vid=4926c68e-8102-471c-85ed-3d81aa3552e2","ios":"levelo://app?vid=4926c68e-8102-471c-85ed-3d81aa3552e2"},"vehicle_type_id":"4","last_reported":1721585382,"current_range_meters":27600,"station_id":"ce4bhqp2rcd13ifvqhng","pricing_plan_id":"cebpf4jnsgd1na2vs0mg"},{"bike_id":"d7da865c-412d-4b28-a391-0283d3f4db25","system_id":"levelo_inurba_marseille","lat":43.309589,"lon":5.390258,"is_reserved":false,"is_disabled":false,"rental_uris":{"android":"levelo://app?vid=d7da865c-412d-4b28-a391-0283d3f4db25","ios":"levelo://app?vid=d7da865c-412d-4b28-a391-0283d3f4db25"},"vehicle_type_id":"4","last_reported":1721585382,"current_range_meters":12000,"station_id":"ce4bgup2rcd13ifvqco0","pricing_plan_id":"cebpf4jnsgd1na2vs0mg"},{"bike_id":"22bfa3e9-d1cd-4b48-b415-424a9f35ba8a","system_id":"levelo_inurba_marseille","lat":43.295748,"lon":5.37522,"is_reserved":false,"is_disabled":false,"rental_uris":{"android":"levelo://app?vid=22bfa3e9-d1cd-4b48-b415-424a9f35ba8a","ios":"levelo://app?vid=22bfa3e9-d1cd-4b48-b415-424a9f35ba8a"},"vehicle_type_id":"4","last_reported":1721585382,"current_range_meters":10800,"station_id":"ce4bgh92rcd13ifvqb50","pricing_plan_id":"cebpf4jnsgd1na2vs0mg"},{"bike_id":"2ec0de1b-c2dc-42f5-91c1-b2bbdbe0f304","system_id":"levelo_inurba_marseille","lat":43.298037,"lon":5.381066,"is_reserved":false,"is_disabled":false,"rental_uris":{"android":"levelo://app?vid=2ec0de1b-c2dc-42f5-91c1-b2bbdbe0f304","ios":"levelo://app?vid=2ec0de1b-c2dc-42f5-91c1-b2bbdbe0f304"},"vehicle_type_id":"4","last_reported":1721585382,"current_range_meters":0,"station_id":"ce4bgip2rcd13ifvqbb0","pricing_plan_id":"cebpf4jnsgd1na2vs0mg"},{"bike_id":"a9a2d43e-9c16-4fff-87b6-4bd61d1ceb15","system_id":"levelo_inurba_marseille","lat":43.296277,"lon":5.377108,"is_reserved":false,"is_disabled":false,"rental_uris":{"android":"levelo://app?vid=a9a2d43e-9c16-4fff-87b6-4bd61d1ceb15","ios":"levelo://app?vid=a9a2d43e-9c16-4fff-87b6-4bd61d1ceb15"},"vehicle_type_id":"4","last_reported":1721585382,"current_range_meters":15600,"station_id":"ce4bgi92rcd13ifvqb90","pricing_plan_id":"cebpf4jnsgd1na2vs0mg"},{"bike_id":"d495d9b1-d614-4b73-8a7d-1b1ae7d6e95f","system_id":"levelo_inurba_marseille","lat":43.295748,"lon":5.37522,"is_reserved":false,"is_disabled":false,"rental_uris":{"android":"levelo://app?vid=d495d9b1-d614-4b73-8a7d-1b1ae7d6e95f","ios":"levelo://app?vid=d495d9b1-d614-4b73-8a7d-1b1ae7d6e95f"},"vehicle_type_id":"4","last_reported":1721585382,"current_range_meters":17200,"station_id":"ce4bgh92rcd13ifvqb50","pricing_plan_id":"cebpf4jnsgd1na2vs0mg"},{"bike_id":"e82aa217-f474-4739-8cbc-e310f5912c14","system_id":"levelo_inurba_marseille","lat":43.295279,"lon":5.375048,"is_reserved":false,"is_disabled":false,"rental_uris":{"android":"levelo://app?vid=e82aa217-f474-4739-8cbc-e310f5912c14","ios":"levelo://app?vid=e82aa217-f474-4739-8cbc-e310f5912c14"},"vehicle_type_id":"4","last_reported":1721585382,"current_range_meters":31200,"station_id":"ce4bgkp2rcd13ifvqbmg","pricing_plan_id":"cebpf4jnsgd1na2vs0mg"},{"bike_id":"02b145e2-444d-4f0b-b459-4d18daf2edb0","system_id":"levelo_inurba_marseille","lat":43.29759,"lon":5.38111,"is_reserved":false,"is_disabled":false,"rental_uris":{"android":"levelo://app?vid=02b145e2-444d-4f0b-b459-4d18daf2edb0","ios":"levelo://app?vid=02b145e2-444d-4f0b-b459-4d18daf2edb0"},"vehicle_type_id":"4","last_reported":1721585382,"current_range_meters":800,"station_id":"","pricing_plan_id":"cebpf4jnsgd1na2vs0mg"},{"bike_id":"8cb33db2-a294-4bc9-b86c-a20999b0545e","system_id":"levelo_inurba_marseille","lat":43.295279,"lon":5.375048,"is_reserved":false,"is_disabled":false,"rental_uris":{"android":"levelo://app?vid=8cb33db2-a294-4bc9-b86c-a20999b0545e","ios":"levelo://app?vid=8cb33db2-a294-4bc9-b86c-a20999b0545e"},"vehicle_type_id":"4","last_reported":1721585382,"current_range_meters":11200,"station_id":"ce4bgkp2rcd13ifvqbmg","pricing_plan_id":"cebpf4jnsgd1na2vs0mg"},{"bike_id":"f9f935b8-a109-4101-9157-1081ada5c157","system_id":"levelo_inurba_marseille","lat":43.299724,"lon":5.384848,"is_reserved":false,"is_disabled":false,"rental_uris":{"android":"levelo://app?vid=f9f935b8-a109-4101-9157-1081ada5c157","ios":"levelo://app?vid=f9f935b8-a109-4101-9157-1081ada5c157"},"vehicle_type_id":"4","last_reported":1721585382,"current_range_meters":4400,"station_id":"ce4bgj92rcd13ifvqbd0","pricing_plan_id":"cebpf4jnsgd1na2vs0mg"},{"bike_id":"18491e9b-089a-423d-92a6-2224fb4ac1cb","system_id":"levelo_inurba_marseille","lat":43.30473,"lon":5.39011,"is_reserved":false,"is_disabled":false,"rental_uris":{"android":"levelo://app?vid=18491e9b-089a-423d-92a6-2224fb4ac1cb","ios":"levelo://app?vid=18491e9b-089a-423d-92a6-2224fb4ac1cb"},"vehicle_type_id":"4","last_reported":1721585382,"current_range_meters":0,"station_id":"","pricing_plan_id":"cebpf4jnsgd1na2vs0mg"},{"bike_id":"9ee8c7db-ff14-491f-b14a-84c98c871894","system_id":"levelo_inurba_marseille","lat":43.301396,"lon":5.387812,"is_reserved":false,"is_disabled":false,"rental_uris":{"android":"levelo://app?vid=9ee8c7db-ff14-491f-b14a-84c98c871894","ios":"levelo://app?vid=9ee8c7db-ff14-491f-b14a-84c98c871894"},"vehicle_type_id":"4","last_reported":1721585382,"current_range_meters":9200,"station_id":"ce4bghh2rcd13ifvqb60","pricing_plan_id":"cebpf4jnsgd1na2vs0mg"},{"bike_id":"1821d585-22db-416d-874f-9e62c6af1496","system_id":"levelo_inurba_marseille","lat":43.301396,"lon":5.387812,"is_reserved":false,"is_disabled":false,"rental_uris":{"android":"levelo://app?vid=1821d585-22db-416d-874f-9e62c6af1496","ios":"levelo://app?vid=1821d585-22db-416d-874f-9e62c6af1496"},"vehicle_type_id":"4","last_reported":1721585382,"current_range_meters":20000,"station_id":"ce4bghh2rcd13ifvqb60","pricing_plan_id":"cebpf4jnsgd1na2vs0mg"},{"bike_id":"405c5694-2acd-42d8-aef3-a745144f4eb7","system_id":"levelo_inurba_marseille","lat":43.32367,"lon":5.388836,"is_reserved":false,"is_disabled":false,"rental_uris":{"android":"levelo://app?vid=405c5694-2acd-42d8-aef3-a745144f4eb7","ios":"levelo://app?vid=405c5694-2acd-42d8-aef3-a745144f4eb7"},"vehicle_type_id":"4","last_reported":1721585382,"current_range_meters":2000,"station_id":"ce4bhqp2rcd13ifvqhog","pricing_plan_id":"cebpf4jnsgd1na2vs0mg"},{"bike_id":"caee82b0-cfa9-4b66-8cf7-640d82c7f9b2","system_id":"levelo_inurba_marseille","lat":43.32367,"lon":5.388836,"is_reserved":false,"is_disabled":false,"rental_uris":{"android":"levelo://app?vid=caee82b0-cfa9-4b66-8cf7-640d82c7f9b2","ios":"levelo://app?vid=caee82b0-cfa9-4b66-8cf7-640d82c7f9b2"},"vehicle_type_id":"4","last_reported":1721585382,"current_range_meters":11200,"station_id":"ce4bhqp2rcd13ifvqhog","pricing_plan_id":"cebpf4jnsgd1na2vs0mg"},{"bike_id":"e76e1216-80c6-440d-9de7-7f99b52d91b9","system_id":"levelo_inurba_marseille","lat":43.32367,"lon":5.388836,"is_reserved":false,"is_disabled":false,"rental_uris":{"android":"levelo://app?vid=e76e1216-80c6-440d-9de7-7f99b52d91b9","ios":"levelo://app?vid=e76e1216-80c6-440d-9de7-7f99b52d91b9"},"vehicle_type_id":"4","last_reported":1721585382,"current_range_meters":7200,"station_id":"ce4bhqp2rcd13ifvqhog","pricing_plan_id":"cebpf4jnsgd1na2vs0mg"},{"bike_id":"4698442a-ab93-4e1b-8931-039c77fa8482","system_id":"levelo_inurba_marseille","lat":43.32367,"lon":5.388836,"is_reserved":false,"is_disabled":false,"rental_uris":{"android":"levelo://app?vid=4698442a-ab93-4e1b-8931-039c77fa8482","ios":"levelo://app?vid=4698442a-ab93-4e1b-8931-039c77fa8482"},"vehicle_type_id":"4","last_reported":1721585382,"current_range_meters":4800,"station_id":"ce4bhqp2rcd13ifvqhog","pricing_plan_id":"cebpf4jnsgd1na2vs0mg"},{"bike_id":"a60da848-6125-4677-b3d4-34009a8dd39a","system_id":"levelo_inurba_marseille","lat":43.29632,"lon":5.38092,"is_reserved":false,"is_disabled":false,"rental_uris":{"android":"levelo://app?vid=a60da848-6125-4677-b3d4-34009a8dd39a","ios":"levelo://app?vid=a60da848-6125-4677-b3d4-34009a8dd39a"},"vehicle_type_id":"4","last_reported":1721585382,"current_range_meters":12400,"station_id":"","pricing_plan_id":"cebpf4jnsgd1na2vs0mg"},{"bike_id":"4c79b832-4152-4373-b139-ad170925b7bd","system_id":"levelo_inurba_marseille","lat":43.29601,"lon":5.381084,"is_reserved":false,"is_disabled":false,"rental_uris":{"android":"levelo://app?vid=4c79b832-4152-4373-b139-ad170925b7bd","ios":"levelo://app?vid=4c79b832-4152-4373-b139-ad170925b7bd"},"vehicle_type_id":"4","last_reported":1721585382,"current_range_meters":14800,"station_id":"ce4bgl12rcd13ifvqbo0","pricing_plan_id":"cebpf4jnsgd1na2vs0mg"},{"bike_id":"a714632d-44c0-4d33-8aa9-55a02a942e0d","system_id":"levelo_inurba_marseille","lat":43.325154,"lon":5.387793,"is_reserved":false,"is_disabled":false,"rental_uris":{"android":"levelo://app?vid=a714632d-44c0-4d33-8aa9-55a02a942e0d","ios":"levelo://app?vid=a714632d-44c0-4d33-8aa9-55a02a942e0d"},"vehicle_type_id":"4","last_reported":1721585382,"current_range_meters":6000,"station_id":"","pricing_plan_id":"cebpf4jnsgd1na2vs0mg"},{"bike_id":"08802b96-1071-4d91-9fbb-bcaa5edb60c2","system_id":"levelo_inurba_marseille","lat":43.293259,"lon":5.371586,"is_reserved":false,"is_disabled":false,"rental_uris":{"android":"levelo://app?vid=08802b96-1071-4d91-9fbb-bcaa5edb60c2","ios":"levelo://app?vid=08802b96-1071-4d91-9fbb-bcaa5edb60c2"},"vehicle_type_id":"4","last_reported":1721585382,"current_range_meters":10000,"station_id":"ce4bgh92rcd13ifvqb40","pricing_plan_id":"cebpf4jnsgd1na2vs0mg"},{"bike_id":"b77e818c-340b-47b8-8d15-87e54b1d3f6e","system_id":"levelo_inurba_marseille","lat":43.293259,"lon":5.371586,"is_reserved":false,"is_disabled":false,"rental_uris":{"android":"levelo://app?vid=b77e818c-340b-47b8-8d15-87e54b1d3f6e","ios":"levelo://app?vid=b77e818c-340b-47b8-8d15-87e54b1d3f6e"},"vehicle_type_id":"4","last_reported":1721585382,"current_range_meters":20400,"station_id":"ce4bgh92rcd13ifvqb40","pricing_plan_id":"cebpf4jnsgd1na2vs0mg"},{"bike_id":"4fd2b77a-9a6e-4445-a497-d8f5327bc524","system_id":"levelo_inurba_marseille","lat":43.292749,"lon":5.368398,"is_reserved":false,"is_disabled":false,"rental_uris":{"android":"levelo://app?vid=4fd2b77a-9a6e-4445-a497-d8f5327bc524","ios":"levelo://app?vid=4fd2b77a-9a6e-4445-a497-d8f5327bc524"},"vehicle_type_id":"4","last_reported":1721585382,"current_range_meters":2000,"station_id":"ce4bhbp2rcd13ifvqesg","pricing_plan_id":"cebpf4jnsgd1na2vs0mg"},{"bike_id":"2fa729a3-4dfb-4562-a6ee-b70d23e58234","system_id":"levelo_inurba_marseille","lat":43.29277,"lon":5.36842,"is_reserved":false,"is_disabled":false,"rental_uris":{"android":"levelo://app?vid=2fa729a3-4dfb-4562-a6ee-b70d23e58234","ios":"levelo://app?vid=2fa729a3-4dfb-4562-a6ee-b70d23e58234"},"vehicle_type_id":"4","last_reported":1721585382,"current_range_meters":6400,"station_id":"ce4bhbp2rcd13ifvqesg","pricing_plan_id":"cebpf4jnsgd1na2vs0mg"},{"bike_id":"2bb6f90a-bf1e-486b-8751-7df49e5f89de","system_id":"levelo_inurba_marseille","lat":43.332767,"lon":5.362675,"is_reserved":false,"is_disabled":false,"rental_uris":{"android":"levelo://app?vid=2bb6f90a-bf1e-486b-8751-7df49e5f89de","ios":"levelo://app?vid=2bb6f90a-bf1e-486b-8751-7df49e5f89de"},"vehicle_type_id":"4","last_reported":1721585382,"current_range_meters":2800,"station_id":"","pricing_plan_id":"cebpf4jnsgd1na2vs0mg"},{"bike_id":"9a16adb8-f790-423c-940e-040e52c20806","system_id":"levelo_inurba_marseille","lat":43.29234,"lon":5.36472,"is_reserved":false,"is_disabled":false,"rental_uris":{"android":"levelo://app?vid=9a16adb8-f790-423c-940e-040e52c20806","ios":"levelo://app?vid=9a16adb8-f790-423c-940e-040e52c20806"},"vehicle_type_id":"4","last_reported":1721585382,"current_range_meters":30400,"station_id":"","pricing_plan_id":"cebpf4jnsgd1na2vs0mg"},{"bike_id":"67500cad-31d0-4834-ad6a-4d54135847d5","system_id":"levelo_inurba_marseille","lat":43.302992,"lon":5.392136,"is_reserved":false,"is_disabled":false,"rental_uris":{"android":"levelo://app?vid=67500cad-31d0-4834-ad6a-4d54135847d5","ios":"levelo://app?vid=67500cad-31d0-4834-ad6a-4d54135847d5"},"vehicle_type_id":"4","last_reported":1721585382,"current_range_meters":18400,"station_id":"ce4bgkh2rcd13ifvqbk0","pricing_plan_id":"cebpf4jnsgd1na2vs0mg"},{"bike_id":"ae077a89-417f-49d2-aebf-37818d5f4e09","system_id":"levelo_inurba_marseille","lat":43.293009,"lon":5.374584,"is_reserved":false,"is_disabled":false,"rental_uris":{"android":"levelo://app?vid=ae077a89-417f-49d2-aebf-37818d5f4e09","ios":"levelo://app?vid=ae077a89-417f-49d2-aebf-37818d5f4e09"},"vehicle_type_id":"4","last_reported":1721585382,"current_range_meters":13200,"station_id":"ce4bgi12rcd13ifvqb70","pricing_plan_id":"cebpf4jnsgd1na2vs0mg"},{"bike_id":"64a13cc3-e682-4e15-9933-62233cc6e7c6","system_id":"levelo_inurba_marseille","lat":43.293009,"lon":5.374584,"is_reserved":false,"is_disabled":false,"rental_uris":{"android":"levelo://app?vid=64a13cc3-e682-4e15-9933-62233cc6e7c6","ios":"levelo://app?vid=64a13cc3-e682-4e15-9933-62233cc6e7c6"},"vehicle_type_id":"4","last_reported":1721585382,"current_range_meters":18800,"station_id":"ce4bgi12rcd13ifvqb70","pricing_plan_id":"cebpf4jnsgd1na2vs0mg"},{"bike_id":"07562453-1523-4ec2-b887-ac21c4e42a50","system_id":"levelo_inurba_marseille","lat":43.293009,"lon":5.374584,"is_reserved":false,"is_disabled":false,"rental_uris":{"android":"levelo://app?vid=07562453-1523-4ec2-b887-ac21c4e42a50","ios":"levelo://app?vid=07562453-1523-4ec2-b887-ac21c4e42a50"},"vehicle_type_id":"4","last_reported":1721585382,"current_range_meters":29200,"station_id":"ce4bgi12rcd13ifvqb70","pricing_plan_id":"cebpf4jnsgd1na2vs0mg"},{"bike_id":"c0dcd32a-b0c0-489f-9f66-bcb3b69d008b","system_id":"levelo_inurba_marseille","lat":43.302992,"lon":5.392136,"is_reserved":false,"is_disabled":false,"rental_uris":{"android":"levelo://app?vid=c0dcd32a-b0c0-489f-9f66-bcb3b69d008b","ios":"levelo://app?vid=c0dcd32a-b0c0-489f-9f66-bcb3b69d008b"},"vehicle_type_id":"4","last_reported":1721585382,"current_range_meters":800,"station_id":"ce4bgkh2rcd13ifvqbk0","pricing_plan_id":"cebpf4jnsgd1na2vs0mg"},{"bike_id":"37fdc975-9cb6-49d6-ba39-8d3b6a751d0e","system_id":"levelo_inurba_marseille","lat":43.292311,"lon":5.360731,"is_reserved":false,"is_disabled":false,"rental_uris":{"android":"levelo://app?vid=37fdc975-9cb6-49d6-ba39-8d3b6a751d0e","ios":"levelo://app?vid=37fdc975-9cb6-49d6-ba39-8d3b6a751d0e"},"vehicle_type_id":"4","last_reported":1721585382,"current_range_meters":3600,"station_id":"ce4bhbh2rcd13ifvqeqg","pricing_plan_id":"cebpf4jnsgd1na2vs0mg"},{"bike_id":"258ddfef-f355-48ae-abcd-b2f2c4d13e71","system_id":"levelo_inurba_marseille","lat":43.292311,"lon":5.360731,"is_reserved":false,"is_disabled":false,"rental_uris":{"android":"levelo://app?vid=258ddfef-f355-48ae-abcd-b2f2c4d13e71","ios":"levelo://app?vid=258ddfef-f355-48ae-abcd-b2f2c4d13e71"},"vehicle_type_id":"4","last_reported":1721585382,"current_range_meters":9200,"station_id":"ce4bhbh2rcd13ifvqeqg","pricing_plan_id":"cebpf4jnsgd1na2vs0mg"},{"bike_id":"5493531c-25bd-4d73-9299-d03d218d53c8","system_id":"levelo_inurba_marseille","lat":43.292311,"lon":5.360731,"is_reserved":false,"is_disabled":false,"rental_uris":{"android":"levelo://app?vid=5493531c-25bd-4d73-9299-d03d218d53c8","ios":"levelo://app?vid=5493531c-25bd-4d73-9299-d03d218d53c8"},"vehicle_type_id":"4","last_reported":1721585382,"current_range_meters":26000,"station_id":"ce4bhbh2rcd13ifvqeqg","pricing_plan_id":"cebpf4jnsgd1na2vs0mg"},{"bike_id":"134579ed-62f2-442e-9e51-31b9f26e7eaa","system_id":"levelo_inurba_marseille","lat":43.292311,"lon":5.360731,"is_reserved":false,"is_disabled":false,"rental_uris":{"android":"levelo://app?vid=134579ed-62f2-442e-9e51-31b9f26e7eaa","ios":"levelo://app?vid=134579ed-62f2-442e-9e51-31b9f26e7eaa"},"vehicle_type_id":"4","last_reported":1721585382,"current_range_meters":10400,"station_id":"ce4bhbh2rcd13ifvqeqg","pricing_plan_id":"cebpf4jnsgd1na2vs0mg"},{"bike_id":"c1463560-4e71-4af7-953b-1230ff5e2625","system_id":"levelo_inurba_marseille","lat":43.29222,"lon":5.3605,"is_reserved":false,"is_disabled":false,"rental_uris":{"android":"levelo://app?vid=c1463560-4e71-4af7-953b-1230ff5e2625","ios":"levelo://app?vid=c1463560-4e71-4af7-953b-1230ff5e2625"},"vehicle_type_id":"4","last_reported":1721585382,"current_range_meters":31600,"station_id":"ce4bhbh2rcd13ifvqeqg","pricing_plan_id":"cebpf4jnsgd1na2vs0mg"},{"bike_id":"abda6404-35c5-4acc-8f69-89131ac8eb6c","system_id":"levelo_inurba_marseille","lat":43.292311,"lon":5.360731,"is_reserved":false,"is_disabled":false,"rental_uris":{"android":"levelo://app?vid=abda6404-35c5-4acc-8f69-89131ac8eb6c","ios":"levelo://app?vid=abda6404-35c5-4acc-8f69-89131ac8eb6c"},"vehicle_type_id":"4","last_reported":1721585382,"current_range_meters":26400,"station_id":"ce4bhbh2rcd13ifvqeqg","pricing_plan_id":"cebpf4jnsgd1na2vs0mg"},{"bike_id":"8b1a97e1-f4fe-4f32-9eaf-898ba2eda085","system_id":"levelo_inurba_marseille","lat":43.293708,"lon":5.37931,"is_reserved":false,"is_disabled":false,"rental_uris":{"android":"levelo://app?vid=8b1a97e1-f4fe-4f32-9eaf-898ba2eda085","ios":"levelo://app?vid=8b1a97e1-f4fe-4f32-9eaf-898ba2eda085"},"vehicle_type_id":"4","last_reported":1721585382,"current_range_meters":3200,"station_id":"","pricing_plan_id":"cebpf4jnsgd1na2vs0mg"},{"bike_id":"459a7b7e-4d48-4d0b-a038-f44b336d4e5a","system_id":"levelo_inurba_marseille","lat":43.291671,"lon":5.371575,"is_reserved":false,"is_disabled":false,"rental_uris":{"android":"levelo://app?vid=459a7b7e-4d48-4d0b-a038-f44b336d4e5a","ios":"levelo://app?vid=459a7b7e-4d48-4d0b-a038-f44b336d4e5a"},"vehicle_type_id":"4","last_reported":1721585382,"current_range_meters":8800,"station_id":"ce4bha92rcd13ifvqeh0","pricing_plan_id":"cebpf4jnsgd1na2vs0mg"},{"bike_id":"71b221d0-4883-462a-a133-f6eea58edb3c","system_id":"levelo_inurba_marseille","lat":43.291994,"lon":5.357886,"is_reserved":false,"is_disabled":false,"rental_uris":{"android":"levelo://app?vid=71b221d0-4883-462a-a133-f6eea58edb3c","ios":"levelo://app?vid=71b221d0-4883-462a-a133-f6eea58edb3c"},"vehicle_type_id":"4","last_reported":1721585382,"current_range_meters":26000,"station_id":"ce4bhb12rcd13ifvqel0","pricing_plan_id":"cebpf4jnsgd1na2vs0mg"},{"bike_id":"55853694-279f-45cf-b4bb-891a70ac6a59","system_id":"levelo_inurba_marseille","lat":43.292005,"lon":5.357875,"is_reserved":false,"is_disabled":false,"rental_uris":{"android":"levelo://app?vid=55853694-279f-45cf-b4bb-891a70ac6a59","ios":"levelo://app?vid=55853694-279f-45cf-b4bb-891a70ac6a59"},"vehicle_type_id":"4","last_reported":1721585382,"current_range_meters":21200,"station_id":"ce4bhb12rcd13ifvqel0","pricing_plan_id":"cebpf4jnsgd1na2vs0mg"},{"bike_id":"50342014-1a76-4db4-aa0b-034a88877145","system_id":"levelo_inurba_marseille","lat":43.292005,"lon":5.357875,"is_reserved":false,"is_disabled":false,"rental_uris":{"android":"levelo://app?vid=50342014-1a76-4db4-aa0b-034a88877145","ios":"levelo://app?vid=50342014-1a76-4db4-aa0b-034a88877145"},"vehicle_type_id":"4","last_reported":1721585382,"current_range_meters":15600,"station_id":"ce4bhb12rcd13ifvqel0","pricing_plan_id":"cebpf4jnsgd1na2vs0mg"},{"bike_id":"c6aa62a9-29e5-4392-85a2-14e730408629","system_id":"levelo_inurba_marseille","lat":43.290779,"lon":5.371482,"is_reserved":false,"is_disabled":false,"rental_uris":{"android":"levelo://app?vid=c6aa62a9-29e5-4392-85a2-14e730408629","ios":"levelo://app?vid=c6aa62a9-29e5-4392-85a2-14e730408629"},"vehicle_type_id":"4","last_reported":1721585382,"current_range_meters":20800,"station_id":"ce4bh5p2rcd13ifvqe4g","pricing_plan_id":"cebpf4jnsgd1na2vs0mg"},{"bike_id":"2b5c4915-2340-45e6-9fd6-c1db937b8e8c","system_id":"levelo_inurba_marseille","lat":43.302008,"lon":5.394694,"is_reserved":false,"is_disabled":false,"rental_uris":{"android":"levelo://app?vid=2b5c4915-2340-45e6-9fd6-c1db937b8e8c","ios":"levelo://app?vid=2b5c4915-2340-45e6-9fd6-c1db937b8e8c"},"vehicle_type_id":"4","last_reported":1721585382,"current_range_meters":13600,"station_id":"ce4bh0p2rcd13ifvqd70","pricing_plan_id":"cebpf4jnsgd1na2vs0mg"},{"bike_id":"f26677eb-b1ca-4d27-ab1c-d7778cf9d14a","system_id":"levelo_inurba_marseille","lat":43.29106,"lon":5.37772,"is_reserved":false,"is_disabled":false,"rental_uris":{"android":"levelo://app?vid=f26677eb-b1ca-4d27-ab1c-d7778cf9d14a","ios":"levelo://app?vid=f26677eb-b1ca-4d27-ab1c-d7778cf9d14a"},"vehicle_type_id":"4","last_reported":1721585382,"current_range_meters":800,"station_id":"","pricing_plan_id":"cebpf4jnsgd1na2vs0mg"},{"bike_id":"382ae719-a6c8-45fe-8d12-4e8861933291","system_id":"levelo_inurba_marseille","lat":43.2895,"lon":5.36635,"is_reserved":false,"is_disabled":false,"rental_uris":{"android":"levelo://app?vid=382ae719-a6c8-45fe-8d12-4e8861933291","ios":"levelo://app?vid=382ae719-a6c8-45fe-8d12-4e8861933291"},"vehicle_type_id":"4","last_reported":1721585382,"current_range_meters":31200,"station_id":"ce4bhap2rcd13ifvqek0","pricing_plan_id":"cebpf4jnsgd1na2vs0mg"},{"bike_id":"834e55df-cd61-44d1-8f2f-025232ecb15f","system_id":"levelo_inurba_marseille","lat":43.289184,"lon":5.366408,"is_reserved":false,"is_disabled":false,"rental_uris":{"android":"levelo://app?vid=834e55df-cd61-44d1-8f2f-025232ecb15f","ios":"levelo://app?vid=834e55df-cd61-44d1-8f2f-025232ecb15f"},"vehicle_type_id":"4","last_reported":1721585382,"current_range_meters":17600,"station_id":"ce4bhap2rcd13ifvqek0","pricing_plan_id":"cebpf4jnsgd1na2vs0mg"},{"bike_id":"42ed1358-3ee9-40b8-8766-f182b695c0a6","system_id":"levelo_inurba_marseille","lat":43.289184,"lon":5.366408,"is_reserved":false,"is_disabled":false,"rental_uris":{"android":"levelo://app?vid=42ed1358-3ee9-40b8-8766-f182b695c0a6","ios":"levelo://app?vid=42ed1358-3ee9-40b8-8766-f182b695c0a6"},"vehicle_type_id":"4","last_reported":1721585382,"current_range_meters":31600,"station_id":"ce4bhap2rcd13ifvqek0","pricing_plan_id":"cebpf4jnsgd1na2vs0mg"},{"bike_id":"684501a6-f105-4bfe-a07d-e7c7ad03d89d","system_id":"levelo_inurba_marseille","lat":43.2894,"lon":5.36625,"is_reserved":false,"is_disabled":false,"rental_uris":{"android":"levelo://app?vid=684501a6-f105-4bfe-a07d-e7c7ad03d89d","ios":"levelo://app?vid=684501a6-f105-4bfe-a07d-e7c7ad03d89d"},"vehicle_type_id":"4","last_reported":1721585382,"current_range_meters":31200,"station_id":"ce4bhap2rcd13ifvqek0","pricing_plan_id":"cebpf4jnsgd1na2vs0mg"},{"bike_id":"6f3539f8-2470-4acf-b3dd-7ff9f7f01abb","system_id":"levelo_inurba_marseille","lat":43.289184,"lon":5.366408,"is_reserved":false,"is_disabled":false,"rental_uris":{"android":"levelo://app?vid=6f3539f8-2470-4acf-b3dd-7ff9f7f01abb","ios":"levelo://app?vid=6f3539f8-2470-4acf-b3dd-7ff9f7f01abb"},"vehicle_type_id":"4","last_reported":1721585382,"current_range_meters":22400,"station_id":"ce4bhap2rcd13ifvqek0","pricing_plan_id":"cebpf4jnsgd1na2vs0mg"},{"bike_id":"f1efc412-c2b0-42e7-a109-8674c8049060","system_id":"levelo_inurba_marseille","lat":43.289468,"lon":5.363719,"is_reserved":false,"is_disabled":false,"rental_uris":{"android":"levelo://app?vid=f1efc412-c2b0-42e7-a109-8674c8049060","ios":"levelo://app?vid=f1efc412-c2b0-42e7-a109-8674c8049060"},"vehicle_type_id":"4","last_reported":1721585382,"current_range_meters":31200,"station_id":"ce4bhc92rcd13ifvqetg","pricing_plan_id":"cebpf4jnsgd1na2vs0mg"},{"bike_id":"21e66569-4689-4587-8af0-be90c812f6c9","system_id":"levelo_inurba_marseille","lat":43.29271,"lon":5.38441,"is_reserved":false,"is_disabled":false,"rental_uris":{"android":"levelo://app?vid=21e66569-4689-4587-8af0-be90c812f6c9","ios":"levelo://app?vid=21e66569-4689-4587-8af0-be90c812f6c9"},"vehicle_type_id":"4","last_reported":1721585382,"current_range_meters":1200,"station_id":"ce4bh692rcd13ifvqea0","pricing_plan_id":"cebpf4jnsgd1na2vs0mg"},{"bike_id":"129f130f-028c-4bc0-b195-58316d34bbb5","system_id":"levelo_inurba_marseille","lat":43.29266,"lon":5.38436,"is_reserved":false,"is_disabled":false,"rental_uris":{"android":"levelo://app?vid=129f130f-028c-4bc0-b195-58316d34bbb5","ios":"levelo://app?vid=129f130f-028c-4bc0-b195-58316d34bbb5"},"vehicle_type_id":"4","last_reported":1721585382,"current_range_meters":7600,"station_id":"ce4bh692rcd13ifvqea0","pricing_plan_id":"cebpf4jnsgd1na2vs0mg"},{"bike_id":"e8ecb649-ff79-4649-88ac-90439ee90f76","system_id":"levelo_inurba_marseille","lat":43.29261,"lon":5.38434,"is_reserved":false,"is_disabled":false,"rental_uris":{"android":"levelo://app?vid=e8ecb649-ff79-4649-88ac-90439ee90f76","ios":"levelo://app?vid=e8ecb649-ff79-4649-88ac-90439ee90f76"},"vehicle_type_id":"4","last_reported":1721585382,"current_range_meters":31200,"station_id":"ce4bh692rcd13ifvqea0","pricing_plan_id":"cebpf4jnsgd1na2vs0mg"},{"bike_id":"bf11fa45-220d-426e-82fe-8ef42ecea569","system_id":"levelo_inurba_marseille","lat":43.29266,"lon":5.38445,"is_reserved":false,"is_disabled":false,"rental_uris":{"android":"levelo://app?vid=bf11fa45-220d-426e-82fe-8ef42ecea569","ios":"levelo://app?vid=bf11fa45-220d-426e-82fe-8ef42ecea569"},"vehicle_type_id":"4","last_reported":1721585382,"current_range_meters":31200,"station_id":"ce4bh692rcd13ifvqea0","pricing_plan_id":"cebpf4jnsgd1na2vs0mg"},{"bike_id":"2a1a6a19-def3-423b-b550-038b13a49a36","system_id":"levelo_inurba_marseille","lat":43.29265,"lon":5.38445,"is_reserved":false,"is_disabled":false,"rental_uris":{"android":"levelo://app?vid=2a1a6a19-def3-423b-b550-038b13a49a36","ios":"levelo://app?vid=2a1a6a19-def3-423b-b550-038b13a49a36"},"vehicle_type_id":"4","last_reported":1721585382,"current_range_meters":31200,"station_id":"ce4bh692rcd13ifvqea0","pricing_plan_id":"cebpf4jnsgd1na2vs0mg"},{"bike_id":"8bb8a67d-595a-43bc-9801-05f69f6d4ee9","system_id":"levelo_inurba_marseille","lat":43.29265,"lon":5.38449,"is_reserved":false,"is_disabled":false,"rental_uris":{"android":"levelo://app?vid=8bb8a67d-595a-43bc-9801-05f69f6d4ee9","ios":"levelo://app?vid=8bb8a67d-595a-43bc-9801-05f69f6d4ee9"},"vehicle_type_id":"4","last_reported":1721585382,"current_range_meters":12400,"station_id":"ce4bh692rcd13ifvqea0","pricing_plan_id":"cebpf4jnsgd1na2vs0mg"},{"bike_id":"ca638d1b-c7cf-4aeb-a47c-ff56e58b19b4","system_id":"levelo_inurba_marseille","lat":43.292644,"lon":5.384257,"is_reserved":false,"is_disabled":false,"rental_uris":{"android":"levelo://app?vid=ca638d1b-c7cf-4aeb-a47c-ff56e58b19b4","ios":"levelo://app?vid=ca638d1b-c7cf-4aeb-a47c-ff56e58b19b4"},"vehicle_type_id":"4","last_reported":1721585382,"current_range_meters":12800,"station_id":"ce4bh692rcd13ifvqea0","pricing_plan_id":"cebpf4jnsgd1na2vs0mg"},{"bike_id":"395e7346-6f2a-43a7-88fe-0f815c837a4a","system_id":"levelo_inurba_marseille","lat":43.290103,"lon":5.356114,"is_reserved":false,"is_disabled":false,"rental_uris":{"android":"levelo://app?vid=395e7346-6f2a-43a7-88fe-0f815c837a4a","ios":"levelo://app?vid=395e7346-6f2a-43a7-88fe-0f815c837a4a"},"vehicle_type_id":"4","last_reported":1721585382,"current_range_meters":26000,"station_id":"ce4bhb92rcd13ifvqen0","pricing_plan_id":"cebpf4jnsgd1na2vs0mg"},{"bike_id":"9f528b25-0e53-48d1-9f4a-8c4a0f531e59","system_id":"levelo_inurba_marseille","lat":43.290104,"lon":5.356111,"is_reserved":false,"is_disabled":false,"rental_uris":{"android":"levelo://app?vid=9f528b25-0e53-48d1-9f4a-8c4a0f531e59","ios":"levelo://app?vid=9f528b25-0e53-48d1-9f4a-8c4a0f531e59"},"vehicle_type_id":"4","last_reported":1721585382,"current_range_meters":13600,"station_id":"ce4bhb92rcd13ifvqen0","pricing_plan_id":"cebpf4jnsgd1na2vs0mg"},{"bike_id":"7e044eb1-f9aa-42be-aaec-7227290e11ae","system_id":"levelo_inurba_marseille","lat":43.290103,"lon":5.356114,"is_reserved":false,"is_disabled":false,"rental_uris":{"android":"levelo://app?vid=7e044eb1-f9aa-42be-aaec-7227290e11ae","ios":"levelo://app?vid=7e044eb1-f9aa-42be-aaec-7227290e11ae"},"vehicle_type_id":"4","last_reported":1721585382,"current_range_meters":1200,"station_id":"ce4bhb92rcd13ifvqen0","pricing_plan_id":"cebpf4jnsgd1na2vs0mg"},{"bike_id":"911f557b-99c7-49e9-91a4-edd26b4d9a46","system_id":"levelo_inurba_marseille","lat":43.290995,"lon":5.381361,"is_reserved":false,"is_disabled":false,"rental_uris":{"android":"levelo://app?vid=911f557b-99c7-49e9-91a4-edd26b4d9a46","ios":"levelo://app?vid=911f557b-99c7-49e9-91a4-edd26b4d9a46"},"vehicle_type_id":"4","last_reported":1721585382,"current_range_meters":22400,"station_id":"ce4bh512rcd13ifvqe2g","pricing_plan_id":"cebpf4jnsgd1na2vs0mg"},{"bike_id":"9e233f20-4e21-468e-94f5-c19f8d465eb2","system_id":"levelo_inurba_marseille","lat":43.297807,"lon":5.393533,"is_reserved":false,"is_disabled":false,"rental_uris":{"android":"levelo://app?vid=9e233f20-4e21-468e-94f5-c19f8d465eb2","ios":"levelo://app?vid=9e233f20-4e21-468e-94f5-c19f8d465eb2"},"vehicle_type_id":"4","last_reported":1721585382,"current_range_meters":4000,"station_id":"chh1huq6cuj3fo74tm60","pricing_plan_id":"cebpf4jnsgd1na2vs0mg"},{"bike_id":"6064b869-cd76-42d3-9634-a495bb904a7a","system_id":"levelo_inurba_marseille","lat":43.330442,"lon":5.389148,"is_reserved":false,"is_disabled":false,"rental_uris":{"android":"levelo://app?vid=6064b869-cd76-42d3-9634-a495bb904a7a","ios":"levelo://app?vid=6064b869-cd76-42d3-9634-a495bb904a7a"},"vehicle_type_id":"4","last_reported":1721585382,"current_range_meters":10400,"station_id":"ce4bhr92rcd13ifvqhrg","pricing_plan_id":"cebpf4jnsgd1na2vs0mg"},{"bike_id":"be0d0d84-50a8-4cfd-a255-09a81e7e5a8f","system_id":"levelo_inurba_marseille","lat":43.33028,"lon":5.39036,"is_reserved":false,"is_disabled":false,"rental_uris":{"android":"levelo://app?vid=be0d0d84-50a8-4cfd-a255-09a81e7e5a8f","ios":"levelo://app?vid=be0d0d84-50a8-4cfd-a255-09a81e7e5a8f"},"vehicle_type_id":"4","last_reported":1721585382,"current_range_meters":6800,"station_id":"ce4bhr92rcd13ifvqhrg","pricing_plan_id":"cebpf4jnsgd1na2vs0mg"},{"bike_id":"5cf66303-0077-44b4-87cc-51ae7f5c35c5","system_id":"levelo_inurba_marseille","lat":43.330442,"lon":5.389148,"is_reserved":false,"is_disabled":false,"rental_uris":{"android":"levelo://app?vid=5cf66303-0077-44b4-87cc-51ae7f5c35c5","ios":"levelo://app?vid=5cf66303-0077-44b4-87cc-51ae7f5c35c5"},"vehicle_type_id":"4","last_reported":1721585382,"current_range_meters":24000,"station_id":"ce4bhr92rcd13ifvqhrg","pricing_plan_id":"cebpf4jnsgd1na2vs0mg"},{"bike_id":"9095fdf1-050d-46ff-83ad-b1403042b8f9","system_id":"levelo_inurba_marseille","lat":43.330442,"lon":5.389148,"is_reserved":false,"is_disabled":false,"rental_uris":{"android":"levelo://app?vid=9095fdf1-050d-46ff-83ad-b1403042b8f9","ios":"levelo://app?vid=9095fdf1-050d-46ff-83ad-b1403042b8f9"},"vehicle_type_id":"4","last_reported":1721585382,"current_range_meters":27200,"station_id":"ce4bhr92rcd13ifvqhrg","pricing_plan_id":"cebpf4jnsgd1na2vs0mg"},{"bike_id":"9034df60-6344-4909-820a-578da747bfff","system_id":"levelo_inurba_marseille","lat":43.33029,"lon":5.39041,"is_reserved":false,"is_disabled":false,"rental_uris":{"android":"levelo://app?vid=9034df60-6344-4909-820a-578da747bfff","ios":"levelo://app?vid=9034df60-6344-4909-820a-578da747bfff"},"vehicle_type_id":"4","last_reported":1721585382,"current_range_meters":24000,"station_id":"ce4bhr92rcd13ifvqhrg","pricing_plan_id":"cebpf4jnsgd1na2vs0mg"},{"bike_id":"d7417cd7-7ab8-46fe-9036-a54a9cf766c2","system_id":"levelo_inurba_marseille","lat":43.290094,"lon":5.381264,"is_reserved":false,"is_disabled":false,"rental_uris":{"android":"levelo://app?vid=d7417cd7-7ab8-46fe-9036-a54a9cf766c2","ios":"levelo://app?vid=d7417cd7-7ab8-46fe-9036-a54a9cf766c2"},"vehicle_type_id":"4","last_reported":1721585382,"current_range_meters":16000,"station_id":"ce4bh4p2rcd13ifvqe1g","pricing_plan_id":"cebpf4jnsgd1na2vs0mg"},{"bike_id":"adbadfa8-8624-433d-8e88-02797a52a200","system_id":"levelo_inurba_marseille","lat":43.310201,"lon":5.400757,"is_reserved":false,"is_disabled":false,"rental_uris":{"android":"levelo://app?vid=adbadfa8-8624-433d-8e88-02797a52a200","ios":"levelo://app?vid=adbadfa8-8624-433d-8e88-02797a52a200"},"vehicle_type_id":"4","last_reported":1721585382,"current_range_meters":28800,"station_id":"","pricing_plan_id":"cebpf4jnsgd1na2vs0mg"},{"bike_id":"8d2ab937-2680-413b-ba4f-10fbb3f9af55","system_id":"levelo_inurba_marseille","lat":43.28856,"lon":5.358371,"is_reserved":false,"is_disabled":false,"rental_uris":{"android":"levelo://app?vid=8d2ab937-2680-413b-ba4f-10fbb3f9af55","ios":"levelo://app?vid=8d2ab937-2680-413b-ba4f-10fbb3f9af55"},"vehicle_type_id":"4","last_reported":1721585382,"current_range_meters":23200,"station_id":"ce4bhb12rcd13ifvqem0","pricing_plan_id":"cebpf4jnsgd1na2vs0mg"},{"bike_id":"11dcd286-b35a-4341-8f73-a7c6bed72b3d","system_id":"levelo_inurba_marseille","lat":43.28856,"lon":5.358371,"is_reserved":false,"is_disabled":false,"rental_uris":{"android":"levelo://app?vid=11dcd286-b35a-4341-8f73-a7c6bed72b3d","ios":"levelo://app?vid=11dcd286-b35a-4341-8f73-a7c6bed72b3d"},"vehicle_type_id":"4","last_reported":1721585382,"current_range_meters":21600,"station_id":"ce4bhb12rcd13ifvqem0","pricing_plan_id":"cebpf4jnsgd1na2vs0mg"},{"bike_id":"c1c3ee89-0131-47f3-a17d-c366b55c5ab9","system_id":"levelo_inurba_marseille","lat":43.28856,"lon":5.358371,"is_reserved":false,"is_disabled":false,"rental_uris":{"android":"levelo://app?vid=c1c3ee89-0131-47f3-a17d-c366b55c5ab9","ios":"levelo://app?vid=c1c3ee89-0131-47f3-a17d-c366b55c5ab9"},"vehicle_type_id":"4","last_reported":1721585382,"current_range_meters":16000,"station_id":"ce4bhb12rcd13ifvqem0","pricing_plan_id":"cebpf4jnsgd1na2vs0mg"},{"bike_id":"f0d88dd1-6798-48d9-a889-c14d3d266576","system_id":"levelo_inurba_marseille","lat":43.28856,"lon":5.358371,"is_reserved":false,"is_disabled":false,"rental_uris":{"android":"levelo://app?vid=f0d88dd1-6798-48d9-a889-c14d3d266576","ios":"levelo://app?vid=f0d88dd1-6798-48d9-a889-c14d3d266576"},"vehicle_type_id":"4","last_reported":1721585382,"current_range_meters":5200,"station_id":"ce4bhb12rcd13ifvqem0","pricing_plan_id":"cebpf4jnsgd1na2vs0mg"},{"bike_id":"cffb6dcd-b9f3-4205-8b68-08b3b5fc5979","system_id":"levelo_inurba_marseille","lat":43.28856,"lon":5.358371,"is_reserved":false,"is_disabled":false,"rental_uris":{"android":"levelo://app?vid=cffb6dcd-b9f3-4205-8b68-08b3b5fc5979","ios":"levelo://app?vid=cffb6dcd-b9f3-4205-8b68-08b3b5fc5979"},"vehicle_type_id":"4","last_reported":1721585382,"current_range_meters":25200,"station_id":"ce4bhb12rcd13ifvqem0","pricing_plan_id":"cebpf4jnsgd1na2vs0mg"},{"bike_id":"35002cf0-c022-423e-a01a-b77ccde464f9","system_id":"levelo_inurba_marseille","lat":43.28856,"lon":5.358371,"is_reserved":false,"is_disabled":false,"rental_uris":{"android":"levelo://app?vid=35002cf0-c022-423e-a01a-b77ccde464f9","ios":"levelo://app?vid=35002cf0-c022-423e-a01a-b77ccde464f9"},"vehicle_type_id":"4","last_reported":1721585382,"current_range_meters":12800,"station_id":"ce4bhb12rcd13ifvqem0","pricing_plan_id":"cebpf4jnsgd1na2vs0mg"},{"bike_id":"679ea295-5458-43ec-af03-2c291a649366","system_id":"levelo_inurba_marseille","lat":43.31275,"lon":5.40164,"is_reserved":false,"is_disabled":false,"rental_uris":{"android":"levelo://app?vid=679ea295-5458-43ec-af03-2c291a649366","ios":"levelo://app?vid=679ea295-5458-43ec-af03-2c291a649366"},"vehicle_type_id":"4","last_reported":1721585382,"current_range_meters":400,"station_id":"ce4bh092rcd13ifvqd30","pricing_plan_id":"cebpf4jnsgd1na2vs0mg"},{"bike_id":"da1ef795-4411-4787-a704-e9710fe27f7e","system_id":"levelo_inurba_marseille","lat":43.337472,"lon":5.374599,"is_reserved":false,"is_disabled":false,"rental_uris":{"android":"levelo://app?vid=da1ef795-4411-4787-a704-e9710fe27f7e","ios":"levelo://app?vid=da1ef795-4411-4787-a704-e9710fe27f7e"},"vehicle_type_id":"4","last_reported":1721585382,"current_range_meters":18000,"station_id":"","pricing_plan_id":"cebpf4jnsgd1na2vs0mg"},{"bike_id":"63cc4a5c-fe68-4a6a-ab36-a2f17fbccb3f","system_id":"levelo_inurba_marseille","lat":43.30642,"lon":5.401031,"is_reserved":false,"is_disabled":false,"rental_uris":{"android":"levelo://app?vid=63cc4a5c-fe68-4a6a-ab36-a2f17fbccb3f","ios":"levelo://app?vid=63cc4a5c-fe68-4a6a-ab36-a2f17fbccb3f"},"vehicle_type_id":"4","last_reported":1721585382,"current_range_meters":0,"station_id":"ce4bh112rcd13ifvqda0","pricing_plan_id":"cebpf4jnsgd1na2vs0mg"},{"bike_id":"9458a255-a47a-41f1-849e-755dc4612ffe","system_id":"levelo_inurba_marseille","lat":43.337516,"lon":5.374541,"is_reserved":false,"is_disabled":false,"rental_uris":{"android":"levelo://app?vid=9458a255-a47a-41f1-849e-755dc4612ffe","ios":"levelo://app?vid=9458a255-a47a-41f1-849e-755dc4612ffe"},"vehicle_type_id":"4","last_reported":1721585382,"current_range_meters":18800,"station_id":"","pricing_plan_id":"cebpf4jnsgd1na2vs0mg"},{"bike_id":"9262f6b3-a1f6-4c60-9449-46dc54a7a17d","system_id":"levelo_inurba_marseille","lat":43.323464,"lon":5.406297,"is_reserved":false,"is_disabled":false,"rental_uris":{"android":"levelo://app?vid=9262f6b3-a1f6-4c60-9449-46dc54a7a17d","ios":"levelo://app?vid=9262f6b3-a1f6-4c60-9449-46dc54a7a17d"},"vehicle_type_id":"4","last_reported":1721585382,"current_range_meters":17200,"station_id":"ce4bhq92rcd13ifvqhjg","pricing_plan_id":"cebpf4jnsgd1na2vs0mg"},{"bike_id":"0ad3db73-21e8-41b5-aad3-7f410c37748d","system_id":"levelo_inurba_marseille","lat":43.33754,"lon":5.37454,"is_reserved":false,"is_disabled":false,"rental_uris":{"android":"levelo://app?vid=0ad3db73-21e8-41b5-aad3-7f410c37748d","ios":"levelo://app?vid=0ad3db73-21e8-41b5-aad3-7f410c37748d"},"vehicle_type_id":"4","last_reported":1721585382,"current_range_meters":9600,"station_id":"","pricing_plan_id":"cebpf4jnsgd1na2vs0mg"},{"bike_id":"9fd23b8b-c7c3-4b5a-b11d-8284b8e4dfa2","system_id":"levelo_inurba_marseille","lat":43.337578,"lon":5.374428,"is_reserved":false,"is_disabled":false,"rental_uris":{"android":"levelo://app?vid=9fd23b8b-c7c3-4b5a-b11d-8284b8e4dfa2","ios":"levelo://app?vid=9fd23b8b-c7c3-4b5a-b11d-8284b8e4dfa2"},"vehicle_type_id":"4","last_reported":1721585382,"current_range_meters":22000,"station_id":"","pricing_plan_id":"cebpf4jnsgd1na2vs0mg"},{"bike_id":"d0723523-f35a-472e-b198-a5153fc33bb6","system_id":"levelo_inurba_marseille","lat":43.33759,"lon":5.37487,"is_reserved":false,"is_disabled":false,"rental_uris":{"android":"levelo://app?vid=d0723523-f35a-472e-b198-a5153fc33bb6","ios":"levelo://app?vid=d0723523-f35a-472e-b198-a5153fc33bb6"},"vehicle_type_id":"4","last_reported":1721585382,"current_range_meters":16400,"station_id":"","pricing_plan_id":"cebpf4jnsgd1na2vs0mg"},{"bike_id":"ac377a63-6a02-42fa-8a70-d5bb9b7546c9","system_id":"levelo_inurba_marseille","lat":43.337698,"lon":5.374307,"is_reserved":false,"is_disabled":false,"rental_uris":{"android":"levelo://app?vid=ac377a63-6a02-42fa-8a70-d5bb9b7546c9","ios":"levelo://app?vid=ac377a63-6a02-42fa-8a70-d5bb9b7546c9"},"vehicle_type_id":"4","last_reported":1721585382,"current_range_meters":15600,"station_id":"","pricing_plan_id":"cebpf4jnsgd1na2vs0mg"},{"bike_id":"da6c42a8-8e9b-493a-8c5e-502e2e722187","system_id":"levelo_inurba_marseille","lat":43.286961,"lon":5.373785,"is_reserved":false,"is_disabled":false,"rental_uris":{"android":"levelo://app?vid=da6c42a8-8e9b-493a-8c5e-502e2e722187","ios":"levelo://app?vid=da6c42a8-8e9b-493a-8c5e-502e2e722187"},"vehicle_type_id":"4","last_reported":1721585382,"current_range_meters":27200,"station_id":"ce4bh3p2rcd13ifvqdq0","pricing_plan_id":"cebpf4jnsgd1na2vs0mg"},{"bike_id":"2628916c-1883-436a-a169-853656207218","system_id":"levelo_inurba_marseille","lat":43.286961,"lon":5.373785,"is_reserved":false,"is_disabled":false,"rental_uris":{"android":"levelo://app?vid=2628916c-1883-436a-a169-853656207218","ios":"levelo://app?vid=2628916c-1883-436a-a169-853656207218"},"vehicle_type_id":"4","last_reported":1721585382,"current_range_meters":10800,"station_id":"ce4bh3p2rcd13ifvqdq0","pricing_plan_id":"cebpf4jnsgd1na2vs0mg"},{"bike_id":"deea7910-873d-43c1-8b39-d9cbf1dbab48","system_id":"levelo_inurba_marseille","lat":43.28703,"lon":5.37397,"is_reserved":false,"is_disabled":false,"rental_uris":{"android":"levelo://app?vid=deea7910-873d-43c1-8b39-d9cbf1dbab48","ios":"levelo://app?vid=deea7910-873d-43c1-8b39-d9cbf1dbab48"},"vehicle_type_id":"4","last_reported":1721585382,"current_range_meters":30400,"station_id":"ce4bh3p2rcd13ifvqdq0","pricing_plan_id":"cebpf4jnsgd1na2vs0mg"},{"bike_id":"b78a37d7-218f-43b5-80e9-c2f7d4ff1103","system_id":"levelo_inurba_marseille","lat":43.286593,"lon":5.363346,"is_reserved":false,"is_disabled":false,"rental_uris":{"android":"levelo://app?vid=b78a37d7-218f-43b5-80e9-c2f7d4ff1103","ios":"levelo://app?vid=b78a37d7-218f-43b5-80e9-c2f7d4ff1103"},"vehicle_type_id":"4","last_reported":1721585382,"current_range_meters":0,"station_id":"ce4bhah2rcd13ifvqej0","pricing_plan_id":"cebpf4jnsgd1na2vs0mg"},{"bike_id":"3baacc23-02ea-45f4-9970-1ebf579bbe06","system_id":"levelo_inurba_marseille","lat":43.286961,"lon":5.373785,"is_reserved":false,"is_disabled":false,"rental_uris":{"android":"levelo://app?vid=3baacc23-02ea-45f4-9970-1ebf579bbe06","ios":"levelo://app?vid=3baacc23-02ea-45f4-9970-1ebf579bbe06"},"vehicle_type_id":"4","last_reported":1721585382,"current_range_meters":24000,"station_id":"ce4bh3p2rcd13ifvqdq0","pricing_plan_id":"cebpf4jnsgd1na2vs0mg"},{"bike_id":"44eb7835-3e44-42aa-9cfb-ad06d2dd40f2","system_id":"levelo_inurba_marseille","lat":43.298681,"lon":5.397225,"is_reserved":false,"is_disabled":false,"rental_uris":{"android":"levelo://app?vid=44eb7835-3e44-42aa-9cfb-ad06d2dd40f2","ios":"levelo://app?vid=44eb7835-3e44-42aa-9cfb-ad06d2dd40f2"},"vehicle_type_id":"4","last_reported":1721585382,"current_range_meters":6000,"station_id":"ce4bh0h2rcd13ifvqd50","pricing_plan_id":"cebpf4jnsgd1na2vs0mg"},{"bike_id":"1f4d2de4-ed53-4bcb-a2ab-b7ca7a453fc7","system_id":"levelo_inurba_marseille","lat":43.302759,"lon":5.400793,"is_reserved":false,"is_disabled":false,"rental_uris":{"android":"levelo://app?vid=1f4d2de4-ed53-4bcb-a2ab-b7ca7a453fc7","ios":"levelo://app?vid=1f4d2de4-ed53-4bcb-a2ab-b7ca7a453fc7"},"vehicle_type_id":"4","last_reported":1721585382,"current_range_meters":31200,"station_id":"ce4bgvh2rcd13ifvqcs0","pricing_plan_id":"cebpf4jnsgd1na2vs0mg"},{"bike_id":"c4525302-fef9-46a6-97c6-01665a788fc1","system_id":"levelo_inurba_marseille","lat":43.302759,"lon":5.400793,"is_reserved":false,"is_disabled":false,"rental_uris":{"android":"levelo://app?vid=c4525302-fef9-46a6-97c6-01665a788fc1","ios":"levelo://app?vid=c4525302-fef9-46a6-97c6-01665a788fc1"},"vehicle_type_id":"4","last_reported":1721585382,"current_range_meters":22800,"station_id":"ce4bgvh2rcd13ifvqcs0","pricing_plan_id":"cebpf4jnsgd1na2vs0mg"},{"bike_id":"d5d54f6b-77df-44d9-be60-2ef2f8be92b7","system_id":"levelo_inurba_marseille","lat":43.302759,"lon":5.400793,"is_reserved":false,"is_disabled":false,"rental_uris":{"android":"levelo://app?vid=d5d54f6b-77df-44d9-be60-2ef2f8be92b7","ios":"levelo://app?vid=d5d54f6b-77df-44d9-be60-2ef2f8be92b7"},"vehicle_type_id":"4","last_reported":1721585382,"current_range_meters":1600,"station_id":"ce4bgvh2rcd13ifvqcs0","pricing_plan_id":"cebpf4jnsgd1na2vs0mg"},{"bike_id":"fe62c1af-1c51-403c-8ec2-2d520a639a6c","system_id":"levelo_inurba_marseille","lat":43.302759,"lon":5.400793,"is_reserved":false,"is_disabled":false,"rental_uris":{"android":"levelo://app?vid=fe62c1af-1c51-403c-8ec2-2d520a639a6c","ios":"levelo://app?vid=fe62c1af-1c51-403c-8ec2-2d520a639a6c"},"vehicle_type_id":"4","last_reported":1721585382,"current_range_meters":13200,"station_id":"ce4bgvh2rcd13ifvqcs0","pricing_plan_id":"cebpf4jnsgd1na2vs0mg"},{"bike_id":"c046de60-bb51-4ceb-8bfc-208d6e77e0ce","system_id":"levelo_inurba_marseille","lat":43.286039,"lon":5.370679,"is_reserved":false,"is_disabled":false,"rental_uris":{"android":"levelo://app?vid=c046de60-bb51-4ceb-8bfc-208d6e77e0ce","ios":"levelo://app?vid=c046de60-bb51-4ceb-8bfc-208d6e77e0ce"},"vehicle_type_id":"4","last_reported":1721585382,"current_range_meters":4400,"station_id":"ce4bht12rcd13ifvqi60","pricing_plan_id":"cebpf4jnsgd1na2vs0mg"},{"bike_id":"982705c8-434b-4984-840a-d1e0da4b6124","system_id":"levelo_inurba_marseille","lat":43.31199,"lon":5.40378,"is_reserved":false,"is_disabled":false,"rental_uris":{"android":"levelo://app?vid=982705c8-434b-4984-840a-d1e0da4b6124","ios":"levelo://app?vid=982705c8-434b-4984-840a-d1e0da4b6124"},"vehicle_type_id":"4","last_reported":1721585382,"current_range_meters":16000,"station_id":"","pricing_plan_id":"cebpf4jnsgd1na2vs0mg"},{"bike_id":"3ac050e9-31c2-4343-84fa-a12215b49e3d","system_id":"levelo_inurba_marseille","lat":43.2858,"lon":5.36649,"is_reserved":false,"is_disabled":false,"rental_uris":{"android":"levelo://app?vid=3ac050e9-31c2-4343-84fa-a12215b49e3d","ios":"levelo://app?vid=3ac050e9-31c2-4343-84fa-a12215b49e3d"},"vehicle_type_id":"4","last_reported":1721585382,"current_range_meters":14800,"station_id":"","pricing_plan_id":"cebpf4jnsgd1na2vs0mg"},{"bike_id":"60e7912f-9828-4ac9-adaf-c8ee98144153","system_id":"levelo_inurba_marseille","lat":43.287184,"lon":5.37937,"is_reserved":false,"is_disabled":false,"rental_uris":{"android":"levelo://app?vid=60e7912f-9828-4ac9-adaf-c8ee98144153","ios":"levelo://app?vid=60e7912f-9828-4ac9-adaf-c8ee98144153"},"vehicle_type_id":"4","last_reported":1721585382,"current_range_meters":0,"station_id":"ce4bh9p2rcd13ifvqec0","pricing_plan_id":"cebpf4jnsgd1na2vs0mg"},{"bike_id":"0e2fde42-5baf-4a15-9a4c-348a414b5724","system_id":"levelo_inurba_marseille","lat":43.316821,"lon":5.404737,"is_reserved":false,"is_disabled":false,"rental_uris":{"android":"levelo://app?vid=0e2fde42-5baf-4a15-9a4c-348a414b5724","ios":"levelo://app?vid=0e2fde42-5baf-4a15-9a4c-348a414b5724"},"vehicle_type_id":"4","last_reported":1721585382,"current_range_meters":16000,"station_id":"ce4bh012rcd13ifvqd00","pricing_plan_id":"cebpf4jnsgd1na2vs0mg"},{"bike_id":"c896b117-e1aa-4587-96cb-d5e746d9fd03","system_id":"levelo_inurba_marseille","lat":43.291994,"lon":5.392907,"is_reserved":false,"is_disabled":false,"rental_uris":{"android":"levelo://app?vid=c896b117-e1aa-4587-96cb-d5e746d9fd03","ios":"levelo://app?vid=c896b117-e1aa-4587-96cb-d5e746d9fd03"},"vehicle_type_id":"4","last_reported":1721585382,"current_range_meters":0,"station_id":"ce4bh192rcd13ifvqdd0","pricing_plan_id":"cebpf4jnsgd1na2vs0mg"},{"bike_id":"c95a9951-ec4c-44d0-9928-ee4720aff3e3","system_id":"levelo_inurba_marseille","lat":43.291994,"lon":5.392907,"is_reserved":false,"is_disabled":false,"rental_uris":{"android":"levelo://app?vid=c95a9951-ec4c-44d0-9928-ee4720aff3e3","ios":"levelo://app?vid=c95a9951-ec4c-44d0-9928-ee4720aff3e3"},"vehicle_type_id":"4","last_reported":1721585382,"current_range_meters":10400,"station_id":"ce4bh192rcd13ifvqdd0","pricing_plan_id":"cebpf4jnsgd1na2vs0mg"},{"bike_id":"294f09af-ab05-499b-aeb5-7ed491faaed4","system_id":"levelo_inurba_marseille","lat":43.284538,"lon":5.358657,"is_reserved":false,"is_disabled":false,"rental_uris":{"android":"levelo://app?vid=294f09af-ab05-499b-aeb5-7ed491faaed4","ios":"levelo://app?vid=294f09af-ab05-499b-aeb5-7ed491faaed4"},"vehicle_type_id":"4","last_reported":1721585382,"current_range_meters":24800,"station_id":"ce4bhah2rcd13ifvqei0","pricing_plan_id":"cebpf4jnsgd1na2vs0mg"},{"bike_id":"9f7bbfa0-7d69-4d6c-bd74-1622998e7d84","system_id":"levelo_inurba_marseille","lat":43.284538,"lon":5.358657,"is_reserved":false,"is_disabled":false,"rental_uris":{"android":"levelo://app?vid=9f7bbfa0-7d69-4d6c-bd74-1622998e7d84","ios":"levelo://app?vid=9f7bbfa0-7d69-4d6c-bd74-1622998e7d84"},"vehicle_type_id":"4","last_reported":1721585382,"current_range_meters":9600,"station_id":"ce4bhah2rcd13ifvqei0","pricing_plan_id":"cebpf4jnsgd1na2vs0mg"},{"bike_id":"5f786aaf-1472-415e-ada4-2fd475033890","system_id":"levelo_inurba_marseille","lat":43.28624,"lon":5.35104,"is_reserved":false,"is_disabled":false,"rental_uris":{"android":"levelo://app?vid=5f786aaf-1472-415e-ada4-2fd475033890","ios":"levelo://app?vid=5f786aaf-1472-415e-ada4-2fd475033890"},"vehicle_type_id":"4","last_reported":1721585382,"current_range_meters":31200,"station_id":"ce4bhch2rcd13ifvqeug","pricing_plan_id":"cebpf4jnsgd1na2vs0mg"},{"bike_id":"754fd29f-4517-4b78-80af-c4da039915bb","system_id":"levelo_inurba_marseille","lat":43.28622,"lon":5.35106,"is_reserved":false,"is_disabled":false,"rental_uris":{"android":"levelo://app?vid=754fd29f-4517-4b78-80af-c4da039915bb","ios":"levelo://app?vid=754fd29f-4517-4b78-80af-c4da039915bb"},"vehicle_type_id":"4","last_reported":1721585382,"current_range_meters":25200,"station_id":"ce4bhch2rcd13ifvqeug","pricing_plan_id":"cebpf4jnsgd1na2vs0mg"},{"bike_id":"1218f252-62bb-4f0f-8c07-48f8b1818320","system_id":"levelo_inurba_marseille","lat":43.28621,"lon":5.35109,"is_reserved":false,"is_disabled":false,"rental_uris":{"android":"levelo://app?vid=1218f252-62bb-4f0f-8c07-48f8b1818320","ios":"levelo://app?vid=1218f252-62bb-4f0f-8c07-48f8b1818320"},"vehicle_type_id":"4","last_reported":1721585382,"current_range_meters":4000,"station_id":"ce4bhch2rcd13ifvqeug","pricing_plan_id":"cebpf4jnsgd1na2vs0mg"},{"bike_id":"9c1a2246-995e-4f89-8013-60c081923027","system_id":"levelo_inurba_marseille","lat":43.28621,"lon":5.35107,"is_reserved":false,"is_disabled":false,"rental_uris":{"android":"levelo://app?vid=9c1a2246-995e-4f89-8013-60c081923027","ios":"levelo://app?vid=9c1a2246-995e-4f89-8013-60c081923027"},"vehicle_type_id":"4","last_reported":1721585382,"current_range_meters":26400,"station_id":"ce4bhch2rcd13ifvqeug","pricing_plan_id":"cebpf4jnsgd1na2vs0mg"},{"bike_id":"4876186d-acc5-48fb-b582-f80cf1a91fd3","system_id":"levelo_inurba_marseille","lat":43.285856,"lon":5.350771,"is_reserved":false,"is_disabled":false,"rental_uris":{"android":"levelo://app?vid=4876186d-acc5-48fb-b582-f80cf1a91fd3","ios":"levelo://app?vid=4876186d-acc5-48fb-b582-f80cf1a91fd3"},"vehicle_type_id":"4","last_reported":1721585382,"current_range_meters":19200,"station_id":"ce4bhch2rcd13ifvqeug","pricing_plan_id":"cebpf4jnsgd1na2vs0mg"},{"bike_id":"d1ac43f1-92fc-4b5f-a9bb-fef7d79e68dc","system_id":"levelo_inurba_marseille","lat":43.28621,"lon":5.35104,"is_reserved":false,"is_disabled":false,"rental_uris":{"android":"levelo://app?vid=d1ac43f1-92fc-4b5f-a9bb-fef7d79e68dc","ios":"levelo://app?vid=d1ac43f1-92fc-4b5f-a9bb-fef7d79e68dc"},"vehicle_type_id":"4","last_reported":1721585382,"current_range_meters":23600,"station_id":"ce4bhch2rcd13ifvqeug","pricing_plan_id":"cebpf4jnsgd1na2vs0mg"},{"bike_id":"2f5da0b5-f6d0-4206-b14e-63e16b4d8962","system_id":"levelo_inurba_marseille","lat":43.28619,"lon":5.35109,"is_reserved":false,"is_disabled":false,"rental_uris":{"android":"levelo://app?vid=2f5da0b5-f6d0-4206-b14e-63e16b4d8962","ios":"levelo://app?vid=2f5da0b5-f6d0-4206-b14e-63e16b4d8962"},"vehicle_type_id":"4","last_reported":1721585382,"current_range_meters":28400,"station_id":"ce4bhch2rcd13ifvqeug","pricing_plan_id":"cebpf4jnsgd1na2vs0mg"},{"bike_id":"aa4fc1b0-c441-475b-aa03-2fe2890712d1","system_id":"levelo_inurba_marseille","lat":43.28619,"lon":5.35106,"is_reserved":false,"is_disabled":false,"rental_uris":{"android":"levelo://app?vid=aa4fc1b0-c441-475b-aa03-2fe2890712d1","ios":"levelo://app?vid=aa4fc1b0-c441-475b-aa03-2fe2890712d1"},"vehicle_type_id":"4","last_reported":1721585382,"current_range_meters":10800,"station_id":"ce4bhch2rcd13ifvqeug","pricing_plan_id":"cebpf4jnsgd1na2vs0mg"},{"bike_id":"b8dd1be7-be49-4b2f-b34c-881a811794f5","system_id":"levelo_inurba_marseille","lat":43.28618,"lon":5.35108,"is_reserved":false,"is_disabled":false,"rental_uris":{"android":"levelo://app?vid=b8dd1be7-be49-4b2f-b34c-881a811794f5","ios":"levelo://app?vid=b8dd1be7-be49-4b2f-b34c-881a811794f5"},"vehicle_type_id":"4","last_reported":1721585382,"current_range_meters":18000,"station_id":"ce4bhch2rcd13ifvqeug","pricing_plan_id":"cebpf4jnsgd1na2vs0mg"},{"bike_id":"b3c19098-6043-437b-8e06-63c20fe37fea","system_id":"levelo_inurba_marseille","lat":43.28617,"lon":5.35111,"is_reserved":false,"is_disabled":false,"rental_uris":{"android":"levelo://app?vid=b3c19098-6043-437b-8e06-63c20fe37fea","ios":"levelo://app?vid=b3c19098-6043-437b-8e06-63c20fe37fea"},"vehicle_type_id":"4","last_reported":1721585382,"current_range_meters":31200,"station_id":"ce4bhch2rcd13ifvqeug","pricing_plan_id":"cebpf4jnsgd1na2vs0mg"},{"bike_id":"bcc0f077-fc93-41ac-b290-449bb271b9ce","system_id":"levelo_inurba_marseille","lat":43.28618,"lon":5.35106,"is_reserved":false,"is_disabled":false,"rental_uris":{"android":"levelo://app?vid=bcc0f077-fc93-41ac-b290-449bb271b9ce","ios":"levelo://app?vid=bcc0f077-fc93-41ac-b290-449bb271b9ce"},"vehicle_type_id":"4","last_reported":1721585382,"current_range_meters":31200,"station_id":"ce4bhch2rcd13ifvqeug","pricing_plan_id":"cebpf4jnsgd1na2vs0mg"},{"bike_id":"4e63e9d4-dcc9-4e27-bdc7-7ab27b577e39","system_id":"levelo_inurba_marseille","lat":43.28617,"lon":5.35109,"is_reserved":false,"is_disabled":false,"rental_uris":{"android":"levelo://app?vid=4e63e9d4-dcc9-4e27-bdc7-7ab27b577e39","ios":"levelo://app?vid=4e63e9d4-dcc9-4e27-bdc7-7ab27b577e39"},"vehicle_type_id":"4","last_reported":1721585382,"current_range_meters":22800,"station_id":"ce4bhch2rcd13ifvqeug","pricing_plan_id":"cebpf4jnsgd1na2vs0mg"},{"bike_id":"30abd7b0-81db-47ee-b5d1-8ca00f2a4636","system_id":"levelo_inurba_marseille","lat":43.28617,"lon":5.35108,"is_reserved":false,"is_disabled":false,"rental_uris":{"android":"levelo://app?vid=30abd7b0-81db-47ee-b5d1-8ca00f2a4636","ios":"levelo://app?vid=30abd7b0-81db-47ee-b5d1-8ca00f2a4636"},"vehicle_type_id":"4","last_reported":1721585382,"current_range_meters":0,"station_id":"ce4bhch2rcd13ifvqeug","pricing_plan_id":"cebpf4jnsgd1na2vs0mg"},{"bike_id":"89a439d6-b3b8-4ddb-b454-b8bd4c3d5bc9","system_id":"levelo_inurba_marseille","lat":43.28617,"lon":5.35108,"is_reserved":false,"is_disabled":false,"rental_uris":{"android":"levelo://app?vid=89a439d6-b3b8-4ddb-b454-b8bd4c3d5bc9","ios":"levelo://app?vid=89a439d6-b3b8-4ddb-b454-b8bd4c3d5bc9"},"vehicle_type_id":"4","last_reported":1721585382,"current_range_meters":25600,"station_id":"ce4bhch2rcd13ifvqeug","pricing_plan_id":"cebpf4jnsgd1na2vs0mg"},{"bike_id":"3c4d6dd1-a3bd-48cd-8209-912a580ac55f","system_id":"levelo_inurba_marseille","lat":43.28618,"lon":5.35104,"is_reserved":false,"is_disabled":false,"rental_uris":{"android":"levelo://app?vid=3c4d6dd1-a3bd-48cd-8209-912a580ac55f","ios":"levelo://app?vid=3c4d6dd1-a3bd-48cd-8209-912a580ac55f"},"vehicle_type_id":"4","last_reported":1721585382,"current_range_meters":16000,"station_id":"ce4bhch2rcd13ifvqeug","pricing_plan_id":"cebpf4jnsgd1na2vs0mg"},{"bike_id":"67b95146-64d4-4b03-a752-eb0e9787579f","system_id":"levelo_inurba_marseille","lat":43.28616,"lon":5.35109,"is_reserved":false,"is_disabled":false,"rental_uris":{"android":"levelo://app?vid=67b95146-64d4-4b03-a752-eb0e9787579f","ios":"levelo://app?vid=67b95146-64d4-4b03-a752-eb0e9787579f"},"vehicle_type_id":"4","last_reported":1721585382,"current_range_meters":26800,"station_id":"ce4bhch2rcd13ifvqeug","pricing_plan_id":"cebpf4jnsgd1na2vs0mg"},{"bike_id":"18d4b674-5883-4b98-8f1b-bc795809b060","system_id":"levelo_inurba_marseille","lat":43.286196,"lon":5.350974,"is_reserved":false,"is_disabled":false,"rental_uris":{"android":"levelo://app?vid=18d4b674-5883-4b98-8f1b-bc795809b060","ios":"levelo://app?vid=18d4b674-5883-4b98-8f1b-bc795809b060"},"vehicle_type_id":"4","last_reported":1721585382,"current_range_meters":25200,"station_id":"ce4bhch2rcd13ifvqeug","pricing_plan_id":"cebpf4jnsgd1na2vs0mg"},{"bike_id":"030885e8-7104-4aa3-952e-a6599450c02c","system_id":"levelo_inurba_marseille","lat":43.28618,"lon":5.35102,"is_reserved":false,"is_disabled":false,"rental_uris":{"android":"levelo://app?vid=030885e8-7104-4aa3-952e-a6599450c02c","ios":"levelo://app?vid=030885e8-7104-4aa3-952e-a6599450c02c"},"vehicle_type_id":"4","last_reported":1721585382,"current_range_meters":10400,"station_id":"ce4bhch2rcd13ifvqeug","pricing_plan_id":"cebpf4jnsgd1na2vs0mg"},{"bike_id":"a4752e73-0f3a-4a01-b0d2-5a0fe55576f2","system_id":"levelo_inurba_marseille","lat":43.286163,"lon":5.351071,"is_reserved":false,"is_disabled":false,"rental_uris":{"android":"levelo://app?vid=a4752e73-0f3a-4a01-b0d2-5a0fe55576f2","ios":"levelo://app?vid=a4752e73-0f3a-4a01-b0d2-5a0fe55576f2"},"vehicle_type_id":"4","last_reported":1721585382,"current_range_meters":24000,"station_id":"ce4bhch2rcd13ifvqeug","pricing_plan_id":"cebpf4jnsgd1na2vs0mg"},{"bike_id":"2a7f0312-e077-4d09-aa10-b44d0bbc5ba0","system_id":"levelo_inurba_marseille","lat":43.286177,"lon":5.35101,"is_reserved":false,"is_disabled":false,"rental_uris":{"android":"levelo://app?vid=2a7f0312-e077-4d09-aa10-b44d0bbc5ba0","ios":"levelo://app?vid=2a7f0312-e077-4d09-aa10-b44d0bbc5ba0"},"vehicle_type_id":"4","last_reported":1721585382,"current_range_meters":31200,"station_id":"ce4bhch2rcd13ifvqeug","pricing_plan_id":"cebpf4jnsgd1na2vs0mg"},{"bike_id":"f84f6a8e-4024-4aa1-83bc-755d475e9691","system_id":"levelo_inurba_marseille","lat":43.28616,"lon":5.35106,"is_reserved":false,"is_disabled":false,"rental_uris":{"android":"levelo://app?vid=f84f6a8e-4024-4aa1-83bc-755d475e9691","ios":"levelo://app?vid=f84f6a8e-4024-4aa1-83bc-755d475e9691"},"vehicle_type_id":"4","last_reported":1721585382,"current_range_meters":13600,"station_id":"ce4bhch2rcd13ifvqeug","pricing_plan_id":"cebpf4jnsgd1na2vs0mg"},{"bike_id":"88b784d8-c740-4a3b-9495-681f8a489cc7","system_id":"levelo_inurba_marseille","lat":43.28615,"lon":5.35109,"is_reserved":false,"is_disabled":false,"rental_uris":{"android":"levelo://app?vid=88b784d8-c740-4a3b-9495-681f8a489cc7","ios":"levelo://app?vid=88b784d8-c740-4a3b-9495-681f8a489cc7"},"vehicle_type_id":"4","last_reported":1721585382,"current_range_meters":9600,"station_id":"ce4bhch2rcd13ifvqeug","pricing_plan_id":"cebpf4jnsgd1na2vs0mg"},{"bike_id":"e51b6998-24af-4138-b156-ea2caed9cba2","system_id":"levelo_inurba_marseille","lat":43.28616,"lon":5.35105,"is_reserved":false,"is_disabled":false,"rental_uris":{"android":"levelo://app?vid=e51b6998-24af-4138-b156-ea2caed9cba2","ios":"levelo://app?vid=e51b6998-24af-4138-b156-ea2caed9cba2"},"vehicle_type_id":"4","last_reported":1721585382,"current_range_meters":31200,"station_id":"ce4bhch2rcd13ifvqeug","pricing_plan_id":"cebpf4jnsgd1na2vs0mg"},{"bike_id":"efdde8b7-0fc8-4d87-912f-c0c555a75f5b","system_id":"levelo_inurba_marseille","lat":43.28615,"lon":5.35108,"is_reserved":false,"is_disabled":false,"rental_uris":{"android":"levelo://app?vid=efdde8b7-0fc8-4d87-912f-c0c555a75f5b","ios":"levelo://app?vid=efdde8b7-0fc8-4d87-912f-c0c555a75f5b"},"vehicle_type_id":"4","last_reported":1721585382,"current_range_meters":12800,"station_id":"ce4bhch2rcd13ifvqeug","pricing_plan_id":"cebpf4jnsgd1na2vs0mg"},{"bike_id":"05e07208-763c-48cd-837e-409ef3054101","system_id":"levelo_inurba_marseille","lat":43.28615,"lon":5.35107,"is_reserved":false,"is_disabled":false,"rental_uris":{"android":"levelo://app?vid=05e07208-763c-48cd-837e-409ef3054101","ios":"levelo://app?vid=05e07208-763c-48cd-837e-409ef3054101"},"vehicle_type_id":"4","last_reported":1721585382,"current_range_meters":31200,"station_id":"ce4bhch2rcd13ifvqeug","pricing_plan_id":"cebpf4jnsgd1na2vs0mg"},{"bike_id":"0bbf607b-793b-40a3-9ccd-e050915d8f2d","system_id":"levelo_inurba_marseille","lat":43.286104,"lon":5.35121,"is_reserved":false,"is_disabled":false,"rental_uris":{"android":"levelo://app?vid=0bbf607b-793b-40a3-9ccd-e050915d8f2d","ios":"levelo://app?vid=0bbf607b-793b-40a3-9ccd-e050915d8f2d"},"vehicle_type_id":"4","last_reported":1721585382,"current_range_meters":800,"station_id":"ce4bhch2rcd13ifvqeug","pricing_plan_id":"cebpf4jnsgd1na2vs0mg"},{"bike_id":"12994335-79f1-471c-bec6-5b3811c44e66","system_id":"levelo_inurba_marseille","lat":43.28617,"lon":5.35099,"is_reserved":false,"is_disabled":false,"rental_uris":{"android":"levelo://app?vid=12994335-79f1-471c-bec6-5b3811c44e66","ios":"levelo://app?vid=12994335-79f1-471c-bec6-5b3811c44e66"},"vehicle_type_id":"4","last_reported":1721585382,"current_range_meters":18800,"station_id":"ce4bhch2rcd13ifvqeug","pricing_plan_id":"cebpf4jnsgd1na2vs0mg"},{"bike_id":"76e5be6a-ac28-4bf6-8c20-bd67c497cf23","system_id":"levelo_inurba_marseille","lat":43.28616,"lon":5.35102,"is_reserved":false,"is_disabled":false,"rental_uris":{"android":"levelo://app?vid=76e5be6a-ac28-4bf6-8c20-bd67c497cf23","ios":"levelo://app?vid=76e5be6a-ac28-4bf6-8c20-bd67c497cf23"},"vehicle_type_id":"4","last_reported":1721585382,"current_range_meters":6400,"station_id":"ce4bhch2rcd13ifvqeug","pricing_plan_id":"cebpf4jnsgd1na2vs0mg"},{"bike_id":"a03c3388-d609-47e6-a53e-1636ac0893fd","system_id":"levelo_inurba_marseille","lat":43.28615,"lon":5.35105,"is_reserved":false,"is_disabled":false,"rental_uris":{"android":"levelo://app?vid=a03c3388-d609-47e6-a53e-1636ac0893fd","ios":"levelo://app?vid=a03c3388-d609-47e6-a53e-1636ac0893fd"},"vehicle_type_id":"4","last_reported":1721585382,"current_range_meters":22800,"station_id":"ce4bhch2rcd13ifvqeug","pricing_plan_id":"cebpf4jnsgd1na2vs0mg"},{"bike_id":"8a4b64cc-32f4-4157-8ae7-d83c848a74e1","system_id":"levelo_inurba_marseille","lat":43.286161,"lon":5.350997,"is_reserved":false,"is_disabled":false,"rental_uris":{"android":"levelo://app?vid=8a4b64cc-32f4-4157-8ae7-d83c848a74e1","ios":"levelo://app?vid=8a4b64cc-32f4-4157-8ae7-d83c848a74e1"},"vehicle_type_id":"4","last_reported":1721585382,"current_range_meters":28400,"station_id":"ce4bhch2rcd13ifvqeug","pricing_plan_id":"cebpf4jnsgd1na2vs0mg"},{"bike_id":"cb4bc52d-05ee-4191-b1a3-08e5e4a3a4a7","system_id":"levelo_inurba_marseille","lat":43.28616,"lon":5.35098,"is_reserved":false,"is_disabled":false,"rental_uris":{"android":"levelo://app?vid=cb4bc52d-05ee-4191-b1a3-08e5e4a3a4a7","ios":"levelo://app?vid=cb4bc52d-05ee-4191-b1a3-08e5e4a3a4a7"},"vehicle_type_id":"4","last_reported":1721585382,"current_range_meters":31200,"station_id":"ce4bhch2rcd13ifvqeug","pricing_plan_id":"cebpf4jnsgd1na2vs0mg"},{"bike_id":"23aefdd0-a758-4a59-bb6d-433a2536e4c7","system_id":"levelo_inurba_marseille","lat":43.28615,"lon":5.35101,"is_reserved":false,"is_disabled":false,"rental_uris":{"android":"levelo://app?vid=23aefdd0-a758-4a59-bb6d-433a2536e4c7","ios":"levelo://app?vid=23aefdd0-a758-4a59-bb6d-433a2536e4c7"},"vehicle_type_id":"4","last_reported":1721585382,"current_range_meters":31200,"station_id":"ce4bhch2rcd13ifvqeug","pricing_plan_id":"cebpf4jnsgd1na2vs0mg"},{"bike_id":"0c151202-1393-473a-9d68-0b59991eb620","system_id":"levelo_inurba_marseille","lat":43.285856,"lon":5.350771,"is_reserved":false,"is_disabled":false,"rental_uris":{"android":"levelo://app?vid=0c151202-1393-473a-9d68-0b59991eb620","ios":"levelo://app?vid=0c151202-1393-473a-9d68-0b59991eb620"},"vehicle_type_id":"4","last_reported":1721585382,"current_range_meters":3200,"station_id":"ce4bhch2rcd13ifvqeug","pricing_plan_id":"cebpf4jnsgd1na2vs0mg"},{"bike_id":"b0a98566-b0e2-4580-bbca-075af1adf1d1","system_id":"levelo_inurba_marseille","lat":43.28614,"lon":5.35104,"is_reserved":false,"is_disabled":false,"rental_uris":{"android":"levelo://app?vid=b0a98566-b0e2-4580-bbca-075af1adf1d1","ios":"levelo://app?vid=b0a98566-b0e2-4580-bbca-075af1adf1d1"},"vehicle_type_id":"4","last_reported":1721585382,"current_range_meters":1600,"station_id":"ce4bhch2rcd13ifvqeug","pricing_plan_id":"cebpf4jnsgd1na2vs0mg"},{"bike_id":"91c0e3bd-69ba-4467-b1de-844395e516f4","system_id":"levelo_inurba_marseille","lat":43.28613,"lon":5.35107,"is_reserved":false,"is_disabled":false,"rental_uris":{"android":"levelo://app?vid=91c0e3bd-69ba-4467-b1de-844395e516f4","ios":"levelo://app?vid=91c0e3bd-69ba-4467-b1de-844395e516f4"},"vehicle_type_id":"4","last_reported":1721585382,"current_range_meters":24800,"station_id":"ce4bhch2rcd13ifvqeug","pricing_plan_id":"cebpf4jnsgd1na2vs0mg"},{"bike_id":"0ecff854-0879-49df-8ea6-6c0fd6d569d8","system_id":"levelo_inurba_marseille","lat":43.28615,"lon":5.351,"is_reserved":false,"is_disabled":false,"rental_uris":{"android":"levelo://app?vid=0ecff854-0879-49df-8ea6-6c0fd6d569d8","ios":"levelo://app?vid=0ecff854-0879-49df-8ea6-6c0fd6d569d8"},"vehicle_type_id":"4","last_reported":1721585382,"current_range_meters":31200,"station_id":"ce4bhch2rcd13ifvqeug","pricing_plan_id":"cebpf4jnsgd1na2vs0mg"},{"bike_id":"0e9f1d68-9198-483a-8fce-e79090b1cbd1","system_id":"levelo_inurba_marseille","lat":43.28613,"lon":5.35103,"is_reserved":false,"is_disabled":false,"rental_uris":{"android":"levelo://app?vid=0e9f1d68-9198-483a-8fce-e79090b1cbd1","ios":"levelo://app?vid=0e9f1d68-9198-483a-8fce-e79090b1cbd1"},"vehicle_type_id":"4","last_reported":1721585382,"current_range_meters":13600,"station_id":"ce4bhch2rcd13ifvqeug","pricing_plan_id":"cebpf4jnsgd1na2vs0mg"},{"bike_id":"9fe105ca-3d00-4716-80ac-77e82a6925fb","system_id":"levelo_inurba_marseille","lat":43.28614,"lon":5.350995,"is_reserved":false,"is_disabled":false,"rental_uris":{"android":"levelo://app?vid=9fe105ca-3d00-4716-80ac-77e82a6925fb","ios":"levelo://app?vid=9fe105ca-3d00-4716-80ac-77e82a6925fb"},"vehicle_type_id":"4","last_reported":1721585382,"current_range_meters":16800,"station_id":"ce4bhch2rcd13ifvqeug","pricing_plan_id":"cebpf4jnsgd1na2vs0mg"},{"bike_id":"00129939-0ce2-4da9-b47a-174767518c75","system_id":"levelo_inurba_marseille","lat":43.283998,"lon":5.375062,"is_reserved":false,"is_disabled":false,"rental_uris":{"android":"levelo://app?vid=00129939-0ce2-4da9-b47a-174767518c75","ios":"levelo://app?vid=00129939-0ce2-4da9-b47a-174767518c75"},"vehicle_type_id":"4","last_reported":1721585382,"current_range_meters":12400,"station_id":"ce4bh412rcd13ifvqds0","pricing_plan_id":"cebpf4jnsgd1na2vs0mg"},{"bike_id":"79574990-310e-403e-9542-e3175eb1f00b","system_id":"levelo_inurba_marseille","lat":43.283998,"lon":5.375062,"is_reserved":false,"is_disabled":false,"rental_uris":{"android":"levelo://app?vid=79574990-310e-403e-9542-e3175eb1f00b","ios":"levelo://app?vid=79574990-310e-403e-9542-e3175eb1f00b"},"vehicle_type_id":"4","last_reported":1721585382,"current_range_meters":11600,"station_id":"ce4bh412rcd13ifvqds0","pricing_plan_id":"cebpf4jnsgd1na2vs0mg"},{"bike_id":"89c8edf0-0bfd-48e3-b2d5-c1f5afed0726","system_id":"levelo_inurba_marseille","lat":43.283998,"lon":5.375062,"is_reserved":false,"is_disabled":false,"rental_uris":{"android":"levelo://app?vid=89c8edf0-0bfd-48e3-b2d5-c1f5afed0726","ios":"levelo://app?vid=89c8edf0-0bfd-48e3-b2d5-c1f5afed0726"},"vehicle_type_id":"4","last_reported":1721585382,"current_range_meters":26400,"station_id":"ce4bh412rcd13ifvqds0","pricing_plan_id":"cebpf4jnsgd1na2vs0mg"},{"bike_id":"e1664a9a-185a-4c02-9795-3d72e604546b","system_id":"levelo_inurba_marseille","lat":43.283998,"lon":5.375062,"is_reserved":false,"is_disabled":false,"rental_uris":{"android":"levelo://app?vid=e1664a9a-185a-4c02-9795-3d72e604546b","ios":"levelo://app?vid=e1664a9a-185a-4c02-9795-3d72e604546b"},"vehicle_type_id":"4","last_reported":1721585382,"current_range_meters":2800,"station_id":"ce4bh412rcd13ifvqds0","pricing_plan_id":"cebpf4jnsgd1na2vs0mg"},{"bike_id":"8b6e4718-1008-4a2b-be93-0daf11e0114a","system_id":"levelo_inurba_marseille","lat":43.283998,"lon":5.375062,"is_reserved":false,"is_disabled":false,"rental_uris":{"android":"levelo://app?vid=8b6e4718-1008-4a2b-be93-0daf11e0114a","ios":"levelo://app?vid=8b6e4718-1008-4a2b-be93-0daf11e0114a"},"vehicle_type_id":"4","last_reported":1721585382,"current_range_meters":1200,"station_id":"ce4bh412rcd13ifvqds0","pricing_plan_id":"cebpf4jnsgd1na2vs0mg"},{"bike_id":"e8528949-1a03-4587-ab76-24bea87bcd7f","system_id":"levelo_inurba_marseille","lat":43.287154,"lon":5.399979,"is_reserved":false,"is_disabled":false,"rental_uris":{"android":"levelo://app?vid=e8528949-1a03-4587-ab76-24bea87bcd7f","ios":"levelo://app?vid=e8528949-1a03-4587-ab76-24bea87bcd7f"},"vehicle_type_id":"4","last_reported":1721585382,"current_range_meters":2800,"station_id":"ce4bho92rcd13ifvqh3g","pricing_plan_id":"cebpf4jnsgd1na2vs0mg"},{"bike_id":"c1539ce4-78b4-4d42-ba6c-06a461968917","system_id":"levelo_inurba_marseille","lat":43.31893,"lon":5.40722,"is_reserved":false,"is_disabled":false,"rental_uris":{"android":"levelo://app?vid=c1539ce4-78b4-4d42-ba6c-06a461968917","ios":"levelo://app?vid=c1539ce4-78b4-4d42-ba6c-06a461968917"},"vehicle_type_id":"4","last_reported":1721585382,"current_range_meters":11600,"station_id":"ce4bhq12rcd13ifvqhig","pricing_plan_id":"cebpf4jnsgd1na2vs0mg"},{"bike_id":"ff85afbd-9477-436b-af5f-30eec12c38c3","system_id":"levelo_inurba_marseille","lat":43.337168,"lon":5.391825,"is_reserved":false,"is_disabled":false,"rental_uris":{"android":"levelo://app?vid=ff85afbd-9477-436b-af5f-30eec12c38c3","ios":"levelo://app?vid=ff85afbd-9477-436b-af5f-30eec12c38c3"},"vehicle_type_id":"4","last_reported":1721585382,"current_range_meters":4000,"station_id":"ce4bhr92rcd13ifvqhsg","pricing_plan_id":"cebpf4jnsgd1na2vs0mg"},{"bike_id":"efc1b4bd-89d8-41af-8b2a-7b2f9875a483","system_id":"levelo_inurba_marseille","lat":43.32338,"lon":5.40616,"is_reserved":false,"is_disabled":false,"rental_uris":{"android":"levelo://app?vid=efc1b4bd-89d8-41af-8b2a-7b2f9875a483","ios":"levelo://app?vid=efc1b4bd-89d8-41af-8b2a-7b2f9875a483"},"vehicle_type_id":"4","last_reported":1721585382,"current_range_meters":15200,"station_id":"ce4bhq92rcd13ifvqhjg","pricing_plan_id":"cebpf4jnsgd1na2vs0mg"},{"bike_id":"233b5e83-5c5a-45b2-aa06-257dd5c09acc","system_id":"levelo_inurba_marseille","lat":43.32333,"lon":5.40619,"is_reserved":false,"is_disabled":false,"rental_uris":{"android":"levelo://app?vid=233b5e83-5c5a-45b2-aa06-257dd5c09acc","ios":"levelo://app?vid=233b5e83-5c5a-45b2-aa06-257dd5c09acc"},"vehicle_type_id":"4","last_reported":1721585382,"current_range_meters":400,"station_id":"ce4bhq92rcd13ifvqhjg","pricing_plan_id":"cebpf4jnsgd1na2vs0mg"},{"bike_id":"c5e89da1-482a-4773-a00d-a016a8683d0a","system_id":"levelo_inurba_marseille","lat":43.32338,"lon":5.40617,"is_reserved":false,"is_disabled":false,"rental_uris":{"android":"levelo://app?vid=c5e89da1-482a-4773-a00d-a016a8683d0a","ios":"levelo://app?vid=c5e89da1-482a-4773-a00d-a016a8683d0a"},"vehicle_type_id":"4","last_reported":1721585382,"current_range_meters":14000,"station_id":"ce4bhq92rcd13ifvqhjg","pricing_plan_id":"cebpf4jnsgd1na2vs0mg"},{"bike_id":"c88d2251-5836-44a5-aeb9-62cdc204a1d0","system_id":"levelo_inurba_marseille","lat":43.32341,"lon":5.40621,"is_reserved":false,"is_disabled":false,"rental_uris":{"android":"levelo://app?vid=c88d2251-5836-44a5-aeb9-62cdc204a1d0","ios":"levelo://app?vid=c88d2251-5836-44a5-aeb9-62cdc204a1d0"},"vehicle_type_id":"4","last_reported":1721585382,"current_range_meters":800,"station_id":"ce4bhq92rcd13ifvqhjg","pricing_plan_id":"cebpf4jnsgd1na2vs0mg"},{"bike_id":"6f4fbf69-f56a-46a6-be51-3deb54736a47","system_id":"levelo_inurba_marseille","lat":43.323432,"lon":5.406227,"is_reserved":false,"is_disabled":false,"rental_uris":{"android":"levelo://app?vid=6f4fbf69-f56a-46a6-be51-3deb54736a47","ios":"levelo://app?vid=6f4fbf69-f56a-46a6-be51-3deb54736a47"},"vehicle_type_id":"4","last_reported":1721585382,"current_range_meters":17200,"station_id":"ce4bhq92rcd13ifvqhjg","pricing_plan_id":"cebpf4jnsgd1na2vs0mg"},