{"last_updated":1723479015,"ttl":30,"version":"2.2","data":{"bikes":[{"bike_id":"e1203881-08a7-467e-8734-8b187f0429dd","system_id":"levelo_inurba_marseille","lat":43.312239,"lon":5.368562,"is_reserved":false,"is_disabled":false,"rental_uris":{"android":"levelo://app?vid=e1203881-08a7-467e-8734-8b187f0429dd","ios":"levelo://app?vid=e1203881-08a7-467e-8734-8b187f0429dd"},"vehicle_type_id":"4","last_reported":1723479015,"current_range_meters":11200,"station_id":"ce4bgl92rcd13ifvqbq0","pricing_plan_id":"cebpf4jnsgd1na2vs0mg"},{"bike_id":"a398f880-6067-4790-a4f1-ec57c7f452f4","system_id":"levelo_inurba_marseille","lat":43.312239,"lon":5.368562,"is_reserved":false,"is_disabled":false,"rental_uris":{"android":"levelo://app?vid=a398f880-6067-4790-a4f1-ec57c7f452f4","ios":"levelo://app?vid=a398f880-6067-4790-a4f1-ec57c7f452f4"},"vehicle_type_id":"4","last_reported":1723479015,"current_range_meters":7200,"station_id":"ce4bgl92rcd13ifvqbq0","pricing_plan_id":"cebpf4jnsgd1na2vs0mg"},{"bike_id":"8155829f-9de1-4aeb-aaee-f403dcfe253a","system_id":"levelo_inurba_marseille","lat":43.314811,"lon":5.373103,"is_reserved":false,"is_disabled":false,"rental_uris":{"android":"levelo://app?vid=8155829f-9de1-4aeb-aaee-f403dcfe253a","ios":"levelo://app?vid=8155829f-9de1-4aeb-aaee-f403dcfe253a"},"vehicle_type_id":"4","last_reported":1723479015,"current_range_meters":20000,"station_id":"ce4bgt12rcd13ifvqcd0","pricing_plan_id":"cebpf4jnsgd1na2vs0mg"},{"bike_id":"7504a6b2-c3ad-4d06-a442-d327bb68b4c4","system_id":"levelo_inurba_marseille","lat":43.314811,"lon":5.373103,"is_reserved":false,"is_disabled":false,"rental_uris":{"android":"levelo://app?vid=7504a6b2-c3ad-4d06-a442-d327bb68b4c4","ios":"levelo://app?vid=7504a6b2-c3ad-4d06-a442-d327bb68b4c4"},"vehicle_type_id":"4","last_reported":1723479015,"current_range_meters":3600,"station_id":"ce4bgt12rcd13ifvqcd0","pricing_plan_id":"cebpf4jnsgd1na2vs0mg"},{"bike_id":"1874efb6-6200-47db-89e8-1e1072264f8b","system_id":"levelo_inurba_marseille","lat":43.31496,"lon":5.3731,"is_reserved":false,"is_disabled":false,"rental_uris":{"android":"levelo://app?vid=1874efb6-6200-47db-89e8-1e1072264f8b","ios":"levelo://app?vid=1874efb6-6200-47db-89e8-1e1072264f8b"},"vehicle_type_id":"4","last_reported":1723479015,"current_range_meters":5600,"station_id":"ce4bgt12rcd13ifvqcd0","pricing_plan_id":"cebpf4jnsgd1na2vs0mg"},{"bike_id":"70fe3f77-1dc7-4c81-93e8-85d5105ab4ea","system_id":"levelo_inurba_marseille","lat":43.31566,"lon":5.37282,"is_reserved":false,"is_disabled":false,"rental_uris":{"android":"levelo://app?vid=70fe3f77-1dc7-4c81-93e8-85d5105ab4ea","ios":"levelo://app?vid=70fe3f77-1dc7-4c81-93e8-85d5105ab4ea"},"vehicle_type_id":"4","last_reported":1723479015,"current_range_meters":21200,"station_id":"","pricing_plan_id":"cebpf4jnsgd1na2vs0mg"},{"bike_id":"5724c113-d37b-4bdb-b09e-a27ce87968c9","system_id":"levelo_inurba_marseille","lat":43.309039,"lon":5.371797,"is_reserved":false,"is_disabled":false,"rental_uris":{"android":"levelo://app?vid=5724c113-d37b-4bdb-b09e-a27ce87968c9","ios":"levelo://app?vid=5724c113-d37b-4bdb-b09e-a27ce87968c9"},"vehicle_type_id":"4","last_reported":1723479015,"current_range_meters":30000,"station_id":"ce4bguh2rcd13ifvqckg","pricing_plan_id":"cebpf4jnsgd1na2vs0mg"},{"bike_id":"f0169847-d897-43e3-86d2-18006a33fbde","system_id":"levelo_inurba_marseille","lat":43.309039,"lon":5.371797,"is_reserved":false,"is_disabled":false,"rental_uris":{"android":"levelo://app?vid=f0169847-d897-43e3-86d2-18006a33fbde","ios":"levelo://app?vid=f0169847-d897-43e3-86d2-18006a33fbde"},"vehicle_type_id":"4","last_reported":1723479015,"current_range_meters":19200,"station_id":"ce4bguh2rcd13ifvqckg","pricing_plan_id":"cebpf4jnsgd1na2vs0mg"},{"bike_id":"45360ba6-62e4-4942-928d-2111f9dd56a5","system_id":"levelo_inurba_marseille","lat":43.309034,"lon":5.371783,"is_reserved":false,"is_disabled":false,"rental_uris":{"android":"levelo://app?vid=45360ba6-62e4-4942-928d-2111f9dd56a5","ios":"levelo://app?vid=45360ba6-62e4-4942-928d-2111f9dd56a5"},"vehicle_type_id":"4","last_reported":1723479015,"current_range_meters":9200,"station_id":"ce4bguh2rcd13ifvqckg","pricing_plan_id":"cebpf4jnsgd1na2vs0mg"},{"bike_id":"3e315c03-bb88-4419-a1bb-0cce4e0eaae7","system_id":"levelo_inurba_marseille","lat":43.322872,"lon":5.382756,"is_reserved":false,"is_disabled":false,"rental_uris":{"android":"levelo://app?vid=3e315c03-bb88-4419-a1bb-0cce4e0eaae7","ios":"levelo://app?vid=3e315c03-bb88-4419-a1bb-0cce4e0eaae7"},"vehicle_type_id":"4","last_reported":1723479015,"current_range_meters":800,"station_id":"ce4bhr12rcd13ifvqhqg","pricing_plan_id":"cebpf4jnsgd1na2vs0mg"},{"bike_id":"eb5a23cd-58f0-4d2f-ad6d-78772ca25690","system_id":"levelo_inurba_marseille","lat":43.307945,"lon":5.376487,"is_reserved":false,"is_disabled":false,"rental_uris":{"android":"levelo://app?vid=eb5a23cd-58f0-4d2f-ad6d-78772ca25690","ios":"levelo://app?vid=eb5a23cd-58f0-4d2f-ad6d-78772ca25690"},"vehicle_type_id":"4","last_reported":1723479015,"current_range_meters":20400,"station_id":"ce4bgv92rcd13ifvqcq0","pricing_plan_id":"cebpf4jnsgd1na2vs0mg"},{"bike_id":"cb408ed9-770b-4c0d-bebd-f6fab76a282f","system_id":"levelo_inurba_marseille","lat":43.307945,"lon":5.376487,"is_reserved":false,"is_disabled":false,"rental_uris":{"android":"levelo://app?vid=cb408ed9-770b-4c0d-bebd-f6fab76a282f","ios":"levelo://app?vid=cb408ed9-770b-4c0d-bebd-f6fab76a282f"},"vehicle_type_id":"4","last_reported":1723479015,"current_range_meters":16800,"station_id":"ce4bgv92rcd13ifvqcq0","pricing_plan_id":"cebpf4jnsgd1na2vs0mg"},{"bike_id":"4c497721-79eb-4158-aa50-4b48e50f9df3","system_id":"levelo_inurba_marseille","lat":43.30778,"lon":5.37652,"is_reserved":false,"is_disabled":false,"rental_uris":{"android":"levelo://app?vid=4c497721-79eb-4158-aa50-4b48e50f9df3","ios":"levelo://app?vid=4c497721-79eb-4158-aa50-4b48e50f9df3"},"vehicle_type_id":"4","last_reported":1723479015,"current_range_meters":20400,"station_id":"","pricing_plan_id":"cebpf4jnsgd1na2vs0mg"},{"bike_id":"36e80361-715f-44e1-b012-81656d9210a0","system_id":"levelo_inurba_marseille","lat":43.30308,"lon":5.3689,"is_reserved":false,"is_disabled":false,"rental_uris":{"android":"levelo://app?vid=36e80361-715f-44e1-b012-81656d9210a0","ios":"levelo://app?vid=36e80361-715f-44e1-b012-81656d9210a0"},"vehicle_type_id":"4","last_reported":1723479015,"current_range_meters":0,"station_id":"ce4bgqh2rcd13ifvqc5g","pricing_plan_id":"cebpf4jnsgd1na2vs0mg"},{"bike_id":"e43d9e2c-9d56-4741-96c8-9ef311a5fe37","system_id":"levelo_inurba_marseille","lat":43.308585,"lon":5.37932,"is_reserved":false,"is_disabled":false,"rental_uris":{"android":"levelo://app?vid=e43d9e2c-9d56-4741-96c8-9ef311a5fe37","ios":"levelo://app?vid=e43d9e2c-9d56-4741-96c8-9ef311a5fe37"},"vehicle_type_id":"4","last_reported":1723479015,"current_range_meters":20800,"station_id":"","pricing_plan_id":"cebpf4jnsgd1na2vs0mg"},{"bike_id":"94a9f409-9a0b-418e-979c-9afc29cf67d0","system_id":"levelo_inurba_marseille","lat":43.315289,"lon":5.380349,"is_reserved":false,"is_disabled":false,"rental_uris":{"android":"levelo://app?vid=94a9f409-9a0b-418e-979c-9afc29cf67d0","ios":"levelo://app?vid=94a9f409-9a0b-418e-979c-9afc29cf67d0"},"vehicle_type_id":"4","last_reported":1723479015,"current_range_meters":13200,"station_id":"ce4bhsp2rcd13ifvqi50","pricing_plan_id":"cebpf4jnsgd1na2vs0mg"},{"bike_id":"e937c292-3359-4294-85bb-aacd5f2d3907","system_id":"levelo_inurba_marseille","lat":43.315289,"lon":5.380349,"is_reserved":false,"is_disabled":false,"rental_uris":{"android":"levelo://app?vid=e937c292-3359-4294-85bb-aacd5f2d3907","ios":"levelo://app?vid=e937c292-3359-4294-85bb-aacd5f2d3907"},"vehicle_type_id":"4","last_reported":1723479015,"current_range_meters":15600,"station_id":"ce4bhsp2rcd13ifvqi50","pricing_plan_id":"cebpf4jnsgd1na2vs0mg"},{"bike_id":"52ac72cf-92af-4e72-a9e8-206453ef2e36","system_id":"levelo_inurba_marseille","lat":43.301939,"lon":5.366286,"is_reserved":false,"is_disabled":false,"rental_uris":{"android":"levelo://app?vid=52ac72cf-92af-4e72-a9e8-206453ef2e36","ios":"levelo://app?vid=52ac72cf-92af-4e72-a9e8-206453ef2e36"},"vehicle_type_id":"4","last_reported":1723479015,"current_range_meters":400,"station_id":"ce4bgrh2rcd13ifvqc8g","pricing_plan_id":"cebpf4jnsgd1na2vs0mg"},{"bike_id":"9fe7c99c-6592-486a-bd27-8f15a0f9912b","system_id":"levelo_inurba_marseille","lat":43.301939,"lon":5.366286,"is_reserved":false,"is_disabled":false,"rental_uris":{"android":"levelo://app?vid=9fe7c99c-6592-486a-bd27-8f15a0f9912b","ios":"levelo://app?vid=9fe7c99c-6592-486a-bd27-8f15a0f9912b"},"vehicle_type_id":"4","last_reported":1723479015,"current_range_meters":21200,"station_id":"ce4bgrh2rcd13ifvqc8g","pricing_plan_id":"cebpf4jnsgd1na2vs0mg"},{"bike_id":"a7b14da6-1a59-40e0-9ad3-8c9d75aa60c2","system_id":"levelo_inurba_marseille","lat":43.308012,"lon":5.381511,"is_reserved":false,"is_disabled":false,"rental_uris":{"android":"levelo://app?vid=a7b14da6-1a59-40e0-9ad3-8c9d75aa60c2","ios":"levelo://app?vid=a7b14da6-1a59-40e0-9ad3-8c9d75aa60c2"},"vehicle_type_id":"4","last_reported":1723479015,"current_range_meters":28800,"station_id":"ce4bgt12rcd13ifvqce0","pricing_plan_id":"cebpf4jnsgd1na2vs0mg"},{"bike_id":"86a7584e-a5e5-4489-b9bf-15f83cd2c4a3","system_id":"levelo_inurba_marseille","lat":43.304606,"lon":5.379026,"is_reserved":false,"is_disabled":false,"rental_uris":{"android":"levelo://app?vid=86a7584e-a5e5-4489-b9bf-15f83cd2c4a3","ios":"levelo://app?vid=86a7584e-a5e5-4489-b9bf-15f83cd2c4a3"},"vehicle_type_id":"4","last_reported":1723479015,"current_range_meters":0,"station_id":"ce4bgup2rcd13ifvqcn0","pricing_plan_id":"cebpf4jnsgd1na2vs0mg"},{"bike_id":"21e26b28-24d6-403b-9f5d-de8d4ae9cca1","system_id":"levelo_inurba_marseille","lat":43.310804,"lon":5.38359,"is_reserved":false,"is_disabled":false,"rental_uris":{"android":"levelo://app?vid=21e26b28-24d6-403b-9f5d-de8d4ae9cca1","ios":"levelo://app?vid=21e26b28-24d6-403b-9f5d-de8d4ae9cca1"},"vehicle_type_id":"4","last_reported":1723479015,"current_range_meters":8800,"station_id":"ce4bgv92rcd13ifvqcr0","pricing_plan_id":"cebpf4jnsgd1na2vs0mg"},{"bike_id":"b2245de5-5f52-413e-853a-d1da03e9b097","system_id":"levelo_inurba_marseille","lat":43.30612,"lon":5.38149,"is_reserved":false,"is_disabled":false,"rental_uris":{"android":"levelo://app?vid=b2245de5-5f52-413e-853a-d1da03e9b097","ios":"levelo://app?vid=b2245de5-5f52-413e-853a-d1da03e9b097"},"vehicle_type_id":"4","last_reported":1723479015,"current_range_meters":22400,"station_id":"","pricing_plan_id":"cebpf4jnsgd1na2vs0mg"},{"bike_id":"ffeff3e7-f060-4d1d-a6d6-62c7a8edcd60","system_id":"levelo_inurba_marseille","lat":43.313571,"lon":5.384829,"is_reserved":false,"is_disabled":false,"rental_uris":{"android":"levelo://app?vid=ffeff3e7-f060-4d1d-a6d6-62c7a8edcd60","ios":"levelo://app?vid=ffeff3e7-f060-4d1d-a6d6-62c7a8edcd60"},"vehicle_type_id":"4","last_reported":1723479015,"current_range_meters":0,"station_id":"ce4bgt92rcd13ifvqcf0","pricing_plan_id":"cebpf4jnsgd1na2vs0mg"},{"bike_id":"c84dd652-621c-45e0-891f-3b7a79a42fed","system_id":"levelo_inurba_marseille","lat":43.31359,"lon":5.38496,"is_reserved":false,"is_disabled":false,"rental_uris":{"android":"levelo://app?vid=c84dd652-621c-45e0-891f-3b7a79a42fed","ios":"levelo://app?vid=c84dd652-621c-45e0-891f-3b7a79a42fed"},"vehicle_type_id":"4","last_reported":1723479015,"current_range_meters":24000,"station_id":"ce4bgt92rcd13ifvqcf0","pricing_plan_id":"cebpf4jnsgd1na2vs0mg"},{"bike_id":"156c4ee7-ac34-43d3-9dc9-612e2f4a9347","system_id":"levelo_inurba_marseille","lat":43.298433,"lon":5.362774,"is_reserved":false,"is_disabled":false,"rental_uris":{"android":"levelo://app?vid=156c4ee7-ac34-43d3-9dc9-612e2f4a9347","ios":"levelo://app?vid=156c4ee7-ac34-43d3-9dc9-612e2f4a9347"},"vehicle_type_id":"4","last_reported":1723479015,"current_range_meters":18800,"station_id":"ce4bgpp2rcd13ifvqc3g","pricing_plan_id":"cebpf4jnsgd1na2vs0mg"},{"bike_id":"a8753a09-352d-4aed-a7bf-181db9a0473f","system_id":"levelo_inurba_marseille","lat":43.305364,"lon":5.384119,"is_reserved":false,"is_disabled":false,"rental_uris":{"android":"levelo://app?vid=a8753a09-352d-4aed-a7bf-181db9a0473f","ios":"levelo://app?vid=a8753a09-352d-4aed-a7bf-181db9a0473f"},"vehicle_type_id":"4","last_reported":1723479015,"current_range_meters":12800,"station_id":"ce4bgg92rcd13ifvqb30","pricing_plan_id":"cebpf4jnsgd1na2vs0mg"},{"bike_id":"902656cc-8e14-4446-b9e9-2b9bb9c2dbba","system_id":"levelo_inurba_marseille","lat":43.298433,"lon":5.362774,"is_reserved":false,"is_disabled":false,"rental_uris":{"android":"levelo://app?vid=902656cc-8e14-4446-b9e9-2b9bb9c2dbba","ios":"levelo://app?vid=902656cc-8e14-4446-b9e9-2b9bb9c2dbba"},"vehicle_type_id":"4","last_reported":1723479015,"current_range_meters":17200,"station_id":"ce4bgpp2rcd13ifvqc3g","pricing_plan_id":"cebpf4jnsgd1na2vs0mg"},{"bike_id":"4da568b1-aba5-47be-b576-14874ce98f28","system_id":"levelo_inurba_marseille","lat":43.305364,"lon":5.384119,"is_reserved":false,"is_disabled":false,"rental_uris":{"android":"levelo://app?vid=4da568b1-aba5-47be-b576-14874ce98f28","ios":"levelo://app?vid=4da568b1-aba5-47be-b576-14874ce98f28"},"vehicle_type_id":"4","last_reported":1723479015,"current_range_meters":4400,"station_id":"ce4bgg92rcd13ifvqb30","pricing_plan_id":"cebpf4jnsgd1na2vs0mg"},{"bike_id":"fdbe0abf-41f0-45c2-9c08-70b505e3e5e8","system_id":"levelo_inurba_marseille","lat":43.311722,"lon":5.387247,"is_reserved":false,"is_disabled":false,"rental_uris":{"android":"levelo://app?vid=fdbe0abf-41f0-45c2-9c08-70b505e3e5e8","ios":"levelo://app?vid=fdbe0abf-41f0-45c2-9c08-70b505e3e5e8"},"vehicle_type_id":"4","last_reported":1723479015,"current_range_meters":3600,"station_id":"ce4bgv12rcd13ifvqcp0","pricing_plan_id":"cebpf4jnsgd1na2vs0mg"},{"bike_id":"35f86c8f-cc8e-41b3-ab24-9b29cf29885e","system_id":"levelo_inurba_marseille","lat":43.311722,"lon":5.387247,"is_reserved":false,"is_disabled":false,"rental_uris":{"android":"levelo://app?vid=35f86c8f-cc8e-41b3-ab24-9b29cf29885e","ios":"levelo://app?vid=35f86c8f-cc8e-41b3-ab24-9b29cf29885e"},"vehicle_type_id":"4","last_reported":1723479015,"current_range_meters":0,"station_id":"ce4bgv12rcd13ifvqcp0","pricing_plan_id":"cebpf4jnsgd1na2vs0mg"},{"bike_id":"94645e07-985b-46d1-abaf-a17d67012639","system_id":"levelo_inurba_marseille","lat":43.299243,"lon":5.37481,"is_reserved":false,"is_disabled":false,"rental_uris":{"android":"levelo://app?vid=94645e07-985b-46d1-abaf-a17d67012639","ios":"levelo://app?vid=94645e07-985b-46d1-abaf-a17d67012639"},"vehicle_type_id":"4","last_reported":1723479015,"current_range_meters":30400,"station_id":"ce4bgjh2rcd13ifvqbg0","pricing_plan_id":"cebpf4jnsgd1na2vs0mg"},{"bike_id":"b210f0f4-8c39-41fb-9522-73e345e01993","system_id":"levelo_inurba_marseille","lat":43.29707,"lon":5.36884,"is_reserved":false,"is_disabled":false,"rental_uris":{"android":"levelo://app?vid=b210f0f4-8c39-41fb-9522-73e345e01993","ios":"levelo://app?vid=b210f0f4-8c39-41fb-9522-73e345e01993"},"vehicle_type_id":"4","last_reported":1723479015,"current_range_meters":7600,"station_id":"","pricing_plan_id":"cebpf4jnsgd1na2vs0mg"},{"bike_id":"2a703b5d-140f-45d5-80e8-c5a151f94d99","system_id":"levelo_inurba_marseille","lat":43.297163,"lon":5.365866,"is_reserved":false,"is_disabled":false,"rental_uris":{"android":"levelo://app?vid=2a703b5d-140f-45d5-80e8-c5a151f94d99","ios":"levelo://app?vid=2a703b5d-140f-45d5-80e8-c5a151f94d99"},"vehicle_type_id":"4","last_reported":1723479015,"current_range_meters":21200,"station_id":"ce4bgn12rcd13ifvqbt0","pricing_plan_id":"cebpf4jnsgd1na2vs0mg"},{"bike_id":"f925dc32-1170-4f07-8662-0dc98345f84d","system_id":"levelo_inurba_marseille","lat":43.29672,"lon":5.369031,"is_reserved":false,"is_disabled":false,"rental_uris":{"android":"levelo://app?vid=f925dc32-1170-4f07-8662-0dc98345f84d","ios":"levelo://app?vid=f925dc32-1170-4f07-8662-0dc98345f84d"},"vehicle_type_id":"4","last_reported":1723479015,"current_range_meters":31200,"station_id":"","pricing_plan_id":"cebpf4jnsgd1na2vs0mg"},{"bike_id":"de911aa5-2770-4a97-93ba-6cd71a4ac3fb","system_id":"levelo_inurba_marseille","lat":43.29621,"lon":5.37144,"is_reserved":false,"is_disabled":false,"rental_uris":{"android":"levelo://app?vid=de911aa5-2770-4a97-93ba-6cd71a4ac3fb","ios":"levelo://app?vid=de911aa5-2770-4a97-93ba-6cd71a4ac3fb"},"vehicle_type_id":"4","last_reported":1723479015,"current_range_meters":0,"station_id":"ce4bgnh2rcd13ifvqc0g","pricing_plan_id":"cebpf4jnsgd1na2vs0mg"},{"bike_id":"92a0d98c-d241-4245-a0cd-918fa781c9e4","system_id":"levelo_inurba_marseille","lat":43.29573,"lon":5.367355,"is_reserved":false,"is_disabled":false,"rental_uris":{"android":"levelo://app?vid=92a0d98c-d241-4245-a0cd-918fa781c9e4","ios":"levelo://app?vid=92a0d98c-d241-4245-a0cd-918fa781c9e4"},"vehicle_type_id":"4","last_reported":1723479015,"current_range_meters":2400,"station_id":"ce4bgph2rcd13ifvqc2g","pricing_plan_id":"cebpf4jnsgd1na2vs0mg"},{"bike_id":"a61dc6cb-3ec0-42f3-b016-0169aeb15af8","system_id":"levelo_inurba_marseille","lat":43.299028,"lon":5.381509,"is_reserved":false,"is_disabled":false,"rental_uris":{"android":"levelo://app?vid=a61dc6cb-3ec0-42f3-b016-0169aeb15af8","ios":"levelo://app?vid=a61dc6cb-3ec0-42f3-b016-0169aeb15af8"},"vehicle_type_id":"4","last_reported":1723479015,"current_range_meters":20400,"station_id":"ce4bgj12rcd13ifvqbc0","pricing_plan_id":"cebpf4jnsgd1na2vs0mg"},{"bike_id":"08c76aa2-83ab-43b6-8e8f-f90a3cf71f64","system_id":"levelo_inurba_marseille","lat":43.299028,"lon":5.381509,"is_reserved":false,"is_disabled":false,"rental_uris":{"android":"levelo://app?vid=08c76aa2-83ab-43b6-8e8f-f90a3cf71f64","ios":"levelo://app?vid=08c76aa2-83ab-43b6-8e8f-f90a3cf71f64"},"vehicle_type_id":"4","last_reported":1723479015,"current_range_meters":6000,"station_id":"ce4bgj12rcd13ifvqbc0","pricing_plan_id":"cebpf4jnsgd1na2vs0mg"},{"bike_id":"78a654c3-70ce-42f1-aa4c-9990897afb75","system_id":"levelo_inurba_marseille","lat":43.299028,"lon":5.381509,"is_reserved":false,"is_disabled":false,"rental_uris":{"android":"levelo://app?vid=78a654c3-70ce-42f1-aa4c-9990897afb75","ios":"levelo://app?vid=78a654c3-70ce-42f1-aa4c-9990897afb75"},"vehicle_type_id":"4","last_reported":1723479015,"current_range_meters":0,"station_id":"ce4bgj12rcd13ifvqbc0","pricing_plan_id":"cebpf4jnsgd1na2vs0mg"},{"bike_id":"4ab03c4f-9d0b-4993-9800-abdf977af17b","system_id":"levelo_inurba_marseille","lat":43.299028,"lon":5.381509,"is_reserved":false,"is_disabled":false,"rental_uris":{"android":"levelo://app?vid=4ab03c4f-9d0b-4993-9800-abdf977af17b","ios":"levelo://app?vid=4ab03c4f-9d0b-4993-9800-abdf977af17b"},"vehicle_type_id":"4","last_reported":1723479015,"current_range_meters":28000,"station_id":"ce4bgj12rcd13ifvqbc0","pricing_plan_id":"cebpf4jnsgd1na2vs0mg"},{"bike_id":"8ac78d56-fd8c-43e4-b326-30b698f33974","system_id":"levelo_inurba_marseille","lat":43.299028,"lon":5.381509,"is_reserved":false,"is_disabled":false,"rental_uris":{"android":"levelo://app?vid=8ac78d56-fd8c-43e4-b326-30b698f33974","ios":"levelo://app?vid=8ac78d56-fd8c-43e4-b326-30b698f33974"},"vehicle_type_id":"4","last_reported":1723479015,"current_range_meters":21200,"station_id":"ce4bgj12rcd13ifvqbc0","pricing_plan_id":"cebpf4jnsgd1na2vs0mg"},{"bike_id":"7112d2e1-0dd6-4c3c-b0af-40fc2b0af703","system_id":"levelo_inurba_marseille","lat":43.299028,"lon":5.381509,"is_reserved":false,"is_disabled":false,"rental_uris":{"android":"levelo://app?vid=7112d2e1-0dd6-4c3c-b0af-40fc2b0af703","ios":"levelo://app?vid=7112d2e1-0dd6-4c3c-b0af-40fc2b0af703"},"vehicle_type_id":"4","last_reported":1723479015,"current_range_meters":20400,"station_id":"ce4bgj12rcd13ifvqbc0","pricing_plan_id":"cebpf4jnsgd1na2vs0mg"},{"bike_id":"eb06022c-8761-4479-af4a-34f2422f3159","system_id":"levelo_inurba_marseille","lat":43.299028,"lon":5.381509,"is_reserved":false,"is_disabled":false,"rental_uris":{"android":"levelo://app?vid=eb06022c-8761-4479-af4a-34f2422f3159","ios":"levelo://app?vid=eb06022c-8761-4479-af4a-34f2422f3159"},"vehicle_type_id":"4","last_reported":1723479015,"current_range_meters":8000,"station_id":"ce4bgj12rcd13ifvqbc0","pricing_plan_id":"cebpf4jnsgd1na2vs0mg"},{"bike_id":"eda470b9-818e-41e7-927d-c51c32d999f6","system_id":"levelo_inurba_marseille","lat":43.317557,"lon":5.390173,"is_reserved":false,"is_disabled":false,"rental_uris":{"android":"levelo://app?vid=eda470b9-818e-41e7-927d-c51c32d999f6","ios":"levelo://app?vid=eda470b9-818e-41e7-927d-c51c32d999f6"},"vehicle_type_id":"4","last_reported":1723479015,"current_range_meters":28400,"station_id":"ce4bhqp2rcd13ifvqhng","pricing_plan_id":"cebpf4jnsgd1na2vs0mg"},{"bike_id":"7bffe689-54db-481e-9d02-fa9703b7f0a8","system_id":"levelo_inurba_marseille","lat":43.29574,"lon":5.37519,"is_reserved":false,"is_disabled":false,"rental_uris":{"android":"levelo://app?vid=7bffe689-54db-481e-9d02-fa9703b7f0a8","ios":"levelo://app?vid=7bffe689-54db-481e-9d02-fa9703b7f0a8"},"vehicle_type_id":"4","last_reported":1723479015,"current_range_meters":0,"station_id":"ce4bgh92rcd13ifvqb50","pricing_plan_id":"cebpf4jnsgd1na2vs0mg"},{"bike_id":"e87fd96c-6aea-4bdd-b7c7-900828f50f31","system_id":"levelo_inurba_marseille","lat":43.3044,"lon":5.38891,"is_reserved":false,"is_disabled":false,"rental_uris":{"android":"levelo://app?vid=e87fd96c-6aea-4bdd-b7c7-900828f50f31","ios":"levelo://app?vid=e87fd96c-6aea-4bdd-b7c7-900828f50f31"},"vehicle_type_id":"4","last_reported":1723479015,"current_range_meters":18800,"station_id":"ce4bgk12rcd13ifvqbi0","pricing_plan_id":"cebpf4jnsgd1na2vs0mg"},{"bike_id":"f710f25f-4165-4f68-83bc-2568bb8c548d","system_id":"levelo_inurba_marseille","lat":43.304274,"lon":5.388873,"is_reserved":false,"is_disabled":false,"rental_uris":{"android":"levelo://app?vid=f710f25f-4165-4f68-83bc-2568bb8c548d","ios":"levelo://app?vid=f710f25f-4165-4f68-83bc-2568bb8c548d"},"vehicle_type_id":"4","last_reported":1723479015,"current_range_meters":15200,"station_id":"ce4bgk12rcd13ifvqbi0","pricing_plan_id":"cebpf4jnsgd1na2vs0mg"},{"bike_id":"884c3f09-5cf1-4419-84b8-37fb910db9aa","system_id":"levelo_inurba_marseille","lat":43.30432,"lon":5.38888,"is_reserved":false,"is_disabled":false,"rental_uris":{"android":"levelo://app?vid=884c3f09-5cf1-4419-84b8-37fb910db9aa","ios":"levelo://app?vid=884c3f09-5cf1-4419-84b8-37fb910db9aa"},"vehicle_type_id":"4","last_reported":1723479015,"current_range_meters":11200,"station_id":"ce4bgk12rcd13ifvqbi0","pricing_plan_id":"cebpf4jnsgd1na2vs0mg"},{"bike_id":"cc75fb1d-6229-4d50-b565-e3357a56fc0b","system_id":"levelo_inurba_marseille","lat":43.304365,"lon":5.38892,"is_reserved":false,"is_disabled":false,"rental_uris":{"android":"levelo://app?vid=cc75fb1d-6229-4d50-b565-e3357a56fc0b","ios":"levelo://app?vid=cc75fb1d-6229-4d50-b565-e3357a56fc0b"},"vehicle_type_id":"4","last_reported":1723479015,"current_range_meters":7200,"station_id":"ce4bgk12rcd13ifvqbi0","pricing_plan_id":"cebpf4jnsgd1na2vs0mg"},{"bike_id":"1f42b230-1c3b-445b-a99d-c5d5918c051c","system_id":"levelo_inurba_marseille","lat":43.304278,"lon":5.388868,"is_reserved":false,"is_disabled":false,"rental_uris":{"android":"levelo://app?vid=1f42b230-1c3b-445b-a99d-c5d5918c051c","ios":"levelo://app?vid=1f42b230-1c3b-445b-a99d-c5d5918c051c"},"vehicle_type_id":"4","last_reported":1723479015,"current_range_meters":28400,"station_id":"ce4bgk12rcd13ifvqbi0","pricing_plan_id":"cebpf4jnsgd1na2vs0mg"},{"bike_id":"e3491d08-67fd-4ead-baf4-6f9b9f7e9495","system_id":"levelo_inurba_marseille","lat":43.298037,"lon":5.381066,"is_reserved":false,"is_disabled":false,"rental_uris":{"android":"levelo://app?vid=e3491d08-67fd-4ead-baf4-6f9b9f7e9495","ios":"levelo://app?vid=e3491d08-67fd-4ead-baf4-6f9b9f7e9495"},"vehicle_type_id":"4","last_reported":1723479015,"current_range_meters":0,"station_id":"ce4bgip2rcd13ifvqbb0","pricing_plan_id":"cebpf4jnsgd1na2vs0mg"},{"bike_id":"b03d784f-ad7e-41b3-8ec7-f4e66bbff339","system_id":"levelo_inurba_marseille","lat":43.30434,"lon":5.38893,"is_reserved":false,"is_disabled":false,"rental_uris":{"android":"levelo://app?vid=b03d784f-ad7e-41b3-8ec7-f4e66bbff339","ios":"levelo://app?vid=b03d784f-ad7e-41b3-8ec7-f4e66bbff339"},"vehicle_type_id":"4","last_reported":1723479015,"current_range_meters":18800,"station_id":"ce4bgk12rcd13ifvqbi0","pricing_plan_id":"cebpf4jnsgd1na2vs0mg"},{"bike_id":"fc447d04-fcb1-4325-b148-81f85b6b1198","system_id":"levelo_inurba_marseille","lat":43.29618,"lon":5.377213,"is_reserved":false,"is_disabled":false,"rental_uris":{"android":"levelo://app?vid=fc447d04-fcb1-4325-b148-81f85b6b1198","ios":"levelo://app?vid=fc447d04-fcb1-4325-b148-81f85b6b1198"},"vehicle_type_id":"4","last_reported":1723479015,"current_range_meters":0,"station_id":"ce4bgi92rcd13ifvqb90","pricing_plan_id":"cebpf4jnsgd1na2vs0mg"},{"bike_id":"24310cb4-6bc4-4c14-9e7d-baed24b7bf9e","system_id":"levelo_inurba_marseille","lat":43.304606,"lon":5.379026,"is_reserved":false,"is_disabled":false,"rental_uris":{"android":"levelo://app?vid=24310cb4-6bc4-4c14-9e7d-baed24b7bf9e","ios":"levelo://app?vid=24310cb4-6bc4-4c14-9e7d-baed24b7bf9e"},"vehicle_type_id":"4","last_reported":1723479015,"current_range_meters":22400,"station_id":"ce4bgup2rcd13ifvqcn0","pricing_plan_id":"cebpf4jnsgd1na2vs0mg"},{"bike_id":"74a64e66-ca11-4bda-a3dd-6e181b7dc284","system_id":"levelo_inurba_marseille","lat":43.29527,"lon":5.37498,"is_reserved":false,"is_disabled":false,"rental_uris":{"android":"levelo://app?vid=74a64e66-ca11-4bda-a3dd-6e181b7dc284","ios":"levelo://app?vid=74a64e66-ca11-4bda-a3dd-6e181b7dc284"},"vehicle_type_id":"4","last_reported":1723479015,"current_range_meters":0,"station_id":"ce4bgkp2rcd13ifvqbmg","pricing_plan_id":"cebpf4jnsgd1na2vs0mg"},{"bike_id":"69be0a87-726d-4fd3-b27b-147911533187","system_id":"levelo_inurba_marseille","lat":43.29973,"lon":5.3849,"is_reserved":false,"is_disabled":false,"rental_uris":{"android":"levelo://app?vid=69be0a87-726d-4fd3-b27b-147911533187","ios":"levelo://app?vid=69be0a87-726d-4fd3-b27b-147911533187"},"vehicle_type_id":"4","last_reported":1723479015,"current_range_meters":0,"station_id":"ce4bgj92rcd13ifvqbd0","pricing_plan_id":"cebpf4jnsgd1na2vs0mg"},{"bike_id":"69fb51ab-48a7-4f76-a3a8-2343405de02b","system_id":"levelo_inurba_marseille","lat":43.299717,"lon":5.384845,"is_reserved":false,"is_disabled":false,"rental_uris":{"android":"levelo://app?vid=69fb51ab-48a7-4f76-a3a8-2343405de02b","ios":"levelo://app?vid=69fb51ab-48a7-4f76-a3a8-2343405de02b"},"vehicle_type_id":"4","last_reported":1723479015,"current_range_meters":0,"station_id":"ce4bgj92rcd13ifvqbd0","pricing_plan_id":"cebpf4jnsgd1na2vs0mg"},{"bike_id":"186082b3-65d9-436e-be68-0d91dde7d5b8","system_id":"levelo_inurba_marseille","lat":43.301396,"lon":5.387812,"is_reserved":false,"is_disabled":false,"rental_uris":{"android":"levelo://app?vid=186082b3-65d9-436e-be68-0d91dde7d5b8","ios":"levelo://app?vid=186082b3-65d9-436e-be68-0d91dde7d5b8"},"vehicle_type_id":"4","last_reported":1723479015,"current_range_meters":800,"station_id":"ce4bghh2rcd13ifvqb60","pricing_plan_id":"cebpf4jnsgd1na2vs0mg"},{"bike_id":"df82eb15-4420-4c82-95a7-0283b9962b9c","system_id":"levelo_inurba_marseille","lat":43.301396,"lon":5.387812,"is_reserved":false,"is_disabled":false,"rental_uris":{"android":"levelo://app?vid=df82eb15-4420-4c82-95a7-0283b9962b9c","ios":"levelo://app?vid=df82eb15-4420-4c82-95a7-0283b9962b9c"},"vehicle_type_id":"4","last_reported":1723479015,"current_range_meters":2400,"station_id":"ce4bghh2rcd13ifvqb60","pricing_plan_id":"cebpf4jnsgd1na2vs0mg"},{"bike_id":"59b1e7cf-afc9-4fa7-9e9d-39d6d973104f","system_id":"levelo_inurba_marseille","lat":43.308012,"lon":5.381511,"is_reserved":false,"is_disabled":false,"rental_uris":{"android":"levelo://app?vid=59b1e7cf-afc9-4fa7-9e9d-39d6d973104f","ios":"levelo://app?vid=59b1e7cf-afc9-4fa7-9e9d-39d6d973104f"},"vehicle_type_id":"4","last_reported":1723479015,"current_range_meters":4800,"station_id":"ce4bgt12rcd13ifvqce0","pricing_plan_id":"cebpf4jnsgd1na2vs0mg"},{"bike_id":"261e6c59-8963-4812-b258-a7a88b73ddb4","system_id":"levelo_inurba_marseille","lat":43.301298,"lon":5.387737,"is_reserved":false,"is_disabled":false,"rental_uris":{"android":"levelo://app?vid=261e6c59-8963-4812-b258-a7a88b73ddb4","ios":"levelo://app?vid=261e6c59-8963-4812-b258-a7a88b73ddb4"},"vehicle_type_id":"4","last_reported":1723479015,"current_range_meters":24400,"station_id":"","pricing_plan_id":"cebpf4jnsgd1na2vs0mg"},{"bike_id":"12da4448-f9dc-4137-a3cd-aba682985bb2","system_id":"levelo_inurba_marseille","lat":43.293249,"lon":5.371578,"is_reserved":false,"is_disabled":false,"rental_uris":{"android":"levelo://app?vid=12da4448-f9dc-4137-a3cd-aba682985bb2","ios":"levelo://app?vid=12da4448-f9dc-4137-a3cd-aba682985bb2"},"vehicle_type_id":"4","last_reported":1723479015,"current_range_meters":0,"station_id":"ce4bgh92rcd13ifvqb40","pricing_plan_id":"cebpf4jnsgd1na2vs0mg"},{"bike_id":"b28eafd5-a1d3-45b3-8b0d-595f0cc67d95","system_id":"levelo_inurba_marseille","lat":43.293259,"lon":5.371586,"is_reserved":false,"is_disabled":false,"rental_uris":{"android":"levelo://app?vid=b28eafd5-a1d3-45b3-8b0d-595f0cc67d95","ios":"levelo://app?vid=b28eafd5-a1d3-45b3-8b0d-595f0cc67d95"},"vehicle_type_id":"4","last_reported":1723479015,"current_range_meters":17600,"station_id":"ce4bgh92rcd13ifvqb40","pricing_plan_id":"cebpf4jnsgd1na2vs0mg"},{"bike_id":"31c932c8-437f-4366-b5d4-feac0c438f4a","system_id":"levelo_inurba_marseille","lat":43.29234,"lon":5.36606,"is_reserved":false,"is_disabled":false,"rental_uris":{"android":"levelo://app?vid=31c932c8-437f-4366-b5d4-feac0c438f4a","ios":"levelo://app?vid=31c932c8-437f-4366-b5d4-feac0c438f4a"},"vehicle_type_id":"4","last_reported":1723479015,"current_range_meters":2000,"station_id":"","pricing_plan_id":"cebpf4jnsgd1na2vs0mg"},{"bike_id":"fecfcd6f-0ada-4bd8-bec6-ca0cf494ca5b","system_id":"levelo_inurba_marseille","lat":43.29298,"lon":5.37455,"is_reserved":false,"is_disabled":false,"rental_uris":{"android":"levelo://app?vid=fecfcd6f-0ada-4bd8-bec6-ca0cf494ca5b","ios":"levelo://app?vid=fecfcd6f-0ada-4bd8-bec6-ca0cf494ca5b"},"vehicle_type_id":"4","last_reported":1723479015,"current_range_meters":0,"station_id":"ce4bgi12rcd13ifvqb70","pricing_plan_id":"cebpf4jnsgd1na2vs0mg"},{"bike_id":"8997be6d-6d8a-49fe-8912-bc3dccf11081","system_id":"levelo_inurba_marseille","lat":43.305994,"lon":5.393687,"is_reserved":false,"is_disabled":false,"rental_uris":{"android":"levelo://app?vid=8997be6d-6d8a-49fe-8912-bc3dccf11081","ios":"levelo://app?vid=8997be6d-6d8a-49fe-8912-bc3dccf11081"},"vehicle_type_id":"4","last_reported":1723479015,"current_range_meters":800,"station_id":"ce4bh0p2rcd13ifvqd80","pricing_plan_id":"cebpf4jnsgd1na2vs0mg"},{"bike_id":"8d37495d-9961-45f8-ba67-ee81725ae3ae","system_id":"levelo_inurba_marseille","lat":43.29228,"lon":5.36363,"is_reserved":false,"is_disabled":false,"rental_uris":{"android":"levelo://app?vid=8d37495d-9961-45f8-ba67-ee81725ae3ae","ios":"levelo://app?vid=8d37495d-9961-45f8-ba67-ee81725ae3ae"},"vehicle_type_id":"4","last_reported":1723479015,"current_range_meters":800,"station_id":"","pricing_plan_id":"cebpf4jnsgd1na2vs0mg"},{"bike_id":"04ee200f-cc30-4a1b-a1e1-c39910937bc3","system_id":"levelo_inurba_marseille","lat":43.303002,"lon":5.392142,"is_reserved":false,"is_disabled":false,"rental_uris":{"android":"levelo://app?vid=04ee200f-cc30-4a1b-a1e1-c39910937bc3","ios":"levelo://app?vid=04ee200f-cc30-4a1b-a1e1-c39910937bc3"},"vehicle_type_id":"4","last_reported":1723479015,"current_range_meters":4000,"station_id":"ce4bgkh2rcd13ifvqbk0","pricing_plan_id":"cebpf4jnsgd1na2vs0mg"},{"bike_id":"feb310fd-05a3-412e-864b-f34b090a17c5","system_id":"levelo_inurba_marseille","lat":43.2936,"lon":5.37835,"is_reserved":false,"is_disabled":false,"rental_uris":{"android":"levelo://app?vid=feb310fd-05a3-412e-864b-f34b090a17c5","ios":"levelo://app?vid=feb310fd-05a3-412e-864b-f34b090a17c5"},"vehicle_type_id":"4","last_reported":1723479015,"current_range_meters":0,"station_id":"ce4bgjh2rcd13ifvqbf0","pricing_plan_id":"cebpf4jnsgd1na2vs0mg"},{"bike_id":"81f909c3-c85d-4b3e-b5b1-3e09110b04b3","system_id":"levelo_inurba_marseille","lat":43.2936,"lon":5.37835,"is_reserved":false,"is_disabled":false,"rental_uris":{"android":"levelo://app?vid=81f909c3-c85d-4b3e-b5b1-3e09110b04b3","ios":"levelo://app?vid=81f909c3-c85d-4b3e-b5b1-3e09110b04b3"},"vehicle_type_id":"4","last_reported":1723479015,"current_range_meters":14400,"station_id":"ce4bgjh2rcd13ifvqbf0","pricing_plan_id":"cebpf4jnsgd1na2vs0mg"},{"bike_id":"808250a2-a16d-4887-96fc-f6e1d2866366","system_id":"levelo_inurba_marseille","lat":43.2936,"lon":5.37835,"is_reserved":false,"is_disabled":false,"rental_uris":{"android":"levelo://app?vid=808250a2-a16d-4887-96fc-f6e1d2866366","ios":"levelo://app?vid=808250a2-a16d-4887-96fc-f6e1d2866366"},"vehicle_type_id":"4","last_reported":1723479015,"current_range_meters":2800,"station_id":"ce4bgjh2rcd13ifvqbf0","pricing_plan_id":"cebpf4jnsgd1na2vs0mg"},{"bike_id":"875311b2-9a4e-48f5-ac96-e3773d555d0d","system_id":"levelo_inurba_marseille","lat":43.292311,"lon":5.360731,"is_reserved":false,"is_disabled":false,"rental_uris":{"android":"levelo://app?vid=875311b2-9a4e-48f5-ac96-e3773d555d0d","ios":"levelo://app?vid=875311b2-9a4e-48f5-ac96-e3773d555d0d"},"vehicle_type_id":"4","last_reported":1723479015,"current_range_meters":0,"station_id":"ce4bhbh2rcd13ifvqeqg","pricing_plan_id":"cebpf4jnsgd1na2vs0mg"},{"bike_id":"039650c3-8113-4869-adcd-f8563da66393","system_id":"levelo_inurba_marseille","lat":43.293009,"lon":5.374584,"is_reserved":false,"is_disabled":false,"rental_uris":{"android":"levelo://app?vid=039650c3-8113-4869-adcd-f8563da66393","ios":"levelo://app?vid=039650c3-8113-4869-adcd-f8563da66393"},"vehicle_type_id":"4","last_reported":1723479015,"current_range_meters":22000,"station_id":"ce4bgi12rcd13ifvqb70","pricing_plan_id":"cebpf4jnsgd1na2vs0mg"},{"bike_id":"f990a967-4db6-4f8c-a228-0798f137e549","system_id":"levelo_inurba_marseille","lat":43.298764,"lon":5.388973,"is_reserved":false,"is_disabled":false,"rental_uris":{"android":"levelo://app?vid=f990a967-4db6-4f8c-a228-0798f137e549","ios":"levelo://app?vid=f990a967-4db6-4f8c-a228-0798f137e549"},"vehicle_type_id":"4","last_reported":1723479015,"current_range_meters":0,"station_id":"ce4bh392rcd13ifvqdl0","pricing_plan_id":"cebpf4jnsgd1na2vs0mg"},{"bike_id":"ba868683-7986-41dd-9a40-b25120bfd303","system_id":"levelo_inurba_marseille","lat":43.292005,"lon":5.357875,"is_reserved":false,"is_disabled":false,"rental_uris":{"android":"levelo://app?vid=ba868683-7986-41dd-9a40-b25120bfd303","ios":"levelo://app?vid=ba868683-7986-41dd-9a40-b25120bfd303"},"vehicle_type_id":"4","last_reported":1723479015,"current_range_meters":0,"station_id":"ce4bhb12rcd13ifvqel0","pricing_plan_id":"cebpf4jnsgd1na2vs0mg"},{"bike_id":"a30db02e-749d-4230-b6d3-f3459042f05e","system_id":"levelo_inurba_marseille","lat":43.291994,"lon":5.357886,"is_reserved":false,"is_disabled":false,"rental_uris":{"android":"levelo://app?vid=a30db02e-749d-4230-b6d3-f3459042f05e","ios":"levelo://app?vid=a30db02e-749d-4230-b6d3-f3459042f05e"},"vehicle_type_id":"4","last_reported":1723479015,"current_range_meters":0,"station_id":"ce4bhb12rcd13ifvqel0","pricing_plan_id":"cebpf4jnsgd1na2vs0mg"},{"bike_id":"9d4b68a5-c93f-4844-a235-5ff4a055b660","system_id":"levelo_inurba_marseille","lat":43.292385,"lon":5.37767,"is_reserved":false,"is_disabled":false,"rental_uris":{"android":"levelo://app?vid=9d4b68a5-c93f-4844-a235-5ff4a055b660","ios":"levelo://app?vid=9d4b68a5-c93f-4844-a235-5ff4a055b660"},"vehicle_type_id":"4","last_reported":1723479015,"current_range_meters":3600,"station_id":"","pricing_plan_id":"cebpf4jnsgd1na2vs0mg"},{"bike_id":"d431f42b-0e78-432f-9870-a3739cd7fdd5","system_id":"levelo_inurba_marseille","lat":43.313291,"lon":5.396838,"is_reserved":false,"is_disabled":false,"rental_uris":{"android":"levelo://app?vid=d431f42b-0e78-432f-9870-a3739cd7fdd5","ios":"levelo://app?vid=d431f42b-0e78-432f-9870-a3739cd7fdd5"},"vehicle_type_id":"4","last_reported":1723479015,"current_range_meters":8800,"station_id":"ce4bgvp2rcd13ifvqcu0","pricing_plan_id":"cebpf4jnsgd1na2vs0mg"},{"bike_id":"10b037bb-2b01-44c4-be27-4ea199dc837c","system_id":"levelo_inurba_marseille","lat":43.313291,"lon":5.396838,"is_reserved":false,"is_disabled":false,"rental_uris":{"android":"levelo://app?vid=10b037bb-2b01-44c4-be27-4ea199dc837c","ios":"levelo://app?vid=10b037bb-2b01-44c4-be27-4ea199dc837c"},"vehicle_type_id":"4","last_reported":1723479015,"current_range_meters":2400,"station_id":"ce4bgvp2rcd13ifvqcu0","pricing_plan_id":"cebpf4jnsgd1na2vs0mg"},{"bike_id":"93d24c58-77ae-4378-84fa-98238ac48714","system_id":"levelo_inurba_marseille","lat":43.309047,"lon":5.396551,"is_reserved":false,"is_disabled":false,"rental_uris":{"android":"levelo://app?vid=93d24c58-77ae-4378-84fa-98238ac48714","ios":"levelo://app?vid=93d24c58-77ae-4378-84fa-98238ac48714"},"vehicle_type_id":"4","last_reported":1723479015,"current_range_meters":3600,"station_id":"ce4bh012rcd13ifvqcv0","pricing_plan_id":"cebpf4jnsgd1na2vs0mg"},{"bike_id":"27bdf6c6-22e0-4315-ab05-470851cd585f","system_id":"levelo_inurba_marseille","lat":43.309038,"lon":5.396546,"is_reserved":false,"is_disabled":false,"rental_uris":{"android":"levelo://app?vid=27bdf6c6-22e0-4315-ab05-470851cd585f","ios":"levelo://app?vid=27bdf6c6-22e0-4315-ab05-470851cd585f"},"vehicle_type_id":"4","last_reported":1723479015,"current_range_meters":800,"station_id":"ce4bh012rcd13ifvqcv0","pricing_plan_id":"cebpf4jnsgd1na2vs0mg"},{"bike_id":"9590aecb-1085-46b4-ac09-29d93bdbf8e7","system_id":"levelo_inurba_marseille","lat":43.29529,"lon":5.385581,"is_reserved":false,"is_disabled":false,"rental_uris":{"android":"levelo://app?vid=9590aecb-1085-46b4-ac09-29d93bdbf8e7","ios":"levelo://app?vid=9590aecb-1085-46b4-ac09-29d93bdbf8e7"},"vehicle_type_id":"4","last_reported":1723479015,"current_range_meters":25200,"station_id":"ce4bgih2rcd13ifvqba0","pricing_plan_id":"cebpf4jnsgd1na2vs0mg"},{"bike_id":"2abf3cbc-42cf-4008-a733-a2ab6df31db8","system_id":"levelo_inurba_marseille","lat":43.29529,"lon":5.385581,"is_reserved":false,"is_disabled":false,"rental_uris":{"android":"levelo://app?vid=2abf3cbc-42cf-4008-a733-a2ab6df31db8","ios":"levelo://app?vid=2abf3cbc-42cf-4008-a733-a2ab6df31db8"},"vehicle_type_id":"4","last_reported":1723479015,"current_range_meters":6000,"station_id":"ce4bgih2rcd13ifvqba0","pricing_plan_id":"cebpf4jnsgd1na2vs0mg"},{"bike_id":"9bdcf22e-126f-4f3c-83c6-7ef5339d13d3","system_id":"levelo_inurba_marseille","lat":43.29529,"lon":5.385581,"is_reserved":false,"is_disabled":false,"rental_uris":{"android":"levelo://app?vid=9bdcf22e-126f-4f3c-83c6-7ef5339d13d3","ios":"levelo://app?vid=9bdcf22e-126f-4f3c-83c6-7ef5339d13d3"},"vehicle_type_id":"4","last_reported":1723479015,"current_range_meters":4800,"station_id":"ce4bgih2rcd13ifvqba0","pricing_plan_id":"cebpf4jnsgd1na2vs0mg"},{"bike_id":"a4f725cb-9980-4826-9d7a-7d629273aaee","system_id":"levelo_inurba_marseille","lat":43.29529,"lon":5.385581,"is_reserved":false,"is_disabled":false,"rental_uris":{"android":"levelo://app?vid=a4f725cb-9980-4826-9d7a-7d629273aaee","ios":"levelo://app?vid=a4f725cb-9980-4826-9d7a-7d629273aaee"},"vehicle_type_id":"4","last_reported":1723479015,"current_range_meters":14000,"station_id":"ce4bgih2rcd13ifvqba0","pricing_plan_id":"cebpf4jnsgd1na2vs0mg"},{"bike_id":"ed38fbc7-bb98-4afc-af66-055072232431","system_id":"levelo_inurba_marseille","lat":43.294153,"lon":5.386305,"is_reserved":false,"is_disabled":false,"rental_uris":{"android":"levelo://app?vid=ed38fbc7-bb98-4afc-af66-055072232431","ios":"levelo://app?vid=ed38fbc7-bb98-4afc-af66-055072232431"},"vehicle_type_id":"4","last_reported":1723479015,"current_range_meters":8000,"station_id":"ce4bh2h2rcd13ifvqdh0","pricing_plan_id":"cebpf4jnsgd1na2vs0mg"},{"bike_id":"b15e4ef5-b749-4ea6-a47b-eb445b2678a4","system_id":"levelo_inurba_marseille","lat":43.290327,"lon":5.375711,"is_reserved":false,"is_disabled":false,"rental_uris":{"android":"levelo://app?vid=b15e4ef5-b749-4ea6-a47b-eb445b2678a4","ios":"levelo://app?vid=b15e4ef5-b749-4ea6-a47b-eb445b2678a4"},"vehicle_type_id":"4","last_reported":1723479015,"current_range_meters":19200,"station_id":"ce4bh692rcd13ifvqe90","pricing_plan_id":"cebpf4jnsgd1na2vs0mg"},{"bike_id":"1779e1e0-ab77-48e0-8a6a-085525e98f23","system_id":"levelo_inurba_marseille","lat":43.294153,"lon":5.386305,"is_reserved":false,"is_disabled":false,"rental_uris":{"android":"levelo://app?vid=1779e1e0-ab77-48e0-8a6a-085525e98f23","ios":"levelo://app?vid=1779e1e0-ab77-48e0-8a6a-085525e98f23"},"vehicle_type_id":"4","last_reported":1723479015,"current_range_meters":14800,"station_id":"ce4bh2h2rcd13ifvqdh0","pricing_plan_id":"cebpf4jnsgd1na2vs0mg"},{"bike_id":"a68ae8f3-dfc7-4364-aa3b-02a343155595","system_id":"levelo_inurba_marseille","lat":43.290327,"lon":5.375711,"is_reserved":false,"is_disabled":false,"rental_uris":{"android":"levelo://app?vid=a68ae8f3-dfc7-4364-aa3b-02a343155595","ios":"levelo://app?vid=a68ae8f3-dfc7-4364-aa3b-02a343155595"},"vehicle_type_id":"4","last_reported":1723479015,"current_range_meters":0,"station_id":"ce4bh692rcd13ifvqe90","pricing_plan_id":"cebpf4jnsgd1na2vs0mg"},{"bike_id":"ee86c799-d514-4b98-a0c7-7c09b3948eb2","system_id":"levelo_inurba_marseille","lat":43.294153,"lon":5.386305,"is_reserved":false,"is_disabled":false,"rental_uris":{"android":"levelo://app?vid=ee86c799-d514-4b98-a0c7-7c09b3948eb2","ios":"levelo://app?vid=ee86c799-d514-4b98-a0c7-7c09b3948eb2"},"vehicle_type_id":"4","last_reported":1723479015,"current_range_meters":800,"station_id":"ce4bh2h2rcd13ifvqdh0","pricing_plan_id":"cebpf4jnsgd1na2vs0mg"},{"bike_id":"2b2d4d76-8cf8-48bb-bfea-8b4ef01dae54","system_id":"levelo_inurba_marseille","lat":43.289468,"lon":5.363719,"is_reserved":false,"is_disabled":false,"rental_uris":{"android":"levelo://app?vid=2b2d4d76-8cf8-48bb-bfea-8b4ef01dae54","ios":"levelo://app?vid=2b2d4d76-8cf8-48bb-bfea-8b4ef01dae54"},"vehicle_type_id":"4","last_reported":1723479015,"current_range_meters":0,"station_id":"ce4bhc92rcd13ifvqetg","pricing_plan_id":"cebpf4jnsgd1na2vs0mg"},{"bike_id":"cb554fdd-77ff-4c9e-bbb1-dbddc41b72e1","system_id":"levelo_inurba_marseille","lat":43.289468,"lon":5.363719,"is_reserved":false,"is_disabled":false,"rental_uris":{"android":"levelo://app?vid=cb554fdd-77ff-4c9e-bbb1-dbddc41b72e1","ios":"levelo://app?vid=cb554fdd-77ff-4c9e-bbb1-dbddc41b72e1"},"vehicle_type_id":"4","last_reported":1723479015,"current_range_meters":24000,"station_id":"ce4bhc92rcd13ifvqetg","pricing_plan_id":"cebpf4jnsgd1na2vs0mg"},{"bike_id":"eb187c94-1f93-4738-9902-a75e31f7613e","system_id":"levelo_inurba_marseille","lat":43.289184,"lon":5.366408,"is_reserved":false,"is_disabled":false,"rental_uris":{"android":"levelo://app?vid=eb187c94-1f93-4738-9902-a75e31f7613e","ios":"levelo://app?vid=eb187c94-1f93-4738-9902-a75e31f7613e"},"vehicle_type_id":"4","last_reported":1723479015,"current_range_meters":0,"station_id":"ce4bhap2rcd13ifvqek0","pricing_plan_id":"cebpf4jnsgd1na2vs0mg"},{"bike_id":"476bacc2-82a9-4968-94cd-d6ee0606e481","system_id":"levelo_inurba_marseille","lat":43.29419,"lon":5.38668,"is_reserved":false,"is_disabled":false,"rental_uris":{"android":"levelo://app?vid=476bacc2-82a9-4968-94cd-d6ee0606e481","ios":"levelo://app?vid=476bacc2-82a9-4968-94cd-d6ee0606e481"},"vehicle_type_id":"4","last_reported":1723479015,"current_range_meters":1600,"station_id":"ce4bh2h2rcd13ifvqdh0","pricing_plan_id":"cebpf4jnsgd1na2vs0mg"},{"bike_id":"7ca56c40-d603-4fd4-aa47-b02f628852bf","system_id":"levelo_inurba_marseille","lat":43.289353,"lon":5.363997,"is_reserved":false,"is_disabled":false,"rental_uris":{"android":"levelo://app?vid=7ca56c40-d603-4fd4-aa47-b02f628852bf","ios":"levelo://app?vid=7ca56c40-d603-4fd4-aa47-b02f628852bf"},"vehicle_type_id":"4","last_reported":1723479015,"current_range_meters":0,"station_id":"ce4bhc92rcd13ifvqetg","pricing_plan_id":"cebpf4jnsgd1na2vs0mg"},{"bike_id":"a808c4c5-5f68-4969-a899-704b14102943","system_id":"levelo_inurba_marseille","lat":43.292642,"lon":5.384254,"is_reserved":false,"is_disabled":false,"rental_uris":{"android":"levelo://app?vid=a808c4c5-5f68-4969-a899-704b14102943","ios":"levelo://app?vid=a808c4c5-5f68-4969-a899-704b14102943"},"vehicle_type_id":"4","last_reported":1723479015,"current_range_meters":1200,"station_id":"ce4bh692rcd13ifvqea0","pricing_plan_id":"cebpf4jnsgd1na2vs0mg"},{"bike_id":"33bdd7ea-a6ff-4aa7-80cd-445f548a7aa8","system_id":"levelo_inurba_marseille","lat":43.292642,"lon":5.384254,"is_reserved":false,"is_disabled":false,"rental_uris":{"android":"levelo://app?vid=33bdd7ea-a6ff-4aa7-80cd-445f548a7aa8","ios":"levelo://app?vid=33bdd7ea-a6ff-4aa7-80cd-445f548a7aa8"},"vehicle_type_id":"4","last_reported":1723479015,"current_range_meters":0,"station_id":"ce4bh692rcd13ifvqea0","pricing_plan_id":"cebpf4jnsgd1na2vs0mg"},{"bike_id":"e259ba39-1937-4535-8165-9dd70a754a15","system_id":"levelo_inurba_marseille","lat":43.304296,"lon":5.397513,"is_reserved":false,"is_disabled":false,"rental_uris":{"android":"levelo://app?vid=e259ba39-1937-4535-8165-9dd70a754a15","ios":"levelo://app?vid=e259ba39-1937-4535-8165-9dd70a754a15"},"vehicle_type_id":"4","last_reported":1723479015,"current_range_meters":0,"station_id":"ce4bh092rcd13ifvqd20","pricing_plan_id":"cebpf4jnsgd1na2vs0mg"},{"bike_id":"ab23b9d8-4865-4426-bc24-b4293c49da04","system_id":"levelo_inurba_marseille","lat":43.292642,"lon":5.384254,"is_reserved":false,"is_disabled":false,"rental_uris":{"android":"levelo://app?vid=ab23b9d8-4865-4426-bc24-b4293c49da04","ios":"levelo://app?vid=ab23b9d8-4865-4426-bc24-b4293c49da04"},"vehicle_type_id":"4","last_reported":1723479015,"current_range_meters":1200,"station_id":"ce4bh692rcd13ifvqea0","pricing_plan_id":"cebpf4jnsgd1na2vs0mg"},{"bike_id":"988b8408-73d1-4adf-8240-faf5bd663418","system_id":"levelo_inurba_marseille","lat":43.292644,"lon":5.384257,"is_reserved":false,"is_disabled":false,"rental_uris":{"android":"levelo://app?vid=988b8408-73d1-4adf-8240-faf5bd663418","ios":"levelo://app?vid=988b8408-73d1-4adf-8240-faf5bd663418"},"vehicle_type_id":"4","last_reported":1723479015,"current_range_meters":17600,"station_id":"ce4bh692rcd13ifvqea0","pricing_plan_id":"cebpf4jnsgd1na2vs0mg"},{"bike_id":"54e916b9-902f-4017-a548-a7a42b03c7b5","system_id":"levelo_inurba_marseille","lat":43.290092,"lon":5.356281,"is_reserved":false,"is_disabled":false,"rental_uris":{"android":"levelo://app?vid=54e916b9-902f-4017-a548-a7a42b03c7b5","ios":"levelo://app?vid=54e916b9-902f-4017-a548-a7a42b03c7b5"},"vehicle_type_id":"4","last_reported":1723479015,"current_range_meters":1600,"station_id":"ce4bhbh2rcd13ifvqepg","pricing_plan_id":"cebpf4jnsgd1na2vs0mg"},{"bike_id":"8966253b-0448-4a7f-93e9-9a999ebd9d57","system_id":"levelo_inurba_marseille","lat":43.290103,"lon":5.356114,"is_reserved":false,"is_disabled":false,"rental_uris":{"android":"levelo://app?vid=8966253b-0448-4a7f-93e9-9a999ebd9d57","ios":"levelo://app?vid=8966253b-0448-4a7f-93e9-9a999ebd9d57"},"vehicle_type_id":"4","last_reported":1723479015,"current_range_meters":0,"station_id":"ce4bhb92rcd13ifvqen0","pricing_plan_id":"cebpf4jnsgd1na2vs0mg"},{"bike_id":"e9801c3e-9b59-4d1f-b49b-91add44d7445","system_id":"levelo_inurba_marseille","lat":43.290103,"lon":5.356114,"is_reserved":false,"is_disabled":false,"rental_uris":{"android":"levelo://app?vid=e9801c3e-9b59-4d1f-b49b-91add44d7445","ios":"levelo://app?vid=e9801c3e-9b59-4d1f-b49b-91add44d7445"},"vehicle_type_id":"4","last_reported":1723479015,"current_range_meters":31200,"station_id":"ce4bhb92rcd13ifvqen0","pricing_plan_id":"cebpf4jnsgd1na2vs0mg"},{"bike_id":"602c9938-a94c-4db9-8127-dd99e8726a09","system_id":"levelo_inurba_marseille","lat":43.297857,"lon":5.393463,"is_reserved":false,"is_disabled":false,"rental_uris":{"android":"levelo://app?vid=602c9938-a94c-4db9-8127-dd99e8726a09","ios":"levelo://app?vid=602c9938-a94c-4db9-8127-dd99e8726a09"},"vehicle_type_id":"4","last_reported":1723479015,"current_range_meters":0,"station_id":"chh1huq6cuj3fo74tm60","pricing_plan_id":"cebpf4jnsgd1na2vs0mg"},{"bike_id":"3d39f3b9-eced-454d-a727-2493f11dc708","system_id":"levelo_inurba_marseille","lat":43.330442,"lon":5.389148,"is_reserved":false,"is_disabled":false,"rental_uris":{"android":"levelo://app?vid=3d39f3b9-eced-454d-a727-2493f11dc708","ios":"levelo://app?vid=3d39f3b9-eced-454d-a727-2493f11dc708"},"vehicle_type_id":"4","last_reported":1723479015,"current_range_meters":20800,"station_id":"ce4bhr92rcd13ifvqhrg","pricing_plan_id":"cebpf4jnsgd1na2vs0mg"},{"bike_id":"c3604032-4a83-472d-a5b2-a68ad718d3c5","system_id":"levelo_inurba_marseille","lat":43.33027,"lon":5.39037,"is_reserved":false,"is_disabled":false,"rental_uris":{"android":"levelo://app?vid=c3604032-4a83-472d-a5b2-a68ad718d3c5","ios":"levelo://app?vid=c3604032-4a83-472d-a5b2-a68ad718d3c5"},"vehicle_type_id":"4","last_reported":1723479015,"current_range_meters":27200,"station_id":"ce4bhr92rcd13ifvqhrg","pricing_plan_id":"cebpf4jnsgd1na2vs0mg"},{"bike_id":"89daff59-5e2a-44ec-a9d8-2c31a225e51a","system_id":"levelo_inurba_marseille","lat":43.295169,"lon":5.390426,"is_reserved":false,"is_disabled":false,"rental_uris":{"android":"levelo://app?vid=89daff59-5e2a-44ec-a9d8-2c31a225e51a","ios":"levelo://app?vid=89daff59-5e2a-44ec-a9d8-2c31a225e51a"},"vehicle_type_id":"4","last_reported":1723479015,"current_range_meters":0,"station_id":"ce4bh3p2rcd13ifvqdp0","pricing_plan_id":"cebpf4jnsgd1na2vs0mg"},{"bike_id":"d4dd92ee-9e86-41b0-9d14-63a4e293206a","system_id":"levelo_inurba_marseille","lat":43.330442,"lon":5.389148,"is_reserved":false,"is_disabled":false,"rental_uris":{"android":"levelo://app?vid=d4dd92ee-9e86-41b0-9d14-63a4e293206a","ios":"levelo://app?vid=d4dd92ee-9e86-41b0-9d14-63a4e293206a"},"vehicle_type_id":"4","last_reported":1723479015,"current_range_meters":22400,"station_id":"ce4bhr92rcd13ifvqhrg","pricing_plan_id":"cebpf4jnsgd1na2vs0mg"},{"bike_id":"2cece599-a43f-4145-a052-b9350a74f9db","system_id":"levelo_inurba_marseille","lat":43.28856,"lon":5.358371,"is_reserved":false,"is_disabled":false,"rental_uris":{"android":"levelo://app?vid=2cece599-a43f-4145-a052-b9350a74f9db","ios":"levelo://app?vid=2cece599-a43f-4145-a052-b9350a74f9db"},"vehicle_type_id":"4","last_reported":1723479015,"current_range_meters":6400,"station_id":"ce4bhb12rcd13ifvqem0","pricing_plan_id":"cebpf4jnsgd1na2vs0mg"},{"bike_id":"f23f3391-9ab3-40b9-a54f-60bc50a0757b","system_id":"levelo_inurba_marseille","lat":43.28856,"lon":5.358371,"is_reserved":false,"is_disabled":false,"rental_uris":{"android":"levelo://app?vid=f23f3391-9ab3-40b9-a54f-60bc50a0757b","ios":"levelo://app?vid=f23f3391-9ab3-40b9-a54f-60bc50a0757b"},"vehicle_type_id":"4","last_reported":1723479015,"current_range_meters":29600,"station_id":"ce4bhb12rcd13ifvqem0","pricing_plan_id":"cebpf4jnsgd1na2vs0mg"},{"bike_id":"4977c621-8df0-4c03-8e7a-4dcba391125a","system_id":"levelo_inurba_marseille","lat":43.28856,"lon":5.358371,"is_reserved":false,"is_disabled":false,"rental_uris":{"android":"levelo://app?vid=4977c621-8df0-4c03-8e7a-4dcba391125a","ios":"levelo://app?vid=4977c621-8df0-4c03-8e7a-4dcba391125a"},"vehicle_type_id":"4","last_reported":1723479015,"current_range_meters":15600,"station_id":"ce4bhb12rcd13ifvqem0","pricing_plan_id":"cebpf4jnsgd1na2vs0mg"},{"bike_id":"ac75d8e5-5139-4e43-a64e-51e7994c2517","system_id":"levelo_inurba_marseille","lat":43.337444,"lon":5.374475,"is_reserved":false,"is_disabled":false,"rental_uris":{"android":"levelo://app?vid=ac75d8e5-5139-4e43-a64e-51e7994c2517","ios":"levelo://app?vid=ac75d8e5-5139-4e43-a64e-51e7994c2517"},"vehicle_type_id":"3","last_reported":1723479015,"current_range_meters":24800,"station_id":"","pricing_plan_id":"cebpf4jnsgd1na2vs0mg"},{"bike_id":"43f21911-683d-4ba4-93d3-8a7e20e1c78c","system_id":"levelo_inurba_marseille","lat":43.337466,"lon":5.374558,"is_reserved":false,"is_disabled":false,"rental_uris":{"android":"levelo://app?vid=43f21911-683d-4ba4-93d3-8a7e20e1c78c","ios":"levelo://app?vid=43f21911-683d-4ba4-93d3-8a7e20e1c78c"},"vehicle_type_id":"4","last_reported":1723479015,"current_range_meters":24000,"station_id":"","pricing_plan_id":"cebpf4jnsgd1na2vs0mg"},{"bike_id":"7b9e8744-1a62-4d79-83e6-366501021f18","system_id":"levelo_inurba_marseille","lat":43.33749,"lon":5.37444,"is_reserved":false,"is_disabled":false,"rental_uris":{"android":"levelo://app?vid=7b9e8744-1a62-4d79-83e6-366501021f18","ios":"levelo://app?vid=7b9e8744-1a62-4d79-83e6-366501021f18"},"vehicle_type_id":"4","last_reported":1723479015,"current_range_meters":31200,"station_id":"","pricing_plan_id":"cebpf4jnsgd1na2vs0mg"},{"bike_id":"50503b1c-23de-412c-8bb5-4f40012a64e8","system_id":"levelo_inurba_marseille","lat":43.33749,"lon":5.37458,"is_reserved":false,"is_disabled":false,"rental_uris":{"android":"levelo://app?vid=50503b1c-23de-412c-8bb5-4f40012a64e8","ios":"levelo://app?vid=50503b1c-23de-412c-8bb5-4f40012a64e8"},"vehicle_type_id":"4","last_reported":1723479015,"current_range_meters":25600,"station_id":"","pricing_plan_id":"cebpf4jnsgd1na2vs0mg"},{"bike_id":"6086599c-14e6-492d-8b53-d8808720b8a6","system_id":"levelo_inurba_marseille","lat":43.287839,"lon":5.373678,"is_reserved":false,"is_disabled":false,"rental_uris":{"android":"levelo://app?vid=6086599c-14e6-492d-8b53-d8808720b8a6","ios":"levelo://app?vid=6086599c-14e6-492d-8b53-d8808720b8a6"},"vehicle_type_id":"4","last_reported":1723479015,"current_range_meters":8400,"station_id":"","pricing_plan_id":"cebpf4jnsgd1na2vs0mg"},{"bike_id":"1ece39e8-5ec5-465b-b0d5-bdea3554c74d","system_id":"levelo_inurba_marseille","lat":43.337601,"lon":5.374526,"is_reserved":false,"is_disabled":false,"rental_uris":{"android":"levelo://app?vid=1ece39e8-5ec5-465b-b0d5-bdea3554c74d","ios":"levelo://app?vid=1ece39e8-5ec5-465b-b0d5-bdea3554c74d"},"vehicle_type_id":"4","last_reported":1723479015,"current_range_meters":16400,"station_id":"","pricing_plan_id":"cebpf4jnsgd1na2vs0mg"},{"bike_id":"d1434270-9aa1-4859-9140-3af7bf039df3","system_id":"levelo_inurba_marseille","lat":43.28856,"lon":5.358371,"is_reserved":false,"is_disabled":false,"rental_uris":{"android":"levelo://app?vid=d1434270-9aa1-4859-9140-3af7bf039df3","ios":"levelo://app?vid=d1434270-9aa1-4859-9140-3af7bf039df3"},"vehicle_type_id":"4","last_reported":1723479015,"current_range_meters":28000,"station_id":"ce4bhb12rcd13ifvqem0","pricing_plan_id":"cebpf4jnsgd1na2vs0mg"},{"bike_id":"3305dcc1-7137-4ecc-a116-0dc32ab38a6d","system_id":"levelo_inurba_marseille","lat":43.306412,"lon":5.401035,"is_reserved":false,"is_disabled":false,"rental_uris":{"android":"levelo://app?vid=3305dcc1-7137-4ecc-a116-0dc32ab38a6d","ios":"levelo://app?vid=3305dcc1-7137-4ecc-a116-0dc32ab38a6d"},"vehicle_type_id":"4","last_reported":1723479015,"current_range_meters":400,"station_id":"ce4bh112rcd13ifvqda0","pricing_plan_id":"cebpf4jnsgd1na2vs0mg"},{"bike_id":"ace12e57-f66f-4efa-96db-c6aa50a829e9","system_id":"levelo_inurba_marseille","lat":43.33765,"lon":5.37473,"is_reserved":false,"is_disabled":false,"rental_uris":{"android":"levelo://app?vid=ace12e57-f66f-4efa-96db-c6aa50a829e9","ios":"levelo://app?vid=ace12e57-f66f-4efa-96db-c6aa50a829e9"},"vehicle_type_id":"4","last_reported":1723479015,"current_range_meters":20000,"station_id":"","pricing_plan_id":"cebpf4jnsgd1na2vs0mg"},{"bike_id":"b2d6b700-be3e-4c27-ab3b-d1fbb5513dee","system_id":"levelo_inurba_marseille","lat":43.33769,"lon":5.37468,"is_reserved":false,"is_disabled":false,"rental_uris":{"android":"levelo://app?vid=b2d6b700-be3e-4c27-ab3b-d1fbb5513dee","ios":"levelo://app?vid=b2d6b700-be3e-4c27-ab3b-d1fbb5513dee"},"vehicle_type_id":"4","last_reported":1723479015,"current_range_meters":27200,"station_id":"","pricing_plan_id":"cebpf4jnsgd1na2vs0mg"},{"bike_id":"22d23e81-d601-4c76-9973-e595fa549c3b","system_id":"levelo_inurba_marseille","lat":43.33769,"lon":5.37477,"is_reserved":false,"is_disabled":false,"rental_uris":{"android":"levelo://app?vid=22d23e81-d601-4c76-9973-e595fa549c3b","ios":"levelo://app?vid=22d23e81-d601-4c76-9973-e595fa549c3b"},"vehicle_type_id":"4","last_reported":1723479015,"current_range_meters":1600,"station_id":"","pricing_plan_id":"cebpf4jnsgd1na2vs0mg"},{"bike_id":"a0eeb4a3-6ae3-44c3-8527-155da571cd64","system_id":"levelo_inurba_marseille","lat":43.3377,"lon":5.37475,"is_reserved":false,"is_disabled":false,"rental_uris":{"android":"levelo://app?vid=a0eeb4a3-6ae3-44c3-8527-155da571cd64","ios":"levelo://app?vid=a0eeb4a3-6ae3-44c3-8527-155da571cd64"},"vehicle_type_id":"4","last_reported":1723479015,"current_range_meters":23600,"station_id":"","pricing_plan_id":"cebpf4jnsgd1na2vs0mg"},{"bike_id":"f77024ae-0567-4212-a1d9-ad8226890dcd","system_id":"levelo_inurba_marseille","lat":43.28727,"lon":5.36078,"is_reserved":false,"is_disabled":false,"rental_uris":{"android":"levelo://app?vid=f77024ae-0567-4212-a1d9-ad8226890dcd","ios":"levelo://app?vid=f77024ae-0567-4212-a1d9-ad8226890dcd"},"vehicle_type_id":"4","last_reported":1723479015,"current_range_meters":6000,"station_id":"cki0cbj6b192h4jlfktg","pricing_plan_id":"cebpf4jnsgd1na2vs0mg"},{"bike_id":"8580717d-eb3f-4f14-b031-ffa8a147d520","system_id":"levelo_inurba_marseille","lat":43.337747,"lon":5.3748,"is_reserved":false,"is_disabled":false,"rental_uris":{"android":"levelo://app?vid=8580717d-eb3f-4f14-b031-ffa8a147d520","ios":"levelo://app?vid=8580717d-eb3f-4f14-b031-ffa8a147d520"},"vehicle_type_id":"4","last_reported":1723479015,"current_range_meters":16000,"station_id":"","pricing_plan_id":"cebpf4jnsgd1na2vs0mg"},{"bike_id":"335ed684-2ec3-4025-baf2-f9a5db395a5d","system_id":"levelo_inurba_marseille","lat":43.309034,"lon":5.371783,"is_reserved":false,"is_disabled":false,"rental_uris":{"android":"levelo://app?vid=335ed684-2ec3-4025-baf2-f9a5db395a5d","ios":"levelo://app?vid=335ed684-2ec3-4025-baf2-f9a5db395a5d"},"vehicle_type_id":"4","last_reported":1723479015,"current_range_meters":18800,"station_id":"ce4bguh2rcd13ifvqckg","pricing_plan_id":"cebpf4jnsgd1na2vs0mg"},{"bike_id":"60c0cb7c-e86b-4dc4-bb33-ec6896c46a48","system_id":"levelo_inurba_marseille","lat":43.28727,"lon":5.36078,"is_reserved":false,"is_disabled":false,"rental_uris":{"android":"levelo://app?vid=60c0cb7c-e86b-4dc4-bb33-ec6896c46a48","ios":"levelo://app?vid=60c0cb7c-e86b-4dc4-bb33-ec6896c46a48"},"vehicle_type_id":"4","last_reported":1723479015,"current_range_meters":3200,"station_id":"cki0cbj6b192h4jlfktg","pricing_plan_id":"cebpf4jnsgd1na2vs0mg"},{"bike_id":"0ea83778-efec-4b31-8fb3-f74d9f8ee2cd","system_id":"levelo_inurba_marseille","lat":43.28727,"lon":5.36078,"is_reserved":false,"is_disabled":false,"rental_uris":{"android":"levelo://app?vid=0ea83778-efec-4b31-8fb3-f74d9f8ee2cd","ios":"levelo://app?vid=0ea83778-efec-4b31-8fb3-f74d9f8ee2cd"},"vehicle_type_id":"4","last_reported":1723479015,"current_range_meters":2400,"station_id":"cki0cbj6b192h4jlfktg","pricing_plan_id":"cebpf4jnsgd1na2vs0mg"},{"bike_id":"5ae55d75-22d3-4137-80c9-47cbdd6714ce","system_id":"levelo_inurba_marseille","lat":43.28727,"lon":5.36078,"is_reserved":false,"is_disabled":false,"rental_uris":{"android":"levelo://app?vid=5ae55d75-22d3-4137-80c9-47cbdd6714ce","ios":"levelo://app?vid=5ae55d75-22d3-4137-80c9-47cbdd6714ce"},"vehicle_type_id":"4","last_reported":1723479015,"current_range_meters":18400,"station_id":"cki0cbj6b192h4jlfktg","pricing_plan_id":"cebpf4jnsgd1na2vs0mg"},{"bike_id":"614877f2-f32e-4601-96c3-82b521c272e6","system_id":"levelo_inurba_marseille","lat":43.286591,"lon":5.363346,"is_reserved":false,"is_disabled":false,"rental_uris":{"android":"levelo://app?vid=614877f2-f32e-4601-96c3-82b521c272e6","ios":"levelo://app?vid=614877f2-f32e-4601-96c3-82b521c272e6"},"vehicle_type_id":"4","last_reported":1723479015,"current_range_meters":14000,"station_id":"ce4bhah2rcd13ifvqej0","pricing_plan_id":"cebpf4jnsgd1na2vs0mg"},{"bike_id":"b9114623-9cf0-4c5b-a25a-c82a2f5fbe44","system_id":"levelo_inurba_marseille","lat":43.33888,"lon":5.36605,"is_reserved":false,"is_disabled":false,"rental_uris":{"android":"levelo://app?vid=b9114623-9cf0-4c5b-a25a-c82a2f5fbe44","ios":"levelo://app?vid=b9114623-9cf0-4c5b-a25a-c82a2f5fbe44"},"vehicle_type_id":"4","last_reported":1723479015,"current_range_meters":4800,"station_id":"","pricing_plan_id":"cebpf4jnsgd1na2vs0mg"},{"bike_id":"50388a8e-82c9-4858-a45c-5e608cd306e7","system_id":"levelo_inurba_marseille","lat":43.286591,"lon":5.363346,"is_reserved":false,"is_disabled":false,"rental_uris":{"android":"levelo://app?vid=50388a8e-82c9-4858-a45c-5e608cd306e7","ios":"levelo://app?vid=50388a8e-82c9-4858-a45c-5e608cd306e7"},"vehicle_type_id":"4","last_reported":1723479015,"current_range_meters":30400,"station_id":"ce4bhah2rcd13ifvqej0","pricing_plan_id":"cebpf4jnsgd1na2vs0mg"},{"bike_id":"b54d8e29-399d-4ad7-ae1a-4b0de5f90828","system_id":"levelo_inurba_marseille","lat":43.286961,"lon":5.373785,"is_reserved":false,"is_disabled":false,"rental_uris":{"android":"levelo://app?vid=b54d8e29-399d-4ad7-ae1a-4b0de5f90828","ios":"levelo://app?vid=b54d8e29-399d-4ad7-ae1a-4b0de5f90828"},"vehicle_type_id":"4","last_reported":1723479015,"current_range_meters":11200,"station_id":"ce4bh3p2rcd13ifvqdq0","pricing_plan_id":"cebpf4jnsgd1na2vs0mg"},{"bike_id":"3a258327-6c20-435f-abbb-2a8bcc602cb7","system_id":"levelo_inurba_marseille","lat":43.286591,"lon":5.363346,"is_reserved":false,"is_disabled":false,"rental_uris":{"android":"levelo://app?vid=3a258327-6c20-435f-abbb-2a8bcc602cb7","ios":"levelo://app?vid=3a258327-6c20-435f-abbb-2a8bcc602cb7"},"vehicle_type_id":"4","last_reported":1723479015,"current_range_meters":26800,"station_id":"ce4bhah2rcd13ifvqej0","pricing_plan_id":"cebpf4jnsgd1na2vs0mg"},{"bike_id":"531c08ed-ae07-405c-8550-094d204407e7","system_id":"levelo_inurba_marseille","lat":43.298681,"lon":5.397225,"is_reserved":false,"is_disabled":false,"rental_uris":{"android":"levelo://app?vid=531c08ed-ae07-405c-8550-094d204407e7","ios":"levelo://app?vid=531c08ed-ae07-405c-8550-094d204407e7"},"vehicle_type_id":"4","last_reported":1723479015,"current_range_meters":14000,"station_id":"ce4bh0h2rcd13ifvqd50","pricing_plan_id":"cebpf4jnsgd1na2vs0mg"},{"bike_id":"585decfc-dd54-47cf-9a93-45b07faed568","system_id":"levelo_inurba_marseille","lat":43.29872,"lon":5.39738,"is_reserved":false,"is_disabled":false,"rental_uris":{"android":"levelo://app?vid=585decfc-dd54-47cf-9a93-45b07faed568","ios":"levelo://app?vid=585decfc-dd54-47cf-9a93-45b07faed568"},"vehicle_type_id":"4","last_reported":1723479015,"current_range_meters":18800,"station_id":"ce4bh0h2rcd13ifvqd50","pricing_plan_id":"cebpf4jnsgd1na2vs0mg"},{"bike_id":"1cd79283-4d1b-4f20-b9b0-ab92aae0e898","system_id":"levelo_inurba_marseille","lat":43.289307,"lon":5.38406,"is_reserved":false,"is_disabled":false,"rental_uris":{"android":"levelo://app?vid=1cd79283-4d1b-4f20-b9b0-ab92aae0e898","ios":"levelo://app?vid=1cd79283-4d1b-4f20-b9b0-ab92aae0e898"},"vehicle_type_id":"4","last_reported":1723479015,"current_range_meters":21200,"station_id":"ce4bh612rcd13ifvqe6g","pricing_plan_id":"cebpf4jnsgd1na2vs0mg"},{"bike_id":"d539d73e-8908-4157-9c9d-ca108cf00d30","system_id":"levelo_inurba_marseille","lat":43.290336,"lon":5.386425,"is_reserved":false,"is_disabled":false,"rental_uris":{"android":"levelo://app?vid=d539d73e-8908-4157-9c9d-ca108cf00d30","ios":"levelo://app?vid=d539d73e-8908-4157-9c9d-ca108cf00d30"},"vehicle_type_id":"4","last_reported":1723479015,"current_range_meters":10400,"station_id":"ce4bh4p2rcd13ifvqe0g","pricing_plan_id":"cebpf4jnsgd1na2vs0mg"},{"bike_id":"dbd3bad8-eab3-4128-8559-8331c524c0ec","system_id":"levelo_inurba_marseille","lat":43.289253,"lon":5.38399,"is_reserved":false,"is_disabled":false,"rental_uris":{"android":"levelo://app?vid=dbd3bad8-eab3-4128-8559-8331c524c0ec","ios":"levelo://app?vid=dbd3bad8-eab3-4128-8559-8331c524c0ec"},"vehicle_type_id":"4","last_reported":1723479015,"current_range_meters":0,"station_id":"ce4bh612rcd13ifvqe6g","pricing_plan_id":"cebpf4jnsgd1na2vs0mg"},{"bike_id":"c197efef-95b4-4d43-9ffc-54d1dff8a06a","system_id":"levelo_inurba_marseille","lat":43.290336,"lon":5.386425,"is_reserved":false,"is_disabled":false,"rental_uris":{"android":"levelo://app?vid=c197efef-95b4-4d43-9ffc-54d1dff8a06a","ios":"levelo://app?vid=c197efef-95b4-4d43-9ffc-54d1dff8a06a"},"vehicle_type_id":"4","last_reported":1723479015,"current_range_meters":400,"station_id":"ce4bh4p2rcd13ifvqe0g","pricing_plan_id":"cebpf4jnsgd1na2vs0mg"},{"bike_id":"488945f5-280e-4262-8631-ed346751fdb2","system_id":"levelo_inurba_marseille","lat":43.302759,"lon":5.400793,"is_reserved":false,"is_disabled":false,"rental_uris":{"android":"levelo://app?vid=488945f5-280e-4262-8631-ed346751fdb2","ios":"levelo://app?vid=488945f5-280e-4262-8631-ed346751fdb2"},"vehicle_type_id":"4","last_reported":1723479015,"current_range_meters":9200,"station_id":"ce4bgvh2rcd13ifvqcs0","pricing_plan_id":"cebpf4jnsgd1na2vs0mg"},{"bike_id":"5ba98a4c-8988-4777-bed2-f7e4e7247a7e","system_id":"levelo_inurba_marseille","lat":43.287184,"lon":5.37937,"is_reserved":false,"is_disabled":false,"rental_uris":{"android":"levelo://app?vid=5ba98a4c-8988-4777-bed2-f7e4e7247a7e","ios":"levelo://app?vid=5ba98a4c-8988-4777-bed2-f7e4e7247a7e"},"vehicle_type_id":"4","last_reported":1723479015,"current_range_meters":800,"station_id":"ce4bh9p2rcd13ifvqec0","pricing_plan_id":"cebpf4jnsgd1na2vs0mg"},{"bike_id":"d849743b-0896-48d9-b22f-9a114731e7c6","system_id":"levelo_inurba_marseille","lat":43.28719,"lon":5.3794,"is_reserved":false,"is_disabled":false,"rental_uris":{"android":"levelo://app?vid=d849743b-0896-48d9-b22f-9a114731e7c6","ios":"levelo://app?vid=d849743b-0896-48d9-b22f-9a114731e7c6"},"vehicle_type_id":"4","last_reported":1723479015,"current_range_meters":0,"station_id":"ce4bh9p2rcd13ifvqec0","pricing_plan_id":"cebpf4jnsgd1na2vs0mg"},{"bike_id":"2644e1e4-08a2-4fee-a0ce-a6ea285bccab","system_id":"levelo_inurba_marseille","lat":43.316821,"lon":5.404737,"is_reserved":false,"is_disabled":false,"rental_uris":{"android":"levelo://app?vid=2644e1e4-08a2-4fee-a0ce-a6ea285bccab","ios":"levelo://app?vid=2644e1e4-08a2-4fee-a0ce-a6ea285bccab"},"vehicle_type_id":"4","last_reported":1723479015,"current_range_meters":20000,"station_id":"ce4bh012rcd13ifvqd00","pricing_plan_id":"cebpf4jnsgd1na2vs0mg"},{"bike_id":"84300063-db20-43b7-b606-5c5dffc318f7","system_id":"levelo_inurba_marseille","lat":43.2919,"lon":5.39322,"is_reserved":false,"is_disabled":false,"rental_uris":{"android":"levelo://app?vid=84300063-db20-43b7-b606-5c5dffc318f7","ios":"levelo://app?vid=84300063-db20-43b7-b606-5c5dffc318f7"},"vehicle_type_id":"4","last_reported":1723479015,"current_range_meters":16000,"station_id":"ce4bh192rcd13ifvqdd0","pricing_plan_id":"cebpf4jnsgd1na2vs0mg"},{"bike_id":"6665b62a-5029-4ff6-8dbe-97f3d7404087","system_id":"levelo_inurba_marseille","lat":43.290336,"lon":5.386425,"is_reserved":false,"is_disabled":false,"rental_uris":{"android":"levelo://app?vid=6665b62a-5029-4ff6-8dbe-97f3d7404087","ios":"levelo://app?vid=6665b62a-5029-4ff6-8dbe-97f3d7404087"},"vehicle_type_id":"4","last_reported":1723479015,"current_range_meters":16000,"station_id":"ce4bh4p2rcd13ifvqe0g","pricing_plan_id":"cebpf4jnsgd1na2vs0mg"},{"bike_id":"b1b29396-fad5-483a-84eb-29b823349746","system_id":"levelo_inurba_marseille","lat":43.28463,"lon":5.35897,"is_reserved":false,"is_disabled":false,"rental_uris":{"android":"levelo://app?vid=b1b29396-fad5-483a-84eb-29b823349746","ios":"levelo://app?vid=b1b29396-fad5-483a-84eb-29b823349746"},"vehicle_type_id":"4","last_reported":1723479015,"current_range_meters":0,"station_id":"ce4bhah2rcd13ifvqei0","pricing_plan_id":"cebpf4jnsgd1na2vs0mg"},{"bike_id":"07509b70-4a83-4094-94da-0f118c55bc12","system_id":"levelo_inurba_marseille","lat":43.284607,"lon":5.358883,"is_reserved":false,"is_disabled":false,"rental_uris":{"android":"levelo://app?vid=07509b70-4a83-4094-94da-0f118c55bc12","ios":"levelo://app?vid=07509b70-4a83-4094-94da-0f118c55bc12"},"vehicle_type_id":"4","last_reported":1723479015,"current_range_meters":0,"station_id":"ce4bhah2rcd13ifvqei0","pricing_plan_id":"cebpf4jnsgd1na2vs0mg"},{"bike_id":"8344f160-5d87-41b2-a227-ce4fb99d6537","system_id":"levelo_inurba_marseille","lat":43.28624,"lon":5.35114,"is_reserved":false,"is_disabled":false,"rental_uris":{"android":"levelo://app?vid=8344f160-5d87-41b2-a227-ce4fb99d6537","ios":"levelo://app?vid=8344f160-5d87-41b2-a227-ce4fb99d6537"},"vehicle_type_id":"4","last_reported":1723479015,"current_range_meters":12400,"station_id":"ce4bhch2rcd13ifvqeug","pricing_plan_id":"cebpf4jnsgd1na2vs0mg"},{"bike_id":"96ad78fa-3b05-493a-a077-0c4c242e0cd6","system_id":"levelo_inurba_marseille","lat":43.28623,"lon":5.35101,"is_reserved":false,"is_disabled":false,"rental_uris":{"android":"levelo://app?vid=96ad78fa-3b05-493a-a077-0c4c242e0cd6","ios":"levelo://app?vid=96ad78fa-3b05-493a-a077-0c4c242e0cd6"},"vehicle_type_id":"4","last_reported":1723479015,"current_range_meters":19600,"station_id":"ce4bhch2rcd13ifvqeug","pricing_plan_id":"cebpf4jnsgd1na2vs0mg"},{"bike_id":"c27a9594-cf95-492a-a462-b9d3cbedd7e3","system_id":"levelo_inurba_marseille","lat":43.2862,"lon":5.3511,"is_reserved":false,"is_disabled":false,"rental_uris":{"android":"levelo://app?vid=c27a9594-cf95-492a-a462-b9d3cbedd7e3","ios":"levelo://app?vid=c27a9594-cf95-492a-a462-b9d3cbedd7e3"},"vehicle_type_id":"4","last_reported":1723479015,"current_range_meters":14000,"station_id":"ce4bhch2rcd13ifvqeug","pricing_plan_id":"cebpf4jnsgd1na2vs0mg"},{"bike_id":"f505a8d7-1679-479c-9ed0-297fd8d4f784","system_id":"levelo_inurba_marseille","lat":43.28619,"lon":5.35111,"is_reserved":false,"is_disabled":false,"rental_uris":{"android":"levelo://app?vid=f505a8d7-1679-479c-9ed0-297fd8d4f784","ios":"levelo://app?vid=f505a8d7-1679-479c-9ed0-297fd8d4f784"},"vehicle_type_id":"4","last_reported":1723479015,"current_range_meters":3200,"station_id":"ce4bhch2rcd13ifvqeug","pricing_plan_id":"cebpf4jnsgd1na2vs0mg"},{"bike_id":"794681e8-d8a5-4fcf-becb-7f282a529f3d","system_id":"levelo_inurba_marseille","lat":43.286196,"lon":5.351053,"is_reserved":false,"is_disabled":false,"rental_uris":{"android":"levelo://app?vid=794681e8-d8a5-4fcf-becb-7f282a529f3d","ios":"levelo://app?vid=794681e8-d8a5-4fcf-becb-7f282a529f3d"},"vehicle_type_id":"4","last_reported":1723479015,"current_range_meters":31200,"station_id":"ce4bhch2rcd13ifvqeug","pricing_plan_id":"cebpf4jnsgd1na2vs0mg"},{"bike_id":"6623c391-c22a-4895-ab0f-6c7dd0010572","system_id":"levelo_inurba_marseille","lat":43.28619,"lon":5.35104,"is_reserved":false,"is_disabled":false,"rental_uris":{"android":"levelo://app?vid=6623c391-c22a-4895-ab0f-6c7dd0010572","ios":"levelo://app?vid=6623c391-c22a-4895-ab0f-6c7dd0010572"},"vehicle_type_id":"4","last_reported":1723479015,"current_range_meters":31200,"station_id":"ce4bhch2rcd13ifvqeug","pricing_plan_id":"cebpf4jnsgd1na2vs0mg"},{"bike_id":"7ed707f9-515e-411d-83de-f70f7ad5a210","system_id":"levelo_inurba_marseille","lat":43.28618,"lon":5.35107,"is_reserved":false,"is_disabled":false,"rental_uris":{"android":"levelo://app?vid=7ed707f9-515e-411d-83de-f70f7ad5a210","ios":"levelo://app?vid=7ed707f9-515e-411d-83de-f70f7ad5a210"},"vehicle_type_id":"4","last_reported":1723479015,"current_range_meters":30000,"station_id":"ce4bhch2rcd13ifvqeug","pricing_plan_id":"cebpf4jnsgd1na2vs0mg"},{"bike_id":"e3fb8fc1-0d4d-4e3d-a2dd-a97cccdb89eb","system_id":"levelo_inurba_marseille","lat":43.28618,"lon":5.35106,"is_reserved":false,"is_disabled":false,"rental_uris":{"android":"levelo://app?vid=e3fb8fc1-0d4d-4e3d-a2dd-a97cccdb89eb","ios":"levelo://app?vid=e3fb8fc1-0d4d-4e3d-a2dd-a97cccdb89eb"},"vehicle_type_id":"4","last_reported":1723479015,"current_range_meters":15600,"station_id":"ce4bhch2rcd13ifvqeug","pricing_plan_id":"cebpf4jnsgd1na2vs0mg"},{"bike_id":"c34f5744-8b21-4ec4-832f-4bab9ccaa6c8","system_id":"levelo_inurba_marseille","lat":43.28617,"lon":5.35109,"is_reserved":false,"is_disabled":false,"rental_uris":{"android":"levelo://app?vid=c34f5744-8b21-4ec4-832f-4bab9ccaa6c8","ios":"levelo://app?vid=c34f5744-8b21-4ec4-832f-4bab9ccaa6c8"},"vehicle_type_id":"4","last_reported":1723479015,"current_range_meters":26400,"station_id":"ce4bhch2rcd13ifvqeug","pricing_plan_id":"cebpf4jnsgd1na2vs0mg"},{"bike_id":"6bf1ffa5-9c19-419e-9d5f-adee9e78f396","system_id":"levelo_inurba_marseille","lat":43.28619,"lon":5.35102,"is_reserved":false,"is_disabled":false,"rental_uris":{"android":"levelo://app?vid=6bf1ffa5-9c19-419e-9d5f-adee9e78f396","ios":"levelo://app?vid=6bf1ffa5-9c19-419e-9d5f-adee9e78f396"},"vehicle_type_id":"4","last_reported":1723479015,"current_range_meters":30400,"station_id":"ce4bhch2rcd13ifvqeug","pricing_plan_id":"cebpf4jnsgd1na2vs0mg"},{"bike_id":"ee7d3a11-5236-4a54-b1cb-a2b3eda58234","system_id":"levelo_inurba_marseille","lat":43.28617,"lon":5.35107,"is_reserved":false,"is_disabled":false,"rental_uris":{"android":"levelo://app?vid=ee7d3a11-5236-4a54-b1cb-a2b3eda58234","ios":"levelo://app?vid=ee7d3a11-5236-4a54-b1cb-a2b3eda58234"},"vehicle_type_id":"4","last_reported":1723479015,"current_range_meters":26400,"station_id":"ce4bhch2rcd13ifvqeug","pricing_plan_id":"cebpf4jnsgd1na2vs0mg"},{"bike_id":"65b1023f-a0d0-485b-9312-7c740e98a1f2","system_id":"levelo_inurba_marseille","lat":43.285856,"lon":5.350771,"is_reserved":false,"is_disabled":false,"rental_uris":{"android":"levelo://app?vid=65b1023f-a0d0-485b-9312-7c740e98a1f2","ios":"levelo://app?vid=65b1023f-a0d0-485b-9312-7c740e98a1f2"},"vehicle_type_id":"4","last_reported":1723479015,"current_range_meters":16800,"station_id":"ce4bhch2rcd13ifvqeug","pricing_plan_id":"cebpf4jnsgd1na2vs0mg"},{"bike_id":"82952700-fb2e-4d27-ad22-2503e62d3ceb","system_id":"levelo_inurba_marseille","lat":43.28617,"lon":5.35106,"is_reserved":false,"is_disabled":false,"rental_uris":{"android":"levelo://app?vid=82952700-fb2e-4d27-ad22-2503e62d3ceb","ios":"levelo://app?vid=82952700-fb2e-4d27-ad22-2503e62d3ceb"},"vehicle_type_id":"4","last_reported":1723479015,"current_range_meters":0,"station_id":"ce4bhch2rcd13ifvqeug","pricing_plan_id":"cebpf4jnsgd1na2vs0mg"},{"bike_id":"1618169e-0bea-4436-9f84-9283763baf7d","system_id":"levelo_inurba_marseille","lat":43.285856,"lon":5.350771,"is_reserved":false,"is_disabled":false,"rental_uris":{"android":"levelo://app?vid=1618169e-0bea-4436-9f84-9283763baf7d","ios":"levelo://app?vid=1618169e-0bea-4436-9f84-9283763baf7d"},"vehicle_type_id":"4","last_reported":1723479015,"current_range_meters":10400,"station_id":"ce4bhch2rcd13ifvqeug","pricing_plan_id":"cebpf4jnsgd1na2vs0mg"},{"bike_id":"02cb82cf-0443-4eb0-9ad1-dbeb9ae949e5","system_id":"levelo_inurba_marseille","lat":43.285856,"lon":5.350771,"is_reserved":false,"is_disabled":false,"rental_uris":{"android":"levelo://app?vid=02cb82cf-0443-4eb0-9ad1-dbeb9ae949e5","ios":"levelo://app?vid=02cb82cf-0443-4eb0-9ad1-dbeb9ae949e5"},"vehicle_type_id":"4","last_reported":1723479015,"current_range_meters":9200,"station_id":"ce4bhch2rcd13ifvqeug","pricing_plan_id":"cebpf4jnsgd1na2vs0mg"},{"bike_id":"6103ce3e-ec8a-4e53-9405-589976ddb172","system_id":"levelo_inurba_marseille","lat":43.28618,"lon":5.35101,"is_reserved":false,"is_disabled":false,"rental_uris":{"android":"levelo://app?vid=6103ce3e-ec8a-4e53-9405-589976ddb172","ios":"levelo://app?vid=6103ce3e-ec8a-4e53-9405-589976ddb172"},"vehicle_type_id":"4","last_reported":1723479015,"current_range_meters":30800,"station_id":"ce4bhch2rcd13ifvqeug","pricing_plan_id":"cebpf4jnsgd1na2vs0mg"},{"bike_id":"3b898424-548a-4979-b06f-b9a77fa16aa2","system_id":"levelo_inurba_marseille","lat":43.28616,"lon":5.35106,"is_reserved":false,"is_disabled":false,"rental_uris":{"android":"levelo://app?vid=3b898424-548a-4979-b06f-b9a77fa16aa2","ios":"levelo://app?vid=3b898424-548a-4979-b06f-b9a77fa16aa2"},"vehicle_type_id":"4","last_reported":1723479015,"current_range_meters":9200,"station_id":"ce4bhch2rcd13ifvqeug","pricing_plan_id":"cebpf4jnsgd1na2vs0mg"},{"bike_id":"faddd763-e199-45cc-8bad-63d09831402e","system_id":"levelo_inurba_marseille","lat":43.28616,"lon":5.35106,"is_reserved":false,"is_disabled":false,"rental_uris":{"android":"levelo://app?vid=faddd763-e199-45cc-8bad-63d09831402e","ios":"levelo://app?vid=faddd763-e199-45cc-8bad-63d09831402e"},"vehicle_type_id":"4","last_reported":1723479015,"current_range_meters":23200,"station_id":"ce4bhch2rcd13ifvqeug","pricing_plan_id":"cebpf4jnsgd1na2vs0mg"},{"bike_id":"a366ee99-8cf0-4ade-971c-4ae33a52ab91","system_id":"levelo_inurba_marseille","lat":43.285856,"lon":5.350771,"is_reserved":false,"is_disabled":false,"rental_uris":{"android":"levelo://app?vid=a366ee99-8cf0-4ade-971c-4ae33a52ab91","ios":"levelo://app?vid=a366ee99-8cf0-4ade-971c-4ae33a52ab91"},"vehicle_type_id":"4","last_reported":1723479015,"current_range_meters":20400,"station_id":"ce4bhch2rcd13ifvqeug","pricing_plan_id":"cebpf4jnsgd1na2vs0mg"},{"bike_id":"d8d7479f-84db-49ad-a90d-b44a7029a415","system_id":"levelo_inurba_marseille","lat":43.28616,"lon":5.35101,"is_reserved":false,"is_disabled":false,"rental_uris":{"android":"levelo://app?vid=d8d7479f-84db-49ad-a90d-b44a7029a415","ios":"levelo://app?vid=d8d7479f-84db-49ad-a90d-b44a7029a415"},"vehicle_type_id":"4","last_reported":1723479015,"current_range_meters":20000,"station_id":"ce4bhch2rcd13ifvqeug","pricing_plan_id":"cebpf4jnsgd1na2vs0mg"},{"bike_id":"3e5bf2b9-1419-4193-939c-337f301b1c47","system_id":"levelo_inurba_marseille","lat":43.28616,"lon":5.35099,"is_reserved":false,"is_disabled":false,"rental_uris":{"android":"levelo://app?vid=3e5bf2b9-1419-4193-939c-337f301b1c47","ios":"levelo://app?vid=3e5bf2b9-1419-4193-939c-337f301b1c47"},"vehicle_type_id":"4","last_reported":1723479015,"current_range_meters":31200,"station_id":"ce4bhch2rcd13ifvqeug","pricing_plan_id":"cebpf4jnsgd1na2vs0mg"},{"bike_id":"4764ea7e-06f1-4e28-af47-1f1571b8a5ca","system_id":"levelo_inurba_marseille","lat":43.285856,"lon":5.350771,"is_reserved":false,"is_disabled":false,"rental_uris":{"android":"levelo://app?vid=4764ea7e-06f1-4e28-af47-1f1571b8a5ca","ios":"levelo://app?vid=4764ea7e-06f1-4e28-af47-1f1571b8a5ca"},"vehicle_type_id":"4","last_reported":1723479015,"current_range_meters":21600,"station_id":"ce4bhch2rcd13ifvqeug","pricing_plan_id":"cebpf4jnsgd1na2vs0mg"},{"bike_id":"d8e7cf79-fd60-4393-96ab-7c4603649e3c","system_id":"levelo_inurba_marseille","lat":43.28615,"lon":5.35101,"is_reserved":false,"is_disabled":false,"rental_uris":{"android":"levelo://app?vid=d8e7cf79-fd60-4393-96ab-7c4603649e3c","ios":"levelo://app?vid=d8e7cf79-fd60-4393-96ab-7c4603649e3c"},"vehicle_type_id":"4","last_reported":1723479015,"current_range_meters":29600,"station_id":"ce4bhch2rcd13ifvqeug","pricing_plan_id":"cebpf4jnsgd1na2vs0mg"},{"bike_id":"b1f22960-7f22-4092-b650-3f08dc7e7822","system_id":"levelo_inurba_marseille","lat":43.28615,"lon":5.351,"is_reserved":false,"is_disabled":false,"rental_uris":{"android":"levelo://app?vid=b1f22960-7f22-4092-b650-3f08dc7e7822","ios":"levelo://app?vid=b1f22960-7f22-4092-b650-3f08dc7e7822"},"vehicle_type_id":"4","last_reported":1723479015,"current_range_meters":23600,"station_id":"ce4bhch2rcd13ifvqeug","pricing_plan_id":"cebpf4jnsgd1na2vs0mg"},{"bike_id":"ef93ea74-b642-47f5-b7d6-ecb80f7c6493","system_id":"levelo_inurba_marseille","lat":43.28614,"lon":5.35101,"is_reserved":false,"is_disabled":false,"rental_uris":{"android":"levelo://app?vid=ef93ea74-b642-47f5-b7d6-ecb80f7c6493","ios":"levelo://app?vid=ef93ea74-b642-47f5-b7d6-ecb80f7c6493"},"vehicle_type_id":"4","last_reported":1723479015,"current_range_meters":8000,"station_id":"ce4bhch2rcd13ifvqeug","pricing_plan_id":"cebpf4jnsgd1na2vs0mg"},{"bike_id":"a43cfd1e-b922-48c9-9003-97ea397fee1c","system_id":"levelo_inurba_marseille","lat":43.28613,"lon":5.35103,"is_reserved":false,"is_disabled":false,"rental_uris":{"android":"levelo://app?vid=a43cfd1e-b922-48c9-9003-97ea397fee1c","ios":"levelo://app?vid=a43cfd1e-b922-48c9-9003-97ea397fee1c"},"vehicle_type_id":"4","last_reported":1723479015,"current_range_meters":27600,"station_id":"ce4bhch2rcd13ifvqeug","pricing_plan_id":"cebpf4jnsgd1na2vs0mg"},{"bike_id":"ed846375-54ae-4598-9dc3-e4af459c6935","system_id":"levelo_inurba_marseille","lat":43.295748,"lon":5.37522,"is_reserved":false,"is_disabled":false,"rental_uris":{"android":"levelo://app?vid=ed846375-54ae-4598-9dc3-e4af459c6935","ios":"levelo://app?vid=ed846375-54ae-4598-9dc3-e4af459c6935"},"vehicle_type_id":"4","last_reported":1723479015,"current_range_meters":31200,"station_id":"ce4bgh92rcd13ifvqb50","pricing_plan_id":"cebpf4jnsgd1na2vs0mg"},{"bike_id":"ceae5575-0282-4ff9-9e29-4a023a2fbe0d","system_id":"levelo_inurba_marseille","lat":43.2842,"lon":5.37504,"is_reserved":false,"is_disabled":false,"rental_uris":{"android":"levelo://app?vid=ceae5575-0282-4ff9-9e29-4a023a2fbe0d","ios":"levelo://app?vid=ceae5575-0282-4ff9-9e29-4a023a2fbe0d"},"vehicle_type_id":"4","last_reported":1723479015,"current_range_meters":2000,"station_id":"ce4bh412rcd13ifvqds0","pricing_plan_id":"cebpf4jnsgd1na2vs0mg"},{"bike_id":"cd5a2d90-8699-453c-ab33-b18296a19aa5","system_id":"levelo_inurba_marseille","lat":43.283998,"lon":5.375062,"is_reserved":false,"is_disabled":false,"rental_uris":{"android":"levelo://app?vid=cd5a2d90-8699-453c-ab33-b18296a19aa5","ios":"levelo://app?vid=cd5a2d90-8699-453c-ab33-b18296a19aa5"},"vehicle_type_id":"4","last_reported":1723479015,"current_range_meters":22400,"station_id":"ce4bh412rcd13ifvqds0","pricing_plan_id":"cebpf4jnsgd1na2vs0mg"},{"bike_id":"e64aac66-751d-452a-a489-4553cb372801","system_id":"levelo_inurba_marseille","lat":43.283998,"lon":5.375062,"is_reserved":false,"is_disabled":false,"rental_uris":{"android":"levelo://app?vid=e64aac66-751d-452a-a489-4553cb372801","ios":"levelo://app?vid=e64aac66-751d-452a-a489-4553cb372801"},"vehicle_type_id":"4","last_reported":1723479015,"current_range_meters":0,"station_id":"ce4bh412rcd13ifvqds0","pricing_plan_id":"cebpf4jnsgd1na2vs0mg"},{"bike_id":"5d165602-aea9-4779-b263-ceff0a58b0d7","system_id":"levelo_inurba_marseille","lat":43.295713,"lon":5.399639,"is_reserved":false,"is_disabled":false,"rental_uris":{"android":"levelo://app?vid=5d165602-aea9-4779-b263-ceff0a58b0d7","ios":"levelo://app?vid=5d165602-aea9-4779-b263-ceff0a58b0d7"},"vehicle_type_id":"4","last_reported":1723479015,"current_range_meters":31200,"station_id":"ce4bh312rcd13ifvqdj0","pricing_plan_id":"cebpf4jnsgd1na2vs0mg"},{"bike_id":"5a39ca2f-ab32-4ff4-86ae-d2c38ac9ee59","system_id":"levelo_inurba_marseille","lat":43.295713,"lon":5.399639,"is_reserved":false,"is_disabled":false,"rental_uris":{"android":"levelo://app?vid=5a39ca2f-ab32-4ff4-86ae-d2c38ac9ee59","ios":"levelo://app?vid=5a39ca2f-ab32-4ff4-86ae-d2c38ac9ee59"},"vehicle_type_id":"4","last_reported":1723479015,"current_range_meters":400,"station_id":"ce4bh312rcd13ifvqdj0","pricing_plan_id":"cebpf4jnsgd1na2vs0mg"},{"bike_id":"e5185f7e-a1c1-4749-922f-4996e3bd72f4","system_id":"levelo_inurba_marseille","lat":43.286667,"lon":5.38666,"is_reserved":false,"is_disabled":false,"rental_uris":{"android":"levelo://app?vid=e5185f7e-a1c1-4749-922f-4996e3bd72f4","ios":"levelo://app?vid=e5185f7e-a1c1-4749-922f-4996e3bd72f4"},"vehicle_type_id":"4","last_reported":1723479015,"current_range_meters":0,"station_id":"ce4bh492rcd13ifvqdug","pricing_plan_id":"cebpf4jnsgd1na2vs0mg"},{"bike_id":"462fcf7c-f62a-42b5-afb7-25d7d243fac8","system_id":"levelo_inurba_marseille","lat":43.286595,"lon":5.386795,"is_reserved":false,"is_disabled":false,"rental_uris":{"android":"levelo://app?vid=462fcf7c-f62a-42b5-afb7-25d7d243fac8","ios":"levelo://app?vid=462fcf7c-f62a-42b5-afb7-25d7d243fac8"},"vehicle_type_id":"4","last_reported":1723479015,"current_range_meters":21600,"station_id":"ce4bh492rcd13ifvqdug","pricing_plan_id":"cebpf4jnsgd1na2vs0mg"},{"bike_id":"60636945-9669-495c-9496-ce3712022088","system_id":"levelo_inurba_marseille","lat":43.319179,"lon":5.407725,"is_reserved":false,"is_disabled":false,"rental_uris":{"android":"levelo://app?vid=60636945-9669-495c-9496-ce3712022088","ios":"levelo://app?vid=60636945-9669-495c-9496-ce3712022088"},"vehicle_type_id":"4","last_reported":1723479015,"current_range_meters":14400,"station_id":"ce4bhq12rcd13ifvqhig","pricing_plan_id":"cebpf4jnsgd1na2vs0mg"},{"bike_id":"39852d22-cdf2-43f6-b74d-c7792f325192","system_id":"levelo_inurba_marseille","lat":43.284793,"lon":5.384119,"is_reserved":false,"is_disabled":false,"rental_uris":{"android":"levelo://app?vid=39852d22-cdf2-43f6-b74d-c7792f325192","ios":"levelo://app?vid=39852d22-cdf2-43f6-b74d-c7792f325192"},"vehicle_type_id":"4","last_reported":1723479015,"current_range_meters":2000,"station_id":"ce4bh512rcd13ifvqe3g","pricing_plan_id":"cebpf4jnsgd1na2vs0mg"},{"bike_id":"43220948-b020-4a47-b751-9eb2f63f654c","system_id":"levelo_inurba_marseille","lat":43.284787,"lon":5.384116,"is_reserved":false,"is_disabled":false,"rental_uris":{"android":"levelo://app?vid=43220948-b020-4a47-b751-9eb2f63f654c","ios":"levelo://app?vid=43220948-b020-4a47-b751-9eb2f63f654c"},"vehicle_type_id":"4","last_reported":1723479015,"current_range_meters":7200,"station_id":"ce4bh512rcd13ifvqe3g","pricing_plan_id":"cebpf4jnsgd1na2vs0mg"},{"bike_id":"bc981738-b0c9-41b4-a78c-fc11af86d877","system_id":"levelo_inurba_marseille","lat":43.29383,"lon":5.400376,"is_reserved":false,"is_disabled":false,"rental_uris":{"android":"levelo://app?vid=bc981738-b0c9-41b4-a78c-fc11af86d877","ios":"levelo://app?vid=bc981738-b0c9-41b4-a78c-fc11af86d877"},"vehicle_type_id":"4","last_reported":1723479015,"current_range_meters":400,"station_id":"","pricing_plan_id":"cebpf4jnsgd1na2vs0mg"},{"bike_id":"9770ab9d-4be3-4745-8c71-dcc214d5220e","system_id":"levelo_inurba_marseille","lat":43.288476,"lon":5.393316,"is_reserved":false,"is_disabled":false,"rental_uris":{"android":"levelo://app?vid=9770ab9d-4be3-4745-8c71-dcc214d5220e","ios":"levelo://app?vid=9770ab9d-4be3-4745-8c71-dcc214d5220e"},"vehicle_type_id":"4","last_reported":1723479015,"current_range_meters":0,"station_id":"ce4bh2p2rcd13ifvqdi0","pricing_plan_id":"cebpf4jnsgd1na2vs0mg"},{"bike_id":"a0d119d7-c451-4bef-a3f2-d4771140221e","system_id":"levelo_inurba_marseille","lat":43.28428,"lon":5.34996,"is_reserved":false,"is_disabled":false,"rental_uris":{"android":"levelo://app?vid=a0d119d7-c451-4bef-a3f2-d4771140221e","ios":"levelo://app?vid=a0d119d7-c451-4bef-a3f2-d4771140221e"},"vehicle_type_id":"4","last_reported":1723479015,"current_range_meters":23200,"station_id":"ce4bhbh2rcd13ifvqepg","pricing_plan_id":"cebpf4jnsgd1na2vs0mg"},{"bike_id":"6b31ac96-16c3-4e0c-bd94-66a6d272a83e","system_id":"levelo_inurba_marseille","lat":43.28426,"lon":5.34995,"is_reserved":false,"is_disabled":false,"rental_uris":{"android":"levelo://app?vid=6b31ac96-16c3-4e0c-bd94-66a6d272a83e","ios":"levelo://app?vid=6b31ac96-16c3-4e0c-bd94-66a6d272a83e"},"vehicle_type_id":"4","last_reported":1723479015,"current_range_meters":13600,"station_id":"ce4bhbh2rcd13ifvqepg","pricing_plan_id":"cebpf4jnsgd1na2vs0mg"},{"bike_id":"6a439b6b-4f98-4c1f-8521-b3d39cb556f0","system_id":"levelo_inurba_marseille","lat":43.284246,"lon":5.349959,"is_reserved":false,"is_disabled":false,"rental_uris":{"android":"levelo://app?vid=6a439b6b-4f98-4c1f-8521-b3d39cb556f0","ios":"levelo://app?vid=6a439b6b-4f98-4c1f-8521-b3d39cb556f0"},"vehicle_type_id":"4","last_reported":1723479015,"current_range_meters":31200,"station_id":"ce4bhbh2rcd13ifvqepg","pricing_plan_id":"cebpf4jnsgd1na2vs0mg"},{"bike_id":"6b52638e-dd60-4dc9-a18a-5856202e733b","system_id":"levelo_inurba_marseille","lat":43.28426,"lon":5.34991,"is_reserved":false,"is_disabled":false,"rental_uris":{"android":"levelo://app?vid=6b52638e-dd60-4dc9-a18a-5856202e733b","ios":"levelo://app?vid=6b52638e-dd60-4dc9-a18a-5856202e733b"},"vehicle_type_id":"4","last_reported":1723479015,"current_range_meters":26400,"station_id":"ce4bhbh2rcd13ifvqepg","pricing_plan_id":"cebpf4jnsgd1na2vs0mg"},{"bike_id":"1a3c8867-d4f1-48c7-adfd-687d14dd9209","system_id":"levelo_inurba_marseille","lat":43.28426,"lon":5.34988,"is_reserved":false,"is_disabled":false,"rental_uris":{"android":"levelo://app?vid=1a3c8867-d4f1-48c7-adfd-687d14dd9209","ios":"levelo://app?vid=1a3c8867-d4f1-48c7-adfd-687d14dd9209"},"vehicle_type_id":"4","last_reported":1723479015,"current_range_meters":31200,"station_id":"ce4bhbh2rcd13ifvqepg","pricing_plan_id":"cebpf4jnsgd1na2vs0mg"},{"bike_id":"b13eef3c-58fe-418e-8ff5-2aa5c73a69f8","system_id":"levelo_inurba_marseille","lat":43.28423,"lon":5.34997,"is_reserved":false,"is_disabled":false,"rental_uris":{"android":"levelo://app?vid=b13eef3c-58fe-418e-8ff5-2aa5c73a69f8","ios":"levelo://app?vid=b13eef3c-58fe-418e-8ff5-2aa5c73a69f8"},"vehicle_type_id":"4","last_reported":1723479015,"current_range_meters":31200,"station_id":"ce4bhbh2rcd13ifvqepg","pricing_plan_id":"cebpf4jnsgd1na2vs0mg"},{"bike_id":"49e403f6-1e81-4ad5-9477-95b0151061cb","system_id":"levelo_inurba_marseille","lat":43.28425,"lon":5.3499,"is_reserved":false,"is_disabled":false,"rental_uris":{"android":"levelo://app?vid=49e403f6-1e81-4ad5-9477-95b0151061cb","ios":"levelo://app?vid=49e403f6-1e81-4ad5-9477-95b0151061cb"},"vehicle_type_id":"4","last_reported":1723479015,"current_range_meters":31200,"station_id":"ce4bhbh2rcd13ifvqepg","pricing_plan_id":"cebpf4jnsgd1na2vs0mg"},{"bike_id":"b489ba2a-6d11-4662-95c5-405b1d305c78","system_id":"levelo_inurba_marseille","lat":43.28423,"lon":5.34993,"is_reserved":false,"is_disabled":false,"rental_uris":{"android":"levelo://app?vid=b489ba2a-6d11-4662-95c5-405b1d305c78","ios":"levelo://app?vid=b489ba2a-6d11-4662-95c5-405b1d305c78"},"vehicle_type_id":"4","last_reported":1723479015,"current_range_meters":19600,"station_id":"ce4bhbh2rcd13ifvqepg","pricing_plan_id":"cebpf4jnsgd1na2vs0mg"},{"bike_id":"d377e570-54db-4a15-8899-d92900553f05","system_id":"levelo_inurba_marseille","lat":43.28424,"lon":5.34987,"is_reserved":false,"is_disabled":false,"rental_uris":{"android":"levelo://app?vid=d377e570-54db-4a15-8899-d92900553f05","ios":"levelo://app?vid=d377e570-54db-4a15-8899-d92900553f05"},"vehicle_type_id":"4","last_reported":1723479015,"current_range_meters":11600,"station_id":"ce4bhbh2rcd13ifvqepg","pricing_plan_id":"cebpf4jnsgd1na2vs0mg"},{"bike_id":"ee6ec948-2ac7-428d-b0f8-be6f6ce435b4","system_id":"levelo_inurba_marseille","lat":43.28423,"lon":5.3499,"is_reserved":false,"is_disabled":false,"rental_uris":{"android":"levelo://app?vid=ee6ec948-2ac7-428d-b0f8-be6f6ce435b4","ios":"levelo://app?vid=ee6ec948-2ac7-428d-b0f8-be6f6ce435b4"},"vehicle_type_id":"4","last_reported":1723479015,"current_range_meters":18000,"station_id":"ce4bhbh2rcd13ifvqepg","pricing_plan_id":"cebpf4jnsgd1na2vs0mg"},{"bike_id":"e8a053f2-64bf-4580-b236-cffbee537002","system_id":"levelo_inurba_marseille","lat":43.284214,"lon":5.349706,"is_reserved":false,"is_disabled":false,"rental_uris":{"android":"levelo://app?vid=e8a053f2-64bf-4580-b236-cffbee537002","ios":"levelo://app?vid=e8a053f2-64bf-4580-b236-cffbee537002"},"vehicle_type_id":"4","last_reported":1723479015,"current_range_meters":31600,"station_id":"ce4bhbh2rcd13ifvqepg","pricing_plan_id":"cebpf4jnsgd1na2vs0mg"},{"bike_id":"9418dbe6-2b8d-4b0b-a6c3-620cccd21fe7","system_id":"levelo_inurba_marseille","lat":43.28422,"lon":5.34991,"is_reserved":false,"is_disabled":false,"rental_uris":{"android":"levelo://app?vid=9418dbe6-2b8d-4b0b-a6c3-620cccd21fe7","ios":"levelo://app?vid=9418dbe6-2b8d-4b0b-a6c3-620cccd21fe7"},"vehicle_type_id":"4","last_reported":1723479015,"current_range_meters":11600,"station_id":"ce4bhbh2rcd13ifvqepg","pricing_plan_id":"cebpf4jnsgd1na2vs0mg"},{"bike_id":"d5fae447-d087-4e5a-9508-a1009062f443","system_id":"levelo_inurba_marseille","lat":43.284214,"lon":5.349706,"is_reserved":false,"is_disabled":false,"rental_uris":{"android":"levelo://app?vid=d5fae447-d087-4e5a-9508-a1009062f443","ios":"levelo://app?vid=d5fae447-d087-4e5a-9508-a1009062f443"},"vehicle_type_id":"4","last_reported":1723479015,"current_range_meters":28400,"station_id":"ce4bhbh2rcd13ifvqepg","pricing_plan_id":"cebpf4jnsgd1na2vs0mg"},{"bike_id":"70cca98d-e907-4d21-965a-dcba9324daec","system_id":"levelo_inurba_marseille","lat":43.284216,"lon":5.349919,"is_reserved":false,"is_disabled":false,"rental_uris":{"android":"levelo://app?vid=70cca98d-e907-4d21-965a-dcba9324daec","ios":"levelo://app?vid=70cca98d-e907-4d21-965a-dcba9324daec"},"vehicle_type_id":"4","last_reported":1723479015,"current_range_meters":29200,"station_id":"ce4bhbh2rcd13ifvqepg","pricing_plan_id":"cebpf4jnsgd1na2vs0mg"},{"bike_id":"ee8ea139-ed15-4df4-a92c-319239d446f3","system_id":"levelo_inurba_marseille","lat":43.28423,"lon":5.34986,"is_reserved":false,"is_disabled":false,"rental_uris":{"android":"levelo://app?vid=ee8ea139-ed15-4df4-a92c-319239d446f3","ios":"levelo://app?vid=ee8ea139-ed15-4df4-a92c-319239d446f3"},"vehicle_type_id":"4","last_reported":1723479015,"current_range_meters":31200,"station_id":"ce4bhbh2rcd13ifvqepg","pricing_plan_id":"cebpf4jnsgd1na2vs0mg"},{"bike_id":"e1e20769-f806-4e1c-8dac-111d2f310078","system_id":"levelo_inurba_marseille","lat":43.284233,"lon":5.349843,"is_reserved":false,"is_disabled":false,"rental_uris":{"android":"levelo://app?vid=e1e20769-f806-4e1c-8dac-111d2f310078","ios":"levelo://app?vid=e1e20769-f806-4e1c-8dac-111d2f310078"},"vehicle_type_id":"4","last_reported":1723479015,"current_range_meters":5200,"station_id":"ce4bhbh2rcd13ifvqepg","pricing_plan_id":"cebpf4jnsgd1na2vs0mg"},{"bike_id":"79abcede-889f-4e55-b781-86a3a8b4e69b","system_id":"levelo_inurba_marseille","lat":43.284247,"lon":5.349797,"is_reserved":false,"is_disabled":false,"rental_uris":{"android":"levelo://app?vid=79abcede-889f-4e55-b781-86a3a8b4e69b","ios":"levelo://app?vid=79abcede-889f-4e55-b781-86a3a8b4e69b"},"vehicle_type_id":"4","last_reported":1723479015,"current_range_meters":31200,"station_id":"ce4bhbh2rcd13ifvqepg","pricing_plan_id":"cebpf4jnsgd1na2vs0mg"},{"bike_id":"00ab1bd8-d930-4d76-8198-49a4b992baa0","system_id":"levelo_inurba_marseille","lat":43.2842,"lon":5.34993,"is_reserved":false,"is_disabled":false,"rental_uris":{"android":"levelo://app?vid=00ab1bd8-d930-4d76-8198-49a4b992baa0","ios":"levelo://app?vid=00ab1bd8-d930-4d76-8198-49a4b992baa0"},"vehicle_type_id":"4","last_reported":1723479015,"current_range_meters":31200,"station_id":"ce4bhbh2rcd13ifvqepg","pricing_plan_id":"cebpf4jnsgd1na2vs0mg"},{"bike_id":"a9bde8a7-134c-41fa-b331-851471ef0479","system_id":"levelo_inurba_marseille","lat":43.284218,"lon":5.349868,"is_reserved":false,"is_disabled":false,"rental_uris":{"android":"levelo://app?vid=a9bde8a7-134c-41fa-b331-851471ef0479","ios":"levelo://app?vid=a9bde8a7-134c-41fa-b331-851471ef0479"},"vehicle_type_id":"4","last_reported":1723479015,"current_range_meters":31200,"station_id":"ce4bhbh2rcd13ifvqepg","pricing_plan_id":"cebpf4jnsgd1na2vs0mg"},{"bike_id":"e716b1b1-349e-4042-ac88-e18d3b11b27a","system_id":"levelo_inurba_marseille","lat":43.28421,"lon":5.34989,"is_reserved":false,"is_disabled":false,"rental_uris":{"android":"levelo://app?vid=e716b1b1-349e-4042-ac88-e18d3b11b27a","ios":"levelo://app?vid=e716b1b1-349e-4042-ac88-e18d3b11b27a"},"vehicle_type_id":"4","last_reported":1723479015,"current_range_meters":22000,"station_id":"ce4bhbh2rcd13ifvqepg","pricing_plan_id":"cebpf4jnsgd1na2vs0mg"},{"bike_id":"7f73f166-c8ad-4d15-a16a-ecf376012ffb","system_id":"levelo_inurba_marseille","lat":43.2842,"lon":5.34992,"is_reserved":false,"is_disabled":false,"rental_uris":{"android":"levelo://app?vid=7f73f166-c8ad-4d15-a16a-ecf376012ffb","ios":"levelo://app?vid=7f73f166-c8ad-4d15-a16a-ecf376012ffb"},"vehicle_type_id":"4","last_reported":1723479015,"current_range_meters":30000,"station_id":"ce4bhbh2rcd13ifvqepg","pricing_plan_id":"cebpf4jnsgd1na2vs0mg"},{"bike_id":"7ec83b6a-21ff-4baa-84ca-a3b992408aa2","system_id":"levelo_inurba_marseille","lat":43.28421,"lon":5.34988,"is_reserved":false,"is_disabled":false,"rental_uris":{"android":"levelo://app?vid=7ec83b6a-21ff-4baa-84ca-a3b992408aa2","ios":"levelo://app?vid=7ec83b6a-21ff-4baa-84ca-a3b992408aa2"},"vehicle_type_id":"4","last_reported":1723479015,"current_range_meters":30800,"station_id":"ce4bhbh2rcd13ifvqepg","pricing_plan_id":"cebpf4jnsgd1na2vs0mg"},{"bike_id":"132b524f-758e-42ba-b89d-2d31ab92dd67","system_id":"levelo_inurba_marseille","lat":43.28419,"lon":5.34994,"is_reserved":false,"is_disabled":false,"rental_uris":{"android":"levelo://app?vid=132b524f-758e-42ba-b89d-2d31ab92dd67","ios":"levelo://app?vid=132b524f-758e-42ba-b89d-2d31ab92dd67"},"vehicle_type_id":"4","last_reported":1723479015,"current_range_meters":12400,"station_id":"ce4bhbh2rcd13ifvqepg","pricing_plan_id":"cebpf4jnsgd1na2vs0mg"},{"bike_id":"901934bf-aa85-42b9-8a9c-ddc27287a560","system_id":"levelo_inurba_marseille","lat":43.284244,"lon":5.349767,"is_reserved":false,"is_disabled":false,"rental_uris":{"android":"levelo://app?vid=901934bf-aa85-42b9-8a9c-ddc27287a560","ios":"levelo://app?vid=901934bf-aa85-42b9-8a9c-ddc27287a560"},"vehicle_type_id":"4","last_reported":1723479015,"current_range_meters":23200,"station_id":"ce4bhbh2rcd13ifvqepg","pricing_plan_id":"cebpf4jnsgd1na2vs0mg"},{"bike_id":"25594914-7dd0-4e68-ae27-2d623743d208","system_id":"levelo_inurba_marseille","lat":43.2842,"lon":5.3499,"is_reserved":false,"is_disabled":false,"rental_uris":{"android":"levelo://app?vid=25594914-7dd0-4e68-ae27-2d623743d208","ios":"levelo://app?vid=25594914-7dd0-4e68-ae27-2d623743d208"},"vehicle_type_id":"4","last_reported":1723479015,"current_range_meters":12000,"station_id":"ce4bhbh2rcd13ifvqepg","pricing_plan_id":"cebpf4jnsgd1na2vs0mg"},{"bike_id":"4d9a76bd-7575-4973-89b9-d769c9668fcd","system_id":"levelo_inurba_marseille","lat":43.284217,"lon":5.349697,"is_reserved":false,"is_disabled":false,"rental_uris":{"android":"levelo://app?vid=4d9a76bd-7575-4973-89b9-d769c9668fcd","ios":"levelo://app?vid=4d9a76bd-7575-4973-89b9-d769c9668fcd"},"vehicle_type_id":"4","last_reported":1723479015,"current_range_meters":30400,"station_id":"ce4bhbh2rcd13ifvqepg","pricing_plan_id":"cebpf4jnsgd1na2vs0mg"},{"bike_id":"0d6f9edb-ec13-45ac-82cb-808eb6839a3d","system_id":"levelo_inurba_marseille","lat":43.2842,"lon":5.34989,"is_reserved":false,"is_disabled":false,"rental_uris":{"android":"levelo://app?vid=0d6f9edb-ec13-45ac-82cb-808eb6839a3d","ios":"levelo://app?vid=0d6f9edb-ec13-45ac-82cb-808eb6839a3d"},"vehicle_type_id":"4","last_reported":1723479015,"current_range_meters":19200,"station_id":"ce4bhbh2rcd13ifvqepg","pricing_plan_id":"cebpf4jnsgd1na2vs0mg"},{"bike_id":"155a5f00-8529-4386-acea-4be1bcc6db9d","system_id":"levelo_inurba_marseille","lat":43.28422,"lon":5.34981,"is_reserved":false,"is_disabled":false,"rental_uris":{"android":"levelo://app?vid=155a5f00-8529-4386-acea-4be1bcc6db9d","ios":"levelo://app?vid=155a5f00-8529-4386-acea-4be1bcc6db9d"},"vehicle_type_id":"4","last_reported":1723479015,"current_range_meters":17600,"station_id":"ce4bhbh2rcd13ifvqepg","pricing_plan_id":"cebpf4jnsgd1na2vs0mg"},{"bike_id":"73f26ee3-a9db-4ffb-bf57-7a900b0a78e8","system_id":"levelo_inurba_marseille","lat":43.28422,"lon":5.34979,"is_reserved":false,"is_disabled":false,"rental_uris":{"android":"levelo://app?vid=73f26ee3-a9db-4ffb-bf57-7a900b0a78e8","ios":"levelo://app?vid=73f26ee3-a9db-4ffb-bf57-7a900b0a78e8"},"vehicle_type_id":"4","last_reported":1723479015,"current_range_meters":2000,"station_id":"ce4bhbh2rcd13ifvqepg","pricing_plan_id":"cebpf4jnsgd1na2vs0mg"},{"bike_id":"d76cfb02-9f0e-4b33-ae52-f37e9356c3a0","system_id":"levelo_inurba_marseille","lat":43.284214,"lon":5.349706,"is_reserved":false,"is_disabled":false,"rental_uris":{"android":"levelo://app?vid=d76cfb02-9f0e-4b33-ae52-f37e9356c3a0","ios":"levelo://app?vid=d76cfb02-9f0e-4b33-ae52-f37e9356c3a0"},"vehicle_type_id":"4","last_reported":1723479015,"current_range_meters":16000,"station_id":"ce4bhbh2rcd13ifvqepg","pricing_plan_id":"cebpf4jnsgd1na2vs0mg"},{"bike_id":"e00430df-009c-4ac2-8025-8709bda180f9","system_id":"levelo_inurba_marseille","lat":43.28419,"lon":5.34987,"is_reserved":false,"is_disabled":false,"rental_uris":{"android":"levelo://app?vid=e00430df-009c-4ac2-8025-8709bda180f9","ios":"levelo://app?vid=e00430df-009c-4ac2-8025-8709bda180f9"},"vehicle_type_id":"4","last_reported":1723479015,"current_range_meters":31200,"station_id":"ce4bhbh2rcd13ifvqepg","pricing_plan_id":"cebpf4jnsgd1na2vs0mg"},