{"last_updated":1726866482,"ttl":30,"version":"2.2","data":{"bikes":[{"bike_id":"8051cb18-0ba2-475b-8558-f398a39b8001","system_id":"levelo_inurba_marseille","lat":43.29897,"lon":5.43674,"is_reserved":false,"is_disabled":false,"rental_uris":{"android":"levelo://app?vid=8051cb18-0ba2-475b-8558-f398a39b8001","ios":"levelo://app?vid=8051cb18-0ba2-475b-8558-f398a39b8001"},"vehicle_type_id":"4","last_reported":1726866482,"current_range_meters":14400,"station_id":"ce4bhpp2rcd13ifvqhfg","pricing_plan_id":"cebpf4jnsgd1na2vs0mg"},{"bike_id":"afe159f4-c1bc-4c14-b01d-5fea9b272a4e","system_id":"levelo_inurba_marseille","lat":43.29023,"lon":5.38639,"is_reserved":false,"is_disabled":false,"rental_uris":{"android":"levelo://app?vid=afe159f4-c1bc-4c14-b01d-5fea9b272a4e","ios":"levelo://app?vid=afe159f4-c1bc-4c14-b01d-5fea9b272a4e"},"vehicle_type_id":"4","last_reported":1726866482,"current_range_meters":18000,"station_id":"ce4bh4p2rcd13ifvqe0g","pricing_plan_id":"cebpf4jnsgd1na2vs0mg"},{"bike_id":"a598a873-e0ad-4a34-a72e-299ca07dec27","system_id":"levelo_inurba_marseille","lat":43.29195,"lon":5.39324,"is_reserved":false,"is_disabled":false,"rental_uris":{"android":"levelo://app?vid=a598a873-e0ad-4a34-a72e-299ca07dec27","ios":"levelo://app?vid=a598a873-e0ad-4a34-a72e-299ca07dec27"},"vehicle_type_id":"4","last_reported":1726866482,"current_range_meters":38800,"station_id":"ce4bh192rcd13ifvqdd0","pricing_plan_id":"cebpf4jnsgd1na2vs0mg"},{"bike_id":"dff16c5b-56b8-478f-a92d-30c2a7cb595a","system_id":"levelo_inurba_marseille","lat":43.24814,"lon":5.37449,"is_reserved":false,"is_disabled":false,"rental_uris":{"android":"levelo://app?vid=dff16c5b-56b8-478f-a92d-30c2a7cb595a","ios":"levelo://app?vid=dff16c5b-56b8-478f-a92d-30c2a7cb595a"},"vehicle_type_id":"4","last_reported":1726866482,"current_range_meters":38800,"station_id":"ce4bhgh2rcd13ifvqfb0","pricing_plan_id":"cebpf4jnsgd1na2vs0mg"},{"bike_id":"32d32e1a-d8de-4aaa-810f-05c70ee5692e","system_id":"levelo_inurba_marseille","lat":43.29418,"lon":5.38631,"is_reserved":false,"is_disabled":false,"rental_uris":{"android":"levelo://app?vid=32d32e1a-d8de-4aaa-810f-05c70ee5692e","ios":"levelo://app?vid=32d32e1a-d8de-4aaa-810f-05c70ee5692e"},"vehicle_type_id":"4","last_reported":1726866482,"current_range_meters":17200,"station_id":"ce4bh2h2rcd13ifvqdh0","pricing_plan_id":"cebpf4jnsgd1na2vs0mg"},{"bike_id":"caeb01e1-f6ca-4785-8d66-d5a031a43aa7","system_id":"levelo_inurba_marseille","lat":43.25087,"lon":5.39512,"is_reserved":false,"is_disabled":false,"rental_uris":{"android":"levelo://app?vid=caeb01e1-f6ca-4785-8d66-d5a031a43aa7","ios":"levelo://app?vid=caeb01e1-f6ca-4785-8d66-d5a031a43aa7"},"vehicle_type_id":"4","last_reported":1726866482,"current_range_meters":35200,"station_id":"ce4bhm12rcd13ifvqgkg","pricing_plan_id":"cebpf4jnsgd1na2vs0mg"},{"bike_id":"f6ef3552-3f9a-4d61-acb2-a4d0e1d60976","system_id":"levelo_inurba_marseille","lat":43.30947,"lon":5.40144,"is_reserved":false,"is_disabled":false,"rental_uris":{"android":"levelo://app?vid=f6ef3552-3f9a-4d61-acb2-a4d0e1d60976","ios":"levelo://app?vid=f6ef3552-3f9a-4d61-acb2-a4d0e1d60976"},"vehicle_type_id":"4","last_reported":1726866482,"current_range_meters":26800,"station_id":"ce4bgvp2rcd13ifvqct0","pricing_plan_id":"cebpf4jnsgd1na2vs0mg"},{"bike_id":"d4d370f9-9dc0-4c3d-8ac7-32b242113a77","system_id":"levelo_inurba_marseille","lat":43.29527,"lon":5.38547,"is_reserved":false,"is_disabled":false,"rental_uris":{"android":"levelo://app?vid=d4d370f9-9dc0-4c3d-8ac7-32b242113a77","ios":"levelo://app?vid=d4d370f9-9dc0-4c3d-8ac7-32b242113a77"},"vehicle_type_id":"4","last_reported":1726866482,"current_range_meters":37600,"station_id":"ce4bgih2rcd13ifvqba0","pricing_plan_id":"cebpf4jnsgd1na2vs0mg"},{"bike_id":"435d6bfe-c735-4601-8d44-4aa1753d002d","system_id":"levelo_inurba_marseille","lat":43.25577,"lon":5.38241,"is_reserved":false,"is_disabled":false,"rental_uris":{"android":"levelo://app?vid=435d6bfe-c735-4601-8d44-4aa1753d002d","ios":"levelo://app?vid=435d6bfe-c735-4601-8d44-4aa1753d002d"},"vehicle_type_id":"4","last_reported":1726866482,"current_range_meters":38800,"station_id":"ce4bhih2rcd13ifvqfs0","pricing_plan_id":"cebpf4jnsgd1na2vs0mg"},{"bike_id":"e24ec35c-a6fd-4e4d-86e7-6c421a88fb24","system_id":"levelo_inurba_marseille","lat":43.28099,"lon":5.37835,"is_reserved":false,"is_disabled":false,"rental_uris":{"android":"levelo://app?vid=e24ec35c-a6fd-4e4d-86e7-6c421a88fb24","ios":"levelo://app?vid=e24ec35c-a6fd-4e4d-86e7-6c421a88fb24"},"vehicle_type_id":"4","last_reported":1726866482,"current_range_meters":38400,"station_id":"ce4bha12rcd13ifvqee0","pricing_plan_id":"cebpf4jnsgd1na2vs0mg"},{"bike_id":"85536a6a-72a9-4c44-bb9c-19833e0aa525","system_id":"levelo_inurba_marseille","lat":43.27374,"lon":5.36267,"is_reserved":false,"is_disabled":false,"rental_uris":{"android":"levelo://app?vid=85536a6a-72a9-4c44-bb9c-19833e0aa525","ios":"levelo://app?vid=85536a6a-72a9-4c44-bb9c-19833e0aa525"},"vehicle_type_id":"4","last_reported":1726866482,"current_range_meters":30800,"station_id":"ce4bhbh2rcd13ifvqeo0","pricing_plan_id":"cebpf4jnsgd1na2vs0mg"},{"bike_id":"21db7761-5a85-4247-910c-de63176232a9","system_id":"levelo_inurba_marseille","lat":43.29258,"lon":5.38436,"is_reserved":false,"is_disabled":false,"rental_uris":{"android":"levelo://app?vid=21db7761-5a85-4247-910c-de63176232a9","ios":"levelo://app?vid=21db7761-5a85-4247-910c-de63176232a9"},"vehicle_type_id":"4","last_reported":1726866482,"current_range_meters":27200,"station_id":"ce4bh692rcd13ifvqea0","pricing_plan_id":"cebpf4jnsgd1na2vs0mg"},{"bike_id":"ea909f76-1b4f-40dc-b75d-6fd19c56d03e","system_id":"levelo_inurba_marseille","lat":43.30133,"lon":5.38787,"is_reserved":false,"is_disabled":false,"rental_uris":{"android":"levelo://app?vid=ea909f76-1b4f-40dc-b75d-6fd19c56d03e","ios":"levelo://app?vid=ea909f76-1b4f-40dc-b75d-6fd19c56d03e"},"vehicle_type_id":"4","last_reported":1726866482,"current_range_meters":30000,"station_id":"ce4bghh2rcd13ifvqb60","pricing_plan_id":"cebpf4jnsgd1na2vs0mg"},{"bike_id":"7c481c56-ec22-4574-8c12-f65adf62583b","system_id":"levelo_inurba_marseille","lat":43.29419,"lon":5.38626,"is_reserved":false,"is_disabled":false,"rental_uris":{"android":"levelo://app?vid=7c481c56-ec22-4574-8c12-f65adf62583b","ios":"levelo://app?vid=7c481c56-ec22-4574-8c12-f65adf62583b"},"vehicle_type_id":"4","last_reported":1726866482,"current_range_meters":22000,"station_id":"ce4bh2h2rcd13ifvqdh0","pricing_plan_id":"cebpf4jnsgd1na2vs0mg"},{"bike_id":"b74c6165-d636-4795-bcfe-c9740e3f6f02","system_id":"levelo_inurba_marseille","lat":43.30797,"lon":5.38156,"is_reserved":false,"is_disabled":false,"rental_uris":{"android":"levelo://app?vid=b74c6165-d636-4795-bcfe-c9740e3f6f02","ios":"levelo://app?vid=b74c6165-d636-4795-bcfe-c9740e3f6f02"},"vehicle_type_id":"4","last_reported":1726866482,"current_range_meters":25200,"station_id":"ce4bgt12rcd13ifvqce0","pricing_plan_id":"cebpf4jnsgd1na2vs0mg"},{"bike_id":"d63a5583-aee9-402e-8c2b-98b6fe1b9076","system_id":"levelo_inurba_marseille","lat":43.32661,"lon":5.40991,"is_reserved":false,"is_disabled":false,"rental_uris":{"android":"levelo://app?vid=d63a5583-aee9-402e-8c2b-98b6fe1b9076","ios":"levelo://app?vid=d63a5583-aee9-402e-8c2b-98b6fe1b9076"},"vehicle_type_id":"4","last_reported":1726866482,"current_range_meters":4800,"station_id":"ce4bhpp2rcd13ifvqhgg","pricing_plan_id":"cebpf4jnsgd1na2vs0mg"},{"bike_id":"7adb6a9c-fc7c-4226-a40a-fdb37f7e5bd8","system_id":"levelo_inurba_marseille","lat":43.24661,"lon":5.3816,"is_reserved":false,"is_disabled":false,"rental_uris":{"android":"levelo://app?vid=7adb6a9c-fc7c-4226-a40a-fdb37f7e5bd8","ios":"levelo://app?vid=7adb6a9c-fc7c-4226-a40a-fdb37f7e5bd8"},"vehicle_type_id":"4","last_reported":1726866482,"current_range_meters":38800,"station_id":"ce4bhih2rcd13ifvqfr0","pricing_plan_id":"cebpf4jnsgd1na2vs0mg"},{"bike_id":"b843455b-f1ac-4789-905c-eccb67d49c75","system_id":"levelo_inurba_marseille","lat":43.33023,"lon":5.39039,"is_reserved":false,"is_disabled":false,"rental_uris":{"android":"levelo://app?vid=b843455b-f1ac-4789-905c-eccb67d49c75","ios":"levelo://app?vid=b843455b-f1ac-4789-905c-eccb67d49c75"},"vehicle_type_id":"4","last_reported":1726866482,"current_range_meters":28000,"station_id":"ce4bhr92rcd13ifvqhrg","pricing_plan_id":"cebpf4jnsgd1na2vs0mg"},{"bike_id":"6d9f5a64-0ab5-4de7-ae1a-a8a69926e1da","system_id":"levelo_inurba_marseille","lat":43.2925,"lon":5.40908,"is_reserved":false,"is_disabled":false,"rental_uris":{"android":"levelo://app?vid=6d9f5a64-0ab5-4de7-ae1a-a8a69926e1da","ios":"levelo://app?vid=6d9f5a64-0ab5-4de7-ae1a-a8a69926e1da"},"vehicle_type_id":"4","last_reported":1726866482,"current_range_meters":36400,"station_id":"ce4bh192rcd13ifvqdc0","pricing_plan_id":"cebpf4jnsgd1na2vs0mg"},{"bike_id":"3672b918-ec7e-45dc-bdf8-b9cc28cd9157","system_id":"levelo_inurba_marseille","lat":43.27318,"lon":5.39077,"is_reserved":false,"is_disabled":false,"rental_uris":{"android":"levelo://app?vid=3672b918-ec7e-45dc-bdf8-b9cc28cd9157","ios":"levelo://app?vid=3672b918-ec7e-45dc-bdf8-b9cc28cd9157"},"vehicle_type_id":"4","last_reported":1726866482,"current_range_meters":13600,"station_id":"ce4bhgp2rcd13ifvqfe0","pricing_plan_id":"cebpf4jnsgd1na2vs0mg"},{"bike_id":"93fa08f0-5279-44df-9e72-fd5a0051b093","system_id":"levelo_inurba_marseille","lat":43.29572,"lon":5.39982,"is_reserved":false,"is_disabled":false,"rental_uris":{"android":"levelo://app?vid=93fa08f0-5279-44df-9e72-fd5a0051b093","ios":"levelo://app?vid=93fa08f0-5279-44df-9e72-fd5a0051b093"},"vehicle_type_id":"4","last_reported":1726866482,"current_range_meters":6800,"station_id":"ce4bh312rcd13ifvqdj0","pricing_plan_id":"cebpf4jnsgd1na2vs0mg"},{"bike_id":"548ff5e8-4be6-4fa2-b210-beb1ef8053de","system_id":"levelo_inurba_marseille","lat":43.33025,"lon":5.39046,"is_reserved":false,"is_disabled":false,"rental_uris":{"android":"levelo://app?vid=548ff5e8-4be6-4fa2-b210-beb1ef8053de","ios":"levelo://app?vid=548ff5e8-4be6-4fa2-b210-beb1ef8053de"},"vehicle_type_id":"4","last_reported":1726866482,"current_range_meters":20000,"station_id":"ce4bhr92rcd13ifvqhrg","pricing_plan_id":"cebpf4jnsgd1na2vs0mg"},{"bike_id":"d4312d26-3bbf-4248-96ba-b4816ee08dee","system_id":"levelo_inurba_marseille","lat":43.30892,"lon":5.37186,"is_reserved":false,"is_disabled":false,"rental_uris":{"android":"levelo://app?vid=d4312d26-3bbf-4248-96ba-b4816ee08dee","ios":"levelo://app?vid=d4312d26-3bbf-4248-96ba-b4816ee08dee"},"vehicle_type_id":"4","last_reported":1726866482,"current_range_meters":33200,"station_id":"ce4bguh2rcd13ifvqckg","pricing_plan_id":"cebpf4jnsgd1na2vs0mg"},{"bike_id":"e270d785-ab1e-40bd-b3e6-45842ab9ef05","system_id":"levelo_inurba_marseille","lat":43.30798,"lon":5.43519,"is_reserved":false,"is_disabled":false,"rental_uris":{"android":"levelo://app?vid=e270d785-ab1e-40bd-b3e6-45842ab9ef05","ios":"levelo://app?vid=e270d785-ab1e-40bd-b3e6-45842ab9ef05"},"vehicle_type_id":"4","last_reported":1726866482,"current_range_meters":24800,"station_id":"ce4bhph2rcd13ifvqheg","pricing_plan_id":"cebpf4jnsgd1na2vs0mg"},{"bike_id":"3a51ea8c-fe0f-4727-bb46-4bcf23ecbb83","system_id":"levelo_inurba_marseille","lat":43.26563,"lon":5.39005,"is_reserved":false,"is_disabled":false,"rental_uris":{"android":"levelo://app?vid=3a51ea8c-fe0f-4727-bb46-4bcf23ecbb83","ios":"levelo://app?vid=3a51ea8c-fe0f-4727-bb46-4bcf23ecbb83"},"vehicle_type_id":"4","last_reported":1726866482,"current_range_meters":38800,"station_id":"ce4bhe12rcd13ifvqf30","pricing_plan_id":"cebpf4jnsgd1na2vs0mg"},{"bike_id":"da30903d-945e-4048-9931-f370d4c6279e","system_id":"levelo_inurba_marseille","lat":43.23153,"lon":5.43728,"is_reserved":false,"is_disabled":false,"rental_uris":{"android":"levelo://app?vid=da30903d-945e-4048-9931-f370d4c6279e","ios":"levelo://app?vid=da30903d-945e-4048-9931-f370d4c6279e"},"vehicle_type_id":"4","last_reported":1726866482,"current_range_meters":36400,"station_id":"ce4bhmp2rcd13ifvqgog","pricing_plan_id":"cebpf4jnsgd1na2vs0mg"},{"bike_id":"acfd38db-e93b-4b83-9afa-11e828273dc3","system_id":"levelo_inurba_marseille","lat":43.33022,"lon":5.39038,"is_reserved":false,"is_disabled":false,"rental_uris":{"android":"levelo://app?vid=acfd38db-e93b-4b83-9afa-11e828273dc3","ios":"levelo://app?vid=acfd38db-e93b-4b83-9afa-11e828273dc3"},"vehicle_type_id":"4","last_reported":1726866482,"current_range_meters":6000,"station_id":"ce4bhr92rcd13ifvqhrg","pricing_plan_id":"cebpf4jnsgd1na2vs0mg"},{"bike_id":"623ee25c-f144-46b3-bd82-56684c4bf3c2","system_id":"levelo_inurba_marseille","lat":43.2919,"lon":5.39304,"is_reserved":false,"is_disabled":false,"rental_uris":{"android":"levelo://app?vid=623ee25c-f144-46b3-bd82-56684c4bf3c2","ios":"levelo://app?vid=623ee25c-f144-46b3-bd82-56684c4bf3c2"},"vehicle_type_id":"4","last_reported":1726866482,"current_range_meters":19200,"station_id":"ce4bh192rcd13ifvqdd0","pricing_plan_id":"cebpf4jnsgd1na2vs0mg"},{"bike_id":"bf6a0df4-e95b-4dae-8389-1b46575b78e1","system_id":"levelo_inurba_marseille","lat":43.29262,"lon":5.38439,"is_reserved":false,"is_disabled":false,"rental_uris":{"android":"levelo://app?vid=bf6a0df4-e95b-4dae-8389-1b46575b78e1","ios":"levelo://app?vid=bf6a0df4-e95b-4dae-8389-1b46575b78e1"},"vehicle_type_id":"4","last_reported":1726866482,"current_range_meters":39200,"station_id":"ce4bh692rcd13ifvqea0","pricing_plan_id":"cebpf4jnsgd1na2vs0mg"},{"bike_id":"8bc521be-02c0-4b8d-95b2-ad3a29521e74","system_id":"levelo_inurba_marseille","lat":43.29527,"lon":5.38544,"is_reserved":false,"is_disabled":false,"rental_uris":{"android":"levelo://app?vid=8bc521be-02c0-4b8d-95b2-ad3a29521e74","ios":"levelo://app?vid=8bc521be-02c0-4b8d-95b2-ad3a29521e74"},"vehicle_type_id":"4","last_reported":1726866482,"current_range_meters":19200,"station_id":"ce4bgih2rcd13ifvqba0","pricing_plan_id":"cebpf4jnsgd1na2vs0mg"},{"bike_id":"f55f80c0-457e-49df-adbf-3206062f3643","system_id":"levelo_inurba_marseille","lat":43.29265,"lon":5.38443,"is_reserved":false,"is_disabled":false,"rental_uris":{"android":"levelo://app?vid=f55f80c0-457e-49df-adbf-3206062f3643","ios":"levelo://app?vid=f55f80c0-457e-49df-adbf-3206062f3643"},"vehicle_type_id":"4","last_reported":1726866482,"current_range_meters":8000,"station_id":"ce4bh692rcd13ifvqea0","pricing_plan_id":"cebpf4jnsgd1na2vs0mg"},{"bike_id":"abf935c5-7318-4f2d-a490-e6519bd242b9","system_id":"levelo_inurba_marseille","lat":43.28703,"lon":5.37395,"is_reserved":false,"is_disabled":false,"rental_uris":{"android":"levelo://app?vid=abf935c5-7318-4f2d-a490-e6519bd242b9","ios":"levelo://app?vid=abf935c5-7318-4f2d-a490-e6519bd242b9"},"vehicle_type_id":"4","last_reported":1726866482,"current_range_meters":38800,"station_id":"ce4bh3p2rcd13ifvqdq0","pricing_plan_id":"cebpf4jnsgd1na2vs0mg"},{"bike_id":"2e500453-4f8f-49e2-8bf2-b2eee74029b8","system_id":"levelo_inurba_marseille","lat":43.29266,"lon":5.40119,"is_reserved":false,"is_disabled":false,"rental_uris":{"android":"levelo://app?vid=2e500453-4f8f-49e2-8bf2-b2eee74029b8","ios":"levelo://app?vid=2e500453-4f8f-49e2-8bf2-b2eee74029b8"},"vehicle_type_id":"4","last_reported":1726866482,"current_range_meters":36800,"station_id":"ce4bh312rcd13ifvqdk0","pricing_plan_id":"cebpf4jnsgd1na2vs0mg"},{"bike_id":"8599327e-7a38-42cc-bae8-5460e681ba0a","system_id":"levelo_inurba_marseille","lat":43.31752,"lon":5.39026,"is_reserved":false,"is_disabled":false,"rental_uris":{"android":"levelo://app?vid=8599327e-7a38-42cc-bae8-5460e681ba0a","ios":"levelo://app?vid=8599327e-7a38-42cc-bae8-5460e681ba0a"},"vehicle_type_id":"4","last_reported":1726866482,"current_range_meters":38800,"station_id":"ce4bhqp2rcd13ifvqhng","pricing_plan_id":"cebpf4jnsgd1na2vs0mg"},{"bike_id":"5d6144dd-b2d3-4794-9e70-c1cec4d01784","system_id":"levelo_inurba_marseille","lat":43.29383,"lon":5.37853,"is_reserved":false,"is_disabled":false,"rental_uris":{"android":"levelo://app?vid=5d6144dd-b2d3-4794-9e70-c1cec4d01784","ios":"levelo://app?vid=5d6144dd-b2d3-4794-9e70-c1cec4d01784"},"vehicle_type_id":"4","last_reported":1726866482,"current_range_meters":29600,"station_id":"ce4bgjh2rcd13ifvqbf0","pricing_plan_id":"cebpf4jnsgd1na2vs0mg"},{"bike_id":"2a7db943-6265-4479-9604-043d344eb7a6","system_id":"levelo_inurba_marseille","lat":43.30301,"lon":5.38393,"is_reserved":false,"is_disabled":false,"rental_uris":{"android":"levelo://app?vid=2a7db943-6265-4479-9604-043d344eb7a6","ios":"levelo://app?vid=2a7db943-6265-4479-9604-043d344eb7a6"},"vehicle_type_id":"4","last_reported":1726866482,"current_range_meters":26000,"station_id":"","pricing_plan_id":"cebpf4jnsgd1na2vs0mg"},{"bike_id":"cfc6b4cf-c77e-4661-ab80-7267d2dcc178","system_id":"levelo_inurba_marseille","lat":43.29726,"lon":5.36591,"is_reserved":false,"is_disabled":false,"rental_uris":{"android":"levelo://app?vid=cfc6b4cf-c77e-4661-ab80-7267d2dcc178","ios":"levelo://app?vid=cfc6b4cf-c77e-4661-ab80-7267d2dcc178"},"vehicle_type_id":"4","last_reported":1726866482,"current_range_meters":38400,"station_id":"ce4bgn12rcd13ifvqbt0","pricing_plan_id":"cebpf4jnsgd1na2vs0mg"},{"bike_id":"43308345-3f69-4ee1-9a12-813b66e8f857","system_id":"levelo_inurba_marseille","lat":43.26552,"lon":5.37286,"is_reserved":false,"is_disabled":false,"rental_uris":{"android":"levelo://app?vid=43308345-3f69-4ee1-9a12-813b66e8f857","ios":"levelo://app?vid=43308345-3f69-4ee1-9a12-813b66e8f857"},"vehicle_type_id":"4","last_reported":1726866482,"current_range_meters":6400,"station_id":"ce4bhg12rcd13ifvqf70","pricing_plan_id":"cebpf4jnsgd1na2vs0mg"},{"bike_id":"b8afe22f-c0f3-483c-bb5f-6071483e5e25","system_id":"levelo_inurba_marseille","lat":43.25937,"lon":5.40906,"is_reserved":false,"is_disabled":false,"rental_uris":{"android":"levelo://app?vid=b8afe22f-c0f3-483c-bb5f-6071483e5e25","ios":"levelo://app?vid=b8afe22f-c0f3-483c-bb5f-6071483e5e25"},"vehicle_type_id":"4","last_reported":1726866482,"current_range_meters":35600,"station_id":"ce4bhm92rcd13ifvqglg","pricing_plan_id":"cebpf4jnsgd1na2vs0mg"},{"bike_id":"46862c90-ad7b-4238-91d7-b35c9aee5955","system_id":"levelo_inurba_marseille","lat":43.29268,"lon":5.38437,"is_reserved":false,"is_disabled":false,"rental_uris":{"android":"levelo://app?vid=46862c90-ad7b-4238-91d7-b35c9aee5955","ios":"levelo://app?vid=46862c90-ad7b-4238-91d7-b35c9aee5955"},"vehicle_type_id":"4","last_reported":1726866482,"current_range_meters":33600,"station_id":"ce4bh692rcd13ifvqea0","pricing_plan_id":"cebpf4jnsgd1na2vs0mg"},{"bike_id":"b8c4fb30-143a-40da-a94d-ac106aff7dd4","system_id":"levelo_inurba_marseille","lat":43.31268,"lon":5.40175,"is_reserved":false,"is_disabled":false,"rental_uris":{"android":"levelo://app?vid=b8c4fb30-143a-40da-a94d-ac106aff7dd4","ios":"levelo://app?vid=b8c4fb30-143a-40da-a94d-ac106aff7dd4"},"vehicle_type_id":"4","last_reported":1726866482,"current_range_meters":8400,"station_id":"ce4bh092rcd13ifvqd30","pricing_plan_id":"cebpf4jnsgd1na2vs0mg"},{"bike_id":"edfb1ff5-b81b-4225-8da9-100a9115b1e3","system_id":"levelo_inurba_marseille","lat":43.29735,"lon":5.36561,"is_reserved":false,"is_disabled":false,"rental_uris":{"android":"levelo://app?vid=edfb1ff5-b81b-4225-8da9-100a9115b1e3","ios":"levelo://app?vid=edfb1ff5-b81b-4225-8da9-100a9115b1e3"},"vehicle_type_id":"4","last_reported":1726866482,"current_range_meters":11200,"station_id":"","pricing_plan_id":"cebpf4jnsgd1na2vs0mg"},{"bike_id":"4538c702-8de4-4b33-9ab0-2b4d17415cc2","system_id":"levelo_inurba_marseille","lat":43.24807,"lon":5.37454,"is_reserved":false,"is_disabled":false,"rental_uris":{"android":"levelo://app?vid=4538c702-8de4-4b33-9ab0-2b4d17415cc2","ios":"levelo://app?vid=4538c702-8de4-4b33-9ab0-2b4d17415cc2"},"vehicle_type_id":"4","last_reported":1726866482,"current_range_meters":19600,"station_id":"ce4bhgh2rcd13ifvqfb0","pricing_plan_id":"cebpf4jnsgd1na2vs0mg"},{"bike_id":"0df805ca-5348-4169-979d-f0b036f1fe02","system_id":"levelo_inurba_marseille","lat":43.31993,"lon":5.38159,"is_reserved":false,"is_disabled":false,"rental_uris":{"android":"levelo://app?vid=0df805ca-5348-4169-979d-f0b036f1fe02","ios":"levelo://app?vid=0df805ca-5348-4169-979d-f0b036f1fe02"},"vehicle_type_id":"4","last_reported":1726866482,"current_range_meters":23200,"station_id":"ce4bhr12rcd13ifvqhpg","pricing_plan_id":"cebpf4jnsgd1na2vs0mg"},{"bike_id":"15e3060d-1cfb-481c-9f48-257a94bd2c2a","system_id":"levelo_inurba_marseille","lat":43.32447,"lon":5.4089,"is_reserved":false,"is_disabled":false,"rental_uris":{"android":"levelo://app?vid=15e3060d-1cfb-481c-9f48-257a94bd2c2a","ios":"levelo://app?vid=15e3060d-1cfb-481c-9f48-257a94bd2c2a"},"vehicle_type_id":"4","last_reported":1726866482,"current_range_meters":34800,"station_id":"","pricing_plan_id":"cebpf4jnsgd1na2vs0mg"},{"bike_id":"9b593e1a-bf66-49e3-9157-adba3e02bd78","system_id":"levelo_inurba_marseille","lat":43.30124,"lon":5.39176,"is_reserved":false,"is_disabled":false,"rental_uris":{"android":"levelo://app?vid=9b593e1a-bf66-49e3-9157-adba3e02bd78","ios":"levelo://app?vid=9b593e1a-bf66-49e3-9157-adba3e02bd78"},"vehicle_type_id":"4","last_reported":1726866482,"current_range_meters":25600,"station_id":"","pricing_plan_id":"cebpf4jnsgd1na2vs0mg"},{"bike_id":"7a432638-6fd6-4274-96d7-f403174703fc","system_id":"levelo_inurba_marseille","lat":43.24807,"lon":5.37454,"is_reserved":false,"is_disabled":false,"rental_uris":{"android":"levelo://app?vid=7a432638-6fd6-4274-96d7-f403174703fc","ios":"levelo://app?vid=7a432638-6fd6-4274-96d7-f403174703fc"},"vehicle_type_id":"4","last_reported":1726866482,"current_range_meters":38800,"station_id":"ce4bhgh2rcd13ifvqfb0","pricing_plan_id":"cebpf4jnsgd1na2vs0mg"},{"bike_id":"4445b024-7499-4d30-a910-6f3f6988a6ad","system_id":"levelo_inurba_marseille","lat":43.29302,"lon":5.37175,"is_reserved":false,"is_disabled":false,"rental_uris":{"android":"levelo://app?vid=4445b024-7499-4d30-a910-6f3f6988a6ad","ios":"levelo://app?vid=4445b024-7499-4d30-a910-6f3f6988a6ad"},"vehicle_type_id":"4","last_reported":1726866482,"current_range_meters":38000,"station_id":"ce4bgh92rcd13ifvqb40","pricing_plan_id":"cebpf4jnsgd1na2vs0mg"},{"bike_id":"c47aba76-dd8d-4b6e-9b2b-3c45cf9e5115","system_id":"levelo_inurba_marseille","lat":43.31075,"lon":5.38359,"is_reserved":false,"is_disabled":false,"rental_uris":{"android":"levelo://app?vid=c47aba76-dd8d-4b6e-9b2b-3c45cf9e5115","ios":"levelo://app?vid=c47aba76-dd8d-4b6e-9b2b-3c45cf9e5115"},"vehicle_type_id":"4","last_reported":1726866482,"current_range_meters":31200,"station_id":"ce4bgv92rcd13ifvqcr0","pricing_plan_id":"cebpf4jnsgd1na2vs0mg"},{"bike_id":"e4cd288b-58e9-4c73-81ff-0e54d332441e","system_id":"levelo_inurba_marseille","lat":43.33021,"lon":5.39045,"is_reserved":false,"is_disabled":false,"rental_uris":{"android":"levelo://app?vid=e4cd288b-58e9-4c73-81ff-0e54d332441e","ios":"levelo://app?vid=e4cd288b-58e9-4c73-81ff-0e54d332441e"},"vehicle_type_id":"4","last_reported":1726866482,"current_range_meters":19600,"station_id":"ce4bhr92rcd13ifvqhrg","pricing_plan_id":"cebpf4jnsgd1na2vs0mg"},{"bike_id":"b4d8cc2f-08fa-447c-98aa-3fb508700768","system_id":"levelo_inurba_marseille","lat":43.28951,"lon":5.35781,"is_reserved":false,"is_disabled":false,"rental_uris":{"android":"levelo://app?vid=b4d8cc2f-08fa-447c-98aa-3fb508700768","ios":"levelo://app?vid=b4d8cc2f-08fa-447c-98aa-3fb508700768"},"vehicle_type_id":"4","last_reported":1726866482,"current_range_meters":7200,"station_id":"","pricing_plan_id":"cebpf4jnsgd1na2vs0mg"},{"bike_id":"483b9851-3f00-455a-a26f-a84511ffd2d9","system_id":"levelo_inurba_marseille","lat":43.29063,"lon":5.35909,"is_reserved":false,"is_disabled":false,"rental_uris":{"android":"levelo://app?vid=483b9851-3f00-455a-a26f-a84511ffd2d9","ios":"levelo://app?vid=483b9851-3f00-455a-a26f-a84511ffd2d9"},"vehicle_type_id":"4","last_reported":1726866482,"current_range_meters":8000,"station_id":"ce4bha92rcd13ifvqeg0","pricing_plan_id":"cebpf4jnsgd1na2vs0mg"},{"bike_id":"53b0d88c-3ddb-4e2e-a1d5-9ea3b0a5c6d1","system_id":"levelo_inurba_marseille","lat":43.31328,"lon":5.39702,"is_reserved":false,"is_disabled":false,"rental_uris":{"android":"levelo://app?vid=53b0d88c-3ddb-4e2e-a1d5-9ea3b0a5c6d1","ios":"levelo://app?vid=53b0d88c-3ddb-4e2e-a1d5-9ea3b0a5c6d1"},"vehicle_type_id":"4","last_reported":1726866482,"current_range_meters":29600,"station_id":"ce4bgvp2rcd13ifvqcu0","pricing_plan_id":"cebpf4jnsgd1na2vs0mg"},{"bike_id":"bae148d9-8618-45b1-98a0-e0290b328c19","system_id":"levelo_inurba_marseille","lat":43.29278,"lon":5.36852,"is_reserved":false,"is_disabled":false,"rental_uris":{"android":"levelo://app?vid=bae148d9-8618-45b1-98a0-e0290b328c19","ios":"levelo://app?vid=bae148d9-8618-45b1-98a0-e0290b328c19"},"vehicle_type_id":"4","last_reported":1726866482,"current_range_meters":8400,"station_id":"ce4bhbp2rcd13ifvqesg","pricing_plan_id":"cebpf4jnsgd1na2vs0mg"},{"bike_id":"bcd9d067-b093-4910-baae-4106d4c6d258","system_id":"levelo_inurba_marseille","lat":43.29218,"lon":5.36049,"is_reserved":false,"is_disabled":false,"rental_uris":{"android":"levelo://app?vid=bcd9d067-b093-4910-baae-4106d4c6d258","ios":"levelo://app?vid=bcd9d067-b093-4910-baae-4106d4c6d258"},"vehicle_type_id":"4","last_reported":1726866482,"current_range_meters":38800,"station_id":"ce4bhbh2rcd13ifvqeqg","pricing_plan_id":"cebpf4jnsgd1na2vs0mg"},{"bike_id":"8db99277-90a2-45d9-aafa-536ff23cacde","system_id":"levelo_inurba_marseille","lat":43.302743,"lon":5.377167,"is_reserved":false,"is_disabled":false,"rental_uris":{"android":"levelo://app?vid=8db99277-90a2-45d9-aafa-536ff23cacde","ios":"levelo://app?vid=8db99277-90a2-45d9-aafa-536ff23cacde"},"vehicle_type_id":"4","last_reported":1726866482,"current_range_meters":25200,"station_id":"ce4bgvp2rcd13ifvqcu0","pricing_plan_id":"cebpf4jnsgd1na2vs0mg"},{"bike_id":"918b4cda-983c-40cf-87ba-e833ce1cad48","system_id":"levelo_inurba_marseille","lat":43.301486,"lon":5.380825,"is_reserved":false,"is_disabled":false,"rental_uris":{"android":"levelo://app?vid=918b4cda-983c-40cf-87ba-e833ce1cad48","ios":"levelo://app?vid=918b4cda-983c-40cf-87ba-e833ce1cad48"},"vehicle_type_id":"4","last_reported":1726866482,"current_range_meters":16800,"station_id":"ce4bgjp2rcd13ifvqbh0","pricing_plan_id":"cebpf4jnsgd1na2vs0mg"},{"bike_id":"c233e8dd-3568-4742-b185-4db76ce73584","system_id":"levelo_inurba_marseille","lat":43.29226,"lon":5.41935,"is_reserved":false,"is_disabled":false,"rental_uris":{"android":"levelo://app?vid=c233e8dd-3568-4742-b185-4db76ce73584","ios":"levelo://app?vid=c233e8dd-3568-4742-b185-4db76ce73584"},"vehicle_type_id":"4","last_reported":1726866482,"current_range_meters":23200,"station_id":"","pricing_plan_id":"cebpf4jnsgd1na2vs0mg"},{"bike_id":"6a4481fd-e633-46aa-bd46-0e99bbb63529","system_id":"levelo_inurba_marseille","lat":43.29581,"lon":5.38106,"is_reserved":false,"is_disabled":false,"rental_uris":{"android":"levelo://app?vid=6a4481fd-e633-46aa-bd46-0e99bbb63529","ios":"levelo://app?vid=6a4481fd-e633-46aa-bd46-0e99bbb63529"},"vehicle_type_id":"4","last_reported":1726866482,"current_range_meters":11200,"station_id":"ce4bgl12rcd13ifvqbo0","pricing_plan_id":"cebpf4jnsgd1na2vs0mg"},{"bike_id":"f1fe27d9-8d63-4fd9-9128-e84c509f3f6e","system_id":"levelo_inurba_marseille","lat":43.27836,"lon":5.39212,"is_reserved":false,"is_disabled":false,"rental_uris":{"android":"levelo://app?vid=f1fe27d9-8d63-4fd9-9128-e84c509f3f6e","ios":"levelo://app?vid=f1fe27d9-8d63-4fd9-9128-e84c509f3f6e"},"vehicle_type_id":"4","last_reported":1726866482,"current_range_meters":25600,"station_id":"ce4bhjp2rcd13ifvqga0","pricing_plan_id":"cebpf4jnsgd1na2vs0mg"},{"bike_id":"0f4a5039-4f02-4b4c-bc57-7ac4d9b116cc","system_id":"levelo_inurba_marseille","lat":43.31224,"lon":5.3686,"is_reserved":false,"is_disabled":false,"rental_uris":{"android":"levelo://app?vid=0f4a5039-4f02-4b4c-bc57-7ac4d9b116cc","ios":"levelo://app?vid=0f4a5039-4f02-4b4c-bc57-7ac4d9b116cc"},"vehicle_type_id":"4","last_reported":1726866482,"current_range_meters":20400,"station_id":"ce4bgl92rcd13ifvqbq0","pricing_plan_id":"cebpf4jnsgd1na2vs0mg"},{"bike_id":"841546c0-6dca-4af6-955b-6e5b4bf0d05c","system_id":"levelo_inurba_marseille","lat":43.29257,"lon":5.40906,"is_reserved":false,"is_disabled":false,"rental_uris":{"android":"levelo://app?vid=841546c0-6dca-4af6-955b-6e5b4bf0d05c","ios":"levelo://app?vid=841546c0-6dca-4af6-955b-6e5b4bf0d05c"},"vehicle_type_id":"4","last_reported":1726866482,"current_range_meters":33600,"station_id":"ce4bh192rcd13ifvqdc0","pricing_plan_id":"cebpf4jnsgd1na2vs0mg"},{"bike_id":"e8774deb-9368-4c33-9b01-f22175a07174","system_id":"levelo_inurba_marseille","lat":43.29569,"lon":5.37507,"is_reserved":false,"is_disabled":false,"rental_uris":{"android":"levelo://app?vid=e8774deb-9368-4c33-9b01-f22175a07174","ios":"levelo://app?vid=e8774deb-9368-4c33-9b01-f22175a07174"},"vehicle_type_id":"4","last_reported":1726866482,"current_range_meters":35200,"station_id":"ce4bgh92rcd13ifvqb50","pricing_plan_id":"cebpf4jnsgd1na2vs0mg"},{"bike_id":"c99f33cf-8412-4227-908f-aaedcf799ae0","system_id":"levelo_inurba_marseille","lat":43.30154,"lon":5.38082,"is_reserved":false,"is_disabled":false,"rental_uris":{"android":"levelo://app?vid=c99f33cf-8412-4227-908f-aaedcf799ae0","ios":"levelo://app?vid=c99f33cf-8412-4227-908f-aaedcf799ae0"},"vehicle_type_id":"4","last_reported":1726866482,"current_range_meters":38800,"station_id":"ce4bgjp2rcd13ifvqbh0","pricing_plan_id":"cebpf4jnsgd1na2vs0mg"},{"bike_id":"5840a821-7b4a-4179-8856-92a74917e83c","system_id":"levelo_inurba_marseille","lat":43.24998,"lon":5.38922,"is_reserved":false,"is_disabled":false,"rental_uris":{"android":"levelo://app?vid=5840a821-7b4a-4179-8856-92a74917e83c","ios":"levelo://app?vid=5840a821-7b4a-4179-8856-92a74917e83c"},"vehicle_type_id":"4","last_reported":1726866482,"current_range_meters":38800,"station_id":"ce4bhgp2rcd13ifvqfd0","pricing_plan_id":"cebpf4jnsgd1na2vs0mg"},{"bike_id":"d4642f17-1257-4932-99eb-07162a326286","system_id":"levelo_inurba_marseille","lat":43.29267,"lon":5.38439,"is_reserved":false,"is_disabled":false,"rental_uris":{"android":"levelo://app?vid=d4642f17-1257-4932-99eb-07162a326286","ios":"levelo://app?vid=d4642f17-1257-4932-99eb-07162a326286"},"vehicle_type_id":"4","last_reported":1726866482,"current_range_meters":16400,"station_id":"ce4bh692rcd13ifvqea0","pricing_plan_id":"cebpf4jnsgd1na2vs0mg"},{"bike_id":"1d50b34d-e41e-407e-93f9-1ab0f089d397","system_id":"levelo_inurba_marseille","lat":43.27375,"lon":5.36252,"is_reserved":false,"is_disabled":false,"rental_uris":{"android":"levelo://app?vid=1d50b34d-e41e-407e-93f9-1ab0f089d397","ios":"levelo://app?vid=1d50b34d-e41e-407e-93f9-1ab0f089d397"},"vehicle_type_id":"4","last_reported":1726866482,"current_range_meters":24400,"station_id":"ce4bhbh2rcd13ifvqeo0","pricing_plan_id":"cebpf4jnsgd1na2vs0mg"},{"bike_id":"5419b1bf-d37c-4076-a34c-52ede101758e","system_id":"levelo_inurba_marseille","lat":43.337444,"lon":5.374475,"is_reserved":false,"is_disabled":false,"rental_uris":{"android":"levelo://app?vid=5419b1bf-d37c-4076-a34c-52ede101758e","ios":"levelo://app?vid=5419b1bf-d37c-4076-a34c-52ede101758e"},"vehicle_type_id":"4","last_reported":1726866482,"current_range_meters":35600,"station_id":"","pricing_plan_id":"cebpf4jnsgd1na2vs0mg"},{"bike_id":"c33e9d45-7b28-4509-86fe-867e95c1321a","system_id":"levelo_inurba_marseille","lat":43.33606,"lon":5.41036,"is_reserved":false,"is_disabled":false,"rental_uris":{"android":"levelo://app?vid=c33e9d45-7b28-4509-86fe-867e95c1321a","ios":"levelo://app?vid=c33e9d45-7b28-4509-86fe-867e95c1321a"},"vehicle_type_id":"4","last_reported":1726866482,"current_range_meters":32400,"station_id":"ce4bhqh2rcd13ifvqhmg","pricing_plan_id":"cebpf4jnsgd1na2vs0mg"},{"bike_id":"5c003c29-6dbe-413e-99d4-3b30a1fddbc2","system_id":"levelo_inurba_marseille","lat":43.27374,"lon":5.36257,"is_reserved":false,"is_disabled":false,"rental_uris":{"android":"levelo://app?vid=5c003c29-6dbe-413e-99d4-3b30a1fddbc2","ios":"levelo://app?vid=5c003c29-6dbe-413e-99d4-3b30a1fddbc2"},"vehicle_type_id":"4","last_reported":1726866482,"current_range_meters":36800,"station_id":"ce4bhbh2rcd13ifvqeo0","pricing_plan_id":"cebpf4jnsgd1na2vs0mg"},{"bike_id":"f7575c27-994c-406f-8323-578b38c16d91","system_id":"levelo_inurba_marseille","lat":43.28739,"lon":5.36529,"is_reserved":false,"is_disabled":false,"rental_uris":{"android":"levelo://app?vid=f7575c27-994c-406f-8323-578b38c16d91","ios":"levelo://app?vid=f7575c27-994c-406f-8323-578b38c16d91"},"vehicle_type_id":"4","last_reported":1726866482,"current_range_meters":33600,"station_id":"","pricing_plan_id":"cebpf4jnsgd1na2vs0mg"},{"bike_id":"5ad3757d-14a9-44b2-a114-68e73f5c0828","system_id":"levelo_inurba_marseille","lat":43.30138,"lon":5.38783,"is_reserved":false,"is_disabled":false,"rental_uris":{"android":"levelo://app?vid=5ad3757d-14a9-44b2-a114-68e73f5c0828","ios":"levelo://app?vid=5ad3757d-14a9-44b2-a114-68e73f5c0828"},"vehicle_type_id":"4","last_reported":1726866482,"current_range_meters":35200,"station_id":"ce4bghh2rcd13ifvqb60","pricing_plan_id":"cebpf4jnsgd1na2vs0mg"},{"bike_id":"0d9c1842-64ba-48eb-a973-3070ec1528ed","system_id":"levelo_inurba_marseille","lat":43.29872,"lon":5.39736,"is_reserved":false,"is_disabled":false,"rental_uris":{"android":"levelo://app?vid=0d9c1842-64ba-48eb-a973-3070ec1528ed","ios":"levelo://app?vid=0d9c1842-64ba-48eb-a973-3070ec1528ed"},"vehicle_type_id":"4","last_reported":1726866482,"current_range_meters":14400,"station_id":"ce4bh0h2rcd13ifvqd50","pricing_plan_id":"cebpf4jnsgd1na2vs0mg"},{"bike_id":"598304d3-f8d3-448e-8a71-06db80bfb9e1","system_id":"levelo_inurba_marseille","lat":43.30455,"lon":5.36621,"is_reserved":false,"is_disabled":false,"rental_uris":{"android":"levelo://app?vid=598304d3-f8d3-448e-8a71-06db80bfb9e1","ios":"levelo://app?vid=598304d3-f8d3-448e-8a71-06db80bfb9e1"},"vehicle_type_id":"4","last_reported":1726866482,"current_range_meters":8400,"station_id":"","pricing_plan_id":"cebpf4jnsgd1na2vs0mg"},{"bike_id":"4bd9df89-5d63-4a26-9aed-94afaccd5554","system_id":"levelo_inurba_marseille","lat":43.28488,"lon":5.38552,"is_reserved":false,"is_disabled":false,"rental_uris":{"android":"levelo://app?vid=4bd9df89-5d63-4a26-9aed-94afaccd5554","ios":"levelo://app?vid=4bd9df89-5d63-4a26-9aed-94afaccd5554"},"vehicle_type_id":"4","last_reported":1726866482,"current_range_meters":7200,"station_id":"ce4bh8p2rcd13ifvqeb0","pricing_plan_id":"cebpf4jnsgd1na2vs0mg"},{"bike_id":"742a3543-343d-45b9-b876-36b8d248039c","system_id":"levelo_inurba_marseille","lat":43.28103,"lon":5.37842,"is_reserved":false,"is_disabled":false,"rental_uris":{"android":"levelo://app?vid=742a3543-343d-45b9-b876-36b8d248039c","ios":"levelo://app?vid=742a3543-343d-45b9-b876-36b8d248039c"},"vehicle_type_id":"4","last_reported":1726866482,"current_range_meters":37600,"station_id":"ce4bha12rcd13ifvqee0","pricing_plan_id":"cebpf4jnsgd1na2vs0mg"},{"bike_id":"5899dc76-4576-41fc-91db-67e269faacc4","system_id":"levelo_inurba_marseille","lat":43.31757,"lon":5.39018,"is_reserved":false,"is_disabled":false,"rental_uris":{"android":"levelo://app?vid=5899dc76-4576-41fc-91db-67e269faacc4","ios":"levelo://app?vid=5899dc76-4576-41fc-91db-67e269faacc4"},"vehicle_type_id":"4","last_reported":1726866482,"current_range_meters":38800,"station_id":"ce4bhqp2rcd13ifvqhng","pricing_plan_id":"cebpf4jnsgd1na2vs0mg"},{"bike_id":"9203739a-774a-4b9c-832c-d982cfd4c7c1","system_id":"levelo_inurba_marseille","lat":43.3162,"lon":5.38593,"is_reserved":false,"is_disabled":false,"rental_uris":{"android":"levelo://app?vid=9203739a-774a-4b9c-832c-d982cfd4c7c1","ios":"levelo://app?vid=9203739a-774a-4b9c-832c-d982cfd4c7c1"},"vehicle_type_id":"4","last_reported":1726866482,"current_range_meters":9200,"station_id":"","pricing_plan_id":"cebpf4jnsgd1na2vs0mg"},{"bike_id":"6e2fd8fb-799c-468d-a60b-38d2bf81aa37","system_id":"levelo_inurba_marseille","lat":43.23959,"lon":5.36623,"is_reserved":false,"is_disabled":false,"rental_uris":{"android":"levelo://app?vid=6e2fd8fb-799c-468d-a60b-38d2bf81aa37","ios":"levelo://app?vid=6e2fd8fb-799c-468d-a60b-38d2bf81aa37"},"vehicle_type_id":"4","last_reported":1726866482,"current_range_meters":6800,"station_id":"ce4bhi12rcd13ifvqfp0","pricing_plan_id":"cebpf4jnsgd1na2vs0mg"},{"bike_id":"d2a8da80-cd33-4483-a8bf-a8c247fe5238","system_id":"levelo_inurba_marseille","lat":43.27615,"lon":5.36107,"is_reserved":false,"is_disabled":false,"rental_uris":{"android":"levelo://app?vid=d2a8da80-cd33-4483-a8bf-a8c247fe5238","ios":"levelo://app?vid=d2a8da80-cd33-4483-a8bf-a8c247fe5238"},"vehicle_type_id":"4","last_reported":1726866482,"current_range_meters":17600,"station_id":"ce4bgj92rcd13ifvqbe0","pricing_plan_id":"cebpf4jnsgd1na2vs0mg"},{"bike_id":"fb730c85-cef2-43fb-877c-de273059500e","system_id":"levelo_inurba_marseille","lat":43.31753,"lon":5.39015,"is_reserved":false,"is_disabled":false,"rental_uris":{"android":"levelo://app?vid=fb730c85-cef2-43fb-877c-de273059500e","ios":"levelo://app?vid=fb730c85-cef2-43fb-877c-de273059500e"},"vehicle_type_id":"4","last_reported":1726866482,"current_range_meters":33200,"station_id":"ce4bhqp2rcd13ifvqhng","pricing_plan_id":"cebpf4jnsgd1na2vs0mg"},{"bike_id":"5bf617b6-2eea-40a9-9576-9b6f0fdecd15","system_id":"levelo_inurba_marseille","lat":43.32371,"lon":5.38884,"is_reserved":false,"is_disabled":false,"rental_uris":{"android":"levelo://app?vid=5bf617b6-2eea-40a9-9576-9b6f0fdecd15","ios":"levelo://app?vid=5bf617b6-2eea-40a9-9576-9b6f0fdecd15"},"vehicle_type_id":"4","last_reported":1726866482,"current_range_meters":20400,"station_id":"ce4bhqp2rcd13ifvqhog","pricing_plan_id":"cebpf4jnsgd1na2vs0mg"},{"bike_id":"8de964f3-991f-47cb-98ab-ed6130191177","system_id":"levelo_inurba_marseille","lat":43.24384,"lon":5.37052,"is_reserved":false,"is_disabled":false,"rental_uris":{"android":"levelo://app?vid=8de964f3-991f-47cb-98ab-ed6130191177","ios":"levelo://app?vid=8de964f3-991f-47cb-98ab-ed6130191177"},"vehicle_type_id":"4","last_reported":1726866482,"current_range_meters":38800,"station_id":"ce4bhhh2rcd13ifvqfk0","pricing_plan_id":"cebpf4jnsgd1na2vs0mg"},{"bike_id":"4ef451ac-8a34-4f5e-b676-5410454fd6b7","system_id":"levelo_inurba_marseille","lat":43.29528,"lon":5.38547,"is_reserved":false,"is_disabled":false,"rental_uris":{"android":"levelo://app?vid=4ef451ac-8a34-4f5e-b676-5410454fd6b7","ios":"levelo://app?vid=4ef451ac-8a34-4f5e-b676-5410454fd6b7"},"vehicle_type_id":"4","last_reported":1726866482,"current_range_meters":31200,"station_id":"ce4bgih2rcd13ifvqba0","pricing_plan_id":"cebpf4jnsgd1na2vs0mg"},{"bike_id":"b08a94c7-06c2-4352-b2fd-2797e79f69bd","system_id":"levelo_inurba_marseille","lat":43.28672,"lon":5.36363,"is_reserved":false,"is_disabled":false,"rental_uris":{"android":"levelo://app?vid=b08a94c7-06c2-4352-b2fd-2797e79f69bd","ios":"levelo://app?vid=b08a94c7-06c2-4352-b2fd-2797e79f69bd"},"vehicle_type_id":"4","last_reported":1726866482,"current_range_meters":4800,"station_id":"ce4bhah2rcd13ifvqej0","pricing_plan_id":"cebpf4jnsgd1na2vs0mg"},{"bike_id":"3826dd05-8ab6-49f7-9d86-4d7c00c13f59","system_id":"levelo_inurba_marseille","lat":43.29265,"lon":5.38432,"is_reserved":false,"is_disabled":false,"rental_uris":{"android":"levelo://app?vid=3826dd05-8ab6-49f7-9d86-4d7c00c13f59","ios":"levelo://app?vid=3826dd05-8ab6-49f7-9d86-4d7c00c13f59"},"vehicle_type_id":"4","last_reported":1726866482,"current_range_meters":24000,"station_id":"ce4bh692rcd13ifvqea0","pricing_plan_id":"cebpf4jnsgd1na2vs0mg"},{"bike_id":"40b30bf1-df0a-47fd-bf93-8f163c982ffe","system_id":"levelo_inurba_marseille","lat":43.32288,"lon":5.38276,"is_reserved":false,"is_disabled":false,"rental_uris":{"android":"levelo://app?vid=40b30bf1-df0a-47fd-bf93-8f163c982ffe","ios":"levelo://app?vid=40b30bf1-df0a-47fd-bf93-8f163c982ffe"},"vehicle_type_id":"4","last_reported":1726866482,"current_range_meters":37600,"station_id":"ce4bhr12rcd13ifvqhqg","pricing_plan_id":"cebpf4jnsgd1na2vs0mg"},{"bike_id":"68253a4b-0721-43d8-b0af-837ac944a07e","system_id":"levelo_inurba_marseille","lat":43.25579,"lon":5.38241,"is_reserved":false,"is_disabled":false,"rental_uris":{"android":"levelo://app?vid=68253a4b-0721-43d8-b0af-837ac944a07e","ios":"levelo://app?vid=68253a4b-0721-43d8-b0af-837ac944a07e"},"vehicle_type_id":"4","last_reported":1726866482,"current_range_meters":38800,"station_id":"ce4bhih2rcd13ifvqfs0","pricing_plan_id":"cebpf4jnsgd1na2vs0mg"},{"bike_id":"bfe1cdd6-53c1-4b5a-831f-eaa142c1310f","system_id":"levelo_inurba_marseille","lat":43.29414,"lon":5.38628,"is_reserved":false,"is_disabled":false,"rental_uris":{"android":"levelo://app?vid=bfe1cdd6-53c1-4b5a-831f-eaa142c1310f","ios":"levelo://app?vid=bfe1cdd6-53c1-4b5a-831f-eaa142c1310f"},"vehicle_type_id":"4","last_reported":1726866482,"current_range_meters":30800,"station_id":"ce4bh2h2rcd13ifvqdh0","pricing_plan_id":"cebpf4jnsgd1na2vs0mg"},{"bike_id":"b4eb69e5-d31d-4286-8844-8afac7ffbb81","system_id":"levelo_inurba_marseille","lat":43.29574,"lon":5.37509,"is_reserved":false,"is_disabled":false,"rental_uris":{"android":"levelo://app?vid=b4eb69e5-d31d-4286-8844-8afac7ffbb81","ios":"levelo://app?vid=b4eb69e5-d31d-4286-8844-8afac7ffbb81"},"vehicle_type_id":"4","last_reported":1726866482,"current_range_meters":25200,"station_id":"ce4bgh92rcd13ifvqb50","pricing_plan_id":"cebpf4jnsgd1na2vs0mg"},{"bike_id":"533bb224-7f62-474b-82c3-56de1c306235","system_id":"levelo_inurba_marseille","lat":43.284332,"lon":5.391936,"is_reserved":false,"is_disabled":false,"rental_uris":{"android":"levelo://app?vid=533bb224-7f62-474b-82c3-56de1c306235","ios":"levelo://app?vid=533bb224-7f62-474b-82c3-56de1c306235"},"vehicle_type_id":"4","last_reported":1726866482,"current_range_meters":6000,"station_id":"ce4bhoh2rcd13ifvqh5g","pricing_plan_id":"cebpf4jnsgd1na2vs0mg"},{"bike_id":"334bda9f-fbf2-470b-8c88-9759052f039c","system_id":"levelo_inurba_marseille","lat":43.29262,"lon":5.38435,"is_reserved":false,"is_disabled":false,"rental_uris":{"android":"levelo://app?vid=334bda9f-fbf2-470b-8c88-9759052f039c","ios":"levelo://app?vid=334bda9f-fbf2-470b-8c88-9759052f039c"},"vehicle_type_id":"4","last_reported":1726866482,"current_range_meters":36800,"station_id":"ce4bh692rcd13ifvqea0","pricing_plan_id":"cebpf4jnsgd1na2vs0mg"},{"bike_id":"2cc17561-6c7d-4cae-8e48-7f2eca0877bd","system_id":"levelo_inurba_marseille","lat":43.29268,"lon":5.38432,"is_reserved":false,"is_disabled":false,"rental_uris":{"android":"levelo://app?vid=2cc17561-6c7d-4cae-8e48-7f2eca0877bd","ios":"levelo://app?vid=2cc17561-6c7d-4cae-8e48-7f2eca0877bd"},"vehicle_type_id":"4","last_reported":1726866482,"current_range_meters":32800,"station_id":"ce4bh692rcd13ifvqea0","pricing_plan_id":"cebpf4jnsgd1na2vs0mg"},{"bike_id":"2b5f3df3-01d9-4774-8717-baa4186d3ca2","system_id":"levelo_inurba_marseille","lat":43.30147,"lon":5.38084,"is_reserved":false,"is_disabled":false,"rental_uris":{"android":"levelo://app?vid=2b5f3df3-01d9-4774-8717-baa4186d3ca2","ios":"levelo://app?vid=2b5f3df3-01d9-4774-8717-baa4186d3ca2"},"vehicle_type_id":"4","last_reported":1726866482,"current_range_meters":14800,"station_id":"ce4bgjp2rcd13ifvqbh0","pricing_plan_id":"cebpf4jnsgd1na2vs0mg"},{"bike_id":"475a7ed1-c7c3-4412-9fcc-d6f1d5a8fbf6","system_id":"levelo_inurba_marseille","lat":43.24072,"lon":5.37746,"is_reserved":false,"is_disabled":false,"rental_uris":{"android":"levelo://app?vid=475a7ed1-c7c3-4412-9fcc-d6f1d5a8fbf6","ios":"levelo://app?vid=475a7ed1-c7c3-4412-9fcc-d6f1d5a8fbf6"},"vehicle_type_id":"4","last_reported":1726866482,"current_range_meters":38800,"station_id":"ce4bhnp2rcd13ifvqgvg","pricing_plan_id":"cebpf4jnsgd1na2vs0mg"},{"bike_id":"604c9531-be4f-4974-bfe2-bd7828d7386f","system_id":"levelo_inurba_marseille","lat":43.29888,"lon":5.43675,"is_reserved":false,"is_disabled":false,"rental_uris":{"android":"levelo://app?vid=604c9531-be4f-4974-bfe2-bd7828d7386f","ios":"levelo://app?vid=604c9531-be4f-4974-bfe2-bd7828d7386f"},"vehicle_type_id":"4","last_reported":1726866482,"current_range_meters":26800,"station_id":"ce4bhpp2rcd13ifvqhfg","pricing_plan_id":"cebpf4jnsgd1na2vs0mg"},{"bike_id":"c1310b37-dd83-4623-a074-f471af25c7d1","system_id":"levelo_inurba_marseille","lat":43.28445,"lon":5.39189,"is_reserved":false,"is_disabled":false,"rental_uris":{"android":"levelo://app?vid=c1310b37-dd83-4623-a074-f471af25c7d1","ios":"levelo://app?vid=c1310b37-dd83-4623-a074-f471af25c7d1"},"vehicle_type_id":"4","last_reported":1726866482,"current_range_meters":6400,"station_id":"ce4bhoh2rcd13ifvqh5g","pricing_plan_id":"cebpf4jnsgd1na2vs0mg"},{"bike_id":"713dca00-9221-4cd7-ac35-8f074cf6f847","system_id":"levelo_inurba_marseille","lat":43.31224,"lon":5.36867,"is_reserved":false,"is_disabled":false,"rental_uris":{"android":"levelo://app?vid=713dca00-9221-4cd7-ac35-8f074cf6f847","ios":"levelo://app?vid=713dca00-9221-4cd7-ac35-8f074cf6f847"},"vehicle_type_id":"4","last_reported":1726866482,"current_range_meters":35600,"station_id":"ce4bgl92rcd13ifvqbq0","pricing_plan_id":"cebpf4jnsgd1na2vs0mg"},{"bike_id":"a50bd77f-bbd1-4850-86d2-cfde8072bb41","system_id":"levelo_inurba_marseille","lat":43.3278,"lon":5.40639,"is_reserved":false,"is_disabled":false,"rental_uris":{"android":"levelo://app?vid=a50bd77f-bbd1-4850-86d2-cfde8072bb41","ios":"levelo://app?vid=a50bd77f-bbd1-4850-86d2-cfde8072bb41"},"vehicle_type_id":"4","last_reported":1726866482,"current_range_meters":28800,"station_id":"","pricing_plan_id":"cebpf4jnsgd1na2vs0mg"},{"bike_id":"67698836-92a3-45e6-84b9-6609ae2856e6","system_id":"levelo_inurba_marseille","lat":43.24802,"lon":5.37459,"is_reserved":false,"is_disabled":false,"rental_uris":{"android":"levelo://app?vid=67698836-92a3-45e6-84b9-6609ae2856e6","ios":"levelo://app?vid=67698836-92a3-45e6-84b9-6609ae2856e6"},"vehicle_type_id":"4","last_reported":1726866482,"current_range_meters":7200,"station_id":"ce4bhgh2rcd13ifvqfb0","pricing_plan_id":"cebpf4jnsgd1na2vs0mg"},{"bike_id":"e5b107f6-bfca-4c71-b7f0-138f6abcbd25","system_id":"levelo_inurba_marseille","lat":43.27371,"lon":5.36262,"is_reserved":false,"is_disabled":false,"rental_uris":{"android":"levelo://app?vid=e5b107f6-bfca-4c71-b7f0-138f6abcbd25","ios":"levelo://app?vid=e5b107f6-bfca-4c71-b7f0-138f6abcbd25"},"vehicle_type_id":"4","last_reported":1726866482,"current_range_meters":26000,"station_id":"ce4bhbh2rcd13ifvqeo0","pricing_plan_id":"cebpf4jnsgd1na2vs0mg"},{"bike_id":"b47f7abd-dffa-4594-ae10-66a4216fac59","system_id":"levelo_inurba_marseille","lat":43.31074,"lon":5.40093,"is_reserved":false,"is_disabled":false,"rental_uris":{"android":"levelo://app?vid=b47f7abd-dffa-4594-ae10-66a4216fac59","ios":"levelo://app?vid=b47f7abd-dffa-4594-ae10-66a4216fac59"},"vehicle_type_id":"4","last_reported":1726866482,"current_range_meters":13600,"station_id":"","pricing_plan_id":"cebpf4jnsgd1na2vs0mg"},{"bike_id":"2c1c989a-1509-4b3f-8e9d-91ac79062542","system_id":"levelo_inurba_marseille","lat":43.28607,"lon":5.37065,"is_reserved":false,"is_disabled":false,"rental_uris":{"android":"levelo://app?vid=2c1c989a-1509-4b3f-8e9d-91ac79062542","ios":"levelo://app?vid=2c1c989a-1509-4b3f-8e9d-91ac79062542"},"vehicle_type_id":"4","last_reported":1726866482,"current_range_meters":20400,"station_id":"ce4bht12rcd13ifvqi60","pricing_plan_id":"cebpf4jnsgd1na2vs0mg"},{"bike_id":"650e630f-f5de-460c-b5d6-507689be14ab","system_id":"levelo_inurba_marseille","lat":43.29578,"lon":5.36738,"is_reserved":false,"is_disabled":false,"rental_uris":{"android":"levelo://app?vid=650e630f-f5de-460c-b5d6-507689be14ab","ios":"levelo://app?vid=650e630f-f5de-460c-b5d6-507689be14ab"},"vehicle_type_id":"4","last_reported":1726866482,"current_range_meters":8400,"station_id":"ce4bgph2rcd13ifvqc2g","pricing_plan_id":"cebpf4jnsgd1na2vs0mg"},{"bike_id":"26bd23e7-0bd3-4acf-90df-d0d657e51cb8","system_id":"levelo_inurba_marseille","lat":43.25122,"lon":5.40321,"is_reserved":false,"is_disabled":false,"rental_uris":{"android":"levelo://app?vid=26bd23e7-0bd3-4acf-90df-d0d657e51cb8","ios":"levelo://app?vid=26bd23e7-0bd3-4acf-90df-d0d657e51cb8"},"vehicle_type_id":"4","last_reported":1726866482,"current_range_meters":38800,"station_id":"ce4bhlh2rcd13ifvqgig","pricing_plan_id":"cebpf4jnsgd1na2vs0mg"},{"bike_id":"702590b7-e39d-4709-bbd7-f9672d725e73","system_id":"levelo_inurba_marseille","lat":43.29542,"lon":5.38538,"is_reserved":false,"is_disabled":false,"rental_uris":{"android":"levelo://app?vid=702590b7-e39d-4709-bbd7-f9672d725e73","ios":"levelo://app?vid=702590b7-e39d-4709-bbd7-f9672d725e73"},"vehicle_type_id":"4","last_reported":1726866482,"current_range_meters":20400,"station_id":"ce4bgih2rcd13ifvqba0","pricing_plan_id":"cebpf4jnsgd1na2vs0mg"},{"bike_id":"542e2c69-6cd2-413d-9cfd-2c5f9a60a140","system_id":"levelo_inurba_marseille","lat":43.2407,"lon":5.37758,"is_reserved":false,"is_disabled":false,"rental_uris":{"android":"levelo://app?vid=542e2c69-6cd2-413d-9cfd-2c5f9a60a140","ios":"levelo://app?vid=542e2c69-6cd2-413d-9cfd-2c5f9a60a140"},"vehicle_type_id":"4","last_reported":1726866482,"current_range_meters":9600,"station_id":"ce4bhnp2rcd13ifvqgvg","pricing_plan_id":"cebpf4jnsgd1na2vs0mg"},{"bike_id":"f9c9be8e-ea20-4727-9516-26ff2df08de7","system_id":"levelo_inurba_marseille","lat":43.29952,"lon":5.41323,"is_reserved":false,"is_disabled":false,"rental_uris":{"android":"levelo://app?vid=f9c9be8e-ea20-4727-9516-26ff2df08de7","ios":"levelo://app?vid=f9c9be8e-ea20-4727-9516-26ff2df08de7"},"vehicle_type_id":"4","last_reported":1726866482,"current_range_meters":38800,"station_id":"ce4bhp12rcd13ifvqh9g","pricing_plan_id":"cebpf4jnsgd1na2vs0mg"},{"bike_id":"d756d334-bacd-45d9-a95a-9c972ca933d3","system_id":"levelo_inurba_marseille","lat":43.28926,"lon":5.38393,"is_reserved":false,"is_disabled":false,"rental_uris":{"android":"levelo://app?vid=d756d334-bacd-45d9-a95a-9c972ca933d3","ios":"levelo://app?vid=d756d334-bacd-45d9-a95a-9c972ca933d3"},"vehicle_type_id":"4","last_reported":1726866482,"current_range_meters":38400,"station_id":"ce4bh612rcd13ifvqe6g","pricing_plan_id":"cebpf4jnsgd1na2vs0mg"},{"bike_id":"8273c267-5219-4186-8f32-c3e55203a7ac","system_id":"levelo_inurba_marseille","lat":43.23967,"lon":5.39701,"is_reserved":false,"is_disabled":false,"rental_uris":{"android":"levelo://app?vid=8273c267-5219-4186-8f32-c3e55203a7ac","ios":"levelo://app?vid=8273c267-5219-4186-8f32-c3e55203a7ac"},"vehicle_type_id":"4","last_reported":1726866482,"current_range_meters":8400,"station_id":"","pricing_plan_id":"cebpf4jnsgd1na2vs0mg"},{"bike_id":"79ae80ec-ee51-41e3-8d81-35eef174ac0d","system_id":"levelo_inurba_marseille","lat":43.29026,"lon":5.36971,"is_reserved":false,"is_disabled":false,"rental_uris":{"android":"levelo://app?vid=79ae80ec-ee51-41e3-8d81-35eef174ac0d","ios":"levelo://app?vid=79ae80ec-ee51-41e3-8d81-35eef174ac0d"},"vehicle_type_id":"4","last_reported":1726866482,"current_range_meters":13600,"station_id":"","pricing_plan_id":"cebpf4jnsgd1na2vs0mg"},{"bike_id":"fe9ace40-aed0-4f2c-89f9-d5f740e6c7bf","system_id":"levelo_inurba_marseille","lat":43.26547,"lon":5.37287,"is_reserved":false,"is_disabled":false,"rental_uris":{"android":"levelo://app?vid=fe9ace40-aed0-4f2c-89f9-d5f740e6c7bf","ios":"levelo://app?vid=fe9ace40-aed0-4f2c-89f9-d5f740e6c7bf"},"vehicle_type_id":"4","last_reported":1726866482,"current_range_meters":38800,"station_id":"ce4bhg12rcd13ifvqf70","pricing_plan_id":"cebpf4jnsgd1na2vs0mg"},{"bike_id":"26bcda71-b863-42e6-adfb-5ef28c4fe4e5","system_id":"levelo_inurba_marseille","lat":43.30433,"lon":5.36743,"is_reserved":false,"is_disabled":false,"rental_uris":{"android":"levelo://app?vid=26bcda71-b863-42e6-adfb-5ef28c4fe4e5","ios":"levelo://app?vid=26bcda71-b863-42e6-adfb-5ef28c4fe4e5"},"vehicle_type_id":"4","last_reported":1726866482,"current_range_meters":4800,"station_id":"","pricing_plan_id":"cebpf4jnsgd1na2vs0mg"},{"bike_id":"af135eb6-084e-4310-8f38-5fdea9dc1740","system_id":"levelo_inurba_marseille","lat":43.29535,"lon":5.38546,"is_reserved":false,"is_disabled":false,"rental_uris":{"android":"levelo://app?vid=af135eb6-084e-4310-8f38-5fdea9dc1740","ios":"levelo://app?vid=af135eb6-084e-4310-8f38-5fdea9dc1740"},"vehicle_type_id":"4","last_reported":1726866482,"current_range_meters":32000,"station_id":"ce4bgih2rcd13ifvqba0","pricing_plan_id":"cebpf4jnsgd1na2vs0mg"},{"bike_id":"4ca96e9f-6934-4470-9501-bf2a45f20a8e","system_id":"levelo_inurba_marseille","lat":43.27814,"lon":5.40714,"is_reserved":false,"is_disabled":false,"rental_uris":{"android":"levelo://app?vid=4ca96e9f-6934-4470-9501-bf2a45f20a8e","ios":"levelo://app?vid=4ca96e9f-6934-4470-9501-bf2a45f20a8e"},"vehicle_type_id":"4","last_reported":1726866482,"current_range_meters":29600,"station_id":"ce4bhnh2rcd13ifvqgtg","pricing_plan_id":"cebpf4jnsgd1na2vs0mg"},{"bike_id":"5c27109f-1912-4735-961c-8b264d2a8216","system_id":"levelo_inurba_marseille","lat":43.3211,"lon":5.36769,"is_reserved":false,"is_disabled":false,"rental_uris":{"android":"levelo://app?vid=5c27109f-1912-4735-961c-8b264d2a8216","ios":"levelo://app?vid=5c27109f-1912-4735-961c-8b264d2a8216"},"vehicle_type_id":"4","last_reported":1726866482,"current_range_meters":14400,"station_id":"","pricing_plan_id":"cebpf4jnsgd1na2vs0mg"},{"bike_id":"8eb8a00b-f529-4075-9a3b-b24e35beed1d","system_id":"levelo_inurba_marseille","lat":43.30136,"lon":5.37413,"is_reserved":false,"is_disabled":false,"rental_uris":{"android":"levelo://app?vid=8eb8a00b-f529-4075-9a3b-b24e35beed1d","ios":"levelo://app?vid=8eb8a00b-f529-4075-9a3b-b24e35beed1d"},"vehicle_type_id":"4","last_reported":1726866482,"current_range_meters":33600,"station_id":"ce4bgs92rcd13ifvqcc0","pricing_plan_id":"cebpf4jnsgd1na2vs0mg"},{"bike_id":"d48f1906-adcd-45cb-a59f-a9353947a181","system_id":"levelo_inurba_marseille","lat":43.27832,"lon":5.39206,"is_reserved":false,"is_disabled":false,"rental_uris":{"android":"levelo://app?vid=d48f1906-adcd-45cb-a59f-a9353947a181","ios":"levelo://app?vid=d48f1906-adcd-45cb-a59f-a9353947a181"},"vehicle_type_id":"4","last_reported":1726866482,"current_range_meters":6800,"station_id":"ce4bhjp2rcd13ifvqga0","pricing_plan_id":"cebpf4jnsgd1na2vs0mg"},{"bike_id":"6c34ccae-402e-40b8-9c0d-2e7f312c8354","system_id":"levelo_inurba_marseille","lat":43.25493,"lon":5.3765,"is_reserved":false,"is_disabled":false,"rental_uris":{"android":"levelo://app?vid=6c34ccae-402e-40b8-9c0d-2e7f312c8354","ios":"levelo://app?vid=6c34ccae-402e-40b8-9c0d-2e7f312c8354"},"vehicle_type_id":"4","last_reported":1726866482,"current_range_meters":30400,"station_id":"ce4bhh12rcd13ifvqff0","pricing_plan_id":"cebpf4jnsgd1na2vs0mg"},{"bike_id":"2c4d5dd6-b3fc-4e99-ae10-37420ed7722b","system_id":"levelo_inurba_marseille","lat":43.31996,"lon":5.3816,"is_reserved":false,"is_disabled":false,"rental_uris":{"android":"levelo://app?vid=2c4d5dd6-b3fc-4e99-ae10-37420ed7722b","ios":"levelo://app?vid=2c4d5dd6-b3fc-4e99-ae10-37420ed7722b"},"vehicle_type_id":"4","last_reported":1726866482,"current_range_meters":38800,"station_id":"ce4bhr12rcd13ifvqhpg","pricing_plan_id":"cebpf4jnsgd1na2vs0mg"},{"bike_id":"23e5fcf4-4fac-4b05-9a6c-be73f5a6d743","system_id":"levelo_inurba_marseille","lat":43.28157,"lon":5.42646,"is_reserved":false,"is_disabled":false,"rental_uris":{"android":"levelo://app?vid=23e5fcf4-4fac-4b05-9a6c-be73f5a6d743","ios":"levelo://app?vid=23e5fcf4-4fac-4b05-9a6c-be73f5a6d743"},"vehicle_type_id":"4","last_reported":1726866482,"current_range_meters":20000,"station_id":"ce4bhnh2rcd13ifvqgug","pricing_plan_id":"cebpf4jnsgd1na2vs0mg"},{"bike_id":"76b7353e-a7db-430d-99ec-f1938083a85d","system_id":"levelo_inurba_marseille","lat":43.29418,"lon":5.38628,"is_reserved":false,"is_disabled":false,"rental_uris":{"android":"levelo://app?vid=76b7353e-a7db-430d-99ec-f1938083a85d","ios":"levelo://app?vid=76b7353e-a7db-430d-99ec-f1938083a85d"},"vehicle_type_id":"4","last_reported":1726866482,"current_range_meters":8000,"station_id":"ce4bh2h2rcd13ifvqdh0","pricing_plan_id":"cebpf4jnsgd1na2vs0mg"},{"bike_id":"a74fa68d-2e2b-422d-a6e3-0794b6ef5ee3","system_id":"levelo_inurba_marseille","lat":43.23966,"lon":5.3663,"is_reserved":false,"is_disabled":false,"rental_uris":{"android":"levelo://app?vid=a74fa68d-2e2b-422d-a6e3-0794b6ef5ee3","ios":"levelo://app?vid=a74fa68d-2e2b-422d-a6e3-0794b6ef5ee3"},"vehicle_type_id":"4","last_reported":1726866482,"current_range_meters":21600,"station_id":"ce4bhi12rcd13ifvqfp0","pricing_plan_id":"cebpf4jnsgd1na2vs0mg"},{"bike_id":"0039f2f3-724c-4e9c-ad07-303eb89fe473","system_id":"levelo_inurba_marseille","lat":43.26937,"lon":5.40258,"is_reserved":false,"is_disabled":false,"rental_uris":{"android":"levelo://app?vid=0039f2f3-724c-4e9c-ad07-303eb89fe473","ios":"levelo://app?vid=0039f2f3-724c-4e9c-ad07-303eb89fe473"},"vehicle_type_id":"4","last_reported":1726866482,"current_range_meters":6800,"station_id":"cjm6bp8fraef2m0cb0m0","pricing_plan_id":"cebpf4jnsgd1na2vs0mg"},{"bike_id":"7b9dd459-340b-4978-bfb0-6c163a5263e8","system_id":"levelo_inurba_marseille","lat":43.23193,"lon":5.35554,"is_reserved":false,"is_disabled":false,"rental_uris":{"android":"levelo://app?vid=7b9dd459-340b-4978-bfb0-6c163a5263e8","ios":"levelo://app?vid=7b9dd459-340b-4978-bfb0-6c163a5263e8"},"vehicle_type_id":"4","last_reported":1726866482,"current_range_meters":38800,"station_id":"ce4bhu92rcd13ifvqi70","pricing_plan_id":"cebpf4jnsgd1na2vs0mg"},{"bike_id":"14af6286-56f0-4221-b0cf-f9a5d206a408","system_id":"levelo_inurba_marseille","lat":43.31073,"lon":5.38353,"is_reserved":false,"is_disabled":false,"rental_uris":{"android":"levelo://app?vid=14af6286-56f0-4221-b0cf-f9a5d206a408","ios":"levelo://app?vid=14af6286-56f0-4221-b0cf-f9a5d206a408"},"vehicle_type_id":"4","last_reported":1726866482,"current_range_meters":800,"station_id":"ce4bgv92rcd13ifvqcr0","pricing_plan_id":"cebpf4jnsgd1na2vs0mg"},{"bike_id":"e9b8e590-3bc0-4c22-b946-0db314d5083d","system_id":"levelo_inurba_marseille","lat":43.25855,"lon":5.39903,"is_reserved":false,"is_disabled":false,"rental_uris":{"android":"levelo://app?vid=e9b8e590-3bc0-4c22-b946-0db314d5083d","ios":"levelo://app?vid=e9b8e590-3bc0-4c22-b946-0db314d5083d"},"vehicle_type_id":"4","last_reported":1726866482,"current_range_meters":8400,"station_id":"ce4bhl92rcd13ifvqghg","pricing_plan_id":"cebpf4jnsgd1na2vs0mg"},{"bike_id":"3740c6df-06cd-419b-9ae6-b8d9e5eff548","system_id":"levelo_inurba_marseille","lat":43.2753,"lon":5.40935,"is_reserved":false,"is_disabled":false,"rental_uris":{"android":"levelo://app?vid=3740c6df-06cd-419b-9ae6-b8d9e5eff548","ios":"levelo://app?vid=3740c6df-06cd-419b-9ae6-b8d9e5eff548"},"vehicle_type_id":"4","last_reported":1726866482,"current_range_meters":20800,"station_id":"","pricing_plan_id":"cebpf4jnsgd1na2vs0mg"},{"bike_id":"c1310ede-ad61-4c2e-8a74-54f128e3bf20","system_id":"levelo_inurba_marseille","lat":43.29538,"lon":5.385546,"is_reserved":false,"is_disabled":false,"rental_uris":{"android":"levelo://app?vid=c1310ede-ad61-4c2e-8a74-54f128e3bf20","ios":"levelo://app?vid=c1310ede-ad61-4c2e-8a74-54f128e3bf20"},"vehicle_type_id":"4","last_reported":1726866482,"current_range_meters":24400,"station_id":"ce4bgih2rcd13ifvqba0","pricing_plan_id":"cebpf4jnsgd1na2vs0mg"},{"bike_id":"51f5754a-5fa4-496b-92aa-8db5fb5c04c9","system_id":"levelo_inurba_marseille","lat":43.32343,"lon":5.40624,"is_reserved":false,"is_disabled":false,"rental_uris":{"android":"levelo://app?vid=51f5754a-5fa4-496b-92aa-8db5fb5c04c9","ios":"levelo://app?vid=51f5754a-5fa4-496b-92aa-8db5fb5c04c9"},"vehicle_type_id":"4","last_reported":1726866482,"current_range_meters":20000,"station_id":"ce4bhq92rcd13ifvqhjg","pricing_plan_id":"cebpf4jnsgd1na2vs0mg"},{"bike_id":"2ce703b4-f868-4226-bdab-b34d4cd84ef6","system_id":"levelo_inurba_marseille","lat":43.33022,"lon":5.39042,"is_reserved":false,"is_disabled":false,"rental_uris":{"android":"levelo://app?vid=2ce703b4-f868-4226-bdab-b34d4cd84ef6","ios":"levelo://app?vid=2ce703b4-f868-4226-bdab-b34d4cd84ef6"},"vehicle_type_id":"4","last_reported":1726866482,"current_range_meters":9200,"station_id":"ce4bhr92rcd13ifvqhrg","pricing_plan_id":"cebpf4jnsgd1na2vs0mg"},{"bike_id":"d766c9eb-3ef0-40c0-bd1f-0ee80e0bfc9a","system_id":"levelo_inurba_marseille","lat":43.29933,"lon":5.3654,"is_reserved":false,"is_disabled":false,"rental_uris":{"android":"levelo://app?vid=d766c9eb-3ef0-40c0-bd1f-0ee80e0bfc9a","ios":"levelo://app?vid=d766c9eb-3ef0-40c0-bd1f-0ee80e0bfc9a"},"vehicle_type_id":"4","last_reported":1726866482,"current_range_meters":3600,"station_id":"ce4bgm92rcd13ifvqbr0","pricing_plan_id":"cebpf4jnsgd1na2vs0mg"},{"bike_id":"e2b0ed0c-95b5-4167-83ff-0ba8e83b9e80","system_id":"levelo_inurba_marseille","lat":43.28945,"lon":5.36638,"is_reserved":false,"is_disabled":false,"rental_uris":{"android":"levelo://app?vid=e2b0ed0c-95b5-4167-83ff-0ba8e83b9e80","ios":"levelo://app?vid=e2b0ed0c-95b5-4167-83ff-0ba8e83b9e80"},"vehicle_type_id":"4","last_reported":1726866482,"current_range_meters":34000,"station_id":"ce4bhap2rcd13ifvqek0","pricing_plan_id":"cebpf4jnsgd1na2vs0mg"},{"bike_id":"422925b0-a793-4796-b72f-761108954c4d","system_id":"levelo_inurba_marseille","lat":43.28408,"lon":5.37519,"is_reserved":false,"is_disabled":false,"rental_uris":{"android":"levelo://app?vid=422925b0-a793-4796-b72f-761108954c4d","ios":"levelo://app?vid=422925b0-a793-4796-b72f-761108954c4d"},"vehicle_type_id":"4","last_reported":1726866482,"current_range_meters":38800,"station_id":"ce4bh412rcd13ifvqds0","pricing_plan_id":"cebpf4jnsgd1na2vs0mg"},{"bike_id":"60460f01-4fc1-4471-a1cc-fd64c0c52430","system_id":"levelo_inurba_marseille","lat":43.31326,"lon":5.39694,"is_reserved":false,"is_disabled":false,"rental_uris":{"android":"levelo://app?vid=60460f01-4fc1-4471-a1cc-fd64c0c52430","ios":"levelo://app?vid=60460f01-4fc1-4471-a1cc-fd64c0c52430"},"vehicle_type_id":"4","last_reported":1726866482,"current_range_meters":39200,"station_id":"ce4bgvp2rcd13ifvqcu0","pricing_plan_id":"cebpf4jnsgd1na2vs0mg"},{"bike_id":"aa920dc3-8475-4ea9-a170-3de0cd7446a2","system_id":"levelo_inurba_marseille","lat":43.30421,"lon":5.4128,"is_reserved":false,"is_disabled":false,"rental_uris":{"android":"levelo://app?vid=aa920dc3-8475-4ea9-a170-3de0cd7446a2","ios":"levelo://app?vid=aa920dc3-8475-4ea9-a170-3de0cd7446a2"},"vehicle_type_id":"4","last_reported":1726866482,"current_range_meters":32000,"station_id":"ce4bhop2rcd13ifvqh8g","pricing_plan_id":"cebpf4jnsgd1na2vs0mg"},{"bike_id":"45d1efd4-7555-4804-9231-37c3181ee86a","system_id":"levelo_inurba_marseille","lat":43.29094,"lon":5.38132,"is_reserved":false,"is_disabled":false,"rental_uris":{"android":"levelo://app?vid=45d1efd4-7555-4804-9231-37c3181ee86a","ios":"levelo://app?vid=45d1efd4-7555-4804-9231-37c3181ee86a"},"vehicle_type_id":"4","last_reported":1726866482,"current_range_meters":6800,"station_id":"ce4bh512rcd13ifvqe2g","pricing_plan_id":"cebpf4jnsgd1na2vs0mg"},{"bike_id":"e6692a3a-2a66-4c49-bd42-63aeebd5ffd2","system_id":"levelo_inurba_marseille","lat":43.29529,"lon":5.38545,"is_reserved":false,"is_disabled":false,"rental_uris":{"android":"levelo://app?vid=e6692a3a-2a66-4c49-bd42-63aeebd5ffd2","ios":"levelo://app?vid=e6692a3a-2a66-4c49-bd42-63aeebd5ffd2"},"vehicle_type_id":"4","last_reported":1726866482,"current_range_meters":38800,"station_id":"ce4bgih2rcd13ifvqba0","pricing_plan_id":"cebpf4jnsgd1na2vs0mg"},{"bike_id":"b4ea877f-e8bd-4ebc-b318-5ca882458b5a","system_id":"levelo_inurba_marseille","lat":43.29422,"lon":5.3862,"is_reserved":false,"is_disabled":false,"rental_uris":{"android":"levelo://app?vid=b4ea877f-e8bd-4ebc-b318-5ca882458b5a","ios":"levelo://app?vid=b4ea877f-e8bd-4ebc-b318-5ca882458b5a"},"vehicle_type_id":"4","last_reported":1726866482,"current_range_meters":38800,"station_id":"ce4bh2h2rcd13ifvqdh0","pricing_plan_id":"cebpf4jnsgd1na2vs0mg"},{"bike_id":"3261e81d-6f13-45a4-ba96-33ed382e28e0","system_id":"levelo_inurba_marseille","lat":43.28073,"lon":5.39649,"is_reserved":false,"is_disabled":false,"rental_uris":{"android":"levelo://app?vid=3261e81d-6f13-45a4-ba96-33ed382e28e0","ios":"levelo://app?vid=3261e81d-6f13-45a4-ba96-33ed382e28e0"},"vehicle_type_id":"4","last_reported":1726866482,"current_range_meters":38000,"station_id":"ce4bho12rcd13ifvqh2g","pricing_plan_id":"cebpf4jnsgd1na2vs0mg"},{"bike_id":"13bb80a5-7bdd-494b-ab61-ee1a5d50e2dd","system_id":"levelo_inurba_marseille","lat":43.28941,"lon":5.36638,"is_reserved":false,"is_disabled":false,"rental_uris":{"android":"levelo://app?vid=13bb80a5-7bdd-494b-ab61-ee1a5d50e2dd","ios":"levelo://app?vid=13bb80a5-7bdd-494b-ab61-ee1a5d50e2dd"},"vehicle_type_id":"4","last_reported":1726866482,"current_range_meters":38400,"station_id":"ce4bhap2rcd13ifvqek0","pricing_plan_id":"cebpf4jnsgd1na2vs0mg"},{"bike_id":"81437a93-aba3-423a-96ab-d420c4e83f71","system_id":"levelo_inurba_marseille","lat":43.31756,"lon":5.39011,"is_reserved":false,"is_disabled":false,"rental_uris":{"android":"levelo://app?vid=81437a93-aba3-423a-96ab-d420c4e83f71","ios":"levelo://app?vid=81437a93-aba3-423a-96ab-d420c4e83f71"},"vehicle_type_id":"4","last_reported":1726866482,"current_range_meters":24400,"station_id":"ce4bhqp2rcd13ifvqhng","pricing_plan_id":"cebpf4jnsgd1na2vs0mg"},{"bike_id":"d2706fbe-18f3-458c-bfe9-80da06e0e43f","system_id":"levelo_inurba_marseille","lat":43.28487,"lon":5.38566,"is_reserved":false,"is_disabled":false,"rental_uris":{"android":"levelo://app?vid=d2706fbe-18f3-458c-bfe9-80da06e0e43f","ios":"levelo://app?vid=d2706fbe-18f3-458c-bfe9-80da06e0e43f"},"vehicle_type_id":"4","last_reported":1726866482,"current_range_meters":19600,"station_id":"ce4bh8p2rcd13ifvqeb0","pricing_plan_id":"cebpf4jnsgd1na2vs0mg"},{"bike_id":"7b0f6396-f6bf-4400-8203-896f7d4134f2","system_id":"levelo_inurba_marseille","lat":43.32736,"lon":5.39097,"is_reserved":false,"is_disabled":false,"rental_uris":{"android":"levelo://app?vid=7b0f6396-f6bf-4400-8203-896f7d4134f2","ios":"levelo://app?vid=7b0f6396-f6bf-4400-8203-896f7d4134f2"},"vehicle_type_id":"4","last_reported":1726866482,"current_range_meters":24000,"station_id":"","pricing_plan_id":"cebpf4jnsgd1na2vs0mg"},{"bike_id":"5dbf0a97-01ea-429c-9b37-7b07b35fe253","system_id":"levelo_inurba_marseille","lat":43.25582,"lon":5.38237,"is_reserved":false,"is_disabled":false,"rental_uris":{"android":"levelo://app?vid=5dbf0a97-01ea-429c-9b37-7b07b35fe253","ios":"levelo://app?vid=5dbf0a97-01ea-429c-9b37-7b07b35fe253"},"vehicle_type_id":"4","last_reported":1726866482,"current_range_meters":30000,"station_id":"ce4bhih2rcd13ifvqfs0","pricing_plan_id":"cebpf4jnsgd1na2vs0mg"},{"bike_id":"2eac50e5-7011-4a43-8936-b2ff6ff99a36","system_id":"levelo_inurba_marseille","lat":43.31069,"lon":5.38355,"is_reserved":false,"is_disabled":false,"rental_uris":{"android":"levelo://app?vid=2eac50e5-7011-4a43-8936-b2ff6ff99a36","ios":"levelo://app?vid=2eac50e5-7011-4a43-8936-b2ff6ff99a36"},"vehicle_type_id":"4","last_reported":1726866482,"current_range_meters":27600,"station_id":"ce4bgv92rcd13ifvqcr0","pricing_plan_id":"cebpf4jnsgd1na2vs0mg"},{"bike_id":"bdc2dd31-442c-4eeb-b951-a54134fa2840","system_id":"levelo_inurba_marseille","lat":43.28026,"lon":5.3695,"is_reserved":false,"is_disabled":false,"rental_uris":{"android":"levelo://app?vid=bdc2dd31-442c-4eeb-b951-a54134fa2840","ios":"levelo://app?vid=bdc2dd31-442c-4eeb-b951-a54134fa2840"},"vehicle_type_id":"4","last_reported":1726866482,"current_range_meters":19600,"station_id":"ce4bha12rcd13ifvqef0","pricing_plan_id":"cebpf4jnsgd1na2vs0mg"},{"bike_id":"4f6cd953-65f5-4d4f-a052-70118d864e1d","system_id":"levelo_inurba_marseille","lat":43.29893,"lon":5.43669,"is_reserved":false,"is_disabled":false,"rental_uris":{"android":"levelo://app?vid=4f6cd953-65f5-4d4f-a052-70118d864e1d","ios":"levelo://app?vid=4f6cd953-65f5-4d4f-a052-70118d864e1d"},"vehicle_type_id":"4","last_reported":1726866482,"current_range_meters":11200,"station_id":"ce4bhpp2rcd13ifvqhfg","pricing_plan_id":"cebpf4jnsgd1na2vs0mg"},{"bike_id":"f6f0a682-a47f-48a4-a5a5-668dde5e1a81","system_id":"levelo_inurba_marseille","lat":43.2903,"lon":5.386477,"is_reserved":false,"is_disabled":false,"rental_uris":{"android":"levelo://app?vid=f6f0a682-a47f-48a4-a5a5-668dde5e1a81","ios":"levelo://app?vid=f6f0a682-a47f-48a4-a5a5-668dde5e1a81"},"vehicle_type_id":"4","last_reported":1726866482,"current_range_meters":19600,"station_id":"ce4bh692rcd13ifvqe90","pricing_plan_id":"cebpf4jnsgd1na2vs0mg"},{"bike_id":"80f5bd84-9029-4edb-a73d-f2be862fb6db","system_id":"levelo_inurba_marseille","lat":43.30796,"lon":5.38148,"is_reserved":false,"is_disabled":false,"rental_uris":{"android":"levelo://app?vid=80f5bd84-9029-4edb-a73d-f2be862fb6db","ios":"levelo://app?vid=80f5bd84-9029-4edb-a73d-f2be862fb6db"},"vehicle_type_id":"4","last_reported":1726866482,"current_range_meters":18000,"station_id":"ce4bgt12rcd13ifvqce0","pricing_plan_id":"cebpf4jnsgd1na2vs0mg"},{"bike_id":"0cbd7f65-c27f-4154-af83-97063396f9fb","system_id":"levelo_inurba_marseille","lat":43.29734,"lon":5.39271,"is_reserved":false,"is_disabled":false,"rental_uris":{"android":"levelo://app?vid=0cbd7f65-c27f-4154-af83-97063396f9fb","ios":"levelo://app?vid=0cbd7f65-c27f-4154-af83-97063396f9fb"},"vehicle_type_id":"4","last_reported":1726866482,"current_range_meters":26800,"station_id":"","pricing_plan_id":"cebpf4jnsgd1na2vs0mg"},{"bike_id":"019fb69a-1999-4333-8000-b962cec133fb","system_id":"levelo_inurba_marseille","lat":43.30714,"lon":5.40136,"is_reserved":false,"is_disabled":false,"rental_uris":{"android":"levelo://app?vid=019fb69a-1999-4333-8000-b962cec133fb","ios":"levelo://app?vid=019fb69a-1999-4333-8000-b962cec133fb"},"vehicle_type_id":"4","last_reported":1726866482,"current_range_meters":18800,"station_id":"ce4bh112rcd13ifvqda0","pricing_plan_id":"cebpf4jnsgd1na2vs0mg"},{"bike_id":"610ae2bc-1ce0-4157-8b8a-62d460f1da9c","system_id":"levelo_inurba_marseille","lat":43.22922,"lon":5.35376,"is_reserved":false,"is_disabled":false,"rental_uris":{"android":"levelo://app?vid=610ae2bc-1ce0-4157-8b8a-62d460f1da9c","ios":"levelo://app?vid=610ae2bc-1ce0-4157-8b8a-62d460f1da9c"},"vehicle_type_id":"4","last_reported":1726866482,"current_range_meters":8800,"station_id":"cpo3532slgdg3j2ikp40","pricing_plan_id":"cebpf4jnsgd1na2vs0mg"},{"bike_id":"437d7254-4081-4ab2-bd2e-34dedca9de98","system_id":"levelo_inurba_marseille","lat":43.307802,"lon":5.376508,"is_reserved":false,"is_disabled":false,"rental_uris":{"android":"levelo://app?vid=437d7254-4081-4ab2-bd2e-34dedca9de98","ios":"levelo://app?vid=437d7254-4081-4ab2-bd2e-34dedca9de98"},"vehicle_type_id":"4","last_reported":1726866482,"current_range_meters":17600,"station_id":"ce4bgt12rcd13ifvqce0","pricing_plan_id":"cebpf4jnsgd1na2vs0mg"},{"bike_id":"9a7dede3-b204-43db-8da6-f6e0bcc0c9a5","system_id":"levelo_inurba_marseille","lat":43.29312,"lon":5.37174,"is_reserved":false,"is_disabled":false,"rental_uris":{"android":"levelo://app?vid=9a7dede3-b204-43db-8da6-f6e0bcc0c9a5","ios":"levelo://app?vid=9a7dede3-b204-43db-8da6-f6e0bcc0c9a5"},"vehicle_type_id":"4","last_reported":1726866482,"current_range_meters":28400,"station_id":"ce4bgh92rcd13ifvqb40","pricing_plan_id":"cebpf4jnsgd1na2vs0mg"},{"bike_id":"2e0ad234-46bd-4aa7-aed9-b44f50fc5c66","system_id":"levelo_inurba_marseille","lat":43.28083,"lon":5.39657,"is_reserved":false,"is_disabled":false,"rental_uris":{"android":"levelo://app?vid=2e0ad234-46bd-4aa7-aed9-b44f50fc5c66","ios":"levelo://app?vid=2e0ad234-46bd-4aa7-aed9-b44f50fc5c66"},"vehicle_type_id":"4","last_reported":1726866482,"current_range_meters":38800,"station_id":"ce4bho12rcd13ifvqh2g","pricing_plan_id":"cebpf4jnsgd1na2vs0mg"},{"bike_id":"07a9127e-63c0-40ea-afa2-346a24b47062","system_id":"levelo_inurba_marseille","lat":43.29599,"lon":5.381033,"is_reserved":false,"is_disabled":false,"rental_uris":{"android":"levelo://app?vid=07a9127e-63c0-40ea-afa2-346a24b47062","ios":"levelo://app?vid=07a9127e-63c0-40ea-afa2-346a24b47062"},"vehicle_type_id":"4","last_reported":1726866482,"current_range_meters":38800,"station_id":"ce4bgl12rcd13ifvqbo0","pricing_plan_id":"cebpf4jnsgd1na2vs0mg"},{"bike_id":"2d700918-3b04-4447-889c-72200ae96d85","system_id":"levelo_inurba_marseille","lat":43.30142,"lon":5.38791,"is_reserved":false,"is_disabled":false,"rental_uris":{"android":"levelo://app?vid=2d700918-3b04-4447-889c-72200ae96d85","ios":"levelo://app?vid=2d700918-3b04-4447-889c-72200ae96d85"},"vehicle_type_id":"4","last_reported":1726866482,"current_range_meters":14000,"station_id":"ce4bghh2rcd13ifvqb60","pricing_plan_id":"cebpf4jnsgd1na2vs0mg"},{"bike_id":"58014cc6-4f39-4119-a8a0-cdc0e2507820","system_id":"levelo_inurba_marseille","lat":43.32287,"lon":5.38277,"is_reserved":false,"is_disabled":false,"rental_uris":{"android":"levelo://app?vid=58014cc6-4f39-4119-a8a0-cdc0e2507820","ios":"levelo://app?vid=58014cc6-4f39-4119-a8a0-cdc0e2507820"},"vehicle_type_id":"4","last_reported":1726866482,"current_range_meters":39200,"station_id":"ce4bhr12rcd13ifvqhqg","pricing_plan_id":"cebpf4jnsgd1na2vs0mg"},{"bike_id":"7da8c4d9-dc63-4382-94e4-d811dc2ac32c","system_id":"levelo_inurba_marseille","lat":43.29569,"lon":5.37509,"is_reserved":false,"is_disabled":false,"rental_uris":{"android":"levelo://app?vid=7da8c4d9-dc63-4382-94e4-d811dc2ac32c","ios":"levelo://app?vid=7da8c4d9-dc63-4382-94e4-d811dc2ac32c"},"vehicle_type_id":"4","last_reported":1726866482,"current_range_meters":38800,"station_id":"ce4bgh92rcd13ifvqb50","pricing_plan_id":"cebpf4jnsgd1na2vs0mg"},{"bike_id":"7bf73dc9-c1ca-473f-ba3d-0c39cb05dc85","system_id":"levelo_inurba_marseille","lat":43.28456,"lon":5.35899,"is_reserved":false,"is_disabled":false,"rental_uris":{"android":"levelo://app?vid=7bf73dc9-c1ca-473f-ba3d-0c39cb05dc85","ios":"levelo://app?vid=7bf73dc9-c1ca-473f-ba3d-0c39cb05dc85"},"vehicle_type_id":"4","last_reported":1726866482,"current_range_meters":32000,"station_id":"ce4bhah2rcd13ifvqei0","pricing_plan_id":"cebpf4jnsgd1na2vs0mg"},{"bike_id":"64e79484-97e5-4ba5-b180-557cc92ad669","system_id":"levelo_inurba_marseille","lat":43.28355,"lon":5.38634,"is_reserved":false,"is_disabled":false,"rental_uris":{"android":"levelo://app?vid=64e79484-97e5-4ba5-b180-557cc92ad669","ios":"levelo://app?vid=64e79484-97e5-4ba5-b180-557cc92ad669"},"vehicle_type_id":"4","last_reported":1726866482,"current_range_meters":11600,"station_id":"ce4bh492rcd13ifvqdvg","pricing_plan_id":"cebpf4jnsgd1na2vs0mg"},{"bike_id":"135a9a01-ae33-4dc2-882a-5fa02e4d035c","system_id":"levelo_inurba_marseille","lat":43.299011,"lon":5.383156,"is_reserved":false,"is_disabled":false,"rental_uris":{"android":"levelo://app?vid=135a9a01-ae33-4dc2-882a-5fa02e4d035c","ios":"levelo://app?vid=135a9a01-ae33-4dc2-882a-5fa02e4d035c"},"vehicle_type_id":"4","last_reported":1726866482,"current_range_meters":8800,"station_id":"ce4bgv12rcd13ifvqcp0","pricing_plan_id":"cebpf4jnsgd1na2vs0mg"},{"bike_id":"bce83964-771d-421d-a795-c2b376c5b9dc","system_id":"levelo_inurba_marseille","lat":43.23193,"lon":5.35559,"is_reserved":false,"is_disabled":false,"rental_uris":{"android":"levelo://app?vid=bce83964-771d-421d-a795-c2b376c5b9dc","ios":"levelo://app?vid=bce83964-771d-421d-a795-c2b376c5b9dc"},"vehicle_type_id":"4","last_reported":1726866482,"current_range_meters":18800,"station_id":"ce4bhu92rcd13ifvqi70","pricing_plan_id":"cebpf4jnsgd1na2vs0mg"},{"bike_id":"a97cb894-569c-482a-a5be-24e1e69cc4a4","system_id":"levelo_inurba_marseille","lat":43.2884,"lon":5.35852,"is_reserved":false,"is_disabled":false,"rental_uris":{"android":"levelo://app?vid=a97cb894-569c-482a-a5be-24e1e69cc4a4","ios":"levelo://app?vid=a97cb894-569c-482a-a5be-24e1e69cc4a4"},"vehicle_type_id":"4","last_reported":1726866482,"current_range_meters":20800,"station_id":"ce4bhb12rcd13ifvqem0","pricing_plan_id":"cebpf4jnsgd1na2vs0mg"},{"bike_id":"19e4049d-a189-4fa1-8bd7-bc0db85fa566","system_id":"levelo_inurba_marseille","lat":43.29418,"lon":5.3863,"is_reserved":false,"is_disabled":false,"rental_uris":{"android":"levelo://app?vid=19e4049d-a189-4fa1-8bd7-bc0db85fa566","ios":"levelo://app?vid=19e4049d-a189-4fa1-8bd7-bc0db85fa566"},"vehicle_type_id":"4","last_reported":1726866482,"current_range_meters":2800,"station_id":"ce4bh2h2rcd13ifvqdh0","pricing_plan_id":"cebpf4jnsgd1na2vs0mg"},{"bike_id":"16d37c8f-5fa8-4434-82e8-aaa03d300914","system_id":"levelo_inurba_marseille","lat":43.28924,"lon":5.38392,"is_reserved":false,"is_disabled":false,"rental_uris":{"android":"levelo://app?vid=16d37c8f-5fa8-4434-82e8-aaa03d300914","ios":"levelo://app?vid=16d37c8f-5fa8-4434-82e8-aaa03d300914"},"vehicle_type_id":"4","last_reported":1726866482,"current_range_meters":9600,"station_id":"ce4bh612rcd13ifvqe6g","pricing_plan_id":"cebpf4jnsgd1na2vs0mg"},{"bike_id":"5c4bffed-0019-4b39-a45e-d1fccf257ffb","system_id":"levelo_inurba_marseille","lat":43.3133,"lon":5.397,"is_reserved":false,"is_disabled":false,"rental_uris":{"android":"levelo://app?vid=5c4bffed-0019-4b39-a45e-d1fccf257ffb","ios":"levelo://app?vid=5c4bffed-0019-4b39-a45e-d1fccf257ffb"},"vehicle_type_id":"4","last_reported":1726866482,"current_range_meters":29600,"station_id":"ce4bgvp2rcd13ifvqcu0","pricing_plan_id":"cebpf4jnsgd1na2vs0mg"},{"bike_id":"4bc555cb-e6a9-407c-a17e-97ad3d918bd6","system_id":"levelo_inurba_marseille","lat":43.27618,"lon":5.36105,"is_reserved":false,"is_disabled":false,"rental_uris":{"android":"levelo://app?vid=4bc555cb-e6a9-407c-a17e-97ad3d918bd6","ios":"levelo://app?vid=4bc555cb-e6a9-407c-a17e-97ad3d918bd6"},"vehicle_type_id":"4","last_reported":1726866482,"current_range_meters":37600,"station_id":"ce4bgj92rcd13ifvqbe0","pricing_plan_id":"cebpf4jnsgd1na2vs0mg"},{"bike_id":"19c047d1-8b34-476a-a574-87cd06cc1975","system_id":"levelo_inurba_marseille","lat":43.29195,"lon":5.39318,"is_reserved":false,"is_disabled":false,"rental_uris":{"android":"levelo://app?vid=19c047d1-8b34-476a-a574-87cd06cc1975","ios":"levelo://app?vid=19c047d1-8b34-476a-a574-87cd06cc1975"},"vehicle_type_id":"4","last_reported":1726866482,"current_range_meters":3600,"station_id":"ce4bh192rcd13ifvqdd0","pricing_plan_id":"cebpf4jnsgd1na2vs0mg"},{"bike_id":"99cd03d9-f961-49a3-ba27-937343d02a5c","system_id":"levelo_inurba_marseille","lat":43.29269,"lon":5.36843,"is_reserved":false,"is_disabled":false,"rental_uris":{"android":"levelo://app?vid=99cd03d9-f961-49a3-ba27-937343d02a5c","ios":"levelo://app?vid=99cd03d9-f961-49a3-ba27-937343d02a5c"},"vehicle_type_id":"4","last_reported":1726866482,"current_range_meters":38800,"station_id":"ce4bhbp2rcd13ifvqesg","pricing_plan_id":"cebpf4jnsgd1na2vs0mg"},{"bike_id":"275d1b5e-4546-4577-afd9-b14fa07bb6c5","system_id":"levelo_inurba_marseille","lat":43.303314,"lon":5.404291,"is_reserved":false,"is_disabled":false,"rental_uris":{"android":"levelo://app?vid=275d1b5e-4546-4577-afd9-b14fa07bb6c5","ios":"levelo://app?vid=275d1b5e-4546-4577-afd9-b14fa07bb6c5"},"vehicle_type_id":"4","last_reported":1726866482,"current_range_meters":24800,"station_id":"ce4bh012rcd13ifvqd10","pricing_plan_id":"cebpf4jnsgd1na2vs0mg"},{"bike_id":"c98ca72a-dc66-405e-8f09-a31f0e288995","system_id":"levelo_inurba_marseille","lat":43.32042,"lon":5.41546,"is_reserved":false,"is_disabled":false,"rental_uris":{"android":"levelo://app?vid=c98ca72a-dc66-405e-8f09-a31f0e288995","ios":"levelo://app?vid=c98ca72a-dc66-405e-8f09-a31f0e288995"},"vehicle_type_id":"4","last_reported":1726866482,"current_range_meters":22000,"station_id":"ce4bhq92rcd13ifvqhkg","pricing_plan_id":"cebpf4jnsgd1na2vs0mg"},{"bike_id":"b5840fd6-e3f9-451b-a2fc-ac9f594ce5e2","system_id":"levelo_inurba_marseille","lat":43.29262,"lon":5.38444,"is_reserved":false,"is_disabled":false,"rental_uris":{"android":"levelo://app?vid=b5840fd6-e3f9-451b-a2fc-ac9f594ce5e2","ios":"levelo://app?vid=b5840fd6-e3f9-451b-a2fc-ac9f594ce5e2"},"vehicle_type_id":"4","last_reported":1726866482,"current_range_meters":29600,"station_id":"ce4bh692rcd13ifvqea0","pricing_plan_id":"cebpf4jnsgd1na2vs0mg"},{"bike_id":"2bff59b5-cdd3-434d-b96d-330b187f81f7","system_id":"levelo_inurba_marseille","lat":43.29023,"lon":5.38635,"is_reserved":false,"is_disabled":false,"rental_uris":{"android":"levelo://app?vid=2bff59b5-cdd3-434d-b96d-330b187f81f7","ios":"levelo://app?vid=2bff59b5-cdd3-434d-b96d-330b187f81f7"},"vehicle_type_id":"4","last_reported":1726866482,"current_range_meters":20000,"station_id":"chh1huq6cuj3fo74tm60","pricing_plan_id":"cebpf4jnsgd1na2vs0mg"},{"bike_id":"fa2e946d-01fe-4bb4-a2b0-55af60a0bcec","system_id":"levelo_inurba_marseille","lat":43.33718,"lon":5.39186,"is_reserved":false,"is_disabled":false,"rental_uris":{"android":"levelo://app?vid=fa2e946d-01fe-4bb4-a2b0-55af60a0bcec","ios":"levelo://app?vid=fa2e946d-01fe-4bb4-a2b0-55af60a0bcec"},"vehicle_type_id":"4","last_reported":1726866482,"current_range_meters":35200,"station_id":"ce4bhr92rcd13ifvqhsg","pricing_plan_id":"cebpf4jnsgd1na2vs0mg"},{"bike_id":"e66a6975-00a0-47f1-8eed-e1cb4010e831","system_id":"levelo_inurba_marseille","lat":43.27373,"lon":5.36255,"is_reserved":false,"is_disabled":false,"rental_uris":{"android":"levelo://app?vid=e66a6975-00a0-47f1-8eed-e1cb4010e831","ios":"levelo://app?vid=e66a6975-00a0-47f1-8eed-e1cb4010e831"},"vehicle_type_id":"4","last_reported":1726866482,"current_range_meters":34800,"station_id":"ce4bhbh2rcd13ifvqeo0","pricing_plan_id":"cebpf4jnsgd1na2vs0mg"},{"bike_id":"96f9a91d-428e-493e-b8c0-fcd22d3c14f4","system_id":"levelo_inurba_marseille","lat":43.23181,"lon":5.39988,"is_reserved":false,"is_disabled":false,"rental_uris":{"android":"levelo://app?vid=96f9a91d-428e-493e-b8c0-fcd22d3c14f4","ios":"levelo://app?vid=96f9a91d-428e-493e-b8c0-fcd22d3c14f4"},"vehicle_type_id":"4","last_reported":1726866482,"current_range_meters":19600,"station_id":"ce4bhn12rcd13ifvqgqg","pricing_plan_id":"cebpf4jnsgd1na2vs0mg"},{"bike_id":"b9b686a7-3257-4d0b-8a82-75ee0d22ab68","system_id":"levelo_inurba_marseille","lat":43.33024,"lon":5.39045,"is_reserved":false,"is_disabled":false,"rental_uris":{"android":"levelo://app?vid=b9b686a7-3257-4d0b-8a82-75ee0d22ab68","ios":"levelo://app?vid=b9b686a7-3257-4d0b-8a82-75ee0d22ab68"},"vehicle_type_id":"4","last_reported":1726866482,"current_range_meters":20400,"station_id":"ce4bhr92rcd13ifvqhrg","pricing_plan_id":"cebpf4jnsgd1na2vs0mg"},{"bike_id":"1f7e0437-80a4-4583-9c81-34cc632bd6ce","system_id":"levelo_inurba_marseille","lat":43.285339,"lon":5.38371,"is_reserved":false,"is_disabled":false,"rental_uris":{"android":"levelo://app?vid=1f7e0437-80a4-4583-9c81-34cc632bd6ce","ios":"levelo://app?vid=1f7e0437-80a4-4583-9c81-34cc632bd6ce"},"vehicle_type_id":"4","last_reported":1726866482,"current_range_meters":36000,"station_id":"ce4bh3h2rcd13ifvqdn0","pricing_plan_id":"cebpf4jnsgd1na2vs0mg"},{"bike_id":"69f2259f-2b49-4a52-a96f-6d2ca2aaec61","system_id":"levelo_inurba_marseille","lat":43.29425,"lon":5.38628,"is_reserved":false,"is_disabled":false,"rental_uris":{"android":"levelo://app?vid=69f2259f-2b49-4a52-a96f-6d2ca2aaec61","ios":"levelo://app?vid=69f2259f-2b49-4a52-a96f-6d2ca2aaec61"},"vehicle_type_id":"4","last_reported":1726866482,"current_range_meters":36800,"station_id":"ce4bh2h2rcd13ifvqdh0","pricing_plan_id":"cebpf4jnsgd1na2vs0mg"},{"bike_id":"1207ba3c-8398-41fd-b755-854c560b3cbc","system_id":"levelo_inurba_marseille","lat":43.29039,"lon":5.37558,"is_reserved":false,"is_disabled":false,"rental_uris":{"android":"levelo://app?vid=1207ba3c-8398-41fd-b755-854c560b3cbc","ios":"levelo://app?vid=1207ba3c-8398-41fd-b755-854c560b3cbc"},"vehicle_type_id":"4","last_reported":1726866482,"current_range_meters":8000,"station_id":"ce4bh692rcd13ifvqe90","pricing_plan_id":"cebpf4jnsgd1na2vs0mg"},{"bike_id":"22b06c0f-700b-4647-8bc4-4024a55fd0a8","system_id":"levelo_inurba_marseille","lat":43.29005,"lon":5.37882,"is_reserved":false,"is_disabled":false,"rental_uris":{"android":"levelo://app?vid=22b06c0f-700b-4647-8bc4-4024a55fd0a8","ios":"levelo://app?vid=22b06c0f-700b-4647-8bc4-4024a55fd0a8"},"vehicle_type_id":"4","last_reported":1726866482,"current_range_meters":28400,"station_id":"ce4bhap2rcd13ifvqek0","pricing_plan_id":"cebpf4jnsgd1na2vs0mg"},{"bike_id":"9c1d0b09-5061-43b6-b786-c6d574a71848","system_id":"levelo_inurba_marseille","lat":43.295959,"lon":5.381006,"is_reserved":false,"is_disabled":false,"rental_uris":{"android":"levelo://app?vid=9c1d0b09-5061-43b6-b786-c6d574a71848","ios":"levelo://app?vid=9c1d0b09-5061-43b6-b786-c6d574a71848"},"vehicle_type_id":"4","last_reported":1726866482,"current_range_meters":16000,"station_id":"ce4bgl12rcd13ifvqbo0","pricing_plan_id":"cebpf4jnsgd1na2vs0mg"},{"bike_id":"1953768e-4d35-4f0d-a34d-e67afd432115","system_id":"levelo_inurba_marseille","lat":43.299347,"lon":5.365518,"is_reserved":false,"is_disabled":false,"rental_uris":{"android":"levelo://app?vid=1953768e-4d35-4f0d-a34d-e67afd432115","ios":"levelo://app?vid=1953768e-4d35-4f0d-a34d-e67afd432115"},"vehicle_type_id":"4","last_reported":1726866482,"current_range_meters":36800,"station_id":"ce4bgm92rcd13ifvqbr0","pricing_plan_id":"cebpf4jnsgd1na2vs0mg"},{"bike_id":"3a759a8c-af9a-402f-85e4-e99028699123","system_id":"levelo_inurba_marseille","lat":43.29415,"lon":5.38626,"is_reserved":false,"is_disabled":false,"rental_uris":{"android":"levelo://app?vid=3a759a8c-af9a-402f-85e4-e99028699123","ios":"levelo://app?vid=3a759a8c-af9a-402f-85e4-e99028699123"},"vehicle_type_id":"4","last_reported":1726866482,"current_range_meters":13600,"station_id":"ce4bh2h2rcd13ifvqdh0","pricing_plan_id":"cebpf4jnsgd1na2vs0mg"},{"bike_id":"fa690805-233a-4a70-a9f3-33f1b67cdb1f","system_id":"levelo_inurba_marseille","lat":43.32288,"lon":5.38261,"is_reserved":false,"is_disabled":false,"rental_uris":{"android":"levelo://app?vid=fa690805-233a-4a70-a9f3-33f1b67cdb1f","ios":"levelo://app?vid=fa690805-233a-4a70-a9f3-33f1b67cdb1f"},"vehicle_type_id":"4","last_reported":1726866482,"current_range_meters":16400,"station_id":"ce4bhr12rcd13ifvqhqg","pricing_plan_id":"cebpf4jnsgd1na2vs0mg"},{"bike_id":"68e08c21-619c-4139-bda5-a80caa392154","system_id":"levelo_inurba_marseille","lat":43.292664,"lon":5.384485,"is_reserved":false,"is_disabled":false,"rental_uris":{"android":"levelo://app?vid=68e08c21-619c-4139-bda5-a80caa392154","ios":"levelo://app?vid=68e08c21-619c-4139-bda5-a80caa392154"},"vehicle_type_id":"4","last_reported":1726866482,"current_range_meters":6800,"station_id":"ce4bh692rcd13ifvqea0","pricing_plan_id":"cebpf4jnsgd1na2vs0mg"},{"bike_id":"7e3571e7-d499-4677-ad33-f5d3d01a2a81","system_id":"levelo_inurba_marseille","lat":43.24999,"lon":5.38933,"is_reserved":false,"is_disabled":false,"rental_uris":{"android":"levelo://app?vid=7e3571e7-d499-4677-ad33-f5d3d01a2a81","ios":"levelo://app?vid=7e3571e7-d499-4677-ad33-f5d3d01a2a81"},"vehicle_type_id":"4","last_reported":1726866482,"current_range_meters":3200,"station_id":"ce4bhgp2rcd13ifvqfd0","pricing_plan_id":"cebpf4jnsgd1na2vs0mg"},{"bike_id":"89496093-5d19-4d2d-af92-b4327367eb09","system_id":"levelo_inurba_marseille","lat":43.25863,"lon":5.39904,"is_reserved":false,"is_disabled":false,"rental_uris":{"android":"levelo://app?vid=89496093-5d19-4d2d-af92-b4327367eb09","ios":"levelo://app?vid=89496093-5d19-4d2d-af92-b4327367eb09"},"vehicle_type_id":"4","last_reported":1726866482,"current_range_meters":7200,"station_id":"ce4bhl92rcd13ifvqghg","pricing_plan_id":"cebpf4jnsgd1na2vs0mg"},{"bike_id":"271d83d4-6185-4742-9220-183a95f964d8","system_id":"levelo_inurba_marseille","lat":43.23965,"lon":5.36629,"is_reserved":false,"is_disabled":false,"rental_uris":{"android":"levelo://app?vid=271d83d4-6185-4742-9220-183a95f964d8","ios":"levelo://app?vid=271d83d4-6185-4742-9220-183a95f964d8"},"vehicle_type_id":"4","last_reported":1726866482,"current_range_meters":28000,"station_id":"ce4bhi12rcd13ifvqfp0","pricing_plan_id":"cebpf4jnsgd1na2vs0mg"},{"bike_id":"b2763354-ec6c-4733-8de6-6c4493759ae9","system_id":"levelo_inurba_marseille","lat":43.29072,"lon":5.40166,"is_reserved":false,"is_disabled":false,"rental_uris":{"android":"levelo://app?vid=b2763354-ec6c-4733-8de6-6c4493759ae9","ios":"levelo://app?vid=b2763354-ec6c-4733-8de6-6c4493759ae9"},"vehicle_type_id":"4","last_reported":1726866482,"current_range_meters":18800,"station_id":"","pricing_plan_id":"cebpf4jnsgd1na2vs0mg"},{"bike_id":"281708be-a714-453e-9143-4f365d01b475","system_id":"levelo_inurba_marseille","lat":43.29776,"lon":5.37092,"is_reserved":false,"is_disabled":false,"rental_uris":{"android":"levelo://app?vid=281708be-a714-453e-9143-4f365d01b475","ios":"levelo://app?vid=281708be-a714-453e-9143-4f365d01b475"},"vehicle_type_id":"4","last_reported":1726866482,"current_range_meters":38800,"station_id":"ce4bgop2rcd13ifvqc1g","pricing_plan_id":"cebpf4jnsgd1na2vs0mg"},{"bike_id":"facc34bd-0c11-48d2-aa3e-e28ba7f6f9b2","system_id":"levelo_inurba_marseille","lat":43.28459,"lon":5.35877,"is_reserved":false,"is_disabled":false,"rental_uris":{"android":"levelo://app?vid=facc34bd-0c11-48d2-aa3e-e28ba7f6f9b2","ios":"levelo://app?vid=facc34bd-0c11-48d2-aa3e-e28ba7f6f9b2"},"vehicle_type_id":"4","last_reported":1726866482,"current_range_meters":38800,"station_id":"ce4bhah2rcd13ifvqei0","pricing_plan_id":"cebpf4jnsgd1na2vs0mg"},{"bike_id":"7104ed98-6538-41ff-89e4-4140b5eebe87","system_id":"levelo_inurba_marseille","lat":43.24179,"lon":5.39728,"is_reserved":false,"is_disabled":false,"rental_uris":{"android":"levelo://app?vid=7104ed98-6538-41ff-89e4-4140b5eebe87","ios":"levelo://app?vid=7104ed98-6538-41ff-89e4-4140b5eebe87"},"vehicle_type_id":"4","last_reported":1726866482,"current_range_meters":32000,"station_id":"ce4bhn12rcd13ifvqgpg","pricing_plan_id":"cebpf4jnsgd1na2vs0mg"},{"bike_id":"811aca4d-88c8-4e30-8669-7c150692e79a","system_id":"levelo_inurba_marseille","lat":43.24081,"lon":5.37745,"is_reserved":false,"is_disabled":false,"rental_uris":{"android":"levelo://app?vid=811aca4d-88c8-4e30-8669-7c150692e79a","ios":"levelo://app?vid=811aca4d-88c8-4e30-8669-7c150692e79a"},"vehicle_type_id":"4","last_reported":1726866482,"current_range_meters":19600,"station_id":"ce4bhnp2rcd13ifvqgvg","pricing_plan_id":"cebpf4jnsgd1na2vs0mg"},{"bike_id":"0653cb10-c12e-4c27-af75-8f3495a98f89","system_id":"levelo_inurba_marseille","lat":43.32289,"lon":5.3828,"is_reserved":false,"is_disabled":false,"rental_uris":{"android":"levelo://app?vid=0653cb10-c12e-4c27-af75-8f3495a98f89","ios":"levelo://app?vid=0653cb10-c12e-4c27-af75-8f3495a98f89"},"vehicle_type_id":"4","last_reported":1726866482,"current_range_meters":38800,"station_id":"ce4bhr12rcd13ifvqhqg","pricing_plan_id":"cebpf4jnsgd1na2vs0mg"},{"bike_id":"17885b12-8626-4cad-9450-bc59d81f3207","system_id":"levelo_inurba_marseille","lat":43.29418,"lon":5.38632,"is_reserved":false,"is_disabled":false,"rental_uris":{"android":"levelo://app?vid=17885b12-8626-4cad-9450-bc59d81f3207","ios":"levelo://app?vid=17885b12-8626-4cad-9450-bc59d81f3207"},"vehicle_type_id":"4","last_reported":1726866482,"current_range_meters":38400,"station_id":"ce4bh2h2rcd13ifvqdh0","pricing_plan_id":"cebpf4jnsgd1na2vs0mg"},{"bike_id":"04f5fe4f-9d0d-4514-bcf1-590023909919","system_id":"levelo_inurba_marseille","lat":43.30875,"lon":5.39633,"is_reserved":false,"is_disabled":false,"rental_uris":{"android":"levelo://app?vid=04f5fe4f-9d0d-4514-bcf1-590023909919","ios":"levelo://app?vid=04f5fe4f-9d0d-4514-bcf1-590023909919"},"vehicle_type_id":"4","last_reported":1726866482,"current_range_meters":38800,"station_id":"ce4bh012rcd13ifvqcv0","pricing_plan_id":"cebpf4jnsgd1na2vs0mg"},{"bike_id":"950e1eb5-bdae-4612-8792-0cf944005500","system_id":"levelo_inurba_marseille","lat":43.24076,"lon":5.37743,"is_reserved":false,"is_disabled":false,"rental_uris":{"android":"levelo://app?vid=950e1eb5-bdae-4612-8792-0cf944005500","ios":"levelo://app?vid=950e1eb5-bdae-4612-8792-0cf944005500"},"vehicle_type_id":"4","last_reported":1726866482,"current_range_meters":38800,"station_id":"ce4bhnp2rcd13ifvqgvg","pricing_plan_id":"cebpf4jnsgd1na2vs0mg"},{"bike_id":"0af8d02d-bce3-46ec-8e4a-4b3fdee132a3","system_id":"levelo_inurba_marseille","lat":43.30882,"lon":5.37192,"is_reserved":false,"is_disabled":false,"rental_uris":{"android":"levelo://app?vid=0af8d02d-bce3-46ec-8e4a-4b3fdee132a3","ios":"levelo://app?vid=0af8d02d-bce3-46ec-8e4a-4b3fdee132a3"},"vehicle_type_id":"4","last_reported":1726866482,"current_range_meters":38800,"station_id":"ce4bguh2rcd13ifvqckg","pricing_plan_id":"cebpf4jnsgd1na2vs0mg"},{"bike_id":"a98f653d-9bf2-4ee9-ae30-9f51d5422e45","system_id":"levelo_inurba_marseille","lat":43.31221,"lon":5.36864,"is_reserved":false,"is_disabled":false,"rental_uris":{"android":"levelo://app?vid=a98f653d-9bf2-4ee9-ae30-9f51d5422e45","ios":"levelo://app?vid=a98f653d-9bf2-4ee9-ae30-9f51d5422e45"},"vehicle_type_id":"4","last_reported":1726866482,"current_range_meters":36000,"station_id":"ce4bgl92rcd13ifvqbq0","pricing_plan_id":"cebpf4jnsgd1na2vs0mg"},{"bike_id":"c2c9a555-6ec8-4b92-b33e-073571605c93","system_id":"levelo_inurba_marseille","lat":43.23196,"lon":5.35551,"is_reserved":false,"is_disabled":false,"rental_uris":{"android":"levelo://app?vid=c2c9a555-6ec8-4b92-b33e-073571605c93","ios":"levelo://app?vid=c2c9a555-6ec8-4b92-b33e-073571605c93"},"vehicle_type_id":"4","last_reported":1726866482,"current_range_meters":25200,"station_id":"ce4bhu92rcd13ifvqi70","pricing_plan_id":"cebpf4jnsgd1na2vs0mg"},{"bike_id":"fe81aa2c-2bb1-423c-9d77-5de7deea9b8f","system_id":"levelo_inurba_marseille","lat":43.2841,"lon":5.37506,"is_reserved":false,"is_disabled":false,"rental_uris":{"android":"levelo://app?vid=fe81aa2c-2bb1-423c-9d77-5de7deea9b8f","ios":"levelo://app?vid=fe81aa2c-2bb1-423c-9d77-5de7deea9b8f"},"vehicle_type_id":"4","last_reported":1726866482,"current_range_meters":16800,"station_id":"ce4bh412rcd13ifvqds0","pricing_plan_id":"cebpf4jnsgd1na2vs0mg"},{"bike_id":"64be93d0-07c8-40b6-b937-df67d64dba59","system_id":"levelo_inurba_marseille","lat":43.29526,"lon":5.38537,"is_reserved":false,"is_disabled":false,"rental_uris":{"android":"levelo://app?vid=64be93d0-07c8-40b6-b937-df67d64dba59","ios":"levelo://app?vid=64be93d0-07c8-40b6-b937-df67d64dba59"},"vehicle_type_id":"4","last_reported":1726866482,"current_range_meters":38000,"station_id":"ce4bgih2rcd13ifvqba0","pricing_plan_id":"cebpf4jnsgd1na2vs0mg"},{"bike_id":"c4dbc32e-3514-41c5-a07b-c9241da27dcf","system_id":"levelo_inurba_marseille","lat":43.284607,"lon":5.358912,"is_reserved":false,"is_disabled":false,"rental_uris":{"android":"levelo://app?vid=c4dbc32e-3514-41c5-a07b-c9241da27dcf","ios":"levelo://app?vid=c4dbc32e-3514-41c5-a07b-c9241da27dcf"},"vehicle_type_id":"4","last_reported":1726866482,"current_range_meters":32400,"station_id":"ce4bhah2rcd13ifvqei0","pricing_plan_id":"cebpf4jnsgd1na2vs0mg"},{"bike_id":"1e333403-2737-49d9-815e-7a64ba942f2b","system_id":"levelo_inurba_marseille","lat":43.32104,"lon":5.36779,"is_reserved":false,"is_disabled":false,"rental_uris":{"android":"levelo://app?vid=1e333403-2737-49d9-815e-7a64ba942f2b","ios":"levelo://app?vid=1e333403-2737-49d9-815e-7a64ba942f2b"},"vehicle_type_id":"4","last_reported":1726866482,"current_range_meters":11200,"station_id":"","pricing_plan_id":"cebpf4jnsgd1na2vs0mg"},{"bike_id":"5897dfd6-40db-4c68-b55a-afbb3b951511","system_id":"levelo_inurba_marseille","lat":43.28688,"lon":5.3749,"is_reserved":false,"is_disabled":false,"rental_uris":{"android":"levelo://app?vid=5897dfd6-40db-4c68-b55a-afbb3b951511","ios":"levelo://app?vid=5897dfd6-40db-4c68-b55a-afbb3b951511"},"vehicle_type_id":"4","last_reported":1726866482,"current_range_meters":10000,"station_id":"","pricing_plan_id":"cebpf4jnsgd1na2vs0mg"},{"bike_id":"bd3bd1d8-4162-49e1-bdfd-8cf4ccb3a4f8","system_id":"levelo_inurba_marseille","lat":43.29192,"lon":5.39326,"is_reserved":false,"is_disabled":false,"rental_uris":{"android":"levelo://app?vid=bd3bd1d8-4162-49e1-bdfd-8cf4ccb3a4f8","ios":"levelo://app?vid=bd3bd1d8-4162-49e1-bdfd-8cf4ccb3a4f8"},"vehicle_type_id":"4","last_reported":1726866482,"current_range_meters":18000,"station_id":"ce4bh192rcd13ifvqdd0","pricing_plan_id":"cebpf4jnsgd1na2vs0mg"},{"bike_id":"698f683a-292d-4019-b96c-2c3047867806","system_id":"levelo_inurba_marseille","lat":43.3089,"lon":5.37199,"is_reserved":false,"is_disabled":false,"rental_uris":{"android":"levelo://app?vid=698f683a-292d-4019-b96c-2c3047867806","ios":"levelo://app?vid=698f683a-292d-4019-b96c-2c3047867806"},"vehicle_type_id":"4","last_reported":1726866482,"current_range_meters":38800,"station_id":"ce4bguh2rcd13ifvqckg","pricing_plan_id":"cebpf4jnsgd1na2vs0mg"},{"bike_id":"b925e422-191e-4d5f-971e-1a2b7ceb2b03","system_id":"levelo_inurba_marseille","lat":43.24808,"lon":5.37455,"is_reserved":false,"is_disabled":false,"rental_uris":{"android":"levelo://app?vid=b925e422-191e-4d5f-971e-1a2b7ceb2b03","ios":"levelo://app?vid=b925e422-191e-4d5f-971e-1a2b7ceb2b03"},"vehicle_type_id":"4","last_reported":1726866482,"current_range_meters":8800,"station_id":"ce4bhgh2rcd13ifvqfb0","pricing_plan_id":"cebpf4jnsgd1na2vs0mg"},{"bike_id":"a45450cb-add2-4fc5-8ea0-6933eaafeca7","system_id":"levelo_inurba_marseille","lat":43.292695,"lon":5.384433,"is_reserved":false,"is_disabled":false,"rental_uris":{"android":"levelo://app?vid=a45450cb-add2-4fc5-8ea0-6933eaafeca7","ios":"levelo://app?vid=a45450cb-add2-4fc5-8ea0-6933eaafeca7"},"vehicle_type_id":"4","last_reported":1726866482,"current_range_meters":26800,"station_id":"ce4bh692rcd13ifvqea0","pricing_plan_id":"cebpf4jnsgd1na2vs0mg"},{"bike_id":"0cffdd91-4588-432c-943e-de8e3cc0998f","system_id":"levelo_inurba_marseille","lat":43.25082,"lon":5.39524,"is_reserved":false,"is_disabled":false,"rental_uris":{"android":"levelo://app?vid=0cffdd91-4588-432c-943e-de8e3cc0998f","ios":"levelo://app?vid=0cffdd91-4588-432c-943e-de8e3cc0998f"},"vehicle_type_id":"4","last_reported":1726866482,"current_range_meters":10000,"station_id":"ce4bhm12rcd13ifvqgkg","pricing_plan_id":"cebpf4jnsgd1na2vs0mg"},{"bike_id":"2cd37cba-39f5-4a5d-bc5f-c2dd6589090b","system_id":"levelo_inurba_marseille","lat":43.33602,"lon":5.41038,"is_reserved":false,"is_disabled":false,"rental_uris":{"android":"levelo://app?vid=2cd37cba-39f5-4a5d-bc5f-c2dd6589090b","ios":"levelo://app?vid=2cd37cba-39f5-4a5d-bc5f-c2dd6589090b"},"vehicle_type_id":"4","last_reported":1726866482,"current_range_meters":6800,"station_id":"ce4bhqh2rcd13ifvqhmg","pricing_plan_id":"cebpf4jnsgd1na2vs0mg"},{"bike_id":"350ebb58-e45d-4fe8-ba32-04d252e6bc07","system_id":"levelo_inurba_marseille","lat":43.29569,"lon":5.37503,"is_reserved":false,"is_disabled":false,"rental_uris":{"android":"levelo://app?vid=350ebb58-e45d-4fe8-ba32-04d252e6bc07","ios":"levelo://app?vid=350ebb58-e45d-4fe8-ba32-04d252e6bc07"},"vehicle_type_id":"4","last_reported":1726866482,"current_range_meters":28000,"station_id":"","pricing_plan_id":"cebpf4jnsgd1na2vs0mg"},{"bike_id":"69879942-b85a-433f-a562-fc751d5a5549","system_id":"levelo_inurba_marseille","lat":43.33023,"lon":5.39042,"is_reserved":false,"is_disabled":false,"rental_uris":{"android":"levelo://app?vid=69879942-b85a-433f-a562-fc751d5a5549","ios":"levelo://app?vid=69879942-b85a-433f-a562-fc751d5a5549"},"vehicle_type_id":"4","last_reported":1726866482,"current_range_meters":38800,"station_id":"ce4bhr92rcd13ifvqhrg","pricing_plan_id":"cebpf4jnsgd1na2vs0mg"},{"bike_id":"68159eba-e301-4077-943e-46befe1273f0","system_id":"levelo_inurba_marseille","lat":43.23191,"lon":5.35556,"is_reserved":false,"is_disabled":false,"rental_uris":{"android":"levelo://app?vid=68159eba-e301-4077-943e-46befe1273f0","ios":"levelo://app?vid=68159eba-e301-4077-943e-46befe1273f0"},"vehicle_type_id":"4","last_reported":1726866482,"current_range_meters":31200,"station_id":"ce4bhu92rcd13ifvqi70","pricing_plan_id":"cebpf4jnsgd1na2vs0mg"},{"bike_id":"7d66f339-e9a1-4deb-8e88-576eebb910a0","system_id":"levelo_inurba_marseille","lat":43.31756,"lon":5.39015,"is_reserved":false,"is_disabled":false,"rental_uris":{"android":"levelo://app?vid=7d66f339-e9a1-4deb-8e88-576eebb910a0","ios":"levelo://app?vid=7d66f339-e9a1-4deb-8e88-576eebb910a0"},"vehicle_type_id":"4","last_reported":1726866482,"current_range_meters":38800,"station_id":"ce4bhqp2rcd13ifvqhng","pricing_plan_id":"cebpf4jnsgd1na2vs0mg"},{"bike_id":"860cf6a6-fdae-46be-960a-8654ce456f58","system_id":"levelo_inurba_marseille","lat":43.2953,"lon":5.38542,"is_reserved":false,"is_disabled":false,"rental_uris":{"android":"levelo://app?vid=860cf6a6-fdae-46be-960a-8654ce456f58","ios":"levelo://app?vid=860cf6a6-fdae-46be-960a-8654ce456f58"},"vehicle_type_id":"4","last_reported":1726866482,"current_range_meters":38400,"station_id":"ce4bgih2rcd13ifvqba0","pricing_plan_id":"cebpf4jnsgd1na2vs0mg"},{"bike_id":"31444d97-ada7-4c14-9ccc-e8d8f546def7","system_id":"levelo_inurba_marseille","lat":43.26929,"lon":5.36659,"is_reserved":false,"is_disabled":false,"rental_uris":{"android":"levelo://app?vid=31444d97-ada7-4c14-9ccc-e8d8f546def7","ios":"levelo://app?vid=31444d97-ada7-4c14-9ccc-e8d8f546def7"},