{"last_updated":1748232999,"ttl":60,"version":"2.2","data":{"bikes":[{"bike_id":"ba7404c0-8732-4dfa-9f17-6c59e0a869da","system_id":"levelo_inurba_marseille","lat":43.278332,"lon":5.392086,"is_reserved":false,"is_disabled":true,"rental_uris":{"android":"levelo://app?vid=ba7404c0-8732-4dfa-9f17-6c59e0a869da","ios":"levelo://app?vid=ba7404c0-8732-4dfa-9f17-6c59e0a869da"},"vehicle_type_id":"4","last_reported":1748232999,"current_range_meters":2800,"station_id":"ce4bhjp2rcd13ifvqga0","pricing_plan_id":"cebpf4jnsgd1na2vs0mg"},{"bike_id":"7a64ee88-a427-4341-aef9-ad40b9faadd0","system_id":"levelo_inurba_marseille","lat":43.282151,"lon":5.390616,"is_reserved":false,"is_disabled":false,"rental_uris":{"android":"levelo://app?vid=7a64ee88-a427-4341-aef9-ad40b9faadd0","ios":"levelo://app?vid=7a64ee88-a427-4341-aef9-ad40b9faadd0"},"vehicle_type_id":"4","last_reported":1748232999,"current_range_meters":3200,"station_id":"","pricing_plan_id":"cebpf4jnsgd1na2vs0mg"},{"bike_id":"1b36ebd6-1179-4f9e-8999-61f1463d8e5c","system_id":"levelo_inurba_marseille","lat":43.253463,"lon":5.393563,"is_reserved":false,"is_disabled":false,"rental_uris":{"android":"levelo://app?vid=1b36ebd6-1179-4f9e-8999-61f1463d8e5c","ios":"levelo://app?vid=1b36ebd6-1179-4f9e-8999-61f1463d8e5c"},"vehicle_type_id":"4","last_reported":1748232999,"current_range_meters":3200,"station_id":"","pricing_plan_id":"cebpf4jnsgd1na2vs0mg"},{"bike_id":"43948e8e-fb2f-4861-887a-9f2942244d51","system_id":"levelo_inurba_marseille","lat":43.29376,"lon":5.40244,"is_reserved":false,"is_disabled":false,"rental_uris":{"android":"levelo://app?vid=43948e8e-fb2f-4861-887a-9f2942244d51","ios":"levelo://app?vid=43948e8e-fb2f-4861-887a-9f2942244d51"},"vehicle_type_id":"4","last_reported":1748232999,"current_range_meters":3600,"station_id":"","pricing_plan_id":"cebpf4jnsgd1na2vs0mg"},{"bike_id":"87dc1d45-464b-416b-81d6-10b093bfc1ae","system_id":"levelo_inurba_marseille","lat":43.270736,"lon":5.422846,"is_reserved":false,"is_disabled":false,"rental_uris":{"android":"levelo://app?vid=87dc1d45-464b-416b-81d6-10b093bfc1ae","ios":"levelo://app?vid=87dc1d45-464b-416b-81d6-10b093bfc1ae"},"vehicle_type_id":"4","last_reported":1748232999,"current_range_meters":3600,"station_id":"ce4bhk92rcd13ifvqgb0","pricing_plan_id":"cebpf4jnsgd1na2vs0mg"},{"bike_id":"87ba0465-a274-4e1c-af8a-0fb2b8d1545d","system_id":"levelo_inurba_marseille","lat":43.30472,"lon":5.37909,"is_reserved":false,"is_disabled":false,"rental_uris":{"android":"levelo://app?vid=87ba0465-a274-4e1c-af8a-0fb2b8d1545d","ios":"levelo://app?vid=87ba0465-a274-4e1c-af8a-0fb2b8d1545d"},"vehicle_type_id":"4","last_reported":1748232999,"current_range_meters":3600,"station_id":"ce4bgup2rcd13ifvqcn0","pricing_plan_id":"cebpf4jnsgd1na2vs0mg"},{"bike_id":"0ddf2b5a-1565-4aab-be09-ecef369e20f0","system_id":"levelo_inurba_marseille","lat":43.298891,"lon":5.381034,"is_reserved":false,"is_disabled":true,"rental_uris":{"android":"levelo://app?vid=0ddf2b5a-1565-4aab-be09-ecef369e20f0","ios":"levelo://app?vid=0ddf2b5a-1565-4aab-be09-ecef369e20f0"},"vehicle_type_id":"4","last_reported":1748232999,"current_range_meters":4000,"station_id":"ce4bgj12rcd13ifvqbc0","pricing_plan_id":"cebpf4jnsgd1na2vs0mg"},{"bike_id":"63d7436a-c210-4684-91b0-7f24b90e4a3e","system_id":"levelo_inurba_marseille","lat":43.284077,"lon":5.375211,"is_reserved":false,"is_disabled":false,"rental_uris":{"android":"levelo://app?vid=63d7436a-c210-4684-91b0-7f24b90e4a3e","ios":"levelo://app?vid=63d7436a-c210-4684-91b0-7f24b90e4a3e"},"vehicle_type_id":"4","last_reported":1748232999,"current_range_meters":4000,"station_id":"ce4bh412rcd13ifvqds0","pricing_plan_id":"cebpf4jnsgd1na2vs0mg"},{"bike_id":"3b49418a-4eb4-4204-a554-606f881690aa","system_id":"levelo_inurba_marseille","lat":43.261924,"lon":5.374476,"is_reserved":false,"is_disabled":true,"rental_uris":{"android":"levelo://app?vid=3b49418a-4eb4-4204-a554-606f881690aa","ios":"levelo://app?vid=3b49418a-4eb4-4204-a554-606f881690aa"},"vehicle_type_id":"4","last_reported":1748232999,"current_range_meters":4000,"station_id":"ce4bhgp2rcd13ifvqfc0","pricing_plan_id":"cebpf4jnsgd1na2vs0mg"},{"bike_id":"3581c28c-41f2-4cb7-b494-0448776c0438","system_id":"levelo_inurba_marseille","lat":43.296277,"lon":5.360309,"is_reserved":false,"is_disabled":false,"rental_uris":{"android":"levelo://app?vid=3581c28c-41f2-4cb7-b494-0448776c0438","ios":"levelo://app?vid=3581c28c-41f2-4cb7-b494-0448776c0438"},"vehicle_type_id":"4","last_reported":1748232999,"current_range_meters":4400,"station_id":"","pricing_plan_id":"cebpf4jnsgd1na2vs0mg"},{"bike_id":"96de44a5-2352-4ae0-9071-a77b0638275a","system_id":"levelo_inurba_marseille","lat":43.24651,"lon":5.38901,"is_reserved":false,"is_disabled":false,"rental_uris":{"android":"levelo://app?vid=96de44a5-2352-4ae0-9071-a77b0638275a","ios":"levelo://app?vid=96de44a5-2352-4ae0-9071-a77b0638275a"},"vehicle_type_id":"4","last_reported":1748232999,"current_range_meters":4400,"station_id":"ce4bhg12rcd13ifvqf60","pricing_plan_id":"cebpf4jnsgd1na2vs0mg"},{"bike_id":"84b1d1a2-2301-4f7e-8fde-ecd5a1274476","system_id":"levelo_inurba_marseille","lat":43.270849,"lon":5.422799,"is_reserved":false,"is_disabled":false,"rental_uris":{"android":"levelo://app?vid=84b1d1a2-2301-4f7e-8fde-ecd5a1274476","ios":"levelo://app?vid=84b1d1a2-2301-4f7e-8fde-ecd5a1274476"},"vehicle_type_id":"4","last_reported":1748232999,"current_range_meters":4400,"station_id":"ce4bhk92rcd13ifvqgb0","pricing_plan_id":"cebpf4jnsgd1na2vs0mg"},{"bike_id":"88ac5a91-56d3-4573-b0f2-5c6bbb7d986b","system_id":"levelo_inurba_marseille","lat":43.26029,"lon":5.39684,"is_reserved":false,"is_disabled":false,"rental_uris":{"android":"levelo://app?vid=88ac5a91-56d3-4573-b0f2-5c6bbb7d986b","ios":"levelo://app?vid=88ac5a91-56d3-4573-b0f2-5c6bbb7d986b"},"vehicle_type_id":"4","last_reported":1748232999,"current_range_meters":4400,"station_id":"","pricing_plan_id":"cebpf4jnsgd1na2vs0mg"},{"bike_id":"4d18815d-035b-4827-a51e-58638fcfdfa3","system_id":"levelo_inurba_marseille","lat":43.23187,"lon":5.40013,"is_reserved":false,"is_disabled":true,"rental_uris":{"android":"levelo://app?vid=4d18815d-035b-4827-a51e-58638fcfdfa3","ios":"levelo://app?vid=4d18815d-035b-4827-a51e-58638fcfdfa3"},"vehicle_type_id":"4","last_reported":1748232999,"current_range_meters":4800,"station_id":"ce4bhn12rcd13ifvqgqg","pricing_plan_id":"cebpf4jnsgd1na2vs0mg"},{"bike_id":"fc8c72ad-ca61-42c6-ae90-f61b57e45328","system_id":"levelo_inurba_marseille","lat":43.27908,"lon":5.41865,"is_reserved":false,"is_disabled":false,"rental_uris":{"android":"levelo://app?vid=fc8c72ad-ca61-42c6-ae90-f61b57e45328","ios":"levelo://app?vid=fc8c72ad-ca61-42c6-ae90-f61b57e45328"},"vehicle_type_id":"4","last_reported":1748232999,"current_range_meters":5600,"station_id":"","pricing_plan_id":"cebpf4jnsgd1na2vs0mg"},{"bike_id":"33465bad-f874-4378-83f1-a044bc530272","system_id":"levelo_inurba_marseille","lat":43.279096,"lon":5.395826,"is_reserved":false,"is_disabled":false,"rental_uris":{"android":"levelo://app?vid=33465bad-f874-4378-83f1-a044bc530272","ios":"levelo://app?vid=33465bad-f874-4378-83f1-a044bc530272"},"vehicle_type_id":"4","last_reported":1748232999,"current_range_meters":5600,"station_id":"ce4bhf92rcd13ifvqf40","pricing_plan_id":"cebpf4jnsgd1na2vs0mg"},{"bike_id":"ceb5dae6-874b-4d60-9609-82bcf4c8d4ed","system_id":"levelo_inurba_marseille","lat":43.30443,"lon":5.38834,"is_reserved":false,"is_disabled":true,"rental_uris":{"android":"levelo://app?vid=ceb5dae6-874b-4d60-9609-82bcf4c8d4ed","ios":"levelo://app?vid=ceb5dae6-874b-4d60-9609-82bcf4c8d4ed"},"vehicle_type_id":"4","last_reported":1748232999,"current_range_meters":5600,"station_id":"ce4bgk12rcd13ifvqbi0","pricing_plan_id":"cebpf4jnsgd1na2vs0mg"},{"bike_id":"aeb9ef90-389d-4ef3-899b-0a0feff09a32","system_id":"levelo_inurba_marseille","lat":43.313564,"lon":5.380406,"is_reserved":false,"is_disabled":false,"rental_uris":{"android":"levelo://app?vid=aeb9ef90-389d-4ef3-899b-0a0feff09a32","ios":"levelo://app?vid=aeb9ef90-389d-4ef3-899b-0a0feff09a32"},"vehicle_type_id":"4","last_reported":1748232999,"current_range_meters":5600,"station_id":"","pricing_plan_id":"cebpf4jnsgd1na2vs0mg"},{"bike_id":"c3693970-0173-4f48-86b7-b4226fbb898a","system_id":"levelo_inurba_marseille","lat":43.231978,"lon":5.355506,"is_reserved":false,"is_disabled":false,"rental_uris":{"android":"levelo://app?vid=c3693970-0173-4f48-86b7-b4226fbb898a","ios":"levelo://app?vid=c3693970-0173-4f48-86b7-b4226fbb898a"},"vehicle_type_id":"4","last_reported":1748232999,"current_range_meters":5600,"station_id":"ce4bhu92rcd13ifvqi70","pricing_plan_id":"cebpf4jnsgd1na2vs0mg"},{"bike_id":"bac4d4f2-cbac-4aef-88fb-c759c7b96d6f","system_id":"levelo_inurba_marseille","lat":43.269499,"lon":5.386234,"is_reserved":false,"is_disabled":true,"rental_uris":{"android":"levelo://app?vid=bac4d4f2-cbac-4aef-88fb-c759c7b96d6f","ios":"levelo://app?vid=bac4d4f2-cbac-4aef-88fb-c759c7b96d6f"},"vehicle_type_id":"4","last_reported":1748232999,"current_range_meters":5600,"station_id":"ce4bhh92rcd13ifvqfh0","pricing_plan_id":"cebpf4jnsgd1na2vs0mg"},{"bike_id":"4b21239c-4264-43d2-9677-18eac578f916","system_id":"levelo_inurba_marseille","lat":43.278181,"lon":5.407273,"is_reserved":false,"is_disabled":true,"rental_uris":{"android":"levelo://app?vid=4b21239c-4264-43d2-9677-18eac578f916","ios":"levelo://app?vid=4b21239c-4264-43d2-9677-18eac578f916"},"vehicle_type_id":"4","last_reported":1748232999,"current_range_meters":5600,"station_id":"ce4bhnh2rcd13ifvqgtg","pricing_plan_id":"cebpf4jnsgd1na2vs0mg"},{"bike_id":"beb247fd-8ef9-4f28-a88a-72599a3bc36a","system_id":"levelo_inurba_marseille","lat":43.29216,"lon":5.39326,"is_reserved":false,"is_disabled":false,"rental_uris":{"android":"levelo://app?vid=beb247fd-8ef9-4f28-a88a-72599a3bc36a","ios":"levelo://app?vid=beb247fd-8ef9-4f28-a88a-72599a3bc36a"},"vehicle_type_id":"4","last_reported":1748232999,"current_range_meters":5600,"station_id":"ce4bh192rcd13ifvqdd0","pricing_plan_id":"cebpf4jnsgd1na2vs0mg"},{"bike_id":"8c489452-33ec-40fb-804e-08b0bc9dcc81","system_id":"levelo_inurba_marseille","lat":43.314342,"lon":5.373517,"is_reserved":false,"is_disabled":true,"rental_uris":{"android":"levelo://app?vid=8c489452-33ec-40fb-804e-08b0bc9dcc81","ios":"levelo://app?vid=8c489452-33ec-40fb-804e-08b0bc9dcc81"},"vehicle_type_id":"4","last_reported":1748232999,"current_range_meters":5600,"station_id":"","pricing_plan_id":"cebpf4jnsgd1na2vs0mg"},{"bike_id":"da453a88-f81b-4e0f-9781-5a7f6c1d364c","system_id":"levelo_inurba_marseille","lat":43.337499,"lon":5.374469,"is_reserved":false,"is_disabled":false,"rental_uris":{"android":"levelo://app?vid=da453a88-f81b-4e0f-9781-5a7f6c1d364c","ios":"levelo://app?vid=da453a88-f81b-4e0f-9781-5a7f6c1d364c"},"vehicle_type_id":"4","last_reported":1748232999,"current_range_meters":6400,"station_id":"","pricing_plan_id":"cebpf4jnsgd1na2vs0mg"},{"bike_id":"4790329a-165e-4912-9454-fe770a4f0e6e","system_id":"levelo_inurba_marseille","lat":43.284041,"lon":5.375267,"is_reserved":false,"is_disabled":false,"rental_uris":{"android":"levelo://app?vid=4790329a-165e-4912-9454-fe770a4f0e6e","ios":"levelo://app?vid=4790329a-165e-4912-9454-fe770a4f0e6e"},"vehicle_type_id":"4","last_reported":1748232999,"current_range_meters":6400,"station_id":"ce4bh412rcd13ifvqds0","pricing_plan_id":"cebpf4jnsgd1na2vs0mg"},{"bike_id":"be056168-c1af-471e-b724-1992cbce9c45","system_id":"levelo_inurba_marseille","lat":43.29254,"lon":5.4016,"is_reserved":false,"is_disabled":false,"rental_uris":{"android":"levelo://app?vid=be056168-c1af-471e-b724-1992cbce9c45","ios":"levelo://app?vid=be056168-c1af-471e-b724-1992cbce9c45"},"vehicle_type_id":"4","last_reported":1748232999,"current_range_meters":6400,"station_id":"ce4bh312rcd13ifvqdk0","pricing_plan_id":"cebpf4jnsgd1na2vs0mg"},{"bike_id":"b72ccfd1-35cf-4b02-9c1a-90aef7c74e5f","system_id":"levelo_inurba_marseille","lat":43.248601,"lon":5.441974,"is_reserved":false,"is_disabled":false,"rental_uris":{"android":"levelo://app?vid=b72ccfd1-35cf-4b02-9c1a-90aef7c74e5f","ios":"levelo://app?vid=b72ccfd1-35cf-4b02-9c1a-90aef7c74e5f"},"vehicle_type_id":"4","last_reported":1748232999,"current_range_meters":6400,"station_id":"","pricing_plan_id":"cebpf4jnsgd1na2vs0mg"},{"bike_id":"e8fa7405-1174-4ec6-ac79-104273598283","system_id":"levelo_inurba_marseille","lat":43.306662,"lon":5.400948,"is_reserved":false,"is_disabled":true,"rental_uris":{"android":"levelo://app?vid=e8fa7405-1174-4ec6-ac79-104273598283","ios":"levelo://app?vid=e8fa7405-1174-4ec6-ac79-104273598283"},"vehicle_type_id":"4","last_reported":1748232999,"current_range_meters":6800,"station_id":"ce4bh112rcd13ifvqda0","pricing_plan_id":"cebpf4jnsgd1na2vs0mg"},{"bike_id":"c5938413-986b-4938-b19c-ea37988817ec","system_id":"levelo_inurba_marseille","lat":43.29446,"lon":5.39751,"is_reserved":false,"is_disabled":false,"rental_uris":{"android":"levelo://app?vid=c5938413-986b-4938-b19c-ea37988817ec","ios":"levelo://app?vid=c5938413-986b-4938-b19c-ea37988817ec"},"vehicle_type_id":"4","last_reported":1748232999,"current_range_meters":6800,"station_id":"ce4bh3h2rcd13ifvqdo0","pricing_plan_id":"cebpf4jnsgd1na2vs0mg"},{"bike_id":"9e63335a-2dc0-4a9e-b7c0-1f542d8ece3b","system_id":"levelo_inurba_marseille","lat":43.33189,"lon":5.37909,"is_reserved":false,"is_disabled":true,"rental_uris":{"android":"levelo://app?vid=9e63335a-2dc0-4a9e-b7c0-1f542d8ece3b","ios":"levelo://app?vid=9e63335a-2dc0-4a9e-b7c0-1f542d8ece3b"},"vehicle_type_id":"4","last_reported":1748232999,"current_range_meters":6800,"station_id":"","pricing_plan_id":"cebpf4jnsgd1na2vs0mg"},{"bike_id":"d9fa0449-e47c-4bbe-a91c-4939cab5d888","system_id":"levelo_inurba_marseille","lat":43.285174,"lon":5.426188,"is_reserved":false,"is_disabled":false,"rental_uris":{"android":"levelo://app?vid=d9fa0449-e47c-4bbe-a91c-4939cab5d888","ios":"levelo://app?vid=d9fa0449-e47c-4bbe-a91c-4939cab5d888"},"vehicle_type_id":"4","last_reported":1748232999,"current_range_meters":6800,"station_id":"","pricing_plan_id":"cebpf4jnsgd1na2vs0mg"},{"bike_id":"d7ab41ec-159d-4e91-ad66-69e96c91aacd","system_id":"levelo_inurba_marseille","lat":43.23051,"lon":5.354985,"is_reserved":false,"is_disabled":true,"rental_uris":{"android":"levelo://app?vid=d7ab41ec-159d-4e91-ad66-69e96c91aacd","ios":"levelo://app?vid=d7ab41ec-159d-4e91-ad66-69e96c91aacd"},"vehicle_type_id":"4","last_reported":1748232999,"current_range_meters":6800,"station_id":"cpo3342slgdg3j2ifvpg","pricing_plan_id":"cebpf4jnsgd1na2vs0mg"},{"bike_id":"4c572631-4468-404e-b6c2-dd4a4b3174f2","system_id":"levelo_inurba_marseille","lat":43.288031,"lon":5.363366,"is_reserved":false,"is_disabled":false,"rental_uris":{"android":"levelo://app?vid=4c572631-4468-404e-b6c2-dd4a4b3174f2","ios":"levelo://app?vid=4c572631-4468-404e-b6c2-dd4a4b3174f2"},"vehicle_type_id":"4","last_reported":1748232999,"current_range_meters":6800,"station_id":"","pricing_plan_id":"cebpf4jnsgd1na2vs0mg"},{"bike_id":"c3289047-8b25-4e99-8a60-2e24493769f4","system_id":"levelo_inurba_marseille","lat":43.284768,"lon":5.384156,"is_reserved":false,"is_disabled":true,"rental_uris":{"android":"levelo://app?vid=c3289047-8b25-4e99-8a60-2e24493769f4","ios":"levelo://app?vid=c3289047-8b25-4e99-8a60-2e24493769f4"},"vehicle_type_id":"4","last_reported":1748232999,"current_range_meters":6800,"station_id":"ce4bh512rcd13ifvqe3g","pricing_plan_id":"cebpf4jnsgd1na2vs0mg"},{"bike_id":"105d56f3-e8cf-41b8-b0d9-5038295cb631","system_id":"levelo_inurba_marseille","lat":43.211793,"lon":5.350892,"is_reserved":false,"is_disabled":false,"rental_uris":{"android":"levelo://app?vid=105d56f3-e8cf-41b8-b0d9-5038295cb631","ios":"levelo://app?vid=105d56f3-e8cf-41b8-b0d9-5038295cb631"},"vehicle_type_id":"4","last_reported":1748232999,"current_range_meters":6800,"station_id":"","pricing_plan_id":"cebpf4jnsgd1na2vs0mg"},{"bike_id":"b3836e6a-b05b-4ba7-ae61-833bde9258fe","system_id":"levelo_inurba_marseille","lat":43.32926,"lon":5.452,"is_reserved":false,"is_disabled":false,"rental_uris":{"android":"levelo://app?vid=b3836e6a-b05b-4ba7-ae61-833bde9258fe","ios":"levelo://app?vid=b3836e6a-b05b-4ba7-ae61-833bde9258fe"},"vehicle_type_id":"4","last_reported":1748232999,"current_range_meters":6800,"station_id":"","pricing_plan_id":"cebpf4jnsgd1na2vs0mg"},{"bike_id":"0ce6c44a-7291-478e-839f-94f4b1e5c38a","system_id":"levelo_inurba_marseille","lat":43.304346,"lon":5.388941,"is_reserved":false,"is_disabled":false,"rental_uris":{"android":"levelo://app?vid=0ce6c44a-7291-478e-839f-94f4b1e5c38a","ios":"levelo://app?vid=0ce6c44a-7291-478e-839f-94f4b1e5c38a"},"vehicle_type_id":"4","last_reported":1748232999,"current_range_meters":7200,"station_id":"ce4bgk12rcd13ifvqbi0","pricing_plan_id":"cebpf4jnsgd1na2vs0mg"},{"bike_id":"ce493220-ce0d-4401-9b45-d8075ed3e1c7","system_id":"levelo_inurba_marseille","lat":43.292542,"lon":5.409052,"is_reserved":false,"is_disabled":false,"rental_uris":{"android":"levelo://app?vid=ce493220-ce0d-4401-9b45-d8075ed3e1c7","ios":"levelo://app?vid=ce493220-ce0d-4401-9b45-d8075ed3e1c7"},"vehicle_type_id":"4","last_reported":1748232999,"current_range_meters":7200,"station_id":"ce4bh192rcd13ifvqdc0","pricing_plan_id":"cebpf4jnsgd1na2vs0mg"},{"bike_id":"75516c5d-b087-4da0-80bb-c198b6bff6f1","system_id":"levelo_inurba_marseille","lat":43.29261,"lon":5.40897,"is_reserved":false,"is_disabled":false,"rental_uris":{"android":"levelo://app?vid=75516c5d-b087-4da0-80bb-c198b6bff6f1","ios":"levelo://app?vid=75516c5d-b087-4da0-80bb-c198b6bff6f1"},"vehicle_type_id":"4","last_reported":1748232999,"current_range_meters":7200,"station_id":"ce4bh192rcd13ifvqdc0","pricing_plan_id":"cebpf4jnsgd1na2vs0mg"},{"bike_id":"764aa4a5-fdf1-45d2-8d85-f92b7302018b","system_id":"levelo_inurba_marseille","lat":43.32146,"lon":5.44037,"is_reserved":false,"is_disabled":false,"rental_uris":{"android":"levelo://app?vid=764aa4a5-fdf1-45d2-8d85-f92b7302018b","ios":"levelo://app?vid=764aa4a5-fdf1-45d2-8d85-f92b7302018b"},"vehicle_type_id":"4","last_reported":1748232999,"current_range_meters":7200,"station_id":"","pricing_plan_id":"cebpf4jnsgd1na2vs0mg"},{"bike_id":"c1450594-a07e-481e-8ce6-065c5ef09f24","system_id":"levelo_inurba_marseille","lat":43.246666,"lon":5.381685,"is_reserved":false,"is_disabled":true,"rental_uris":{"android":"levelo://app?vid=c1450594-a07e-481e-8ce6-065c5ef09f24","ios":"levelo://app?vid=c1450594-a07e-481e-8ce6-065c5ef09f24"},"vehicle_type_id":"4","last_reported":1748232999,"current_range_meters":7200,"station_id":"ce4bhih2rcd13ifvqfr0","pricing_plan_id":"cebpf4jnsgd1na2vs0mg"},{"bike_id":"1a4573b5-ce8e-4cca-a947-3cda222e4807","system_id":"levelo_inurba_marseille","lat":43.311713,"lon":5.387126,"is_reserved":false,"is_disabled":false,"rental_uris":{"android":"levelo://app?vid=1a4573b5-ce8e-4cca-a947-3cda222e4807","ios":"levelo://app?vid=1a4573b5-ce8e-4cca-a947-3cda222e4807"},"vehicle_type_id":"4","last_reported":1748232999,"current_range_meters":8000,"station_id":"ce4bgv12rcd13ifvqcp0","pricing_plan_id":"cebpf4jnsgd1na2vs0mg"},{"bike_id":"485f273b-98d9-4b2a-82e0-7e0b44b2ede8","system_id":"levelo_inurba_marseille","lat":43.301686,"lon":5.380888,"is_reserved":false,"is_disabled":false,"rental_uris":{"android":"levelo://app?vid=485f273b-98d9-4b2a-82e0-7e0b44b2ede8","ios":"levelo://app?vid=485f273b-98d9-4b2a-82e0-7e0b44b2ede8"},"vehicle_type_id":"4","last_reported":1748232999,"current_range_meters":8000,"station_id":"ce4bgjp2rcd13ifvqbh0","pricing_plan_id":"cebpf4jnsgd1na2vs0mg"},{"bike_id":"71c6f6c5-aa0d-40e2-801d-9f6d35dc2ebc","system_id":"levelo_inurba_marseille","lat":43.27991,"lon":5.416647,"is_reserved":false,"is_disabled":false,"rental_uris":{"android":"levelo://app?vid=71c6f6c5-aa0d-40e2-801d-9f6d35dc2ebc","ios":"levelo://app?vid=71c6f6c5-aa0d-40e2-801d-9f6d35dc2ebc"},"vehicle_type_id":"4","last_reported":1748232999,"current_range_meters":8000,"station_id":"ce4bho12rcd13ifvqh1g","pricing_plan_id":"cebpf4jnsgd1na2vs0mg"},{"bike_id":"985dfe2e-48ab-4438-8b44-7034bccf028e","system_id":"levelo_inurba_marseille","lat":43.26975,"lon":5.39847,"is_reserved":false,"is_disabled":false,"rental_uris":{"android":"levelo://app?vid=985dfe2e-48ab-4438-8b44-7034bccf028e","ios":"levelo://app?vid=985dfe2e-48ab-4438-8b44-7034bccf028e"},"vehicle_type_id":"4","last_reported":1748232999,"current_range_meters":8000,"station_id":"","pricing_plan_id":"cebpf4jnsgd1na2vs0mg"},{"bike_id":"4ccaff61-1e4b-4f25-996a-763b2c1dc0ef","system_id":"levelo_inurba_marseille","lat":43.278114,"lon":5.407069,"is_reserved":false,"is_disabled":false,"rental_uris":{"android":"levelo://app?vid=4ccaff61-1e4b-4f25-996a-763b2c1dc0ef","ios":"levelo://app?vid=4ccaff61-1e4b-4f25-996a-763b2c1dc0ef"},"vehicle_type_id":"4","last_reported":1748232999,"current_range_meters":8000,"station_id":"ce4bhnh2rcd13ifvqgtg","pricing_plan_id":"cebpf4jnsgd1na2vs0mg"},{"bike_id":"0a263450-e142-4451-8361-08e83e2883e8","system_id":"levelo_inurba_marseille","lat":43.279905,"lon":5.416646,"is_reserved":false,"is_disabled":false,"rental_uris":{"android":"levelo://app?vid=0a263450-e142-4451-8361-08e83e2883e8","ios":"levelo://app?vid=0a263450-e142-4451-8361-08e83e2883e8"},"vehicle_type_id":"4","last_reported":1748232999,"current_range_meters":8000,"station_id":"ce4bho12rcd13ifvqh1g","pricing_plan_id":"cebpf4jnsgd1na2vs0mg"},{"bike_id":"e4c1139a-b984-4f95-b7a8-2d1c167b9455","system_id":"levelo_inurba_marseille","lat":43.28409,"lon":5.37522,"is_reserved":false,"is_disabled":false,"rental_uris":{"android":"levelo://app?vid=e4c1139a-b984-4f95-b7a8-2d1c167b9455","ios":"levelo://app?vid=e4c1139a-b984-4f95-b7a8-2d1c167b9455"},"vehicle_type_id":"4","last_reported":1748232999,"current_range_meters":8000,"station_id":"ce4bh412rcd13ifvqds0","pricing_plan_id":"cebpf4jnsgd1na2vs0mg"},{"bike_id":"6abb9ab4-3976-4e3e-b994-f2f72ee02055","system_id":"levelo_inurba_marseille","lat":43.31808,"lon":5.36824,"is_reserved":false,"is_disabled":false,"rental_uris":{"android":"levelo://app?vid=6abb9ab4-3976-4e3e-b994-f2f72ee02055","ios":"levelo://app?vid=6abb9ab4-3976-4e3e-b994-f2f72ee02055"},"vehicle_type_id":"4","last_reported":1748232999,"current_range_meters":8000,"station_id":"","pricing_plan_id":"cebpf4jnsgd1na2vs0mg"},{"bike_id":"0034e007-f5f1-44d1-9969-6b5e7e2a0461","system_id":"levelo_inurba_marseille","lat":43.231855,"lon":5.39982,"is_reserved":false,"is_disabled":false,"rental_uris":{"android":"levelo://app?vid=0034e007-f5f1-44d1-9969-6b5e7e2a0461","ios":"levelo://app?vid=0034e007-f5f1-44d1-9969-6b5e7e2a0461"},"vehicle_type_id":"4","last_reported":1748232999,"current_range_meters":8000,"station_id":"ce4bhn12rcd13ifvqgqg","pricing_plan_id":"cebpf4jnsgd1na2vs0mg"},{"bike_id":"61c5adf8-36a5-45c4-bedc-3b721fac70e4","system_id":"levelo_inurba_marseille","lat":43.251083,"lon":5.403295,"is_reserved":false,"is_disabled":false,"rental_uris":{"android":"levelo://app?vid=61c5adf8-36a5-45c4-bedc-3b721fac70e4","ios":"levelo://app?vid=61c5adf8-36a5-45c4-bedc-3b721fac70e4"},"vehicle_type_id":"4","last_reported":1748232999,"current_range_meters":8400,"station_id":"ce4bhlh2rcd13ifvqgig","pricing_plan_id":"cebpf4jnsgd1na2vs0mg"},{"bike_id":"3850fd70-bc18-4c11-8473-90e02d666583","system_id":"levelo_inurba_marseille","lat":43.2975,"lon":5.45992,"is_reserved":false,"is_disabled":false,"rental_uris":{"android":"levelo://app?vid=3850fd70-bc18-4c11-8473-90e02d666583","ios":"levelo://app?vid=3850fd70-bc18-4c11-8473-90e02d666583"},"vehicle_type_id":"4","last_reported":1748232999,"current_range_meters":8400,"station_id":"","pricing_plan_id":"cebpf4jnsgd1na2vs0mg"},{"bike_id":"6ea542cd-bd1f-400f-9487-7a1aeb2c6cf5","system_id":"levelo_inurba_marseille","lat":43.30799,"lon":5.38166,"is_reserved":false,"is_disabled":true,"rental_uris":{"android":"levelo://app?vid=6ea542cd-bd1f-400f-9487-7a1aeb2c6cf5","ios":"levelo://app?vid=6ea542cd-bd1f-400f-9487-7a1aeb2c6cf5"},"vehicle_type_id":"4","last_reported":1748232999,"current_range_meters":8400,"station_id":"ce4bgt12rcd13ifvqce0","pricing_plan_id":"cebpf4jnsgd1na2vs0mg"},{"bike_id":"750f6585-193a-4477-948c-580515d42c9e","system_id":"levelo_inurba_marseille","lat":43.322424,"lon":5.43953,"is_reserved":false,"is_disabled":false,"rental_uris":{"android":"levelo://app?vid=750f6585-193a-4477-948c-580515d42c9e","ios":"levelo://app?vid=750f6585-193a-4477-948c-580515d42c9e"},"vehicle_type_id":"4","last_reported":1748232999,"current_range_meters":8400,"station_id":"","pricing_plan_id":"cebpf4jnsgd1na2vs0mg"},{"bike_id":"2cd26045-8743-4174-9b16-4b9f99950bc0","system_id":"levelo_inurba_marseille","lat":43.310654,"lon":5.383572,"is_reserved":false,"is_disabled":false,"rental_uris":{"android":"levelo://app?vid=2cd26045-8743-4174-9b16-4b9f99950bc0","ios":"levelo://app?vid=2cd26045-8743-4174-9b16-4b9f99950bc0"},"vehicle_type_id":"4","last_reported":1748232999,"current_range_meters":8400,"station_id":"ce4bgv92rcd13ifvqcr0","pricing_plan_id":"cebpf4jnsgd1na2vs0mg"},{"bike_id":"53be9881-dd03-4bff-9df9-c7e3456d7b7a","system_id":"levelo_inurba_marseille","lat":43.309274,"lon":5.401564,"is_reserved":false,"is_disabled":false,"rental_uris":{"android":"levelo://app?vid=53be9881-dd03-4bff-9df9-c7e3456d7b7a","ios":"levelo://app?vid=53be9881-dd03-4bff-9df9-c7e3456d7b7a"},"vehicle_type_id":"4","last_reported":1748232999,"current_range_meters":8400,"station_id":"ce4bgvp2rcd13ifvqct0","pricing_plan_id":"cebpf4jnsgd1na2vs0mg"},{"bike_id":"13f7c102-e046-4264-81d0-d93f49057a71","system_id":"levelo_inurba_marseille","lat":43.306564,"lon":5.400726,"is_reserved":false,"is_disabled":false,"rental_uris":{"android":"levelo://app?vid=13f7c102-e046-4264-81d0-d93f49057a71","ios":"levelo://app?vid=13f7c102-e046-4264-81d0-d93f49057a71"},"vehicle_type_id":"4","last_reported":1748232999,"current_range_meters":8400,"station_id":"ce4bh112rcd13ifvqda0","pricing_plan_id":"cebpf4jnsgd1na2vs0mg"},{"bike_id":"88618280-9787-4087-868e-eef2ad3fd538","system_id":"levelo_inurba_marseille","lat":43.29014,"lon":5.35918,"is_reserved":false,"is_disabled":true,"rental_uris":{"android":"levelo://app?vid=88618280-9787-4087-868e-eef2ad3fd538","ios":"levelo://app?vid=88618280-9787-4087-868e-eef2ad3fd538"},"vehicle_type_id":"4","last_reported":1748232999,"current_range_meters":8400,"station_id":"ce4bha92rcd13ifvqeg0","pricing_plan_id":"cebpf4jnsgd1na2vs0mg"},{"bike_id":"54a3bbf5-ebe4-4594-9532-519c0897eb70","system_id":"levelo_inurba_marseille","lat":43.299634,"lon":5.413303,"is_reserved":false,"is_disabled":true,"rental_uris":{"android":"levelo://app?vid=54a3bbf5-ebe4-4594-9532-519c0897eb70","ios":"levelo://app?vid=54a3bbf5-ebe4-4594-9532-519c0897eb70"},"vehicle_type_id":"4","last_reported":1748232999,"current_range_meters":8800,"station_id":"ce4bhp12rcd13ifvqh9g","pricing_plan_id":"cebpf4jnsgd1na2vs0mg"},{"bike_id":"b2481e92-81b3-44e8-b36f-4f554a3e5626","system_id":"levelo_inurba_marseille","lat":43.29564,"lon":5.38549,"is_reserved":false,"is_disabled":true,"rental_uris":{"android":"levelo://app?vid=b2481e92-81b3-44e8-b36f-4f554a3e5626","ios":"levelo://app?vid=b2481e92-81b3-44e8-b36f-4f554a3e5626"},"vehicle_type_id":"4","last_reported":1748232999,"current_range_meters":8800,"station_id":"ce4bgih2rcd13ifvqba0","pricing_plan_id":"cebpf4jnsgd1na2vs0mg"},{"bike_id":"5abb8a77-fbf0-4d21-805b-29790cff0e49","system_id":"levelo_inurba_marseille","lat":43.310815,"lon":5.424594,"is_reserved":false,"is_disabled":false,"rental_uris":{"android":"levelo://app?vid=5abb8a77-fbf0-4d21-805b-29790cff0e49","ios":"levelo://app?vid=5abb8a77-fbf0-4d21-805b-29790cff0e49"},"vehicle_type_id":"4","last_reported":1748232999,"current_range_meters":8800,"station_id":"ce4bhp92rcd13ifvqhag","pricing_plan_id":"cebpf4jnsgd1na2vs0mg"},{"bike_id":"7f0b3323-77a1-43c6-a91f-7eae2ece8cc3","system_id":"levelo_inurba_marseille","lat":43.3166,"lon":5.389664,"is_reserved":false,"is_disabled":false,"rental_uris":{"android":"levelo://app?vid=7f0b3323-77a1-43c6-a91f-7eae2ece8cc3","ios":"levelo://app?vid=7f0b3323-77a1-43c6-a91f-7eae2ece8cc3"},"vehicle_type_id":"4","last_reported":1748232999,"current_range_meters":9200,"station_id":"","pricing_plan_id":"cebpf4jnsgd1na2vs0mg"},{"bike_id":"f93b74c5-5226-4250-aaa8-c7e610f5fc0b","system_id":"levelo_inurba_marseille","lat":43.270659,"lon":5.422824,"is_reserved":false,"is_disabled":false,"rental_uris":{"android":"levelo://app?vid=f93b74c5-5226-4250-aaa8-c7e610f5fc0b","ios":"levelo://app?vid=f93b74c5-5226-4250-aaa8-c7e610f5fc0b"},"vehicle_type_id":"4","last_reported":1748232999,"current_range_meters":9200,"station_id":"ce4bhk92rcd13ifvqgb0","pricing_plan_id":"cebpf4jnsgd1na2vs0mg"},{"bike_id":"203aa19c-5810-43bb-8440-63b0d6edbf94","system_id":"levelo_inurba_marseille","lat":43.24061,"lon":5.37781,"is_reserved":false,"is_disabled":false,"rental_uris":{"android":"levelo://app?vid=203aa19c-5810-43bb-8440-63b0d6edbf94","ios":"levelo://app?vid=203aa19c-5810-43bb-8440-63b0d6edbf94"},"vehicle_type_id":"4","last_reported":1748232999,"current_range_meters":9200,"station_id":"ce4bhnp2rcd13ifvqgvg","pricing_plan_id":"cebpf4jnsgd1na2vs0mg"},{"bike_id":"7d3bd24a-e5f9-4754-8ec6-3ba44c9c4f5b","system_id":"levelo_inurba_marseille","lat":43.2481,"lon":5.37466,"is_reserved":false,"is_disabled":true,"rental_uris":{"android":"levelo://app?vid=7d3bd24a-e5f9-4754-8ec6-3ba44c9c4f5b","ios":"levelo://app?vid=7d3bd24a-e5f9-4754-8ec6-3ba44c9c4f5b"},"vehicle_type_id":"4","last_reported":1748232999,"current_range_meters":9200,"station_id":"ce4bhgh2rcd13ifvqfb0","pricing_plan_id":"cebpf4jnsgd1na2vs0mg"},{"bike_id":"297912d0-a20d-49cf-b438-8dcf069205db","system_id":"levelo_inurba_marseille","lat":43.29272,"lon":5.40121,"is_reserved":false,"is_disabled":false,"rental_uris":{"android":"levelo://app?vid=297912d0-a20d-49cf-b438-8dcf069205db","ios":"levelo://app?vid=297912d0-a20d-49cf-b438-8dcf069205db"},"vehicle_type_id":"4","last_reported":1748232999,"current_range_meters":9200,"station_id":"ce4bh312rcd13ifvqdk0","pricing_plan_id":"cebpf4jnsgd1na2vs0mg"},{"bike_id":"ad35d7fa-a2c3-4e55-aac0-809f81c12d57","system_id":"levelo_inurba_marseille","lat":43.23051,"lon":5.354921,"is_reserved":false,"is_disabled":false,"rental_uris":{"android":"levelo://app?vid=ad35d7fa-a2c3-4e55-aac0-809f81c12d57","ios":"levelo://app?vid=ad35d7fa-a2c3-4e55-aac0-809f81c12d57"},"vehicle_type_id":"4","last_reported":1748232999,"current_range_meters":9200,"station_id":"cpo3342slgdg3j2ifvpg","pricing_plan_id":"cebpf4jnsgd1na2vs0mg"},{"bike_id":"dabc077c-bf8d-431d-a5ea-dcd441e9b7b1","system_id":"levelo_inurba_marseille","lat":43.24883,"lon":5.39726,"is_reserved":false,"is_disabled":false,"rental_uris":{"android":"levelo://app?vid=dabc077c-bf8d-431d-a5ea-dcd441e9b7b1","ios":"levelo://app?vid=dabc077c-bf8d-431d-a5ea-dcd441e9b7b1"},"vehicle_type_id":"4","last_reported":1748232999,"current_range_meters":9200,"station_id":"","pricing_plan_id":"cebpf4jnsgd1na2vs0mg"},{"bike_id":"b6c82712-4761-4fda-8249-24477ebcbcb4","system_id":"levelo_inurba_marseille","lat":43.279369,"lon":5.410379,"is_reserved":false,"is_disabled":false,"rental_uris":{"android":"levelo://app?vid=b6c82712-4761-4fda-8249-24477ebcbcb4","ios":"levelo://app?vid=b6c82712-4761-4fda-8249-24477ebcbcb4"},"vehicle_type_id":"4","last_reported":1748232999,"current_range_meters":9200,"station_id":"ce4bhnp2rcd13ifvqh0g","pricing_plan_id":"cebpf4jnsgd1na2vs0mg"},{"bike_id":"e9496718-b841-4999-823d-28c5bee5d6f1","system_id":"levelo_inurba_marseille","lat":43.26532,"lon":5.390021,"is_reserved":false,"is_disabled":false,"rental_uris":{"android":"levelo://app?vid=e9496718-b841-4999-823d-28c5bee5d6f1","ios":"levelo://app?vid=e9496718-b841-4999-823d-28c5bee5d6f1"},"vehicle_type_id":"4","last_reported":1748232999,"current_range_meters":9600,"station_id":"ce4bhe12rcd13ifvqf30","pricing_plan_id":"cebpf4jnsgd1na2vs0mg"},{"bike_id":"5e5dac88-2958-4a06-9510-bdfbf9cef837","system_id":"levelo_inurba_marseille","lat":43.271809,"lon":5.409876,"is_reserved":false,"is_disabled":false,"rental_uris":{"android":"levelo://app?vid=5e5dac88-2958-4a06-9510-bdfbf9cef837","ios":"levelo://app?vid=5e5dac88-2958-4a06-9510-bdfbf9cef837"},"vehicle_type_id":"4","last_reported":1748232999,"current_range_meters":9600,"station_id":"ce4bhl12rcd13ifvqgf0","pricing_plan_id":"cebpf4jnsgd1na2vs0mg"},{"bike_id":"473cdad8-e86f-436c-900c-612ff8b20c12","system_id":"levelo_inurba_marseille","lat":43.317109,"lon":5.437001,"is_reserved":false,"is_disabled":true,"rental_uris":{"android":"levelo://app?vid=473cdad8-e86f-436c-900c-612ff8b20c12","ios":"levelo://app?vid=473cdad8-e86f-436c-900c-612ff8b20c12"},"vehicle_type_id":"4","last_reported":1748232999,"current_range_meters":9600,"station_id":"ce4bhp92rcd13ifvqhcg","pricing_plan_id":"cebpf4jnsgd1na2vs0mg"},{"bike_id":"c7bf137b-672e-46b1-9f91-b1e388281f69","system_id":"levelo_inurba_marseille","lat":43.29794,"lon":5.39368,"is_reserved":false,"is_disabled":false,"rental_uris":{"android":"levelo://app?vid=c7bf137b-672e-46b1-9f91-b1e388281f69","ios":"levelo://app?vid=c7bf137b-672e-46b1-9f91-b1e388281f69"},"vehicle_type_id":"4","last_reported":1748232999,"current_range_meters":9600,"station_id":"chh1huq6cuj3fo74tm60","pricing_plan_id":"cebpf4jnsgd1na2vs0mg"},{"bike_id":"5aa5e23d-21b2-41ca-9e77-c0c017f76361","system_id":"levelo_inurba_marseille","lat":43.23582,"lon":5.40342,"is_reserved":false,"is_disabled":false,"rental_uris":{"android":"levelo://app?vid=5aa5e23d-21b2-41ca-9e77-c0c017f76361","ios":"levelo://app?vid=5aa5e23d-21b2-41ca-9e77-c0c017f76361"},"vehicle_type_id":"4","last_reported":1748232999,"current_range_meters":9600,"station_id":"","pricing_plan_id":"cebpf4jnsgd1na2vs0mg"},{"bike_id":"78084e65-0f8a-4a63-bf1c-3fbde80b370d","system_id":"levelo_inurba_marseille","lat":43.294475,"lon":5.433768,"is_reserved":false,"is_disabled":true,"rental_uris":{"android":"levelo://app?vid=78084e65-0f8a-4a63-bf1c-3fbde80b370d","ios":"levelo://app?vid=78084e65-0f8a-4a63-bf1c-3fbde80b370d"},"vehicle_type_id":"4","last_reported":1748232999,"current_range_meters":9600,"station_id":"","pricing_plan_id":"cebpf4jnsgd1na2vs0mg"},{"bike_id":"8c24a1cc-9755-4ef3-aee7-aeff472999dc","system_id":"levelo_inurba_marseille","lat":43.282716,"lon":5.350848,"is_reserved":false,"is_disabled":true,"rental_uris":{"android":"levelo://app?vid=8c24a1cc-9755-4ef3-aee7-aeff472999dc","ios":"levelo://app?vid=8c24a1cc-9755-4ef3-aee7-aeff472999dc"},"vehicle_type_id":"4","last_reported":1748232999,"current_range_meters":9600,"station_id":"ce4bhbp2rcd13ifvqerg","pricing_plan_id":"cebpf4jnsgd1na2vs0mg"},{"bike_id":"83ad7a20-5e0f-4da6-b016-33ad483df1ae","system_id":"levelo_inurba_marseille","lat":43.307946,"lon":5.376614,"is_reserved":false,"is_disabled":false,"rental_uris":{"android":"levelo://app?vid=83ad7a20-5e0f-4da6-b016-33ad483df1ae","ios":"levelo://app?vid=83ad7a20-5e0f-4da6-b016-33ad483df1ae"},"vehicle_type_id":"4","last_reported":1748232999,"current_range_meters":9600,"station_id":"ce4bgv92rcd13ifvqcq0","pricing_plan_id":"cebpf4jnsgd1na2vs0mg"},{"bike_id":"a46a1e93-b38a-420e-a6e8-156a20f5273e","system_id":"levelo_inurba_marseille","lat":43.251175,"lon":5.403283,"is_reserved":false,"is_disabled":false,"rental_uris":{"android":"levelo://app?vid=a46a1e93-b38a-420e-a6e8-156a20f5273e","ios":"levelo://app?vid=a46a1e93-b38a-420e-a6e8-156a20f5273e"},"vehicle_type_id":"4","last_reported":1748232999,"current_range_meters":10000,"station_id":"ce4bhlh2rcd13ifvqgig","pricing_plan_id":"cebpf4jnsgd1na2vs0mg"},{"bike_id":"4ecde69a-3a34-421d-8f3c-6a8fe1837c97","system_id":"levelo_inurba_marseille","lat":43.25742,"lon":5.41106,"is_reserved":false,"is_disabled":false,"rental_uris":{"android":"levelo://app?vid=4ecde69a-3a34-421d-8f3c-6a8fe1837c97","ios":"levelo://app?vid=4ecde69a-3a34-421d-8f3c-6a8fe1837c97"},"vehicle_type_id":"4","last_reported":1748232999,"current_range_meters":10000,"station_id":"ce4bhkp2rcd13ifvqgd0","pricing_plan_id":"cebpf4jnsgd1na2vs0mg"},{"bike_id":"5c5bed98-b57a-44ff-9692-48c79f2f1162","system_id":"levelo_inurba_marseille","lat":43.287065,"lon":5.379395,"is_reserved":false,"is_disabled":false,"rental_uris":{"android":"levelo://app?vid=5c5bed98-b57a-44ff-9692-48c79f2f1162","ios":"levelo://app?vid=5c5bed98-b57a-44ff-9692-48c79f2f1162"},"vehicle_type_id":"4","last_reported":1748232999,"current_range_meters":10000,"station_id":"ce4bh9p2rcd13ifvqec0","pricing_plan_id":"cebpf4jnsgd1na2vs0mg"},{"bike_id":"f4635071-065e-413f-aebe-b3a3ab00d510","system_id":"levelo_inurba_marseille","lat":43.241746,"lon":5.397389,"is_reserved":false,"is_disabled":false,"rental_uris":{"android":"levelo://app?vid=f4635071-065e-413f-aebe-b3a3ab00d510","ios":"levelo://app?vid=f4635071-065e-413f-aebe-b3a3ab00d510"},"vehicle_type_id":"4","last_reported":1748232999,"current_range_meters":10000,"station_id":"ce4bhn12rcd13ifvqgpg","pricing_plan_id":"cebpf4jnsgd1na2vs0mg"},{"bike_id":"fb8a5899-9381-4f53-ae55-95564e4af8b9","system_id":"levelo_inurba_marseille","lat":43.29274,"lon":5.40161,"is_reserved":false,"is_disabled":false,"rental_uris":{"android":"levelo://app?vid=fb8a5899-9381-4f53-ae55-95564e4af8b9","ios":"levelo://app?vid=fb8a5899-9381-4f53-ae55-95564e4af8b9"},"vehicle_type_id":"4","last_reported":1748232999,"current_range_meters":10000,"station_id":"ce4bh312rcd13ifvqdk0","pricing_plan_id":"cebpf4jnsgd1na2vs0mg"},{"bike_id":"de46b0d6-2129-4137-bb5e-8e76a1e9eee9","system_id":"levelo_inurba_marseille","lat":43.309314,"lon":5.401474,"is_reserved":false,"is_disabled":false,"rental_uris":{"android":"levelo://app?vid=de46b0d6-2129-4137-bb5e-8e76a1e9eee9","ios":"levelo://app?vid=de46b0d6-2129-4137-bb5e-8e76a1e9eee9"},"vehicle_type_id":"4","last_reported":1748232999,"current_range_meters":10000,"station_id":"ce4bgvp2rcd13ifvqct0","pricing_plan_id":"cebpf4jnsgd1na2vs0mg"},{"bike_id":"4a08cb47-b8a3-4b80-b03b-442810280d89","system_id":"levelo_inurba_marseille","lat":43.251129,"lon":5.403241,"is_reserved":false,"is_disabled":false,"rental_uris":{"android":"levelo://app?vid=4a08cb47-b8a3-4b80-b03b-442810280d89","ios":"levelo://app?vid=4a08cb47-b8a3-4b80-b03b-442810280d89"},"vehicle_type_id":"4","last_reported":1748232999,"current_range_meters":10000,"station_id":"ce4bhlh2rcd13ifvqgig","pricing_plan_id":"cebpf4jnsgd1na2vs0mg"},{"bike_id":"eea78b61-2063-42e5-876f-57b72ee0916e","system_id":"levelo_inurba_marseille","lat":43.303746,"lon":5.424933,"is_reserved":false,"is_disabled":false,"rental_uris":{"android":"levelo://app?vid=eea78b61-2063-42e5-876f-57b72ee0916e","ios":"levelo://app?vid=eea78b61-2063-42e5-876f-57b72ee0916e"},"vehicle_type_id":"4","last_reported":1748232999,"current_range_meters":10000,"station_id":"ce4bhoh2rcd13ifvqh6g","pricing_plan_id":"cebpf4jnsgd1na2vs0mg"},{"bike_id":"e26aa2b0-7df1-45dc-93f0-8478476038dc","system_id":"levelo_inurba_marseille","lat":43.27089,"lon":5.42271,"is_reserved":false,"is_disabled":false,"rental_uris":{"android":"levelo://app?vid=e26aa2b0-7df1-45dc-93f0-8478476038dc","ios":"levelo://app?vid=e26aa2b0-7df1-45dc-93f0-8478476038dc"},"vehicle_type_id":"4","last_reported":1748232999,"current_range_meters":10000,"station_id":"ce4bhk92rcd13ifvqgb0","pricing_plan_id":"cebpf4jnsgd1na2vs0mg"},{"bike_id":"fc56555b-396d-4667-b896-0ad86036e39e","system_id":"levelo_inurba_marseille","lat":43.25908,"lon":5.380394,"is_reserved":false,"is_disabled":false,"rental_uris":{"android":"levelo://app?vid=fc56555b-396d-4667-b896-0ad86036e39e","ios":"levelo://app?vid=fc56555b-396d-4667-b896-0ad86036e39e"},"vehicle_type_id":"4","last_reported":1748232999,"current_range_meters":10800,"station_id":"","pricing_plan_id":"cebpf4jnsgd1na2vs0mg"},{"bike_id":"ba8c852d-d218-4446-b96c-d0fe3f7662b6","system_id":"levelo_inurba_marseille","lat":43.28952,"lon":5.36648,"is_reserved":false,"is_disabled":false,"rental_uris":{"android":"levelo://app?vid=ba8c852d-d218-4446-b96c-d0fe3f7662b6","ios":"levelo://app?vid=ba8c852d-d218-4446-b96c-d0fe3f7662b6"},"vehicle_type_id":"4","last_reported":1748232999,"current_range_meters":10800,"station_id":"ce4bhap2rcd13ifvqek0","pricing_plan_id":"cebpf4jnsgd1na2vs0mg"},{"bike_id":"82ada0fe-9ac1-49de-85b0-53cbb4669473","system_id":"levelo_inurba_marseille","lat":43.287067,"lon":5.399888,"is_reserved":false,"is_disabled":false,"rental_uris":{"android":"levelo://app?vid=82ada0fe-9ac1-49de-85b0-53cbb4669473","ios":"levelo://app?vid=82ada0fe-9ac1-49de-85b0-53cbb4669473"},"vehicle_type_id":"4","last_reported":1748232999,"current_range_meters":10800,"station_id":"ce4bho92rcd13ifvqh3g","pricing_plan_id":"cebpf4jnsgd1na2vs0mg"},{"bike_id":"82b7dbca-76e2-48fb-9279-419bd8847b66","system_id":"levelo_inurba_marseille","lat":43.262253,"lon":5.404685,"is_reserved":false,"is_disabled":false,"rental_uris":{"android":"levelo://app?vid=82b7dbca-76e2-48fb-9279-419bd8847b66","ios":"levelo://app?vid=82b7dbca-76e2-48fb-9279-419bd8847b66"},"vehicle_type_id":"4","last_reported":1748232999,"current_range_meters":10800,"station_id":"ce4bhmh2rcd13ifvqgmg","pricing_plan_id":"cebpf4jnsgd1na2vs0mg"},{"bike_id":"6cbaf781-b9b1-4c6f-9079-c3f68f511316","system_id":"levelo_inurba_marseille","lat":43.28697,"lon":5.37416,"is_reserved":false,"is_disabled":false,"rental_uris":{"android":"levelo://app?vid=6cbaf781-b9b1-4c6f-9079-c3f68f511316","ios":"levelo://app?vid=6cbaf781-b9b1-4c6f-9079-c3f68f511316"},"vehicle_type_id":"4","last_reported":1748232999,"current_range_meters":10800,"station_id":"ce4bh3p2rcd13ifvqdq0","pricing_plan_id":"cebpf4jnsgd1na2vs0mg"},{"bike_id":"06e17948-9eb2-43bd-bbcd-322933b741bc","system_id":"levelo_inurba_marseille","lat":43.278077,"lon":5.407279,"is_reserved":false,"is_disabled":false,"rental_uris":{"android":"levelo://app?vid=06e17948-9eb2-43bd-bbcd-322933b741bc","ios":"levelo://app?vid=06e17948-9eb2-43bd-bbcd-322933b741bc"},"vehicle_type_id":"4","last_reported":1748232999,"current_range_meters":10800,"station_id":"ce4bhnh2rcd13ifvqgtg","pricing_plan_id":"cebpf4jnsgd1na2vs0mg"},{"bike_id":"f6d9f9c7-48a6-477b-be9d-e0c2a4dc6895","system_id":"levelo_inurba_marseille","lat":43.285656,"lon":5.394981,"is_reserved":false,"is_disabled":false,"rental_uris":{"android":"levelo://app?vid=f6d9f9c7-48a6-477b-be9d-e0c2a4dc6895","ios":"levelo://app?vid=f6d9f9c7-48a6-477b-be9d-e0c2a4dc6895"},"vehicle_type_id":"4","last_reported":1748232999,"current_range_meters":10800,"station_id":"ce4bh292rcd13ifvqdg0","pricing_plan_id":"cebpf4jnsgd1na2vs0mg"},{"bike_id":"874fba91-fbda-4288-b17f-8759eec81e80","system_id":"levelo_inurba_marseille","lat":43.27075,"lon":5.42279,"is_reserved":false,"is_disabled":false,"rental_uris":{"android":"levelo://app?vid=874fba91-fbda-4288-b17f-8759eec81e80","ios":"levelo://app?vid=874fba91-fbda-4288-b17f-8759eec81e80"},"vehicle_type_id":"4","last_reported":1748232999,"current_range_meters":10800,"station_id":"ce4bhk92rcd13ifvqgb0","pricing_plan_id":"cebpf4jnsgd1na2vs0mg"},{"bike_id":"75f4410e-35a5-433b-9917-b9f478a71d8a","system_id":"levelo_inurba_marseille","lat":43.28414,"lon":5.37527,"is_reserved":false,"is_disabled":false,"rental_uris":{"android":"levelo://app?vid=75f4410e-35a5-433b-9917-b9f478a71d8a","ios":"levelo://app?vid=75f4410e-35a5-433b-9917-b9f478a71d8a"},"vehicle_type_id":"4","last_reported":1748232999,"current_range_meters":10800,"station_id":"ce4bh412rcd13ifvqds0","pricing_plan_id":"cebpf4jnsgd1na2vs0mg"},{"bike_id":"16c9256a-080c-40a4-8b24-03fcfd8d44d8","system_id":"levelo_inurba_marseille","lat":43.292557,"lon":5.409104,"is_reserved":false,"is_disabled":false,"rental_uris":{"android":"levelo://app?vid=16c9256a-080c-40a4-8b24-03fcfd8d44d8","ios":"levelo://app?vid=16c9256a-080c-40a4-8b24-03fcfd8d44d8"},"vehicle_type_id":"4","last_reported":1748232999,"current_range_meters":11200,"station_id":"ce4bh192rcd13ifvqdc0","pricing_plan_id":"cebpf4jnsgd1na2vs0mg"},{"bike_id":"253b3b17-68d6-420d-8d9a-7767e509688e","system_id":"levelo_inurba_marseille","lat":43.217546,"lon":5.346186,"is_reserved":false,"is_disabled":true,"rental_uris":{"android":"levelo://app?vid=253b3b17-68d6-420d-8d9a-7767e509688e","ios":"levelo://app?vid=253b3b17-68d6-420d-8d9a-7767e509688e"},"vehicle_type_id":"4","last_reported":1748232999,"current_range_meters":11200,"station_id":"st_cvj6r9ubvosntc0bgbag","pricing_plan_id":"cebpf4jnsgd1na2vs0mg"},{"bike_id":"f1823af5-3f80-4aac-995c-9c8965be6d90","system_id":"levelo_inurba_marseille","lat":43.27055,"lon":5.40257,"is_reserved":false,"is_disabled":false,"rental_uris":{"android":"levelo://app?vid=f1823af5-3f80-4aac-995c-9c8965be6d90","ios":"levelo://app?vid=f1823af5-3f80-4aac-995c-9c8965be6d90"},"vehicle_type_id":"4","last_reported":1748232999,"current_range_meters":11200,"station_id":"ce4bhk92rcd13ifvqgc0","pricing_plan_id":"cebpf4jnsgd1na2vs0mg"},{"bike_id":"d7d43624-a641-4381-92fc-49cd4e58cb5d","system_id":"levelo_inurba_marseille","lat":43.284243,"lon":5.349831,"is_reserved":false,"is_disabled":true,"rental_uris":{"android":"levelo://app?vid=d7d43624-a641-4381-92fc-49cd4e58cb5d","ios":"levelo://app?vid=d7d43624-a641-4381-92fc-49cd4e58cb5d"},"vehicle_type_id":"4","last_reported":1748232999,"current_range_meters":11200,"station_id":"ce4bhbh2rcd13ifvqepg","pricing_plan_id":"cebpf4jnsgd1na2vs0mg"},{"bike_id":"839d9fb0-ad82-4d2e-ba64-3bcd95d5692f","system_id":"levelo_inurba_marseille","lat":43.286569,"lon":5.363466,"is_reserved":false,"is_disabled":false,"rental_uris":{"android":"levelo://app?vid=839d9fb0-ad82-4d2e-ba64-3bcd95d5692f","ios":"levelo://app?vid=839d9fb0-ad82-4d2e-ba64-3bcd95d5692f"},"vehicle_type_id":"4","last_reported":1748232999,"current_range_meters":11200,"station_id":"ce4bhah2rcd13ifvqej0","pricing_plan_id":"cebpf4jnsgd1na2vs0mg"},{"bike_id":"24b67d07-f87f-4978-9499-eb41b3a0383e","system_id":"levelo_inurba_marseille","lat":43.31059,"lon":5.38359,"is_reserved":false,"is_disabled":false,"rental_uris":{"android":"levelo://app?vid=24b67d07-f87f-4978-9499-eb41b3a0383e","ios":"levelo://app?vid=24b67d07-f87f-4978-9499-eb41b3a0383e"},"vehicle_type_id":"4","last_reported":1748232999,"current_range_meters":11200,"station_id":"ce4bgv92rcd13ifvqcr0","pricing_plan_id":"cebpf4jnsgd1na2vs0mg"},{"bike_id":"fb14966c-dc81-4839-a094-ab8c755c3e53","system_id":"levelo_inurba_marseille","lat":43.28703,"lon":5.38714,"is_reserved":false,"is_disabled":false,"rental_uris":{"android":"levelo://app?vid=fb14966c-dc81-4839-a094-ab8c755c3e53","ios":"levelo://app?vid=fb14966c-dc81-4839-a094-ab8c755c3e53"},"vehicle_type_id":"4","last_reported":1748232999,"current_range_meters":11200,"station_id":"","pricing_plan_id":"cebpf4jnsgd1na2vs0mg"},{"bike_id":"dd7745d2-4be9-4a3e-9555-e1ba6203519d","system_id":"levelo_inurba_marseille","lat":43.25504,"lon":5.37648,"is_reserved":false,"is_disabled":false,"rental_uris":{"android":"levelo://app?vid=dd7745d2-4be9-4a3e-9555-e1ba6203519d","ios":"levelo://app?vid=dd7745d2-4be9-4a3e-9555-e1ba6203519d"},"vehicle_type_id":"4","last_reported":1748232999,"current_range_meters":10800,"station_id":"ce4bhh12rcd13ifvqff0","pricing_plan_id":"cebpf4jnsgd1na2vs0mg"},{"bike_id":"1dfee792-c42c-4907-b3eb-1eeef94c4523","system_id":"levelo_inurba_marseille","lat":43.29112,"lon":5.4263,"is_reserved":false,"is_disabled":true,"rental_uris":{"android":"levelo://app?vid=1dfee792-c42c-4907-b3eb-1eeef94c4523","ios":"levelo://app?vid=1dfee792-c42c-4907-b3eb-1eeef94c4523"},"vehicle_type_id":"4","last_reported":1748232999,"current_range_meters":11200,"station_id":"","pricing_plan_id":"cebpf4jnsgd1na2vs0mg"},{"bike_id":"3f59e938-32cd-4e08-9741-9a07276877af","system_id":"levelo_inurba_marseille","lat":43.282023,"lon":5.390555,"is_reserved":false,"is_disabled":false,"rental_uris":{"android":"levelo://app?vid=3f59e938-32cd-4e08-9741-9a07276877af","ios":"levelo://app?vid=3f59e938-32cd-4e08-9741-9a07276877af"},"vehicle_type_id":"4","last_reported":1748232999,"current_range_meters":11200,"station_id":"ce4bh492rcd13ifvqdug","pricing_plan_id":"cebpf4jnsgd1na2vs0mg"},{"bike_id":"079c7469-6271-4a87-bc0c-d5d3c60c4291","system_id":"levelo_inurba_marseille","lat":43.27944,"lon":5.410423,"is_reserved":false,"is_disabled":false,"rental_uris":{"android":"levelo://app?vid=079c7469-6271-4a87-bc0c-d5d3c60c4291","ios":"levelo://app?vid=079c7469-6271-4a87-bc0c-d5d3c60c4291"},"vehicle_type_id":"4","last_reported":1748232999,"current_range_meters":11200,"station_id":"ce4bhnp2rcd13ifvqh0g","pricing_plan_id":"cebpf4jnsgd1na2vs0mg"},{"bike_id":"a4aef2b9-b7e8-4e2d-8340-592d28bc6c85","system_id":"levelo_inurba_marseille","lat":43.337582,"lon":5.374479,"is_reserved":false,"is_disabled":false,"rental_uris":{"android":"levelo://app?vid=a4aef2b9-b7e8-4e2d-8340-592d28bc6c85","ios":"levelo://app?vid=a4aef2b9-b7e8-4e2d-8340-592d28bc6c85"},"vehicle_type_id":"4","last_reported":1748232999,"current_range_meters":11600,"station_id":"","pricing_plan_id":"cebpf4jnsgd1na2vs0mg"},{"bike_id":"0206fe16-4af9-4d66-9a38-70adb2f22b56","system_id":"levelo_inurba_marseille","lat":43.30262,"lon":5.40057,"is_reserved":false,"is_disabled":false,"rental_uris":{"android":"levelo://app?vid=0206fe16-4af9-4d66-9a38-70adb2f22b56","ios":"levelo://app?vid=0206fe16-4af9-4d66-9a38-70adb2f22b56"},"vehicle_type_id":"4","last_reported":1748232999,"current_range_meters":11600,"station_id":"ce4bgvh2rcd13ifvqcs0","pricing_plan_id":"cebpf4jnsgd1na2vs0mg"},{"bike_id":"a827fbdb-f969-4ed5-b996-f0fe648586c9","system_id":"levelo_inurba_marseille","lat":43.300967,"lon":5.390757,"is_reserved":false,"is_disabled":false,"rental_uris":{"android":"levelo://app?vid=a827fbdb-f969-4ed5-b996-f0fe648586c9","ios":"levelo://app?vid=a827fbdb-f969-4ed5-b996-f0fe648586c9"},"vehicle_type_id":"4","last_reported":1748232999,"current_range_meters":11600,"station_id":"ce4bh192rcd13ifvqdb0","pricing_plan_id":"cebpf4jnsgd1na2vs0mg"},{"bike_id":"41d795fd-6b15-4eca-98cc-80356500dbfe","system_id":"levelo_inurba_marseille","lat":43.24156,"lon":5.3642,"is_reserved":false,"is_disabled":true,"rental_uris":{"android":"levelo://app?vid=41d795fd-6b15-4eca-98cc-80356500dbfe","ios":"levelo://app?vid=41d795fd-6b15-4eca-98cc-80356500dbfe"},"vehicle_type_id":"4","last_reported":1748232999,"current_range_meters":11600,"station_id":"cpo36qri1sfpv3e86is0","pricing_plan_id":"cebpf4jnsgd1na2vs0mg"},{"bike_id":"f6c6d614-57aa-42d2-bd57-8b2141b94c79","system_id":"levelo_inurba_marseille","lat":43.25726,"lon":5.41094,"is_reserved":false,"is_disabled":false,"rental_uris":{"android":"levelo://app?vid=f6c6d614-57aa-42d2-bd57-8b2141b94c79","ios":"levelo://app?vid=f6c6d614-57aa-42d2-bd57-8b2141b94c79"},"vehicle_type_id":"4","last_reported":1748232999,"current_range_meters":11600,"station_id":"ce4bhkp2rcd13ifvqgd0","pricing_plan_id":"cebpf4jnsgd1na2vs0mg"},{"bike_id":"57214fb8-bc7a-4177-bc9b-3c4c5ced925b","system_id":"levelo_inurba_marseille","lat":43.30324,"lon":5.40451,"is_reserved":false,"is_disabled":false,"rental_uris":{"android":"levelo://app?vid=57214fb8-bc7a-4177-bc9b-3c4c5ced925b","ios":"levelo://app?vid=57214fb8-bc7a-4177-bc9b-3c4c5ced925b"},"vehicle_type_id":"4","last_reported":1748232999,"current_range_meters":11600,"station_id":"ce4bh012rcd13ifvqd10","pricing_plan_id":"cebpf4jnsgd1na2vs0mg"},{"bike_id":"def005ed-badd-4338-a695-82d55f2469a6","system_id":"levelo_inurba_marseille","lat":43.28587,"lon":5.39537,"is_reserved":false,"is_disabled":false,"rental_uris":{"android":"levelo://app?vid=def005ed-badd-4338-a695-82d55f2469a6","ios":"levelo://app?vid=def005ed-badd-4338-a695-82d55f2469a6"},"vehicle_type_id":"4","last_reported":1748232999,"current_range_meters":11600,"station_id":"ce4bh292rcd13ifvqdg0","pricing_plan_id":"cebpf4jnsgd1na2vs0mg"},{"bike_id":"e5040cc6-5912-44c1-a358-57f34154615c","system_id":"levelo_inurba_marseille","lat":43.28099,"lon":5.38659,"is_reserved":false,"is_disabled":true,"rental_uris":{"android":"levelo://app?vid=e5040cc6-5912-44c1-a358-57f34154615c","ios":"levelo://app?vid=e5040cc6-5912-44c1-a358-57f34154615c"},"vehicle_type_id":"4","last_reported":1748232999,"current_range_meters":12000,"station_id":"","pricing_plan_id":"cebpf4jnsgd1na2vs0mg"},{"bike_id":"e8fb609b-9f06-48f8-931c-fcfff118dc02","system_id":"levelo_inurba_marseille","lat":43.28541,"lon":5.39518,"is_reserved":false,"is_disabled":false,"rental_uris":{"android":"levelo://app?vid=e8fb609b-9f06-48f8-931c-fcfff118dc02","ios":"levelo://app?vid=e8fb609b-9f06-48f8-931c-fcfff118dc02"},"vehicle_type_id":"4","last_reported":1748232999,"current_range_meters":12000,"station_id":"ce4bh292rcd13ifvqdg0","pricing_plan_id":"cebpf4jnsgd1na2vs0mg"},{"bike_id":"b5d1aa10-710f-4059-8a08-b84f392127fb","system_id":"levelo_inurba_marseille","lat":43.30125,"lon":5.39893,"is_reserved":false,"is_disabled":false,"rental_uris":{"android":"levelo://app?vid=b5d1aa10-710f-4059-8a08-b84f392127fb","ios":"levelo://app?vid=b5d1aa10-710f-4059-8a08-b84f392127fb"},"vehicle_type_id":"4","last_reported":1748232999,"current_range_meters":12000,"station_id":"ce4bh0h2rcd13ifvqd40","pricing_plan_id":"cebpf4jnsgd1na2vs0mg"},{"bike_id":"770d7625-e164-4732-b38c-e0e240ffa8af","system_id":"levelo_inurba_marseille","lat":43.32329,"lon":5.38899,"is_reserved":false,"is_disabled":false,"rental_uris":{"android":"levelo://app?vid=770d7625-e164-4732-b38c-e0e240ffa8af","ios":"levelo://app?vid=770d7625-e164-4732-b38c-e0e240ffa8af"},"vehicle_type_id":"4","last_reported":1748232999,"current_range_meters":12000,"station_id":"ce4bhqp2rcd13ifvqhog","pricing_plan_id":"cebpf4jnsgd1na2vs0mg"},{"bike_id":"495e7bc5-e981-407c-a4ab-07c1e6647790","system_id":"levelo_inurba_marseille","lat":43.30932,"lon":5.40145,"is_reserved":false,"is_disabled":false,"rental_uris":{"android":"levelo://app?vid=495e7bc5-e981-407c-a4ab-07c1e6647790","ios":"levelo://app?vid=495e7bc5-e981-407c-a4ab-07c1e6647790"},"vehicle_type_id":"4","last_reported":1748232999,"current_range_meters":12000,"station_id":"","pricing_plan_id":"cebpf4jnsgd1na2vs0mg"},{"bike_id":"0ac1567d-f449-45bf-bef1-f3a6ddda127c","system_id":"levelo_inurba_marseille","lat":43.27996,"lon":5.39999,"is_reserved":false,"is_disabled":false,"rental_uris":{"android":"levelo://app?vid=0ac1567d-f449-45bf-bef1-f3a6ddda127c","ios":"levelo://app?vid=0ac1567d-f449-45bf-bef1-f3a6ddda127c"},"vehicle_type_id":"4","last_reported":1748232999,"current_range_meters":12000,"station_id":"ce4bho92rcd13ifvqh4g","pricing_plan_id":"cebpf4jnsgd1na2vs0mg"},{"bike_id":"b744080c-dd77-486d-9609-00c9cf60c1ad","system_id":"levelo_inurba_marseille","lat":43.23692,"lon":5.39072,"is_reserved":false,"is_disabled":false,"rental_uris":{"android":"levelo://app?vid=b744080c-dd77-486d-9609-00c9cf60c1ad","ios":"levelo://app?vid=b744080c-dd77-486d-9609-00c9cf60c1ad"},"vehicle_type_id":"4","last_reported":1748232999,"current_range_meters":12400,"station_id":"","pricing_plan_id":"cebpf4jnsgd1na2vs0mg"},{"bike_id":"6a4612f8-d511-472f-9784-e69bac545256","system_id":"levelo_inurba_marseille","lat":43.290096,"lon":5.366328,"is_reserved":false,"is_disabled":false,"rental_uris":{"android":"levelo://app?vid=6a4612f8-d511-472f-9784-e69bac545256","ios":"levelo://app?vid=6a4612f8-d511-472f-9784-e69bac545256"},"vehicle_type_id":"4","last_reported":1748232999,"current_range_meters":12400,"station_id":"","pricing_plan_id":"cebpf4jnsgd1na2vs0mg"},{"bike_id":"c09f3b14-08e4-4d3e-8e7c-25d11426c4bf","system_id":"levelo_inurba_marseille","lat":43.28767,"lon":5.4819,"is_reserved":false,"is_disabled":true,"rental_uris":{"android":"levelo://app?vid=c09f3b14-08e4-4d3e-8e7c-25d11426c4bf","ios":"levelo://app?vid=c09f3b14-08e4-4d3e-8e7c-25d11426c4bf"},"vehicle_type_id":"4","last_reported":1748232999,"current_range_meters":12400,"station_id":"","pricing_plan_id":"cebpf4jnsgd1na2vs0mg"},{"bike_id":"04adad7e-15a7-4893-8ef9-1193cc91c9df","system_id":"levelo_inurba_marseille","lat":43.27943,"lon":5.41044,"is_reserved":false,"is_disabled":false,"rental_uris":{"android":"levelo://app?vid=04adad7e-15a7-4893-8ef9-1193cc91c9df","ios":"levelo://app?vid=04adad7e-15a7-4893-8ef9-1193cc91c9df"},"vehicle_type_id":"4","last_reported":1748232999,"current_range_meters":12800,"station_id":"ce4bhnp2rcd13ifvqh0g","pricing_plan_id":"cebpf4jnsgd1na2vs0mg"},{"bike_id":"e00e2700-bc57-4c18-9058-1eaa60412882","system_id":"levelo_inurba_marseille","lat":43.261891,"lon":5.374586,"is_reserved":false,"is_disabled":true,"rental_uris":{"android":"levelo://app?vid=e00e2700-bc57-4c18-9058-1eaa60412882","ios":"levelo://app?vid=e00e2700-bc57-4c18-9058-1eaa60412882"},"vehicle_type_id":"4","last_reported":1748232999,"current_range_meters":12800,"station_id":"ce4bhgp2rcd13ifvqfc0","pricing_plan_id":"cebpf4jnsgd1na2vs0mg"},{"bike_id":"a1cad742-c462-4135-a3f0-0311fa3b7596","system_id":"levelo_inurba_marseille","lat":43.293003,"lon":5.374541,"is_reserved":false,"is_disabled":true,"rental_uris":{"android":"levelo://app?vid=a1cad742-c462-4135-a3f0-0311fa3b7596","ios":"levelo://app?vid=a1cad742-c462-4135-a3f0-0311fa3b7596"},"vehicle_type_id":"4","last_reported":1748232999,"current_range_meters":12800,"station_id":"ce4bgi12rcd13ifvqb70","pricing_plan_id":"cebpf4jnsgd1na2vs0mg"},{"bike_id":"e38b04f7-29c0-43e3-a304-e78ae32b0a4d","system_id":"levelo_inurba_marseille","lat":43.22501,"lon":5.34781,"is_reserved":false,"is_disabled":false,"rental_uris":{"android":"levelo://app?vid=e38b04f7-29c0-43e3-a304-e78ae32b0a4d","ios":"levelo://app?vid=e38b04f7-29c0-43e3-a304-e78ae32b0a4d"},"vehicle_type_id":"4","last_reported":1748232999,"current_range_meters":12800,"station_id":"","pricing_plan_id":"cebpf4jnsgd1na2vs0mg"},{"bike_id":"5110df71-4881-4d56-9804-4de95af891fd","system_id":"levelo_inurba_marseille","lat":43.29264,"lon":5.40148,"is_reserved":false,"is_disabled":false,"rental_uris":{"android":"levelo://app?vid=5110df71-4881-4d56-9804-4de95af891fd","ios":"levelo://app?vid=5110df71-4881-4d56-9804-4de95af891fd"},"vehicle_type_id":"4","last_reported":1748232999,"current_range_meters":12800,"station_id":"ce4bh312rcd13ifvqdk0","pricing_plan_id":"cebpf4jnsgd1na2vs0mg"},{"bike_id":"530bbe3c-9943-40a0-b2ab-5031f93ebaf7","system_id":"levelo_inurba_marseille","lat":43.287064,"lon":5.379495,"is_reserved":false,"is_disabled":false,"rental_uris":{"android":"levelo://app?vid=530bbe3c-9943-40a0-b2ab-5031f93ebaf7","ios":"levelo://app?vid=530bbe3c-9943-40a0-b2ab-5031f93ebaf7"},"vehicle_type_id":"4","last_reported":1748232999,"current_range_meters":13600,"station_id":"ce4bh9p2rcd13ifvqec0","pricing_plan_id":"cebpf4jnsgd1na2vs0mg"},{"bike_id":"18ffc3f0-f700-44a6-930b-8675a62b7c62","system_id":"levelo_inurba_marseille","lat":43.30786,"lon":5.37651,"is_reserved":false,"is_disabled":true,"rental_uris":{"android":"levelo://app?vid=18ffc3f0-f700-44a6-930b-8675a62b7c62","ios":"levelo://app?vid=18ffc3f0-f700-44a6-930b-8675a62b7c62"},"vehicle_type_id":"4","last_reported":1748232999,"current_range_meters":13600,"station_id":"ce4bgv92rcd13ifvqcq0","pricing_plan_id":"cebpf4jnsgd1na2vs0mg"},{"bike_id":"5148f8b2-1ecb-4c76-b37d-928f8d5cde64","system_id":"levelo_inurba_marseille","lat":43.32319,"lon":5.36781,"is_reserved":false,"is_disabled":false,"rental_uris":{"android":"levelo://app?vid=5148f8b2-1ecb-4c76-b37d-928f8d5cde64","ios":"levelo://app?vid=5148f8b2-1ecb-4c76-b37d-928f8d5cde64"},"vehicle_type_id":"4","last_reported":1748232999,"current_range_meters":13600,"station_id":"ce4bhsh2rcd13ifvqi2g","pricing_plan_id":"cebpf4jnsgd1na2vs0mg"},{"bike_id":"88dab9a2-6899-4608-a445-e022c6d5109e","system_id":"levelo_inurba_marseille","lat":43.30169,"lon":5.38077,"is_reserved":false,"is_disabled":false,"rental_uris":{"android":"levelo://app?vid=88dab9a2-6899-4608-a445-e022c6d5109e","ios":"levelo://app?vid=88dab9a2-6899-4608-a445-e022c6d5109e"},"vehicle_type_id":"4","last_reported":1748232999,"current_range_meters":13600,"station_id":"ce4bgjp2rcd13ifvqbh0","pricing_plan_id":"cebpf4jnsgd1na2vs0mg"},{"bike_id":"29bff24e-c898-49da-9ffa-90cdf1d535e8","system_id":"levelo_inurba_marseille","lat":43.295071,"lon":5.394026,"is_reserved":false,"is_disabled":true,"rental_uris":{"android":"levelo://app?vid=29bff24e-c898-49da-9ffa-90cdf1d535e8","ios":"levelo://app?vid=29bff24e-c898-49da-9ffa-90cdf1d535e8"},"vehicle_type_id":"4","last_reported":1748232999,"current_range_meters":13600,"station_id":"ce4bh292rcd13ifvqdf0","pricing_plan_id":"cebpf4jnsgd1na2vs0mg"},{"bike_id":"b4f55865-d2c7-4348-8cd8-a5f681fde877","system_id":"levelo_inurba_marseille","lat":43.29553,"lon":5.37515,"is_reserved":false,"is_disabled":true,"rental_uris":{"android":"levelo://app?vid=b4f55865-d2c7-4348-8cd8-a5f681fde877","ios":"levelo://app?vid=b4f55865-d2c7-4348-8cd8-a5f681fde877"},"vehicle_type_id":"4","last_reported":1748232999,"current_range_meters":13600,"station_id":"ce4bgh92rcd13ifvqb50","pricing_plan_id":"cebpf4jnsgd1na2vs0mg"},{"bike_id":"5fc9e37e-7ebc-4d1a-abfc-0d0f6cdf88a7","system_id":"levelo_inurba_marseille","lat":43.294441,"lon":5.397582,"is_reserved":false,"is_disabled":false,"rental_uris":{"android":"levelo://app?vid=5fc9e37e-7ebc-4d1a-abfc-0d0f6cdf88a7","ios":"levelo://app?vid=5fc9e37e-7ebc-4d1a-abfc-0d0f6cdf88a7"},"vehicle_type_id":"4","last_reported":1748232999,"current_range_meters":13600,"station_id":"ce4bh3h2rcd13ifvqdo0","pricing_plan_id":"cebpf4jnsgd1na2vs0mg"},{"bike_id":"e6edbb3c-3cca-4f02-b483-734348479651","system_id":"levelo_inurba_marseille","lat":43.2897,"lon":5.365914,"is_reserved":false,"is_disabled":false,"rental_uris":{"android":"levelo://app?vid=e6edbb3c-3cca-4f02-b483-734348479651","ios":"levelo://app?vid=e6edbb3c-3cca-4f02-b483-734348479651"},"vehicle_type_id":"4","last_reported":1748232999,"current_range_meters":13600,"station_id":"","pricing_plan_id":"cebpf4jnsgd1na2vs0mg"},{"bike_id":"149da10d-6eaa-4811-88f1-d1dead375b83","system_id":"levelo_inurba_marseille","lat":43.295196,"lon":5.394039,"is_reserved":false,"is_disabled":true,"rental_uris":{"android":"levelo://app?vid=149da10d-6eaa-4811-88f1-d1dead375b83","ios":"levelo://app?vid=149da10d-6eaa-4811-88f1-d1dead375b83"},"vehicle_type_id":"4","last_reported":1748232999,"current_range_meters":14000,"station_id":"ce4bh292rcd13ifvqdf0","pricing_plan_id":"cebpf4jnsgd1na2vs0mg"},{"bike_id":"f0db987f-7a9b-45df-8e26-1d773e43b6e4","system_id":"levelo_inurba_marseille","lat":43.317128,"lon":5.436976,"is_reserved":false,"is_disabled":false,"rental_uris":{"android":"levelo://app?vid=f0db987f-7a9b-45df-8e26-1d773e43b6e4","ios":"levelo://app?vid=f0db987f-7a9b-45df-8e26-1d773e43b6e4"},"vehicle_type_id":"4","last_reported":1748232999,"current_range_meters":14000,"station_id":"ce4bhp92rcd13ifvqhcg","pricing_plan_id":"cebpf4jnsgd1na2vs0mg"},{"bike_id":"ea4d74dd-d824-412e-aad3-33347858b8a9","system_id":"levelo_inurba_marseille","lat":43.302541,"lon":5.400724,"is_reserved":false,"is_disabled":false,"rental_uris":{"android":"levelo://app?vid=ea4d74dd-d824-412e-aad3-33347858b8a9","ios":"levelo://app?vid=ea4d74dd-d824-412e-aad3-33347858b8a9"},"vehicle_type_id":"4","last_reported":1748232999,"current_range_meters":14000,"station_id":"ce4bgvh2rcd13ifvqcs0","pricing_plan_id":"cebpf4jnsgd1na2vs0mg"},{"bike_id":"5fdd1728-cffc-4640-bd52-9ac342b8e4b7","system_id":"levelo_inurba_marseille","lat":43.31776,"lon":5.38529,"is_reserved":false,"is_disabled":false,"rental_uris":{"android":"levelo://app?vid=5fdd1728-cffc-4640-bd52-9ac342b8e4b7","ios":"levelo://app?vid=5fdd1728-cffc-4640-bd52-9ac342b8e4b7"},"vehicle_type_id":"4","last_reported":1748232999,"current_range_meters":14000,"station_id":"","pricing_plan_id":"cebpf4jnsgd1na2vs0mg"},{"bike_id":"4ef899f0-3200-4631-95b1-dadbaa04c417","system_id":"levelo_inurba_marseille","lat":43.291913,"lon":5.357961,"is_reserved":false,"is_disabled":true,"rental_uris":{"android":"levelo://app?vid=4ef899f0-3200-4631-95b1-dadbaa04c417","ios":"levelo://app?vid=4ef899f0-3200-4631-95b1-dadbaa04c417"},"vehicle_type_id":"4","last_reported":1748232999,"current_range_meters":14000,"station_id":"ce4bhb12rcd13ifvqel0","pricing_plan_id":"cebpf4jnsgd1na2vs0mg"},{"bike_id":"44c19ffa-ae57-4f0d-9c51-0ada9d8cecd2","system_id":"levelo_inurba_marseille","lat":43.284043,"lon":5.375225,"is_reserved":false,"is_disabled":false,"rental_uris":{"android":"levelo://app?vid=44c19ffa-ae57-4f0d-9c51-0ada9d8cecd2","ios":"levelo://app?vid=44c19ffa-ae57-4f0d-9c51-0ada9d8cecd2"},"vehicle_type_id":"4","last_reported":1748232999,"current_range_meters":14000,"station_id":"ce4bh412rcd13ifvqds0","pricing_plan_id":"cebpf4jnsgd1na2vs0mg"},{"bike_id":"1a0998e5-8bb9-474f-a827-53cad24c9e8f","system_id":"levelo_inurba_marseille","lat":43.320468,"lon":5.449483,"is_reserved":false,"is_disabled":false,"rental_uris":{"android":"levelo://app?vid=1a0998e5-8bb9-474f-a827-53cad24c9e8f","ios":"levelo://app?vid=1a0998e5-8bb9-474f-a827-53cad24c9e8f"},"vehicle_type_id":"4","last_reported":1748232999,"current_range_meters":14400,"station_id":"","pricing_plan_id":"cebpf4jnsgd1na2vs0mg"},{"bike_id":"128ab45a-3ee5-4656-a6fb-38e529c5d290","system_id":"levelo_inurba_marseille","lat":43.27908,"lon":5.39595,"is_reserved":false,"is_disabled":false,"rental_uris":{"android":"levelo://app?vid=128ab45a-3ee5-4656-a6fb-38e529c5d290","ios":"levelo://app?vid=128ab45a-3ee5-4656-a6fb-38e529c5d290"},"vehicle_type_id":"4","last_reported":1748232999,"current_range_meters":14400,"station_id":"ce4bhf92rcd13ifvqf40","pricing_plan_id":"cebpf4jnsgd1na2vs0mg"},{"bike_id":"36fa0e2c-281e-441e-847d-b93503ba6146","system_id":"levelo_inurba_marseille","lat":43.284557,"lon":5.358981,"is_reserved":false,"is_disabled":true,"rental_uris":{"android":"levelo://app?vid=36fa0e2c-281e-441e-847d-b93503ba6146","ios":"levelo://app?vid=36fa0e2c-281e-441e-847d-b93503ba6146"},"vehicle_type_id":"4","last_reported":1748232999,"current_range_meters":14400,"station_id":"ce4bhah2rcd13ifvqei0","pricing_plan_id":"cebpf4jnsgd1na2vs0mg"},{"bike_id":"6f1c556a-957e-483e-b58e-5e6baa2722a6","system_id":"levelo_inurba_marseille","lat":43.24808,"lon":5.37454,"is_reserved":false,"is_disabled":true,"rental_uris":{"android":"levelo://app?vid=6f1c556a-957e-483e-b58e-5e6baa2722a6","ios":"levelo://app?vid=6f1c556a-957e-483e-b58e-5e6baa2722a6"},"vehicle_type_id":"4","last_reported":1748232999,"current_range_meters":14400,"station_id":"ce4bhgh2rcd13ifvqfb0","pricing_plan_id":"cebpf4jnsgd1na2vs0mg"},{"bike_id":"35070d47-8864-49c7-a023-dc0cc96b9ab6","system_id":"levelo_inurba_marseille","lat":43.23044,"lon":5.35492,"is_reserved":false,"is_disabled":false,"rental_uris":{"android":"levelo://app?vid=35070d47-8864-49c7-a023-dc0cc96b9ab6","ios":"levelo://app?vid=35070d47-8864-49c7-a023-dc0cc96b9ab6"},"vehicle_type_id":"4","last_reported":1748232999,"current_range_meters":14400,"station_id":"cpo3342slgdg3j2ifvpg","pricing_plan_id":"cebpf4jnsgd1na2vs0mg"},{"bike_id":"ae6e6868-2635-4f49-b7c1-b03759c58ec7","system_id":"levelo_inurba_marseille","lat":43.27276,"lon":5.415932,"is_reserved":false,"is_disabled":false,"rental_uris":{"android":"levelo://app?vid=ae6e6868-2635-4f49-b7c1-b03759c58ec7","ios":"levelo://app?vid=ae6e6868-2635-4f49-b7c1-b03759c58ec7"},"vehicle_type_id":"4","last_reported":1748232999,"current_range_meters":14800,"station_id":"","pricing_plan_id":"cebpf4jnsgd1na2vs0mg"},{"bike_id":"2531383d-4610-4902-9039-3fae65609991","system_id":"levelo_inurba_marseille","lat":43.25091,"lon":5.39509,"is_reserved":false,"is_disabled":false,"rental_uris":{"android":"levelo://app?vid=2531383d-4610-4902-9039-3fae65609991","ios":"levelo://app?vid=2531383d-4610-4902-9039-3fae65609991"},"vehicle_type_id":"4","last_reported":1748232999,"current_range_meters":14800,"station_id":"ce4bhm12rcd13ifvqgkg","pricing_plan_id":"cebpf4jnsgd1na2vs0mg"},{"bike_id":"91d32573-60eb-4871-92d5-3537fae28e5d","system_id":"levelo_inurba_marseille","lat":43.295168,"lon":5.394031,"is_reserved":false,"is_disabled":false,"rental_uris":{"android":"levelo://app?vid=91d32573-60eb-4871-92d5-3537fae28e5d","ios":"levelo://app?vid=91d32573-60eb-4871-92d5-3537fae28e5d"},"vehicle_type_id":"4","last_reported":1748232999,"current_range_meters":14800,"station_id":"ce4bh292rcd13ifvqdf0","pricing_plan_id":"cebpf4jnsgd1na2vs0mg"},{"bike_id":"393bb026-2978-44df-b6d2-3150874b2dc1","system_id":"levelo_inurba_marseille","lat":43.317127,"lon":5.377578,"is_reserved":false,"is_disabled":false,"rental_uris":{"android":"levelo://app?vid=393bb026-2978-44df-b6d2-3150874b2dc1","ios":"levelo://app?vid=393bb026-2978-44df-b6d2-3150874b2dc1"},"vehicle_type_id":"4","last_reported":1748232999,"current_range_meters":14800,"station_id":"ce4bgth2rcd13ifvqch0","pricing_plan_id":"cebpf4jnsgd1na2vs0mg"},{"bike_id":"82558161-9867-4ec7-ac29-8a332b466f7a","system_id":"levelo_inurba_marseille","lat":43.309242,"lon":5.401578,"is_reserved":false,"is_disabled":false,"rental_uris":{"android":"levelo://app?vid=82558161-9867-4ec7-ac29-8a332b466f7a","ios":"levelo://app?vid=82558161-9867-4ec7-ac29-8a332b466f7a"},"vehicle_type_id":"4","last_reported":1748232999,"current_range_meters":15200,"station_id":"ce4bgvp2rcd13ifvqct0","pricing_plan_id":"cebpf4jnsgd1na2vs0mg"},{"bike_id":"d359bf4f-fcde-4075-b8cf-15cfcaa5c5d3","system_id":"levelo_inurba_marseille","lat":43.2927,"lon":5.368381,"is_reserved":false,"is_disabled":true,"rental_uris":{"android":"levelo://app?vid=d359bf4f-fcde-4075-b8cf-15cfcaa5c5d3","ios":"levelo://app?vid=d359bf4f-fcde-4075-b8cf-15cfcaa5c5d3"},"vehicle_type_id":"4","last_reported":1748232999,"current_range_meters":15200,"station_id":"ce4bhbp2rcd13ifvqesg","pricing_plan_id":"cebpf4jnsgd1na2vs0mg"},{"bike_id":"49c1dc73-1887-4f54-9192-10595c8ff05c","system_id":"levelo_inurba_marseille","lat":43.25521,"lon":5.37638,"is_reserved":false,"is_disabled":true,"rental_uris":{"android":"levelo://app?vid=49c1dc73-1887-4f54-9192-10595c8ff05c","ios":"levelo://app?vid=49c1dc73-1887-4f54-9192-10595c8ff05c"},"vehicle_type_id":"4","last_reported":1748232999,"current_range_meters":15200,"station_id":"ce4bhh12rcd13ifvqff0","pricing_plan_id":"cebpf4jnsgd1na2vs0mg"},{"bike_id":"f8221895-ab5f-46e7-b177-153a00098359","system_id":"levelo_inurba_marseille","lat":43.217355,"lon":5.346128,"is_reserved":false,"is_disabled":true,"rental_uris":{"android":"levelo://app?vid=f8221895-ab5f-46e7-b177-153a00098359","ios":"levelo://app?vid=f8221895-ab5f-46e7-b177-153a00098359"},"vehicle_type_id":"4","last_reported":1748232999,"current_range_meters":15200,"station_id":"st_cvj6r9ubvosntc0bgbag","pricing_plan_id":"cebpf4jnsgd1na2vs0mg"},{"bike_id":"6e939dd4-4064-4467-8fda-44ccbe1c328b","system_id":"levelo_inurba_marseille","lat":43.28418,"lon":5.37531,"is_reserved":false,"is_disabled":false,"rental_uris":{"android":"levelo://app?vid=6e939dd4-4064-4467-8fda-44ccbe1c328b","ios":"levelo://app?vid=6e939dd4-4064-4467-8fda-44ccbe1c328b"},"vehicle_type_id":"4","last_reported":1748232999,"current_range_meters":15200,"station_id":"ce4bh412rcd13ifvqds0","pricing_plan_id":"cebpf4jnsgd1na2vs0mg"},{"bike_id":"8a3e6d87-8f0d-4e9f-834f-e0821f335af5","system_id":"levelo_inurba_marseille","lat":43.30136,"lon":5.39868,"is_reserved":false,"is_disabled":false,"rental_uris":{"android":"levelo://app?vid=8a3e6d87-8f0d-4e9f-834f-e0821f335af5","ios":"levelo://app?vid=8a3e6d87-8f0d-4e9f-834f-e0821f335af5"},"vehicle_type_id":"4","last_reported":1748232999,"current_range_meters":15200,"station_id":"ce4bh0h2rcd13ifvqd40","pricing_plan_id":"cebpf4jnsgd1na2vs0mg"},{"bike_id":"5d9b1af1-f977-4a30-b2a5-33040eae71a9","system_id":"levelo_inurba_marseille","lat":43.22503,"lon":5.34787,"is_reserved":false,"is_disabled":false,"rental_uris":{"android":"levelo://app?vid=5d9b1af1-f977-4a30-b2a5-33040eae71a9","ios":"levelo://app?vid=5d9b1af1-f977-4a30-b2a5-33040eae71a9"},"vehicle_type_id":"4","last_reported":1748232999,"current_range_meters":16000,"station_id":"st_cvj5dfep6f1abm77gieg","pricing_plan_id":"cebpf4jnsgd1na2vs0mg"},{"bike_id":"86f82f3d-6e53-431b-81ca-074675ada05b","system_id":"levelo_inurba_marseille","lat":43.30776,"lon":5.376512,"is_reserved":false,"is_disabled":false,"rental_uris":{"android":"levelo://app?vid=86f82f3d-6e53-431b-81ca-074675ada05b","ios":"levelo://app?vid=86f82f3d-6e53-431b-81ca-074675ada05b"},"vehicle_type_id":"4","last_reported":1748232999,"current_range_meters":16000,"station_id":"ce4bgv92rcd13ifvqcq0","pricing_plan_id":"cebpf4jnsgd1na2vs0mg"},{"bike_id":"bd841f4f-bdf2-42ac-9daa-7aba615eaa19","system_id":"levelo_inurba_marseille","lat":43.280697,"lon":5.396581,"is_reserved":false,"is_disabled":false,"rental_uris":{"android":"levelo://app?vid=bd841f4f-bdf2-42ac-9daa-7aba615eaa19","ios":"levelo://app?vid=bd841f4f-bdf2-42ac-9daa-7aba615eaa19"},"vehicle_type_id":"4","last_reported":1748232999,"current_range_meters":16000,"station_id":"ce4bho12rcd13ifvqh2g","pricing_plan_id":"cebpf4jnsgd1na2vs0mg"},{"bike_id":"34ffc6fe-38af-4bc3-86c8-742ab3b6ded8","system_id":"levelo_inurba_marseille","lat":43.303261,"lon":5.404565,"is_reserved":false,"is_disabled":true,"rental_uris":{"android":"levelo://app?vid=34ffc6fe-38af-4bc3-86c8-742ab3b6ded8","ios":"levelo://app?vid=34ffc6fe-38af-4bc3-86c8-742ab3b6ded8"},"vehicle_type_id":"4","last_reported":1748232999,"current_range_meters":16000,"station_id":"ce4bh012rcd13ifvqd10","pricing_plan_id":"cebpf4jnsgd1na2vs0mg"},{"bike_id":"1238d8e6-f0c7-43e3-9cd6-fc0ab14bca79","system_id":"levelo_inurba_marseille","lat":43.299708,"lon":5.385034,"is_reserved":false,"is_disabled":true,"rental_uris":{"android":"levelo://app?vid=1238d8e6-f0c7-43e3-9cd6-fc0ab14bca79","ios":"levelo://app?vid=1238d8e6-f0c7-43e3-9cd6-fc0ab14bca79"},"vehicle_type_id":"4","last_reported":1748232999,"current_range_meters":16000,"station_id":"ce4bgj92rcd13ifvqbd0","pricing_plan_id":"cebpf4jnsgd1na2vs0mg"},{"bike_id":"6517fd6c-009d-4670-bc07-2d342fb70c0e","system_id":"levelo_inurba_marseille","lat":43.28698,"lon":5.37381,"is_reserved":false,"is_disabled":false,"rental_uris":{"android":"levelo://app?vid=6517fd6c-009d-4670-bc07-2d342fb70c0e","ios":"levelo://app?vid=6517fd6c-009d-4670-bc07-2d342fb70c0e"},"vehicle_type_id":"4","last_reported":1748232999,"current_range_meters":16000,"station_id":"ce4bh3p2rcd13ifvqdq0","pricing_plan_id":"cebpf4jnsgd1na2vs0mg"},{"bike_id":"e12cf9a5-32bf-4674-8805-346516a1c5d1","system_id":"levelo_inurba_marseille","lat":43.307807,"lon":5.376493,"is_reserved":false,"is_disabled":false,"rental_uris":{"android":"levelo://app?vid=e12cf9a5-32bf-4674-8805-346516a1c5d1","ios":"levelo://app?vid=e12cf9a5-32bf-4674-8805-346516a1c5d1"},"vehicle_type_id":"4","last_reported":1748232999,"current_range_meters":16000,"station_id":"ce4bgv92rcd13ifvqcq0","pricing_plan_id":"cebpf4jnsgd1na2vs0mg"},{"bike_id":"b73fb798-5eef-47be-b230-d7813f569e50","system_id":"levelo_inurba_marseille","lat":43.29791,"lon":5.38086,"is_reserved":false,"is_disabled":true,"rental_uris":{"android":"levelo://app?vid=b73fb798-5eef-47be-b230-d7813f569e50","ios":"levelo://app?vid=b73fb798-5eef-47be-b230-d7813f569e50"},"vehicle_type_id":"4","last_reported":1748232999,"current_range_meters":16400,"station_id":"ce4bgip2rcd13ifvqbb0","pricing_plan_id":"cebpf4jnsgd1na2vs0mg"},{"bike_id":"36d76392-6b56-442a-a88c-cd871eaf090c","system_id":"levelo_inurba_marseille","lat":43.30603,"lon":5.39366,"is_reserved":false,"is_disabled":true,"rental_uris":{"android":"levelo://app?vid=36d76392-6b56-442a-a88c-cd871eaf090c","ios":"levelo://app?vid=36d76392-6b56-442a-a88c-cd871eaf090c"},"vehicle_type_id":"4","last_reported":1748232999,"current_range_meters":16400,"station_id":"ce4bh0p2rcd13ifvqd80","pricing_plan_id":"cebpf4jnsgd1na2vs0mg"},{"bike_id":"5835b5b0-33f0-4a92-aba8-2d23d2c21e8d","system_id":"levelo_inurba_marseille","lat":43.273734,"lon":5.362496,"is_reserved":false,"is_disabled":true,"rental_uris":{"android":"levelo://app?vid=5835b5b0-33f0-4a92-aba8-2d23d2c21e8d","ios":"levelo://app?vid=5835b5b0-33f0-4a92-aba8-2d23d2c21e8d"},"vehicle_type_id":"4","last_reported":1748232999,"current_range_meters":16400,"station_id":"ce4bhbh2rcd13ifvqeo0","pricing_plan_id":"cebpf4jnsgd1na2vs0mg"},{"bike_id":"c00abe40-2113-4d29-8e72-a841dce58b38","system_id":"levelo_inurba_marseille","lat":43.285533,"lon":5.385019,"is_reserved":false,"is_disabled":false,"rental_uris":{"android":"levelo://app?vid=c00abe40-2113-4d29-8e72-a841dce58b38","ios":"levelo://app?vid=c00abe40-2113-4d29-8e72-a841dce58b38"},"vehicle_type_id":"4","last_reported":1748232999,"current_range_meters":16400,"station_id":"","pricing_plan_id":"cebpf4jnsgd1na2vs0mg"},{"bike_id":"21e01477-1427-4d05-a65a-71deaa0beff9","system_id":"levelo_inurba_marseille","lat":43.28617,"lon":5.35101,"is_reserved":false,"is_disabled":true,"rental_uris":{"android":"levelo://app?vid=21e01477-1427-4d05-a65a-71deaa0beff9","ios":"levelo://app?vid=21e01477-1427-4d05-a65a-71deaa0beff9"},"vehicle_type_id":"4","last_reported":1748232999,"current_range_meters":16400,"station_id":"ce4bhch2rcd13ifvqeug","pricing_plan_id":"cebpf4jnsgd1na2vs0mg"},{"bike_id":"a133be75-bdad-4edd-8a17-1ba3d094e4ef","system_id":"levelo_inurba_marseille","lat":43.262215,"lon":5.404527,"is_reserved":false,"is_disabled":false,"rental_uris":{"android":"levelo://app?vid=a133be75-bdad-4edd-8a17-1ba3d094e4ef","ios":"levelo://app?vid=a133be75-bdad-4edd-8a17-1ba3d094e4ef"},"vehicle_type_id":"4","last_reported":1748232999,"current_range_meters":16400,"station_id":"ce4bhmh2rcd13ifvqgmg","pricing_plan_id":"cebpf4jnsgd1na2vs0mg"},{"bike_id":"2682c49f-d549-4937-8de8-257d10bbf3ce","system_id":"levelo_inurba_marseille","lat":43.290495,"lon":5.399651,"is_reserved":false,"is_disabled":false,"rental_uris":{"android":"levelo://app?vid=2682c49f-d549-4937-8de8-257d10bbf3ce","ios":"levelo://app?vid=2682c49f-d549-4937-8de8-257d10bbf3ce"},"vehicle_type_id":"4","last_reported":1748232999,"current_range_meters":16400,"station_id":"ce4bh392rcd13ifvqdm0","pricing_plan_id":"cebpf4jnsgd1na2vs0mg"},{"bike_id":"02d93c50-d0c3-4eef-97b2-f7b19eca064f","system_id":"levelo_inurba_marseille","lat":43.29014,"lon":5.37254,"is_reserved":false,"is_disabled":true,"rental_uris":{"android":"levelo://app?vid=02d93c50-d0c3-4eef-97b2-f7b19eca064f","ios":"levelo://app?vid=02d93c50-d0c3-4eef-97b2-f7b19eca064f"},"vehicle_type_id":"4","last_reported":1748232999,"current_range_meters":16400,"station_id":"","pricing_plan_id":"cebpf4jnsgd1na2vs0mg"},{"bike_id":"e75ef928-a9ba-4ce4-8bea-2dd6d49b325c","system_id":"levelo_inurba_marseille","lat":43.28381,"lon":5.37542,"is_reserved":false,"is_disabled":false,"rental_uris":{"android":"levelo://app?vid=e75ef928-a9ba-4ce4-8bea-2dd6d49b325c","ios":"levelo://app?vid=e75ef928-a9ba-4ce4-8bea-2dd6d49b325c"},"vehicle_type_id":"4","last_reported":1748232999,"current_range_meters":16400,"station_id":"ce4bh412rcd13ifvqds0","pricing_plan_id":"cebpf4jnsgd1na2vs0mg"},{"bike_id":"f5ba0502-3cc5-4fc0-bca6-a71bd9b211a6","system_id":"levelo_inurba_marseille","lat":43.30268,"lon":5.4006,"is_reserved":false,"is_disabled":false,"rental_uris":{"android":"levelo://app?vid=f5ba0502-3cc5-4fc0-bca6-a71bd9b211a6","ios":"levelo://app?vid=f5ba0502-3cc5-4fc0-bca6-a71bd9b211a6"},"vehicle_type_id":"4","last_reported":1748232999,"current_range_meters":16800,"station_id":"ce4bgvh2rcd13ifvqcs0","pricing_plan_id":"cebpf4jnsgd1na2vs0mg"},{"bike_id":"f88e6484-accf-464d-9a61-96f01a1d7bf9","system_id":"levelo_inurba_marseille","lat":43.320962,"lon":5.367749,"is_reserved":false,"is_disabled":false,"rental_uris":{"android":"levelo://app?vid=f88e6484-accf-464d-9a61-96f01a1d7bf9","ios":"levelo://app?vid=f88e6484-accf-464d-9a61-96f01a1d7bf9"},"vehicle_type_id":"4","last_reported":1748232999,"current_range_meters":16800,"station_id":"ce4bhrh2rcd13ifvqhug","pricing_plan_id":"cebpf4jnsgd1na2vs0mg"},{"bike_id":"829d5a7b-a281-4035-8670-d541acbf4ae1","system_id":"levelo_inurba_marseille","lat":43.272077,"lon":5.391949,"is_reserved":false,"is_disabled":true,"rental_uris":{"android":"levelo://app?vid=829d5a7b-a281-4035-8670-d541acbf4ae1","ios":"levelo://app?vid=829d5a7b-a281-4035-8670-d541acbf4ae1"},"vehicle_type_id":"4","last_reported":1748232999,"current_range_meters":16800,"station_id":"ce4bhhp2rcd13ifvqfm0","pricing_plan_id":"cebpf4jnsgd1na2vs0mg"},{"bike_id":"6ef27e84-462a-46f9-afe5-e09b209cc7f0","system_id":"levelo_inurba_marseille","lat":43.331147,"lon":5.362085,"is_reserved":false,"is_disabled":false,"rental_uris":{"android":"levelo://app?vid=6ef27e84-462a-46f9-afe5-e09b209cc7f0","ios":"levelo://app?vid=6ef27e84-462a-46f9-afe5-e09b209cc7f0"},"vehicle_type_id":"4","last_reported":1748232999,"current_range_meters":16800,"station_id":"","pricing_plan_id":"cebpf4jnsgd1na2vs0mg"},{"bike_id":"24490955-9c89-462e-bc37-df7b58699236","system_id":"levelo_inurba_marseille","lat":43.291013,"lon":5.381615,"is_reserved":false,"is_disabled":true,"rental_uris":{"android":"levelo://app?vid=24490955-9c89-462e-bc37-df7b58699236","ios":"levelo://app?vid=24490955-9c89-462e-bc37-df7b58699236"},"vehicle_type_id":"4","last_reported":1748232999,"current_range_meters":16800,"station_id":"ce4bh512rcd13ifvqe2g","pricing_plan_id":"cebpf4jnsgd1na2vs0mg"},{"bike_id":"f3635ec6-d219-4ec3-b092-f7168f64fa25","system_id":"levelo_inurba_marseille","lat":43.279191,"lon":5.395851,"is_reserved":false,"is_disabled":false,"rental_uris":{"android":"levelo://app?vid=f3635ec6-d219-4ec3-b092-f7168f64fa25","ios":"levelo://app?vid=f3635ec6-d219-4ec3-b092-f7168f64fa25"},"vehicle_type_id":"4","last_reported":1748232999,"current_range_meters":16800,"station_id":"ce4bhf92rcd13ifvqf40","pricing_plan_id":"cebpf4jnsgd1na2vs0mg"},{"bike_id":"d5658925-7a88-4989-8de6-5e98b3f857f6","system_id":"levelo_inurba_marseille","lat":43.33612,"lon":5.41026,"is_reserved":false,"is_disabled":false,"rental_uris":{"android":"levelo://app?vid=d5658925-7a88-4989-8de6-5e98b3f857f6","ios":"levelo://app?vid=d5658925-7a88-4989-8de6-5e98b3f857f6"},"vehicle_type_id":"4","last_reported":1748232999,"current_range_meters":16800,"station_id":"ce4bhqh2rcd13ifvqhmg","pricing_plan_id":"cebpf4jnsgd1na2vs0mg"},{"bike_id":"f5b1aa50-af32-4b67-af03-fc8d46feddb5","system_id":"levelo_inurba_marseille","lat":43.292694,"lon":5.401271,"is_reserved":false,"is_disabled":false,"rental_uris":{"android":"levelo://app?vid=f5b1aa50-af32-4b67-af03-fc8d46feddb5","ios":"levelo://app?vid=f5b1aa50-af32-4b67-af03-fc8d46feddb5"},"vehicle_type_id":"4","last_reported":1748232999,"current_range_meters":16800,"station_id":"","pricing_plan_id":"cebpf4jnsgd1na2vs0mg"},{"bike_id":"2a046dee-b3af-48c9-9659-b7d30ba20af5","system_id":"levelo_inurba_marseille","lat":43.243284,"lon":5.379941,"is_reserved":false,"is_disabled":false,"rental_uris":{"android":"levelo://app?vid=2a046dee-b3af-48c9-9659-b7d30ba20af5","ios":"levelo://app?vid=2a046dee-b3af-48c9-9659-b7d30ba20af5"},"vehicle_type_id":"4","last_reported":1748232999,"current_range_meters":16800,"station_id":"","pricing_plan_id":"cebpf4jnsgd1na2vs0mg"},{"bike_id":"02b5054b-5c4b-4155-8656-c547e25406fa","system_id":"levelo_inurba_marseille","lat":43.29429,"lon":5.39769,"is_reserved":false,"is_disabled":false,"rental_uris":{"android":"levelo://app?vid=02b5054b-5c4b-4155-8656-c547e25406fa","ios":"levelo://app?vid=02b5054b-5c4b-4155-8656-c547e25406fa"},"vehicle_type_id":"4","last_reported":1748232999,"current_range_meters":16800,"station_id":"ce4bh3h2rcd13ifvqdo0","pricing_plan_id":"cebpf4jnsgd1na2vs0mg"},{"bike_id":"e04296ee-4718-4587-b28e-c8de13c956da","system_id":"levelo_inurba_marseille","lat":43.279129,"lon":5.395882,"is_reserved":false,"is_disabled":false,"rental_uris":{"android":"levelo://app?vid=e04296ee-4718-4587-b28e-c8de13c956da","ios":"levelo://app?vid=e04296ee-4718-4587-b28e-c8de13c956da"},"vehicle_type_id":"4","last_reported":1748232999,"current_range_meters":16800,"station_id":"ce4bhf92rcd13ifvqf40","pricing_plan_id":"cebpf4jnsgd1na2vs0mg"},{"bike_id":"949664e4-ff0a-4d5d-be33-4d871ee08edc","system_id":"levelo_inurba_marseille","lat":43.231893,"lon":5.399972,"is_reserved":false,"is_disabled":true,"rental_uris":{"android":"levelo://app?vid=949664e4-ff0a-4d5d-be33-4d871ee08edc","ios":"levelo://app?vid=949664e4-ff0a-4d5d-be33-4d871ee08edc"},"vehicle_type_id":"4","last_reported":1748232999,"current_range_meters":16800,"station_id":"ce4bhn12rcd13ifvqgqg","pricing_plan_id":"cebpf4jnsgd1na2vs0mg"},{"bike_id":"a3d7609d-023d-4547-b682-9dd639c4422d","system_id":"levelo_inurba_marseille","lat":43.31361,"lon":5.38502,"is_reserved":false,"is_disabled":true,"rental_uris":{"android":"levelo://app?vid=a3d7609d-023d-4547-b682-9dd639c4422d","ios":"levelo://app?vid=a3d7609d-023d-4547-b682-9dd639c4422d"},"vehicle_type_id":"4","last_reported":1748232999,"current_range_meters":17200,"station_id":"ce4bgt92rcd13ifvqcf0","pricing_plan_id":"cebpf4jnsgd1na2vs0mg"},{"bike_id":"f78dbaec-0539-499d-bf77-edfba6763f09","system_id":"levelo_inurba_marseille","lat":43.30144,"lon":5.38078,"is_reserved":false,"is_disabled":false,"rental_uris":{"android":"levelo://app?vid=f78dbaec-0539-499d-bf77-edfba6763f09","ios":"levelo://app?vid=f78dbaec-0539-499d-bf77-edfba6763f09"},"vehicle_type_id":"4","last_reported":1748232999,"current_range_meters":17200,"station_id":"ce4bgjp2rcd13ifvqbh0","pricing_plan_id":"cebpf4jnsgd1na2vs0mg"},{"bike_id":"e6c65de3-7d92-4979-809c-6677188473c0","system_id":"levelo_inurba_marseille","lat":43.337568,"lon":5.374497,"is_reserved":false,"is_disabled":false,"rental_uris":{"android":"levelo://app?vid=e6c65de3-7d92-4979-809c-6677188473c0","ios":"levelo://app?vid=e6c65de3-7d92-4979-809c-6677188473c0"},"vehicle_type_id":"4","last_reported":1748232999,"current_range_meters":17200,"station_id":"","pricing_plan_id":"cebpf4jnsgd1na2vs0mg"},{"bike_id":"3b1381ba-6012-4323-8a4c-d536c160e653","system_id":"levelo_inurba_marseille","lat":43.25862,"lon":5.39907,"is_reserved":false,"is_disabled":true,"rental_uris":{"android":"levelo://app?vid=3b1381ba-6012-4323-8a4c-d536c160e653","ios":"levelo://app?vid=3b1381ba-6012-4323-8a4c-d536c160e653"},"vehicle_type_id":"4","last_reported":1748232999,"current_range_meters":17200,"station_id":"ce4bhl92rcd13ifvqghg","pricing_plan_id":"cebpf4jnsgd1na2vs0mg"},{"bike_id":"8cfc8b1e-7be0-4557-83a4-8678bec28b27","system_id":"levelo_inurba_marseille","lat":43.28658,"lon":5.36383,"is_reserved":false,"is_disabled":false,"rental_uris":{"android":"levelo://app?vid=8cfc8b1e-7be0-4557-83a4-8678bec28b27","ios":"levelo://app?vid=8cfc8b1e-7be0-4557-83a4-8678bec28b27"},"vehicle_type_id":"4","last_reported":1748232999,"current_range_meters":17200,"station_id":"ce4bhah2rcd13ifvqej0","pricing_plan_id":"cebpf4jnsgd1na2vs0mg"},{"bike_id":"1c53815e-5448-4b4c-8e18-624094a30e4c","system_id":"levelo_inurba_marseille","lat":43.28038,"lon":5.36894,"is_reserved":false,"is_disabled":false,"rental_uris":{"android":"levelo://app?vid=1c53815e-5448-4b4c-8e18-624094a30e4c","ios":"levelo://app?vid=1c53815e-5448-4b4c-8e18-624094a30e4c"},"vehicle_type_id":"4","last_reported":1748232999,"current_range_meters":17200,"station_id":"ce4bha12rcd13ifvqef0","pricing_plan_id":"cebpf4jnsgd1na2vs0mg"},{"bike_id":"35948759-5fe7-4d5a-9932-c8ab8708a757","system_id":"levelo_inurba_marseille","lat":43.243951,"lon":5.370639,"is_reserved":false,"is_disabled":true,"rental_uris":{"android":"levelo://app?vid=35948759-5fe7-4d5a-9932-c8ab8708a757","ios":"levelo://app?vid=35948759-5fe7-4d5a-9932-c8ab8708a757"},"vehicle_type_id":"4","last_reported":1748232999,"current_range_meters":17200,"station_id":"ce4bhhh2rcd13ifvqfk0","pricing_plan_id":"cebpf4jnsgd1na2vs0mg"},{"bike_id":"f02a2778-e4d7-4452-838f-e5edfaf163e6","system_id":"levelo_inurba_marseille","lat":43.308888,"lon":5.396713,"is_reserved":false,"is_disabled":false,"rental_uris":{"android":"levelo://app?vid=f02a2778-e4d7-4452-838f-e5edfaf163e6","ios":"levelo://app?vid=f02a2778-e4d7-4452-838f-e5edfaf163e6"},"vehicle_type_id":"4","last_reported":1748232999,"current_range_meters":17200,"station_id":"ce4bh012rcd13ifvqcv0","pricing_plan_id":"cebpf4jnsgd1na2vs0mg"},{"bike_id":"6cc211af-9803-4b4d-968a-8a8037ca359f","system_id":"levelo_inurba_marseille","lat":43.27962,"lon":5.38752,"is_reserved":false,"is_disabled":false,"rental_uris":{"android":"levelo://app?vid=6cc211af-9803-4b4d-968a-8a8037ca359f","ios":"levelo://app?vid=6cc211af-9803-4b4d-968a-8a8037ca359f"},"vehicle_type_id":"4","last_reported":1748232999,"current_range_meters":17200,"station_id":"ce4bhg12rcd13ifvqf80","pricing_plan_id":"cebpf4jnsgd1na2vs0mg"},{"bike_id":"96438d56-d8ab-4a7b-9dfa-999f3883d2dd","system_id":"levelo_inurba_marseille","lat":43.313605,"lon":5.38497,"is_reserved":false,"is_disabled":true,"rental_uris":{"android":"levelo://app?vid=96438d56-d8ab-4a7b-9dfa-999f3883d2dd","ios":"levelo://app?vid=96438d56-d8ab-4a7b-9dfa-999f3883d2dd"},"vehicle_type_id":"4","last_reported":1748232999,"current_range_meters":17600,"station_id":"ce4bgt92rcd13ifvqcf0","pricing_plan_id":"cebpf4jnsgd1na2vs0mg"},{"bike_id":"d6980e68-5022-441a-aa93-a2f88fd8ff80","system_id":"levelo_inurba_marseille","lat":43.251259,"lon":5.403248,"is_reserved":false,"is_disabled":false,"rental_uris":{"android":"levelo://app?vid=d6980e68-5022-441a-aa93-a2f88fd8ff80","ios":"levelo://app?vid=d6980e68-5022-441a-aa93-a2f88fd8ff80"},"vehicle_type_id":"4","last_reported":1748232999,"current_range_meters":17600,"station_id":"ce4bhlh2rcd13ifvqgig","pricing_plan_id":"cebpf4jnsgd1na2vs0mg"},{"bike_id":"6a84eee3-edad-46fd-a8d6-679b97fdfe12","system_id":"levelo_inurba_marseille","lat":43.230493,"lon":5.35491,"is_reserved":false,"is_disabled":false,"rental_uris":{"android":"levelo://app?vid=6a84eee3-edad-46fd-a8d6-679b97fdfe12","ios":"levelo://app?vid=6a84eee3-edad-46fd-a8d6-679b97fdfe12"},"vehicle_type_id":"4","last_reported":1748232999,"current_range_meters":17600,"station_id":"cpo3342slgdg3j2ifvpg","pricing_plan_id":"cebpf4jnsgd1na2vs0mg"},{"bike_id":"b9c6f7aa-eeb7-4b50-8a0f-1842bd3705a6","system_id":"levelo_inurba_marseille","lat":43.25722,"lon":5.41101,"is_reserved":false,"is_disabled":false,"rental_uris":{"android":"levelo://app?vid=b9c6f7aa-eeb7-4b50-8a0f-1842bd3705a6","ios":"levelo://app?vid=b9c6f7aa-eeb7-4b50-8a0f-1842bd3705a6"},"vehicle_type_id":"4","last_reported":1748232999,"current_range_meters":17600,"station_id":"ce4bhkp2rcd13ifvqgd0","pricing_plan_id":"cebpf4jnsgd1na2vs0mg"},{"bike_id":"cd5e7f63-d8ae-427b-90a9-42e418c304b9","system_id":"levelo_inurba_marseille","lat":43.292238,"lon":5.360483,"is_reserved":false,"is_disabled":false,"rental_uris":{"android":"levelo://app?vid=cd5e7f63-d8ae-427b-90a9-42e418c304b9","ios":"levelo://app?vid=cd5e7f63-d8ae-427b-90a9-42e418c304b9"},"vehicle_type_id":"4","last_reported":1748232999,"current_range_meters":17600,"station_id":"","pricing_plan_id":"cebpf4jnsgd1na2vs0mg"},{"bike_id":"7ece2224-bbc9-41be-b279-457383278953","system_id":"levelo_inurba_marseille","lat":43.25494,"lon":5.37687,"is_reserved":false,"is_disabled":true,"rental_uris":{"android":"levelo://app?vid=7ece2224-bbc9-41be-b279-457383278953","ios":"levelo://app?vid=7ece2224-bbc9-41be-b279-457383278953"},"vehicle_type_id":"4","last_reported":1748232999,"current_range_meters":17600,"station_id":"ce4bhh12rcd13ifvqff0","pricing_plan_id":"cebpf4jnsgd1na2vs0mg"},{"bike_id":"3a5fd285-0bd9-4bb9-9a79-2315058c03bf","system_id":"levelo_inurba_marseille","lat":43.34137,"lon":5.40911,"is_reserved":false,"is_disabled":false,"rental_uris":{"android":"levelo://app?vid=3a5fd285-0bd9-4bb9-9a79-2315058c03bf","ios":"levelo://app?vid=3a5fd285-0bd9-4bb9-9a79-2315058c03bf"},"vehicle_type_id":"4","last_reported":1748232999,"current_range_meters":17600,"station_id":"ce4bhqh2rcd13ifvqhlg","pricing_plan_id":"cebpf4jnsgd1na2vs0mg"},{"bike_id":"85efa91f-972b-4823-9ff9-759601b0dd88","system_id":"levelo_inurba_marseille","lat":43.300745,"lon":5.404054,"is_reserved":false,"is_disabled":false,"rental_uris":{"android":"levelo://app?vid=85efa91f-972b-4823-9ff9-759601b0dd88","ios":"levelo://app?vid=85efa91f-972b-4823-9ff9-759601b0dd88"},"vehicle_type_id":"4","last_reported":1748232999,"current_range_meters":17600,"station_id":"","pricing_plan_id":"cebpf4jnsgd1na2vs0mg"},{"bike_id":"b173454c-a819-4f20-b904-0761ea294ffc","system_id":"levelo_inurba_marseille","lat":43.280351,"lon":5.369393,"is_reserved":false,"is_disabled":true,"rental_uris":{"android":"levelo://app?vid=b173454c-a819-4f20-b904-0761ea294ffc","ios":"levelo://app?vid=b173454c-a819-4f20-b904-0761ea294ffc"},"vehicle_type_id":"4","last_reported":1748232999,"current_range_meters":17600,"station_id":"ce4bha12rcd13ifvqef0","pricing_plan_id":"cebpf4jnsgd1na2vs0mg"},{"bike_id":"6b482028-512e-4dbe-b943-3138dd0f6f46","system_id":"levelo_inurba_marseille","lat":43.296858,"lon":5.36881,"is_reserved":false,"is_disabled":false,"rental_uris":{"android":"levelo://app?vid=6b482028-512e-4dbe-b943-3138dd0f6f46","ios":"levelo://app?vid=6b482028-512e-4dbe-b943-3138dd0f6f46"},"vehicle_type_id":"4","last_reported":1748232999,"current_range_meters":17600,"station_id":"","pricing_plan_id":"cebpf4jnsgd1na2vs0mg"},{"bike_id":"c753510c-c969-4567-9f97-a9d9750cfa00","system_id":"levelo_inurba_marseille","lat":43.292815,"lon":5.4013,"is_reserved":false,"is_disabled":false,"rental_uris":{"android":"levelo://app?vid=c753510c-c969-4567-9f97-a9d9750cfa00","ios":"levelo://app?vid=c753510c-c969-4567-9f97-a9d9750cfa00"},"vehicle_type_id":"4","last_reported":1748232999,"current_range_meters":18000,"station_id":"ce4bh312rcd13ifvqdk0","pricing_plan_id":"cebpf4jnsgd1na2vs0mg"},{"bike_id":"2c8e2dc4-a1d6-467b-8ed1-97660453c375","system_id":"levelo_inurba_marseille","lat":43.28657,"lon":5.38661,"is_reserved":false,"is_disabled":true,"rental_uris":{"android":"levelo://app?vid=2c8e2dc4-a1d6-467b-8ed1-97660453c375","ios":"levelo://app?vid=2c8e2dc4-a1d6-467b-8ed1-97660453c375"},"vehicle_type_id":"4","last_reported":1748232999,"current_range_meters":18000,"station_id":"ce4bh492rcd13ifvqdug","pricing_plan_id":"cebpf4jnsgd1na2vs0mg"},{"bike_id":"4c098ce8-105a-48a3-835c-8050827dc4e1","system_id":"levelo_inurba_marseille","lat":43.29788,"lon":5.39355,"is_reserved":false,"is_disabled":false,"rental_uris":{"android":"levelo://app?vid=4c098ce8-105a-48a3-835c-8050827dc4e1","ios":"levelo://app?vid=4c098ce8-105a-48a3-835c-8050827dc4e1"},"vehicle_type_id":"4","last_reported":1748232999,"current_range_meters":18000,"station_id":"chh1huq6cuj3fo74tm60","pricing_plan_id":"cebpf4jnsgd1na2vs0mg"},{"bike_id":"9dea5e6d-a775-4655-a12e-8197e6dd0e30","system_id":"levelo_inurba_marseille","lat":43.25079,"lon":5.39509,"is_reserved":false,"is_disabled":false,"rental_uris":{"android":"levelo://app?vid=9dea5e6d-a775-4655-a12e-8197e6dd0e30","ios":"levelo://app?vid=9dea5e6d-a775-4655-a12e-8197e6dd0e30"},"vehicle_type_id":"4","last_reported":1748232999,"current_range_meters":18000,"station_id":"ce4bhm12rcd13ifvqgkg","pricing_plan_id":"cebpf4jnsgd1na2vs0mg"},{"bike_id":"3f7a6a90-474e-489f-a15a-9b76a4c02074","system_id":"levelo_inurba_marseille","lat":43.231885,"lon":5.355608,"is_reserved":false,"is_disabled":false,"rental_uris":{"android":"levelo://app?vid=3f7a6a90-474e-489f-a15a-9b76a4c02074","ios":"levelo://app?vid=3f7a6a90-474e-489f-a15a-9b76a4c02074"},"vehicle_type_id":"4","last_reported":1748232999,"current_range_meters":18000,"station_id":"ce4bhu92rcd13ifvqi70","pricing_plan_id":"cebpf4jnsgd1na2vs0mg"},{"bike_id":"389fec60-e9ff-42c9-922a-e70429ed95a0","system_id":"levelo_inurba_marseille","lat":43.268036,"lon":5.402673,"is_reserved":false,"is_disabled":false,"rental_uris":{"android":"levelo://app?vid=389fec60-e9ff-42c9-922a-e70429ed95a0","ios":"levelo://app?vid=389fec60-e9ff-42c9-922a-e70429ed95a0"},"vehicle_type_id":"4","last_reported":1748232999,"current_range_meters":18800,"station_id":"ce501612rcd8frsf0b60","pricing_plan_id":"cebpf4jnsgd1na2vs0mg"},{"bike_id":"a188ad5d-727d-4571-a76b-b8e1639c3ea2","system_id":"levelo_inurba_marseille","lat":43.297768,"lon":5.371227,"is_reserved":false,"is_disabled":true,"rental_uris":{"android":"levelo://app?vid=a188ad5d-727d-4571-a76b-b8e1639c3ea2","ios":"levelo://app?vid=a188ad5d-727d-4571-a76b-b8e1639c3ea2"},"vehicle_type_id":"4","last_reported":1748232999,"current_range_meters":18800,"station_id":"ce4bgop2rcd13ifvqc1g","pricing_plan_id":"cebpf4jnsgd1na2vs0mg"},{"bike_id":"ea1d44b3-14eb-43b4-8b70-d72b9a168d70","system_id":"levelo_inurba_marseille","lat":43.31711,"lon":5.37761,"is_reserved":false,"is_disabled":false,"rental_uris":{"android":"levelo://app?vid=ea1d44b3-14eb-43b4-8b70-d72b9a168d70","ios":"levelo://app?vid=ea1d44b3-14eb-43b4-8b70-d72b9a168d70"},"vehicle_type_id":"4","last_reported":1748232999,"current_range_meters":18800,"station_id":"ce4bgth2rcd13ifvqch0","pricing_plan_id":"cebpf4jnsgd1na2vs0mg"},{"bike_id":"ad514aa5-aec2-4d19-99ba-ff754b2bba8c","system_id":"levelo_inurba_marseille","lat":43.250702,"lon":5.375313,"is_reserved":false,"is_disabled":false,"rental_uris":{"android":"levelo://app?vid=ad514aa5-aec2-4d19-99ba-ff754b2bba8c","ios":"levelo://app?vid=ad514aa5-aec2-4d19-99ba-ff754b2bba8c"},"vehicle_type_id":"4","last_reported":1748232999,"current_range_meters":18800,"station_id":"","pricing_plan_id":"cebpf4jnsgd1na2vs0mg"},{"bike_id":"8dd88446-c109-43b3-a107-2b4a6e1b330a","system_id":"levelo_inurba_marseille","lat":43.317086,"lon":5.436987,"is_reserved":false,"is_disabled":false,"rental_uris":{"android":"levelo://app?vid=8dd88446-c109-43b3-a107-2b4a6e1b330a","ios":"levelo://app?vid=8dd88446-c109-43b3-a107-2b4a6e1b330a"},"vehicle_type_id":"4","last_reported":1748232999,"current_range_meters":18800,"station_id":"ce4bhp92rcd13ifvqhcg","pricing_plan_id":"cebpf4jnsgd1na2vs0mg"},{"bike_id":"a75124db-2e13-471f-8830-7a92e1a83de9","system_id":"levelo_inurba_marseille","lat":43.30131,"lon":5.39873,"is_reserved":false,"is_disabled":false,"rental_uris":{"android":"levelo://app?vid=a75124db-2e13-471f-8830-7a92e1a83de9","ios":"levelo://app?vid=a75124db-2e13-471f-8830-7a92e1a83de9"},"vehicle_type_id":"4","last_reported":1748232999,"current_range_meters":18800,"station_id":"ce4bh0h2rcd13ifvqd40","pricing_plan_id":"cebpf4jnsgd1na2vs0mg"},{"bike_id":"d2bb6332-08b7-4002-8387-234070e3cf63","system_id":"levelo_inurba_marseille","lat":43.23959,"lon":5.36626,"is_reserved":false,"is_disabled":true,"rental_uris":{"android":"levelo://app?vid=d2bb6332-08b7-4002-8387-234070e3cf63","ios":"levelo://app?vid=d2bb6332-08b7-4002-8387-234070e3cf63"},"vehicle_type_id":"4","last_reported":1748232999,"current_range_meters":18800,"station_id":"ce4bhi12rcd13ifvqfp0","pricing_plan_id":"cebpf4jnsgd1na2vs0mg"},{"bike_id":"290d9c66-9e0d-418a-81bc-a760a4587f25","system_id":"levelo_inurba_marseille","lat":43.305485,"lon":5.38436,"is_reserved":false,"is_disabled":false,"rental_uris":{"android":"levelo://app?vid=290d9c66-9e0d-418a-81bc-a760a4587f25","ios":"levelo://app?vid=290d9c66-9e0d-418a-81bc-a760a4587f25"},"vehicle_type_id":"4","last_reported":1748232999,"current_range_meters":18800,"station_id":"ce4bgg92rcd13ifvqb30","pricing_plan_id":"cebpf4jnsgd1na2vs0mg"},{"bike_id":"1380dd1c-affd-484d-9390-705eebba4d92","system_id":"levelo_inurba_marseille","lat":43.30275,"lon":5.40053,"is_reserved":false,"is_disabled":false,"rental_uris":{"android":"levelo://app?vid=1380dd1c-affd-484d-9390-705eebba4d92","ios":"levelo://app?vid=1380dd1c-affd-484d-9390-705eebba4d92"},"vehicle_type_id":"4","last_reported":1748232999,"current_range_meters":18800,"station_id":"ce4bgvh2rcd13ifvqcs0","pricing_plan_id":"cebpf4jnsgd1na2vs0mg"},{"bike_id":"468849bd-8d77-4a95-854b-6addb2839b9e","system_id":"levelo_inurba_marseille","lat":43.309357,"lon":5.401504,"is_reserved":false,"is_disabled":false,"rental_uris":{"android":"levelo://app?vid=468849bd-8d77-4a95-854b-6addb2839b9e","ios":"levelo://app?vid=468849bd-8d77-4a95-854b-6addb2839b9e"},"vehicle_type_id":"4","last_reported":1748232999,"current_range_meters":18800,"station_id":"ce4bgvp2rcd13ifvqct0","pricing_plan_id":"cebpf4jnsgd1na2vs0mg"},{"bike_id":"f28bcdc0-d251-4a73-87b0-ff8941b8463c","system_id":"levelo_inurba_marseille","lat":43.29316,"lon":5.37192,"is_reserved":false,"is_disabled":true,"rental_uris":{"android":"levelo://app?vid=f28bcdc0-d251-4a73-87b0-ff8941b8463c","ios":"levelo://app?vid=f28bcdc0-d251-4a73-87b0-ff8941b8463c"},"vehicle_type_id":"4","last_reported":1748232999,"current_range_meters":19200,"station_id":"ce4bgh92rcd13ifvqb40","pricing_plan_id":"cebpf4jnsgd1na2vs0mg"},{"bike_id":"dbbc3087-ad3b-473b-9341-4e6aa0da5126","system_id":"levelo_inurba_marseille","lat":43.24615,"lon":5.39357,"is_reserved":false,"is_disabled":false,"rental_uris":{"android":"levelo://app?vid=dbbc3087-ad3b-473b-9341-4e6aa0da5126","ios":"levelo://app?vid=dbbc3087-ad3b-473b-9341-4e6aa0da5126"},"vehicle_type_id":"4","last_reported":1748232999,"current_range_meters":19200,"station_id":"","pricing_plan_id":"cebpf4jnsgd1na2vs0mg"},