{"last_updated":1728220427,"ttl":60,"version":"2.2","data":{"bikes":[{"bike_id":"e7cc1f6c-ac6c-4b1f-a39d-839fe34cf8f7","system_id":"levelo_inurba_marseille","lat":43.28706,"lon":5.37395,"is_reserved":false,"is_disabled":false,"rental_uris":{"android":"levelo://app?vid=e7cc1f6c-ac6c-4b1f-a39d-839fe34cf8f7","ios":"levelo://app?vid=e7cc1f6c-ac6c-4b1f-a39d-839fe34cf8f7"},"vehicle_type_id":"4","last_reported":1728220427,"current_range_meters":29600,"station_id":"ce4bh3p2rcd13ifvqdq0","pricing_plan_id":"cebpf4jnsgd1na2vs0mg"},{"bike_id":"eceaa800-75ab-47aa-969c-6289b653e8e6","system_id":"levelo_inurba_marseille","lat":43.25113,"lon":5.40317,"is_reserved":false,"is_disabled":false,"rental_uris":{"android":"levelo://app?vid=eceaa800-75ab-47aa-969c-6289b653e8e6","ios":"levelo://app?vid=eceaa800-75ab-47aa-969c-6289b653e8e6"},"vehicle_type_id":"4","last_reported":1728220427,"current_range_meters":37600,"station_id":"ce4bhlh2rcd13ifvqgig","pricing_plan_id":"cebpf4jnsgd1na2vs0mg"},{"bike_id":"d208b646-239c-4fc8-b7ba-5f331b50590b","system_id":"levelo_inurba_marseille","lat":43.28708,"lon":5.3737,"is_reserved":false,"is_disabled":false,"rental_uris":{"android":"levelo://app?vid=d208b646-239c-4fc8-b7ba-5f331b50590b","ios":"levelo://app?vid=d208b646-239c-4fc8-b7ba-5f331b50590b"},"vehicle_type_id":"4","last_reported":1728220427,"current_range_meters":30800,"station_id":"ce4bh3p2rcd13ifvqdq0","pricing_plan_id":"cebpf4jnsgd1na2vs0mg"},{"bike_id":"9671f252-4906-4ded-9eb9-fd7886dcac1f","system_id":"levelo_inurba_marseille","lat":43.31765,"lon":5.39002,"is_reserved":false,"is_disabled":false,"rental_uris":{"android":"levelo://app?vid=9671f252-4906-4ded-9eb9-fd7886dcac1f","ios":"levelo://app?vid=9671f252-4906-4ded-9eb9-fd7886dcac1f"},"vehicle_type_id":"4","last_reported":1728220427,"current_range_meters":37600,"station_id":"ce4bhqp2rcd13ifvqhng","pricing_plan_id":"cebpf4jnsgd1na2vs0mg"},{"bike_id":"fcc56730-3c72-4870-849a-77c8955fe703","system_id":"levelo_inurba_marseille","lat":43.26561,"lon":5.39005,"is_reserved":false,"is_disabled":false,"rental_uris":{"android":"levelo://app?vid=fcc56730-3c72-4870-849a-77c8955fe703","ios":"levelo://app?vid=fcc56730-3c72-4870-849a-77c8955fe703"},"vehicle_type_id":"4","last_reported":1728220427,"current_range_meters":38800,"station_id":"ce4bhe12rcd13ifvqf30","pricing_plan_id":"cebpf4jnsgd1na2vs0mg"},{"bike_id":"940cde9c-6243-4a9e-89af-97831cb9ac45","system_id":"levelo_inurba_marseille","lat":43.24392,"lon":5.37054,"is_reserved":false,"is_disabled":false,"rental_uris":{"android":"levelo://app?vid=940cde9c-6243-4a9e-89af-97831cb9ac45","ios":"levelo://app?vid=940cde9c-6243-4a9e-89af-97831cb9ac45"},"vehicle_type_id":"4","last_reported":1728220427,"current_range_meters":32800,"station_id":"ce4bhhh2rcd13ifvqfk0","pricing_plan_id":"cebpf4jnsgd1na2vs0mg"},{"bike_id":"15333ecb-19e1-441f-ad39-884f6f3f8dec","system_id":"levelo_inurba_marseille","lat":43.29273,"lon":5.36842,"is_reserved":false,"is_disabled":false,"rental_uris":{"android":"levelo://app?vid=15333ecb-19e1-441f-ad39-884f6f3f8dec","ios":"levelo://app?vid=15333ecb-19e1-441f-ad39-884f6f3f8dec"},"vehicle_type_id":"4","last_reported":1728220427,"current_range_meters":33200,"station_id":"ce4bhbp2rcd13ifvqesg","pricing_plan_id":"cebpf4jnsgd1na2vs0mg"},{"bike_id":"3edccbad-c604-40df-acb2-6e9d91b67298","system_id":"levelo_inurba_marseille","lat":43.21342,"lon":5.34942,"is_reserved":false,"is_disabled":false,"rental_uris":{"android":"levelo://app?vid=3edccbad-c604-40df-acb2-6e9d91b67298","ios":"levelo://app?vid=3edccbad-c604-40df-acb2-6e9d91b67298"},"vehicle_type_id":"4","last_reported":1728220427,"current_range_meters":28800,"station_id":"crv51consjfaj9uu89c0","pricing_plan_id":"cebpf4jnsgd1na2vs0mg"},{"bike_id":"439b7151-94f6-44eb-978a-ead041015fef","system_id":"levelo_inurba_marseille","lat":43.29419,"lon":5.38624,"is_reserved":false,"is_disabled":false,"rental_uris":{"android":"levelo://app?vid=439b7151-94f6-44eb-978a-ead041015fef","ios":"levelo://app?vid=439b7151-94f6-44eb-978a-ead041015fef"},"vehicle_type_id":"4","last_reported":1728220427,"current_range_meters":25600,"station_id":"ce4bh2h2rcd13ifvqdh0","pricing_plan_id":"cebpf4jnsgd1na2vs0mg"},{"bike_id":"ce9a5e13-97cb-4f55-9c02-c8af9f3cb941","system_id":"levelo_inurba_marseille","lat":43.30545,"lon":5.36545,"is_reserved":false,"is_disabled":false,"rental_uris":{"android":"levelo://app?vid=ce9a5e13-97cb-4f55-9c02-c8af9f3cb941","ios":"levelo://app?vid=ce9a5e13-97cb-4f55-9c02-c8af9f3cb941"},"vehicle_type_id":"4","last_reported":1728220427,"current_range_meters":36400,"station_id":"ce4bgs12rcd13ifvqcag","pricing_plan_id":"cebpf4jnsgd1na2vs0mg"},{"bike_id":"b7e29000-285b-4348-ae0e-bea2aa63466b","system_id":"levelo_inurba_marseille","lat":43.28466,"lon":5.38411,"is_reserved":false,"is_disabled":false,"rental_uris":{"android":"levelo://app?vid=b7e29000-285b-4348-ae0e-bea2aa63466b","ios":"levelo://app?vid=b7e29000-285b-4348-ae0e-bea2aa63466b"},"vehicle_type_id":"4","last_reported":1728220427,"current_range_meters":29600,"station_id":"ce4bh512rcd13ifvqe3g","pricing_plan_id":"cebpf4jnsgd1na2vs0mg"},{"bike_id":"bc0e17f4-5c34-45a2-8126-1798ce126f9c","system_id":"levelo_inurba_marseille","lat":43.28045,"lon":5.36942,"is_reserved":false,"is_disabled":false,"rental_uris":{"android":"levelo://app?vid=bc0e17f4-5c34-45a2-8126-1798ce126f9c","ios":"levelo://app?vid=bc0e17f4-5c34-45a2-8126-1798ce126f9c"},"vehicle_type_id":"4","last_reported":1728220427,"current_range_meters":28800,"station_id":"ce4bha12rcd13ifvqef0","pricing_plan_id":"cebpf4jnsgd1na2vs0mg"},{"bike_id":"df80fb50-0c3d-437b-941e-68f6d7a2771f","system_id":"levelo_inurba_marseille","lat":43.31761,"lon":5.40576,"is_reserved":false,"is_disabled":false,"rental_uris":{"android":"levelo://app?vid=df80fb50-0c3d-437b-941e-68f6d7a2771f","ios":"levelo://app?vid=df80fb50-0c3d-437b-941e-68f6d7a2771f"},"vehicle_type_id":"4","last_reported":1728220427,"current_range_meters":4000,"station_id":"ce4bh012rcd13ifvqd00","pricing_plan_id":"cebpf4jnsgd1na2vs0mg"},{"bike_id":"7c62f559-1eec-4b77-ae25-a903a2c2ef2a","system_id":"levelo_inurba_marseille","lat":43.27319,"lon":5.39074,"is_reserved":false,"is_disabled":false,"rental_uris":{"android":"levelo://app?vid=7c62f559-1eec-4b77-ae25-a903a2c2ef2a","ios":"levelo://app?vid=7c62f559-1eec-4b77-ae25-a903a2c2ef2a"},"vehicle_type_id":"4","last_reported":1728220427,"current_range_meters":34800,"station_id":"ce4bhgp2rcd13ifvqfe0","pricing_plan_id":"cebpf4jnsgd1na2vs0mg"},{"bike_id":"939f948f-0f86-450d-a969-aa8b3d4b8584","system_id":"levelo_inurba_marseille","lat":43.21348,"lon":5.34936,"is_reserved":false,"is_disabled":false,"rental_uris":{"android":"levelo://app?vid=939f948f-0f86-450d-a969-aa8b3d4b8584","ios":"levelo://app?vid=939f948f-0f86-450d-a969-aa8b3d4b8584"},"vehicle_type_id":"4","last_reported":1728220427,"current_range_meters":37600,"station_id":"crv51consjfaj9uu89c0","pricing_plan_id":"cebpf4jnsgd1na2vs0mg"},{"bike_id":"53aed260-8a8b-48a9-a9a5-ec999fb04e11","system_id":"levelo_inurba_marseille","lat":43.25118,"lon":5.40321,"is_reserved":false,"is_disabled":false,"rental_uris":{"android":"levelo://app?vid=53aed260-8a8b-48a9-a9a5-ec999fb04e11","ios":"levelo://app?vid=53aed260-8a8b-48a9-a9a5-ec999fb04e11"},"vehicle_type_id":"4","last_reported":1728220427,"current_range_meters":38800,"station_id":"ce4bhlh2rcd13ifvqgig","pricing_plan_id":"cebpf4jnsgd1na2vs0mg"},{"bike_id":"4de42dd8-05f9-4763-ba3a-a216bf1d5d7e","system_id":"levelo_inurba_marseille","lat":43.24386,"lon":5.37049,"is_reserved":false,"is_disabled":false,"rental_uris":{"android":"levelo://app?vid=4de42dd8-05f9-4763-ba3a-a216bf1d5d7e","ios":"levelo://app?vid=4de42dd8-05f9-4763-ba3a-a216bf1d5d7e"},"vehicle_type_id":"4","last_reported":1728220427,"current_range_meters":38800,"station_id":"ce4bhhh2rcd13ifvqfk0","pricing_plan_id":"cebpf4jnsgd1na2vs0mg"},{"bike_id":"c1fc3e70-e0c0-46ca-9485-5f0a18839246","system_id":"levelo_inurba_marseille","lat":43.24387,"lon":5.37058,"is_reserved":false,"is_disabled":false,"rental_uris":{"android":"levelo://app?vid=c1fc3e70-e0c0-46ca-9485-5f0a18839246","ios":"levelo://app?vid=c1fc3e70-e0c0-46ca-9485-5f0a18839246"},"vehicle_type_id":"4","last_reported":1728220427,"current_range_meters":15200,"station_id":"ce4bhhh2rcd13ifvqfk0","pricing_plan_id":"cebpf4jnsgd1na2vs0mg"},{"bike_id":"1a00b53a-006c-4cc8-9d62-986eb0a55bc8","system_id":"levelo_inurba_marseille","lat":43.21355,"lon":5.34934,"is_reserved":false,"is_disabled":false,"rental_uris":{"android":"levelo://app?vid=1a00b53a-006c-4cc8-9d62-986eb0a55bc8","ios":"levelo://app?vid=1a00b53a-006c-4cc8-9d62-986eb0a55bc8"},"vehicle_type_id":"4","last_reported":1728220427,"current_range_meters":14400,"station_id":"crv51consjfaj9uu89c0","pricing_plan_id":"cebpf4jnsgd1na2vs0mg"},{"bike_id":"8b4b06da-a8ff-4dc9-ab9f-042b5fa35747","system_id":"levelo_inurba_marseille","lat":43.25585,"lon":5.38231,"is_reserved":false,"is_disabled":false,"rental_uris":{"android":"levelo://app?vid=8b4b06da-a8ff-4dc9-ab9f-042b5fa35747","ios":"levelo://app?vid=8b4b06da-a8ff-4dc9-ab9f-042b5fa35747"},"vehicle_type_id":"4","last_reported":1728220427,"current_range_meters":6800,"station_id":"ce4bhih2rcd13ifvqfs0","pricing_plan_id":"cebpf4jnsgd1na2vs0mg"},{"bike_id":"3d3e93be-8a67-4628-9af2-2661c9a0daa4","system_id":"levelo_inurba_marseille","lat":43.22931,"lon":5.3537,"is_reserved":false,"is_disabled":false,"rental_uris":{"android":"levelo://app?vid=3d3e93be-8a67-4628-9af2-2661c9a0daa4","ios":"levelo://app?vid=3d3e93be-8a67-4628-9af2-2661c9a0daa4"},"vehicle_type_id":"4","last_reported":1728220427,"current_range_meters":36400,"station_id":"cpo3532slgdg3j2ikp40","pricing_plan_id":"cebpf4jnsgd1na2vs0mg"},{"bike_id":"83bd8e08-648e-4fc6-8901-05219804adac","system_id":"levelo_inurba_marseille","lat":43.22936,"lon":5.35376,"is_reserved":false,"is_disabled":false,"rental_uris":{"android":"levelo://app?vid=83bd8e08-648e-4fc6-8901-05219804adac","ios":"levelo://app?vid=83bd8e08-648e-4fc6-8901-05219804adac"},"vehicle_type_id":"4","last_reported":1728220427,"current_range_meters":30400,"station_id":"cpo3532slgdg3j2ikp40","pricing_plan_id":"cebpf4jnsgd1na2vs0mg"},{"bike_id":"6266ab0d-036e-4351-aec4-c2f2013119e5","system_id":"levelo_inurba_marseille","lat":43.32495,"lon":5.3657,"is_reserved":false,"is_disabled":false,"rental_uris":{"android":"levelo://app?vid=6266ab0d-036e-4351-aec4-c2f2013119e5","ios":"levelo://app?vid=6266ab0d-036e-4351-aec4-c2f2013119e5"},"vehicle_type_id":"4","last_reported":1728220427,"current_range_meters":40000,"station_id":"ce4bhs12rcd13ifvqhvg","pricing_plan_id":"cebpf4jnsgd1na2vs0mg"},{"bike_id":"921cdbf2-9279-4616-88c8-507dbfbebbde","system_id":"levelo_inurba_marseille","lat":43.23182,"lon":5.39987,"is_reserved":false,"is_disabled":false,"rental_uris":{"android":"levelo://app?vid=921cdbf2-9279-4616-88c8-507dbfbebbde","ios":"levelo://app?vid=921cdbf2-9279-4616-88c8-507dbfbebbde"},"vehicle_type_id":"4","last_reported":1728220427,"current_range_meters":31200,"station_id":"ce4bhn12rcd13ifvqgqg","pricing_plan_id":"cebpf4jnsgd1na2vs0mg"},{"bike_id":"2c1ccc48-7b9a-4b96-82c1-feb476287a75","system_id":"levelo_inurba_marseille","lat":43.25085,"lon":5.39513,"is_reserved":false,"is_disabled":false,"rental_uris":{"android":"levelo://app?vid=2c1ccc48-7b9a-4b96-82c1-feb476287a75","ios":"levelo://app?vid=2c1ccc48-7b9a-4b96-82c1-feb476287a75"},"vehicle_type_id":"4","last_reported":1728220427,"current_range_meters":35600,"station_id":"ce4bhm12rcd13ifvqgkg","pricing_plan_id":"cebpf4jnsgd1na2vs0mg"},{"bike_id":"b05ec1f3-c6b1-4e0f-9405-11d78a58ee18","system_id":"levelo_inurba_marseille","lat":43.21342,"lon":5.34941,"is_reserved":false,"is_disabled":false,"rental_uris":{"android":"levelo://app?vid=b05ec1f3-c6b1-4e0f-9405-11d78a58ee18","ios":"levelo://app?vid=b05ec1f3-c6b1-4e0f-9405-11d78a58ee18"},"vehicle_type_id":"4","last_reported":1728220427,"current_range_meters":28800,"station_id":"crv51consjfaj9uu89c0","pricing_plan_id":"cebpf4jnsgd1na2vs0mg"},{"bike_id":"f11dd066-6b94-4d0b-8a87-cb59e5dabda0","system_id":"levelo_inurba_marseille","lat":43.31277,"lon":5.40172,"is_reserved":false,"is_disabled":false,"rental_uris":{"android":"levelo://app?vid=f11dd066-6b94-4d0b-8a87-cb59e5dabda0","ios":"levelo://app?vid=f11dd066-6b94-4d0b-8a87-cb59e5dabda0"},"vehicle_type_id":"4","last_reported":1728220427,"current_range_meters":39200,"station_id":"ce4bh092rcd13ifvqd30","pricing_plan_id":"cebpf4jnsgd1na2vs0mg"},{"bike_id":"8d4fe74b-7d0a-4fa2-887e-e1fb593aca6e","system_id":"levelo_inurba_marseille","lat":43.30887,"lon":5.39656,"is_reserved":false,"is_disabled":false,"rental_uris":{"android":"levelo://app?vid=8d4fe74b-7d0a-4fa2-887e-e1fb593aca6e","ios":"levelo://app?vid=8d4fe74b-7d0a-4fa2-887e-e1fb593aca6e"},"vehicle_type_id":"4","last_reported":1728220427,"current_range_meters":35600,"station_id":"ce4bh012rcd13ifvqcv0","pricing_plan_id":"cebpf4jnsgd1na2vs0mg"},{"bike_id":"25e81eef-b9ea-4b4d-bf5f-af41e3b53100","system_id":"levelo_inurba_marseille","lat":43.29958,"lon":5.41323,"is_reserved":false,"is_disabled":false,"rental_uris":{"android":"levelo://app?vid=25e81eef-b9ea-4b4d-bf5f-af41e3b53100","ios":"levelo://app?vid=25e81eef-b9ea-4b4d-bf5f-af41e3b53100"},"vehicle_type_id":"4","last_reported":1728220427,"current_range_meters":38000,"station_id":"ce4bhp12rcd13ifvqh9g","pricing_plan_id":"cebpf4jnsgd1na2vs0mg"},{"bike_id":"249ba857-c21a-4cf9-b612-6eace3a3311f","system_id":"levelo_inurba_marseille","lat":43.2707,"lon":5.42283,"is_reserved":false,"is_disabled":false,"rental_uris":{"android":"levelo://app?vid=249ba857-c21a-4cf9-b612-6eace3a3311f","ios":"levelo://app?vid=249ba857-c21a-4cf9-b612-6eace3a3311f"},"vehicle_type_id":"4","last_reported":1728220427,"current_range_meters":26000,"station_id":"ce4bhk92rcd13ifvqgb0","pricing_plan_id":"cebpf4jnsgd1na2vs0mg"},{"bike_id":"32ab325a-0e98-4bb3-809c-c26d46577549","system_id":"levelo_inurba_marseille","lat":43.22936,"lon":5.35375,"is_reserved":false,"is_disabled":false,"rental_uris":{"android":"levelo://app?vid=32ab325a-0e98-4bb3-809c-c26d46577549","ios":"levelo://app?vid=32ab325a-0e98-4bb3-809c-c26d46577549"},"vehicle_type_id":"4","last_reported":1728220427,"current_range_meters":26800,"station_id":"cpo3532slgdg3j2ikp40","pricing_plan_id":"cebpf4jnsgd1na2vs0mg"},{"bike_id":"21814611-01da-4a56-bde2-76253f0cdaa1","system_id":"levelo_inurba_marseille","lat":43.27076,"lon":5.42277,"is_reserved":false,"is_disabled":false,"rental_uris":{"android":"levelo://app?vid=21814611-01da-4a56-bde2-76253f0cdaa1","ios":"levelo://app?vid=21814611-01da-4a56-bde2-76253f0cdaa1"},"vehicle_type_id":"4","last_reported":1728220427,"current_range_meters":12800,"station_id":"ce4bhk92rcd13ifvqgb0","pricing_plan_id":"cebpf4jnsgd1na2vs0mg"},{"bike_id":"37ceb9d1-d236-4eef-a076-71325503a9d4","system_id":"levelo_inurba_marseille","lat":43.29528,"lon":5.3903,"is_reserved":false,"is_disabled":false,"rental_uris":{"android":"levelo://app?vid=37ceb9d1-d236-4eef-a076-71325503a9d4","ios":"levelo://app?vid=37ceb9d1-d236-4eef-a076-71325503a9d4"},"vehicle_type_id":"4","last_reported":1728220427,"current_range_meters":33200,"station_id":"ce4bh3p2rcd13ifvqdp0","pricing_plan_id":"cebpf4jnsgd1na2vs0mg"},{"bike_id":"4239857e-d16c-4ba6-9fd8-418f2566d278","system_id":"levelo_inurba_marseille","lat":43.32032,"lon":5.415575,"is_reserved":false,"is_disabled":false,"rental_uris":{"android":"levelo://app?vid=4239857e-d16c-4ba6-9fd8-418f2566d278","ios":"levelo://app?vid=4239857e-d16c-4ba6-9fd8-418f2566d278"},"vehicle_type_id":"4","last_reported":1728220427,"current_range_meters":26800,"station_id":"ce4bhq92rcd13ifvqhkg","pricing_plan_id":"cebpf4jnsgd1na2vs0mg"},{"bike_id":"90f80364-0f59-43b1-bba6-aa43c75d91bc","system_id":"levelo_inurba_marseille","lat":43.30546,"lon":5.36558,"is_reserved":false,"is_disabled":false,"rental_uris":{"android":"levelo://app?vid=90f80364-0f59-43b1-bba6-aa43c75d91bc","ios":"levelo://app?vid=90f80364-0f59-43b1-bba6-aa43c75d91bc"},"vehicle_type_id":"4","last_reported":1728220427,"current_range_meters":27600,"station_id":"ce4bgs12rcd13ifvqcag","pricing_plan_id":"cebpf4jnsgd1na2vs0mg"},{"bike_id":"03ebdfef-60b9-4383-b780-f6e10ef5dff9","system_id":"levelo_inurba_marseille","lat":43.33753,"lon":5.37437,"is_reserved":false,"is_disabled":false,"rental_uris":{"android":"levelo://app?vid=03ebdfef-60b9-4383-b780-f6e10ef5dff9","ios":"levelo://app?vid=03ebdfef-60b9-4383-b780-f6e10ef5dff9"},"vehicle_type_id":"4","last_reported":1728220427,"current_range_meters":27200,"station_id":"","pricing_plan_id":"cebpf4jnsgd1na2vs0mg"},{"bike_id":"7c151ab8-5716-45b8-ab82-58e51e75a567","system_id":"levelo_inurba_marseille","lat":43.3229,"lon":5.38275,"is_reserved":false,"is_disabled":false,"rental_uris":{"android":"levelo://app?vid=7c151ab8-5716-45b8-ab82-58e51e75a567","ios":"levelo://app?vid=7c151ab8-5716-45b8-ab82-58e51e75a567"},"vehicle_type_id":"4","last_reported":1728220427,"current_range_meters":34800,"station_id":"ce4bhr12rcd13ifvqhqg","pricing_plan_id":"cebpf4jnsgd1na2vs0mg"},{"bike_id":"8c4ede2a-8479-4951-912b-e9104b176599","system_id":"levelo_inurba_marseille","lat":43.337258,"lon":5.391914,"is_reserved":false,"is_disabled":false,"rental_uris":{"android":"levelo://app?vid=8c4ede2a-8479-4951-912b-e9104b176599","ios":"levelo://app?vid=8c4ede2a-8479-4951-912b-e9104b176599"},"vehicle_type_id":"4","last_reported":1728220427,"current_range_meters":8000,"station_id":"ce4bhr92rcd13ifvqhsg","pricing_plan_id":"cebpf4jnsgd1na2vs0mg"},{"bike_id":"f5d878c4-8c7a-4fac-ad61-d4a4f8ad0a10","system_id":"levelo_inurba_marseille","lat":43.22928,"lon":5.35375,"is_reserved":false,"is_disabled":false,"rental_uris":{"android":"levelo://app?vid=f5d878c4-8c7a-4fac-ad61-d4a4f8ad0a10","ios":"levelo://app?vid=f5d878c4-8c7a-4fac-ad61-d4a4f8ad0a10"},"vehicle_type_id":"4","last_reported":1728220427,"current_range_meters":24000,"station_id":"cpo3532slgdg3j2ikp40","pricing_plan_id":"cebpf4jnsgd1na2vs0mg"},{"bike_id":"a209a971-131e-491a-94c0-3302688dd8c9","system_id":"levelo_inurba_marseille","lat":43.30815,"lon":5.43545,"is_reserved":false,"is_disabled":false,"rental_uris":{"android":"levelo://app?vid=a209a971-131e-491a-94c0-3302688dd8c9","ios":"levelo://app?vid=a209a971-131e-491a-94c0-3302688dd8c9"},"vehicle_type_id":"4","last_reported":1728220427,"current_range_meters":12400,"station_id":"ce4bhph2rcd13ifvqheg","pricing_plan_id":"cebpf4jnsgd1na2vs0mg"},{"bike_id":"0677a6b5-e146-40ec-a422-c0be68c6f896","system_id":"levelo_inurba_marseille","lat":43.3233,"lon":5.40621,"is_reserved":false,"is_disabled":false,"rental_uris":{"android":"levelo://app?vid=0677a6b5-e146-40ec-a422-c0be68c6f896","ios":"levelo://app?vid=0677a6b5-e146-40ec-a422-c0be68c6f896"},"vehicle_type_id":"4","last_reported":1728220427,"current_range_meters":26000,"station_id":"ce4bhq92rcd13ifvqhjg","pricing_plan_id":"cebpf4jnsgd1na2vs0mg"},{"bike_id":"4018fa26-9a2a-4214-af21-76b3667a940b","system_id":"levelo_inurba_marseille","lat":43.33781,"lon":5.37424,"is_reserved":false,"is_disabled":false,"rental_uris":{"android":"levelo://app?vid=4018fa26-9a2a-4214-af21-76b3667a940b","ios":"levelo://app?vid=4018fa26-9a2a-4214-af21-76b3667a940b"},"vehicle_type_id":"4","last_reported":1728220427,"current_range_meters":28000,"station_id":"","pricing_plan_id":"cebpf4jnsgd1na2vs0mg"},{"bike_id":"b58b67ef-f1e6-4087-8c3a-fbf7c880048f","system_id":"levelo_inurba_marseille","lat":43.28927,"lon":5.38397,"is_reserved":false,"is_disabled":false,"rental_uris":{"android":"levelo://app?vid=b58b67ef-f1e6-4087-8c3a-fbf7c880048f","ios":"levelo://app?vid=b58b67ef-f1e6-4087-8c3a-fbf7c880048f"},"vehicle_type_id":"4","last_reported":1728220427,"current_range_meters":37600,"station_id":"ce4bh612rcd13ifvqe6g","pricing_plan_id":"cebpf4jnsgd1na2vs0mg"},{"bike_id":"ac7477e2-647f-4698-b2f1-05ac6bd7ca79","system_id":"levelo_inurba_marseille","lat":43.27364,"lon":5.36241,"is_reserved":false,"is_disabled":false,"rental_uris":{"android":"levelo://app?vid=ac7477e2-647f-4698-b2f1-05ac6bd7ca79","ios":"levelo://app?vid=ac7477e2-647f-4698-b2f1-05ac6bd7ca79"},"vehicle_type_id":"4","last_reported":1728220427,"current_range_meters":33200,"station_id":"ce4bhbh2rcd13ifvqeo0","pricing_plan_id":"cebpf4jnsgd1na2vs0mg"},{"bike_id":"ea1558d2-8ab1-46c9-b214-6b68c55ad7cc","system_id":"levelo_inurba_marseille","lat":43.30951,"lon":5.39017,"is_reserved":false,"is_disabled":false,"rental_uris":{"android":"levelo://app?vid=ea1558d2-8ab1-46c9-b214-6b68c55ad7cc","ios":"levelo://app?vid=ea1558d2-8ab1-46c9-b214-6b68c55ad7cc"},"vehicle_type_id":"4","last_reported":1728220427,"current_range_meters":36800,"station_id":"ce4bgup2rcd13ifvqco0","pricing_plan_id":"cebpf4jnsgd1na2vs0mg"},{"bike_id":"43b1ccfa-bb66-4c41-a3b6-088c7741f21a","system_id":"levelo_inurba_marseille","lat":43.31486,"lon":5.37294,"is_reserved":false,"is_disabled":false,"rental_uris":{"android":"levelo://app?vid=43b1ccfa-bb66-4c41-a3b6-088c7741f21a","ios":"levelo://app?vid=43b1ccfa-bb66-4c41-a3b6-088c7741f21a"},"vehicle_type_id":"4","last_reported":1728220427,"current_range_meters":38800,"station_id":"ce4bgt12rcd13ifvqcd0","pricing_plan_id":"cebpf4jnsgd1na2vs0mg"},{"bike_id":"0b4d090c-c6cc-4a16-b89c-a36fb872b01f","system_id":"levelo_inurba_marseille","lat":43.29783,"lon":5.37109,"is_reserved":false,"is_disabled":false,"rental_uris":{"android":"levelo://app?vid=0b4d090c-c6cc-4a16-b89c-a36fb872b01f","ios":"levelo://app?vid=0b4d090c-c6cc-4a16-b89c-a36fb872b01f"},"vehicle_type_id":"4","last_reported":1728220427,"current_range_meters":38800,"station_id":"ce4bgop2rcd13ifvqc1g","pricing_plan_id":"cebpf4jnsgd1na2vs0mg"},{"bike_id":"fd7ec8d3-853c-4fd5-8422-a7d7968cbdae","system_id":"levelo_inurba_marseille","lat":43.28854,"lon":5.35852,"is_reserved":false,"is_disabled":false,"rental_uris":{"android":"levelo://app?vid=fd7ec8d3-853c-4fd5-8422-a7d7968cbdae","ios":"levelo://app?vid=fd7ec8d3-853c-4fd5-8422-a7d7968cbdae"},"vehicle_type_id":"4","last_reported":1728220427,"current_range_meters":24000,"station_id":"ce4bhb12rcd13ifvqem0","pricing_plan_id":"cebpf4jnsgd1na2vs0mg"},{"bike_id":"9cf4b789-1037-4485-a032-5c721dd706c8","system_id":"levelo_inurba_marseille","lat":43.23185,"lon":5.39984,"is_reserved":false,"is_disabled":false,"rental_uris":{"android":"levelo://app?vid=9cf4b789-1037-4485-a032-5c721dd706c8","ios":"levelo://app?vid=9cf4b789-1037-4485-a032-5c721dd706c8"},"vehicle_type_id":"4","last_reported":1728220427,"current_range_meters":14800,"station_id":"ce4bhn12rcd13ifvqgqg","pricing_plan_id":"cebpf4jnsgd1na2vs0mg"},{"bike_id":"491813ec-5bcd-4eda-acb2-c01ccb4e9894","system_id":"levelo_inurba_marseille","lat":43.33772,"lon":5.37422,"is_reserved":false,"is_disabled":false,"rental_uris":{"android":"levelo://app?vid=491813ec-5bcd-4eda-acb2-c01ccb4e9894","ios":"levelo://app?vid=491813ec-5bcd-4eda-acb2-c01ccb4e9894"},"vehicle_type_id":"4","last_reported":1728220427,"current_range_meters":27200,"station_id":"","pricing_plan_id":"cebpf4jnsgd1na2vs0mg"},{"bike_id":"3df34a00-fc73-411e-8aee-89e329b67c3a","system_id":"levelo_inurba_marseille","lat":43.29416,"lon":5.3862,"is_reserved":false,"is_disabled":false,"rental_uris":{"android":"levelo://app?vid=3df34a00-fc73-411e-8aee-89e329b67c3a","ios":"levelo://app?vid=3df34a00-fc73-411e-8aee-89e329b67c3a"},"vehicle_type_id":"4","last_reported":1728220427,"current_range_meters":6400,"station_id":"ce4bh2h2rcd13ifvqdh0","pricing_plan_id":"cebpf4jnsgd1na2vs0mg"},{"bike_id":"8066cbd9-6f5f-4c8b-82e0-670217342883","system_id":"levelo_inurba_marseille","lat":43.21345,"lon":5.34938,"is_reserved":false,"is_disabled":false,"rental_uris":{"android":"levelo://app?vid=8066cbd9-6f5f-4c8b-82e0-670217342883","ios":"levelo://app?vid=8066cbd9-6f5f-4c8b-82e0-670217342883"},"vehicle_type_id":"4","last_reported":1728220427,"current_range_meters":33200,"station_id":"crv51consjfaj9uu89c0","pricing_plan_id":"cebpf4jnsgd1na2vs0mg"},{"bike_id":"870ecdbf-3528-4277-82a5-269de3374c1c","system_id":"levelo_inurba_marseille","lat":43.27069,"lon":5.42274,"is_reserved":false,"is_disabled":false,"rental_uris":{"android":"levelo://app?vid=870ecdbf-3528-4277-82a5-269de3374c1c","ios":"levelo://app?vid=870ecdbf-3528-4277-82a5-269de3374c1c"},"vehicle_type_id":"4","last_reported":1728220427,"current_range_meters":39200,"station_id":"ce4bhk92rcd13ifvqgb0","pricing_plan_id":"cebpf4jnsgd1na2vs0mg"},{"bike_id":"26b82ece-a942-4fe4-99ec-d92c49d7ac02","system_id":"levelo_inurba_marseille","lat":43.29897,"lon":5.4367,"is_reserved":false,"is_disabled":false,"rental_uris":{"android":"levelo://app?vid=26b82ece-a942-4fe4-99ec-d92c49d7ac02","ios":"levelo://app?vid=26b82ece-a942-4fe4-99ec-d92c49d7ac02"},"vehicle_type_id":"4","last_reported":1728220427,"current_range_meters":38000,"station_id":"ce4bhpp2rcd13ifvqhfg","pricing_plan_id":"cebpf4jnsgd1na2vs0mg"},{"bike_id":"baba7691-81ff-4c7d-90d9-c89eba9696cb","system_id":"levelo_inurba_marseille","lat":43.25928,"lon":5.40908,"is_reserved":false,"is_disabled":false,"rental_uris":{"android":"levelo://app?vid=baba7691-81ff-4c7d-90d9-c89eba9696cb","ios":"levelo://app?vid=baba7691-81ff-4c7d-90d9-c89eba9696cb"},"vehicle_type_id":"4","last_reported":1728220427,"current_range_meters":32000,"station_id":"ce4bhm92rcd13ifvqglg","pricing_plan_id":"cebpf4jnsgd1na2vs0mg"},{"bike_id":"a6007e39-eafe-4c4f-8bcd-ba3040fddf98","system_id":"levelo_inurba_marseille","lat":43.29272,"lon":5.36844,"is_reserved":false,"is_disabled":false,"rental_uris":{"android":"levelo://app?vid=a6007e39-eafe-4c4f-8bcd-ba3040fddf98","ios":"levelo://app?vid=a6007e39-eafe-4c4f-8bcd-ba3040fddf98"},"vehicle_type_id":"4","last_reported":1728220427,"current_range_meters":19600,"station_id":"ce4bhbp2rcd13ifvqesg","pricing_plan_id":"cebpf4jnsgd1na2vs0mg"},{"bike_id":"d73e4c46-b32f-4eb4-8be2-86b635c69fb6","system_id":"levelo_inurba_marseille","lat":43.28693,"lon":5.37386,"is_reserved":false,"is_disabled":false,"rental_uris":{"android":"levelo://app?vid=d73e4c46-b32f-4eb4-8be2-86b635c69fb6","ios":"levelo://app?vid=d73e4c46-b32f-4eb4-8be2-86b635c69fb6"},"vehicle_type_id":"4","last_reported":1728220427,"current_range_meters":16800,"station_id":"ce4bh3p2rcd13ifvqdq0","pricing_plan_id":"cebpf4jnsgd1na2vs0mg"},{"bike_id":"162dd249-db39-4cfd-8514-5338ba4c51bc","system_id":"levelo_inurba_marseille","lat":43.2717,"lon":5.40992,"is_reserved":false,"is_disabled":false,"rental_uris":{"android":"levelo://app?vid=162dd249-db39-4cfd-8514-5338ba4c51bc","ios":"levelo://app?vid=162dd249-db39-4cfd-8514-5338ba4c51bc"},"vehicle_type_id":"4","last_reported":1728220427,"current_range_meters":22400,"station_id":"ce4bhl12rcd13ifvqgf0","pricing_plan_id":"cebpf4jnsgd1na2vs0mg"},{"bike_id":"d23ddbe4-840b-4d6d-8e13-a20922334a77","system_id":"levelo_inurba_marseille","lat":43.32485,"lon":5.36551,"is_reserved":false,"is_disabled":false,"rental_uris":{"android":"levelo://app?vid=d23ddbe4-840b-4d6d-8e13-a20922334a77","ios":"levelo://app?vid=d23ddbe4-840b-4d6d-8e13-a20922334a77"},"vehicle_type_id":"4","last_reported":1728220427,"current_range_meters":38800,"station_id":"ce4bhs12rcd13ifvqhvg","pricing_plan_id":"cebpf4jnsgd1na2vs0mg"},{"bike_id":"b0f92218-0c7c-4d18-af39-bdce6d7c8766","system_id":"levelo_inurba_marseille","lat":43.29197,"lon":5.35808,"is_reserved":false,"is_disabled":false,"rental_uris":{"android":"levelo://app?vid=b0f92218-0c7c-4d18-af39-bdce6d7c8766","ios":"levelo://app?vid=b0f92218-0c7c-4d18-af39-bdce6d7c8766"},"vehicle_type_id":"4","last_reported":1728220427,"current_range_meters":13600,"station_id":"ce4bhb12rcd13ifvqel0","pricing_plan_id":"cebpf4jnsgd1na2vs0mg"},{"bike_id":"4af55307-045f-4c66-a045-a91d88bb4c16","system_id":"levelo_inurba_marseille","lat":43.22931,"lon":5.35376,"is_reserved":false,"is_disabled":false,"rental_uris":{"android":"levelo://app?vid=4af55307-045f-4c66-a045-a91d88bb4c16","ios":"levelo://app?vid=4af55307-045f-4c66-a045-a91d88bb4c16"},"vehicle_type_id":"4","last_reported":1728220427,"current_range_meters":30400,"station_id":"cpo3532slgdg3j2ikp40","pricing_plan_id":"cebpf4jnsgd1na2vs0mg"},{"bike_id":"18c3e0f0-b15f-4108-89f7-84d4e29ddbfc","system_id":"levelo_inurba_marseille","lat":43.26195,"lon":5.37935,"is_reserved":false,"is_disabled":false,"rental_uris":{"android":"levelo://app?vid=18c3e0f0-b15f-4108-89f7-84d4e29ddbfc","ios":"levelo://app?vid=18c3e0f0-b15f-4108-89f7-84d4e29ddbfc"},"vehicle_type_id":"4","last_reported":1728220427,"current_range_meters":28400,"station_id":"ce4bhjp2rcd13ifvqg90","pricing_plan_id":"cebpf4jnsgd1na2vs0mg"},{"bike_id":"4548b517-12f1-4bdf-bf19-bf56f4b90c1d","system_id":"levelo_inurba_marseille","lat":43.2897,"lon":5.37834,"is_reserved":false,"is_disabled":false,"rental_uris":{"android":"levelo://app?vid=4548b517-12f1-4bdf-bf19-bf56f4b90c1d","ios":"levelo://app?vid=4548b517-12f1-4bdf-bf19-bf56f4b90c1d"},"vehicle_type_id":"4","last_reported":1728220427,"current_range_meters":38000,"station_id":"ce4bh9p2rcd13ifvqed0","pricing_plan_id":"cebpf4jnsgd1na2vs0mg"},{"bike_id":"cf213159-2cec-4023-9857-663491c0fc30","system_id":"levelo_inurba_marseille","lat":43.30088,"lon":5.39078,"is_reserved":false,"is_disabled":false,"rental_uris":{"android":"levelo://app?vid=cf213159-2cec-4023-9857-663491c0fc30","ios":"levelo://app?vid=cf213159-2cec-4023-9857-663491c0fc30"},"vehicle_type_id":"4","last_reported":1728220427,"current_range_meters":16400,"station_id":"ce4bh3h2rcd13ifvqdo0","pricing_plan_id":"cebpf4jnsgd1na2vs0mg"},{"bike_id":"20a57e0e-4b67-4cae-9e1a-94ea5b424eca","system_id":"levelo_inurba_marseille","lat":43.30887,"lon":5.39641,"is_reserved":false,"is_disabled":false,"rental_uris":{"android":"levelo://app?vid=20a57e0e-4b67-4cae-9e1a-94ea5b424eca","ios":"levelo://app?vid=20a57e0e-4b67-4cae-9e1a-94ea5b424eca"},"vehicle_type_id":"4","last_reported":1728220427,"current_range_meters":30400,"station_id":"ce4bh012rcd13ifvqcv0","pricing_plan_id":"cebpf4jnsgd1na2vs0mg"},{"bike_id":"13a35d1a-1c21-4cdd-9282-17040c700716","system_id":"levelo_inurba_marseille","lat":43.32551,"lon":5.41441,"is_reserved":false,"is_disabled":false,"rental_uris":{"android":"levelo://app?vid=13a35d1a-1c21-4cdd-9282-17040c700716","ios":"levelo://app?vid=13a35d1a-1c21-4cdd-9282-17040c700716"},"vehicle_type_id":"4","last_reported":1728220427,"current_range_meters":35200,"station_id":"ce4bhq12rcd13ifvqhhg","pricing_plan_id":"cebpf4jnsgd1na2vs0mg"},{"bike_id":"235344ae-d40d-4c9e-a986-52bb5c104ce0","system_id":"levelo_inurba_marseille","lat":43.31685,"lon":5.40467,"is_reserved":false,"is_disabled":false,"rental_uris":{"android":"levelo://app?vid=235344ae-d40d-4c9e-a986-52bb5c104ce0","ios":"levelo://app?vid=235344ae-d40d-4c9e-a986-52bb5c104ce0"},"vehicle_type_id":"4","last_reported":1728220427,"current_range_meters":37600,"station_id":"ce4bh012rcd13ifvqd00","pricing_plan_id":"cebpf4jnsgd1na2vs0mg"},{"bike_id":"265b6257-cac5-4700-be81-5022c39ebf02","system_id":"levelo_inurba_marseille","lat":43.21346,"lon":5.3494,"is_reserved":false,"is_disabled":false,"rental_uris":{"android":"levelo://app?vid=265b6257-cac5-4700-be81-5022c39ebf02","ios":"levelo://app?vid=265b6257-cac5-4700-be81-5022c39ebf02"},"vehicle_type_id":"4","last_reported":1728220427,"current_range_meters":32400,"station_id":"crv51consjfaj9uu89c0","pricing_plan_id":"cebpf4jnsgd1na2vs0mg"},{"bike_id":"61e50557-854d-465b-ba8f-f3ddc6b61e3f","system_id":"levelo_inurba_marseille","lat":43.29308,"lon":5.37163,"is_reserved":false,"is_disabled":false,"rental_uris":{"android":"levelo://app?vid=61e50557-854d-465b-ba8f-f3ddc6b61e3f","ios":"levelo://app?vid=61e50557-854d-465b-ba8f-f3ddc6b61e3f"},"vehicle_type_id":"4","last_reported":1728220427,"current_range_meters":38400,"station_id":"ce4bgh92rcd13ifvqb40","pricing_plan_id":"cebpf4jnsgd1na2vs0mg"},{"bike_id":"79a30a07-81d5-4fba-9bdc-0528f8f010ae","system_id":"levelo_inurba_marseille","lat":43.25114,"lon":5.40325,"is_reserved":false,"is_disabled":false,"rental_uris":{"android":"levelo://app?vid=79a30a07-81d5-4fba-9bdc-0528f8f010ae","ios":"levelo://app?vid=79a30a07-81d5-4fba-9bdc-0528f8f010ae"},"vehicle_type_id":"4","last_reported":1728220427,"current_range_meters":22000,"station_id":"ce4bhlh2rcd13ifvqgig","pricing_plan_id":"cebpf4jnsgd1na2vs0mg"},{"bike_id":"0107f861-6ae1-4bb4-b773-aa0f826bc641","system_id":"levelo_inurba_marseille","lat":43.29527,"lon":5.39395,"is_reserved":false,"is_disabled":false,"rental_uris":{"android":"levelo://app?vid=0107f861-6ae1-4bb4-b773-aa0f826bc641","ios":"levelo://app?vid=0107f861-6ae1-4bb4-b773-aa0f826bc641"},"vehicle_type_id":"4","last_reported":1728220427,"current_range_meters":31200,"station_id":"ce4bh292rcd13ifvqdf0","pricing_plan_id":"cebpf4jnsgd1na2vs0mg"},{"bike_id":"97ef281f-c717-429c-a078-d6a368902950","system_id":"levelo_inurba_marseille","lat":43.21347,"lon":5.34941,"is_reserved":false,"is_disabled":false,"rental_uris":{"android":"levelo://app?vid=97ef281f-c717-429c-a078-d6a368902950","ios":"levelo://app?vid=97ef281f-c717-429c-a078-d6a368902950"},"vehicle_type_id":"4","last_reported":1728220427,"current_range_meters":24800,"station_id":"crv51consjfaj9uu89c0","pricing_plan_id":"cebpf4jnsgd1na2vs0mg"},{"bike_id":"95742baa-b124-4b5a-8cd9-cc5d271511f7","system_id":"levelo_inurba_marseille","lat":43.2985,"lon":5.36292,"is_reserved":false,"is_disabled":false,"rental_uris":{"android":"levelo://app?vid=95742baa-b124-4b5a-8cd9-cc5d271511f7","ios":"levelo://app?vid=95742baa-b124-4b5a-8cd9-cc5d271511f7"},"vehicle_type_id":"4","last_reported":1728220427,"current_range_meters":16800,"station_id":"ce4bgpp2rcd13ifvqc3g","pricing_plan_id":"cebpf4jnsgd1na2vs0mg"},{"bike_id":"c5dbadad-63fe-499c-a569-91bc626821d6","system_id":"levelo_inurba_marseille","lat":43.29051,"lon":5.35904,"is_reserved":false,"is_disabled":false,"rental_uris":{"android":"levelo://app?vid=c5dbadad-63fe-499c-a569-91bc626821d6","ios":"levelo://app?vid=c5dbadad-63fe-499c-a569-91bc626821d6"},"vehicle_type_id":"4","last_reported":1728220427,"current_range_meters":32400,"station_id":"ce4bha92rcd13ifvqeg0","pricing_plan_id":"cebpf4jnsgd1na2vs0mg"},{"bike_id":"a2f3ad24-a1b9-4ff9-8d55-220247fd22c8","system_id":"levelo_inurba_marseille","lat":43.31713,"lon":5.43705,"is_reserved":false,"is_disabled":false,"rental_uris":{"android":"levelo://app?vid=a2f3ad24-a1b9-4ff9-8d55-220247fd22c8","ios":"levelo://app?vid=a2f3ad24-a1b9-4ff9-8d55-220247fd22c8"},"vehicle_type_id":"4","last_reported":1728220427,"current_range_meters":16800,"station_id":"ce4bhp92rcd13ifvqhcg","pricing_plan_id":"cebpf4jnsgd1na2vs0mg"},{"bike_id":"23860757-7352-4f6d-bd82-08ba559867c5","system_id":"levelo_inurba_marseille","lat":43.24809,"lon":5.37456,"is_reserved":false,"is_disabled":false,"rental_uris":{"android":"levelo://app?vid=23860757-7352-4f6d-bd82-08ba559867c5","ios":"levelo://app?vid=23860757-7352-4f6d-bd82-08ba559867c5"},"vehicle_type_id":"4","last_reported":1728220427,"current_range_meters":22400,"station_id":"ce4bhgh2rcd13ifvqfb0","pricing_plan_id":"cebpf4jnsgd1na2vs0mg"},{"bike_id":"604c3fc1-c020-4b92-be0c-6276da776bc1","system_id":"levelo_inurba_marseille","lat":43.308476,"lon":5.377421,"is_reserved":false,"is_disabled":false,"rental_uris":{"android":"levelo://app?vid=604c3fc1-c020-4b92-be0c-6276da776bc1","ios":"levelo://app?vid=604c3fc1-c020-4b92-be0c-6276da776bc1"},"vehicle_type_id":"4","last_reported":1728220427,"current_range_meters":37600,"station_id":"ce4bgv92rcd13ifvqcq0","pricing_plan_id":"cebpf4jnsgd1na2vs0mg"},{"bike_id":"d0491990-bb8a-41d6-b132-91e091f6cea9","system_id":"levelo_inurba_marseille","lat":43.26198,"lon":5.37925,"is_reserved":false,"is_disabled":false,"rental_uris":{"android":"levelo://app?vid=d0491990-bb8a-41d6-b132-91e091f6cea9","ios":"levelo://app?vid=d0491990-bb8a-41d6-b132-91e091f6cea9"},"vehicle_type_id":"4","last_reported":1728220427,"current_range_meters":16800,"station_id":"ce4bhjp2rcd13ifvqg90","pricing_plan_id":"cebpf4jnsgd1na2vs0mg"},{"bike_id":"32081e2f-992f-4ea7-a033-1341d9d95970","system_id":"levelo_inurba_marseille","lat":43.26938,"lon":5.40256,"is_reserved":false,"is_disabled":false,"rental_uris":{"android":"levelo://app?vid=32081e2f-992f-4ea7-a033-1341d9d95970","ios":"levelo://app?vid=32081e2f-992f-4ea7-a033-1341d9d95970"},"vehicle_type_id":"4","last_reported":1728220427,"current_range_meters":3600,"station_id":"cjm6bp8fraef2m0cb0m0","pricing_plan_id":"cebpf4jnsgd1na2vs0mg"},{"bike_id":"f10bcf9c-7781-43e3-be22-9f945d1ddcd6","system_id":"levelo_inurba_marseille","lat":43.31715,"lon":5.43708,"is_reserved":false,"is_disabled":false,"rental_uris":{"android":"levelo://app?vid=f10bcf9c-7781-43e3-be22-9f945d1ddcd6","ios":"levelo://app?vid=f10bcf9c-7781-43e3-be22-9f945d1ddcd6"},"vehicle_type_id":"4","last_reported":1728220427,"current_range_meters":18000,"station_id":"ce4bhp92rcd13ifvqhcg","pricing_plan_id":"cebpf4jnsgd1na2vs0mg"},{"bike_id":"b115519d-43be-4b63-afb0-d6371cff0a3c","system_id":"levelo_inurba_marseille","lat":43.2135,"lon":5.34935,"is_reserved":false,"is_disabled":false,"rental_uris":{"android":"levelo://app?vid=b115519d-43be-4b63-afb0-d6371cff0a3c","ios":"levelo://app?vid=b115519d-43be-4b63-afb0-d6371cff0a3c"},"vehicle_type_id":"4","last_reported":1728220427,"current_range_meters":13600,"station_id":"crv51consjfaj9uu89c0","pricing_plan_id":"cebpf4jnsgd1na2vs0mg"},{"bike_id":"05ddab4b-2219-453e-b9f6-9211ae63c830","system_id":"levelo_inurba_marseille","lat":43.21343,"lon":5.34943,"is_reserved":false,"is_disabled":false,"rental_uris":{"android":"levelo://app?vid=05ddab4b-2219-453e-b9f6-9211ae63c830","ios":"levelo://app?vid=05ddab4b-2219-453e-b9f6-9211ae63c830"},"vehicle_type_id":"4","last_reported":1728220427,"current_range_meters":33200,"station_id":"crv51consjfaj9uu89c0","pricing_plan_id":"cebpf4jnsgd1na2vs0mg"},{"bike_id":"bf87f9e6-5afc-4252-bed4-cc316f151a60","system_id":"levelo_inurba_marseille","lat":43.3229,"lon":5.38274,"is_reserved":false,"is_disabled":false,"rental_uris":{"android":"levelo://app?vid=bf87f9e6-5afc-4252-bed4-cc316f151a60","ios":"levelo://app?vid=bf87f9e6-5afc-4252-bed4-cc316f151a60"},"vehicle_type_id":"4","last_reported":1728220427,"current_range_meters":19600,"station_id":"ce4bhr12rcd13ifvqhqg","pricing_plan_id":"cebpf4jnsgd1na2vs0mg"},{"bike_id":"2a54b9aa-403a-41b2-bc3a-9481d4288c1f","system_id":"levelo_inurba_marseille","lat":43.30603,"lon":5.3723,"is_reserved":false,"is_disabled":false,"rental_uris":{"android":"levelo://app?vid=2a54b9aa-403a-41b2-bc3a-9481d4288c1f","ios":"levelo://app?vid=2a54b9aa-403a-41b2-bc3a-9481d4288c1f"},"vehicle_type_id":"4","last_reported":1728220427,"current_range_meters":25600,"station_id":"ce4bgqh2rcd13ifvqc4g","pricing_plan_id":"cebpf4jnsgd1na2vs0mg"},{"bike_id":"eaceb183-67bf-4fb9-bd40-4d01e8d4908e","system_id":"levelo_inurba_marseille","lat":43.246405,"lon":5.394158,"is_reserved":false,"is_disabled":false,"rental_uris":{"android":"levelo://app?vid=eaceb183-67bf-4fb9-bd40-4d01e8d4908e","ios":"levelo://app?vid=eaceb183-67bf-4fb9-bd40-4d01e8d4908e"},"vehicle_type_id":"4","last_reported":1728220427,"current_range_meters":38400,"station_id":"ce4bhn12rcd13ifvqgpg","pricing_plan_id":"cebpf4jnsgd1na2vs0mg"},{"bike_id":"d0ca1193-12e8-4ac2-9a60-4ae6e0040151","system_id":"levelo_inurba_marseille","lat":43.2294,"lon":5.35379,"is_reserved":false,"is_disabled":false,"rental_uris":{"android":"levelo://app?vid=d0ca1193-12e8-4ac2-9a60-4ae6e0040151","ios":"levelo://app?vid=d0ca1193-12e8-4ac2-9a60-4ae6e0040151"},"vehicle_type_id":"4","last_reported":1728220427,"current_range_meters":28000,"station_id":"cpo3532slgdg3j2ikp40","pricing_plan_id":"cebpf4jnsgd1na2vs0mg"},{"bike_id":"53923936-104b-4e94-8da0-e31608a37020","system_id":"levelo_inurba_marseille","lat":43.29416,"lon":5.3862,"is_reserved":false,"is_disabled":false,"rental_uris":{"android":"levelo://app?vid=53923936-104b-4e94-8da0-e31608a37020","ios":"levelo://app?vid=53923936-104b-4e94-8da0-e31608a37020"},"vehicle_type_id":"4","last_reported":1728220427,"current_range_meters":23200,"station_id":"ce4bh2h2rcd13ifvqdh0","pricing_plan_id":"cebpf4jnsgd1na2vs0mg"},{"bike_id":"e39a9ff1-a844-4b39-b19a-887ec0cc3d82","system_id":"levelo_inurba_marseille","lat":43.2907,"lon":5.37169,"is_reserved":false,"is_disabled":false,"rental_uris":{"android":"levelo://app?vid=e39a9ff1-a844-4b39-b19a-887ec0cc3d82","ios":"levelo://app?vid=e39a9ff1-a844-4b39-b19a-887ec0cc3d82"},"vehicle_type_id":"4","last_reported":1728220427,"current_range_meters":23200,"station_id":"ce4bh5p2rcd13ifvqe4g","pricing_plan_id":"cebpf4jnsgd1na2vs0mg"},{"bike_id":"4f922fe2-4489-4b54-a5b1-7835b0165608","system_id":"levelo_inurba_marseille","lat":43.2694,"lon":5.40248,"is_reserved":false,"is_disabled":false,"rental_uris":{"android":"levelo://app?vid=4f922fe2-4489-4b54-a5b1-7835b0165608","ios":"levelo://app?vid=4f922fe2-4489-4b54-a5b1-7835b0165608"},"vehicle_type_id":"4","last_reported":1728220427,"current_range_meters":24400,"station_id":"cjm6bp8fraef2m0cb0m0","pricing_plan_id":"cebpf4jnsgd1na2vs0mg"},{"bike_id":"be418cc3-4334-4ce4-9486-dc18b246cad9","system_id":"levelo_inurba_marseille","lat":43.28147,"lon":5.42645,"is_reserved":false,"is_disabled":false,"rental_uris":{"android":"levelo://app?vid=be418cc3-4334-4ce4-9486-dc18b246cad9","ios":"levelo://app?vid=be418cc3-4334-4ce4-9486-dc18b246cad9"},"vehicle_type_id":"4","last_reported":1728220427,"current_range_meters":34000,"station_id":"ce4bhnh2rcd13ifvqgug","pricing_plan_id":"cebpf4jnsgd1na2vs0mg"},{"bike_id":"1bd2f7ec-d06e-4723-b3c8-18546fc91d7d","system_id":"levelo_inurba_marseille","lat":43.31264,"lon":5.40173,"is_reserved":false,"is_disabled":false,"rental_uris":{"android":"levelo://app?vid=1bd2f7ec-d06e-4723-b3c8-18546fc91d7d","ios":"levelo://app?vid=1bd2f7ec-d06e-4723-b3c8-18546fc91d7d"},"vehicle_type_id":"4","last_reported":1728220427,"current_range_meters":7200,"station_id":"ce4bh092rcd13ifvqd30","pricing_plan_id":"cebpf4jnsgd1na2vs0mg"},{"bike_id":"cf859ea4-43e9-4e93-b7f1-abd407171ec0","system_id":"levelo_inurba_marseille","lat":43.27812,"lon":5.40702,"is_reserved":false,"is_disabled":false,"rental_uris":{"android":"levelo://app?vid=cf859ea4-43e9-4e93-b7f1-abd407171ec0","ios":"levelo://app?vid=cf859ea4-43e9-4e93-b7f1-abd407171ec0"},"vehicle_type_id":"4","last_reported":1728220427,"current_range_meters":30400,"station_id":"ce4bhnh2rcd13ifvqgtg","pricing_plan_id":"cebpf4jnsgd1na2vs0mg"},{"bike_id":"1c0c5067-08e6-4d13-aa02-47b4d6b57c1d","system_id":"levelo_inurba_marseille","lat":43.30305,"lon":5.36893,"is_reserved":false,"is_disabled":false,"rental_uris":{"android":"levelo://app?vid=1c0c5067-08e6-4d13-aa02-47b4d6b57c1d","ios":"levelo://app?vid=1c0c5067-08e6-4d13-aa02-47b4d6b57c1d"},"vehicle_type_id":"4","last_reported":1728220427,"current_range_meters":37600,"station_id":"ce4bgqh2rcd13ifvqc5g","pricing_plan_id":"cebpf4jnsgd1na2vs0mg"},{"bike_id":"830506f7-7c7d-47de-ae6f-1e66707b7bc5","system_id":"levelo_inurba_marseille","lat":43.3079,"lon":5.37647,"is_reserved":false,"is_disabled":false,"rental_uris":{"android":"levelo://app?vid=830506f7-7c7d-47de-ae6f-1e66707b7bc5","ios":"levelo://app?vid=830506f7-7c7d-47de-ae6f-1e66707b7bc5"},"vehicle_type_id":"4","last_reported":1728220427,"current_range_meters":26000,"station_id":"ce4bgv92rcd13ifvqcq0","pricing_plan_id":"cebpf4jnsgd1na2vs0mg"},{"bike_id":"7be128f4-ba12-493a-be99-11ef57463abf","system_id":"levelo_inurba_marseille","lat":43.21346,"lon":5.34938,"is_reserved":false,"is_disabled":false,"rental_uris":{"android":"levelo://app?vid=7be128f4-ba12-493a-be99-11ef57463abf","ios":"levelo://app?vid=7be128f4-ba12-493a-be99-11ef57463abf"},"vehicle_type_id":"4","last_reported":1728220427,"current_range_meters":6800,"station_id":"crv51consjfaj9uu89c0","pricing_plan_id":"cebpf4jnsgd1na2vs0mg"},{"bike_id":"43dcf526-a3ff-421c-98a6-4909a3d57afd","system_id":"levelo_inurba_marseille","lat":43.26571,"lon":5.39005,"is_reserved":false,"is_disabled":false,"rental_uris":{"android":"levelo://app?vid=43dcf526-a3ff-421c-98a6-4909a3d57afd","ios":"levelo://app?vid=43dcf526-a3ff-421c-98a6-4909a3d57afd"},"vehicle_type_id":"4","last_reported":1728220427,"current_range_meters":16000,"station_id":"ce4bhe12rcd13ifvqf30","pricing_plan_id":"cebpf4jnsgd1na2vs0mg"},{"bike_id":"d79b8ef0-5947-4bfa-b2f6-f5edb2798047","system_id":"levelo_inurba_marseille","lat":43.30554,"lon":5.36533,"is_reserved":false,"is_disabled":false,"rental_uris":{"android":"levelo://app?vid=d79b8ef0-5947-4bfa-b2f6-f5edb2798047","ios":"levelo://app?vid=d79b8ef0-5947-4bfa-b2f6-f5edb2798047"},"vehicle_type_id":"4","last_reported":1728220427,"current_range_meters":9200,"station_id":"ce4bgs12rcd13ifvqcag","pricing_plan_id":"cebpf4jnsgd1na2vs0mg"},{"bike_id":"a029af3d-eb6e-4c53-8b7a-9c24cc5bb526","system_id":"levelo_inurba_marseille","lat":43.27947,"lon":5.41041,"is_reserved":false,"is_disabled":false,"rental_uris":{"android":"levelo://app?vid=a029af3d-eb6e-4c53-8b7a-9c24cc5bb526","ios":"levelo://app?vid=a029af3d-eb6e-4c53-8b7a-9c24cc5bb526"},"vehicle_type_id":"4","last_reported":1728220427,"current_range_meters":16000,"station_id":"ce4bhnp2rcd13ifvqh0g","pricing_plan_id":"cebpf4jnsgd1na2vs0mg"},{"bike_id":"9b498063-7ca3-482e-a5a6-6e3b37c3bd76","system_id":"levelo_inurba_marseille","lat":43.28369,"lon":5.38601,"is_reserved":false,"is_disabled":false,"rental_uris":{"android":"levelo://app?vid=9b498063-7ca3-482e-a5a6-6e3b37c3bd76","ios":"levelo://app?vid=9b498063-7ca3-482e-a5a6-6e3b37c3bd76"},"vehicle_type_id":"4","last_reported":1728220427,"current_range_meters":25600,"station_id":"ce4bh492rcd13ifvqdvg","pricing_plan_id":"cebpf4jnsgd1na2vs0mg"},{"bike_id":"1c6e8542-0efa-43bd-a17b-1a8ffeb5acdf","system_id":"levelo_inurba_marseille","lat":43.26566,"lon":5.39003,"is_reserved":false,"is_disabled":false,"rental_uris":{"android":"levelo://app?vid=1c6e8542-0efa-43bd-a17b-1a8ffeb5acdf","ios":"levelo://app?vid=1c6e8542-0efa-43bd-a17b-1a8ffeb5acdf"},"vehicle_type_id":"4","last_reported":1728220427,"current_range_meters":36400,"station_id":"ce4bhe12rcd13ifvqf30","pricing_plan_id":"cebpf4jnsgd1na2vs0mg"},{"bike_id":"15359e36-7625-4495-bc9d-c44f44e812ed","system_id":"levelo_inurba_marseille","lat":43.28039,"lon":5.36947,"is_reserved":false,"is_disabled":false,"rental_uris":{"android":"levelo://app?vid=15359e36-7625-4495-bc9d-c44f44e812ed","ios":"levelo://app?vid=15359e36-7625-4495-bc9d-c44f44e812ed"},"vehicle_type_id":"4","last_reported":1728220427,"current_range_meters":38800,"station_id":"ce4bha12rcd13ifvqef0","pricing_plan_id":"cebpf4jnsgd1na2vs0mg"},{"bike_id":"54b06c87-361f-4fc1-a723-372610dc136d","system_id":"levelo_inurba_marseille","lat":43.26194,"lon":5.37924,"is_reserved":false,"is_disabled":false,"rental_uris":{"android":"levelo://app?vid=54b06c87-361f-4fc1-a723-372610dc136d","ios":"levelo://app?vid=54b06c87-361f-4fc1-a723-372610dc136d"},"vehicle_type_id":"4","last_reported":1728220427,"current_range_meters":40000,"station_id":"ce4bhjp2rcd13ifvqg90","pricing_plan_id":"cebpf4jnsgd1na2vs0mg"},{"bike_id":"490889b1-cee9-4892-9db5-299333956c90","system_id":"levelo_inurba_marseille","lat":43.3414,"lon":5.40901,"is_reserved":false,"is_disabled":false,"rental_uris":{"android":"levelo://app?vid=490889b1-cee9-4892-9db5-299333956c90","ios":"levelo://app?vid=490889b1-cee9-4892-9db5-299333956c90"},"vehicle_type_id":"4","last_reported":1728220427,"current_range_meters":36800,"station_id":"ce4bhqh2rcd13ifvqhlg","pricing_plan_id":"cebpf4jnsgd1na2vs0mg"},{"bike_id":"d1c27e9a-1ef2-4576-9315-c5e5e809693e","system_id":"levelo_inurba_marseille","lat":43.30543,"lon":5.36698,"is_reserved":false,"is_disabled":false,"rental_uris":{"android":"levelo://app?vid=d1c27e9a-1ef2-4576-9315-c5e5e809693e","ios":"levelo://app?vid=d1c27e9a-1ef2-4576-9315-c5e5e809693e"},"vehicle_type_id":"4","last_reported":1728220427,"current_range_meters":19200,"station_id":"ce4bgrp2rcd13ifvqc9g","pricing_plan_id":"cebpf4jnsgd1na2vs0mg"},{"bike_id":"01424642-f970-43f6-a3a4-d125ec8c2493","system_id":"levelo_inurba_marseille","lat":43.25581,"lon":5.38229,"is_reserved":false,"is_disabled":false,"rental_uris":{"android":"levelo://app?vid=01424642-f970-43f6-a3a4-d125ec8c2493","ios":"levelo://app?vid=01424642-f970-43f6-a3a4-d125ec8c2493"},"vehicle_type_id":"4","last_reported":1728220427,"current_range_meters":30800,"station_id":"ce4bhih2rcd13ifvqfs0","pricing_plan_id":"cebpf4jnsgd1na2vs0mg"},{"bike_id":"d03712d4-0441-48a3-ada8-72da2991e166","system_id":"levelo_inurba_marseille","lat":43.264965,"lon":5.395174,"is_reserved":false,"is_disabled":false,"rental_uris":{"android":"levelo://app?vid=d03712d4-0441-48a3-ada8-72da2991e166","ios":"levelo://app?vid=d03712d4-0441-48a3-ada8-72da2991e166"},"vehicle_type_id":"4","last_reported":1728220427,"current_range_meters":32400,"station_id":"ce4bhi12rcd13ifvqfq0","pricing_plan_id":"cebpf4jnsgd1na2vs0mg"},{"bike_id":"cdc917cd-8609-4bab-8a00-197d50b2daa3","system_id":"levelo_inurba_marseille","lat":43.28605,"lon":5.3705,"is_reserved":false,"is_disabled":false,"rental_uris":{"android":"levelo://app?vid=cdc917cd-8609-4bab-8a00-197d50b2daa3","ios":"levelo://app?vid=cdc917cd-8609-4bab-8a00-197d50b2daa3"},"vehicle_type_id":"4","last_reported":1728220427,"current_range_meters":26800,"station_id":"ce4bht12rcd13ifvqi60","pricing_plan_id":"cebpf4jnsgd1na2vs0mg"},{"bike_id":"256fa177-60ee-45a2-a2aa-de47baeac3b4","system_id":"levelo_inurba_marseille","lat":43.32213,"lon":5.41357,"is_reserved":false,"is_disabled":false,"rental_uris":{"android":"levelo://app?vid=256fa177-60ee-45a2-a2aa-de47baeac3b4","ios":"levelo://app?vid=256fa177-60ee-45a2-a2aa-de47baeac3b4"},"vehicle_type_id":"4","last_reported":1728220427,"current_range_meters":37600,"station_id":"","pricing_plan_id":"cebpf4jnsgd1na2vs0mg"},{"bike_id":"13bb462d-ad7e-453e-963f-6cb0459cb1d2","system_id":"levelo_inurba_marseille","lat":43.25585,"lon":5.38232,"is_reserved":false,"is_disabled":false,"rental_uris":{"android":"levelo://app?vid=13bb462d-ad7e-453e-963f-6cb0459cb1d2","ios":"levelo://app?vid=13bb462d-ad7e-453e-963f-6cb0459cb1d2"},"vehicle_type_id":"4","last_reported":1728220427,"current_range_meters":4000,"station_id":"ce4bhih2rcd13ifvqfs0","pricing_plan_id":"cebpf4jnsgd1na2vs0mg"},{"bike_id":"98fab8a1-a284-40da-8df2-14f71a37d57b","system_id":"levelo_inurba_marseille","lat":43.21352,"lon":5.34937,"is_reserved":false,"is_disabled":false,"rental_uris":{"android":"levelo://app?vid=98fab8a1-a284-40da-8df2-14f71a37d57b","ios":"levelo://app?vid=98fab8a1-a284-40da-8df2-14f71a37d57b"},"vehicle_type_id":"4","last_reported":1728220427,"current_range_meters":32400,"station_id":"crv51consjfaj9uu89c0","pricing_plan_id":"cebpf4jnsgd1na2vs0mg"},{"bike_id":"40f86f62-b91f-4aec-be2d-b939ad437a81","system_id":"levelo_inurba_marseille","lat":43.287266,"lon":5.36092,"is_reserved":false,"is_disabled":false,"rental_uris":{"android":"levelo://app?vid=40f86f62-b91f-4aec-be2d-b939ad437a81","ios":"levelo://app?vid=40f86f62-b91f-4aec-be2d-b939ad437a81"},"vehicle_type_id":"4","last_reported":1728220427,"current_range_meters":37600,"station_id":"ce4bhap2rcd13ifvqek0","pricing_plan_id":"cebpf4jnsgd1na2vs0mg"},{"bike_id":"71e177fb-4985-4acc-a1f4-e4a4c3d703a3","system_id":"levelo_inurba_marseille","lat":43.30147,"lon":5.37414,"is_reserved":false,"is_disabled":false,"rental_uris":{"android":"levelo://app?vid=71e177fb-4985-4acc-a1f4-e4a4c3d703a3","ios":"levelo://app?vid=71e177fb-4985-4acc-a1f4-e4a4c3d703a3"},"vehicle_type_id":"4","last_reported":1728220427,"current_range_meters":6000,"station_id":"ce4bgs92rcd13ifvqcc0","pricing_plan_id":"cebpf4jnsgd1na2vs0mg"},{"bike_id":"1a9ef9b3-945a-4015-995b-596055281e27","system_id":"levelo_inurba_marseille","lat":43.24077,"lon":5.37754,"is_reserved":false,"is_disabled":false,"rental_uris":{"android":"levelo://app?vid=1a9ef9b3-945a-4015-995b-596055281e27","ios":"levelo://app?vid=1a9ef9b3-945a-4015-995b-596055281e27"},"vehicle_type_id":"4","last_reported":1728220427,"current_range_meters":38800,"station_id":"ce4bhnp2rcd13ifvqgvg","pricing_plan_id":"cebpf4jnsgd1na2vs0mg"},{"bike_id":"5aeff25a-4d20-416a-9046-72428cabc49c","system_id":"levelo_inurba_marseille","lat":43.32381,"lon":5.3888,"is_reserved":false,"is_disabled":false,"rental_uris":{"android":"levelo://app?vid=5aeff25a-4d20-416a-9046-72428cabc49c","ios":"levelo://app?vid=5aeff25a-4d20-416a-9046-72428cabc49c"},"vehicle_type_id":"4","last_reported":1728220427,"current_range_meters":14400,"station_id":"ce4bhqp2rcd13ifvqhog","pricing_plan_id":"cebpf4jnsgd1na2vs0mg"},{"bike_id":"09b6dc29-36dc-48a6-88c1-8d4f3ae3fdfc","system_id":"levelo_inurba_marseille","lat":43.29259,"lon":5.36845,"is_reserved":false,"is_disabled":false,"rental_uris":{"android":"levelo://app?vid=09b6dc29-36dc-48a6-88c1-8d4f3ae3fdfc","ios":"levelo://app?vid=09b6dc29-36dc-48a6-88c1-8d4f3ae3fdfc"},"vehicle_type_id":"4","last_reported":1728220427,"current_range_meters":16800,"station_id":"","pricing_plan_id":"cebpf4jnsgd1na2vs0mg"},{"bike_id":"20120f29-e566-493c-8ba9-da728e3c0888","system_id":"levelo_inurba_marseille","lat":43.29171,"lon":5.37153,"is_reserved":false,"is_disabled":false,"rental_uris":{"android":"levelo://app?vid=20120f29-e566-493c-8ba9-da728e3c0888","ios":"levelo://app?vid=20120f29-e566-493c-8ba9-da728e3c0888"},"vehicle_type_id":"4","last_reported":1728220427,"current_range_meters":28800,"station_id":"ce4bha92rcd13ifvqeh0","pricing_plan_id":"cebpf4jnsgd1na2vs0mg"},{"bike_id":"467f4dad-860b-40f5-b4ca-9e05ccc20611","system_id":"levelo_inurba_marseille","lat":43.309132,"lon":5.401434,"is_reserved":false,"is_disabled":false,"rental_uris":{"android":"levelo://app?vid=467f4dad-860b-40f5-b4ca-9e05ccc20611","ios":"levelo://app?vid=467f4dad-860b-40f5-b4ca-9e05ccc20611"},"vehicle_type_id":"4","last_reported":1728220427,"current_range_meters":36800,"station_id":"ce4bgvp2rcd13ifvqct0","pricing_plan_id":"cebpf4jnsgd1na2vs0mg"},{"bike_id":"90de66ee-7f0e-4acf-be6a-8dc463ff287c","system_id":"levelo_inurba_marseille","lat":43.29786,"lon":5.371,"is_reserved":false,"is_disabled":false,"rental_uris":{"android":"levelo://app?vid=90de66ee-7f0e-4acf-be6a-8dc463ff287c","ios":"levelo://app?vid=90de66ee-7f0e-4acf-be6a-8dc463ff287c"},"vehicle_type_id":"4","last_reported":1728220427,"current_range_meters":30800,"station_id":"ce4bgop2rcd13ifvqc1g","pricing_plan_id":"cebpf4jnsgd1na2vs0mg"},{"bike_id":"26a61961-b2a6-4bf4-a2d1-b25032b1d5aa","system_id":"levelo_inurba_marseille","lat":43.28412,"lon":5.37516,"is_reserved":false,"is_disabled":false,"rental_uris":{"android":"levelo://app?vid=26a61961-b2a6-4bf4-a2d1-b25032b1d5aa","ios":"levelo://app?vid=26a61961-b2a6-4bf4-a2d1-b25032b1d5aa"},"vehicle_type_id":"4","last_reported":1728220427,"current_range_meters":22400,"station_id":"ce4bh412rcd13ifvqds0","pricing_plan_id":"cebpf4jnsgd1na2vs0mg"},{"bike_id":"5c76e33c-48d5-4cfe-a181-92cae13d0b08","system_id":"levelo_inurba_marseille","lat":43.29269,"lon":5.36842,"is_reserved":false,"is_disabled":false,"rental_uris":{"android":"levelo://app?vid=5c76e33c-48d5-4cfe-a181-92cae13d0b08","ios":"levelo://app?vid=5c76e33c-48d5-4cfe-a181-92cae13d0b08"},"vehicle_type_id":"4","last_reported":1728220427,"current_range_meters":35200,"station_id":"ce4bhbp2rcd13ifvqesg","pricing_plan_id":"cebpf4jnsgd1na2vs0mg"},{"bike_id":"270b90ca-7521-4165-af49-e1c727e5fa34","system_id":"levelo_inurba_marseille","lat":43.21346,"lon":5.34939,"is_reserved":false,"is_disabled":false,"rental_uris":{"android":"levelo://app?vid=270b90ca-7521-4165-af49-e1c727e5fa34","ios":"levelo://app?vid=270b90ca-7521-4165-af49-e1c727e5fa34"},"vehicle_type_id":"4","last_reported":1728220427,"current_range_meters":34800,"station_id":"crv51consjfaj9uu89c0","pricing_plan_id":"cebpf4jnsgd1na2vs0mg"},{"bike_id":"1160cec9-9ad8-458b-96d7-d7b2d0c1de88","system_id":"levelo_inurba_marseille","lat":43.28048,"lon":5.36946,"is_reserved":false,"is_disabled":false,"rental_uris":{"android":"levelo://app?vid=1160cec9-9ad8-458b-96d7-d7b2d0c1de88","ios":"levelo://app?vid=1160cec9-9ad8-458b-96d7-d7b2d0c1de88"},"vehicle_type_id":"4","last_reported":1728220427,"current_range_meters":24000,"station_id":"ce4bha12rcd13ifvqef0","pricing_plan_id":"cebpf4jnsgd1na2vs0mg"},{"bike_id":"a828c5cb-674c-4aeb-94c7-5826e4f563cc","system_id":"levelo_inurba_marseille","lat":43.29,"lon":5.35614,"is_reserved":false,"is_disabled":false,"rental_uris":{"android":"levelo://app?vid=a828c5cb-674c-4aeb-94c7-5826e4f563cc","ios":"levelo://app?vid=a828c5cb-674c-4aeb-94c7-5826e4f563cc"},"vehicle_type_id":"4","last_reported":1728220427,"current_range_meters":19200,"station_id":"ce4bhb92rcd13ifvqen0","pricing_plan_id":"cebpf4jnsgd1na2vs0mg"},{"bike_id":"17612712-c3b9-45cb-b9b7-00bc2d754985","system_id":"levelo_inurba_marseille","lat":43.29584,"lon":5.37505,"is_reserved":false,"is_disabled":false,"rental_uris":{"android":"levelo://app?vid=17612712-c3b9-45cb-b9b7-00bc2d754985","ios":"levelo://app?vid=17612712-c3b9-45cb-b9b7-00bc2d754985"},"vehicle_type_id":"4","last_reported":1728220427,"current_range_meters":28400,"station_id":"ce4bgh92rcd13ifvqb50","pricing_plan_id":"cebpf4jnsgd1na2vs0mg"},{"bike_id":"bfa0bc73-346e-4e4e-85b1-f032e3e6f805","system_id":"levelo_inurba_marseille","lat":43.29228,"lon":5.36065,"is_reserved":false,"is_disabled":false,"rental_uris":{"android":"levelo://app?vid=bfa0bc73-346e-4e4e-85b1-f032e3e6f805","ios":"levelo://app?vid=bfa0bc73-346e-4e4e-85b1-f032e3e6f805"},"vehicle_type_id":"4","last_reported":1728220427,"current_range_meters":34000,"station_id":"ce4bhbh2rcd13ifvqeqg","pricing_plan_id":"cebpf4jnsgd1na2vs0mg"},{"bike_id":"5ed1c359-627e-4835-9959-230f7bf3336f","system_id":"levelo_inurba_marseille","lat":43.28611,"lon":5.37063,"is_reserved":false,"is_disabled":false,"rental_uris":{"android":"levelo://app?vid=5ed1c359-627e-4835-9959-230f7bf3336f","ios":"levelo://app?vid=5ed1c359-627e-4835-9959-230f7bf3336f"},"vehicle_type_id":"4","last_reported":1728220427,"current_range_meters":39200,"station_id":"ce4bht12rcd13ifvqi60","pricing_plan_id":"cebpf4jnsgd1na2vs0mg"},{"bike_id":"fac3630b-1900-49b5-9e1c-d917d65df5f2","system_id":"levelo_inurba_marseille","lat":43.296965,"lon":5.377225,"is_reserved":false,"is_disabled":false,"rental_uris":{"android":"levelo://app?vid=fac3630b-1900-49b5-9e1c-d917d65df5f2","ios":"levelo://app?vid=fac3630b-1900-49b5-9e1c-d917d65df5f2"},"vehicle_type_id":"4","last_reported":1728220427,"current_range_meters":25600,"station_id":"ce4bgkh2rcd13ifvqbl0","pricing_plan_id":"cebpf4jnsgd1na2vs0mg"},{"bike_id":"5ef3cf6c-2e95-4bde-b116-d1f022d3923e","system_id":"levelo_inurba_marseille","lat":43.29779,"lon":5.38098,"is_reserved":false,"is_disabled":false,"rental_uris":{"android":"levelo://app?vid=5ef3cf6c-2e95-4bde-b116-d1f022d3923e","ios":"levelo://app?vid=5ef3cf6c-2e95-4bde-b116-d1f022d3923e"},"vehicle_type_id":"4","last_reported":1728220427,"current_range_meters":35200,"station_id":"ce4bgip2rcd13ifvqbb0","pricing_plan_id":"cebpf4jnsgd1na2vs0mg"},{"bike_id":"9f526fb2-4bf4-497f-8523-4bd431d297d5","system_id":"levelo_inurba_marseille","lat":43.29732,"lon":5.39361,"is_reserved":false,"is_disabled":false,"rental_uris":{"android":"levelo://app?vid=9f526fb2-4bf4-497f-8523-4bd431d297d5","ios":"levelo://app?vid=9f526fb2-4bf4-497f-8523-4bd431d297d5"},"vehicle_type_id":"4","last_reported":1728220427,"current_range_meters":32800,"station_id":"ce4bh692rcd13ifvqea0","pricing_plan_id":"cebpf4jnsgd1na2vs0mg"},{"bike_id":"37abf37a-9336-4084-8897-84702a8d67fb","system_id":"levelo_inurba_marseille","lat":43.30539,"lon":5.36543,"is_reserved":false,"is_disabled":false,"rental_uris":{"android":"levelo://app?vid=37abf37a-9336-4084-8897-84702a8d67fb","ios":"levelo://app?vid=37abf37a-9336-4084-8897-84702a8d67fb"},"vehicle_type_id":"4","last_reported":1728220427,"current_range_meters":36800,"station_id":"ce4bgs12rcd13ifvqcag","pricing_plan_id":"cebpf4jnsgd1na2vs0mg"},{"bike_id":"85081b74-3c48-4b75-b6b6-b181683e784a","system_id":"levelo_inurba_marseille","lat":43.25723,"lon":5.41105,"is_reserved":false,"is_disabled":false,"rental_uris":{"android":"levelo://app?vid=85081b74-3c48-4b75-b6b6-b181683e784a","ios":"levelo://app?vid=85081b74-3c48-4b75-b6b6-b181683e784a"},"vehicle_type_id":"4","last_reported":1728220427,"current_range_meters":38800,"station_id":"ce4bhkp2rcd13ifvqgd0","pricing_plan_id":"cebpf4jnsgd1na2vs0mg"},{"bike_id":"d5bd4fc9-b596-4a66-8faa-61c6a5dce860","system_id":"levelo_inurba_marseille","lat":43.29895,"lon":5.43657,"is_reserved":false,"is_disabled":false,"rental_uris":{"android":"levelo://app?vid=d5bd4fc9-b596-4a66-8faa-61c6a5dce860","ios":"levelo://app?vid=d5bd4fc9-b596-4a66-8faa-61c6a5dce860"},"vehicle_type_id":"4","last_reported":1728220427,"current_range_meters":38800,"station_id":"ce4bhpp2rcd13ifvqhfg","pricing_plan_id":"cebpf4jnsgd1na2vs0mg"},{"bike_id":"11072360-ee5b-4d6a-ab0d-9012a584a2dc","system_id":"levelo_inurba_marseille","lat":43.3046,"lon":5.37898,"is_reserved":false,"is_disabled":false,"rental_uris":{"android":"levelo://app?vid=11072360-ee5b-4d6a-ab0d-9012a584a2dc","ios":"levelo://app?vid=11072360-ee5b-4d6a-ab0d-9012a584a2dc"},"vehicle_type_id":"4","last_reported":1728220427,"current_range_meters":38800,"station_id":"ce4bgup2rcd13ifvqcn0","pricing_plan_id":"cebpf4jnsgd1na2vs0mg"},{"bike_id":"d110cfae-0e76-4fa4-b617-e3caa90aff64","system_id":"levelo_inurba_marseille","lat":43.26569,"lon":5.39006,"is_reserved":false,"is_disabled":false,"rental_uris":{"android":"levelo://app?vid=d110cfae-0e76-4fa4-b617-e3caa90aff64","ios":"levelo://app?vid=d110cfae-0e76-4fa4-b617-e3caa90aff64"},"vehicle_type_id":"4","last_reported":1728220427,"current_range_meters":34000,"station_id":"ce4bhe12rcd13ifvqf30","pricing_plan_id":"cebpf4jnsgd1na2vs0mg"},{"bike_id":"553b7d08-9ffc-43fe-b944-eb2d9a9ff85b","system_id":"levelo_inurba_marseille","lat":43.29797,"lon":5.3811,"is_reserved":false,"is_disabled":false,"rental_uris":{"android":"levelo://app?vid=553b7d08-9ffc-43fe-b944-eb2d9a9ff85b","ios":"levelo://app?vid=553b7d08-9ffc-43fe-b944-eb2d9a9ff85b"},"vehicle_type_id":"4","last_reported":1728220427,"current_range_meters":17600,"station_id":"ce4bgip2rcd13ifvqbb0","pricing_plan_id":"cebpf4jnsgd1na2vs0mg"},{"bike_id":"7cba0374-be77-4d49-8476-e0da3cccc891","system_id":"levelo_inurba_marseille","lat":43.21347,"lon":5.34938,"is_reserved":false,"is_disabled":false,"rental_uris":{"android":"levelo://app?vid=7cba0374-be77-4d49-8476-e0da3cccc891","ios":"levelo://app?vid=7cba0374-be77-4d49-8476-e0da3cccc891"},"vehicle_type_id":"4","last_reported":1728220427,"current_range_meters":32400,"station_id":"crv51consjfaj9uu89c0","pricing_plan_id":"cebpf4jnsgd1na2vs0mg"},{"bike_id":"f5d5e3d8-3e0e-4845-8de2-963ce5f2752d","system_id":"levelo_inurba_marseille","lat":43.29714,"lon":5.37702,"is_reserved":false,"is_disabled":false,"rental_uris":{"android":"levelo://app?vid=f5d5e3d8-3e0e-4845-8de2-963ce5f2752d","ios":"levelo://app?vid=f5d5e3d8-3e0e-4845-8de2-963ce5f2752d"},"vehicle_type_id":"4","last_reported":1728220427,"current_range_meters":30400,"station_id":"ce4bgkh2rcd13ifvqbl0","pricing_plan_id":"cebpf4jnsgd1na2vs0mg"},{"bike_id":"865d72cd-225a-4315-9354-51d4189fa276","system_id":"levelo_inurba_marseille","lat":43.29536,"lon":5.3903,"is_reserved":false,"is_disabled":false,"rental_uris":{"android":"levelo://app?vid=865d72cd-225a-4315-9354-51d4189fa276","ios":"levelo://app?vid=865d72cd-225a-4315-9354-51d4189fa276"},"vehicle_type_id":"4","last_reported":1728220427,"current_range_meters":13600,"station_id":"ce4bh3p2rcd13ifvqdp0","pricing_plan_id":"cebpf4jnsgd1na2vs0mg"},{"bike_id":"7a6d7045-a0c6-474e-97a3-8a750c51af90","system_id":"levelo_inurba_marseille","lat":43.27954,"lon":5.41038,"is_reserved":false,"is_disabled":false,"rental_uris":{"android":"levelo://app?vid=7a6d7045-a0c6-474e-97a3-8a750c51af90","ios":"levelo://app?vid=7a6d7045-a0c6-474e-97a3-8a750c51af90"},"vehicle_type_id":"4","last_reported":1728220427,"current_range_meters":38000,"station_id":"ce4bhnp2rcd13ifvqh0g","pricing_plan_id":"cebpf4jnsgd1na2vs0mg"},{"bike_id":"8e94c158-3450-4d74-9a10-086db250f48e","system_id":"levelo_inurba_marseille","lat":43.27155,"lon":5.39034,"is_reserved":false,"is_disabled":false,"rental_uris":{"android":"levelo://app?vid=8e94c158-3450-4d74-9a10-086db250f48e","ios":"levelo://app?vid=8e94c158-3450-4d74-9a10-086db250f48e"},"vehicle_type_id":"4","last_reported":1728220427,"current_range_meters":32400,"station_id":"","pricing_plan_id":"cebpf4jnsgd1na2vs0mg"},{"bike_id":"52040213-e2a0-4c29-ad5c-23f287c96e58","system_id":"levelo_inurba_marseille","lat":43.25722,"lon":5.41108,"is_reserved":false,"is_disabled":false,"rental_uris":{"android":"levelo://app?vid=52040213-e2a0-4c29-ad5c-23f287c96e58","ios":"levelo://app?vid=52040213-e2a0-4c29-ad5c-23f287c96e58"},"vehicle_type_id":"4","last_reported":1728220427,"current_range_meters":38800,"station_id":"ce4bhkp2rcd13ifvqgd0","pricing_plan_id":"cebpf4jnsgd1na2vs0mg"},{"bike_id":"77409b00-bc48-4191-b28e-b760cdd78c6f","system_id":"levelo_inurba_marseille","lat":43.25729,"lon":5.4111,"is_reserved":false,"is_disabled":false,"rental_uris":{"android":"levelo://app?vid=77409b00-bc48-4191-b28e-b760cdd78c6f","ios":"levelo://app?vid=77409b00-bc48-4191-b28e-b760cdd78c6f"},"vehicle_type_id":"4","last_reported":1728220427,"current_range_meters":38800,"station_id":"ce4bhkp2rcd13ifvqgd0","pricing_plan_id":"cebpf4jnsgd1na2vs0mg"},{"bike_id":"634e95bb-2b9e-4da4-8d0b-f46985397365","system_id":"levelo_inurba_marseille","lat":43.29421,"lon":5.38618,"is_reserved":false,"is_disabled":false,"rental_uris":{"android":"levelo://app?vid=634e95bb-2b9e-4da4-8d0b-f46985397365","ios":"levelo://app?vid=634e95bb-2b9e-4da4-8d0b-f46985397365"},"vehicle_type_id":"4","last_reported":1728220427,"current_range_meters":33200,"station_id":"ce4bh2h2rcd13ifvqdh0","pricing_plan_id":"cebpf4jnsgd1na2vs0mg"},{"bike_id":"cd07b44a-553d-4bab-9f38-6ebb1bf25b5f","system_id":"levelo_inurba_marseille","lat":43.33749,"lon":5.37445,"is_reserved":false,"is_disabled":false,"rental_uris":{"android":"levelo://app?vid=cd07b44a-553d-4bab-9f38-6ebb1bf25b5f","ios":"levelo://app?vid=cd07b44a-553d-4bab-9f38-6ebb1bf25b5f"},"vehicle_type_id":"4","last_reported":1728220427,"current_range_meters":35600,"station_id":"ce4bha92rcd13ifvqeg0","pricing_plan_id":"cebpf4jnsgd1na2vs0mg"},{"bike_id":"2f1f7e56-c6cd-448e-b406-4d3dfc3a4de4","system_id":"levelo_inurba_marseille","lat":43.25728,"lon":5.41104,"is_reserved":false,"is_disabled":false,"rental_uris":{"android":"levelo://app?vid=2f1f7e56-c6cd-448e-b406-4d3dfc3a4de4","ios":"levelo://app?vid=2f1f7e56-c6cd-448e-b406-4d3dfc3a4de4"},"vehicle_type_id":"4","last_reported":1728220427,"current_range_meters":28800,"station_id":"ce4bhkp2rcd13ifvqgd0","pricing_plan_id":"cebpf4jnsgd1na2vs0mg"},{"bike_id":"b42d97a4-2aba-475c-a6d8-5c9af94cf8b7","system_id":"levelo_inurba_marseille","lat":43.295847,"lon":5.375162,"is_reserved":false,"is_disabled":false,"rental_uris":{"android":"levelo://app?vid=b42d97a4-2aba-475c-a6d8-5c9af94cf8b7","ios":"levelo://app?vid=b42d97a4-2aba-475c-a6d8-5c9af94cf8b7"},"vehicle_type_id":"4","last_reported":1728220427,"current_range_meters":26800,"station_id":"ce4bgh92rcd13ifvqb50","pricing_plan_id":"cebpf4jnsgd1na2vs0mg"},{"bike_id":"e84b98b3-3711-4a75-9c98-0a91911566a5","system_id":"levelo_inurba_marseille","lat":43.29785,"lon":5.37105,"is_reserved":false,"is_disabled":false,"rental_uris":{"android":"levelo://app?vid=e84b98b3-3711-4a75-9c98-0a91911566a5","ios":"levelo://app?vid=e84b98b3-3711-4a75-9c98-0a91911566a5"},"vehicle_type_id":"4","last_reported":1728220427,"current_range_meters":35600,"station_id":"ce4bgop2rcd13ifvqc1g","pricing_plan_id":"cebpf4jnsgd1na2vs0mg"},{"bike_id":"b8d8de06-2b1f-426e-8fc8-7c4f5441801b","system_id":"levelo_inurba_marseille","lat":43.29577,"lon":5.37505,"is_reserved":false,"is_disabled":false,"rental_uris":{"android":"levelo://app?vid=b8d8de06-2b1f-426e-8fc8-7c4f5441801b","ios":"levelo://app?vid=b8d8de06-2b1f-426e-8fc8-7c4f5441801b"},"vehicle_type_id":"4","last_reported":1728220427,"current_range_meters":39200,"station_id":"ce4bgh92rcd13ifvqb50","pricing_plan_id":"cebpf4jnsgd1na2vs0mg"},{"bike_id":"ecddc9b0-a70b-47de-b6e6-53c6cbd4486d","system_id":"levelo_inurba_marseille","lat":43.30536,"lon":5.36528,"is_reserved":false,"is_disabled":false,"rental_uris":{"android":"levelo://app?vid=ecddc9b0-a70b-47de-b6e6-53c6cbd4486d","ios":"levelo://app?vid=ecddc9b0-a70b-47de-b6e6-53c6cbd4486d"},"vehicle_type_id":"4","last_reported":1728220427,"current_range_meters":38800,"station_id":"ce4bgs12rcd13ifvqcag","pricing_plan_id":"cebpf4jnsgd1na2vs0mg"},{"bike_id":"3c251377-7d37-4f37-87ef-a964aa2bc668","system_id":"levelo_inurba_marseille","lat":43.287,"lon":5.37392,"is_reserved":false,"is_disabled":false,"rental_uris":{"android":"levelo://app?vid=3c251377-7d37-4f37-87ef-a964aa2bc668","ios":"levelo://app?vid=3c251377-7d37-4f37-87ef-a964aa2bc668"},"vehicle_type_id":"4","last_reported":1728220427,"current_range_meters":25200,"station_id":"ce4bh3p2rcd13ifvqdq0","pricing_plan_id":"cebpf4jnsgd1na2vs0mg"},{"bike_id":"f27eb96f-d58d-46dd-a65f-97903a911ec5","system_id":"levelo_inurba_marseille","lat":43.2937,"lon":5.37831,"is_reserved":false,"is_disabled":false,"rental_uris":{"android":"levelo://app?vid=f27eb96f-d58d-46dd-a65f-97903a911ec5","ios":"levelo://app?vid=f27eb96f-d58d-46dd-a65f-97903a911ec5"},"vehicle_type_id":"4","last_reported":1728220427,"current_range_meters":38800,"station_id":"ce4bgjh2rcd13ifvqbf0","pricing_plan_id":"cebpf4jnsgd1na2vs0mg"},{"bike_id":"52d4276f-2848-4c82-ac33-83fbf79e6585","system_id":"levelo_inurba_marseille","lat":43.24387,"lon":5.37056,"is_reserved":false,"is_disabled":false,"rental_uris":{"android":"levelo://app?vid=52d4276f-2848-4c82-ac33-83fbf79e6585","ios":"levelo://app?vid=52d4276f-2848-4c82-ac33-83fbf79e6585"},"vehicle_type_id":"4","last_reported":1728220427,"current_range_meters":24400,"station_id":"ce4bhhh2rcd13ifvqfk0","pricing_plan_id":"cebpf4jnsgd1na2vs0mg"},{"bike_id":"1635bb80-99a1-491f-80cc-b79e1a5c1152","system_id":"levelo_inurba_marseille","lat":43.24391,"lon":5.3706,"is_reserved":false,"is_disabled":false,"rental_uris":{"android":"levelo://app?vid=1635bb80-99a1-491f-80cc-b79e1a5c1152","ios":"levelo://app?vid=1635bb80-99a1-491f-80cc-b79e1a5c1152"},"vehicle_type_id":"4","last_reported":1728220427,"current_range_meters":38400,"station_id":"ce4bhhh2rcd13ifvqfk0","pricing_plan_id":"cebpf4jnsgd1na2vs0mg"},{"bike_id":"2a21ef0e-f78b-4847-bbfb-c35bc0a54f49","system_id":"levelo_inurba_marseille","lat":43.27323,"lon":5.39068,"is_reserved":false,"is_disabled":false,"rental_uris":{"android":"levelo://app?vid=2a21ef0e-f78b-4847-bbfb-c35bc0a54f49","ios":"levelo://app?vid=2a21ef0e-f78b-4847-bbfb-c35bc0a54f49"},"vehicle_type_id":"4","last_reported":1728220427,"current_range_meters":28400,"station_id":"ce4bhgp2rcd13ifvqfe0","pricing_plan_id":"cebpf4jnsgd1na2vs0mg"},{"bike_id":"1c6ced08-6c65-4e22-a8e3-0734c3156234","system_id":"levelo_inurba_marseille","lat":43.25715,"lon":5.41109,"is_reserved":false,"is_disabled":false,"rental_uris":{"android":"levelo://app?vid=1c6ced08-6c65-4e22-a8e3-0734c3156234","ios":"levelo://app?vid=1c6ced08-6c65-4e22-a8e3-0734c3156234"},"vehicle_type_id":"4","last_reported":1728220427,"current_range_meters":38800,"station_id":"ce4bhkp2rcd13ifvqgd0","pricing_plan_id":"cebpf4jnsgd1na2vs0mg"},{"bike_id":"5d2c3d7e-f623-4786-99a7-064dc3bfbb2e","system_id":"levelo_inurba_marseille","lat":43.30157,"lon":5.38065,"is_reserved":false,"is_disabled":false,"rental_uris":{"android":"levelo://app?vid=5d2c3d7e-f623-4786-99a7-064dc3bfbb2e","ios":"levelo://app?vid=5d2c3d7e-f623-4786-99a7-064dc3bfbb2e"},"vehicle_type_id":"4","last_reported":1728220427,"current_range_meters":11200,"station_id":"ce4bgjp2rcd13ifvqbh0","pricing_plan_id":"cebpf4jnsgd1na2vs0mg"},{"bike_id":"cf98a660-7f87-4ed6-9b7c-c63bf1655b22","system_id":"levelo_inurba_marseille","lat":43.28034,"lon":5.36943,"is_reserved":false,"is_disabled":false,"rental_uris":{"android":"levelo://app?vid=cf98a660-7f87-4ed6-9b7c-c63bf1655b22","ios":"levelo://app?vid=cf98a660-7f87-4ed6-9b7c-c63bf1655b22"},"vehicle_type_id":"4","last_reported":1728220427,"current_range_meters":16800,"station_id":"ce4bha12rcd13ifvqef0","pricing_plan_id":"cebpf4jnsgd1na2vs0mg"},{"bike_id":"7d832797-a368-47ce-80a8-50d6a3763de8","system_id":"levelo_inurba_marseille","lat":43.28417,"lon":5.38453,"is_reserved":false,"is_disabled":false,"rental_uris":{"android":"levelo://app?vid=7d832797-a368-47ce-80a8-50d6a3763de8","ios":"levelo://app?vid=7d832797-a368-47ce-80a8-50d6a3763de8"},"vehicle_type_id":"4","last_reported":1728220427,"current_range_meters":28400,"station_id":"","pricing_plan_id":"cebpf4jnsgd1na2vs0mg"},{"bike_id":"a8180d53-a18b-44e4-b3ed-f005df2490a3","system_id":"levelo_inurba_marseille","lat":43.2923,"lon":5.36073,"is_reserved":false,"is_disabled":false,"rental_uris":{"android":"levelo://app?vid=a8180d53-a18b-44e4-b3ed-f005df2490a3","ios":"levelo://app?vid=a8180d53-a18b-44e4-b3ed-f005df2490a3"},"vehicle_type_id":"4","last_reported":1728220427,"current_range_meters":29600,"station_id":"ce4bhbh2rcd13ifvqeqg","pricing_plan_id":"cebpf4jnsgd1na2vs0mg"},{"bike_id":"126e8b9c-d4ba-4fdf-b891-8a69ddbd21f6","system_id":"levelo_inurba_marseille","lat":43.32111,"lon":5.36776,"is_reserved":false,"is_disabled":false,"rental_uris":{"android":"levelo://app?vid=126e8b9c-d4ba-4fdf-b891-8a69ddbd21f6","ios":"levelo://app?vid=126e8b9c-d4ba-4fdf-b891-8a69ddbd21f6"},"vehicle_type_id":"4","last_reported":1728220427,"current_range_meters":26000,"station_id":"ce4bhrh2rcd13ifvqhug","pricing_plan_id":"cebpf4jnsgd1na2vs0mg"},{"bike_id":"fd15e38c-a080-4d8d-be94-6f7330d4ebed","system_id":"levelo_inurba_marseille","lat":43.26558,"lon":5.37285,"is_reserved":false,"is_disabled":false,"rental_uris":{"android":"levelo://app?vid=fd15e38c-a080-4d8d-be94-6f7330d4ebed","ios":"levelo://app?vid=fd15e38c-a080-4d8d-be94-6f7330d4ebed"},"vehicle_type_id":"4","last_reported":1728220427,"current_range_meters":10800,"station_id":"ce4bhg12rcd13ifvqf70","pricing_plan_id":"cebpf4jnsgd1na2vs0mg"},{"bike_id":"68b77a88-2067-422a-ab7b-e29094a40dcc","system_id":"levelo_inurba_marseille","lat":43.25125,"lon":5.40319,"is_reserved":false,"is_disabled":false,"rental_uris":{"android":"levelo://app?vid=68b77a88-2067-422a-ab7b-e29094a40dcc","ios":"levelo://app?vid=68b77a88-2067-422a-ab7b-e29094a40dcc"},"vehicle_type_id":"4","last_reported":1728220427,"current_range_meters":38800,"station_id":"ce4bhlh2rcd13ifvqgig","pricing_plan_id":"cebpf4jnsgd1na2vs0mg"},{"bike_id":"6a54721c-34d0-4d25-9d6c-d6ed06cce880","system_id":"levelo_inurba_marseille","lat":43.2587,"lon":5.39893,"is_reserved":false,"is_disabled":false,"rental_uris":{"android":"levelo://app?vid=6a54721c-34d0-4d25-9d6c-d6ed06cce880","ios":"levelo://app?vid=6a54721c-34d0-4d25-9d6c-d6ed06cce880"},"vehicle_type_id":"4","last_reported":1728220427,"current_range_meters":39200,"station_id":"ce4bhl92rcd13ifvqghg","pricing_plan_id":"cebpf4jnsgd1na2vs0mg"},{"bike_id":"d0e81cdf-b5a0-44e2-a36b-805202ade773","system_id":"levelo_inurba_marseille","lat":43.24392,"lon":5.37053,"is_reserved":false,"is_disabled":false,"rental_uris":{"android":"levelo://app?vid=d0e81cdf-b5a0-44e2-a36b-805202ade773","ios":"levelo://app?vid=d0e81cdf-b5a0-44e2-a36b-805202ade773"},"vehicle_type_id":"4","last_reported":1728220427,"current_range_meters":40000,"station_id":"ce4bhhh2rcd13ifvqfk0","pricing_plan_id":"cebpf4jnsgd1na2vs0mg"},{"bike_id":"7fcb8130-3395-4d87-9f0c-b881d11e08ee","system_id":"levelo_inurba_marseille","lat":43.26928,"lon":5.38911,"is_reserved":false,"is_disabled":false,"rental_uris":{"android":"levelo://app?vid=7fcb8130-3395-4d87-9f0c-b881d11e08ee","ios":"levelo://app?vid=7fcb8130-3395-4d87-9f0c-b881d11e08ee"},"vehicle_type_id":"4","last_reported":1728220427,"current_range_meters":30000,"station_id":"ce4bhhh2rcd13ifvqfl0","pricing_plan_id":"cebpf4jnsgd1na2vs0mg"},{"bike_id":"7a930f21-130a-4be1-a963-3d8160097144","system_id":"levelo_inurba_marseille","lat":43.28853,"lon":5.35866,"is_reserved":false,"is_disabled":false,"rental_uris":{"android":"levelo://app?vid=7a930f21-130a-4be1-a963-3d8160097144","ios":"levelo://app?vid=7a930f21-130a-4be1-a963-3d8160097144"},"vehicle_type_id":"4","last_reported":1728220427,"current_range_meters":9200,"station_id":"ce4bhb12rcd13ifvqem0","pricing_plan_id":"cebpf4jnsgd1na2vs0mg"},{"bike_id":"0020a39d-9ca0-4b38-892c-d23ecedd0a64","system_id":"levelo_inurba_marseille","lat":43.32373,"lon":5.38877,"is_reserved":false,"is_disabled":false,"rental_uris":{"android":"levelo://app?vid=0020a39d-9ca0-4b38-892c-d23ecedd0a64","ios":"levelo://app?vid=0020a39d-9ca0-4b38-892c-d23ecedd0a64"},"vehicle_type_id":"4","last_reported":1728220427,"current_range_meters":6000,"station_id":"ce4bhqp2rcd13ifvqhog","pricing_plan_id":"cebpf4jnsgd1na2vs0mg"},{"bike_id":"3fd222d4-75e9-483a-b322-9834defa051f","system_id":"levelo_inurba_marseille","lat":43.29535,"lon":5.42262,"is_reserved":false,"is_disabled":false,"rental_uris":{"android":"levelo://app?vid=3fd222d4-75e9-483a-b322-9834defa051f","ios":"levelo://app?vid=3fd222d4-75e9-483a-b322-9834defa051f"},"vehicle_type_id":"4","last_reported":1728220427,"current_range_meters":38800,"station_id":"ce4bhph2rcd13ifvqhdg","pricing_plan_id":"cebpf4jnsgd1na2vs0mg"},{"bike_id":"e64855bb-166a-4613-9f15-9b7644aad042","system_id":"levelo_inurba_marseille","lat":43.29846,"lon":5.36273,"is_reserved":false,"is_disabled":false,"rental_uris":{"android":"levelo://app?vid=e64855bb-166a-4613-9f15-9b7644aad042","ios":"levelo://app?vid=e64855bb-166a-4613-9f15-9b7644aad042"},"vehicle_type_id":"4","last_reported":1728220427,"current_range_meters":33600,"station_id":"ce4bgpp2rcd13ifvqc3g","pricing_plan_id":"cebpf4jnsgd1na2vs0mg"},{"bike_id":"0a6d5994-1c0b-4d6b-b33a-2a21d9495a6a","system_id":"levelo_inurba_marseille","lat":43.28861,"lon":5.35832,"is_reserved":false,"is_disabled":false,"rental_uris":{"android":"levelo://app?vid=0a6d5994-1c0b-4d6b-b33a-2a21d9495a6a","ios":"levelo://app?vid=0a6d5994-1c0b-4d6b-b33a-2a21d9495a6a"},"vehicle_type_id":"4","last_reported":1728220427,"current_range_meters":38000,"station_id":"ce4bhb12rcd13ifvqem0","pricing_plan_id":"cebpf4jnsgd1na2vs0mg"},{"bike_id":"8d63a14b-f92e-43da-bf8d-486676b7673f","system_id":"levelo_inurba_marseille","lat":43.29982,"lon":5.37182,"is_reserved":false,"is_disabled":false,"rental_uris":{"android":"levelo://app?vid=8d63a14b-f92e-43da-bf8d-486676b7673f","ios":"levelo://app?vid=8d63a14b-f92e-43da-bf8d-486676b7673f"},"vehicle_type_id":"4","last_reported":1728220427,"current_range_meters":38800,"station_id":"ce4bgr92rcd13ifvqc7g","pricing_plan_id":"cebpf4jnsgd1na2vs0mg"},{"bike_id":"76b069e8-7081-467a-8213-eae3ddb241f2","system_id":"levelo_inurba_marseille","lat":43.336,"lon":5.41022,"is_reserved":false,"is_disabled":false,"rental_uris":{"android":"levelo://app?vid=76b069e8-7081-467a-8213-eae3ddb241f2","ios":"levelo://app?vid=76b069e8-7081-467a-8213-eae3ddb241f2"},"vehicle_type_id":"4","last_reported":1728220427,"current_range_meters":6800,"station_id":"ce4bhqh2rcd13ifvqhmg","pricing_plan_id":"cebpf4jnsgd1na2vs0mg"},{"bike_id":"8221909e-f4c4-413f-8d9d-3a2ad3187969","system_id":"levelo_inurba_marseille","lat":43.31691,"lon":5.40481,"is_reserved":false,"is_disabled":false,"rental_uris":{"android":"levelo://app?vid=8221909e-f4c4-413f-8d9d-3a2ad3187969","ios":"levelo://app?vid=8221909e-f4c4-413f-8d9d-3a2ad3187969"},"vehicle_type_id":"4","last_reported":1728220427,"current_range_meters":5600,"station_id":"ce4bh012rcd13ifvqd00","pricing_plan_id":"cebpf4jnsgd1na2vs0mg"},{"bike_id":"27c5f2a9-8158-45c6-b742-4db159c5f60d","system_id":"levelo_inurba_marseille","lat":43.3133,"lon":5.39688,"is_reserved":false,"is_disabled":false,"rental_uris":{"android":"levelo://app?vid=27c5f2a9-8158-45c6-b742-4db159c5f60d","ios":"levelo://app?vid=27c5f2a9-8158-45c6-b742-4db159c5f60d"},"vehicle_type_id":"4","last_reported":1728220427,"current_range_meters":30800,"station_id":"ce4bgvp2rcd13ifvqcu0","pricing_plan_id":"cebpf4jnsgd1na2vs0mg"},{"bike_id":"e1176c16-9368-4c51-9a84-0348ec078a15","system_id":"levelo_inurba_marseille","lat":43.25123,"lon":5.4032,"is_reserved":false,"is_disabled":false,"rental_uris":{"android":"levelo://app?vid=e1176c16-9368-4c51-9a84-0348ec078a15","ios":"levelo://app?vid=e1176c16-9368-4c51-9a84-0348ec078a15"},"vehicle_type_id":"4","last_reported":1728220427,"current_range_meters":19600,"station_id":"ce4bhlh2rcd13ifvqgig","pricing_plan_id":"cebpf4jnsgd1na2vs0mg"},{"bike_id":"1d0e3faa-ee78-4da5-a96f-abfd136c29bb","system_id":"levelo_inurba_marseille","lat":43.32478,"lon":5.36561,"is_reserved":false,"is_disabled":false,"rental_uris":{"android":"levelo://app?vid=1d0e3faa-ee78-4da5-a96f-abfd136c29bb","ios":"levelo://app?vid=1d0e3faa-ee78-4da5-a96f-abfd136c29bb"},"vehicle_type_id":"4","last_reported":1728220427,"current_range_meters":24800,"station_id":"ce4bhs12rcd13ifvqhvg","pricing_plan_id":"cebpf4jnsgd1na2vs0mg"},{"bike_id":"c58f75fd-972f-44a2-947f-e560b94c87fa","system_id":"levelo_inurba_marseille","lat":43.293793,"lon":5.378555,"is_reserved":false,"is_disabled":false,"rental_uris":{"android":"levelo://app?vid=c58f75fd-972f-44a2-947f-e560b94c87fa","ios":"levelo://app?vid=c58f75fd-972f-44a2-947f-e560b94c87fa"},"vehicle_type_id":"4","last_reported":1728220427,"current_range_meters":9600,"station_id":"ce4bgjh2rcd13ifvqbf0","pricing_plan_id":"cebpf4jnsgd1na2vs0mg"},{"bike_id":"8c9e4362-e7d6-4402-9709-58b2dcee565a","system_id":"levelo_inurba_marseille","lat":43.30467,"lon":5.3791,"is_reserved":false,"is_disabled":false,"rental_uris":{"android":"levelo://app?vid=8c9e4362-e7d6-4402-9709-58b2dcee565a","ios":"levelo://app?vid=8c9e4362-e7d6-4402-9709-58b2dcee565a"},"vehicle_type_id":"4","last_reported":1728220427,"current_range_meters":33200,"station_id":"ce4bgup2rcd13ifvqcn0","pricing_plan_id":"cebpf4jnsgd1na2vs0mg"},{"bike_id":"bee0cd21-a648-4f04-8bc2-b57277130683","system_id":"levelo_inurba_marseille","lat":43.255798,"lon":5.38232,"is_reserved":false,"is_disabled":false,"rental_uris":{"android":"levelo://app?vid=bee0cd21-a648-4f04-8bc2-b57277130683","ios":"levelo://app?vid=bee0cd21-a648-4f04-8bc2-b57277130683"},"vehicle_type_id":"4","last_reported":1728220427,"current_range_meters":20800,"station_id":"ce4bhih2rcd13ifvqfs0","pricing_plan_id":"cebpf4jnsgd1na2vs0mg"},{"bike_id":"3af48eb3-1d1f-4a32-a948-7cc05add2405","system_id":"levelo_inurba_marseille","lat":43.21346,"lon":5.34936,"is_reserved":false,"is_disabled":false,"rental_uris":{"android":"levelo://app?vid=3af48eb3-1d1f-4a32-a948-7cc05add2405","ios":"levelo://app?vid=3af48eb3-1d1f-4a32-a948-7cc05add2405"},"vehicle_type_id":"4","last_reported":1728220427,"current_range_meters":32000,"station_id":"crv51consjfaj9uu89c0","pricing_plan_id":"cebpf4jnsgd1na2vs0mg"},{"bike_id":"77e44f96-8992-4ec5-ba2c-5e51b9e5b288","system_id":"levelo_inurba_marseille","lat":43.27057,"lon":5.38785,"is_reserved":false,"is_disabled":false,"rental_uris":{"android":"levelo://app?vid=77e44f96-8992-4ec5-ba2c-5e51b9e5b288","ios":"levelo://app?vid=77e44f96-8992-4ec5-ba2c-5e51b9e5b288"},"vehicle_type_id":"4","last_reported":1728220427,"current_range_meters":36400,"station_id":"","pricing_plan_id":"cebpf4jnsgd1na2vs0mg"},{"bike_id":"274052d4-8897-4348-86a6-97938341d2c5","system_id":"levelo_inurba_marseille","lat":43.30803,"lon":5.43521,"is_reserved":false,"is_disabled":false,"rental_uris":{"android":"levelo://app?vid=274052d4-8897-4348-86a6-97938341d2c5","ios":"levelo://app?vid=274052d4-8897-4348-86a6-97938341d2c5"},"vehicle_type_id":"4","last_reported":1728220427,"current_range_meters":4000,"station_id":"ce4bhph2rcd13ifvqheg","pricing_plan_id":"cebpf4jnsgd1na2vs0mg"},{"bike_id":"dd164524-3c0c-4135-9b32-9ab6e84f90a0","system_id":"levelo_inurba_marseille","lat":43.26571,"lon":5.39002,"is_reserved":false,"is_disabled":false,"rental_uris":{"android":"levelo://app?vid=dd164524-3c0c-4135-9b32-9ab6e84f90a0","ios":"levelo://app?vid=dd164524-3c0c-4135-9b32-9ab6e84f90a0"},"vehicle_type_id":"4","last_reported":1728220427,"current_range_meters":30800,"station_id":"ce4bhe12rcd13ifvqf30","pricing_plan_id":"cebpf4jnsgd1na2vs0mg"},{"bike_id":"b51ee6d2-4574-4587-a7f0-3852397ae634","system_id":"levelo_inurba_marseille","lat":43.22924,"lon":5.35372,"is_reserved":false,"is_disabled":false,"rental_uris":{"android":"levelo://app?vid=b51ee6d2-4574-4587-a7f0-3852397ae634","ios":"levelo://app?vid=b51ee6d2-4574-4587-a7f0-3852397ae634"},"vehicle_type_id":"4","last_reported":1728220427,"current_range_meters":36400,"station_id":"cpo3532slgdg3j2ikp40","pricing_plan_id":"cebpf4jnsgd1na2vs0mg"},{"bike_id":"4f5038fe-9ccd-4d04-a6cd-afe04d9be89f","system_id":"levelo_inurba_marseille","lat":43.27376,"lon":5.36247,"is_reserved":false,"is_disabled":false,"rental_uris":{"android":"levelo://app?vid=4f5038fe-9ccd-4d04-a6cd-afe04d9be89f","ios":"levelo://app?vid=4f5038fe-9ccd-4d04-a6cd-afe04d9be89f"},"vehicle_type_id":"4","last_reported":1728220427,"current_range_meters":32000,"station_id":"ce4bhbh2rcd13ifvqeo0","pricing_plan_id":"cebpf4jnsgd1na2vs0mg"},{"bike_id":"8395a2aa-13d7-4020-9236-8a6cad128b57","system_id":"levelo_inurba_marseille","lat":43.2968,"lon":5.37288,"is_reserved":false,"is_disabled":false,"rental_uris":{"android":"levelo://app?vid=8395a2aa-13d7-4020-9236-8a6cad128b57","ios":"levelo://app?vid=8395a2aa-13d7-4020-9236-8a6cad128b57"},"vehicle_type_id":"4","last_reported":1728220427,"current_range_meters":20400,"station_id":"ce4bgk12rcd13ifvqbj0","pricing_plan_id":"cebpf4jnsgd1na2vs0mg"},{"bike_id":"f952c867-456c-4242-a61e-014c3f9f4c30","system_id":"levelo_inurba_marseille","lat":43.23061,"lon":5.3549,"is_reserved":false,"is_disabled":false,"rental_uris":{"android":"levelo://app?vid=f952c867-456c-4242-a61e-014c3f9f4c30","ios":"levelo://app?vid=f952c867-456c-4242-a61e-014c3f9f4c30"},"vehicle_type_id":"4","last_reported":1728220427,"current_range_meters":28000,"station_id":"cpo3342slgdg3j2ifvpg","pricing_plan_id":"cebpf4jnsgd1na2vs0mg"},{"bike_id":"0ed5fe3f-490d-4966-b9dc-ff5edf5fc50f","system_id":"levelo_inurba_marseille","lat":43.30932,"lon":5.40139,"is_reserved":false,"is_disabled":false,"rental_uris":{"android":"levelo://app?vid=0ed5fe3f-490d-4966-b9dc-ff5edf5fc50f","ios":"levelo://app?vid=0ed5fe3f-490d-4966-b9dc-ff5edf5fc50f"},"vehicle_type_id":"4","last_reported":1728220427,"current_range_meters":34000,"station_id":"ce4bgvp2rcd13ifvqct0","pricing_plan_id":"cebpf4jnsgd1na2vs0mg"},{"bike_id":"4e0c83a2-b0c3-4894-8559-e509681998d3","system_id":"levelo_inurba_marseille","lat":43.31109,"lon":5.38316,"is_reserved":false,"is_disabled":false,"rental_uris":{"android":"levelo://app?vid=4e0c83a2-b0c3-4894-8559-e509681998d3","ios":"levelo://app?vid=4e0c83a2-b0c3-4894-8559-e509681998d3"},"vehicle_type_id":"4","last_reported":1728220427,"current_range_meters":8800,"station_id":"ce4bgv92rcd13ifvqcr0","pricing_plan_id":"cebpf4jnsgd1na2vs0mg"},{"bike_id":"a76ee3fd-363a-4d57-9618-b37ded534ce5","system_id":"levelo_inurba_marseille","lat":43.24386,"lon":5.37058,"is_reserved":false,"is_disabled":false,"rental_uris":{"android":"levelo://app?vid=a76ee3fd-363a-4d57-9618-b37ded534ce5","ios":"levelo://app?vid=a76ee3fd-363a-4d57-9618-b37ded534ce5"},"vehicle_type_id":"4","last_reported":1728220427,"current_range_meters":38800,"station_id":"ce4bhhh2rcd13ifvqfk0","pricing_plan_id":"cebpf4jnsgd1na2vs0mg"},{"bike_id":"b10300f2-93ff-4205-8511-b798866b1c20","system_id":"levelo_inurba_marseille","lat":43.3035,"lon":5.41877,"is_reserved":false,"is_disabled":false,"rental_uris":{"android":"levelo://app?vid=b10300f2-93ff-4205-8511-b798866b1c20","ios":"levelo://app?vid=b10300f2-93ff-4205-8511-b798866b1c20"},"vehicle_type_id":"4","last_reported":1728220427,"current_range_meters":34000,"station_id":"ce4bhop2rcd13ifvqh7g","pricing_plan_id":"cebpf4jnsgd1na2vs0mg"},{"bike_id":"ae53a9d1-01ac-447b-a4c7-269e1c5ac403","system_id":"levelo_inurba_marseille","lat":43.31822,"lon":5.40632,"is_reserved":false,"is_disabled":false,"rental_uris":{"android":"levelo://app?vid=ae53a9d1-01ac-447b-a4c7-269e1c5ac403","ios":"levelo://app?vid=ae53a9d1-01ac-447b-a4c7-269e1c5ac403"},"vehicle_type_id":"4","last_reported":1728220427,"current_range_meters":11600,"station_id":"","pricing_plan_id":"cebpf4jnsgd1na2vs0mg"},{"bike_id":"d3d0826a-8542-464c-893d-a0abebc55504","system_id":"levelo_inurba_marseille","lat":43.31276,"lon":5.40167,"is_reserved":false,"is_disabled":false,"rental_uris":{"android":"levelo://app?vid=d3d0826a-8542-464c-893d-a0abebc55504","ios":"levelo://app?vid=d3d0826a-8542-464c-893d-a0abebc55504"},"vehicle_type_id":"4","last_reported":1728220427,"current_range_meters":38000,"station_id":"ce4bh092rcd13ifvqd30","pricing_plan_id":"cebpf4jnsgd1na2vs0mg"},{"bike_id":"5c1329d2-5978-422d-aa1d-1cfb9f8a52ca","system_id":"levelo_inurba_marseille","lat":43.29593,"lon":5.381,"is_reserved":false,"is_disabled":false,"rental_uris":{"android":"levelo://app?vid=5c1329d2-5978-422d-aa1d-1cfb9f8a52ca","ios":"levelo://app?vid=5c1329d2-5978-422d-aa1d-1cfb9f8a52ca"},"vehicle_type_id":"4","last_reported":1728220427,"current_range_meters":29600,"station_id":"ce4bgl12rcd13ifvqbo0","pricing_plan_id":"cebpf4jnsgd1na2vs0mg"},{"bike_id":"c378dc83-ebd1-41d3-9b5e-a9309637a11d","system_id":"levelo_inurba_marseille","lat":43.3093,"lon":5.40145,"is_reserved":false,"is_disabled":false,"rental_uris":{"android":"levelo://app?vid=c378dc83-ebd1-41d3-9b5e-a9309637a11d","ios":"levelo://app?vid=c378dc83-ebd1-41d3-9b5e-a9309637a11d"},"vehicle_type_id":"4","last_reported":1728220427,"current_range_meters":8000,"station_id":"ce4bgvp2rcd13ifvqct0","pricing_plan_id":"cebpf4jnsgd1na2vs0mg"},{"bike_id":"c50e441c-d247-4c47-85e3-c59071bb20fa","system_id":"levelo_inurba_marseille","lat":43.21344,"lon":5.34938,"is_reserved":false,"is_disabled":false,"rental_uris":{"android":"levelo://app?vid=c50e441c-d247-4c47-85e3-c59071bb20fa","ios":"levelo://app?vid=c50e441c-d247-4c47-85e3-c59071bb20fa"},"vehicle_type_id":"4","last_reported":1728220427,"current_range_meters":30000,"station_id":"crv51consjfaj9uu89c0","pricing_plan_id":"cebpf4jnsgd1na2vs0mg"},{"bike_id":"50adf5c9-c061-481b-81a8-2b154bbc729c","system_id":"levelo_inurba_marseille","lat":43.29585,"lon":5.36734,"is_reserved":false,"is_disabled":false,"rental_uris":{"android":"levelo://app?vid=50adf5c9-c061-481b-81a8-2b154bbc729c","ios":"levelo://app?vid=50adf5c9-c061-481b-81a8-2b154bbc729c"},"vehicle_type_id":"4","last_reported":1728220427,"current_range_meters":40000,"station_id":"ce4bgph2rcd13ifvqc2g","pricing_plan_id":"cebpf4jnsgd1na2vs0mg"},{"bike_id":"a8d95618-f2ad-45b4-8eba-9bd5b2ef680e","system_id":"levelo_inurba_marseille","lat":43.25584,"lon":5.3824,"is_reserved":false,"is_disabled":false,"rental_uris":{"android":"levelo://app?vid=a8d95618-f2ad-45b4-8eba-9bd5b2ef680e","ios":"levelo://app?vid=a8d95618-f2ad-45b4-8eba-9bd5b2ef680e"},"vehicle_type_id":"4","last_reported":1728220427,"current_range_meters":22800,"station_id":"ce4bhih2rcd13ifvqfs0","pricing_plan_id":"cebpf4jnsgd1na2vs0mg"},{"bike_id":"d463bf47-8304-43f0-8b2e-8eb7b10dc6e6","system_id":"levelo_inurba_marseille","lat":43.2959,"lon":5.36732,"is_reserved":false,"is_disabled":false,"rental_uris":{"android":"levelo://app?vid=d463bf47-8304-43f0-8b2e-8eb7b10dc6e6","ios":"levelo://app?vid=d463bf47-8304-43f0-8b2e-8eb7b10dc6e6"},"vehicle_type_id":"4","last_reported":1728220427,"current_range_meters":26800,"station_id":"ce4bgph2rcd13ifvqc2g","pricing_plan_id":"cebpf4jnsgd1na2vs0mg"},{"bike_id":"b1838a8a-5724-48f4-8b08-ccb2775a3430","system_id":"levelo_inurba_marseille","lat":43.30546,"lon":5.36535,"is_reserved":false,"is_disabled":false,"rental_uris":{"android":"levelo://app?vid=b1838a8a-5724-48f4-8b08-ccb2775a3430","ios":"levelo://app?vid=b1838a8a-5724-48f4-8b08-ccb2775a3430"},"vehicle_type_id":"4","last_reported":1728220427,"current_range_meters":14800,"station_id":"ce4bgs12rcd13ifvqcag","pricing_plan_id":"cebpf4jnsgd1na2vs0mg"},{"bike_id":"ae03ce78-c17f-4147-ad2d-f01fafba9a4d","system_id":"levelo_inurba_marseille","lat":43.28153,"lon":5.42641,"is_reserved":false,"is_disabled":false,"rental_uris":{"android":"levelo://app?vid=ae03ce78-c17f-4147-ad2d-f01fafba9a4d","ios":"levelo://app?vid=ae03ce78-c17f-4147-ad2d-f01fafba9a4d"},"vehicle_type_id":"4","last_reported":1728220427,"current_range_meters":24400,"station_id":"ce4bhnh2rcd13ifvqgug","pricing_plan_id":"cebpf4jnsgd1na2vs0mg"},{"bike_id":"2dc1df72-5747-4de1-8119-be38a30d1a3a","system_id":"levelo_inurba_marseille","lat":43.29256,"lon":5.38442,"is_reserved":false,"is_disabled":false,"rental_uris":{"android":"levelo://app?vid=2dc1df72-5747-4de1-8119-be38a30d1a3a","ios":"levelo://app?vid=2dc1df72-5747-4de1-8119-be38a30d1a3a"},"vehicle_type_id":"4","last_reported":1728220427,"current_range_meters":24800,"station_id":"ce4bh692rcd13ifvqea0","pricing_plan_id":"cebpf4jnsgd1na2vs0mg"},{"bike_id":"388290ea-17da-4ed9-92b2-c3971b85f234","system_id":"levelo_inurba_marseille","lat":43.3054,"lon":5.384313,"is_reserved":false,"is_disabled":false,"rental_uris":{"android":"levelo://app?vid=388290ea-17da-4ed9-92b2-c3971b85f234","ios":"levelo://app?vid=388290ea-17da-4ed9-92b2-c3971b85f234"},"vehicle_type_id":"4","last_reported":1728220427,"current_range_meters":33600,"station_id":"ce4bgg92rcd13ifvqb30","pricing_plan_id":"cebpf4jnsgd1na2vs0mg"},{"bike_id":"bdefae95-7cc5-4880-bfcb-b1af39586be0","system_id":"levelo_inurba_marseille","lat":43.32662,"lon":5.40992,"is_reserved":false,"is_disabled":false,"rental_uris":{"android":"levelo://app?vid=bdefae95-7cc5-4880-bfcb-b1af39586be0","ios":"levelo://app?vid=bdefae95-7cc5-4880-bfcb-b1af39586be0"},"vehicle_type_id":"4","last_reported":1728220427,"current_range_meters":36400,"station_id":"ce4bhpp2rcd13ifvqhgg","pricing_plan_id":"cebpf4jnsgd1na2vs0mg"},{"bike_id":"7f2584c3-186b-4ca9-b416-bee639b50e12","system_id":"levelo_inurba_marseille","lat":43.22933,"lon":5.35379,"is_reserved":false,"is_disabled":false,"rental_uris":{"android":"levelo://app?vid=7f2584c3-186b-4ca9-b416-bee639b50e12","ios":"levelo://app?vid=7f2584c3-186b-4ca9-b416-bee639b50e12"},"vehicle_type_id":"4","last_reported":1728220427,"current_range_meters":28800,"station_id":"cpo3532slgdg3j2ikp40","pricing_plan_id":"cebpf4jnsgd1na2vs0mg"},{"bike_id":"cbdf7d56-2a0d-4e5b-ba35-611d7d36932b","system_id":"levelo_inurba_marseille","lat":43.30553,"lon":5.36527,"is_reserved":false,"is_disabled":false,"rental_uris":{"android":"levelo://app?vid=cbdf7d56-2a0d-4e5b-ba35-611d7d36932b","ios":"levelo://app?vid=cbdf7d56-2a0d-4e5b-ba35-611d7d36932b"},"vehicle_type_id":"4","last_reported":1728220427,"current_range_meters":27200,"station_id":"ce4bgs12rcd13ifvqcag","pricing_plan_id":"cebpf4jnsgd1na2vs0mg"},{"bike_id":"669f9536-0dc9-488b-8257-6bf9839c2579","system_id":"levelo_inurba_marseille","lat":43.30313,"lon":5.36891,"is_reserved":false,"is_disabled":false,"rental_uris":{"android":"levelo://app?vid=669f9536-0dc9-488b-8257-6bf9839c2579","ios":"levelo://app?vid=669f9536-0dc9-488b-8257-6bf9839c2579"},"vehicle_type_id":"4","last_reported":1728220427,"current_range_meters":38800,"station_id":"ce4bgqh2rcd13ifvqc5g","pricing_plan_id":"cebpf4jnsgd1na2vs0mg"},{"bike_id":"2912afbb-a19a-40e0-a188-1cf83ec3505a","system_id":"levelo_inurba_marseille","lat":43.26678,"lon":5.38263,"is_reserved":false,"is_disabled":false,"rental_uris":{"android":"levelo://app?vid=2912afbb-a19a-40e0-a188-1cf83ec3505a","ios":"levelo://app?vid=2912afbb-a19a-40e0-a188-1cf83ec3505a"},"vehicle_type_id":"4","last_reported":1728220427,"current_range_meters":31200,"station_id":"ce4bhg92rcd13ifvqf90","pricing_plan_id":"cebpf4jnsgd1na2vs0mg"},{"bike_id":"1d152269-c2fa-4900-bfa9-f20a095e29df","system_id":"levelo_inurba_marseille","lat":43.25721,"lon":5.41107,"is_reserved":false,"is_disabled":false,"rental_uris":{"android":"levelo://app?vid=1d152269-c2fa-4900-bfa9-f20a095e29df","ios":"levelo://app?vid=1d152269-c2fa-4900-bfa9-f20a095e29df"},"vehicle_type_id":"4","last_reported":1728220427,"current_range_meters":38800,"station_id":"ce4bhkp2rcd13ifvqgd0","pricing_plan_id":"cebpf4jnsgd1na2vs0mg"},{"bike_id":"23a518c8-095a-4ec7-af9f-8e5c6d79748e","system_id":"levelo_inurba_marseille","lat":43.28984,"lon":5.35619,"is_reserved":false,"is_disabled":false,"rental_uris":{"android":"levelo://app?vid=23a518c8-095a-4ec7-af9f-8e5c6d79748e","ios":"levelo://app?vid=23a518c8-095a-4ec7-af9f-8e5c6d79748e"},"vehicle_type_id":"4","last_reported":1728220427,"current_range_meters":36800,"station_id":"ce4bhb92rcd13ifvqen0","pricing_plan_id":"cebpf4jnsgd1na2vs0mg"},{"bike_id":"57df5327-e4f9-4fe9-b1c6-46e97a345cbd","system_id":"levelo_inurba_marseille","lat":43.28612,"lon":5.37063,"is_reserved":false,"is_disabled":false,"rental_uris":{"android":"levelo://app?vid=57df5327-e4f9-4fe9-b1c6-46e97a345cbd","ios":"levelo://app?vid=57df5327-e4f9-4fe9-b1c6-46e97a345cbd"},"vehicle_type_id":"4","last_reported":1728220427,"current_range_meters":38800,"station_id":"ce4bht12rcd13ifvqi60","pricing_plan_id":"cebpf4jnsgd1na2vs0mg"},{"bike_id":"5182113f-8908-4825-903e-5a46e19bca5b","system_id":"levelo_inurba_marseille","lat":43.32492,"lon":5.36577,"is_reserved":false,"is_disabled":false,"rental_uris":{"android":"levelo://app?vid=5182113f-8908-4825-903e-5a46e19bca5b","ios":"levelo://app?vid=5182113f-8908-4825-903e-5a46e19bca5b"},"vehicle_type_id":"4","last_reported":1728220427,"current_range_meters":6400,"station_id":"ce4bhs12rcd13ifvqhvg","pricing_plan_id":"cebpf4jnsgd1na2vs0mg"},{"bike_id":"e03c9d0c-17ae-4003-b903-fd8aa9951041","system_id":"levelo_inurba_marseille","lat":43.33745,"lon":5.37449,"is_reserved":false,"is_disabled":false,"rental_uris":{"android":"levelo://app?vid=e03c9d0c-17ae-4003-b903-fd8aa9951041","ios":"levelo://app?vid=e03c9d0c-17ae-4003-b903-fd8aa9951041"},"vehicle_type_id":"4","last_reported":1728220427,"current_range_meters":33600,"station_id":"","pricing_plan_id":"cebpf4jnsgd1na2vs0mg"},{"bike_id":"f4e38f01-6d7d-4a2c-a57d-473f147f951a","system_id":"levelo_inurba_marseille","lat":43.30886,"lon":5.39661,"is_reserved":false,"is_disabled":false,"rental_uris":{"android":"levelo://app?vid=f4e38f01-6d7d-4a2c-a57d-473f147f951a","ios":"levelo://app?vid=f4e38f01-6d7d-4a2c-a57d-473f147f951a"},"vehicle_type_id":"4","last_reported":1728220427,"current_range_meters":22400,"station_id":"ce4bh012rcd13ifvqcv0","pricing_plan_id":"cebpf4jnsgd1na2vs0mg"},{"bike_id":"62d34c54-0588-49dd-a546-381897180a6b","system_id":"levelo_inurba_marseille","lat":43.22941,"lon":5.35384,"is_reserved":false,"is_disabled":false,"rental_uris":{"android":"levelo://app?vid=62d34c54-0588-49dd-a546-381897180a6b","ios":"levelo://app?vid=62d34c54-0588-49dd-a546-381897180a6b"},"vehicle_type_id":"4","last_reported":1728220427,"current_range_meters":34000,"station_id":"","pricing_plan_id":"cebpf4jnsgd1na2vs0mg"},{"bike_id":"04eb5bb2-b07d-4668-a0d1-cdd07e5ea1cd","system_id":"levelo_inurba_marseille","lat":43.2559,"lon":5.38226,"is_reserved":false,"is_disabled":false,"rental_uris":{"android":"levelo://app?vid=04eb5bb2-b07d-4668-a0d1-cdd07e5ea1cd","ios":"levelo://app?vid=04eb5bb2-b07d-4668-a0d1-cdd07e5ea1cd"},"vehicle_type_id":"4","last_reported":1728220427,"current_range_meters":8400,"station_id":"ce4bhih2rcd13ifvqfs0","pricing_plan_id":"cebpf4jnsgd1na2vs0mg"},{"bike_id":"fadcf6aa-e1cf-44d1-88d8-678c1291d969","system_id":"levelo_inurba_marseille","lat":43.32341,"lon":5.40626,"is_reserved":false,"is_disabled":false,"rental_uris":{"android":"levelo://app?vid=fadcf6aa-e1cf-44d1-88d8-678c1291d969","ios":"levelo://app?vid=fadcf6aa-e1cf-44d1-88d8-678c1291d969"},"vehicle_type_id":"4","last_reported":1728220427,"current_range_meters":37600,"station_id":"ce4bhq92rcd13ifvqhjg","pricing_plan_id":"cebpf4jnsgd1na2vs0mg"},{"bike_id":"10253ba7-6359-4dd3-a1b4-b83376ef9535","system_id":"levelo_inurba_marseille","lat":43.28005,"lon":5.40012,"is_reserved":false,"is_disabled":false,"rental_uris":{"android":"levelo://app?vid=10253ba7-6359-4dd3-a1b4-b83376ef9535","ios":"levelo://app?vid=10253ba7-6359-4dd3-a1b4-b83376ef9535"},"vehicle_type_id":"4","last_reported":1728220427,"current_range_meters":36000,"station_id":"ce4bho92rcd13ifvqh4g","pricing_plan_id":"cebpf4jnsgd1na2vs0mg"},{"bike_id":"6cea5845-317f-47a3-8622-fd086202eef8","system_id":"levelo_inurba_marseille","lat":43.29229,"lon":5.36069,"is_reserved":false,"is_disabled":false,"rental_uris":{"android":"levelo://app?vid=6cea5845-317f-47a3-8622-fd086202eef8","ios":"levelo://app?vid=6cea5845-317f-47a3-8622-fd086202eef8"},"vehicle_type_id":"4","last_reported":1728220427,"current_range_meters":34800,"station_id":"ce4bhbh2rcd13ifvqeqg","pricing_plan_id":"cebpf4jnsgd1na2vs0mg"},