{"last_updated":1752390660,"ttl":60,"version":"2.2","data":{"bikes":[{"bike_id":"b25e716b-466d-4073-bda9-c1fa6de3ef16","system_id":"levelo_inurba_marseille","lat":43.29302,"lon":5.37447,"is_reserved":false,"is_disabled":true,"rental_uris":{"android":"levelo://app?vid=b25e716b-466d-4073-bda9-c1fa6de3ef16","ios":"levelo://app?vid=b25e716b-466d-4073-bda9-c1fa6de3ef16"},"vehicle_type_id":"4","last_reported":1752390660,"current_range_meters":3200,"station_id":"ce4bgi12rcd13ifvqb70","pricing_plan_id":"cebpf4jnsgd1na2vs0mg"},{"bike_id":"90cce311-83d5-40a7-8868-e2102ee388ce","system_id":"levelo_inurba_marseille","lat":43.296279,"lon":5.406037,"is_reserved":false,"is_disabled":false,"rental_uris":{"android":"levelo://app?vid=90cce311-83d5-40a7-8868-e2102ee388ce","ios":"levelo://app?vid=90cce311-83d5-40a7-8868-e2102ee388ce"},"vehicle_type_id":"4","last_reported":1752390660,"current_range_meters":3200,"station_id":"ce4bh0h2rcd13ifvqd60","pricing_plan_id":"cebpf4jnsgd1na2vs0mg"},{"bike_id":"9fb1e0ba-4f94-4ce0-b8e7-8395ab585b67","system_id":"levelo_inurba_marseille","lat":43.28489,"lon":5.38416,"is_reserved":false,"is_disabled":false,"rental_uris":{"android":"levelo://app?vid=9fb1e0ba-4f94-4ce0-b8e7-8395ab585b67","ios":"levelo://app?vid=9fb1e0ba-4f94-4ce0-b8e7-8395ab585b67"},"vehicle_type_id":"4","last_reported":1752390660,"current_range_meters":3200,"station_id":"ce4bh512rcd13ifvqe3g","pricing_plan_id":"cebpf4jnsgd1na2vs0mg"},{"bike_id":"bbc4683c-1e55-4e3d-ace4-4f2a6419c9e3","system_id":"levelo_inurba_marseille","lat":43.29639,"lon":5.40597,"is_reserved":false,"is_disabled":false,"rental_uris":{"android":"levelo://app?vid=bbc4683c-1e55-4e3d-ace4-4f2a6419c9e3","ios":"levelo://app?vid=bbc4683c-1e55-4e3d-ace4-4f2a6419c9e3"},"vehicle_type_id":"4","last_reported":1752390660,"current_range_meters":3600,"station_id":"ce4bh0h2rcd13ifvqd60","pricing_plan_id":"cebpf4jnsgd1na2vs0mg"},{"bike_id":"63334818-ba3c-4352-93ff-a4f83ebf1001","system_id":"levelo_inurba_marseille","lat":43.306053,"lon":5.372003,"is_reserved":false,"is_disabled":false,"rental_uris":{"android":"levelo://app?vid=63334818-ba3c-4352-93ff-a4f83ebf1001","ios":"levelo://app?vid=63334818-ba3c-4352-93ff-a4f83ebf1001"},"vehicle_type_id":"4","last_reported":1752390660,"current_range_meters":3600,"station_id":"ce4bgqh2rcd13ifvqc4g","pricing_plan_id":"cebpf4jnsgd1na2vs0mg"},{"bike_id":"534ed68d-5ceb-43a8-968b-be30f01dfa74","system_id":"levelo_inurba_marseille","lat":43.282291,"lon":5.390772,"is_reserved":false,"is_disabled":false,"rental_uris":{"android":"levelo://app?vid=534ed68d-5ceb-43a8-968b-be30f01dfa74","ios":"levelo://app?vid=534ed68d-5ceb-43a8-968b-be30f01dfa74"},"vehicle_type_id":"4","last_reported":1752390660,"current_range_meters":4000,"station_id":"","pricing_plan_id":"cebpf4jnsgd1na2vs0mg"},{"bike_id":"8822b429-f8c6-418b-9a42-03cdd9537272","system_id":"levelo_inurba_marseille","lat":43.30535,"lon":5.38422,"is_reserved":false,"is_disabled":false,"rental_uris":{"android":"levelo://app?vid=8822b429-f8c6-418b-9a42-03cdd9537272","ios":"levelo://app?vid=8822b429-f8c6-418b-9a42-03cdd9537272"},"vehicle_type_id":"4","last_reported":1752390660,"current_range_meters":4000,"station_id":"ce4bgg92rcd13ifvqb30","pricing_plan_id":"cebpf4jnsgd1na2vs0mg"},{"bike_id":"5a1aa169-e8de-4c42-8232-f9cf794c57f1","system_id":"levelo_inurba_marseille","lat":43.2119,"lon":5.35073,"is_reserved":false,"is_disabled":false,"rental_uris":{"android":"levelo://app?vid=5a1aa169-e8de-4c42-8232-f9cf794c57f1","ios":"levelo://app?vid=5a1aa169-e8de-4c42-8232-f9cf794c57f1"},"vehicle_type_id":"4","last_reported":1752390660,"current_range_meters":4400,"station_id":"st_cvj6sg6p6f1abm77japg","pricing_plan_id":"cebpf4jnsgd1na2vs0mg"},{"bike_id":"c0ed3a4e-0b08-4739-aee6-df5a174b758c","system_id":"levelo_inurba_marseille","lat":43.28442,"lon":5.39186,"is_reserved":false,"is_disabled":false,"rental_uris":{"android":"levelo://app?vid=c0ed3a4e-0b08-4739-aee6-df5a174b758c","ios":"levelo://app?vid=c0ed3a4e-0b08-4739-aee6-df5a174b758c"},"vehicle_type_id":"4","last_reported":1752390660,"current_range_meters":4400,"station_id":"ce4bhoh2rcd13ifvqh5g","pricing_plan_id":"cebpf4jnsgd1na2vs0mg"},{"bike_id":"cb9282c9-0a04-426f-af4a-9dc494a82650","system_id":"levelo_inurba_marseille","lat":43.225037,"lon":5.347922,"is_reserved":false,"is_disabled":false,"rental_uris":{"android":"levelo://app?vid=cb9282c9-0a04-426f-af4a-9dc494a82650","ios":"levelo://app?vid=cb9282c9-0a04-426f-af4a-9dc494a82650"},"vehicle_type_id":"4","last_reported":1752390660,"current_range_meters":4400,"station_id":"","pricing_plan_id":"cebpf4jnsgd1na2vs0mg"},{"bike_id":"c4090517-2067-41cd-bcb5-cb8334b77383","system_id":"levelo_inurba_marseille","lat":43.24387,"lon":5.3706,"is_reserved":false,"is_disabled":false,"rental_uris":{"android":"levelo://app?vid=c4090517-2067-41cd-bcb5-cb8334b77383","ios":"levelo://app?vid=c4090517-2067-41cd-bcb5-cb8334b77383"},"vehicle_type_id":"4","last_reported":1752390660,"current_range_meters":4800,"station_id":"ce4bhhh2rcd13ifvqfk0","pricing_plan_id":"cebpf4jnsgd1na2vs0mg"},{"bike_id":"bced4aa7-a628-4057-a6e6-27edc27c5e17","system_id":"levelo_inurba_marseille","lat":43.211935,"lon":5.350881,"is_reserved":false,"is_disabled":false,"rental_uris":{"android":"levelo://app?vid=bced4aa7-a628-4057-a6e6-27edc27c5e17","ios":"levelo://app?vid=bced4aa7-a628-4057-a6e6-27edc27c5e17"},"vehicle_type_id":"4","last_reported":1752390660,"current_range_meters":4800,"station_id":"st_cvj6sg6p6f1abm77japg","pricing_plan_id":"cebpf4jnsgd1na2vs0mg"},{"bike_id":"9fb5e395-c04a-4b49-b97b-f32b0fb41986","system_id":"levelo_inurba_marseille","lat":43.28655,"lon":5.36355,"is_reserved":false,"is_disabled":false,"rental_uris":{"android":"levelo://app?vid=9fb5e395-c04a-4b49-b97b-f32b0fb41986","ios":"levelo://app?vid=9fb5e395-c04a-4b49-b97b-f32b0fb41986"},"vehicle_type_id":"4","last_reported":1752390660,"current_range_meters":4800,"station_id":"ce4bhah2rcd13ifvqej0","pricing_plan_id":"cebpf4jnsgd1na2vs0mg"},{"bike_id":"91dcba50-afc0-4ae2-b1e7-808fb0af0c67","system_id":"levelo_inurba_marseille","lat":43.28894,"lon":5.35816,"is_reserved":false,"is_disabled":false,"rental_uris":{"android":"levelo://app?vid=91dcba50-afc0-4ae2-b1e7-808fb0af0c67","ios":"levelo://app?vid=91dcba50-afc0-4ae2-b1e7-808fb0af0c67"},"vehicle_type_id":"4","last_reported":1752390660,"current_range_meters":5600,"station_id":"ce4bhb12rcd13ifvqem0","pricing_plan_id":"cebpf4jnsgd1na2vs0mg"},{"bike_id":"9a721a67-800d-41fb-b2c2-3309f63164c3","system_id":"levelo_inurba_marseille","lat":43.211909,"lon":5.350699,"is_reserved":false,"is_disabled":false,"rental_uris":{"android":"levelo://app?vid=9a721a67-800d-41fb-b2c2-3309f63164c3","ios":"levelo://app?vid=9a721a67-800d-41fb-b2c2-3309f63164c3"},"vehicle_type_id":"4","last_reported":1752390660,"current_range_meters":5600,"station_id":"st_cvj6sg6p6f1abm77japg","pricing_plan_id":"cebpf4jnsgd1na2vs0mg"},{"bike_id":"6f5e9084-558f-4d95-b458-678ee4399b06","system_id":"levelo_inurba_marseille","lat":43.25482,"lon":5.37653,"is_reserved":false,"is_disabled":true,"rental_uris":{"android":"levelo://app?vid=6f5e9084-558f-4d95-b458-678ee4399b06","ios":"levelo://app?vid=6f5e9084-558f-4d95-b458-678ee4399b06"},"vehicle_type_id":"4","last_reported":1752390660,"current_range_meters":6000,"station_id":"ce4bhh12rcd13ifvqff0","pricing_plan_id":"cebpf4jnsgd1na2vs0mg"},{"bike_id":"e65e5099-bbe2-4ddf-8548-a155bb198ed2","system_id":"levelo_inurba_marseille","lat":43.309359,"lon":5.401606,"is_reserved":false,"is_disabled":false,"rental_uris":{"android":"levelo://app?vid=e65e5099-bbe2-4ddf-8548-a155bb198ed2","ios":"levelo://app?vid=e65e5099-bbe2-4ddf-8548-a155bb198ed2"},"vehicle_type_id":"4","last_reported":1752390660,"current_range_meters":6000,"station_id":"ce4bgvp2rcd13ifvqct0","pricing_plan_id":"cebpf4jnsgd1na2vs0mg"},{"bike_id":"06790081-2fbd-4616-be5e-229fa34e984b","system_id":"levelo_inurba_marseille","lat":43.336068,"lon":5.410263,"is_reserved":false,"is_disabled":false,"rental_uris":{"android":"levelo://app?vid=06790081-2fbd-4616-be5e-229fa34e984b","ios":"levelo://app?vid=06790081-2fbd-4616-be5e-229fa34e984b"},"vehicle_type_id":"4","last_reported":1752390660,"current_range_meters":6000,"station_id":"ce4bhqh2rcd13ifvqhmg","pricing_plan_id":"cebpf4jnsgd1na2vs0mg"},{"bike_id":"0f1287f9-390e-4629-ab8e-ad2d35ff61ae","system_id":"levelo_inurba_marseille","lat":43.25585,"lon":5.38229,"is_reserved":false,"is_disabled":true,"rental_uris":{"android":"levelo://app?vid=0f1287f9-390e-4629-ab8e-ad2d35ff61ae","ios":"levelo://app?vid=0f1287f9-390e-4629-ab8e-ad2d35ff61ae"},"vehicle_type_id":"4","last_reported":1752390660,"current_range_meters":6400,"station_id":"ce4bhih2rcd13ifvqfs0","pricing_plan_id":"cebpf4jnsgd1na2vs0mg"},{"bike_id":"2f0ba75c-aff3-43f4-857b-fc7c66f4e426","system_id":"levelo_inurba_marseille","lat":43.3096,"lon":5.390281,"is_reserved":false,"is_disabled":true,"rental_uris":{"android":"levelo://app?vid=2f0ba75c-aff3-43f4-857b-fc7c66f4e426","ios":"levelo://app?vid=2f0ba75c-aff3-43f4-857b-fc7c66f4e426"},"vehicle_type_id":"4","last_reported":1752390660,"current_range_meters":6400,"station_id":"ce4bgup2rcd13ifvqco0","pricing_plan_id":"cebpf4jnsgd1na2vs0mg"},{"bike_id":"94940c9a-30d4-4e43-bec0-fc556b4da3ae","system_id":"levelo_inurba_marseille","lat":43.33616,"lon":5.41031,"is_reserved":false,"is_disabled":false,"rental_uris":{"android":"levelo://app?vid=94940c9a-30d4-4e43-bec0-fc556b4da3ae","ios":"levelo://app?vid=94940c9a-30d4-4e43-bec0-fc556b4da3ae"},"vehicle_type_id":"4","last_reported":1752390660,"current_range_meters":6400,"station_id":"ce4bhqh2rcd13ifvqhmg","pricing_plan_id":"cebpf4jnsgd1na2vs0mg"},{"bike_id":"356bddec-54b0-4a79-b09a-1968d52c8a41","system_id":"levelo_inurba_marseille","lat":43.302488,"lon":5.400737,"is_reserved":false,"is_disabled":false,"rental_uris":{"android":"levelo://app?vid=356bddec-54b0-4a79-b09a-1968d52c8a41","ios":"levelo://app?vid=356bddec-54b0-4a79-b09a-1968d52c8a41"},"vehicle_type_id":"4","last_reported":1752390660,"current_range_meters":6400,"station_id":"","pricing_plan_id":"cebpf4jnsgd1na2vs0mg"},{"bike_id":"44f0f9aa-b98e-4e25-8993-00ca18285603","system_id":"levelo_inurba_marseille","lat":43.290413,"lon":5.399583,"is_reserved":false,"is_disabled":false,"rental_uris":{"android":"levelo://app?vid=44f0f9aa-b98e-4e25-8993-00ca18285603","ios":"levelo://app?vid=44f0f9aa-b98e-4e25-8993-00ca18285603"},"vehicle_type_id":"4","last_reported":1752390660,"current_range_meters":6800,"station_id":"ce4bh392rcd13ifvqdm0","pricing_plan_id":"cebpf4jnsgd1na2vs0mg"},{"bike_id":"114d0b50-26b3-45f8-a4d0-f744d9112964","system_id":"levelo_inurba_marseille","lat":43.292,"lon":5.35809,"is_reserved":false,"is_disabled":false,"rental_uris":{"android":"levelo://app?vid=114d0b50-26b3-45f8-a4d0-f744d9112964","ios":"levelo://app?vid=114d0b50-26b3-45f8-a4d0-f744d9112964"},"vehicle_type_id":"4","last_reported":1752390660,"current_range_meters":6800,"station_id":"ce4bhb12rcd13ifvqel0","pricing_plan_id":"cebpf4jnsgd1na2vs0mg"},{"bike_id":"4b5ab1a2-f7d9-4ce5-9716-f0adaa5b5ec0","system_id":"levelo_inurba_marseille","lat":43.24644,"lon":5.38905,"is_reserved":false,"is_disabled":false,"rental_uris":{"android":"levelo://app?vid=4b5ab1a2-f7d9-4ce5-9716-f0adaa5b5ec0","ios":"levelo://app?vid=4b5ab1a2-f7d9-4ce5-9716-f0adaa5b5ec0"},"vehicle_type_id":"4","last_reported":1752390660,"current_range_meters":6800,"station_id":"ce4bhg12rcd13ifvqf60","pricing_plan_id":"cebpf4jnsgd1na2vs0mg"},{"bike_id":"e3a75ee9-c614-467b-8cc2-f813bcef2ab1","system_id":"levelo_inurba_marseille","lat":43.33743,"lon":5.3919,"is_reserved":false,"is_disabled":true,"rental_uris":{"android":"levelo://app?vid=e3a75ee9-c614-467b-8cc2-f813bcef2ab1","ios":"levelo://app?vid=e3a75ee9-c614-467b-8cc2-f813bcef2ab1"},"vehicle_type_id":"4","last_reported":1752390660,"current_range_meters":6800,"station_id":"ce4bhr92rcd13ifvqhsg","pricing_plan_id":"cebpf4jnsgd1na2vs0mg"},{"bike_id":"05f24eb2-daa3-4f0e-944e-3b9343d3d36a","system_id":"levelo_inurba_marseille","lat":43.29555,"lon":5.42273,"is_reserved":false,"is_disabled":false,"rental_uris":{"android":"levelo://app?vid=05f24eb2-daa3-4f0e-944e-3b9343d3d36a","ios":"levelo://app?vid=05f24eb2-daa3-4f0e-944e-3b9343d3d36a"},"vehicle_type_id":"4","last_reported":1752390660,"current_range_meters":7200,"station_id":"ce4bhph2rcd13ifvqhdg","pricing_plan_id":"cebpf4jnsgd1na2vs0mg"},{"bike_id":"1ad0ec37-bc97-4796-be7a-8d866e6e8462","system_id":"levelo_inurba_marseille","lat":43.31119,"lon":5.377668,"is_reserved":false,"is_disabled":false,"rental_uris":{"android":"levelo://app?vid=1ad0ec37-bc97-4796-be7a-8d866e6e8462","ios":"levelo://app?vid=1ad0ec37-bc97-4796-be7a-8d866e6e8462"},"vehicle_type_id":"4","last_reported":1752390660,"current_range_meters":7200,"station_id":"ce4bgt92rcd13ifvqcg0","pricing_plan_id":"cebpf4jnsgd1na2vs0mg"},{"bike_id":"5b147f49-2e39-4ac2-b9dd-9e0a27e583f7","system_id":"levelo_inurba_marseille","lat":43.289566,"lon":5.367504,"is_reserved":false,"is_disabled":false,"rental_uris":{"android":"levelo://app?vid=5b147f49-2e39-4ac2-b9dd-9e0a27e583f7","ios":"levelo://app?vid=5b147f49-2e39-4ac2-b9dd-9e0a27e583f7"},"vehicle_type_id":"4","last_reported":1752390660,"current_range_meters":7200,"station_id":"","pricing_plan_id":"cebpf4jnsgd1na2vs0mg"},{"bike_id":"33e3ba15-02b3-4e49-9147-ef68b8490a14","system_id":"levelo_inurba_marseille","lat":43.28424,"lon":5.34978,"is_reserved":false,"is_disabled":false,"rental_uris":{"android":"levelo://app?vid=33e3ba15-02b3-4e49-9147-ef68b8490a14","ios":"levelo://app?vid=33e3ba15-02b3-4e49-9147-ef68b8490a14"},"vehicle_type_id":"4","last_reported":1752390660,"current_range_meters":8000,"station_id":"ce4bhbh2rcd13ifvqepg","pricing_plan_id":"cebpf4jnsgd1na2vs0mg"},{"bike_id":"097106d7-0dc8-4152-8540-cae0e1de8dea","system_id":"levelo_inurba_marseille","lat":43.211989,"lon":5.350671,"is_reserved":false,"is_disabled":false,"rental_uris":{"android":"levelo://app?vid=097106d7-0dc8-4152-8540-cae0e1de8dea","ios":"levelo://app?vid=097106d7-0dc8-4152-8540-cae0e1de8dea"},"vehicle_type_id":"4","last_reported":1752390660,"current_range_meters":8000,"station_id":"st_cvj6sg6p6f1abm77japg","pricing_plan_id":"cebpf4jnsgd1na2vs0mg"},{"bike_id":"03251f63-26eb-493f-9d65-8e11851ca687","system_id":"levelo_inurba_marseille","lat":43.28868,"lon":5.39292,"is_reserved":false,"is_disabled":true,"rental_uris":{"android":"levelo://app?vid=03251f63-26eb-493f-9d65-8e11851ca687","ios":"levelo://app?vid=03251f63-26eb-493f-9d65-8e11851ca687"},"vehicle_type_id":"4","last_reported":1752390660,"current_range_meters":8000,"station_id":"ce4bh2p2rcd13ifvqdi0","pricing_plan_id":"cebpf4jnsgd1na2vs0mg"},{"bike_id":"df61839a-7a72-4634-9960-e8ea0d9a8d35","system_id":"levelo_inurba_marseille","lat":43.239474,"lon":5.366089,"is_reserved":false,"is_disabled":true,"rental_uris":{"android":"levelo://app?vid=df61839a-7a72-4634-9960-e8ea0d9a8d35","ios":"levelo://app?vid=df61839a-7a72-4634-9960-e8ea0d9a8d35"},"vehicle_type_id":"4","last_reported":1752390660,"current_range_meters":8000,"station_id":"","pricing_plan_id":"cebpf4jnsgd1na2vs0mg"},{"bike_id":"2d525522-e6dc-4040-9c4c-8e2e7a587583","system_id":"levelo_inurba_marseille","lat":43.29198,"lon":5.37494,"is_reserved":false,"is_disabled":false,"rental_uris":{"android":"levelo://app?vid=2d525522-e6dc-4040-9c4c-8e2e7a587583","ios":"levelo://app?vid=2d525522-e6dc-4040-9c4c-8e2e7a587583"},"vehicle_type_id":"4","last_reported":1752390660,"current_range_meters":8400,"station_id":"","pricing_plan_id":"cebpf4jnsgd1na2vs0mg"},{"bike_id":"59e69e59-aa8e-43f6-92b2-176ba8f7ead1","system_id":"levelo_inurba_marseille","lat":43.299922,"lon":5.371784,"is_reserved":false,"is_disabled":true,"rental_uris":{"android":"levelo://app?vid=59e69e59-aa8e-43f6-92b2-176ba8f7ead1","ios":"levelo://app?vid=59e69e59-aa8e-43f6-92b2-176ba8f7ead1"},"vehicle_type_id":"4","last_reported":1752390660,"current_range_meters":8400,"station_id":"ce4bgr92rcd13ifvqc7g","pricing_plan_id":"cebpf4jnsgd1na2vs0mg"},{"bike_id":"8929c1bf-fd4d-44e4-aa66-b3eb6538c998","system_id":"levelo_inurba_marseille","lat":43.28577,"lon":5.42951,"is_reserved":false,"is_disabled":false,"rental_uris":{"android":"levelo://app?vid=8929c1bf-fd4d-44e4-aa66-b3eb6538c998","ios":"levelo://app?vid=8929c1bf-fd4d-44e4-aa66-b3eb6538c998"},"vehicle_type_id":"4","last_reported":1752390660,"current_range_meters":8400,"station_id":"","pricing_plan_id":"cebpf4jnsgd1na2vs0mg"},{"bike_id":"fa701000-ba9f-4668-9c1f-c7e6cf72af51","system_id":"levelo_inurba_marseille","lat":43.30247,"lon":5.40068,"is_reserved":false,"is_disabled":false,"rental_uris":{"android":"levelo://app?vid=fa701000-ba9f-4668-9c1f-c7e6cf72af51","ios":"levelo://app?vid=fa701000-ba9f-4668-9c1f-c7e6cf72af51"},"vehicle_type_id":"4","last_reported":1752390660,"current_range_meters":8400,"station_id":"ce4bgvh2rcd13ifvqcs0","pricing_plan_id":"cebpf4jnsgd1na2vs0mg"},{"bike_id":"989cadc1-b8d5-43b8-aca5-55b69edc9395","system_id":"levelo_inurba_marseille","lat":43.30739,"lon":5.42423,"is_reserved":false,"is_disabled":false,"rental_uris":{"android":"levelo://app?vid=989cadc1-b8d5-43b8-aca5-55b69edc9395","ios":"levelo://app?vid=989cadc1-b8d5-43b8-aca5-55b69edc9395"},"vehicle_type_id":"4","last_reported":1752390660,"current_range_meters":8400,"station_id":"st_cvj6ca6bvosntc0bfgr0","pricing_plan_id":"cebpf4jnsgd1na2vs0mg"},{"bike_id":"5a71ab42-51f6-4d74-8942-e5c8339f2255","system_id":"levelo_inurba_marseille","lat":43.31761,"lon":5.39013,"is_reserved":false,"is_disabled":true,"rental_uris":{"android":"levelo://app?vid=5a71ab42-51f6-4d74-8942-e5c8339f2255","ios":"levelo://app?vid=5a71ab42-51f6-4d74-8942-e5c8339f2255"},"vehicle_type_id":"4","last_reported":1752390660,"current_range_meters":8400,"station_id":"ce4bhqp2rcd13ifvqhng","pricing_plan_id":"cebpf4jnsgd1na2vs0mg"},{"bike_id":"75bb1dd6-50a7-47a9-9e4b-6b29bd46237a","system_id":"levelo_inurba_marseille","lat":43.211914,"lon":5.350635,"is_reserved":false,"is_disabled":false,"rental_uris":{"android":"levelo://app?vid=75bb1dd6-50a7-47a9-9e4b-6b29bd46237a","ios":"levelo://app?vid=75bb1dd6-50a7-47a9-9e4b-6b29bd46237a"},"vehicle_type_id":"4","last_reported":1752390660,"current_range_meters":8400,"station_id":"st_cvj6sg6p6f1abm77japg","pricing_plan_id":"cebpf4jnsgd1na2vs0mg"},{"bike_id":"3bd4f9b6-68fe-4ead-875a-8ea9ae5e82fa","system_id":"levelo_inurba_marseille","lat":43.2997,"lon":5.37205,"is_reserved":false,"is_disabled":false,"rental_uris":{"android":"levelo://app?vid=3bd4f9b6-68fe-4ead-875a-8ea9ae5e82fa","ios":"levelo://app?vid=3bd4f9b6-68fe-4ead-875a-8ea9ae5e82fa"},"vehicle_type_id":"4","last_reported":1752390660,"current_range_meters":8400,"station_id":"ce4bgr92rcd13ifvqc7g","pricing_plan_id":"cebpf4jnsgd1na2vs0mg"},{"bike_id":"3064d7db-7a51-4e85-bef4-6def601894cd","system_id":"levelo_inurba_marseille","lat":43.309528,"lon":5.390326,"is_reserved":false,"is_disabled":true,"rental_uris":{"android":"levelo://app?vid=3064d7db-7a51-4e85-bef4-6def601894cd","ios":"levelo://app?vid=3064d7db-7a51-4e85-bef4-6def601894cd"},"vehicle_type_id":"4","last_reported":1752390660,"current_range_meters":8800,"station_id":"ce4bgup2rcd13ifvqco0","pricing_plan_id":"cebpf4jnsgd1na2vs0mg"},{"bike_id":"eb2141ad-6bef-48eb-ad14-a45e8e348e27","system_id":"levelo_inurba_marseille","lat":43.29219,"lon":5.36054,"is_reserved":false,"is_disabled":false,"rental_uris":{"android":"levelo://app?vid=eb2141ad-6bef-48eb-ad14-a45e8e348e27","ios":"levelo://app?vid=eb2141ad-6bef-48eb-ad14-a45e8e348e27"},"vehicle_type_id":"4","last_reported":1752390660,"current_range_meters":8800,"station_id":"ce4bhbh2rcd13ifvqeqg","pricing_plan_id":"cebpf4jnsgd1na2vs0mg"},{"bike_id":"48812dfa-d731-463a-8ecc-dbae1e40e34d","system_id":"levelo_inurba_marseille","lat":43.30247,"lon":5.40061,"is_reserved":false,"is_disabled":false,"rental_uris":{"android":"levelo://app?vid=48812dfa-d731-463a-8ecc-dbae1e40e34d","ios":"levelo://app?vid=48812dfa-d731-463a-8ecc-dbae1e40e34d"},"vehicle_type_id":"4","last_reported":1752390660,"current_range_meters":8800,"station_id":"ce4bgvh2rcd13ifvqcs0","pricing_plan_id":"cebpf4jnsgd1na2vs0mg"},{"bike_id":"21f51f77-8b78-488b-a42e-44d2a504cf11","system_id":"levelo_inurba_marseille","lat":43.241785,"lon":5.364012,"is_reserved":false,"is_disabled":true,"rental_uris":{"android":"levelo://app?vid=21f51f77-8b78-488b-a42e-44d2a504cf11","ios":"levelo://app?vid=21f51f77-8b78-488b-a42e-44d2a504cf11"},"vehicle_type_id":"4","last_reported":1752390660,"current_range_meters":8800,"station_id":"cpo36qri1sfpv3e86is0","pricing_plan_id":"cebpf4jnsgd1na2vs0mg"},{"bike_id":"61198919-e72c-4fce-bc96-126627987dc0","system_id":"levelo_inurba_marseille","lat":43.2959,"lon":5.3785,"is_reserved":false,"is_disabled":false,"rental_uris":{"android":"levelo://app?vid=61198919-e72c-4fce-bc96-126627987dc0","ios":"levelo://app?vid=61198919-e72c-4fce-bc96-126627987dc0"},"vehicle_type_id":"4","last_reported":1752390660,"current_range_meters":8800,"station_id":"","pricing_plan_id":"cebpf4jnsgd1na2vs0mg"},{"bike_id":"e6c47ddc-ff7d-409b-8151-4ebda8746898","system_id":"levelo_inurba_marseille","lat":43.29986,"lon":5.37171,"is_reserved":false,"is_disabled":false,"rental_uris":{"android":"levelo://app?vid=e6c47ddc-ff7d-409b-8151-4ebda8746898","ios":"levelo://app?vid=e6c47ddc-ff7d-409b-8151-4ebda8746898"},"vehicle_type_id":"4","last_reported":1752390660,"current_range_meters":8800,"station_id":"ce4bgr92rcd13ifvqc7g","pricing_plan_id":"cebpf4jnsgd1na2vs0mg"},{"bike_id":"46cacac0-84b7-4c70-a453-a1cb8250fb4d","system_id":"levelo_inurba_marseille","lat":43.33794,"lon":5.37443,"is_reserved":false,"is_disabled":false,"rental_uris":{"android":"levelo://app?vid=46cacac0-84b7-4c70-a453-a1cb8250fb4d","ios":"levelo://app?vid=46cacac0-84b7-4c70-a453-a1cb8250fb4d"},"vehicle_type_id":"4","last_reported":1752390660,"current_range_meters":9200,"station_id":"","pricing_plan_id":"cebpf4jnsgd1na2vs0mg"},{"bike_id":"f18db782-201e-4e02-9468-2a81d86bd33d","system_id":"levelo_inurba_marseille","lat":43.28412,"lon":5.37524,"is_reserved":false,"is_disabled":false,"rental_uris":{"android":"levelo://app?vid=f18db782-201e-4e02-9468-2a81d86bd33d","ios":"levelo://app?vid=f18db782-201e-4e02-9468-2a81d86bd33d"},"vehicle_type_id":"4","last_reported":1752390660,"current_range_meters":9200,"station_id":"ce4bh412rcd13ifvqds0","pricing_plan_id":"cebpf4jnsgd1na2vs0mg"},{"bike_id":"864d1381-1e4e-40e0-8778-4669071a0310","system_id":"levelo_inurba_marseille","lat":43.30327,"lon":5.40432,"is_reserved":false,"is_disabled":false,"rental_uris":{"android":"levelo://app?vid=864d1381-1e4e-40e0-8778-4669071a0310","ios":"levelo://app?vid=864d1381-1e4e-40e0-8778-4669071a0310"},"vehicle_type_id":"4","last_reported":1752390660,"current_range_meters":9200,"station_id":"ce4bh012rcd13ifvqd10","pricing_plan_id":"cebpf4jnsgd1na2vs0mg"},{"bike_id":"dbba3321-20c7-4989-a7b5-ea9ab2c4b3e8","system_id":"levelo_inurba_marseille","lat":43.261935,"lon":5.374477,"is_reserved":false,"is_disabled":true,"rental_uris":{"android":"levelo://app?vid=dbba3321-20c7-4989-a7b5-ea9ab2c4b3e8","ios":"levelo://app?vid=dbba3321-20c7-4989-a7b5-ea9ab2c4b3e8"},"vehicle_type_id":"4","last_reported":1752390660,"current_range_meters":9200,"station_id":"ce4bhgp2rcd13ifvqfc0","pricing_plan_id":"cebpf4jnsgd1na2vs0mg"},{"bike_id":"c453155a-5220-48fc-922b-600ca54f8ab5","system_id":"levelo_inurba_marseille","lat":43.28655,"lon":5.36349,"is_reserved":false,"is_disabled":true,"rental_uris":{"android":"levelo://app?vid=c453155a-5220-48fc-922b-600ca54f8ab5","ios":"levelo://app?vid=c453155a-5220-48fc-922b-600ca54f8ab5"},"vehicle_type_id":"4","last_reported":1752390660,"current_range_meters":9200,"station_id":"ce4bhah2rcd13ifvqej0","pricing_plan_id":"cebpf4jnsgd1na2vs0mg"},{"bike_id":"6b0c0999-3e36-4535-b6b8-97c0d45b9d3f","system_id":"levelo_inurba_marseille","lat":43.311215,"lon":5.377645,"is_reserved":false,"is_disabled":false,"rental_uris":{"android":"levelo://app?vid=6b0c0999-3e36-4535-b6b8-97c0d45b9d3f","ios":"levelo://app?vid=6b0c0999-3e36-4535-b6b8-97c0d45b9d3f"},"vehicle_type_id":"4","last_reported":1752390660,"current_range_meters":9200,"station_id":"ce4bgt92rcd13ifvqcg0","pricing_plan_id":"cebpf4jnsgd1na2vs0mg"},{"bike_id":"d17410a9-9fad-4786-90da-b6ffe751ba28","system_id":"levelo_inurba_marseille","lat":43.28725,"lon":5.39993,"is_reserved":false,"is_disabled":false,"rental_uris":{"android":"levelo://app?vid=d17410a9-9fad-4786-90da-b6ffe751ba28","ios":"levelo://app?vid=d17410a9-9fad-4786-90da-b6ffe751ba28"},"vehicle_type_id":"4","last_reported":1752390660,"current_range_meters":9600,"station_id":"ce4bho92rcd13ifvqh3g","pricing_plan_id":"cebpf4jnsgd1na2vs0mg"},{"bike_id":"696aca5a-f985-42f2-b5f7-74ca3a442dcb","system_id":"levelo_inurba_marseille","lat":43.30902,"lon":5.37147,"is_reserved":false,"is_disabled":false,"rental_uris":{"android":"levelo://app?vid=696aca5a-f985-42f2-b5f7-74ca3a442dcb","ios":"levelo://app?vid=696aca5a-f985-42f2-b5f7-74ca3a442dcb"},"vehicle_type_id":"4","last_reported":1752390660,"current_range_meters":9600,"station_id":"ce4bguh2rcd13ifvqckg","pricing_plan_id":"cebpf4jnsgd1na2vs0mg"},{"bike_id":"cf7ef57a-5217-4557-99d5-746cda46e1d2","system_id":"levelo_inurba_marseille","lat":43.2972,"lon":5.36568,"is_reserved":false,"is_disabled":false,"rental_uris":{"android":"levelo://app?vid=cf7ef57a-5217-4557-99d5-746cda46e1d2","ios":"levelo://app?vid=cf7ef57a-5217-4557-99d5-746cda46e1d2"},"vehicle_type_id":"4","last_reported":1752390660,"current_range_meters":9600,"station_id":"ce4bgn12rcd13ifvqbt0","pricing_plan_id":"cebpf4jnsgd1na2vs0mg"},{"bike_id":"4e18f6a0-cf0a-4e54-823e-14d073e25d70","system_id":"levelo_inurba_marseille","lat":43.280335,"lon":5.369363,"is_reserved":false,"is_disabled":true,"rental_uris":{"android":"levelo://app?vid=4e18f6a0-cf0a-4e54-823e-14d073e25d70","ios":"levelo://app?vid=4e18f6a0-cf0a-4e54-823e-14d073e25d70"},"vehicle_type_id":"4","last_reported":1752390660,"current_range_meters":9600,"station_id":"ce4bha12rcd13ifvqef0","pricing_plan_id":"cebpf4jnsgd1na2vs0mg"},{"bike_id":"755a89ef-2789-4d2c-ba76-23258ced1020","system_id":"levelo_inurba_marseille","lat":43.24168,"lon":5.36398,"is_reserved":false,"is_disabled":false,"rental_uris":{"android":"levelo://app?vid=755a89ef-2789-4d2c-ba76-23258ced1020","ios":"levelo://app?vid=755a89ef-2789-4d2c-ba76-23258ced1020"},"vehicle_type_id":"4","last_reported":1752390660,"current_range_meters":9600,"station_id":"cpo36qri1sfpv3e86is0","pricing_plan_id":"cebpf4jnsgd1na2vs0mg"},{"bike_id":"c816310d-8ff0-4290-b10a-aad431dd902c","system_id":"levelo_inurba_marseille","lat":43.21747,"lon":5.34608,"is_reserved":false,"is_disabled":true,"rental_uris":{"android":"levelo://app?vid=c816310d-8ff0-4290-b10a-aad431dd902c","ios":"levelo://app?vid=c816310d-8ff0-4290-b10a-aad431dd902c"},"vehicle_type_id":"4","last_reported":1752390660,"current_range_meters":10000,"station_id":"st_cvj6r9ubvosntc0bgbag","pricing_plan_id":"cebpf4jnsgd1na2vs0mg"},{"bike_id":"733ab126-5929-4dc3-b27c-d62e8112c232","system_id":"levelo_inurba_marseille","lat":43.292689,"lon":5.401587,"is_reserved":false,"is_disabled":false,"rental_uris":{"android":"levelo://app?vid=733ab126-5929-4dc3-b27c-d62e8112c232","ios":"levelo://app?vid=733ab126-5929-4dc3-b27c-d62e8112c232"},"vehicle_type_id":"4","last_reported":1752390660,"current_range_meters":10000,"station_id":"ce4bh312rcd13ifvqdk0","pricing_plan_id":"cebpf4jnsgd1na2vs0mg"},{"bike_id":"2854adae-f0fd-4a42-8177-b7559cca565e","system_id":"levelo_inurba_marseille","lat":43.308851,"lon":5.371926,"is_reserved":false,"is_disabled":false,"rental_uris":{"android":"levelo://app?vid=2854adae-f0fd-4a42-8177-b7559cca565e","ios":"levelo://app?vid=2854adae-f0fd-4a42-8177-b7559cca565e"},"vehicle_type_id":"4","last_reported":1752390660,"current_range_meters":10000,"station_id":"ce4bguh2rcd13ifvqckg","pricing_plan_id":"cebpf4jnsgd1na2vs0mg"},{"bike_id":"9989fdb0-6ab4-49e3-88e5-2779355d0b5b","system_id":"levelo_inurba_marseille","lat":43.29934,"lon":5.3652,"is_reserved":false,"is_disabled":false,"rental_uris":{"android":"levelo://app?vid=9989fdb0-6ab4-49e3-88e5-2779355d0b5b","ios":"levelo://app?vid=9989fdb0-6ab4-49e3-88e5-2779355d0b5b"},"vehicle_type_id":"4","last_reported":1752390660,"current_range_meters":10000,"station_id":"ce4bgm92rcd13ifvqbr0","pricing_plan_id":"cebpf4jnsgd1na2vs0mg"},{"bike_id":"ee5338dd-18a1-4b48-a5b0-f8c72f7b1319","system_id":"levelo_inurba_marseille","lat":43.31897,"lon":5.36795,"is_reserved":false,"is_disabled":false,"rental_uris":{"android":"levelo://app?vid=ee5338dd-18a1-4b48-a5b0-f8c72f7b1319","ios":"levelo://app?vid=ee5338dd-18a1-4b48-a5b0-f8c72f7b1319"},"vehicle_type_id":"4","last_reported":1752390660,"current_range_meters":10800,"station_id":"","pricing_plan_id":"cebpf4jnsgd1na2vs0mg"},{"bike_id":"d3a6e38c-d49f-4352-88a6-de4e89f5067a","system_id":"levelo_inurba_marseille","lat":43.262205,"lon":5.404527,"is_reserved":false,"is_disabled":false,"rental_uris":{"android":"levelo://app?vid=d3a6e38c-d49f-4352-88a6-de4e89f5067a","ios":"levelo://app?vid=d3a6e38c-d49f-4352-88a6-de4e89f5067a"},"vehicle_type_id":"4","last_reported":1752390660,"current_range_meters":10800,"station_id":"ce4bhmh2rcd13ifvqgmg","pricing_plan_id":"cebpf4jnsgd1na2vs0mg"},{"bike_id":"0baeb617-59ad-4373-8a01-5d4c7b2cea46","system_id":"levelo_inurba_marseille","lat":43.28419,"lon":5.37529,"is_reserved":false,"is_disabled":false,"rental_uris":{"android":"levelo://app?vid=0baeb617-59ad-4373-8a01-5d4c7b2cea46","ios":"levelo://app?vid=0baeb617-59ad-4373-8a01-5d4c7b2cea46"},"vehicle_type_id":"4","last_reported":1752390660,"current_range_meters":10800,"station_id":"ce4bh412rcd13ifvqds0","pricing_plan_id":"cebpf4jnsgd1na2vs0mg"},{"bike_id":"470d1e9d-8c05-40b8-a6b2-039f183b9f6a","system_id":"levelo_inurba_marseille","lat":43.231898,"lon":5.355697,"is_reserved":false,"is_disabled":true,"rental_uris":{"android":"levelo://app?vid=470d1e9d-8c05-40b8-a6b2-039f183b9f6a","ios":"levelo://app?vid=470d1e9d-8c05-40b8-a6b2-039f183b9f6a"},"vehicle_type_id":"4","last_reported":1752390660,"current_range_meters":10800,"station_id":"ce4bhu92rcd13ifvqi70","pricing_plan_id":"cebpf4jnsgd1na2vs0mg"},{"bike_id":"7bb2812a-b96e-400f-831c-7b8a97727eef","system_id":"levelo_inurba_marseille","lat":43.317081,"lon":5.377576,"is_reserved":false,"is_disabled":false,"rental_uris":{"android":"levelo://app?vid=7bb2812a-b96e-400f-831c-7b8a97727eef","ios":"levelo://app?vid=7bb2812a-b96e-400f-831c-7b8a97727eef"},"vehicle_type_id":"4","last_reported":1752390660,"current_range_meters":11200,"station_id":"ce4bgth2rcd13ifvqch0","pricing_plan_id":"cebpf4jnsgd1na2vs0mg"},{"bike_id":"7f02047d-a6cd-43f4-a617-996f2b9a8bc8","system_id":"levelo_inurba_marseille","lat":43.323568,"lon":5.367488,"is_reserved":false,"is_disabled":false,"rental_uris":{"android":"levelo://app?vid=7f02047d-a6cd-43f4-a617-996f2b9a8bc8","ios":"levelo://app?vid=7f02047d-a6cd-43f4-a617-996f2b9a8bc8"},"vehicle_type_id":"4","last_reported":1752390660,"current_range_meters":11200,"station_id":"ce4bhsh2rcd13ifvqi2g","pricing_plan_id":"cebpf4jnsgd1na2vs0mg"},{"bike_id":"d8b7af91-d035-47ef-81a8-b871b77bd9d4","system_id":"levelo_inurba_marseille","lat":43.299,"lon":5.43664,"is_reserved":false,"is_disabled":false,"rental_uris":{"android":"levelo://app?vid=d8b7af91-d035-47ef-81a8-b871b77bd9d4","ios":"levelo://app?vid=d8b7af91-d035-47ef-81a8-b871b77bd9d4"},"vehicle_type_id":"4","last_reported":1752390660,"current_range_meters":11200,"station_id":"ce4bhpp2rcd13ifvqhfg","pricing_plan_id":"cebpf4jnsgd1na2vs0mg"},{"bike_id":"383a2485-518e-4235-b1cd-0ebf65ba74a5","system_id":"levelo_inurba_marseille","lat":43.29522,"lon":5.38532,"is_reserved":false,"is_disabled":true,"rental_uris":{"android":"levelo://app?vid=383a2485-518e-4235-b1cd-0ebf65ba74a5","ios":"levelo://app?vid=383a2485-518e-4235-b1cd-0ebf65ba74a5"},"vehicle_type_id":"4","last_reported":1752390660,"current_range_meters":11200,"station_id":"ce4bgih2rcd13ifvqba0","pricing_plan_id":"cebpf4jnsgd1na2vs0mg"},{"bike_id":"a2d82a2f-d37e-468c-bc43-b3bcf1bfcc9f","system_id":"levelo_inurba_marseille","lat":43.30325,"lon":5.40436,"is_reserved":false,"is_disabled":false,"rental_uris":{"android":"levelo://app?vid=a2d82a2f-d37e-468c-bc43-b3bcf1bfcc9f","ios":"levelo://app?vid=a2d82a2f-d37e-468c-bc43-b3bcf1bfcc9f"},"vehicle_type_id":"4","last_reported":1752390660,"current_range_meters":11200,"station_id":"ce4bh012rcd13ifvqd10","pricing_plan_id":"cebpf4jnsgd1na2vs0mg"},{"bike_id":"bfc63523-260e-4c28-bb06-2a8ea7522c16","system_id":"levelo_inurba_marseille","lat":43.31332,"lon":5.39691,"is_reserved":false,"is_disabled":false,"rental_uris":{"android":"levelo://app?vid=bfc63523-260e-4c28-bb06-2a8ea7522c16","ios":"levelo://app?vid=bfc63523-260e-4c28-bb06-2a8ea7522c16"},"vehicle_type_id":"4","last_reported":1752390660,"current_range_meters":11200,"station_id":"ce4bgvp2rcd13ifvqcu0","pricing_plan_id":"cebpf4jnsgd1na2vs0mg"},{"bike_id":"2c01c085-a118-4b6b-9ba6-2000ce1f20ec","system_id":"levelo_inurba_marseille","lat":43.28713,"lon":5.37934,"is_reserved":false,"is_disabled":false,"rental_uris":{"android":"levelo://app?vid=2c01c085-a118-4b6b-9ba6-2000ce1f20ec","ios":"levelo://app?vid=2c01c085-a118-4b6b-9ba6-2000ce1f20ec"},"vehicle_type_id":"4","last_reported":1752390660,"current_range_meters":11200,"station_id":"ce4bh9p2rcd13ifvqec0","pricing_plan_id":"cebpf4jnsgd1na2vs0mg"},{"bike_id":"737ead6f-e608-42f1-8a55-8949c954e8e3","system_id":"levelo_inurba_marseille","lat":43.21193,"lon":5.35066,"is_reserved":false,"is_disabled":false,"rental_uris":{"android":"levelo://app?vid=737ead6f-e608-42f1-8a55-8949c954e8e3","ios":"levelo://app?vid=737ead6f-e608-42f1-8a55-8949c954e8e3"},"vehicle_type_id":"4","last_reported":1752390660,"current_range_meters":11200,"station_id":"st_cvj6sg6p6f1abm77japg","pricing_plan_id":"cebpf4jnsgd1na2vs0mg"},{"bike_id":"e7aff35c-4ebc-4620-9732-04d18fefa3e8","system_id":"levelo_inurba_marseille","lat":43.21774,"lon":5.34603,"is_reserved":false,"is_disabled":false,"rental_uris":{"android":"levelo://app?vid=e7aff35c-4ebc-4620-9732-04d18fefa3e8","ios":"levelo://app?vid=e7aff35c-4ebc-4620-9732-04d18fefa3e8"},"vehicle_type_id":"4","last_reported":1752390660,"current_range_meters":11200,"station_id":"","pricing_plan_id":"cebpf4jnsgd1na2vs0mg"},{"bike_id":"0724c4fd-ecf7-44df-8cff-4ac099b0ee10","system_id":"levelo_inurba_marseille","lat":43.24173,"lon":5.36383,"is_reserved":false,"is_disabled":false,"rental_uris":{"android":"levelo://app?vid=0724c4fd-ecf7-44df-8cff-4ac099b0ee10","ios":"levelo://app?vid=0724c4fd-ecf7-44df-8cff-4ac099b0ee10"},"vehicle_type_id":"4","last_reported":1752390660,"current_range_meters":11600,"station_id":"cpo36qri1sfpv3e86is0","pricing_plan_id":"cebpf4jnsgd1na2vs0mg"},{"bike_id":"51890362-46b0-4ee7-9f02-afbf036d064e","system_id":"levelo_inurba_marseille","lat":43.211935,"lon":5.350704,"is_reserved":false,"is_disabled":false,"rental_uris":{"android":"levelo://app?vid=51890362-46b0-4ee7-9f02-afbf036d064e","ios":"levelo://app?vid=51890362-46b0-4ee7-9f02-afbf036d064e"},"vehicle_type_id":"4","last_reported":1752390660,"current_range_meters":11600,"station_id":"st_cvj6sg6p6f1abm77japg","pricing_plan_id":"cebpf4jnsgd1na2vs0mg"},{"bike_id":"c4159d35-3997-4d22-8b07-70d50dce5087","system_id":"levelo_inurba_marseille","lat":43.24173,"lon":5.39726,"is_reserved":false,"is_disabled":false,"rental_uris":{"android":"levelo://app?vid=c4159d35-3997-4d22-8b07-70d50dce5087","ios":"levelo://app?vid=c4159d35-3997-4d22-8b07-70d50dce5087"},"vehicle_type_id":"4","last_reported":1752390660,"current_range_meters":11600,"station_id":"ce4bhn12rcd13ifvqgpg","pricing_plan_id":"cebpf4jnsgd1na2vs0mg"},{"bike_id":"1432643b-da75-43c0-9c7e-6ace76e9c02c","system_id":"levelo_inurba_marseille","lat":43.24386,"lon":5.37056,"is_reserved":false,"is_disabled":false,"rental_uris":{"android":"levelo://app?vid=1432643b-da75-43c0-9c7e-6ace76e9c02c","ios":"levelo://app?vid=1432643b-da75-43c0-9c7e-6ace76e9c02c"},"vehicle_type_id":"4","last_reported":1752390660,"current_range_meters":12000,"station_id":"ce4bhhh2rcd13ifvqfk0","pricing_plan_id":"cebpf4jnsgd1na2vs0mg"},{"bike_id":"9d002852-5dba-4c52-ad2f-fe3a84cbdcfc","system_id":"levelo_inurba_marseille","lat":43.28002,"lon":5.41665,"is_reserved":false,"is_disabled":false,"rental_uris":{"android":"levelo://app?vid=9d002852-5dba-4c52-ad2f-fe3a84cbdcfc","ios":"levelo://app?vid=9d002852-5dba-4c52-ad2f-fe3a84cbdcfc"},"vehicle_type_id":"4","last_reported":1752390660,"current_range_meters":12000,"station_id":"ce4bho12rcd13ifvqh1g","pricing_plan_id":"cebpf4jnsgd1na2vs0mg"},{"bike_id":"3d606fdc-f6da-4bfc-a559-196d7d7a114e","system_id":"levelo_inurba_marseille","lat":43.250066,"lon":5.389346,"is_reserved":false,"is_disabled":true,"rental_uris":{"android":"levelo://app?vid=3d606fdc-f6da-4bfc-a559-196d7d7a114e","ios":"levelo://app?vid=3d606fdc-f6da-4bfc-a559-196d7d7a114e"},"vehicle_type_id":"4","last_reported":1752390660,"current_range_meters":12000,"station_id":"ce4bhgp2rcd13ifvqfd0","pricing_plan_id":"cebpf4jnsgd1na2vs0mg"},{"bike_id":"747c0a1e-be69-4fb2-8930-1177e863a846","system_id":"levelo_inurba_marseille","lat":43.308872,"lon":5.371885,"is_reserved":false,"is_disabled":false,"rental_uris":{"android":"levelo://app?vid=747c0a1e-be69-4fb2-8930-1177e863a846","ios":"levelo://app?vid=747c0a1e-be69-4fb2-8930-1177e863a846"},"vehicle_type_id":"4","last_reported":1752390660,"current_range_meters":12000,"station_id":"ce4bguh2rcd13ifvqckg","pricing_plan_id":"cebpf4jnsgd1na2vs0mg"},{"bike_id":"8f27528a-10a4-4f68-9e38-3dc17f27b3f6","system_id":"levelo_inurba_marseille","lat":43.30372,"lon":5.425,"is_reserved":false,"is_disabled":false,"rental_uris":{"android":"levelo://app?vid=8f27528a-10a4-4f68-9e38-3dc17f27b3f6","ios":"levelo://app?vid=8f27528a-10a4-4f68-9e38-3dc17f27b3f6"},"vehicle_type_id":"4","last_reported":1752390660,"current_range_meters":12000,"station_id":"ce4bhoh2rcd13ifvqh6g","pricing_plan_id":"cebpf4jnsgd1na2vs0mg"},{"bike_id":"49801dc2-618a-44b8-84ae-416cd87fdbe9","system_id":"levelo_inurba_marseille","lat":43.33774,"lon":5.37489,"is_reserved":false,"is_disabled":false,"rental_uris":{"android":"levelo://app?vid=49801dc2-618a-44b8-84ae-416cd87fdbe9","ios":"levelo://app?vid=49801dc2-618a-44b8-84ae-416cd87fdbe9"},"vehicle_type_id":"4","last_reported":1752390660,"current_range_meters":12000,"station_id":"","pricing_plan_id":"cebpf4jnsgd1na2vs0mg"},{"bike_id":"a9df037e-f293-440d-80e1-7db5c18d6e68","system_id":"levelo_inurba_marseille","lat":43.28262,"lon":5.3506,"is_reserved":false,"is_disabled":false,"rental_uris":{"android":"levelo://app?vid=a9df037e-f293-440d-80e1-7db5c18d6e68","ios":"levelo://app?vid=a9df037e-f293-440d-80e1-7db5c18d6e68"},"vehicle_type_id":"4","last_reported":1752390660,"current_range_meters":12000,"station_id":"ce4bhbp2rcd13ifvqerg","pricing_plan_id":"cebpf4jnsgd1na2vs0mg"},{"bike_id":"a0137104-c9f4-434a-a5e3-80725cd5a2b4","system_id":"levelo_inurba_marseille","lat":43.2122,"lon":5.35078,"is_reserved":false,"is_disabled":false,"rental_uris":{"android":"levelo://app?vid=a0137104-c9f4-434a-a5e3-80725cd5a2b4","ios":"levelo://app?vid=a0137104-c9f4-434a-a5e3-80725cd5a2b4"},"vehicle_type_id":"4","last_reported":1752390660,"current_range_meters":12000,"station_id":"st_cvj6sg6p6f1abm77japg","pricing_plan_id":"cebpf4jnsgd1na2vs0mg"},{"bike_id":"84761d97-9b88-4141-8a33-ed6b0e0263fe","system_id":"levelo_inurba_marseille","lat":43.261748,"lon":5.401691,"is_reserved":false,"is_disabled":false,"rental_uris":{"android":"levelo://app?vid=84761d97-9b88-4141-8a33-ed6b0e0263fe","ios":"levelo://app?vid=84761d97-9b88-4141-8a33-ed6b0e0263fe"},"vehicle_type_id":"4","last_reported":1752390660,"current_range_meters":12400,"station_id":"","pricing_plan_id":"cebpf4jnsgd1na2vs0mg"},{"bike_id":"00bc0b3b-e317-4a17-a011-a3a9a29d816a","system_id":"levelo_inurba_marseille","lat":43.211943,"lon":5.350694,"is_reserved":false,"is_disabled":false,"rental_uris":{"android":"levelo://app?vid=00bc0b3b-e317-4a17-a011-a3a9a29d816a","ios":"levelo://app?vid=00bc0b3b-e317-4a17-a011-a3a9a29d816a"},"vehicle_type_id":"4","last_reported":1752390660,"current_range_meters":12400,"station_id":"st_cvj6sg6p6f1abm77japg","pricing_plan_id":"cebpf4jnsgd1na2vs0mg"},{"bike_id":"11f46ca2-23ee-4f2a-83a5-008959742fbd","system_id":"levelo_inurba_marseille","lat":43.24653,"lon":5.38141,"is_reserved":false,"is_disabled":false,"rental_uris":{"android":"levelo://app?vid=11f46ca2-23ee-4f2a-83a5-008959742fbd","ios":"levelo://app?vid=11f46ca2-23ee-4f2a-83a5-008959742fbd"},"vehicle_type_id":"4","last_reported":1752390660,"current_range_meters":12400,"station_id":"ce4bhih2rcd13ifvqfr0","pricing_plan_id":"cebpf4jnsgd1na2vs0mg"},{"bike_id":"016a0553-daa1-434d-8dba-ff1fbded5db8","system_id":"levelo_inurba_marseille","lat":43.22474,"lon":5.34816,"is_reserved":false,"is_disabled":false,"rental_uris":{"android":"levelo://app?vid=016a0553-daa1-434d-8dba-ff1fbded5db8","ios":"levelo://app?vid=016a0553-daa1-434d-8dba-ff1fbded5db8"},"vehicle_type_id":"4","last_reported":1752390660,"current_range_meters":12400,"station_id":"st_cvj5dfep6f1abm77gieg","pricing_plan_id":"cebpf4jnsgd1na2vs0mg"},{"bike_id":"b8cd8c38-4d88-48b2-abb3-ece961dbda2a","system_id":"levelo_inurba_marseille","lat":43.30631,"lon":5.40069,"is_reserved":false,"is_disabled":false,"rental_uris":{"android":"levelo://app?vid=b8cd8c38-4d88-48b2-abb3-ece961dbda2a","ios":"levelo://app?vid=b8cd8c38-4d88-48b2-abb3-ece961dbda2a"},"vehicle_type_id":"4","last_reported":1752390660,"current_range_meters":12400,"station_id":"ce4bh112rcd13ifvqda0","pricing_plan_id":"cebpf4jnsgd1na2vs0mg"},{"bike_id":"d7d851de-d966-47dc-9bd8-1a9ae0c433a4","system_id":"levelo_inurba_marseille","lat":43.22515,"lon":5.34809,"is_reserved":false,"is_disabled":false,"rental_uris":{"android":"levelo://app?vid=d7d851de-d966-47dc-9bd8-1a9ae0c433a4","ios":"levelo://app?vid=d7d851de-d966-47dc-9bd8-1a9ae0c433a4"},"vehicle_type_id":"4","last_reported":1752390660,"current_range_meters":12400,"station_id":"st_cvj5dfep6f1abm77gieg","pricing_plan_id":"cebpf4jnsgd1na2vs0mg"},{"bike_id":"31f76825-7b9f-439a-a66c-521eb63e58c1","system_id":"levelo_inurba_marseille","lat":43.294626,"lon":5.438462,"is_reserved":false,"is_disabled":false,"rental_uris":{"android":"levelo://app?vid=31f76825-7b9f-439a-a66c-521eb63e58c1","ios":"levelo://app?vid=31f76825-7b9f-439a-a66c-521eb63e58c1"},"vehicle_type_id":"4","last_reported":1752390660,"current_range_meters":12400,"station_id":"","pricing_plan_id":"cebpf4jnsgd1na2vs0mg"},{"bike_id":"46ce7424-8151-41ba-a046-0c68273c2c8e","system_id":"levelo_inurba_marseille","lat":43.292307,"lon":5.365804,"is_reserved":false,"is_disabled":false,"rental_uris":{"android":"levelo://app?vid=46ce7424-8151-41ba-a046-0c68273c2c8e","ios":"levelo://app?vid=46ce7424-8151-41ba-a046-0c68273c2c8e"},"vehicle_type_id":"4","last_reported":1752390660,"current_range_meters":12800,"station_id":"","pricing_plan_id":"cebpf4jnsgd1na2vs0mg"},{"bike_id":"4ab460f6-2b13-462f-a8b8-8ee3ec6489ea","system_id":"levelo_inurba_marseille","lat":43.262296,"lon":5.404528,"is_reserved":false,"is_disabled":false,"rental_uris":{"android":"levelo://app?vid=4ab460f6-2b13-462f-a8b8-8ee3ec6489ea","ios":"levelo://app?vid=4ab460f6-2b13-462f-a8b8-8ee3ec6489ea"},"vehicle_type_id":"4","last_reported":1752390660,"current_range_meters":12800,"station_id":"ce4bhmh2rcd13ifvqgmg","pricing_plan_id":"cebpf4jnsgd1na2vs0mg"},{"bike_id":"262c7e76-2e28-4d55-b6be-af79e74bb9c9","system_id":"levelo_inurba_marseille","lat":43.32268,"lon":5.36953,"is_reserved":false,"is_disabled":false,"rental_uris":{"android":"levelo://app?vid=262c7e76-2e28-4d55-b6be-af79e74bb9c9","ios":"levelo://app?vid=262c7e76-2e28-4d55-b6be-af79e74bb9c9"},"vehicle_type_id":"4","last_reported":1752390660,"current_range_meters":13600,"station_id":"","pricing_plan_id":"cebpf4jnsgd1na2vs0mg"},{"bike_id":"c99d2c69-5da6-4cb8-84aa-4fb1d2aeb96d","system_id":"levelo_inurba_marseille","lat":43.296279,"lon":5.406062,"is_reserved":false,"is_disabled":false,"rental_uris":{"android":"levelo://app?vid=c99d2c69-5da6-4cb8-84aa-4fb1d2aeb96d","ios":"levelo://app?vid=c99d2c69-5da6-4cb8-84aa-4fb1d2aeb96d"},"vehicle_type_id":"4","last_reported":1752390660,"current_range_meters":13600,"station_id":"ce4bh0h2rcd13ifvqd60","pricing_plan_id":"cebpf4jnsgd1na2vs0mg"},{"bike_id":"8b37f03f-f226-4bbc-8648-b109da7ba145","system_id":"levelo_inurba_marseille","lat":43.30536,"lon":5.366999,"is_reserved":false,"is_disabled":false,"rental_uris":{"android":"levelo://app?vid=8b37f03f-f226-4bbc-8648-b109da7ba145","ios":"levelo://app?vid=8b37f03f-f226-4bbc-8648-b109da7ba145"},"vehicle_type_id":"4","last_reported":1752390660,"current_range_meters":13600,"station_id":"","pricing_plan_id":"cebpf4jnsgd1na2vs0mg"},{"bike_id":"c10179e4-376c-425c-867e-34687d207f2a","system_id":"levelo_inurba_marseille","lat":43.32483,"lon":5.36568,"is_reserved":false,"is_disabled":false,"rental_uris":{"android":"levelo://app?vid=c10179e4-376c-425c-867e-34687d207f2a","ios":"levelo://app?vid=c10179e4-376c-425c-867e-34687d207f2a"},"vehicle_type_id":"4","last_reported":1752390660,"current_range_meters":13600,"station_id":"ce4bhs12rcd13ifvqhvg","pricing_plan_id":"cebpf4jnsgd1na2vs0mg"},{"bike_id":"8f910bb0-4d17-4114-bb90-0265a46eb675","system_id":"levelo_inurba_marseille","lat":43.317084,"lon":5.377695,"is_reserved":false,"is_disabled":false,"rental_uris":{"android":"levelo://app?vid=8f910bb0-4d17-4114-bb90-0265a46eb675","ios":"levelo://app?vid=8f910bb0-4d17-4114-bb90-0265a46eb675"},"vehicle_type_id":"4","last_reported":1752390660,"current_range_meters":13600,"station_id":"ce4bgth2rcd13ifvqch0","pricing_plan_id":"cebpf4jnsgd1na2vs0mg"},{"bike_id":"ca52a39d-38bb-4e30-baa8-19f0da3a8f7e","system_id":"levelo_inurba_marseille","lat":43.25132,"lon":5.403357,"is_reserved":false,"is_disabled":false,"rental_uris":{"android":"levelo://app?vid=ca52a39d-38bb-4e30-baa8-19f0da3a8f7e","ios":"levelo://app?vid=ca52a39d-38bb-4e30-baa8-19f0da3a8f7e"},"vehicle_type_id":"4","last_reported":1752390660,"current_range_meters":13600,"station_id":"ce4bhlh2rcd13ifvqgig","pricing_plan_id":"cebpf4jnsgd1na2vs0mg"},{"bike_id":"5ff3a6be-7bef-40dd-88c3-f173238ca88d","system_id":"levelo_inurba_marseille","lat":43.292725,"lon":5.368383,"is_reserved":false,"is_disabled":false,"rental_uris":{"android":"levelo://app?vid=5ff3a6be-7bef-40dd-88c3-f173238ca88d","ios":"levelo://app?vid=5ff3a6be-7bef-40dd-88c3-f173238ca88d"},"vehicle_type_id":"4","last_reported":1752390660,"current_range_meters":14000,"station_id":"","pricing_plan_id":"cebpf4jnsgd1na2vs0mg"},{"bike_id":"4b8da722-ee9e-48a4-a5e5-3a8a10364708","system_id":"levelo_inurba_marseille","lat":43.312443,"lon":5.378179,"is_reserved":false,"is_disabled":false,"rental_uris":{"android":"levelo://app?vid=4b8da722-ee9e-48a4-a5e5-3a8a10364708","ios":"levelo://app?vid=4b8da722-ee9e-48a4-a5e5-3a8a10364708"},"vehicle_type_id":"4","last_reported":1752390660,"current_range_meters":14000,"station_id":"","pricing_plan_id":"cebpf4jnsgd1na2vs0mg"},{"bike_id":"f23760ff-ab61-4853-aa67-28aac93822c1","system_id":"levelo_inurba_marseille","lat":43.337444,"lon":5.374475,"is_reserved":false,"is_disabled":false,"rental_uris":{"android":"levelo://app?vid=f23760ff-ab61-4853-aa67-28aac93822c1","ios":"levelo://app?vid=f23760ff-ab61-4853-aa67-28aac93822c1"},"vehicle_type_id":"4","last_reported":1752390660,"current_range_meters":14000,"station_id":"","pricing_plan_id":"cebpf4jnsgd1na2vs0mg"},{"bike_id":"b105f991-1563-4fc4-9371-7364ce9b8c80","system_id":"levelo_inurba_marseille","lat":43.287285,"lon":5.395579,"is_reserved":false,"is_disabled":false,"rental_uris":{"android":"levelo://app?vid=b105f991-1563-4fc4-9371-7364ce9b8c80","ios":"levelo://app?vid=b105f991-1563-4fc4-9371-7364ce9b8c80"},"vehicle_type_id":"4","last_reported":1752390660,"current_range_meters":14000,"station_id":"","pricing_plan_id":"cebpf4jnsgd1na2vs0mg"},{"bike_id":"9a72d1fd-ba0d-40b8-85c2-0a32bee82c5a","system_id":"levelo_inurba_marseille","lat":43.285733,"lon":5.402339,"is_reserved":false,"is_disabled":false,"rental_uris":{"android":"levelo://app?vid=9a72d1fd-ba0d-40b8-85c2-0a32bee82c5a","ios":"levelo://app?vid=9a72d1fd-ba0d-40b8-85c2-0a32bee82c5a"},"vehicle_type_id":"4","last_reported":1752390660,"current_range_meters":14000,"station_id":"","pricing_plan_id":"cebpf4jnsgd1na2vs0mg"},{"bike_id":"10ae3082-1643-4af7-9ad2-1a046f05c80c","system_id":"levelo_inurba_marseille","lat":43.21753,"lon":5.34601,"is_reserved":false,"is_disabled":false,"rental_uris":{"android":"levelo://app?vid=10ae3082-1643-4af7-9ad2-1a046f05c80c","ios":"levelo://app?vid=10ae3082-1643-4af7-9ad2-1a046f05c80c"},"vehicle_type_id":"4","last_reported":1752390660,"current_range_meters":14400,"station_id":"","pricing_plan_id":"cebpf4jnsgd1na2vs0mg"},{"bike_id":"b8c31bb8-e8f4-4036-8fa5-5b3756ba71ba","system_id":"levelo_inurba_marseille","lat":43.29582,"lon":5.37521,"is_reserved":false,"is_disabled":false,"rental_uris":{"android":"levelo://app?vid=b8c31bb8-e8f4-4036-8fa5-5b3756ba71ba","ios":"levelo://app?vid=b8c31bb8-e8f4-4036-8fa5-5b3756ba71ba"},"vehicle_type_id":"4","last_reported":1752390660,"current_range_meters":14400,"station_id":"ce4bgh92rcd13ifvqb50","pricing_plan_id":"cebpf4jnsgd1na2vs0mg"},{"bike_id":"6d3f299a-d341-49bc-a1f9-7534528d9b67","system_id":"levelo_inurba_marseille","lat":43.231915,"lon":5.355571,"is_reserved":false,"is_disabled":false,"rental_uris":{"android":"levelo://app?vid=6d3f299a-d341-49bc-a1f9-7534528d9b67","ios":"levelo://app?vid=6d3f299a-d341-49bc-a1f9-7534528d9b67"},"vehicle_type_id":"4","last_reported":1752390660,"current_range_meters":14400,"station_id":"ce4bhu92rcd13ifvqi70","pricing_plan_id":"cebpf4jnsgd1na2vs0mg"},{"bike_id":"1246340e-7ba7-4d4f-989b-650db36f2055","system_id":"levelo_inurba_marseille","lat":43.29568,"lon":5.42282,"is_reserved":false,"is_disabled":false,"rental_uris":{"android":"levelo://app?vid=1246340e-7ba7-4d4f-989b-650db36f2055","ios":"levelo://app?vid=1246340e-7ba7-4d4f-989b-650db36f2055"},"vehicle_type_id":"4","last_reported":1752390660,"current_range_meters":14400,"station_id":"ce4bhph2rcd13ifvqhdg","pricing_plan_id":"cebpf4jnsgd1na2vs0mg"},{"bike_id":"64e0382f-4f5c-404c-ad2d-9b448c9834f1","system_id":"levelo_inurba_marseille","lat":43.311174,"lon":5.377661,"is_reserved":false,"is_disabled":false,"rental_uris":{"android":"levelo://app?vid=64e0382f-4f5c-404c-ad2d-9b448c9834f1","ios":"levelo://app?vid=64e0382f-4f5c-404c-ad2d-9b448c9834f1"},"vehicle_type_id":"4","last_reported":1752390660,"current_range_meters":14400,"station_id":"ce4bgt92rcd13ifvqcg0","pricing_plan_id":"cebpf4jnsgd1na2vs0mg"},{"bike_id":"c1d0629c-eaee-41e7-8c10-68b0ec1b077d","system_id":"levelo_inurba_marseille","lat":43.327622,"lon":5.391083,"is_reserved":false,"is_disabled":false,"rental_uris":{"android":"levelo://app?vid=c1d0629c-eaee-41e7-8c10-68b0ec1b077d","ios":"levelo://app?vid=c1d0629c-eaee-41e7-8c10-68b0ec1b077d"},"vehicle_type_id":"4","last_reported":1752390660,"current_range_meters":14400,"station_id":"","pricing_plan_id":"cebpf4jnsgd1na2vs0mg"},{"bike_id":"497f4d00-c1e4-4a12-bd02-011d71387baa","system_id":"levelo_inurba_marseille","lat":43.30422,"lon":5.38882,"is_reserved":false,"is_disabled":false,"rental_uris":{"android":"levelo://app?vid=497f4d00-c1e4-4a12-bd02-011d71387baa","ios":"levelo://app?vid=497f4d00-c1e4-4a12-bd02-011d71387baa"},"vehicle_type_id":"4","last_reported":1752390660,"current_range_meters":14800,"station_id":"ce4bgk12rcd13ifvqbi0","pricing_plan_id":"cebpf4jnsgd1na2vs0mg"},{"bike_id":"d1a1a848-949f-4b51-b14c-0f5e89cd420b","system_id":"levelo_inurba_marseille","lat":43.288336,"lon":5.387789,"is_reserved":false,"is_disabled":false,"rental_uris":{"android":"levelo://app?vid=d1a1a848-949f-4b51-b14c-0f5e89cd420b","ios":"levelo://app?vid=d1a1a848-949f-4b51-b14c-0f5e89cd420b"},"vehicle_type_id":"4","last_reported":1752390660,"current_range_meters":14800,"station_id":"ce4bh4p2rcd13ifvqe0g","pricing_plan_id":"cebpf4jnsgd1na2vs0mg"},{"bike_id":"7f9cdf24-06d5-4966-a653-209a5c486322","system_id":"levelo_inurba_marseille","lat":43.30216,"lon":5.40143,"is_reserved":false,"is_disabled":false,"rental_uris":{"android":"levelo://app?vid=7f9cdf24-06d5-4966-a653-209a5c486322","ios":"levelo://app?vid=7f9cdf24-06d5-4966-a653-209a5c486322"},"vehicle_type_id":"4","last_reported":1752390660,"current_range_meters":14800,"station_id":"","pricing_plan_id":"cebpf4jnsgd1na2vs0mg"},{"bike_id":"03d40799-ba8e-4a75-bddf-f3269f9a0698","system_id":"levelo_inurba_marseille","lat":43.27943,"lon":5.41033,"is_reserved":false,"is_disabled":false,"rental_uris":{"android":"levelo://app?vid=03d40799-ba8e-4a75-bddf-f3269f9a0698","ios":"levelo://app?vid=03d40799-ba8e-4a75-bddf-f3269f9a0698"},"vehicle_type_id":"4","last_reported":1752390660,"current_range_meters":14800,"station_id":"ce4bhnp2rcd13ifvqh0g","pricing_plan_id":"cebpf4jnsgd1na2vs0mg"},{"bike_id":"f83a1ac2-2158-4a8d-a3a6-5f71226f0918","system_id":"levelo_inurba_marseille","lat":43.310002,"lon":5.370106,"is_reserved":false,"is_disabled":false,"rental_uris":{"android":"levelo://app?vid=f83a1ac2-2158-4a8d-a3a6-5f71226f0918","ios":"levelo://app?vid=f83a1ac2-2158-4a8d-a3a6-5f71226f0918"},"vehicle_type_id":"4","last_reported":1752390660,"current_range_meters":15200,"station_id":"","pricing_plan_id":"cebpf4jnsgd1na2vs0mg"},{"bike_id":"a44f68aa-b920-4eb6-845e-df1183944a6b","system_id":"levelo_inurba_marseille","lat":43.285676,"lon":5.350601,"is_reserved":false,"is_disabled":true,"rental_uris":{"android":"levelo://app?vid=a44f68aa-b920-4eb6-845e-df1183944a6b","ios":"levelo://app?vid=a44f68aa-b920-4eb6-845e-df1183944a6b"},"vehicle_type_id":"4","last_reported":1752390660,"current_range_meters":15200,"station_id":"","pricing_plan_id":"cebpf4jnsgd1na2vs0mg"},{"bike_id":"e2ce6e8a-ef9f-4211-8776-042780e4931d","system_id":"levelo_inurba_marseille","lat":43.284276,"lon":5.349853,"is_reserved":false,"is_disabled":true,"rental_uris":{"android":"levelo://app?vid=e2ce6e8a-ef9f-4211-8776-042780e4931d","ios":"levelo://app?vid=e2ce6e8a-ef9f-4211-8776-042780e4931d"},"vehicle_type_id":"4","last_reported":1752390660,"current_range_meters":15200,"station_id":"ce4bhbh2rcd13ifvqepg","pricing_plan_id":"cebpf4jnsgd1na2vs0mg"},{"bike_id":"77bfc87a-7d40-4a12-a98a-a968fc6e780e","system_id":"levelo_inurba_marseille","lat":43.30203,"lon":5.39478,"is_reserved":false,"is_disabled":false,"rental_uris":{"android":"levelo://app?vid=77bfc87a-7d40-4a12-a98a-a968fc6e780e","ios":"levelo://app?vid=77bfc87a-7d40-4a12-a98a-a968fc6e780e"},"vehicle_type_id":"4","last_reported":1752390660,"current_range_meters":16000,"station_id":"ce4bh0p2rcd13ifvqd70","pricing_plan_id":"cebpf4jnsgd1na2vs0mg"},{"bike_id":"0c1249a9-581f-45d5-a449-324c436c6465","system_id":"levelo_inurba_marseille","lat":43.24671,"lon":5.38148,"is_reserved":false,"is_disabled":false,"rental_uris":{"android":"levelo://app?vid=0c1249a9-581f-45d5-a449-324c436c6465","ios":"levelo://app?vid=0c1249a9-581f-45d5-a449-324c436c6465"},"vehicle_type_id":"4","last_reported":1752390660,"current_range_meters":16000,"station_id":"ce4bhih2rcd13ifvqfr0","pricing_plan_id":"cebpf4jnsgd1na2vs0mg"},{"bike_id":"63310cfb-531f-4741-8727-73a65cfd38d3","system_id":"levelo_inurba_marseille","lat":43.2559,"lon":5.38235,"is_reserved":false,"is_disabled":false,"rental_uris":{"android":"levelo://app?vid=63310cfb-531f-4741-8727-73a65cfd38d3","ios":"levelo://app?vid=63310cfb-531f-4741-8727-73a65cfd38d3"},"vehicle_type_id":"4","last_reported":1752390660,"current_range_meters":16000,"station_id":"ce4bhih2rcd13ifvqfs0","pricing_plan_id":"cebpf4jnsgd1na2vs0mg"},{"bike_id":"5d2e7aad-0a21-4598-93c2-a1d014fc322f","system_id":"levelo_inurba_marseille","lat":43.2417,"lon":5.39724,"is_reserved":false,"is_disabled":false,"rental_uris":{"android":"levelo://app?vid=5d2e7aad-0a21-4598-93c2-a1d014fc322f","ios":"levelo://app?vid=5d2e7aad-0a21-4598-93c2-a1d014fc322f"},"vehicle_type_id":"4","last_reported":1752390660,"current_range_meters":16000,"station_id":"ce4bhn12rcd13ifvqgpg","pricing_plan_id":"cebpf4jnsgd1na2vs0mg"},{"bike_id":"f70d4eb7-0483-4b22-b4af-6857c0805839","system_id":"levelo_inurba_marseille","lat":43.29908,"lon":5.38123,"is_reserved":false,"is_disabled":true,"rental_uris":{"android":"levelo://app?vid=f70d4eb7-0483-4b22-b4af-6857c0805839","ios":"levelo://app?vid=f70d4eb7-0483-4b22-b4af-6857c0805839"},"vehicle_type_id":"4","last_reported":1752390660,"current_range_meters":16000,"station_id":"ce4bgj12rcd13ifvqbc0","pricing_plan_id":"cebpf4jnsgd1na2vs0mg"},{"bike_id":"f9924005-c8ac-4086-8e25-9a21391f65ea","system_id":"levelo_inurba_marseille","lat":43.211899,"lon":5.350729,"is_reserved":false,"is_disabled":false,"rental_uris":{"android":"levelo://app?vid=f9924005-c8ac-4086-8e25-9a21391f65ea","ios":"levelo://app?vid=f9924005-c8ac-4086-8e25-9a21391f65ea"},"vehicle_type_id":"4","last_reported":1752390660,"current_range_meters":16000,"station_id":"st_cvj6sg6p6f1abm77japg","pricing_plan_id":"cebpf4jnsgd1na2vs0mg"},{"bike_id":"77da523b-ace4-4d05-9e20-7148788972a6","system_id":"levelo_inurba_marseille","lat":43.31697,"lon":5.378,"is_reserved":false,"is_disabled":false,"rental_uris":{"android":"levelo://app?vid=77da523b-ace4-4d05-9e20-7148788972a6","ios":"levelo://app?vid=77da523b-ace4-4d05-9e20-7148788972a6"},"vehicle_type_id":"4","last_reported":1752390660,"current_range_meters":16000,"station_id":"","pricing_plan_id":"cebpf4jnsgd1na2vs0mg"},{"bike_id":"c2d04c62-dad5-4981-8561-9ac2acf87548","system_id":"levelo_inurba_marseille","lat":43.29725,"lon":5.37451,"is_reserved":false,"is_disabled":false,"rental_uris":{"android":"levelo://app?vid=c2d04c62-dad5-4981-8561-9ac2acf87548","ios":"levelo://app?vid=c2d04c62-dad5-4981-8561-9ac2acf87548"},"vehicle_type_id":"4","last_reported":1752390660,"current_range_meters":16000,"station_id":"","pricing_plan_id":"cebpf4jnsgd1na2vs0mg"},{"bike_id":"2afd10ce-5f23-4122-9c7a-a3416be941b2","system_id":"levelo_inurba_marseille","lat":43.260209,"lon":5.375482,"is_reserved":false,"is_disabled":true,"rental_uris":{"android":"levelo://app?vid=2afd10ce-5f23-4122-9c7a-a3416be941b2","ios":"levelo://app?vid=2afd10ce-5f23-4122-9c7a-a3416be941b2"},"vehicle_type_id":"4","last_reported":1752390660,"current_range_meters":16000,"station_id":"ce4bhgh2rcd13ifvqfa0","pricing_plan_id":"cebpf4jnsgd1na2vs0mg"},{"bike_id":"7048b274-bb73-4f78-bd84-2dffe4927289","system_id":"levelo_inurba_marseille","lat":43.29805,"lon":5.39325,"is_reserved":false,"is_disabled":true,"rental_uris":{"android":"levelo://app?vid=7048b274-bb73-4f78-bd84-2dffe4927289","ios":"levelo://app?vid=7048b274-bb73-4f78-bd84-2dffe4927289"},"vehicle_type_id":"4","last_reported":1752390660,"current_range_meters":16000,"station_id":"chh1huq6cuj3fo74tm60","pricing_plan_id":"cebpf4jnsgd1na2vs0mg"},{"bike_id":"965c9d1b-a1e1-44c8-8089-1fe551beb674","system_id":"levelo_inurba_marseille","lat":43.28668,"lon":5.38674,"is_reserved":false,"is_disabled":false,"rental_uris":{"android":"levelo://app?vid=965c9d1b-a1e1-44c8-8089-1fe551beb674","ios":"levelo://app?vid=965c9d1b-a1e1-44c8-8089-1fe551beb674"},"vehicle_type_id":"4","last_reported":1752390660,"current_range_meters":16000,"station_id":"ce4bh492rcd13ifvqdug","pricing_plan_id":"cebpf4jnsgd1na2vs0mg"},{"bike_id":"8bcb3360-dbaa-4a6a-ae34-1ee8e5254ec4","system_id":"levelo_inurba_marseille","lat":43.241755,"lon":5.397267,"is_reserved":false,"is_disabled":false,"rental_uris":{"android":"levelo://app?vid=8bcb3360-dbaa-4a6a-ae34-1ee8e5254ec4","ios":"levelo://app?vid=8bcb3360-dbaa-4a6a-ae34-1ee8e5254ec4"},"vehicle_type_id":"4","last_reported":1752390660,"current_range_meters":16000,"station_id":"ce4bhn12rcd13ifvqgpg","pricing_plan_id":"cebpf4jnsgd1na2vs0mg"},{"bike_id":"86680933-d1e1-4a18-98f9-59fb73370b08","system_id":"levelo_inurba_marseille","lat":43.26988,"lon":5.39899,"is_reserved":false,"is_disabled":false,"rental_uris":{"android":"levelo://app?vid=86680933-d1e1-4a18-98f9-59fb73370b08","ios":"levelo://app?vid=86680933-d1e1-4a18-98f9-59fb73370b08"},"vehicle_type_id":"4","last_reported":1752390660,"current_range_meters":16000,"station_id":"","pricing_plan_id":"cebpf4jnsgd1na2vs0mg"},{"bike_id":"7a888645-4b0c-4379-98d8-380a5347b74c","system_id":"levelo_inurba_marseille","lat":43.27366,"lon":5.36227,"is_reserved":false,"is_disabled":true,"rental_uris":{"android":"levelo://app?vid=7a888645-4b0c-4379-98d8-380a5347b74c","ios":"levelo://app?vid=7a888645-4b0c-4379-98d8-380a5347b74c"},"vehicle_type_id":"4","last_reported":1752390660,"current_range_meters":16400,"station_id":"ce4bhbh2rcd13ifvqeo0","pricing_plan_id":"cebpf4jnsgd1na2vs0mg"},{"bike_id":"9b40dc73-509b-4d2f-8a27-44696719b175","system_id":"levelo_inurba_marseille","lat":43.27073,"lon":5.42274,"is_reserved":false,"is_disabled":false,"rental_uris":{"android":"levelo://app?vid=9b40dc73-509b-4d2f-8a27-44696719b175","ios":"levelo://app?vid=9b40dc73-509b-4d2f-8a27-44696719b175"},"vehicle_type_id":"4","last_reported":1752390660,"current_range_meters":16400,"station_id":"ce4bhk92rcd13ifvqgb0","pricing_plan_id":"cebpf4jnsgd1na2vs0mg"},{"bike_id":"718eafe4-1059-4d0b-9935-83404501b5b5","system_id":"levelo_inurba_marseille","lat":43.31701,"lon":5.37793,"is_reserved":false,"is_disabled":false,"rental_uris":{"android":"levelo://app?vid=718eafe4-1059-4d0b-9935-83404501b5b5","ios":"levelo://app?vid=718eafe4-1059-4d0b-9935-83404501b5b5"},"vehicle_type_id":"4","last_reported":1752390660,"current_range_meters":16400,"station_id":"ce4bgth2rcd13ifvqch0","pricing_plan_id":"cebpf4jnsgd1na2vs0mg"},{"bike_id":"82064778-37b9-438b-b376-909fd880c387","system_id":"levelo_inurba_marseille","lat":43.29978,"lon":5.41319,"is_reserved":false,"is_disabled":false,"rental_uris":{"android":"levelo://app?vid=82064778-37b9-438b-b376-909fd880c387","ios":"levelo://app?vid=82064778-37b9-438b-b376-909fd880c387"},"vehicle_type_id":"4","last_reported":1752390660,"current_range_meters":16400,"station_id":"ce4bhp12rcd13ifvqh9g","pricing_plan_id":"cebpf4jnsgd1na2vs0mg"},{"bike_id":"a7fd3005-9b39-4f05-9ec7-d00123ac98a3","system_id":"levelo_inurba_marseille","lat":43.26943,"lon":5.40278,"is_reserved":false,"is_disabled":false,"rental_uris":{"android":"levelo://app?vid=a7fd3005-9b39-4f05-9ec7-d00123ac98a3","ios":"levelo://app?vid=a7fd3005-9b39-4f05-9ec7-d00123ac98a3"},"vehicle_type_id":"4","last_reported":1752390660,"current_range_meters":16400,"station_id":"cjm6bp8fraef2m0cb0m0","pricing_plan_id":"cebpf4jnsgd1na2vs0mg"},{"bike_id":"c3e3ac6f-9bdf-42be-94b7-108dfa8bf9d9","system_id":"levelo_inurba_marseille","lat":43.324804,"lon":5.365749,"is_reserved":false,"is_disabled":true,"rental_uris":{"android":"levelo://app?vid=c3e3ac6f-9bdf-42be-94b7-108dfa8bf9d9","ios":"levelo://app?vid=c3e3ac6f-9bdf-42be-94b7-108dfa8bf9d9"},"vehicle_type_id":"4","last_reported":1752390660,"current_range_meters":16400,"station_id":"ce4bhs12rcd13ifvqhvg","pricing_plan_id":"cebpf4jnsgd1na2vs0mg"},{"bike_id":"84e0b044-5cbf-4d7f-9a9b-73b338352c1b","system_id":"levelo_inurba_marseille","lat":43.24201,"lon":5.39731,"is_reserved":false,"is_disabled":false,"rental_uris":{"android":"levelo://app?vid=84e0b044-5cbf-4d7f-9a9b-73b338352c1b","ios":"levelo://app?vid=84e0b044-5cbf-4d7f-9a9b-73b338352c1b"},"vehicle_type_id":"4","last_reported":1752390660,"current_range_meters":16400,"station_id":"ce4bhn12rcd13ifvqgpg","pricing_plan_id":"cebpf4jnsgd1na2vs0mg"},{"bike_id":"0cfe2a5a-3c82-491a-b988-70a0642db701","system_id":"levelo_inurba_marseille","lat":43.30888,"lon":5.37177,"is_reserved":false,"is_disabled":false,"rental_uris":{"android":"levelo://app?vid=0cfe2a5a-3c82-491a-b988-70a0642db701","ios":"levelo://app?vid=0cfe2a5a-3c82-491a-b988-70a0642db701"},"vehicle_type_id":"4","last_reported":1752390660,"current_range_meters":16400,"station_id":"ce4bguh2rcd13ifvqckg","pricing_plan_id":"cebpf4jnsgd1na2vs0mg"},{"bike_id":"658da48e-808c-42cf-8658-300de37ba77a","system_id":"levelo_inurba_marseille","lat":43.26791,"lon":5.394301,"is_reserved":false,"is_disabled":false,"rental_uris":{"android":"levelo://app?vid=658da48e-808c-42cf-8658-300de37ba77a","ios":"levelo://app?vid=658da48e-808c-42cf-8658-300de37ba77a"},"vehicle_type_id":"4","last_reported":1752390660,"current_range_meters":16800,"station_id":"ce4bhh12rcd13ifvqfg0","pricing_plan_id":"cebpf4jnsgd1na2vs0mg"},{"bike_id":"68c1f4f9-3dcb-4b8c-ad5e-327e4ca87863","system_id":"levelo_inurba_marseille","lat":43.2591,"lon":5.40878,"is_reserved":false,"is_disabled":false,"rental_uris":{"android":"levelo://app?vid=68c1f4f9-3dcb-4b8c-ad5e-327e4ca87863","ios":"levelo://app?vid=68c1f4f9-3dcb-4b8c-ad5e-327e4ca87863"},"vehicle_type_id":"4","last_reported":1752390660,"current_range_meters":16800,"station_id":"ce4bhm92rcd13ifvqglg","pricing_plan_id":"cebpf4jnsgd1na2vs0mg"},{"bike_id":"adfe8be3-1e95-4a39-ba2c-619c92879657","system_id":"levelo_inurba_marseille","lat":43.23192,"lon":5.39976,"is_reserved":false,"is_disabled":false,"rental_uris":{"android":"levelo://app?vid=adfe8be3-1e95-4a39-ba2c-619c92879657","ios":"levelo://app?vid=adfe8be3-1e95-4a39-ba2c-619c92879657"},"vehicle_type_id":"4","last_reported":1752390660,"current_range_meters":16800,"station_id":"ce4bhn12rcd13ifvqgqg","pricing_plan_id":"cebpf4jnsgd1na2vs0mg"},{"bike_id":"8f06a490-2171-40a2-adcb-3cd303151855","system_id":"levelo_inurba_marseille","lat":43.28698,"lon":5.39954,"is_reserved":false,"is_disabled":false,"rental_uris":{"android":"levelo://app?vid=8f06a490-2171-40a2-adcb-3cd303151855","ios":"levelo://app?vid=8f06a490-2171-40a2-adcb-3cd303151855"},"vehicle_type_id":"4","last_reported":1752390660,"current_range_meters":16800,"station_id":"ce4bho92rcd13ifvqh3g","pricing_plan_id":"cebpf4jnsgd1na2vs0mg"},{"bike_id":"63f6df4e-2ed3-4c65-8a36-87522b5213fc","system_id":"levelo_inurba_marseille","lat":43.31348,"lon":5.3672,"is_reserved":false,"is_disabled":false,"rental_uris":{"android":"levelo://app?vid=63f6df4e-2ed3-4c65-8a36-87522b5213fc","ios":"levelo://app?vid=63f6df4e-2ed3-4c65-8a36-87522b5213fc"},"vehicle_type_id":"4","last_reported":1752390660,"current_range_meters":17200,"station_id":"ce4bgr92rcd13ifvqc6g","pricing_plan_id":"cebpf4jnsgd1na2vs0mg"},{"bike_id":"2a70798a-94ea-48f1-80b7-5109f0e067eb","system_id":"levelo_inurba_marseille","lat":43.29555,"lon":5.4229,"is_reserved":false,"is_disabled":false,"rental_uris":{"android":"levelo://app?vid=2a70798a-94ea-48f1-80b7-5109f0e067eb","ios":"levelo://app?vid=2a70798a-94ea-48f1-80b7-5109f0e067eb"},"vehicle_type_id":"4","last_reported":1752390660,"current_range_meters":17200,"station_id":"ce4bhph2rcd13ifvqhdg","pricing_plan_id":"cebpf4jnsgd1na2vs0mg"},{"bike_id":"d9d63d91-160d-42d0-b9c6-42c216f308c7","system_id":"levelo_inurba_marseille","lat":43.30366,"lon":5.42469,"is_reserved":false,"is_disabled":false,"rental_uris":{"android":"levelo://app?vid=d9d63d91-160d-42d0-b9c6-42c216f308c7","ios":"levelo://app?vid=d9d63d91-160d-42d0-b9c6-42c216f308c7"},"vehicle_type_id":"4","last_reported":1752390660,"current_range_meters":17200,"station_id":"ce4bhoh2rcd13ifvqh6g","pricing_plan_id":"cebpf4jnsgd1na2vs0mg"},{"bike_id":"d9f5802f-b85b-44ac-bb5d-e411c0bdfd0f","system_id":"levelo_inurba_marseille","lat":43.241675,"lon":5.363911,"is_reserved":false,"is_disabled":false,"rental_uris":{"android":"levelo://app?vid=d9f5802f-b85b-44ac-bb5d-e411c0bdfd0f","ios":"levelo://app?vid=d9f5802f-b85b-44ac-bb5d-e411c0bdfd0f"},"vehicle_type_id":"4","last_reported":1752390660,"current_range_meters":17200,"station_id":"cpo36qri1sfpv3e86is0","pricing_plan_id":"cebpf4jnsgd1na2vs0mg"},{"bike_id":"d5f9c5bb-1fa2-40ba-9e66-96086af89407","system_id":"levelo_inurba_marseille","lat":43.24176,"lon":5.36391,"is_reserved":false,"is_disabled":false,"rental_uris":{"android":"levelo://app?vid=d5f9c5bb-1fa2-40ba-9e66-96086af89407","ios":"levelo://app?vid=d5f9c5bb-1fa2-40ba-9e66-96086af89407"},"vehicle_type_id":"4","last_reported":1752390660,"current_range_meters":17200,"station_id":"cpo36qri1sfpv3e86is0","pricing_plan_id":"cebpf4jnsgd1na2vs0mg"},{"bike_id":"9bfc7d3d-4e60-4f8a-9c32-ef3d0e77ec5b","system_id":"levelo_inurba_marseille","lat":43.211933,"lon":5.350728,"is_reserved":false,"is_disabled":false,"rental_uris":{"android":"levelo://app?vid=9bfc7d3d-4e60-4f8a-9c32-ef3d0e77ec5b","ios":"levelo://app?vid=9bfc7d3d-4e60-4f8a-9c32-ef3d0e77ec5b"},"vehicle_type_id":"4","last_reported":1752390660,"current_range_meters":17200,"station_id":"st_cvj6sg6p6f1abm77japg","pricing_plan_id":"cebpf4jnsgd1na2vs0mg"},{"bike_id":"64748af8-28a3-4fb4-ae3a-6cf154d2bfa6","system_id":"levelo_inurba_marseille","lat":43.304454,"lon":5.388938,"is_reserved":false,"is_disabled":false,"rental_uris":{"android":"levelo://app?vid=64748af8-28a3-4fb4-ae3a-6cf154d2bfa6","ios":"levelo://app?vid=64748af8-28a3-4fb4-ae3a-6cf154d2bfa6"},"vehicle_type_id":"4","last_reported":1752390660,"current_range_meters":17600,"station_id":"ce4bgk12rcd13ifvqbi0","pricing_plan_id":"cebpf4jnsgd1na2vs0mg"},{"bike_id":"83f83b25-aba3-4f0e-b5da-da8fef25a749","system_id":"levelo_inurba_marseille","lat":43.30481,"lon":5.37904,"is_reserved":false,"is_disabled":false,"rental_uris":{"android":"levelo://app?vid=83f83b25-aba3-4f0e-b5da-da8fef25a749","ios":"levelo://app?vid=83f83b25-aba3-4f0e-b5da-da8fef25a749"},"vehicle_type_id":"4","last_reported":1752390660,"current_range_meters":17600,"station_id":"ce4bgup2rcd13ifvqcn0","pricing_plan_id":"cebpf4jnsgd1na2vs0mg"},{"bike_id":"35381402-51d6-40fc-80bb-9719be9b70c0","system_id":"levelo_inurba_marseille","lat":43.29615,"lon":5.37708,"is_reserved":false,"is_disabled":false,"rental_uris":{"android":"levelo://app?vid=35381402-51d6-40fc-80bb-9719be9b70c0","ios":"levelo://app?vid=35381402-51d6-40fc-80bb-9719be9b70c0"},"vehicle_type_id":"4","last_reported":1752390660,"current_range_meters":17600,"station_id":"ce4bgi92rcd13ifvqb90","pricing_plan_id":"cebpf4jnsgd1na2vs0mg"},{"bike_id":"436e917a-7f3e-467e-946b-136c32e6f617","system_id":"levelo_inurba_marseille","lat":43.262292,"lon":5.404481,"is_reserved":false,"is_disabled":false,"rental_uris":{"android":"levelo://app?vid=436e917a-7f3e-467e-946b-136c32e6f617","ios":"levelo://app?vid=436e917a-7f3e-467e-946b-136c32e6f617"},"vehicle_type_id":"4","last_reported":1752390660,"current_range_meters":17600,"station_id":"ce4bhmh2rcd13ifvqgmg","pricing_plan_id":"cebpf4jnsgd1na2vs0mg"},{"bike_id":"cc6260c7-e588-42d7-afef-96c409802ccc","system_id":"levelo_inurba_marseille","lat":43.21198,"lon":5.35069,"is_reserved":false,"is_disabled":false,"rental_uris":{"android":"levelo://app?vid=cc6260c7-e588-42d7-afef-96c409802ccc","ios":"levelo://app?vid=cc6260c7-e588-42d7-afef-96c409802ccc"},"vehicle_type_id":"4","last_reported":1752390660,"current_range_meters":17600,"station_id":"st_cvj6sg6p6f1abm77japg","pricing_plan_id":"cebpf4jnsgd1na2vs0mg"},{"bike_id":"d438c437-0c60-41e5-a3d6-d73226271506","system_id":"levelo_inurba_marseille","lat":43.29571,"lon":5.42269,"is_reserved":false,"is_disabled":false,"rental_uris":{"android":"levelo://app?vid=d438c437-0c60-41e5-a3d6-d73226271506","ios":"levelo://app?vid=d438c437-0c60-41e5-a3d6-d73226271506"},"vehicle_type_id":"4","last_reported":1752390660,"current_range_meters":17600,"station_id":"ce4bhph2rcd13ifvqhdg","pricing_plan_id":"cebpf4jnsgd1na2vs0mg"},{"bike_id":"5c0448b2-8814-4934-b665-27ab2eac725a","system_id":"levelo_inurba_marseille","lat":43.264983,"lon":5.395381,"is_reserved":false,"is_disabled":false,"rental_uris":{"android":"levelo://app?vid=5c0448b2-8814-4934-b665-27ab2eac725a","ios":"levelo://app?vid=5c0448b2-8814-4934-b665-27ab2eac725a"},"vehicle_type_id":"4","last_reported":1752390660,"current_range_meters":18000,"station_id":"ce4bhi12rcd13ifvqfq0","pricing_plan_id":"cebpf4jnsgd1na2vs0mg"},{"bike_id":"7b60e2b3-fe60-4caf-8d3e-4c917054d448","system_id":"levelo_inurba_marseille","lat":43.284194,"lon":5.349869,"is_reserved":false,"is_disabled":true,"rental_uris":{"android":"levelo://app?vid=7b60e2b3-fe60-4caf-8d3e-4c917054d448","ios":"levelo://app?vid=7b60e2b3-fe60-4caf-8d3e-4c917054d448"},"vehicle_type_id":"4","last_reported":1752390660,"current_range_meters":18000,"station_id":"ce4bhbh2rcd13ifvqepg","pricing_plan_id":"cebpf4jnsgd1na2vs0mg"},{"bike_id":"711ac624-d408-4d62-a6b0-a60e4e9b3156","system_id":"levelo_inurba_marseille","lat":43.301352,"lon":5.374208,"is_reserved":false,"is_disabled":false,"rental_uris":{"android":"levelo://app?vid=711ac624-d408-4d62-a6b0-a60e4e9b3156","ios":"levelo://app?vid=711ac624-d408-4d62-a6b0-a60e4e9b3156"},"vehicle_type_id":"4","last_reported":1752390660,"current_range_meters":18000,"station_id":"ce4bgs92rcd13ifvqcc0","pricing_plan_id":"cebpf4jnsgd1na2vs0mg"},{"bike_id":"f5a47db5-6fb2-46bd-a2de-efa4ad13bf60","system_id":"levelo_inurba_marseille","lat":43.21192,"lon":5.35074,"is_reserved":false,"is_disabled":false,"rental_uris":{"android":"levelo://app?vid=f5a47db5-6fb2-46bd-a2de-efa4ad13bf60","ios":"levelo://app?vid=f5a47db5-6fb2-46bd-a2de-efa4ad13bf60"},"vehicle_type_id":"4","last_reported":1752390660,"current_range_meters":18000,"station_id":"st_cvj6sg6p6f1abm77japg","pricing_plan_id":"cebpf4jnsgd1na2vs0mg"},{"bike_id":"059a4775-c8b3-4965-854c-46db5bc514d2","system_id":"levelo_inurba_marseille","lat":43.283988,"lon":5.375138,"is_reserved":false,"is_disabled":false,"rental_uris":{"android":"levelo://app?vid=059a4775-c8b3-4965-854c-46db5bc514d2","ios":"levelo://app?vid=059a4775-c8b3-4965-854c-46db5bc514d2"},"vehicle_type_id":"4","last_reported":1752390660,"current_range_meters":18000,"station_id":"ce4bh412rcd13ifvqds0","pricing_plan_id":"cebpf4jnsgd1na2vs0mg"},{"bike_id":"58375fde-ca97-4dab-be52-59caf98323d3","system_id":"levelo_inurba_marseille","lat":43.26569,"lon":5.37275,"is_reserved":false,"is_disabled":true,"rental_uris":{"android":"levelo://app?vid=58375fde-ca97-4dab-be52-59caf98323d3","ios":"levelo://app?vid=58375fde-ca97-4dab-be52-59caf98323d3"},"vehicle_type_id":"4","last_reported":1752390660,"current_range_meters":18000,"station_id":"ce4bhg12rcd13ifvqf70","pricing_plan_id":"cebpf4jnsgd1na2vs0mg"},{"bike_id":"1aedaa42-1f03-48cc-8e38-d983e72f730b","system_id":"levelo_inurba_marseille","lat":43.270721,"lon":5.422774,"is_reserved":false,"is_disabled":false,"rental_uris":{"android":"levelo://app?vid=1aedaa42-1f03-48cc-8e38-d983e72f730b","ios":"levelo://app?vid=1aedaa42-1f03-48cc-8e38-d983e72f730b"},"vehicle_type_id":"4","last_reported":1752390660,"current_range_meters":18000,"station_id":"ce4bhk92rcd13ifvqgb0","pricing_plan_id":"cebpf4jnsgd1na2vs0mg"},{"bike_id":"539b0bc2-18a7-4c61-851d-ce98315165df","system_id":"levelo_inurba_marseille","lat":43.30142,"lon":5.38075,"is_reserved":false,"is_disabled":false,"rental_uris":{"android":"levelo://app?vid=539b0bc2-18a7-4c61-851d-ce98315165df","ios":"levelo://app?vid=539b0bc2-18a7-4c61-851d-ce98315165df"},"vehicle_type_id":"4","last_reported":1752390660,"current_range_meters":18000,"station_id":"ce4bgjp2rcd13ifvqbh0","pricing_plan_id":"cebpf4jnsgd1na2vs0mg"},{"bike_id":"f0f4823e-e110-4f8d-8bbb-8033154eef6c","system_id":"levelo_inurba_marseille","lat":43.29265,"lon":5.36837,"is_reserved":false,"is_disabled":false,"rental_uris":{"android":"levelo://app?vid=f0f4823e-e110-4f8d-8bbb-8033154eef6c","ios":"levelo://app?vid=f0f4823e-e110-4f8d-8bbb-8033154eef6c"},"vehicle_type_id":"4","last_reported":1752390660,"current_range_meters":18000,"station_id":"ce4bhbp2rcd13ifvqesg","pricing_plan_id":"cebpf4jnsgd1na2vs0mg"},{"bike_id":"ee7130ca-2c44-43b8-afd9-4ee8253701a9","system_id":"levelo_inurba_marseille","lat":43.29039,"lon":5.39958,"is_reserved":false,"is_disabled":false,"rental_uris":{"android":"levelo://app?vid=ee7130ca-2c44-43b8-afd9-4ee8253701a9","ios":"levelo://app?vid=ee7130ca-2c44-43b8-afd9-4ee8253701a9"},"vehicle_type_id":"4","last_reported":1752390660,"current_range_meters":18000,"station_id":"ce4bh392rcd13ifvqdm0","pricing_plan_id":"cebpf4jnsgd1na2vs0mg"},{"bike_id":"ece9d047-dc12-4ce6-82bf-fc7ad56a230c","system_id":"levelo_inurba_marseille","lat":43.286151,"lon":5.351102,"is_reserved":false,"is_disabled":true,"rental_uris":{"android":"levelo://app?vid=ece9d047-dc12-4ce6-82bf-fc7ad56a230c","ios":"levelo://app?vid=ece9d047-dc12-4ce6-82bf-fc7ad56a230c"},"vehicle_type_id":"4","last_reported":1752390660,"current_range_meters":18000,"station_id":"ce4bhch2rcd13ifvqeug","pricing_plan_id":"cebpf4jnsgd1na2vs0mg"},{"bike_id":"7d80377e-8c8b-466d-b275-5356b99e3e43","system_id":"levelo_inurba_marseille","lat":43.24654,"lon":5.38886,"is_reserved":false,"is_disabled":false,"rental_uris":{"android":"levelo://app?vid=7d80377e-8c8b-466d-b275-5356b99e3e43","ios":"levelo://app?vid=7d80377e-8c8b-466d-b275-5356b99e3e43"},"vehicle_type_id":"4","last_reported":1752390660,"current_range_meters":18000,"station_id":"ce4bhg12rcd13ifvqf60","pricing_plan_id":"cebpf4jnsgd1na2vs0mg"},{"bike_id":"cf406e4d-78c8-4a95-8cdf-17a1af628eef","system_id":"levelo_inurba_marseille","lat":43.2784,"lon":5.39209,"is_reserved":false,"is_disabled":false,"rental_uris":{"android":"levelo://app?vid=cf406e4d-78c8-4a95-8cdf-17a1af628eef","ios":"levelo://app?vid=cf406e4d-78c8-4a95-8cdf-17a1af628eef"},"vehicle_type_id":"4","last_reported":1752390660,"current_range_meters":18000,"station_id":"ce4bhjp2rcd13ifvqga0","pricing_plan_id":"cebpf4jnsgd1na2vs0mg"},{"bike_id":"167d1527-2ad2-4064-bc00-8058a2aad6c0","system_id":"levelo_inurba_marseille","lat":43.290434,"lon":5.399576,"is_reserved":false,"is_disabled":false,"rental_uris":{"android":"levelo://app?vid=167d1527-2ad2-4064-bc00-8058a2aad6c0","ios":"levelo://app?vid=167d1527-2ad2-4064-bc00-8058a2aad6c0"},"vehicle_type_id":"4","last_reported":1752390660,"current_range_meters":18000,"station_id":"ce4bh392rcd13ifvqdm0","pricing_plan_id":"cebpf4jnsgd1na2vs0mg"},{"bike_id":"72afe63b-6210-4a4f-84d8-f623c45e8e34","system_id":"levelo_inurba_marseille","lat":43.30322,"lon":5.40442,"is_reserved":false,"is_disabled":false,"rental_uris":{"android":"levelo://app?vid=72afe63b-6210-4a4f-84d8-f623c45e8e34","ios":"levelo://app?vid=72afe63b-6210-4a4f-84d8-f623c45e8e34"},"vehicle_type_id":"4","last_reported":1752390660,"current_range_meters":18800,"station_id":"ce4bh012rcd13ifvqd10","pricing_plan_id":"cebpf4jnsgd1na2vs0mg"},{"bike_id":"91e36618-f857-45af-ac89-91d909da2db3","system_id":"levelo_inurba_marseille","lat":43.29418,"lon":5.38605,"is_reserved":false,"is_disabled":true,"rental_uris":{"android":"levelo://app?vid=91e36618-f857-45af-ac89-91d909da2db3","ios":"levelo://app?vid=91e36618-f857-45af-ac89-91d909da2db3"},"vehicle_type_id":"4","last_reported":1752390660,"current_range_meters":18800,"station_id":"ce4bh2h2rcd13ifvqdh0","pricing_plan_id":"cebpf4jnsgd1na2vs0mg"},{"bike_id":"2833d504-44eb-4559-9ba9-a31b5cf91da6","system_id":"levelo_inurba_marseille","lat":43.30322,"lon":5.40433,"is_reserved":false,"is_disabled":false,"rental_uris":{"android":"levelo://app?vid=2833d504-44eb-4559-9ba9-a31b5cf91da6","ios":"levelo://app?vid=2833d504-44eb-4559-9ba9-a31b5cf91da6"},"vehicle_type_id":"4","last_reported":1752390660,"current_range_meters":18800,"station_id":"ce4bh012rcd13ifvqd10","pricing_plan_id":"cebpf4jnsgd1na2vs0mg"},{"bike_id":"b053f929-7efb-49cd-9959-74ef096980bb","system_id":"levelo_inurba_marseille","lat":43.29266,"lon":5.36845,"is_reserved":false,"is_disabled":true,"rental_uris":{"android":"levelo://app?vid=b053f929-7efb-49cd-9959-74ef096980bb","ios":"levelo://app?vid=b053f929-7efb-49cd-9959-74ef096980bb"},"vehicle_type_id":"4","last_reported":1752390660,"current_range_meters":18800,"station_id":"ce4bhbp2rcd13ifvqesg","pricing_plan_id":"cebpf4jnsgd1na2vs0mg"},{"bike_id":"e37d8eb0-d581-401b-aee8-91d7dbcf27ad","system_id":"levelo_inurba_marseille","lat":43.29559,"lon":5.42296,"is_reserved":false,"is_disabled":false,"rental_uris":{"android":"levelo://app?vid=e37d8eb0-d581-401b-aee8-91d7dbcf27ad","ios":"levelo://app?vid=e37d8eb0-d581-401b-aee8-91d7dbcf27ad"},"vehicle_type_id":"4","last_reported":1752390660,"current_range_meters":18800,"station_id":"ce4bhph2rcd13ifvqhdg","pricing_plan_id":"cebpf4jnsgd1na2vs0mg"},{"bike_id":"65e074d9-7127-4e46-91d5-363b4db5691c","system_id":"levelo_inurba_marseille","lat":43.30896,"lon":5.37184,"is_reserved":false,"is_disabled":false,"rental_uris":{"android":"levelo://app?vid=65e074d9-7127-4e46-91d5-363b4db5691c","ios":"levelo://app?vid=65e074d9-7127-4e46-91d5-363b4db5691c"},"vehicle_type_id":"4","last_reported":1752390660,"current_range_meters":18800,"station_id":"ce4bguh2rcd13ifvqckg","pricing_plan_id":"cebpf4jnsgd1na2vs0mg"},{"bike_id":"fe318ad3-5569-488a-a55f-800be9072933","system_id":"levelo_inurba_marseille","lat":43.26916,"lon":5.40306,"is_reserved":false,"is_disabled":false,"rental_uris":{"android":"levelo://app?vid=fe318ad3-5569-488a-a55f-800be9072933","ios":"levelo://app?vid=fe318ad3-5569-488a-a55f-800be9072933"},"vehicle_type_id":"4","last_reported":1752390660,"current_range_meters":18800,"station_id":"cjm6bp8fraef2m0cb0m0","pricing_plan_id":"cebpf4jnsgd1na2vs0mg"},{"bike_id":"eab9f2a0-ee49-4110-a9bf-1b4a45ecb8f7","system_id":"levelo_inurba_marseille","lat":43.30149,"lon":5.381051,"is_reserved":false,"is_disabled":false,"rental_uris":{"android":"levelo://app?vid=eab9f2a0-ee49-4110-a9bf-1b4a45ecb8f7","ios":"levelo://app?vid=eab9f2a0-ee49-4110-a9bf-1b4a45ecb8f7"},"vehicle_type_id":"4","last_reported":1752390660,"current_range_meters":18800,"station_id":"ce4bgjp2rcd13ifvqbh0","pricing_plan_id":"cebpf4jnsgd1na2vs0mg"},{"bike_id":"45fbfa01-a4d1-410f-b3f7-5c43510c9e88","system_id":"levelo_inurba_marseille","lat":43.2844,"lon":5.34993,"is_reserved":false,"is_disabled":false,"rental_uris":{"android":"levelo://app?vid=45fbfa01-a4d1-410f-b3f7-5c43510c9e88","ios":"levelo://app?vid=45fbfa01-a4d1-410f-b3f7-5c43510c9e88"},"vehicle_type_id":"4","last_reported":1752390660,"current_range_meters":18800,"station_id":"ce4bhbh2rcd13ifvqepg","pricing_plan_id":"cebpf4jnsgd1na2vs0mg"},{"bike_id":"5c0fc7d8-43fe-4ade-9435-39a657901032","system_id":"levelo_inurba_marseille","lat":43.2927,"lon":5.40134,"is_reserved":false,"is_disabled":false,"rental_uris":{"android":"levelo://app?vid=5c0fc7d8-43fe-4ade-9435-39a657901032","ios":"levelo://app?vid=5c0fc7d8-43fe-4ade-9435-39a657901032"},"vehicle_type_id":"4","last_reported":1752390660,"current_range_meters":18800,"station_id":"ce4bh312rcd13ifvqdk0","pricing_plan_id":"cebpf4jnsgd1na2vs0mg"},{"bike_id":"c8c4de1a-846f-4f5b-aace-9fb14bf7ad52","system_id":"levelo_inurba_marseille","lat":43.21194,"lon":5.35076,"is_reserved":false,"is_disabled":false,"rental_uris":{"android":"levelo://app?vid=c8c4de1a-846f-4f5b-aace-9fb14bf7ad52","ios":"levelo://app?vid=c8c4de1a-846f-4f5b-aace-9fb14bf7ad52"},"vehicle_type_id":"4","last_reported":1752390660,"current_range_meters":18800,"station_id":"st_cvj6sg6p6f1abm77japg","pricing_plan_id":"cebpf4jnsgd1na2vs0mg"},{"bike_id":"2ec427da-b403-4a7e-86be-3f48ba535d18","system_id":"levelo_inurba_marseille","lat":43.21187,"lon":5.35102,"is_reserved":false,"is_disabled":false,"rental_uris":{"android":"levelo://app?vid=2ec427da-b403-4a7e-86be-3f48ba535d18","ios":"levelo://app?vid=2ec427da-b403-4a7e-86be-3f48ba535d18"},"vehicle_type_id":"4","last_reported":1752390660,"current_range_meters":19200,"station_id":"st_cvj6sg6p6f1abm77japg","pricing_plan_id":"cebpf4jnsgd1na2vs0mg"},{"bike_id":"85d66f82-8967-49c9-b9e9-830c25cdbed3","system_id":"levelo_inurba_marseille","lat":43.26226,"lon":5.37441,"is_reserved":false,"is_disabled":false,"rental_uris":{"android":"levelo://app?vid=85d66f82-8967-49c9-b9e9-830c25cdbed3","ios":"levelo://app?vid=85d66f82-8967-49c9-b9e9-830c25cdbed3"},"vehicle_type_id":"4","last_reported":1752390660,"current_range_meters":19200,"station_id":"","pricing_plan_id":"cebpf4jnsgd1na2vs0mg"},{"bike_id":"570cb15a-a61f-47fb-aaf3-b63fd97dbb24","system_id":"levelo_inurba_marseille","lat":43.29644,"lon":5.360015,"is_reserved":false,"is_disabled":false,"rental_uris":{"android":"levelo://app?vid=570cb15a-a61f-47fb-aaf3-b63fd97dbb24","ios":"levelo://app?vid=570cb15a-a61f-47fb-aaf3-b63fd97dbb24"},"vehicle_type_id":"4","last_reported":1752390660,"current_range_meters":19200,"station_id":"","pricing_plan_id":"cebpf4jnsgd1na2vs0mg"},{"bike_id":"10388035-8e57-4e34-8ec1-559555823a7c","system_id":"levelo_inurba_marseille","lat":43.313272,"lon":5.397051,"is_reserved":false,"is_disabled":false,"rental_uris":{"android":"levelo://app?vid=10388035-8e57-4e34-8ec1-559555823a7c","ios":"levelo://app?vid=10388035-8e57-4e34-8ec1-559555823a7c"},"vehicle_type_id":"4","last_reported":1752390660,"current_range_meters":19200,"station_id":"ce4bgvp2rcd13ifvqcu0","pricing_plan_id":"cebpf4jnsgd1na2vs0mg"},{"bike_id":"e91ced2f-2041-4b38-8446-0d5d97adec95","system_id":"levelo_inurba_marseille","lat":43.255811,"lon":5.382298,"is_reserved":false,"is_disabled":true,"rental_uris":{"android":"levelo://app?vid=e91ced2f-2041-4b38-8446-0d5d97adec95","ios":"levelo://app?vid=e91ced2f-2041-4b38-8446-0d5d97adec95"},"vehicle_type_id":"4","last_reported":1752390660,"current_range_meters":19200,"station_id":"ce4bhih2rcd13ifvqfs0","pricing_plan_id":"cebpf4jnsgd1na2vs0mg"},{"bike_id":"530df890-2447-4898-8ed5-0529ed2390ee","system_id":"levelo_inurba_marseille","lat":43.2975,"lon":5.38294,"is_reserved":false,"is_disabled":false,"rental_uris":{"android":"levelo://app?vid=530df890-2447-4898-8ed5-0529ed2390ee","ios":"levelo://app?vid=530df890-2447-4898-8ed5-0529ed2390ee"},"vehicle_type_id":"4","last_reported":1752390660,"current_range_meters":19200,"station_id":"","pricing_plan_id":"cebpf4jnsgd1na2vs0mg"},{"bike_id":"648ff98c-ac31-4536-b256-2c7a56fb486a","system_id":"levelo_inurba_marseille","lat":43.2926,"lon":5.40113,"is_reserved":false,"is_disabled":false,"rental_uris":{"android":"levelo://app?vid=648ff98c-ac31-4536-b256-2c7a56fb486a","ios":"levelo://app?vid=648ff98c-ac31-4536-b256-2c7a56fb486a"},"vehicle_type_id":"4","last_reported":1752390660,"current_range_meters":19200,"station_id":"ce4bh312rcd13ifvqdk0","pricing_plan_id":"cebpf4jnsgd1na2vs0mg"},{"bike_id":"99ae43ef-9981-41ec-907c-f94f73cc9ad2","system_id":"levelo_inurba_marseille","lat":43.29985,"lon":5.38484,"is_reserved":false,"is_disabled":false,"rental_uris":{"android":"levelo://app?vid=99ae43ef-9981-41ec-907c-f94f73cc9ad2","ios":"levelo://app?vid=99ae43ef-9981-41ec-907c-f94f73cc9ad2"},"vehicle_type_id":"4","last_reported":1752390660,"current_range_meters":19200,"station_id":"ce4bgj92rcd13ifvqbd0","pricing_plan_id":"cebpf4jnsgd1na2vs0mg"},{"bike_id":"1e941a3f-1323-41d5-ab29-2aa1fdfc9eb6","system_id":"levelo_inurba_marseille","lat":43.29046,"lon":5.39941,"is_reserved":false,"is_disabled":false,"rental_uris":{"android":"levelo://app?vid=1e941a3f-1323-41d5-ab29-2aa1fdfc9eb6","ios":"levelo://app?vid=1e941a3f-1323-41d5-ab29-2aa1fdfc9eb6"},"vehicle_type_id":"4","last_reported":1752390660,"current_range_meters":19600,"station_id":"ce4bh392rcd13ifvqdm0","pricing_plan_id":"cebpf4jnsgd1na2vs0mg"},{"bike_id":"857f6de9-a79f-412b-aa41-c99eb4725cbb","system_id":"levelo_inurba_marseille","lat":43.299735,"lon":5.371788,"is_reserved":false,"is_disabled":false,"rental_uris":{"android":"levelo://app?vid=857f6de9-a79f-412b-aa41-c99eb4725cbb","ios":"levelo://app?vid=857f6de9-a79f-412b-aa41-c99eb4725cbb"},"vehicle_type_id":"4","last_reported":1752390660,"current_range_meters":19600,"station_id":"ce4bgr92rcd13ifvqc7g","pricing_plan_id":"cebpf4jnsgd1na2vs0mg"},{"bike_id":"1cd657f6-f50d-4724-8a22-13111356d607","system_id":"levelo_inurba_marseille","lat":43.27074,"lon":5.4224,"is_reserved":false,"is_disabled":false,"rental_uris":{"android":"levelo://app?vid=1cd657f6-f50d-4724-8a22-13111356d607","ios":"levelo://app?vid=1cd657f6-f50d-4724-8a22-13111356d607"},"vehicle_type_id":"4","last_reported":1752390660,"current_range_meters":19600,"station_id":"ce4bhk92rcd13ifvqgb0","pricing_plan_id":"cebpf4jnsgd1na2vs0mg"},{"bike_id":"80955d0f-8669-4c02-b90f-c6fe20790c37","system_id":"levelo_inurba_marseille","lat":43.23206,"lon":5.3503,"is_reserved":false,"is_disabled":false,"rental_uris":{"android":"levelo://app?vid=80955d0f-8669-4c02-b90f-c6fe20790c37","ios":"levelo://app?vid=80955d0f-8669-4c02-b90f-c6fe20790c37"},"vehicle_type_id":"4","last_reported":1752390660,"current_range_meters":19600,"station_id":"","pricing_plan_id":"cebpf4jnsgd1na2vs0mg"},{"bike_id":"23a0fc67-4c39-4b74-8a86-2903d79b1606","system_id":"levelo_inurba_marseille","lat":43.231951,"lon":5.355524,"is_reserved":false,"is_disabled":true,"rental_uris":{"android":"levelo://app?vid=23a0fc67-4c39-4b74-8a86-2903d79b1606","ios":"levelo://app?vid=23a0fc67-4c39-4b74-8a86-2903d79b1606"},"vehicle_type_id":"4","last_reported":1752390660,"current_range_meters":19600,"station_id":"ce4bhu92rcd13ifvqi70","pricing_plan_id":"cebpf4jnsgd1na2vs0mg"},{"bike_id":"f7cf9aab-0ed3-4931-a48c-8d0743d0c0b9","system_id":"levelo_inurba_marseille","lat":43.229289,"lon":5.353648,"is_reserved":false,"is_disabled":true,"rental_uris":{"android":"levelo://app?vid=f7cf9aab-0ed3-4931-a48c-8d0743d0c0b9","ios":"levelo://app?vid=f7cf9aab-0ed3-4931-a48c-8d0743d0c0b9"},"vehicle_type_id":"4","last_reported":1752390660,"current_range_meters":19600,"station_id":"cpo3532slgdg3j2ikp40","pricing_plan_id":"cebpf4jnsgd1na2vs0mg"},{"bike_id":"11c1737e-f69c-4541-96a5-394601308243","system_id":"levelo_inurba_marseille","lat":43.298048,"lon":5.380964,"is_reserved":false,"is_disabled":false,"rental_uris":{"android":"levelo://app?vid=11c1737e-f69c-4541-96a5-394601308243","ios":"levelo://app?vid=11c1737e-f69c-4541-96a5-394601308243"},"vehicle_type_id":"4","last_reported":1752390660,"current_range_meters":19600,"station_id":"","pricing_plan_id":"cebpf4jnsgd1na2vs0mg"},{"bike_id":"bf67854a-fc75-4bbe-84b3-70a770694533","system_id":"levelo_inurba_marseille","lat":43.289456,"lon":5.396356,"is_reserved":false,"is_disabled":true,"rental_uris":{"android":"levelo://app?vid=bf67854a-fc75-4bbe-84b3-70a770694533","ios":"levelo://app?vid=bf67854a-fc75-4bbe-84b3-70a770694533"},"vehicle_type_id":"4","last_reported":1752390660,"current_range_meters":19600,"station_id":"ce4bh3h2rcd13ifvqdn0","pricing_plan_id":"cebpf4jnsgd1na2vs0mg"},{"bike_id":"2c8b55a0-7cee-45a1-85ed-4624a2d1076e","system_id":"levelo_inurba_marseille","lat":43.31324,"lon":5.397,"is_reserved":false,"is_disabled":false,"rental_uris":{"android":"levelo://app?vid=2c8b55a0-7cee-45a1-85ed-4624a2d1076e","ios":"levelo://app?vid=2c8b55a0-7cee-45a1-85ed-4624a2d1076e"},"vehicle_type_id":"4","last_reported":1752390660,"current_range_meters":19600,"station_id":"ce4bgvp2rcd13ifvqcu0","pricing_plan_id":"cebpf4jnsgd1na2vs0mg"},{"bike_id":"2c3c99bf-cf32-4091-9c7c-1387631e831f","system_id":"levelo_inurba_marseille","lat":43.279139,"lon":5.395858,"is_reserved":false,"is_disabled":false,"rental_uris":{"android":"levelo://app?vid=2c3c99bf-cf32-4091-9c7c-1387631e831f","ios":"levelo://app?vid=2c3c99bf-cf32-4091-9c7c-1387631e831f"},"vehicle_type_id":"4","last_reported":1752390660,"current_range_meters":19600,"station_id":"ce4bhf92rcd13ifvqf40","pricing_plan_id":"cebpf4jnsgd1na2vs0mg"},{"bike_id":"697d5fc4-b988-4a4e-8323-c1ce5ed61a61","system_id":"levelo_inurba_marseille","lat":43.21193,"lon":5.35064,"is_reserved":false,"is_disabled":false,"rental_uris":{"android":"levelo://app?vid=697d5fc4-b988-4a4e-8323-c1ce5ed61a61","ios":"levelo://app?vid=697d5fc4-b988-4a4e-8323-c1ce5ed61a61"},"vehicle_type_id":"4","last_reported":1752390660,"current_range_meters":20000,"station_id":"st_cvj6sg6p6f1abm77japg","pricing_plan_id":"cebpf4jnsgd1na2vs0mg"},{"bike_id":"c44e5c2a-1aae-434b-adef-c83ca3b68a1d","system_id":"levelo_inurba_marseille","lat":43.30226,"lon":5.40041,"is_reserved":false,"is_disabled":false,"rental_uris":{"android":"levelo://app?vid=c44e5c2a-1aae-434b-adef-c83ca3b68a1d","ios":"levelo://app?vid=c44e5c2a-1aae-434b-adef-c83ca3b68a1d"},"vehicle_type_id":"4","last_reported":1752390660,"current_range_meters":20000,"station_id":"ce4bgvh2rcd13ifvqcs0","pricing_plan_id":"cebpf4jnsgd1na2vs0mg"},{"bike_id":"b3b271c8-a1a6-454d-b1a0-bb13645aeb85","system_id":"levelo_inurba_marseille","lat":43.308929,"lon":5.371935,"is_reserved":false,"is_disabled":false,"rental_uris":{"android":"levelo://app?vid=b3b271c8-a1a6-454d-b1a0-bb13645aeb85","ios":"levelo://app?vid=b3b271c8-a1a6-454d-b1a0-bb13645aeb85"},"vehicle_type_id":"4","last_reported":1752390660,"current_range_meters":20000,"station_id":"ce4bguh2rcd13ifvqckg","pricing_plan_id":"cebpf4jnsgd1na2vs0mg"},{"bike_id":"6ac174d4-75c5-4a9c-9699-97cd631c6e65","system_id":"levelo_inurba_marseille","lat":43.25468,"lon":5.3994,"is_reserved":false,"is_disabled":false,"rental_uris":{"android":"levelo://app?vid=6ac174d4-75c5-4a9c-9699-97cd631c6e65","ios":"levelo://app?vid=6ac174d4-75c5-4a9c-9699-97cd631c6e65"},"vehicle_type_id":"4","last_reported":1752390660,"current_range_meters":20000,"station_id":"","pricing_plan_id":"cebpf4jnsgd1na2vs0mg"},{"bike_id":"f59f6657-f62a-42fc-a273-bf50a25645d6","system_id":"levelo_inurba_marseille","lat":43.273653,"lon":5.362729,"is_reserved":false,"is_disabled":false,"rental_uris":{"android":"levelo://app?vid=f59f6657-f62a-42fc-a273-bf50a25645d6","ios":"levelo://app?vid=f59f6657-f62a-42fc-a273-bf50a25645d6"},"vehicle_type_id":"4","last_reported":1752390660,"current_range_meters":20000,"station_id":"ce4bhbh2rcd13ifvqeo0","pricing_plan_id":"cebpf4jnsgd1na2vs0mg"},{"bike_id":"a4d07f45-19f9-4df9-9728-be6623530a64","system_id":"levelo_inurba_marseille","lat":43.23733,"lon":5.38876,"is_reserved":false,"is_disabled":false,"rental_uris":{"android":"levelo://app?vid=a4d07f45-19f9-4df9-9728-be6623530a64","ios":"levelo://app?vid=a4d07f45-19f9-4df9-9728-be6623530a64"},"vehicle_type_id":"4","last_reported":1752390660,"current_range_meters":20000,"station_id":"","pricing_plan_id":"cebpf4jnsgd1na2vs0mg"},{"bike_id":"e66ce31b-5bb2-4056-9cd1-34ed82c3f4d4","system_id":"levelo_inurba_marseille","lat":43.31338,"lon":5.39704,"is_reserved":false,"is_disabled":false,"rental_uris":{"android":"levelo://app?vid=e66ce31b-5bb2-4056-9cd1-34ed82c3f4d4","ios":"levelo://app?vid=e66ce31b-5bb2-4056-9cd1-34ed82c3f4d4"},"vehicle_type_id":"4","last_reported":1752390660,"current_range_meters":20000,"station_id":"ce4bgvp2rcd13ifvqcu0","pricing_plan_id":"cebpf4jnsgd1na2vs0mg"},{"bike_id":"736c8338-3beb-4dc1-9360-8b8dcf6c7e4c","system_id":"levelo_inurba_marseille","lat":43.2926,"lon":5.36834,"is_reserved":false,"is_disabled":false,"rental_uris":{"android":"levelo://app?vid=736c8338-3beb-4dc1-9360-8b8dcf6c7e4c","ios":"levelo://app?vid=736c8338-3beb-4dc1-9360-8b8dcf6c7e4c"},"vehicle_type_id":"4","last_reported":1752390660,"current_range_meters":20000,"station_id":"ce4bhbp2rcd13ifvqesg","pricing_plan_id":"cebpf4jnsgd1na2vs0mg"},{"bike_id":"8a01e88a-8371-4085-9838-47ae11897cd3","system_id":"levelo_inurba_marseille","lat":43.28155,"lon":5.42634,"is_reserved":false,"is_disabled":true,"rental_uris":{"android":"levelo://app?vid=8a01e88a-8371-4085-9838-47ae11897cd3","ios":"levelo://app?vid=8a01e88a-8371-4085-9838-47ae11897cd3"},"vehicle_type_id":"4","last_reported":1752390660,"current_range_meters":20000,"station_id":"ce4bhnh2rcd13ifvqgug","pricing_plan_id":"cebpf4jnsgd1na2vs0mg"},{"bike_id":"d8d4cd6b-d88f-4cc5-971c-93348e88d768","system_id":"levelo_inurba_marseille","lat":43.32109,"lon":5.36771,"is_reserved":false,"is_disabled":false,"rental_uris":{"android":"levelo://app?vid=d8d4cd6b-d88f-4cc5-971c-93348e88d768","ios":"levelo://app?vid=d8d4cd6b-d88f-4cc5-971c-93348e88d768"},"vehicle_type_id":"4","last_reported":1752390660,"current_range_meters":20000,"station_id":"ce4bhrh2rcd13ifvqhug","pricing_plan_id":"cebpf4jnsgd1na2vs0mg"},{"bike_id":"76032669-5a05-41a5-8433-ae140af20ad5","system_id":"levelo_inurba_marseille","lat":43.26194,"lon":5.37447,"is_reserved":false,"is_disabled":false,"rental_uris":{"android":"levelo://app?vid=76032669-5a05-41a5-8433-ae140af20ad5","ios":"levelo://app?vid=76032669-5a05-41a5-8433-ae140af20ad5"},"vehicle_type_id":"4","last_reported":1752390660,"current_range_meters":20000,"station_id":"ce4bhgp2rcd13ifvqfc0","pricing_plan_id":"cebpf4jnsgd1na2vs0mg"},{"bike_id":"9b696f60-e243-48d5-9812-273f2965821f","system_id":"levelo_inurba_marseille","lat":43.24807,"lon":5.37459,"is_reserved":false,"is_disabled":false,"rental_uris":{"android":"levelo://app?vid=9b696f60-e243-48d5-9812-273f2965821f","ios":"levelo://app?vid=9b696f60-e243-48d5-9812-273f2965821f"},"vehicle_type_id":"4","last_reported":1752390660,"current_range_meters":20800,"station_id":"ce4bhgh2rcd13ifvqfb0","pricing_plan_id":"cebpf4jnsgd1na2vs0mg"},{"bike_id":"0f1d63f0-d6f9-4182-908b-07c70cc35f23","system_id":"levelo_inurba_marseille","lat":43.30324,"lon":5.40426,"is_reserved":false,"is_disabled":false,"rental_uris":{"android":"levelo://app?vid=0f1d63f0-d6f9-4182-908b-07c70cc35f23","ios":"levelo://app?vid=0f1d63f0-d6f9-4182-908b-07c70cc35f23"},"vehicle_type_id":"4","last_reported":1752390660,"current_range_meters":20800,"station_id":"ce4bh012rcd13ifvqd10","pricing_plan_id":"cebpf4jnsgd1na2vs0mg"},{"bike_id":"2d19d972-b2f8-4b7d-83b2-562b024f0784","system_id":"levelo_inurba_marseille","lat":43.29928,"lon":5.36544,"is_reserved":false,"is_disabled":false,"rental_uris":{"android":"levelo://app?vid=2d19d972-b2f8-4b7d-83b2-562b024f0784","ios":"levelo://app?vid=2d19d972-b2f8-4b7d-83b2-562b024f0784"},"vehicle_type_id":"4","last_reported":1752390660,"current_range_meters":20800,"station_id":"ce4bgm92rcd13ifvqbr0","pricing_plan_id":"cebpf4jnsgd1na2vs0mg"},{"bike_id":"e7c00bf9-d04d-4d1c-88f6-34ff9a3a674b","system_id":"levelo_inurba_marseille","lat":43.28406,"lon":5.37511,"is_reserved":false,"is_disabled":false,"rental_uris":{"android":"levelo://app?vid=e7c00bf9-d04d-4d1c-88f6-34ff9a3a674b","ios":"levelo://app?vid=e7c00bf9-d04d-4d1c-88f6-34ff9a3a674b"},"vehicle_type_id":"4","last_reported":1752390660,"current_range_meters":20800,"station_id":"ce4bh412rcd13ifvqds0","pricing_plan_id":"cebpf4jnsgd1na2vs0mg"},{"bike_id":"0eb37c5e-e474-4e14-b0dd-91b29830a8b4","system_id":"levelo_inurba_marseille","lat":43.30893,"lon":5.37195,"is_reserved":false,"is_disabled":false,"rental_uris":{"android":"levelo://app?vid=0eb37c5e-e474-4e14-b0dd-91b29830a8b4","ios":"levelo://app?vid=0eb37c5e-e474-4e14-b0dd-91b29830a8b4"},"vehicle_type_id":"4","last_reported":1752390660,"current_range_meters":20800,"station_id":"ce4bguh2rcd13ifvqckg","pricing_plan_id":"cebpf4jnsgd1na2vs0mg"},{"bike_id":"7499fc54-ffcd-4522-985f-53ce4e035344","system_id":"levelo_inurba_marseille","lat":43.29572,"lon":5.37513,"is_reserved":false,"is_disabled":false,"rental_uris":{"android":"levelo://app?vid=7499fc54-ffcd-4522-985f-53ce4e035344","ios":"levelo://app?vid=7499fc54-ffcd-4522-985f-53ce4e035344"},"vehicle_type_id":"4","last_reported":1752390660,"current_range_meters":20800,"station_id":"ce4bgh92rcd13ifvqb50","pricing_plan_id":"cebpf4jnsgd1na2vs0mg"},{"bike_id":"e4f60a7e-d35f-404e-924f-8496bc4bb84b","system_id":"levelo_inurba_marseille","lat":43.231919,"lon":5.399849,"is_reserved":false,"is_disabled":false,"rental_uris":{"android":"levelo://app?vid=e4f60a7e-d35f-404e-924f-8496bc4bb84b","ios":"levelo://app?vid=e4f60a7e-d35f-404e-924f-8496bc4bb84b"},"vehicle_type_id":"4","last_reported":1752390660,"current_range_meters":20800,"station_id":"ce4bhn12rcd13ifvqgqg","pricing_plan_id":"cebpf4jnsgd1na2vs0mg"},{"bike_id":"c56d404f-5949-4d6f-8fa1-6fcfbcb5fdfb","system_id":"levelo_inurba_marseille","lat":43.295693,"lon":5.42287,"is_reserved":false,"is_disabled":false,"rental_uris":{"android":"levelo://app?vid=c56d404f-5949-4d6f-8fa1-6fcfbcb5fdfb","ios":"levelo://app?vid=c56d404f-5949-4d6f-8fa1-6fcfbcb5fdfb"},"vehicle_type_id":"4","last_reported":1752390660,"current_range_meters":20800,"station_id":"ce4bhph2rcd13ifvqhdg","pricing_plan_id":"cebpf4jnsgd1na2vs0mg"},{"bike_id":"a6fb0252-4fa7-4f2f-97dc-2e4ecd78aa02","system_id":"levelo_inurba_marseille","lat":43.24391,"lon":5.37065,"is_reserved":false,"is_disabled":false,"rental_uris":{"android":"levelo://app?vid=a6fb0252-4fa7-4f2f-97dc-2e4ecd78aa02","ios":"levelo://app?vid=a6fb0252-4fa7-4f2f-97dc-2e4ecd78aa02"},"vehicle_type_id":"4","last_reported":1752390660,"current_range_meters":20800,"station_id":"ce4bhhh2rcd13ifvqfk0","pricing_plan_id":"cebpf4jnsgd1na2vs0mg"},{"bike_id":"be7496bc-b5b0-468e-8253-c37860a5a769","system_id":"levelo_inurba_marseille","lat":43.298971,"lon":5.436665,"is_reserved":false,"is_disabled":false,"rental_uris":{"android":"levelo://app?vid=be7496bc-b5b0-468e-8253-c37860a5a769","ios":"levelo://app?vid=be7496bc-b5b0-468e-8253-c37860a5a769"},"vehicle_type_id":"4","last_reported":1752390660,"current_range_meters":20800,"station_id":"ce4bhpp2rcd13ifvqhfg","pricing_plan_id":"cebpf4jnsgd1na2vs0mg"},