{"last_updated":1691226353,"ttl":30,"version":"2.2","data":{"bikes":[{"bike_id":"3f9f44c5-19b8-4b87-b198-0c2a0309261b","system_id":"levelo_inurba_marseille","lat":43.313391,"lon":5.36706,"is_reserved":false,"is_disabled":false,"rental_uris":{"android":"levelo://app?vid=3f9f44c5-19b8-4b87-b198-0c2a0309261b","ios":"levelo://app?vid=3f9f44c5-19b8-4b87-b198-0c2a0309261b"},"vehicle_type_id":"4","last_reported":1691226353,"current_range_meters":30400,"station_id":"ce4bgr92rcd13ifvqc6g","pricing_plan_id":"free"},{"bike_id":"f685fa6b-7958-45bb-a915-857e03c8a246","system_id":"levelo_inurba_marseille","lat":43.312239,"lon":5.368562,"is_reserved":false,"is_disabled":false,"rental_uris":{"android":"levelo://app?vid=f685fa6b-7958-45bb-a915-857e03c8a246","ios":"levelo://app?vid=f685fa6b-7958-45bb-a915-857e03c8a246"},"vehicle_type_id":"4","last_reported":1691226353,"current_range_meters":31200,"station_id":"ce4bgl92rcd13ifvqbq0","pricing_plan_id":"free"},{"bike_id":"6c412908-0044-4e9d-87e6-decbc7c1924a","system_id":"levelo_inurba_marseille","lat":43.312239,"lon":5.368562,"is_reserved":false,"is_disabled":false,"rental_uris":{"android":"levelo://app?vid=6c412908-0044-4e9d-87e6-decbc7c1924a","ios":"levelo://app?vid=6c412908-0044-4e9d-87e6-decbc7c1924a"},"vehicle_type_id":"4","last_reported":1691226353,"current_range_meters":31200,"station_id":"ce4bgl92rcd13ifvqbq0","pricing_plan_id":"free"},{"bike_id":"04689c81-7bb5-443c-b5bd-462b792f8694","system_id":"levelo_inurba_marseille","lat":43.31234,"lon":5.36849,"is_reserved":false,"is_disabled":false,"rental_uris":{"android":"levelo://app?vid=04689c81-7bb5-443c-b5bd-462b792f8694","ios":"levelo://app?vid=04689c81-7bb5-443c-b5bd-462b792f8694"},"vehicle_type_id":"4","last_reported":1691226353,"current_range_meters":31200,"station_id":"ce4bgl92rcd13ifvqbq0","pricing_plan_id":"free"},{"bike_id":"21ece8df-39cc-4252-98f2-3d8e510acc57","system_id":"levelo_inurba_marseille","lat":43.31217,"lon":5.3685,"is_reserved":false,"is_disabled":false,"rental_uris":{"android":"levelo://app?vid=21ece8df-39cc-4252-98f2-3d8e510acc57","ios":"levelo://app?vid=21ece8df-39cc-4252-98f2-3d8e510acc57"},"vehicle_type_id":"4","last_reported":1691226353,"current_range_meters":24400,"station_id":"ce4bgl92rcd13ifvqbq0","pricing_plan_id":"free"},{"bike_id":"1fd536f9-265c-4a20-b39a-fd00e40c64e6","system_id":"levelo_inurba_marseille","lat":43.309076,"lon":5.368465,"is_reserved":false,"is_disabled":false,"rental_uris":{"android":"levelo://app?vid=1fd536f9-265c-4a20-b39a-fd00e40c64e6","ios":"levelo://app?vid=1fd536f9-265c-4a20-b39a-fd00e40c64e6"},"vehicle_type_id":"4","last_reported":1691226353,"current_range_meters":30400,"station_id":"ce4bgn92rcd13ifvqbvg","pricing_plan_id":"free"},{"bike_id":"84c2a162-559a-4aef-854b-45ee046c39c1","system_id":"levelo_inurba_marseille","lat":43.314811,"lon":5.373104,"is_reserved":false,"is_disabled":false,"rental_uris":{"android":"levelo://app?vid=84c2a162-559a-4aef-854b-45ee046c39c1","ios":"levelo://app?vid=84c2a162-559a-4aef-854b-45ee046c39c1"},"vehicle_type_id":"4","last_reported":1691226353,"current_range_meters":30400,"station_id":"ce4bgt12rcd13ifvqcd0","pricing_plan_id":"free"},{"bike_id":"3af87ad2-8b76-4d09-87c6-e90c8a768b95","system_id":"levelo_inurba_marseille","lat":43.314811,"lon":5.373103,"is_reserved":false,"is_disabled":false,"rental_uris":{"android":"levelo://app?vid=3af87ad2-8b76-4d09-87c6-e90c8a768b95","ios":"levelo://app?vid=3af87ad2-8b76-4d09-87c6-e90c8a768b95"},"vehicle_type_id":"4","last_reported":1691226353,"current_range_meters":31200,"station_id":"ce4bgt12rcd13ifvqcd0","pricing_plan_id":"free"},{"bike_id":"76dcc736-bc34-42cd-b674-0df565540a86","system_id":"levelo_inurba_marseille","lat":43.31494,"lon":5.37303,"is_reserved":false,"is_disabled":false,"rental_uris":{"android":"levelo://app?vid=76dcc736-bc34-42cd-b674-0df565540a86","ios":"levelo://app?vid=76dcc736-bc34-42cd-b674-0df565540a86"},"vehicle_type_id":"4","last_reported":1691226353,"current_range_meters":30000,"station_id":"ce4bgt12rcd13ifvqcd0","pricing_plan_id":"free"},{"bike_id":"29aae143-753c-4b05-ac5a-5a4a4e99bf43","system_id":"levelo_inurba_marseille","lat":43.314811,"lon":5.373104,"is_reserved":false,"is_disabled":false,"rental_uris":{"android":"levelo://app?vid=29aae143-753c-4b05-ac5a-5a4a4e99bf43","ios":"levelo://app?vid=29aae143-753c-4b05-ac5a-5a4a4e99bf43"},"vehicle_type_id":"4","last_reported":1691226353,"current_range_meters":30400,"station_id":"ce4bgt12rcd13ifvqcd0","pricing_plan_id":"free"},{"bike_id":"feaf43a5-6d82-4938-8e81-696b6e237efc","system_id":"levelo_inurba_marseille","lat":43.314811,"lon":5.373104,"is_reserved":false,"is_disabled":false,"rental_uris":{"android":"levelo://app?vid=feaf43a5-6d82-4938-8e81-696b6e237efc","ios":"levelo://app?vid=feaf43a5-6d82-4938-8e81-696b6e237efc"},"vehicle_type_id":"4","last_reported":1691226353,"current_range_meters":30400,"station_id":"ce4bgt12rcd13ifvqcd0","pricing_plan_id":"free"},{"bike_id":"324823a4-6eda-470c-ac62-93597ac6af4c","system_id":"levelo_inurba_marseille","lat":43.314811,"lon":5.373104,"is_reserved":false,"is_disabled":false,"rental_uris":{"android":"levelo://app?vid=324823a4-6eda-470c-ac62-93597ac6af4c","ios":"levelo://app?vid=324823a4-6eda-470c-ac62-93597ac6af4c"},"vehicle_type_id":"4","last_reported":1691226353,"current_range_meters":28400,"station_id":"ce4bgt12rcd13ifvqcd0","pricing_plan_id":"free"},{"bike_id":"f8706ded-5520-404f-98ec-8c41ed8d79a2","system_id":"levelo_inurba_marseille","lat":43.309039,"lon":5.371797,"is_reserved":false,"is_disabled":false,"rental_uris":{"android":"levelo://app?vid=f8706ded-5520-404f-98ec-8c41ed8d79a2","ios":"levelo://app?vid=f8706ded-5520-404f-98ec-8c41ed8d79a2"},"vehicle_type_id":"4","last_reported":1691226353,"current_range_meters":24000,"station_id":"ce4bguh2rcd13ifvqckg","pricing_plan_id":"free"},{"bike_id":"7cfb81a3-fd7f-41d1-987d-c1037b7c6b4a","system_id":"levelo_inurba_marseille","lat":43.31428,"lon":5.37431,"is_reserved":false,"is_disabled":false,"rental_uris":{"android":"levelo://app?vid=7cfb81a3-fd7f-41d1-987d-c1037b7c6b4a","ios":"levelo://app?vid=7cfb81a3-fd7f-41d1-987d-c1037b7c6b4a"},"vehicle_type_id":"4","last_reported":1691226353,"current_range_meters":13600,"station_id":"","pricing_plan_id":"free"},{"bike_id":"3c830fb1-82f7-4934-9aba-39db4506027c","system_id":"levelo_inurba_marseille","lat":43.305368,"lon":5.367343,"is_reserved":false,"is_disabled":false,"rental_uris":{"android":"levelo://app?vid=3c830fb1-82f7-4934-9aba-39db4506027c","ios":"levelo://app?vid=3c830fb1-82f7-4934-9aba-39db4506027c"},"vehicle_type_id":"4","last_reported":1691226353,"current_range_meters":31200,"station_id":"ce4bgrp2rcd13ifvqc9g","pricing_plan_id":"free"},{"bike_id":"5f520f07-e497-40b5-a3cd-555e35a0f312","system_id":"levelo_inurba_marseille","lat":43.305714,"lon":5.365633,"is_reserved":false,"is_disabled":false,"rental_uris":{"android":"levelo://app?vid=5f520f07-e497-40b5-a3cd-555e35a0f312","ios":"levelo://app?vid=5f520f07-e497-40b5-a3cd-555e35a0f312"},"vehicle_type_id":"4","last_reported":1691226353,"current_range_meters":18400,"station_id":"ce4bgs12rcd13ifvqcag","pricing_plan_id":"free"},{"bike_id":"e6db9d52-bcee-4955-96df-b7a4e377d1fa","system_id":"levelo_inurba_marseille","lat":43.305714,"lon":5.365633,"is_reserved":false,"is_disabled":false,"rental_uris":{"android":"levelo://app?vid=e6db9d52-bcee-4955-96df-b7a4e377d1fa","ios":"levelo://app?vid=e6db9d52-bcee-4955-96df-b7a4e377d1fa"},"vehicle_type_id":"4","last_reported":1691226353,"current_range_meters":19600,"station_id":"ce4bgs12rcd13ifvqcag","pricing_plan_id":"free"},{"bike_id":"be7005bf-b206-49fc-936e-f574ba62db5e","system_id":"levelo_inurba_marseille","lat":43.30536,"lon":5.36524,"is_reserved":false,"is_disabled":false,"rental_uris":{"android":"levelo://app?vid=be7005bf-b206-49fc-936e-f574ba62db5e","ios":"levelo://app?vid=be7005bf-b206-49fc-936e-f574ba62db5e"},"vehicle_type_id":"4","last_reported":1691226353,"current_range_meters":12400,"station_id":"ce4bgs12rcd13ifvqcag","pricing_plan_id":"free"},{"bike_id":"1dea4d92-bb73-4417-824c-38910857b464","system_id":"levelo_inurba_marseille","lat":43.305714,"lon":5.365633,"is_reserved":false,"is_disabled":false,"rental_uris":{"android":"levelo://app?vid=1dea4d92-bb73-4417-824c-38910857b464","ios":"levelo://app?vid=1dea4d92-bb73-4417-824c-38910857b464"},"vehicle_type_id":"4","last_reported":1691226353,"current_range_meters":31200,"station_id":"ce4bgs12rcd13ifvqcag","pricing_plan_id":"free"},{"bike_id":"c982f49c-13f2-41f5-9797-9e3322d113d9","system_id":"levelo_inurba_marseille","lat":43.306151,"lon":5.372239,"is_reserved":false,"is_disabled":false,"rental_uris":{"android":"levelo://app?vid=c982f49c-13f2-41f5-9797-9e3322d113d9","ios":"levelo://app?vid=c982f49c-13f2-41f5-9797-9e3322d113d9"},"vehicle_type_id":"4","last_reported":1691226353,"current_range_meters":14400,"station_id":"ce4bgqh2rcd13ifvqc4g","pricing_plan_id":"free"},{"bike_id":"8dd99981-fce3-4d0c-920d-f01d6a53af61","system_id":"levelo_inurba_marseille","lat":43.305989,"lon":5.37225,"is_reserved":false,"is_disabled":false,"rental_uris":{"android":"levelo://app?vid=8dd99981-fce3-4d0c-920d-f01d6a53af61","ios":"levelo://app?vid=8dd99981-fce3-4d0c-920d-f01d6a53af61"},"vehicle_type_id":"4","last_reported":1691226353,"current_range_meters":26800,"station_id":"ce4bgqh2rcd13ifvqc4g","pricing_plan_id":"free"},{"bike_id":"f20ea888-8740-440b-bfeb-8eb2a7c1f652","system_id":"levelo_inurba_marseille","lat":43.305989,"lon":5.37225,"is_reserved":false,"is_disabled":false,"rental_uris":{"android":"levelo://app?vid=f20ea888-8740-440b-bfeb-8eb2a7c1f652","ios":"levelo://app?vid=f20ea888-8740-440b-bfeb-8eb2a7c1f652"},"vehicle_type_id":"4","last_reported":1691226353,"current_range_meters":30000,"station_id":"ce4bgqh2rcd13ifvqc4g","pricing_plan_id":"free"},{"bike_id":"7b434a43-45cc-4cc5-b83b-fc5f6a8edde5","system_id":"levelo_inurba_marseille","lat":43.311131,"lon":5.377651,"is_reserved":false,"is_disabled":false,"rental_uris":{"android":"levelo://app?vid=7b434a43-45cc-4cc5-b83b-fc5f6a8edde5","ios":"levelo://app?vid=7b434a43-45cc-4cc5-b83b-fc5f6a8edde5"},"vehicle_type_id":"4","last_reported":1691226353,"current_range_meters":30400,"station_id":"ce4bgt92rcd13ifvqcg0","pricing_plan_id":"free"},{"bike_id":"6e7d2a81-eb04-467b-8744-5fac68edc62a","system_id":"levelo_inurba_marseille","lat":43.307945,"lon":5.376487,"is_reserved":false,"is_disabled":false,"rental_uris":{"android":"levelo://app?vid=6e7d2a81-eb04-467b-8744-5fac68edc62a","ios":"levelo://app?vid=6e7d2a81-eb04-467b-8744-5fac68edc62a"},"vehicle_type_id":"4","last_reported":1691226353,"current_range_meters":4000,"station_id":"ce4bgv92rcd13ifvqcq0","pricing_plan_id":"free"},{"bike_id":"779b8727-f0ac-4067-ba52-05d894e12a6f","system_id":"levelo_inurba_marseille","lat":43.307945,"lon":5.376487,"is_reserved":false,"is_disabled":false,"rental_uris":{"android":"levelo://app?vid=779b8727-f0ac-4067-ba52-05d894e12a6f","ios":"levelo://app?vid=779b8727-f0ac-4067-ba52-05d894e12a6f"},"vehicle_type_id":"4","last_reported":1691226353,"current_range_meters":6400,"station_id":"ce4bgv92rcd13ifvqcq0","pricing_plan_id":"free"},{"bike_id":"40168c04-6ab5-4212-a37e-b53ff283ee0d","system_id":"levelo_inurba_marseille","lat":43.3078,"lon":5.37652,"is_reserved":false,"is_disabled":false,"rental_uris":{"android":"levelo://app?vid=40168c04-6ab5-4212-a37e-b53ff283ee0d","ios":"levelo://app?vid=40168c04-6ab5-4212-a37e-b53ff283ee0d"},"vehicle_type_id":"4","last_reported":1691226353,"current_range_meters":23600,"station_id":"ce4bgv92rcd13ifvqcq0","pricing_plan_id":"free"},{"bike_id":"fb0358a7-4219-4ba3-a4a2-86ac9db9e0ff","system_id":"levelo_inurba_marseille","lat":43.317075,"lon":5.377367,"is_reserved":false,"is_disabled":false,"rental_uris":{"android":"levelo://app?vid=fb0358a7-4219-4ba3-a4a2-86ac9db9e0ff","ios":"levelo://app?vid=fb0358a7-4219-4ba3-a4a2-86ac9db9e0ff"},"vehicle_type_id":"4","last_reported":1691226353,"current_range_meters":19600,"station_id":"ce4bgth2rcd13ifvqch0","pricing_plan_id":"free"},{"bike_id":"1cfca094-90e4-4adc-984c-52001b3d4c4b","system_id":"levelo_inurba_marseille","lat":43.304606,"lon":5.379026,"is_reserved":false,"is_disabled":false,"rental_uris":{"android":"levelo://app?vid=1cfca094-90e4-4adc-984c-52001b3d4c4b","ios":"levelo://app?vid=1cfca094-90e4-4adc-984c-52001b3d4c4b"},"vehicle_type_id":"4","last_reported":1691226353,"current_range_meters":28000,"station_id":"ce4bgup2rcd13ifvqcn0","pricing_plan_id":"free"},{"bike_id":"377c9ba9-aa8b-4a38-a070-884fea08898c","system_id":"levelo_inurba_marseille","lat":43.304606,"lon":5.379026,"is_reserved":false,"is_disabled":false,"rental_uris":{"android":"levelo://app?vid=377c9ba9-aa8b-4a38-a070-884fea08898c","ios":"levelo://app?vid=377c9ba9-aa8b-4a38-a070-884fea08898c"},"vehicle_type_id":"4","last_reported":1691226353,"current_range_meters":31200,"station_id":"ce4bgup2rcd13ifvqcn0","pricing_plan_id":"free"},{"bike_id":"83cb1884-b329-4cf6-89ec-d66b1737e981","system_id":"levelo_inurba_marseille","lat":43.304606,"lon":5.379026,"is_reserved":false,"is_disabled":false,"rental_uris":{"android":"levelo://app?vid=83cb1884-b329-4cf6-89ec-d66b1737e981","ios":"levelo://app?vid=83cb1884-b329-4cf6-89ec-d66b1737e981"},"vehicle_type_id":"4","last_reported":1691226353,"current_range_meters":31200,"station_id":"ce4bgup2rcd13ifvqcn0","pricing_plan_id":"free"},{"bike_id":"3967c440-e2a1-492d-8b2a-5ecfec9e0da4","system_id":"levelo_inurba_marseille","lat":43.304606,"lon":5.379026,"is_reserved":false,"is_disabled":false,"rental_uris":{"android":"levelo://app?vid=3967c440-e2a1-492d-8b2a-5ecfec9e0da4","ios":"levelo://app?vid=3967c440-e2a1-492d-8b2a-5ecfec9e0da4"},"vehicle_type_id":"4","last_reported":1691226353,"current_range_meters":26800,"station_id":"ce4bgup2rcd13ifvqcn0","pricing_plan_id":"free"},{"bike_id":"f04b5a42-bfa4-454c-8ccd-c9ba748dd428","system_id":"levelo_inurba_marseille","lat":43.304606,"lon":5.379026,"is_reserved":false,"is_disabled":false,"rental_uris":{"android":"levelo://app?vid=f04b5a42-bfa4-454c-8ccd-c9ba748dd428","ios":"levelo://app?vid=f04b5a42-bfa4-454c-8ccd-c9ba748dd428"},"vehicle_type_id":"4","last_reported":1691226353,"current_range_meters":28800,"station_id":"ce4bgup2rcd13ifvqcn0","pricing_plan_id":"free"},{"bike_id":"760ddd77-8b05-45a0-b78f-0410716192e3","system_id":"levelo_inurba_marseille","lat":43.304606,"lon":5.379026,"is_reserved":false,"is_disabled":false,"rental_uris":{"android":"levelo://app?vid=760ddd77-8b05-45a0-b78f-0410716192e3","ios":"levelo://app?vid=760ddd77-8b05-45a0-b78f-0410716192e3"},"vehicle_type_id":"4","last_reported":1691226353,"current_range_meters":22000,"station_id":"ce4bgup2rcd13ifvqcn0","pricing_plan_id":"free"},{"bike_id":"51f1172f-3b70-4b19-bba4-9c6a3830282b","system_id":"levelo_inurba_marseille","lat":43.304606,"lon":5.379026,"is_reserved":false,"is_disabled":false,"rental_uris":{"android":"levelo://app?vid=51f1172f-3b70-4b19-bba4-9c6a3830282b","ios":"levelo://app?vid=51f1172f-3b70-4b19-bba4-9c6a3830282b"},"vehicle_type_id":"4","last_reported":1691226353,"current_range_meters":29200,"station_id":"ce4bgup2rcd13ifvqcn0","pricing_plan_id":"free"},{"bike_id":"f31ae723-4e56-4783-9687-42ea3299128b","system_id":"levelo_inurba_marseille","lat":43.304606,"lon":5.379026,"is_reserved":false,"is_disabled":false,"rental_uris":{"android":"levelo://app?vid=f31ae723-4e56-4783-9687-42ea3299128b","ios":"levelo://app?vid=f31ae723-4e56-4783-9687-42ea3299128b"},"vehicle_type_id":"4","last_reported":1691226353,"current_range_meters":29600,"station_id":"ce4bgup2rcd13ifvqcn0","pricing_plan_id":"free"},{"bike_id":"ba7e618c-dae2-4a01-8b8e-3b8634ad0c9b","system_id":"levelo_inurba_marseille","lat":43.304606,"lon":5.379026,"is_reserved":false,"is_disabled":false,"rental_uris":{"android":"levelo://app?vid=ba7e618c-dae2-4a01-8b8e-3b8634ad0c9b","ios":"levelo://app?vid=ba7e618c-dae2-4a01-8b8e-3b8634ad0c9b"},"vehicle_type_id":"4","last_reported":1691226353,"current_range_meters":31600,"station_id":"ce4bgup2rcd13ifvqcn0","pricing_plan_id":"free"},{"bike_id":"8a50fcf8-f361-4ca1-ae02-c7143c23ff44","system_id":"levelo_inurba_marseille","lat":43.304606,"lon":5.379026,"is_reserved":false,"is_disabled":false,"rental_uris":{"android":"levelo://app?vid=8a50fcf8-f361-4ca1-ae02-c7143c23ff44","ios":"levelo://app?vid=8a50fcf8-f361-4ca1-ae02-c7143c23ff44"},"vehicle_type_id":"4","last_reported":1691226353,"current_range_meters":30800,"station_id":"ce4bgup2rcd13ifvqcn0","pricing_plan_id":"free"},{"bike_id":"60672521-cc43-408d-92af-d67dc9f6feaa","system_id":"levelo_inurba_marseille","lat":43.304606,"lon":5.379026,"is_reserved":false,"is_disabled":false,"rental_uris":{"android":"levelo://app?vid=60672521-cc43-408d-92af-d67dc9f6feaa","ios":"levelo://app?vid=60672521-cc43-408d-92af-d67dc9f6feaa"},"vehicle_type_id":"4","last_reported":1691226353,"current_range_meters":2400,"station_id":"ce4bgup2rcd13ifvqcn0","pricing_plan_id":"free"},{"bike_id":"1e341a42-fc0f-4d9c-b3c7-5720f38d6397","system_id":"levelo_inurba_marseille","lat":43.304606,"lon":5.379026,"is_reserved":false,"is_disabled":false,"rental_uris":{"android":"levelo://app?vid=1e341a42-fc0f-4d9c-b3c7-5720f38d6397","ios":"levelo://app?vid=1e341a42-fc0f-4d9c-b3c7-5720f38d6397"},"vehicle_type_id":"4","last_reported":1691226353,"current_range_meters":30000,"station_id":"ce4bgup2rcd13ifvqcn0","pricing_plan_id":"free"},{"bike_id":"1d2a719d-ac7a-4b39-a516-40faa6426f22","system_id":"levelo_inurba_marseille","lat":43.304606,"lon":5.379026,"is_reserved":false,"is_disabled":false,"rental_uris":{"android":"levelo://app?vid=1d2a719d-ac7a-4b39-a516-40faa6426f22","ios":"levelo://app?vid=1d2a719d-ac7a-4b39-a516-40faa6426f22"},"vehicle_type_id":"4","last_reported":1691226353,"current_range_meters":24400,"station_id":"ce4bgup2rcd13ifvqcn0","pricing_plan_id":"free"},{"bike_id":"57cd1608-4a05-4ad7-95e5-197548ded004","system_id":"levelo_inurba_marseille","lat":43.304606,"lon":5.379026,"is_reserved":false,"is_disabled":false,"rental_uris":{"android":"levelo://app?vid=57cd1608-4a05-4ad7-95e5-197548ded004","ios":"levelo://app?vid=57cd1608-4a05-4ad7-95e5-197548ded004"},"vehicle_type_id":"4","last_reported":1691226353,"current_range_meters":26800,"station_id":"ce4bgup2rcd13ifvqcn0","pricing_plan_id":"free"},{"bike_id":"42272e56-1640-4558-8c96-66e82e971759","system_id":"levelo_inurba_marseille","lat":43.30462,"lon":5.37898,"is_reserved":false,"is_disabled":false,"rental_uris":{"android":"levelo://app?vid=42272e56-1640-4558-8c96-66e82e971759","ios":"levelo://app?vid=42272e56-1640-4558-8c96-66e82e971759"},"vehicle_type_id":"4","last_reported":1691226353,"current_range_meters":10400,"station_id":"ce4bgup2rcd13ifvqcn0","pricing_plan_id":"free"},{"bike_id":"45fef61f-30dc-4029-b3d1-83e3c1de7d32","system_id":"levelo_inurba_marseille","lat":43.304606,"lon":5.379026,"is_reserved":false,"is_disabled":false,"rental_uris":{"android":"levelo://app?vid=45fef61f-30dc-4029-b3d1-83e3c1de7d32","ios":"levelo://app?vid=45fef61f-30dc-4029-b3d1-83e3c1de7d32"},"vehicle_type_id":"4","last_reported":1691226353,"current_range_meters":23600,"station_id":"ce4bgup2rcd13ifvqcn0","pricing_plan_id":"free"},{"bike_id":"fab5eea8-abc0-4725-88ab-b7b733f3e999","system_id":"levelo_inurba_marseille","lat":43.304606,"lon":5.379026,"is_reserved":false,"is_disabled":false,"rental_uris":{"android":"levelo://app?vid=fab5eea8-abc0-4725-88ab-b7b733f3e999","ios":"levelo://app?vid=fab5eea8-abc0-4725-88ab-b7b733f3e999"},"vehicle_type_id":"4","last_reported":1691226353,"current_range_meters":12400,"station_id":"ce4bgup2rcd13ifvqcn0","pricing_plan_id":"free"},{"bike_id":"01e23aa0-fd70-41a5-895b-b8989a3e9477","system_id":"levelo_inurba_marseille","lat":43.30461,"lon":5.37898,"is_reserved":false,"is_disabled":false,"rental_uris":{"android":"levelo://app?vid=01e23aa0-fd70-41a5-895b-b8989a3e9477","ios":"levelo://app?vid=01e23aa0-fd70-41a5-895b-b8989a3e9477"},"vehicle_type_id":"4","last_reported":1691226353,"current_range_meters":4400,"station_id":"ce4bgup2rcd13ifvqcn0","pricing_plan_id":"free"},{"bike_id":"84328d34-d54b-41fa-95be-49c8744dff68","system_id":"levelo_inurba_marseille","lat":43.304606,"lon":5.379026,"is_reserved":false,"is_disabled":false,"rental_uris":{"android":"levelo://app?vid=84328d34-d54b-41fa-95be-49c8744dff68","ios":"levelo://app?vid=84328d34-d54b-41fa-95be-49c8744dff68"},"vehicle_type_id":"4","last_reported":1691226353,"current_range_meters":20000,"station_id":"ce4bgup2rcd13ifvqcn0","pricing_plan_id":"free"},{"bike_id":"23430869-9f82-4d24-bd2d-6923c5487fb8","system_id":"levelo_inurba_marseille","lat":43.304663,"lon":5.379049,"is_reserved":false,"is_disabled":false,"rental_uris":{"android":"levelo://app?vid=23430869-9f82-4d24-bd2d-6923c5487fb8","ios":"levelo://app?vid=23430869-9f82-4d24-bd2d-6923c5487fb8"},"vehicle_type_id":"4","last_reported":1691226353,"current_range_meters":23200,"station_id":"","pricing_plan_id":"free"},{"bike_id":"a62412a6-583c-4d4a-a7bc-f8eef34fad6a","system_id":"levelo_inurba_marseille","lat":43.304606,"lon":5.379026,"is_reserved":false,"is_disabled":false,"rental_uris":{"android":"levelo://app?vid=a62412a6-583c-4d4a-a7bc-f8eef34fad6a","ios":"levelo://app?vid=a62412a6-583c-4d4a-a7bc-f8eef34fad6a"},"vehicle_type_id":"4","last_reported":1691226353,"current_range_meters":14800,"station_id":"ce4bgup2rcd13ifvqcn0","pricing_plan_id":"free"},{"bike_id":"d5775835-249c-40b5-90b9-3721455df2fd","system_id":"levelo_inurba_marseille","lat":43.30459,"lon":5.37896,"is_reserved":false,"is_disabled":false,"rental_uris":{"android":"levelo://app?vid=d5775835-249c-40b5-90b9-3721455df2fd","ios":"levelo://app?vid=d5775835-249c-40b5-90b9-3721455df2fd"},"vehicle_type_id":"4","last_reported":1691226353,"current_range_meters":4000,"station_id":"ce4bgup2rcd13ifvqcn0","pricing_plan_id":"free"},{"bike_id":"500f32bf-26c5-4057-ba46-a384fb1e6456","system_id":"levelo_inurba_marseille","lat":43.304606,"lon":5.379026,"is_reserved":false,"is_disabled":false,"rental_uris":{"android":"levelo://app?vid=500f32bf-26c5-4057-ba46-a384fb1e6456","ios":"levelo://app?vid=500f32bf-26c5-4057-ba46-a384fb1e6456"},"vehicle_type_id":"4","last_reported":1691226353,"current_range_meters":24000,"station_id":"ce4bgup2rcd13ifvqcn0","pricing_plan_id":"free"},{"bike_id":"c0a22711-8fef-4009-a1c5-22c3c82a1bb1","system_id":"levelo_inurba_marseille","lat":43.304606,"lon":5.379026,"is_reserved":false,"is_disabled":false,"rental_uris":{"android":"levelo://app?vid=c0a22711-8fef-4009-a1c5-22c3c82a1bb1","ios":"levelo://app?vid=c0a22711-8fef-4009-a1c5-22c3c82a1bb1"},"vehicle_type_id":"4","last_reported":1691226353,"current_range_meters":15200,"station_id":"ce4bgup2rcd13ifvqcn0","pricing_plan_id":"free"},{"bike_id":"45e2bc97-b1ee-483c-8240-e533d2b34a48","system_id":"levelo_inurba_marseille","lat":43.304606,"lon":5.379026,"is_reserved":false,"is_disabled":false,"rental_uris":{"android":"levelo://app?vid=45e2bc97-b1ee-483c-8240-e533d2b34a48","ios":"levelo://app?vid=45e2bc97-b1ee-483c-8240-e533d2b34a48"},"vehicle_type_id":"4","last_reported":1691226353,"current_range_meters":18400,"station_id":"ce4bgup2rcd13ifvqcn0","pricing_plan_id":"free"},{"bike_id":"984ed13a-0118-4529-a19b-50aad0d064fc","system_id":"levelo_inurba_marseille","lat":43.304606,"lon":5.379026,"is_reserved":false,"is_disabled":false,"rental_uris":{"android":"levelo://app?vid=984ed13a-0118-4529-a19b-50aad0d064fc","ios":"levelo://app?vid=984ed13a-0118-4529-a19b-50aad0d064fc"},"vehicle_type_id":"4","last_reported":1691226353,"current_range_meters":28400,"station_id":"ce4bgup2rcd13ifvqcn0","pricing_plan_id":"free"},{"bike_id":"dc391821-5552-47d8-b1c7-6f35356f7ddc","system_id":"levelo_inurba_marseille","lat":43.304606,"lon":5.379026,"is_reserved":false,"is_disabled":false,"rental_uris":{"android":"levelo://app?vid=dc391821-5552-47d8-b1c7-6f35356f7ddc","ios":"levelo://app?vid=dc391821-5552-47d8-b1c7-6f35356f7ddc"},"vehicle_type_id":"4","last_reported":1691226353,"current_range_meters":31200,"station_id":"ce4bgup2rcd13ifvqcn0","pricing_plan_id":"free"},{"bike_id":"79ea5429-2576-426f-a282-2b317a95fdc8","system_id":"levelo_inurba_marseille","lat":43.304606,"lon":5.379026,"is_reserved":false,"is_disabled":false,"rental_uris":{"android":"levelo://app?vid=79ea5429-2576-426f-a282-2b317a95fdc8","ios":"levelo://app?vid=79ea5429-2576-426f-a282-2b317a95fdc8"},"vehicle_type_id":"4","last_reported":1691226353,"current_range_meters":22800,"station_id":"ce4bgup2rcd13ifvqcn0","pricing_plan_id":"free"},{"bike_id":"1cf60fd8-a140-4ed9-8f1f-e622edc1d607","system_id":"levelo_inurba_marseille","lat":43.304606,"lon":5.379026,"is_reserved":false,"is_disabled":false,"rental_uris":{"android":"levelo://app?vid=1cf60fd8-a140-4ed9-8f1f-e622edc1d607","ios":"levelo://app?vid=1cf60fd8-a140-4ed9-8f1f-e622edc1d607"},"vehicle_type_id":"4","last_reported":1691226353,"current_range_meters":25600,"station_id":"ce4bgup2rcd13ifvqcn0","pricing_plan_id":"free"},{"bike_id":"6fcc727b-9acb-4713-84da-ef5646fdc456","system_id":"levelo_inurba_marseille","lat":43.304606,"lon":5.379026,"is_reserved":false,"is_disabled":false,"rental_uris":{"android":"levelo://app?vid=6fcc727b-9acb-4713-84da-ef5646fdc456","ios":"levelo://app?vid=6fcc727b-9acb-4713-84da-ef5646fdc456"},"vehicle_type_id":"4","last_reported":1691226353,"current_range_meters":29600,"station_id":"ce4bgup2rcd13ifvqcn0","pricing_plan_id":"free"},{"bike_id":"1996cd56-68fc-4d64-a481-99494a2fc6a5","system_id":"levelo_inurba_marseille","lat":43.304606,"lon":5.379026,"is_reserved":false,"is_disabled":false,"rental_uris":{"android":"levelo://app?vid=1996cd56-68fc-4d64-a481-99494a2fc6a5","ios":"levelo://app?vid=1996cd56-68fc-4d64-a481-99494a2fc6a5"},"vehicle_type_id":"4","last_reported":1691226353,"current_range_meters":31600,"station_id":"ce4bgup2rcd13ifvqcn0","pricing_plan_id":"free"},{"bike_id":"adb25dd8-67db-4ed2-8b6f-e55837503c80","system_id":"levelo_inurba_marseille","lat":43.302784,"lon":5.377158,"is_reserved":false,"is_disabled":false,"rental_uris":{"android":"levelo://app?vid=adb25dd8-67db-4ed2-8b6f-e55837503c80","ios":"levelo://app?vid=adb25dd8-67db-4ed2-8b6f-e55837503c80"},"vehicle_type_id":"4","last_reported":1691226353,"current_range_meters":30400,"station_id":"ce4bguh2rcd13ifvqcj0","pricing_plan_id":"free"},{"bike_id":"ed98e0d5-a7b5-4bae-8b75-6d2af3d6622c","system_id":"levelo_inurba_marseille","lat":43.30269,"lon":5.37695,"is_reserved":false,"is_disabled":false,"rental_uris":{"android":"levelo://app?vid=ed98e0d5-a7b5-4bae-8b75-6d2af3d6622c","ios":"levelo://app?vid=ed98e0d5-a7b5-4bae-8b75-6d2af3d6622c"},"vehicle_type_id":"4","last_reported":1691226353,"current_range_meters":31200,"station_id":"ce4bguh2rcd13ifvqcj0","pricing_plan_id":"free"},{"bike_id":"d5f7f396-3296-41b5-bc26-a6ef0187ad90","system_id":"levelo_inurba_marseille","lat":43.31995,"lon":5.38139,"is_reserved":false,"is_disabled":false,"rental_uris":{"android":"levelo://app?vid=d5f7f396-3296-41b5-bc26-a6ef0187ad90","ios":"levelo://app?vid=d5f7f396-3296-41b5-bc26-a6ef0187ad90"},"vehicle_type_id":"4","last_reported":1691226353,"current_range_meters":22400,"station_id":"ce4bhr12rcd13ifvqhpg","pricing_plan_id":"free"},{"bike_id":"ec6ed6b9-203a-4de4-b873-0449f8d8115f","system_id":"levelo_inurba_marseille","lat":43.319935,"lon":5.381699,"is_reserved":false,"is_disabled":false,"rental_uris":{"android":"levelo://app?vid=ec6ed6b9-203a-4de4-b873-0449f8d8115f","ios":"levelo://app?vid=ec6ed6b9-203a-4de4-b873-0449f8d8115f"},"vehicle_type_id":"4","last_reported":1691226353,"current_range_meters":22400,"station_id":"ce4bhr12rcd13ifvqhpg","pricing_plan_id":"free"},{"bike_id":"117b932e-3a02-4ca4-971b-c36a27e2e26c","system_id":"levelo_inurba_marseille","lat":43.319935,"lon":5.381699,"is_reserved":false,"is_disabled":false,"rental_uris":{"android":"levelo://app?vid=117b932e-3a02-4ca4-971b-c36a27e2e26c","ios":"levelo://app?vid=117b932e-3a02-4ca4-971b-c36a27e2e26c"},"vehicle_type_id":"4","last_reported":1691226353,"current_range_meters":26800,"station_id":"ce4bhr12rcd13ifvqhpg","pricing_plan_id":"free"},{"bike_id":"545df90f-616d-4e58-846f-539771e56d0a","system_id":"levelo_inurba_marseille","lat":43.313571,"lon":5.384829,"is_reserved":false,"is_disabled":false,"rental_uris":{"android":"levelo://app?vid=545df90f-616d-4e58-846f-539771e56d0a","ios":"levelo://app?vid=545df90f-616d-4e58-846f-539771e56d0a"},"vehicle_type_id":"4","last_reported":1691226353,"current_range_meters":0,"station_id":"ce4bgt92rcd13ifvqcf0","pricing_plan_id":"free"},{"bike_id":"3cb7fd70-121e-4eb5-9a01-ecc8718aa1bb","system_id":"levelo_inurba_marseille","lat":43.29946,"lon":5.36524,"is_reserved":false,"is_disabled":false,"rental_uris":{"android":"levelo://app?vid=3cb7fd70-121e-4eb5-9a01-ecc8718aa1bb","ios":"levelo://app?vid=3cb7fd70-121e-4eb5-9a01-ecc8718aa1bb"},"vehicle_type_id":"4","last_reported":1691226353,"current_range_meters":28800,"station_id":"ce4bgm92rcd13ifvqbr0","pricing_plan_id":"free"},{"bike_id":"62bdb58d-71fd-4ebc-802e-1ec9b7a51497","system_id":"levelo_inurba_marseille","lat":43.299373,"lon":5.365479,"is_reserved":false,"is_disabled":false,"rental_uris":{"android":"levelo://app?vid=62bdb58d-71fd-4ebc-802e-1ec9b7a51497","ios":"levelo://app?vid=62bdb58d-71fd-4ebc-802e-1ec9b7a51497"},"vehicle_type_id":"4","last_reported":1691226353,"current_range_meters":16000,"station_id":"ce4bgm92rcd13ifvqbr0","pricing_plan_id":"free"},{"bike_id":"f7ab85c1-9dd9-4c19-adff-2bfdc5d2b64f","system_id":"levelo_inurba_marseille","lat":43.299222,"lon":5.365554,"is_reserved":false,"is_disabled":false,"rental_uris":{"android":"levelo://app?vid=f7ab85c1-9dd9-4c19-adff-2bfdc5d2b64f","ios":"levelo://app?vid=f7ab85c1-9dd9-4c19-adff-2bfdc5d2b64f"},"vehicle_type_id":"4","last_reported":1691226353,"current_range_meters":24400,"station_id":"ce4bgm92rcd13ifvqbr0","pricing_plan_id":"free"},{"bike_id":"f561a0da-e8f5-41b4-b41a-e92f31e13ee1","system_id":"levelo_inurba_marseille","lat":43.298433,"lon":5.362774,"is_reserved":false,"is_disabled":false,"rental_uris":{"android":"levelo://app?vid=f561a0da-e8f5-41b4-b41a-e92f31e13ee1","ios":"levelo://app?vid=f561a0da-e8f5-41b4-b41a-e92f31e13ee1"},"vehicle_type_id":"4","last_reported":1691226353,"current_range_meters":28400,"station_id":"ce4bgpp2rcd13ifvqc3g","pricing_plan_id":"free"},{"bike_id":"c9aa5f68-aa69-4167-9549-a4912b036a91","system_id":"levelo_inurba_marseille","lat":43.305364,"lon":5.384119,"is_reserved":false,"is_disabled":false,"rental_uris":{"android":"levelo://app?vid=c9aa5f68-aa69-4167-9549-a4912b036a91","ios":"levelo://app?vid=c9aa5f68-aa69-4167-9549-a4912b036a91"},"vehicle_type_id":"4","last_reported":1691226353,"current_range_meters":21600,"station_id":"ce4bgg92rcd13ifvqb30","pricing_plan_id":"free"},{"bike_id":"30537d43-af02-4a10-b928-7b9b8cf633d2","system_id":"levelo_inurba_marseille","lat":43.3054,"lon":5.38422,"is_reserved":false,"is_disabled":false,"rental_uris":{"android":"levelo://app?vid=30537d43-af02-4a10-b928-7b9b8cf633d2","ios":"levelo://app?vid=30537d43-af02-4a10-b928-7b9b8cf633d2"},"vehicle_type_id":"4","last_reported":1691226353,"current_range_meters":30800,"station_id":"ce4bgg92rcd13ifvqb30","pricing_plan_id":"free"},{"bike_id":"ae963442-3af9-4d2a-b8ed-f277c6555c17","system_id":"levelo_inurba_marseille","lat":43.30543,"lon":5.38426,"is_reserved":false,"is_disabled":false,"rental_uris":{"android":"levelo://app?vid=ae963442-3af9-4d2a-b8ed-f277c6555c17","ios":"levelo://app?vid=ae963442-3af9-4d2a-b8ed-f277c6555c17"},"vehicle_type_id":"4","last_reported":1691226353,"current_range_meters":31200,"station_id":"ce4bgg92rcd13ifvqb30","pricing_plan_id":"free"},{"bike_id":"4ade3f5a-b80a-44b6-a981-71c1433aadf8","system_id":"levelo_inurba_marseille","lat":43.298433,"lon":5.362774,"is_reserved":false,"is_disabled":false,"rental_uris":{"android":"levelo://app?vid=4ade3f5a-b80a-44b6-a981-71c1433aadf8","ios":"levelo://app?vid=4ade3f5a-b80a-44b6-a981-71c1433aadf8"},"vehicle_type_id":"4","last_reported":1691226353,"current_range_meters":28800,"station_id":"ce4bgpp2rcd13ifvqc3g","pricing_plan_id":"free"},{"bike_id":"b7a88cce-9426-45f5-9182-0c97ce68405f","system_id":"levelo_inurba_marseille","lat":43.298433,"lon":5.362774,"is_reserved":false,"is_disabled":false,"rental_uris":{"android":"levelo://app?vid=b7a88cce-9426-45f5-9182-0c97ce68405f","ios":"levelo://app?vid=b7a88cce-9426-45f5-9182-0c97ce68405f"},"vehicle_type_id":"4","last_reported":1691226353,"current_range_meters":30400,"station_id":"ce4bgpp2rcd13ifvqc3g","pricing_plan_id":"free"},{"bike_id":"29d05ee7-c6eb-402f-bbea-007261606aa5","system_id":"levelo_inurba_marseille","lat":43.30534,"lon":5.38426,"is_reserved":false,"is_disabled":false,"rental_uris":{"android":"levelo://app?vid=29d05ee7-c6eb-402f-bbea-007261606aa5","ios":"levelo://app?vid=29d05ee7-c6eb-402f-bbea-007261606aa5"},"vehicle_type_id":"4","last_reported":1691226353,"current_range_meters":0,"station_id":"ce4bgg92rcd13ifvqb30","pricing_plan_id":"free"},{"bike_id":"850b87b3-a60f-4356-ada5-f6900f648ef7","system_id":"levelo_inurba_marseille","lat":43.298433,"lon":5.362774,"is_reserved":false,"is_disabled":false,"rental_uris":{"android":"levelo://app?vid=850b87b3-a60f-4356-ada5-f6900f648ef7","ios":"levelo://app?vid=850b87b3-a60f-4356-ada5-f6900f648ef7"},"vehicle_type_id":"4","last_reported":1691226353,"current_range_meters":27600,"station_id":"ce4bgpp2rcd13ifvqc3g","pricing_plan_id":"free"},{"bike_id":"a8ab38cc-1742-4786-868e-868a9448019f","system_id":"levelo_inurba_marseille","lat":43.298433,"lon":5.362774,"is_reserved":false,"is_disabled":false,"rental_uris":{"android":"levelo://app?vid=a8ab38cc-1742-4786-868e-868a9448019f","ios":"levelo://app?vid=a8ab38cc-1742-4786-868e-868a9448019f"},"vehicle_type_id":"4","last_reported":1691226353,"current_range_meters":22000,"station_id":"ce4bgpp2rcd13ifvqc3g","pricing_plan_id":"free"},{"bike_id":"4b926139-4399-4488-b2bf-afe097070f8d","system_id":"levelo_inurba_marseille","lat":43.298433,"lon":5.362774,"is_reserved":false,"is_disabled":false,"rental_uris":{"android":"levelo://app?vid=4b926139-4399-4488-b2bf-afe097070f8d","ios":"levelo://app?vid=4b926139-4399-4488-b2bf-afe097070f8d"},"vehicle_type_id":"4","last_reported":1691226353,"current_range_meters":31200,"station_id":"ce4bgpp2rcd13ifvqc3g","pricing_plan_id":"free"},{"bike_id":"3a67cea4-d040-4b21-b614-c847e0d660d2","system_id":"levelo_inurba_marseille","lat":43.298433,"lon":5.362774,"is_reserved":false,"is_disabled":false,"rental_uris":{"android":"levelo://app?vid=3a67cea4-d040-4b21-b614-c847e0d660d2","ios":"levelo://app?vid=3a67cea4-d040-4b21-b614-c847e0d660d2"},"vehicle_type_id":"4","last_reported":1691226353,"current_range_meters":29200,"station_id":"ce4bgpp2rcd13ifvqc3g","pricing_plan_id":"free"},{"bike_id":"95e85193-15ed-4d22-bbc5-cfbf6afb2717","system_id":"levelo_inurba_marseille","lat":43.299243,"lon":5.37481,"is_reserved":false,"is_disabled":false,"rental_uris":{"android":"levelo://app?vid=95e85193-15ed-4d22-bbc5-cfbf6afb2717","ios":"levelo://app?vid=95e85193-15ed-4d22-bbc5-cfbf6afb2717"},"vehicle_type_id":"4","last_reported":1691226353,"current_range_meters":24400,"station_id":"ce4bgjh2rcd13ifvqbg0","pricing_plan_id":"free"},{"bike_id":"03a1682a-5c58-42a8-98a5-06f008e81e77","system_id":"levelo_inurba_marseille","lat":43.299243,"lon":5.374807,"is_reserved":false,"is_disabled":false,"rental_uris":{"android":"levelo://app?vid=03a1682a-5c58-42a8-98a5-06f008e81e77","ios":"levelo://app?vid=03a1682a-5c58-42a8-98a5-06f008e81e77"},"vehicle_type_id":"4","last_reported":1691226353,"current_range_meters":30000,"station_id":"ce4bgjh2rcd13ifvqbg0","pricing_plan_id":"free"},{"bike_id":"524d8772-aa1b-409e-ac89-8fe2cf931d65","system_id":"levelo_inurba_marseille","lat":43.31171,"lon":5.38718,"is_reserved":false,"is_disabled":false,"rental_uris":{"android":"levelo://app?vid=524d8772-aa1b-409e-ac89-8fe2cf931d65","ios":"levelo://app?vid=524d8772-aa1b-409e-ac89-8fe2cf931d65"},"vehicle_type_id":"4","last_reported":1691226353,"current_range_meters":15200,"station_id":"ce4bgv12rcd13ifvqcp0","pricing_plan_id":"free"},{"bike_id":"f0fe8568-1308-4604-ad69-d17f4fedaf75","system_id":"levelo_inurba_marseille","lat":43.311722,"lon":5.387247,"is_reserved":false,"is_disabled":false,"rental_uris":{"android":"levelo://app?vid=f0fe8568-1308-4604-ad69-d17f4fedaf75","ios":"levelo://app?vid=f0fe8568-1308-4604-ad69-d17f4fedaf75"},"vehicle_type_id":"4","last_reported":1691226353,"current_range_meters":10800,"station_id":"ce4bgv12rcd13ifvqcp0","pricing_plan_id":"free"},{"bike_id":"46b48253-5202-4fa1-b536-389ec2bc6798","system_id":"levelo_inurba_marseille","lat":43.297794,"lon":5.370888,"is_reserved":false,"is_disabled":false,"rental_uris":{"android":"levelo://app?vid=46b48253-5202-4fa1-b536-389ec2bc6798","ios":"levelo://app?vid=46b48253-5202-4fa1-b536-389ec2bc6798"},"vehicle_type_id":"4","last_reported":1691226353,"current_range_meters":30800,"station_id":"ce4bgop2rcd13ifvqc1g","pricing_plan_id":"free"},{"bike_id":"6a907404-faa4-45a4-a5f0-3e1b02038ab4","system_id":"levelo_inurba_marseille","lat":43.297794,"lon":5.370888,"is_reserved":false,"is_disabled":false,"rental_uris":{"android":"levelo://app?vid=6a907404-faa4-45a4-a5f0-3e1b02038ab4","ios":"levelo://app?vid=6a907404-faa4-45a4-a5f0-3e1b02038ab4"},"vehicle_type_id":"4","last_reported":1691226353,"current_range_meters":31200,"station_id":"ce4bgop2rcd13ifvqc1g","pricing_plan_id":"free"},{"bike_id":"fee775f5-e8df-49ff-a57d-d0c63daf5e94","system_id":"levelo_inurba_marseille","lat":43.297794,"lon":5.370888,"is_reserved":false,"is_disabled":false,"rental_uris":{"android":"levelo://app?vid=fee775f5-e8df-49ff-a57d-d0c63daf5e94","ios":"levelo://app?vid=fee775f5-e8df-49ff-a57d-d0c63daf5e94"},"vehicle_type_id":"4","last_reported":1691226353,"current_range_meters":31200,"station_id":"ce4bgop2rcd13ifvqc1g","pricing_plan_id":"free"},{"bike_id":"56f85f01-c617-4138-ace2-2416a3ccd89e","system_id":"levelo_inurba_marseille","lat":43.297794,"lon":5.370888,"is_reserved":false,"is_disabled":false,"rental_uris":{"android":"levelo://app?vid=56f85f01-c617-4138-ace2-2416a3ccd89e","ios":"levelo://app?vid=56f85f01-c617-4138-ace2-2416a3ccd89e"},"vehicle_type_id":"4","last_reported":1691226353,"current_range_meters":31200,"station_id":"ce4bgop2rcd13ifvqc1g","pricing_plan_id":"free"},{"bike_id":"a8e026f5-63fa-48ed-a5ef-254fd7db05d7","system_id":"levelo_inurba_marseille","lat":43.297794,"lon":5.370888,"is_reserved":false,"is_disabled":false,"rental_uris":{"android":"levelo://app?vid=a8e026f5-63fa-48ed-a5ef-254fd7db05d7","ios":"levelo://app?vid=a8e026f5-63fa-48ed-a5ef-254fd7db05d7"},"vehicle_type_id":"4","last_reported":1691226353,"current_range_meters":30400,"station_id":"ce4bgop2rcd13ifvqc1g","pricing_plan_id":"free"},{"bike_id":"abc8463e-683e-4f81-8c59-a83c326e6d83","system_id":"levelo_inurba_marseille","lat":43.297794,"lon":5.370888,"is_reserved":false,"is_disabled":false,"rental_uris":{"android":"levelo://app?vid=abc8463e-683e-4f81-8c59-a83c326e6d83","ios":"levelo://app?vid=abc8463e-683e-4f81-8c59-a83c326e6d83"},"vehicle_type_id":"4","last_reported":1691226353,"current_range_meters":31200,"station_id":"ce4bgop2rcd13ifvqc1g","pricing_plan_id":"free"},{"bike_id":"97c7921e-e1dd-456b-8437-4d1ae5acc261","system_id":"levelo_inurba_marseille","lat":43.29783,"lon":5.37093,"is_reserved":false,"is_disabled":false,"rental_uris":{"android":"levelo://app?vid=97c7921e-e1dd-456b-8437-4d1ae5acc261","ios":"levelo://app?vid=97c7921e-e1dd-456b-8437-4d1ae5acc261"},"vehicle_type_id":"4","last_reported":1691226353,"current_range_meters":22400,"station_id":"ce4bgop2rcd13ifvqc1g","pricing_plan_id":"free"},{"bike_id":"211c53db-e61a-47a9-8f9e-3397bc45a0ad","system_id":"levelo_inurba_marseille","lat":43.322872,"lon":5.382756,"is_reserved":false,"is_disabled":false,"rental_uris":{"android":"levelo://app?vid=211c53db-e61a-47a9-8f9e-3397bc45a0ad","ios":"levelo://app?vid=211c53db-e61a-47a9-8f9e-3397bc45a0ad"},"vehicle_type_id":"4","last_reported":1691226353,"current_range_meters":0,"station_id":"ce4bhr12rcd13ifvqhqg","pricing_plan_id":"free"},{"bike_id":"ecb22f1f-ccb1-4911-af78-aedc06b9e2f0","system_id":"levelo_inurba_marseille","lat":43.32822,"lon":5.36675,"is_reserved":false,"is_disabled":false,"rental_uris":{"android":"levelo://app?vid=ecb22f1f-ccb1-4911-af78-aedc06b9e2f0","ios":"levelo://app?vid=ecb22f1f-ccb1-4911-af78-aedc06b9e2f0"},"vehicle_type_id":"4","last_reported":1691226353,"current_range_meters":5200,"station_id":"ce4bhs92rcd13ifvqi0g","pricing_plan_id":"free"},{"bike_id":"8ae2a292-4b68-4114-8267-e4d284ceb76e","system_id":"levelo_inurba_marseille","lat":43.328371,"lon":5.366909,"is_reserved":false,"is_disabled":false,"rental_uris":{"android":"levelo://app?vid=8ae2a292-4b68-4114-8267-e4d284ceb76e","ios":"levelo://app?vid=8ae2a292-4b68-4114-8267-e4d284ceb76e"},"vehicle_type_id":"4","last_reported":1691226353,"current_range_meters":23600,"station_id":"ce4bhs92rcd13ifvqi0g","pricing_plan_id":"free"},{"bike_id":"79d478e1-3ee7-4283-a640-85273b88a58e","system_id":"levelo_inurba_marseille","lat":43.32828,"lon":5.36685,"is_reserved":false,"is_disabled":false,"rental_uris":{"android":"levelo://app?vid=79d478e1-3ee7-4283-a640-85273b88a58e","ios":"levelo://app?vid=79d478e1-3ee7-4283-a640-85273b88a58e"},"vehicle_type_id":"4","last_reported":1691226353,"current_range_meters":29200,"station_id":"ce4bhs92rcd13ifvqi0g","pricing_plan_id":"free"},{"bike_id":"21123ab0-af94-4861-a373-dcbcf04105b5","system_id":"levelo_inurba_marseille","lat":43.328371,"lon":5.366909,"is_reserved":false,"is_disabled":false,"rental_uris":{"android":"levelo://app?vid=21123ab0-af94-4861-a373-dcbcf04105b5","ios":"levelo://app?vid=21123ab0-af94-4861-a373-dcbcf04105b5"},"vehicle_type_id":"4","last_reported":1691226353,"current_range_meters":31200,"station_id":"ce4bhs92rcd13ifvqi0g","pricing_plan_id":"free"},{"bike_id":"bfcdc805-c177-4202-89f2-5e9744440523","system_id":"levelo_inurba_marseille","lat":43.328371,"lon":5.366909,"is_reserved":false,"is_disabled":false,"rental_uris":{"android":"levelo://app?vid=bfcdc805-c177-4202-89f2-5e9744440523","ios":"levelo://app?vid=bfcdc805-c177-4202-89f2-5e9744440523"},"vehicle_type_id":"4","last_reported":1691226353,"current_range_meters":31200,"station_id":"ce4bhs92rcd13ifvqi0g","pricing_plan_id":"free"},{"bike_id":"70df08ad-aacf-44be-9921-61b46d710b54","system_id":"levelo_inurba_marseille","lat":43.328371,"lon":5.366909,"is_reserved":false,"is_disabled":false,"rental_uris":{"android":"levelo://app?vid=70df08ad-aacf-44be-9921-61b46d710b54","ios":"levelo://app?vid=70df08ad-aacf-44be-9921-61b46d710b54"},"vehicle_type_id":"4","last_reported":1691226353,"current_range_meters":30400,"station_id":"ce4bhs92rcd13ifvqi0g","pricing_plan_id":"free"},{"bike_id":"dc0d3889-70c4-4dba-8f83-071e4628efeb","system_id":"levelo_inurba_marseille","lat":43.32831,"lon":5.36674,"is_reserved":false,"is_disabled":false,"rental_uris":{"android":"levelo://app?vid=dc0d3889-70c4-4dba-8f83-071e4628efeb","ios":"levelo://app?vid=dc0d3889-70c4-4dba-8f83-071e4628efeb"},"vehicle_type_id":"4","last_reported":1691226353,"current_range_meters":31200,"station_id":"ce4bhs92rcd13ifvqi0g","pricing_plan_id":"free"},{"bike_id":"925d80fe-dd88-4a52-a938-71d3f7293e55","system_id":"levelo_inurba_marseille","lat":43.328371,"lon":5.366909,"is_reserved":false,"is_disabled":false,"rental_uris":{"android":"levelo://app?vid=925d80fe-dd88-4a52-a938-71d3f7293e55","ios":"levelo://app?vid=925d80fe-dd88-4a52-a938-71d3f7293e55"},"vehicle_type_id":"4","last_reported":1691226353,"current_range_meters":15600,"station_id":"ce4bhs92rcd13ifvqi0g","pricing_plan_id":"free"},{"bike_id":"bfc37a9c-9b15-47da-9282-cebf1004209d","system_id":"levelo_inurba_marseille","lat":43.32835,"lon":5.36678,"is_reserved":false,"is_disabled":false,"rental_uris":{"android":"levelo://app?vid=bfc37a9c-9b15-47da-9282-cebf1004209d","ios":"levelo://app?vid=bfc37a9c-9b15-47da-9282-cebf1004209d"},"vehicle_type_id":"4","last_reported":1691226353,"current_range_meters":23200,"station_id":"ce4bhs92rcd13ifvqi0g","pricing_plan_id":"free"},{"bike_id":"dd789220-e7b5-42c1-b9dc-dc4243148021","system_id":"levelo_inurba_marseille","lat":43.297163,"lon":5.365866,"is_reserved":false,"is_disabled":false,"rental_uris":{"android":"levelo://app?vid=dd789220-e7b5-42c1-b9dc-dc4243148021","ios":"levelo://app?vid=dd789220-e7b5-42c1-b9dc-dc4243148021"},"vehicle_type_id":"4","last_reported":1691226353,"current_range_meters":31200,"station_id":"ce4bgn12rcd13ifvqbt0","pricing_plan_id":"free"},{"bike_id":"21665ab8-c894-493f-8809-4dae55273986","system_id":"levelo_inurba_marseille","lat":43.297163,"lon":5.365866,"is_reserved":false,"is_disabled":false,"rental_uris":{"android":"levelo://app?vid=21665ab8-c894-493f-8809-4dae55273986","ios":"levelo://app?vid=21665ab8-c894-493f-8809-4dae55273986"},"vehicle_type_id":"4","last_reported":1691226353,"current_range_meters":30800,"station_id":"ce4bgn12rcd13ifvqbt0","pricing_plan_id":"free"},{"bike_id":"efcb406c-3b85-48f2-b682-5291d03f1be0","system_id":"levelo_inurba_marseille","lat":43.297163,"lon":5.365866,"is_reserved":false,"is_disabled":false,"rental_uris":{"android":"levelo://app?vid=efcb406c-3b85-48f2-b682-5291d03f1be0","ios":"levelo://app?vid=efcb406c-3b85-48f2-b682-5291d03f1be0"},"vehicle_type_id":"4","last_reported":1691226353,"current_range_meters":26000,"station_id":"ce4bgn12rcd13ifvqbt0","pricing_plan_id":"free"},{"bike_id":"fe66ee89-3412-4a4b-8280-e1c7361866b2","system_id":"levelo_inurba_marseille","lat":43.297163,"lon":5.365866,"is_reserved":false,"is_disabled":false,"rental_uris":{"android":"levelo://app?vid=fe66ee89-3412-4a4b-8280-e1c7361866b2","ios":"levelo://app?vid=fe66ee89-3412-4a4b-8280-e1c7361866b2"},"vehicle_type_id":"4","last_reported":1691226353,"current_range_meters":31200,"station_id":"ce4bgn12rcd13ifvqbt0","pricing_plan_id":"free"},{"bike_id":"c87ee016-7cca-4277-b362-268af43acba9","system_id":"levelo_inurba_marseille","lat":43.297163,"lon":5.365866,"is_reserved":false,"is_disabled":false,"rental_uris":{"android":"levelo://app?vid=c87ee016-7cca-4277-b362-268af43acba9","ios":"levelo://app?vid=c87ee016-7cca-4277-b362-268af43acba9"},"vehicle_type_id":"4","last_reported":1691226353,"current_range_meters":31200,"station_id":"ce4bgn12rcd13ifvqbt0","pricing_plan_id":"free"},{"bike_id":"ddb8290a-9e4d-4db7-bc52-73311ca3b1ac","system_id":"levelo_inurba_marseille","lat":43.328371,"lon":5.366909,"is_reserved":false,"is_disabled":false,"rental_uris":{"android":"levelo://app?vid=ddb8290a-9e4d-4db7-bc52-73311ca3b1ac","ios":"levelo://app?vid=ddb8290a-9e4d-4db7-bc52-73311ca3b1ac"},"vehicle_type_id":"4","last_reported":1691226353,"current_range_meters":22800,"station_id":"ce4bhs92rcd13ifvqi0g","pricing_plan_id":"free"},{"bike_id":"27455e0c-643a-4562-9fcf-dde1511dd95c","system_id":"levelo_inurba_marseille","lat":43.297163,"lon":5.365866,"is_reserved":false,"is_disabled":false,"rental_uris":{"android":"levelo://app?vid=27455e0c-643a-4562-9fcf-dde1511dd95c","ios":"levelo://app?vid=27455e0c-643a-4562-9fcf-dde1511dd95c"},"vehicle_type_id":"4","last_reported":1691226353,"current_range_meters":28000,"station_id":"ce4bgn12rcd13ifvqbt0","pricing_plan_id":"free"},{"bike_id":"e6314d17-83d8-4b34-8e4c-f37d92f25d24","system_id":"levelo_inurba_marseille","lat":43.296129,"lon":5.370777,"is_reserved":false,"is_disabled":false,"rental_uris":{"android":"levelo://app?vid=e6314d17-83d8-4b34-8e4c-f37d92f25d24","ios":"levelo://app?vid=e6314d17-83d8-4b34-8e4c-f37d92f25d24"},"vehicle_type_id":"4","last_reported":1691226353,"current_range_meters":25600,"station_id":"ce4bgnh2rcd13ifvqc0g","pricing_plan_id":"free"},{"bike_id":"89ab6019-41db-4cd3-8b0e-8659ef931c8a","system_id":"levelo_inurba_marseille","lat":43.296131,"lon":5.370773,"is_reserved":false,"is_disabled":false,"rental_uris":{"android":"levelo://app?vid=89ab6019-41db-4cd3-8b0e-8659ef931c8a","ios":"levelo://app?vid=89ab6019-41db-4cd3-8b0e-8659ef931c8a"},"vehicle_type_id":"4","last_reported":1691226353,"current_range_meters":11200,"station_id":"ce4bgnh2rcd13ifvqc0g","pricing_plan_id":"free"},{"bike_id":"ed29b8a6-03ad-4a75-a256-5aebdd1893d7","system_id":"levelo_inurba_marseille","lat":43.296129,"lon":5.370777,"is_reserved":false,"is_disabled":false,"rental_uris":{"android":"levelo://app?vid=ed29b8a6-03ad-4a75-a256-5aebdd1893d7","ios":"levelo://app?vid=ed29b8a6-03ad-4a75-a256-5aebdd1893d7"},"vehicle_type_id":"4","last_reported":1691226353,"current_range_meters":29200,"station_id":"ce4bgnh2rcd13ifvqc0g","pricing_plan_id":"free"},{"bike_id":"b33d2394-08ff-4d27-ba7e-97a6ba50b24f","system_id":"levelo_inurba_marseille","lat":43.296131,"lon":5.370791,"is_reserved":false,"is_disabled":false,"rental_uris":{"android":"levelo://app?vid=b33d2394-08ff-4d27-ba7e-97a6ba50b24f","ios":"levelo://app?vid=b33d2394-08ff-4d27-ba7e-97a6ba50b24f"},"vehicle_type_id":"4","last_reported":1691226353,"current_range_meters":31200,"station_id":"ce4bgnh2rcd13ifvqc0g","pricing_plan_id":"free"},{"bike_id":"088ca662-cff2-412a-8380-595186d259a7","system_id":"levelo_inurba_marseille","lat":43.296935,"lon":5.376544,"is_reserved":false,"is_disabled":false,"rental_uris":{"android":"levelo://app?vid=088ca662-cff2-412a-8380-595186d259a7","ios":"levelo://app?vid=088ca662-cff2-412a-8380-595186d259a7"},"vehicle_type_id":"4","last_reported":1691226353,"current_range_meters":30800,"station_id":"ce4bgkh2rcd13ifvqbl0","pricing_plan_id":"free"},{"bike_id":"03eaefa3-2e5c-405c-a07f-1e91984f39e3","system_id":"levelo_inurba_marseille","lat":43.29573,"lon":5.367355,"is_reserved":false,"is_disabled":false,"rental_uris":{"android":"levelo://app?vid=03eaefa3-2e5c-405c-a07f-1e91984f39e3","ios":"levelo://app?vid=03eaefa3-2e5c-405c-a07f-1e91984f39e3"},"vehicle_type_id":"4","last_reported":1691226353,"current_range_meters":30000,"station_id":"ce4bgph2rcd13ifvqc2g","pricing_plan_id":"free"},{"bike_id":"0c069ae5-439d-4ade-be01-6a1168d9e3b2","system_id":"levelo_inurba_marseille","lat":43.29573,"lon":5.367355,"is_reserved":false,"is_disabled":false,"rental_uris":{"android":"levelo://app?vid=0c069ae5-439d-4ade-be01-6a1168d9e3b2","ios":"levelo://app?vid=0c069ae5-439d-4ade-be01-6a1168d9e3b2"},"vehicle_type_id":"4","last_reported":1691226353,"current_range_meters":30400,"station_id":"ce4bgph2rcd13ifvqc2g","pricing_plan_id":"free"},{"bike_id":"783b0543-f0e2-46c5-9150-b56f8176b82d","system_id":"levelo_inurba_marseille","lat":43.296935,"lon":5.376544,"is_reserved":false,"is_disabled":false,"rental_uris":{"android":"levelo://app?vid=783b0543-f0e2-46c5-9150-b56f8176b82d","ios":"levelo://app?vid=783b0543-f0e2-46c5-9150-b56f8176b82d"},"vehicle_type_id":"4","last_reported":1691226353,"current_range_meters":30000,"station_id":"ce4bgkh2rcd13ifvqbl0","pricing_plan_id":"free"},{"bike_id":"794ecea3-0ba4-4b77-83cf-c90689b434fe","system_id":"levelo_inurba_marseille","lat":43.296921,"lon":5.376579,"is_reserved":false,"is_disabled":false,"rental_uris":{"android":"levelo://app?vid=794ecea3-0ba4-4b77-83cf-c90689b434fe","ios":"levelo://app?vid=794ecea3-0ba4-4b77-83cf-c90689b434fe"},"vehicle_type_id":"4","last_reported":1691226353,"current_range_meters":23600,"station_id":"ce4bgkh2rcd13ifvqbl0","pricing_plan_id":"free"},{"bike_id":"f7e945c1-d096-42bc-9a04-3ca04e8c67f1","system_id":"levelo_inurba_marseille","lat":43.296921,"lon":5.376579,"is_reserved":false,"is_disabled":false,"rental_uris":{"android":"levelo://app?vid=f7e945c1-d096-42bc-9a04-3ca04e8c67f1","ios":"levelo://app?vid=f7e945c1-d096-42bc-9a04-3ca04e8c67f1"},"vehicle_type_id":"4","last_reported":1691226353,"current_range_meters":29200,"station_id":"ce4bgkh2rcd13ifvqbl0","pricing_plan_id":"free"},{"bike_id":"6c374401-b7f7-4b05-9547-d7dc66c23c95","system_id":"levelo_inurba_marseille","lat":43.29907,"lon":5.38136,"is_reserved":false,"is_disabled":false,"rental_uris":{"android":"levelo://app?vid=6c374401-b7f7-4b05-9547-d7dc66c23c95","ios":"levelo://app?vid=6c374401-b7f7-4b05-9547-d7dc66c23c95"},"vehicle_type_id":"4","last_reported":1691226353,"current_range_meters":30800,"station_id":"ce4bgj12rcd13ifvqbc0","pricing_plan_id":"free"},{"bike_id":"f0b1921d-8fc5-42f6-8214-26455e772ce5","system_id":"levelo_inurba_marseille","lat":43.30953,"lon":5.39042,"is_reserved":false,"is_disabled":false,"rental_uris":{"android":"levelo://app?vid=f0b1921d-8fc5-42f6-8214-26455e772ce5","ios":"levelo://app?vid=f0b1921d-8fc5-42f6-8214-26455e772ce5"},"vehicle_type_id":"4","last_reported":1691226353,"current_range_meters":24000,"station_id":"ce4bgup2rcd13ifvqco0","pricing_plan_id":"free"},{"bike_id":"ffe83563-fe7b-4abd-90a1-b737e09347c0","system_id":"levelo_inurba_marseille","lat":43.317557,"lon":5.390173,"is_reserved":false,"is_disabled":false,"rental_uris":{"android":"levelo://app?vid=ffe83563-fe7b-4abd-90a1-b737e09347c0","ios":"levelo://app?vid=ffe83563-fe7b-4abd-90a1-b737e09347c0"},"vehicle_type_id":"4","last_reported":1691226353,"current_range_meters":28000,"station_id":"ce4bhqp2rcd13ifvqhng","pricing_plan_id":"free"},{"bike_id":"b2f3081d-803f-4500-a8ce-732227ecc1a7","system_id":"levelo_inurba_marseille","lat":43.317557,"lon":5.390173,"is_reserved":false,"is_disabled":false,"rental_uris":{"android":"levelo://app?vid=b2f3081d-803f-4500-a8ce-732227ecc1a7","ios":"levelo://app?vid=b2f3081d-803f-4500-a8ce-732227ecc1a7"},"vehicle_type_id":"4","last_reported":1691226353,"current_range_meters":23600,"station_id":"ce4bhqp2rcd13ifvqhng","pricing_plan_id":"free"},{"bike_id":"90569ba5-8bb9-4d2d-b876-dc35e42f9a0c","system_id":"levelo_inurba_marseille","lat":43.317557,"lon":5.390173,"is_reserved":false,"is_disabled":false,"rental_uris":{"android":"levelo://app?vid=90569ba5-8bb9-4d2d-b876-dc35e42f9a0c","ios":"levelo://app?vid=90569ba5-8bb9-4d2d-b876-dc35e42f9a0c"},"vehicle_type_id":"4","last_reported":1691226353,"current_range_meters":31200,"station_id":"ce4bhqp2rcd13ifvqhng","pricing_plan_id":"free"},{"bike_id":"a0163b85-18e5-4828-8d9c-5d727e145ddc","system_id":"levelo_inurba_marseille","lat":43.317557,"lon":5.390173,"is_reserved":false,"is_disabled":false,"rental_uris":{"android":"levelo://app?vid=a0163b85-18e5-4828-8d9c-5d727e145ddc","ios":"levelo://app?vid=a0163b85-18e5-4828-8d9c-5d727e145ddc"},"vehicle_type_id":"4","last_reported":1691226353,"current_range_meters":27200,"station_id":"ce4bhqp2rcd13ifvqhng","pricing_plan_id":"free"},{"bike_id":"89ce84c4-bca1-4693-8b61-27c011c41f74","system_id":"levelo_inurba_marseille","lat":43.317557,"lon":5.390173,"is_reserved":false,"is_disabled":false,"rental_uris":{"android":"levelo://app?vid=89ce84c4-bca1-4693-8b61-27c011c41f74","ios":"levelo://app?vid=89ce84c4-bca1-4693-8b61-27c011c41f74"},"vehicle_type_id":"4","last_reported":1691226353,"current_range_meters":31200,"station_id":"ce4bhqp2rcd13ifvqhng","pricing_plan_id":"free"},{"bike_id":"2f85dfd1-5d9a-4517-8def-c5ab4b399598","system_id":"levelo_inurba_marseille","lat":43.317557,"lon":5.390173,"is_reserved":false,"is_disabled":false,"rental_uris":{"android":"levelo://app?vid=2f85dfd1-5d9a-4517-8def-c5ab4b399598","ios":"levelo://app?vid=2f85dfd1-5d9a-4517-8def-c5ab4b399598"},"vehicle_type_id":"4","last_reported":1691226353,"current_range_meters":14800,"station_id":"ce4bhqp2rcd13ifvqhng","pricing_plan_id":"free"},{"bike_id":"8d4374d5-af1c-40de-85a5-061e61251dbe","system_id":"levelo_inurba_marseille","lat":43.317557,"lon":5.390173,"is_reserved":false,"is_disabled":false,"rental_uris":{"android":"levelo://app?vid=8d4374d5-af1c-40de-85a5-061e61251dbe","ios":"levelo://app?vid=8d4374d5-af1c-40de-85a5-061e61251dbe"},"vehicle_type_id":"4","last_reported":1691226353,"current_range_meters":31200,"station_id":"ce4bhqp2rcd13ifvqhng","pricing_plan_id":"free"},{"bike_id":"c070a522-6c17-4333-a9ee-bbef4dc643ed","system_id":"levelo_inurba_marseille","lat":43.317557,"lon":5.390173,"is_reserved":false,"is_disabled":false,"rental_uris":{"android":"levelo://app?vid=c070a522-6c17-4333-a9ee-bbef4dc643ed","ios":"levelo://app?vid=c070a522-6c17-4333-a9ee-bbef4dc643ed"},"vehicle_type_id":"4","last_reported":1691226353,"current_range_meters":31200,"station_id":"ce4bhqp2rcd13ifvqhng","pricing_plan_id":"free"},{"bike_id":"50f2c09c-534d-43c1-a558-fb4cbe988a1f","system_id":"levelo_inurba_marseille","lat":43.317557,"lon":5.390173,"is_reserved":false,"is_disabled":false,"rental_uris":{"android":"levelo://app?vid=50f2c09c-534d-43c1-a558-fb4cbe988a1f","ios":"levelo://app?vid=50f2c09c-534d-43c1-a558-fb4cbe988a1f"},"vehicle_type_id":"4","last_reported":1691226353,"current_range_meters":12400,"station_id":"ce4bhqp2rcd13ifvqhng","pricing_plan_id":"free"},{"bike_id":"4879b09e-5533-49cc-808c-be115b214b19","system_id":"levelo_inurba_marseille","lat":43.317557,"lon":5.390173,"is_reserved":false,"is_disabled":false,"rental_uris":{"android":"levelo://app?vid=4879b09e-5533-49cc-808c-be115b214b19","ios":"levelo://app?vid=4879b09e-5533-49cc-808c-be115b214b19"},"vehicle_type_id":"4","last_reported":1691226353,"current_range_meters":31200,"station_id":"ce4bhqp2rcd13ifvqhng","pricing_plan_id":"free"},{"bike_id":"fb5d1b63-b2f2-4d34-b700-b062bf6b4e69","system_id":"levelo_inurba_marseille","lat":43.317557,"lon":5.390173,"is_reserved":false,"is_disabled":false,"rental_uris":{"android":"levelo://app?vid=fb5d1b63-b2f2-4d34-b700-b062bf6b4e69","ios":"levelo://app?vid=fb5d1b63-b2f2-4d34-b700-b062bf6b4e69"},"vehicle_type_id":"4","last_reported":1691226353,"current_range_meters":31200,"station_id":"ce4bhqp2rcd13ifvqhng","pricing_plan_id":"free"},{"bike_id":"0cfad9b2-999c-426c-84e8-48ceb4812726","system_id":"levelo_inurba_marseille","lat":43.295748,"lon":5.37522,"is_reserved":false,"is_disabled":false,"rental_uris":{"android":"levelo://app?vid=0cfad9b2-999c-426c-84e8-48ceb4812726","ios":"levelo://app?vid=0cfad9b2-999c-426c-84e8-48ceb4812726"},"vehicle_type_id":"4","last_reported":1691226353,"current_range_meters":28800,"station_id":"ce4bgh92rcd13ifvqb50","pricing_plan_id":"free"},{"bike_id":"77a06464-b275-4e7c-b84c-ee13a40ed854","system_id":"levelo_inurba_marseille","lat":43.295748,"lon":5.37522,"is_reserved":false,"is_disabled":false,"rental_uris":{"android":"levelo://app?vid=77a06464-b275-4e7c-b84c-ee13a40ed854","ios":"levelo://app?vid=77a06464-b275-4e7c-b84c-ee13a40ed854"},"vehicle_type_id":"4","last_reported":1691226353,"current_range_meters":13600,"station_id":"ce4bgh92rcd13ifvqb50","pricing_plan_id":"free"},{"bike_id":"ca01be96-7783-4888-9952-3431b87df3d2","system_id":"levelo_inurba_marseille","lat":43.295748,"lon":5.37522,"is_reserved":false,"is_disabled":false,"rental_uris":{"android":"levelo://app?vid=ca01be96-7783-4888-9952-3431b87df3d2","ios":"levelo://app?vid=ca01be96-7783-4888-9952-3431b87df3d2"},"vehicle_type_id":"4","last_reported":1691226353,"current_range_meters":30000,"station_id":"ce4bgh92rcd13ifvqb50","pricing_plan_id":"free"},{"bike_id":"ad6f1a21-fc60-4b8a-be1b-a005ce7b3b3e","system_id":"levelo_inurba_marseille","lat":43.295748,"lon":5.37522,"is_reserved":false,"is_disabled":false,"rental_uris":{"android":"levelo://app?vid=ad6f1a21-fc60-4b8a-be1b-a005ce7b3b3e","ios":"levelo://app?vid=ad6f1a21-fc60-4b8a-be1b-a005ce7b3b3e"},"vehicle_type_id":"4","last_reported":1691226353,"current_range_meters":26400,"station_id":"ce4bgh92rcd13ifvqb50","pricing_plan_id":"free"},{"bike_id":"9babc471-badd-4c73-aad3-dd788c256ff8","system_id":"levelo_inurba_marseille","lat":43.295748,"lon":5.37522,"is_reserved":false,"is_disabled":false,"rental_uris":{"android":"levelo://app?vid=9babc471-badd-4c73-aad3-dd788c256ff8","ios":"levelo://app?vid=9babc471-badd-4c73-aad3-dd788c256ff8"},"vehicle_type_id":"4","last_reported":1691226353,"current_range_meters":29200,"station_id":"ce4bgh92rcd13ifvqb50","pricing_plan_id":"free"},{"bike_id":"5a6a2aba-34fa-4fe5-bcb0-4e24aa23d36c","system_id":"levelo_inurba_marseille","lat":43.295748,"lon":5.37522,"is_reserved":false,"is_disabled":false,"rental_uris":{"android":"levelo://app?vid=5a6a2aba-34fa-4fe5-bcb0-4e24aa23d36c","ios":"levelo://app?vid=5a6a2aba-34fa-4fe5-bcb0-4e24aa23d36c"},"vehicle_type_id":"4","last_reported":1691226353,"current_range_meters":26000,"station_id":"ce4bgh92rcd13ifvqb50","pricing_plan_id":"free"},{"bike_id":"2282a6a6-1c05-486b-a03d-98b71d7a2eb1","system_id":"levelo_inurba_marseille","lat":43.295748,"lon":5.37522,"is_reserved":false,"is_disabled":false,"rental_uris":{"android":"levelo://app?vid=2282a6a6-1c05-486b-a03d-98b71d7a2eb1","ios":"levelo://app?vid=2282a6a6-1c05-486b-a03d-98b71d7a2eb1"},"vehicle_type_id":"4","last_reported":1691226353,"current_range_meters":31200,"station_id":"ce4bgh92rcd13ifvqb50","pricing_plan_id":"free"},{"bike_id":"25526763-0166-4d8d-8361-e72a2b7e5489","system_id":"levelo_inurba_marseille","lat":43.295748,"lon":5.37522,"is_reserved":false,"is_disabled":false,"rental_uris":{"android":"levelo://app?vid=25526763-0166-4d8d-8361-e72a2b7e5489","ios":"levelo://app?vid=25526763-0166-4d8d-8361-e72a2b7e5489"},"vehicle_type_id":"4","last_reported":1691226353,"current_range_meters":22800,"station_id":"ce4bgh92rcd13ifvqb50","pricing_plan_id":"free"},{"bike_id":"7723f705-59ff-495e-82ba-12c02825e422","system_id":"levelo_inurba_marseille","lat":43.30433,"lon":5.38889,"is_reserved":false,"is_disabled":false,"rental_uris":{"android":"levelo://app?vid=7723f705-59ff-495e-82ba-12c02825e422","ios":"levelo://app?vid=7723f705-59ff-495e-82ba-12c02825e422"},"vehicle_type_id":"4","last_reported":1691226353,"current_range_meters":26400,"station_id":"ce4bgk12rcd13ifvqbi0","pricing_plan_id":"free"},{"bike_id":"c13fb2e2-a48e-4b1c-9485-80a4e5af628f","system_id":"levelo_inurba_marseille","lat":43.295748,"lon":5.37522,"is_reserved":false,"is_disabled":false,"rental_uris":{"android":"levelo://app?vid=c13fb2e2-a48e-4b1c-9485-80a4e5af628f","ios":"levelo://app?vid=c13fb2e2-a48e-4b1c-9485-80a4e5af628f"},"vehicle_type_id":"4","last_reported":1691226353,"current_range_meters":31200,"station_id":"ce4bgh92rcd13ifvqb50","pricing_plan_id":"free"},{"bike_id":"e33b3a13-daf3-4c8d-9e2d-ee8ec67fcbfb","system_id":"levelo_inurba_marseille","lat":43.304274,"lon":5.388873,"is_reserved":false,"is_disabled":false,"rental_uris":{"android":"levelo://app?vid=e33b3a13-daf3-4c8d-9e2d-ee8ec67fcbfb","ios":"levelo://app?vid=e33b3a13-daf3-4c8d-9e2d-ee8ec67fcbfb"},"vehicle_type_id":"4","last_reported":1691226353,"current_range_meters":31200,"station_id":"ce4bgk12rcd13ifvqbi0","pricing_plan_id":"free"},{"bike_id":"4265e2a3-c358-459f-a83e-ee53a459c2ef","system_id":"levelo_inurba_marseille","lat":43.295748,"lon":5.37522,"is_reserved":false,"is_disabled":false,"rental_uris":{"android":"levelo://app?vid=4265e2a3-c358-459f-a83e-ee53a459c2ef","ios":"levelo://app?vid=4265e2a3-c358-459f-a83e-ee53a459c2ef"},"vehicle_type_id":"4","last_reported":1691226353,"current_range_meters":31200,"station_id":"ce4bgh92rcd13ifvqb50","pricing_plan_id":"free"},{"bike_id":"68cd18e3-1d27-4e74-81f0-1e3719c42f46","system_id":"levelo_inurba_marseille","lat":43.295748,"lon":5.37522,"is_reserved":false,"is_disabled":false,"rental_uris":{"android":"levelo://app?vid=68cd18e3-1d27-4e74-81f0-1e3719c42f46","ios":"levelo://app?vid=68cd18e3-1d27-4e74-81f0-1e3719c42f46"},"vehicle_type_id":"4","last_reported":1691226353,"current_range_meters":31200,"station_id":"ce4bgh92rcd13ifvqb50","pricing_plan_id":"free"},{"bike_id":"a4df99ce-0488-49dd-a888-94686f562e88","system_id":"levelo_inurba_marseille","lat":43.295748,"lon":5.37522,"is_reserved":false,"is_disabled":false,"rental_uris":{"android":"levelo://app?vid=a4df99ce-0488-49dd-a888-94686f562e88","ios":"levelo://app?vid=a4df99ce-0488-49dd-a888-94686f562e88"},"vehicle_type_id":"4","last_reported":1691226353,"current_range_meters":24800,"station_id":"ce4bgh92rcd13ifvqb50","pricing_plan_id":"free"},{"bike_id":"6be3a9ed-7609-472f-8b78-04793731e1a9","system_id":"levelo_inurba_marseille","lat":43.295748,"lon":5.37522,"is_reserved":false,"is_disabled":false,"rental_uris":{"android":"levelo://app?vid=6be3a9ed-7609-472f-8b78-04793731e1a9","ios":"levelo://app?vid=6be3a9ed-7609-472f-8b78-04793731e1a9"},"vehicle_type_id":"4","last_reported":1691226353,"current_range_meters":17600,"station_id":"ce4bgh92rcd13ifvqb50","pricing_plan_id":"free"},{"bike_id":"b97e9a78-cc8e-4ea9-8916-39f7e4fa7a1b","system_id":"levelo_inurba_marseille","lat":43.295748,"lon":5.37522,"is_reserved":false,"is_disabled":false,"rental_uris":{"android":"levelo://app?vid=b97e9a78-cc8e-4ea9-8916-39f7e4fa7a1b","ios":"levelo://app?vid=b97e9a78-cc8e-4ea9-8916-39f7e4fa7a1b"},"vehicle_type_id":"4","last_reported":1691226353,"current_range_meters":21600,"station_id":"ce4bgh92rcd13ifvqb50","pricing_plan_id":"free"},{"bike_id":"4e130d18-387c-4071-84c4-34aae9accbf8","system_id":"levelo_inurba_marseille","lat":43.296263,"lon":5.377094,"is_reserved":false,"is_disabled":false,"rental_uris":{"android":"levelo://app?vid=4e130d18-387c-4071-84c4-34aae9accbf8","ios":"levelo://app?vid=4e130d18-387c-4071-84c4-34aae9accbf8"},"vehicle_type_id":"4","last_reported":1691226353,"current_range_meters":22800,"station_id":"ce4bgi92rcd13ifvqb90","pricing_plan_id":"free"},{"bike_id":"7b96c461-3ac0-4b50-b15f-75296deba2ca","system_id":"levelo_inurba_marseille","lat":43.295748,"lon":5.37522,"is_reserved":false,"is_disabled":false,"rental_uris":{"android":"levelo://app?vid=7b96c461-3ac0-4b50-b15f-75296deba2ca","ios":"levelo://app?vid=7b96c461-3ac0-4b50-b15f-75296deba2ca"},"vehicle_type_id":"4","last_reported":1691226353,"current_range_meters":30400,"station_id":"ce4bgh92rcd13ifvqb50","pricing_plan_id":"free"},{"bike_id":"a489e70f-8a7d-4994-88a1-7a02663fffb9","system_id":"levelo_inurba_marseille","lat":43.296263,"lon":5.377094,"is_reserved":false,"is_disabled":false,"rental_uris":{"android":"levelo://app?vid=a489e70f-8a7d-4994-88a1-7a02663fffb9","ios":"levelo://app?vid=a489e70f-8a7d-4994-88a1-7a02663fffb9"},"vehicle_type_id":"4","last_reported":1691226353,"current_range_meters":28400,"station_id":"ce4bgi92rcd13ifvqb90","pricing_plan_id":"free"},{"bike_id":"42a129e1-1c12-4d92-bb10-0cd3816d2af1","system_id":"levelo_inurba_marseille","lat":43.296263,"lon":5.377094,"is_reserved":false,"is_disabled":false,"rental_uris":{"android":"levelo://app?vid=42a129e1-1c12-4d92-bb10-0cd3816d2af1","ios":"levelo://app?vid=42a129e1-1c12-4d92-bb10-0cd3816d2af1"},"vehicle_type_id":"4","last_reported":1691226353,"current_range_meters":27200,"station_id":"ce4bgi92rcd13ifvqb90","pricing_plan_id":"free"},{"bike_id":"6eeb7ba0-ea26-4852-8e93-dc2147e0ed61","system_id":"levelo_inurba_marseille","lat":43.296277,"lon":5.377108,"is_reserved":false,"is_disabled":false,"rental_uris":{"android":"levelo://app?vid=6eeb7ba0-ea26-4852-8e93-dc2147e0ed61","ios":"levelo://app?vid=6eeb7ba0-ea26-4852-8e93-dc2147e0ed61"},"vehicle_type_id":"4","last_reported":1691226353,"current_range_meters":19200,"station_id":"ce4bgi92rcd13ifvqb90","pricing_plan_id":"free"},{"bike_id":"1c78b035-e523-4d5a-8a08-875953784ea4","system_id":"levelo_inurba_marseille","lat":43.295279,"lon":5.375048,"is_reserved":false,"is_disabled":false,"rental_uris":{"android":"levelo://app?vid=1c78b035-e523-4d5a-8a08-875953784ea4","ios":"levelo://app?vid=1c78b035-e523-4d5a-8a08-875953784ea4"},"vehicle_type_id":"4","last_reported":1691226353,"current_range_meters":29200,"station_id":"ce4bgkp2rcd13ifvqbmg","pricing_plan_id":"free"},{"bike_id":"00bf6830-f7d5-4dfb-b259-9cdb9ce9018c","system_id":"levelo_inurba_marseille","lat":43.295279,"lon":5.375048,"is_reserved":false,"is_disabled":false,"rental_uris":{"android":"levelo://app?vid=00bf6830-f7d5-4dfb-b259-9cdb9ce9018c","ios":"levelo://app?vid=00bf6830-f7d5-4dfb-b259-9cdb9ce9018c"},"vehicle_type_id":"4","last_reported":1691226353,"current_range_meters":30800,"station_id":"ce4bgkp2rcd13ifvqbmg","pricing_plan_id":"free"},{"bike_id":"ee373f4b-d04e-43ef-92b8-3105e264ba5d","system_id":"levelo_inurba_marseille","lat":43.32362,"lon":5.3887,"is_reserved":false,"is_disabled":false,"rental_uris":{"android":"levelo://app?vid=ee373f4b-d04e-43ef-92b8-3105e264ba5d","ios":"levelo://app?vid=ee373f4b-d04e-43ef-92b8-3105e264ba5d"},"vehicle_type_id":"4","last_reported":1691226353,"current_range_meters":22800,"station_id":"ce4bhqp2rcd13ifvqhog","pricing_plan_id":"free"},{"bike_id":"34ef5601-8765-4b80-bdc1-e9818152ffab","system_id":"levelo_inurba_marseille","lat":43.32361,"lon":5.38877,"is_reserved":false,"is_disabled":false,"rental_uris":{"android":"levelo://app?vid=34ef5601-8765-4b80-bdc1-e9818152ffab","ios":"levelo://app?vid=34ef5601-8765-4b80-bdc1-e9818152ffab"},"vehicle_type_id":"4","last_reported":1691226353,"current_range_meters":25600,"station_id":"ce4bhqp2rcd13ifvqhog","pricing_plan_id":"free"},{"bike_id":"b47ca02a-40ba-4dc8-abeb-b1a2c4b62cd0","system_id":"levelo_inurba_marseille","lat":43.32361,"lon":5.3888,"is_reserved":false,"is_disabled":false,"rental_uris":{"android":"levelo://app?vid=b47ca02a-40ba-4dc8-abeb-b1a2c4b62cd0","ios":"levelo://app?vid=b47ca02a-40ba-4dc8-abeb-b1a2c4b62cd0"},"vehicle_type_id":"4","last_reported":1691226353,"current_range_meters":0,"station_id":"ce4bhqp2rcd13ifvqhog","pricing_plan_id":"free"},{"bike_id":"3d2edb57-516f-41bc-985e-42a721904578","system_id":"levelo_inurba_marseille","lat":43.32367,"lon":5.388836,"is_reserved":false,"is_disabled":false,"rental_uris":{"android":"levelo://app?vid=3d2edb57-516f-41bc-985e-42a721904578","ios":"levelo://app?vid=3d2edb57-516f-41bc-985e-42a721904578"},"vehicle_type_id":"4","last_reported":1691226353,"current_range_meters":22000,"station_id":"ce4bhqp2rcd13ifvqhog","pricing_plan_id":"free"},{"bike_id":"fbc3a92c-f948-48e9-a3fc-f0e8af1a9259","system_id":"levelo_inurba_marseille","lat":43.32359,"lon":5.38883,"is_reserved":false,"is_disabled":false,"rental_uris":{"android":"levelo://app?vid=fbc3a92c-f948-48e9-a3fc-f0e8af1a9259","ios":"levelo://app?vid=fbc3a92c-f948-48e9-a3fc-f0e8af1a9259"},"vehicle_type_id":"4","last_reported":1691226353,"current_range_meters":30400,"station_id":"ce4bhqp2rcd13ifvqhog","pricing_plan_id":"free"},{"bike_id":"31c4ebe8-2a4f-41b7-966a-7ad502ff3d8a","system_id":"levelo_inurba_marseille","lat":43.32364,"lon":5.38879,"is_reserved":false,"is_disabled":false,"rental_uris":{"android":"levelo://app?vid=31c4ebe8-2a4f-41b7-966a-7ad502ff3d8a","ios":"levelo://app?vid=31c4ebe8-2a4f-41b7-966a-7ad502ff3d8a"},"vehicle_type_id":"4","last_reported":1691226353,"current_range_meters":20400,"station_id":"ce4bhqp2rcd13ifvqhog","pricing_plan_id":"free"},{"bike_id":"5f1c231d-5549-420b-a974-1b1406435a60","system_id":"levelo_inurba_marseille","lat":43.32363,"lon":5.3888,"is_reserved":false,"is_disabled":false,"rental_uris":{"android":"levelo://app?vid=5f1c231d-5549-420b-a974-1b1406435a60","ios":"levelo://app?vid=5f1c231d-5549-420b-a974-1b1406435a60"},"vehicle_type_id":"4","last_reported":1691226353,"current_range_meters":22000,"station_id":"ce4bhqp2rcd13ifvqhog","pricing_plan_id":"free"},{"bike_id":"43e03639-4029-4e8d-ad26-7f8f17f1e9de","system_id":"levelo_inurba_marseille","lat":43.32367,"lon":5.388836,"is_reserved":false,"is_disabled":false,"rental_uris":{"android":"levelo://app?vid=43e03639-4029-4e8d-ad26-7f8f17f1e9de","ios":"levelo://app?vid=43e03639-4029-4e8d-ad26-7f8f17f1e9de"},"vehicle_type_id":"4","last_reported":1691226353,"current_range_meters":17200,"station_id":"ce4bhqp2rcd13ifvqhog","pricing_plan_id":"free"},{"bike_id":"696ed9b6-9beb-423c-9d06-defcf66f30b9","system_id":"levelo_inurba_marseille","lat":43.32363,"lon":5.38883,"is_reserved":false,"is_disabled":false,"rental_uris":{"android":"levelo://app?vid=696ed9b6-9beb-423c-9d06-defcf66f30b9","ios":"levelo://app?vid=696ed9b6-9beb-423c-9d06-defcf66f30b9"},"vehicle_type_id":"4","last_reported":1691226353,"current_range_meters":11600,"station_id":"ce4bhqp2rcd13ifvqhog","pricing_plan_id":"free"},{"bike_id":"153806a9-c106-4acb-8efe-f81ba29b58d3","system_id":"levelo_inurba_marseille","lat":43.32367,"lon":5.388836,"is_reserved":false,"is_disabled":false,"rental_uris":{"android":"levelo://app?vid=153806a9-c106-4acb-8efe-f81ba29b58d3","ios":"levelo://app?vid=153806a9-c106-4acb-8efe-f81ba29b58d3"},"vehicle_type_id":"4","last_reported":1691226353,"current_range_meters":24400,"station_id":"ce4bhqp2rcd13ifvqhog","pricing_plan_id":"free"},{"bike_id":"6be534a9-96c6-4989-b3bb-e9dea76376c4","system_id":"levelo_inurba_marseille","lat":43.32367,"lon":5.388836,"is_reserved":false,"is_disabled":false,"rental_uris":{"android":"levelo://app?vid=6be534a9-96c6-4989-b3bb-e9dea76376c4","ios":"levelo://app?vid=6be534a9-96c6-4989-b3bb-e9dea76376c4"},"vehicle_type_id":"4","last_reported":1691226353,"current_range_meters":31200,"station_id":"ce4bhqp2rcd13ifvqhog","pricing_plan_id":"free"},{"bike_id":"87f61f26-2a54-4358-95ac-d0c3c37c14fc","system_id":"levelo_inurba_marseille","lat":43.29602,"lon":5.381084,"is_reserved":false,"is_disabled":false,"rental_uris":{"android":"levelo://app?vid=87f61f26-2a54-4358-95ac-d0c3c37c14fc","ios":"levelo://app?vid=87f61f26-2a54-4358-95ac-d0c3c37c14fc"},"vehicle_type_id":"4","last_reported":1691226353,"current_range_meters":24800,"station_id":"ce4bgl12rcd13ifvqbo0","pricing_plan_id":"free"},{"bike_id":"3ddce898-6726-4d46-8b1b-ceb588ef5641","system_id":"levelo_inurba_marseille","lat":43.2932,"lon":5.37117,"is_reserved":false,"is_disabled":false,"rental_uris":{"android":"levelo://app?vid=3ddce898-6726-4d46-8b1b-ceb588ef5641","ios":"levelo://app?vid=3ddce898-6726-4d46-8b1b-ceb588ef5641"},"vehicle_type_id":"4","last_reported":1691226353,"current_range_meters":19600,"station_id":"ce4bgh92rcd13ifvqb40","pricing_plan_id":"free"},{"bike_id":"d80c5892-61c3-4b3d-a0e2-10eff24e8682","system_id":"levelo_inurba_marseille","lat":43.29309,"lon":5.37178,"is_reserved":false,"is_disabled":false,"rental_uris":{"android":"levelo://app?vid=d80c5892-61c3-4b3d-a0e2-10eff24e8682","ios":"levelo://app?vid=d80c5892-61c3-4b3d-a0e2-10eff24e8682"},"vehicle_type_id":"4","last_reported":1691226353,"current_range_meters":24800,"station_id":"ce4bgh92rcd13ifvqb40","pricing_plan_id":"free"},{"bike_id":"04b2d206-f633-4861-9eb1-bd06c2deaf2c","system_id":"levelo_inurba_marseille","lat":43.293249,"lon":5.371578,"is_reserved":false,"is_disabled":false,"rental_uris":{"android":"levelo://app?vid=04b2d206-f633-4861-9eb1-bd06c2deaf2c","ios":"levelo://app?vid=04b2d206-f633-4861-9eb1-bd06c2deaf2c"},"vehicle_type_id":"4","last_reported":1691226353,"current_range_meters":1600,"station_id":"ce4bgh92rcd13ifvqb40","pricing_plan_id":"free"},{"bike_id":"114e2a67-856f-4cda-b003-e3a2050fe20a","system_id":"levelo_inurba_marseille","lat":43.292749,"lon":5.368402,"is_reserved":false,"is_disabled":false,"rental_uris":{"android":"levelo://app?vid=114e2a67-856f-4cda-b003-e3a2050fe20a","ios":"levelo://app?vid=114e2a67-856f-4cda-b003-e3a2050fe20a"},"vehicle_type_id":"4","last_reported":1691226353,"current_range_meters":30400,"station_id":"ce4bhbp2rcd13ifvqesg","pricing_plan_id":"free"},{"bike_id":"1a2f2df6-a4a7-4c22-871c-1e5eb4e88f31","system_id":"levelo_inurba_marseille","lat":43.292749,"lon":5.368398,"is_reserved":false,"is_disabled":false,"rental_uris":{"android":"levelo://app?vid=1a2f2df6-a4a7-4c22-871c-1e5eb4e88f31","ios":"levelo://app?vid=1a2f2df6-a4a7-4c22-871c-1e5eb4e88f31"},"vehicle_type_id":"4","last_reported":1691226353,"current_range_meters":29600,"station_id":"ce4bhbp2rcd13ifvqesg","pricing_plan_id":"free"},{"bike_id":"04ce7204-785e-4650-8cdf-18d6e5890126","system_id":"levelo_inurba_marseille","lat":43.29269,"lon":5.36833,"is_reserved":false,"is_disabled":false,"rental_uris":{"android":"levelo://app?vid=04ce7204-785e-4650-8cdf-18d6e5890126","ios":"levelo://app?vid=04ce7204-785e-4650-8cdf-18d6e5890126"},"vehicle_type_id":"4","last_reported":1691226353,"current_range_meters":12800,"station_id":"ce4bhbp2rcd13ifvqesg","pricing_plan_id":"free"},{"bike_id":"6728230e-23d5-4754-9024-f8cefb5b2522","system_id":"levelo_inurba_marseille","lat":43.293009,"lon":5.374584,"is_reserved":false,"is_disabled":false,"rental_uris":{"android":"levelo://app?vid=6728230e-23d5-4754-9024-f8cefb5b2522","ios":"levelo://app?vid=6728230e-23d5-4754-9024-f8cefb5b2522"},"vehicle_type_id":"4","last_reported":1691226353,"current_range_meters":31200,"station_id":"ce4bgi12rcd13ifvqb70","pricing_plan_id":"free"},{"bike_id":"c1354d47-bdd8-4eec-a735-5bbc731632f7","system_id":"levelo_inurba_marseille","lat":43.293009,"lon":5.374584,"is_reserved":false,"is_disabled":false,"rental_uris":{"android":"levelo://app?vid=c1354d47-bdd8-4eec-a735-5bbc731632f7","ios":"levelo://app?vid=c1354d47-bdd8-4eec-a735-5bbc731632f7"},"vehicle_type_id":"4","last_reported":1691226353,"current_range_meters":23200,"station_id":"ce4bgi12rcd13ifvqb70","pricing_plan_id":"free"},{"bike_id":"7337b23a-ecca-4607-8dee-496fd40e9be0","system_id":"levelo_inurba_marseille","lat":43.293009,"lon":5.374584,"is_reserved":false,"is_disabled":false,"rental_uris":{"android":"levelo://app?vid=7337b23a-ecca-4607-8dee-496fd40e9be0","ios":"levelo://app?vid=7337b23a-ecca-4607-8dee-496fd40e9be0"},"vehicle_type_id":"4","last_reported":1691226353,"current_range_meters":2400,"station_id":"ce4bgi12rcd13ifvqb70","pricing_plan_id":"free"},{"bike_id":"273fb184-b1a7-4ae4-8e3f-cd7f76661c8e","system_id":"levelo_inurba_marseille","lat":43.293009,"lon":5.374584,"is_reserved":false,"is_disabled":false,"rental_uris":{"android":"levelo://app?vid=273fb184-b1a7-4ae4-8e3f-cd7f76661c8e","ios":"levelo://app?vid=273fb184-b1a7-4ae4-8e3f-cd7f76661c8e"},"vehicle_type_id":"4","last_reported":1691226353,"current_range_meters":31200,"station_id":"ce4bgi12rcd13ifvqb70","pricing_plan_id":"free"},{"bike_id":"c5a67bea-fed1-46fd-97c1-635117c6ab08","system_id":"levelo_inurba_marseille","lat":43.293009,"lon":5.374584,"is_reserved":false,"is_disabled":false,"rental_uris":{"android":"levelo://app?vid=c5a67bea-fed1-46fd-97c1-635117c6ab08","ios":"levelo://app?vid=c5a67bea-fed1-46fd-97c1-635117c6ab08"},"vehicle_type_id":"4","last_reported":1691226353,"current_range_meters":31200,"station_id":"ce4bgi12rcd13ifvqb70","pricing_plan_id":"free"},{"bike_id":"69f56a2f-a449-4ef3-a2fc-5ae95bdb3601","system_id":"levelo_inurba_marseille","lat":43.293009,"lon":5.374584,"is_reserved":false,"is_disabled":false,"rental_uris":{"android":"levelo://app?vid=69f56a2f-a449-4ef3-a2fc-5ae95bdb3601","ios":"levelo://app?vid=69f56a2f-a449-4ef3-a2fc-5ae95bdb3601"},"vehicle_type_id":"4","last_reported":1691226353,"current_range_meters":28800,"station_id":"ce4bgi12rcd13ifvqb70","pricing_plan_id":"free"},{"bike_id":"6e498776-b4d6-4aac-bf8f-446a9b88e3fe","system_id":"levelo_inurba_marseille","lat":43.2936,"lon":5.37835,"is_reserved":false,"is_disabled":false,"rental_uris":{"android":"levelo://app?vid=6e498776-b4d6-4aac-bf8f-446a9b88e3fe","ios":"levelo://app?vid=6e498776-b4d6-4aac-bf8f-446a9b88e3fe"},"vehicle_type_id":"4","last_reported":1691226353,"current_range_meters":24800,"station_id":"ce4bgjh2rcd13ifvqbf0","pricing_plan_id":"free"},{"bike_id":"302280be-a7f3-4df1-b092-092b71ea838d","system_id":"levelo_inurba_marseille","lat":43.2936,"lon":5.37835,"is_reserved":false,"is_disabled":false,"rental_uris":{"android":"levelo://app?vid=302280be-a7f3-4df1-b092-092b71ea838d","ios":"levelo://app?vid=302280be-a7f3-4df1-b092-092b71ea838d"},"vehicle_type_id":"4","last_reported":1691226353,"current_range_meters":28400,"station_id":"ce4bgjh2rcd13ifvqbf0","pricing_plan_id":"free"},{"bike_id":"eb3c607a-47ff-4b8e-b842-45cfbbdc44bd","system_id":"levelo_inurba_marseille","lat":43.29228,"lon":5.36061,"is_reserved":false,"is_disabled":false,"rental_uris":{"android":"levelo://app?vid=eb3c607a-47ff-4b8e-b842-45cfbbdc44bd","ios":"levelo://app?vid=eb3c607a-47ff-4b8e-b842-45cfbbdc44bd"},"vehicle_type_id":"4","last_reported":1691226353,"current_range_meters":22000,"station_id":"ce4bhbh2rcd13ifvqeqg","pricing_plan_id":"free"},{"bike_id":"e9f2bc4b-e727-4cb6-a5ba-f740145edee6","system_id":"levelo_inurba_marseille","lat":43.29225,"lon":5.36068,"is_reserved":false,"is_disabled":false,"rental_uris":{"android":"levelo://app?vid=e9f2bc4b-e727-4cb6-a5ba-f740145edee6","ios":"levelo://app?vid=e9f2bc4b-e727-4cb6-a5ba-f740145edee6"},"vehicle_type_id":"4","last_reported":1691226353,"current_range_meters":30400,"station_id":"ce4bhbh2rcd13ifvqeqg","pricing_plan_id":"free"},{"bike_id":"8e790844-3a76-4329-9b75-2174f8c9aa09","system_id":"levelo_inurba_marseille","lat":43.29227,"lon":5.36051,"is_reserved":false,"is_disabled":false,"rental_uris":{"android":"levelo://app?vid=8e790844-3a76-4329-9b75-2174f8c9aa09","ios":"levelo://app?vid=8e790844-3a76-4329-9b75-2174f8c9aa09"},"vehicle_type_id":"4","last_reported":1691226353,"current_range_meters":31200,"station_id":"ce4bhbh2rcd13ifvqeqg","pricing_plan_id":"free"},{"bike_id":"35557d93-1f7d-4175-b833-b860fb3f4751","system_id":"levelo_inurba_marseille","lat":43.292663,"lon":5.376389,"is_reserved":false,"is_disabled":false,"rental_uris":{"android":"levelo://app?vid=35557d93-1f7d-4175-b833-b860fb3f4751","ios":"levelo://app?vid=35557d93-1f7d-4175-b833-b860fb3f4751"},"vehicle_type_id":"4","last_reported":1691226353,"current_range_meters":17600,"station_id":"ce4bgi12rcd13ifvqb80","pricing_plan_id":"free"},{"bike_id":"ceabb019-5b35-4c42-82ef-c743f470d1c8","system_id":"levelo_inurba_marseille","lat":43.291675,"lon":5.371583,"is_reserved":false,"is_disabled":false,"rental_uris":{"android":"levelo://app?vid=ceabb019-5b35-4c42-82ef-c743f470d1c8","ios":"levelo://app?vid=ceabb019-5b35-4c42-82ef-c743f470d1c8"},"vehicle_type_id":"4","last_reported":1691226353,"current_range_meters":23200,"station_id":"ce4bha92rcd13ifvqeh0","pricing_plan_id":"free"},{"bike_id":"c30bbe8f-b2e3-4efc-9668-38d4119548ea","system_id":"levelo_inurba_marseille","lat":43.291671,"lon":5.371575,"is_reserved":false,"is_disabled":false,"rental_uris":{"android":"levelo://app?vid=c30bbe8f-b2e3-4efc-9668-38d4119548ea","ios":"levelo://app?vid=c30bbe8f-b2e3-4efc-9668-38d4119548ea"},"vehicle_type_id":"4","last_reported":1691226353,"current_range_meters":9600,"station_id":"ce4bha92rcd13ifvqeh0","pricing_plan_id":"free"},{"bike_id":"d052577c-b8a4-471b-b73f-c0534c4a03e2","system_id":"levelo_inurba_marseille","lat":43.30882,"lon":5.3963,"is_reserved":false,"is_disabled":false,"rental_uris":{"android":"levelo://app?vid=d052577c-b8a4-471b-b73f-c0534c4a03e2","ios":"levelo://app?vid=d052577c-b8a4-471b-b73f-c0534c4a03e2"},"vehicle_type_id":"4","last_reported":1691226353,"current_range_meters":31200,"station_id":"ce4bh012rcd13ifvqcv0","pricing_plan_id":"free"},{"bike_id":"48a4675c-3592-4e86-b588-5cd026951643","system_id":"levelo_inurba_marseille","lat":43.31326,"lon":5.39682,"is_reserved":false,"is_disabled":false,"rental_uris":{"android":"levelo://app?vid=48a4675c-3592-4e86-b588-5cd026951643","ios":"levelo://app?vid=48a4675c-3592-4e86-b588-5cd026951643"},"vehicle_type_id":"4","last_reported":1691226353,"current_range_meters":31200,"station_id":"ce4bgvp2rcd13ifvqcu0","pricing_plan_id":"free"},{"bike_id":"ce9af7e8-c390-4052-bc70-643c83bd28f0","system_id":"levelo_inurba_marseille","lat":43.3133,"lon":5.39682,"is_reserved":false,"is_disabled":false,"rental_uris":{"android":"levelo://app?vid=ce9af7e8-c390-4052-bc70-643c83bd28f0","ios":"levelo://app?vid=ce9af7e8-c390-4052-bc70-643c83bd28f0"},"vehicle_type_id":"4","last_reported":1691226353,"current_range_meters":26000,"station_id":"ce4bgvp2rcd13ifvqcu0","pricing_plan_id":"free"},{"bike_id":"0c872fac-4908-4c2b-8165-2f366f0421b8","system_id":"levelo_inurba_marseille","lat":43.31329,"lon":5.39683,"is_reserved":false,"is_disabled":false,"rental_uris":{"android":"levelo://app?vid=0c872fac-4908-4c2b-8165-2f366f0421b8","ios":"levelo://app?vid=0c872fac-4908-4c2b-8165-2f366f0421b8"},"vehicle_type_id":"4","last_reported":1691226353,"current_range_meters":27200,"station_id":"ce4bgvp2rcd13ifvqcu0","pricing_plan_id":"free"},{"bike_id":"8ce13b56-1737-47c1-99cb-f47c5df85884","system_id":"levelo_inurba_marseille","lat":43.3133,"lon":5.39685,"is_reserved":false,"is_disabled":false,"rental_uris":{"android":"levelo://app?vid=8ce13b56-1737-47c1-99cb-f47c5df85884","ios":"levelo://app?vid=8ce13b56-1737-47c1-99cb-f47c5df85884"},"vehicle_type_id":"4","last_reported":1691226353,"current_range_meters":20000,"station_id":"ce4bgvp2rcd13ifvqcu0","pricing_plan_id":"free"},{"bike_id":"6a78cfee-a0d7-4f90-b817-7d7948c89d9c","system_id":"levelo_inurba_marseille","lat":43.31331,"lon":5.39685,"is_reserved":false,"is_disabled":false,"rental_uris":{"android":"levelo://app?vid=6a78cfee-a0d7-4f90-b817-7d7948c89d9c","ios":"levelo://app?vid=6a78cfee-a0d7-4f90-b817-7d7948c89d9c"},"vehicle_type_id":"4","last_reported":1691226353,"current_range_meters":27200,"station_id":"ce4bgvp2rcd13ifvqcu0","pricing_plan_id":"free"},{"bike_id":"84765db9-8516-4be5-b902-0acbc50c7226","system_id":"levelo_inurba_marseille","lat":43.309038,"lon":5.396546,"is_reserved":false,"is_disabled":false,"rental_uris":{"android":"levelo://app?vid=84765db9-8516-4be5-b902-0acbc50c7226","ios":"levelo://app?vid=84765db9-8516-4be5-b902-0acbc50c7226"},"vehicle_type_id":"4","last_reported":1691226353,"current_range_meters":6000,"station_id":"ce4bh012rcd13ifvqcv0","pricing_plan_id":"free"},{"bike_id":"4282928a-65ca-455f-9646-806d7e6ca5a3","system_id":"levelo_inurba_marseille","lat":43.31326,"lon":5.39688,"is_reserved":false,"is_disabled":false,"rental_uris":{"android":"levelo://app?vid=4282928a-65ca-455f-9646-806d7e6ca5a3","ios":"levelo://app?vid=4282928a-65ca-455f-9646-806d7e6ca5a3"},"vehicle_type_id":"4","last_reported":1691226353,"current_range_meters":23600,"station_id":"ce4bgvp2rcd13ifvqcu0","pricing_plan_id":"free"},{"bike_id":"0288d276-f1da-474e-8992-fc865d32c018","system_id":"levelo_inurba_marseille","lat":43.3133,"lon":5.39688,"is_reserved":false,"is_disabled":false,"rental_uris":{"android":"levelo://app?vid=0288d276-f1da-474e-8992-fc865d32c018","ios":"levelo://app?vid=0288d276-f1da-474e-8992-fc865d32c018"},"vehicle_type_id":"4","last_reported":1691226353,"current_range_meters":27200,"station_id":"ce4bgvp2rcd13ifvqcu0","pricing_plan_id":"free"},{"bike_id":"ebbf0889-294e-4a97-b816-80e14ee272d5","system_id":"levelo_inurba_marseille","lat":43.3133,"lon":5.39688,"is_reserved":false,"is_disabled":false,"rental_uris":{"android":"levelo://app?vid=ebbf0889-294e-4a97-b816-80e14ee272d5","ios":"levelo://app?vid=ebbf0889-294e-4a97-b816-80e14ee272d5"},"vehicle_type_id":"4","last_reported":1691226353,"current_range_meters":24000,"station_id":"ce4bgvp2rcd13ifvqcu0","pricing_plan_id":"free"},{"bike_id":"ff02c0d7-1cfb-409f-908f-6d85768ea8c5","system_id":"levelo_inurba_marseille","lat":43.31332,"lon":5.39688,"is_reserved":false,"is_disabled":false,"rental_uris":{"android":"levelo://app?vid=ff02c0d7-1cfb-409f-908f-6d85768ea8c5","ios":"levelo://app?vid=ff02c0d7-1cfb-409f-908f-6d85768ea8c5"},"vehicle_type_id":"4","last_reported":1691226353,"current_range_meters":31200,"station_id":"ce4bgvp2rcd13ifvqcu0","pricing_plan_id":"free"},{"bike_id":"40b0dbf0-87f6-4363-b8e9-d1cac15b6861","system_id":"levelo_inurba_marseille","lat":43.31335,"lon":5.39688,"is_reserved":false,"is_disabled":false,"rental_uris":{"android":"levelo://app?vid=40b0dbf0-87f6-4363-b8e9-d1cac15b6861","ios":"levelo://app?vid=40b0dbf0-87f6-4363-b8e9-d1cac15b6861"},"vehicle_type_id":"4","last_reported":1691226353,"current_range_meters":26400,"station_id":"ce4bgvp2rcd13ifvqcu0","pricing_plan_id":"free"},{"bike_id":"12fa8514-0a68-41f7-bb46-e07e792351de","system_id":"levelo_inurba_marseille","lat":43.3133,"lon":5.39689,"is_reserved":false,"is_disabled":false,"rental_uris":{"android":"levelo://app?vid=12fa8514-0a68-41f7-bb46-e07e792351de","ios":"levelo://app?vid=12fa8514-0a68-41f7-bb46-e07e792351de"},"vehicle_type_id":"4","last_reported":1691226353,"current_range_meters":31200,"station_id":"ce4bgvp2rcd13ifvqcu0","pricing_plan_id":"free"},{"bike_id":"152b437f-135a-41a9-8809-789f80214774","system_id":"levelo_inurba_marseille","lat":43.3133,"lon":5.39689,"is_reserved":false,"is_disabled":false,"rental_uris":{"android":"levelo://app?vid=152b437f-135a-41a9-8809-789f80214774","ios":"levelo://app?vid=152b437f-135a-41a9-8809-789f80214774"},"vehicle_type_id":"4","last_reported":1691226353,"current_range_meters":24400,"station_id":"ce4bgvp2rcd13ifvqcu0","pricing_plan_id":"free"},{"bike_id":"edbde369-89e1-45f8-81b5-f85bad4243bd","system_id":"levelo_inurba_marseille","lat":43.291994,"lon":5.357886,"is_reserved":false,"is_disabled":false,"rental_uris":{"android":"levelo://app?vid=edbde369-89e1-45f8-81b5-f85bad4243bd","ios":"levelo://app?vid=edbde369-89e1-45f8-81b5-f85bad4243bd"},"vehicle_type_id":"4","last_reported":1691226353,"current_range_meters":19600,"station_id":"ce4bhb12rcd13ifvqel0","pricing_plan_id":"free"},{"bike_id":"2a42ccbf-9c54-40b8-a8cd-748ddc862f0d","system_id":"levelo_inurba_marseille","lat":43.291994,"lon":5.357886,"is_reserved":false,"is_disabled":false,"rental_uris":{"android":"levelo://app?vid=2a42ccbf-9c54-40b8-a8cd-748ddc862f0d","ios":"levelo://app?vid=2a42ccbf-9c54-40b8-a8cd-748ddc862f0d"},"vehicle_type_id":"4","last_reported":1691226353,"current_range_meters":31200,"station_id":"ce4bhb12rcd13ifvqel0","pricing_plan_id":"free"},{"bike_id":"732d6916-7d23-4824-bd9d-f12772e1f638","system_id":"levelo_inurba_marseille","lat":43.31328,"lon":5.39691,"is_reserved":false,"is_disabled":false,"rental_uris":{"android":"levelo://app?vid=732d6916-7d23-4824-bd9d-f12772e1f638","ios":"levelo://app?vid=732d6916-7d23-4824-bd9d-f12772e1f638"},"vehicle_type_id":"4","last_reported":1691226353,"current_range_meters":26400,"station_id":"ce4bgvp2rcd13ifvqcu0","pricing_plan_id":"free"},{"bike_id":"4e6846ae-36f1-4235-93d3-4da7c9b10477","system_id":"levelo_inurba_marseille","lat":43.31334,"lon":5.39692,"is_reserved":false,"is_disabled":false,"rental_uris":{"android":"levelo://app?vid=4e6846ae-36f1-4235-93d3-4da7c9b10477","ios":"levelo://app?vid=4e6846ae-36f1-4235-93d3-4da7c9b10477"},"vehicle_type_id":"4","last_reported":1691226353,"current_range_meters":23200,"station_id":"ce4bgvp2rcd13ifvqcu0","pricing_plan_id":"free"},{"bike_id":"40a7725f-bc55-4693-9c45-86bc7b0e8476","system_id":"levelo_inurba_marseille","lat":43.31335,"lon":5.39692,"is_reserved":false,"is_disabled":false,"rental_uris":{"android":"levelo://app?vid=40a7725f-bc55-4693-9c45-86bc7b0e8476","ios":"levelo://app?vid=40a7725f-bc55-4693-9c45-86bc7b0e8476"},"vehicle_type_id":"4","last_reported":1691226353,"current_range_meters":25600,"station_id":"ce4bgvp2rcd13ifvqcu0","pricing_plan_id":"free"},{"bike_id":"c059dceb-8c2b-44ea-a397-b0e9e6a6b1dc","system_id":"levelo_inurba_marseille","lat":43.29192,"lon":5.35787,"is_reserved":false,"is_disabled":false,"rental_uris":{"android":"levelo://app?vid=c059dceb-8c2b-44ea-a397-b0e9e6a6b1dc","ios":"levelo://app?vid=c059dceb-8c2b-44ea-a397-b0e9e6a6b1dc"},"vehicle_type_id":"4","last_reported":1691226353,"current_range_meters":31200,"station_id":"ce4bhb12rcd13ifvqel0","pricing_plan_id":"free"},{"bike_id":"6761a8b1-91fb-4cd4-8397-cdcd34da0a44","system_id":"levelo_inurba_marseille","lat":43.31331,"lon":5.39693,"is_reserved":false,"is_disabled":false,"rental_uris":{"android":"levelo://app?vid=6761a8b1-91fb-4cd4-8397-cdcd34da0a44","ios":"levelo://app?vid=6761a8b1-91fb-4cd4-8397-cdcd34da0a44"},"vehicle_type_id":"4","last_reported":1691226353,"current_range_meters":15200,"station_id":"ce4bgvp2rcd13ifvqcu0","pricing_plan_id":"free"},{"bike_id":"d1ffca73-7d13-4241-8f74-14210fca76f7","system_id":"levelo_inurba_marseille","lat":43.31334,"lon":5.39694,"is_reserved":false,"is_disabled":false,"rental_uris":{"android":"levelo://app?vid=d1ffca73-7d13-4241-8f74-14210fca76f7","ios":"levelo://app?vid=d1ffca73-7d13-4241-8f74-14210fca76f7"},"vehicle_type_id":"4","last_reported":1691226353,"current_range_meters":28400,"station_id":"ce4bgvp2rcd13ifvqcu0","pricing_plan_id":"free"},{"bike_id":"4a008422-29a4-458e-a2c7-038b8d570857","system_id":"levelo_inurba_marseille","lat":43.31323,"lon":5.39695,"is_reserved":false,"is_disabled":false,"rental_uris":{"android":"levelo://app?vid=4a008422-29a4-458e-a2c7-038b8d570857","ios":"levelo://app?vid=4a008422-29a4-458e-a2c7-038b8d570857"},"vehicle_type_id":"4","last_reported":1691226353,"current_range_meters":12800,"station_id":"ce4bgvp2rcd13ifvqcu0","pricing_plan_id":"free"},{"bike_id":"aebc54c8-79e4-45f4-b884-c61326e3fc84","system_id":"levelo_inurba_marseille","lat":43.31329,"lon":5.39699,"is_reserved":false,"is_disabled":false,"rental_uris":{"android":"levelo://app?vid=aebc54c8-79e4-45f4-b884-c61326e3fc84","ios":"levelo://app?vid=aebc54c8-79e4-45f4-b884-c61326e3fc84"},"vehicle_type_id":"4","last_reported":1691226353,"current_range_meters":30800,"station_id":"ce4bgvp2rcd13ifvqcu0","pricing_plan_id":"free"},{"bike_id":"4a15653b-a821-4272-a01a-2f3b60ff1a0c","system_id":"levelo_inurba_marseille","lat":43.291994,"lon":5.357886,"is_reserved":false,"is_disabled":false,"rental_uris":{"android":"levelo://app?vid=4a15653b-a821-4272-a01a-2f3b60ff1a0c","ios":"levelo://app?vid=4a15653b-a821-4272-a01a-2f3b60ff1a0c"},"vehicle_type_id":"4","last_reported":1691226353,"current_range_meters":31200,"station_id":"ce4bhb12rcd13ifvqel0","pricing_plan_id":"free"},{"bike_id":"ffae8706-65aa-4320-99d0-677e69dc9fcf","system_id":"levelo_inurba_marseille","lat":43.290779,"lon":5.371482,"is_reserved":false,"is_disabled":false,"rental_uris":{"android":"levelo://app?vid=ffae8706-65aa-4320-99d0-677e69dc9fcf","ios":"levelo://app?vid=ffae8706-65aa-4320-99d0-677e69dc9fcf"},"vehicle_type_id":"4","last_reported":1691226353,"current_range_meters":29600,"station_id":"ce4bh5p2rcd13ifvqe4g","pricing_plan_id":"free"},{"bike_id":"8681a966-69b6-46c2-b3e9-b20800cbca7d","system_id":"levelo_inurba_marseille","lat":43.290779,"lon":5.371482,"is_reserved":false,"is_disabled":false,"rental_uris":{"android":"levelo://app?vid=8681a966-69b6-46c2-b3e9-b20800cbca7d","ios":"levelo://app?vid=8681a966-69b6-46c2-b3e9-b20800cbca7d"},"vehicle_type_id":"4","last_reported":1691226353,"current_range_meters":30400,"station_id":"ce4bh5p2rcd13ifvqe4g","pricing_plan_id":"free"},{"bike_id":"27109c73-1128-4f35-8ebe-4d2333a08f42","system_id":"levelo_inurba_marseille","lat":43.28937,"lon":5.36621,"is_reserved":false,"is_disabled":false,"rental_uris":{"android":"levelo://app?vid=27109c73-1128-4f35-8ebe-4d2333a08f42","ios":"levelo://app?vid=27109c73-1128-4f35-8ebe-4d2333a08f42"},"vehicle_type_id":"4","last_reported":1691226353,"current_range_meters":30400,"station_id":"ce4bhap2rcd13ifvqek0","pricing_plan_id":"free"},{"bike_id":"627768b6-77d0-45f5-9826-f01168e20165","system_id":"levelo_inurba_marseille","lat":43.289468,"lon":5.363719,"is_reserved":false,"is_disabled":false,"rental_uris":{"android":"levelo://app?vid=627768b6-77d0-45f5-9826-f01168e20165","ios":"levelo://app?vid=627768b6-77d0-45f5-9826-f01168e20165"},"vehicle_type_id":"4","last_reported":1691226353,"current_range_meters":23600,"station_id":"ce4bhc92rcd13ifvqetg","pricing_plan_id":"free"},{"bike_id":"6df5a203-337c-4bed-94a3-2839e99cc15c","system_id":"levelo_inurba_marseille","lat":43.330109,"lon":5.389001,"is_reserved":false,"is_disabled":false,"rental_uris":{"android":"levelo://app?vid=6df5a203-337c-4bed-94a3-2839e99cc15c","ios":"levelo://app?vid=6df5a203-337c-4bed-94a3-2839e99cc15c"},"vehicle_type_id":"4","last_reported":1691226353,"current_range_meters":13600,"station_id":"","pricing_plan_id":"free"},{"bike_id":"b318ced9-0a46-436e-8cde-98a85de4448a","system_id":"levelo_inurba_marseille","lat":43.33037,"lon":5.38918,"is_reserved":false,"is_disabled":false,"rental_uris":{"android":"levelo://app?vid=b318ced9-0a46-436e-8cde-98a85de4448a","ios":"levelo://app?vid=b318ced9-0a46-436e-8cde-98a85de4448a"},"vehicle_type_id":"4","last_reported":1691226353,"current_range_meters":31200,"station_id":"ce4bhr92rcd13ifvqhrg","pricing_plan_id":"free"},{"bike_id":"58d9daa4-9c4c-4dbc-a91c-3eee752552f5","system_id":"levelo_inurba_marseille","lat":43.30478,"lon":5.39795,"is_reserved":false,"is_disabled":false,"rental_uris":{"android":"levelo://app?vid=58d9daa4-9c4c-4dbc-a91c-3eee752552f5","ios":"levelo://app?vid=58d9daa4-9c4c-4dbc-a91c-3eee752552f5"},"vehicle_type_id":"4","last_reported":1691226353,"current_range_meters":18400,"station_id":"","pricing_plan_id":"free"},{"bike_id":"8ace282d-a246-40c2-9516-a60b5d85bb41","system_id":"levelo_inurba_marseille","lat":43.33042,"lon":5.38914,"is_reserved":false,"is_disabled":false,"rental_uris":{"android":"levelo://app?vid=8ace282d-a246-40c2-9516-a60b5d85bb41","ios":"levelo://app?vid=8ace282d-a246-40c2-9516-a60b5d85bb41"},"vehicle_type_id":"4","last_reported":1691226353,"current_range_meters":20400,"station_id":"ce4bhr92rcd13ifvqhrg","pricing_plan_id":"free"},{"bike_id":"20cf3f6d-acf4-4653-bf24-baa04253f77a","system_id":"levelo_inurba_marseille","lat":43.33042,"lon":5.38914,"is_reserved":false,"is_disabled":false,"rental_uris":{"android":"levelo://app?vid=20cf3f6d-acf4-4653-bf24-baa04253f77a","ios":"levelo://app?vid=20cf3f6d-acf4-4653-bf24-baa04253f77a"},"vehicle_type_id":"4","last_reported":1691226353,"current_range_meters":15200,"station_id":"ce4bhr92rcd13ifvqhrg","pricing_plan_id":"free"},{"bike_id":"e6c6e4e8-edee-449e-8936-76c8ef3752c4","system_id":"levelo_inurba_marseille","lat":43.33041,"lon":5.38916,"is_reserved":false,"is_disabled":false,"rental_uris":{"android":"levelo://app?vid=e6c6e4e8-edee-449e-8936-76c8ef3752c4","ios":"levelo://app?vid=e6c6e4e8-edee-449e-8936-76c8ef3752c4"},"vehicle_type_id":"4","last_reported":1691226353,"current_range_meters":20400,"station_id":"ce4bhr92rcd13ifvqhrg","pricing_plan_id":"free"},{"bike_id":"20cb5f5a-181a-4021-97b1-43635f1dcccc","system_id":"levelo_inurba_marseille","lat":43.33039,"lon":5.38919,"is_reserved":false,"is_disabled":false,"rental_uris":{"android":"levelo://app?vid=20cb5f5a-181a-4021-97b1-43635f1dcccc","ios":"levelo://app?vid=20cb5f5a-181a-4021-97b1-43635f1dcccc"},"vehicle_type_id":"4","last_reported":1691226353,"current_range_meters":30400,"station_id":"ce4bhr92rcd13ifvqhrg","pricing_plan_id":"free"},{"bike_id":"cedbc9c4-3cd8-4974-be60-104359550a71","system_id":"levelo_inurba_marseille","lat":43.33047,"lon":5.38909,"is_reserved":false,"is_disabled":false,"rental_uris":{"android":"levelo://app?vid=cedbc9c4-3cd8-4974-be60-104359550a71","ios":"levelo://app?vid=cedbc9c4-3cd8-4974-be60-104359550a71"},"vehicle_type_id":"4","last_reported":1691226353,"current_range_meters":31200,"station_id":"ce4bhr92rcd13ifvqhrg","pricing_plan_id":"free"},{"bike_id":"9ce62819-7d94-47c9-aff2-f56e39f0ba59","system_id":"levelo_inurba_marseille","lat":43.33042,"lon":5.38917,"is_reserved":false,"is_disabled":false,"rental_uris":{"android":"levelo://app?vid=9ce62819-7d94-47c9-aff2-f56e39f0ba59","ios":"levelo://app?vid=9ce62819-7d94-47c9-aff2-f56e39f0ba59"},"vehicle_type_id":"4","last_reported":1691226353,"current_range_meters":28800,"station_id":"ce4bhr92rcd13ifvqhrg","pricing_plan_id":"free"},{"bike_id":"2f2d42a2-8de0-405f-9429-d3eae654394c","system_id":"levelo_inurba_marseille","lat":43.33043,"lon":5.38917,"is_reserved":false,"is_disabled":false,"rental_uris":{"android":"levelo://app?vid=2f2d42a2-8de0-405f-9429-d3eae654394c","ios":"levelo://app?vid=2f2d42a2-8de0-405f-9429-d3eae654394c"},"vehicle_type_id":"4","last_reported":1691226353,"current_range_meters":17600,"station_id":"ce4bhr92rcd13ifvqhrg","pricing_plan_id":"free"},{"bike_id":"98f910d2-52f4-4465-977e-10142d8cca43","system_id":"levelo_inurba_marseille","lat":43.33047,"lon":5.38911,"is_reserved":false,"is_disabled":false,"rental_uris":{"android":"levelo://app?vid=98f910d2-52f4-4465-977e-10142d8cca43","ios":"levelo://app?vid=98f910d2-52f4-4465-977e-10142d8cca43"},"vehicle_type_id":"4","last_reported":1691226353,"current_range_meters":18000,"station_id":"ce4bhr92rcd13ifvqhrg","pricing_plan_id":"free"},{"bike_id":"2dba05d3-f7a4-4dcc-9133-7e306f42ddbb","system_id":"levelo_inurba_marseille","lat":43.33049,"lon":5.38908,"is_reserved":false,"is_disabled":false,"rental_uris":{"android":"levelo://app?vid=2dba05d3-f7a4-4dcc-9133-7e306f42ddbb","ios":"levelo://app?vid=2dba05d3-f7a4-4dcc-9133-7e306f42ddbb"},"vehicle_type_id":"4","last_reported":1691226353,"current_range_meters":31200,"station_id":"ce4bhr92rcd13ifvqhrg","pricing_plan_id":"free"},{"bike_id":"87a91d50-b0ca-4c64-94ae-7cf78dbb050f","system_id":"levelo_inurba_marseille","lat":43.33045,"lon":5.38915,"is_reserved":false,"is_disabled":false,"rental_uris":{"android":"levelo://app?vid=87a91d50-b0ca-4c64-94ae-7cf78dbb050f","ios":"levelo://app?vid=87a91d50-b0ca-4c64-94ae-7cf78dbb050f"},"vehicle_type_id":"4","last_reported":1691226353,"current_range_meters":14000,"station_id":"ce4bhr92rcd13ifvqhrg","pricing_plan_id":"free"},