{"last_updated":1748506467,"ttl":60,"version":"2.2","data":{"bikes":[{"bike_id":"55d42eeb-6b71-4987-a0f2-3d758b10d43e","system_id":"levelo_inurba_marseille","lat":43.33771,"lon":5.37424,"is_reserved":false,"is_disabled":true,"rental_uris":{"android":"levelo://app?vid=55d42eeb-6b71-4987-a0f2-3d758b10d43e","ios":"levelo://app?vid=55d42eeb-6b71-4987-a0f2-3d758b10d43e"},"vehicle_type_id":"4","last_reported":1748506467,"current_range_meters":0,"station_id":"","pricing_plan_id":"cebpf4jnsgd1na2vs0mg"},{"bike_id":"7f4b6069-304f-4d75-a8b9-d3db83a055ca","system_id":"levelo_inurba_marseille","lat":43.21772,"lon":5.34595,"is_reserved":false,"is_disabled":true,"rental_uris":{"android":"levelo://app?vid=7f4b6069-304f-4d75-a8b9-d3db83a055ca","ios":"levelo://app?vid=7f4b6069-304f-4d75-a8b9-d3db83a055ca"},"vehicle_type_id":"4","last_reported":1748506467,"current_range_meters":0,"station_id":"","pricing_plan_id":"cebpf4jnsgd1na2vs0mg"},{"bike_id":"b7fe4621-b706-42f0-9085-4811142f84e8","system_id":"levelo_inurba_marseille","lat":43.337499,"lon":5.374469,"is_reserved":false,"is_disabled":true,"rental_uris":{"android":"levelo://app?vid=b7fe4621-b706-42f0-9085-4811142f84e8","ios":"levelo://app?vid=b7fe4621-b706-42f0-9085-4811142f84e8"},"vehicle_type_id":"4","last_reported":1748506467,"current_range_meters":0,"station_id":"","pricing_plan_id":"cebpf4jnsgd1na2vs0mg"},{"bike_id":"fe000210-af5a-4367-8a9d-4202f00949cb","system_id":"levelo_inurba_marseille","lat":43.28289,"lon":5.40643,"is_reserved":false,"is_disabled":true,"rental_uris":{"android":"levelo://app?vid=fe000210-af5a-4367-8a9d-4202f00949cb","ios":"levelo://app?vid=fe000210-af5a-4367-8a9d-4202f00949cb"},"vehicle_type_id":"4","last_reported":1748506467,"current_range_meters":0,"station_id":"","pricing_plan_id":"cebpf4jnsgd1na2vs0mg"},{"bike_id":"ad402f0f-3192-410c-afac-8cf064a40c6d","system_id":"levelo_inurba_marseille","lat":43.337444,"lon":5.374475,"is_reserved":false,"is_disabled":true,"rental_uris":{"android":"levelo://app?vid=ad402f0f-3192-410c-afac-8cf064a40c6d","ios":"levelo://app?vid=ad402f0f-3192-410c-afac-8cf064a40c6d"},"vehicle_type_id":"4","last_reported":1748506467,"current_range_meters":0,"station_id":"","pricing_plan_id":"cebpf4jnsgd1na2vs0mg"},{"bike_id":"49a884c6-32c5-4489-8361-5676db2be1d3","system_id":"levelo_inurba_marseille","lat":43.30455,"lon":5.3709,"is_reserved":false,"is_disabled":true,"rental_uris":{"android":"levelo://app?vid=49a884c6-32c5-4489-8361-5676db2be1d3","ios":"levelo://app?vid=49a884c6-32c5-4489-8361-5676db2be1d3"},"vehicle_type_id":"4","last_reported":1748506467,"current_range_meters":0,"station_id":"","pricing_plan_id":"cebpf4jnsgd1na2vs0mg"},{"bike_id":"49c6e13b-47db-4742-afe3-0aadda4ba4fb","system_id":"levelo_inurba_marseille","lat":43.317567,"lon":5.385483,"is_reserved":false,"is_disabled":true,"rental_uris":{"android":"levelo://app?vid=49c6e13b-47db-4742-afe3-0aadda4ba4fb","ios":"levelo://app?vid=49c6e13b-47db-4742-afe3-0aadda4ba4fb"},"vehicle_type_id":"4","last_reported":1748506467,"current_range_meters":0,"station_id":"","pricing_plan_id":"cebpf4jnsgd1na2vs0mg"},{"bike_id":"80dc1064-d63f-4a22-ad21-d8abd70986c0","system_id":"levelo_inurba_marseille","lat":43.337508,"lon":5.374829,"is_reserved":false,"is_disabled":true,"rental_uris":{"android":"levelo://app?vid=80dc1064-d63f-4a22-ad21-d8abd70986c0","ios":"levelo://app?vid=80dc1064-d63f-4a22-ad21-d8abd70986c0"},"vehicle_type_id":"4","last_reported":1748506467,"current_range_meters":0,"station_id":"","pricing_plan_id":"cebpf4jnsgd1na2vs0mg"},{"bike_id":"d3bf3c55-5769-4b15-9eb1-28f17ada09fd","system_id":"levelo_inurba_marseille","lat":43.321525,"lon":5.387768,"is_reserved":false,"is_disabled":true,"rental_uris":{"android":"levelo://app?vid=d3bf3c55-5769-4b15-9eb1-28f17ada09fd","ios":"levelo://app?vid=d3bf3c55-5769-4b15-9eb1-28f17ada09fd"},"vehicle_type_id":"4","last_reported":1748506467,"current_range_meters":0,"station_id":"","pricing_plan_id":"cebpf4jnsgd1na2vs0mg"},{"bike_id":"7f9bdcaf-4217-4932-be91-52b5120d5ca8","system_id":"levelo_inurba_marseille","lat":43.26344,"lon":5.40134,"is_reserved":false,"is_disabled":true,"rental_uris":{"android":"levelo://app?vid=7f9bdcaf-4217-4932-be91-52b5120d5ca8","ios":"levelo://app?vid=7f9bdcaf-4217-4932-be91-52b5120d5ca8"},"vehicle_type_id":"4","last_reported":1748506467,"current_range_meters":0,"station_id":"","pricing_plan_id":"cebpf4jnsgd1na2vs0mg"},{"bike_id":"2fd7e160-685c-4858-b57b-dcaef27a8e94","system_id":"levelo_inurba_marseille","lat":43.230331,"lon":5.401847,"is_reserved":false,"is_disabled":true,"rental_uris":{"android":"levelo://app?vid=2fd7e160-685c-4858-b57b-dcaef27a8e94","ios":"levelo://app?vid=2fd7e160-685c-4858-b57b-dcaef27a8e94"},"vehicle_type_id":"4","last_reported":1748506467,"current_range_meters":0,"station_id":"","pricing_plan_id":"cebpf4jnsgd1na2vs0mg"},{"bike_id":"fe6df611-c0e1-4a13-b3ed-1f3158a59d1f","system_id":"levelo_inurba_marseille","lat":43.31325,"lon":5.397,"is_reserved":false,"is_disabled":true,"rental_uris":{"android":"levelo://app?vid=fe6df611-c0e1-4a13-b3ed-1f3158a59d1f","ios":"levelo://app?vid=fe6df611-c0e1-4a13-b3ed-1f3158a59d1f"},"vehicle_type_id":"4","last_reported":1748506467,"current_range_meters":0,"station_id":"ce4bgvp2rcd13ifvqcu0","pricing_plan_id":"cebpf4jnsgd1na2vs0mg"},{"bike_id":"fc28e32c-967f-415c-a96e-de031221ce56","system_id":"levelo_inurba_marseille","lat":43.27216,"lon":5.39183,"is_reserved":false,"is_disabled":true,"rental_uris":{"android":"levelo://app?vid=fc28e32c-967f-415c-a96e-de031221ce56","ios":"levelo://app?vid=fc28e32c-967f-415c-a96e-de031221ce56"},"vehicle_type_id":"4","last_reported":1748506467,"current_range_meters":0,"station_id":"ce4bhhp2rcd13ifvqfm0","pricing_plan_id":"cebpf4jnsgd1na2vs0mg"},{"bike_id":"e73357c5-67ed-4075-84be-4246c5fbde4a","system_id":"levelo_inurba_marseille","lat":43.23146,"lon":5.43721,"is_reserved":false,"is_disabled":true,"rental_uris":{"android":"levelo://app?vid=e73357c5-67ed-4075-84be-4246c5fbde4a","ios":"levelo://app?vid=e73357c5-67ed-4075-84be-4246c5fbde4a"},"vehicle_type_id":"4","last_reported":1748506467,"current_range_meters":0,"station_id":"ce4bhmp2rcd13ifvqgog","pricing_plan_id":"cebpf4jnsgd1na2vs0mg"},{"bike_id":"ce526b8a-caa2-4d66-9928-344df9acf135","system_id":"levelo_inurba_marseille","lat":43.32368,"lon":5.38891,"is_reserved":false,"is_disabled":true,"rental_uris":{"android":"levelo://app?vid=ce526b8a-caa2-4d66-9928-344df9acf135","ios":"levelo://app?vid=ce526b8a-caa2-4d66-9928-344df9acf135"},"vehicle_type_id":"4","last_reported":1748506467,"current_range_meters":0,"station_id":"ce4bhqp2rcd13ifvqhog","pricing_plan_id":"cebpf4jnsgd1na2vs0mg"},{"bike_id":"443004d0-5e76-4011-aa1d-e28b9d37d601","system_id":"levelo_inurba_marseille","lat":43.31575,"lon":5.3689,"is_reserved":false,"is_disabled":true,"rental_uris":{"android":"levelo://app?vid=443004d0-5e76-4011-aa1d-e28b9d37d601","ios":"levelo://app?vid=443004d0-5e76-4011-aa1d-e28b9d37d601"},"vehicle_type_id":"4","last_reported":1748506467,"current_range_meters":400,"station_id":"","pricing_plan_id":"cebpf4jnsgd1na2vs0mg"},{"bike_id":"d1ec7f3f-3346-4b0d-86f3-754b70f641db","system_id":"levelo_inurba_marseille","lat":43.29026,"lon":5.38137,"is_reserved":false,"is_disabled":true,"rental_uris":{"android":"levelo://app?vid=d1ec7f3f-3346-4b0d-86f3-754b70f641db","ios":"levelo://app?vid=d1ec7f3f-3346-4b0d-86f3-754b70f641db"},"vehicle_type_id":"4","last_reported":1748506467,"current_range_meters":400,"station_id":"ce4bh4p2rcd13ifvqe1g","pricing_plan_id":"cebpf4jnsgd1na2vs0mg"},{"bike_id":"0d6d43c4-d3e9-479e-965d-8523b447e36a","system_id":"levelo_inurba_marseille","lat":43.23186,"lon":5.39977,"is_reserved":false,"is_disabled":true,"rental_uris":{"android":"levelo://app?vid=0d6d43c4-d3e9-479e-965d-8523b447e36a","ios":"levelo://app?vid=0d6d43c4-d3e9-479e-965d-8523b447e36a"},"vehicle_type_id":"4","last_reported":1748506467,"current_range_meters":400,"station_id":"ce4bhn12rcd13ifvqgqg","pricing_plan_id":"cebpf4jnsgd1na2vs0mg"},{"bike_id":"dba3dbf7-9f80-4f77-baad-bdc1b1227129","system_id":"levelo_inurba_marseille","lat":43.217632,"lon":5.345947,"is_reserved":false,"is_disabled":true,"rental_uris":{"android":"levelo://app?vid=dba3dbf7-9f80-4f77-baad-bdc1b1227129","ios":"levelo://app?vid=dba3dbf7-9f80-4f77-baad-bdc1b1227129"},"vehicle_type_id":"4","last_reported":1748506467,"current_range_meters":800,"station_id":"","pricing_plan_id":"cebpf4jnsgd1na2vs0mg"},{"bike_id":"154240d9-ae7a-4e24-8ba5-275513e5fd56","system_id":"levelo_inurba_marseille","lat":43.31127,"lon":5.37781,"is_reserved":false,"is_disabled":true,"rental_uris":{"android":"levelo://app?vid=154240d9-ae7a-4e24-8ba5-275513e5fd56","ios":"levelo://app?vid=154240d9-ae7a-4e24-8ba5-275513e5fd56"},"vehicle_type_id":"4","last_reported":1748506467,"current_range_meters":800,"station_id":"ce4bgt92rcd13ifvqcg0","pricing_plan_id":"cebpf4jnsgd1na2vs0mg"},{"bike_id":"38f21575-0e86-4c6a-aac5-732a93136600","system_id":"levelo_inurba_marseille","lat":43.33018,"lon":5.39031,"is_reserved":false,"is_disabled":true,"rental_uris":{"android":"levelo://app?vid=38f21575-0e86-4c6a-aac5-732a93136600","ios":"levelo://app?vid=38f21575-0e86-4c6a-aac5-732a93136600"},"vehicle_type_id":"4","last_reported":1748506467,"current_range_meters":1200,"station_id":"ce4bhr92rcd13ifvqhrg","pricing_plan_id":"cebpf4jnsgd1na2vs0mg"},{"bike_id":"2f0db56a-393a-4956-bb2c-ed685f1ca130","system_id":"levelo_inurba_marseille","lat":43.313695,"lon":5.38489,"is_reserved":false,"is_disabled":true,"rental_uris":{"android":"levelo://app?vid=2f0db56a-393a-4956-bb2c-ed685f1ca130","ios":"levelo://app?vid=2f0db56a-393a-4956-bb2c-ed685f1ca130"},"vehicle_type_id":"4","last_reported":1748506467,"current_range_meters":1600,"station_id":"ce4bgt92rcd13ifvqcf0","pricing_plan_id":"cebpf4jnsgd1na2vs0mg"},{"bike_id":"15cf3378-e772-4df2-ade7-1a7805badab3","system_id":"levelo_inurba_marseille","lat":43.2587,"lon":5.39894,"is_reserved":false,"is_disabled":true,"rental_uris":{"android":"levelo://app?vid=15cf3378-e772-4df2-ade7-1a7805badab3","ios":"levelo://app?vid=15cf3378-e772-4df2-ade7-1a7805badab3"},"vehicle_type_id":"4","last_reported":1748506467,"current_range_meters":1600,"station_id":"ce4bhl92rcd13ifvqghg","pricing_plan_id":"cebpf4jnsgd1na2vs0mg"},{"bike_id":"79fa2c16-3fb6-467d-b11f-01c41dbd318a","system_id":"levelo_inurba_marseille","lat":43.2989,"lon":5.43662,"is_reserved":false,"is_disabled":true,"rental_uris":{"android":"levelo://app?vid=79fa2c16-3fb6-467d-b11f-01c41dbd318a","ios":"levelo://app?vid=79fa2c16-3fb6-467d-b11f-01c41dbd318a"},"vehicle_type_id":"4","last_reported":1748506467,"current_range_meters":2000,"station_id":"ce4bhpp2rcd13ifvqhfg","pricing_plan_id":"cebpf4jnsgd1na2vs0mg"},{"bike_id":"64fb8e0a-ca3d-404a-bef4-fe0d157169fc","system_id":"levelo_inurba_marseille","lat":43.25498,"lon":5.37649,"is_reserved":false,"is_disabled":false,"rental_uris":{"android":"levelo://app?vid=64fb8e0a-ca3d-404a-bef4-fe0d157169fc","ios":"levelo://app?vid=64fb8e0a-ca3d-404a-bef4-fe0d157169fc"},"vehicle_type_id":"4","last_reported":1748506467,"current_range_meters":2800,"station_id":"ce4bhh12rcd13ifvqff0","pricing_plan_id":"cebpf4jnsgd1na2vs0mg"},{"bike_id":"79d4989e-883b-424d-91ec-65140385c43c","system_id":"levelo_inurba_marseille","lat":43.27494,"lon":5.42449,"is_reserved":false,"is_disabled":false,"rental_uris":{"android":"levelo://app?vid=79d4989e-883b-424d-91ec-65140385c43c","ios":"levelo://app?vid=79d4989e-883b-424d-91ec-65140385c43c"},"vehicle_type_id":"4","last_reported":1748506467,"current_range_meters":2800,"station_id":"ce4bhn92rcd13ifvqgrg","pricing_plan_id":"cebpf4jnsgd1na2vs0mg"},{"bike_id":"2785eb47-7f1b-40c0-b953-9b6c7ccca62e","system_id":"levelo_inurba_marseille","lat":43.30917,"lon":5.39628,"is_reserved":false,"is_disabled":false,"rental_uris":{"android":"levelo://app?vid=2785eb47-7f1b-40c0-b953-9b6c7ccca62e","ios":"levelo://app?vid=2785eb47-7f1b-40c0-b953-9b6c7ccca62e"},"vehicle_type_id":"4","last_reported":1748506467,"current_range_meters":3200,"station_id":"ce4bh012rcd13ifvqcv0","pricing_plan_id":"cebpf4jnsgd1na2vs0mg"},{"bike_id":"1a9deaa6-5b0b-41ea-a3a0-9c49f0de8473","system_id":"levelo_inurba_marseille","lat":43.293295,"lon":5.411691,"is_reserved":false,"is_disabled":false,"rental_uris":{"android":"levelo://app?vid=1a9deaa6-5b0b-41ea-a3a0-9c49f0de8473","ios":"levelo://app?vid=1a9deaa6-5b0b-41ea-a3a0-9c49f0de8473"},"vehicle_type_id":"4","last_reported":1748506467,"current_range_meters":4000,"station_id":"","pricing_plan_id":"cebpf4jnsgd1na2vs0mg"},{"bike_id":"0d2b3171-7717-4a46-baf3-0d73db01311e","system_id":"levelo_inurba_marseille","lat":43.24387,"lon":5.37061,"is_reserved":false,"is_disabled":false,"rental_uris":{"android":"levelo://app?vid=0d2b3171-7717-4a46-baf3-0d73db01311e","ios":"levelo://app?vid=0d2b3171-7717-4a46-baf3-0d73db01311e"},"vehicle_type_id":"4","last_reported":1748506467,"current_range_meters":4000,"station_id":"ce4bhhh2rcd13ifvqfk0","pricing_plan_id":"cebpf4jnsgd1na2vs0mg"},{"bike_id":"55edb2b6-24f5-484b-a859-47a014e0bde2","system_id":"levelo_inurba_marseille","lat":43.32625,"lon":5.36632,"is_reserved":false,"is_disabled":false,"rental_uris":{"android":"levelo://app?vid=55edb2b6-24f5-484b-a859-47a014e0bde2","ios":"levelo://app?vid=55edb2b6-24f5-484b-a859-47a014e0bde2"},"vehicle_type_id":"4","last_reported":1748506467,"current_range_meters":4400,"station_id":"","pricing_plan_id":"cebpf4jnsgd1na2vs0mg"},{"bike_id":"27960fed-d1f5-4a58-baea-ba186aa66b5d","system_id":"levelo_inurba_marseille","lat":43.30162,"lon":5.38095,"is_reserved":false,"is_disabled":false,"rental_uris":{"android":"levelo://app?vid=27960fed-d1f5-4a58-baea-ba186aa66b5d","ios":"levelo://app?vid=27960fed-d1f5-4a58-baea-ba186aa66b5d"},"vehicle_type_id":"4","last_reported":1748506467,"current_range_meters":4400,"station_id":"ce4bgjp2rcd13ifvqbh0","pricing_plan_id":"cebpf4jnsgd1na2vs0mg"},{"bike_id":"8b686f9a-13e4-448a-8045-4620b1af486c","system_id":"levelo_inurba_marseille","lat":43.30653,"lon":5.40087,"is_reserved":false,"is_disabled":false,"rental_uris":{"android":"levelo://app?vid=8b686f9a-13e4-448a-8045-4620b1af486c","ios":"levelo://app?vid=8b686f9a-13e4-448a-8045-4620b1af486c"},"vehicle_type_id":"4","last_reported":1748506467,"current_range_meters":4400,"station_id":"ce4bh112rcd13ifvqda0","pricing_plan_id":"cebpf4jnsgd1na2vs0mg"},{"bike_id":"6b78b3de-5eb4-4d12-8d76-4c11059979f9","system_id":"levelo_inurba_marseille","lat":43.23957,"lon":5.36635,"is_reserved":false,"is_disabled":false,"rental_uris":{"android":"levelo://app?vid=6b78b3de-5eb4-4d12-8d76-4c11059979f9","ios":"levelo://app?vid=6b78b3de-5eb4-4d12-8d76-4c11059979f9"},"vehicle_type_id":"4","last_reported":1748506467,"current_range_meters":4400,"station_id":"ce4bhi12rcd13ifvqfp0","pricing_plan_id":"cebpf4jnsgd1na2vs0mg"},{"bike_id":"98234324-f3a3-438f-801c-39490a7c5660","system_id":"levelo_inurba_marseille","lat":43.33728,"lon":5.39185,"is_reserved":false,"is_disabled":false,"rental_uris":{"android":"levelo://app?vid=98234324-f3a3-438f-801c-39490a7c5660","ios":"levelo://app?vid=98234324-f3a3-438f-801c-39490a7c5660"},"vehicle_type_id":"4","last_reported":1748506467,"current_range_meters":4400,"station_id":"ce4bhr92rcd13ifvqhsg","pricing_plan_id":"cebpf4jnsgd1na2vs0mg"},{"bike_id":"e79ef05e-bb28-4c4b-a45f-1945f54353c7","system_id":"levelo_inurba_marseille","lat":43.2406,"lon":5.37759,"is_reserved":false,"is_disabled":false,"rental_uris":{"android":"levelo://app?vid=e79ef05e-bb28-4c4b-a45f-1945f54353c7","ios":"levelo://app?vid=e79ef05e-bb28-4c4b-a45f-1945f54353c7"},"vehicle_type_id":"4","last_reported":1748506467,"current_range_meters":4800,"station_id":"ce4bhnp2rcd13ifvqgvg","pricing_plan_id":"cebpf4jnsgd1na2vs0mg"},{"bike_id":"7911cebf-5c32-4409-bd84-2cbae9e6ba97","system_id":"levelo_inurba_marseille","lat":43.32309,"lon":5.406153,"is_reserved":false,"is_disabled":false,"rental_uris":{"android":"levelo://app?vid=7911cebf-5c32-4409-bd84-2cbae9e6ba97","ios":"levelo://app?vid=7911cebf-5c32-4409-bd84-2cbae9e6ba97"},"vehicle_type_id":"4","last_reported":1748506467,"current_range_meters":4800,"station_id":"ce4bhq92rcd13ifvqhjg","pricing_plan_id":"cebpf4jnsgd1na2vs0mg"},{"bike_id":"c3a0bd73-5813-47f0-a5c8-27701041c8ba","system_id":"levelo_inurba_marseille","lat":43.27278,"lon":5.42405,"is_reserved":false,"is_disabled":false,"rental_uris":{"android":"levelo://app?vid=c3a0bd73-5813-47f0-a5c8-27701041c8ba","ios":"levelo://app?vid=c3a0bd73-5813-47f0-a5c8-27701041c8ba"},"vehicle_type_id":"4","last_reported":1748506467,"current_range_meters":5600,"station_id":"","pricing_plan_id":"cebpf4jnsgd1na2vs0mg"},{"bike_id":"cdce16de-ffb4-40e7-91c4-df32fa1ddb45","system_id":"levelo_inurba_marseille","lat":43.28257,"lon":5.35066,"is_reserved":false,"is_disabled":false,"rental_uris":{"android":"levelo://app?vid=cdce16de-ffb4-40e7-91c4-df32fa1ddb45","ios":"levelo://app?vid=cdce16de-ffb4-40e7-91c4-df32fa1ddb45"},"vehicle_type_id":"4","last_reported":1748506467,"current_range_meters":5600,"station_id":"","pricing_plan_id":"cebpf4jnsgd1na2vs0mg"},{"bike_id":"78042030-c360-4b3d-81ea-115541e6dbb9","system_id":"levelo_inurba_marseille","lat":43.30464,"lon":5.37903,"is_reserved":false,"is_disabled":false,"rental_uris":{"android":"levelo://app?vid=78042030-c360-4b3d-81ea-115541e6dbb9","ios":"levelo://app?vid=78042030-c360-4b3d-81ea-115541e6dbb9"},"vehicle_type_id":"4","last_reported":1748506467,"current_range_meters":5600,"station_id":"ce4bgup2rcd13ifvqcn0","pricing_plan_id":"cebpf4jnsgd1na2vs0mg"},{"bike_id":"396675c1-6ca5-4799-bbdd-e4293caceb50","system_id":"levelo_inurba_marseille","lat":43.26564,"lon":5.39008,"is_reserved":false,"is_disabled":false,"rental_uris":{"android":"levelo://app?vid=396675c1-6ca5-4799-bbdd-e4293caceb50","ios":"levelo://app?vid=396675c1-6ca5-4799-bbdd-e4293caceb50"},"vehicle_type_id":"4","last_reported":1748506467,"current_range_meters":5600,"station_id":"ce4bhe12rcd13ifvqf30","pricing_plan_id":"cebpf4jnsgd1na2vs0mg"},{"bike_id":"9167ea6a-ce66-49ff-859f-3ca7c151003d","system_id":"levelo_inurba_marseille","lat":43.24167,"lon":5.39724,"is_reserved":false,"is_disabled":false,"rental_uris":{"android":"levelo://app?vid=9167ea6a-ce66-49ff-859f-3ca7c151003d","ios":"levelo://app?vid=9167ea6a-ce66-49ff-859f-3ca7c151003d"},"vehicle_type_id":"4","last_reported":1748506467,"current_range_meters":5600,"station_id":"ce4bhn12rcd13ifvqgpg","pricing_plan_id":"cebpf4jnsgd1na2vs0mg"},{"bike_id":"59625023-539a-4de1-954d-f661af841490","system_id":"levelo_inurba_marseille","lat":43.26576,"lon":5.39004,"is_reserved":false,"is_disabled":false,"rental_uris":{"android":"levelo://app?vid=59625023-539a-4de1-954d-f661af841490","ios":"levelo://app?vid=59625023-539a-4de1-954d-f661af841490"},"vehicle_type_id":"4","last_reported":1748506467,"current_range_meters":6000,"station_id":"ce4bhe12rcd13ifvqf30","pricing_plan_id":"cebpf4jnsgd1na2vs0mg"},{"bike_id":"31344a27-f924-489f-bed3-b0ecbc37e2a2","system_id":"levelo_inurba_marseille","lat":43.26209,"lon":5.37441,"is_reserved":false,"is_disabled":false,"rental_uris":{"android":"levelo://app?vid=31344a27-f924-489f-bed3-b0ecbc37e2a2","ios":"levelo://app?vid=31344a27-f924-489f-bed3-b0ecbc37e2a2"},"vehicle_type_id":"4","last_reported":1748506467,"current_range_meters":6000,"station_id":"ce4bhgp2rcd13ifvqfc0","pricing_plan_id":"cebpf4jnsgd1na2vs0mg"},{"bike_id":"37f4fec6-9d38-4dc0-afbc-9f93885d1b60","system_id":"levelo_inurba_marseille","lat":43.27203,"lon":5.39192,"is_reserved":false,"is_disabled":false,"rental_uris":{"android":"levelo://app?vid=37f4fec6-9d38-4dc0-afbc-9f93885d1b60","ios":"levelo://app?vid=37f4fec6-9d38-4dc0-afbc-9f93885d1b60"},"vehicle_type_id":"4","last_reported":1748506467,"current_range_meters":6000,"station_id":"ce4bhhp2rcd13ifvqfm0","pricing_plan_id":"cebpf4jnsgd1na2vs0mg"},{"bike_id":"b80ee325-09b2-4724-993d-4f8d3707c41c","system_id":"levelo_inurba_marseille","lat":43.25862,"lon":5.39902,"is_reserved":false,"is_disabled":false,"rental_uris":{"android":"levelo://app?vid=b80ee325-09b2-4724-993d-4f8d3707c41c","ios":"levelo://app?vid=b80ee325-09b2-4724-993d-4f8d3707c41c"},"vehicle_type_id":"4","last_reported":1748506467,"current_range_meters":6000,"station_id":"ce4bhl92rcd13ifvqghg","pricing_plan_id":"cebpf4jnsgd1na2vs0mg"},{"bike_id":"e7c8a9b9-0f7e-4f93-8f26-86f0646a609e","system_id":"levelo_inurba_marseille","lat":43.33114,"lon":5.38508,"is_reserved":false,"is_disabled":false,"rental_uris":{"android":"levelo://app?vid=e7c8a9b9-0f7e-4f93-8f26-86f0646a609e","ios":"levelo://app?vid=e7c8a9b9-0f7e-4f93-8f26-86f0646a609e"},"vehicle_type_id":"4","last_reported":1748506467,"current_range_meters":6400,"station_id":"","pricing_plan_id":"cebpf4jnsgd1na2vs0mg"},{"bike_id":"16578a9c-c460-4d38-be25-a20250881a73","system_id":"levelo_inurba_marseille","lat":43.32221,"lon":5.38419,"is_reserved":false,"is_disabled":false,"rental_uris":{"android":"levelo://app?vid=16578a9c-c460-4d38-be25-a20250881a73","ios":"levelo://app?vid=16578a9c-c460-4d38-be25-a20250881a73"},"vehicle_type_id":"4","last_reported":1748506467,"current_range_meters":6400,"station_id":"","pricing_plan_id":"cebpf4jnsgd1na2vs0mg"},{"bike_id":"add1280f-5a86-4668-b392-3e816330a947","system_id":"levelo_inurba_marseille","lat":43.3055,"lon":5.36556,"is_reserved":false,"is_disabled":false,"rental_uris":{"android":"levelo://app?vid=add1280f-5a86-4668-b392-3e816330a947","ios":"levelo://app?vid=add1280f-5a86-4668-b392-3e816330a947"},"vehicle_type_id":"4","last_reported":1748506467,"current_range_meters":6400,"station_id":"ce4bgs12rcd13ifvqcag","pricing_plan_id":"cebpf4jnsgd1na2vs0mg"},{"bike_id":"40794707-6e59-4c1b-b75b-bcc6d0555614","system_id":"levelo_inurba_marseille","lat":43.30649,"lon":5.40068,"is_reserved":false,"is_disabled":false,"rental_uris":{"android":"levelo://app?vid=40794707-6e59-4c1b-b75b-bcc6d0555614","ios":"levelo://app?vid=40794707-6e59-4c1b-b75b-bcc6d0555614"},"vehicle_type_id":"4","last_reported":1748506467,"current_range_meters":6400,"station_id":"ce4bh112rcd13ifvqda0","pricing_plan_id":"cebpf4jnsgd1na2vs0mg"},{"bike_id":"1b059a33-3b2a-4c4e-8d6e-2afba0517461","system_id":"levelo_inurba_marseille","lat":43.286153,"lon":5.351058,"is_reserved":false,"is_disabled":false,"rental_uris":{"android":"levelo://app?vid=1b059a33-3b2a-4c4e-8d6e-2afba0517461","ios":"levelo://app?vid=1b059a33-3b2a-4c4e-8d6e-2afba0517461"},"vehicle_type_id":"4","last_reported":1748506467,"current_range_meters":6400,"station_id":"ce4bhch2rcd13ifvqeug","pricing_plan_id":"cebpf4jnsgd1na2vs0mg"},{"bike_id":"dd396b57-2b2f-4d97-99cd-d9308bd9edd0","system_id":"levelo_inurba_marseille","lat":43.30371,"lon":5.42485,"is_reserved":false,"is_disabled":false,"rental_uris":{"android":"levelo://app?vid=dd396b57-2b2f-4d97-99cd-d9308bd9edd0","ios":"levelo://app?vid=dd396b57-2b2f-4d97-99cd-d9308bd9edd0"},"vehicle_type_id":"4","last_reported":1748506467,"current_range_meters":6400,"station_id":"ce4bhoh2rcd13ifvqh6g","pricing_plan_id":"cebpf4jnsgd1na2vs0mg"},{"bike_id":"eefbf0be-aede-4ce4-8e0c-8d5278212334","system_id":"levelo_inurba_marseille","lat":43.25159,"lon":5.40349,"is_reserved":false,"is_disabled":false,"rental_uris":{"android":"levelo://app?vid=eefbf0be-aede-4ce4-8e0c-8d5278212334","ios":"levelo://app?vid=eefbf0be-aede-4ce4-8e0c-8d5278212334"},"vehicle_type_id":"4","last_reported":1748506467,"current_range_meters":6800,"station_id":"","pricing_plan_id":"cebpf4jnsgd1na2vs0mg"},{"bike_id":"11326dfc-56e2-45eb-bf02-81948606abd8","system_id":"levelo_inurba_marseille","lat":43.31075,"lon":5.38354,"is_reserved":false,"is_disabled":false,"rental_uris":{"android":"levelo://app?vid=11326dfc-56e2-45eb-bf02-81948606abd8","ios":"levelo://app?vid=11326dfc-56e2-45eb-bf02-81948606abd8"},"vehicle_type_id":"4","last_reported":1748506467,"current_range_meters":6800,"station_id":"ce4bgv92rcd13ifvqcr0","pricing_plan_id":"cebpf4jnsgd1na2vs0mg"},{"bike_id":"0f5da0fd-61b6-438a-83d7-f4efdb0cf53d","system_id":"levelo_inurba_marseille","lat":43.292255,"lon":5.360589,"is_reserved":false,"is_disabled":false,"rental_uris":{"android":"levelo://app?vid=0f5da0fd-61b6-438a-83d7-f4efdb0cf53d","ios":"levelo://app?vid=0f5da0fd-61b6-438a-83d7-f4efdb0cf53d"},"vehicle_type_id":"4","last_reported":1748506467,"current_range_meters":6800,"station_id":"ce4bhbh2rcd13ifvqeqg","pricing_plan_id":"cebpf4jnsgd1na2vs0mg"},{"bike_id":"6d7cfdcd-f061-4eee-b4e5-78d9b6729328","system_id":"levelo_inurba_marseille","lat":43.330043,"lon":5.438533,"is_reserved":false,"is_disabled":false,"rental_uris":{"android":"levelo://app?vid=6d7cfdcd-f061-4eee-b4e5-78d9b6729328","ios":"levelo://app?vid=6d7cfdcd-f061-4eee-b4e5-78d9b6729328"},"vehicle_type_id":"4","last_reported":1748506467,"current_range_meters":7200,"station_id":"","pricing_plan_id":"cebpf4jnsgd1na2vs0mg"},{"bike_id":"7a707bfe-00ad-4f17-909b-325e9c05b69d","system_id":"levelo_inurba_marseille","lat":43.307693,"lon":5.382627,"is_reserved":false,"is_disabled":false,"rental_uris":{"android":"levelo://app?vid=7a707bfe-00ad-4f17-909b-325e9c05b69d","ios":"levelo://app?vid=7a707bfe-00ad-4f17-909b-325e9c05b69d"},"vehicle_type_id":"4","last_reported":1748506467,"current_range_meters":7200,"station_id":"","pricing_plan_id":"cebpf4jnsgd1na2vs0mg"},{"bike_id":"985a5028-4b22-4637-856d-8c1e1dd035e0","system_id":"levelo_inurba_marseille","lat":43.29432,"lon":5.40104,"is_reserved":false,"is_disabled":false,"rental_uris":{"android":"levelo://app?vid=985a5028-4b22-4637-856d-8c1e1dd035e0","ios":"levelo://app?vid=985a5028-4b22-4637-856d-8c1e1dd035e0"},"vehicle_type_id":"4","last_reported":1748506467,"current_range_meters":7200,"station_id":"","pricing_plan_id":"cebpf4jnsgd1na2vs0mg"},{"bike_id":"63dcf5e7-add3-4475-ba20-98b0733097e2","system_id":"levelo_inurba_marseille","lat":43.3015,"lon":5.38084,"is_reserved":false,"is_disabled":false,"rental_uris":{"android":"levelo://app?vid=63dcf5e7-add3-4475-ba20-98b0733097e2","ios":"levelo://app?vid=63dcf5e7-add3-4475-ba20-98b0733097e2"},"vehicle_type_id":"4","last_reported":1748506467,"current_range_meters":7200,"station_id":"ce4bgjp2rcd13ifvqbh0","pricing_plan_id":"cebpf4jnsgd1na2vs0mg"},{"bike_id":"3e3afc05-f6f7-4523-9ca7-d5e62774754e","system_id":"levelo_inurba_marseille","lat":43.23152,"lon":5.43708,"is_reserved":false,"is_disabled":false,"rental_uris":{"android":"levelo://app?vid=3e3afc05-f6f7-4523-9ca7-d5e62774754e","ios":"levelo://app?vid=3e3afc05-f6f7-4523-9ca7-d5e62774754e"},"vehicle_type_id":"4","last_reported":1748506467,"current_range_meters":7200,"station_id":"ce4bhmp2rcd13ifvqgog","pricing_plan_id":"cebpf4jnsgd1na2vs0mg"},{"bike_id":"a6e143ef-9489-43e3-9e9a-d99459db479a","system_id":"levelo_inurba_marseille","lat":43.32359,"lon":5.38893,"is_reserved":false,"is_disabled":false,"rental_uris":{"android":"levelo://app?vid=a6e143ef-9489-43e3-9e9a-d99459db479a","ios":"levelo://app?vid=a6e143ef-9489-43e3-9e9a-d99459db479a"},"vehicle_type_id":"4","last_reported":1748506467,"current_range_meters":7200,"station_id":"ce4bhqp2rcd13ifvqhog","pricing_plan_id":"cebpf4jnsgd1na2vs0mg"},{"bike_id":"b6194222-a80b-43bc-b765-fba2143e9c5c","system_id":"levelo_inurba_marseille","lat":43.23187,"lon":5.35554,"is_reserved":false,"is_disabled":false,"rental_uris":{"android":"levelo://app?vid=b6194222-a80b-43bc-b765-fba2143e9c5c","ios":"levelo://app?vid=b6194222-a80b-43bc-b765-fba2143e9c5c"},"vehicle_type_id":"4","last_reported":1748506467,"current_range_meters":7200,"station_id":"ce4bhu92rcd13ifvqi70","pricing_plan_id":"cebpf4jnsgd1na2vs0mg"},{"bike_id":"be4b293e-8744-4637-8ca2-a3e9032e9cec","system_id":"levelo_inurba_marseille","lat":43.229244,"lon":5.353814,"is_reserved":false,"is_disabled":false,"rental_uris":{"android":"levelo://app?vid=be4b293e-8744-4637-8ca2-a3e9032e9cec","ios":"levelo://app?vid=be4b293e-8744-4637-8ca2-a3e9032e9cec"},"vehicle_type_id":"4","last_reported":1748506467,"current_range_meters":7200,"station_id":"cpo3532slgdg3j2ikp40","pricing_plan_id":"cebpf4jnsgd1na2vs0mg"},{"bike_id":"3c68f385-ffba-4d15-b971-4641effeeac9","system_id":"levelo_inurba_marseille","lat":43.282183,"lon":5.390541,"is_reserved":false,"is_disabled":false,"rental_uris":{"android":"levelo://app?vid=3c68f385-ffba-4d15-b971-4641effeeac9","ios":"levelo://app?vid=3c68f385-ffba-4d15-b971-4641effeeac9"},"vehicle_type_id":"4","last_reported":1748506467,"current_range_meters":8000,"station_id":"","pricing_plan_id":"cebpf4jnsgd1na2vs0mg"},{"bike_id":"b836adec-644c-4a74-9857-a4f0157ac845","system_id":"levelo_inurba_marseille","lat":43.27615,"lon":5.36123,"is_reserved":false,"is_disabled":false,"rental_uris":{"android":"levelo://app?vid=b836adec-644c-4a74-9857-a4f0157ac845","ios":"levelo://app?vid=b836adec-644c-4a74-9857-a4f0157ac845"},"vehicle_type_id":"4","last_reported":1748506467,"current_range_meters":8000,"station_id":"ce4bgj92rcd13ifvqbe0","pricing_plan_id":"cebpf4jnsgd1na2vs0mg"},{"bike_id":"ce7b18e4-7948-40ae-b647-c69f45870dbb","system_id":"levelo_inurba_marseille","lat":43.30938,"lon":5.40169,"is_reserved":false,"is_disabled":false,"rental_uris":{"android":"levelo://app?vid=ce7b18e4-7948-40ae-b647-c69f45870dbb","ios":"levelo://app?vid=ce7b18e4-7948-40ae-b647-c69f45870dbb"},"vehicle_type_id":"4","last_reported":1748506467,"current_range_meters":8000,"station_id":"ce4bgvp2rcd13ifvqct0","pricing_plan_id":"cebpf4jnsgd1na2vs0mg"},{"bike_id":"1eed49fb-ce64-4ebd-9903-7d87835a2ccf","system_id":"levelo_inurba_marseille","lat":43.29751,"lon":5.46001,"is_reserved":false,"is_disabled":false,"rental_uris":{"android":"levelo://app?vid=1eed49fb-ce64-4ebd-9903-7d87835a2ccf","ios":"levelo://app?vid=1eed49fb-ce64-4ebd-9903-7d87835a2ccf"},"vehicle_type_id":"4","last_reported":1748506467,"current_range_meters":8400,"station_id":"","pricing_plan_id":"cebpf4jnsgd1na2vs0mg"},{"bike_id":"f8c15c65-9895-4a9d-a81b-e6b60d02fc72","system_id":"levelo_inurba_marseille","lat":43.28262,"lon":5.35063,"is_reserved":false,"is_disabled":false,"rental_uris":{"android":"levelo://app?vid=f8c15c65-9895-4a9d-a81b-e6b60d02fc72","ios":"levelo://app?vid=f8c15c65-9895-4a9d-a81b-e6b60d02fc72"},"vehicle_type_id":"4","last_reported":1748506467,"current_range_meters":8400,"station_id":"","pricing_plan_id":"cebpf4jnsgd1na2vs0mg"},{"bike_id":"0d981ab5-76e4-4ce0-82f6-6f2e8741ce4e","system_id":"levelo_inurba_marseille","lat":43.29427,"lon":5.36244,"is_reserved":false,"is_disabled":false,"rental_uris":{"android":"levelo://app?vid=0d981ab5-76e4-4ce0-82f6-6f2e8741ce4e","ios":"levelo://app?vid=0d981ab5-76e4-4ce0-82f6-6f2e8741ce4e"},"vehicle_type_id":"4","last_reported":1748506467,"current_range_meters":8400,"station_id":"","pricing_plan_id":"cebpf4jnsgd1na2vs0mg"},{"bike_id":"9d8a073e-f5f9-4c10-b98c-72efc4846a30","system_id":"levelo_inurba_marseille","lat":43.30296,"lon":5.44707,"is_reserved":false,"is_disabled":false,"rental_uris":{"android":"levelo://app?vid=9d8a073e-f5f9-4c10-b98c-72efc4846a30","ios":"levelo://app?vid=9d8a073e-f5f9-4c10-b98c-72efc4846a30"},"vehicle_type_id":"4","last_reported":1748506467,"current_range_meters":8400,"station_id":"","pricing_plan_id":"cebpf4jnsgd1na2vs0mg"},{"bike_id":"5cc874f1-fcba-418a-95cb-eb3493ff9f0b","system_id":"levelo_inurba_marseille","lat":43.317178,"lon":5.405224,"is_reserved":false,"is_disabled":false,"rental_uris":{"android":"levelo://app?vid=5cc874f1-fcba-418a-95cb-eb3493ff9f0b","ios":"levelo://app?vid=5cc874f1-fcba-418a-95cb-eb3493ff9f0b"},"vehicle_type_id":"4","last_reported":1748506467,"current_range_meters":8400,"station_id":"","pricing_plan_id":"cebpf4jnsgd1na2vs0mg"},{"bike_id":"bb56860a-7122-4a88-9171-ed630c433268","system_id":"levelo_inurba_marseille","lat":43.295066,"lon":5.374448,"is_reserved":false,"is_disabled":false,"rental_uris":{"android":"levelo://app?vid=bb56860a-7122-4a88-9171-ed630c433268","ios":"levelo://app?vid=bb56860a-7122-4a88-9171-ed630c433268"},"vehicle_type_id":"4","last_reported":1748506467,"current_range_meters":8400,"station_id":"ce4bgh92rcd13ifvqb50","pricing_plan_id":"cebpf4jnsgd1na2vs0mg"},{"bike_id":"ac543a72-051c-4590-8b3f-b593381f998e","system_id":"levelo_inurba_marseille","lat":43.301554,"lon":5.380996,"is_reserved":false,"is_disabled":false,"rental_uris":{"android":"levelo://app?vid=ac543a72-051c-4590-8b3f-b593381f998e","ios":"levelo://app?vid=ac543a72-051c-4590-8b3f-b593381f998e"},"vehicle_type_id":"4","last_reported":1748506467,"current_range_meters":8400,"station_id":"ce4bgjp2rcd13ifvqbh0","pricing_plan_id":"cebpf4jnsgd1na2vs0mg"},{"bike_id":"9fde0a23-d082-4345-ba77-80e97ac3d127","system_id":"levelo_inurba_marseille","lat":43.29411,"lon":5.38623,"is_reserved":false,"is_disabled":false,"rental_uris":{"android":"levelo://app?vid=9fde0a23-d082-4345-ba77-80e97ac3d127","ios":"levelo://app?vid=9fde0a23-d082-4345-ba77-80e97ac3d127"},"vehicle_type_id":"4","last_reported":1748506467,"current_range_meters":8400,"station_id":"ce4bh2h2rcd13ifvqdh0","pricing_plan_id":"cebpf4jnsgd1na2vs0mg"},{"bike_id":"2fac5d15-c5a1-4d94-a91a-2de306a0346b","system_id":"levelo_inurba_marseille","lat":43.239616,"lon":5.366288,"is_reserved":false,"is_disabled":false,"rental_uris":{"android":"levelo://app?vid=2fac5d15-c5a1-4d94-a91a-2de306a0346b","ios":"levelo://app?vid=2fac5d15-c5a1-4d94-a91a-2de306a0346b"},"vehicle_type_id":"4","last_reported":1748506467,"current_range_meters":8400,"station_id":"ce4bhi12rcd13ifvqfp0","pricing_plan_id":"cebpf4jnsgd1na2vs0mg"},{"bike_id":"2f650bb1-6027-4191-83d2-16315820a0a7","system_id":"levelo_inurba_marseille","lat":43.30019,"lon":5.37354,"is_reserved":false,"is_disabled":false,"rental_uris":{"android":"levelo://app?vid=2f650bb1-6027-4191-83d2-16315820a0a7","ios":"levelo://app?vid=2f650bb1-6027-4191-83d2-16315820a0a7"},"vehicle_type_id":"4","last_reported":1748506467,"current_range_meters":8800,"station_id":"","pricing_plan_id":"cebpf4jnsgd1na2vs0mg"},{"bike_id":"e96e6ad8-66a5-4a74-9b8a-04311f0e6684","system_id":"levelo_inurba_marseille","lat":43.33097,"lon":5.38936,"is_reserved":false,"is_disabled":false,"rental_uris":{"android":"levelo://app?vid=e96e6ad8-66a5-4a74-9b8a-04311f0e6684","ios":"levelo://app?vid=e96e6ad8-66a5-4a74-9b8a-04311f0e6684"},"vehicle_type_id":"4","last_reported":1748506467,"current_range_meters":8800,"station_id":"","pricing_plan_id":"cebpf4jnsgd1na2vs0mg"},{"bike_id":"c0d5ccd3-cc9b-42dc-bafd-57829be782b0","system_id":"levelo_inurba_marseille","lat":43.30803,"lon":5.43529,"is_reserved":false,"is_disabled":false,"rental_uris":{"android":"levelo://app?vid=c0d5ccd3-cc9b-42dc-bafd-57829be782b0","ios":"levelo://app?vid=c0d5ccd3-cc9b-42dc-bafd-57829be782b0"},"vehicle_type_id":"4","last_reported":1748506467,"current_range_meters":8800,"station_id":"ce4bhph2rcd13ifvqheg","pricing_plan_id":"cebpf4jnsgd1na2vs0mg"},{"bike_id":"84adab0f-96c1-4426-bc86-147d47e6151b","system_id":"levelo_inurba_marseille","lat":43.23183,"lon":5.35558,"is_reserved":false,"is_disabled":false,"rental_uris":{"android":"levelo://app?vid=84adab0f-96c1-4426-bc86-147d47e6151b","ios":"levelo://app?vid=84adab0f-96c1-4426-bc86-147d47e6151b"},"vehicle_type_id":"4","last_reported":1748506467,"current_range_meters":8800,"station_id":"ce4bhu92rcd13ifvqi70","pricing_plan_id":"cebpf4jnsgd1na2vs0mg"},{"bike_id":"0dde7803-e4b4-44c8-98fe-68ad6fa3cde1","system_id":"levelo_inurba_marseille","lat":43.31722,"lon":5.3889,"is_reserved":false,"is_disabled":false,"rental_uris":{"android":"levelo://app?vid=0dde7803-e4b4-44c8-98fe-68ad6fa3cde1","ios":"levelo://app?vid=0dde7803-e4b4-44c8-98fe-68ad6fa3cde1"},"vehicle_type_id":"4","last_reported":1748506467,"current_range_meters":9200,"station_id":"","pricing_plan_id":"cebpf4jnsgd1na2vs0mg"},{"bike_id":"c55a0283-457c-4391-9c0e-a7a0e35e4fdd","system_id":"levelo_inurba_marseille","lat":43.30771,"lon":5.37669,"is_reserved":false,"is_disabled":false,"rental_uris":{"android":"levelo://app?vid=c55a0283-457c-4391-9c0e-a7a0e35e4fdd","ios":"levelo://app?vid=c55a0283-457c-4391-9c0e-a7a0e35e4fdd"},"vehicle_type_id":"4","last_reported":1748506467,"current_range_meters":9200,"station_id":"ce4bgv92rcd13ifvqcq0","pricing_plan_id":"cebpf4jnsgd1na2vs0mg"},{"bike_id":"1839a72b-1f19-439f-ba17-e7974ed596b4","system_id":"levelo_inurba_marseille","lat":43.32088,"lon":5.37477,"is_reserved":false,"is_disabled":false,"rental_uris":{"android":"levelo://app?vid=1839a72b-1f19-439f-ba17-e7974ed596b4","ios":"levelo://app?vid=1839a72b-1f19-439f-ba17-e7974ed596b4"},"vehicle_type_id":"4","last_reported":1748506467,"current_range_meters":9600,"station_id":"","pricing_plan_id":"cebpf4jnsgd1na2vs0mg"},{"bike_id":"60af92f5-378b-4ca7-965f-8544c59fbbda","system_id":"levelo_inurba_marseille","lat":43.282138,"lon":5.390674,"is_reserved":false,"is_disabled":false,"rental_uris":{"android":"levelo://app?vid=60af92f5-378b-4ca7-965f-8544c59fbbda","ios":"levelo://app?vid=60af92f5-378b-4ca7-965f-8544c59fbbda"},"vehicle_type_id":"4","last_reported":1748506467,"current_range_meters":9600,"station_id":"","pricing_plan_id":"cebpf4jnsgd1na2vs0mg"},{"bike_id":"3013266d-03ec-4779-8d20-2e5da0a480f7","system_id":"levelo_inurba_marseille","lat":43.31645,"lon":5.38793,"is_reserved":false,"is_disabled":false,"rental_uris":{"android":"levelo://app?vid=3013266d-03ec-4779-8d20-2e5da0a480f7","ios":"levelo://app?vid=3013266d-03ec-4779-8d20-2e5da0a480f7"},"vehicle_type_id":"4","last_reported":1748506467,"current_range_meters":9600,"station_id":"","pricing_plan_id":"cebpf4jnsgd1na2vs0mg"},{"bike_id":"87bbad0c-8c28-481d-9de5-144650e2492b","system_id":"levelo_inurba_marseille","lat":43.248085,"lon":5.374613,"is_reserved":false,"is_disabled":false,"rental_uris":{"android":"levelo://app?vid=87bbad0c-8c28-481d-9de5-144650e2492b","ios":"levelo://app?vid=87bbad0c-8c28-481d-9de5-144650e2492b"},"vehicle_type_id":"4","last_reported":1748506467,"current_range_meters":9600,"station_id":"ce4bhgh2rcd13ifvqfb0","pricing_plan_id":"cebpf4jnsgd1na2vs0mg"},{"bike_id":"72a96cc9-a061-481a-90f7-1d3884301f0e","system_id":"levelo_inurba_marseille","lat":43.27071,"lon":5.42278,"is_reserved":false,"is_disabled":false,"rental_uris":{"android":"levelo://app?vid=72a96cc9-a061-481a-90f7-1d3884301f0e","ios":"levelo://app?vid=72a96cc9-a061-481a-90f7-1d3884301f0e"},"vehicle_type_id":"4","last_reported":1748506467,"current_range_meters":9600,"station_id":"ce4bhk92rcd13ifvqgb0","pricing_plan_id":"cebpf4jnsgd1na2vs0mg"},{"bike_id":"22771043-09b1-43eb-91e0-5c845144e1e3","system_id":"levelo_inurba_marseille","lat":43.27708,"lon":5.408878,"is_reserved":false,"is_disabled":false,"rental_uris":{"android":"levelo://app?vid=22771043-09b1-43eb-91e0-5c845144e1e3","ios":"levelo://app?vid=22771043-09b1-43eb-91e0-5c845144e1e3"},"vehicle_type_id":"4","last_reported":1748506467,"current_range_meters":10000,"station_id":"","pricing_plan_id":"cebpf4jnsgd1na2vs0mg"},{"bike_id":"24cd34e1-bb74-4352-90f7-805b9231f525","system_id":"levelo_inurba_marseille","lat":43.26374,"lon":5.42018,"is_reserved":false,"is_disabled":false,"rental_uris":{"android":"levelo://app?vid=24cd34e1-bb74-4352-90f7-805b9231f525","ios":"levelo://app?vid=24cd34e1-bb74-4352-90f7-805b9231f525"},"vehicle_type_id":"4","last_reported":1748506467,"current_range_meters":10000,"station_id":"","pricing_plan_id":"cebpf4jnsgd1na2vs0mg"},{"bike_id":"b30bb0e4-57e3-482e-b23d-e8852f73bdf6","system_id":"levelo_inurba_marseille","lat":43.301509,"lon":5.380796,"is_reserved":false,"is_disabled":false,"rental_uris":{"android":"levelo://app?vid=b30bb0e4-57e3-482e-b23d-e8852f73bdf6","ios":"levelo://app?vid=b30bb0e4-57e3-482e-b23d-e8852f73bdf6"},"vehicle_type_id":"4","last_reported":1748506467,"current_range_meters":10000,"station_id":"ce4bgjp2rcd13ifvqbh0","pricing_plan_id":"cebpf4jnsgd1na2vs0mg"},{"bike_id":"43a14d53-ebd4-4f31-9e5d-95462447a883","system_id":"levelo_inurba_marseille","lat":43.30459,"lon":5.37898,"is_reserved":false,"is_disabled":false,"rental_uris":{"android":"levelo://app?vid=43a14d53-ebd4-4f31-9e5d-95462447a883","ios":"levelo://app?vid=43a14d53-ebd4-4f31-9e5d-95462447a883"},"vehicle_type_id":"4","last_reported":1748506467,"current_range_meters":10000,"station_id":"ce4bgup2rcd13ifvqcn0","pricing_plan_id":"cebpf4jnsgd1na2vs0mg"},{"bike_id":"6682dff7-104a-457c-b17c-7d975ecd7369","system_id":"levelo_inurba_marseille","lat":43.25501,"lon":5.37648,"is_reserved":false,"is_disabled":false,"rental_uris":{"android":"levelo://app?vid=6682dff7-104a-457c-b17c-7d975ecd7369","ios":"levelo://app?vid=6682dff7-104a-457c-b17c-7d975ecd7369"},"vehicle_type_id":"4","last_reported":1748506467,"current_range_meters":10000,"station_id":"ce4bhh12rcd13ifvqff0","pricing_plan_id":"cebpf4jnsgd1na2vs0mg"},{"bike_id":"61ff3d2c-9950-405e-8098-6ab5d21669e7","system_id":"levelo_inurba_marseille","lat":43.26794,"lon":5.39427,"is_reserved":false,"is_disabled":false,"rental_uris":{"android":"levelo://app?vid=61ff3d2c-9950-405e-8098-6ab5d21669e7","ios":"levelo://app?vid=61ff3d2c-9950-405e-8098-6ab5d21669e7"},"vehicle_type_id":"4","last_reported":1748506467,"current_range_meters":10000,"station_id":"ce4bhh12rcd13ifvqfg0","pricing_plan_id":"cebpf4jnsgd1na2vs0mg"},{"bike_id":"0f1777bc-0a49-4a78-8cad-e3b9c6d58a2a","system_id":"levelo_inurba_marseille","lat":43.25723,"lon":5.41107,"is_reserved":false,"is_disabled":false,"rental_uris":{"android":"levelo://app?vid=0f1777bc-0a49-4a78-8cad-e3b9c6d58a2a","ios":"levelo://app?vid=0f1777bc-0a49-4a78-8cad-e3b9c6d58a2a"},"vehicle_type_id":"4","last_reported":1748506467,"current_range_meters":10000,"station_id":"ce4bhkp2rcd13ifvqgd0","pricing_plan_id":"cebpf4jnsgd1na2vs0mg"},{"bike_id":"47f55a1f-8588-4781-bc30-f75474d90e6f","system_id":"levelo_inurba_marseille","lat":43.24165,"lon":5.3973,"is_reserved":false,"is_disabled":false,"rental_uris":{"android":"levelo://app?vid=47f55a1f-8588-4781-bc30-f75474d90e6f","ios":"levelo://app?vid=47f55a1f-8588-4781-bc30-f75474d90e6f"},"vehicle_type_id":"4","last_reported":1748506467,"current_range_meters":10000,"station_id":"ce4bhn12rcd13ifvqgpg","pricing_plan_id":"cebpf4jnsgd1na2vs0mg"},{"bike_id":"6de0c367-16d8-40fd-95d0-4105c0b2586d","system_id":"levelo_inurba_marseille","lat":43.32659,"lon":5.40979,"is_reserved":false,"is_disabled":false,"rental_uris":{"android":"levelo://app?vid=6de0c367-16d8-40fd-95d0-4105c0b2586d","ios":"levelo://app?vid=6de0c367-16d8-40fd-95d0-4105c0b2586d"},"vehicle_type_id":"4","last_reported":1748506467,"current_range_meters":10000,"station_id":"ce4bhpp2rcd13ifvqhgg","pricing_plan_id":"cebpf4jnsgd1na2vs0mg"},{"bike_id":"af1dc9b2-164b-4021-88df-830111ab755c","system_id":"levelo_inurba_marseille","lat":43.32389,"lon":5.36895,"is_reserved":false,"is_disabled":false,"rental_uris":{"android":"levelo://app?vid=af1dc9b2-164b-4021-88df-830111ab755c","ios":"levelo://app?vid=af1dc9b2-164b-4021-88df-830111ab755c"},"vehicle_type_id":"4","last_reported":1748506467,"current_range_meters":10800,"station_id":"","pricing_plan_id":"cebpf4jnsgd1na2vs0mg"},{"bike_id":"c4d269b0-6adb-4663-af7d-e009424ae037","system_id":"levelo_inurba_marseille","lat":43.29619,"lon":5.37719,"is_reserved":false,"is_disabled":false,"rental_uris":{"android":"levelo://app?vid=c4d269b0-6adb-4663-af7d-e009424ae037","ios":"levelo://app?vid=c4d269b0-6adb-4663-af7d-e009424ae037"},"vehicle_type_id":"4","last_reported":1748506467,"current_range_meters":10800,"station_id":"ce4bgi92rcd13ifvqb90","pricing_plan_id":"cebpf4jnsgd1na2vs0mg"},{"bike_id":"ab18719d-c5e7-4613-9c7e-1fe47406cb4b","system_id":"levelo_inurba_marseille","lat":43.30943,"lon":5.40139,"is_reserved":false,"is_disabled":false,"rental_uris":{"android":"levelo://app?vid=ab18719d-c5e7-4613-9c7e-1fe47406cb4b","ios":"levelo://app?vid=ab18719d-c5e7-4613-9c7e-1fe47406cb4b"},"vehicle_type_id":"4","last_reported":1748506467,"current_range_meters":10800,"station_id":"ce4bgvp2rcd13ifvqct0","pricing_plan_id":"cebpf4jnsgd1na2vs0mg"},{"bike_id":"3edba1ee-31f7-4d71-8142-d38e588f437f","system_id":"levelo_inurba_marseille","lat":43.308594,"lon":5.396669,"is_reserved":false,"is_disabled":false,"rental_uris":{"android":"levelo://app?vid=3edba1ee-31f7-4d71-8142-d38e588f437f","ios":"levelo://app?vid=3edba1ee-31f7-4d71-8142-d38e588f437f"},"vehicle_type_id":"4","last_reported":1748506467,"current_range_meters":10800,"station_id":"ce4bh012rcd13ifvqcv0","pricing_plan_id":"cebpf4jnsgd1na2vs0mg"},{"bike_id":"445dfef0-5d54-4fd7-9382-6f4976b717a8","system_id":"levelo_inurba_marseille","lat":43.29215,"lon":5.36071,"is_reserved":false,"is_disabled":false,"rental_uris":{"android":"levelo://app?vid=445dfef0-5d54-4fd7-9382-6f4976b717a8","ios":"levelo://app?vid=445dfef0-5d54-4fd7-9382-6f4976b717a8"},"vehicle_type_id":"4","last_reported":1748506467,"current_range_meters":10800,"station_id":"ce4bhbh2rcd13ifvqeqg","pricing_plan_id":"cebpf4jnsgd1na2vs0mg"},{"bike_id":"1a21a57a-e955-42be-927d-b20db9aae82f","system_id":"levelo_inurba_marseille","lat":43.26204,"lon":5.37446,"is_reserved":false,"is_disabled":false,"rental_uris":{"android":"levelo://app?vid=1a21a57a-e955-42be-927d-b20db9aae82f","ios":"levelo://app?vid=1a21a57a-e955-42be-927d-b20db9aae82f"},"vehicle_type_id":"4","last_reported":1748506467,"current_range_meters":10800,"station_id":"ce4bhgp2rcd13ifvqfc0","pricing_plan_id":"cebpf4jnsgd1na2vs0mg"},{"bike_id":"67a1547a-6423-44fb-bac7-ebd19b2970a2","system_id":"levelo_inurba_marseille","lat":43.28702,"lon":5.3998,"is_reserved":false,"is_disabled":false,"rental_uris":{"android":"levelo://app?vid=67a1547a-6423-44fb-bac7-ebd19b2970a2","ios":"levelo://app?vid=67a1547a-6423-44fb-bac7-ebd19b2970a2"},"vehicle_type_id":"4","last_reported":1748506467,"current_range_meters":10800,"station_id":"ce4bho92rcd13ifvqh3g","pricing_plan_id":"cebpf4jnsgd1na2vs0mg"},{"bike_id":"dfd8a92a-8547-40b8-9f1a-8cf8dc5a7a8c","system_id":"levelo_inurba_marseille","lat":43.31707,"lon":5.43704,"is_reserved":false,"is_disabled":false,"rental_uris":{"android":"levelo://app?vid=dfd8a92a-8547-40b8-9f1a-8cf8dc5a7a8c","ios":"levelo://app?vid=dfd8a92a-8547-40b8-9f1a-8cf8dc5a7a8c"},"vehicle_type_id":"4","last_reported":1748506467,"current_range_meters":10800,"station_id":"ce4bhp92rcd13ifvqhcg","pricing_plan_id":"cebpf4jnsgd1na2vs0mg"},{"bike_id":"764ff54d-6222-4f79-87ff-cb1154102bcd","system_id":"levelo_inurba_marseille","lat":43.31886,"lon":5.40735,"is_reserved":false,"is_disabled":false,"rental_uris":{"android":"levelo://app?vid=764ff54d-6222-4f79-87ff-cb1154102bcd","ios":"levelo://app?vid=764ff54d-6222-4f79-87ff-cb1154102bcd"},"vehicle_type_id":"4","last_reported":1748506467,"current_range_meters":10800,"station_id":"ce4bhq12rcd13ifvqhig","pricing_plan_id":"cebpf4jnsgd1na2vs0mg"},{"bike_id":"5b567ef4-9cea-4c11-8cf6-d67a6b970ddb","system_id":"levelo_inurba_marseille","lat":43.29618,"lon":5.37718,"is_reserved":false,"is_disabled":false,"rental_uris":{"android":"levelo://app?vid=5b567ef4-9cea-4c11-8cf6-d67a6b970ddb","ios":"levelo://app?vid=5b567ef4-9cea-4c11-8cf6-d67a6b970ddb"},"vehicle_type_id":"4","last_reported":1748506467,"current_range_meters":11200,"station_id":"ce4bgi92rcd13ifvqb90","pricing_plan_id":"cebpf4jnsgd1na2vs0mg"},{"bike_id":"4f4e0096-b87d-4d23-bc87-8157c7ad42ed","system_id":"levelo_inurba_marseille","lat":43.30556,"lon":5.36564,"is_reserved":false,"is_disabled":false,"rental_uris":{"android":"levelo://app?vid=4f4e0096-b87d-4d23-bc87-8157c7ad42ed","ios":"levelo://app?vid=4f4e0096-b87d-4d23-bc87-8157c7ad42ed"},"vehicle_type_id":"4","last_reported":1748506467,"current_range_meters":11200,"station_id":"ce4bgs12rcd13ifvqcag","pricing_plan_id":"cebpf4jnsgd1na2vs0mg"},{"bike_id":"8cae9003-b8a4-48e5-a072-65bbb7096fc6","system_id":"levelo_inurba_marseille","lat":43.307839,"lon":5.376513,"is_reserved":false,"is_disabled":false,"rental_uris":{"android":"levelo://app?vid=8cae9003-b8a4-48e5-a072-65bbb7096fc6","ios":"levelo://app?vid=8cae9003-b8a4-48e5-a072-65bbb7096fc6"},"vehicle_type_id":"4","last_reported":1748506467,"current_range_meters":11200,"station_id":"ce4bgv92rcd13ifvqcq0","pricing_plan_id":"cebpf4jnsgd1na2vs0mg"},{"bike_id":"07452521-80b2-49ef-9564-0f86cebe19fe","system_id":"levelo_inurba_marseille","lat":43.289955,"lon":5.356194,"is_reserved":false,"is_disabled":false,"rental_uris":{"android":"levelo://app?vid=07452521-80b2-49ef-9564-0f86cebe19fe","ios":"levelo://app?vid=07452521-80b2-49ef-9564-0f86cebe19fe"},"vehicle_type_id":"4","last_reported":1748506467,"current_range_meters":11200,"station_id":"ce4bhb92rcd13ifvqen0","pricing_plan_id":"cebpf4jnsgd1na2vs0mg"},{"bike_id":"23f59b04-1138-4662-a010-c9ca39a19388","system_id":"levelo_inurba_marseille","lat":43.27834,"lon":5.3921,"is_reserved":false,"is_disabled":false,"rental_uris":{"android":"levelo://app?vid=23f59b04-1138-4662-a010-c9ca39a19388","ios":"levelo://app?vid=23f59b04-1138-4662-a010-c9ca39a19388"},"vehicle_type_id":"4","last_reported":1748506467,"current_range_meters":11200,"station_id":"ce4bhjp2rcd13ifvqga0","pricing_plan_id":"cebpf4jnsgd1na2vs0mg"},{"bike_id":"f090e212-d3c8-4736-afad-80cfe2b8e432","system_id":"levelo_inurba_marseille","lat":43.30807,"lon":5.43526,"is_reserved":false,"is_disabled":false,"rental_uris":{"android":"levelo://app?vid=f090e212-d3c8-4736-afad-80cfe2b8e432","ios":"levelo://app?vid=f090e212-d3c8-4736-afad-80cfe2b8e432"},"vehicle_type_id":"4","last_reported":1748506467,"current_range_meters":11200,"station_id":"ce4bhph2rcd13ifvqheg","pricing_plan_id":"cebpf4jnsgd1na2vs0mg"},{"bike_id":"f8b7cbc5-d302-4a1f-8149-53ec8dfec87c","system_id":"levelo_inurba_marseille","lat":43.30952,"lon":5.39026,"is_reserved":false,"is_disabled":false,"rental_uris":{"android":"levelo://app?vid=f8b7cbc5-d302-4a1f-8149-53ec8dfec87c","ios":"levelo://app?vid=f8b7cbc5-d302-4a1f-8149-53ec8dfec87c"},"vehicle_type_id":"4","last_reported":1748506467,"current_range_meters":11600,"station_id":"ce4bgup2rcd13ifvqco0","pricing_plan_id":"cebpf4jnsgd1na2vs0mg"},{"bike_id":"624b9dc0-659e-46da-aa5e-63620c4a7e32","system_id":"levelo_inurba_marseille","lat":43.27216,"lon":5.39182,"is_reserved":false,"is_disabled":false,"rental_uris":{"android":"levelo://app?vid=624b9dc0-659e-46da-aa5e-63620c4a7e32","ios":"levelo://app?vid=624b9dc0-659e-46da-aa5e-63620c4a7e32"},"vehicle_type_id":"4","last_reported":1748506467,"current_range_meters":11600,"station_id":"ce4bhhp2rcd13ifvqfm0","pricing_plan_id":"cebpf4jnsgd1na2vs0mg"},{"bike_id":"f4e8e0bb-ba43-4097-bfe7-dcd796aa03f2","system_id":"levelo_inurba_marseille","lat":43.27987,"lon":5.41659,"is_reserved":false,"is_disabled":false,"rental_uris":{"android":"levelo://app?vid=f4e8e0bb-ba43-4097-bfe7-dcd796aa03f2","ios":"levelo://app?vid=f4e8e0bb-ba43-4097-bfe7-dcd796aa03f2"},"vehicle_type_id":"4","last_reported":1748506467,"current_range_meters":11600,"station_id":"ce4bho12rcd13ifvqh1g","pricing_plan_id":"cebpf4jnsgd1na2vs0mg"},{"bike_id":"f293ba09-4b7e-4261-9c45-5e8e5f6ff81c","system_id":"levelo_inurba_marseille","lat":43.303803,"lon":5.424713,"is_reserved":false,"is_disabled":false,"rental_uris":{"android":"levelo://app?vid=f293ba09-4b7e-4261-9c45-5e8e5f6ff81c","ios":"levelo://app?vid=f293ba09-4b7e-4261-9c45-5e8e5f6ff81c"},"vehicle_type_id":"4","last_reported":1748506467,"current_range_meters":11600,"station_id":"ce4bhoh2rcd13ifvqh6g","pricing_plan_id":"cebpf4jnsgd1na2vs0mg"},{"bike_id":"74596cad-01b8-4827-9b35-ca1f4056673c","system_id":"levelo_inurba_marseille","lat":43.32391,"lon":5.38354,"is_reserved":false,"is_disabled":false,"rental_uris":{"android":"levelo://app?vid=74596cad-01b8-4827-9b35-ca1f4056673c","ios":"levelo://app?vid=74596cad-01b8-4827-9b35-ca1f4056673c"},"vehicle_type_id":"4","last_reported":1748506467,"current_range_meters":12000,"station_id":"","pricing_plan_id":"cebpf4jnsgd1na2vs0mg"},{"bike_id":"5425969b-1595-4148-b19f-88f5aacdc526","system_id":"levelo_inurba_marseille","lat":43.30649,"lon":5.40083,"is_reserved":false,"is_disabled":false,"rental_uris":{"android":"levelo://app?vid=5425969b-1595-4148-b19f-88f5aacdc526","ios":"levelo://app?vid=5425969b-1595-4148-b19f-88f5aacdc526"},"vehicle_type_id":"4","last_reported":1748506467,"current_range_meters":12000,"station_id":"ce4bh112rcd13ifvqda0","pricing_plan_id":"cebpf4jnsgd1na2vs0mg"},{"bike_id":"42dca157-bdb0-4361-8022-7979135f94aa","system_id":"levelo_inurba_marseille","lat":43.28549,"lon":5.3668,"is_reserved":false,"is_disabled":false,"rental_uris":{"android":"levelo://app?vid=42dca157-bdb0-4361-8022-7979135f94aa","ios":"levelo://app?vid=42dca157-bdb0-4361-8022-7979135f94aa"},"vehicle_type_id":"4","last_reported":1748506467,"current_range_meters":12400,"station_id":"","pricing_plan_id":"cebpf4jnsgd1na2vs0mg"},{"bike_id":"6d27294a-2e60-4583-9b56-abfbe24f3b7b","system_id":"levelo_inurba_marseille","lat":43.2958,"lon":5.36735,"is_reserved":false,"is_disabled":false,"rental_uris":{"android":"levelo://app?vid=6d27294a-2e60-4583-9b56-abfbe24f3b7b","ios":"levelo://app?vid=6d27294a-2e60-4583-9b56-abfbe24f3b7b"},"vehicle_type_id":"4","last_reported":1748506467,"current_range_meters":12400,"station_id":"ce4bgph2rcd13ifvqc2g","pricing_plan_id":"cebpf4jnsgd1na2vs0mg"},{"bike_id":"6a5d5512-2d9e-4ce9-98f1-2b18d3597d7d","system_id":"levelo_inurba_marseille","lat":43.29027,"lon":5.38144,"is_reserved":false,"is_disabled":false,"rental_uris":{"android":"levelo://app?vid=6a5d5512-2d9e-4ce9-98f1-2b18d3597d7d","ios":"levelo://app?vid=6a5d5512-2d9e-4ce9-98f1-2b18d3597d7d"},"vehicle_type_id":"4","last_reported":1748506467,"current_range_meters":12400,"station_id":"ce4bh4p2rcd13ifvqe1g","pricing_plan_id":"cebpf4jnsgd1na2vs0mg"},{"bike_id":"a0cbb1da-e07c-459d-bb58-2b331369b2e5","system_id":"levelo_inurba_marseille","lat":43.264744,"lon":5.379635,"is_reserved":false,"is_disabled":false,"rental_uris":{"android":"levelo://app?vid=a0cbb1da-e07c-459d-bb58-2b331369b2e5","ios":"levelo://app?vid=a0cbb1da-e07c-459d-bb58-2b331369b2e5"},"vehicle_type_id":"4","last_reported":1748506467,"current_range_meters":12400,"station_id":"ce4bhg92rcd13ifvqf90","pricing_plan_id":"cebpf4jnsgd1na2vs0mg"},{"bike_id":"8ea4d048-223c-4b9f-a79c-b8dc2c65d878","system_id":"levelo_inurba_marseille","lat":43.25113,"lon":5.40336,"is_reserved":false,"is_disabled":false,"rental_uris":{"android":"levelo://app?vid=8ea4d048-223c-4b9f-a79c-b8dc2c65d878","ios":"levelo://app?vid=8ea4d048-223c-4b9f-a79c-b8dc2c65d878"},"vehicle_type_id":"4","last_reported":1748506467,"current_range_meters":12400,"station_id":"ce4bhlh2rcd13ifvqgig","pricing_plan_id":"cebpf4jnsgd1na2vs0mg"},{"bike_id":"d1160911-5dba-4a70-bdeb-2e5a47931200","system_id":"levelo_inurba_marseille","lat":43.27996,"lon":5.41662,"is_reserved":false,"is_disabled":false,"rental_uris":{"android":"levelo://app?vid=d1160911-5dba-4a70-bdeb-2e5a47931200","ios":"levelo://app?vid=d1160911-5dba-4a70-bdeb-2e5a47931200"},"vehicle_type_id":"4","last_reported":1748506467,"current_range_meters":12400,"station_id":"ce4bho12rcd13ifvqh1g","pricing_plan_id":"cebpf4jnsgd1na2vs0mg"},{"bike_id":"66ec3060-8a03-4cbc-acae-354755d62724","system_id":"levelo_inurba_marseille","lat":43.282642,"lon":5.350636,"is_reserved":false,"is_disabled":false,"rental_uris":{"android":"levelo://app?vid=66ec3060-8a03-4cbc-acae-354755d62724","ios":"levelo://app?vid=66ec3060-8a03-4cbc-acae-354755d62724"},"vehicle_type_id":"4","last_reported":1748506467,"current_range_meters":12800,"station_id":"","pricing_plan_id":"cebpf4jnsgd1na2vs0mg"},{"bike_id":"b2d5366f-dd76-4df6-8bad-e2b0bf8847a0","system_id":"levelo_inurba_marseille","lat":43.23165,"lon":5.40019,"is_reserved":false,"is_disabled":false,"rental_uris":{"android":"levelo://app?vid=b2d5366f-dd76-4df6-8bad-e2b0bf8847a0","ios":"levelo://app?vid=b2d5366f-dd76-4df6-8bad-e2b0bf8847a0"},"vehicle_type_id":"4","last_reported":1748506467,"current_range_meters":12800,"station_id":"ce4bhn12rcd13ifvqgqg","pricing_plan_id":"cebpf4jnsgd1na2vs0mg"},{"bike_id":"81d4379b-dc8f-49a0-aa12-099c28045505","system_id":"levelo_inurba_marseille","lat":43.30461,"lon":5.37906,"is_reserved":false,"is_disabled":false,"rental_uris":{"android":"levelo://app?vid=81d4379b-dc8f-49a0-aa12-099c28045505","ios":"levelo://app?vid=81d4379b-dc8f-49a0-aa12-099c28045505"},"vehicle_type_id":"4","last_reported":1748506467,"current_range_meters":13600,"station_id":"ce4bgup2rcd13ifvqcn0","pricing_plan_id":"cebpf4jnsgd1na2vs0mg"},{"bike_id":"4607379c-9a5a-4d9c-8cea-20530a7eb964","system_id":"levelo_inurba_marseille","lat":43.309267,"lon":5.401472,"is_reserved":false,"is_disabled":false,"rental_uris":{"android":"levelo://app?vid=4607379c-9a5a-4d9c-8cea-20530a7eb964","ios":"levelo://app?vid=4607379c-9a5a-4d9c-8cea-20530a7eb964"},"vehicle_type_id":"4","last_reported":1748506467,"current_range_meters":13600,"station_id":"ce4bgvp2rcd13ifvqct0","pricing_plan_id":"cebpf4jnsgd1na2vs0mg"},{"bike_id":"5b2291d0-2594-4fff-9a70-c15f1147322b","system_id":"levelo_inurba_marseille","lat":43.29268,"lon":5.36856,"is_reserved":false,"is_disabled":false,"rental_uris":{"android":"levelo://app?vid=5b2291d0-2594-4fff-9a70-c15f1147322b","ios":"levelo://app?vid=5b2291d0-2594-4fff-9a70-c15f1147322b"},"vehicle_type_id":"4","last_reported":1748506467,"current_range_meters":13600,"station_id":"ce4bhbp2rcd13ifvqesg","pricing_plan_id":"cebpf4jnsgd1na2vs0mg"},{"bike_id":"6ed5bac0-eb11-436e-b583-43fe53337131","system_id":"levelo_inurba_marseille","lat":43.26563,"lon":5.39016,"is_reserved":false,"is_disabled":false,"rental_uris":{"android":"levelo://app?vid=6ed5bac0-eb11-436e-b583-43fe53337131","ios":"levelo://app?vid=6ed5bac0-eb11-436e-b583-43fe53337131"},"vehicle_type_id":"4","last_reported":1748506467,"current_range_meters":13600,"station_id":"ce4bhe12rcd13ifvqf30","pricing_plan_id":"cebpf4jnsgd1na2vs0mg"},{"bike_id":"56fd2089-387d-4ad5-bddf-5cb0e4cddab8","system_id":"levelo_inurba_marseille","lat":43.249993,"lon":5.389401,"is_reserved":false,"is_disabled":false,"rental_uris":{"android":"levelo://app?vid=56fd2089-387d-4ad5-bddf-5cb0e4cddab8","ios":"levelo://app?vid=56fd2089-387d-4ad5-bddf-5cb0e4cddab8"},"vehicle_type_id":"4","last_reported":1748506467,"current_range_meters":13600,"station_id":"ce4bhgp2rcd13ifvqfd0","pricing_plan_id":"cebpf4jnsgd1na2vs0mg"},{"bike_id":"2da4933c-bbd2-4a11-8721-a8699edd02f7","system_id":"levelo_inurba_marseille","lat":43.25125,"lon":5.40309,"is_reserved":false,"is_disabled":false,"rental_uris":{"android":"levelo://app?vid=2da4933c-bbd2-4a11-8721-a8699edd02f7","ios":"levelo://app?vid=2da4933c-bbd2-4a11-8721-a8699edd02f7"},"vehicle_type_id":"4","last_reported":1748506467,"current_range_meters":13600,"station_id":"ce4bhlh2rcd13ifvqgig","pricing_plan_id":"cebpf4jnsgd1na2vs0mg"},{"bike_id":"b1e96877-da85-41d0-8cb6-ca2665b00f68","system_id":"levelo_inurba_marseille","lat":43.2957,"lon":5.37515,"is_reserved":false,"is_disabled":false,"rental_uris":{"android":"levelo://app?vid=b1e96877-da85-41d0-8cb6-ca2665b00f68","ios":"levelo://app?vid=b1e96877-da85-41d0-8cb6-ca2665b00f68"},"vehicle_type_id":"4","last_reported":1748506467,"current_range_meters":14000,"station_id":"ce4bgh92rcd13ifvqb50","pricing_plan_id":"cebpf4jnsgd1na2vs0mg"},{"bike_id":"436ce087-3cc3-4fad-be81-97ca645cd502","system_id":"levelo_inurba_marseille","lat":43.29846,"lon":5.36286,"is_reserved":false,"is_disabled":false,"rental_uris":{"android":"levelo://app?vid=436ce087-3cc3-4fad-be81-97ca645cd502","ios":"levelo://app?vid=436ce087-3cc3-4fad-be81-97ca645cd502"},"vehicle_type_id":"4","last_reported":1748506467,"current_range_meters":14000,"station_id":"ce4bgpp2rcd13ifvqc3g","pricing_plan_id":"cebpf4jnsgd1na2vs0mg"},{"bike_id":"dc3b4bd6-afb8-45df-862d-e37973bc29fb","system_id":"levelo_inurba_marseille","lat":43.29279,"lon":5.40111,"is_reserved":false,"is_disabled":false,"rental_uris":{"android":"levelo://app?vid=dc3b4bd6-afb8-45df-862d-e37973bc29fb","ios":"levelo://app?vid=dc3b4bd6-afb8-45df-862d-e37973bc29fb"},"vehicle_type_id":"4","last_reported":1748506467,"current_range_meters":14000,"station_id":"ce4bh312rcd13ifvqdk0","pricing_plan_id":"cebpf4jnsgd1na2vs0mg"},{"bike_id":"ccf27456-48f1-4c0a-b00b-3b6b17392881","system_id":"levelo_inurba_marseille","lat":43.24373,"lon":5.37075,"is_reserved":false,"is_disabled":false,"rental_uris":{"android":"levelo://app?vid=ccf27456-48f1-4c0a-b00b-3b6b17392881","ios":"levelo://app?vid=ccf27456-48f1-4c0a-b00b-3b6b17392881"},"vehicle_type_id":"4","last_reported":1748506467,"current_range_meters":14000,"station_id":"ce4bhhh2rcd13ifvqfk0","pricing_plan_id":"cebpf4jnsgd1na2vs0mg"},{"bike_id":"2652e1e3-d1da-45c2-b958-96113842e8cd","system_id":"levelo_inurba_marseille","lat":43.288422,"lon":5.353129,"is_reserved":false,"is_disabled":false,"rental_uris":{"android":"levelo://app?vid=2652e1e3-d1da-45c2-b958-96113842e8cd","ios":"levelo://app?vid=2652e1e3-d1da-45c2-b958-96113842e8cd"},"vehicle_type_id":"4","last_reported":1748506467,"current_range_meters":14400,"station_id":"","pricing_plan_id":"cebpf4jnsgd1na2vs0mg"},{"bike_id":"f5733814-9732-4748-bcc9-3b2fac8e1564","system_id":"levelo_inurba_marseille","lat":43.31256,"lon":5.37829,"is_reserved":false,"is_disabled":false,"rental_uris":{"android":"levelo://app?vid=f5733814-9732-4748-bcc9-3b2fac8e1564","ios":"levelo://app?vid=f5733814-9732-4748-bcc9-3b2fac8e1564"},"vehicle_type_id":"4","last_reported":1748506467,"current_range_meters":14400,"station_id":"","pricing_plan_id":"cebpf4jnsgd1na2vs0mg"},{"bike_id":"8f7f9dba-c1a2-4705-9cfb-78b381b601cf","system_id":"levelo_inurba_marseille","lat":43.309293,"lon":5.401494,"is_reserved":false,"is_disabled":false,"rental_uris":{"android":"levelo://app?vid=8f7f9dba-c1a2-4705-9cfb-78b381b601cf","ios":"levelo://app?vid=8f7f9dba-c1a2-4705-9cfb-78b381b601cf"},"vehicle_type_id":"4","last_reported":1748506467,"current_range_meters":14400,"station_id":"ce4bgvp2rcd13ifvqct0","pricing_plan_id":"cebpf4jnsgd1na2vs0mg"},{"bike_id":"7270ff1a-574f-4ae9-8b4f-de038997e410","system_id":"levelo_inurba_marseille","lat":43.30888,"lon":5.39645,"is_reserved":false,"is_disabled":false,"rental_uris":{"android":"levelo://app?vid=7270ff1a-574f-4ae9-8b4f-de038997e410","ios":"levelo://app?vid=7270ff1a-574f-4ae9-8b4f-de038997e410"},"vehicle_type_id":"4","last_reported":1748506467,"current_range_meters":14400,"station_id":"ce4bh012rcd13ifvqcv0","pricing_plan_id":"cebpf4jnsgd1na2vs0mg"},{"bike_id":"c514c6c4-0430-422b-a296-4a51bad3a251","system_id":"levelo_inurba_marseille","lat":43.30336,"lon":5.40435,"is_reserved":false,"is_disabled":false,"rental_uris":{"android":"levelo://app?vid=c514c6c4-0430-422b-a296-4a51bad3a251","ios":"levelo://app?vid=c514c6c4-0430-422b-a296-4a51bad3a251"},"vehicle_type_id":"4","last_reported":1748506467,"current_range_meters":14400,"station_id":"ce4bh012rcd13ifvqd10","pricing_plan_id":"cebpf4jnsgd1na2vs0mg"},{"bike_id":"a426f99b-d34a-41bf-bbda-59f7dfd6939b","system_id":"levelo_inurba_marseille","lat":43.255796,"lon":5.382262,"is_reserved":false,"is_disabled":false,"rental_uris":{"android":"levelo://app?vid=a426f99b-d34a-41bf-bbda-59f7dfd6939b","ios":"levelo://app?vid=a426f99b-d34a-41bf-bbda-59f7dfd6939b"},"vehicle_type_id":"4","last_reported":1748506467,"current_range_meters":14400,"station_id":"ce501612rcd8frsf0b60","pricing_plan_id":"cebpf4jnsgd1na2vs0mg"},{"bike_id":"3bf049eb-b027-4553-8de8-82bb3c0c0c8d","system_id":"levelo_inurba_marseille","lat":43.32841,"lon":5.37509,"is_reserved":false,"is_disabled":false,"rental_uris":{"android":"levelo://app?vid=3bf049eb-b027-4553-8de8-82bb3c0c0c8d","ios":"levelo://app?vid=3bf049eb-b027-4553-8de8-82bb3c0c0c8d"},"vehicle_type_id":"4","last_reported":1748506467,"current_range_meters":14800,"station_id":"","pricing_plan_id":"cebpf4jnsgd1na2vs0mg"},{"bike_id":"e9cda520-c6f4-465d-ad7f-8c059b3dc45a","system_id":"levelo_inurba_marseille","lat":43.31379,"lon":5.383773,"is_reserved":false,"is_disabled":false,"rental_uris":{"android":"levelo://app?vid=e9cda520-c6f4-465d-ad7f-8c059b3dc45a","ios":"levelo://app?vid=e9cda520-c6f4-465d-ad7f-8c059b3dc45a"},"vehicle_type_id":"4","last_reported":1748506467,"current_range_meters":14800,"station_id":"","pricing_plan_id":"cebpf4jnsgd1na2vs0mg"},{"bike_id":"2edfef24-408a-4830-b984-0861c8826a89","system_id":"levelo_inurba_marseille","lat":43.29272,"lon":5.37631,"is_reserved":false,"is_disabled":false,"rental_uris":{"android":"levelo://app?vid=2edfef24-408a-4830-b984-0861c8826a89","ios":"levelo://app?vid=2edfef24-408a-4830-b984-0861c8826a89"},"vehicle_type_id":"4","last_reported":1748506467,"current_range_meters":14800,"station_id":"ce4bgi12rcd13ifvqb80","pricing_plan_id":"cebpf4jnsgd1na2vs0mg"},{"bike_id":"6fa12670-470b-4dc5-8729-02ea2b3c81ab","system_id":"levelo_inurba_marseille","lat":43.23149,"lon":5.43711,"is_reserved":false,"is_disabled":false,"rental_uris":{"android":"levelo://app?vid=6fa12670-470b-4dc5-8729-02ea2b3c81ab","ios":"levelo://app?vid=6fa12670-470b-4dc5-8729-02ea2b3c81ab"},"vehicle_type_id":"4","last_reported":1748506467,"current_range_meters":14800,"station_id":"ce4bhmp2rcd13ifvqgog","pricing_plan_id":"cebpf4jnsgd1na2vs0mg"},{"bike_id":"caba691e-3e1a-4a91-8958-c8fc2e373e15","system_id":"levelo_inurba_marseille","lat":43.337426,"lon":5.391819,"is_reserved":false,"is_disabled":false,"rental_uris":{"android":"levelo://app?vid=caba691e-3e1a-4a91-8958-c8fc2e373e15","ios":"levelo://app?vid=caba691e-3e1a-4a91-8958-c8fc2e373e15"},"vehicle_type_id":"4","last_reported":1748506467,"current_range_meters":14800,"station_id":"ce4bhr92rcd13ifvqhsg","pricing_plan_id":"cebpf4jnsgd1na2vs0mg"},{"bike_id":"a860e663-5e5a-4cec-ae5b-dc88e172b73e","system_id":"levelo_inurba_marseille","lat":43.31722,"lon":5.40433,"is_reserved":false,"is_disabled":false,"rental_uris":{"android":"levelo://app?vid=a860e663-5e5a-4cec-ae5b-dc88e172b73e","ios":"levelo://app?vid=a860e663-5e5a-4cec-ae5b-dc88e172b73e"},"vehicle_type_id":"4","last_reported":1748506467,"current_range_meters":15200,"station_id":"","pricing_plan_id":"cebpf4jnsgd1na2vs0mg"},{"bike_id":"4cb24e43-9b8a-4759-8457-4f13e54c9f6c","system_id":"levelo_inurba_marseille","lat":43.3047,"lon":5.37911,"is_reserved":false,"is_disabled":false,"rental_uris":{"android":"levelo://app?vid=4cb24e43-9b8a-4759-8457-4f13e54c9f6c","ios":"levelo://app?vid=4cb24e43-9b8a-4759-8457-4f13e54c9f6c"},"vehicle_type_id":"4","last_reported":1748506467,"current_range_meters":15200,"station_id":"ce4bgup2rcd13ifvqcn0","pricing_plan_id":"cebpf4jnsgd1na2vs0mg"},{"bike_id":"204ccfe1-9199-4970-adb6-0a4f6a62a5df","system_id":"levelo_inurba_marseille","lat":43.27908,"lon":5.39579,"is_reserved":false,"is_disabled":false,"rental_uris":{"android":"levelo://app?vid=204ccfe1-9199-4970-adb6-0a4f6a62a5df","ios":"levelo://app?vid=204ccfe1-9199-4970-adb6-0a4f6a62a5df"},"vehicle_type_id":"4","last_reported":1748506467,"current_range_meters":15200,"station_id":"ce4bhf92rcd13ifvqf40","pricing_plan_id":"cebpf4jnsgd1na2vs0mg"},{"bike_id":"e207e17c-12d7-45fe-ac8d-743dbc30b7d0","system_id":"levelo_inurba_marseille","lat":43.25086,"lon":5.39514,"is_reserved":false,"is_disabled":false,"rental_uris":{"android":"levelo://app?vid=e207e17c-12d7-45fe-ac8d-743dbc30b7d0","ios":"levelo://app?vid=e207e17c-12d7-45fe-ac8d-743dbc30b7d0"},"vehicle_type_id":"4","last_reported":1748506467,"current_range_meters":15200,"station_id":"ce4bhm12rcd13ifvqgkg","pricing_plan_id":"cebpf4jnsgd1na2vs0mg"},{"bike_id":"0e009545-9acc-491d-b143-22cbd0096db4","system_id":"levelo_inurba_marseille","lat":43.33036,"lon":5.39046,"is_reserved":false,"is_disabled":false,"rental_uris":{"android":"levelo://app?vid=0e009545-9acc-491d-b143-22cbd0096db4","ios":"levelo://app?vid=0e009545-9acc-491d-b143-22cbd0096db4"},"vehicle_type_id":"4","last_reported":1748506467,"current_range_meters":16000,"station_id":"","pricing_plan_id":"cebpf4jnsgd1na2vs0mg"},{"bike_id":"a489d1bc-6bde-4e3e-95bd-5de782660637","system_id":"levelo_inurba_marseille","lat":43.29622,"lon":5.37733,"is_reserved":false,"is_disabled":false,"rental_uris":{"android":"levelo://app?vid=a489d1bc-6bde-4e3e-95bd-5de782660637","ios":"levelo://app?vid=a489d1bc-6bde-4e3e-95bd-5de782660637"},"vehicle_type_id":"4","last_reported":1748506467,"current_range_meters":16000,"station_id":"ce4bgi92rcd13ifvqb90","pricing_plan_id":"cebpf4jnsgd1na2vs0mg"},{"bike_id":"7cebb823-96d0-49f3-8455-0b619a5fe90e","system_id":"levelo_inurba_marseille","lat":43.3016,"lon":5.38083,"is_reserved":false,"is_disabled":false,"rental_uris":{"android":"levelo://app?vid=7cebb823-96d0-49f3-8455-0b619a5fe90e","ios":"levelo://app?vid=7cebb823-96d0-49f3-8455-0b619a5fe90e"},"vehicle_type_id":"4","last_reported":1748506467,"current_range_meters":16000,"station_id":"ce4bgjp2rcd13ifvqbh0","pricing_plan_id":"cebpf4jnsgd1na2vs0mg"},{"bike_id":"adcee82c-9db2-40d0-9e4e-8dd831ea6879","system_id":"levelo_inurba_marseille","lat":43.279147,"lon":5.39586,"is_reserved":false,"is_disabled":false,"rental_uris":{"android":"levelo://app?vid=adcee82c-9db2-40d0-9e4e-8dd831ea6879","ios":"levelo://app?vid=adcee82c-9db2-40d0-9e4e-8dd831ea6879"},"vehicle_type_id":"4","last_reported":1748506467,"current_range_meters":16000,"station_id":"ce4bhf92rcd13ifvqf40","pricing_plan_id":"cebpf4jnsgd1na2vs0mg"},{"bike_id":"d18482a7-50d0-4244-8544-e9c165102a23","system_id":"levelo_inurba_marseille","lat":43.26208,"lon":5.3744,"is_reserved":false,"is_disabled":false,"rental_uris":{"android":"levelo://app?vid=d18482a7-50d0-4244-8544-e9c165102a23","ios":"levelo://app?vid=d18482a7-50d0-4244-8544-e9c165102a23"},"vehicle_type_id":"4","last_reported":1748506467,"current_range_meters":16000,"station_id":"ce4bhgp2rcd13ifvqfc0","pricing_plan_id":"cebpf4jnsgd1na2vs0mg"},{"bike_id":"b7d0182b-44ef-4781-8968-d21fb3c02045","system_id":"levelo_inurba_marseille","lat":43.250876,"lon":5.395162,"is_reserved":false,"is_disabled":false,"rental_uris":{"android":"levelo://app?vid=b7d0182b-44ef-4781-8968-d21fb3c02045","ios":"levelo://app?vid=b7d0182b-44ef-4781-8968-d21fb3c02045"},"vehicle_type_id":"4","last_reported":1748506467,"current_range_meters":16000,"station_id":"ce4bhm12rcd13ifvqgkg","pricing_plan_id":"cebpf4jnsgd1na2vs0mg"},{"bike_id":"268d8a39-8ebd-464e-bfc7-cb2851008607","system_id":"levelo_inurba_marseille","lat":43.24172,"lon":5.39736,"is_reserved":false,"is_disabled":false,"rental_uris":{"android":"levelo://app?vid=268d8a39-8ebd-464e-bfc7-cb2851008607","ios":"levelo://app?vid=268d8a39-8ebd-464e-bfc7-cb2851008607"},"vehicle_type_id":"4","last_reported":1748506467,"current_range_meters":16000,"station_id":"ce4bhn12rcd13ifvqgpg","pricing_plan_id":"cebpf4jnsgd1na2vs0mg"},{"bike_id":"8023504d-3ac6-4178-b0fc-b7283e21344c","system_id":"levelo_inurba_marseille","lat":43.2794,"lon":5.41034,"is_reserved":false,"is_disabled":false,"rental_uris":{"android":"levelo://app?vid=8023504d-3ac6-4178-b0fc-b7283e21344c","ios":"levelo://app?vid=8023504d-3ac6-4178-b0fc-b7283e21344c"},"vehicle_type_id":"4","last_reported":1748506467,"current_range_meters":16000,"station_id":"ce4bhnp2rcd13ifvqh0g","pricing_plan_id":"cebpf4jnsgd1na2vs0mg"},{"bike_id":"ad6aca86-7934-43a8-93e5-11f3e998538f","system_id":"levelo_inurba_marseille","lat":43.27944,"lon":5.41033,"is_reserved":false,"is_disabled":false,"rental_uris":{"android":"levelo://app?vid=ad6aca86-7934-43a8-93e5-11f3e998538f","ios":"levelo://app?vid=ad6aca86-7934-43a8-93e5-11f3e998538f"},"vehicle_type_id":"4","last_reported":1748506467,"current_range_meters":16000,"station_id":"ce4bhnp2rcd13ifvqh0g","pricing_plan_id":"cebpf4jnsgd1na2vs0mg"},{"bike_id":"c91f375f-f1af-4beb-83ef-b4aac44777e5","system_id":"levelo_inurba_marseille","lat":43.24165,"lon":5.36393,"is_reserved":false,"is_disabled":false,"rental_uris":{"android":"levelo://app?vid=c91f375f-f1af-4beb-83ef-b4aac44777e5","ios":"levelo://app?vid=c91f375f-f1af-4beb-83ef-b4aac44777e5"},"vehicle_type_id":"4","last_reported":1748506467,"current_range_meters":16000,"station_id":"cpo36qri1sfpv3e86is0","pricing_plan_id":"cebpf4jnsgd1na2vs0mg"},{"bike_id":"fe4faca8-b591-4fed-a910-6ecdd99eacd3","system_id":"levelo_inurba_marseille","lat":43.29619,"lon":5.37714,"is_reserved":false,"is_disabled":false,"rental_uris":{"android":"levelo://app?vid=fe4faca8-b591-4fed-a910-6ecdd99eacd3","ios":"levelo://app?vid=fe4faca8-b591-4fed-a910-6ecdd99eacd3"},"vehicle_type_id":"4","last_reported":1748506467,"current_range_meters":16400,"station_id":"ce4bgi92rcd13ifvqb90","pricing_plan_id":"cebpf4jnsgd1na2vs0mg"},{"bike_id":"69edce09-d545-4008-b62e-49b1b72bd772","system_id":"levelo_inurba_marseille","lat":43.29603,"lon":5.38106,"is_reserved":false,"is_disabled":false,"rental_uris":{"android":"levelo://app?vid=69edce09-d545-4008-b62e-49b1b72bd772","ios":"levelo://app?vid=69edce09-d545-4008-b62e-49b1b72bd772"},"vehicle_type_id":"4","last_reported":1748506467,"current_range_meters":16400,"station_id":"ce4bgl12rcd13ifvqbo0","pricing_plan_id":"cebpf4jnsgd1na2vs0mg"},{"bike_id":"1c9b4761-e609-4e32-850e-f95c9f07553f","system_id":"levelo_inurba_marseille","lat":43.30893,"lon":5.39642,"is_reserved":false,"is_disabled":false,"rental_uris":{"android":"levelo://app?vid=1c9b4761-e609-4e32-850e-f95c9f07553f","ios":"levelo://app?vid=1c9b4761-e609-4e32-850e-f95c9f07553f"},"vehicle_type_id":"4","last_reported":1748506467,"current_range_meters":16400,"station_id":"ce4bh012rcd13ifvqcv0","pricing_plan_id":"cebpf4jnsgd1na2vs0mg"},{"bike_id":"6829e209-471a-4f5d-bdfa-f6471e8f3b4e","system_id":"levelo_inurba_marseille","lat":43.29878,"lon":5.39736,"is_reserved":false,"is_disabled":false,"rental_uris":{"android":"levelo://app?vid=6829e209-471a-4f5d-bdfa-f6471e8f3b4e","ios":"levelo://app?vid=6829e209-471a-4f5d-bdfa-f6471e8f3b4e"},"vehicle_type_id":"4","last_reported":1748506467,"current_range_meters":16400,"station_id":"ce4bh0h2rcd13ifvqd50","pricing_plan_id":"cebpf4jnsgd1na2vs0mg"},{"bike_id":"747224c9-7e52-4c58-9390-d943c4f5446c","system_id":"levelo_inurba_marseille","lat":43.27186,"lon":5.41007,"is_reserved":false,"is_disabled":false,"rental_uris":{"android":"levelo://app?vid=747224c9-7e52-4c58-9390-d943c4f5446c","ios":"levelo://app?vid=747224c9-7e52-4c58-9390-d943c4f5446c"},"vehicle_type_id":"4","last_reported":1748506467,"current_range_meters":16400,"station_id":"ce4bhl12rcd13ifvqgf0","pricing_plan_id":"cebpf4jnsgd1na2vs0mg"},{"bike_id":"6b77d8e2-6914-4f74-b37c-4eb29bd3731c","system_id":"levelo_inurba_marseille","lat":43.25888,"lon":5.40883,"is_reserved":false,"is_disabled":false,"rental_uris":{"android":"levelo://app?vid=6b77d8e2-6914-4f74-b37c-4eb29bd3731c","ios":"levelo://app?vid=6b77d8e2-6914-4f74-b37c-4eb29bd3731c"},"vehicle_type_id":"4","last_reported":1748506467,"current_range_meters":16400,"station_id":"ce4bhm92rcd13ifvqglg","pricing_plan_id":"cebpf4jnsgd1na2vs0mg"},{"bike_id":"9a86381f-51bc-4d54-858d-d27c0e51d901","system_id":"levelo_inurba_marseille","lat":43.30735,"lon":5.42447,"is_reserved":false,"is_disabled":false,"rental_uris":{"android":"levelo://app?vid=9a86381f-51bc-4d54-858d-d27c0e51d901","ios":"levelo://app?vid=9a86381f-51bc-4d54-858d-d27c0e51d901"},"vehicle_type_id":"4","last_reported":1748506467,"current_range_meters":16400,"station_id":"st_cvj6ca6bvosntc0bfgr0","pricing_plan_id":"cebpf4jnsgd1na2vs0mg"},{"bike_id":"210996db-8225-4747-b040-5d2114c8d106","system_id":"levelo_inurba_marseille","lat":43.28259,"lon":5.35064,"is_reserved":false,"is_disabled":false,"rental_uris":{"android":"levelo://app?vid=210996db-8225-4747-b040-5d2114c8d106","ios":"levelo://app?vid=210996db-8225-4747-b040-5d2114c8d106"},"vehicle_type_id":"4","last_reported":1748506467,"current_range_meters":16800,"station_id":"","pricing_plan_id":"cebpf4jnsgd1na2vs0mg"},{"bike_id":"84b1cdb3-afec-4946-99df-4fcba5b743f0","system_id":"levelo_inurba_marseille","lat":43.26128,"lon":5.40083,"is_reserved":false,"is_disabled":false,"rental_uris":{"android":"levelo://app?vid=84b1cdb3-afec-4946-99df-4fcba5b743f0","ios":"levelo://app?vid=84b1cdb3-afec-4946-99df-4fcba5b743f0"},"vehicle_type_id":"4","last_reported":1748506467,"current_range_meters":16800,"station_id":"","pricing_plan_id":"cebpf4jnsgd1na2vs0mg"},{"bike_id":"bf5e4674-03e5-4715-b871-aa2d6b3c6866","system_id":"levelo_inurba_marseille","lat":43.29513,"lon":5.38893,"is_reserved":false,"is_disabled":false,"rental_uris":{"android":"levelo://app?vid=bf5e4674-03e5-4715-b871-aa2d6b3c6866","ios":"levelo://app?vid=bf5e4674-03e5-4715-b871-aa2d6b3c6866"},"vehicle_type_id":"4","last_reported":1748506467,"current_range_meters":16800,"station_id":"","pricing_plan_id":"cebpf4jnsgd1na2vs0mg"},{"bike_id":"b7020ec2-d08d-489a-8b7c-6a077dc1acf5","system_id":"levelo_inurba_marseille","lat":43.23287,"lon":5.36068,"is_reserved":false,"is_disabled":false,"rental_uris":{"android":"levelo://app?vid=b7020ec2-d08d-489a-8b7c-6a077dc1acf5","ios":"levelo://app?vid=b7020ec2-d08d-489a-8b7c-6a077dc1acf5"},"vehicle_type_id":"4","last_reported":1748506467,"current_range_meters":16800,"station_id":"","pricing_plan_id":"cebpf4jnsgd1na2vs0mg"},{"bike_id":"acde56a0-c251-421d-9720-8a73531f730f","system_id":"levelo_inurba_marseille","lat":43.30956,"lon":5.39036,"is_reserved":false,"is_disabled":false,"rental_uris":{"android":"levelo://app?vid=acde56a0-c251-421d-9720-8a73531f730f","ios":"levelo://app?vid=acde56a0-c251-421d-9720-8a73531f730f"},"vehicle_type_id":"4","last_reported":1748506467,"current_range_meters":16800,"station_id":"ce4bgup2rcd13ifvqco0","pricing_plan_id":"cebpf4jnsgd1na2vs0mg"},{"bike_id":"1d6d9702-438d-454d-974c-3073193f149e","system_id":"levelo_inurba_marseille","lat":43.30784,"lon":5.37633,"is_reserved":false,"is_disabled":false,"rental_uris":{"android":"levelo://app?vid=1d6d9702-438d-454d-974c-3073193f149e","ios":"levelo://app?vid=1d6d9702-438d-454d-974c-3073193f149e"},"vehicle_type_id":"4","last_reported":1748506467,"current_range_meters":16800,"station_id":"ce4bgv92rcd13ifvqcq0","pricing_plan_id":"cebpf4jnsgd1na2vs0mg"},{"bike_id":"caac217f-7292-4c57-bfce-76d9beeb04c4","system_id":"levelo_inurba_marseille","lat":43.25491,"lon":5.37645,"is_reserved":false,"is_disabled":false,"rental_uris":{"android":"levelo://app?vid=caac217f-7292-4c57-bfce-76d9beeb04c4","ios":"levelo://app?vid=caac217f-7292-4c57-bfce-76d9beeb04c4"},"vehicle_type_id":"4","last_reported":1748506467,"current_range_meters":16800,"station_id":"ce4bhh12rcd13ifvqff0","pricing_plan_id":"cebpf4jnsgd1na2vs0mg"},{"bike_id":"f61b7f73-84e3-4805-a73d-0334d49a8a59","system_id":"levelo_inurba_marseille","lat":43.231848,"lon":5.400004,"is_reserved":false,"is_disabled":false,"rental_uris":{"android":"levelo://app?vid=f61b7f73-84e3-4805-a73d-0334d49a8a59","ios":"levelo://app?vid=f61b7f73-84e3-4805-a73d-0334d49a8a59"},"vehicle_type_id":"4","last_reported":1748506467,"current_range_meters":16800,"station_id":"ce4bhn12rcd13ifvqgqg","pricing_plan_id":"cebpf4jnsgd1na2vs0mg"},{"bike_id":"1d2dd8ed-6d44-4d44-9633-4ce9d61327d9","system_id":"levelo_inurba_marseille","lat":43.21189,"lon":5.35077,"is_reserved":false,"is_disabled":false,"rental_uris":{"android":"levelo://app?vid=1d2dd8ed-6d44-4d44-9633-4ce9d61327d9","ios":"levelo://app?vid=1d2dd8ed-6d44-4d44-9633-4ce9d61327d9"},"vehicle_type_id":"4","last_reported":1748506467,"current_range_meters":17200,"station_id":"","pricing_plan_id":"cebpf4jnsgd1na2vs0mg"},{"bike_id":"a68b6451-acaa-4e56-afe1-cacd79381997","system_id":"levelo_inurba_marseille","lat":43.30882,"lon":5.39664,"is_reserved":false,"is_disabled":false,"rental_uris":{"android":"levelo://app?vid=a68b6451-acaa-4e56-afe1-cacd79381997","ios":"levelo://app?vid=a68b6451-acaa-4e56-afe1-cacd79381997"},"vehicle_type_id":"4","last_reported":1748506467,"current_range_meters":17200,"station_id":"ce4bh012rcd13ifvqcv0","pricing_plan_id":"cebpf4jnsgd1na2vs0mg"},{"bike_id":"cc9b6862-f180-4ad4-9beb-4bccef3d26e3","system_id":"levelo_inurba_marseille","lat":43.29271,"lon":5.3685,"is_reserved":false,"is_disabled":false,"rental_uris":{"android":"levelo://app?vid=cc9b6862-f180-4ad4-9beb-4bccef3d26e3","ios":"levelo://app?vid=cc9b6862-f180-4ad4-9beb-4bccef3d26e3"},"vehicle_type_id":"4","last_reported":1748506467,"current_range_meters":17200,"station_id":"ce4bhbp2rcd13ifvqesg","pricing_plan_id":"cebpf4jnsgd1na2vs0mg"},{"bike_id":"9c67605e-52e7-42f5-b544-e3f7713b2367","system_id":"levelo_inurba_marseille","lat":43.292755,"lon":5.368474,"is_reserved":false,"is_disabled":false,"rental_uris":{"android":"levelo://app?vid=9c67605e-52e7-42f5-b544-e3f7713b2367","ios":"levelo://app?vid=9c67605e-52e7-42f5-b544-e3f7713b2367"},"vehicle_type_id":"4","last_reported":1748506467,"current_range_meters":17200,"station_id":"ce4bhbp2rcd13ifvqesg","pricing_plan_id":"cebpf4jnsgd1na2vs0mg"},{"bike_id":"88ca12ac-6570-4760-b5d7-0b3325462f98","system_id":"levelo_inurba_marseille","lat":43.266785,"lon":5.382603,"is_reserved":false,"is_disabled":false,"rental_uris":{"android":"levelo://app?vid=88ca12ac-6570-4760-b5d7-0b3325462f98","ios":"levelo://app?vid=88ca12ac-6570-4760-b5d7-0b3325462f98"},"vehicle_type_id":"4","last_reported":1748506467,"current_range_meters":17200,"station_id":"ce4bhg92rcd13ifvqf90","pricing_plan_id":"cebpf4jnsgd1na2vs0mg"},{"bike_id":"a579da87-abaf-45f0-b1ed-87f0c94a13b5","system_id":"levelo_inurba_marseille","lat":43.25576,"lon":5.3822,"is_reserved":false,"is_disabled":false,"rental_uris":{"android":"levelo://app?vid=a579da87-abaf-45f0-b1ed-87f0c94a13b5","ios":"levelo://app?vid=a579da87-abaf-45f0-b1ed-87f0c94a13b5"},"vehicle_type_id":"4","last_reported":1748506467,"current_range_meters":17200,"station_id":"ce4bhih2rcd13ifvqfs0","pricing_plan_id":"cebpf4jnsgd1na2vs0mg"},{"bike_id":"dbe562a8-5982-4674-8802-fa833cff5d97","system_id":"levelo_inurba_marseille","lat":43.2511,"lon":5.40314,"is_reserved":false,"is_disabled":false,"rental_uris":{"android":"levelo://app?vid=dbe562a8-5982-4674-8802-fa833cff5d97","ios":"levelo://app?vid=dbe562a8-5982-4674-8802-fa833cff5d97"},"vehicle_type_id":"4","last_reported":1748506467,"current_range_meters":17200,"station_id":"ce4bhlh2rcd13ifvqgig","pricing_plan_id":"cebpf4jnsgd1na2vs0mg"},{"bike_id":"7b28c36a-2498-40c0-9245-a36ff1ab85da","system_id":"levelo_inurba_marseille","lat":43.23191,"lon":5.3555,"is_reserved":false,"is_disabled":false,"rental_uris":{"android":"levelo://app?vid=7b28c36a-2498-40c0-9245-a36ff1ab85da","ios":"levelo://app?vid=7b28c36a-2498-40c0-9245-a36ff1ab85da"},"vehicle_type_id":"4","last_reported":1748506467,"current_range_meters":17200,"station_id":"ce4bhu92rcd13ifvqi70","pricing_plan_id":"cebpf4jnsgd1na2vs0mg"},{"bike_id":"2c529a87-f4fa-4b63-a305-083d4f17eba4","system_id":"levelo_inurba_marseille","lat":43.28256,"lon":5.35069,"is_reserved":false,"is_disabled":false,"rental_uris":{"android":"levelo://app?vid=2c529a87-f4fa-4b63-a305-083d4f17eba4","ios":"levelo://app?vid=2c529a87-f4fa-4b63-a305-083d4f17eba4"},"vehicle_type_id":"4","last_reported":1748506467,"current_range_meters":17600,"station_id":"","pricing_plan_id":"cebpf4jnsgd1na2vs0mg"},{"bike_id":"28f7df19-ab91-405a-bf6c-a78862fd6279","system_id":"levelo_inurba_marseille","lat":43.30665,"lon":5.40031,"is_reserved":false,"is_disabled":false,"rental_uris":{"android":"levelo://app?vid=28f7df19-ab91-405a-bf6c-a78862fd6279","ios":"levelo://app?vid=28f7df19-ab91-405a-bf6c-a78862fd6279"},"vehicle_type_id":"4","last_reported":1748506467,"current_range_meters":17600,"station_id":"","pricing_plan_id":"cebpf4jnsgd1na2vs0mg"},{"bike_id":"5fb82628-e4a7-4c17-8905-643c27b4a7c0","system_id":"levelo_inurba_marseille","lat":43.30437,"lon":5.38888,"is_reserved":false,"is_disabled":false,"rental_uris":{"android":"levelo://app?vid=5fb82628-e4a7-4c17-8905-643c27b4a7c0","ios":"levelo://app?vid=5fb82628-e4a7-4c17-8905-643c27b4a7c0"},"vehicle_type_id":"4","last_reported":1748506467,"current_range_meters":17600,"station_id":"ce4bgk12rcd13ifvqbi0","pricing_plan_id":"cebpf4jnsgd1na2vs0mg"},{"bike_id":"6449e09c-aa70-4db4-8717-6cdd9456c498","system_id":"levelo_inurba_marseille","lat":43.30474,"lon":5.37907,"is_reserved":false,"is_disabled":false,"rental_uris":{"android":"levelo://app?vid=6449e09c-aa70-4db4-8717-6cdd9456c498","ios":"levelo://app?vid=6449e09c-aa70-4db4-8717-6cdd9456c498"},"vehicle_type_id":"4","last_reported":1748506467,"current_range_meters":17600,"station_id":"ce4bgup2rcd13ifvqcn0","pricing_plan_id":"cebpf4jnsgd1na2vs0mg"},{"bike_id":"bd424364-9cf2-4bb8-822f-5ad8131fbbde","system_id":"levelo_inurba_marseille","lat":43.30923,"lon":5.40129,"is_reserved":false,"is_disabled":false,"rental_uris":{"android":"levelo://app?vid=bd424364-9cf2-4bb8-822f-5ad8131fbbde","ios":"levelo://app?vid=bd424364-9cf2-4bb8-822f-5ad8131fbbde"},"vehicle_type_id":"4","last_reported":1748506467,"current_range_meters":17600,"station_id":"ce4bgvp2rcd13ifvqct0","pricing_plan_id":"cebpf4jnsgd1na2vs0mg"},{"bike_id":"f5d5224e-05de-4175-b7c0-718822a441c7","system_id":"levelo_inurba_marseille","lat":43.26572,"lon":5.39017,"is_reserved":false,"is_disabled":false,"rental_uris":{"android":"levelo://app?vid=f5d5224e-05de-4175-b7c0-718822a441c7","ios":"levelo://app?vid=f5d5224e-05de-4175-b7c0-718822a441c7"},"vehicle_type_id":"4","last_reported":1748506467,"current_range_meters":17600,"station_id":"ce4bhe12rcd13ifvqf30","pricing_plan_id":"cebpf4jnsgd1na2vs0mg"},{"bike_id":"4dd0ad5b-5aff-4aaf-8644-719210cfc8d5","system_id":"levelo_inurba_marseille","lat":43.262,"lon":5.37929,"is_reserved":false,"is_disabled":false,"rental_uris":{"android":"levelo://app?vid=4dd0ad5b-5aff-4aaf-8644-719210cfc8d5","ios":"levelo://app?vid=4dd0ad5b-5aff-4aaf-8644-719210cfc8d5"},"vehicle_type_id":"4","last_reported":1748506467,"current_range_meters":17600,"station_id":"ce4bhjp2rcd13ifvqg90","pricing_plan_id":"cebpf4jnsgd1na2vs0mg"},{"bike_id":"16f8c46e-dbc6-4ab1-941f-3d93ad546819","system_id":"levelo_inurba_marseille","lat":43.32267,"lon":5.38289,"is_reserved":false,"is_disabled":false,"rental_uris":{"android":"levelo://app?vid=16f8c46e-dbc6-4ab1-941f-3d93ad546819","ios":"levelo://app?vid=16f8c46e-dbc6-4ab1-941f-3d93ad546819"},"vehicle_type_id":"4","last_reported":1748506467,"current_range_meters":17600,"station_id":"ce4bhr12rcd13ifvqhqg","pricing_plan_id":"cebpf4jnsgd1na2vs0mg"},{"bike_id":"7243d7c8-02f5-4392-89cf-8c360e846d55","system_id":"levelo_inurba_marseille","lat":43.25274,"lon":5.37809,"is_reserved":false,"is_disabled":false,"rental_uris":{"android":"levelo://app?vid=7243d7c8-02f5-4392-89cf-8c360e846d55","ios":"levelo://app?vid=7243d7c8-02f5-4392-89cf-8c360e846d55"},"vehicle_type_id":"4","last_reported":1748506467,"current_range_meters":18000,"station_id":"","pricing_plan_id":"cebpf4jnsgd1na2vs0mg"},{"bike_id":"c4d26474-6266-429e-b3cc-089a07206404","system_id":"levelo_inurba_marseille","lat":43.28205,"lon":5.39036,"is_reserved":false,"is_disabled":false,"rental_uris":{"android":"levelo://app?vid=c4d26474-6266-429e-b3cc-089a07206404","ios":"levelo://app?vid=c4d26474-6266-429e-b3cc-089a07206404"},"vehicle_type_id":"4","last_reported":1748506467,"current_range_meters":18000,"station_id":"","pricing_plan_id":"cebpf4jnsgd1na2vs0mg"},{"bike_id":"9e077e27-33c0-4331-96cc-ce43f93f1c2b","system_id":"levelo_inurba_marseille","lat":43.26717,"lon":5.37196,"is_reserved":false,"is_disabled":false,"rental_uris":{"android":"levelo://app?vid=9e077e27-33c0-4331-96cc-ce43f93f1c2b","ios":"levelo://app?vid=9e077e27-33c0-4331-96cc-ce43f93f1c2b"},"vehicle_type_id":"4","last_reported":1748506467,"current_range_meters":18000,"station_id":"","pricing_plan_id":"cebpf4jnsgd1na2vs0mg"},{"bike_id":"9d7f5467-8060-4fd8-a149-7bfedb3e803a","system_id":"levelo_inurba_marseille","lat":43.30656,"lon":5.4002,"is_reserved":false,"is_disabled":false,"rental_uris":{"android":"levelo://app?vid=9d7f5467-8060-4fd8-a149-7bfedb3e803a","ios":"levelo://app?vid=9d7f5467-8060-4fd8-a149-7bfedb3e803a"},"vehicle_type_id":"4","last_reported":1748506467,"current_range_meters":18000,"station_id":"","pricing_plan_id":"cebpf4jnsgd1na2vs0mg"},{"bike_id":"59bec336-e3bd-4ec7-9219-23ffe964ce73","system_id":"levelo_inurba_marseille","lat":43.29564,"lon":5.37522,"is_reserved":false,"is_disabled":false,"rental_uris":{"android":"levelo://app?vid=59bec336-e3bd-4ec7-9219-23ffe964ce73","ios":"levelo://app?vid=59bec336-e3bd-4ec7-9219-23ffe964ce73"},"vehicle_type_id":"4","last_reported":1748506467,"current_range_meters":18000,"station_id":"ce4bgh92rcd13ifvqb50","pricing_plan_id":"cebpf4jnsgd1na2vs0mg"},{"bike_id":"de2606a7-bddc-4019-967e-59fff3c7d2c6","system_id":"levelo_inurba_marseille","lat":43.2952,"lon":5.37521,"is_reserved":false,"is_disabled":false,"rental_uris":{"android":"levelo://app?vid=de2606a7-bddc-4019-967e-59fff3c7d2c6","ios":"levelo://app?vid=de2606a7-bddc-4019-967e-59fff3c7d2c6"},"vehicle_type_id":"4","last_reported":1748506467,"current_range_meters":18000,"station_id":"ce4bgkp2rcd13ifvqbmg","pricing_plan_id":"cebpf4jnsgd1na2vs0mg"},{"bike_id":"a9d68b97-78f6-4b27-b61f-dac456c7ebb9","system_id":"levelo_inurba_marseille","lat":43.30933,"lon":5.40147,"is_reserved":false,"is_disabled":false,"rental_uris":{"android":"levelo://app?vid=a9d68b97-78f6-4b27-b61f-dac456c7ebb9","ios":"levelo://app?vid=a9d68b97-78f6-4b27-b61f-dac456c7ebb9"},"vehicle_type_id":"4","last_reported":1748506467,"current_range_meters":18000,"station_id":"ce4bgvp2rcd13ifvqct0","pricing_plan_id":"cebpf4jnsgd1na2vs0mg"},{"bike_id":"3b063e0b-b5d5-4c3b-9986-fba368f53c41","system_id":"levelo_inurba_marseille","lat":43.28621,"lon":5.35061,"is_reserved":false,"is_disabled":false,"rental_uris":{"android":"levelo://app?vid=3b063e0b-b5d5-4c3b-9986-fba368f53c41","ios":"levelo://app?vid=3b063e0b-b5d5-4c3b-9986-fba368f53c41"},"vehicle_type_id":"4","last_reported":1748506467,"current_range_meters":18000,"station_id":"ce4bhch2rcd13ifvqeug","pricing_plan_id":"cebpf4jnsgd1na2vs0mg"},{"bike_id":"f479ed29-902c-4119-8a78-6f078589c8b8","system_id":"levelo_inurba_marseille","lat":43.26046,"lon":5.3755,"is_reserved":false,"is_disabled":false,"rental_uris":{"android":"levelo://app?vid=f479ed29-902c-4119-8a78-6f078589c8b8","ios":"levelo://app?vid=f479ed29-902c-4119-8a78-6f078589c8b8"},"vehicle_type_id":"4","last_reported":1748506467,"current_range_meters":18000,"station_id":"ce4bhgh2rcd13ifvqfa0","pricing_plan_id":"cebpf4jnsgd1na2vs0mg"},{"bike_id":"e73c58e5-d539-46fe-92a9-4edd7d2867af","system_id":"levelo_inurba_marseille","lat":43.28434,"lon":5.39186,"is_reserved":false,"is_disabled":false,"rental_uris":{"android":"levelo://app?vid=e73c58e5-d539-46fe-92a9-4edd7d2867af","ios":"levelo://app?vid=e73c58e5-d539-46fe-92a9-4edd7d2867af"},"vehicle_type_id":"4","last_reported":1748506467,"current_range_meters":18000,"station_id":"ce4bhoh2rcd13ifvqh5g","pricing_plan_id":"cebpf4jnsgd1na2vs0mg"},{"bike_id":"b9fc76d8-1bdf-48f3-84a2-3e91d9ed74dc","system_id":"levelo_inurba_marseille","lat":43.30796,"lon":5.435331,"is_reserved":false,"is_disabled":false,"rental_uris":{"android":"levelo://app?vid=b9fc76d8-1bdf-48f3-84a2-3e91d9ed74dc","ios":"levelo://app?vid=b9fc76d8-1bdf-48f3-84a2-3e91d9ed74dc"},"vehicle_type_id":"4","last_reported":1748506467,"current_range_meters":18000,"station_id":"ce4bhph2rcd13ifvqheg","pricing_plan_id":"cebpf4jnsgd1na2vs0mg"},{"bike_id":"c1fe417f-2f0f-4b99-a6b4-c44acd65845f","system_id":"levelo_inurba_marseille","lat":43.33112,"lon":5.385144,"is_reserved":false,"is_disabled":false,"rental_uris":{"android":"levelo://app?vid=c1fe417f-2f0f-4b99-a6b4-c44acd65845f","ios":"levelo://app?vid=c1fe417f-2f0f-4b99-a6b4-c44acd65845f"},"vehicle_type_id":"4","last_reported":1748506467,"current_range_meters":18800,"station_id":"","pricing_plan_id":"cebpf4jnsgd1na2vs0mg"},{"bike_id":"f9abf37b-8d3b-4b42-a6ff-3b3de38fc206","system_id":"levelo_inurba_marseille","lat":43.29881,"lon":5.3974,"is_reserved":false,"is_disabled":false,"rental_uris":{"android":"levelo://app?vid=f9abf37b-8d3b-4b42-a6ff-3b3de38fc206","ios":"levelo://app?vid=f9abf37b-8d3b-4b42-a6ff-3b3de38fc206"},"vehicle_type_id":"4","last_reported":1748506467,"current_range_meters":18800,"station_id":"ce4bh0h2rcd13ifvqd50","pricing_plan_id":"cebpf4jnsgd1na2vs0mg"},{"bike_id":"bec9d18a-f639-4cdd-875e-f69d1aa5dc24","system_id":"levelo_inurba_marseille","lat":43.29044,"lon":5.3995,"is_reserved":false,"is_disabled":false,"rental_uris":{"android":"levelo://app?vid=bec9d18a-f639-4cdd-875e-f69d1aa5dc24","ios":"levelo://app?vid=bec9d18a-f639-4cdd-875e-f69d1aa5dc24"},"vehicle_type_id":"4","last_reported":1748506467,"current_range_meters":18800,"station_id":"ce4bh392rcd13ifvqdm0","pricing_plan_id":"cebpf4jnsgd1na2vs0mg"},{"bike_id":"8f8ce0ba-7e88-43a9-8c9d-d4561aad4345","system_id":"levelo_inurba_marseille","lat":43.29004,"lon":5.35617,"is_reserved":false,"is_disabled":false,"rental_uris":{"android":"levelo://app?vid=8f8ce0ba-7e88-43a9-8c9d-d4561aad4345","ios":"levelo://app?vid=8f8ce0ba-7e88-43a9-8c9d-d4561aad4345"},"vehicle_type_id":"4","last_reported":1748506467,"current_range_meters":18800,"station_id":"ce4bhb92rcd13ifvqen0","pricing_plan_id":"cebpf4jnsgd1na2vs0mg"},{"bike_id":"5efe992b-0ec8-4c93-8b9d-910ce57ce213","system_id":"levelo_inurba_marseille","lat":43.24385,"lon":5.370563,"is_reserved":false,"is_disabled":false,"rental_uris":{"android":"levelo://app?vid=5efe992b-0ec8-4c93-8b9d-910ce57ce213","ios":"levelo://app?vid=5efe992b-0ec8-4c93-8b9d-910ce57ce213"},"vehicle_type_id":"4","last_reported":1748506467,"current_range_meters":18800,"station_id":"ce4bhhh2rcd13ifvqfk0","pricing_plan_id":"cebpf4jnsgd1na2vs0mg"},{"bike_id":"9197fbe5-4732-425c-ac35-6e66ef01eb1e","system_id":"levelo_inurba_marseille","lat":43.24395,"lon":5.37049,"is_reserved":false,"is_disabled":false,"rental_uris":{"android":"levelo://app?vid=9197fbe5-4732-425c-ac35-6e66ef01eb1e","ios":"levelo://app?vid=9197fbe5-4732-425c-ac35-6e66ef01eb1e"},"vehicle_type_id":"4","last_reported":1748506467,"current_range_meters":18800,"station_id":"ce4bhhh2rcd13ifvqfk0","pricing_plan_id":"cebpf4jnsgd1na2vs0mg"},{"bike_id":"93bc4eaf-1b05-41ee-a4a0-ae0ee2f9516e","system_id":"levelo_inurba_marseille","lat":43.25102,"lon":5.40323,"is_reserved":false,"is_disabled":false,"rental_uris":{"android":"levelo://app?vid=93bc4eaf-1b05-41ee-a4a0-ae0ee2f9516e","ios":"levelo://app?vid=93bc4eaf-1b05-41ee-a4a0-ae0ee2f9516e"},"vehicle_type_id":"4","last_reported":1748506467,"current_range_meters":18800,"station_id":"ce4bhlh2rcd13ifvqgig","pricing_plan_id":"cebpf4jnsgd1na2vs0mg"},{"bike_id":"da990dcb-4bfa-4fbb-85a7-420225f26d7c","system_id":"levelo_inurba_marseille","lat":43.32323,"lon":5.40619,"is_reserved":false,"is_disabled":false,"rental_uris":{"android":"levelo://app?vid=da990dcb-4bfa-4fbb-85a7-420225f26d7c","ios":"levelo://app?vid=da990dcb-4bfa-4fbb-85a7-420225f26d7c"},"vehicle_type_id":"4","last_reported":1748506467,"current_range_meters":18800,"station_id":"ce4bhq92rcd13ifvqhjg","pricing_plan_id":"cebpf4jnsgd1na2vs0mg"},{"bike_id":"ae01f917-250c-42ba-8ff7-20f61fb31c07","system_id":"levelo_inurba_marseille","lat":43.32279,"lon":5.38251,"is_reserved":false,"is_disabled":false,"rental_uris":{"android":"levelo://app?vid=ae01f917-250c-42ba-8ff7-20f61fb31c07","ios":"levelo://app?vid=ae01f917-250c-42ba-8ff7-20f61fb31c07"},"vehicle_type_id":"4","last_reported":1748506467,"current_range_meters":18800,"station_id":"ce4bhr12rcd13ifvqhqg","pricing_plan_id":"cebpf4jnsgd1na2vs0mg"},{"bike_id":"999eb41a-e382-4270-a80b-768df394cd56","system_id":"levelo_inurba_marseille","lat":43.292806,"lon":5.401315,"is_reserved":false,"is_disabled":false,"rental_uris":{"android":"levelo://app?vid=999eb41a-e382-4270-a80b-768df394cd56","ios":"levelo://app?vid=999eb41a-e382-4270-a80b-768df394cd56"},"vehicle_type_id":"4","last_reported":1748506467,"current_range_meters":19200,"station_id":"ce4bh312rcd13ifvqdk0","pricing_plan_id":"cebpf4jnsgd1na2vs0mg"},{"bike_id":"8243f1f8-3521-48cb-8a51-1fa59f512280","system_id":"levelo_inurba_marseille","lat":43.280421,"lon":5.369486,"is_reserved":false,"is_disabled":false,"rental_uris":{"android":"levelo://app?vid=8243f1f8-3521-48cb-8a51-1fa59f512280","ios":"levelo://app?vid=8243f1f8-3521-48cb-8a51-1fa59f512280"},"vehicle_type_id":"4","last_reported":1748506467,"current_range_meters":19200,"station_id":"ce4bha12rcd13ifvqef0","pricing_plan_id":"cebpf4jnsgd1na2vs0mg"},{"bike_id":"d353ae86-609b-4d3c-ad13-f2c27e44bca5","system_id":"levelo_inurba_marseille","lat":43.28619,"lon":5.35082,"is_reserved":false,"is_disabled":false,"rental_uris":{"android":"levelo://app?vid=d353ae86-609b-4d3c-ad13-f2c27e44bca5","ios":"levelo://app?vid=d353ae86-609b-4d3c-ad13-f2c27e44bca5"},"vehicle_type_id":"4","last_reported":1748506467,"current_range_meters":19200,"station_id":"ce4bhch2rcd13ifvqeug","pricing_plan_id":"cebpf4jnsgd1na2vs0mg"},{"bike_id":"bc51bfd4-ef6c-4086-b83f-bcb7ddeeae3a","system_id":"levelo_inurba_marseille","lat":43.26571,"lon":5.39009,"is_reserved":false,"is_disabled":false,"rental_uris":{"android":"levelo://app?vid=bc51bfd4-ef6c-4086-b83f-bcb7ddeeae3a","ios":"levelo://app?vid=bc51bfd4-ef6c-4086-b83f-bcb7ddeeae3a"},"vehicle_type_id":"4","last_reported":1748506467,"current_range_meters":19200,"station_id":"ce4bhe12rcd13ifvqf30","pricing_plan_id":"cebpf4jnsgd1na2vs0mg"},{"bike_id":"1b302f31-eb47-4dad-9b1e-3156831a79aa","system_id":"levelo_inurba_marseille","lat":43.27939,"lon":5.41041,"is_reserved":false,"is_disabled":false,"rental_uris":{"android":"levelo://app?vid=1b302f31-eb47-4dad-9b1e-3156831a79aa","ios":"levelo://app?vid=1b302f31-eb47-4dad-9b1e-3156831a79aa"},"vehicle_type_id":"4","last_reported":1748506467,"current_range_meters":19200,"station_id":"ce4bhnp2rcd13ifvqh0g","pricing_plan_id":"cebpf4jnsgd1na2vs0mg"},{"bike_id":"12fb6655-991b-4561-99ed-737b85e43a99","system_id":"levelo_inurba_marseille","lat":43.307325,"lon":5.424546,"is_reserved":false,"is_disabled":false,"rental_uris":{"android":"levelo://app?vid=12fb6655-991b-4561-99ed-737b85e43a99","ios":"levelo://app?vid=12fb6655-991b-4561-99ed-737b85e43a99"},"vehicle_type_id":"4","last_reported":1748506467,"current_range_meters":19200,"station_id":"st_cvj6ca6bvosntc0bfgr0","pricing_plan_id":"cebpf4jnsgd1na2vs0mg"},{"bike_id":"502b1051-0bae-4a23-bcbf-a876bfe3288a","system_id":"levelo_inurba_marseille","lat":43.31282,"lon":5.38241,"is_reserved":false,"is_disabled":false,"rental_uris":{"android":"levelo://app?vid=502b1051-0bae-4a23-bcbf-a876bfe3288a","ios":"levelo://app?vid=502b1051-0bae-4a23-bcbf-a876bfe3288a"},"vehicle_type_id":"4","last_reported":1748506467,"current_range_meters":19600,"station_id":"","pricing_plan_id":"cebpf4jnsgd1na2vs0mg"},{"bike_id":"d27ee93f-776e-4f83-9aea-9ac5fbe19ad8","system_id":"levelo_inurba_marseille","lat":43.30195,"lon":5.38093,"is_reserved":false,"is_disabled":false,"rental_uris":{"android":"levelo://app?vid=d27ee93f-776e-4f83-9aea-9ac5fbe19ad8","ios":"levelo://app?vid=d27ee93f-776e-4f83-9aea-9ac5fbe19ad8"},"vehicle_type_id":"4","last_reported":1748506467,"current_range_meters":19600,"station_id":"","pricing_plan_id":"cebpf4jnsgd1na2vs0mg"},{"bike_id":"ec0ebdf9-cb53-48e7-81b4-04ea0281e16f","system_id":"levelo_inurba_marseille","lat":43.293,"lon":5.37167,"is_reserved":false,"is_disabled":false,"rental_uris":{"android":"levelo://app?vid=ec0ebdf9-cb53-48e7-81b4-04ea0281e16f","ios":"levelo://app?vid=ec0ebdf9-cb53-48e7-81b4-04ea0281e16f"},"vehicle_type_id":"4","last_reported":1748506467,"current_range_meters":19600,"station_id":"ce4bgh92rcd13ifvqb40","pricing_plan_id":"cebpf4jnsgd1na2vs0mg"},{"bike_id":"b2fc495a-2d6a-432e-bd16-83b2da073c4d","system_id":"levelo_inurba_marseille","lat":43.27913,"lon":5.39575,"is_reserved":false,"is_disabled":false,"rental_uris":{"android":"levelo://app?vid=b2fc495a-2d6a-432e-bd16-83b2da073c4d","ios":"levelo://app?vid=b2fc495a-2d6a-432e-bd16-83b2da073c4d"},"vehicle_type_id":"4","last_reported":1748506467,"current_range_meters":19600,"station_id":"ce4bhf92rcd13ifvqf40","pricing_plan_id":"cebpf4jnsgd1na2vs0mg"},{"bike_id":"aac9bfdc-4e9a-477e-b684-02fdb0c182eb","system_id":"levelo_inurba_marseille","lat":43.303538,"lon":5.418788,"is_reserved":false,"is_disabled":false,"rental_uris":{"android":"levelo://app?vid=aac9bfdc-4e9a-477e-b684-02fdb0c182eb","ios":"levelo://app?vid=aac9bfdc-4e9a-477e-b684-02fdb0c182eb"},"vehicle_type_id":"4","last_reported":1748506467,"current_range_meters":19600,"station_id":"ce4bhop2rcd13ifvqh7g","pricing_plan_id":"cebpf4jnsgd1na2vs0mg"},{"bike_id":"5aefb386-e416-4906-998c-ff23207edc6c","system_id":"levelo_inurba_marseille","lat":43.21748,"lon":5.346015,"is_reserved":false,"is_disabled":false,"rental_uris":{"android":"levelo://app?vid=5aefb386-e416-4906-998c-ff23207edc6c","ios":"levelo://app?vid=5aefb386-e416-4906-998c-ff23207edc6c"},"vehicle_type_id":"4","last_reported":1748506467,"current_range_meters":19600,"station_id":"st_cvj6r9ubvosntc0bgbag","pricing_plan_id":"cebpf4jnsgd1na2vs0mg"},