{"last_updated":1757848005,"ttl":60,"version":"2.2","data":{"bikes":[{"bike_id":"f30d1420-045b-4420-91b3-919cf5fd9e83","system_id":"levelo_inurba_marseille","lat":43.29514,"lon":5.37509,"is_reserved":false,"is_disabled":false,"rental_uris":{"android":"levelo://app?vid=f30d1420-045b-4420-91b3-919cf5fd9e83","ios":"levelo://app?vid=f30d1420-045b-4420-91b3-919cf5fd9e83"},"vehicle_type_id":"4","last_reported":1757848005,"current_range_meters":2800,"station_id":"ce4bgkp2rcd13ifvqbmg","pricing_plan_id":"cebpf4jnsgd1na2vs0mg"},{"bike_id":"359b452d-ec85-456d-8fb2-69852166d7c4","system_id":"levelo_inurba_marseille","lat":43.25336,"lon":5.42161,"is_reserved":false,"is_disabled":false,"rental_uris":{"android":"levelo://app?vid=359b452d-ec85-456d-8fb2-69852166d7c4","ios":"levelo://app?vid=359b452d-ec85-456d-8fb2-69852166d7c4"},"vehicle_type_id":"4","last_reported":1757848005,"current_range_meters":2800,"station_id":"st_d2m65c5bi1j21697t3ng","pricing_plan_id":"cebpf4jnsgd1na2vs0mg"},{"bike_id":"fe5f8d91-598d-4732-9616-0127865849cc","system_id":"levelo_inurba_marseille","lat":43.21205,"lon":5.35062,"is_reserved":false,"is_disabled":false,"rental_uris":{"android":"levelo://app?vid=fe5f8d91-598d-4732-9616-0127865849cc","ios":"levelo://app?vid=fe5f8d91-598d-4732-9616-0127865849cc"},"vehicle_type_id":"4","last_reported":1757848005,"current_range_meters":2800,"station_id":"st_cvj6sg6p6f1abm77japg","pricing_plan_id":"cebpf4jnsgd1na2vs0mg"},{"bike_id":"90c26458-610d-48f8-8d24-9c33331c28cf","system_id":"levelo_inurba_marseille","lat":43.21195,"lon":5.35071,"is_reserved":false,"is_disabled":false,"rental_uris":{"android":"levelo://app?vid=90c26458-610d-48f8-8d24-9c33331c28cf","ios":"levelo://app?vid=90c26458-610d-48f8-8d24-9c33331c28cf"},"vehicle_type_id":"4","last_reported":1757848005,"current_range_meters":2800,"station_id":"st_cvj6sg6p6f1abm77japg","pricing_plan_id":"cebpf4jnsgd1na2vs0mg"},{"bike_id":"5def5613-a8f3-4578-8f1c-0cc68ac57a36","system_id":"levelo_inurba_marseille","lat":43.29876,"lon":5.38902,"is_reserved":false,"is_disabled":false,"rental_uris":{"android":"levelo://app?vid=5def5613-a8f3-4578-8f1c-0cc68ac57a36","ios":"levelo://app?vid=5def5613-a8f3-4578-8f1c-0cc68ac57a36"},"vehicle_type_id":"4","last_reported":1757848005,"current_range_meters":3200,"station_id":"ce4bh392rcd13ifvqdl0","pricing_plan_id":"cebpf4jnsgd1na2vs0mg"},{"bike_id":"3e11eabc-7fdf-4699-b021-63fdbb422e15","system_id":"levelo_inurba_marseille","lat":43.285858,"lon":5.360423,"is_reserved":false,"is_disabled":false,"rental_uris":{"android":"levelo://app?vid=3e11eabc-7fdf-4699-b021-63fdbb422e15","ios":"levelo://app?vid=3e11eabc-7fdf-4699-b021-63fdbb422e15"},"vehicle_type_id":"4","last_reported":1757848005,"current_range_meters":3200,"station_id":"cpo36qri1sfpv3e86is0","pricing_plan_id":"cebpf4jnsgd1na2vs0mg"},{"bike_id":"c3a19339-4a49-4758-8eed-ca5d841843e0","system_id":"levelo_inurba_marseille","lat":43.32367,"lon":5.38886,"is_reserved":false,"is_disabled":false,"rental_uris":{"android":"levelo://app?vid=c3a19339-4a49-4758-8eed-ca5d841843e0","ios":"levelo://app?vid=c3a19339-4a49-4758-8eed-ca5d841843e0"},"vehicle_type_id":"4","last_reported":1757848005,"current_range_meters":3200,"station_id":"ce4bhqp2rcd13ifvqhog","pricing_plan_id":"cebpf4jnsgd1na2vs0mg"},{"bike_id":"a05fdb49-e038-4a84-8ea1-52f3eaaf07b1","system_id":"levelo_inurba_marseille","lat":43.22553,"lon":5.41641,"is_reserved":false,"is_disabled":false,"rental_uris":{"android":"levelo://app?vid=a05fdb49-e038-4a84-8ea1-52f3eaaf07b1","ios":"levelo://app?vid=a05fdb49-e038-4a84-8ea1-52f3eaaf07b1"},"vehicle_type_id":"4","last_reported":1757848005,"current_range_meters":3600,"station_id":"st_d2o4gvlbi1j2169b742g","pricing_plan_id":"cebpf4jnsgd1na2vs0mg"},{"bike_id":"c154a85c-20ec-498b-bf7a-187eaf1ebf74","system_id":"levelo_inurba_marseille","lat":43.29178,"lon":5.35799,"is_reserved":false,"is_disabled":false,"rental_uris":{"android":"levelo://app?vid=c154a85c-20ec-498b-bf7a-187eaf1ebf74","ios":"levelo://app?vid=c154a85c-20ec-498b-bf7a-187eaf1ebf74"},"vehicle_type_id":"4","last_reported":1757848005,"current_range_meters":3600,"station_id":"ce4bhb12rcd13ifvqel0","pricing_plan_id":"cebpf4jnsgd1na2vs0mg"},{"bike_id":"7d7b03c9-f46f-4377-b089-b2019aae399f","system_id":"levelo_inurba_marseille","lat":43.231812,"lon":5.399823,"is_reserved":false,"is_disabled":false,"rental_uris":{"android":"levelo://app?vid=7d7b03c9-f46f-4377-b089-b2019aae399f","ios":"levelo://app?vid=7d7b03c9-f46f-4377-b089-b2019aae399f"},"vehicle_type_id":"4","last_reported":1757848005,"current_range_meters":3600,"station_id":"ce4bhn12rcd13ifvqgqg","pricing_plan_id":"cebpf4jnsgd1na2vs0mg"},{"bike_id":"89ad6468-6605-41a6-85b8-ffdf4abf5184","system_id":"levelo_inurba_marseille","lat":43.30545,"lon":5.36565,"is_reserved":false,"is_disabled":false,"rental_uris":{"android":"levelo://app?vid=89ad6468-6605-41a6-85b8-ffdf4abf5184","ios":"levelo://app?vid=89ad6468-6605-41a6-85b8-ffdf4abf5184"},"vehicle_type_id":"4","last_reported":1757848005,"current_range_meters":3600,"station_id":"ce4bgs12rcd13ifvqcag","pricing_plan_id":"cebpf4jnsgd1na2vs0mg"},{"bike_id":"177816d4-6168-41b9-a918-b7cbc6c3333b","system_id":"levelo_inurba_marseille","lat":43.243889,"lon":5.370624,"is_reserved":false,"is_disabled":false,"rental_uris":{"android":"levelo://app?vid=177816d4-6168-41b9-a918-b7cbc6c3333b","ios":"levelo://app?vid=177816d4-6168-41b9-a918-b7cbc6c3333b"},"vehicle_type_id":"4","last_reported":1757848005,"current_range_meters":3600,"station_id":"ce4bhhh2rcd13ifvqfk0","pricing_plan_id":"cebpf4jnsgd1na2vs0mg"},{"bike_id":"93c3e98d-dff8-4dbe-9435-5a40fd1e0651","system_id":"levelo_inurba_marseille","lat":43.26556,"lon":5.37284,"is_reserved":false,"is_disabled":false,"rental_uris":{"android":"levelo://app?vid=93c3e98d-dff8-4dbe-9435-5a40fd1e0651","ios":"levelo://app?vid=93c3e98d-dff8-4dbe-9435-5a40fd1e0651"},"vehicle_type_id":"4","last_reported":1757848005,"current_range_meters":4000,"station_id":"ce4bhg12rcd13ifvqf70","pricing_plan_id":"cebpf4jnsgd1na2vs0mg"},{"bike_id":"b6ffeef1-fc61-4023-9ee5-2f76a5810deb","system_id":"levelo_inurba_marseille","lat":43.21748,"lon":5.34598,"is_reserved":false,"is_disabled":false,"rental_uris":{"android":"levelo://app?vid=b6ffeef1-fc61-4023-9ee5-2f76a5810deb","ios":"levelo://app?vid=b6ffeef1-fc61-4023-9ee5-2f76a5810deb"},"vehicle_type_id":"4","last_reported":1757848005,"current_range_meters":4000,"station_id":"st_cvj6r9ubvosntc0bgbag","pricing_plan_id":"cebpf4jnsgd1na2vs0mg"},{"bike_id":"fbc9d6df-4c10-49b1-9635-a85b904ab99e","system_id":"levelo_inurba_marseille","lat":43.29301,"lon":5.37459,"is_reserved":false,"is_disabled":false,"rental_uris":{"android":"levelo://app?vid=fbc9d6df-4c10-49b1-9635-a85b904ab99e","ios":"levelo://app?vid=fbc9d6df-4c10-49b1-9635-a85b904ab99e"},"vehicle_type_id":"4","last_reported":1757848005,"current_range_meters":3600,"station_id":"ce4bgi12rcd13ifvqb70","pricing_plan_id":"cebpf4jnsgd1na2vs0mg"},{"bike_id":"6a5ca146-0047-4a1a-a54c-3fad7a2a1821","system_id":"levelo_inurba_marseille","lat":43.32368,"lon":5.36767,"is_reserved":false,"is_disabled":false,"rental_uris":{"android":"levelo://app?vid=6a5ca146-0047-4a1a-a54c-3fad7a2a1821","ios":"levelo://app?vid=6a5ca146-0047-4a1a-a54c-3fad7a2a1821"},"vehicle_type_id":"4","last_reported":1757848005,"current_range_meters":4000,"station_id":"ce4bhsh2rcd13ifvqi2g","pricing_plan_id":"cebpf4jnsgd1na2vs0mg"},{"bike_id":"3d78301d-e0c4-459b-9999-bb19bd2df99c","system_id":"levelo_inurba_marseille","lat":43.23961,"lon":5.36641,"is_reserved":false,"is_disabled":true,"rental_uris":{"android":"levelo://app?vid=3d78301d-e0c4-459b-9999-bb19bd2df99c","ios":"levelo://app?vid=3d78301d-e0c4-459b-9999-bb19bd2df99c"},"vehicle_type_id":"4","last_reported":1757848005,"current_range_meters":4400,"station_id":"ce4bhi12rcd13ifvqfp0","pricing_plan_id":"cebpf4jnsgd1na2vs0mg"},{"bike_id":"3bd595b7-af3b-43b1-8697-1bcb2a61af6f","system_id":"levelo_inurba_marseille","lat":43.27996,"lon":5.4002,"is_reserved":false,"is_disabled":true,"rental_uris":{"android":"levelo://app?vid=3bd595b7-af3b-43b1-8697-1bcb2a61af6f","ios":"levelo://app?vid=3bd595b7-af3b-43b1-8697-1bcb2a61af6f"},"vehicle_type_id":"4","last_reported":1757848005,"current_range_meters":4800,"station_id":"ce4bho92rcd13ifvqh4g","pricing_plan_id":"cebpf4jnsgd1na2vs0mg"},{"bike_id":"edcb19c0-6c53-4f32-aa7c-0d6200fb81a8","system_id":"levelo_inurba_marseille","lat":43.28715,"lon":5.37941,"is_reserved":false,"is_disabled":false,"rental_uris":{"android":"levelo://app?vid=edcb19c0-6c53-4f32-aa7c-0d6200fb81a8","ios":"levelo://app?vid=edcb19c0-6c53-4f32-aa7c-0d6200fb81a8"},"vehicle_type_id":"4","last_reported":1757848005,"current_range_meters":4800,"station_id":"ce4bh9p2rcd13ifvqec0","pricing_plan_id":"cebpf4jnsgd1na2vs0mg"},{"bike_id":"972b4c5f-3a00-4bb2-9116-b81f2cecc9f2","system_id":"levelo_inurba_marseille","lat":43.33764,"lon":5.37483,"is_reserved":false,"is_disabled":false,"rental_uris":{"android":"levelo://app?vid=972b4c5f-3a00-4bb2-9116-b81f2cecc9f2","ios":"levelo://app?vid=972b4c5f-3a00-4bb2-9116-b81f2cecc9f2"},"vehicle_type_id":"4","last_reported":1757848005,"current_range_meters":4800,"station_id":"","pricing_plan_id":"cebpf4jnsgd1na2vs0mg"},{"bike_id":"49526d33-b4c3-494a-82c5-cd1c0b0076e2","system_id":"levelo_inurba_marseille","lat":43.28102,"lon":5.37838,"is_reserved":false,"is_disabled":false,"rental_uris":{"android":"levelo://app?vid=49526d33-b4c3-494a-82c5-cd1c0b0076e2","ios":"levelo://app?vid=49526d33-b4c3-494a-82c5-cd1c0b0076e2"},"vehicle_type_id":"4","last_reported":1757848005,"current_range_meters":4800,"station_id":"ce4bha12rcd13ifvqee0","pricing_plan_id":"cebpf4jnsgd1na2vs0mg"},{"bike_id":"a3977072-5f91-4a68-b0d6-dc3cb909a337","system_id":"levelo_inurba_marseille","lat":43.337698,"lon":5.37481,"is_reserved":false,"is_disabled":false,"rental_uris":{"android":"levelo://app?vid=a3977072-5f91-4a68-b0d6-dc3cb909a337","ios":"levelo://app?vid=a3977072-5f91-4a68-b0d6-dc3cb909a337"},"vehicle_type_id":"4","last_reported":1757848005,"current_range_meters":5600,"station_id":"","pricing_plan_id":"cebpf4jnsgd1na2vs0mg"},{"bike_id":"e16d9f4b-76b3-42e8-8f97-2b013296f322","system_id":"levelo_inurba_marseille","lat":43.26556,"lon":5.37288,"is_reserved":false,"is_disabled":true,"rental_uris":{"android":"levelo://app?vid=e16d9f4b-76b3-42e8-8f97-2b013296f322","ios":"levelo://app?vid=e16d9f4b-76b3-42e8-8f97-2b013296f322"},"vehicle_type_id":"4","last_reported":1757848005,"current_range_meters":5600,"station_id":"ce4bhg12rcd13ifvqf70","pricing_plan_id":"cebpf4jnsgd1na2vs0mg"},{"bike_id":"036cd14a-0e48-4cc1-881e-ca4e5b78b02e","system_id":"levelo_inurba_marseille","lat":43.281,"lon":5.37839,"is_reserved":false,"is_disabled":false,"rental_uris":{"android":"levelo://app?vid=036cd14a-0e48-4cc1-881e-ca4e5b78b02e","ios":"levelo://app?vid=036cd14a-0e48-4cc1-881e-ca4e5b78b02e"},"vehicle_type_id":"4","last_reported":1757848005,"current_range_meters":4800,"station_id":"ce4bha12rcd13ifvqee0","pricing_plan_id":"cebpf4jnsgd1na2vs0mg"},{"bike_id":"9881906b-035f-4e39-b469-2fa1d0d1a212","system_id":"levelo_inurba_marseille","lat":43.211898,"lon":5.350731,"is_reserved":false,"is_disabled":false,"rental_uris":{"android":"levelo://app?vid=9881906b-035f-4e39-b469-2fa1d0d1a212","ios":"levelo://app?vid=9881906b-035f-4e39-b469-2fa1d0d1a212"},"vehicle_type_id":"4","last_reported":1757848005,"current_range_meters":5600,"station_id":"st_cvj6sg6p6f1abm77japg","pricing_plan_id":"cebpf4jnsgd1na2vs0mg"},{"bike_id":"da767a1f-036f-4a09-b739-7a35a74d460f","system_id":"levelo_inurba_marseille","lat":43.29591,"lon":5.3749,"is_reserved":false,"is_disabled":false,"rental_uris":{"android":"levelo://app?vid=da767a1f-036f-4a09-b739-7a35a74d460f","ios":"levelo://app?vid=da767a1f-036f-4a09-b739-7a35a74d460f"},"vehicle_type_id":"4","last_reported":1757848005,"current_range_meters":6000,"station_id":"ce4bgh92rcd13ifvqb50","pricing_plan_id":"cebpf4jnsgd1na2vs0mg"},{"bike_id":"775af279-8ac9-4585-9121-809be9b13265","system_id":"levelo_inurba_marseille","lat":43.337775,"lon":5.374412,"is_reserved":false,"is_disabled":false,"rental_uris":{"android":"levelo://app?vid=775af279-8ac9-4585-9121-809be9b13265","ios":"levelo://app?vid=775af279-8ac9-4585-9121-809be9b13265"},"vehicle_type_id":"4","last_reported":1757848005,"current_range_meters":6400,"station_id":"","pricing_plan_id":"cebpf4jnsgd1na2vs0mg"},{"bike_id":"560f0c41-0476-4572-8a30-ddd66d296c5f","system_id":"levelo_inurba_marseille","lat":43.2407,"lon":5.37761,"is_reserved":false,"is_disabled":false,"rental_uris":{"android":"levelo://app?vid=560f0c41-0476-4572-8a30-ddd66d296c5f","ios":"levelo://app?vid=560f0c41-0476-4572-8a30-ddd66d296c5f"},"vehicle_type_id":"4","last_reported":1757848005,"current_range_meters":6400,"station_id":"ce4bhnp2rcd13ifvqgvg","pricing_plan_id":"cebpf4jnsgd1na2vs0mg"},{"bike_id":"fd023a40-d69c-4361-9109-4126162693f0","system_id":"levelo_inurba_marseille","lat":43.27847,"lon":5.37816,"is_reserved":false,"is_disabled":false,"rental_uris":{"android":"levelo://app?vid=fd023a40-d69c-4361-9109-4126162693f0","ios":"levelo://app?vid=fd023a40-d69c-4361-9109-4126162693f0"},"vehicle_type_id":"4","last_reported":1757848005,"current_range_meters":6800,"station_id":"","pricing_plan_id":"cebpf4jnsgd1na2vs0mg"},{"bike_id":"10641387-f3ba-473d-a2a4-874d5ba6417d","system_id":"levelo_inurba_marseille","lat":43.2931,"lon":5.37449,"is_reserved":false,"is_disabled":false,"rental_uris":{"android":"levelo://app?vid=10641387-f3ba-473d-a2a4-874d5ba6417d","ios":"levelo://app?vid=10641387-f3ba-473d-a2a4-874d5ba6417d"},"vehicle_type_id":"4","last_reported":1757848005,"current_range_meters":6800,"station_id":"ce4bgi12rcd13ifvqb70","pricing_plan_id":"cebpf4jnsgd1na2vs0mg"},{"bike_id":"ae2200e0-55fa-4d16-87bf-72ca65d67371","system_id":"levelo_inurba_marseille","lat":43.28382,"lon":5.38476,"is_reserved":false,"is_disabled":true,"rental_uris":{"android":"levelo://app?vid=ae2200e0-55fa-4d16-87bf-72ca65d67371","ios":"levelo://app?vid=ae2200e0-55fa-4d16-87bf-72ca65d67371"},"vehicle_type_id":"4","last_reported":1757848005,"current_range_meters":6800,"station_id":"","pricing_plan_id":"cebpf4jnsgd1na2vs0mg"},{"bike_id":"db20c201-3513-4608-8f13-1374f2c6e6a9","system_id":"levelo_inurba_marseille","lat":43.21197,"lon":5.35068,"is_reserved":false,"is_disabled":false,"rental_uris":{"android":"levelo://app?vid=db20c201-3513-4608-8f13-1374f2c6e6a9","ios":"levelo://app?vid=db20c201-3513-4608-8f13-1374f2c6e6a9"},"vehicle_type_id":"4","last_reported":1757848005,"current_range_meters":6800,"station_id":"st_cvj6sg6p6f1abm77japg","pricing_plan_id":"cebpf4jnsgd1na2vs0mg"},{"bike_id":"6559524e-f324-4e82-8e78-7535e3f080fb","system_id":"levelo_inurba_marseille","lat":43.28844,"lon":5.35321,"is_reserved":false,"is_disabled":false,"rental_uris":{"android":"levelo://app?vid=6559524e-f324-4e82-8e78-7535e3f080fb","ios":"levelo://app?vid=6559524e-f324-4e82-8e78-7535e3f080fb"},"vehicle_type_id":"4","last_reported":1757848005,"current_range_meters":7200,"station_id":"","pricing_plan_id":"cebpf4jnsgd1na2vs0mg"},{"bike_id":"310370f8-5291-4684-b149-337af7a19ae5","system_id":"levelo_inurba_marseille","lat":43.26917,"lon":5.40271,"is_reserved":false,"is_disabled":false,"rental_uris":{"android":"levelo://app?vid=310370f8-5291-4684-b149-337af7a19ae5","ios":"levelo://app?vid=310370f8-5291-4684-b149-337af7a19ae5"},"vehicle_type_id":"4","last_reported":1757848005,"current_range_meters":6800,"station_id":"ce4bhl12rcd13ifvqgf0","pricing_plan_id":"cebpf4jnsgd1na2vs0mg"},{"bike_id":"eaa220fb-5349-44c0-849a-e1e199bab0e0","system_id":"levelo_inurba_marseille","lat":43.304613,"lon":5.367109,"is_reserved":false,"is_disabled":true,"rental_uris":{"android":"levelo://app?vid=eaa220fb-5349-44c0-849a-e1e199bab0e0","ios":"levelo://app?vid=eaa220fb-5349-44c0-849a-e1e199bab0e0"},"vehicle_type_id":"4","last_reported":1757848005,"current_range_meters":8000,"station_id":"","pricing_plan_id":"cebpf4jnsgd1na2vs0mg"},{"bike_id":"df36590f-f7b3-4a55-924e-092f98c09c9d","system_id":"levelo_inurba_marseille","lat":43.22556,"lon":5.41626,"is_reserved":false,"is_disabled":false,"rental_uris":{"android":"levelo://app?vid=df36590f-f7b3-4a55-924e-092f98c09c9d","ios":"levelo://app?vid=df36590f-f7b3-4a55-924e-092f98c09c9d"},"vehicle_type_id":"4","last_reported":1757848005,"current_range_meters":8000,"station_id":"st_d2o4gvlbi1j2169b742g","pricing_plan_id":"cebpf4jnsgd1na2vs0mg"},{"bike_id":"fbcaa5be-76d1-41b1-8be1-f8ff6820e3ae","system_id":"levelo_inurba_marseille","lat":43.32342,"lon":5.40622,"is_reserved":false,"is_disabled":false,"rental_uris":{"android":"levelo://app?vid=fbcaa5be-76d1-41b1-8be1-f8ff6820e3ae","ios":"levelo://app?vid=fbcaa5be-76d1-41b1-8be1-f8ff6820e3ae"},"vehicle_type_id":"4","last_reported":1757848005,"current_range_meters":8000,"station_id":"ce4bhq92rcd13ifvqhjg","pricing_plan_id":"cebpf4jnsgd1na2vs0mg"},{"bike_id":"a24c4696-920b-4645-847f-87e0b46915a6","system_id":"levelo_inurba_marseille","lat":43.32383,"lon":5.4252,"is_reserved":false,"is_disabled":false,"rental_uris":{"android":"levelo://app?vid=a24c4696-920b-4645-847f-87e0b46915a6","ios":"levelo://app?vid=a24c4696-920b-4645-847f-87e0b46915a6"},"vehicle_type_id":"4","last_reported":1757848005,"current_range_meters":8000,"station_id":"","pricing_plan_id":"cebpf4jnsgd1na2vs0mg"},{"bike_id":"0eac0c05-dbf1-4c0b-af6d-53c5df91e290","system_id":"levelo_inurba_marseille","lat":43.29691,"lon":5.37192,"is_reserved":false,"is_disabled":false,"rental_uris":{"android":"levelo://app?vid=0eac0c05-dbf1-4c0b-af6d-53c5df91e290","ios":"levelo://app?vid=0eac0c05-dbf1-4c0b-af6d-53c5df91e290"},"vehicle_type_id":"4","last_reported":1757848005,"current_range_meters":8000,"station_id":"","pricing_plan_id":"cebpf4jnsgd1na2vs0mg"},{"bike_id":"fe8ea19a-9452-430b-9391-4bd937dd3622","system_id":"levelo_inurba_marseille","lat":43.28192,"lon":5.39069,"is_reserved":false,"is_disabled":false,"rental_uris":{"android":"levelo://app?vid=fe8ea19a-9452-430b-9391-4bd937dd3622","ios":"levelo://app?vid=fe8ea19a-9452-430b-9391-4bd937dd3622"},"vehicle_type_id":"4","last_reported":1757848005,"current_range_meters":8000,"station_id":"ce4bhn92rcd13ifvqgsg","pricing_plan_id":"cebpf4jnsgd1na2vs0mg"},{"bike_id":"94f81f39-3c51-4c7c-9f88-5224c18d3bd6","system_id":"levelo_inurba_marseille","lat":43.31881,"lon":5.40737,"is_reserved":false,"is_disabled":false,"rental_uris":{"android":"levelo://app?vid=94f81f39-3c51-4c7c-9f88-5224c18d3bd6","ios":"levelo://app?vid=94f81f39-3c51-4c7c-9f88-5224c18d3bd6"},"vehicle_type_id":"4","last_reported":1757848005,"current_range_meters":8000,"station_id":"ce4bhq12rcd13ifvqhig","pricing_plan_id":"cebpf4jnsgd1na2vs0mg"},{"bike_id":"c85c8348-2049-443b-b275-b29a5e6402e4","system_id":"levelo_inurba_marseille","lat":43.21749,"lon":5.34596,"is_reserved":false,"is_disabled":false,"rental_uris":{"android":"levelo://app?vid=c85c8348-2049-443b-b275-b29a5e6402e4","ios":"levelo://app?vid=c85c8348-2049-443b-b275-b29a5e6402e4"},"vehicle_type_id":"4","last_reported":1757848005,"current_range_meters":8000,"station_id":"st_cvj6r9ubvosntc0bgbag","pricing_plan_id":"cebpf4jnsgd1na2vs0mg"},{"bike_id":"3caf26a1-4acf-4b6b-8068-a62330b9870f","system_id":"levelo_inurba_marseille","lat":43.26078,"lon":5.39401,"is_reserved":false,"is_disabled":false,"rental_uris":{"android":"levelo://app?vid=3caf26a1-4acf-4b6b-8068-a62330b9870f","ios":"levelo://app?vid=3caf26a1-4acf-4b6b-8068-a62330b9870f"},"vehicle_type_id":"4","last_reported":1757848005,"current_range_meters":8000,"station_id":"ce4bhh92rcd13ifvqfj0","pricing_plan_id":"cebpf4jnsgd1na2vs0mg"},{"bike_id":"bfc99f6c-dc52-4b55-8334-64281fa2b33c","system_id":"levelo_inurba_marseille","lat":43.29534,"lon":5.38544,"is_reserved":false,"is_disabled":false,"rental_uris":{"android":"levelo://app?vid=bfc99f6c-dc52-4b55-8334-64281fa2b33c","ios":"levelo://app?vid=bfc99f6c-dc52-4b55-8334-64281fa2b33c"},"vehicle_type_id":"4","last_reported":1757848005,"current_range_meters":8400,"station_id":"ce4bgih2rcd13ifvqba0","pricing_plan_id":"cebpf4jnsgd1na2vs0mg"},{"bike_id":"8c2c4ca1-e2d8-4cf6-94d6-963467695610","system_id":"levelo_inurba_marseille","lat":43.31143,"lon":5.38552,"is_reserved":false,"is_disabled":false,"rental_uris":{"android":"levelo://app?vid=8c2c4ca1-e2d8-4cf6-94d6-963467695610","ios":"levelo://app?vid=8c2c4ca1-e2d8-4cf6-94d6-963467695610"},"vehicle_type_id":"4","last_reported":1757848005,"current_range_meters":8400,"station_id":"","pricing_plan_id":"cebpf4jnsgd1na2vs0mg"},{"bike_id":"e74761ef-498f-46d6-a8e2-39bff7838d5e","system_id":"levelo_inurba_marseille","lat":43.29547,"lon":5.3854,"is_reserved":false,"is_disabled":false,"rental_uris":{"android":"levelo://app?vid=e74761ef-498f-46d6-a8e2-39bff7838d5e","ios":"levelo://app?vid=e74761ef-498f-46d6-a8e2-39bff7838d5e"},"vehicle_type_id":"4","last_reported":1757848005,"current_range_meters":8400,"station_id":"ce4bgih2rcd13ifvqba0","pricing_plan_id":"cebpf4jnsgd1na2vs0mg"},{"bike_id":"7dbf7a17-6693-4825-9e40-3f213876160b","system_id":"levelo_inurba_marseille","lat":43.2306,"lon":5.35486,"is_reserved":false,"is_disabled":false,"rental_uris":{"android":"levelo://app?vid=7dbf7a17-6693-4825-9e40-3f213876160b","ios":"levelo://app?vid=7dbf7a17-6693-4825-9e40-3f213876160b"},"vehicle_type_id":"4","last_reported":1757848005,"current_range_meters":8000,"station_id":"cpo3342slgdg3j2ifvpg","pricing_plan_id":"cebpf4jnsgd1na2vs0mg"},{"bike_id":"3c483190-a4c8-4426-bf81-99f26201b838","system_id":"levelo_inurba_marseille","lat":43.2315,"lon":5.43706,"is_reserved":false,"is_disabled":false,"rental_uris":{"android":"levelo://app?vid=3c483190-a4c8-4426-bf81-99f26201b838","ios":"levelo://app?vid=3c483190-a4c8-4426-bf81-99f26201b838"},"vehicle_type_id":"4","last_reported":1757848005,"current_range_meters":8400,"station_id":"ce4bhmp2rcd13ifvqgog","pricing_plan_id":"cebpf4jnsgd1na2vs0mg"},{"bike_id":"8f4f2270-45e8-425b-8570-2602cf216b83","system_id":"levelo_inurba_marseille","lat":43.29014,"lon":5.3813,"is_reserved":false,"is_disabled":false,"rental_uris":{"android":"levelo://app?vid=8f4f2270-45e8-425b-8570-2602cf216b83","ios":"levelo://app?vid=8f4f2270-45e8-425b-8570-2602cf216b83"},"vehicle_type_id":"4","last_reported":1757848005,"current_range_meters":8400,"station_id":"ce4bh4p2rcd13ifvqe1g","pricing_plan_id":"cebpf4jnsgd1na2vs0mg"},{"bike_id":"0e0976d5-d031-4b9e-b2f6-40177ea2ba68","system_id":"levelo_inurba_marseille","lat":43.31699,"lon":5.37726,"is_reserved":false,"is_disabled":false,"rental_uris":{"android":"levelo://app?vid=0e0976d5-d031-4b9e-b2f6-40177ea2ba68","ios":"levelo://app?vid=0e0976d5-d031-4b9e-b2f6-40177ea2ba68"},"vehicle_type_id":"4","last_reported":1757848005,"current_range_meters":8400,"station_id":"ce4bgth2rcd13ifvqch0","pricing_plan_id":"cebpf4jnsgd1na2vs0mg"},{"bike_id":"4891d751-b66c-4a3d-89d5-78926b795844","system_id":"levelo_inurba_marseille","lat":43.3011,"lon":5.44983,"is_reserved":false,"is_disabled":false,"rental_uris":{"android":"levelo://app?vid=4891d751-b66c-4a3d-89d5-78926b795844","ios":"levelo://app?vid=4891d751-b66c-4a3d-89d5-78926b795844"},"vehicle_type_id":"4","last_reported":1757848005,"current_range_meters":8800,"station_id":"","pricing_plan_id":"cebpf4jnsgd1na2vs0mg"},{"bike_id":"6e1b7e11-369a-4182-9896-edef291731be","system_id":"levelo_inurba_marseille","lat":43.30515,"lon":5.36542,"is_reserved":false,"is_disabled":false,"rental_uris":{"android":"levelo://app?vid=6e1b7e11-369a-4182-9896-edef291731be","ios":"levelo://app?vid=6e1b7e11-369a-4182-9896-edef291731be"},"vehicle_type_id":"4","last_reported":1757848005,"current_range_meters":8800,"station_id":"","pricing_plan_id":"cebpf4jnsgd1na2vs0mg"},{"bike_id":"463345a6-2d4f-4448-8488-9cab1efda713","system_id":"levelo_inurba_marseille","lat":43.25455,"lon":5.40176,"is_reserved":false,"is_disabled":false,"rental_uris":{"android":"levelo://app?vid=463345a6-2d4f-4448-8488-9cab1efda713","ios":"levelo://app?vid=463345a6-2d4f-4448-8488-9cab1efda713"},"vehicle_type_id":"4","last_reported":1757848005,"current_range_meters":8800,"station_id":"","pricing_plan_id":"cebpf4jnsgd1na2vs0mg"},{"bike_id":"bfe593e7-4f34-4fbb-99d1-28b76d6be542","system_id":"levelo_inurba_marseille","lat":43.213732,"lon":5.350244,"is_reserved":false,"is_disabled":false,"rental_uris":{"android":"levelo://app?vid=bfe593e7-4f34-4fbb-99d1-28b76d6be542","ios":"levelo://app?vid=bfe593e7-4f34-4fbb-99d1-28b76d6be542"},"vehicle_type_id":"4","last_reported":1757848005,"current_range_meters":8800,"station_id":"","pricing_plan_id":"cebpf4jnsgd1na2vs0mg"},{"bike_id":"437d9442-dede-480c-9788-d96a82f13c10","system_id":"levelo_inurba_marseille","lat":43.23154,"lon":5.43704,"is_reserved":false,"is_disabled":false,"rental_uris":{"android":"levelo://app?vid=437d9442-dede-480c-9788-d96a82f13c10","ios":"levelo://app?vid=437d9442-dede-480c-9788-d96a82f13c10"},"vehicle_type_id":"4","last_reported":1757848005,"current_range_meters":9200,"station_id":"ce4bhmp2rcd13ifvqgog","pricing_plan_id":"cebpf4jnsgd1na2vs0mg"},{"bike_id":"84be000e-b186-4e60-8aaa-b7a0f42a7175","system_id":"levelo_inurba_marseille","lat":43.337616,"lon":5.374353,"is_reserved":false,"is_disabled":false,"rental_uris":{"android":"levelo://app?vid=84be000e-b186-4e60-8aaa-b7a0f42a7175","ios":"levelo://app?vid=84be000e-b186-4e60-8aaa-b7a0f42a7175"},"vehicle_type_id":"4","last_reported":1757848005,"current_range_meters":9200,"station_id":"","pricing_plan_id":"cebpf4jnsgd1na2vs0mg"},{"bike_id":"6aa14a43-5e54-4274-be19-fa6efd24c664","system_id":"levelo_inurba_marseille","lat":43.23153,"lon":5.43701,"is_reserved":false,"is_disabled":false,"rental_uris":{"android":"levelo://app?vid=6aa14a43-5e54-4274-be19-fa6efd24c664","ios":"levelo://app?vid=6aa14a43-5e54-4274-be19-fa6efd24c664"},"vehicle_type_id":"4","last_reported":1757848005,"current_range_meters":9200,"station_id":"ce4bhmp2rcd13ifvqgog","pricing_plan_id":"cebpf4jnsgd1na2vs0mg"},{"bike_id":"d5c98035-fc72-4062-a3ec-13203f68e8ed","system_id":"levelo_inurba_marseille","lat":43.28871,"lon":5.42509,"is_reserved":false,"is_disabled":false,"rental_uris":{"android":"levelo://app?vid=d5c98035-fc72-4062-a3ec-13203f68e8ed","ios":"levelo://app?vid=d5c98035-fc72-4062-a3ec-13203f68e8ed"},"vehicle_type_id":"4","last_reported":1757848005,"current_range_meters":9200,"station_id":"","pricing_plan_id":"cebpf4jnsgd1na2vs0mg"},{"bike_id":"814a942a-b2c2-4ea9-88ee-de197c8c308e","system_id":"levelo_inurba_marseille","lat":43.30455,"lon":5.37908,"is_reserved":false,"is_disabled":false,"rental_uris":{"android":"levelo://app?vid=814a942a-b2c2-4ea9-88ee-de197c8c308e","ios":"levelo://app?vid=814a942a-b2c2-4ea9-88ee-de197c8c308e"},"vehicle_type_id":"4","last_reported":1757848005,"current_range_meters":9600,"station_id":"ce4bgup2rcd13ifvqcn0","pricing_plan_id":"cebpf4jnsgd1na2vs0mg"},{"bike_id":"7870fc1c-91bc-48ee-8712-b62fa0cd6051","system_id":"levelo_inurba_marseille","lat":43.24952,"lon":5.40502,"is_reserved":false,"is_disabled":false,"rental_uris":{"android":"levelo://app?vid=7870fc1c-91bc-48ee-8712-b62fa0cd6051","ios":"levelo://app?vid=7870fc1c-91bc-48ee-8712-b62fa0cd6051"},"vehicle_type_id":"4","last_reported":1757848005,"current_range_meters":9600,"station_id":"st_d2ngiaodas8pm72gd1h0","pricing_plan_id":"cebpf4jnsgd1na2vs0mg"},{"bike_id":"beb6189c-c21e-4836-b631-6b5c31a632d8","system_id":"levelo_inurba_marseille","lat":43.22564,"lon":5.41627,"is_reserved":false,"is_disabled":false,"rental_uris":{"android":"levelo://app?vid=beb6189c-c21e-4836-b631-6b5c31a632d8","ios":"levelo://app?vid=beb6189c-c21e-4836-b631-6b5c31a632d8"},"vehicle_type_id":"4","last_reported":1757848005,"current_range_meters":9600,"station_id":"st_d2o4gvlbi1j2169b742g","pricing_plan_id":"cebpf4jnsgd1na2vs0mg"},{"bike_id":"b68d3ec6-309a-49f8-95d8-f452d348bf7f","system_id":"levelo_inurba_marseille","lat":43.32358,"lon":5.38897,"is_reserved":false,"is_disabled":false,"rental_uris":{"android":"levelo://app?vid=b68d3ec6-309a-49f8-95d8-f452d348bf7f","ios":"levelo://app?vid=b68d3ec6-309a-49f8-95d8-f452d348bf7f"},"vehicle_type_id":"4","last_reported":1757848005,"current_range_meters":9600,"station_id":"ce4bhqp2rcd13ifvqhog","pricing_plan_id":"cebpf4jnsgd1na2vs0mg"},{"bike_id":"ef6383dd-0370-40ca-a059-42e30b75e3b6","system_id":"levelo_inurba_marseille","lat":43.30133,"lon":5.39867,"is_reserved":false,"is_disabled":false,"rental_uris":{"android":"levelo://app?vid=ef6383dd-0370-40ca-a059-42e30b75e3b6","ios":"levelo://app?vid=ef6383dd-0370-40ca-a059-42e30b75e3b6"},"vehicle_type_id":"4","last_reported":1757848005,"current_range_meters":9600,"station_id":"","pricing_plan_id":"cebpf4jnsgd1na2vs0mg"},{"bike_id":"5064502c-b7e4-42f4-9944-99b9ebff589b","system_id":"levelo_inurba_marseille","lat":43.25335,"lon":5.42173,"is_reserved":false,"is_disabled":false,"rental_uris":{"android":"levelo://app?vid=5064502c-b7e4-42f4-9944-99b9ebff589b","ios":"levelo://app?vid=5064502c-b7e4-42f4-9944-99b9ebff589b"},"vehicle_type_id":"4","last_reported":1757848005,"current_range_meters":9600,"station_id":"st_d2m65c5bi1j21697t3ng","pricing_plan_id":"cebpf4jnsgd1na2vs0mg"},{"bike_id":"b51c54af-e75b-4830-a913-ff0ed66c1cc4","system_id":"levelo_inurba_marseille","lat":43.23153,"lon":5.43709,"is_reserved":false,"is_disabled":false,"rental_uris":{"android":"levelo://app?vid=b51c54af-e75b-4830-a913-ff0ed66c1cc4","ios":"levelo://app?vid=b51c54af-e75b-4830-a913-ff0ed66c1cc4"},"vehicle_type_id":"4","last_reported":1757848005,"current_range_meters":9600,"station_id":"ce4bhmp2rcd13ifvqgog","pricing_plan_id":"cebpf4jnsgd1na2vs0mg"},{"bike_id":"2c3b37be-7cd4-459a-ba65-6657222b3673","system_id":"levelo_inurba_marseille","lat":43.30421,"lon":5.39745,"is_reserved":false,"is_disabled":false,"rental_uris":{"android":"levelo://app?vid=2c3b37be-7cd4-459a-ba65-6657222b3673","ios":"levelo://app?vid=2c3b37be-7cd4-459a-ba65-6657222b3673"},"vehicle_type_id":"4","last_reported":1757848005,"current_range_meters":9600,"station_id":"ce4bh092rcd13ifvqd20","pricing_plan_id":"cebpf4jnsgd1na2vs0mg"},{"bike_id":"0151eb0c-8e14-4cbf-aed9-6138834ce8bc","system_id":"levelo_inurba_marseille","lat":43.25117,"lon":5.40315,"is_reserved":false,"is_disabled":false,"rental_uris":{"android":"levelo://app?vid=0151eb0c-8e14-4cbf-aed9-6138834ce8bc","ios":"levelo://app?vid=0151eb0c-8e14-4cbf-aed9-6138834ce8bc"},"vehicle_type_id":"4","last_reported":1757848005,"current_range_meters":9600,"station_id":"ce4bhlh2rcd13ifvqgig","pricing_plan_id":"cebpf4jnsgd1na2vs0mg"},{"bike_id":"02dbb44c-70e3-4a7a-b86e-6159cc35ba47","system_id":"levelo_inurba_marseille","lat":43.29587,"lon":5.38689,"is_reserved":false,"is_disabled":false,"rental_uris":{"android":"levelo://app?vid=02dbb44c-70e3-4a7a-b86e-6159cc35ba47","ios":"levelo://app?vid=02dbb44c-70e3-4a7a-b86e-6159cc35ba47"},"vehicle_type_id":"4","last_reported":1757848005,"current_range_meters":9600,"station_id":"ce4bgih2rcd13ifvqba0","pricing_plan_id":"cebpf4jnsgd1na2vs0mg"},{"bike_id":"83a73372-ba8b-45d9-8fe6-168cec44e989","system_id":"levelo_inurba_marseille","lat":43.28225,"lon":5.39071,"is_reserved":false,"is_disabled":false,"rental_uris":{"android":"levelo://app?vid=83a73372-ba8b-45d9-8fe6-168cec44e989","ios":"levelo://app?vid=83a73372-ba8b-45d9-8fe6-168cec44e989"},"vehicle_type_id":"4","last_reported":1757848005,"current_range_meters":10000,"station_id":"ce4bhn92rcd13ifvqgsg","pricing_plan_id":"cebpf4jnsgd1na2vs0mg"},{"bike_id":"15e7bab0-39fe-4faa-9961-ac6b931125ad","system_id":"levelo_inurba_marseille","lat":43.21191,"lon":5.35072,"is_reserved":false,"is_disabled":false,"rental_uris":{"android":"levelo://app?vid=15e7bab0-39fe-4faa-9961-ac6b931125ad","ios":"levelo://app?vid=15e7bab0-39fe-4faa-9961-ac6b931125ad"},"vehicle_type_id":"4","last_reported":1757848005,"current_range_meters":10000,"station_id":"st_cvj6sg6p6f1abm77japg","pricing_plan_id":"cebpf4jnsgd1na2vs0mg"},{"bike_id":"6515536f-56de-4109-b7a1-24c742aed225","system_id":"levelo_inurba_marseille","lat":43.31997,"lon":5.37234,"is_reserved":false,"is_disabled":false,"rental_uris":{"android":"levelo://app?vid=6515536f-56de-4109-b7a1-24c742aed225","ios":"levelo://app?vid=6515536f-56de-4109-b7a1-24c742aed225"},"vehicle_type_id":"4","last_reported":1757848005,"current_range_meters":10000,"station_id":"","pricing_plan_id":"cebpf4jnsgd1na2vs0mg"},{"bike_id":"3510d789-ae1f-4c67-ae2b-5d51a86b5480","system_id":"levelo_inurba_marseille","lat":43.31096,"lon":5.37782,"is_reserved":false,"is_disabled":false,"rental_uris":{"android":"levelo://app?vid=3510d789-ae1f-4c67-ae2b-5d51a86b5480","ios":"levelo://app?vid=3510d789-ae1f-4c67-ae2b-5d51a86b5480"},"vehicle_type_id":"4","last_reported":1757848005,"current_range_meters":10000,"station_id":"ce4bgt92rcd13ifvqcg0","pricing_plan_id":"cebpf4jnsgd1na2vs0mg"},{"bike_id":"55d59e02-f5a5-4e1a-9360-556e842fa2a4","system_id":"levelo_inurba_marseille","lat":43.33764,"lon":5.37496,"is_reserved":false,"is_disabled":false,"rental_uris":{"android":"levelo://app?vid=55d59e02-f5a5-4e1a-9360-556e842fa2a4","ios":"levelo://app?vid=55d59e02-f5a5-4e1a-9360-556e842fa2a4"},"vehicle_type_id":"4","last_reported":1757848005,"current_range_meters":10000,"station_id":"","pricing_plan_id":"cebpf4jnsgd1na2vs0mg"},{"bike_id":"d5fe8587-d577-4927-9f03-bf5f1fa338f3","system_id":"levelo_inurba_marseille","lat":43.32661,"lon":5.37759,"is_reserved":false,"is_disabled":false,"rental_uris":{"android":"levelo://app?vid=d5fe8587-d577-4927-9f03-bf5f1fa338f3","ios":"levelo://app?vid=d5fe8587-d577-4927-9f03-bf5f1fa338f3"},"vehicle_type_id":"4","last_reported":1757848005,"current_range_meters":10000,"station_id":"","pricing_plan_id":"cebpf4jnsgd1na2vs0mg"},{"bike_id":"2e2e89e2-2226-47d8-8398-77f648140ac4","system_id":"levelo_inurba_marseille","lat":43.24391,"lon":5.37054,"is_reserved":false,"is_disabled":false,"rental_uris":{"android":"levelo://app?vid=2e2e89e2-2226-47d8-8398-77f648140ac4","ios":"levelo://app?vid=2e2e89e2-2226-47d8-8398-77f648140ac4"},"vehicle_type_id":"4","last_reported":1757848005,"current_range_meters":10000,"station_id":"ce4bhhh2rcd13ifvqfk0","pricing_plan_id":"cebpf4jnsgd1na2vs0mg"},{"bike_id":"640b424f-7d00-4814-8b17-9faeba4b3a52","system_id":"levelo_inurba_marseille","lat":43.30546,"lon":5.3656,"is_reserved":false,"is_disabled":false,"rental_uris":{"android":"levelo://app?vid=640b424f-7d00-4814-8b17-9faeba4b3a52","ios":"levelo://app?vid=640b424f-7d00-4814-8b17-9faeba4b3a52"},"vehicle_type_id":"4","last_reported":1757848005,"current_range_meters":10000,"station_id":"ce4bgs12rcd13ifvqcag","pricing_plan_id":"cebpf4jnsgd1na2vs0mg"},{"bike_id":"d9c11a94-d122-4240-b95b-24fdee8810ac","system_id":"levelo_inurba_marseille","lat":43.28277,"lon":5.39918,"is_reserved":false,"is_disabled":false,"rental_uris":{"android":"levelo://app?vid=d9c11a94-d122-4240-b95b-24fdee8810ac","ios":"levelo://app?vid=d9c11a94-d122-4240-b95b-24fdee8810ac"},"vehicle_type_id":"4","last_reported":1757848005,"current_range_meters":10000,"station_id":"","pricing_plan_id":"cebpf4jnsgd1na2vs0mg"},{"bike_id":"31f4578e-18c6-48fb-9fec-123fce0578f9","system_id":"levelo_inurba_marseille","lat":43.33803,"lon":5.37418,"is_reserved":false,"is_disabled":false,"rental_uris":{"android":"levelo://app?vid=31f4578e-18c6-48fb-9fec-123fce0578f9","ios":"levelo://app?vid=31f4578e-18c6-48fb-9fec-123fce0578f9"},"vehicle_type_id":"4","last_reported":1757848005,"current_range_meters":10000,"station_id":"","pricing_plan_id":"cebpf4jnsgd1na2vs0mg"},{"bike_id":"67a46200-96e7-4b1b-a046-4f776b681e7a","system_id":"levelo_inurba_marseille","lat":43.30286,"lon":5.37706,"is_reserved":false,"is_disabled":false,"rental_uris":{"android":"levelo://app?vid=67a46200-96e7-4b1b-a046-4f776b681e7a","ios":"levelo://app?vid=67a46200-96e7-4b1b-a046-4f776b681e7a"},"vehicle_type_id":"4","last_reported":1757848005,"current_range_meters":10800,"station_id":"ce4bguh2rcd13ifvqcj0","pricing_plan_id":"cebpf4jnsgd1na2vs0mg"},{"bike_id":"cd104b68-7370-4e88-ba9c-1edeee0f6c77","system_id":"levelo_inurba_marseille","lat":43.25195,"lon":5.425487,"is_reserved":false,"is_disabled":true,"rental_uris":{"android":"levelo://app?vid=cd104b68-7370-4e88-ba9c-1edeee0f6c77","ios":"levelo://app?vid=cd104b68-7370-4e88-ba9c-1edeee0f6c77"},"vehicle_type_id":"4","last_reported":1757848005,"current_range_meters":10800,"station_id":"","pricing_plan_id":"cebpf4jnsgd1na2vs0mg"},{"bike_id":"d3e3f398-2043-4edd-9010-3e116fd0961e","system_id":"levelo_inurba_marseille","lat":43.29189,"lon":5.35813,"is_reserved":false,"is_disabled":false,"rental_uris":{"android":"levelo://app?vid=d3e3f398-2043-4edd-9010-3e116fd0961e","ios":"levelo://app?vid=d3e3f398-2043-4edd-9010-3e116fd0961e"},"vehicle_type_id":"4","last_reported":1757848005,"current_range_meters":10800,"station_id":"ce4bhb12rcd13ifvqel0","pricing_plan_id":"cebpf4jnsgd1na2vs0mg"},{"bike_id":"84f3273d-3eb8-4780-9baf-2694bd1dda05","system_id":"levelo_inurba_marseille","lat":43.28081,"lon":5.39656,"is_reserved":false,"is_disabled":false,"rental_uris":{"android":"levelo://app?vid=84f3273d-3eb8-4780-9baf-2694bd1dda05","ios":"levelo://app?vid=84f3273d-3eb8-4780-9baf-2694bd1dda05"},"vehicle_type_id":"4","last_reported":1757848005,"current_range_meters":10000,"station_id":"ce4bho12rcd13ifvqh2g","pricing_plan_id":"cebpf4jnsgd1na2vs0mg"},{"bike_id":"64c4f945-267e-4b52-9fb2-3e76b8895c8f","system_id":"levelo_inurba_marseille","lat":43.21745,"lon":5.34599,"is_reserved":false,"is_disabled":false,"rental_uris":{"android":"levelo://app?vid=64c4f945-267e-4b52-9fb2-3e76b8895c8f","ios":"levelo://app?vid=64c4f945-267e-4b52-9fb2-3e76b8895c8f"},"vehicle_type_id":"4","last_reported":1757848005,"current_range_meters":10800,"station_id":"st_cvj6r9ubvosntc0bgbag","pricing_plan_id":"cebpf4jnsgd1na2vs0mg"},{"bike_id":"7e6f8834-af2a-4c33-8175-0cff373c8e02","system_id":"levelo_inurba_marseille","lat":43.28366,"lon":5.3863,"is_reserved":false,"is_disabled":true,"rental_uris":{"android":"levelo://app?vid=7e6f8834-af2a-4c33-8175-0cff373c8e02","ios":"levelo://app?vid=7e6f8834-af2a-4c33-8175-0cff373c8e02"},"vehicle_type_id":"4","last_reported":1757848005,"current_range_meters":10800,"station_id":"ce4bh492rcd13ifvqdvg","pricing_plan_id":"cebpf4jnsgd1na2vs0mg"},{"bike_id":"ee42c31a-b74b-4b2d-917a-cd50dc10c6ce","system_id":"levelo_inurba_marseille","lat":43.33066,"lon":5.39031,"is_reserved":false,"is_disabled":false,"rental_uris":{"android":"levelo://app?vid=ee42c31a-b74b-4b2d-917a-cd50dc10c6ce","ios":"levelo://app?vid=ee42c31a-b74b-4b2d-917a-cd50dc10c6ce"},"vehicle_type_id":"4","last_reported":1757848005,"current_range_meters":10800,"station_id":"","pricing_plan_id":"cebpf4jnsgd1na2vs0mg"},{"bike_id":"9613ee4d-bd84-40ec-a183-9abb4af6a1b6","system_id":"levelo_inurba_marseille","lat":43.32347,"lon":5.36679,"is_reserved":false,"is_disabled":false,"rental_uris":{"android":"levelo://app?vid=9613ee4d-bd84-40ec-a183-9abb4af6a1b6","ios":"levelo://app?vid=9613ee4d-bd84-40ec-a183-9abb4af6a1b6"},"vehicle_type_id":"4","last_reported":1757848005,"current_range_meters":10800,"station_id":"","pricing_plan_id":"cebpf4jnsgd1na2vs0mg"},{"bike_id":"5b008e65-6d85-4a24-b923-a4454bd3f4ac","system_id":"levelo_inurba_marseille","lat":43.21186,"lon":5.35076,"is_reserved":false,"is_disabled":false,"rental_uris":{"android":"levelo://app?vid=5b008e65-6d85-4a24-b923-a4454bd3f4ac","ios":"levelo://app?vid=5b008e65-6d85-4a24-b923-a4454bd3f4ac"},"vehicle_type_id":"4","last_reported":1757848005,"current_range_meters":10800,"station_id":"st_cvj6sg6p6f1abm77japg","pricing_plan_id":"cebpf4jnsgd1na2vs0mg"},{"bike_id":"8b9fda7c-5de3-4f94-8c7c-df3055d3b10d","system_id":"levelo_inurba_marseille","lat":43.26563,"lon":5.40323,"is_reserved":false,"is_disabled":false,"rental_uris":{"android":"levelo://app?vid=8b9fda7c-5de3-4f94-8c7c-df3055d3b10d","ios":"levelo://app?vid=8b9fda7c-5de3-4f94-8c7c-df3055d3b10d"},"vehicle_type_id":"4","last_reported":1757848005,"current_range_meters":10800,"station_id":"ce4bhmp2rcd13ifvqgng","pricing_plan_id":"cebpf4jnsgd1na2vs0mg"},{"bike_id":"64fcd4f2-5ef5-4ce2-b989-bb79857cc3d3","system_id":"levelo_inurba_marseille","lat":43.28611,"lon":5.35102,"is_reserved":false,"is_disabled":false,"rental_uris":{"android":"levelo://app?vid=64fcd4f2-5ef5-4ce2-b989-bb79857cc3d3","ios":"levelo://app?vid=64fcd4f2-5ef5-4ce2-b989-bb79857cc3d3"},"vehicle_type_id":"4","last_reported":1757848005,"current_range_meters":10800,"station_id":"ce4bhch2rcd13ifvqeug","pricing_plan_id":"cebpf4jnsgd1na2vs0mg"},{"bike_id":"54756892-40fc-40da-862a-36f475f86070","system_id":"levelo_inurba_marseille","lat":43.296682,"lon":5.371512,"is_reserved":false,"is_disabled":false,"rental_uris":{"android":"levelo://app?vid=54756892-40fc-40da-862a-36f475f86070","ios":"levelo://app?vid=54756892-40fc-40da-862a-36f475f86070"},"vehicle_type_id":"4","last_reported":1757848005,"current_range_meters":10800,"station_id":"","pricing_plan_id":"cebpf4jnsgd1na2vs0mg"},{"bike_id":"e6eaa46b-3bc6-41c0-a49f-a9a6e6666929","system_id":"levelo_inurba_marseille","lat":43.25501,"lon":5.37645,"is_reserved":false,"is_disabled":false,"rental_uris":{"android":"levelo://app?vid=e6eaa46b-3bc6-41c0-a49f-a9a6e6666929","ios":"levelo://app?vid=e6eaa46b-3bc6-41c0-a49f-a9a6e6666929"},"vehicle_type_id":"4","last_reported":1757848005,"current_range_meters":11200,"station_id":"ce4bhh12rcd13ifvqff0","pricing_plan_id":"cebpf4jnsgd1na2vs0mg"},{"bike_id":"769e98a9-feac-480c-af5c-970e00c79388","system_id":"levelo_inurba_marseille","lat":43.3047,"lon":5.37899,"is_reserved":false,"is_disabled":false,"rental_uris":{"android":"levelo://app?vid=769e98a9-feac-480c-af5c-970e00c79388","ios":"levelo://app?vid=769e98a9-feac-480c-af5c-970e00c79388"},"vehicle_type_id":"4","last_reported":1757848005,"current_range_meters":11200,"station_id":"ce4bgup2rcd13ifvqcn0","pricing_plan_id":"cebpf4jnsgd1na2vs0mg"},{"bike_id":"2a2497be-b987-492b-a17c-d497933a8aed","system_id":"levelo_inurba_marseille","lat":43.32357,"lon":5.3676,"is_reserved":false,"is_disabled":false,"rental_uris":{"android":"levelo://app?vid=2a2497be-b987-492b-a17c-d497933a8aed","ios":"levelo://app?vid=2a2497be-b987-492b-a17c-d497933a8aed"},"vehicle_type_id":"4","last_reported":1757848005,"current_range_meters":11200,"station_id":"ce4bhsh2rcd13ifvqi2g","pricing_plan_id":"cebpf4jnsgd1na2vs0mg"},{"bike_id":"ad473fbf-885b-4a58-b0ae-768a0a5624aa","system_id":"levelo_inurba_marseille","lat":43.26216,"lon":5.4044,"is_reserved":false,"is_disabled":false,"rental_uris":{"android":"levelo://app?vid=ad473fbf-885b-4a58-b0ae-768a0a5624aa","ios":"levelo://app?vid=ad473fbf-885b-4a58-b0ae-768a0a5624aa"},"vehicle_type_id":"4","last_reported":1757848005,"current_range_meters":11200,"station_id":"ce4bhmh2rcd13ifvqgmg","pricing_plan_id":"cebpf4jnsgd1na2vs0mg"},{"bike_id":"3edab8b5-08ab-4bd7-a8e3-46e14fec2b69","system_id":"levelo_inurba_marseille","lat":43.22568,"lon":5.41627,"is_reserved":false,"is_disabled":false,"rental_uris":{"android":"levelo://app?vid=3edab8b5-08ab-4bd7-a8e3-46e14fec2b69","ios":"levelo://app?vid=3edab8b5-08ab-4bd7-a8e3-46e14fec2b69"},"vehicle_type_id":"4","last_reported":1757848005,"current_range_meters":11200,"station_id":"st_d2o4gvlbi1j2169b742g","pricing_plan_id":"cebpf4jnsgd1na2vs0mg"},{"bike_id":"428093d5-61df-462b-acc2-95b62b5a635c","system_id":"levelo_inurba_marseille","lat":43.27171,"lon":5.4099,"is_reserved":false,"is_disabled":false,"rental_uris":{"android":"levelo://app?vid=428093d5-61df-462b-acc2-95b62b5a635c","ios":"levelo://app?vid=428093d5-61df-462b-acc2-95b62b5a635c"},"vehicle_type_id":"4","last_reported":1757848005,"current_range_meters":11200,"station_id":"ce4bhl12rcd13ifvqgf0","pricing_plan_id":"cebpf4jnsgd1na2vs0mg"},{"bike_id":"d060a802-4a3f-44a4-b619-fcf1d4699807","system_id":"levelo_inurba_marseille","lat":43.21746,"lon":5.34598,"is_reserved":false,"is_disabled":false,"rental_uris":{"android":"levelo://app?vid=d060a802-4a3f-44a4-b619-fcf1d4699807","ios":"levelo://app?vid=d060a802-4a3f-44a4-b619-fcf1d4699807"},"vehicle_type_id":"4","last_reported":1757848005,"current_range_meters":11200,"station_id":"st_cvj6r9ubvosntc0bgbag","pricing_plan_id":"cebpf4jnsgd1na2vs0mg"},{"bike_id":"bf7fa1df-50d1-4332-8015-9b461c829930","system_id":"levelo_inurba_marseille","lat":43.26551,"lon":5.37284,"is_reserved":false,"is_disabled":false,"rental_uris":{"android":"levelo://app?vid=bf7fa1df-50d1-4332-8015-9b461c829930","ios":"levelo://app?vid=bf7fa1df-50d1-4332-8015-9b461c829930"},"vehicle_type_id":"4","last_reported":1757848005,"current_range_meters":11200,"station_id":"ce4bhg12rcd13ifvqf70","pricing_plan_id":"cebpf4jnsgd1na2vs0mg"},{"bike_id":"c5cba6d7-e282-4417-a818-5fc0802dcb08","system_id":"levelo_inurba_marseille","lat":43.33761,"lon":5.3745,"is_reserved":false,"is_disabled":false,"rental_uris":{"android":"levelo://app?vid=c5cba6d7-e282-4417-a818-5fc0802dcb08","ios":"levelo://app?vid=c5cba6d7-e282-4417-a818-5fc0802dcb08"},"vehicle_type_id":"4","last_reported":1757848005,"current_range_meters":11200,"station_id":"","pricing_plan_id":"cebpf4jnsgd1na2vs0mg"},{"bike_id":"f07d1a34-6972-4c1d-8ed8-100dd0fc1e78","system_id":"levelo_inurba_marseille","lat":43.32985,"lon":5.39052,"is_reserved":false,"is_disabled":false,"rental_uris":{"android":"levelo://app?vid=f07d1a34-6972-4c1d-8ed8-100dd0fc1e78","ios":"levelo://app?vid=f07d1a34-6972-4c1d-8ed8-100dd0fc1e78"},"vehicle_type_id":"4","last_reported":1757848005,"current_range_meters":11200,"station_id":"ce4bhr92rcd13ifvqhrg","pricing_plan_id":"cebpf4jnsgd1na2vs0mg"},{"bike_id":"c52c728e-9348-46d9-80dc-a150642460d8","system_id":"levelo_inurba_marseille","lat":43.25729,"lon":5.41107,"is_reserved":false,"is_disabled":false,"rental_uris":{"android":"levelo://app?vid=c52c728e-9348-46d9-80dc-a150642460d8","ios":"levelo://app?vid=c52c728e-9348-46d9-80dc-a150642460d8"},"vehicle_type_id":"4","last_reported":1757848005,"current_range_meters":11200,"station_id":"ce4bhkp2rcd13ifvqgd0","pricing_plan_id":"cebpf4jnsgd1na2vs0mg"},{"bike_id":"f054a220-2a11-4bfe-9898-2b390f50b412","system_id":"levelo_inurba_marseille","lat":43.284678,"lon":5.384298,"is_reserved":false,"is_disabled":true,"rental_uris":{"android":"levelo://app?vid=f054a220-2a11-4bfe-9898-2b390f50b412","ios":"levelo://app?vid=f054a220-2a11-4bfe-9898-2b390f50b412"},"vehicle_type_id":"4","last_reported":1757848005,"current_range_meters":11200,"station_id":"ce4bh512rcd13ifvqe3g","pricing_plan_id":"cebpf4jnsgd1na2vs0mg"},{"bike_id":"ff7574fc-53b6-4f85-af19-a492bdeaac33","system_id":"levelo_inurba_marseille","lat":43.31363,"lon":5.38473,"is_reserved":false,"is_disabled":false,"rental_uris":{"android":"levelo://app?vid=ff7574fc-53b6-4f85-af19-a492bdeaac33","ios":"levelo://app?vid=ff7574fc-53b6-4f85-af19-a492bdeaac33"},"vehicle_type_id":"4","last_reported":1757848005,"current_range_meters":11200,"station_id":"ce4bgt92rcd13ifvqcf0","pricing_plan_id":"cebpf4jnsgd1na2vs0mg"},{"bike_id":"420eb9a3-65f3-46fc-832c-bea911a13b5d","system_id":"levelo_inurba_marseille","lat":43.31724,"lon":5.42393,"is_reserved":false,"is_disabled":false,"rental_uris":{"android":"levelo://app?vid=420eb9a3-65f3-46fc-832c-bea911a13b5d","ios":"levelo://app?vid=420eb9a3-65f3-46fc-832c-bea911a13b5d"},"vehicle_type_id":"4","last_reported":1757848005,"current_range_meters":11200,"station_id":"ce4bhp92rcd13ifvqhbg","pricing_plan_id":"cebpf4jnsgd1na2vs0mg"},{"bike_id":"3bb6dbb8-82e2-4ba8-8625-08d6cf9c1c43","system_id":"levelo_inurba_marseille","lat":43.29309,"lon":5.3717,"is_reserved":false,"is_disabled":true,"rental_uris":{"android":"levelo://app?vid=3bb6dbb8-82e2-4ba8-8625-08d6cf9c1c43","ios":"levelo://app?vid=3bb6dbb8-82e2-4ba8-8625-08d6cf9c1c43"},"vehicle_type_id":"4","last_reported":1757848005,"current_range_meters":11200,"station_id":"ce4bgh92rcd13ifvqb40","pricing_plan_id":"cebpf4jnsgd1na2vs0mg"},{"bike_id":"df41bfb5-751e-4d4d-9862-e3f77512c772","system_id":"levelo_inurba_marseille","lat":43.29549,"lon":5.42274,"is_reserved":false,"is_disabled":false,"rental_uris":{"android":"levelo://app?vid=df41bfb5-751e-4d4d-9862-e3f77512c772","ios":"levelo://app?vid=df41bfb5-751e-4d4d-9862-e3f77512c772"},"vehicle_type_id":"4","last_reported":1757848005,"current_range_meters":11600,"station_id":"ce4bhph2rcd13ifvqhdg","pricing_plan_id":"cebpf4jnsgd1na2vs0mg"},{"bike_id":"bfc41fb0-d915-402b-8fbc-6e3607947e09","system_id":"levelo_inurba_marseille","lat":43.22561,"lon":5.41636,"is_reserved":false,"is_disabled":false,"rental_uris":{"android":"levelo://app?vid=bfc41fb0-d915-402b-8fbc-6e3607947e09","ios":"levelo://app?vid=bfc41fb0-d915-402b-8fbc-6e3607947e09"},"vehicle_type_id":"4","last_reported":1757848005,"current_range_meters":11600,"station_id":"st_d2o4gvlbi1j2169b742g","pricing_plan_id":"cebpf4jnsgd1na2vs0mg"},{"bike_id":"0418ed23-d4c6-49db-b310-d4f985bd3bc3","system_id":"levelo_inurba_marseille","lat":43.32091,"lon":5.36754,"is_reserved":false,"is_disabled":false,"rental_uris":{"android":"levelo://app?vid=0418ed23-d4c6-49db-b310-d4f985bd3bc3","ios":"levelo://app?vid=0418ed23-d4c6-49db-b310-d4f985bd3bc3"},"vehicle_type_id":"4","last_reported":1757848005,"current_range_meters":11600,"station_id":"ce4bhrh2rcd13ifvqhug","pricing_plan_id":"cebpf4jnsgd1na2vs0mg"},{"bike_id":"c86afea0-8a19-46b1-9ed7-c5ebf3e07efc","system_id":"levelo_inurba_marseille","lat":43.243766,"lon":5.370682,"is_reserved":false,"is_disabled":false,"rental_uris":{"android":"levelo://app?vid=c86afea0-8a19-46b1-9ed7-c5ebf3e07efc","ios":"levelo://app?vid=c86afea0-8a19-46b1-9ed7-c5ebf3e07efc"},"vehicle_type_id":"4","last_reported":1757848005,"current_range_meters":11600,"station_id":"ce4bhhh2rcd13ifvqfk0","pricing_plan_id":"cebpf4jnsgd1na2vs0mg"},{"bike_id":"24486260-c949-4fa0-999a-d6c3ecab05ec","system_id":"levelo_inurba_marseille","lat":43.32349,"lon":5.36732,"is_reserved":false,"is_disabled":false,"rental_uris":{"android":"levelo://app?vid=24486260-c949-4fa0-999a-d6c3ecab05ec","ios":"levelo://app?vid=24486260-c949-4fa0-999a-d6c3ecab05ec"},"vehicle_type_id":"4","last_reported":1757848005,"current_range_meters":11600,"station_id":"ce4bhsh2rcd13ifvqi2g","pricing_plan_id":"cebpf4jnsgd1na2vs0mg"},{"bike_id":"6a316475-445d-40b3-8de5-f7e5e3575a2c","system_id":"levelo_inurba_marseille","lat":43.28415,"lon":5.34975,"is_reserved":false,"is_disabled":false,"rental_uris":{"android":"levelo://app?vid=6a316475-445d-40b3-8de5-f7e5e3575a2c","ios":"levelo://app?vid=6a316475-445d-40b3-8de5-f7e5e3575a2c"},"vehicle_type_id":"4","last_reported":1757848005,"current_range_meters":11600,"station_id":"ce4bhbh2rcd13ifvqepg","pricing_plan_id":"cebpf4jnsgd1na2vs0mg"},{"bike_id":"99dee900-ab8a-4f78-8c74-60377868c2aa","system_id":"levelo_inurba_marseille","lat":43.286142,"lon":5.350991,"is_reserved":false,"is_disabled":false,"rental_uris":{"android":"levelo://app?vid=99dee900-ab8a-4f78-8c74-60377868c2aa","ios":"levelo://app?vid=99dee900-ab8a-4f78-8c74-60377868c2aa"},"vehicle_type_id":"4","last_reported":1757848005,"current_range_meters":11600,"station_id":"ce4bhch2rcd13ifvqeug","pricing_plan_id":"cebpf4jnsgd1na2vs0mg"},{"bike_id":"af513de6-44ff-4321-b695-ce5feec1c1d7","system_id":"levelo_inurba_marseille","lat":43.25341,"lon":5.42165,"is_reserved":false,"is_disabled":false,"rental_uris":{"android":"levelo://app?vid=af513de6-44ff-4321-b695-ce5feec1c1d7","ios":"levelo://app?vid=af513de6-44ff-4321-b695-ce5feec1c1d7"},"vehicle_type_id":"4","last_reported":1757848005,"current_range_meters":11600,"station_id":"st_d2m65c5bi1j21697t3ng","pricing_plan_id":"cebpf4jnsgd1na2vs0mg"},{"bike_id":"79d8f533-b5eb-45ef-a6ec-dfd443ea0dbe","system_id":"levelo_inurba_marseille","lat":43.217513,"lon":5.345975,"is_reserved":false,"is_disabled":false,"rental_uris":{"android":"levelo://app?vid=79d8f533-b5eb-45ef-a6ec-dfd443ea0dbe","ios":"levelo://app?vid=79d8f533-b5eb-45ef-a6ec-dfd443ea0dbe"},"vehicle_type_id":"4","last_reported":1757848005,"current_range_meters":11600,"station_id":"","pricing_plan_id":"cebpf4jnsgd1na2vs0mg"},{"bike_id":"d16230ff-2955-426b-a6aa-84f8e2e13648","system_id":"levelo_inurba_marseille","lat":43.28882,"lon":5.42511,"is_reserved":false,"is_disabled":false,"rental_uris":{"android":"levelo://app?vid=d16230ff-2955-426b-a6aa-84f8e2e13648","ios":"levelo://app?vid=d16230ff-2955-426b-a6aa-84f8e2e13648"},"vehicle_type_id":"4","last_reported":1757848005,"current_range_meters":11600,"station_id":"","pricing_plan_id":"cebpf4jnsgd1na2vs0mg"},{"bike_id":"48dccabc-3c7d-463e-ba83-79fd700562b9","system_id":"levelo_inurba_marseille","lat":43.28266,"lon":5.3506,"is_reserved":false,"is_disabled":false,"rental_uris":{"android":"levelo://app?vid=48dccabc-3c7d-463e-ba83-79fd700562b9","ios":"levelo://app?vid=48dccabc-3c7d-463e-ba83-79fd700562b9"},"vehicle_type_id":"4","last_reported":1757848005,"current_range_meters":12000,"station_id":"ce4bhbp2rcd13ifvqerg","pricing_plan_id":"cebpf4jnsgd1na2vs0mg"},{"bike_id":"1fa9cf8a-cbc2-4f66-a5af-49139eedcffa","system_id":"levelo_inurba_marseille","lat":43.31692,"lon":5.40487,"is_reserved":false,"is_disabled":false,"rental_uris":{"android":"levelo://app?vid=1fa9cf8a-cbc2-4f66-a5af-49139eedcffa","ios":"levelo://app?vid=1fa9cf8a-cbc2-4f66-a5af-49139eedcffa"},"vehicle_type_id":"4","last_reported":1757848005,"current_range_meters":12000,"station_id":"ce4bh012rcd13ifvqd00","pricing_plan_id":"cebpf4jnsgd1na2vs0mg"},{"bike_id":"9cc55b18-33a4-485b-8c5b-2ccfa28fdf39","system_id":"levelo_inurba_marseille","lat":43.29888,"lon":5.38871,"is_reserved":false,"is_disabled":false,"rental_uris":{"android":"levelo://app?vid=9cc55b18-33a4-485b-8c5b-2ccfa28fdf39","ios":"levelo://app?vid=9cc55b18-33a4-485b-8c5b-2ccfa28fdf39"},"vehicle_type_id":"4","last_reported":1757848005,"current_range_meters":12000,"station_id":"ce4bh392rcd13ifvqdl0","pricing_plan_id":"cebpf4jnsgd1na2vs0mg"},{"bike_id":"87106d9e-c5cf-4e2f-946f-36fa51721705","system_id":"levelo_inurba_marseille","lat":43.241575,"lon":5.363984,"is_reserved":false,"is_disabled":false,"rental_uris":{"android":"levelo://app?vid=87106d9e-c5cf-4e2f-946f-36fa51721705","ios":"levelo://app?vid=87106d9e-c5cf-4e2f-946f-36fa51721705"},"vehicle_type_id":"4","last_reported":1757848005,"current_range_meters":12000,"station_id":"cpo36qri1sfpv3e86is0","pricing_plan_id":"cebpf4jnsgd1na2vs0mg"},{"bike_id":"e7a329bd-ed66-4ac7-aaba-63f2810ddd86","system_id":"levelo_inurba_marseille","lat":43.31917,"lon":5.37203,"is_reserved":false,"is_disabled":false,"rental_uris":{"android":"levelo://app?vid=e7a329bd-ed66-4ac7-aaba-63f2810ddd86","ios":"levelo://app?vid=e7a329bd-ed66-4ac7-aaba-63f2810ddd86"},"vehicle_type_id":"4","last_reported":1757848005,"current_range_meters":12000,"station_id":"","pricing_plan_id":"cebpf4jnsgd1na2vs0mg"},{"bike_id":"16572620-16f0-40a6-8afc-79d0b1846f64","system_id":"levelo_inurba_marseille","lat":43.28159,"lon":5.4264,"is_reserved":false,"is_disabled":false,"rental_uris":{"android":"levelo://app?vid=16572620-16f0-40a6-8afc-79d0b1846f64","ios":"levelo://app?vid=16572620-16f0-40a6-8afc-79d0b1846f64"},"vehicle_type_id":"4","last_reported":1757848005,"current_range_meters":12000,"station_id":"ce4bhnh2rcd13ifvqgug","pricing_plan_id":"cebpf4jnsgd1na2vs0mg"},{"bike_id":"6027b813-c83e-4c07-a34a-2e18ff2e8531","system_id":"levelo_inurba_marseille","lat":43.22559,"lon":5.41624,"is_reserved":false,"is_disabled":false,"rental_uris":{"android":"levelo://app?vid=6027b813-c83e-4c07-a34a-2e18ff2e8531","ios":"levelo://app?vid=6027b813-c83e-4c07-a34a-2e18ff2e8531"},"vehicle_type_id":"4","last_reported":1757848005,"current_range_meters":12000,"station_id":"st_d2o4gvlbi1j2169b742g","pricing_plan_id":"cebpf4jnsgd1na2vs0mg"},{"bike_id":"c682ef70-00bc-4415-9b10-9a35bd5ddcc1","system_id":"levelo_inurba_marseille","lat":43.27497,"lon":5.42448,"is_reserved":false,"is_disabled":false,"rental_uris":{"android":"levelo://app?vid=c682ef70-00bc-4415-9b10-9a35bd5ddcc1","ios":"levelo://app?vid=c682ef70-00bc-4415-9b10-9a35bd5ddcc1"},"vehicle_type_id":"4","last_reported":1757848005,"current_range_meters":12400,"station_id":"ce4bhn92rcd13ifvqgrg","pricing_plan_id":"cebpf4jnsgd1na2vs0mg"},{"bike_id":"5cf8a0b4-bda8-4dfd-8b0d-01b09ea4bc46","system_id":"levelo_inurba_marseille","lat":43.21746,"lon":5.34601,"is_reserved":false,"is_disabled":false,"rental_uris":{"android":"levelo://app?vid=5cf8a0b4-bda8-4dfd-8b0d-01b09ea4bc46","ios":"levelo://app?vid=5cf8a0b4-bda8-4dfd-8b0d-01b09ea4bc46"},"vehicle_type_id":"4","last_reported":1757848005,"current_range_meters":12400,"station_id":"st_cvj6r9ubvosntc0bgbag","pricing_plan_id":"cebpf4jnsgd1na2vs0mg"},{"bike_id":"5c1e55d9-decd-426f-89d8-b98a558f3809","system_id":"levelo_inurba_marseille","lat":43.316956,"lon":5.404684,"is_reserved":false,"is_disabled":true,"rental_uris":{"android":"levelo://app?vid=5c1e55d9-decd-426f-89d8-b98a558f3809","ios":"levelo://app?vid=5c1e55d9-decd-426f-89d8-b98a558f3809"},"vehicle_type_id":"4","last_reported":1757848005,"current_range_meters":12400,"station_id":"ce4bh012rcd13ifvqd00","pricing_plan_id":"cebpf4jnsgd1na2vs0mg"},{"bike_id":"3833076e-8133-4c4a-8e27-1ac029bd3cb4","system_id":"levelo_inurba_marseille","lat":43.28617,"lon":5.35103,"is_reserved":false,"is_disabled":false,"rental_uris":{"android":"levelo://app?vid=3833076e-8133-4c4a-8e27-1ac029bd3cb4","ios":"levelo://app?vid=3833076e-8133-4c4a-8e27-1ac029bd3cb4"},"vehicle_type_id":"4","last_reported":1757848005,"current_range_meters":12400,"station_id":"ce4bhch2rcd13ifvqeug","pricing_plan_id":"cebpf4jnsgd1na2vs0mg"},{"bike_id":"bd3d1cba-89b2-4128-9c23-7baaff702d46","system_id":"levelo_inurba_marseille","lat":43.27612,"lon":5.36104,"is_reserved":false,"is_disabled":false,"rental_uris":{"android":"levelo://app?vid=bd3d1cba-89b2-4128-9c23-7baaff702d46","ios":"levelo://app?vid=bd3d1cba-89b2-4128-9c23-7baaff702d46"},"vehicle_type_id":"4","last_reported":1757848005,"current_range_meters":12400,"station_id":"ce4bgj92rcd13ifvqbe0","pricing_plan_id":"cebpf4jnsgd1na2vs0mg"},{"bike_id":"d7888f4f-3e0e-42ad-8e1f-74344957c259","system_id":"levelo_inurba_marseille","lat":43.28263,"lon":5.35075,"is_reserved":false,"is_disabled":false,"rental_uris":{"android":"levelo://app?vid=d7888f4f-3e0e-42ad-8e1f-74344957c259","ios":"levelo://app?vid=d7888f4f-3e0e-42ad-8e1f-74344957c259"},"vehicle_type_id":"4","last_reported":1757848005,"current_range_meters":12400,"station_id":"ce4bhbp2rcd13ifvqerg","pricing_plan_id":"cebpf4jnsgd1na2vs0mg"},{"bike_id":"a2d68523-4871-4e81-8648-e73fbbca7f88","system_id":"levelo_inurba_marseille","lat":43.23569,"lon":5.39891,"is_reserved":false,"is_disabled":false,"rental_uris":{"android":"levelo://app?vid=a2d68523-4871-4e81-8648-e73fbbca7f88","ios":"levelo://app?vid=a2d68523-4871-4e81-8648-e73fbbca7f88"},"vehicle_type_id":"4","last_reported":1757848005,"current_range_meters":12400,"station_id":"","pricing_plan_id":"cebpf4jnsgd1na2vs0mg"},{"bike_id":"3bc338fd-b3c5-4caa-b6e6-3c70a52689ba","system_id":"levelo_inurba_marseille","lat":43.31615,"lon":5.38947,"is_reserved":false,"is_disabled":false,"rental_uris":{"android":"levelo://app?vid=3bc338fd-b3c5-4caa-b6e6-3c70a52689ba","ios":"levelo://app?vid=3bc338fd-b3c5-4caa-b6e6-3c70a52689ba"},"vehicle_type_id":"4","last_reported":1757848005,"current_range_meters":12400,"station_id":"","pricing_plan_id":"cebpf4jnsgd1na2vs0mg"},{"bike_id":"5b08033c-e596-407a-ada4-49eb3a516099","system_id":"levelo_inurba_marseille","lat":43.25824,"lon":5.39435,"is_reserved":false,"is_disabled":false,"rental_uris":{"android":"levelo://app?vid=5b08033c-e596-407a-ada4-49eb3a516099","ios":"levelo://app?vid=5b08033c-e596-407a-ada4-49eb3a516099"},"vehicle_type_id":"4","last_reported":1757848005,"current_range_meters":12800,"station_id":"ce4bhip2rcd13ifvqft0","pricing_plan_id":"cebpf4jnsgd1na2vs0mg"},{"bike_id":"fb0fc538-0b1a-4882-b659-6945a282ea23","system_id":"levelo_inurba_marseille","lat":43.28713,"lon":5.37927,"is_reserved":false,"is_disabled":false,"rental_uris":{"android":"levelo://app?vid=fb0fc538-0b1a-4882-b659-6945a282ea23","ios":"levelo://app?vid=fb0fc538-0b1a-4882-b659-6945a282ea23"},"vehicle_type_id":"4","last_reported":1757848005,"current_range_meters":12800,"station_id":"ce4bh9p2rcd13ifvqec0","pricing_plan_id":"cebpf4jnsgd1na2vs0mg"},{"bike_id":"acef48aa-bff6-45fd-ab7f-bfb1cee9b805","system_id":"levelo_inurba_marseille","lat":43.25329,"lon":5.42154,"is_reserved":false,"is_disabled":false,"rental_uris":{"android":"levelo://app?vid=acef48aa-bff6-45fd-ab7f-bfb1cee9b805","ios":"levelo://app?vid=acef48aa-bff6-45fd-ab7f-bfb1cee9b805"},"vehicle_type_id":"4","last_reported":1757848005,"current_range_meters":12800,"station_id":"st_d2m65c5bi1j21697t3ng","pricing_plan_id":"cebpf4jnsgd1na2vs0mg"},{"bike_id":"381f4b77-fb57-4771-ac0c-81bffec029e8","system_id":"levelo_inurba_marseille","lat":43.26027,"lon":5.37543,"is_reserved":false,"is_disabled":false,"rental_uris":{"android":"levelo://app?vid=381f4b77-fb57-4771-ac0c-81bffec029e8","ios":"levelo://app?vid=381f4b77-fb57-4771-ac0c-81bffec029e8"},"vehicle_type_id":"4","last_reported":1757848005,"current_range_meters":12800,"station_id":"ce4bhgh2rcd13ifvqfa0","pricing_plan_id":"cebpf4jnsgd1na2vs0mg"},{"bike_id":"2984f2d2-15d5-4f17-b9f6-91403dd14e4e","system_id":"levelo_inurba_marseille","lat":43.30471,"lon":5.37898,"is_reserved":false,"is_disabled":false,"rental_uris":{"android":"levelo://app?vid=2984f2d2-15d5-4f17-b9f6-91403dd14e4e","ios":"levelo://app?vid=2984f2d2-15d5-4f17-b9f6-91403dd14e4e"},"vehicle_type_id":"4","last_reported":1757848005,"current_range_meters":12800,"station_id":"ce4bgup2rcd13ifvqcn0","pricing_plan_id":"cebpf4jnsgd1na2vs0mg"},{"bike_id":"89752422-17a5-418c-8305-c54c7d4b0e18","system_id":"levelo_inurba_marseille","lat":43.28279,"lon":5.35071,"is_reserved":false,"is_disabled":false,"rental_uris":{"android":"levelo://app?vid=89752422-17a5-418c-8305-c54c7d4b0e18","ios":"levelo://app?vid=89752422-17a5-418c-8305-c54c7d4b0e18"},"vehicle_type_id":"4","last_reported":1757848005,"current_range_meters":13600,"station_id":"ce4bhbp2rcd13ifvqerg","pricing_plan_id":"cebpf4jnsgd1na2vs0mg"},{"bike_id":"1eb67376-e324-4c29-8c55-ffdbd85e41e5","system_id":"levelo_inurba_marseille","lat":43.21189,"lon":5.35067,"is_reserved":false,"is_disabled":false,"rental_uris":{"android":"levelo://app?vid=1eb67376-e324-4c29-8c55-ffdbd85e41e5","ios":"levelo://app?vid=1eb67376-e324-4c29-8c55-ffdbd85e41e5"},"vehicle_type_id":"4","last_reported":1757848005,"current_range_meters":13600,"station_id":"st_cvj6sg6p6f1abm77japg","pricing_plan_id":"cebpf4jnsgd1na2vs0mg"},{"bike_id":"dde4ea32-87c6-4a50-876c-edd73ae13809","system_id":"levelo_inurba_marseille","lat":43.21745,"lon":5.34596,"is_reserved":false,"is_disabled":false,"rental_uris":{"android":"levelo://app?vid=dde4ea32-87c6-4a50-876c-edd73ae13809","ios":"levelo://app?vid=dde4ea32-87c6-4a50-876c-edd73ae13809"},"vehicle_type_id":"4","last_reported":1757848005,"current_range_meters":13600,"station_id":"st_cvj6r9ubvosntc0bgbag","pricing_plan_id":"cebpf4jnsgd1na2vs0mg"},{"bike_id":"c75bfa20-483b-42f7-8a25-5f10e08a57b0","system_id":"levelo_inurba_marseille","lat":43.32103,"lon":5.36773,"is_reserved":false,"is_disabled":false,"rental_uris":{"android":"levelo://app?vid=c75bfa20-483b-42f7-8a25-5f10e08a57b0","ios":"levelo://app?vid=c75bfa20-483b-42f7-8a25-5f10e08a57b0"},"vehicle_type_id":"4","last_reported":1757848005,"current_range_meters":13600,"station_id":"ce4bhrh2rcd13ifvqhug","pricing_plan_id":"cebpf4jnsgd1na2vs0mg"},{"bike_id":"f3565978-76fc-4b91-9f0a-557596582985","system_id":"levelo_inurba_marseille","lat":43.241387,"lon":5.363802,"is_reserved":false,"is_disabled":false,"rental_uris":{"android":"levelo://app?vid=f3565978-76fc-4b91-9f0a-557596582985","ios":"levelo://app?vid=f3565978-76fc-4b91-9f0a-557596582985"},"vehicle_type_id":"4","last_reported":1757848005,"current_range_meters":13600,"station_id":"st_cvj6r9ubvosntc0bgbag","pricing_plan_id":"cebpf4jnsgd1na2vs0mg"},{"bike_id":"5476d906-b0c2-4d37-81e0-6fc56d7abe48","system_id":"levelo_inurba_marseille","lat":43.31724,"lon":5.37657,"is_reserved":false,"is_disabled":false,"rental_uris":{"android":"levelo://app?vid=5476d906-b0c2-4d37-81e0-6fc56d7abe48","ios":"levelo://app?vid=5476d906-b0c2-4d37-81e0-6fc56d7abe48"},"vehicle_type_id":"4","last_reported":1757848005,"current_range_meters":14000,"station_id":"","pricing_plan_id":"cebpf4jnsgd1na2vs0mg"},{"bike_id":"bde167f5-c9a1-411c-a386-7b305a2d9927","system_id":"levelo_inurba_marseille","lat":43.23054,"lon":5.35486,"is_reserved":false,"is_disabled":false,"rental_uris":{"android":"levelo://app?vid=bde167f5-c9a1-411c-a386-7b305a2d9927","ios":"levelo://app?vid=bde167f5-c9a1-411c-a386-7b305a2d9927"},"vehicle_type_id":"4","last_reported":1757848005,"current_range_meters":14000,"station_id":"cpo3342slgdg3j2ifvpg","pricing_plan_id":"cebpf4jnsgd1na2vs0mg"},{"bike_id":"de616c5b-78e9-41f2-9c6e-33ec6b34a570","system_id":"levelo_inurba_marseille","lat":43.22925,"lon":5.35374,"is_reserved":false,"is_disabled":false,"rental_uris":{"android":"levelo://app?vid=de616c5b-78e9-41f2-9c6e-33ec6b34a570","ios":"levelo://app?vid=de616c5b-78e9-41f2-9c6e-33ec6b34a570"},"vehicle_type_id":"4","last_reported":1757848005,"current_range_meters":14000,"station_id":"cpo3532slgdg3j2ikp40","pricing_plan_id":"cebpf4jnsgd1na2vs0mg"},{"bike_id":"2d4f8702-f871-4299-b471-061f32bc7f69","system_id":"levelo_inurba_marseille","lat":43.2257,"lon":5.41642,"is_reserved":false,"is_disabled":false,"rental_uris":{"android":"levelo://app?vid=2d4f8702-f871-4299-b471-061f32bc7f69","ios":"levelo://app?vid=2d4f8702-f871-4299-b471-061f32bc7f69"},"vehicle_type_id":"4","last_reported":1757848005,"current_range_meters":14000,"station_id":"st_d2o4gvlbi1j2169b742g","pricing_plan_id":"cebpf4jnsgd1na2vs0mg"},{"bike_id":"0db1212c-b38c-47f5-8e41-37749d8fc729","system_id":"levelo_inurba_marseille","lat":43.2899,"lon":5.38665,"is_reserved":false,"is_disabled":false,"rental_uris":{"android":"levelo://app?vid=0db1212c-b38c-47f5-8e41-37749d8fc729","ios":"levelo://app?vid=0db1212c-b38c-47f5-8e41-37749d8fc729"},"vehicle_type_id":"4","last_reported":1757848005,"current_range_meters":14000,"station_id":"","pricing_plan_id":"cebpf4jnsgd1na2vs0mg"},{"bike_id":"e3c27fd9-f14c-4767-bd25-44b153351b06","system_id":"levelo_inurba_marseille","lat":43.23964,"lon":5.36632,"is_reserved":false,"is_disabled":false,"rental_uris":{"android":"levelo://app?vid=e3c27fd9-f14c-4767-bd25-44b153351b06","ios":"levelo://app?vid=e3c27fd9-f14c-4767-bd25-44b153351b06"},"vehicle_type_id":"4","last_reported":1757848005,"current_range_meters":14000,"station_id":"ce4bhi12rcd13ifvqfp0","pricing_plan_id":"cebpf4jnsgd1na2vs0mg"},{"bike_id":"d0e1b7e7-e9b1-4e8e-bbbf-5cebc42d884d","system_id":"levelo_inurba_marseille","lat":43.28157,"lon":5.42638,"is_reserved":false,"is_disabled":false,"rental_uris":{"android":"levelo://app?vid=d0e1b7e7-e9b1-4e8e-bbbf-5cebc42d884d","ios":"levelo://app?vid=d0e1b7e7-e9b1-4e8e-bbbf-5cebc42d884d"},"vehicle_type_id":"4","last_reported":1757848005,"current_range_meters":14400,"station_id":"ce4bhnh2rcd13ifvqgug","pricing_plan_id":"cebpf4jnsgd1na2vs0mg"},{"bike_id":"e65fbefa-bbb5-471f-b08e-03579037c921","system_id":"levelo_inurba_marseille","lat":43.21199,"lon":5.35078,"is_reserved":false,"is_disabled":false,"rental_uris":{"android":"levelo://app?vid=e65fbefa-bbb5-471f-b08e-03579037c921","ios":"levelo://app?vid=e65fbefa-bbb5-471f-b08e-03579037c921"},"vehicle_type_id":"4","last_reported":1757848005,"current_range_meters":14400,"station_id":"st_cvj6sg6p6f1abm77japg","pricing_plan_id":"cebpf4jnsgd1na2vs0mg"},{"bike_id":"d0a1739a-c22f-4203-9f71-a089f4b367e4","system_id":"levelo_inurba_marseille","lat":43.31991,"lon":5.38149,"is_reserved":false,"is_disabled":true,"rental_uris":{"android":"levelo://app?vid=d0a1739a-c22f-4203-9f71-a089f4b367e4","ios":"levelo://app?vid=d0a1739a-c22f-4203-9f71-a089f4b367e4"},"vehicle_type_id":"4","last_reported":1757848005,"current_range_meters":14400,"station_id":"ce4bhr12rcd13ifvqhpg","pricing_plan_id":"cebpf4jnsgd1na2vs0mg"},{"bike_id":"85db8ab9-6b24-4c23-8762-109e948df9cd","system_id":"levelo_inurba_marseille","lat":43.255005,"lon":5.408604,"is_reserved":false,"is_disabled":false,"rental_uris":{"android":"levelo://app?vid=85db8ab9-6b24-4c23-8762-109e948df9cd","ios":"levelo://app?vid=85db8ab9-6b24-4c23-8762-109e948df9cd"},"vehicle_type_id":"4","last_reported":1757848005,"current_range_meters":14400,"station_id":"","pricing_plan_id":"cebpf4jnsgd1na2vs0mg"},{"bike_id":"8e3a9e83-812e-4b5d-8c7b-5119699e81be","system_id":"levelo_inurba_marseille","lat":43.3158,"lon":5.40591,"is_reserved":false,"is_disabled":false,"rental_uris":{"android":"levelo://app?vid=8e3a9e83-812e-4b5d-8c7b-5119699e81be","ios":"levelo://app?vid=8e3a9e83-812e-4b5d-8c7b-5119699e81be"},"vehicle_type_id":"4","last_reported":1757848005,"current_range_meters":14400,"station_id":"","pricing_plan_id":"cebpf4jnsgd1na2vs0mg"},{"bike_id":"8ab60a89-bd14-40d7-b359-020ea126cfef","system_id":"levelo_inurba_marseille","lat":43.323687,"lon":5.367645,"is_reserved":false,"is_disabled":false,"rental_uris":{"android":"levelo://app?vid=8ab60a89-bd14-40d7-b359-020ea126cfef","ios":"levelo://app?vid=8ab60a89-bd14-40d7-b359-020ea126cfef"},"vehicle_type_id":"4","last_reported":1757848005,"current_range_meters":14400,"station_id":"ce4bhsh2rcd13ifvqi2g","pricing_plan_id":"cebpf4jnsgd1na2vs0mg"},{"bike_id":"d02b499e-65e9-435e-9af5-6e4dc9981f04","system_id":"levelo_inurba_marseille","lat":43.30142,"lon":5.38108,"is_reserved":false,"is_disabled":false,"rental_uris":{"android":"levelo://app?vid=d02b499e-65e9-435e-9af5-6e4dc9981f04","ios":"levelo://app?vid=d02b499e-65e9-435e-9af5-6e4dc9981f04"},"vehicle_type_id":"4","last_reported":1757848005,"current_range_meters":14400,"station_id":"ce4bgjp2rcd13ifvqbh0","pricing_plan_id":"cebpf4jnsgd1na2vs0mg"},{"bike_id":"2238dd80-da25-4394-9e7e-e6d9c6e345eb","system_id":"levelo_inurba_marseille","lat":43.23193,"lon":5.35554,"is_reserved":false,"is_disabled":false,"rental_uris":{"android":"levelo://app?vid=2238dd80-da25-4394-9e7e-e6d9c6e345eb","ios":"levelo://app?vid=2238dd80-da25-4394-9e7e-e6d9c6e345eb"},"vehicle_type_id":"4","last_reported":1757848005,"current_range_meters":14400,"station_id":"ce4bhu92rcd13ifvqi70","pricing_plan_id":"cebpf4jnsgd1na2vs0mg"},{"bike_id":"7b8152fa-de93-4e27-ac09-b54f1bb4c30f","system_id":"levelo_inurba_marseille","lat":43.21743,"lon":5.346,"is_reserved":false,"is_disabled":false,"rental_uris":{"android":"levelo://app?vid=7b8152fa-de93-4e27-ac09-b54f1bb4c30f","ios":"levelo://app?vid=7b8152fa-de93-4e27-ac09-b54f1bb4c30f"},"vehicle_type_id":"4","last_reported":1757848005,"current_range_meters":14400,"station_id":"st_cvj6r9ubvosntc0bgbag","pricing_plan_id":"cebpf4jnsgd1na2vs0mg"},{"bike_id":"f7f240b3-edef-426a-b1b7-4e508d5c463f","system_id":"levelo_inurba_marseille","lat":43.28266,"lon":5.35061,"is_reserved":false,"is_disabled":false,"rental_uris":{"android":"levelo://app?vid=f7f240b3-edef-426a-b1b7-4e508d5c463f","ios":"levelo://app?vid=f7f240b3-edef-426a-b1b7-4e508d5c463f"},"vehicle_type_id":"4","last_reported":1757848005,"current_range_meters":14400,"station_id":"ce4bhbp2rcd13ifvqerg","pricing_plan_id":"cebpf4jnsgd1na2vs0mg"},{"bike_id":"d9c4202c-de13-4428-8c40-40d90faf1618","system_id":"levelo_inurba_marseille","lat":43.31356,"lon":5.3707,"is_reserved":false,"is_disabled":false,"rental_uris":{"android":"levelo://app?vid=d9c4202c-de13-4428-8c40-40d90faf1618","ios":"levelo://app?vid=d9c4202c-de13-4428-8c40-40d90faf1618"},"vehicle_type_id":"4","last_reported":1757848005,"current_range_meters":14800,"station_id":"","pricing_plan_id":"cebpf4jnsgd1na2vs0mg"},{"bike_id":"4d6e6605-7f16-44fa-a19a-c138ee7cb360","system_id":"levelo_inurba_marseille","lat":43.33799,"lon":5.37446,"is_reserved":false,"is_disabled":false,"rental_uris":{"android":"levelo://app?vid=4d6e6605-7f16-44fa-a19a-c138ee7cb360","ios":"levelo://app?vid=4d6e6605-7f16-44fa-a19a-c138ee7cb360"},"vehicle_type_id":"4","last_reported":1757848005,"current_range_meters":14800,"station_id":"","pricing_plan_id":"cebpf4jnsgd1na2vs0mg"},{"bike_id":"f452951b-dbda-4bd8-9374-3f8fad1ebecd","system_id":"levelo_inurba_marseille","lat":43.30537,"lon":5.36704,"is_reserved":false,"is_disabled":false,"rental_uris":{"android":"levelo://app?vid=f452951b-dbda-4bd8-9374-3f8fad1ebecd","ios":"levelo://app?vid=f452951b-dbda-4bd8-9374-3f8fad1ebecd"},"vehicle_type_id":"4","last_reported":1757848005,"current_range_meters":14800,"station_id":"ce4bgrp2rcd13ifvqc9g","pricing_plan_id":"cebpf4jnsgd1na2vs0mg"},{"bike_id":"48d78278-5d78-458d-b60e-3a04d388a817","system_id":"levelo_inurba_marseille","lat":43.21743,"lon":5.34599,"is_reserved":false,"is_disabled":false,"rental_uris":{"android":"levelo://app?vid=48d78278-5d78-458d-b60e-3a04d388a817","ios":"levelo://app?vid=48d78278-5d78-458d-b60e-3a04d388a817"},"vehicle_type_id":"4","last_reported":1757848005,"current_range_meters":15200,"station_id":"st_cvj6r9ubvosntc0bgbag","pricing_plan_id":"cebpf4jnsgd1na2vs0mg"},{"bike_id":"1a163e9d-a32f-43d1-865c-528535139d85","system_id":"levelo_inurba_marseille","lat":43.23961,"lon":5.36661,"is_reserved":false,"is_disabled":false,"rental_uris":{"android":"levelo://app?vid=1a163e9d-a32f-43d1-865c-528535139d85","ios":"levelo://app?vid=1a163e9d-a32f-43d1-865c-528535139d85"},"vehicle_type_id":"4","last_reported":1757848005,"current_range_meters":15200,"station_id":"ce4bhi12rcd13ifvqfp0","pricing_plan_id":"cebpf4jnsgd1na2vs0mg"},{"bike_id":"7cd36638-7f45-4a69-a923-c5425999b711","system_id":"levelo_inurba_marseille","lat":43.28459,"lon":5.35893,"is_reserved":false,"is_disabled":false,"rental_uris":{"android":"levelo://app?vid=7cd36638-7f45-4a69-a923-c5425999b711","ios":"levelo://app?vid=7cd36638-7f45-4a69-a923-c5425999b711"},"vehicle_type_id":"4","last_reported":1757848005,"current_range_meters":15200,"station_id":"ce4bhah2rcd13ifvqei0","pricing_plan_id":"cebpf4jnsgd1na2vs0mg"},{"bike_id":"78237f29-9b6f-412b-af75-ed66a41f0ebd","system_id":"levelo_inurba_marseille","lat":43.21745,"lon":5.34604,"is_reserved":false,"is_disabled":false,"rental_uris":{"android":"levelo://app?vid=78237f29-9b6f-412b-af75-ed66a41f0ebd","ios":"levelo://app?vid=78237f29-9b6f-412b-af75-ed66a41f0ebd"},"vehicle_type_id":"4","last_reported":1757848005,"current_range_meters":15200,"station_id":"st_cvj6r9ubvosntc0bgbag","pricing_plan_id":"cebpf4jnsgd1na2vs0mg"},{"bike_id":"a7aa72fa-b830-4525-ba62-07f27d7dfc38","system_id":"levelo_inurba_marseille","lat":43.26028,"lon":5.37551,"is_reserved":false,"is_disabled":false,"rental_uris":{"android":"levelo://app?vid=a7aa72fa-b830-4525-ba62-07f27d7dfc38","ios":"levelo://app?vid=a7aa72fa-b830-4525-ba62-07f27d7dfc38"},"vehicle_type_id":"4","last_reported":1757848005,"current_range_meters":15200,"station_id":"ce4bhgh2rcd13ifvqfa0","pricing_plan_id":"cebpf4jnsgd1na2vs0mg"},{"bike_id":"bd94a122-0b7e-468d-a1e2-c5f87f08003e","system_id":"levelo_inurba_marseille","lat":43.24808,"lon":5.37456,"is_reserved":false,"is_disabled":false,"rental_uris":{"android":"levelo://app?vid=bd94a122-0b7e-468d-a1e2-c5f87f08003e","ios":"levelo://app?vid=bd94a122-0b7e-468d-a1e2-c5f87f08003e"},"vehicle_type_id":"4","last_reported":1757848005,"current_range_meters":15200,"station_id":"ce4bhgh2rcd13ifvqfb0","pricing_plan_id":"cebpf4jnsgd1na2vs0mg"},{"bike_id":"c11d7448-afa7-44b8-acea-a15a225574ef","system_id":"levelo_inurba_marseille","lat":43.28412,"lon":5.34994,"is_reserved":false,"is_disabled":false,"rental_uris":{"android":"levelo://app?vid=c11d7448-afa7-44b8-acea-a15a225574ef","ios":"levelo://app?vid=c11d7448-afa7-44b8-acea-a15a225574ef"},"vehicle_type_id":"4","last_reported":1757848005,"current_range_meters":15200,"station_id":"ce4bhbh2rcd13ifvqepg","pricing_plan_id":"cebpf4jnsgd1na2vs0mg"},{"bike_id":"001c068c-be79-48ee-91b8-0f25d68559ee","system_id":"levelo_inurba_marseille","lat":43.23192,"lon":5.35555,"is_reserved":false,"is_disabled":false,"rental_uris":{"android":"levelo://app?vid=001c068c-be79-48ee-91b8-0f25d68559ee","ios":"levelo://app?vid=001c068c-be79-48ee-91b8-0f25d68559ee"},"vehicle_type_id":"4","last_reported":1757848005,"current_range_meters":15200,"station_id":"ce4bhu92rcd13ifvqi70","pricing_plan_id":"cebpf4jnsgd1na2vs0mg"},{"bike_id":"fe15a549-1ad3-4f28-a028-5a06d9fb4748","system_id":"levelo_inurba_marseille","lat":43.2798,"lon":5.41667,"is_reserved":false,"is_disabled":false,"rental_uris":{"android":"levelo://app?vid=fe15a549-1ad3-4f28-a028-5a06d9fb4748","ios":"levelo://app?vid=fe15a549-1ad3-4f28-a028-5a06d9fb4748"},"vehicle_type_id":"4","last_reported":1757848005,"current_range_meters":16000,"station_id":"ce4bho12rcd13ifvqh1g","pricing_plan_id":"cebpf4jnsgd1na2vs0mg"},{"bike_id":"a26421e4-307f-4ce8-baa5-60f9681e67fa","system_id":"levelo_inurba_marseille","lat":43.28257,"lon":5.35076,"is_reserved":false,"is_disabled":false,"rental_uris":{"android":"levelo://app?vid=a26421e4-307f-4ce8-baa5-60f9681e67fa","ios":"levelo://app?vid=a26421e4-307f-4ce8-baa5-60f9681e67fa"},"vehicle_type_id":"4","last_reported":1757848005,"current_range_meters":16000,"station_id":"ce4bhbp2rcd13ifvqerg","pricing_plan_id":"cebpf4jnsgd1na2vs0mg"},{"bike_id":"fa1291a5-cb1d-4d63-8a02-0cf9a56cdc2b","system_id":"levelo_inurba_marseille","lat":43.28434,"lon":5.35006,"is_reserved":false,"is_disabled":false,"rental_uris":{"android":"levelo://app?vid=fa1291a5-cb1d-4d63-8a02-0cf9a56cdc2b","ios":"levelo://app?vid=fa1291a5-cb1d-4d63-8a02-0cf9a56cdc2b"},"vehicle_type_id":"4","last_reported":1757848005,"current_range_meters":16000,"station_id":"ce4bhbh2rcd13ifvqepg","pricing_plan_id":"cebpf4jnsgd1na2vs0mg"},{"bike_id":"4955a604-af0c-4acb-b892-574c39c673c0","system_id":"levelo_inurba_marseille","lat":43.28415,"lon":5.34988,"is_reserved":false,"is_disabled":false,"rental_uris":{"android":"levelo://app?vid=4955a604-af0c-4acb-b892-574c39c673c0","ios":"levelo://app?vid=4955a604-af0c-4acb-b892-574c39c673c0"},"vehicle_type_id":"4","last_reported":1757848005,"current_range_meters":16000,"station_id":"ce4bhbh2rcd13ifvqepg","pricing_plan_id":"cebpf4jnsgd1na2vs0mg"},{"bike_id":"e8930cfa-2c36-4dbf-ab3e-6afdedf38824","system_id":"levelo_inurba_marseille","lat":43.22559,"lon":5.41637,"is_reserved":false,"is_disabled":false,"rental_uris":{"android":"levelo://app?vid=e8930cfa-2c36-4dbf-ab3e-6afdedf38824","ios":"levelo://app?vid=e8930cfa-2c36-4dbf-ab3e-6afdedf38824"},"vehicle_type_id":"4","last_reported":1757848005,"current_range_meters":16000,"station_id":"st_d2o4gvlbi1j2169b742g","pricing_plan_id":"cebpf4jnsgd1na2vs0mg"},{"bike_id":"c79f98a5-b132-4d8b-b050-5e48074dc6fe","system_id":"levelo_inurba_marseille","lat":43.31695,"lon":5.40452,"is_reserved":false,"is_disabled":false,"rental_uris":{"android":"levelo://app?vid=c79f98a5-b132-4d8b-b050-5e48074dc6fe","ios":"levelo://app?vid=c79f98a5-b132-4d8b-b050-5e48074dc6fe"},"vehicle_type_id":"4","last_reported":1757848005,"current_range_meters":16000,"station_id":"ce4bh012rcd13ifvqd00","pricing_plan_id":"cebpf4jnsgd1na2vs0mg"},{"bike_id":"c0f5e004-e3fc-4d29-bfb4-ffa34100fcb2","system_id":"levelo_inurba_marseille","lat":43.28622,"lon":5.35096,"is_reserved":false,"is_disabled":false,"rental_uris":{"android":"levelo://app?vid=c0f5e004-e3fc-4d29-bfb4-ffa34100fcb2","ios":"levelo://app?vid=c0f5e004-e3fc-4d29-bfb4-ffa34100fcb2"},"vehicle_type_id":"4","last_reported":1757848005,"current_range_meters":16000,"station_id":"ce4bhch2rcd13ifvqeug","pricing_plan_id":"cebpf4jnsgd1na2vs0mg"},{"bike_id":"e06d2e94-3ae2-4b4b-9d7e-05d3f806365a","system_id":"levelo_inurba_marseille","lat":43.25841,"lon":5.39448,"is_reserved":false,"is_disabled":false,"rental_uris":{"android":"levelo://app?vid=e06d2e94-3ae2-4b4b-9d7e-05d3f806365a","ios":"levelo://app?vid=e06d2e94-3ae2-4b4b-9d7e-05d3f806365a"},"vehicle_type_id":"4","last_reported":1757848005,"current_range_meters":16000,"station_id":"ce4bhip2rcd13ifvqft0","pricing_plan_id":"cebpf4jnsgd1na2vs0mg"},{"bike_id":"0fe4222f-e03d-4a72-911d-1fe1e50dd964","system_id":"levelo_inurba_marseille","lat":43.211896,"lon":5.350651,"is_reserved":false,"is_disabled":false,"rental_uris":{"android":"levelo://app?vid=0fe4222f-e03d-4a72-911d-1fe1e50dd964","ios":"levelo://app?vid=0fe4222f-e03d-4a72-911d-1fe1e50dd964"},"vehicle_type_id":"4","last_reported":1757848005,"current_range_meters":16000,"station_id":"st_cvj6sg6p6f1abm77japg","pricing_plan_id":"cebpf4jnsgd1na2vs0mg"},{"bike_id":"746f8f66-7f46-4e2a-8f64-942936320bf9","system_id":"levelo_inurba_marseille","lat":43.23968,"lon":5.36634,"is_reserved":false,"is_disabled":true,"rental_uris":{"android":"levelo://app?vid=746f8f66-7f46-4e2a-8f64-942936320bf9","ios":"levelo://app?vid=746f8f66-7f46-4e2a-8f64-942936320bf9"},"vehicle_type_id":"4","last_reported":1757848005,"current_range_meters":16000,"station_id":"ce4bhi12rcd13ifvqfp0","pricing_plan_id":"cebpf4jnsgd1na2vs0mg"},{"bike_id":"ee72df23-ebe6-49e4-9c09-87e4d82d2186","system_id":"levelo_inurba_marseille","lat":43.29788,"lon":5.39313,"is_reserved":false,"is_disabled":false,"rental_uris":{"android":"levelo://app?vid=ee72df23-ebe6-49e4-9c09-87e4d82d2186","ios":"levelo://app?vid=ee72df23-ebe6-49e4-9c09-87e4d82d2186"},"vehicle_type_id":"4","last_reported":1757848005,"current_range_meters":16000,"station_id":"chh1huq6cuj3fo74tm60","pricing_plan_id":"cebpf4jnsgd1na2vs0mg"},{"bike_id":"1fe8009c-1b55-492e-9ab0-ffc8a7ce4233","system_id":"levelo_inurba_marseille","lat":43.24948,"lon":5.40484,"is_reserved":false,"is_disabled":false,"rental_uris":{"android":"levelo://app?vid=1fe8009c-1b55-492e-9ab0-ffc8a7ce4233","ios":"levelo://app?vid=1fe8009c-1b55-492e-9ab0-ffc8a7ce4233"},"vehicle_type_id":"4","last_reported":1757848005,"current_range_meters":16400,"station_id":"st_d2ngiaodas8pm72gd1h0","pricing_plan_id":"cebpf4jnsgd1na2vs0mg"},{"bike_id":"23ad37ab-10ab-4690-b402-4773c9ee2500","system_id":"levelo_inurba_marseille","lat":43.31757,"lon":5.39011,"is_reserved":false,"is_disabled":false,"rental_uris":{"android":"levelo://app?vid=23ad37ab-10ab-4690-b402-4773c9ee2500","ios":"levelo://app?vid=23ad37ab-10ab-4690-b402-4773c9ee2500"},"vehicle_type_id":"4","last_reported":1757848005,"current_range_meters":16400,"station_id":"ce4bhqp2rcd13ifvqhng","pricing_plan_id":"cebpf4jnsgd1na2vs0mg"},{"bike_id":"28fd42f5-9ead-4ad4-a766-55f311e8dc35","system_id":"levelo_inurba_marseille","lat":43.2848,"lon":5.38403,"is_reserved":false,"is_disabled":false,"rental_uris":{"android":"levelo://app?vid=28fd42f5-9ead-4ad4-a766-55f311e8dc35","ios":"levelo://app?vid=28fd42f5-9ead-4ad4-a766-55f311e8dc35"},"vehicle_type_id":"4","last_reported":1757848005,"current_range_meters":16000,"station_id":"ce4bh512rcd13ifvqe3g","pricing_plan_id":"cebpf4jnsgd1na2vs0mg"},{"bike_id":"815f379f-0899-4a38-b291-e02068f97d88","system_id":"levelo_inurba_marseille","lat":43.24169,"lon":5.36376,"is_reserved":false,"is_disabled":false,"rental_uris":{"android":"levelo://app?vid=815f379f-0899-4a38-b291-e02068f97d88","ios":"levelo://app?vid=815f379f-0899-4a38-b291-e02068f97d88"},"vehicle_type_id":"4","last_reported":1757848005,"current_range_meters":16400,"station_id":"cpo36qri1sfpv3e86is0","pricing_plan_id":"cebpf4jnsgd1na2vs0mg"},{"bike_id":"95596dd3-4250-42b5-9ddd-9f8da69f658f","system_id":"levelo_inurba_marseille","lat":43.26556,"lon":5.39009,"is_reserved":false,"is_disabled":false,"rental_uris":{"android":"levelo://app?vid=95596dd3-4250-42b5-9ddd-9f8da69f658f","ios":"levelo://app?vid=95596dd3-4250-42b5-9ddd-9f8da69f658f"},"vehicle_type_id":"4","last_reported":1757848005,"current_range_meters":16400,"station_id":"ce4bhe12rcd13ifvqf30","pricing_plan_id":"cebpf4jnsgd1na2vs0mg"},{"bike_id":"9dff5ff0-e362-4d23-bd51-ebe50c0591cb","system_id":"levelo_inurba_marseille","lat":43.257205,"lon":5.411136,"is_reserved":false,"is_disabled":false,"rental_uris":{"android":"levelo://app?vid=9dff5ff0-e362-4d23-bd51-ebe50c0591cb","ios":"levelo://app?vid=9dff5ff0-e362-4d23-bd51-ebe50c0591cb"},"vehicle_type_id":"4","last_reported":1757848005,"current_range_meters":16400,"station_id":"ce4bhkp2rcd13ifvqgd0","pricing_plan_id":"cebpf4jnsgd1na2vs0mg"},{"bike_id":"d9a7c4bd-53f2-4cde-a7f4-552208dff846","system_id":"levelo_inurba_marseille","lat":43.25094,"lon":5.39498,"is_reserved":false,"is_disabled":false,"rental_uris":{"android":"levelo://app?vid=d9a7c4bd-53f2-4cde-a7f4-552208dff846","ios":"levelo://app?vid=d9a7c4bd-53f2-4cde-a7f4-552208dff846"},"vehicle_type_id":"4","last_reported":1757848005,"current_range_meters":16400,"station_id":"ce4bhm12rcd13ifvqgkg","pricing_plan_id":"cebpf4jnsgd1na2vs0mg"},{"bike_id":"4e5060dc-6934-450d-a348-9df609f4dc10","system_id":"levelo_inurba_marseille","lat":43.28351,"lon":5.3864,"is_reserved":false,"is_disabled":false,"rental_uris":{"android":"levelo://app?vid=4e5060dc-6934-450d-a348-9df609f4dc10","ios":"levelo://app?vid=4e5060dc-6934-450d-a348-9df609f4dc10"},"vehicle_type_id":"4","last_reported":1757848005,"current_range_meters":16400,"station_id":"ce4bh492rcd13ifvqdvg","pricing_plan_id":"cebpf4jnsgd1na2vs0mg"},{"bike_id":"16ef31c1-2e5b-4605-8b2a-c02c4f7600b2","system_id":"levelo_inurba_marseille","lat":43.24169,"lon":5.39722,"is_reserved":false,"is_disabled":false,"rental_uris":{"android":"levelo://app?vid=16ef31c1-2e5b-4605-8b2a-c02c4f7600b2","ios":"levelo://app?vid=16ef31c1-2e5b-4605-8b2a-c02c4f7600b2"},"vehicle_type_id":"4","last_reported":1757848005,"current_range_meters":16400,"station_id":"ce4bhn12rcd13ifvqgpg","pricing_plan_id":"cebpf4jnsgd1na2vs0mg"},{"bike_id":"35ac33de-7ed8-4e70-a313-09a39f997c10","system_id":"levelo_inurba_marseille","lat":43.28456,"lon":5.35011,"is_reserved":false,"is_disabled":false,"rental_uris":{"android":"levelo://app?vid=35ac33de-7ed8-4e70-a313-09a39f997c10","ios":"levelo://app?vid=35ac33de-7ed8-4e70-a313-09a39f997c10"},"vehicle_type_id":"4","last_reported":1757848005,"current_range_meters":16400,"station_id":"","pricing_plan_id":"cebpf4jnsgd1na2vs0mg"},{"bike_id":"03132566-5a97-4fb4-a0cf-f60e59d4e9c5","system_id":"levelo_inurba_marseille","lat":43.25002,"lon":5.38917,"is_reserved":false,"is_disabled":false,"rental_uris":{"android":"levelo://app?vid=03132566-5a97-4fb4-a0cf-f60e59d4e9c5","ios":"levelo://app?vid=03132566-5a97-4fb4-a0cf-f60e59d4e9c5"},"vehicle_type_id":"4","last_reported":1757848005,"current_range_meters":16400,"station_id":"ce4bhgp2rcd13ifvqfd0","pricing_plan_id":"cebpf4jnsgd1na2vs0mg"},{"bike_id":"19c4d25f-abfd-4c2e-b23c-e8768d70873f","system_id":"levelo_inurba_marseille","lat":43.24386,"lon":5.37063,"is_reserved":false,"is_disabled":false,"rental_uris":{"android":"levelo://app?vid=19c4d25f-abfd-4c2e-b23c-e8768d70873f","ios":"levelo://app?vid=19c4d25f-abfd-4c2e-b23c-e8768d70873f"},"vehicle_type_id":"4","last_reported":1757848005,"current_range_meters":16800,"station_id":"ce4bhhh2rcd13ifvqfk0","pricing_plan_id":"cebpf4jnsgd1na2vs0mg"},{"bike_id":"39a64a98-27fe-4301-8824-15b5af8ab1a2","system_id":"levelo_inurba_marseille","lat":43.28946,"lon":5.36633,"is_reserved":false,"is_disabled":false,"rental_uris":{"android":"levelo://app?vid=39a64a98-27fe-4301-8824-15b5af8ab1a2","ios":"levelo://app?vid=39a64a98-27fe-4301-8824-15b5af8ab1a2"},"vehicle_type_id":"4","last_reported":1757848005,"current_range_meters":16800,"station_id":"ce4bhap2rcd13ifvqek0","pricing_plan_id":"cebpf4jnsgd1na2vs0mg"},{"bike_id":"f75319f4-d3a6-440f-9c89-5af7f4acd041","system_id":"levelo_inurba_marseille","lat":43.22563,"lon":5.41619,"is_reserved":false,"is_disabled":false,"rental_uris":{"android":"levelo://app?vid=f75319f4-d3a6-440f-9c89-5af7f4acd041","ios":"levelo://app?vid=f75319f4-d3a6-440f-9c89-5af7f4acd041"},"vehicle_type_id":"4","last_reported":1757848005,"current_range_meters":16800,"station_id":"st_d2o4gvlbi1j2169b742g","pricing_plan_id":"cebpf4jnsgd1na2vs0mg"},{"bike_id":"b002a392-08fa-4b2e-b212-3e002cd96c5d","system_id":"levelo_inurba_marseille","lat":43.23951,"lon":5.36646,"is_reserved":false,"is_disabled":false,"rental_uris":{"android":"levelo://app?vid=b002a392-08fa-4b2e-b212-3e002cd96c5d","ios":"levelo://app?vid=b002a392-08fa-4b2e-b212-3e002cd96c5d"},"vehicle_type_id":"4","last_reported":1757848005,"current_range_meters":16800,"station_id":"ce4bhi12rcd13ifvqfp0","pricing_plan_id":"cebpf4jnsgd1na2vs0mg"},{"bike_id":"5fefaf2e-3565-4490-82b2-a2939c71ed6c","system_id":"levelo_inurba_marseille","lat":43.28417,"lon":5.34983,"is_reserved":false,"is_disabled":false,"rental_uris":{"android":"levelo://app?vid=5fefaf2e-3565-4490-82b2-a2939c71ed6c","ios":"levelo://app?vid=5fefaf2e-3565-4490-82b2-a2939c71ed6c"},"vehicle_type_id":"4","last_reported":1757848005,"current_range_meters":16800,"station_id":"ce4bhbh2rcd13ifvqepg","pricing_plan_id":"cebpf4jnsgd1na2vs0mg"},{"bike_id":"b6e71227-cf24-477c-a6b4-dcaf891c7903","system_id":"levelo_inurba_marseille","lat":43.25581,"lon":5.38246,"is_reserved":false,"is_disabled":false,"rental_uris":{"android":"levelo://app?vid=b6e71227-cf24-477c-a6b4-dcaf891c7903","ios":"levelo://app?vid=b6e71227-cf24-477c-a6b4-dcaf891c7903"},"vehicle_type_id":"4","last_reported":1757848005,"current_range_meters":16800,"station_id":"ce4bhih2rcd13ifvqfs0","pricing_plan_id":"cebpf4jnsgd1na2vs0mg"},{"bike_id":"e54a1e7f-72fe-4f72-999a-0b938621ab02","system_id":"levelo_inurba_marseille","lat":43.231527,"lon":5.436968,"is_reserved":false,"is_disabled":false,"rental_uris":{"android":"levelo://app?vid=e54a1e7f-72fe-4f72-999a-0b938621ab02","ios":"levelo://app?vid=e54a1e7f-72fe-4f72-999a-0b938621ab02"},"vehicle_type_id":"4","last_reported":1757848005,"current_range_meters":16800,"station_id":"ce4bhmp2rcd13ifvqgog","pricing_plan_id":"cebpf4jnsgd1na2vs0mg"},{"bike_id":"d73f7fb3-c8ea-453d-bf17-b6619453a1de","system_id":"levelo_inurba_marseille","lat":43.21191,"lon":5.35072,"is_reserved":false,"is_disabled":false,"rental_uris":{"android":"levelo://app?vid=d73f7fb3-c8ea-453d-bf17-b6619453a1de","ios":"levelo://app?vid=d73f7fb3-c8ea-453d-bf17-b6619453a1de"},"vehicle_type_id":"4","last_reported":1757848005,"current_range_meters":16800,"station_id":"st_cvj6sg6p6f1abm77japg","pricing_plan_id":"cebpf4jnsgd1na2vs0mg"},{"bike_id":"f0f4ebac-d0f3-475e-aa5e-1c4c1f160741","system_id":"levelo_inurba_marseille","lat":43.28699,"lon":5.37397,"is_reserved":false,"is_disabled":false,"rental_uris":{"android":"levelo://app?vid=f0f4ebac-d0f3-475e-aa5e-1c4c1f160741","ios":"levelo://app?vid=f0f4ebac-d0f3-475e-aa5e-1c4c1f160741"},"vehicle_type_id":"4","last_reported":1757848005,"current_range_meters":17200,"station_id":"ce4bh3p2rcd13ifvqdq0","pricing_plan_id":"cebpf4jnsgd1na2vs0mg"},{"bike_id":"950a5f0c-6122-4d8d-a42b-4763023d14f2","system_id":"levelo_inurba_marseille","lat":43.2549,"lon":5.37645,"is_reserved":false,"is_disabled":true,"rental_uris":{"android":"levelo://app?vid=950a5f0c-6122-4d8d-a42b-4763023d14f2","ios":"levelo://app?vid=950a5f0c-6122-4d8d-a42b-4763023d14f2"},"vehicle_type_id":"4","last_reported":1757848005,"current_range_meters":17200,"station_id":"ce4bhh12rcd13ifvqff0","pricing_plan_id":"cebpf4jnsgd1na2vs0mg"},{"bike_id":"d27a5be8-d7fd-4827-a8b4-c4cbf1e10c7d","system_id":"levelo_inurba_marseille","lat":43.27376,"lon":5.36247,"is_reserved":false,"is_disabled":false,"rental_uris":{"android":"levelo://app?vid=d27a5be8-d7fd-4827-a8b4-c4cbf1e10c7d","ios":"levelo://app?vid=d27a5be8-d7fd-4827-a8b4-c4cbf1e10c7d"},"vehicle_type_id":"4","last_reported":1757848005,"current_range_meters":17200,"station_id":"ce4bhbh2rcd13ifvqeo0","pricing_plan_id":"cebpf4jnsgd1na2vs0mg"},{"bike_id":"15c12f1b-150c-43be-9134-ac05fb9a1bef","system_id":"levelo_inurba_marseille","lat":43.29055,"lon":5.37153,"is_reserved":false,"is_disabled":true,"rental_uris":{"android":"levelo://app?vid=15c12f1b-150c-43be-9134-ac05fb9a1bef","ios":"levelo://app?vid=15c12f1b-150c-43be-9134-ac05fb9a1bef"},"vehicle_type_id":"4","last_reported":1757848005,"current_range_meters":17200,"station_id":"ce4bh5p2rcd13ifvqe4g","pricing_plan_id":"cebpf4jnsgd1na2vs0mg"},{"bike_id":"18bd701a-3668-4c24-9e99-24145dd8b809","system_id":"levelo_inurba_marseille","lat":43.21746,"lon":5.346,"is_reserved":false,"is_disabled":false,"rental_uris":{"android":"levelo://app?vid=18bd701a-3668-4c24-9e99-24145dd8b809","ios":"levelo://app?vid=18bd701a-3668-4c24-9e99-24145dd8b809"},"vehicle_type_id":"4","last_reported":1757848005,"current_range_meters":17200,"station_id":"st_cvj6r9ubvosntc0bgbag","pricing_plan_id":"cebpf4jnsgd1na2vs0mg"},{"bike_id":"fc59cc99-c778-4d76-aabe-1a633232d6bf","system_id":"levelo_inurba_marseille","lat":43.24102,"lon":5.37793,"is_reserved":false,"is_disabled":false,"rental_uris":{"android":"levelo://app?vid=fc59cc99-c778-4d76-aabe-1a633232d6bf","ios":"levelo://app?vid=fc59cc99-c778-4d76-aabe-1a633232d6bf"},"vehicle_type_id":"4","last_reported":1757848005,"current_range_meters":17200,"station_id":"ce4bhnp2rcd13ifvqgvg","pricing_plan_id":"cebpf4jnsgd1na2vs0mg"},{"bike_id":"5a99ee1e-45f4-4641-890f-b103493481c0","system_id":"levelo_inurba_marseille","lat":43.31703,"lon":5.40445,"is_reserved":false,"is_disabled":false,"rental_uris":{"android":"levelo://app?vid=5a99ee1e-45f4-4641-890f-b103493481c0","ios":"levelo://app?vid=5a99ee1e-45f4-4641-890f-b103493481c0"},"vehicle_type_id":"4","last_reported":1757848005,"current_range_meters":17200,"station_id":"ce4bh012rcd13ifvqd00","pricing_plan_id":"cebpf4jnsgd1na2vs0mg"},{"bike_id":"d218c5c8-561a-4a42-b2aa-19b6c9da74fb","system_id":"levelo_inurba_marseille","lat":43.31686,"lon":5.40455,"is_reserved":false,"is_disabled":false,"rental_uris":{"android":"levelo://app?vid=d218c5c8-561a-4a42-b2aa-19b6c9da74fb","ios":"levelo://app?vid=d218c5c8-561a-4a42-b2aa-19b6c9da74fb"},"vehicle_type_id":"4","last_reported":1757848005,"current_range_meters":17200,"station_id":"ce4bh012rcd13ifvqd00","pricing_plan_id":"cebpf4jnsgd1na2vs0mg"},{"bike_id":"1eef0295-a46f-498c-8ccd-78ffa5daa27b","system_id":"levelo_inurba_marseille","lat":43.23148,"lon":5.43715,"is_reserved":false,"is_disabled":false,"rental_uris":{"android":"levelo://app?vid=1eef0295-a46f-498c-8ccd-78ffa5daa27b","ios":"levelo://app?vid=1eef0295-a46f-498c-8ccd-78ffa5daa27b"},"vehicle_type_id":"4","last_reported":1757848005,"current_range_meters":17200,"station_id":"ce4bhmp2rcd13ifvqgog","pricing_plan_id":"cebpf4jnsgd1na2vs0mg"},{"bike_id":"d4872768-29b4-4a0c-af32-7e886d10eff6","system_id":"levelo_inurba_marseille","lat":43.32351,"lon":5.40612,"is_reserved":false,"is_disabled":false,"rental_uris":{"android":"levelo://app?vid=d4872768-29b4-4a0c-af32-7e886d10eff6","ios":"levelo://app?vid=d4872768-29b4-4a0c-af32-7e886d10eff6"},"vehicle_type_id":"4","last_reported":1757848005,"current_range_meters":17200,"station_id":"ce4bhq92rcd13ifvqhjg","pricing_plan_id":"cebpf4jnsgd1na2vs0mg"},{"bike_id":"fec0f72f-c0f4-4b8a-8bc3-43617c541bad","system_id":"levelo_inurba_marseille","lat":43.31685,"lon":5.40472,"is_reserved":false,"is_disabled":false,"rental_uris":{"android":"levelo://app?vid=fec0f72f-c0f4-4b8a-8bc3-43617c541bad","ios":"levelo://app?vid=fec0f72f-c0f4-4b8a-8bc3-43617c541bad"},"vehicle_type_id":"4","last_reported":1757848005,"current_range_meters":17200,"station_id":"ce4bh012rcd13ifvqd00","pricing_plan_id":"cebpf4jnsgd1na2vs0mg"},{"bike_id":"cf66a869-3e1a-4e03-ab83-74d7d635d0b8","system_id":"levelo_inurba_marseille","lat":43.2926,"lon":5.40913,"is_reserved":false,"is_disabled":true,"rental_uris":{"android":"levelo://app?vid=cf66a869-3e1a-4e03-ab83-74d7d635d0b8","ios":"levelo://app?vid=cf66a869-3e1a-4e03-ab83-74d7d635d0b8"},"vehicle_type_id":"4","last_reported":1757848005,"current_range_meters":17600,"station_id":"ce4bh192rcd13ifvqdc0","pricing_plan_id":"cebpf4jnsgd1na2vs0mg"},{"bike_id":"175c8e73-b36d-466c-9a0e-cf702b6c036a","system_id":"levelo_inurba_marseille","lat":43.3237,"lon":5.38879,"is_reserved":false,"is_disabled":false,"rental_uris":{"android":"levelo://app?vid=175c8e73-b36d-466c-9a0e-cf702b6c036a","ios":"levelo://app?vid=175c8e73-b36d-466c-9a0e-cf702b6c036a"},"vehicle_type_id":"4","last_reported":1757848005,"current_range_meters":17600,"station_id":"ce4bhqp2rcd13ifvqhog","pricing_plan_id":"cebpf4jnsgd1na2vs0mg"},{"bike_id":"ab19ad09-fc99-4c0f-a766-a2dcc2f586a8","system_id":"levelo_inurba_marseille","lat":43.29574,"lon":5.36747,"is_reserved":false,"is_disabled":false,"rental_uris":{"android":"levelo://app?vid=ab19ad09-fc99-4c0f-a766-a2dcc2f586a8","ios":"levelo://app?vid=ab19ad09-fc99-4c0f-a766-a2dcc2f586a8"},"vehicle_type_id":"4","last_reported":1757848005,"current_range_meters":17600,"station_id":"ce4bgph2rcd13ifvqc2g","pricing_plan_id":"cebpf4jnsgd1na2vs0mg"},{"bike_id":"95251c11-6699-4aa0-8909-a444151e2dc9","system_id":"levelo_inurba_marseille","lat":43.24089,"lon":5.37725,"is_reserved":false,"is_disabled":false,"rental_uris":{"android":"levelo://app?vid=95251c11-6699-4aa0-8909-a444151e2dc9","ios":"levelo://app?vid=95251c11-6699-4aa0-8909-a444151e2dc9"},"vehicle_type_id":"4","last_reported":1757848005,"current_range_meters":17600,"station_id":"ce4bhnp2rcd13ifvqgvg","pricing_plan_id":"cebpf4jnsgd1na2vs0mg"},{"bike_id":"c9f82b86-7ced-43c5-8bc4-fa83f1b9c33c","system_id":"levelo_inurba_marseille","lat":43.24673,"lon":5.38155,"is_reserved":false,"is_disabled":false,"rental_uris":{"android":"levelo://app?vid=c9f82b86-7ced-43c5-8bc4-fa83f1b9c33c","ios":"levelo://app?vid=c9f82b86-7ced-43c5-8bc4-fa83f1b9c33c"},"vehicle_type_id":"4","last_reported":1757848005,"current_range_meters":17600,"station_id":"ce4bhih2rcd13ifvqfr0","pricing_plan_id":"cebpf4jnsgd1na2vs0mg"},{"bike_id":"777ff417-3a86-45a9-9277-be4920b499e5","system_id":"levelo_inurba_marseille","lat":43.248114,"lon":5.374591,"is_reserved":false,"is_disabled":false,"rental_uris":{"android":"levelo://app?vid=777ff417-3a86-45a9-9277-be4920b499e5","ios":"levelo://app?vid=777ff417-3a86-45a9-9277-be4920b499e5"},"vehicle_type_id":"4","last_reported":1757848005,"current_range_meters":17600,"station_id":"ce4bhgh2rcd13ifvqfb0","pricing_plan_id":"cebpf4jnsgd1na2vs0mg"},{"bike_id":"40b93dab-e6b1-40d5-9133-e6db4ba694b1","system_id":"levelo_inurba_marseille","lat":43.28157,"lon":5.42634,"is_reserved":false,"is_disabled":false,"rental_uris":{"android":"levelo://app?vid=40b93dab-e6b1-40d5-9133-e6db4ba694b1","ios":"levelo://app?vid=40b93dab-e6b1-40d5-9133-e6db4ba694b1"},"vehicle_type_id":"4","last_reported":1757848005,"current_range_meters":17600,"station_id":"ce4bhnh2rcd13ifvqgug","pricing_plan_id":"cebpf4jnsgd1na2vs0mg"},{"bike_id":"d820b9ba-6d75-45da-b3d3-123f12057990","system_id":"levelo_inurba_marseille","lat":43.30466,"lon":5.37895,"is_reserved":false,"is_disabled":true,"rental_uris":{"android":"levelo://app?vid=d820b9ba-6d75-45da-b3d3-123f12057990","ios":"levelo://app?vid=d820b9ba-6d75-45da-b3d3-123f12057990"},"vehicle_type_id":"4","last_reported":1757848005,"current_range_meters":17600,"station_id":"ce4bgup2rcd13ifvqcn0","pricing_plan_id":"cebpf4jnsgd1na2vs0mg"},{"bike_id":"aad1d370-78d5-4e35-a04f-e74148325d68","system_id":"levelo_inurba_marseille","lat":43.29001,"lon":5.40221,"is_reserved":false,"is_disabled":true,"rental_uris":{"android":"levelo://app?vid=aad1d370-78d5-4e35-a04f-e74148325d68","ios":"levelo://app?vid=aad1d370-78d5-4e35-a04f-e74148325d68"},"vehicle_type_id":"4","last_reported":1757848005,"current_range_meters":17600,"station_id":"","pricing_plan_id":"cebpf4jnsgd1na2vs0mg"},{"bike_id":"a4b8a481-76d2-4e6f-9c40-3ea71209e251","system_id":"levelo_inurba_marseille","lat":43.28624,"lon":5.37055,"is_reserved":false,"is_disabled":false,"rental_uris":{"android":"levelo://app?vid=a4b8a481-76d2-4e6f-9c40-3ea71209e251","ios":"levelo://app?vid=a4b8a481-76d2-4e6f-9c40-3ea71209e251"},"vehicle_type_id":"4","last_reported":1757848005,"current_range_meters":17600,"station_id":"ce4bht12rcd13ifvqi60","pricing_plan_id":"cebpf4jnsgd1na2vs0mg"},{"bike_id":"a823f827-c63a-4b2a-9df6-c026b3615ea6","system_id":"levelo_inurba_marseille","lat":43.217363,"lon":5.34603,"is_reserved":false,"is_disabled":false,"rental_uris":{"android":"levelo://app?vid=a823f827-c63a-4b2a-9df6-c026b3615ea6","ios":"levelo://app?vid=a823f827-c63a-4b2a-9df6-c026b3615ea6"},"vehicle_type_id":"4","last_reported":1757848005,"current_range_meters":17600,"station_id":"st_cvj6r9ubvosntc0bgbag","pricing_plan_id":"cebpf4jnsgd1na2vs0mg"},{"bike_id":"4793ce5f-af71-4dae-b407-a41fa212b056","system_id":"levelo_inurba_marseille","lat":43.30799,"lon":5.38154,"is_reserved":false,"is_disabled":false,"rental_uris":{"android":"levelo://app?vid=4793ce5f-af71-4dae-b407-a41fa212b056","ios":"levelo://app?vid=4793ce5f-af71-4dae-b407-a41fa212b056"},"vehicle_type_id":"4","last_reported":1757848005,"current_range_meters":18000,"station_id":"ce4bgt12rcd13ifvqce0","pricing_plan_id":"cebpf4jnsgd1na2vs0mg"},