{"last_updated":1702773507,"ttl":30,"version":"2.2","data":{"bikes":[{"bike_id":"78ce49c1-6596-4265-9140-7660994e7b05","system_id":"levelo_inurba_marseille","lat":43.314811,"lon":5.373103,"is_reserved":false,"is_disabled":false,"rental_uris":{"android":"levelo://app?vid=78ce49c1-6596-4265-9140-7660994e7b05","ios":"levelo://app?vid=78ce49c1-6596-4265-9140-7660994e7b05"},"vehicle_type_id":"4","last_reported":1702773507,"current_range_meters":16000,"station_id":"ce4bgt12rcd13ifvqcd0","pricing_plan_id":"free"},{"bike_id":"db79d80b-581d-4c6c-8ef4-4e4cdf5c2bae","system_id":"levelo_inurba_marseille","lat":43.314811,"lon":5.373104,"is_reserved":false,"is_disabled":false,"rental_uris":{"android":"levelo://app?vid=db79d80b-581d-4c6c-8ef4-4e4cdf5c2bae","ios":"levelo://app?vid=db79d80b-581d-4c6c-8ef4-4e4cdf5c2bae"},"vehicle_type_id":"4","last_reported":1702773507,"current_range_meters":2800,"station_id":"ce4bgt12rcd13ifvqcd0","pricing_plan_id":"free"},{"bike_id":"f8c6c7c9-1b6e-4d20-9159-6934f1776a66","system_id":"levelo_inurba_marseille","lat":43.309039,"lon":5.371797,"is_reserved":false,"is_disabled":false,"rental_uris":{"android":"levelo://app?vid=f8c6c7c9-1b6e-4d20-9159-6934f1776a66","ios":"levelo://app?vid=f8c6c7c9-1b6e-4d20-9159-6934f1776a66"},"vehicle_type_id":"4","last_reported":1702773507,"current_range_meters":3600,"station_id":"ce4bguh2rcd13ifvqckg","pricing_plan_id":"free"},{"bike_id":"3f8b821f-e430-4a35-bf14-f8b6e777ea11","system_id":"levelo_inurba_marseille","lat":43.313939,"lon":5.375306,"is_reserved":false,"is_disabled":false,"rental_uris":{"android":"levelo://app?vid=3f8b821f-e430-4a35-bf14-f8b6e777ea11","ios":"levelo://app?vid=3f8b821f-e430-4a35-bf14-f8b6e777ea11"},"vehicle_type_id":"4","last_reported":1702773507,"current_range_meters":0,"station_id":"","pricing_plan_id":"free"},{"bike_id":"955e4ab2-16e5-44e8-a986-a2f50ff96c06","system_id":"levelo_inurba_marseille","lat":43.305382,"lon":5.365389,"is_reserved":false,"is_disabled":false,"rental_uris":{"android":"levelo://app?vid=955e4ab2-16e5-44e8-a986-a2f50ff96c06","ios":"levelo://app?vid=955e4ab2-16e5-44e8-a986-a2f50ff96c06"},"vehicle_type_id":"4","last_reported":1702773507,"current_range_meters":13600,"station_id":"","pricing_plan_id":"free"},{"bike_id":"2628109e-1bf2-4e2c-88b0-8bdc88abf2d5","system_id":"levelo_inurba_marseille","lat":43.31117,"lon":5.377584,"is_reserved":false,"is_disabled":false,"rental_uris":{"android":"levelo://app?vid=2628109e-1bf2-4e2c-88b0-8bdc88abf2d5","ios":"levelo://app?vid=2628109e-1bf2-4e2c-88b0-8bdc88abf2d5"},"vehicle_type_id":"4","last_reported":1702773507,"current_range_meters":800,"station_id":"ce4bgt92rcd13ifvqcg0","pricing_plan_id":"free"},{"bike_id":"020061c5-34ac-4703-8a16-803eacdc80d1","system_id":"levelo_inurba_marseille","lat":43.31109,"lon":5.3777,"is_reserved":false,"is_disabled":false,"rental_uris":{"android":"levelo://app?vid=020061c5-34ac-4703-8a16-803eacdc80d1","ios":"levelo://app?vid=020061c5-34ac-4703-8a16-803eacdc80d1"},"vehicle_type_id":"4","last_reported":1702773507,"current_range_meters":12800,"station_id":"ce4bgt92rcd13ifvqcg0","pricing_plan_id":"free"},{"bike_id":"08c871c7-b1c6-4c73-ae3a-6aa2ba5fe330","system_id":"levelo_inurba_marseille","lat":43.311125,"lon":5.377624,"is_reserved":false,"is_disabled":false,"rental_uris":{"android":"levelo://app?vid=08c871c7-b1c6-4c73-ae3a-6aa2ba5fe330","ios":"levelo://app?vid=08c871c7-b1c6-4c73-ae3a-6aa2ba5fe330"},"vehicle_type_id":"4","last_reported":1702773507,"current_range_meters":24400,"station_id":"ce4bgt92rcd13ifvqcg0","pricing_plan_id":"free"},{"bike_id":"2fd4b5fc-2586-4619-95eb-eb38a22ae3ba","system_id":"levelo_inurba_marseille","lat":43.317075,"lon":5.377367,"is_reserved":false,"is_disabled":false,"rental_uris":{"android":"levelo://app?vid=2fd4b5fc-2586-4619-95eb-eb38a22ae3ba","ios":"levelo://app?vid=2fd4b5fc-2586-4619-95eb-eb38a22ae3ba"},"vehicle_type_id":"4","last_reported":1702773507,"current_range_meters":23600,"station_id":"ce4bgth2rcd13ifvqch0","pricing_plan_id":"free"},{"bike_id":"b3cfbc2c-70ac-426e-bb01-b438975498d1","system_id":"levelo_inurba_marseille","lat":43.30304,"lon":5.368987,"is_reserved":false,"is_disabled":false,"rental_uris":{"android":"levelo://app?vid=b3cfbc2c-70ac-426e-bb01-b438975498d1","ios":"levelo://app?vid=b3cfbc2c-70ac-426e-bb01-b438975498d1"},"vehicle_type_id":"4","last_reported":1702773507,"current_range_meters":10000,"station_id":"ce4bgqh2rcd13ifvqc5g","pricing_plan_id":"free"},{"bike_id":"9616949a-45ac-45be-a508-98dd80f6820a","system_id":"levelo_inurba_marseille","lat":43.315368,"lon":5.380263,"is_reserved":false,"is_disabled":false,"rental_uris":{"android":"levelo://app?vid=9616949a-45ac-45be-a508-98dd80f6820a","ios":"levelo://app?vid=9616949a-45ac-45be-a508-98dd80f6820a"},"vehicle_type_id":"4","last_reported":1702773507,"current_range_meters":0,"station_id":"ce4bhsp2rcd13ifvqi50","pricing_plan_id":"free"},{"bike_id":"7f98fa2e-e843-4b61-a970-771f0b9b8200","system_id":"levelo_inurba_marseille","lat":43.303046,"lon":5.368981,"is_reserved":false,"is_disabled":false,"rental_uris":{"android":"levelo://app?vid=7f98fa2e-e843-4b61-a970-771f0b9b8200","ios":"levelo://app?vid=7f98fa2e-e843-4b61-a970-771f0b9b8200"},"vehicle_type_id":"4","last_reported":1702773507,"current_range_meters":23600,"station_id":"ce4bgqh2rcd13ifvqc5g","pricing_plan_id":"free"},{"bike_id":"5631fbdf-0b1b-4a91-ac9e-b8c64f58a515","system_id":"levelo_inurba_marseille","lat":43.31537,"lon":5.38029,"is_reserved":false,"is_disabled":false,"rental_uris":{"android":"levelo://app?vid=5631fbdf-0b1b-4a91-ac9e-b8c64f58a515","ios":"levelo://app?vid=5631fbdf-0b1b-4a91-ac9e-b8c64f58a515"},"vehicle_type_id":"4","last_reported":1702773507,"current_range_meters":0,"station_id":"ce4bhsp2rcd13ifvqi50","pricing_plan_id":"free"},{"bike_id":"9d87a501-772e-43cc-96e3-3457acfb2bbc","system_id":"levelo_inurba_marseille","lat":43.301939,"lon":5.366286,"is_reserved":false,"is_disabled":false,"rental_uris":{"android":"levelo://app?vid=9d87a501-772e-43cc-96e3-3457acfb2bbc","ios":"levelo://app?vid=9d87a501-772e-43cc-96e3-3457acfb2bbc"},"vehicle_type_id":"4","last_reported":1702773507,"current_range_meters":21200,"station_id":"ce4bgrh2rcd13ifvqc8g","pricing_plan_id":"free"},{"bike_id":"8a995d35-c808-4641-9c62-80046f18b898","system_id":"levelo_inurba_marseille","lat":43.304606,"lon":5.379026,"is_reserved":false,"is_disabled":false,"rental_uris":{"android":"levelo://app?vid=8a995d35-c808-4641-9c62-80046f18b898","ios":"levelo://app?vid=8a995d35-c808-4641-9c62-80046f18b898"},"vehicle_type_id":"4","last_reported":1702773507,"current_range_meters":25600,"station_id":"ce4bgup2rcd13ifvqcn0","pricing_plan_id":"free"},{"bike_id":"05c040e4-6262-43fe-a700-d2861eaea57f","system_id":"levelo_inurba_marseille","lat":43.30459,"lon":5.37902,"is_reserved":false,"is_disabled":false,"rental_uris":{"android":"levelo://app?vid=05c040e4-6262-43fe-a700-d2861eaea57f","ios":"levelo://app?vid=05c040e4-6262-43fe-a700-d2861eaea57f"},"vehicle_type_id":"4","last_reported":1702773507,"current_range_meters":5200,"station_id":"ce4bgup2rcd13ifvqcn0","pricing_plan_id":"free"},{"bike_id":"dfe62985-6f65-471f-8bdb-4e96693a7937","system_id":"levelo_inurba_marseille","lat":43.324771,"lon":5.36557,"is_reserved":false,"is_disabled":false,"rental_uris":{"android":"levelo://app?vid=dfe62985-6f65-471f-8bdb-4e96693a7937","ios":"levelo://app?vid=dfe62985-6f65-471f-8bdb-4e96693a7937"},"vehicle_type_id":"4","last_reported":1702773507,"current_range_meters":15200,"station_id":"ce4bhs12rcd13ifvqhvg","pricing_plan_id":"free"},{"bike_id":"44c8b40c-0afe-48d3-8480-d4dfd6b81af3","system_id":"levelo_inurba_marseille","lat":43.324809,"lon":5.36557,"is_reserved":false,"is_disabled":false,"rental_uris":{"android":"levelo://app?vid=44c8b40c-0afe-48d3-8480-d4dfd6b81af3","ios":"levelo://app?vid=44c8b40c-0afe-48d3-8480-d4dfd6b81af3"},"vehicle_type_id":"4","last_reported":1702773507,"current_range_meters":24800,"station_id":"ce4bhs12rcd13ifvqhvg","pricing_plan_id":"free"},{"bike_id":"a113a412-b8af-4df5-9700-8be6b2cf8388","system_id":"levelo_inurba_marseille","lat":43.32482,"lon":5.36564,"is_reserved":false,"is_disabled":false,"rental_uris":{"android":"levelo://app?vid=a113a412-b8af-4df5-9700-8be6b2cf8388","ios":"levelo://app?vid=a113a412-b8af-4df5-9700-8be6b2cf8388"},"vehicle_type_id":"4","last_reported":1702773507,"current_range_meters":16000,"station_id":"ce4bhs12rcd13ifvqhvg","pricing_plan_id":"free"},{"bike_id":"88f7ea2a-62f7-4a88-9e9d-900940b4d7e5","system_id":"levelo_inurba_marseille","lat":43.324823,"lon":5.365588,"is_reserved":false,"is_disabled":false,"rental_uris":{"android":"levelo://app?vid=88f7ea2a-62f7-4a88-9e9d-900940b4d7e5","ios":"levelo://app?vid=88f7ea2a-62f7-4a88-9e9d-900940b4d7e5"},"vehicle_type_id":"4","last_reported":1702773507,"current_range_meters":12800,"station_id":"ce4bhs12rcd13ifvqhvg","pricing_plan_id":"free"},{"bike_id":"dd62cb3a-3f08-44cf-8561-0c89ff17ac35","system_id":"levelo_inurba_marseille","lat":43.313588,"lon":5.384713,"is_reserved":false,"is_disabled":false,"rental_uris":{"android":"levelo://app?vid=dd62cb3a-3f08-44cf-8561-0c89ff17ac35","ios":"levelo://app?vid=dd62cb3a-3f08-44cf-8561-0c89ff17ac35"},"vehicle_type_id":"4","last_reported":1702773507,"current_range_meters":19200,"station_id":"ce4bgt92rcd13ifvqcf0","pricing_plan_id":"free"},{"bike_id":"42cb1de2-92ed-4729-916a-4dedb7359919","system_id":"levelo_inurba_marseille","lat":43.313571,"lon":5.384829,"is_reserved":false,"is_disabled":false,"rental_uris":{"android":"levelo://app?vid=42cb1de2-92ed-4729-916a-4dedb7359919","ios":"levelo://app?vid=42cb1de2-92ed-4729-916a-4dedb7359919"},"vehicle_type_id":"4","last_reported":1702773507,"current_range_meters":6000,"station_id":"ce4bgt92rcd13ifvqcf0","pricing_plan_id":"free"},{"bike_id":"533a3ea5-14c7-4f6b-8770-c088486e72ad","system_id":"levelo_inurba_marseille","lat":43.313571,"lon":5.384829,"is_reserved":false,"is_disabled":false,"rental_uris":{"android":"levelo://app?vid=533a3ea5-14c7-4f6b-8770-c088486e72ad","ios":"levelo://app?vid=533a3ea5-14c7-4f6b-8770-c088486e72ad"},"vehicle_type_id":"4","last_reported":1702773507,"current_range_meters":29600,"station_id":"ce4bgt92rcd13ifvqcf0","pricing_plan_id":"free"},{"bike_id":"491b5258-88fb-4acb-82d0-7e0111bbc5bb","system_id":"levelo_inurba_marseille","lat":43.313571,"lon":5.384829,"is_reserved":false,"is_disabled":false,"rental_uris":{"android":"levelo://app?vid=491b5258-88fb-4acb-82d0-7e0111bbc5bb","ios":"levelo://app?vid=491b5258-88fb-4acb-82d0-7e0111bbc5bb"},"vehicle_type_id":"4","last_reported":1702773507,"current_range_meters":11600,"station_id":"ce4bgt92rcd13ifvqcf0","pricing_plan_id":"free"},{"bike_id":"1672090c-a26c-42ad-af76-2ce6e7e12985","system_id":"levelo_inurba_marseille","lat":43.313571,"lon":5.384829,"is_reserved":false,"is_disabled":false,"rental_uris":{"android":"levelo://app?vid=1672090c-a26c-42ad-af76-2ce6e7e12985","ios":"levelo://app?vid=1672090c-a26c-42ad-af76-2ce6e7e12985"},"vehicle_type_id":"4","last_reported":1702773507,"current_range_meters":23600,"station_id":"ce4bgt92rcd13ifvqcf0","pricing_plan_id":"free"},{"bike_id":"f4d8ed76-c1e2-4fca-86b2-daaf1281a478","system_id":"levelo_inurba_marseille","lat":43.299393,"lon":5.365574,"is_reserved":false,"is_disabled":false,"rental_uris":{"android":"levelo://app?vid=f4d8ed76-c1e2-4fca-86b2-daaf1281a478","ios":"levelo://app?vid=f4d8ed76-c1e2-4fca-86b2-daaf1281a478"},"vehicle_type_id":"4","last_reported":1702773507,"current_range_meters":12400,"station_id":"ce4bgm92rcd13ifvqbr0","pricing_plan_id":"free"},{"bike_id":"8ed41e6a-f8a4-4285-ba76-ccff5e3d5689","system_id":"levelo_inurba_marseille","lat":43.29975,"lon":5.37179,"is_reserved":false,"is_disabled":false,"rental_uris":{"android":"levelo://app?vid=8ed41e6a-f8a4-4285-ba76-ccff5e3d5689","ios":"levelo://app?vid=8ed41e6a-f8a4-4285-ba76-ccff5e3d5689"},"vehicle_type_id":"4","last_reported":1702773507,"current_range_meters":0,"station_id":"ce4bgr92rcd13ifvqc7g","pricing_plan_id":"free"},{"bike_id":"c4e77394-aef9-4077-b745-e99148625344","system_id":"levelo_inurba_marseille","lat":43.32733,"lon":5.36707,"is_reserved":false,"is_disabled":false,"rental_uris":{"android":"levelo://app?vid=c4e77394-aef9-4077-b745-e99148625344","ios":"levelo://app?vid=c4e77394-aef9-4077-b745-e99148625344"},"vehicle_type_id":"4","last_reported":1702773507,"current_range_meters":20800,"station_id":"","pricing_plan_id":"free"},{"bike_id":"819cb438-2e9c-4e0b-902b-5e19ef554d5c","system_id":"levelo_inurba_marseille","lat":43.305461,"lon":5.384454,"is_reserved":false,"is_disabled":false,"rental_uris":{"android":"levelo://app?vid=819cb438-2e9c-4e0b-902b-5e19ef554d5c","ios":"levelo://app?vid=819cb438-2e9c-4e0b-902b-5e19ef554d5c"},"vehicle_type_id":"4","last_reported":1702773507,"current_range_meters":14000,"station_id":"ce4bgg92rcd13ifvqb30","pricing_plan_id":"free"},{"bike_id":"edc8767d-a247-4450-b7c9-97f5c7722ecc","system_id":"levelo_inurba_marseille","lat":43.311722,"lon":5.387247,"is_reserved":false,"is_disabled":false,"rental_uris":{"android":"levelo://app?vid=edc8767d-a247-4450-b7c9-97f5c7722ecc","ios":"levelo://app?vid=edc8767d-a247-4450-b7c9-97f5c7722ecc"},"vehicle_type_id":"4","last_reported":1702773507,"current_range_meters":18000,"station_id":"ce4bgv12rcd13ifvqcp0","pricing_plan_id":"free"},{"bike_id":"c1c77bc8-d481-4d2b-a56e-7eecc2e03677","system_id":"levelo_inurba_marseille","lat":43.311722,"lon":5.387247,"is_reserved":false,"is_disabled":false,"rental_uris":{"android":"levelo://app?vid=c1c77bc8-d481-4d2b-a56e-7eecc2e03677","ios":"levelo://app?vid=c1c77bc8-d481-4d2b-a56e-7eecc2e03677"},"vehicle_type_id":"4","last_reported":1702773507,"current_range_meters":14800,"station_id":"ce4bgv12rcd13ifvqcp0","pricing_plan_id":"free"},{"bike_id":"2b46953b-014a-46ed-92c9-ce940eb11439","system_id":"levelo_inurba_marseille","lat":43.311722,"lon":5.387247,"is_reserved":false,"is_disabled":false,"rental_uris":{"android":"levelo://app?vid=2b46953b-014a-46ed-92c9-ce940eb11439","ios":"levelo://app?vid=2b46953b-014a-46ed-92c9-ce940eb11439"},"vehicle_type_id":"4","last_reported":1702773507,"current_range_meters":20400,"station_id":"ce4bgv12rcd13ifvqcp0","pricing_plan_id":"free"},{"bike_id":"b3a97298-ae67-4699-bf43-a9e27d2bdcc2","system_id":"levelo_inurba_marseille","lat":43.311722,"lon":5.387247,"is_reserved":false,"is_disabled":false,"rental_uris":{"android":"levelo://app?vid=b3a97298-ae67-4699-bf43-a9e27d2bdcc2","ios":"levelo://app?vid=b3a97298-ae67-4699-bf43-a9e27d2bdcc2"},"vehicle_type_id":"4","last_reported":1702773507,"current_range_meters":31200,"station_id":"ce4bgv12rcd13ifvqcp0","pricing_plan_id":"free"},{"bike_id":"0666f734-537f-4219-8787-37d98e48f7ec","system_id":"levelo_inurba_marseille","lat":43.311722,"lon":5.387247,"is_reserved":false,"is_disabled":false,"rental_uris":{"android":"levelo://app?vid=0666f734-537f-4219-8787-37d98e48f7ec","ios":"levelo://app?vid=0666f734-537f-4219-8787-37d98e48f7ec"},"vehicle_type_id":"4","last_reported":1702773507,"current_range_meters":9200,"station_id":"ce4bgv12rcd13ifvqcp0","pricing_plan_id":"free"},{"bike_id":"f1491da4-2f54-4445-8640-37b7b5e9b0bd","system_id":"levelo_inurba_marseille","lat":43.328371,"lon":5.366909,"is_reserved":false,"is_disabled":false,"rental_uris":{"android":"levelo://app?vid=f1491da4-2f54-4445-8640-37b7b5e9b0bd","ios":"levelo://app?vid=f1491da4-2f54-4445-8640-37b7b5e9b0bd"},"vehicle_type_id":"4","last_reported":1702773507,"current_range_meters":7200,"station_id":"ce4bhs92rcd13ifvqi0g","pricing_plan_id":"free"},{"bike_id":"257e2c60-5deb-4d9a-9e2e-c2fc09067537","system_id":"levelo_inurba_marseille","lat":43.328371,"lon":5.366909,"is_reserved":false,"is_disabled":false,"rental_uris":{"android":"levelo://app?vid=257e2c60-5deb-4d9a-9e2e-c2fc09067537","ios":"levelo://app?vid=257e2c60-5deb-4d9a-9e2e-c2fc09067537"},"vehicle_type_id":"4","last_reported":1702773507,"current_range_meters":17600,"station_id":"ce4bhs92rcd13ifvqi0g","pricing_plan_id":"free"},{"bike_id":"aacff780-4369-48aa-89ca-7f2c6758b3bd","system_id":"levelo_inurba_marseille","lat":43.29584,"lon":5.36754,"is_reserved":false,"is_disabled":false,"rental_uris":{"android":"levelo://app?vid=aacff780-4369-48aa-89ca-7f2c6758b3bd","ios":"levelo://app?vid=aacff780-4369-48aa-89ca-7f2c6758b3bd"},"vehicle_type_id":"4","last_reported":1702773507,"current_range_meters":16800,"station_id":"ce4bgph2rcd13ifvqc2g","pricing_plan_id":"free"},{"bike_id":"88eaad2f-8682-4d26-90e1-01d424664f2c","system_id":"levelo_inurba_marseille","lat":43.29581,"lon":5.36745,"is_reserved":false,"is_disabled":false,"rental_uris":{"android":"levelo://app?vid=88eaad2f-8682-4d26-90e1-01d424664f2c","ios":"levelo://app?vid=88eaad2f-8682-4d26-90e1-01d424664f2c"},"vehicle_type_id":"4","last_reported":1702773507,"current_range_meters":0,"station_id":"ce4bgph2rcd13ifvqc2g","pricing_plan_id":"free"},{"bike_id":"2eaf80ff-d2a5-4d7c-b473-60a857376611","system_id":"levelo_inurba_marseille","lat":43.309589,"lon":5.390258,"is_reserved":false,"is_disabled":false,"rental_uris":{"android":"levelo://app?vid=2eaf80ff-d2a5-4d7c-b473-60a857376611","ios":"levelo://app?vid=2eaf80ff-d2a5-4d7c-b473-60a857376611"},"vehicle_type_id":"4","last_reported":1702773507,"current_range_meters":24800,"station_id":"ce4bgup2rcd13ifvqco0","pricing_plan_id":"free"},{"bike_id":"a7f20985-4a05-48e1-832e-2920af4ac542","system_id":"levelo_inurba_marseille","lat":43.299028,"lon":5.381509,"is_reserved":false,"is_disabled":false,"rental_uris":{"android":"levelo://app?vid=a7f20985-4a05-48e1-832e-2920af4ac542","ios":"levelo://app?vid=a7f20985-4a05-48e1-832e-2920af4ac542"},"vehicle_type_id":"4","last_reported":1702773507,"current_range_meters":29600,"station_id":"ce4bgj12rcd13ifvqbc0","pricing_plan_id":"free"},{"bike_id":"8b514e6e-2b9b-4749-9281-9181f949edd0","system_id":"levelo_inurba_marseille","lat":43.309589,"lon":5.390258,"is_reserved":false,"is_disabled":false,"rental_uris":{"android":"levelo://app?vid=8b514e6e-2b9b-4749-9281-9181f949edd0","ios":"levelo://app?vid=8b514e6e-2b9b-4749-9281-9181f949edd0"},"vehicle_type_id":"4","last_reported":1702773507,"current_range_meters":12000,"station_id":"ce4bgup2rcd13ifvqco0","pricing_plan_id":"free"},{"bike_id":"729c1c1f-ef5d-4c7e-8367-862d949ec8b3","system_id":"levelo_inurba_marseille","lat":43.309589,"lon":5.390258,"is_reserved":false,"is_disabled":false,"rental_uris":{"android":"levelo://app?vid=729c1c1f-ef5d-4c7e-8367-862d949ec8b3","ios":"levelo://app?vid=729c1c1f-ef5d-4c7e-8367-862d949ec8b3"},"vehicle_type_id":"4","last_reported":1702773507,"current_range_meters":12800,"station_id":"ce4bgup2rcd13ifvqco0","pricing_plan_id":"free"},{"bike_id":"d6044d44-46f6-46c2-bcb2-8e3a6e06c707","system_id":"levelo_inurba_marseille","lat":43.317557,"lon":5.390173,"is_reserved":false,"is_disabled":false,"rental_uris":{"android":"levelo://app?vid=d6044d44-46f6-46c2-bcb2-8e3a6e06c707","ios":"levelo://app?vid=d6044d44-46f6-46c2-bcb2-8e3a6e06c707"},"vehicle_type_id":"4","last_reported":1702773507,"current_range_meters":30400,"station_id":"ce4bhqp2rcd13ifvqhng","pricing_plan_id":"free"},{"bike_id":"2e4327a4-5c68-42c9-a75e-2a5f9b2ba77b","system_id":"levelo_inurba_marseille","lat":43.317557,"lon":5.390173,"is_reserved":false,"is_disabled":false,"rental_uris":{"android":"levelo://app?vid=2e4327a4-5c68-42c9-a75e-2a5f9b2ba77b","ios":"levelo://app?vid=2e4327a4-5c68-42c9-a75e-2a5f9b2ba77b"},"vehicle_type_id":"4","last_reported":1702773507,"current_range_meters":31200,"station_id":"ce4bhqp2rcd13ifvqhng","pricing_plan_id":"free"},{"bike_id":"4fe68cb0-ef05-4f1c-919b-7a2b0e3c1f89","system_id":"levelo_inurba_marseille","lat":43.317557,"lon":5.390173,"is_reserved":false,"is_disabled":false,"rental_uris":{"android":"levelo://app?vid=4fe68cb0-ef05-4f1c-919b-7a2b0e3c1f89","ios":"levelo://app?vid=4fe68cb0-ef05-4f1c-919b-7a2b0e3c1f89"},"vehicle_type_id":"4","last_reported":1702773507,"current_range_meters":31200,"station_id":"ce4bhqp2rcd13ifvqhng","pricing_plan_id":"free"},{"bike_id":"8b990761-3717-4b31-9e09-22c0e6f10fb8","system_id":"levelo_inurba_marseille","lat":43.317557,"lon":5.390173,"is_reserved":false,"is_disabled":false,"rental_uris":{"android":"levelo://app?vid=8b990761-3717-4b31-9e09-22c0e6f10fb8","ios":"levelo://app?vid=8b990761-3717-4b31-9e09-22c0e6f10fb8"},"vehicle_type_id":"4","last_reported":1702773507,"current_range_meters":10400,"station_id":"ce4bhqp2rcd13ifvqhng","pricing_plan_id":"free"},{"bike_id":"fa099522-e942-41fa-8f06-4fdc0f027d89","system_id":"levelo_inurba_marseille","lat":43.295748,"lon":5.37522,"is_reserved":false,"is_disabled":false,"rental_uris":{"android":"levelo://app?vid=fa099522-e942-41fa-8f06-4fdc0f027d89","ios":"levelo://app?vid=fa099522-e942-41fa-8f06-4fdc0f027d89"},"vehicle_type_id":"4","last_reported":1702773507,"current_range_meters":3200,"station_id":"ce4bgh92rcd13ifvqb50","pricing_plan_id":"free"},{"bike_id":"97886bd6-7766-48eb-96c2-12dad0ba0339","system_id":"levelo_inurba_marseille","lat":43.296263,"lon":5.377094,"is_reserved":false,"is_disabled":false,"rental_uris":{"android":"levelo://app?vid=97886bd6-7766-48eb-96c2-12dad0ba0339","ios":"levelo://app?vid=97886bd6-7766-48eb-96c2-12dad0ba0339"},"vehicle_type_id":"4","last_reported":1702773507,"current_range_meters":0,"station_id":"ce4bgi92rcd13ifvqb90","pricing_plan_id":"free"},{"bike_id":"da2bf830-8371-4987-8296-d78e324a9b5b","system_id":"levelo_inurba_marseille","lat":43.29647,"lon":5.379518,"is_reserved":false,"is_disabled":false,"rental_uris":{"android":"levelo://app?vid=da2bf830-8371-4987-8296-d78e324a9b5b","ios":"levelo://app?vid=da2bf830-8371-4987-8296-d78e324a9b5b"},"vehicle_type_id":"4","last_reported":1702773507,"current_range_meters":2400,"station_id":"","pricing_plan_id":"free"},{"bike_id":"2d339ccb-9fe7-4132-b39e-b9bd4a932749","system_id":"levelo_inurba_marseille","lat":43.32361,"lon":5.38881,"is_reserved":false,"is_disabled":false,"rental_uris":{"android":"levelo://app?vid=2d339ccb-9fe7-4132-b39e-b9bd4a932749","ios":"levelo://app?vid=2d339ccb-9fe7-4132-b39e-b9bd4a932749"},"vehicle_type_id":"4","last_reported":1702773507,"current_range_meters":14400,"station_id":"ce4bhqp2rcd13ifvqhog","pricing_plan_id":"free"},{"bike_id":"31954c81-37ea-46a3-a087-7d824ac76191","system_id":"levelo_inurba_marseille","lat":43.32362,"lon":5.38882,"is_reserved":false,"is_disabled":false,"rental_uris":{"android":"levelo://app?vid=31954c81-37ea-46a3-a087-7d824ac76191","ios":"levelo://app?vid=31954c81-37ea-46a3-a087-7d824ac76191"},"vehicle_type_id":"4","last_reported":1702773507,"current_range_meters":5200,"station_id":"ce4bhqp2rcd13ifvqhog","pricing_plan_id":"free"},{"bike_id":"1da8b7cb-ff05-4100-8f1c-ca7d8e934593","system_id":"levelo_inurba_marseille","lat":43.292749,"lon":5.368402,"is_reserved":false,"is_disabled":false,"rental_uris":{"android":"levelo://app?vid=1da8b7cb-ff05-4100-8f1c-ca7d8e934593","ios":"levelo://app?vid=1da8b7cb-ff05-4100-8f1c-ca7d8e934593"},"vehicle_type_id":"4","last_reported":1702773507,"current_range_meters":13600,"station_id":"ce4bhbp2rcd13ifvqesg","pricing_plan_id":"free"},{"bike_id":"b934a6c5-606f-45ec-9d7b-1b645a43d68b","system_id":"levelo_inurba_marseille","lat":43.29274,"lon":5.36847,"is_reserved":false,"is_disabled":false,"rental_uris":{"android":"levelo://app?vid=b934a6c5-606f-45ec-9d7b-1b645a43d68b","ios":"levelo://app?vid=b934a6c5-606f-45ec-9d7b-1b645a43d68b"},"vehicle_type_id":"4","last_reported":1702773507,"current_range_meters":0,"station_id":"ce4bhbp2rcd13ifvqesg","pricing_plan_id":"free"},{"bike_id":"e4fb7314-4b59-4dbb-9b1e-cd4538fd46e7","system_id":"levelo_inurba_marseille","lat":43.305994,"lon":5.393687,"is_reserved":false,"is_disabled":false,"rental_uris":{"android":"levelo://app?vid=e4fb7314-4b59-4dbb-9b1e-cd4538fd46e7","ios":"levelo://app?vid=e4fb7314-4b59-4dbb-9b1e-cd4538fd46e7"},"vehicle_type_id":"4","last_reported":1702773507,"current_range_meters":12400,"station_id":"ce4bh0p2rcd13ifvqd80","pricing_plan_id":"free"},{"bike_id":"7a9a58e3-b69e-4ea5-b80c-6f7a1c840679","system_id":"levelo_inurba_marseille","lat":43.293009,"lon":5.374584,"is_reserved":false,"is_disabled":false,"rental_uris":{"android":"levelo://app?vid=7a9a58e3-b69e-4ea5-b80c-6f7a1c840679","ios":"levelo://app?vid=7a9a58e3-b69e-4ea5-b80c-6f7a1c840679"},"vehicle_type_id":"4","last_reported":1702773507,"current_range_meters":6000,"station_id":"ce4bgi12rcd13ifvqb70","pricing_plan_id":"free"},{"bike_id":"a6990e5d-21af-4d2e-9f66-925f7d00f867","system_id":"levelo_inurba_marseille","lat":43.2927,"lon":5.37642,"is_reserved":false,"is_disabled":false,"rental_uris":{"android":"levelo://app?vid=a6990e5d-21af-4d2e-9f66-925f7d00f867","ios":"levelo://app?vid=a6990e5d-21af-4d2e-9f66-925f7d00f867"},"vehicle_type_id":"4","last_reported":1702773507,"current_range_meters":4400,"station_id":"","pricing_plan_id":"free"},{"bike_id":"8a34a178-2da0-4339-bf4e-e2deb6944c60","system_id":"levelo_inurba_marseille","lat":43.29568,"lon":5.385525,"is_reserved":false,"is_disabled":false,"rental_uris":{"android":"levelo://app?vid=8a34a178-2da0-4339-bf4e-e2deb6944c60","ios":"levelo://app?vid=8a34a178-2da0-4339-bf4e-e2deb6944c60"},"vehicle_type_id":"4","last_reported":1702773507,"current_range_meters":0,"station_id":"","pricing_plan_id":"free"},{"bike_id":"d3326263-b53d-473e-ba43-290732f34ee0","system_id":"levelo_inurba_marseille","lat":43.31332,"lon":5.39692,"is_reserved":false,"is_disabled":false,"rental_uris":{"android":"levelo://app?vid=d3326263-b53d-473e-ba43-290732f34ee0","ios":"levelo://app?vid=d3326263-b53d-473e-ba43-290732f34ee0"},"vehicle_type_id":"4","last_reported":1702773507,"current_range_meters":25600,"station_id":"ce4bgvp2rcd13ifvqcu0","pricing_plan_id":"free"},{"bike_id":"805a1b30-552c-4510-87f6-b9195b489af1","system_id":"levelo_inurba_marseille","lat":43.313291,"lon":5.396838,"is_reserved":false,"is_disabled":false,"rental_uris":{"android":"levelo://app?vid=805a1b30-552c-4510-87f6-b9195b489af1","ios":"levelo://app?vid=805a1b30-552c-4510-87f6-b9195b489af1"},"vehicle_type_id":"4","last_reported":1702773507,"current_range_meters":12400,"station_id":"ce4bgvp2rcd13ifvqcu0","pricing_plan_id":"free"},{"bike_id":"1bd032e9-a9c1-4d45-8800-a5fdbd1789a0","system_id":"levelo_inurba_marseille","lat":43.309038,"lon":5.396546,"is_reserved":false,"is_disabled":false,"rental_uris":{"android":"levelo://app?vid=1bd032e9-a9c1-4d45-8800-a5fdbd1789a0","ios":"levelo://app?vid=1bd032e9-a9c1-4d45-8800-a5fdbd1789a0"},"vehicle_type_id":"4","last_reported":1702773507,"current_range_meters":8800,"station_id":"ce4bh012rcd13ifvqcv0","pricing_plan_id":"free"},{"bike_id":"088ca245-0062-4572-8e24-2074247e2a20","system_id":"levelo_inurba_marseille","lat":43.309038,"lon":5.396546,"is_reserved":false,"is_disabled":false,"rental_uris":{"android":"levelo://app?vid=088ca245-0062-4572-8e24-2074247e2a20","ios":"levelo://app?vid=088ca245-0062-4572-8e24-2074247e2a20"},"vehicle_type_id":"4","last_reported":1702773507,"current_range_meters":12400,"station_id":"ce4bh012rcd13ifvqcv0","pricing_plan_id":"free"},{"bike_id":"b9def5e8-542a-4f7e-be32-4001e745b51a","system_id":"levelo_inurba_marseille","lat":43.311722,"lon":5.387247,"is_reserved":false,"is_disabled":false,"rental_uris":{"android":"levelo://app?vid=b9def5e8-542a-4f7e-be32-4001e745b51a","ios":"levelo://app?vid=b9def5e8-542a-4f7e-be32-4001e745b51a"},"vehicle_type_id":"4","last_reported":1702773507,"current_range_meters":18400,"station_id":"ce4bgv12rcd13ifvqcp0","pricing_plan_id":"free"},{"bike_id":"ca3af477-5c44-491d-84d9-8a230bd4e5fb","system_id":"levelo_inurba_marseille","lat":43.290631,"lon":5.359244,"is_reserved":false,"is_disabled":false,"rental_uris":{"android":"levelo://app?vid=ca3af477-5c44-491d-84d9-8a230bd4e5fb","ios":"levelo://app?vid=ca3af477-5c44-491d-84d9-8a230bd4e5fb"},"vehicle_type_id":"4","last_reported":1702773507,"current_range_meters":12800,"station_id":"ce4bha92rcd13ifvqeg0","pricing_plan_id":"free"},{"bike_id":"8e2f7dfc-d512-448e-8232-4e6b7cdc89c4","system_id":"levelo_inurba_marseille","lat":43.304296,"lon":5.397513,"is_reserved":false,"is_disabled":false,"rental_uris":{"android":"levelo://app?vid=8e2f7dfc-d512-448e-8232-4e6b7cdc89c4","ios":"levelo://app?vid=8e2f7dfc-d512-448e-8232-4e6b7cdc89c4"},"vehicle_type_id":"4","last_reported":1702773507,"current_range_meters":18400,"station_id":"ce4bh092rcd13ifvqd20","pricing_plan_id":"free"},{"bike_id":"925d1d63-8c42-48c7-b06c-3249f8954959","system_id":"levelo_inurba_marseille","lat":43.304296,"lon":5.397513,"is_reserved":false,"is_disabled":false,"rental_uris":{"android":"levelo://app?vid=925d1d63-8c42-48c7-b06c-3249f8954959","ios":"levelo://app?vid=925d1d63-8c42-48c7-b06c-3249f8954959"},"vehicle_type_id":"4","last_reported":1702773507,"current_range_meters":4400,"station_id":"ce4bh092rcd13ifvqd20","pricing_plan_id":"free"},{"bike_id":"f2355564-2cca-4264-937f-b22a0bb58bbc","system_id":"levelo_inurba_marseille","lat":43.33039,"lon":5.38915,"is_reserved":false,"is_disabled":false,"rental_uris":{"android":"levelo://app?vid=f2355564-2cca-4264-937f-b22a0bb58bbc","ios":"levelo://app?vid=f2355564-2cca-4264-937f-b22a0bb58bbc"},"vehicle_type_id":"4","last_reported":1702773507,"current_range_meters":10400,"station_id":"ce4bhr92rcd13ifvqhrg","pricing_plan_id":"free"},{"bike_id":"7869065b-ba9c-4e14-a6e0-075a72b86610","system_id":"levelo_inurba_marseille","lat":43.33043,"lon":5.38919,"is_reserved":false,"is_disabled":false,"rental_uris":{"android":"levelo://app?vid=7869065b-ba9c-4e14-a6e0-075a72b86610","ios":"levelo://app?vid=7869065b-ba9c-4e14-a6e0-075a72b86610"},"vehicle_type_id":"4","last_reported":1702773507,"current_range_meters":6000,"station_id":"ce4bhr92rcd13ifvqhrg","pricing_plan_id":"free"},{"bike_id":"0019cc72-50a3-4298-937a-c3025a814462","system_id":"levelo_inurba_marseille","lat":43.330412,"lon":5.38922,"is_reserved":false,"is_disabled":false,"rental_uris":{"android":"levelo://app?vid=0019cc72-50a3-4298-937a-c3025a814462","ios":"levelo://app?vid=0019cc72-50a3-4298-937a-c3025a814462"},"vehicle_type_id":"4","last_reported":1702773507,"current_range_meters":6000,"station_id":"ce4bhr92rcd13ifvqhrg","pricing_plan_id":"free"},{"bike_id":"54a61d5e-56fc-497d-b838-639c74e15367","system_id":"levelo_inurba_marseille","lat":43.330442,"lon":5.389148,"is_reserved":false,"is_disabled":false,"rental_uris":{"android":"levelo://app?vid=54a61d5e-56fc-497d-b838-639c74e15367","ios":"levelo://app?vid=54a61d5e-56fc-497d-b838-639c74e15367"},"vehicle_type_id":"4","last_reported":1702773507,"current_range_meters":0,"station_id":"ce4bhr92rcd13ifvqhrg","pricing_plan_id":"free"},{"bike_id":"35332fda-161a-444a-a563-2e2351a8accc","system_id":"levelo_inurba_marseille","lat":43.295169,"lon":5.390426,"is_reserved":false,"is_disabled":false,"rental_uris":{"android":"levelo://app?vid=35332fda-161a-444a-a563-2e2351a8accc","ios":"levelo://app?vid=35332fda-161a-444a-a563-2e2351a8accc"},"vehicle_type_id":"4","last_reported":1702773507,"current_range_meters":400,"station_id":"ce4bh3p2rcd13ifvqdp0","pricing_plan_id":"free"},{"bike_id":"ad0f6538-ba65-40b7-bd35-329a98101cc1","system_id":"levelo_inurba_marseille","lat":43.28975,"lon":5.35489,"is_reserved":false,"is_disabled":false,"rental_uris":{"android":"levelo://app?vid=ad0f6538-ba65-40b7-bd35-329a98101cc1","ios":"levelo://app?vid=ad0f6538-ba65-40b7-bd35-329a98101cc1"},"vehicle_type_id":"4","last_reported":1702773507,"current_range_meters":9600,"station_id":"","pricing_plan_id":"free"},{"bike_id":"f0cd831c-cfb9-44c7-9487-103b6df223ca","system_id":"levelo_inurba_marseille","lat":43.337445,"lon":5.374592,"is_reserved":false,"is_disabled":false,"rental_uris":{"android":"levelo://app?vid=f0cd831c-cfb9-44c7-9487-103b6df223ca","ios":"levelo://app?vid=f0cd831c-cfb9-44c7-9487-103b6df223ca"},"vehicle_type_id":"4","last_reported":1702773507,"current_range_meters":27200,"station_id":"","pricing_plan_id":"free"},{"bike_id":"2c0affd7-831a-464c-b05c-095e043e7db8","system_id":"levelo_inurba_marseille","lat":43.309371,"lon":5.401449,"is_reserved":false,"is_disabled":false,"rental_uris":{"android":"levelo://app?vid=2c0affd7-831a-464c-b05c-095e043e7db8","ios":"levelo://app?vid=2c0affd7-831a-464c-b05c-095e043e7db8"},"vehicle_type_id":"4","last_reported":1702773507,"current_range_meters":12000,"station_id":"ce4bgvp2rcd13ifvqct0","pricing_plan_id":"free"},{"bike_id":"4a0e286b-1f3c-49aa-8d08-1994847ef510","system_id":"levelo_inurba_marseille","lat":43.309371,"lon":5.401449,"is_reserved":false,"is_disabled":false,"rental_uris":{"android":"levelo://app?vid=4a0e286b-1f3c-49aa-8d08-1994847ef510","ios":"levelo://app?vid=4a0e286b-1f3c-49aa-8d08-1994847ef510"},"vehicle_type_id":"4","last_reported":1702773507,"current_range_meters":20400,"station_id":"ce4bgvp2rcd13ifvqct0","pricing_plan_id":"free"},{"bike_id":"8754fc9c-a794-4dfd-b7ef-f292d6f481fb","system_id":"levelo_inurba_marseille","lat":43.306412,"lon":5.401035,"is_reserved":false,"is_disabled":false,"rental_uris":{"android":"levelo://app?vid=8754fc9c-a794-4dfd-b7ef-f292d6f481fb","ios":"levelo://app?vid=8754fc9c-a794-4dfd-b7ef-f292d6f481fb"},"vehicle_type_id":"4","last_reported":1702773507,"current_range_meters":27200,"station_id":"ce4bh112rcd13ifvqda0","pricing_plan_id":"free"},{"bike_id":"ef80ceab-dc9f-4b6c-8f52-707d5177f481","system_id":"levelo_inurba_marseille","lat":43.33752,"lon":5.37466,"is_reserved":false,"is_disabled":false,"rental_uris":{"android":"levelo://app?vid=ef80ceab-dc9f-4b6c-8f52-707d5177f481","ios":"levelo://app?vid=ef80ceab-dc9f-4b6c-8f52-707d5177f481"},"vehicle_type_id":"4","last_reported":1702773507,"current_range_meters":26800,"station_id":"","pricing_plan_id":"free"},{"bike_id":"d961fdfb-0c8d-4ced-a6a7-dc7159120bab","system_id":"levelo_inurba_marseille","lat":43.309371,"lon":5.401449,"is_reserved":false,"is_disabled":false,"rental_uris":{"android":"levelo://app?vid=d961fdfb-0c8d-4ced-a6a7-dc7159120bab","ios":"levelo://app?vid=d961fdfb-0c8d-4ced-a6a7-dc7159120bab"},"vehicle_type_id":"4","last_reported":1702773507,"current_range_meters":0,"station_id":"ce4bgvp2rcd13ifvqct0","pricing_plan_id":"free"},{"bike_id":"06b5638f-f733-4c56-aaf8-aa2614169de8","system_id":"levelo_inurba_marseille","lat":43.306412,"lon":5.401035,"is_reserved":false,"is_disabled":false,"rental_uris":{"android":"levelo://app?vid=06b5638f-f733-4c56-aaf8-aa2614169de8","ios":"levelo://app?vid=06b5638f-f733-4c56-aaf8-aa2614169de8"},"vehicle_type_id":"4","last_reported":1702773507,"current_range_meters":15200,"station_id":"ce4bh112rcd13ifvqda0","pricing_plan_id":"free"},{"bike_id":"86b49ea3-d171-4311-a197-97a610a78e81","system_id":"levelo_inurba_marseille","lat":43.30143,"lon":5.39877,"is_reserved":false,"is_disabled":false,"rental_uris":{"android":"levelo://app?vid=86b49ea3-d171-4311-a197-97a610a78e81","ios":"levelo://app?vid=86b49ea3-d171-4311-a197-97a610a78e81"},"vehicle_type_id":"4","last_reported":1702773507,"current_range_meters":0,"station_id":"ce4bh0h2rcd13ifvqd40","pricing_plan_id":"free"},{"bike_id":"f7c3fe26-852d-4b29-bce6-f7a7b3ed8e64","system_id":"levelo_inurba_marseille","lat":43.286591,"lon":5.363346,"is_reserved":false,"is_disabled":false,"rental_uris":{"android":"levelo://app?vid=f7c3fe26-852d-4b29-bce6-f7a7b3ed8e64","ios":"levelo://app?vid=f7c3fe26-852d-4b29-bce6-f7a7b3ed8e64"},"vehicle_type_id":"4","last_reported":1702773507,"current_range_meters":22000,"station_id":"ce4bhah2rcd13ifvqej0","pricing_plan_id":"free"},{"bike_id":"9530516b-8b31-4285-abe5-57bae78d50a5","system_id":"levelo_inurba_marseille","lat":43.286961,"lon":5.373785,"is_reserved":false,"is_disabled":false,"rental_uris":{"android":"levelo://app?vid=9530516b-8b31-4285-abe5-57bae78d50a5","ios":"levelo://app?vid=9530516b-8b31-4285-abe5-57bae78d50a5"},"vehicle_type_id":"4","last_reported":1702773507,"current_range_meters":26400,"station_id":"ce4bh3p2rcd13ifvqdq0","pricing_plan_id":"free"},{"bike_id":"811ca201-f116-4503-863d-4ebde3239757","system_id":"levelo_inurba_marseille","lat":43.286961,"lon":5.373785,"is_reserved":false,"is_disabled":false,"rental_uris":{"android":"levelo://app?vid=811ca201-f116-4503-863d-4ebde3239757","ios":"levelo://app?vid=811ca201-f116-4503-863d-4ebde3239757"},"vehicle_type_id":"4","last_reported":1702773507,"current_range_meters":20000,"station_id":"ce4bh3p2rcd13ifvqdq0","pricing_plan_id":"free"},{"bike_id":"970e73c7-6588-4d4e-8f40-e2c5583f8089","system_id":"levelo_inurba_marseille","lat":43.295194,"lon":5.39397,"is_reserved":false,"is_disabled":false,"rental_uris":{"android":"levelo://app?vid=970e73c7-6588-4d4e-8f40-e2c5583f8089","ios":"levelo://app?vid=970e73c7-6588-4d4e-8f40-e2c5583f8089"},"vehicle_type_id":"4","last_reported":1702773507,"current_range_meters":5600,"station_id":"ce4bh292rcd13ifvqdf0","pricing_plan_id":"free"},{"bike_id":"3a4f2853-f361-4afb-a0be-9ad4d2a72042","system_id":"levelo_inurba_marseille","lat":43.29517,"lon":5.394053,"is_reserved":false,"is_disabled":false,"rental_uris":{"android":"levelo://app?vid=3a4f2853-f361-4afb-a0be-9ad4d2a72042","ios":"levelo://app?vid=3a4f2853-f361-4afb-a0be-9ad4d2a72042"},"vehicle_type_id":"4","last_reported":1702773507,"current_range_meters":0,"station_id":"ce4bh292rcd13ifvqdf0","pricing_plan_id":"free"},{"bike_id":"004893dd-8feb-4344-8e00-e7183b43e91a","system_id":"levelo_inurba_marseille","lat":43.290345,"lon":5.38646,"is_reserved":false,"is_disabled":false,"rental_uris":{"android":"levelo://app?vid=004893dd-8feb-4344-8e00-e7183b43e91a","ios":"levelo://app?vid=004893dd-8feb-4344-8e00-e7183b43e91a"},"vehicle_type_id":"4","last_reported":1702773507,"current_range_meters":26000,"station_id":"ce4bh4p2rcd13ifvqe0g","pricing_plan_id":"free"},{"bike_id":"c36c0b21-257c-4519-b68d-599411232e1e","system_id":"levelo_inurba_marseille","lat":43.290345,"lon":5.38646,"is_reserved":false,"is_disabled":false,"rental_uris":{"android":"levelo://app?vid=c36c0b21-257c-4519-b68d-599411232e1e","ios":"levelo://app?vid=c36c0b21-257c-4519-b68d-599411232e1e"},"vehicle_type_id":"4","last_reported":1702773507,"current_range_meters":22800,"station_id":"ce4bh4p2rcd13ifvqe0g","pricing_plan_id":"free"},{"bike_id":"73d334e5-fa13-4529-8759-7d1743af0513","system_id":"levelo_inurba_marseille","lat":43.302759,"lon":5.400793,"is_reserved":false,"is_disabled":false,"rental_uris":{"android":"levelo://app?vid=73d334e5-fa13-4529-8759-7d1743af0513","ios":"levelo://app?vid=73d334e5-fa13-4529-8759-7d1743af0513"},"vehicle_type_id":"4","last_reported":1702773507,"current_range_meters":25200,"station_id":"ce4bgvh2rcd13ifvqcs0","pricing_plan_id":"free"},{"bike_id":"f156ac57-afa9-4340-aebe-c8d028e8af21","system_id":"levelo_inurba_marseille","lat":43.284538,"lon":5.358657,"is_reserved":false,"is_disabled":false,"rental_uris":{"android":"levelo://app?vid=f156ac57-afa9-4340-aebe-c8d028e8af21","ios":"levelo://app?vid=f156ac57-afa9-4340-aebe-c8d028e8af21"},"vehicle_type_id":"4","last_reported":1702773507,"current_range_meters":18400,"station_id":"ce4bhah2rcd13ifvqei0","pricing_plan_id":"free"},{"bike_id":"7980b514-7b81-49da-955f-d3cee0578dd7","system_id":"levelo_inurba_marseille","lat":43.283998,"lon":5.375062,"is_reserved":false,"is_disabled":false,"rental_uris":{"android":"levelo://app?vid=7980b514-7b81-49da-955f-d3cee0578dd7","ios":"levelo://app?vid=7980b514-7b81-49da-955f-d3cee0578dd7"},"vehicle_type_id":"4","last_reported":1702773507,"current_range_meters":9600,"station_id":"ce4bh412rcd13ifvqds0","pricing_plan_id":"free"},{"bike_id":"92652e35-0f46-4898-bac7-396ee1f6f9fd","system_id":"levelo_inurba_marseille","lat":43.28404,"lon":5.37515,"is_reserved":false,"is_disabled":false,"rental_uris":{"android":"levelo://app?vid=92652e35-0f46-4898-bac7-396ee1f6f9fd","ios":"levelo://app?vid=92652e35-0f46-4898-bac7-396ee1f6f9fd"},"vehicle_type_id":"4","last_reported":1702773507,"current_range_meters":24000,"station_id":"ce4bh412rcd13ifvqds0","pricing_plan_id":"free"},{"bike_id":"ea1a7f21-ff2b-4340-b5b1-d551689bfc67","system_id":"levelo_inurba_marseille","lat":43.295713,"lon":5.399639,"is_reserved":false,"is_disabled":false,"rental_uris":{"android":"levelo://app?vid=ea1a7f21-ff2b-4340-b5b1-d551689bfc67","ios":"levelo://app?vid=ea1a7f21-ff2b-4340-b5b1-d551689bfc67"},"vehicle_type_id":"4","last_reported":1702773507,"current_range_meters":17200,"station_id":"ce4bh312rcd13ifvqdj0","pricing_plan_id":"free"},{"bike_id":"2dfa5049-0e1b-4839-b5c3-156910a65dbd","system_id":"levelo_inurba_marseille","lat":43.331737,"lon":5.39845,"is_reserved":false,"is_disabled":false,"rental_uris":{"android":"levelo://app?vid=2dfa5049-0e1b-4839-b5c3-156910a65dbd","ios":"levelo://app?vid=2dfa5049-0e1b-4839-b5c3-156910a65dbd"},"vehicle_type_id":"4","last_reported":1702773507,"current_range_meters":8000,"station_id":"","pricing_plan_id":"free"},{"bike_id":"b1bba2b6-372d-49dd-b13b-1b4d710db23d","system_id":"levelo_inurba_marseille","lat":43.323464,"lon":5.406297,"is_reserved":false,"is_disabled":false,"rental_uris":{"android":"levelo://app?vid=b1bba2b6-372d-49dd-b13b-1b4d710db23d","ios":"levelo://app?vid=b1bba2b6-372d-49dd-b13b-1b4d710db23d"},"vehicle_type_id":"4","last_reported":1702773507,"current_range_meters":14400,"station_id":"ce4bhq92rcd13ifvqhjg","pricing_plan_id":"free"},{"bike_id":"a8c4246c-8b22-44a6-af13-0443491dc2b7","system_id":"levelo_inurba_marseille","lat":43.32336,"lon":5.40618,"is_reserved":false,"is_disabled":false,"rental_uris":{"android":"levelo://app?vid=a8c4246c-8b22-44a6-af13-0443491dc2b7","ios":"levelo://app?vid=a8c4246c-8b22-44a6-af13-0443491dc2b7"},"vehicle_type_id":"4","last_reported":1702773507,"current_range_meters":24800,"station_id":"ce4bhq92rcd13ifvqhjg","pricing_plan_id":"free"},{"bike_id":"e24feb9b-357c-45fc-bfad-b97d1916c4a1","system_id":"levelo_inurba_marseille","lat":43.288519,"lon":5.393235,"is_reserved":false,"is_disabled":false,"rental_uris":{"android":"levelo://app?vid=e24feb9b-357c-45fc-bfad-b97d1916c4a1","ios":"levelo://app?vid=e24feb9b-357c-45fc-bfad-b97d1916c4a1"},"vehicle_type_id":"4","last_reported":1702773507,"current_range_meters":0,"station_id":"ce4bh2p2rcd13ifvqdi0","pricing_plan_id":"free"},{"bike_id":"9d839594-cf96-4903-a83c-da5e475a0d41","system_id":"levelo_inurba_marseille","lat":43.292724,"lon":5.401131,"is_reserved":false,"is_disabled":false,"rental_uris":{"android":"levelo://app?vid=9d839594-cf96-4903-a83c-da5e475a0d41","ios":"levelo://app?vid=9d839594-cf96-4903-a83c-da5e475a0d41"},"vehicle_type_id":"4","last_reported":1702773507,"current_range_meters":11200,"station_id":"ce4bh312rcd13ifvqdk0","pricing_plan_id":"free"},{"bike_id":"e76ea7bc-5795-4bb1-a711-eed5bd0a9ebb","system_id":"levelo_inurba_marseille","lat":43.292724,"lon":5.401131,"is_reserved":false,"is_disabled":false,"rental_uris":{"android":"levelo://app?vid=e76ea7bc-5795-4bb1-a711-eed5bd0a9ebb","ios":"levelo://app?vid=e76ea7bc-5795-4bb1-a711-eed5bd0a9ebb"},"vehicle_type_id":"4","last_reported":1702773507,"current_range_meters":16400,"station_id":"ce4bh312rcd13ifvqdk0","pricing_plan_id":"free"},{"bike_id":"7d873e33-5ba4-4582-8f44-6e46fbf3d3b9","system_id":"levelo_inurba_marseille","lat":43.2812,"lon":5.36008,"is_reserved":false,"is_disabled":false,"rental_uris":{"android":"levelo://app?vid=7d873e33-5ba4-4582-8f44-6e46fbf3d3b9","ios":"levelo://app?vid=7d873e33-5ba4-4582-8f44-6e46fbf3d3b9"},"vehicle_type_id":"4","last_reported":1702773507,"current_range_meters":16800,"station_id":"","pricing_plan_id":"free"},{"bike_id":"b06270b4-fded-4e46-b5b5-36e56aa3f6f4","system_id":"levelo_inurba_marseille","lat":43.282754,"lon":5.350519,"is_reserved":false,"is_disabled":false,"rental_uris":{"android":"levelo://app?vid=b06270b4-fded-4e46-b5b5-36e56aa3f6f4","ios":"levelo://app?vid=b06270b4-fded-4e46-b5b5-36e56aa3f6f4"},"vehicle_type_id":"4","last_reported":1702773507,"current_range_meters":23600,"station_id":"ce4bhbp2rcd13ifvqerg","pricing_plan_id":"free"},{"bike_id":"e063aa6d-ecfb-43c0-963f-c3e8c8b6d808","system_id":"levelo_inurba_marseille","lat":43.280346,"lon":5.36941,"is_reserved":false,"is_disabled":false,"rental_uris":{"android":"levelo://app?vid=e063aa6d-ecfb-43c0-963f-c3e8c8b6d808","ios":"levelo://app?vid=e063aa6d-ecfb-43c0-963f-c3e8c8b6d808"},"vehicle_type_id":"4","last_reported":1702773507,"current_range_meters":0,"station_id":"ce4bha12rcd13ifvqef0","pricing_plan_id":"free"},{"bike_id":"9d2389f0-1f4e-4d61-afc0-c373a6bcf102","system_id":"levelo_inurba_marseille","lat":43.280382,"lon":5.369291,"is_reserved":false,"is_disabled":false,"rental_uris":{"android":"levelo://app?vid=9d2389f0-1f4e-4d61-afc0-c373a6bcf102","ios":"levelo://app?vid=9d2389f0-1f4e-4d61-afc0-c373a6bcf102"},"vehicle_type_id":"4","last_reported":1702773507,"current_range_meters":26400,"station_id":"ce4bha12rcd13ifvqef0","pricing_plan_id":"free"},{"bike_id":"2ed9e3d1-4477-4a66-96f9-c25e11fcf5b3","system_id":"levelo_inurba_marseille","lat":43.296263,"lon":5.40601,"is_reserved":false,"is_disabled":false,"rental_uris":{"android":"levelo://app?vid=2ed9e3d1-4477-4a66-96f9-c25e11fcf5b3","ios":"levelo://app?vid=2ed9e3d1-4477-4a66-96f9-c25e11fcf5b3"},"vehicle_type_id":"4","last_reported":1702773507,"current_range_meters":26800,"station_id":"ce4bh0h2rcd13ifvqd60","pricing_plan_id":"free"},{"bike_id":"cc41ff2b-f5f0-4406-9181-4ed8087eaf55","system_id":"levelo_inurba_marseille","lat":43.284462,"lon":5.392121,"is_reserved":false,"is_disabled":false,"rental_uris":{"android":"levelo://app?vid=cc41ff2b-f5f0-4406-9181-4ed8087eaf55","ios":"levelo://app?vid=cc41ff2b-f5f0-4406-9181-4ed8087eaf55"},"vehicle_type_id":"4","last_reported":1702773507,"current_range_meters":0,"station_id":"ce4bhoh2rcd13ifvqh5g","pricing_plan_id":"free"},{"bike_id":"ac05eec3-6dd4-4e50-ab24-45f354a74562","system_id":"levelo_inurba_marseille","lat":43.326605,"lon":5.409903,"is_reserved":false,"is_disabled":false,"rental_uris":{"android":"levelo://app?vid=ac05eec3-6dd4-4e50-ab24-45f354a74562","ios":"levelo://app?vid=ac05eec3-6dd4-4e50-ab24-45f354a74562"},"vehicle_type_id":"4","last_reported":1702773507,"current_range_meters":30000,"station_id":"ce4bhpp2rcd13ifvqhgg","pricing_plan_id":"free"},{"bike_id":"e5310594-5a62-4852-93e6-6994fab1f970","system_id":"levelo_inurba_marseille","lat":43.279087,"lon":5.380114,"is_reserved":false,"is_disabled":false,"rental_uris":{"android":"levelo://app?vid=e5310594-5a62-4852-93e6-6994fab1f970","ios":"levelo://app?vid=e5310594-5a62-4852-93e6-6994fab1f970"},"vehicle_type_id":"4","last_reported":1702773507,"current_range_meters":12800,"station_id":"ce4bhf92rcd13ifvqf50","pricing_plan_id":"free"},{"bike_id":"fa5d0a72-7792-4471-85c6-472e2e14f969","system_id":"levelo_inurba_marseille","lat":43.287154,"lon":5.399979,"is_reserved":false,"is_disabled":false,"rental_uris":{"android":"levelo://app?vid=fa5d0a72-7792-4471-85c6-472e2e14f969","ios":"levelo://app?vid=fa5d0a72-7792-4471-85c6-472e2e14f969"},"vehicle_type_id":"4","last_reported":1702773507,"current_range_meters":11200,"station_id":"ce4bho92rcd13ifvqh3g","pricing_plan_id":"free"},{"bike_id":"8652edb6-d1c0-441e-a8f6-fa119617d7ce","system_id":"levelo_inurba_marseille","lat":43.287154,"lon":5.399979,"is_reserved":false,"is_disabled":false,"rental_uris":{"android":"levelo://app?vid=8652edb6-d1c0-441e-a8f6-fa119617d7ce","ios":"levelo://app?vid=8652edb6-d1c0-441e-a8f6-fa119617d7ce"},"vehicle_type_id":"4","last_reported":1702773507,"current_range_meters":19200,"station_id":"ce4bho92rcd13ifvqh3g","pricing_plan_id":"free"},{"bike_id":"d6aa6c92-b226-46fc-a303-229c6b00dd52","system_id":"levelo_inurba_marseille","lat":43.28703,"lon":5.39987,"is_reserved":false,"is_disabled":false,"rental_uris":{"android":"levelo://app?vid=d6aa6c92-b226-46fc-a303-229c6b00dd52","ios":"levelo://app?vid=d6aa6c92-b226-46fc-a303-229c6b00dd52"},"vehicle_type_id":"4","last_reported":1702773507,"current_range_meters":10000,"station_id":"ce4bho92rcd13ifvqh3g","pricing_plan_id":"free"},{"bike_id":"2e05d74d-69bc-42bf-b436-a30ba178bef0","system_id":"levelo_inurba_marseille","lat":43.279087,"lon":5.380114,"is_reserved":false,"is_disabled":false,"rental_uris":{"android":"levelo://app?vid=2e05d74d-69bc-42bf-b436-a30ba178bef0","ios":"levelo://app?vid=2e05d74d-69bc-42bf-b436-a30ba178bef0"},"vehicle_type_id":"4","last_reported":1702773507,"current_range_meters":11600,"station_id":"ce4bhf92rcd13ifvqf50","pricing_plan_id":"free"},{"bike_id":"50a75cc7-e590-4a41-b17e-605170017a9c","system_id":"levelo_inurba_marseille","lat":43.320045,"lon":5.415048,"is_reserved":false,"is_disabled":false,"rental_uris":{"android":"levelo://app?vid=50a75cc7-e590-4a41-b17e-605170017a9c","ios":"levelo://app?vid=50a75cc7-e590-4a41-b17e-605170017a9c"},"vehicle_type_id":"4","last_reported":1702773507,"current_range_meters":18400,"station_id":"ce4bhq92rcd13ifvqhkg","pricing_plan_id":"free"},{"bike_id":"b20b997c-e71c-4908-ab85-2e82e1ac7d9c","system_id":"levelo_inurba_marseille","lat":43.299579,"lon":5.413255,"is_reserved":false,"is_disabled":false,"rental_uris":{"android":"levelo://app?vid=b20b997c-e71c-4908-ab85-2e82e1ac7d9c","ios":"levelo://app?vid=b20b997c-e71c-4908-ab85-2e82e1ac7d9c"},"vehicle_type_id":"4","last_reported":1702773507,"current_range_meters":25200,"station_id":"ce4bhp12rcd13ifvqh9g","pricing_plan_id":"free"},{"bike_id":"a9761bfc-9cc9-46d3-90ba-cb98557039b8","system_id":"levelo_inurba_marseille","lat":43.292571,"lon":5.409107,"is_reserved":false,"is_disabled":false,"rental_uris":{"android":"levelo://app?vid=a9761bfc-9cc9-46d3-90ba-cb98557039b8","ios":"levelo://app?vid=a9761bfc-9cc9-46d3-90ba-cb98557039b8"},"vehicle_type_id":"4","last_reported":1702773507,"current_range_meters":22800,"station_id":"ce4bh192rcd13ifvqdc0","pricing_plan_id":"free"},{"bike_id":"3ab9a3ea-0856-4851-8dc5-251cdc548ff2","system_id":"levelo_inurba_marseille","lat":43.276179,"lon":5.361009,"is_reserved":false,"is_disabled":false,"rental_uris":{"android":"levelo://app?vid=3ab9a3ea-0856-4851-8dc5-251cdc548ff2","ios":"levelo://app?vid=3ab9a3ea-0856-4851-8dc5-251cdc548ff2"},"vehicle_type_id":"4","last_reported":1702773507,"current_range_meters":0,"station_id":"ce4bgj92rcd13ifvqbe0","pricing_plan_id":"free"},{"bike_id":"bb88f287-0e0d-4d1f-aa50-a899706e4ac8","system_id":"levelo_inurba_marseille","lat":43.280784,"lon":5.396622,"is_reserved":false,"is_disabled":false,"rental_uris":{"android":"levelo://app?vid=bb88f287-0e0d-4d1f-aa50-a899706e4ac8","ios":"levelo://app?vid=bb88f287-0e0d-4d1f-aa50-a899706e4ac8"},"vehicle_type_id":"4","last_reported":1702773507,"current_range_meters":29600,"station_id":"ce4bho12rcd13ifvqh2g","pricing_plan_id":"free"},{"bike_id":"e7fcdeca-090d-491e-a8ea-4f6571be908d","system_id":"levelo_inurba_marseille","lat":43.280784,"lon":5.396622,"is_reserved":false,"is_disabled":false,"rental_uris":{"android":"levelo://app?vid=e7fcdeca-090d-491e-a8ea-4f6571be908d","ios":"levelo://app?vid=e7fcdeca-090d-491e-a8ea-4f6571be908d"},"vehicle_type_id":"4","last_reported":1702773507,"current_range_meters":27200,"station_id":"ce4bho12rcd13ifvqh2g","pricing_plan_id":"free"},{"bike_id":"60d62baa-fa07-4908-821f-297e680b9e12","system_id":"levelo_inurba_marseille","lat":43.278401,"lon":5.392152,"is_reserved":false,"is_disabled":false,"rental_uris":{"android":"levelo://app?vid=60d62baa-fa07-4908-821f-297e680b9e12","ios":"levelo://app?vid=60d62baa-fa07-4908-821f-297e680b9e12"},"vehicle_type_id":"4","last_reported":1702773507,"current_range_meters":31200,"station_id":"ce4bhjp2rcd13ifvqga0","pricing_plan_id":"free"},{"bike_id":"630f80f1-ba04-49ea-9076-6a3b75fb8289","system_id":"levelo_inurba_marseille","lat":43.335977,"lon":5.41025,"is_reserved":false,"is_disabled":false,"rental_uris":{"android":"levelo://app?vid=630f80f1-ba04-49ea-9076-6a3b75fb8289","ios":"levelo://app?vid=630f80f1-ba04-49ea-9076-6a3b75fb8289"},"vehicle_type_id":"4","last_reported":1702773507,"current_range_meters":6800,"station_id":"ce4bhqh2rcd13ifvqhmg","pricing_plan_id":"free"},{"bike_id":"2bed3501-fcea-4a7a-8a65-1bedf3ad5bdc","system_id":"levelo_inurba_marseille","lat":43.336134,"lon":5.410341,"is_reserved":false,"is_disabled":false,"rental_uris":{"android":"levelo://app?vid=2bed3501-fcea-4a7a-8a65-1bedf3ad5bdc","ios":"levelo://app?vid=2bed3501-fcea-4a7a-8a65-1bedf3ad5bdc"},"vehicle_type_id":"4","last_reported":1702773507,"current_range_meters":29600,"station_id":"ce4bhqh2rcd13ifvqhmg","pricing_plan_id":"free"},{"bike_id":"351a09f0-ba6b-4fb0-8c87-c3c334e42050","system_id":"levelo_inurba_marseille","lat":43.276769,"lon":5.388787,"is_reserved":false,"is_disabled":false,"rental_uris":{"android":"levelo://app?vid=351a09f0-ba6b-4fb0-8c87-c3c334e42050","ios":"levelo://app?vid=351a09f0-ba6b-4fb0-8c87-c3c334e42050"},"vehicle_type_id":"4","last_reported":1702773507,"current_range_meters":800,"station_id":"ce4bhi12rcd13ifvqfo0","pricing_plan_id":"free"},{"bike_id":"ea3d35f6-b07e-4308-ae51-5376e9d8e7cc","system_id":"levelo_inurba_marseille","lat":43.273439,"lon":5.364603,"is_reserved":false,"is_disabled":false,"rental_uris":{"android":"levelo://app?vid=ea3d35f6-b07e-4308-ae51-5376e9d8e7cc","ios":"levelo://app?vid=ea3d35f6-b07e-4308-ae51-5376e9d8e7cc"},"vehicle_type_id":"4","last_reported":1702773507,"current_range_meters":14400,"station_id":"","pricing_plan_id":"free"},{"bike_id":"b55ffe92-8a83-40f0-a3c4-d4168e894444","system_id":"levelo_inurba_marseille","lat":43.279952,"lon":5.400085,"is_reserved":false,"is_disabled":false,"rental_uris":{"android":"levelo://app?vid=b55ffe92-8a83-40f0-a3c4-d4168e894444","ios":"levelo://app?vid=b55ffe92-8a83-40f0-a3c4-d4168e894444"},"vehicle_type_id":"4","last_reported":1702773507,"current_range_meters":25600,"station_id":"ce4bho92rcd13ifvqh4g","pricing_plan_id":"free"},{"bike_id":"834b8db2-fa63-4fcf-b17e-58cd7130986d","system_id":"levelo_inurba_marseille","lat":43.279952,"lon":5.400085,"is_reserved":false,"is_disabled":false,"rental_uris":{"android":"levelo://app?vid=834b8db2-fa63-4fcf-b17e-58cd7130986d","ios":"levelo://app?vid=834b8db2-fa63-4fcf-b17e-58cd7130986d"},"vehicle_type_id":"4","last_reported":1702773507,"current_range_meters":800,"station_id":"ce4bho92rcd13ifvqh4g","pricing_plan_id":"free"},{"bike_id":"f97f3ae3-0746-4a73-8a97-072f8aa9cb10","system_id":"levelo_inurba_marseille","lat":43.310785,"lon":5.424305,"is_reserved":false,"is_disabled":false,"rental_uris":{"android":"levelo://app?vid=f97f3ae3-0746-4a73-8a97-072f8aa9cb10","ios":"levelo://app?vid=f97f3ae3-0746-4a73-8a97-072f8aa9cb10"},"vehicle_type_id":"4","last_reported":1702773507,"current_range_meters":28800,"station_id":"ce4bhp92rcd13ifvqhag","pricing_plan_id":"free"},{"bike_id":"16e97540-d6c9-41cc-9f14-a93eca663b8b","system_id":"levelo_inurba_marseille","lat":43.317121,"lon":5.423936,"is_reserved":false,"is_disabled":false,"rental_uris":{"android":"levelo://app?vid=16e97540-d6c9-41cc-9f14-a93eca663b8b","ios":"levelo://app?vid=16e97540-d6c9-41cc-9f14-a93eca663b8b"},"vehicle_type_id":"4","last_reported":1702773507,"current_range_meters":2800,"station_id":"ce4bhp92rcd13ifvqhbg","pricing_plan_id":"free"},{"bike_id":"87cc8c4f-8ecf-420c-bac2-ed05f14f8c04","system_id":"levelo_inurba_marseille","lat":43.2761,"lon":5.39493,"is_reserved":false,"is_disabled":false,"rental_uris":{"android":"levelo://app?vid=87cc8c4f-8ecf-420c-bac2-ed05f14f8c04","ios":"levelo://app?vid=87cc8c4f-8ecf-420c-bac2-ed05f14f8c04"},"vehicle_type_id":"4","last_reported":1702773507,"current_range_meters":14000,"station_id":"","pricing_plan_id":"free"},{"bike_id":"43844db9-0392-4da0-9a6e-40bbf1d336e6","system_id":"levelo_inurba_marseille","lat":43.340804,"lon":5.410219,"is_reserved":false,"is_disabled":false,"rental_uris":{"android":"levelo://app?vid=43844db9-0392-4da0-9a6e-40bbf1d336e6","ios":"levelo://app?vid=43844db9-0392-4da0-9a6e-40bbf1d336e6"},"vehicle_type_id":"4","last_reported":1702773507,"current_range_meters":29200,"station_id":"ce4bhqh2rcd13ifvqhlg","pricing_plan_id":"free"},{"bike_id":"cb8657c1-f91a-4cfd-a573-28533970bdba","system_id":"levelo_inurba_marseille","lat":43.340804,"lon":5.410219,"is_reserved":false,"is_disabled":false,"rental_uris":{"android":"levelo://app?vid=cb8657c1-f91a-4cfd-a573-28533970bdba","ios":"levelo://app?vid=cb8657c1-f91a-4cfd-a573-28533970bdba"},"vehicle_type_id":"4","last_reported":1702773507,"current_range_meters":14800,"station_id":"ce4bhqh2rcd13ifvqhlg","pricing_plan_id":"free"},{"bike_id":"3ca2c2d2-99b0-4aa6-a05d-e30f02e6a7fb","system_id":"levelo_inurba_marseille","lat":43.276092,"lon":5.395289,"is_reserved":false,"is_disabled":false,"rental_uris":{"android":"levelo://app?vid=3ca2c2d2-99b0-4aa6-a05d-e30f02e6a7fb","ios":"levelo://app?vid=3ca2c2d2-99b0-4aa6-a05d-e30f02e6a7fb"},"vehicle_type_id":"4","last_reported":1702773507,"current_range_meters":20800,"station_id":"","pricing_plan_id":"free"},{"bike_id":"7235adba-5f6b-4238-95eb-84ff12ea3d25","system_id":"levelo_inurba_marseille","lat":43.273125,"lon":5.390731,"is_reserved":false,"is_disabled":false,"rental_uris":{"android":"levelo://app?vid=7235adba-5f6b-4238-95eb-84ff12ea3d25","ios":"levelo://app?vid=7235adba-5f6b-4238-95eb-84ff12ea3d25"},"vehicle_type_id":"4","last_reported":1702773507,"current_range_meters":26800,"station_id":"ce4bhgp2rcd13ifvqfe0","pricing_plan_id":"free"},{"bike_id":"5fc8057b-7013-4a82-8ebc-5c672f3a8ddf","system_id":"levelo_inurba_marseille","lat":43.274099,"lon":5.394019,"is_reserved":false,"is_disabled":false,"rental_uris":{"android":"levelo://app?vid=5fc8057b-7013-4a82-8ebc-5c672f3a8ddf","ios":"levelo://app?vid=5fc8057b-7013-4a82-8ebc-5c672f3a8ddf"},"vehicle_type_id":"4","last_reported":1702773507,"current_range_meters":21200,"station_id":"ce4bhdp2rcd13ifvqf20","pricing_plan_id":"free"},{"bike_id":"7c5e5a9a-9f39-4a14-9573-d5b8ab599dd5","system_id":"levelo_inurba_marseille","lat":43.27188,"lon":5.39224,"is_reserved":false,"is_disabled":false,"rental_uris":{"android":"levelo://app?vid=7c5e5a9a-9f39-4a14-9573-d5b8ab599dd5","ios":"levelo://app?vid=7c5e5a9a-9f39-4a14-9573-d5b8ab599dd5"},"vehicle_type_id":"4","last_reported":1702773507,"current_range_meters":20000,"station_id":"ce4bhhp2rcd13ifvqfm0","pricing_plan_id":"free"},{"bike_id":"89abd2ab-e0f9-41a3-a25b-8a9f7e44dcba","system_id":"levelo_inurba_marseille","lat":43.269467,"lon":5.386439,"is_reserved":false,"is_disabled":false,"rental_uris":{"android":"levelo://app?vid=89abd2ab-e0f9-41a3-a25b-8a9f7e44dcba","ios":"levelo://app?vid=89abd2ab-e0f9-41a3-a25b-8a9f7e44dcba"},"vehicle_type_id":"4","last_reported":1702773507,"current_range_meters":30000,"station_id":"ce4bhh92rcd13ifvqfh0","pricing_plan_id":"free"},{"bike_id":"db774753-4382-453e-a138-c32d538f9839","system_id":"levelo_inurba_marseille","lat":43.358672,"lon":5.356739,"is_reserved":false,"is_disabled":false,"rental_uris":{"android":"levelo://app?vid=db774753-4382-453e-a138-c32d538f9839","ios":"levelo://app?vid=db774753-4382-453e-a138-c32d538f9839"},"vehicle_type_id":"4","last_reported":1702773507,"current_range_meters":11600,"station_id":"","pricing_plan_id":"free"},{"bike_id":"defcd15e-2d1a-4c6a-9ba9-06ec4a626559","system_id":"levelo_inurba_marseille","lat":43.2656,"lon":5.37282,"is_reserved":false,"is_disabled":false,"rental_uris":{"android":"levelo://app?vid=defcd15e-2d1a-4c6a-9ba9-06ec4a626559","ios":"levelo://app?vid=defcd15e-2d1a-4c6a-9ba9-06ec4a626559"},"vehicle_type_id":"4","last_reported":1702773507,"current_range_meters":0,"station_id":"ce4bhg12rcd13ifvqf70","pricing_plan_id":"free"},{"bike_id":"795c3f04-d671-45bc-bddc-7fd1d0fedee6","system_id":"levelo_inurba_marseille","lat":43.26681,"lon":5.382694,"is_reserved":false,"is_disabled":false,"rental_uris":{"android":"levelo://app?vid=795c3f04-d671-45bc-bddc-7fd1d0fedee6","ios":"levelo://app?vid=795c3f04-d671-45bc-bddc-7fd1d0fedee6"},"vehicle_type_id":"4","last_reported":1702773507,"current_range_meters":23600,"station_id":"ce4bhg92rcd13ifvqf90","pricing_plan_id":"free"},{"bike_id":"3ec397f0-b8da-4e84-be43-f4abb20ebecf","system_id":"levelo_inurba_marseille","lat":43.276817,"lon":5.412112,"is_reserved":false,"is_disabled":false,"rental_uris":{"android":"levelo://app?vid=3ec397f0-b8da-4e84-be43-f4abb20ebecf","ios":"levelo://app?vid=3ec397f0-b8da-4e84-be43-f4abb20ebecf"},"vehicle_type_id":"4","last_reported":1702773507,"current_range_meters":30000,"station_id":"","pricing_plan_id":"free"},{"bike_id":"8a74afc9-c8ee-428c-95f4-83fc1e519239","system_id":"levelo_inurba_marseille","lat":43.27999,"lon":5.41663,"is_reserved":false,"is_disabled":false,"rental_uris":{"android":"levelo://app?vid=8a74afc9-c8ee-428c-95f4-83fc1e519239","ios":"levelo://app?vid=8a74afc9-c8ee-428c-95f4-83fc1e519239"},"vehicle_type_id":"4","last_reported":1702773507,"current_range_meters":1200,"station_id":"ce4bho12rcd13ifvqh1g","pricing_plan_id":"free"},{"bike_id":"f0777057-4272-42ef-93ac-cc8482f179b1","system_id":"levelo_inurba_marseille","lat":43.27997,"lon":5.416637,"is_reserved":false,"is_disabled":false,"rental_uris":{"android":"levelo://app?vid=f0777057-4272-42ef-93ac-cc8482f179b1","ios":"levelo://app?vid=f0777057-4272-42ef-93ac-cc8482f179b1"},"vehicle_type_id":"4","last_reported":1702773507,"current_range_meters":25200,"station_id":"ce4bho12rcd13ifvqh1g","pricing_plan_id":"free"},{"bike_id":"959c24c3-760c-427a-b86a-89ed3d51249b","system_id":"levelo_inurba_marseille","lat":43.265714,"lon":5.372891,"is_reserved":false,"is_disabled":false,"rental_uris":{"android":"levelo://app?vid=959c24c3-760c-427a-b86a-89ed3d51249b","ios":"levelo://app?vid=959c24c3-760c-427a-b86a-89ed3d51249b"},"vehicle_type_id":"4","last_reported":1702773507,"current_range_meters":3200,"station_id":"ce4bhg12rcd13ifvqf70","pricing_plan_id":"free"},{"bike_id":"73c762fc-c6ad-4c72-b709-d375f68a86a0","system_id":"levelo_inurba_marseille","lat":43.308051,"lon":5.43527,"is_reserved":false,"is_disabled":false,"rental_uris":{"android":"levelo://app?vid=73c762fc-c6ad-4c72-b709-d375f68a86a0","ios":"levelo://app?vid=73c762fc-c6ad-4c72-b709-d375f68a86a0"},"vehicle_type_id":"4","last_reported":1702773507,"current_range_meters":24400,"station_id":"ce4bhph2rcd13ifvqheg","pricing_plan_id":"free"},{"bike_id":"6d2a8826-c88a-4068-aa66-f80b00c6f453","system_id":"levelo_inurba_marseille","lat":43.26943,"lon":5.40249,"is_reserved":false,"is_disabled":false,"rental_uris":{"android":"levelo://app?vid=6d2a8826-c88a-4068-aa66-f80b00c6f453","ios":"levelo://app?vid=6d2a8826-c88a-4068-aa66-f80b00c6f453"},"vehicle_type_id":"4","last_reported":1702773507,"current_range_meters":21200,"station_id":"cjm6bp8fraef2m0cb0m0","pricing_plan_id":"free"},{"bike_id":"9b148fe7-0ffd-4931-8c29-6e6064af2347","system_id":"levelo_inurba_marseille","lat":43.31711,"lon":5.43704,"is_reserved":false,"is_disabled":false,"rental_uris":{"android":"levelo://app?vid=9b148fe7-0ffd-4931-8c29-6e6064af2347","ios":"levelo://app?vid=9b148fe7-0ffd-4931-8c29-6e6064af2347"},"vehicle_type_id":"4","last_reported":1702773507,"current_range_meters":17200,"station_id":"ce4bhp92rcd13ifvqhcg","pricing_plan_id":"free"},{"bike_id":"cd508d17-ee53-4f00-89f2-1854417d27a3","system_id":"levelo_inurba_marseille","lat":43.31717,"lon":5.43709,"is_reserved":false,"is_disabled":false,"rental_uris":{"android":"levelo://app?vid=cd508d17-ee53-4f00-89f2-1854417d27a3","ios":"levelo://app?vid=cd508d17-ee53-4f00-89f2-1854417d27a3"},"vehicle_type_id":"4","last_reported":1702773507,"current_range_meters":0,"station_id":"ce4bhp92rcd13ifvqhcg","pricing_plan_id":"free"},{"bike_id":"8f3f06bb-b385-4734-9365-d9d37d542452","system_id":"levelo_inurba_marseille","lat":43.267959,"lon":5.402687,"is_reserved":false,"is_disabled":false,"rental_uris":{"android":"levelo://app?vid=8f3f06bb-b385-4734-9365-d9d37d542452","ios":"levelo://app?vid=8f3f06bb-b385-4734-9365-d9d37d542452"},"vehicle_type_id":"4","last_reported":1702773507,"current_range_meters":12400,"station_id":"ce501612rcd8frsf0b60","pricing_plan_id":"free"},{"bike_id":"a4b12618-8cc5-4307-afce-db369d848131","system_id":"levelo_inurba_marseille","lat":43.267959,"lon":5.402687,"is_reserved":false,"is_disabled":false,"rental_uris":{"android":"levelo://app?vid=a4b12618-8cc5-4307-afce-db369d848131","ios":"levelo://app?vid=a4b12618-8cc5-4307-afce-db369d848131"},"vehicle_type_id":"4","last_reported":1702773507,"current_range_meters":13200,"station_id":"ce501612rcd8frsf0b60","pricing_plan_id":"free"},{"bike_id":"4c30ab0b-cc54-4ba6-ae72-a8fb812c2d2c","system_id":"levelo_inurba_marseille","lat":43.26501,"lon":5.39542,"is_reserved":false,"is_disabled":false,"rental_uris":{"android":"levelo://app?vid=4c30ab0b-cc54-4ba6-ae72-a8fb812c2d2c","ios":"levelo://app?vid=4c30ab0b-cc54-4ba6-ae72-a8fb812c2d2c"},"vehicle_type_id":"4","last_reported":1702773507,"current_range_meters":26400,"station_id":"","pricing_plan_id":"free"},{"bike_id":"8edd52e8-28cf-4b63-b3f1-27d9aaf14520","system_id":"levelo_inurba_marseille","lat":43.26492,"lon":5.3955,"is_reserved":false,"is_disabled":false,"rental_uris":{"android":"levelo://app?vid=8edd52e8-28cf-4b63-b3f1-27d9aaf14520","ios":"levelo://app?vid=8edd52e8-28cf-4b63-b3f1-27d9aaf14520"},"vehicle_type_id":"4","last_reported":1702773507,"current_range_meters":0,"station_id":"","pricing_plan_id":"free"},{"bike_id":"d084d587-4b27-4e47-8734-14f6d302ab83","system_id":"levelo_inurba_marseille","lat":43.298768,"lon":5.43643,"is_reserved":false,"is_disabled":false,"rental_uris":{"android":"levelo://app?vid=d084d587-4b27-4e47-8734-14f6d302ab83","ios":"levelo://app?vid=d084d587-4b27-4e47-8734-14f6d302ab83"},"vehicle_type_id":"4","last_reported":1702773507,"current_range_meters":31200,"station_id":"ce4bhpp2rcd13ifvqhfg","pricing_plan_id":"free"},{"bike_id":"c15ae3b7-8e97-4a88-a9b4-a63f88042490","system_id":"levelo_inurba_marseille","lat":43.281548,"lon":5.42643,"is_reserved":false,"is_disabled":false,"rental_uris":{"android":"levelo://app?vid=c15ae3b7-8e97-4a88-a9b4-a63f88042490","ios":"levelo://app?vid=c15ae3b7-8e97-4a88-a9b4-a63f88042490"},"vehicle_type_id":"4","last_reported":1702773507,"current_range_meters":4000,"station_id":"ce4bhnh2rcd13ifvqgug","pricing_plan_id":"free"},{"bike_id":"71252ba5-5619-4f36-b490-0c5903f0700e","system_id":"levelo_inurba_marseille","lat":43.281548,"lon":5.42643,"is_reserved":false,"is_disabled":false,"rental_uris":{"android":"levelo://app?vid=71252ba5-5619-4f36-b490-0c5903f0700e","ios":"levelo://app?vid=71252ba5-5619-4f36-b490-0c5903f0700e"},"vehicle_type_id":"4","last_reported":1702773507,"current_range_meters":5200,"station_id":"ce4bhnh2rcd13ifvqgug","pricing_plan_id":"free"},{"bike_id":"0fbb9982-628a-458e-8599-3a52f552df95","system_id":"levelo_inurba_marseille","lat":43.2815,"lon":5.42646,"is_reserved":false,"is_disabled":false,"rental_uris":{"android":"levelo://app?vid=0fbb9982-628a-458e-8599-3a52f552df95","ios":"levelo://app?vid=0fbb9982-628a-458e-8599-3a52f552df95"},"vehicle_type_id":"4","last_reported":1702773507,"current_range_meters":25200,"station_id":"ce4bhnh2rcd13ifvqgug","pricing_plan_id":"free"},{"bike_id":"4dd764f6-774c-4512-8b0e-1beb34d8f863","system_id":"levelo_inurba_marseille","lat":43.281548,"lon":5.42643,"is_reserved":false,"is_disabled":false,"rental_uris":{"android":"levelo://app?vid=4dd764f6-774c-4512-8b0e-1beb34d8f863","ios":"levelo://app?vid=4dd764f6-774c-4512-8b0e-1beb34d8f863"},"vehicle_type_id":"4","last_reported":1702773507,"current_range_meters":29600,"station_id":"ce4bhnh2rcd13ifvqgug","pricing_plan_id":"free"},{"bike_id":"d179c498-6590-4265-ba74-db4d632b80df","system_id":"levelo_inurba_marseille","lat":43.281548,"lon":5.42643,"is_reserved":false,"is_disabled":false,"rental_uris":{"android":"levelo://app?vid=d179c498-6590-4265-ba74-db4d632b80df","ios":"levelo://app?vid=d179c498-6590-4265-ba74-db4d632b80df"},"vehicle_type_id":"4","last_reported":1702773507,"current_range_meters":31200,"station_id":"ce4bhnh2rcd13ifvqgug","pricing_plan_id":"free"},{"bike_id":"eb72cf00-5b74-4aac-948c-e470339f3e4d","system_id":"levelo_inurba_marseille","lat":43.26062,"lon":5.39393,"is_reserved":false,"is_disabled":false,"rental_uris":{"android":"levelo://app?vid=eb72cf00-5b74-4aac-948c-e470339f3e4d","ios":"levelo://app?vid=eb72cf00-5b74-4aac-948c-e470339f3e4d"},"vehicle_type_id":"4","last_reported":1702773507,"current_range_meters":22000,"station_id":"ce4bhh92rcd13ifvqfj0","pricing_plan_id":"free"},{"bike_id":"db9d9aee-b6eb-44e3-9707-f193d311c7b0","system_id":"levelo_inurba_marseille","lat":43.26062,"lon":5.39396,"is_reserved":false,"is_disabled":false,"rental_uris":{"android":"levelo://app?vid=db9d9aee-b6eb-44e3-9707-f193d311c7b0","ios":"levelo://app?vid=db9d9aee-b6eb-44e3-9707-f193d311c7b0"},"vehicle_type_id":"4","last_reported":1702773507,"current_range_meters":30400,"station_id":"ce4bhh92rcd13ifvqfj0","pricing_plan_id":"free"},{"bike_id":"e67adb0b-4217-4b03-8657-2f9486792d7e","system_id":"levelo_inurba_marseille","lat":43.2607,"lon":5.393983,"is_reserved":false,"is_disabled":false,"rental_uris":{"android":"levelo://app?vid=e67adb0b-4217-4b03-8657-2f9486792d7e","ios":"levelo://app?vid=e67adb0b-4217-4b03-8657-2f9486792d7e"},"vehicle_type_id":"4","last_reported":1702773507,"current_range_meters":31200,"station_id":"ce4bhh92rcd13ifvqfj0","pricing_plan_id":"free"},{"bike_id":"41bc15f8-3b1d-4ccf-944e-034bbcc08f91","system_id":"levelo_inurba_marseille","lat":43.275028,"lon":5.424534,"is_reserved":false,"is_disabled":false,"rental_uris":{"android":"levelo://app?vid=41bc15f8-3b1d-4ccf-944e-034bbcc08f91","ios":"levelo://app?vid=41bc15f8-3b1d-4ccf-944e-034bbcc08f91"},"vehicle_type_id":"4","last_reported":1702773507,"current_range_meters":22400,"station_id":"ce4bhn92rcd13ifvqgrg","pricing_plan_id":"free"},{"bike_id":"b6836b5c-bf87-43d1-afcb-477e491235ab","system_id":"levelo_inurba_marseille","lat":43.26088,"lon":5.39758,"is_reserved":false,"is_disabled":false,"rental_uris":{"android":"levelo://app?vid=b6836b5c-bf87-43d1-afcb-477e491235ab","ios":"levelo://app?vid=b6836b5c-bf87-43d1-afcb-477e491235ab"},"vehicle_type_id":"4","last_reported":1702773507,"current_range_meters":3600,"station_id":"","pricing_plan_id":"free"},{"bike_id":"cb4aa066-0acd-450f-a854-69855bd4d7ee","system_id":"levelo_inurba_marseille","lat":43.25829,"lon":5.3943,"is_reserved":false,"is_disabled":false,"rental_uris":{"android":"levelo://app?vid=cb4aa066-0acd-450f-a854-69855bd4d7ee","ios":"levelo://app?vid=cb4aa066-0acd-450f-a854-69855bd4d7ee"},"vehicle_type_id":"4","last_reported":1702773507,"current_range_meters":27600,"station_id":"ce4bhip2rcd13ifvqft0","pricing_plan_id":"free"},{"bike_id":"93581f6d-726f-4d5a-9ad1-87ba51ad24db","system_id":"levelo_inurba_marseille","lat":43.25581,"lon":5.38234,"is_reserved":false,"is_disabled":false,"rental_uris":{"android":"levelo://app?vid=93581f6d-726f-4d5a-9ad1-87ba51ad24db","ios":"levelo://app?vid=93581f6d-726f-4d5a-9ad1-87ba51ad24db"},"vehicle_type_id":"4","last_reported":1702773507,"current_range_meters":6000,"station_id":"ce4bhih2rcd13ifvqfs0","pricing_plan_id":"free"},{"bike_id":"09be8c05-5e30-4682-bb68-e56a3497711a","system_id":"levelo_inurba_marseille","lat":43.25577,"lon":5.38229,"is_reserved":false,"is_disabled":false,"rental_uris":{"android":"levelo://app?vid=09be8c05-5e30-4682-bb68-e56a3497711a","ios":"levelo://app?vid=09be8c05-5e30-4682-bb68-e56a3497711a"},"vehicle_type_id":"4","last_reported":1702773507,"current_range_meters":16800,"station_id":"ce4bhih2rcd13ifvqfs0","pricing_plan_id":"free"},{"bike_id":"306e2c26-1ee8-4490-a80b-640eb04b74f0","system_id":"levelo_inurba_marseille","lat":43.270721,"lon":5.422764,"is_reserved":false,"is_disabled":false,"rental_uris":{"android":"levelo://app?vid=306e2c26-1ee8-4490-a80b-640eb04b74f0","ios":"levelo://app?vid=306e2c26-1ee8-4490-a80b-640eb04b74f0"},"vehicle_type_id":"4","last_reported":1702773507,"current_range_meters":28000,"station_id":"ce4bhk92rcd13ifvqgb0","pricing_plan_id":"free"},{"bike_id":"30f3beb6-53d6-45ed-bb8a-acfade589457","system_id":"levelo_inurba_marseille","lat":43.258658,"lon":5.398935,"is_reserved":false,"is_disabled":false,"rental_uris":{"android":"levelo://app?vid=30f3beb6-53d6-45ed-bb8a-acfade589457","ios":"levelo://app?vid=30f3beb6-53d6-45ed-bb8a-acfade589457"},"vehicle_type_id":"4","last_reported":1702773507,"current_range_meters":25600,"station_id":"ce4bhl92rcd13ifvqghg","pricing_plan_id":"free"},{"bike_id":"24ec3704-7663-446c-acc2-98c0854f831a","system_id":"levelo_inurba_marseille","lat":43.25933,"lon":5.40908,"is_reserved":false,"is_disabled":false,"rental_uris":{"android":"levelo://app?vid=24ec3704-7663-446c-acc2-98c0854f831a","ios":"levelo://app?vid=24ec3704-7663-446c-acc2-98c0854f831a"},"vehicle_type_id":"4","last_reported":1702773507,"current_range_meters":21600,"station_id":"ce4bhm92rcd13ifvqglg","pricing_plan_id":"free"},{"bike_id":"ec80f2ee-d212-4255-95b5-c8ee4797f8bd","system_id":"levelo_inurba_marseille","lat":43.25729,"lon":5.41116,"is_reserved":false,"is_disabled":false,"rental_uris":{"android":"levelo://app?vid=ec80f2ee-d212-4255-95b5-c8ee4797f8bd","ios":"levelo://app?vid=ec80f2ee-d212-4255-95b5-c8ee4797f8bd"},"vehicle_type_id":"4","last_reported":1702773507,"current_range_meters":800,"station_id":"ce4bhkp2rcd13ifvqgd0","pricing_plan_id":"free"},{"bike_id":"0b99b61d-5ef8-4e8f-b972-fe58b09e35ac","system_id":"levelo_inurba_marseille","lat":43.250009,"lon":5.389195,"is_reserved":false,"is_disabled":false,"rental_uris":{"android":"levelo://app?vid=0b99b61d-5ef8-4e8f-b972-fe58b09e35ac","ios":"levelo://app?vid=0b99b61d-5ef8-4e8f-b972-fe58b09e35ac"},"vehicle_type_id":"4","last_reported":1702773507,"current_range_meters":30400,"station_id":"ce4bhgp2rcd13ifvqfd0","pricing_plan_id":"free"},{"bike_id":"2e66d6fa-2f14-4312-ae5b-52fa8cc59f18","system_id":"levelo_inurba_marseille","lat":43.2479,"lon":5.374457,"is_reserved":false,"is_disabled":false,"rental_uris":{"android":"levelo://app?vid=2e66d6fa-2f14-4312-ae5b-52fa8cc59f18","ios":"levelo://app?vid=2e66d6fa-2f14-4312-ae5b-52fa8cc59f18"},"vehicle_type_id":"4","last_reported":1702773507,"current_range_meters":4400,"station_id":"ce4bhgh2rcd13ifvqfb0","pricing_plan_id":"free"},{"bike_id":"cda151f2-9ad2-46c9-9115-b73ba9a06619","system_id":"levelo_inurba_marseille","lat":43.25221,"lon":5.406409,"is_reserved":false,"is_disabled":false,"rental_uris":{"android":"levelo://app?vid=cda151f2-9ad2-46c9-9115-b73ba9a06619","ios":"levelo://app?vid=cda151f2-9ad2-46c9-9115-b73ba9a06619"},"vehicle_type_id":"4","last_reported":1702773507,"current_range_meters":2000,"station_id":"","pricing_plan_id":"free"},{"bike_id":"ce8603f2-613d-4a49-b48e-937ea74704c0","system_id":"levelo_inurba_marseille","lat":43.2511,"lon":5.40321,"is_reserved":false,"is_disabled":false,"rental_uris":{"android":"levelo://app?vid=ce8603f2-613d-4a49-b48e-937ea74704c0","ios":"levelo://app?vid=ce8603f2-613d-4a49-b48e-937ea74704c0"},"vehicle_type_id":"4","last_reported":1702773507,"current_range_meters":0,"station_id":"ce4bhlh2rcd13ifvqgig","pricing_plan_id":"free"},{"bike_id":"f65e4610-a3d1-4c11-bb68-edc29960d40b","system_id":"levelo_inurba_marseille","lat":43.246467,"lon":5.388984,"is_reserved":false,"is_disabled":false,"rental_uris":{"android":"levelo://app?vid=f65e4610-a3d1-4c11-bb68-edc29960d40b","ios":"levelo://app?vid=f65e4610-a3d1-4c11-bb68-edc29960d40b"},"vehicle_type_id":"4","last_reported":1702773507,"current_range_meters":11600,"station_id":"ce4bhg12rcd13ifvqf60","pricing_plan_id":"free"},{"bike_id":"86ec86de-2e2c-41b0-b22f-96b92caf7ad2","system_id":"levelo_inurba_marseille","lat":43.243884,"lon":5.370737,"is_reserved":false,"is_disabled":false,"rental_uris":{"android":"levelo://app?vid=86ec86de-2e2c-41b0-b22f-96b92caf7ad2","ios":"levelo://app?vid=86ec86de-2e2c-41b0-b22f-96b92caf7ad2"},"vehicle_type_id":"4","last_reported":1702773507,"current_range_meters":24000,"station_id":"ce4bhhh2rcd13ifvqfk0","pricing_plan_id":"free"},{"bike_id":"2913b0e3-c44c-49f1-ba84-d9d46d3f68b0","system_id":"levelo_inurba_marseille","lat":43.24873,"lon":5.41001,"is_reserved":false,"is_disabled":false,"rental_uris":{"android":"levelo://app?vid=2913b0e3-c44c-49f1-ba84-d9d46d3f68b0","ios":"levelo://app?vid=2913b0e3-c44c-49f1-ba84-d9d46d3f68b0"},"vehicle_type_id":"4","last_reported":1702773507,"current_range_meters":16800,"station_id":"","pricing_plan_id":"free"},{"bike_id":"ee83fd25-65b9-414e-935b-7e3d2531a0b9","system_id":"levelo_inurba_marseille","lat":43.24126,"lon":5.37022,"is_reserved":false,"is_disabled":false,"rental_uris":{"android":"levelo://app?vid=ee83fd25-65b9-414e-935b-7e3d2531a0b9","ios":"levelo://app?vid=ee83fd25-65b9-414e-935b-7e3d2531a0b9"},"vehicle_type_id":"4","last_reported":1702773507,"current_range_meters":0,"station_id":"","pricing_plan_id":"free"},{"bike_id":"e419126f-c388-4a30-9aef-a3cfa5c187e9","system_id":"levelo_inurba_marseille","lat":43.240623,"lon":5.377642,"is_reserved":false,"is_disabled":false,"rental_uris":{"android":"levelo://app?vid=e419126f-c388-4a30-9aef-a3cfa5c187e9","ios":"levelo://app?vid=e419126f-c388-4a30-9aef-a3cfa5c187e9"},"vehicle_type_id":"4","last_reported":1702773507,"current_range_meters":14800,"station_id":"ce4bhnp2rcd13ifvqgvg","pricing_plan_id":"free"},{"bike_id":"9204c7f2-a617-4bba-896e-e0873ae66b31","system_id":"levelo_inurba_marseille","lat":43.240623,"lon":5.377642,"is_reserved":false,"is_disabled":false,"rental_uris":{"android":"levelo://app?vid=9204c7f2-a617-4bba-896e-e0873ae66b31","ios":"levelo://app?vid=9204c7f2-a617-4bba-896e-e0873ae66b31"},"vehicle_type_id":"4","last_reported":1702773507,"current_range_meters":6800,"station_id":"ce4bhnp2rcd13ifvqgvg","pricing_plan_id":"free"},{"bike_id":"50cb0f51-8f1a-4445-825a-05a718cb00c6","system_id":"levelo_inurba_marseille","lat":43.241782,"lon":5.397261,"is_reserved":false,"is_disabled":false,"rental_uris":{"android":"levelo://app?vid=50cb0f51-8f1a-4445-825a-05a718cb00c6","ios":"levelo://app?vid=50cb0f51-8f1a-4445-825a-05a718cb00c6"},"vehicle_type_id":"4","last_reported":1702773507,"current_range_meters":0,"station_id":"ce4bhn12rcd13ifvqgpg","pricing_plan_id":"free"},{"bike_id":"388eb7b3-138a-44dd-93b7-354a4525c75f","system_id":"levelo_inurba_marseille","lat":43.241782,"lon":5.397261,"is_reserved":false,"is_disabled":false,"rental_uris":{"android":"levelo://app?vid=388eb7b3-138a-44dd-93b7-354a4525c75f","ios":"levelo://app?vid=388eb7b3-138a-44dd-93b7-354a4525c75f"},"vehicle_type_id":"4","last_reported":1702773507,"current_range_meters":15600,"station_id":"ce4bhn12rcd13ifvqgpg","pricing_plan_id":"free"},{"bike_id":"d2de79af-25b0-4ee0-8785-c64cdf4cac65","system_id":"levelo_inurba_marseille","lat":43.241782,"lon":5.397261,"is_reserved":false,"is_disabled":false,"rental_uris":{"android":"levelo://app?vid=d2de79af-25b0-4ee0-8785-c64cdf4cac65","ios":"levelo://app?vid=d2de79af-25b0-4ee0-8785-c64cdf4cac65"},"vehicle_type_id":"4","last_reported":1702773507,"current_range_meters":1200,"station_id":"ce4bhn12rcd13ifvqgpg","pricing_plan_id":"free"},{"bike_id":"d3de5ca6-d559-43d0-8ed6-c46c756ed81c","system_id":"levelo_inurba_marseille","lat":43.23196,"lon":5.35544,"is_reserved":false,"is_disabled":false,"rental_uris":{"android":"levelo://app?vid=d3de5ca6-d559-43d0-8ed6-c46c756ed81c","ios":"levelo://app?vid=d3de5ca6-d559-43d0-8ed6-c46c756ed81c"},"vehicle_type_id":"4","last_reported":1702773507,"current_range_meters":400,"station_id":"ce4bhu92rcd13ifvqi70","pricing_plan_id":"free"},{"bike_id":"f5cfb89a-ce48-405c-82ee-5a941b48c540","system_id":"levelo_inurba_marseille","lat":43.23195,"lon":5.35548,"is_reserved":false,"is_disabled":false,"rental_uris":{"android":"levelo://app?vid=f5cfb89a-ce48-405c-82ee-5a941b48c540","ios":"levelo://app?vid=f5cfb89a-ce48-405c-82ee-5a941b48c540"},"vehicle_type_id":"4","last_reported":1702773507,"current_range_meters":20800,"station_id":"ce4bhu92rcd13ifvqi70","pricing_plan_id":"free"},{"bike_id":"0914bc04-89c8-46f4-bf04-78aea5230869","system_id":"levelo_inurba_marseille","lat":43.23194,"lon":5.35549,"is_reserved":false,"is_disabled":false,"rental_uris":{"android":"levelo://app?vid=0914bc04-89c8-46f4-bf04-78aea5230869","ios":"levelo://app?vid=0914bc04-89c8-46f4-bf04-78aea5230869"},"vehicle_type_id":"4","last_reported":1702773507,"current_range_meters":28400,"station_id":"ce4bhu92rcd13ifvqi70","pricing_plan_id":"free"},{"bike_id":"760219ab-0887-48ce-b49e-5a40cc3afc6e","system_id":"levelo_inurba_marseille","lat":43.23194,"lon":5.35544,"is_reserved":false,"is_disabled":false,"rental_uris":{"android":"levelo://app?vid=760219ab-0887-48ce-b49e-5a40cc3afc6e","ios":"levelo://app?vid=760219ab-0887-48ce-b49e-5a40cc3afc6e"},"vehicle_type_id":"4","last_reported":1702773507,"current_range_meters":20400,"station_id":"ce4bhu92rcd13ifvqi70","pricing_plan_id":"free"},{"bike_id":"9b13ea6e-561a-4716-a516-c5aead357a46","system_id":"levelo_inurba_marseille","lat":43.23193,"lon":5.35547,"is_reserved":false,"is_disabled":false,"rental_uris":{"android":"levelo://app?vid=9b13ea6e-561a-4716-a516-c5aead357a46","ios":"levelo://app?vid=9b13ea6e-561a-4716-a516-c5aead357a46"},"vehicle_type_id":"4","last_reported":1702773507,"current_range_meters":19600,"station_id":"ce4bhu92rcd13ifvqi70","pricing_plan_id":"free"},{"bike_id":"3dd05bbe-7d4d-4d5f-b9a9-4266846c777b","system_id":"levelo_inurba_marseille","lat":43.231919,"lon":5.355532,"is_reserved":false,"is_disabled":false,"rental_uris":{"android":"levelo://app?vid=3dd05bbe-7d4d-4d5f-b9a9-4266846c777b","ios":"levelo://app?vid=3dd05bbe-7d4d-4d5f-b9a9-4266846c777b"},"vehicle_type_id":"4","last_reported":1702773507,"current_range_meters":24400,"station_id":"ce4bhu92rcd13ifvqi70","pricing_plan_id":"free"},{"bike_id":"c58c2105-152a-4be3-96b7-ef7d8114d5d4","system_id":"levelo_inurba_marseille","lat":43.23192,"lon":5.35554,"is_reserved":false,"is_disabled":false,"rental_uris":{"android":"levelo://app?vid=c58c2105-152a-4be3-96b7-ef7d8114d5d4","ios":"levelo://app?vid=c58c2105-152a-4be3-96b7-ef7d8114d5d4"},"vehicle_type_id":"4","last_reported":1702773507,"current_range_meters":16000,"station_id":"ce4bhu92rcd13ifvqi70","pricing_plan_id":"free"},{"bike_id":"be641546-dcea-4309-ad5a-32c7507f146a","system_id":"levelo_inurba_marseille","lat":43.23191,"lon":5.35557,"is_reserved":false,"is_disabled":false,"rental_uris":{"android":"levelo://app?vid=be641546-dcea-4309-ad5a-32c7507f146a","ios":"levelo://app?vid=be641546-dcea-4309-ad5a-32c7507f146a"},"vehicle_type_id":"4","last_reported":1702773507,"current_range_meters":12800,"station_id":"ce4bhu92rcd13ifvqi70","pricing_plan_id":"free"},{"bike_id":"6407938b-389d-4533-9ecb-2228594d1ac0","system_id":"levelo_inurba_marseille","lat":43.23191,"lon":5.35556,"is_reserved":false,"is_disabled":false,"rental_uris":{"android":"levelo://app?vid=6407938b-389d-4533-9ecb-2228594d1ac0","ios":"levelo://app?vid=6407938b-389d-4533-9ecb-2228594d1ac0"},"vehicle_type_id":"4","last_reported":1702773507,"current_range_meters":18400,"station_id":"ce4bhu92rcd13ifvqi70","pricing_plan_id":"free"},{"bike_id":"90458881-97e2-4d19-a7dd-597c18dc1844","system_id":"levelo_inurba_marseille","lat":43.231908,"lon":5.355497,"is_reserved":false,"is_disabled":false,"rental_uris":{"android":"levelo://app?vid=90458881-97e2-4d19-a7dd-597c18dc1844","ios":"levelo://app?vid=90458881-97e2-4d19-a7dd-597c18dc1844"},"vehicle_type_id":"4","last_reported":1702773507,"current_range_meters":20800,"station_id":"ce4bhu92rcd13ifvqi70","pricing_plan_id":"free"},{"bike_id":"8bde1f20-3114-431c-b2df-22d6e7b7655a","system_id":"levelo_inurba_marseille","lat":43.2319,"lon":5.3555,"is_reserved":false,"is_disabled":false,"rental_uris":{"android":"levelo://app?vid=8bde1f20-3114-431c-b2df-22d6e7b7655a","ios":"levelo://app?vid=8bde1f20-3114-431c-b2df-22d6e7b7655a"},"vehicle_type_id":"4","last_reported":1702773507,"current_range_meters":8000,"station_id":"ce4bhu92rcd13ifvqi70","pricing_plan_id":"free"},{"bike_id":"e4f94050-aae1-4821-b78a-030e7070af2a","system_id":"levelo_inurba_marseille","lat":43.231892,"lon":5.355608,"is_reserved":false,"is_disabled":false,"rental_uris":{"android":"levelo://app?vid=e4f94050-aae1-4821-b78a-030e7070af2a","ios":"levelo://app?vid=e4f94050-aae1-4821-b78a-030e7070af2a"},"vehicle_type_id":"4","last_reported":1702773507,"current_range_meters":18000,"station_id":"ce4bhu92rcd13ifvqi70","pricing_plan_id":"free"},{"bike_id":"c0509687-6622-44dd-a042-9b19ef27d0ea","system_id":"levelo_inurba_marseille","lat":43.231892,"lon":5.355505,"is_reserved":false,"is_disabled":false,"rental_uris":{"android":"levelo://app?vid=c0509687-6622-44dd-a042-9b19ef27d0ea","ios":"levelo://app?vid=c0509687-6622-44dd-a042-9b19ef27d0ea"},"vehicle_type_id":"4","last_reported":1702773507,"current_range_meters":30000,"station_id":"ce4bhu92rcd13ifvqi70","pricing_plan_id":"free"},{"bike_id":"f01df4f9-4c07-49f3-8959-762b34cdbe6c","system_id":"levelo_inurba_marseille","lat":43.231793,"lon":5.400044,"is_reserved":false,"is_disabled":false,"rental_uris":{"android":"levelo://app?vid=f01df4f9-4c07-49f3-8959-762b34cdbe6c","ios":"levelo://app?vid=f01df4f9-4c07-49f3-8959-762b34cdbe6c"},"vehicle_type_id":"4","last_reported":1702773507,"current_range_meters":8000,"station_id":"ce4bhn12rcd13ifvqgqg","pricing_plan_id":"free"},{"bike_id":"82b0b121-d2e6-4f04-8530-97cda8a0fbcd","system_id":"levelo_inurba_marseille","lat":43.231794,"lon":5.400052,"is_reserved":false,"is_disabled":false,"rental_uris":{"android":"levelo://app?vid=82b0b121-d2e6-4f04-8530-97cda8a0fbcd","ios":"levelo://app?vid=82b0b121-d2e6-4f04-8530-97cda8a0fbcd"},"vehicle_type_id":"4","last_reported":1702773507,"current_range_meters":20400,"station_id":"ce4bhn12rcd13ifvqgqg","pricing_plan_id":"free"},{"bike_id":"eebdb2eb-1078-4631-9a60-7dbf3d61e9ba","system_id":"levelo_inurba_marseille","lat":43.231794,"lon":5.400052,"is_reserved":false,"is_disabled":false,"rental_uris":{"android":"levelo://app?vid=eebdb2eb-1078-4631-9a60-7dbf3d61e9ba","ios":"levelo://app?vid=eebdb2eb-1078-4631-9a60-7dbf3d61e9ba"},"vehicle_type_id":"4","last_reported":1702773507,"current_range_meters":7200,"station_id":"ce4bhn12rcd13ifvqgqg","pricing_plan_id":"free"},{"bike_id":"548182e0-dae7-414e-9c9b-e03d4d209d58","system_id":"levelo_inurba_marseille","lat":43.231793,"lon":5.400044,"is_reserved":false,"is_disabled":false,"rental_uris":{"android":"levelo://app?vid=548182e0-dae7-414e-9c9b-e03d4d209d58","ios":"levelo://app?vid=548182e0-dae7-414e-9c9b-e03d4d209d58"},"vehicle_type_id":"4","last_reported":1702773507,"current_range_meters":5600,"station_id":"ce4bhn12rcd13ifvqgqg","pricing_plan_id":"free"},{"bike_id":"3ee0ea00-8e05-48c0-a38d-caf8a81146cd","system_id":"levelo_inurba_marseille","lat":43.231794,"lon":5.400052,"is_reserved":false,"is_disabled":false,"rental_uris":{"android":"levelo://app?vid=3ee0ea00-8e05-48c0-a38d-caf8a81146cd","ios":"levelo://app?vid=3ee0ea00-8e05-48c0-a38d-caf8a81146cd"},"vehicle_type_id":"4","last_reported":1702773507,"current_range_meters":14800,"station_id":"ce4bhn12rcd13ifvqgqg","pricing_plan_id":"free"},{"bike_id":"d5206a6c-92a9-4a75-8859-313a2b40fcd2","system_id":"levelo_inurba_marseille","lat":43.231793,"lon":5.400044,"is_reserved":false,"is_disabled":false,"rental_uris":{"android":"levelo://app?vid=d5206a6c-92a9-4a75-8859-313a2b40fcd2","ios":"levelo://app?vid=d5206a6c-92a9-4a75-8859-313a2b40fcd2"},"vehicle_type_id":"4","last_reported":1702773507,"current_range_meters":29600,"station_id":"ce4bhn12rcd13ifvqgqg","pricing_plan_id":"free"},{"bike_id":"9db613ee-fc4e-4bb9-a7ba-abd902891559","system_id":"levelo_inurba_marseille","lat":43.231794,"lon":5.400052,"is_reserved":false,"is_disabled":false,"rental_uris":{"android":"levelo://app?vid=9db613ee-fc4e-4bb9-a7ba-abd902891559","ios":"levelo://app?vid=9db613ee-fc4e-4bb9-a7ba-abd902891559"},"vehicle_type_id":"4","last_reported":1702773507,"current_range_meters":3600,"station_id":"ce4bhn12rcd13ifvqgqg","pricing_plan_id":"free"},{"bike_id":"2316ae3c-d698-4682-9e48-b64dc701ece9","system_id":"levelo_inurba_marseille","lat":43.231562,"lon":5.436933,"is_reserved":false,"is_disabled":false,"rental_uris":{"android":"levelo://app?vid=2316ae3c-d698-4682-9e48-b64dc701ece9","ios":"levelo://app?vid=2316ae3c-d698-4682-9e48-b64dc701ece9"},"vehicle_type_id":"4","last_reported":1702773507,"current_range_meters":16000,"station_id":"ce4bhmp2rcd13ifvqgog","pricing_plan_id":"free"},{"bike_id":"5e810328-aea2-4665-a664-4463719d9ace","system_id":"levelo_inurba_marseille","lat":43.231562,"lon":5.436933,"is_reserved":false,"is_disabled":false,"rental_uris":{"android":"levelo://app?vid=5e810328-aea2-4665-a664-4463719d9ace","ios":"levelo://app?vid=5e810328-aea2-4665-a664-4463719d9ace"},"vehicle_type_id":"4","last_reported":1702773507,"current_range_meters":30800,"station_id":"ce4bhmp2rcd13ifvqgog","pricing_plan_id":"free"}]}}