{"last_updated":1715015285,"ttl":30,"version":"2.2","data":{"bikes":[{"bike_id":"fdf3027f-60b5-46c0-b5c2-a5b8697e30f4","system_id":"levelo_inurba_marseille","lat":43.31235,"lon":5.36857,"is_reserved":false,"is_disabled":false,"rental_uris":{"android":"levelo://app?vid=fdf3027f-60b5-46c0-b5c2-a5b8697e30f4","ios":"levelo://app?vid=fdf3027f-60b5-46c0-b5c2-a5b8697e30f4"},"vehicle_type_id":"4","last_reported":1715015285,"current_range_meters":0,"station_id":"ce4bgl92rcd13ifvqbq0","pricing_plan_id":"cebpf4jnsgd1na2vs0mg"},{"bike_id":"427cf5ea-2992-41db-996f-53f9a7260a0d","system_id":"levelo_inurba_marseille","lat":43.312239,"lon":5.368562,"is_reserved":false,"is_disabled":false,"rental_uris":{"android":"levelo://app?vid=427cf5ea-2992-41db-996f-53f9a7260a0d","ios":"levelo://app?vid=427cf5ea-2992-41db-996f-53f9a7260a0d"},"vehicle_type_id":"4","last_reported":1715015285,"current_range_meters":0,"station_id":"ce4bgl92rcd13ifvqbq0","pricing_plan_id":"cebpf4jnsgd1na2vs0mg"},{"bike_id":"1d1eea4a-f4da-4e8f-85b3-85b6036bcecd","system_id":"levelo_inurba_marseille","lat":43.309034,"lon":5.371783,"is_reserved":false,"is_disabled":false,"rental_uris":{"android":"levelo://app?vid=1d1eea4a-f4da-4e8f-85b3-85b6036bcecd","ios":"levelo://app?vid=1d1eea4a-f4da-4e8f-85b3-85b6036bcecd"},"vehicle_type_id":"4","last_reported":1715015285,"current_range_meters":15600,"station_id":"ce4bguh2rcd13ifvqckg","pricing_plan_id":"cebpf4jnsgd1na2vs0mg"},{"bike_id":"495b3401-7fa3-4a96-86f4-c05c70c7b2db","system_id":"levelo_inurba_marseille","lat":43.314811,"lon":5.373103,"is_reserved":false,"is_disabled":false,"rental_uris":{"android":"levelo://app?vid=495b3401-7fa3-4a96-86f4-c05c70c7b2db","ios":"levelo://app?vid=495b3401-7fa3-4a96-86f4-c05c70c7b2db"},"vehicle_type_id":"4","last_reported":1715015285,"current_range_meters":12800,"station_id":"ce4bgt12rcd13ifvqcd0","pricing_plan_id":"cebpf4jnsgd1na2vs0mg"},{"bike_id":"9a05ad8c-6058-47d9-8602-908d73aa59df","system_id":"levelo_inurba_marseille","lat":43.314811,"lon":5.373103,"is_reserved":false,"is_disabled":false,"rental_uris":{"android":"levelo://app?vid=9a05ad8c-6058-47d9-8602-908d73aa59df","ios":"levelo://app?vid=9a05ad8c-6058-47d9-8602-908d73aa59df"},"vehicle_type_id":"4","last_reported":1715015285,"current_range_meters":0,"station_id":"ce4bgt12rcd13ifvqcd0","pricing_plan_id":"cebpf4jnsgd1na2vs0mg"},{"bike_id":"b165d206-a95e-4c2d-b94f-9f7ba7478466","system_id":"levelo_inurba_marseille","lat":43.31608,"lon":5.37324,"is_reserved":false,"is_disabled":false,"rental_uris":{"android":"levelo://app?vid=b165d206-a95e-4c2d-b94f-9f7ba7478466","ios":"levelo://app?vid=b165d206-a95e-4c2d-b94f-9f7ba7478466"},"vehicle_type_id":"4","last_reported":1715015285,"current_range_meters":19600,"station_id":"","pricing_plan_id":"cebpf4jnsgd1na2vs0mg"},{"bike_id":"4f8bc639-a9f1-4618-88c0-54637996d607","system_id":"levelo_inurba_marseille","lat":43.30537,"lon":5.367345,"is_reserved":false,"is_disabled":false,"rental_uris":{"android":"levelo://app?vid=4f8bc639-a9f1-4618-88c0-54637996d607","ios":"levelo://app?vid=4f8bc639-a9f1-4618-88c0-54637996d607"},"vehicle_type_id":"4","last_reported":1715015285,"current_range_meters":0,"station_id":"ce4bgrp2rcd13ifvqc9g","pricing_plan_id":"cebpf4jnsgd1na2vs0mg"},{"bike_id":"f2795fa6-35e5-4b32-bf11-1d5e03b9e070","system_id":"levelo_inurba_marseille","lat":43.305989,"lon":5.37225,"is_reserved":false,"is_disabled":false,"rental_uris":{"android":"levelo://app?vid=f2795fa6-35e5-4b32-bf11-1d5e03b9e070","ios":"levelo://app?vid=f2795fa6-35e5-4b32-bf11-1d5e03b9e070"},"vehicle_type_id":"4","last_reported":1715015285,"current_range_meters":4400,"station_id":"ce4bgqh2rcd13ifvqc4g","pricing_plan_id":"cebpf4jnsgd1na2vs0mg"},{"bike_id":"a1ec3780-ca95-400c-ab43-ee723fb07cef","system_id":"levelo_inurba_marseille","lat":43.305989,"lon":5.37225,"is_reserved":false,"is_disabled":false,"rental_uris":{"android":"levelo://app?vid=a1ec3780-ca95-400c-ab43-ee723fb07cef","ios":"levelo://app?vid=a1ec3780-ca95-400c-ab43-ee723fb07cef"},"vehicle_type_id":"4","last_reported":1715015285,"current_range_meters":21600,"station_id":"ce4bgqh2rcd13ifvqc4g","pricing_plan_id":"cebpf4jnsgd1na2vs0mg"},{"bike_id":"d7e19998-64bb-4612-a236-b51e7e19e7fd","system_id":"levelo_inurba_marseille","lat":43.311131,"lon":5.377651,"is_reserved":false,"is_disabled":false,"rental_uris":{"android":"levelo://app?vid=d7e19998-64bb-4612-a236-b51e7e19e7fd","ios":"levelo://app?vid=d7e19998-64bb-4612-a236-b51e7e19e7fd"},"vehicle_type_id":"4","last_reported":1715015285,"current_range_meters":19600,"station_id":"ce4bgt92rcd13ifvqcg0","pricing_plan_id":"cebpf4jnsgd1na2vs0mg"},{"bike_id":"b16571e0-cba7-485a-930b-911536f5a85a","system_id":"levelo_inurba_marseille","lat":43.311196,"lon":5.377789,"is_reserved":false,"is_disabled":false,"rental_uris":{"android":"levelo://app?vid=b16571e0-cba7-485a-930b-911536f5a85a","ios":"levelo://app?vid=b16571e0-cba7-485a-930b-911536f5a85a"},"vehicle_type_id":"4","last_reported":1715015285,"current_range_meters":26400,"station_id":"ce4bgt92rcd13ifvqcg0","pricing_plan_id":"cebpf4jnsgd1na2vs0mg"},{"bike_id":"8d54d7e3-f50a-4e80-bda6-b5ca9241408b","system_id":"levelo_inurba_marseille","lat":43.307945,"lon":5.376487,"is_reserved":false,"is_disabled":false,"rental_uris":{"android":"levelo://app?vid=8d54d7e3-f50a-4e80-bda6-b5ca9241408b","ios":"levelo://app?vid=8d54d7e3-f50a-4e80-bda6-b5ca9241408b"},"vehicle_type_id":"4","last_reported":1715015285,"current_range_meters":29600,"station_id":"ce4bgv92rcd13ifvqcq0","pricing_plan_id":"cebpf4jnsgd1na2vs0mg"},{"bike_id":"7c1caa5e-1a9c-4cc4-8e51-b021c2ddefb7","system_id":"levelo_inurba_marseille","lat":43.317075,"lon":5.377367,"is_reserved":false,"is_disabled":false,"rental_uris":{"android":"levelo://app?vid=7c1caa5e-1a9c-4cc4-8e51-b021c2ddefb7","ios":"levelo://app?vid=7c1caa5e-1a9c-4cc4-8e51-b021c2ddefb7"},"vehicle_type_id":"4","last_reported":1715015285,"current_range_meters":17600,"station_id":"ce4bgth2rcd13ifvqch0","pricing_plan_id":"cebpf4jnsgd1na2vs0mg"},{"bike_id":"276133b7-0026-4199-abbe-1f7c9c5693ec","system_id":"levelo_inurba_marseille","lat":43.307945,"lon":5.376487,"is_reserved":false,"is_disabled":false,"rental_uris":{"android":"levelo://app?vid=276133b7-0026-4199-abbe-1f7c9c5693ec","ios":"levelo://app?vid=276133b7-0026-4199-abbe-1f7c9c5693ec"},"vehicle_type_id":"4","last_reported":1715015285,"current_range_meters":800,"station_id":"ce4bgv92rcd13ifvqcq0","pricing_plan_id":"cebpf4jnsgd1na2vs0mg"},{"bike_id":"0311993f-e31e-41fd-9f8c-925e896765c9","system_id":"levelo_inurba_marseille","lat":43.307945,"lon":5.376487,"is_reserved":false,"is_disabled":false,"rental_uris":{"android":"levelo://app?vid=0311993f-e31e-41fd-9f8c-925e896765c9","ios":"levelo://app?vid=0311993f-e31e-41fd-9f8c-925e896765c9"},"vehicle_type_id":"4","last_reported":1715015285,"current_range_meters":7200,"station_id":"ce4bgv92rcd13ifvqcq0","pricing_plan_id":"cebpf4jnsgd1na2vs0mg"},{"bike_id":"23fd2d11-4387-485d-83ec-33615390db0a","system_id":"levelo_inurba_marseille","lat":43.307945,"lon":5.376487,"is_reserved":false,"is_disabled":false,"rental_uris":{"android":"levelo://app?vid=23fd2d11-4387-485d-83ec-33615390db0a","ios":"levelo://app?vid=23fd2d11-4387-485d-83ec-33615390db0a"},"vehicle_type_id":"4","last_reported":1715015285,"current_range_meters":0,"station_id":"ce4bgv92rcd13ifvqcq0","pricing_plan_id":"cebpf4jnsgd1na2vs0mg"},{"bike_id":"75dc0ee7-c225-4e36-9456-13ea07a18106","system_id":"levelo_inurba_marseille","lat":43.307945,"lon":5.376487,"is_reserved":false,"is_disabled":false,"rental_uris":{"android":"levelo://app?vid=75dc0ee7-c225-4e36-9456-13ea07a18106","ios":"levelo://app?vid=75dc0ee7-c225-4e36-9456-13ea07a18106"},"vehicle_type_id":"4","last_reported":1715015285,"current_range_meters":4400,"station_id":"ce4bgv92rcd13ifvqcq0","pricing_plan_id":"cebpf4jnsgd1na2vs0mg"},{"bike_id":"9d5ff544-eb3d-4c7c-8968-58e539b7f3a3","system_id":"levelo_inurba_marseille","lat":43.307945,"lon":5.376487,"is_reserved":false,"is_disabled":false,"rental_uris":{"android":"levelo://app?vid=9d5ff544-eb3d-4c7c-8968-58e539b7f3a3","ios":"levelo://app?vid=9d5ff544-eb3d-4c7c-8968-58e539b7f3a3"},"vehicle_type_id":"4","last_reported":1715015285,"current_range_meters":16800,"station_id":"ce4bgv92rcd13ifvqcq0","pricing_plan_id":"cebpf4jnsgd1na2vs0mg"},{"bike_id":"ee5fdbb3-f4e5-49dd-87ff-5b733f4d3688","system_id":"levelo_inurba_marseille","lat":43.307945,"lon":5.376487,"is_reserved":false,"is_disabled":false,"rental_uris":{"android":"levelo://app?vid=ee5fdbb3-f4e5-49dd-87ff-5b733f4d3688","ios":"levelo://app?vid=ee5fdbb3-f4e5-49dd-87ff-5b733f4d3688"},"vehicle_type_id":"4","last_reported":1715015285,"current_range_meters":15600,"station_id":"ce4bgv92rcd13ifvqcq0","pricing_plan_id":"cebpf4jnsgd1na2vs0mg"},{"bike_id":"12018788-f94a-4a21-8c8b-84f74fcf78fc","system_id":"levelo_inurba_marseille","lat":43.307945,"lon":5.376487,"is_reserved":false,"is_disabled":false,"rental_uris":{"android":"levelo://app?vid=12018788-f94a-4a21-8c8b-84f74fcf78fc","ios":"levelo://app?vid=12018788-f94a-4a21-8c8b-84f74fcf78fc"},"vehicle_type_id":"4","last_reported":1715015285,"current_range_meters":0,"station_id":"ce4bgv92rcd13ifvqcq0","pricing_plan_id":"cebpf4jnsgd1na2vs0mg"},{"bike_id":"07dc4930-2511-40c3-821e-32a57e0829f0","system_id":"levelo_inurba_marseille","lat":43.307945,"lon":5.376487,"is_reserved":false,"is_disabled":false,"rental_uris":{"android":"levelo://app?vid=07dc4930-2511-40c3-821e-32a57e0829f0","ios":"levelo://app?vid=07dc4930-2511-40c3-821e-32a57e0829f0"},"vehicle_type_id":"4","last_reported":1715015285,"current_range_meters":0,"station_id":"ce4bgv92rcd13ifvqcq0","pricing_plan_id":"cebpf4jnsgd1na2vs0mg"},{"bike_id":"04c3f86c-7a0f-406b-b9b5-76240f3fa083","system_id":"levelo_inurba_marseille","lat":43.30775,"lon":5.37643,"is_reserved":false,"is_disabled":false,"rental_uris":{"android":"levelo://app?vid=04c3f86c-7a0f-406b-b9b5-76240f3fa083","ios":"levelo://app?vid=04c3f86c-7a0f-406b-b9b5-76240f3fa083"},"vehicle_type_id":"4","last_reported":1715015285,"current_range_meters":5200,"station_id":"ce4bgv92rcd13ifvqcq0","pricing_plan_id":"cebpf4jnsgd1na2vs0mg"},{"bike_id":"279c1f82-b298-4121-a7fa-86d27bdeb7ea","system_id":"levelo_inurba_marseille","lat":43.307945,"lon":5.376487,"is_reserved":false,"is_disabled":false,"rental_uris":{"android":"levelo://app?vid=279c1f82-b298-4121-a7fa-86d27bdeb7ea","ios":"levelo://app?vid=279c1f82-b298-4121-a7fa-86d27bdeb7ea"},"vehicle_type_id":"4","last_reported":1715015285,"current_range_meters":31200,"station_id":"ce4bgv92rcd13ifvqcq0","pricing_plan_id":"cebpf4jnsgd1na2vs0mg"},{"bike_id":"dcbf4278-6c22-4b42-98a7-84eca441f84e","system_id":"levelo_inurba_marseille","lat":43.31678,"lon":5.37729,"is_reserved":false,"is_disabled":false,"rental_uris":{"android":"levelo://app?vid=dcbf4278-6c22-4b42-98a7-84eca441f84e","ios":"levelo://app?vid=dcbf4278-6c22-4b42-98a7-84eca441f84e"},"vehicle_type_id":"4","last_reported":1715015285,"current_range_meters":11600,"station_id":"ce4bgth2rcd13ifvqch0","pricing_plan_id":"cebpf4jnsgd1na2vs0mg"},{"bike_id":"f579f071-3cd5-4428-9f75-536746a2b3bd","system_id":"levelo_inurba_marseille","lat":43.307945,"lon":5.376487,"is_reserved":false,"is_disabled":false,"rental_uris":{"android":"levelo://app?vid=f579f071-3cd5-4428-9f75-536746a2b3bd","ios":"levelo://app?vid=f579f071-3cd5-4428-9f75-536746a2b3bd"},"vehicle_type_id":"4","last_reported":1715015285,"current_range_meters":0,"station_id":"ce4bgv92rcd13ifvqcq0","pricing_plan_id":"cebpf4jnsgd1na2vs0mg"},{"bike_id":"3463b7ee-70d4-401a-8901-173b6179fa34","system_id":"levelo_inurba_marseille","lat":43.30761,"lon":5.37651,"is_reserved":false,"is_disabled":false,"rental_uris":{"android":"levelo://app?vid=3463b7ee-70d4-401a-8901-173b6179fa34","ios":"levelo://app?vid=3463b7ee-70d4-401a-8901-173b6179fa34"},"vehicle_type_id":"4","last_reported":1715015285,"current_range_meters":0,"station_id":"ce4bgv92rcd13ifvqcq0","pricing_plan_id":"cebpf4jnsgd1na2vs0mg"},{"bike_id":"3c388a9f-d368-40ef-80b9-cea5541b2307","system_id":"levelo_inurba_marseille","lat":43.31707,"lon":5.37737,"is_reserved":false,"is_disabled":false,"rental_uris":{"android":"levelo://app?vid=3c388a9f-d368-40ef-80b9-cea5541b2307","ios":"levelo://app?vid=3c388a9f-d368-40ef-80b9-cea5541b2307"},"vehicle_type_id":"4","last_reported":1715015285,"current_range_meters":0,"station_id":"ce4bgth2rcd13ifvqch0","pricing_plan_id":"cebpf4jnsgd1na2vs0mg"},{"bike_id":"ac592d3c-3a12-4f86-8faa-7087b7b8e1f3","system_id":"levelo_inurba_marseille","lat":43.317075,"lon":5.377367,"is_reserved":false,"is_disabled":false,"rental_uris":{"android":"levelo://app?vid=ac592d3c-3a12-4f86-8faa-7087b7b8e1f3","ios":"levelo://app?vid=ac592d3c-3a12-4f86-8faa-7087b7b8e1f3"},"vehicle_type_id":"4","last_reported":1715015285,"current_range_meters":13200,"station_id":"ce4bgth2rcd13ifvqch0","pricing_plan_id":"cebpf4jnsgd1na2vs0mg"},{"bike_id":"2cb304d6-e092-4dac-8c3a-d7c2e508de80","system_id":"levelo_inurba_marseille","lat":43.317075,"lon":5.377367,"is_reserved":false,"is_disabled":false,"rental_uris":{"android":"levelo://app?vid=2cb304d6-e092-4dac-8c3a-d7c2e508de80","ios":"levelo://app?vid=2cb304d6-e092-4dac-8c3a-d7c2e508de80"},"vehicle_type_id":"4","last_reported":1715015285,"current_range_meters":24800,"station_id":"ce4bgth2rcd13ifvqch0","pricing_plan_id":"cebpf4jnsgd1na2vs0mg"},{"bike_id":"3d99222b-e519-4254-b34f-c84c1bb0ff15","system_id":"levelo_inurba_marseille","lat":43.307945,"lon":5.376487,"is_reserved":false,"is_disabled":false,"rental_uris":{"android":"levelo://app?vid=3d99222b-e519-4254-b34f-c84c1bb0ff15","ios":"levelo://app?vid=3d99222b-e519-4254-b34f-c84c1bb0ff15"},"vehicle_type_id":"4","last_reported":1715015285,"current_range_meters":24400,"station_id":"ce4bgv92rcd13ifvqcq0","pricing_plan_id":"cebpf4jnsgd1na2vs0mg"},{"bike_id":"65073486-d1a4-4af5-a7fa-c901c64ac150","system_id":"levelo_inurba_marseille","lat":43.310589,"lon":5.378715,"is_reserved":false,"is_disabled":false,"rental_uris":{"android":"levelo://app?vid=65073486-d1a4-4af5-a7fa-c901c64ac150","ios":"levelo://app?vid=65073486-d1a4-4af5-a7fa-c901c64ac150"},"vehicle_type_id":"4","last_reported":1715015285,"current_range_meters":0,"station_id":"","pricing_plan_id":"cebpf4jnsgd1na2vs0mg"},{"bike_id":"8d7055c6-d4ea-43c9-aa6d-48c1a948669a","system_id":"levelo_inurba_marseille","lat":43.317075,"lon":5.377545,"is_reserved":false,"is_disabled":false,"rental_uris":{"android":"levelo://app?vid=8d7055c6-d4ea-43c9-aa6d-48c1a948669a","ios":"levelo://app?vid=8d7055c6-d4ea-43c9-aa6d-48c1a948669a"},"vehicle_type_id":"4","last_reported":1715015285,"current_range_meters":4800,"station_id":"ce4bgth2rcd13ifvqch0","pricing_plan_id":"cebpf4jnsgd1na2vs0mg"},{"bike_id":"dd2d274e-f191-4bc8-b39d-a15fef5f1688","system_id":"levelo_inurba_marseille","lat":43.317075,"lon":5.377367,"is_reserved":false,"is_disabled":false,"rental_uris":{"android":"levelo://app?vid=dd2d274e-f191-4bc8-b39d-a15fef5f1688","ios":"levelo://app?vid=dd2d274e-f191-4bc8-b39d-a15fef5f1688"},"vehicle_type_id":"4","last_reported":1715015285,"current_range_meters":30400,"station_id":"ce4bgth2rcd13ifvqch0","pricing_plan_id":"cebpf4jnsgd1na2vs0mg"},{"bike_id":"2b39644d-ca52-4afc-bebe-96f3938e7109","system_id":"levelo_inurba_marseille","lat":43.315289,"lon":5.380349,"is_reserved":false,"is_disabled":false,"rental_uris":{"android":"levelo://app?vid=2b39644d-ca52-4afc-bebe-96f3938e7109","ios":"levelo://app?vid=2b39644d-ca52-4afc-bebe-96f3938e7109"},"vehicle_type_id":"4","last_reported":1715015285,"current_range_meters":18400,"station_id":"ce4bhsp2rcd13ifvqi50","pricing_plan_id":"cebpf4jnsgd1na2vs0mg"},{"bike_id":"d260a8ef-1f5d-44b6-85c3-0c16ce7cc80c","system_id":"levelo_inurba_marseille","lat":43.317075,"lon":5.377367,"is_reserved":false,"is_disabled":false,"rental_uris":{"android":"levelo://app?vid=d260a8ef-1f5d-44b6-85c3-0c16ce7cc80c","ios":"levelo://app?vid=d260a8ef-1f5d-44b6-85c3-0c16ce7cc80c"},"vehicle_type_id":"4","last_reported":1715015285,"current_range_meters":14000,"station_id":"ce4bgth2rcd13ifvqch0","pricing_plan_id":"cebpf4jnsgd1na2vs0mg"},{"bike_id":"0a22d4ca-66e9-43e7-80dc-86529c0b4691","system_id":"levelo_inurba_marseille","lat":43.317075,"lon":5.377367,"is_reserved":false,"is_disabled":false,"rental_uris":{"android":"levelo://app?vid=0a22d4ca-66e9-43e7-80dc-86529c0b4691","ios":"levelo://app?vid=0a22d4ca-66e9-43e7-80dc-86529c0b4691"},"vehicle_type_id":"4","last_reported":1715015285,"current_range_meters":9200,"station_id":"ce4bgth2rcd13ifvqch0","pricing_plan_id":"cebpf4jnsgd1na2vs0mg"},{"bike_id":"0a8b737d-bdad-4c38-80f3-87bd8b8bf03a","system_id":"levelo_inurba_marseille","lat":43.317075,"lon":5.377367,"is_reserved":false,"is_disabled":false,"rental_uris":{"android":"levelo://app?vid=0a8b737d-bdad-4c38-80f3-87bd8b8bf03a","ios":"levelo://app?vid=0a8b737d-bdad-4c38-80f3-87bd8b8bf03a"},"vehicle_type_id":"4","last_reported":1715015285,"current_range_meters":22800,"station_id":"ce4bgth2rcd13ifvqch0","pricing_plan_id":"cebpf4jnsgd1na2vs0mg"},{"bike_id":"539f4709-30f7-4176-82ef-ec5595270720","system_id":"levelo_inurba_marseille","lat":43.315293,"lon":5.380349,"is_reserved":false,"is_disabled":false,"rental_uris":{"android":"levelo://app?vid=539f4709-30f7-4176-82ef-ec5595270720","ios":"levelo://app?vid=539f4709-30f7-4176-82ef-ec5595270720"},"vehicle_type_id":"4","last_reported":1715015285,"current_range_meters":400,"station_id":"ce4bhsp2rcd13ifvqi50","pricing_plan_id":"cebpf4jnsgd1na2vs0mg"},{"bike_id":"0910d68c-8bd6-4586-994c-ceb5da9d7817","system_id":"levelo_inurba_marseille","lat":43.303046,"lon":5.368981,"is_reserved":false,"is_disabled":false,"rental_uris":{"android":"levelo://app?vid=0910d68c-8bd6-4586-994c-ceb5da9d7817","ios":"levelo://app?vid=0910d68c-8bd6-4586-994c-ceb5da9d7817"},"vehicle_type_id":"4","last_reported":1715015285,"current_range_meters":6000,"station_id":"ce4bgqh2rcd13ifvqc5g","pricing_plan_id":"cebpf4jnsgd1na2vs0mg"},{"bike_id":"d5b0ef46-a796-430d-bdba-ecb8ca571668","system_id":"levelo_inurba_marseille","lat":43.315289,"lon":5.380349,"is_reserved":false,"is_disabled":false,"rental_uris":{"android":"levelo://app?vid=d5b0ef46-a796-430d-bdba-ecb8ca571668","ios":"levelo://app?vid=d5b0ef46-a796-430d-bdba-ecb8ca571668"},"vehicle_type_id":"4","last_reported":1715015285,"current_range_meters":16800,"station_id":"ce4bhsp2rcd13ifvqi50","pricing_plan_id":"cebpf4jnsgd1na2vs0mg"},{"bike_id":"815590d1-31e4-4399-80f2-2f5074801689","system_id":"levelo_inurba_marseille","lat":43.315293,"lon":5.380349,"is_reserved":false,"is_disabled":false,"rental_uris":{"android":"levelo://app?vid=815590d1-31e4-4399-80f2-2f5074801689","ios":"levelo://app?vid=815590d1-31e4-4399-80f2-2f5074801689"},"vehicle_type_id":"4","last_reported":1715015285,"current_range_meters":14400,"station_id":"ce4bhsp2rcd13ifvqi50","pricing_plan_id":"cebpf4jnsgd1na2vs0mg"},{"bike_id":"963b3f4e-51c9-4dbe-a1e7-3f4c54d390b6","system_id":"levelo_inurba_marseille","lat":43.315289,"lon":5.380349,"is_reserved":false,"is_disabled":false,"rental_uris":{"android":"levelo://app?vid=963b3f4e-51c9-4dbe-a1e7-3f4c54d390b6","ios":"levelo://app?vid=963b3f4e-51c9-4dbe-a1e7-3f4c54d390b6"},"vehicle_type_id":"4","last_reported":1715015285,"current_range_meters":20400,"station_id":"ce4bhsp2rcd13ifvqi50","pricing_plan_id":"cebpf4jnsgd1na2vs0mg"},{"bike_id":"1fce29ec-6f11-4e9a-a295-7bb53aad9d02","system_id":"levelo_inurba_marseille","lat":43.315289,"lon":5.380349,"is_reserved":false,"is_disabled":false,"rental_uris":{"android":"levelo://app?vid=1fce29ec-6f11-4e9a-a295-7bb53aad9d02","ios":"levelo://app?vid=1fce29ec-6f11-4e9a-a295-7bb53aad9d02"},"vehicle_type_id":"4","last_reported":1715015285,"current_range_meters":5600,"station_id":"ce4bhsp2rcd13ifvqi50","pricing_plan_id":"cebpf4jnsgd1na2vs0mg"},{"bike_id":"45ac4a56-29f9-422f-8169-ba4041051dd9","system_id":"levelo_inurba_marseille","lat":43.31044,"lon":5.38084,"is_reserved":false,"is_disabled":false,"rental_uris":{"android":"levelo://app?vid=45ac4a56-29f9-422f-8169-ba4041051dd9","ios":"levelo://app?vid=45ac4a56-29f9-422f-8169-ba4041051dd9"},"vehicle_type_id":"4","last_reported":1715015285,"current_range_meters":2400,"station_id":"","pricing_plan_id":"cebpf4jnsgd1na2vs0mg"},{"bike_id":"cb8553d7-6417-4278-ad00-6059790d4ee0","system_id":"levelo_inurba_marseille","lat":43.301939,"lon":5.366286,"is_reserved":false,"is_disabled":false,"rental_uris":{"android":"levelo://app?vid=cb8553d7-6417-4278-ad00-6059790d4ee0","ios":"levelo://app?vid=cb8553d7-6417-4278-ad00-6059790d4ee0"},"vehicle_type_id":"4","last_reported":1715015285,"current_range_meters":29600,"station_id":"ce4bgrh2rcd13ifvqc8g","pricing_plan_id":"cebpf4jnsgd1na2vs0mg"},{"bike_id":"bec1f309-319d-4773-967a-6cecb5cbf769","system_id":"levelo_inurba_marseille","lat":43.308012,"lon":5.381511,"is_reserved":false,"is_disabled":false,"rental_uris":{"android":"levelo://app?vid=bec1f309-319d-4773-967a-6cecb5cbf769","ios":"levelo://app?vid=bec1f309-319d-4773-967a-6cecb5cbf769"},"vehicle_type_id":"4","last_reported":1715015285,"current_range_meters":15600,"station_id":"ce4bgt12rcd13ifvqce0","pricing_plan_id":"cebpf4jnsgd1na2vs0mg"},{"bike_id":"20cd0438-f61b-4e61-b0f2-eb6d9552c1be","system_id":"levelo_inurba_marseille","lat":43.304606,"lon":5.379026,"is_reserved":false,"is_disabled":false,"rental_uris":{"android":"levelo://app?vid=20cd0438-f61b-4e61-b0f2-eb6d9552c1be","ios":"levelo://app?vid=20cd0438-f61b-4e61-b0f2-eb6d9552c1be"},"vehicle_type_id":"4","last_reported":1715015285,"current_range_meters":14000,"station_id":"ce4bgup2rcd13ifvqcn0","pricing_plan_id":"cebpf4jnsgd1na2vs0mg"},{"bike_id":"7befc4b6-faab-4092-a28c-b25ca13441be","system_id":"levelo_inurba_marseille","lat":43.310804,"lon":5.38359,"is_reserved":false,"is_disabled":false,"rental_uris":{"android":"levelo://app?vid=7befc4b6-faab-4092-a28c-b25ca13441be","ios":"levelo://app?vid=7befc4b6-faab-4092-a28c-b25ca13441be"},"vehicle_type_id":"4","last_reported":1715015285,"current_range_meters":5200,"station_id":"ce4bgv92rcd13ifvqcr0","pricing_plan_id":"cebpf4jnsgd1na2vs0mg"},{"bike_id":"413ba6e1-f407-4b1b-b615-7dc63f58cdcb","system_id":"levelo_inurba_marseille","lat":43.32481,"lon":5.36581,"is_reserved":false,"is_disabled":false,"rental_uris":{"android":"levelo://app?vid=413ba6e1-f407-4b1b-b615-7dc63f58cdcb","ios":"levelo://app?vid=413ba6e1-f407-4b1b-b615-7dc63f58cdcb"},"vehicle_type_id":"4","last_reported":1715015285,"current_range_meters":0,"station_id":"ce4bhs12rcd13ifvqhvg","pricing_plan_id":"cebpf4jnsgd1na2vs0mg"},{"bike_id":"547c72f4-a7a8-426d-93ed-46aeaa19525f","system_id":"levelo_inurba_marseille","lat":43.324771,"lon":5.36557,"is_reserved":false,"is_disabled":false,"rental_uris":{"android":"levelo://app?vid=547c72f4-a7a8-426d-93ed-46aeaa19525f","ios":"levelo://app?vid=547c72f4-a7a8-426d-93ed-46aeaa19525f"},"vehicle_type_id":"4","last_reported":1715015285,"current_range_meters":25200,"station_id":"ce4bhs12rcd13ifvqhvg","pricing_plan_id":"cebpf4jnsgd1na2vs0mg"},{"bike_id":"b3f7a40a-b5fa-4fba-ac31-59a47e62e9a8","system_id":"levelo_inurba_marseille","lat":43.324828,"lon":5.365869,"is_reserved":false,"is_disabled":false,"rental_uris":{"android":"levelo://app?vid=b3f7a40a-b5fa-4fba-ac31-59a47e62e9a8","ios":"levelo://app?vid=b3f7a40a-b5fa-4fba-ac31-59a47e62e9a8"},"vehicle_type_id":"4","last_reported":1715015285,"current_range_meters":15600,"station_id":"ce4bhs12rcd13ifvqhvg","pricing_plan_id":"cebpf4jnsgd1na2vs0mg"},{"bike_id":"efc537cf-dc79-4716-b512-821a45abcf86","system_id":"levelo_inurba_marseille","lat":43.324771,"lon":5.36557,"is_reserved":false,"is_disabled":false,"rental_uris":{"android":"levelo://app?vid=efc537cf-dc79-4716-b512-821a45abcf86","ios":"levelo://app?vid=efc537cf-dc79-4716-b512-821a45abcf86"},"vehicle_type_id":"4","last_reported":1715015285,"current_range_meters":25600,"station_id":"ce4bhs12rcd13ifvqhvg","pricing_plan_id":"cebpf4jnsgd1na2vs0mg"},{"bike_id":"b56f17b3-65b4-44f7-a1ea-b59390ec5e0e","system_id":"levelo_inurba_marseille","lat":43.324771,"lon":5.36557,"is_reserved":false,"is_disabled":false,"rental_uris":{"android":"levelo://app?vid=b56f17b3-65b4-44f7-a1ea-b59390ec5e0e","ios":"levelo://app?vid=b56f17b3-65b4-44f7-a1ea-b59390ec5e0e"},"vehicle_type_id":"4","last_reported":1715015285,"current_range_meters":21600,"station_id":"ce4bhs12rcd13ifvqhvg","pricing_plan_id":"cebpf4jnsgd1na2vs0mg"},{"bike_id":"946c79c8-0e29-4a5e-a2cd-a05b17018de1","system_id":"levelo_inurba_marseille","lat":43.32487,"lon":5.36558,"is_reserved":false,"is_disabled":false,"rental_uris":{"android":"levelo://app?vid=946c79c8-0e29-4a5e-a2cd-a05b17018de1","ios":"levelo://app?vid=946c79c8-0e29-4a5e-a2cd-a05b17018de1"},"vehicle_type_id":"4","last_reported":1715015285,"current_range_meters":0,"station_id":"ce4bhs12rcd13ifvqhvg","pricing_plan_id":"cebpf4jnsgd1na2vs0mg"},{"bike_id":"b073eb83-cd06-49b1-bba2-261c9ea8288e","system_id":"levelo_inurba_marseille","lat":43.31078,"lon":5.38356,"is_reserved":false,"is_disabled":false,"rental_uris":{"android":"levelo://app?vid=b073eb83-cd06-49b1-bba2-261c9ea8288e","ios":"levelo://app?vid=b073eb83-cd06-49b1-bba2-261c9ea8288e"},"vehicle_type_id":"4","last_reported":1715015285,"current_range_meters":4800,"station_id":"ce4bgv92rcd13ifvqcr0","pricing_plan_id":"cebpf4jnsgd1na2vs0mg"},{"bike_id":"436e2210-8fbf-46bf-926c-5e83d99647e9","system_id":"levelo_inurba_marseille","lat":43.310804,"lon":5.38359,"is_reserved":false,"is_disabled":false,"rental_uris":{"android":"levelo://app?vid=436e2210-8fbf-46bf-926c-5e83d99647e9","ios":"levelo://app?vid=436e2210-8fbf-46bf-926c-5e83d99647e9"},"vehicle_type_id":"4","last_reported":1715015285,"current_range_meters":800,"station_id":"ce4bgv92rcd13ifvqcr0","pricing_plan_id":"cebpf4jnsgd1na2vs0mg"},{"bike_id":"3264fd3d-259c-460f-9c68-d7100d95d289","system_id":"levelo_inurba_marseille","lat":43.31068,"lon":5.38371,"is_reserved":false,"is_disabled":false,"rental_uris":{"android":"levelo://app?vid=3264fd3d-259c-460f-9c68-d7100d95d289","ios":"levelo://app?vid=3264fd3d-259c-460f-9c68-d7100d95d289"},"vehicle_type_id":"4","last_reported":1715015285,"current_range_meters":2000,"station_id":"ce4bgv92rcd13ifvqcr0","pricing_plan_id":"cebpf4jnsgd1na2vs0mg"},{"bike_id":"b28c12d0-a08e-4ff5-832a-d2911ed9ea33","system_id":"levelo_inurba_marseille","lat":43.319935,"lon":5.381699,"is_reserved":false,"is_disabled":false,"rental_uris":{"android":"levelo://app?vid=b28c12d0-a08e-4ff5-832a-d2911ed9ea33","ios":"levelo://app?vid=b28c12d0-a08e-4ff5-832a-d2911ed9ea33"},"vehicle_type_id":"4","last_reported":1715015285,"current_range_meters":11200,"station_id":"ce4bhr12rcd13ifvqhpg","pricing_plan_id":"cebpf4jnsgd1na2vs0mg"},{"bike_id":"51c347e8-b9a7-4283-93eb-ec3768f65048","system_id":"levelo_inurba_marseille","lat":43.313571,"lon":5.384829,"is_reserved":false,"is_disabled":false,"rental_uris":{"android":"levelo://app?vid=51c347e8-b9a7-4283-93eb-ec3768f65048","ios":"levelo://app?vid=51c347e8-b9a7-4283-93eb-ec3768f65048"},"vehicle_type_id":"4","last_reported":1715015285,"current_range_meters":12800,"station_id":"ce4bgt92rcd13ifvqcf0","pricing_plan_id":"cebpf4jnsgd1na2vs0mg"},{"bike_id":"9b9cd8c3-8844-4d65-952e-2b912a29fc79","system_id":"levelo_inurba_marseille","lat":43.319935,"lon":5.381699,"is_reserved":false,"is_disabled":false,"rental_uris":{"android":"levelo://app?vid=9b9cd8c3-8844-4d65-952e-2b912a29fc79","ios":"levelo://app?vid=9b9cd8c3-8844-4d65-952e-2b912a29fc79"},"vehicle_type_id":"4","last_reported":1715015285,"current_range_meters":1200,"station_id":"ce4bhr12rcd13ifvqhpg","pricing_plan_id":"cebpf4jnsgd1na2vs0mg"},{"bike_id":"b74f0d03-d732-4d29-95b2-fe886a734036","system_id":"levelo_inurba_marseille","lat":43.319935,"lon":5.381699,"is_reserved":false,"is_disabled":false,"rental_uris":{"android":"levelo://app?vid=b74f0d03-d732-4d29-95b2-fe886a734036","ios":"levelo://app?vid=b74f0d03-d732-4d29-95b2-fe886a734036"},"vehicle_type_id":"4","last_reported":1715015285,"current_range_meters":17200,"station_id":"ce4bhr12rcd13ifvqhpg","pricing_plan_id":"cebpf4jnsgd1na2vs0mg"},{"bike_id":"e1f25604-737b-4f78-9152-fc58abcc4eb6","system_id":"levelo_inurba_marseille","lat":43.319935,"lon":5.381699,"is_reserved":false,"is_disabled":false,"rental_uris":{"android":"levelo://app?vid=e1f25604-737b-4f78-9152-fc58abcc4eb6","ios":"levelo://app?vid=e1f25604-737b-4f78-9152-fc58abcc4eb6"},"vehicle_type_id":"4","last_reported":1715015285,"current_range_meters":23200,"station_id":"ce4bhr12rcd13ifvqhpg","pricing_plan_id":"cebpf4jnsgd1na2vs0mg"},{"bike_id":"2e64a118-6a3b-4359-97f0-aa472bc5b34c","system_id":"levelo_inurba_marseille","lat":43.313571,"lon":5.384829,"is_reserved":false,"is_disabled":false,"rental_uris":{"android":"levelo://app?vid=2e64a118-6a3b-4359-97f0-aa472bc5b34c","ios":"levelo://app?vid=2e64a118-6a3b-4359-97f0-aa472bc5b34c"},"vehicle_type_id":"4","last_reported":1715015285,"current_range_meters":2000,"station_id":"ce4bgt92rcd13ifvqcf0","pricing_plan_id":"cebpf4jnsgd1na2vs0mg"},{"bike_id":"2865c2b9-0d2c-4832-937b-70b46bf534ca","system_id":"levelo_inurba_marseille","lat":43.313571,"lon":5.384829,"is_reserved":false,"is_disabled":false,"rental_uris":{"android":"levelo://app?vid=2865c2b9-0d2c-4832-937b-70b46bf534ca","ios":"levelo://app?vid=2865c2b9-0d2c-4832-937b-70b46bf534ca"},"vehicle_type_id":"4","last_reported":1715015285,"current_range_meters":24800,"station_id":"ce4bgt92rcd13ifvqcf0","pricing_plan_id":"cebpf4jnsgd1na2vs0mg"},{"bike_id":"3c2cabd7-b60e-41b5-ba2c-6c00d2f3925d","system_id":"levelo_inurba_marseille","lat":43.299222,"lon":5.365554,"is_reserved":false,"is_disabled":false,"rental_uris":{"android":"levelo://app?vid=3c2cabd7-b60e-41b5-ba2c-6c00d2f3925d","ios":"levelo://app?vid=3c2cabd7-b60e-41b5-ba2c-6c00d2f3925d"},"vehicle_type_id":"4","last_reported":1715015285,"current_range_meters":1600,"station_id":"ce4bgm92rcd13ifvqbr0","pricing_plan_id":"cebpf4jnsgd1na2vs0mg"},{"bike_id":"1f9e9b6b-351a-437a-bdaf-7439901976f7","system_id":"levelo_inurba_marseille","lat":43.29972,"lon":5.371841,"is_reserved":false,"is_disabled":false,"rental_uris":{"android":"levelo://app?vid=1f9e9b6b-351a-437a-bdaf-7439901976f7","ios":"levelo://app?vid=1f9e9b6b-351a-437a-bdaf-7439901976f7"},"vehicle_type_id":"4","last_reported":1715015285,"current_range_meters":0,"station_id":"","pricing_plan_id":"cebpf4jnsgd1na2vs0mg"},{"bike_id":"4b3a9d32-5809-456c-9cfc-eb0f1adcba66","system_id":"levelo_inurba_marseille","lat":43.313571,"lon":5.384829,"is_reserved":false,"is_disabled":false,"rental_uris":{"android":"levelo://app?vid=4b3a9d32-5809-456c-9cfc-eb0f1adcba66","ios":"levelo://app?vid=4b3a9d32-5809-456c-9cfc-eb0f1adcba66"},"vehicle_type_id":"4","last_reported":1715015285,"current_range_meters":14000,"station_id":"ce4bgt92rcd13ifvqcf0","pricing_plan_id":"cebpf4jnsgd1na2vs0mg"},{"bike_id":"138213b5-1538-45f3-991e-96ae0e2536ed","system_id":"levelo_inurba_marseille","lat":43.305364,"lon":5.384119,"is_reserved":false,"is_disabled":false,"rental_uris":{"android":"levelo://app?vid=138213b5-1538-45f3-991e-96ae0e2536ed","ios":"levelo://app?vid=138213b5-1538-45f3-991e-96ae0e2536ed"},"vehicle_type_id":"4","last_reported":1715015285,"current_range_meters":16800,"station_id":"ce4bgg92rcd13ifvqb30","pricing_plan_id":"cebpf4jnsgd1na2vs0mg"},{"bike_id":"916df462-8eb6-436a-9964-af061eb813ec","system_id":"levelo_inurba_marseille","lat":43.298433,"lon":5.362774,"is_reserved":false,"is_disabled":false,"rental_uris":{"android":"levelo://app?vid=916df462-8eb6-436a-9964-af061eb813ec","ios":"levelo://app?vid=916df462-8eb6-436a-9964-af061eb813ec"},"vehicle_type_id":"4","last_reported":1715015285,"current_range_meters":4400,"station_id":"ce4bgpp2rcd13ifvqc3g","pricing_plan_id":"cebpf4jnsgd1na2vs0mg"},{"bike_id":"d883eac4-e3c6-4e31-a5e3-bed0d5a9256d","system_id":"levelo_inurba_marseille","lat":43.29849,"lon":5.36283,"is_reserved":false,"is_disabled":false,"rental_uris":{"android":"levelo://app?vid=d883eac4-e3c6-4e31-a5e3-bed0d5a9256d","ios":"levelo://app?vid=d883eac4-e3c6-4e31-a5e3-bed0d5a9256d"},"vehicle_type_id":"4","last_reported":1715015285,"current_range_meters":24400,"station_id":"ce4bgpp2rcd13ifvqc3g","pricing_plan_id":"cebpf4jnsgd1na2vs0mg"},{"bike_id":"832bdf1f-72ab-48bc-be7b-b137fd7533cb","system_id":"levelo_inurba_marseille","lat":43.298433,"lon":5.362774,"is_reserved":false,"is_disabled":false,"rental_uris":{"android":"levelo://app?vid=832bdf1f-72ab-48bc-be7b-b137fd7533cb","ios":"levelo://app?vid=832bdf1f-72ab-48bc-be7b-b137fd7533cb"},"vehicle_type_id":"4","last_reported":1715015285,"current_range_meters":30800,"station_id":"ce4bgpp2rcd13ifvqc3g","pricing_plan_id":"cebpf4jnsgd1na2vs0mg"},{"bike_id":"afc46467-0369-47be-85ab-11e220c50078","system_id":"levelo_inurba_marseille","lat":43.29845,"lon":5.36276,"is_reserved":false,"is_disabled":false,"rental_uris":{"android":"levelo://app?vid=afc46467-0369-47be-85ab-11e220c50078","ios":"levelo://app?vid=afc46467-0369-47be-85ab-11e220c50078"},"vehicle_type_id":"4","last_reported":1715015285,"current_range_meters":26800,"station_id":"ce4bgpp2rcd13ifvqc3g","pricing_plan_id":"cebpf4jnsgd1na2vs0mg"},{"bike_id":"1022ee90-0703-4d55-a90a-d374cd0e363b","system_id":"levelo_inurba_marseille","lat":43.298433,"lon":5.362774,"is_reserved":false,"is_disabled":false,"rental_uris":{"android":"levelo://app?vid=1022ee90-0703-4d55-a90a-d374cd0e363b","ios":"levelo://app?vid=1022ee90-0703-4d55-a90a-d374cd0e363b"},"vehicle_type_id":"4","last_reported":1715015285,"current_range_meters":1600,"station_id":"ce4bgpp2rcd13ifvqc3g","pricing_plan_id":"cebpf4jnsgd1na2vs0mg"},{"bike_id":"3a01da0d-549f-4e46-a95b-64d26a1b0d56","system_id":"levelo_inurba_marseille","lat":43.298433,"lon":5.362774,"is_reserved":false,"is_disabled":false,"rental_uris":{"android":"levelo://app?vid=3a01da0d-549f-4e46-a95b-64d26a1b0d56","ios":"levelo://app?vid=3a01da0d-549f-4e46-a95b-64d26a1b0d56"},"vehicle_type_id":"4","last_reported":1715015285,"current_range_meters":31200,"station_id":"ce4bgpp2rcd13ifvqc3g","pricing_plan_id":"cebpf4jnsgd1na2vs0mg"},{"bike_id":"b5f0adeb-89fb-4905-bc97-1543428e7316","system_id":"levelo_inurba_marseille","lat":43.298433,"lon":5.362774,"is_reserved":false,"is_disabled":false,"rental_uris":{"android":"levelo://app?vid=b5f0adeb-89fb-4905-bc97-1543428e7316","ios":"levelo://app?vid=b5f0adeb-89fb-4905-bc97-1543428e7316"},"vehicle_type_id":"4","last_reported":1715015285,"current_range_meters":31200,"station_id":"ce4bgpp2rcd13ifvqc3g","pricing_plan_id":"cebpf4jnsgd1na2vs0mg"},{"bike_id":"e3e7d252-9b7f-491c-a14f-376998fefb17","system_id":"levelo_inurba_marseille","lat":43.29843,"lon":5.36272,"is_reserved":false,"is_disabled":false,"rental_uris":{"android":"levelo://app?vid=e3e7d252-9b7f-491c-a14f-376998fefb17","ios":"levelo://app?vid=e3e7d252-9b7f-491c-a14f-376998fefb17"},"vehicle_type_id":"4","last_reported":1715015285,"current_range_meters":22400,"station_id":"ce4bgpp2rcd13ifvqc3g","pricing_plan_id":"cebpf4jnsgd1na2vs0mg"},{"bike_id":"c4737821-56da-4b0a-913b-5ff683786bf8","system_id":"levelo_inurba_marseille","lat":43.311722,"lon":5.387247,"is_reserved":false,"is_disabled":false,"rental_uris":{"android":"levelo://app?vid=c4737821-56da-4b0a-913b-5ff683786bf8","ios":"levelo://app?vid=c4737821-56da-4b0a-913b-5ff683786bf8"},"vehicle_type_id":"4","last_reported":1715015285,"current_range_meters":28800,"station_id":"ce4bgv12rcd13ifvqcp0","pricing_plan_id":"cebpf4jnsgd1na2vs0mg"},{"bike_id":"3957cb53-8c7d-4b56-9e71-5d61a44e6f90","system_id":"levelo_inurba_marseille","lat":43.311722,"lon":5.387247,"is_reserved":false,"is_disabled":false,"rental_uris":{"android":"levelo://app?vid=3957cb53-8c7d-4b56-9e71-5d61a44e6f90","ios":"levelo://app?vid=3957cb53-8c7d-4b56-9e71-5d61a44e6f90"},"vehicle_type_id":"4","last_reported":1715015285,"current_range_meters":8000,"station_id":"ce4bgv12rcd13ifvqcp0","pricing_plan_id":"cebpf4jnsgd1na2vs0mg"},{"bike_id":"c9edcd19-a605-40c0-a61a-b043a6efc959","system_id":"levelo_inurba_marseille","lat":43.299243,"lon":5.374807,"is_reserved":false,"is_disabled":false,"rental_uris":{"android":"levelo://app?vid=c9edcd19-a605-40c0-a61a-b043a6efc959","ios":"levelo://app?vid=c9edcd19-a605-40c0-a61a-b043a6efc959"},"vehicle_type_id":"4","last_reported":1715015285,"current_range_meters":0,"station_id":"ce4bgjh2rcd13ifvqbg0","pricing_plan_id":"cebpf4jnsgd1na2vs0mg"},{"bike_id":"e45bf24d-5383-4be6-8918-cbbd8dc96dc7","system_id":"levelo_inurba_marseille","lat":43.311722,"lon":5.387247,"is_reserved":false,"is_disabled":false,"rental_uris":{"android":"levelo://app?vid=e45bf24d-5383-4be6-8918-cbbd8dc96dc7","ios":"levelo://app?vid=e45bf24d-5383-4be6-8918-cbbd8dc96dc7"},"vehicle_type_id":"4","last_reported":1715015285,"current_range_meters":8800,"station_id":"ce4bgv12rcd13ifvqcp0","pricing_plan_id":"cebpf4jnsgd1na2vs0mg"},{"bike_id":"0a45780e-6181-444c-86c0-d6676f2707f6","system_id":"levelo_inurba_marseille","lat":43.29837,"lon":5.36262,"is_reserved":false,"is_disabled":false,"rental_uris":{"android":"levelo://app?vid=0a45780e-6181-444c-86c0-d6676f2707f6","ios":"levelo://app?vid=0a45780e-6181-444c-86c0-d6676f2707f6"},"vehicle_type_id":"4","last_reported":1715015285,"current_range_meters":0,"station_id":"ce4bgpp2rcd13ifvqc3g","pricing_plan_id":"cebpf4jnsgd1na2vs0mg"},{"bike_id":"31d64506-4160-418a-a1e9-bff07985907f","system_id":"levelo_inurba_marseille","lat":43.299176,"lon":5.374801,"is_reserved":false,"is_disabled":false,"rental_uris":{"android":"levelo://app?vid=31d64506-4160-418a-a1e9-bff07985907f","ios":"levelo://app?vid=31d64506-4160-418a-a1e9-bff07985907f"},"vehicle_type_id":"4","last_reported":1715015285,"current_range_meters":0,"station_id":"ce4bgjh2rcd13ifvqbg0","pricing_plan_id":"cebpf4jnsgd1na2vs0mg"},{"bike_id":"9f864236-7ab3-47f9-ac42-995c5d620209","system_id":"levelo_inurba_marseille","lat":43.297774,"lon":5.370875,"is_reserved":false,"is_disabled":false,"rental_uris":{"android":"levelo://app?vid=9f864236-7ab3-47f9-ac42-995c5d620209","ios":"levelo://app?vid=9f864236-7ab3-47f9-ac42-995c5d620209"},"vehicle_type_id":"4","last_reported":1715015285,"current_range_meters":1200,"station_id":"ce4bgop2rcd13ifvqc1g","pricing_plan_id":"cebpf4jnsgd1na2vs0mg"},{"bike_id":"711023bf-a0cc-4a6b-a9fd-3dea62933fbe","system_id":"levelo_inurba_marseille","lat":43.322872,"lon":5.382756,"is_reserved":false,"is_disabled":false,"rental_uris":{"android":"levelo://app?vid=711023bf-a0cc-4a6b-a9fd-3dea62933fbe","ios":"levelo://app?vid=711023bf-a0cc-4a6b-a9fd-3dea62933fbe"},"vehicle_type_id":"4","last_reported":1715015285,"current_range_meters":18400,"station_id":"ce4bhr12rcd13ifvqhqg","pricing_plan_id":"cebpf4jnsgd1na2vs0mg"},{"bike_id":"b524a673-9500-4344-b545-91460e65f015","system_id":"levelo_inurba_marseille","lat":43.322872,"lon":5.382756,"is_reserved":false,"is_disabled":false,"rental_uris":{"android":"levelo://app?vid=b524a673-9500-4344-b545-91460e65f015","ios":"levelo://app?vid=b524a673-9500-4344-b545-91460e65f015"},"vehicle_type_id":"4","last_reported":1715015285,"current_range_meters":23600,"station_id":"ce4bhr12rcd13ifvqhqg","pricing_plan_id":"cebpf4jnsgd1na2vs0mg"},{"bike_id":"a280a140-f99e-4dd6-b1ba-264e83a2027e","system_id":"levelo_inurba_marseille","lat":43.29709,"lon":5.35963,"is_reserved":false,"is_disabled":false,"rental_uris":{"android":"levelo://app?vid=a280a140-f99e-4dd6-b1ba-264e83a2027e","ios":"levelo://app?vid=a280a140-f99e-4dd6-b1ba-264e83a2027e"},"vehicle_type_id":"4","last_reported":1715015285,"current_range_meters":5200,"station_id":"","pricing_plan_id":"cebpf4jnsgd1na2vs0mg"},{"bike_id":"55f494d4-9228-4f93-bce6-9f03c9840f23","system_id":"levelo_inurba_marseille","lat":43.296935,"lon":5.376544,"is_reserved":false,"is_disabled":false,"rental_uris":{"android":"levelo://app?vid=55f494d4-9228-4f93-bce6-9f03c9840f23","ios":"levelo://app?vid=55f494d4-9228-4f93-bce6-9f03c9840f23"},"vehicle_type_id":"4","last_reported":1715015285,"current_range_meters":5200,"station_id":"ce4bgkh2rcd13ifvqbl0","pricing_plan_id":"cebpf4jnsgd1na2vs0mg"},{"bike_id":"97fb5c09-1b3e-41de-9388-4ce9316ee6ae","system_id":"levelo_inurba_marseille","lat":43.296921,"lon":5.376579,"is_reserved":false,"is_disabled":false,"rental_uris":{"android":"levelo://app?vid=97fb5c09-1b3e-41de-9388-4ce9316ee6ae","ios":"levelo://app?vid=97fb5c09-1b3e-41de-9388-4ce9316ee6ae"},"vehicle_type_id":"4","last_reported":1715015285,"current_range_meters":4400,"station_id":"ce4bgkh2rcd13ifvqbl0","pricing_plan_id":"cebpf4jnsgd1na2vs0mg"},{"bike_id":"ba3e2b15-2ddf-430f-89c9-2571ccc4b4e6","system_id":"levelo_inurba_marseille","lat":43.309589,"lon":5.390258,"is_reserved":false,"is_disabled":false,"rental_uris":{"android":"levelo://app?vid=ba3e2b15-2ddf-430f-89c9-2571ccc4b4e6","ios":"levelo://app?vid=ba3e2b15-2ddf-430f-89c9-2571ccc4b4e6"},"vehicle_type_id":"4","last_reported":1715015285,"current_range_meters":0,"station_id":"ce4bgup2rcd13ifvqco0","pricing_plan_id":"cebpf4jnsgd1na2vs0mg"},{"bike_id":"a594c2c1-f3b7-448a-8a7a-1f257d46d173","system_id":"levelo_inurba_marseille","lat":43.304278,"lon":5.388868,"is_reserved":false,"is_disabled":false,"rental_uris":{"android":"levelo://app?vid=a594c2c1-f3b7-448a-8a7a-1f257d46d173","ios":"levelo://app?vid=a594c2c1-f3b7-448a-8a7a-1f257d46d173"},"vehicle_type_id":"4","last_reported":1715015285,"current_range_meters":7600,"station_id":"ce4bgk12rcd13ifvqbi0","pricing_plan_id":"cebpf4jnsgd1na2vs0mg"},{"bike_id":"9af1917e-c6f9-4da0-abe1-30253405b309","system_id":"levelo_inurba_marseille","lat":43.317557,"lon":5.390173,"is_reserved":false,"is_disabled":false,"rental_uris":{"android":"levelo://app?vid=9af1917e-c6f9-4da0-abe1-30253405b309","ios":"levelo://app?vid=9af1917e-c6f9-4da0-abe1-30253405b309"},"vehicle_type_id":"4","last_reported":1715015285,"current_range_meters":5600,"station_id":"ce4bhqp2rcd13ifvqhng","pricing_plan_id":"cebpf4jnsgd1na2vs0mg"},{"bike_id":"534ab1a9-b587-4967-abc9-bd960b8c41b7","system_id":"levelo_inurba_marseille","lat":43.3176,"lon":5.39012,"is_reserved":false,"is_disabled":false,"rental_uris":{"android":"levelo://app?vid=534ab1a9-b587-4967-abc9-bd960b8c41b7","ios":"levelo://app?vid=534ab1a9-b587-4967-abc9-bd960b8c41b7"},"vehicle_type_id":"4","last_reported":1715015285,"current_range_meters":0,"station_id":"ce4bhqp2rcd13ifvqhng","pricing_plan_id":"cebpf4jnsgd1na2vs0mg"},{"bike_id":"1c592efb-f718-4f94-a5e1-59fe42a83c98","system_id":"levelo_inurba_marseille","lat":43.31754,"lon":5.39018,"is_reserved":false,"is_disabled":false,"rental_uris":{"android":"levelo://app?vid=1c592efb-f718-4f94-a5e1-59fe42a83c98","ios":"levelo://app?vid=1c592efb-f718-4f94-a5e1-59fe42a83c98"},"vehicle_type_id":"4","last_reported":1715015285,"current_range_meters":0,"station_id":"ce4bhqp2rcd13ifvqhng","pricing_plan_id":"cebpf4jnsgd1na2vs0mg"},{"bike_id":"df9b4d8e-2811-4cda-bd9b-dd2ae93c9949","system_id":"levelo_inurba_marseille","lat":43.299028,"lon":5.381509,"is_reserved":false,"is_disabled":false,"rental_uris":{"android":"levelo://app?vid=df9b4d8e-2811-4cda-bd9b-dd2ae93c9949","ios":"levelo://app?vid=df9b4d8e-2811-4cda-bd9b-dd2ae93c9949"},"vehicle_type_id":"4","last_reported":1715015285,"current_range_meters":30400,"station_id":"ce4bgj12rcd13ifvqbc0","pricing_plan_id":"cebpf4jnsgd1na2vs0mg"},{"bike_id":"f847a3fd-3e66-45bd-9d23-1182052f3b38","system_id":"levelo_inurba_marseille","lat":43.298037,"lon":5.381066,"is_reserved":false,"is_disabled":false,"rental_uris":{"android":"levelo://app?vid=f847a3fd-3e66-45bd-9d23-1182052f3b38","ios":"levelo://app?vid=f847a3fd-3e66-45bd-9d23-1182052f3b38"},"vehicle_type_id":"4","last_reported":1715015285,"current_range_meters":9600,"station_id":"ce4bgip2rcd13ifvqbb0","pricing_plan_id":"cebpf4jnsgd1na2vs0mg"},{"bike_id":"34d9dc66-2c4e-4891-b1de-73053a60d202","system_id":"levelo_inurba_marseille","lat":43.295169,"lon":5.390426,"is_reserved":false,"is_disabled":false,"rental_uris":{"android":"levelo://app?vid=34d9dc66-2c4e-4891-b1de-73053a60d202","ios":"levelo://app?vid=34d9dc66-2c4e-4891-b1de-73053a60d202"},"vehicle_type_id":"4","last_reported":1715015285,"current_range_meters":3200,"station_id":"ce4bh3p2rcd13ifvqdp0","pricing_plan_id":"cebpf4jnsgd1na2vs0mg"},{"bike_id":"715669e3-0631-4355-9a6f-16ee25eae9ef","system_id":"levelo_inurba_marseille","lat":43.304278,"lon":5.388868,"is_reserved":false,"is_disabled":false,"rental_uris":{"android":"levelo://app?vid=715669e3-0631-4355-9a6f-16ee25eae9ef","ios":"levelo://app?vid=715669e3-0631-4355-9a6f-16ee25eae9ef"},"vehicle_type_id":"4","last_reported":1715015285,"current_range_meters":14800,"station_id":"ce4bgk12rcd13ifvqbi0","pricing_plan_id":"cebpf4jnsgd1na2vs0mg"},{"bike_id":"af57d0b8-8f71-4cd6-92a5-60b6ebd13b43","system_id":"levelo_inurba_marseille","lat":43.30435,"lon":5.38881,"is_reserved":false,"is_disabled":false,"rental_uris":{"android":"levelo://app?vid=af57d0b8-8f71-4cd6-92a5-60b6ebd13b43","ios":"levelo://app?vid=af57d0b8-8f71-4cd6-92a5-60b6ebd13b43"},"vehicle_type_id":"4","last_reported":1715015285,"current_range_meters":2400,"station_id":"ce4bgk12rcd13ifvqbi0","pricing_plan_id":"cebpf4jnsgd1na2vs0mg"},{"bike_id":"68d942a6-dcac-47d2-8271-6b7eca60388d","system_id":"levelo_inurba_marseille","lat":43.304278,"lon":5.388868,"is_reserved":false,"is_disabled":false,"rental_uris":{"android":"levelo://app?vid=68d942a6-dcac-47d2-8271-6b7eca60388d","ios":"levelo://app?vid=68d942a6-dcac-47d2-8271-6b7eca60388d"},"vehicle_type_id":"4","last_reported":1715015285,"current_range_meters":5200,"station_id":"ce4bgk12rcd13ifvqbi0","pricing_plan_id":"cebpf4jnsgd1na2vs0mg"},{"bike_id":"a0984d59-e8f6-48fa-b42b-1c4ce74d3dc5","system_id":"levelo_inurba_marseille","lat":43.297864,"lon":5.380898,"is_reserved":false,"is_disabled":false,"rental_uris":{"android":"levelo://app?vid=a0984d59-e8f6-48fa-b42b-1c4ce74d3dc5","ios":"levelo://app?vid=a0984d59-e8f6-48fa-b42b-1c4ce74d3dc5"},"vehicle_type_id":"4","last_reported":1715015285,"current_range_meters":30000,"station_id":"ce4bgip2rcd13ifvqbb0","pricing_plan_id":"cebpf4jnsgd1na2vs0mg"},{"bike_id":"c96bfcd9-d4ab-4ee0-a3a3-bff046bcde3d","system_id":"levelo_inurba_marseille","lat":43.29571,"lon":5.37502,"is_reserved":false,"is_disabled":false,"rental_uris":{"android":"levelo://app?vid=c96bfcd9-d4ab-4ee0-a3a3-bff046bcde3d","ios":"levelo://app?vid=c96bfcd9-d4ab-4ee0-a3a3-bff046bcde3d"},"vehicle_type_id":"4","last_reported":1715015285,"current_range_meters":0,"station_id":"ce4bgh92rcd13ifvqb50","pricing_plan_id":"cebpf4jnsgd1na2vs0mg"},{"bike_id":"bcfeee0b-089f-4a80-b280-cc84bf5678ab","system_id":"levelo_inurba_marseille","lat":43.305364,"lon":5.384119,"is_reserved":false,"is_disabled":false,"rental_uris":{"android":"levelo://app?vid=bcfeee0b-089f-4a80-b280-cc84bf5678ab","ios":"levelo://app?vid=bcfeee0b-089f-4a80-b280-cc84bf5678ab"},"vehicle_type_id":"4","last_reported":1715015285,"current_range_meters":6400,"station_id":"ce4bgg92rcd13ifvqb30","pricing_plan_id":"cebpf4jnsgd1na2vs0mg"},{"bike_id":"02d9bf59-d7fd-4746-a382-d2ef1bda52f7","system_id":"levelo_inurba_marseille","lat":43.2979,"lon":5.38104,"is_reserved":false,"is_disabled":false,"rental_uris":{"android":"levelo://app?vid=02d9bf59-d7fd-4746-a382-d2ef1bda52f7","ios":"levelo://app?vid=02d9bf59-d7fd-4746-a382-d2ef1bda52f7"},"vehicle_type_id":"4","last_reported":1715015285,"current_range_meters":0,"station_id":"ce4bgip2rcd13ifvqbb0","pricing_plan_id":"cebpf4jnsgd1na2vs0mg"},{"bike_id":"3e3e2717-e081-4dbb-9f08-99fc2d7698d7","system_id":"levelo_inurba_marseille","lat":43.304278,"lon":5.388868,"is_reserved":false,"is_disabled":false,"rental_uris":{"android":"levelo://app?vid=3e3e2717-e081-4dbb-9f08-99fc2d7698d7","ios":"levelo://app?vid=3e3e2717-e081-4dbb-9f08-99fc2d7698d7"},"vehicle_type_id":"4","last_reported":1715015285,"current_range_meters":18400,"station_id":"ce4bgk12rcd13ifvqbi0","pricing_plan_id":"cebpf4jnsgd1na2vs0mg"},{"bike_id":"a712eae4-7398-4456-b19c-4c7af616c8dc","system_id":"levelo_inurba_marseille","lat":43.304222,"lon":5.388842,"is_reserved":false,"is_disabled":false,"rental_uris":{"android":"levelo://app?vid=a712eae4-7398-4456-b19c-4c7af616c8dc","ios":"levelo://app?vid=a712eae4-7398-4456-b19c-4c7af616c8dc"},"vehicle_type_id":"4","last_reported":1715015285,"current_range_meters":15600,"station_id":"ce4bgk12rcd13ifvqbi0","pricing_plan_id":"cebpf4jnsgd1na2vs0mg"},{"bike_id":"dffdb95a-c276-4e4e-8dc3-05351e8e2f69","system_id":"levelo_inurba_marseille","lat":43.30418,"lon":5.38885,"is_reserved":false,"is_disabled":false,"rental_uris":{"android":"levelo://app?vid=dffdb95a-c276-4e4e-8dc3-05351e8e2f69","ios":"levelo://app?vid=dffdb95a-c276-4e4e-8dc3-05351e8e2f69"},"vehicle_type_id":"4","last_reported":1715015285,"current_range_meters":0,"station_id":"ce4bgk12rcd13ifvqbi0","pricing_plan_id":"cebpf4jnsgd1na2vs0mg"},{"bike_id":"a65687ae-40af-412b-918a-5d491de56349","system_id":"levelo_inurba_marseille","lat":43.296263,"lon":5.377094,"is_reserved":false,"is_disabled":false,"rental_uris":{"android":"levelo://app?vid=a65687ae-40af-412b-918a-5d491de56349","ios":"levelo://app?vid=a65687ae-40af-412b-918a-5d491de56349"},"vehicle_type_id":"4","last_reported":1715015285,"current_range_meters":6000,"station_id":"ce4bgi92rcd13ifvqb90","pricing_plan_id":"cebpf4jnsgd1na2vs0mg"},{"bike_id":"6bd2a54b-5632-4b4f-a2ce-51fa77aeec8e","system_id":"levelo_inurba_marseille","lat":43.304274,"lon":5.388873,"is_reserved":false,"is_disabled":false,"rental_uris":{"android":"levelo://app?vid=6bd2a54b-5632-4b4f-a2ce-51fa77aeec8e","ios":"levelo://app?vid=6bd2a54b-5632-4b4f-a2ce-51fa77aeec8e"},"vehicle_type_id":"4","last_reported":1715015285,"current_range_meters":5600,"station_id":"ce4bgk12rcd13ifvqbi0","pricing_plan_id":"cebpf4jnsgd1na2vs0mg"},{"bike_id":"30b228be-cc8f-46e8-93a4-95dfa5ad0040","system_id":"levelo_inurba_marseille","lat":43.296263,"lon":5.377094,"is_reserved":false,"is_disabled":false,"rental_uris":{"android":"levelo://app?vid=30b228be-cc8f-46e8-93a4-95dfa5ad0040","ios":"levelo://app?vid=30b228be-cc8f-46e8-93a4-95dfa5ad0040"},"vehicle_type_id":"4","last_reported":1715015285,"current_range_meters":0,"station_id":"ce4bgi92rcd13ifvqb90","pricing_plan_id":"cebpf4jnsgd1na2vs0mg"},{"bike_id":"ed301d21-e14f-4794-bec5-7c4e421b25c2","system_id":"levelo_inurba_marseille","lat":43.29671,"lon":5.37902,"is_reserved":false,"is_disabled":false,"rental_uris":{"android":"levelo://app?vid=ed301d21-e14f-4794-bec5-7c4e421b25c2","ios":"levelo://app?vid=ed301d21-e14f-4794-bec5-7c4e421b25c2"},"vehicle_type_id":"4","last_reported":1715015285,"current_range_meters":27600,"station_id":"","pricing_plan_id":"cebpf4jnsgd1na2vs0mg"},{"bike_id":"68d2d0a1-7cc2-401c-aabe-111f6b662883","system_id":"levelo_inurba_marseille","lat":43.295279,"lon":5.375048,"is_reserved":false,"is_disabled":false,"rental_uris":{"android":"levelo://app?vid=68d2d0a1-7cc2-401c-aabe-111f6b662883","ios":"levelo://app?vid=68d2d0a1-7cc2-401c-aabe-111f6b662883"},"vehicle_type_id":"4","last_reported":1715015285,"current_range_meters":2800,"station_id":"ce4bgkp2rcd13ifvqbmg","pricing_plan_id":"cebpf4jnsgd1na2vs0mg"},{"bike_id":"54b06375-62cb-46e6-9439-6ec670ca8a30","system_id":"levelo_inurba_marseille","lat":43.304278,"lon":5.388868,"is_reserved":false,"is_disabled":false,"rental_uris":{"android":"levelo://app?vid=54b06375-62cb-46e6-9439-6ec670ca8a30","ios":"levelo://app?vid=54b06375-62cb-46e6-9439-6ec670ca8a30"},"vehicle_type_id":"4","last_reported":1715015285,"current_range_meters":0,"station_id":"ce4bgk12rcd13ifvqbi0","pricing_plan_id":"cebpf4jnsgd1na2vs0mg"},{"bike_id":"03dee687-7877-44ae-9ec5-eecce37bd77a","system_id":"levelo_inurba_marseille","lat":43.295279,"lon":5.375048,"is_reserved":false,"is_disabled":false,"rental_uris":{"android":"levelo://app?vid=03dee687-7877-44ae-9ec5-eecce37bd77a","ios":"levelo://app?vid=03dee687-7877-44ae-9ec5-eecce37bd77a"},"vehicle_type_id":"4","last_reported":1715015285,"current_range_meters":2400,"station_id":"ce4bgkp2rcd13ifvqbmg","pricing_plan_id":"cebpf4jnsgd1na2vs0mg"},{"bike_id":"7938dfeb-8e62-440d-90d8-a454b0daa13a","system_id":"levelo_inurba_marseille","lat":43.299707,"lon":5.384859,"is_reserved":false,"is_disabled":false,"rental_uris":{"android":"levelo://app?vid=7938dfeb-8e62-440d-90d8-a454b0daa13a","ios":"levelo://app?vid=7938dfeb-8e62-440d-90d8-a454b0daa13a"},"vehicle_type_id":"4","last_reported":1715015285,"current_range_meters":800,"station_id":"ce4bgj92rcd13ifvqbd0","pricing_plan_id":"cebpf4jnsgd1na2vs0mg"},{"bike_id":"9c1efba4-3642-420e-8f9c-88b8c4a16ae0","system_id":"levelo_inurba_marseille","lat":43.299668,"lon":5.384794,"is_reserved":false,"is_disabled":false,"rental_uris":{"android":"levelo://app?vid=9c1efba4-3642-420e-8f9c-88b8c4a16ae0","ios":"levelo://app?vid=9c1efba4-3642-420e-8f9c-88b8c4a16ae0"},"vehicle_type_id":"4","last_reported":1715015285,"current_range_meters":26800,"station_id":"ce4bgj92rcd13ifvqbd0","pricing_plan_id":"cebpf4jnsgd1na2vs0mg"},{"bike_id":"5445782a-760a-411f-953c-d8a62216d4e8","system_id":"levelo_inurba_marseille","lat":43.299717,"lon":5.384845,"is_reserved":false,"is_disabled":false,"rental_uris":{"android":"levelo://app?vid=5445782a-760a-411f-953c-d8a62216d4e8","ios":"levelo://app?vid=5445782a-760a-411f-953c-d8a62216d4e8"},"vehicle_type_id":"4","last_reported":1715015285,"current_range_meters":9600,"station_id":"ce4bgj92rcd13ifvqbd0","pricing_plan_id":"cebpf4jnsgd1na2vs0mg"},{"bike_id":"6e7c8c4e-118f-4fbf-a755-9ef27467225c","system_id":"levelo_inurba_marseille","lat":43.299707,"lon":5.384859,"is_reserved":false,"is_disabled":false,"rental_uris":{"android":"levelo://app?vid=6e7c8c4e-118f-4fbf-a755-9ef27467225c","ios":"levelo://app?vid=6e7c8c4e-118f-4fbf-a755-9ef27467225c"},"vehicle_type_id":"4","last_reported":1715015285,"current_range_meters":0,"station_id":"ce4bgj92rcd13ifvqbd0","pricing_plan_id":"cebpf4jnsgd1na2vs0mg"},{"bike_id":"7ca7320a-db78-4768-962a-79c069576ad5","system_id":"levelo_inurba_marseille","lat":43.299707,"lon":5.384859,"is_reserved":false,"is_disabled":false,"rental_uris":{"android":"levelo://app?vid=7ca7320a-db78-4768-962a-79c069576ad5","ios":"levelo://app?vid=7ca7320a-db78-4768-962a-79c069576ad5"},"vehicle_type_id":"4","last_reported":1715015285,"current_range_meters":0,"station_id":"ce4bgj92rcd13ifvqbd0","pricing_plan_id":"cebpf4jnsgd1na2vs0mg"},{"bike_id":"8a9ecfd8-e64d-4134-84a5-caa3c1092a86","system_id":"levelo_inurba_marseille","lat":43.299717,"lon":5.384845,"is_reserved":false,"is_disabled":false,"rental_uris":{"android":"levelo://app?vid=8a9ecfd8-e64d-4134-84a5-caa3c1092a86","ios":"levelo://app?vid=8a9ecfd8-e64d-4134-84a5-caa3c1092a86"},"vehicle_type_id":"4","last_reported":1715015285,"current_range_meters":0,"station_id":"ce4bgj92rcd13ifvqbd0","pricing_plan_id":"cebpf4jnsgd1na2vs0mg"},{"bike_id":"cadb7313-0666-47ad-95f9-a9b65492d156","system_id":"levelo_inurba_marseille","lat":43.295279,"lon":5.375048,"is_reserved":false,"is_disabled":false,"rental_uris":{"android":"levelo://app?vid=cadb7313-0666-47ad-95f9-a9b65492d156","ios":"levelo://app?vid=cadb7313-0666-47ad-95f9-a9b65492d156"},"vehicle_type_id":"4","last_reported":1715015285,"current_range_meters":0,"station_id":"ce4bgkp2rcd13ifvqbmg","pricing_plan_id":"cebpf4jnsgd1na2vs0mg"},{"bike_id":"35ae12f4-c37e-447d-b450-06ce4cd2e856","system_id":"levelo_inurba_marseille","lat":43.29965,"lon":5.38495,"is_reserved":false,"is_disabled":false,"rental_uris":{"android":"levelo://app?vid=35ae12f4-c37e-447d-b450-06ce4cd2e856","ios":"levelo://app?vid=35ae12f4-c37e-447d-b450-06ce4cd2e856"},"vehicle_type_id":"4","last_reported":1715015285,"current_range_meters":400,"station_id":"ce4bgj92rcd13ifvqbd0","pricing_plan_id":"cebpf4jnsgd1na2vs0mg"},{"bike_id":"0b6b0d1b-dd10-4c8b-b5e0-1ea0cb6ee7cd","system_id":"levelo_inurba_marseille","lat":43.29956,"lon":5.38488,"is_reserved":false,"is_disabled":false,"rental_uris":{"android":"levelo://app?vid=0b6b0d1b-dd10-4c8b-b5e0-1ea0cb6ee7cd","ios":"levelo://app?vid=0b6b0d1b-dd10-4c8b-b5e0-1ea0cb6ee7cd"},"vehicle_type_id":"4","last_reported":1715015285,"current_range_meters":4400,"station_id":"ce4bgj92rcd13ifvqbd0","pricing_plan_id":"cebpf4jnsgd1na2vs0mg"},{"bike_id":"68b128cb-c825-4b72-8b08-f3cfc127d02e","system_id":"levelo_inurba_marseille","lat":43.29511,"lon":5.37508,"is_reserved":false,"is_disabled":false,"rental_uris":{"android":"levelo://app?vid=68b128cb-c825-4b72-8b08-f3cfc127d02e","ios":"levelo://app?vid=68b128cb-c825-4b72-8b08-f3cfc127d02e"},"vehicle_type_id":"4","last_reported":1715015285,"current_range_meters":13600,"station_id":"ce4bgkp2rcd13ifvqbmg","pricing_plan_id":"cebpf4jnsgd1na2vs0mg"},{"bike_id":"6aa99383-5aa6-4dfd-bde2-eeaa19be1333","system_id":"levelo_inurba_marseille","lat":43.32367,"lon":5.388836,"is_reserved":false,"is_disabled":false,"rental_uris":{"android":"levelo://app?vid=6aa99383-5aa6-4dfd-bde2-eeaa19be1333","ios":"levelo://app?vid=6aa99383-5aa6-4dfd-bde2-eeaa19be1333"},"vehicle_type_id":"4","last_reported":1715015285,"current_range_meters":3200,"station_id":"ce4bhqp2rcd13ifvqhog","pricing_plan_id":"cebpf4jnsgd1na2vs0mg"},{"bike_id":"84f1526b-9051-4216-a03a-1c7a5eaad455","system_id":"levelo_inurba_marseille","lat":43.32365,"lon":5.38884,"is_reserved":false,"is_disabled":false,"rental_uris":{"android":"levelo://app?vid=84f1526b-9051-4216-a03a-1c7a5eaad455","ios":"levelo://app?vid=84f1526b-9051-4216-a03a-1c7a5eaad455"},"vehicle_type_id":"4","last_reported":1715015285,"current_range_meters":0,"station_id":"ce4bhqp2rcd13ifvqhog","pricing_plan_id":"cebpf4jnsgd1na2vs0mg"},{"bike_id":"0d88dc49-3e28-41ed-8619-5505c41f699c","system_id":"levelo_inurba_marseille","lat":43.32367,"lon":5.388836,"is_reserved":false,"is_disabled":false,"rental_uris":{"android":"levelo://app?vid=0d88dc49-3e28-41ed-8619-5505c41f699c","ios":"levelo://app?vid=0d88dc49-3e28-41ed-8619-5505c41f699c"},"vehicle_type_id":"4","last_reported":1715015285,"current_range_meters":9200,"station_id":"ce4bhqp2rcd13ifvqhog","pricing_plan_id":"cebpf4jnsgd1na2vs0mg"},{"bike_id":"49176c1e-48a2-48ca-9117-11c3a53cfd16","system_id":"levelo_inurba_marseille","lat":43.32368,"lon":5.38886,"is_reserved":false,"is_disabled":false,"rental_uris":{"android":"levelo://app?vid=49176c1e-48a2-48ca-9117-11c3a53cfd16","ios":"levelo://app?vid=49176c1e-48a2-48ca-9117-11c3a53cfd16"},"vehicle_type_id":"4","last_reported":1715015285,"current_range_meters":0,"station_id":"ce4bhqp2rcd13ifvqhog","pricing_plan_id":"cebpf4jnsgd1na2vs0mg"},{"bike_id":"1bb0c5fd-2639-4d11-b987-3c4a9447671b","system_id":"levelo_inurba_marseille","lat":43.32367,"lon":5.388836,"is_reserved":false,"is_disabled":false,"rental_uris":{"android":"levelo://app?vid=1bb0c5fd-2639-4d11-b987-3c4a9447671b","ios":"levelo://app?vid=1bb0c5fd-2639-4d11-b987-3c4a9447671b"},"vehicle_type_id":"4","last_reported":1715015285,"current_range_meters":19600,"station_id":"ce4bhqp2rcd13ifvqhog","pricing_plan_id":"cebpf4jnsgd1na2vs0mg"},{"bike_id":"4fbeaac2-7e46-4d96-8d3a-83b510e00773","system_id":"levelo_inurba_marseille","lat":43.32367,"lon":5.388836,"is_reserved":false,"is_disabled":false,"rental_uris":{"android":"levelo://app?vid=4fbeaac2-7e46-4d96-8d3a-83b510e00773","ios":"levelo://app?vid=4fbeaac2-7e46-4d96-8d3a-83b510e00773"},"vehicle_type_id":"4","last_reported":1715015285,"current_range_meters":0,"station_id":"ce4bhqp2rcd13ifvqhog","pricing_plan_id":"cebpf4jnsgd1na2vs0mg"},{"bike_id":"47e3d099-0f88-4a9c-a772-6973697447d0","system_id":"levelo_inurba_marseille","lat":43.29602,"lon":5.381084,"is_reserved":false,"is_disabled":false,"rental_uris":{"android":"levelo://app?vid=47e3d099-0f88-4a9c-a772-6973697447d0","ios":"levelo://app?vid=47e3d099-0f88-4a9c-a772-6973697447d0"},"vehicle_type_id":"4","last_reported":1715015285,"current_range_meters":10000,"station_id":"ce4bgl12rcd13ifvqbo0","pricing_plan_id":"cebpf4jnsgd1na2vs0mg"},{"bike_id":"3a507d55-e89b-408a-8d51-640f5ff8a688","system_id":"levelo_inurba_marseille","lat":43.293339,"lon":5.371853,"is_reserved":false,"is_disabled":false,"rental_uris":{"android":"levelo://app?vid=3a507d55-e89b-408a-8d51-640f5ff8a688","ios":"levelo://app?vid=3a507d55-e89b-408a-8d51-640f5ff8a688"},"vehicle_type_id":"4","last_reported":1715015285,"current_range_meters":24000,"station_id":"ce4bgh92rcd13ifvqb40","pricing_plan_id":"cebpf4jnsgd1na2vs0mg"},{"bike_id":"f618ed9e-2c48-49fd-80ce-95543e0e350f","system_id":"levelo_inurba_marseille","lat":43.293009,"lon":5.374584,"is_reserved":false,"is_disabled":false,"rental_uris":{"android":"levelo://app?vid=f618ed9e-2c48-49fd-80ce-95543e0e350f","ios":"levelo://app?vid=f618ed9e-2c48-49fd-80ce-95543e0e350f"},"vehicle_type_id":"4","last_reported":1715015285,"current_range_meters":9600,"station_id":"ce4bgi12rcd13ifvqb70","pricing_plan_id":"cebpf4jnsgd1na2vs0mg"},{"bike_id":"1eaee3fe-ec9c-484a-83ed-b553c1b6cd80","system_id":"levelo_inurba_marseille","lat":43.29601,"lon":5.381084,"is_reserved":false,"is_disabled":false,"rental_uris":{"android":"levelo://app?vid=1eaee3fe-ec9c-484a-83ed-b553c1b6cd80","ios":"levelo://app?vid=1eaee3fe-ec9c-484a-83ed-b553c1b6cd80"},"vehicle_type_id":"4","last_reported":1715015285,"current_range_meters":400,"station_id":"ce4bgl12rcd13ifvqbo0","pricing_plan_id":"cebpf4jnsgd1na2vs0mg"},{"bike_id":"d2d45c27-ebd7-4e5c-94ba-387550a6da57","system_id":"levelo_inurba_marseille","lat":43.29306,"lon":5.3718,"is_reserved":false,"is_disabled":false,"rental_uris":{"android":"levelo://app?vid=d2d45c27-ebd7-4e5c-94ba-387550a6da57","ios":"levelo://app?vid=d2d45c27-ebd7-4e5c-94ba-387550a6da57"},"vehicle_type_id":"4","last_reported":1715015285,"current_range_meters":0,"station_id":"ce4bgh92rcd13ifvqb40","pricing_plan_id":"cebpf4jnsgd1na2vs0mg"},{"bike_id":"536e219d-d1c7-485e-b123-a586653dc33e","system_id":"levelo_inurba_marseille","lat":43.292749,"lon":5.368402,"is_reserved":false,"is_disabled":false,"rental_uris":{"android":"levelo://app?vid=536e219d-d1c7-485e-b123-a586653dc33e","ios":"levelo://app?vid=536e219d-d1c7-485e-b123-a586653dc33e"},"vehicle_type_id":"4","last_reported":1715015285,"current_range_meters":15600,"station_id":"ce4bhbp2rcd13ifvqesg","pricing_plan_id":"cebpf4jnsgd1na2vs0mg"},{"bike_id":"17756d66-ae27-449f-a091-18642dab2062","system_id":"levelo_inurba_marseille","lat":43.292749,"lon":5.368398,"is_reserved":false,"is_disabled":false,"rental_uris":{"android":"levelo://app?vid=17756d66-ae27-449f-a091-18642dab2062","ios":"levelo://app?vid=17756d66-ae27-449f-a091-18642dab2062"},"vehicle_type_id":"4","last_reported":1715015285,"current_range_meters":0,"station_id":"ce4bhbp2rcd13ifvqesg","pricing_plan_id":"cebpf4jnsgd1na2vs0mg"},{"bike_id":"26df57fc-eae7-43f1-9843-ad85f178dae7","system_id":"levelo_inurba_marseille","lat":43.293009,"lon":5.374584,"is_reserved":false,"is_disabled":false,"rental_uris":{"android":"levelo://app?vid=26df57fc-eae7-43f1-9843-ad85f178dae7","ios":"levelo://app?vid=26df57fc-eae7-43f1-9843-ad85f178dae7"},"vehicle_type_id":"4","last_reported":1715015285,"current_range_meters":0,"station_id":"ce4bgi12rcd13ifvqb70","pricing_plan_id":"cebpf4jnsgd1na2vs0mg"},{"bike_id":"1a97c649-a702-4d4a-a466-8f7d4aa3c84c","system_id":"levelo_inurba_marseille","lat":43.293009,"lon":5.374584,"is_reserved":false,"is_disabled":false,"rental_uris":{"android":"levelo://app?vid=1a97c649-a702-4d4a-a466-8f7d4aa3c84c","ios":"levelo://app?vid=1a97c649-a702-4d4a-a466-8f7d4aa3c84c"},"vehicle_type_id":"4","last_reported":1715015285,"current_range_meters":18000,"station_id":"ce4bgi12rcd13ifvqb70","pricing_plan_id":"cebpf4jnsgd1na2vs0mg"},{"bike_id":"e1a2cd7b-f8f7-4837-8e0f-4b9b8df7b564","system_id":"levelo_inurba_marseille","lat":43.305994,"lon":5.393687,"is_reserved":false,"is_disabled":false,"rental_uris":{"android":"levelo://app?vid=e1a2cd7b-f8f7-4837-8e0f-4b9b8df7b564","ios":"levelo://app?vid=e1a2cd7b-f8f7-4837-8e0f-4b9b8df7b564"},"vehicle_type_id":"4","last_reported":1715015285,"current_range_meters":6800,"station_id":"ce4bh0p2rcd13ifvqd80","pricing_plan_id":"cebpf4jnsgd1na2vs0mg"},{"bike_id":"e92a73c3-944e-40f6-802f-6044f1868200","system_id":"levelo_inurba_marseille","lat":43.303002,"lon":5.392142,"is_reserved":false,"is_disabled":false,"rental_uris":{"android":"levelo://app?vid=e92a73c3-944e-40f6-802f-6044f1868200","ios":"levelo://app?vid=e92a73c3-944e-40f6-802f-6044f1868200"},"vehicle_type_id":"4","last_reported":1715015285,"current_range_meters":400,"station_id":"ce4bgkh2rcd13ifvqbk0","pricing_plan_id":"cebpf4jnsgd1na2vs0mg"},{"bike_id":"15608162-ce0b-4b38-8b98-2fbca46add72","system_id":"levelo_inurba_marseille","lat":43.29225,"lon":5.361631,"is_reserved":false,"is_disabled":false,"rental_uris":{"android":"levelo://app?vid=15608162-ce0b-4b38-8b98-2fbca46add72","ios":"levelo://app?vid=15608162-ce0b-4b38-8b98-2fbca46add72"},"vehicle_type_id":"4","last_reported":1715015285,"current_range_meters":4000,"station_id":"ce4bhbh2rcd13ifvqeqg","pricing_plan_id":"cebpf4jnsgd1na2vs0mg"},{"bike_id":"3b074c7a-7186-42b6-8978-3fb63caa6fb0","system_id":"levelo_inurba_marseille","lat":43.292311,"lon":5.360731,"is_reserved":false,"is_disabled":false,"rental_uris":{"android":"levelo://app?vid=3b074c7a-7186-42b6-8978-3fb63caa6fb0","ios":"levelo://app?vid=3b074c7a-7186-42b6-8978-3fb63caa6fb0"},"vehicle_type_id":"4","last_reported":1715015285,"current_range_meters":26800,"station_id":"ce4bhbh2rcd13ifvqeqg","pricing_plan_id":"cebpf4jnsgd1na2vs0mg"},{"bike_id":"1484e33e-a4c9-4607-ac71-76d02db0a2d3","system_id":"levelo_inurba_marseille","lat":43.293693,"lon":5.378639,"is_reserved":false,"is_disabled":false,"rental_uris":{"android":"levelo://app?vid=1484e33e-a4c9-4607-ac71-76d02db0a2d3","ios":"levelo://app?vid=1484e33e-a4c9-4607-ac71-76d02db0a2d3"},"vehicle_type_id":"4","last_reported":1715015285,"current_range_meters":0,"station_id":"ce4bgjh2rcd13ifvqbf0","pricing_plan_id":"cebpf4jnsgd1na2vs0mg"},{"bike_id":"d13f9eaf-9d47-41ca-bd99-206c7ababf56","system_id":"levelo_inurba_marseille","lat":43.292311,"lon":5.360731,"is_reserved":false,"is_disabled":false,"rental_uris":{"android":"levelo://app?vid=d13f9eaf-9d47-41ca-bd99-206c7ababf56","ios":"levelo://app?vid=d13f9eaf-9d47-41ca-bd99-206c7ababf56"},"vehicle_type_id":"4","last_reported":1715015285,"current_range_meters":26400,"station_id":"ce4bhbh2rcd13ifvqeqg","pricing_plan_id":"cebpf4jnsgd1na2vs0mg"},{"bike_id":"3b1ebcc6-b9d8-4445-917e-39930889d491","system_id":"levelo_inurba_marseille","lat":43.292311,"lon":5.360731,"is_reserved":false,"is_disabled":false,"rental_uris":{"android":"levelo://app?vid=3b1ebcc6-b9d8-4445-917e-39930889d491","ios":"levelo://app?vid=3b1ebcc6-b9d8-4445-917e-39930889d491"},"vehicle_type_id":"4","last_reported":1715015285,"current_range_meters":26000,"station_id":"ce4bhbh2rcd13ifvqeqg","pricing_plan_id":"cebpf4jnsgd1na2vs0mg"},{"bike_id":"10f0b656-af5f-46d4-a67b-0b91ffdb91c8","system_id":"levelo_inurba_marseille","lat":43.292311,"lon":5.360731,"is_reserved":false,"is_disabled":false,"rental_uris":{"android":"levelo://app?vid=10f0b656-af5f-46d4-a67b-0b91ffdb91c8","ios":"levelo://app?vid=10f0b656-af5f-46d4-a67b-0b91ffdb91c8"},"vehicle_type_id":"4","last_reported":1715015285,"current_range_meters":22800,"station_id":"ce4bhbh2rcd13ifvqeqg","pricing_plan_id":"cebpf4jnsgd1na2vs0mg"},{"bike_id":"a11d521e-c35a-4a83-a0c5-5b5248b14083","system_id":"levelo_inurba_marseille","lat":43.292311,"lon":5.360731,"is_reserved":false,"is_disabled":false,"rental_uris":{"android":"levelo://app?vid=a11d521e-c35a-4a83-a0c5-5b5248b14083","ios":"levelo://app?vid=a11d521e-c35a-4a83-a0c5-5b5248b14083"},"vehicle_type_id":"4","last_reported":1715015285,"current_range_meters":13200,"station_id":"ce4bhbh2rcd13ifvqeqg","pricing_plan_id":"cebpf4jnsgd1na2vs0mg"},{"bike_id":"23ae6c56-7fc0-4d39-b105-30d4b6ffbcfb","system_id":"levelo_inurba_marseille","lat":43.30085,"lon":5.390856,"is_reserved":false,"is_disabled":false,"rental_uris":{"android":"levelo://app?vid=23ae6c56-7fc0-4d39-b105-30d4b6ffbcfb","ios":"levelo://app?vid=23ae6c56-7fc0-4d39-b105-30d4b6ffbcfb"},"vehicle_type_id":"4","last_reported":1715015285,"current_range_meters":24400,"station_id":"ce4bh192rcd13ifvqdb0","pricing_plan_id":"cebpf4jnsgd1na2vs0mg"},{"bike_id":"061d3992-a1ba-4bbe-83c0-4c073646cabf","system_id":"levelo_inurba_marseille","lat":43.292262,"lon":5.360807,"is_reserved":false,"is_disabled":false,"rental_uris":{"android":"levelo://app?vid=061d3992-a1ba-4bbe-83c0-4c073646cabf","ios":"levelo://app?vid=061d3992-a1ba-4bbe-83c0-4c073646cabf"},"vehicle_type_id":"4","last_reported":1715015285,"current_range_meters":9200,"station_id":"ce4bhbh2rcd13ifvqeqg","pricing_plan_id":"cebpf4jnsgd1na2vs0mg"},{"bike_id":"0f27e1dd-61b5-46fc-9764-cf545e549d70","system_id":"levelo_inurba_marseille","lat":43.292311,"lon":5.360731,"is_reserved":false,"is_disabled":false,"rental_uris":{"android":"levelo://app?vid=0f27e1dd-61b5-46fc-9764-cf545e549d70","ios":"levelo://app?vid=0f27e1dd-61b5-46fc-9764-cf545e549d70"},"vehicle_type_id":"4","last_reported":1715015285,"current_range_meters":31200,"station_id":"ce4bhbh2rcd13ifvqeqg","pricing_plan_id":"cebpf4jnsgd1na2vs0mg"},{"bike_id":"9613e977-f646-432a-b533-4a68cd5b6f0b","system_id":"levelo_inurba_marseille","lat":43.292311,"lon":5.360731,"is_reserved":false,"is_disabled":false,"rental_uris":{"android":"levelo://app?vid=9613e977-f646-432a-b533-4a68cd5b6f0b","ios":"levelo://app?vid=9613e977-f646-432a-b533-4a68cd5b6f0b"},"vehicle_type_id":"4","last_reported":1715015285,"current_range_meters":2400,"station_id":"ce4bhbh2rcd13ifvqeqg","pricing_plan_id":"cebpf4jnsgd1na2vs0mg"},{"bike_id":"a258031c-82bf-41df-94e7-ea37e4d16525","system_id":"levelo_inurba_marseille","lat":43.292311,"lon":5.360731,"is_reserved":false,"is_disabled":false,"rental_uris":{"android":"levelo://app?vid=a258031c-82bf-41df-94e7-ea37e4d16525","ios":"levelo://app?vid=a258031c-82bf-41df-94e7-ea37e4d16525"},"vehicle_type_id":"4","last_reported":1715015285,"current_range_meters":16800,"station_id":"ce4bhbh2rcd13ifvqeqg","pricing_plan_id":"cebpf4jnsgd1na2vs0mg"},{"bike_id":"0bf9f674-5b4c-41f4-aa81-5f08d30cb004","system_id":"levelo_inurba_marseille","lat":43.30085,"lon":5.390856,"is_reserved":false,"is_disabled":false,"rental_uris":{"android":"levelo://app?vid=0bf9f674-5b4c-41f4-aa81-5f08d30cb004","ios":"levelo://app?vid=0bf9f674-5b4c-41f4-aa81-5f08d30cb004"},"vehicle_type_id":"4","last_reported":1715015285,"current_range_meters":13600,"station_id":"ce4bh192rcd13ifvqdb0","pricing_plan_id":"cebpf4jnsgd1na2vs0mg"},{"bike_id":"42884579-f8d5-4fcd-9dad-4508f67c5a64","system_id":"levelo_inurba_marseille","lat":43.292311,"lon":5.360731,"is_reserved":false,"is_disabled":false,"rental_uris":{"android":"levelo://app?vid=42884579-f8d5-4fcd-9dad-4508f67c5a64","ios":"levelo://app?vid=42884579-f8d5-4fcd-9dad-4508f67c5a64"},"vehicle_type_id":"4","last_reported":1715015285,"current_range_meters":31200,"station_id":"ce4bhbh2rcd13ifvqeqg","pricing_plan_id":"cebpf4jnsgd1na2vs0mg"},{"bike_id":"5d313068-eb43-46f4-aaec-664543bb2aa2","system_id":"levelo_inurba_marseille","lat":43.29226,"lon":5.36048,"is_reserved":false,"is_disabled":false,"rental_uris":{"android":"levelo://app?vid=5d313068-eb43-46f4-aaec-664543bb2aa2","ios":"levelo://app?vid=5d313068-eb43-46f4-aaec-664543bb2aa2"},"vehicle_type_id":"4","last_reported":1715015285,"current_range_meters":10000,"station_id":"ce4bhbh2rcd13ifvqeqg","pricing_plan_id":"cebpf4jnsgd1na2vs0mg"},{"bike_id":"bfef74f3-4e07-46c1-98cf-8c107ad551d7","system_id":"levelo_inurba_marseille","lat":43.292311,"lon":5.360731,"is_reserved":false,"is_disabled":false,"rental_uris":{"android":"levelo://app?vid=bfef74f3-4e07-46c1-98cf-8c107ad551d7","ios":"levelo://app?vid=bfef74f3-4e07-46c1-98cf-8c107ad551d7"},"vehicle_type_id":"4","last_reported":1715015285,"current_range_meters":28400,"station_id":"ce4bhbh2rcd13ifvqeqg","pricing_plan_id":"cebpf4jnsgd1na2vs0mg"},{"bike_id":"75035047-029e-4afe-8cd1-5b8e4049a5d8","system_id":"levelo_inurba_marseille","lat":43.292311,"lon":5.360731,"is_reserved":false,"is_disabled":false,"rental_uris":{"android":"levelo://app?vid=75035047-029e-4afe-8cd1-5b8e4049a5d8","ios":"levelo://app?vid=75035047-029e-4afe-8cd1-5b8e4049a5d8"},"vehicle_type_id":"4","last_reported":1715015285,"current_range_meters":400,"station_id":"ce4bhbh2rcd13ifvqeqg","pricing_plan_id":"cebpf4jnsgd1na2vs0mg"},{"bike_id":"31339513-5982-48c3-b622-bd84fc134d4c","system_id":"levelo_inurba_marseille","lat":43.300852,"lon":5.390859,"is_reserved":false,"is_disabled":false,"rental_uris":{"android":"levelo://app?vid=31339513-5982-48c3-b622-bd84fc134d4c","ios":"levelo://app?vid=31339513-5982-48c3-b622-bd84fc134d4c"},"vehicle_type_id":"4","last_reported":1715015285,"current_range_meters":16000,"station_id":"ce4bh192rcd13ifvqdb0","pricing_plan_id":"cebpf4jnsgd1na2vs0mg"},{"bike_id":"04cbe3db-d9e7-4e4a-a01a-44ccb908613f","system_id":"levelo_inurba_marseille","lat":43.292311,"lon":5.360731,"is_reserved":false,"is_disabled":false,"rental_uris":{"android":"levelo://app?vid=04cbe3db-d9e7-4e4a-a01a-44ccb908613f","ios":"levelo://app?vid=04cbe3db-d9e7-4e4a-a01a-44ccb908613f"},"vehicle_type_id":"4","last_reported":1715015285,"current_range_meters":11200,"station_id":"ce4bhbh2rcd13ifvqeqg","pricing_plan_id":"cebpf4jnsgd1na2vs0mg"},{"bike_id":"47db20fe-fe60-4f6a-adf8-014da77dbd3a","system_id":"levelo_inurba_marseille","lat":43.292181,"lon":5.360443,"is_reserved":false,"is_disabled":false,"rental_uris":{"android":"levelo://app?vid=47db20fe-fe60-4f6a-adf8-014da77dbd3a","ios":"levelo://app?vid=47db20fe-fe60-4f6a-adf8-014da77dbd3a"},"vehicle_type_id":"4","last_reported":1715015285,"current_range_meters":31200,"station_id":"ce4bhbh2rcd13ifvqeqg","pricing_plan_id":"cebpf4jnsgd1na2vs0mg"},{"bike_id":"3c5c7364-9d08-4338-bdbc-7b1009e948c6","system_id":"levelo_inurba_marseille","lat":43.300852,"lon":5.390859,"is_reserved":false,"is_disabled":false,"rental_uris":{"android":"levelo://app?vid=3c5c7364-9d08-4338-bdbc-7b1009e948c6","ios":"levelo://app?vid=3c5c7364-9d08-4338-bdbc-7b1009e948c6"},"vehicle_type_id":"4","last_reported":1715015285,"current_range_meters":27200,"station_id":"ce4bh192rcd13ifvqdb0","pricing_plan_id":"cebpf4jnsgd1na2vs0mg"},{"bike_id":"2dc0a162-ca8f-4d14-98f4-89bf2746ec0d","system_id":"levelo_inurba_marseille","lat":43.298764,"lon":5.388973,"is_reserved":false,"is_disabled":false,"rental_uris":{"android":"levelo://app?vid=2dc0a162-ca8f-4d14-98f4-89bf2746ec0d","ios":"levelo://app?vid=2dc0a162-ca8f-4d14-98f4-89bf2746ec0d"},"vehicle_type_id":"4","last_reported":1715015285,"current_range_meters":1600,"station_id":"ce4bh392rcd13ifvqdl0","pricing_plan_id":"cebpf4jnsgd1na2vs0mg"},{"bike_id":"7d384066-f7bf-4fcd-b6b9-840d017579dd","system_id":"levelo_inurba_marseille","lat":43.298764,"lon":5.388973,"is_reserved":false,"is_disabled":false,"rental_uris":{"android":"levelo://app?vid=7d384066-f7bf-4fcd-b6b9-840d017579dd","ios":"levelo://app?vid=7d384066-f7bf-4fcd-b6b9-840d017579dd"},"vehicle_type_id":"4","last_reported":1715015285,"current_range_meters":8400,"station_id":"ce4bh392rcd13ifvqdl0","pricing_plan_id":"cebpf4jnsgd1na2vs0mg"},{"bike_id":"681fe436-69a1-4276-aca3-3b821e66eb09","system_id":"levelo_inurba_marseille","lat":43.298764,"lon":5.388973,"is_reserved":false,"is_disabled":false,"rental_uris":{"android":"levelo://app?vid=681fe436-69a1-4276-aca3-3b821e66eb09","ios":"levelo://app?vid=681fe436-69a1-4276-aca3-3b821e66eb09"},"vehicle_type_id":"4","last_reported":1715015285,"current_range_meters":6000,"station_id":"ce4bh392rcd13ifvqdl0","pricing_plan_id":"cebpf4jnsgd1na2vs0mg"},{"bike_id":"b61e4127-87b7-491f-abc8-066e7f77dbe9","system_id":"levelo_inurba_marseille","lat":43.29176,"lon":5.37162,"is_reserved":false,"is_disabled":false,"rental_uris":{"android":"levelo://app?vid=b61e4127-87b7-491f-abc8-066e7f77dbe9","ios":"levelo://app?vid=b61e4127-87b7-491f-abc8-066e7f77dbe9"},"vehicle_type_id":"4","last_reported":1715015285,"current_range_meters":11600,"station_id":"ce4bha92rcd13ifvqeh0","pricing_plan_id":"cebpf4jnsgd1na2vs0mg"},{"bike_id":"bca779d8-fbd8-4700-82dc-c8b1182792c5","system_id":"levelo_inurba_marseille","lat":43.298764,"lon":5.388973,"is_reserved":false,"is_disabled":false,"rental_uris":{"android":"levelo://app?vid=bca779d8-fbd8-4700-82dc-c8b1182792c5","ios":"levelo://app?vid=bca779d8-fbd8-4700-82dc-c8b1182792c5"},"vehicle_type_id":"4","last_reported":1715015285,"current_range_meters":3200,"station_id":"ce4bh392rcd13ifvqdl0","pricing_plan_id":"cebpf4jnsgd1na2vs0mg"},{"bike_id":"e24dff82-443e-4e31-925b-774596138212","system_id":"levelo_inurba_marseille","lat":43.29866,"lon":5.38913,"is_reserved":false,"is_disabled":false,"rental_uris":{"android":"levelo://app?vid=e24dff82-443e-4e31-925b-774596138212","ios":"levelo://app?vid=e24dff82-443e-4e31-925b-774596138212"},"vehicle_type_id":"4","last_reported":1715015285,"current_range_meters":0,"station_id":"ce4bh392rcd13ifvqdl0","pricing_plan_id":"cebpf4jnsgd1na2vs0mg"},{"bike_id":"ccf6675d-bb4a-4fb0-bcef-56f6b74fb4d3","system_id":"levelo_inurba_marseille","lat":43.313291,"lon":5.396838,"is_reserved":false,"is_disabled":false,"rental_uris":{"android":"levelo://app?vid=ccf6675d-bb4a-4fb0-bcef-56f6b74fb4d3","ios":"levelo://app?vid=ccf6675d-bb4a-4fb0-bcef-56f6b74fb4d3"},"vehicle_type_id":"4","last_reported":1715015285,"current_range_meters":8000,"station_id":"ce4bgvp2rcd13ifvqcu0","pricing_plan_id":"cebpf4jnsgd1na2vs0mg"},{"bike_id":"50482dc7-7ec6-479d-9e43-594673de119f","system_id":"levelo_inurba_marseille","lat":43.309589,"lon":5.390258,"is_reserved":false,"is_disabled":false,"rental_uris":{"android":"levelo://app?vid=50482dc7-7ec6-479d-9e43-594673de119f","ios":"levelo://app?vid=50482dc7-7ec6-479d-9e43-594673de119f"},"vehicle_type_id":"4","last_reported":1715015285,"current_range_meters":4800,"station_id":"ce4bgup2rcd13ifvqco0","pricing_plan_id":"cebpf4jnsgd1na2vs0mg"},{"bike_id":"749e48ef-103b-4b07-a7bc-ca6f733fe6a1","system_id":"levelo_inurba_marseille","lat":43.291994,"lon":5.357886,"is_reserved":false,"is_disabled":false,"rental_uris":{"android":"levelo://app?vid=749e48ef-103b-4b07-a7bc-ca6f733fe6a1","ios":"levelo://app?vid=749e48ef-103b-4b07-a7bc-ca6f733fe6a1"},"vehicle_type_id":"4","last_reported":1715015285,"current_range_meters":14800,"station_id":"ce4bhb12rcd13ifvqel0","pricing_plan_id":"cebpf4jnsgd1na2vs0mg"},{"bike_id":"028caa65-cb1b-4ade-bb29-bd986bac900d","system_id":"levelo_inurba_marseille","lat":43.309038,"lon":5.396546,"is_reserved":false,"is_disabled":false,"rental_uris":{"android":"levelo://app?vid=028caa65-cb1b-4ade-bb29-bd986bac900d","ios":"levelo://app?vid=028caa65-cb1b-4ade-bb29-bd986bac900d"},"vehicle_type_id":"4","last_reported":1715015285,"current_range_meters":30800,"station_id":"ce4bh012rcd13ifvqcv0","pricing_plan_id":"cebpf4jnsgd1na2vs0mg"},{"bike_id":"2676e95a-8eec-46f9-8b55-e688146688da","system_id":"levelo_inurba_marseille","lat":43.313291,"lon":5.396838,"is_reserved":false,"is_disabled":false,"rental_uris":{"android":"levelo://app?vid=2676e95a-8eec-46f9-8b55-e688146688da","ios":"levelo://app?vid=2676e95a-8eec-46f9-8b55-e688146688da"},"vehicle_type_id":"4","last_reported":1715015285,"current_range_meters":4400,"station_id":"ce4bgvp2rcd13ifvqcu0","pricing_plan_id":"cebpf4jnsgd1na2vs0mg"},{"bike_id":"551ec022-fac7-4ae4-b64d-7eeb65b2ddd8","system_id":"levelo_inurba_marseille","lat":43.313291,"lon":5.396838,"is_reserved":false,"is_disabled":false,"rental_uris":{"android":"levelo://app?vid=551ec022-fac7-4ae4-b64d-7eeb65b2ddd8","ios":"levelo://app?vid=551ec022-fac7-4ae4-b64d-7eeb65b2ddd8"},"vehicle_type_id":"4","last_reported":1715015285,"current_range_meters":4000,"station_id":"ce4bgvp2rcd13ifvqcu0","pricing_plan_id":"cebpf4jnsgd1na2vs0mg"},{"bike_id":"ab2891e2-7880-45fc-9d08-20a37e136edd","system_id":"levelo_inurba_marseille","lat":43.313291,"lon":5.396838,"is_reserved":false,"is_disabled":false,"rental_uris":{"android":"levelo://app?vid=ab2891e2-7880-45fc-9d08-20a37e136edd","ios":"levelo://app?vid=ab2891e2-7880-45fc-9d08-20a37e136edd"},"vehicle_type_id":"4","last_reported":1715015285,"current_range_meters":22800,"station_id":"ce4bgvp2rcd13ifvqcu0","pricing_plan_id":"cebpf4jnsgd1na2vs0mg"},{"bike_id":"52270051-10c4-4f8c-8970-84bfd69b9ea3","system_id":"levelo_inurba_marseille","lat":43.313291,"lon":5.396838,"is_reserved":false,"is_disabled":false,"rental_uris":{"android":"levelo://app?vid=52270051-10c4-4f8c-8970-84bfd69b9ea3","ios":"levelo://app?vid=52270051-10c4-4f8c-8970-84bfd69b9ea3"},"vehicle_type_id":"4","last_reported":1715015285,"current_range_meters":24000,"station_id":"ce4bgvp2rcd13ifvqcu0","pricing_plan_id":"cebpf4jnsgd1na2vs0mg"},{"bike_id":"072bf8d8-9d17-4b9e-90dc-13dc1ea32581","system_id":"levelo_inurba_marseille","lat":43.313291,"lon":5.396838,"is_reserved":false,"is_disabled":false,"rental_uris":{"android":"levelo://app?vid=072bf8d8-9d17-4b9e-90dc-13dc1ea32581","ios":"levelo://app?vid=072bf8d8-9d17-4b9e-90dc-13dc1ea32581"},"vehicle_type_id":"4","last_reported":1715015285,"current_range_meters":20400,"station_id":"ce4bgvp2rcd13ifvqcu0","pricing_plan_id":"cebpf4jnsgd1na2vs0mg"},{"bike_id":"c6d24009-ec54-4b46-8604-016de76d2d9a","system_id":"levelo_inurba_marseille","lat":43.309047,"lon":5.396551,"is_reserved":false,"is_disabled":false,"rental_uris":{"android":"levelo://app?vid=c6d24009-ec54-4b46-8604-016de76d2d9a","ios":"levelo://app?vid=c6d24009-ec54-4b46-8604-016de76d2d9a"},"vehicle_type_id":"4","last_reported":1715015285,"current_range_meters":25200,"station_id":"ce4bh012rcd13ifvqcv0","pricing_plan_id":"cebpf4jnsgd1na2vs0mg"},{"bike_id":"3fde3bb1-4e88-454d-8590-103e267f147f","system_id":"levelo_inurba_marseille","lat":43.313291,"lon":5.396838,"is_reserved":false,"is_disabled":false,"rental_uris":{"android":"levelo://app?vid=3fde3bb1-4e88-454d-8590-103e267f147f","ios":"levelo://app?vid=3fde3bb1-4e88-454d-8590-103e267f147f"},"vehicle_type_id":"4","last_reported":1715015285,"current_range_meters":22800,"station_id":"ce4bgvp2rcd13ifvqcu0","pricing_plan_id":"cebpf4jnsgd1na2vs0mg"},{"bike_id":"01461a4a-1cef-4bb4-a369-f7b890aec521","system_id":"levelo_inurba_marseille","lat":43.313291,"lon":5.396838,"is_reserved":false,"is_disabled":false,"rental_uris":{"android":"levelo://app?vid=01461a4a-1cef-4bb4-a369-f7b890aec521","ios":"levelo://app?vid=01461a4a-1cef-4bb4-a369-f7b890aec521"},"vehicle_type_id":"4","last_reported":1715015285,"current_range_meters":18000,"station_id":"ce4bgvp2rcd13ifvqcu0","pricing_plan_id":"cebpf4jnsgd1na2vs0mg"},{"bike_id":"9c37ef9e-5dd0-4c38-a24d-b93d556e32ad","system_id":"levelo_inurba_marseille","lat":43.313291,"lon":5.396838,"is_reserved":false,"is_disabled":false,"rental_uris":{"android":"levelo://app?vid=9c37ef9e-5dd0-4c38-a24d-b93d556e32ad","ios":"levelo://app?vid=9c37ef9e-5dd0-4c38-a24d-b93d556e32ad"},"vehicle_type_id":"4","last_reported":1715015285,"current_range_meters":25200,"station_id":"ce4bgvp2rcd13ifvqcu0","pricing_plan_id":"cebpf4jnsgd1na2vs0mg"},{"bike_id":"96dae111-7599-4ea4-9f08-342312c15aa6","system_id":"levelo_inurba_marseille","lat":43.313291,"lon":5.396838,"is_reserved":false,"is_disabled":false,"rental_uris":{"android":"levelo://app?vid=96dae111-7599-4ea4-9f08-342312c15aa6","ios":"levelo://app?vid=96dae111-7599-4ea4-9f08-342312c15aa6"},"vehicle_type_id":"4","last_reported":1715015285,"current_range_meters":8000,"station_id":"ce4bgvp2rcd13ifvqcu0","pricing_plan_id":"cebpf4jnsgd1na2vs0mg"},{"bike_id":"66c8050d-1c8c-4193-9520-a82a0f0bccc3","system_id":"levelo_inurba_marseille","lat":43.313291,"lon":5.396838,"is_reserved":false,"is_disabled":false,"rental_uris":{"android":"levelo://app?vid=66c8050d-1c8c-4193-9520-a82a0f0bccc3","ios":"levelo://app?vid=66c8050d-1c8c-4193-9520-a82a0f0bccc3"},"vehicle_type_id":"4","last_reported":1715015285,"current_range_meters":22800,"station_id":"ce4bgvp2rcd13ifvqcu0","pricing_plan_id":"cebpf4jnsgd1na2vs0mg"},{"bike_id":"ea6b3796-6d6e-4fb0-9ff2-ca0f05a991e5","system_id":"levelo_inurba_marseille","lat":43.309038,"lon":5.396546,"is_reserved":false,"is_disabled":false,"rental_uris":{"android":"levelo://app?vid=ea6b3796-6d6e-4fb0-9ff2-ca0f05a991e5","ios":"levelo://app?vid=ea6b3796-6d6e-4fb0-9ff2-ca0f05a991e5"},"vehicle_type_id":"4","last_reported":1715015285,"current_range_meters":5200,"station_id":"ce4bh012rcd13ifvqcv0","pricing_plan_id":"cebpf4jnsgd1na2vs0mg"},{"bike_id":"af0f2049-839d-401b-8987-4019e8046f9b","system_id":"levelo_inurba_marseille","lat":43.313291,"lon":5.396838,"is_reserved":false,"is_disabled":false,"rental_uris":{"android":"levelo://app?vid=af0f2049-839d-401b-8987-4019e8046f9b","ios":"levelo://app?vid=af0f2049-839d-401b-8987-4019e8046f9b"},"vehicle_type_id":"4","last_reported":1715015285,"current_range_meters":27200,"station_id":"ce4bgvp2rcd13ifvqcu0","pricing_plan_id":"cebpf4jnsgd1na2vs0mg"},{"bike_id":"56f5e091-8ce4-43c5-b78b-a70c9c9f06f4","system_id":"levelo_inurba_marseille","lat":43.309038,"lon":5.396546,"is_reserved":false,"is_disabled":false,"rental_uris":{"android":"levelo://app?vid=56f5e091-8ce4-43c5-b78b-a70c9c9f06f4","ios":"levelo://app?vid=56f5e091-8ce4-43c5-b78b-a70c9c9f06f4"},"vehicle_type_id":"4","last_reported":1715015285,"current_range_meters":30000,"station_id":"ce4bh012rcd13ifvqcv0","pricing_plan_id":"cebpf4jnsgd1na2vs0mg"},{"bike_id":"f8c3a437-1ecd-4dec-854c-ea6512b2be5e","system_id":"levelo_inurba_marseille","lat":43.309047,"lon":5.396551,"is_reserved":false,"is_disabled":false,"rental_uris":{"android":"levelo://app?vid=f8c3a437-1ecd-4dec-854c-ea6512b2be5e","ios":"levelo://app?vid=f8c3a437-1ecd-4dec-854c-ea6512b2be5e"},"vehicle_type_id":"4","last_reported":1715015285,"current_range_meters":22000,"station_id":"ce4bh012rcd13ifvqcv0","pricing_plan_id":"cebpf4jnsgd1na2vs0mg"},{"bike_id":"80e50573-fc7c-443e-aed0-8e5df653c7e3","system_id":"levelo_inurba_marseille","lat":43.313144,"lon":5.396964,"is_reserved":false,"is_disabled":false,"rental_uris":{"android":"levelo://app?vid=80e50573-fc7c-443e-aed0-8e5df653c7e3","ios":"levelo://app?vid=80e50573-fc7c-443e-aed0-8e5df653c7e3"},"vehicle_type_id":"4","last_reported":1715015285,"current_range_meters":14000,"station_id":"ce4bgvp2rcd13ifvqcu0","pricing_plan_id":"cebpf4jnsgd1na2vs0mg"},{"bike_id":"e3bbfc75-9c5e-4b60-a64b-4192f35c3e65","system_id":"levelo_inurba_marseille","lat":43.313291,"lon":5.396838,"is_reserved":false,"is_disabled":false,"rental_uris":{"android":"levelo://app?vid=e3bbfc75-9c5e-4b60-a64b-4192f35c3e65","ios":"levelo://app?vid=e3bbfc75-9c5e-4b60-a64b-4192f35c3e65"},"vehicle_type_id":"4","last_reported":1715015285,"current_range_meters":15600,"station_id":"ce4bgvp2rcd13ifvqcu0","pricing_plan_id":"cebpf4jnsgd1na2vs0mg"},{"bike_id":"9a2ea2d5-4e56-4b89-a608-f2e0bee4b306","system_id":"levelo_inurba_marseille","lat":43.309038,"lon":5.396546,"is_reserved":false,"is_disabled":false,"rental_uris":{"android":"levelo://app?vid=9a2ea2d5-4e56-4b89-a608-f2e0bee4b306","ios":"levelo://app?vid=9a2ea2d5-4e56-4b89-a608-f2e0bee4b306"},"vehicle_type_id":"4","last_reported":1715015285,"current_range_meters":29200,"station_id":"ce4bh012rcd13ifvqcv0","pricing_plan_id":"cebpf4jnsgd1na2vs0mg"},{"bike_id":"78eef24f-dfd5-43bb-baad-b4ed5d5cd32e","system_id":"levelo_inurba_marseille","lat":43.309038,"lon":5.396546,"is_reserved":false,"is_disabled":false,"rental_uris":{"android":"levelo://app?vid=78eef24f-dfd5-43bb-baad-b4ed5d5cd32e","ios":"levelo://app?vid=78eef24f-dfd5-43bb-baad-b4ed5d5cd32e"},"vehicle_type_id":"4","last_reported":1715015285,"current_range_meters":22000,"station_id":"ce4bh012rcd13ifvqcv0","pricing_plan_id":"cebpf4jnsgd1na2vs0mg"},{"bike_id":"3f5168f5-b102-4b85-81d8-c4e655929b76","system_id":"levelo_inurba_marseille","lat":43.29182,"lon":5.35787,"is_reserved":false,"is_disabled":false,"rental_uris":{"android":"levelo://app?vid=3f5168f5-b102-4b85-81d8-c4e655929b76","ios":"levelo://app?vid=3f5168f5-b102-4b85-81d8-c4e655929b76"},"vehicle_type_id":"4","last_reported":1715015285,"current_range_meters":17600,"station_id":"ce4bhb12rcd13ifvqel0","pricing_plan_id":"cebpf4jnsgd1na2vs0mg"},{"bike_id":"d19c9d0a-0321-4cfd-9bb6-663ee495c09b","system_id":"levelo_inurba_marseille","lat":43.29529,"lon":5.385581,"is_reserved":false,"is_disabled":false,"rental_uris":{"android":"levelo://app?vid=d19c9d0a-0321-4cfd-9bb6-663ee495c09b","ios":"levelo://app?vid=d19c9d0a-0321-4cfd-9bb6-663ee495c09b"},"vehicle_type_id":"4","last_reported":1715015285,"current_range_meters":18800,"station_id":"ce4bgih2rcd13ifvqba0","pricing_plan_id":"cebpf4jnsgd1na2vs0mg"},{"bike_id":"be842c78-e932-4b22-b4e9-426a4b0f7ba2","system_id":"levelo_inurba_marseille","lat":43.29529,"lon":5.385581,"is_reserved":false,"is_disabled":false,"rental_uris":{"android":"levelo://app?vid=be842c78-e932-4b22-b4e9-426a4b0f7ba2","ios":"levelo://app?vid=be842c78-e932-4b22-b4e9-426a4b0f7ba2"},"vehicle_type_id":"4","last_reported":1715015285,"current_range_meters":4000,"station_id":"ce4bgih2rcd13ifvqba0","pricing_plan_id":"cebpf4jnsgd1na2vs0mg"},{"bike_id":"f69779a1-2b55-4e99-ae14-d221236a6ed4","system_id":"levelo_inurba_marseille","lat":43.313291,"lon":5.396838,"is_reserved":false,"is_disabled":false,"rental_uris":{"android":"levelo://app?vid=f69779a1-2b55-4e99-ae14-d221236a6ed4","ios":"levelo://app?vid=f69779a1-2b55-4e99-ae14-d221236a6ed4"},"vehicle_type_id":"4","last_reported":1715015285,"current_range_meters":18000,"station_id":"ce4bgvp2rcd13ifvqcu0","pricing_plan_id":"cebpf4jnsgd1na2vs0mg"},{"bike_id":"0df78f14-6dae-4e7d-871c-02e816dcd4a5","system_id":"levelo_inurba_marseille","lat":43.298764,"lon":5.388973,"is_reserved":false,"is_disabled":false,"rental_uris":{"android":"levelo://app?vid=0df78f14-6dae-4e7d-871c-02e816dcd4a5","ios":"levelo://app?vid=0df78f14-6dae-4e7d-871c-02e816dcd4a5"},"vehicle_type_id":"4","last_reported":1715015285,"current_range_meters":12800,"station_id":"ce4bh392rcd13ifvqdl0","pricing_plan_id":"cebpf4jnsgd1na2vs0mg"},{"bike_id":"ca7df000-452e-41ac-b3c1-12e930a53263","system_id":"levelo_inurba_marseille","lat":43.29529,"lon":5.385581,"is_reserved":false,"is_disabled":false,"rental_uris":{"android":"levelo://app?vid=ca7df000-452e-41ac-b3c1-12e930a53263","ios":"levelo://app?vid=ca7df000-452e-41ac-b3c1-12e930a53263"},"vehicle_type_id":"4","last_reported":1715015285,"current_range_meters":13200,"station_id":"ce4bgih2rcd13ifvqba0","pricing_plan_id":"cebpf4jnsgd1na2vs0mg"},{"bike_id":"ef14b8ab-6b48-487b-bc28-a300962c9f17","system_id":"levelo_inurba_marseille","lat":43.29529,"lon":5.385581,"is_reserved":false,"is_disabled":false,"rental_uris":{"android":"levelo://app?vid=ef14b8ab-6b48-487b-bc28-a300962c9f17","ios":"levelo://app?vid=ef14b8ab-6b48-487b-bc28-a300962c9f17"},"vehicle_type_id":"4","last_reported":1715015285,"current_range_meters":27600,"station_id":"ce4bgih2rcd13ifvqba0","pricing_plan_id":"cebpf4jnsgd1na2vs0mg"},{"bike_id":"2238a45d-b26c-4962-9e35-d6dfdc6c7873","system_id":"levelo_inurba_marseille","lat":43.290779,"lon":5.371482,"is_reserved":false,"is_disabled":false,"rental_uris":{"android":"levelo://app?vid=2238a45d-b26c-4962-9e35-d6dfdc6c7873","ios":"levelo://app?vid=2238a45d-b26c-4962-9e35-d6dfdc6c7873"},"vehicle_type_id":"4","last_reported":1715015285,"current_range_meters":18000,"station_id":"ce4bh5p2rcd13ifvqe4g","pricing_plan_id":"cebpf4jnsgd1na2vs0mg"},{"bike_id":"327557a8-037d-477e-acf5-cd5ac1f8017e","system_id":"levelo_inurba_marseille","lat":43.302008,"lon":5.394694,"is_reserved":false,"is_disabled":false,"rental_uris":{"android":"levelo://app?vid=327557a8-037d-477e-acf5-cd5ac1f8017e","ios":"levelo://app?vid=327557a8-037d-477e-acf5-cd5ac1f8017e"},"vehicle_type_id":"4","last_reported":1715015285,"current_range_meters":11200,"station_id":"ce4bh0p2rcd13ifvqd70","pricing_plan_id":"cebpf4jnsgd1na2vs0mg"},{"bike_id":"c106e1e6-61d1-4f14-9997-c467bdb03067","system_id":"levelo_inurba_marseille","lat":43.302008,"lon":5.394694,"is_reserved":false,"is_disabled":false,"rental_uris":{"android":"levelo://app?vid=c106e1e6-61d1-4f14-9997-c467bdb03067","ios":"levelo://app?vid=c106e1e6-61d1-4f14-9997-c467bdb03067"},"vehicle_type_id":"4","last_reported":1715015285,"current_range_meters":15600,"station_id":"ce4bh0p2rcd13ifvqd70","pricing_plan_id":"cebpf4jnsgd1na2vs0mg"},{"bike_id":"285f1da5-aa56-4ebc-84ab-67da961f3682","system_id":"levelo_inurba_marseille","lat":43.302008,"lon":5.394694,"is_reserved":false,"is_disabled":false,"rental_uris":{"android":"levelo://app?vid=285f1da5-aa56-4ebc-84ab-67da961f3682","ios":"levelo://app?vid=285f1da5-aa56-4ebc-84ab-67da961f3682"},"vehicle_type_id":"4","last_reported":1715015285,"current_range_meters":28800,"station_id":"ce4bh0p2rcd13ifvqd70","pricing_plan_id":"cebpf4jnsgd1na2vs0mg"},{"bike_id":"4357044d-a451-475e-b780-bca49198d47d","system_id":"levelo_inurba_marseille","lat":43.302008,"lon":5.394694,"is_reserved":false,"is_disabled":false,"rental_uris":{"android":"levelo://app?vid=4357044d-a451-475e-b780-bca49198d47d","ios":"levelo://app?vid=4357044d-a451-475e-b780-bca49198d47d"},"vehicle_type_id":"4","last_reported":1715015285,"current_range_meters":22400,"station_id":"ce4bh0p2rcd13ifvqd70","pricing_plan_id":"cebpf4jnsgd1na2vs0mg"},{"bike_id":"cd6fcfc9-a7a3-4931-a602-376fcc0c773b","system_id":"levelo_inurba_marseille","lat":43.294153,"lon":5.386305,"is_reserved":false,"is_disabled":false,"rental_uris":{"android":"levelo://app?vid=cd6fcfc9-a7a3-4931-a602-376fcc0c773b","ios":"levelo://app?vid=cd6fcfc9-a7a3-4931-a602-376fcc0c773b"},"vehicle_type_id":"4","last_reported":1715015285,"current_range_meters":4400,"station_id":"ce4bh2h2rcd13ifvqdh0","pricing_plan_id":"cebpf4jnsgd1na2vs0mg"},{"bike_id":"dc1bf858-7088-4e72-b00f-a1d04b9b6fd7","system_id":"levelo_inurba_marseille","lat":43.294162,"lon":5.386292,"is_reserved":false,"is_disabled":false,"rental_uris":{"android":"levelo://app?vid=dc1bf858-7088-4e72-b00f-a1d04b9b6fd7","ios":"levelo://app?vid=dc1bf858-7088-4e72-b00f-a1d04b9b6fd7"},"vehicle_type_id":"4","last_reported":1715015285,"current_range_meters":2000,"station_id":"ce4bh2h2rcd13ifvqdh0","pricing_plan_id":"cebpf4jnsgd1na2vs0mg"},{"bike_id":"c8eff949-8b2b-40cb-a5bf-4c74288334a6","system_id":"levelo_inurba_marseille","lat":43.292644,"lon":5.384257,"is_reserved":false,"is_disabled":false,"rental_uris":{"android":"levelo://app?vid=c8eff949-8b2b-40cb-a5bf-4c74288334a6","ios":"levelo://app?vid=c8eff949-8b2b-40cb-a5bf-4c74288334a6"},"vehicle_type_id":"4","last_reported":1715015285,"current_range_meters":17200,"station_id":"ce4bh692rcd13ifvqea0","pricing_plan_id":"cebpf4jnsgd1na2vs0mg"},{"bike_id":"d21111d9-7a9f-4aae-97d8-ba3c0a3ecfa8","system_id":"levelo_inurba_marseille","lat":43.290631,"lon":5.359244,"is_reserved":false,"is_disabled":false,"rental_uris":{"android":"levelo://app?vid=d21111d9-7a9f-4aae-97d8-ba3c0a3ecfa8","ios":"levelo://app?vid=d21111d9-7a9f-4aae-97d8-ba3c0a3ecfa8"},"vehicle_type_id":"4","last_reported":1715015285,"current_range_meters":21200,"station_id":"ce4bha92rcd13ifvqeg0","pricing_plan_id":"cebpf4jnsgd1na2vs0mg"},{"bike_id":"41149619-72ee-4d4b-9482-f0d8fe2b8324","system_id":"levelo_inurba_marseille","lat":43.290779,"lon":5.371482,"is_reserved":false,"is_disabled":false,"rental_uris":{"android":"levelo://app?vid=41149619-72ee-4d4b-9482-f0d8fe2b8324","ios":"levelo://app?vid=41149619-72ee-4d4b-9482-f0d8fe2b8324"},"vehicle_type_id":"4","last_reported":1715015285,"current_range_meters":25200,"station_id":"ce4bh5p2rcd13ifvqe4g","pricing_plan_id":"cebpf4jnsgd1na2vs0mg"},{"bike_id":"f6184742-0976-44a7-9456-5b7d17e12ad0","system_id":"levelo_inurba_marseille","lat":43.29422,"lon":5.386157,"is_reserved":false,"is_disabled":false,"rental_uris":{"android":"levelo://app?vid=f6184742-0976-44a7-9456-5b7d17e12ad0","ios":"levelo://app?vid=f6184742-0976-44a7-9456-5b7d17e12ad0"},"vehicle_type_id":"4","last_reported":1715015285,"current_range_meters":0,"station_id":"ce4bh2h2rcd13ifvqdh0","pricing_plan_id":"cebpf4jnsgd1na2vs0mg"},{"bike_id":"306318f6-1b5e-4742-a3a5-0a944829b09f","system_id":"levelo_inurba_marseille","lat":43.294162,"lon":5.386292,"is_reserved":false,"is_disabled":false,"rental_uris":{"android":"levelo://app?vid=306318f6-1b5e-4742-a3a5-0a944829b09f","ios":"levelo://app?vid=306318f6-1b5e-4742-a3a5-0a944829b09f"},"vehicle_type_id":"4","last_reported":1715015285,"current_range_meters":10800,"station_id":"ce4bh2h2rcd13ifvqdh0","pricing_plan_id":"cebpf4jnsgd1na2vs0mg"},{"bike_id":"5648b59c-190f-4898-bcc5-5f6a05fd5204","system_id":"levelo_inurba_marseille","lat":43.294153,"lon":5.386305,"is_reserved":false,"is_disabled":false,"rental_uris":{"android":"levelo://app?vid=5648b59c-190f-4898-bcc5-5f6a05fd5204","ios":"levelo://app?vid=5648b59c-190f-4898-bcc5-5f6a05fd5204"},"vehicle_type_id":"4","last_reported":1715015285,"current_range_meters":13600,"station_id":"ce4bh2h2rcd13ifvqdh0","pricing_plan_id":"cebpf4jnsgd1na2vs0mg"},{"bike_id":"f3992670-5d43-4a5e-ac08-3496999d2925","system_id":"levelo_inurba_marseille","lat":43.294153,"lon":5.386305,"is_reserved":false,"is_disabled":false,"rental_uris":{"android":"levelo://app?vid=f3992670-5d43-4a5e-ac08-3496999d2925","ios":"levelo://app?vid=f3992670-5d43-4a5e-ac08-3496999d2925"},"vehicle_type_id":"4","last_reported":1715015285,"current_range_meters":0,"station_id":"ce4bh2h2rcd13ifvqdh0","pricing_plan_id":"cebpf4jnsgd1na2vs0mg"},{"bike_id":"6fef99c2-c666-45af-9123-eca2db56c668","system_id":"levelo_inurba_marseille","lat":43.294162,"lon":5.386292,"is_reserved":false,"is_disabled":false,"rental_uris":{"android":"levelo://app?vid=6fef99c2-c666-45af-9123-eca2db56c668","ios":"levelo://app?vid=6fef99c2-c666-45af-9123-eca2db56c668"},"vehicle_type_id":"4","last_reported":1715015285,"current_range_meters":20400,"station_id":"ce4bh2h2rcd13ifvqdh0","pricing_plan_id":"cebpf4jnsgd1na2vs0mg"},{"bike_id":"c1e13237-3a99-4fba-8ab5-0e8de47f609e","system_id":"levelo_inurba_marseille","lat":43.294162,"lon":5.386292,"is_reserved":false,"is_disabled":false,"rental_uris":{"android":"levelo://app?vid=c1e13237-3a99-4fba-8ab5-0e8de47f609e","ios":"levelo://app?vid=c1e13237-3a99-4fba-8ab5-0e8de47f609e"},"vehicle_type_id":"4","last_reported":1715015285,"current_range_meters":22000,"station_id":"ce4bh2h2rcd13ifvqdh0","pricing_plan_id":"cebpf4jnsgd1na2vs0mg"},{"bike_id":"7918bc89-f6c3-4c18-831b-ea2adf49de03","system_id":"levelo_inurba_marseille","lat":43.294162,"lon":5.386292,"is_reserved":false,"is_disabled":false,"rental_uris":{"android":"levelo://app?vid=7918bc89-f6c3-4c18-831b-ea2adf49de03","ios":"levelo://app?vid=7918bc89-f6c3-4c18-831b-ea2adf49de03"},"vehicle_type_id":"4","last_reported":1715015285,"current_range_meters":15200,"station_id":"ce4bh2h2rcd13ifvqdh0","pricing_plan_id":"cebpf4jnsgd1na2vs0mg"},{"bike_id":"dd5c4688-1a6e-4dae-bfaa-7fb49efd0f98","system_id":"levelo_inurba_marseille","lat":43.294162,"lon":5.386292,"is_reserved":false,"is_disabled":false,"rental_uris":{"android":"levelo://app?vid=dd5c4688-1a6e-4dae-bfaa-7fb49efd0f98","ios":"levelo://app?vid=dd5c4688-1a6e-4dae-bfaa-7fb49efd0f98"},"vehicle_type_id":"4","last_reported":1715015285,"current_range_meters":1200,"station_id":"ce4bh2h2rcd13ifvqdh0","pricing_plan_id":"cebpf4jnsgd1na2vs0mg"},{"bike_id":"f248878d-08eb-445d-9304-0d5412cb891d","system_id":"levelo_inurba_marseille","lat":43.294162,"lon":5.386292,"is_reserved":false,"is_disabled":false,"rental_uris":{"android":"levelo://app?vid=f248878d-08eb-445d-9304-0d5412cb891d","ios":"levelo://app?vid=f248878d-08eb-445d-9304-0d5412cb891d"},"vehicle_type_id":"4","last_reported":1715015285,"current_range_meters":11600,"station_id":"ce4bh2h2rcd13ifvqdh0","pricing_plan_id":"cebpf4jnsgd1na2vs0mg"},{"bike_id":"e3cf1edd-1d85-4d7e-a1eb-b4d0166aba0b","system_id":"levelo_inurba_marseille","lat":43.28856,"lon":5.358371,"is_reserved":false,"is_disabled":false,"rental_uris":{"android":"levelo://app?vid=e3cf1edd-1d85-4d7e-a1eb-b4d0166aba0b","ios":"levelo://app?vid=e3cf1edd-1d85-4d7e-a1eb-b4d0166aba0b"},"vehicle_type_id":"4","last_reported":1715015285,"current_range_meters":29600,"station_id":"ce4bhb12rcd13ifvqem0","pricing_plan_id":"cebpf4jnsgd1na2vs0mg"},{"bike_id":"50be6fb1-204a-4560-804e-b47b3c1b823a","system_id":"levelo_inurba_marseille","lat":43.294162,"lon":5.386292,"is_reserved":false,"is_disabled":false,"rental_uris":{"android":"levelo://app?vid=50be6fb1-204a-4560-804e-b47b3c1b823a","ios":"levelo://app?vid=50be6fb1-204a-4560-804e-b47b3c1b823a"},"vehicle_type_id":"4","last_reported":1715015285,"current_range_meters":800,"station_id":"ce4bh2h2rcd13ifvqdh0","pricing_plan_id":"cebpf4jnsgd1na2vs0mg"},{"bike_id":"4c1ae0b4-5a86-4bad-981e-b53a182820f5","system_id":"levelo_inurba_marseille","lat":43.289468,"lon":5.363719,"is_reserved":false,"is_disabled":false,"rental_uris":{"android":"levelo://app?vid=4c1ae0b4-5a86-4bad-981e-b53a182820f5","ios":"levelo://app?vid=4c1ae0b4-5a86-4bad-981e-b53a182820f5"},