{"last_updated":1743488131,"ttl":60,"version":"2.2","data":{"bikes":[{"bike_id":"7a16227c-8b85-46e8-a87c-8349c4711248","system_id":"levelo_inurba_marseille","lat":43.28126,"lon":5.44588,"is_reserved":false,"is_disabled":true,"rental_uris":{"android":"levelo://app?vid=7a16227c-8b85-46e8-a87c-8349c4711248","ios":"levelo://app?vid=7a16227c-8b85-46e8-a87c-8349c4711248"},"vehicle_type_id":"4","last_reported":1743488132,"current_range_meters":0,"station_id":"","pricing_plan_id":"cebpf4jnsgd1na2vs0mg"},{"bike_id":"f28a2132-9d11-411c-a599-c4352a550e43","system_id":"levelo_inurba_marseille","lat":43.249,"lon":5.3938,"is_reserved":false,"is_disabled":true,"rental_uris":{"android":"levelo://app?vid=f28a2132-9d11-411c-a599-c4352a550e43","ios":"levelo://app?vid=f28a2132-9d11-411c-a599-c4352a550e43"},"vehicle_type_id":"4","last_reported":1743488132,"current_range_meters":0,"station_id":"","pricing_plan_id":"cebpf4jnsgd1na2vs0mg"},{"bike_id":"524c0a99-e50a-4944-b98a-364c85fd198c","system_id":"levelo_inurba_marseille","lat":43.28625,"lon":5.44361,"is_reserved":false,"is_disabled":true,"rental_uris":{"android":"levelo://app?vid=524c0a99-e50a-4944-b98a-364c85fd198c","ios":"levelo://app?vid=524c0a99-e50a-4944-b98a-364c85fd198c"},"vehicle_type_id":"4","last_reported":1743488132,"current_range_meters":0,"station_id":"","pricing_plan_id":"cebpf4jnsgd1na2vs0mg"},{"bike_id":"646b4b6f-1ba9-4554-b1a7-e4dc009abba1","system_id":"levelo_inurba_marseille","lat":43.29095,"lon":5.42784,"is_reserved":false,"is_disabled":true,"rental_uris":{"android":"levelo://app?vid=646b4b6f-1ba9-4554-b1a7-e4dc009abba1","ios":"levelo://app?vid=646b4b6f-1ba9-4554-b1a7-e4dc009abba1"},"vehicle_type_id":"4","last_reported":1743488132,"current_range_meters":0,"station_id":"","pricing_plan_id":"cebpf4jnsgd1na2vs0mg"},{"bike_id":"579b8b66-6a37-4f4c-ad3b-0acee14f6d2d","system_id":"levelo_inurba_marseille","lat":43.29507,"lon":5.44267,"is_reserved":false,"is_disabled":true,"rental_uris":{"android":"levelo://app?vid=579b8b66-6a37-4f4c-ad3b-0acee14f6d2d","ios":"levelo://app?vid=579b8b66-6a37-4f4c-ad3b-0acee14f6d2d"},"vehicle_type_id":"4","last_reported":1743488132,"current_range_meters":0,"station_id":"","pricing_plan_id":"cebpf4jnsgd1na2vs0mg"},{"bike_id":"e4023b76-3b3e-4e0a-83d8-f1f2c86a9a1a","system_id":"levelo_inurba_marseille","lat":43.26018,"lon":5.3862,"is_reserved":false,"is_disabled":true,"rental_uris":{"android":"levelo://app?vid=e4023b76-3b3e-4e0a-83d8-f1f2c86a9a1a","ios":"levelo://app?vid=e4023b76-3b3e-4e0a-83d8-f1f2c86a9a1a"},"vehicle_type_id":"4","last_reported":1743488132,"current_range_meters":0,"station_id":"","pricing_plan_id":"cebpf4jnsgd1na2vs0mg"},{"bike_id":"d34b543c-c92a-4d83-8484-c2d5fe30d198","system_id":"levelo_inurba_marseille","lat":43.22175,"lon":5.34578,"is_reserved":false,"is_disabled":true,"rental_uris":{"android":"levelo://app?vid=d34b543c-c92a-4d83-8484-c2d5fe30d198","ios":"levelo://app?vid=d34b543c-c92a-4d83-8484-c2d5fe30d198"},"vehicle_type_id":"4","last_reported":1743488132,"current_range_meters":0,"station_id":"","pricing_plan_id":"cebpf4jnsgd1na2vs0mg"},{"bike_id":"92afdbcf-6ec7-4b66-bca9-8d842f5bbee7","system_id":"levelo_inurba_marseille","lat":43.28199,"lon":5.42938,"is_reserved":false,"is_disabled":true,"rental_uris":{"android":"levelo://app?vid=92afdbcf-6ec7-4b66-bca9-8d842f5bbee7","ios":"levelo://app?vid=92afdbcf-6ec7-4b66-bca9-8d842f5bbee7"},"vehicle_type_id":"4","last_reported":1743488132,"current_range_meters":0,"station_id":"","pricing_plan_id":"cebpf4jnsgd1na2vs0mg"},{"bike_id":"04d84667-80d2-430a-a2ab-b0adb0b8c9ad","system_id":"levelo_inurba_marseille","lat":43.337444,"lon":5.374475,"is_reserved":false,"is_disabled":true,"rental_uris":{"android":"levelo://app?vid=04d84667-80d2-430a-a2ab-b0adb0b8c9ad","ios":"levelo://app?vid=04d84667-80d2-430a-a2ab-b0adb0b8c9ad"},"vehicle_type_id":"4","last_reported":1743488132,"current_range_meters":0,"station_id":"","pricing_plan_id":"cebpf4jnsgd1na2vs0mg"},{"bike_id":"54ddccb5-3e82-4e09-ad9d-1f88cce9f960","system_id":"levelo_inurba_marseille","lat":43.329889,"lon":5.438682,"is_reserved":false,"is_disabled":true,"rental_uris":{"android":"levelo://app?vid=54ddccb5-3e82-4e09-ad9d-1f88cce9f960","ios":"levelo://app?vid=54ddccb5-3e82-4e09-ad9d-1f88cce9f960"},"vehicle_type_id":"4","last_reported":1743488132,"current_range_meters":0,"station_id":"","pricing_plan_id":"cebpf4jnsgd1na2vs0mg"},{"bike_id":"288bb5a4-8592-4715-9f1c-af47147cb3c6","system_id":"levelo_inurba_marseille","lat":43.26151,"lon":5.41629,"is_reserved":false,"is_disabled":true,"rental_uris":{"android":"levelo://app?vid=288bb5a4-8592-4715-9f1c-af47147cb3c6","ios":"levelo://app?vid=288bb5a4-8592-4715-9f1c-af47147cb3c6"},"vehicle_type_id":"4","last_reported":1743488132,"current_range_meters":0,"station_id":"","pricing_plan_id":"cebpf4jnsgd1na2vs0mg"},{"bike_id":"768402df-2eec-4a58-b853-c3bea924647b","system_id":"levelo_inurba_marseille","lat":43.30138,"lon":5.38073,"is_reserved":false,"is_disabled":true,"rental_uris":{"android":"levelo://app?vid=768402df-2eec-4a58-b853-c3bea924647b","ios":"levelo://app?vid=768402df-2eec-4a58-b853-c3bea924647b"},"vehicle_type_id":"4","last_reported":1743488132,"current_range_meters":0,"station_id":"ce4bgjp2rcd13ifvqbh0","pricing_plan_id":"cebpf4jnsgd1na2vs0mg"},{"bike_id":"08a0718a-89b6-4457-81b9-4b3ca9676fad","system_id":"levelo_inurba_marseille","lat":43.302388,"lon":5.400655,"is_reserved":false,"is_disabled":true,"rental_uris":{"android":"levelo://app?vid=08a0718a-89b6-4457-81b9-4b3ca9676fad","ios":"levelo://app?vid=08a0718a-89b6-4457-81b9-4b3ca9676fad"},"vehicle_type_id":"4","last_reported":1743488132,"current_range_meters":0,"station_id":"ce4bgvh2rcd13ifvqcs0","pricing_plan_id":"cebpf4jnsgd1na2vs0mg"},{"bike_id":"2f11266e-421f-4291-86a1-dc7010c4ae42","system_id":"levelo_inurba_marseille","lat":43.24408,"lon":5.37035,"is_reserved":false,"is_disabled":true,"rental_uris":{"android":"levelo://app?vid=2f11266e-421f-4291-86a1-dc7010c4ae42","ios":"levelo://app?vid=2f11266e-421f-4291-86a1-dc7010c4ae42"},"vehicle_type_id":"4","last_reported":1743488132,"current_range_meters":0,"station_id":"ce4bhhh2rcd13ifvqfk0","pricing_plan_id":"cebpf4jnsgd1na2vs0mg"},{"bike_id":"f736fe1a-79c9-405d-b7a7-f2e2b023a564","system_id":"levelo_inurba_marseille","lat":43.30383,"lon":5.39706,"is_reserved":false,"is_disabled":true,"rental_uris":{"android":"levelo://app?vid=f736fe1a-79c9-405d-b7a7-f2e2b023a564","ios":"levelo://app?vid=f736fe1a-79c9-405d-b7a7-f2e2b023a564"},"vehicle_type_id":"4","last_reported":1743488132,"current_range_meters":400,"station_id":"","pricing_plan_id":"cebpf4jnsgd1na2vs0mg"},{"bike_id":"00a84490-d2d3-4093-baf0-daac35db5772","system_id":"levelo_inurba_marseille","lat":43.33775,"lon":5.37435,"is_reserved":false,"is_disabled":true,"rental_uris":{"android":"levelo://app?vid=00a84490-d2d3-4093-baf0-daac35db5772","ios":"levelo://app?vid=00a84490-d2d3-4093-baf0-daac35db5772"},"vehicle_type_id":"4","last_reported":1743488132,"current_range_meters":400,"station_id":"","pricing_plan_id":"cebpf4jnsgd1na2vs0mg"},{"bike_id":"ba73c977-31cc-4246-8952-937ef451a08f","system_id":"levelo_inurba_marseille","lat":43.26552,"lon":5.37285,"is_reserved":false,"is_disabled":true,"rental_uris":{"android":"levelo://app?vid=ba73c977-31cc-4246-8952-937ef451a08f","ios":"levelo://app?vid=ba73c977-31cc-4246-8952-937ef451a08f"},"vehicle_type_id":"4","last_reported":1743488132,"current_range_meters":400,"station_id":"ce4bhg12rcd13ifvqf70","pricing_plan_id":"cebpf4jnsgd1na2vs0mg"},{"bike_id":"384b53be-0dd1-4ff6-96b3-76e22c52ec3c","system_id":"levelo_inurba_marseille","lat":43.276608,"lon":5.418816,"is_reserved":false,"is_disabled":true,"rental_uris":{"android":"levelo://app?vid=384b53be-0dd1-4ff6-96b3-76e22c52ec3c","ios":"levelo://app?vid=384b53be-0dd1-4ff6-96b3-76e22c52ec3c"},"vehicle_type_id":"4","last_reported":1743488132,"current_range_meters":800,"station_id":"","pricing_plan_id":"cebpf4jnsgd1na2vs0mg"},{"bike_id":"d080a9e2-041c-495e-a514-1575a7dff2d4","system_id":"levelo_inurba_marseille","lat":43.28346,"lon":5.38113,"is_reserved":false,"is_disabled":true,"rental_uris":{"android":"levelo://app?vid=d080a9e2-041c-495e-a514-1575a7dff2d4","ios":"levelo://app?vid=d080a9e2-041c-495e-a514-1575a7dff2d4"},"vehicle_type_id":"4","last_reported":1743488132,"current_range_meters":800,"station_id":"ce4bh412rcd13ifvqdr0","pricing_plan_id":"cebpf4jnsgd1na2vs0mg"},{"bike_id":"2c32f01a-ee94-4e6e-ba90-0f41c5a42305","system_id":"levelo_inurba_marseille","lat":43.274949,"lon":5.424522,"is_reserved":false,"is_disabled":true,"rental_uris":{"android":"levelo://app?vid=2c32f01a-ee94-4e6e-ba90-0f41c5a42305","ios":"levelo://app?vid=2c32f01a-ee94-4e6e-ba90-0f41c5a42305"},"vehicle_type_id":"4","last_reported":1743488132,"current_range_meters":800,"station_id":"ce4bhn92rcd13ifvqgrg","pricing_plan_id":"cebpf4jnsgd1na2vs0mg"},{"bike_id":"243a212c-eb68-4aeb-bbe3-6f41328fcc23","system_id":"levelo_inurba_marseille","lat":43.33776,"lon":5.37442,"is_reserved":false,"is_disabled":true,"rental_uris":{"android":"levelo://app?vid=243a212c-eb68-4aeb-bbe3-6f41328fcc23","ios":"levelo://app?vid=243a212c-eb68-4aeb-bbe3-6f41328fcc23"},"vehicle_type_id":"4","last_reported":1743488132,"current_range_meters":1200,"station_id":"","pricing_plan_id":"cebpf4jnsgd1na2vs0mg"},{"bike_id":"08a42726-8997-4205-9d7c-ebd8bb8e0fac","system_id":"levelo_inurba_marseille","lat":43.30521,"lon":5.38443,"is_reserved":false,"is_disabled":true,"rental_uris":{"android":"levelo://app?vid=08a42726-8997-4205-9d7c-ebd8bb8e0fac","ios":"levelo://app?vid=08a42726-8997-4205-9d7c-ebd8bb8e0fac"},"vehicle_type_id":"4","last_reported":1743488132,"current_range_meters":1200,"station_id":"ce4bgg92rcd13ifvqb30","pricing_plan_id":"cebpf4jnsgd1na2vs0mg"},{"bike_id":"bdd649e2-90db-488c-a3e2-30cbd8ac60ec","system_id":"levelo_inurba_marseille","lat":43.30112,"lon":5.3825,"is_reserved":false,"is_disabled":true,"rental_uris":{"android":"levelo://app?vid=bdd649e2-90db-488c-a3e2-30cbd8ac60ec","ios":"levelo://app?vid=bdd649e2-90db-488c-a3e2-30cbd8ac60ec"},"vehicle_type_id":"4","last_reported":1743488132,"current_range_meters":1200,"station_id":"ce4bgup2rcd13ifvqcn0","pricing_plan_id":"cebpf4jnsgd1na2vs0mg"},{"bike_id":"cc887f71-f6a5-47e6-b197-188e9270f7fa","system_id":"levelo_inurba_marseille","lat":43.2408,"lon":5.37753,"is_reserved":false,"is_disabled":true,"rental_uris":{"android":"levelo://app?vid=cc887f71-f6a5-47e6-b197-188e9270f7fa","ios":"levelo://app?vid=cc887f71-f6a5-47e6-b197-188e9270f7fa"},"vehicle_type_id":"4","last_reported":1743488132,"current_range_meters":1200,"station_id":"ce4bhnp2rcd13ifvqgvg","pricing_plan_id":"cebpf4jnsgd1na2vs0mg"},{"bike_id":"d92b8826-b361-41f5-be3a-b865a89cd81d","system_id":"levelo_inurba_marseille","lat":43.304719,"lon":5.367401,"is_reserved":false,"is_disabled":true,"rental_uris":{"android":"levelo://app?vid=d92b8826-b361-41f5-be3a-b865a89cd81d","ios":"levelo://app?vid=d92b8826-b361-41f5-be3a-b865a89cd81d"},"vehicle_type_id":"4","last_reported":1743488132,"current_range_meters":1600,"station_id":"","pricing_plan_id":"cebpf4jnsgd1na2vs0mg"},{"bike_id":"3b8b5fcf-ba11-4a94-a416-2c8fbad336ed","system_id":"levelo_inurba_marseille","lat":43.29874,"lon":5.38923,"is_reserved":false,"is_disabled":true,"rental_uris":{"android":"levelo://app?vid=3b8b5fcf-ba11-4a94-a416-2c8fbad336ed","ios":"levelo://app?vid=3b8b5fcf-ba11-4a94-a416-2c8fbad336ed"},"vehicle_type_id":"4","last_reported":1743488132,"current_range_meters":1600,"station_id":"ce4bh392rcd13ifvqdl0","pricing_plan_id":"cebpf4jnsgd1na2vs0mg"},{"bike_id":"60f2c1d0-6f74-4669-9e8b-65b7793536c4","system_id":"levelo_inurba_marseille","lat":43.26539,"lon":5.37338,"is_reserved":false,"is_disabled":true,"rental_uris":{"android":"levelo://app?vid=60f2c1d0-6f74-4669-9e8b-65b7793536c4","ios":"levelo://app?vid=60f2c1d0-6f74-4669-9e8b-65b7793536c4"},"vehicle_type_id":"4","last_reported":1743488132,"current_range_meters":1600,"station_id":"ce4bhg12rcd13ifvqf70","pricing_plan_id":"cebpf4jnsgd1na2vs0mg"},{"bike_id":"a25e50f5-4ee9-468c-b542-0833324479ff","system_id":"levelo_inurba_marseille","lat":43.27484,"lon":5.42456,"is_reserved":false,"is_disabled":true,"rental_uris":{"android":"levelo://app?vid=a25e50f5-4ee9-468c-b542-0833324479ff","ios":"levelo://app?vid=a25e50f5-4ee9-468c-b542-0833324479ff"},"vehicle_type_id":"4","last_reported":1743488132,"current_range_meters":1600,"station_id":"ce4bhn92rcd13ifvqgrg","pricing_plan_id":"cebpf4jnsgd1na2vs0mg"},{"bike_id":"b59d34a6-f9ee-42bf-b24e-a53eafb499a5","system_id":"levelo_inurba_marseille","lat":43.26803,"lon":5.40266,"is_reserved":false,"is_disabled":true,"rental_uris":{"android":"levelo://app?vid=b59d34a6-f9ee-42bf-b24e-a53eafb499a5","ios":"levelo://app?vid=b59d34a6-f9ee-42bf-b24e-a53eafb499a5"},"vehicle_type_id":"4","last_reported":1743488132,"current_range_meters":1600,"station_id":"ce501612rcd8frsf0b60","pricing_plan_id":"cebpf4jnsgd1na2vs0mg"},{"bike_id":"61800617-b95c-4c3f-bd70-503c4fd1b3d8","system_id":"levelo_inurba_marseille","lat":43.240764,"lon":5.377581,"is_reserved":false,"is_disabled":true,"rental_uris":{"android":"levelo://app?vid=61800617-b95c-4c3f-bd70-503c4fd1b3d8","ios":"levelo://app?vid=61800617-b95c-4c3f-bd70-503c4fd1b3d8"},"vehicle_type_id":"4","last_reported":1743488132,"current_range_meters":2000,"station_id":"ce4bhnp2rcd13ifvqgvg","pricing_plan_id":"cebpf4jnsgd1na2vs0mg"},{"bike_id":"56539414-9d2e-42ce-8f9a-64675f5255e9","system_id":"levelo_inurba_marseille","lat":43.29144,"lon":5.40247,"is_reserved":false,"is_disabled":false,"rental_uris":{"android":"levelo://app?vid=56539414-9d2e-42ce-8f9a-64675f5255e9","ios":"levelo://app?vid=56539414-9d2e-42ce-8f9a-64675f5255e9"},"vehicle_type_id":"4","last_reported":1743488132,"current_range_meters":3200,"station_id":"","pricing_plan_id":"cebpf4jnsgd1na2vs0mg"},{"bike_id":"0909e6e7-119a-43a8-b285-33eb860b8051","system_id":"levelo_inurba_marseille","lat":43.30254,"lon":5.40075,"is_reserved":false,"is_disabled":false,"rental_uris":{"android":"levelo://app?vid=0909e6e7-119a-43a8-b285-33eb860b8051","ios":"levelo://app?vid=0909e6e7-119a-43a8-b285-33eb860b8051"},"vehicle_type_id":"4","last_reported":1743488132,"current_range_meters":3200,"station_id":"ce4bgvh2rcd13ifvqcs0","pricing_plan_id":"cebpf4jnsgd1na2vs0mg"},{"bike_id":"e1c2e27d-9122-4c19-8269-7d0af48e0063","system_id":"levelo_inurba_marseille","lat":43.30419,"lon":5.39752,"is_reserved":false,"is_disabled":false,"rental_uris":{"android":"levelo://app?vid=e1c2e27d-9122-4c19-8269-7d0af48e0063","ios":"levelo://app?vid=e1c2e27d-9122-4c19-8269-7d0af48e0063"},"vehicle_type_id":"4","last_reported":1743488132,"current_range_meters":3200,"station_id":"ce4bh092rcd13ifvqd20","pricing_plan_id":"cebpf4jnsgd1na2vs0mg"},{"bike_id":"05598630-d7af-4e11-b473-8f937e6c0076","system_id":"levelo_inurba_marseille","lat":43.2621,"lon":5.3744,"is_reserved":false,"is_disabled":false,"rental_uris":{"android":"levelo://app?vid=05598630-d7af-4e11-b473-8f937e6c0076","ios":"levelo://app?vid=05598630-d7af-4e11-b473-8f937e6c0076"},"vehicle_type_id":"4","last_reported":1743488132,"current_range_meters":3200,"station_id":"ce4bhgp2rcd13ifvqfc0","pricing_plan_id":"cebpf4jnsgd1na2vs0mg"},{"bike_id":"5b7ee7f3-9dfe-4916-805f-3377042829b0","system_id":"levelo_inurba_marseille","lat":43.300908,"lon":5.390746,"is_reserved":false,"is_disabled":false,"rental_uris":{"android":"levelo://app?vid=5b7ee7f3-9dfe-4916-805f-3377042829b0","ios":"levelo://app?vid=5b7ee7f3-9dfe-4916-805f-3377042829b0"},"vehicle_type_id":"4","last_reported":1743488132,"current_range_meters":3600,"station_id":"","pricing_plan_id":"cebpf4jnsgd1na2vs0mg"},{"bike_id":"9dd36c54-fe51-419c-815c-293264e83659","system_id":"levelo_inurba_marseille","lat":43.26239,"lon":5.404499,"is_reserved":false,"is_disabled":false,"rental_uris":{"android":"levelo://app?vid=9dd36c54-fe51-419c-815c-293264e83659","ios":"levelo://app?vid=9dd36c54-fe51-419c-815c-293264e83659"},"vehicle_type_id":"4","last_reported":1743488132,"current_range_meters":3600,"station_id":"ce4bhmh2rcd13ifvqgmg","pricing_plan_id":"cebpf4jnsgd1na2vs0mg"},{"bike_id":"33c55660-0541-469b-a476-383fff04337f","system_id":"levelo_inurba_marseille","lat":43.22931,"lon":5.35376,"is_reserved":false,"is_disabled":false,"rental_uris":{"android":"levelo://app?vid=33c55660-0541-469b-a476-383fff04337f","ios":"levelo://app?vid=33c55660-0541-469b-a476-383fff04337f"},"vehicle_type_id":"4","last_reported":1743488132,"current_range_meters":3600,"station_id":"cpo3532slgdg3j2ikp40","pricing_plan_id":"cebpf4jnsgd1na2vs0mg"},{"bike_id":"deb3d6fe-ad0a-4a2c-8dad-a1a3b606d3f1","system_id":"levelo_inurba_marseille","lat":43.270629,"lon":5.402606,"is_reserved":false,"is_disabled":false,"rental_uris":{"android":"levelo://app?vid=deb3d6fe-ad0a-4a2c-8dad-a1a3b606d3f1","ios":"levelo://app?vid=deb3d6fe-ad0a-4a2c-8dad-a1a3b606d3f1"},"vehicle_type_id":"4","last_reported":1743488132,"current_range_meters":4000,"station_id":"ce4bhk92rcd13ifvqgc0","pricing_plan_id":"cebpf4jnsgd1na2vs0mg"},{"bike_id":"b3593ea0-f10f-4d2d-8fd4-ca8847ced39c","system_id":"levelo_inurba_marseille","lat":43.33605,"lon":5.41033,"is_reserved":false,"is_disabled":false,"rental_uris":{"android":"levelo://app?vid=b3593ea0-f10f-4d2d-8fd4-ca8847ced39c","ios":"levelo://app?vid=b3593ea0-f10f-4d2d-8fd4-ca8847ced39c"},"vehicle_type_id":"4","last_reported":1743488132,"current_range_meters":4000,"station_id":"ce4bhqh2rcd13ifvqhmg","pricing_plan_id":"cebpf4jnsgd1na2vs0mg"},{"bike_id":"8dc0b004-47b3-49ed-b4ab-0f96abdb6651","system_id":"levelo_inurba_marseille","lat":43.24079,"lon":5.37753,"is_reserved":false,"is_disabled":false,"rental_uris":{"android":"levelo://app?vid=8dc0b004-47b3-49ed-b4ab-0f96abdb6651","ios":"levelo://app?vid=8dc0b004-47b3-49ed-b4ab-0f96abdb6651"},"vehicle_type_id":"4","last_reported":1743488132,"current_range_meters":4400,"station_id":"ce4bhnp2rcd13ifvqgvg","pricing_plan_id":"cebpf4jnsgd1na2vs0mg"},{"bike_id":"90bfb00c-2348-4c7e-b3c5-9260bfda1295","system_id":"levelo_inurba_marseille","lat":43.30913,"lon":5.36848,"is_reserved":false,"is_disabled":false,"rental_uris":{"android":"levelo://app?vid=90bfb00c-2348-4c7e-b3c5-9260bfda1295","ios":"levelo://app?vid=90bfb00c-2348-4c7e-b3c5-9260bfda1295"},"vehicle_type_id":"4","last_reported":1743488132,"current_range_meters":4800,"station_id":"ce4bgn92rcd13ifvqbvg","pricing_plan_id":"cebpf4jnsgd1na2vs0mg"},{"bike_id":"7aef8a03-ad16-4a0d-9b50-9756042dcbe1","system_id":"levelo_inurba_marseille","lat":43.31112,"lon":5.3777,"is_reserved":false,"is_disabled":false,"rental_uris":{"android":"levelo://app?vid=7aef8a03-ad16-4a0d-9b50-9756042dcbe1","ios":"levelo://app?vid=7aef8a03-ad16-4a0d-9b50-9756042dcbe1"},"vehicle_type_id":"4","last_reported":1743488132,"current_range_meters":4800,"station_id":"ce4bgt92rcd13ifvqcg0","pricing_plan_id":"cebpf4jnsgd1na2vs0mg"},{"bike_id":"cc5a488e-1cef-4316-8c1b-1e738400aef3","system_id":"levelo_inurba_marseille","lat":43.30461,"lon":5.37913,"is_reserved":false,"is_disabled":false,"rental_uris":{"android":"levelo://app?vid=cc5a488e-1cef-4316-8c1b-1e738400aef3","ios":"levelo://app?vid=cc5a488e-1cef-4316-8c1b-1e738400aef3"},"vehicle_type_id":"4","last_reported":1743488132,"current_range_meters":4800,"station_id":"ce4bgup2rcd13ifvqcn0","pricing_plan_id":"cebpf4jnsgd1na2vs0mg"},{"bike_id":"5194817e-e68d-400d-9e3c-99501829c1ca","system_id":"levelo_inurba_marseille","lat":43.305928,"lon":5.39342,"is_reserved":false,"is_disabled":false,"rental_uris":{"android":"levelo://app?vid=5194817e-e68d-400d-9e3c-99501829c1ca","ios":"levelo://app?vid=5194817e-e68d-400d-9e3c-99501829c1ca"},"vehicle_type_id":"4","last_reported":1743488132,"current_range_meters":4800,"station_id":"ce4bh0p2rcd13ifvqd80","pricing_plan_id":"cebpf4jnsgd1na2vs0mg"},{"bike_id":"5e5bb63f-5ed0-40f2-90d2-12faf51e0b4f","system_id":"levelo_inurba_marseille","lat":43.2903,"lon":5.39963,"is_reserved":false,"is_disabled":false,"rental_uris":{"android":"levelo://app?vid=5e5bb63f-5ed0-40f2-90d2-12faf51e0b4f","ios":"levelo://app?vid=5e5bb63f-5ed0-40f2-90d2-12faf51e0b4f"},"vehicle_type_id":"4","last_reported":1743488132,"current_range_meters":4800,"station_id":"ce4bh392rcd13ifvqdm0","pricing_plan_id":"cebpf4jnsgd1na2vs0mg"},{"bike_id":"3fcdc537-ac2d-4629-878b-d2eb6ac00dc6","system_id":"levelo_inurba_marseille","lat":43.27488,"lon":5.42455,"is_reserved":false,"is_disabled":false,"rental_uris":{"android":"levelo://app?vid=3fcdc537-ac2d-4629-878b-d2eb6ac00dc6","ios":"levelo://app?vid=3fcdc537-ac2d-4629-878b-d2eb6ac00dc6"},"vehicle_type_id":"4","last_reported":1743488132,"current_range_meters":4800,"station_id":"ce4bhn92rcd13ifvqgrg","pricing_plan_id":"cebpf4jnsgd1na2vs0mg"},{"bike_id":"6165c5e1-15f4-4779-ba2f-91df8ba3f8c0","system_id":"levelo_inurba_marseille","lat":43.28903,"lon":5.42979,"is_reserved":false,"is_disabled":false,"rental_uris":{"android":"levelo://app?vid=6165c5e1-15f4-4779-ba2f-91df8ba3f8c0","ios":"levelo://app?vid=6165c5e1-15f4-4779-ba2f-91df8ba3f8c0"},"vehicle_type_id":"4","last_reported":1743488132,"current_range_meters":5600,"station_id":"","pricing_plan_id":"cebpf4jnsgd1na2vs0mg"},{"bike_id":"975f26c3-8618-4f83-a039-ee372ff98ff6","system_id":"levelo_inurba_marseille","lat":43.30153,"lon":5.38092,"is_reserved":false,"is_disabled":false,"rental_uris":{"android":"levelo://app?vid=975f26c3-8618-4f83-a039-ee372ff98ff6","ios":"levelo://app?vid=975f26c3-8618-4f83-a039-ee372ff98ff6"},"vehicle_type_id":"4","last_reported":1743488132,"current_range_meters":5600,"station_id":"ce4bgjp2rcd13ifvqbh0","pricing_plan_id":"cebpf4jnsgd1na2vs0mg"},{"bike_id":"9ee253b4-992a-4a0a-9de3-f97c58301027","system_id":"levelo_inurba_marseille","lat":43.28715,"lon":5.39979,"is_reserved":false,"is_disabled":false,"rental_uris":{"android":"levelo://app?vid=9ee253b4-992a-4a0a-9de3-f97c58301027","ios":"levelo://app?vid=9ee253b4-992a-4a0a-9de3-f97c58301027"},"vehicle_type_id":"4","last_reported":1743488132,"current_range_meters":5600,"station_id":"ce4bho92rcd13ifvqh3g","pricing_plan_id":"cebpf4jnsgd1na2vs0mg"},{"bike_id":"32eadb57-5d5d-42b6-bde9-fa48c3125e94","system_id":"levelo_inurba_marseille","lat":43.29883,"lon":5.39736,"is_reserved":false,"is_disabled":false,"rental_uris":{"android":"levelo://app?vid=32eadb57-5d5d-42b6-bde9-fa48c3125e94","ios":"levelo://app?vid=32eadb57-5d5d-42b6-bde9-fa48c3125e94"},"vehicle_type_id":"4","last_reported":1743488132,"current_range_meters":6000,"station_id":"ce4bh0h2rcd13ifvqd50","pricing_plan_id":"cebpf4jnsgd1na2vs0mg"},{"bike_id":"4d027bd1-086f-4089-9860-d9f0c2c43172","system_id":"levelo_inurba_marseille","lat":43.29036,"lon":5.38636,"is_reserved":false,"is_disabled":false,"rental_uris":{"android":"levelo://app?vid=4d027bd1-086f-4089-9860-d9f0c2c43172","ios":"levelo://app?vid=4d027bd1-086f-4089-9860-d9f0c2c43172"},"vehicle_type_id":"4","last_reported":1743488132,"current_range_meters":6000,"station_id":"ce4bh4p2rcd13ifvqe0g","pricing_plan_id":"cebpf4jnsgd1na2vs0mg"},{"bike_id":"1115aca5-6e9e-4faf-b9a7-ceadf7eb4ba5","system_id":"levelo_inurba_marseille","lat":43.28714,"lon":5.37921,"is_reserved":false,"is_disabled":false,"rental_uris":{"android":"levelo://app?vid=1115aca5-6e9e-4faf-b9a7-ceadf7eb4ba5","ios":"levelo://app?vid=1115aca5-6e9e-4faf-b9a7-ceadf7eb4ba5"},"vehicle_type_id":"4","last_reported":1743488132,"current_range_meters":6000,"station_id":"ce4bh9p2rcd13ifvqec0","pricing_plan_id":"cebpf4jnsgd1na2vs0mg"},{"bike_id":"673f961b-4558-4310-8304-363a7bd2c2fc","system_id":"levelo_inurba_marseille","lat":43.270881,"lon":5.42253,"is_reserved":false,"is_disabled":false,"rental_uris":{"android":"levelo://app?vid=673f961b-4558-4310-8304-363a7bd2c2fc","ios":"levelo://app?vid=673f961b-4558-4310-8304-363a7bd2c2fc"},"vehicle_type_id":"4","last_reported":1743488132,"current_range_meters":6000,"station_id":"ce4bhk92rcd13ifvqgb0","pricing_plan_id":"cebpf4jnsgd1na2vs0mg"},{"bike_id":"ba07be44-c860-4205-ae53-3447de98bae9","system_id":"levelo_inurba_marseille","lat":43.29974,"lon":5.3851,"is_reserved":false,"is_disabled":false,"rental_uris":{"android":"levelo://app?vid=ba07be44-c860-4205-ae53-3447de98bae9","ios":"levelo://app?vid=ba07be44-c860-4205-ae53-3447de98bae9"},"vehicle_type_id":"4","last_reported":1743488132,"current_range_meters":6000,"station_id":"ce4bhl92rcd13ifvqghg","pricing_plan_id":"cebpf4jnsgd1na2vs0mg"},{"bike_id":"6615059b-06cf-4619-94a3-b31c6f184bcd","system_id":"levelo_inurba_marseille","lat":43.29991,"lon":5.38471,"is_reserved":false,"is_disabled":false,"rental_uris":{"android":"levelo://app?vid=6615059b-06cf-4619-94a3-b31c6f184bcd","ios":"levelo://app?vid=6615059b-06cf-4619-94a3-b31c6f184bcd"},"vehicle_type_id":"4","last_reported":1743488132,"current_range_meters":6400,"station_id":"ce4bgj92rcd13ifvqbd0","pricing_plan_id":"cebpf4jnsgd1na2vs0mg"},{"bike_id":"ac809950-e8b9-4e88-bf95-315207434681","system_id":"levelo_inurba_marseille","lat":43.306488,"lon":5.400888,"is_reserved":false,"is_disabled":false,"rental_uris":{"android":"levelo://app?vid=ac809950-e8b9-4e88-bf95-315207434681","ios":"levelo://app?vid=ac809950-e8b9-4e88-bf95-315207434681"},"vehicle_type_id":"4","last_reported":1743488132,"current_range_meters":6400,"station_id":"ce4bgt12rcd13ifvqcd0","pricing_plan_id":"cebpf4jnsgd1na2vs0mg"},{"bike_id":"2bf31f9f-c5c0-434c-ab3b-b017d7dc966d","system_id":"levelo_inurba_marseille","lat":43.23049,"lon":5.35499,"is_reserved":false,"is_disabled":false,"rental_uris":{"android":"levelo://app?vid=2bf31f9f-c5c0-434c-ab3b-b017d7dc966d","ios":"levelo://app?vid=2bf31f9f-c5c0-434c-ab3b-b017d7dc966d"},"vehicle_type_id":"4","last_reported":1743488132,"current_range_meters":6400,"station_id":"cpo3342slgdg3j2ifvpg","pricing_plan_id":"cebpf4jnsgd1na2vs0mg"},{"bike_id":"99d055d7-9012-4bd5-ad15-1482d25b2f4d","system_id":"levelo_inurba_marseille","lat":43.30233,"lon":5.40058,"is_reserved":false,"is_disabled":false,"rental_uris":{"android":"levelo://app?vid=99d055d7-9012-4bd5-ad15-1482d25b2f4d","ios":"levelo://app?vid=99d055d7-9012-4bd5-ad15-1482d25b2f4d"},"vehicle_type_id":"4","last_reported":1743488132,"current_range_meters":6800,"station_id":"","pricing_plan_id":"cebpf4jnsgd1na2vs0mg"},{"bike_id":"12514587-c98e-4063-aac8-25cd351ba7fd","system_id":"levelo_inurba_marseille","lat":43.302286,"lon":5.400449,"is_reserved":false,"is_disabled":false,"rental_uris":{"android":"levelo://app?vid=12514587-c98e-4063-aac8-25cd351ba7fd","ios":"levelo://app?vid=12514587-c98e-4063-aac8-25cd351ba7fd"},"vehicle_type_id":"4","last_reported":1743488132,"current_range_meters":6800,"station_id":"ce4bgvh2rcd13ifvqcs0","pricing_plan_id":"cebpf4jnsgd1na2vs0mg"},{"bike_id":"fe1afd43-ba0d-4cfa-be08-1e14b89f64ab","system_id":"levelo_inurba_marseille","lat":43.30434,"lon":5.3975,"is_reserved":false,"is_disabled":false,"rental_uris":{"android":"levelo://app?vid=fe1afd43-ba0d-4cfa-be08-1e14b89f64ab","ios":"levelo://app?vid=fe1afd43-ba0d-4cfa-be08-1e14b89f64ab"},"vehicle_type_id":"4","last_reported":1743488132,"current_range_meters":6800,"station_id":"ce4bh092rcd13ifvqd20","pricing_plan_id":"cebpf4jnsgd1na2vs0mg"},{"bike_id":"318d6f0c-86ac-457d-b7f6-de8d209b70bd","system_id":"levelo_inurba_marseille","lat":43.292,"lon":5.39306,"is_reserved":false,"is_disabled":false,"rental_uris":{"android":"levelo://app?vid=318d6f0c-86ac-457d-b7f6-de8d209b70bd","ios":"levelo://app?vid=318d6f0c-86ac-457d-b7f6-de8d209b70bd"},"vehicle_type_id":"4","last_reported":1743488132,"current_range_meters":6800,"station_id":"ce4bh192rcd13ifvqdd0","pricing_plan_id":"cebpf4jnsgd1na2vs0mg"},{"bike_id":"f50dd1be-9ee4-480d-920f-0721f0997798","system_id":"levelo_inurba_marseille","lat":43.23175,"lon":5.39991,"is_reserved":false,"is_disabled":false,"rental_uris":{"android":"levelo://app?vid=f50dd1be-9ee4-480d-920f-0721f0997798","ios":"levelo://app?vid=f50dd1be-9ee4-480d-920f-0721f0997798"},"vehicle_type_id":"4","last_reported":1743488132,"current_range_meters":6800,"station_id":"ce4bhn12rcd13ifvqgqg","pricing_plan_id":"cebpf4jnsgd1na2vs0mg"},{"bike_id":"4c240ad3-f4e4-415e-81d0-54b1686f9a74","system_id":"levelo_inurba_marseille","lat":43.27497,"lon":5.42443,"is_reserved":false,"is_disabled":false,"rental_uris":{"android":"levelo://app?vid=4c240ad3-f4e4-415e-81d0-54b1686f9a74","ios":"levelo://app?vid=4c240ad3-f4e4-415e-81d0-54b1686f9a74"},"vehicle_type_id":"4","last_reported":1743488132,"current_range_meters":6800,"station_id":"ce4bhn92rcd13ifvqgrg","pricing_plan_id":"cebpf4jnsgd1na2vs0mg"},{"bike_id":"6b7f2b11-03ac-4a0c-9fb1-71dc0bbdd506","system_id":"levelo_inurba_marseille","lat":43.319969,"lon":5.381544,"is_reserved":false,"is_disabled":false,"rental_uris":{"android":"levelo://app?vid=6b7f2b11-03ac-4a0c-9fb1-71dc0bbdd506","ios":"levelo://app?vid=6b7f2b11-03ac-4a0c-9fb1-71dc0bbdd506"},"vehicle_type_id":"4","last_reported":1743488132,"current_range_meters":6800,"station_id":"ce4bhr12rcd13ifvqhpg","pricing_plan_id":"cebpf4jnsgd1na2vs0mg"},{"bike_id":"0f8f638f-6c59-4dfb-ab4f-882d40e453aa","system_id":"levelo_inurba_marseille","lat":43.29299,"lon":5.42807,"is_reserved":false,"is_disabled":false,"rental_uris":{"android":"levelo://app?vid=0f8f638f-6c59-4dfb-ab4f-882d40e453aa","ios":"levelo://app?vid=0f8f638f-6c59-4dfb-ab4f-882d40e453aa"},"vehicle_type_id":"4","last_reported":1743488132,"current_range_meters":7200,"station_id":"","pricing_plan_id":"cebpf4jnsgd1na2vs0mg"},{"bike_id":"d8f70170-4924-47d8-bca2-902eeb07f843","system_id":"levelo_inurba_marseille","lat":43.30948,"lon":5.390531,"is_reserved":false,"is_disabled":false,"rental_uris":{"android":"levelo://app?vid=d8f70170-4924-47d8-bca2-902eeb07f843","ios":"levelo://app?vid=d8f70170-4924-47d8-bca2-902eeb07f843"},"vehicle_type_id":"4","last_reported":1743488132,"current_range_meters":7200,"station_id":"ce4bgup2rcd13ifvqco0","pricing_plan_id":"cebpf4jnsgd1na2vs0mg"},{"bike_id":"6593ff20-bada-4f96-a202-e05fd546e597","system_id":"levelo_inurba_marseille","lat":43.30086,"lon":5.39082,"is_reserved":false,"is_disabled":false,"rental_uris":{"android":"levelo://app?vid=6593ff20-bada-4f96-a202-e05fd546e597","ios":"levelo://app?vid=6593ff20-bada-4f96-a202-e05fd546e597"},"vehicle_type_id":"4","last_reported":1743488132,"current_range_meters":7200,"station_id":"ce4bh192rcd13ifvqdb0","pricing_plan_id":"cebpf4jnsgd1na2vs0mg"},{"bike_id":"121010d1-d0ea-475b-97a6-f9054736109c","system_id":"levelo_inurba_marseille","lat":43.23184,"lon":5.39983,"is_reserved":false,"is_disabled":false,"rental_uris":{"android":"levelo://app?vid=121010d1-d0ea-475b-97a6-f9054736109c","ios":"levelo://app?vid=121010d1-d0ea-475b-97a6-f9054736109c"},"vehicle_type_id":"4","last_reported":1743488132,"current_range_meters":7200,"station_id":"ce4bhn12rcd13ifvqgqg","pricing_plan_id":"cebpf4jnsgd1na2vs0mg"},{"bike_id":"d3fbc815-a820-4f39-b1f0-2e4d1d255261","system_id":"levelo_inurba_marseille","lat":43.27467,"lon":5.42476,"is_reserved":false,"is_disabled":false,"rental_uris":{"android":"levelo://app?vid=d3fbc815-a820-4f39-b1f0-2e4d1d255261","ios":"levelo://app?vid=d3fbc815-a820-4f39-b1f0-2e4d1d255261"},"vehicle_type_id":"4","last_reported":1743488132,"current_range_meters":7200,"station_id":"ce4bhn92rcd13ifvqgrg","pricing_plan_id":"cebpf4jnsgd1na2vs0mg"},{"bike_id":"4d9b5982-1cfd-451e-8cbb-7a7d2c840d10","system_id":"levelo_inurba_marseille","lat":43.24072,"lon":5.3777,"is_reserved":false,"is_disabled":false,"rental_uris":{"android":"levelo://app?vid=4d9b5982-1cfd-451e-8cbb-7a7d2c840d10","ios":"levelo://app?vid=4d9b5982-1cfd-451e-8cbb-7a7d2c840d10"},"vehicle_type_id":"4","last_reported":1743488132,"current_range_meters":7200,"station_id":"ce4bhnp2rcd13ifvqgvg","pricing_plan_id":"cebpf4jnsgd1na2vs0mg"},{"bike_id":"1b60599c-03a4-4609-ab2a-c98c39e5267a","system_id":"levelo_inurba_marseille","lat":43.30945,"lon":5.3904,"is_reserved":false,"is_disabled":false,"rental_uris":{"android":"levelo://app?vid=1b60599c-03a4-4609-ab2a-c98c39e5267a","ios":"levelo://app?vid=1b60599c-03a4-4609-ab2a-c98c39e5267a"},"vehicle_type_id":"4","last_reported":1743488132,"current_range_meters":8000,"station_id":"ce4bgup2rcd13ifvqco0","pricing_plan_id":"cebpf4jnsgd1na2vs0mg"},{"bike_id":"dc2ebcaf-070a-47ba-9fbc-c5c2215094b3","system_id":"levelo_inurba_marseille","lat":43.28714,"lon":5.37895,"is_reserved":false,"is_disabled":false,"rental_uris":{"android":"levelo://app?vid=dc2ebcaf-070a-47ba-9fbc-c5c2215094b3","ios":"levelo://app?vid=dc2ebcaf-070a-47ba-9fbc-c5c2215094b3"},"vehicle_type_id":"4","last_reported":1743488132,"current_range_meters":8000,"station_id":"ce4bh9p2rcd13ifvqec0","pricing_plan_id":"cebpf4jnsgd1na2vs0mg"},{"bike_id":"5203ccbe-ce3c-4351-a8e9-f9ee5ad38a9c","system_id":"levelo_inurba_marseille","lat":43.23188,"lon":5.39967,"is_reserved":false,"is_disabled":false,"rental_uris":{"android":"levelo://app?vid=5203ccbe-ce3c-4351-a8e9-f9ee5ad38a9c","ios":"levelo://app?vid=5203ccbe-ce3c-4351-a8e9-f9ee5ad38a9c"},"vehicle_type_id":"4","last_reported":1743488132,"current_range_meters":8000,"station_id":"ce4bhn12rcd13ifvqgqg","pricing_plan_id":"cebpf4jnsgd1na2vs0mg"},{"bike_id":"06c1997b-eaba-48c9-948f-a62092a8f3b5","system_id":"levelo_inurba_marseille","lat":43.287105,"lon":5.399703,"is_reserved":false,"is_disabled":false,"rental_uris":{"android":"levelo://app?vid=06c1997b-eaba-48c9-948f-a62092a8f3b5","ios":"levelo://app?vid=06c1997b-eaba-48c9-948f-a62092a8f3b5"},"vehicle_type_id":"4","last_reported":1743488132,"current_range_meters":8000,"station_id":"ce4bho92rcd13ifvqh3g","pricing_plan_id":"cebpf4jnsgd1na2vs0mg"},{"bike_id":"5d99e486-24bc-43db-b141-acfde3e56e5c","system_id":"levelo_inurba_marseille","lat":43.3046,"lon":5.37913,"is_reserved":false,"is_disabled":false,"rental_uris":{"android":"levelo://app?vid=5d99e486-24bc-43db-b141-acfde3e56e5c","ios":"levelo://app?vid=5d99e486-24bc-43db-b141-acfde3e56e5c"},"vehicle_type_id":"4","last_reported":1743488132,"current_range_meters":8400,"station_id":"ce4bgup2rcd13ifvqcn0","pricing_plan_id":"cebpf4jnsgd1na2vs0mg"},{"bike_id":"98116208-f0d9-448e-914d-e1f5219f8c07","system_id":"levelo_inurba_marseille","lat":43.30952,"lon":5.39047,"is_reserved":false,"is_disabled":false,"rental_uris":{"android":"levelo://app?vid=98116208-f0d9-448e-914d-e1f5219f8c07","ios":"levelo://app?vid=98116208-f0d9-448e-914d-e1f5219f8c07"},"vehicle_type_id":"4","last_reported":1743488132,"current_range_meters":8400,"station_id":"ce4bgup2rcd13ifvqco0","pricing_plan_id":"cebpf4jnsgd1na2vs0mg"},{"bike_id":"95c80766-1e3f-402f-8ca1-875b7cf2907c","system_id":"levelo_inurba_marseille","lat":43.3093,"lon":5.40158,"is_reserved":false,"is_disabled":false,"rental_uris":{"android":"levelo://app?vid=95c80766-1e3f-402f-8ca1-875b7cf2907c","ios":"levelo://app?vid=95c80766-1e3f-402f-8ca1-875b7cf2907c"},"vehicle_type_id":"4","last_reported":1743488132,"current_range_meters":8400,"station_id":"ce4bgvp2rcd13ifvqct0","pricing_plan_id":"cebpf4jnsgd1na2vs0mg"},{"bike_id":"0e5cf204-cc2e-4385-8d19-42195cfe1d22","system_id":"levelo_inurba_marseille","lat":43.30629,"lon":5.40089,"is_reserved":false,"is_disabled":false,"rental_uris":{"android":"levelo://app?vid=0e5cf204-cc2e-4385-8d19-42195cfe1d22","ios":"levelo://app?vid=0e5cf204-cc2e-4385-8d19-42195cfe1d22"},"vehicle_type_id":"4","last_reported":1743488132,"current_range_meters":8400,"station_id":"ce4bh112rcd13ifvqda0","pricing_plan_id":"cebpf4jnsgd1na2vs0mg"},{"bike_id":"38282fd2-2d69-4bc9-8743-b9c18c6b09e0","system_id":"levelo_inurba_marseille","lat":43.28345,"lon":5.38107,"is_reserved":false,"is_disabled":false,"rental_uris":{"android":"levelo://app?vid=38282fd2-2d69-4bc9-8743-b9c18c6b09e0","ios":"levelo://app?vid=38282fd2-2d69-4bc9-8743-b9c18c6b09e0"},"vehicle_type_id":"4","last_reported":1743488132,"current_range_meters":8400,"station_id":"ce4bh412rcd13ifvqdr0","pricing_plan_id":"cebpf4jnsgd1na2vs0mg"},{"bike_id":"e2049ab0-887f-4da6-ab5a-5295dff9fd0f","system_id":"levelo_inurba_marseille","lat":43.23151,"lon":5.43713,"is_reserved":false,"is_disabled":false,"rental_uris":{"android":"levelo://app?vid=e2049ab0-887f-4da6-ab5a-5295dff9fd0f","ios":"levelo://app?vid=e2049ab0-887f-4da6-ab5a-5295dff9fd0f"},"vehicle_type_id":"4","last_reported":1743488132,"current_range_meters":8400,"station_id":"ce4bhmp2rcd13ifvqgog","pricing_plan_id":"cebpf4jnsgd1na2vs0mg"},{"bike_id":"ba0a6e69-be24-452b-916b-d602b009c87f","system_id":"levelo_inurba_marseille","lat":43.27497,"lon":5.42455,"is_reserved":false,"is_disabled":false,"rental_uris":{"android":"levelo://app?vid=ba0a6e69-be24-452b-916b-d602b009c87f","ios":"levelo://app?vid=ba0a6e69-be24-452b-916b-d602b009c87f"},"vehicle_type_id":"4","last_reported":1743488132,"current_range_meters":8400,"station_id":"ce4bhn92rcd13ifvqgrg","pricing_plan_id":"cebpf4jnsgd1na2vs0mg"},{"bike_id":"a52886ef-e99c-46a0-bac7-a6dde5da8cba","system_id":"levelo_inurba_marseille","lat":43.30845,"lon":5.37231,"is_reserved":false,"is_disabled":false,"rental_uris":{"android":"levelo://app?vid=a52886ef-e99c-46a0-bac7-a6dde5da8cba","ios":"levelo://app?vid=a52886ef-e99c-46a0-bac7-a6dde5da8cba"},"vehicle_type_id":"4","last_reported":1743488132,"current_range_meters":8800,"station_id":"","pricing_plan_id":"cebpf4jnsgd1na2vs0mg"},{"bike_id":"65f45621-b8f6-495d-a963-ba2632fab2a8","system_id":"levelo_inurba_marseille","lat":43.30162,"lon":5.3809,"is_reserved":false,"is_disabled":false,"rental_uris":{"android":"levelo://app?vid=65f45621-b8f6-495d-a963-ba2632fab2a8","ios":"levelo://app?vid=65f45621-b8f6-495d-a963-ba2632fab2a8"},"vehicle_type_id":"4","last_reported":1743488132,"current_range_meters":8800,"station_id":"ce4bgjp2rcd13ifvqbh0","pricing_plan_id":"cebpf4jnsgd1na2vs0mg"},{"bike_id":"de103d50-bc8d-4d45-9b12-9997f6b9381f","system_id":"levelo_inurba_marseille","lat":43.306443,"lon":5.400762,"is_reserved":false,"is_disabled":false,"rental_uris":{"android":"levelo://app?vid=de103d50-bc8d-4d45-9b12-9997f6b9381f","ios":"levelo://app?vid=de103d50-bc8d-4d45-9b12-9997f6b9381f"},"vehicle_type_id":"4","last_reported":1743488132,"current_range_meters":8800,"station_id":"ce4bh112rcd13ifvqda0","pricing_plan_id":"cebpf4jnsgd1na2vs0mg"},{"bike_id":"70b1412a-5466-45ee-b0f6-f4bf77f2d89c","system_id":"levelo_inurba_marseille","lat":43.31998,"lon":5.38139,"is_reserved":false,"is_disabled":false,"rental_uris":{"android":"levelo://app?vid=70b1412a-5466-45ee-b0f6-f4bf77f2d89c","ios":"levelo://app?vid=70b1412a-5466-45ee-b0f6-f4bf77f2d89c"},"vehicle_type_id":"4","last_reported":1743488132,"current_range_meters":8800,"station_id":"ce4bhr12rcd13ifvqhpg","pricing_plan_id":"cebpf4jnsgd1na2vs0mg"},{"bike_id":"cb31ef46-5921-40d6-9b8e-ac8f6f3fe45d","system_id":"levelo_inurba_marseille","lat":43.3198,"lon":5.38145,"is_reserved":false,"is_disabled":false,"rental_uris":{"android":"levelo://app?vid=cb31ef46-5921-40d6-9b8e-ac8f6f3fe45d","ios":"levelo://app?vid=cb31ef46-5921-40d6-9b8e-ac8f6f3fe45d"},"vehicle_type_id":"4","last_reported":1743488132,"current_range_meters":8800,"station_id":"ce4bhr12rcd13ifvqhpg","pricing_plan_id":"cebpf4jnsgd1na2vs0mg"},{"bike_id":"017714e4-e9dc-45c9-a859-732a2c6cd6d8","system_id":"levelo_inurba_marseille","lat":43.29612,"lon":5.38117,"is_reserved":false,"is_disabled":false,"rental_uris":{"android":"levelo://app?vid=017714e4-e9dc-45c9-a859-732a2c6cd6d8","ios":"levelo://app?vid=017714e4-e9dc-45c9-a859-732a2c6cd6d8"},"vehicle_type_id":"4","last_reported":1743488132,"current_range_meters":9200,"station_id":"ce4bgl12rcd13ifvqbo0","pricing_plan_id":"cebpf4jnsgd1na2vs0mg"},{"bike_id":"68dbaf4e-4b4a-43f6-a58c-921a9b9402c0","system_id":"levelo_inurba_marseille","lat":43.3096,"lon":5.3904,"is_reserved":false,"is_disabled":false,"rental_uris":{"android":"levelo://app?vid=68dbaf4e-4b4a-43f6-a58c-921a9b9402c0","ios":"levelo://app?vid=68dbaf4e-4b4a-43f6-a58c-921a9b9402c0"},"vehicle_type_id":"4","last_reported":1743488132,"current_range_meters":9200,"station_id":"ce4bgup2rcd13ifvqco0","pricing_plan_id":"cebpf4jnsgd1na2vs0mg"},{"bike_id":"5e3e154d-81f7-454f-823c-b78370a0c23d","system_id":"levelo_inurba_marseille","lat":43.28854,"lon":5.39322,"is_reserved":false,"is_disabled":false,"rental_uris":{"android":"levelo://app?vid=5e3e154d-81f7-454f-823c-b78370a0c23d","ios":"levelo://app?vid=5e3e154d-81f7-454f-823c-b78370a0c23d"},"vehicle_type_id":"4","last_reported":1743488132,"current_range_meters":9200,"station_id":"ce4bh2p2rcd13ifvqdi0","pricing_plan_id":"cebpf4jnsgd1na2vs0mg"},{"bike_id":"6a8a7c66-a326-4ba5-927a-35d6ec2d46aa","system_id":"levelo_inurba_marseille","lat":43.26954,"lon":5.38623,"is_reserved":false,"is_disabled":false,"rental_uris":{"android":"levelo://app?vid=6a8a7c66-a326-4ba5-927a-35d6ec2d46aa","ios":"levelo://app?vid=6a8a7c66-a326-4ba5-927a-35d6ec2d46aa"},"vehicle_type_id":"4","last_reported":1743488132,"current_range_meters":9200,"station_id":"ce4bhh92rcd13ifvqfh0","pricing_plan_id":"cebpf4jnsgd1na2vs0mg"},{"bike_id":"32786654-e0a5-4ead-8bb5-f56016b6a3a0","system_id":"levelo_inurba_marseille","lat":43.26066,"lon":5.39408,"is_reserved":false,"is_disabled":false,"rental_uris":{"android":"levelo://app?vid=32786654-e0a5-4ead-8bb5-f56016b6a3a0","ios":"levelo://app?vid=32786654-e0a5-4ead-8bb5-f56016b6a3a0"},"vehicle_type_id":"4","last_reported":1743488132,"current_range_meters":9200,"station_id":"ce4bhh92rcd13ifvqfj0","pricing_plan_id":"cebpf4jnsgd1na2vs0mg"},{"bike_id":"c5f908d3-4610-4cae-8aeb-e89ca0e64cc1","system_id":"levelo_inurba_marseille","lat":43.33585,"lon":5.40983,"is_reserved":false,"is_disabled":false,"rental_uris":{"android":"levelo://app?vid=c5f908d3-4610-4cae-8aeb-e89ca0e64cc1","ios":"levelo://app?vid=c5f908d3-4610-4cae-8aeb-e89ca0e64cc1"},"vehicle_type_id":"4","last_reported":1743488132,"current_range_meters":9600,"station_id":"","pricing_plan_id":"cebpf4jnsgd1na2vs0mg"},{"bike_id":"dbf2bd91-71e1-44b2-9bdf-f575026d856c","system_id":"levelo_inurba_marseille","lat":43.29574,"lon":5.39975,"is_reserved":false,"is_disabled":false,"rental_uris":{"android":"levelo://app?vid=dbf2bd91-71e1-44b2-9bdf-f575026d856c","ios":"levelo://app?vid=dbf2bd91-71e1-44b2-9bdf-f575026d856c"},"vehicle_type_id":"4","last_reported":1743488132,"current_range_meters":9600,"station_id":"ce4bh312rcd13ifvqdj0","pricing_plan_id":"cebpf4jnsgd1na2vs0mg"},{"bike_id":"b076ce24-dac9-486b-a7f8-51e27f04e332","system_id":"levelo_inurba_marseille","lat":43.278883,"lon":5.380067,"is_reserved":false,"is_disabled":false,"rental_uris":{"android":"levelo://app?vid=b076ce24-dac9-486b-a7f8-51e27f04e332","ios":"levelo://app?vid=b076ce24-dac9-486b-a7f8-51e27f04e332"},"vehicle_type_id":"4","last_reported":1743488132,"current_range_meters":9600,"station_id":"ce4bhf92rcd13ifvqf50","pricing_plan_id":"cebpf4jnsgd1na2vs0mg"},{"bike_id":"2286499e-afb3-42f0-be29-239621d5e7b7","system_id":"levelo_inurba_marseille","lat":43.24171,"lon":5.39732,"is_reserved":false,"is_disabled":false,"rental_uris":{"android":"levelo://app?vid=2286499e-afb3-42f0-be29-239621d5e7b7","ios":"levelo://app?vid=2286499e-afb3-42f0-be29-239621d5e7b7"},"vehicle_type_id":"4","last_reported":1743488132,"current_range_meters":9600,"station_id":"ce4bhn12rcd13ifvqgpg","pricing_plan_id":"cebpf4jnsgd1na2vs0mg"},{"bike_id":"ca1ef741-c411-418f-b272-bb49948f9c3f","system_id":"levelo_inurba_marseille","lat":43.24074,"lon":5.37756,"is_reserved":false,"is_disabled":false,"rental_uris":{"android":"levelo://app?vid=ca1ef741-c411-418f-b272-bb49948f9c3f","ios":"levelo://app?vid=ca1ef741-c411-418f-b272-bb49948f9c3f"},"vehicle_type_id":"4","last_reported":1743488132,"current_range_meters":9600,"station_id":"ce4bhnp2rcd13ifvqgvg","pricing_plan_id":"cebpf4jnsgd1na2vs0mg"},{"bike_id":"9b8ff57f-ffe3-4aec-b23e-81f9d49165cc","system_id":"levelo_inurba_marseille","lat":43.284169,"lon":5.349893,"is_reserved":false,"is_disabled":false,"rental_uris":{"android":"levelo://app?vid=9b8ff57f-ffe3-4aec-b23e-81f9d49165cc","ios":"levelo://app?vid=9b8ff57f-ffe3-4aec-b23e-81f9d49165cc"},"vehicle_type_id":"4","last_reported":1743488132,"current_range_meters":9600,"station_id":"ce4bhnp2rcd13ifvqgvg","pricing_plan_id":"cebpf4jnsgd1na2vs0mg"},{"bike_id":"f4d5702c-acc0-4b3b-8539-dc9aeb4d29eb","system_id":"levelo_inurba_marseille","lat":43.29281,"lon":5.40118,"is_reserved":false,"is_disabled":false,"rental_uris":{"android":"levelo://app?vid=f4d5702c-acc0-4b3b-8539-dc9aeb4d29eb","ios":"levelo://app?vid=f4d5702c-acc0-4b3b-8539-dc9aeb4d29eb"},"vehicle_type_id":"4","last_reported":1743488132,"current_range_meters":10000,"station_id":"ce4bh312rcd13ifvqdk0","pricing_plan_id":"cebpf4jnsgd1na2vs0mg"},{"bike_id":"87304c8a-53f6-45f9-98cc-415e4d7a95a5","system_id":"levelo_inurba_marseille","lat":43.23155,"lon":5.39995,"is_reserved":false,"is_disabled":false,"rental_uris":{"android":"levelo://app?vid=87304c8a-53f6-45f9-98cc-415e4d7a95a5","ios":"levelo://app?vid=87304c8a-53f6-45f9-98cc-415e4d7a95a5"},"vehicle_type_id":"4","last_reported":1743488132,"current_range_meters":10000,"station_id":"ce4bhn12rcd13ifvqgqg","pricing_plan_id":"cebpf4jnsgd1na2vs0mg"},{"bike_id":"e02cc651-0bde-4766-b6c0-ecb1aeba60c0","system_id":"levelo_inurba_marseille","lat":43.24069,"lon":5.37765,"is_reserved":false,"is_disabled":false,"rental_uris":{"android":"levelo://app?vid=e02cc651-0bde-4766-b6c0-ecb1aeba60c0","ios":"levelo://app?vid=e02cc651-0bde-4766-b6c0-ecb1aeba60c0"},"vehicle_type_id":"4","last_reported":1743488132,"current_range_meters":10000,"station_id":"ce4bhnp2rcd13ifvqgvg","pricing_plan_id":"cebpf4jnsgd1na2vs0mg"},{"bike_id":"38e0645a-6527-44fb-bda8-77d2756d02e3","system_id":"levelo_inurba_marseille","lat":43.31342,"lon":5.36714,"is_reserved":false,"is_disabled":false,"rental_uris":{"android":"levelo://app?vid=38e0645a-6527-44fb-bda8-77d2756d02e3","ios":"levelo://app?vid=38e0645a-6527-44fb-bda8-77d2756d02e3"},"vehicle_type_id":"4","last_reported":1743488132,"current_range_meters":10800,"station_id":"ce4bgr92rcd13ifvqc6g","pricing_plan_id":"cebpf4jnsgd1na2vs0mg"},{"bike_id":"da397693-5f5d-44fb-8ff9-99e18cc978f2","system_id":"levelo_inurba_marseille","lat":43.30191,"lon":5.36626,"is_reserved":false,"is_disabled":false,"rental_uris":{"android":"levelo://app?vid=da397693-5f5d-44fb-8ff9-99e18cc978f2","ios":"levelo://app?vid=da397693-5f5d-44fb-8ff9-99e18cc978f2"},"vehicle_type_id":"4","last_reported":1743488132,"current_range_meters":10800,"station_id":"ce4bgrh2rcd13ifvqc8g","pricing_plan_id":"cebpf4jnsgd1na2vs0mg"},{"bike_id":"6fc1edc9-5560-411b-87fb-ef7cc7f8f6d0","system_id":"levelo_inurba_marseille","lat":43.30145,"lon":5.37412,"is_reserved":false,"is_disabled":false,"rental_uris":{"android":"levelo://app?vid=6fc1edc9-5560-411b-87fb-ef7cc7f8f6d0","ios":"levelo://app?vid=6fc1edc9-5560-411b-87fb-ef7cc7f8f6d0"},"vehicle_type_id":"4","last_reported":1743488132,"current_range_meters":10800,"station_id":"ce4bgs92rcd13ifvqcc0","pricing_plan_id":"cebpf4jnsgd1na2vs0mg"},{"bike_id":"846cf856-e6d2-420d-8fdb-67863b1b69f1","system_id":"levelo_inurba_marseille","lat":43.30947,"lon":5.39038,"is_reserved":false,"is_disabled":false,"rental_uris":{"android":"levelo://app?vid=846cf856-e6d2-420d-8fdb-67863b1b69f1","ios":"levelo://app?vid=846cf856-e6d2-420d-8fdb-67863b1b69f1"},"vehicle_type_id":"4","last_reported":1743488132,"current_range_meters":10800,"station_id":"ce4bgup2rcd13ifvqco0","pricing_plan_id":"cebpf4jnsgd1na2vs0mg"},{"bike_id":"cdb2e7a3-c999-497e-a9de-b43472b97dae","system_id":"levelo_inurba_marseille","lat":43.28706,"lon":5.37957,"is_reserved":false,"is_disabled":false,"rental_uris":{"android":"levelo://app?vid=cdb2e7a3-c999-497e-a9de-b43472b97dae","ios":"levelo://app?vid=cdb2e7a3-c999-497e-a9de-b43472b97dae"},"vehicle_type_id":"4","last_reported":1743488132,"current_range_meters":10800,"station_id":"ce4bh9p2rcd13ifvqec0","pricing_plan_id":"cebpf4jnsgd1na2vs0mg"},{"bike_id":"1049fef6-2540-47d7-8d03-030ef1de2a8d","system_id":"levelo_inurba_marseille","lat":43.25821,"lon":5.39434,"is_reserved":false,"is_disabled":false,"rental_uris":{"android":"levelo://app?vid=1049fef6-2540-47d7-8d03-030ef1de2a8d","ios":"levelo://app?vid=1049fef6-2540-47d7-8d03-030ef1de2a8d"},"vehicle_type_id":"4","last_reported":1743488132,"current_range_meters":10800,"station_id":"ce4bhip2rcd13ifvqft0","pricing_plan_id":"cebpf4jnsgd1na2vs0mg"},{"bike_id":"649b5ad5-62ac-4bfd-a6cd-60fc43d8fef1","system_id":"levelo_inurba_marseille","lat":43.29229,"lon":5.39855,"is_reserved":false,"is_disabled":false,"rental_uris":{"android":"levelo://app?vid=649b5ad5-62ac-4bfd-a6cd-60fc43d8fef1","ios":"levelo://app?vid=649b5ad5-62ac-4bfd-a6cd-60fc43d8fef1"},"vehicle_type_id":"4","last_reported":1743488132,"current_range_meters":11200,"station_id":"","pricing_plan_id":"cebpf4jnsgd1na2vs0mg"},{"bike_id":"19d31a38-0140-4912-a979-4764caac8f22","system_id":"levelo_inurba_marseille","lat":43.309277,"lon":5.401523,"is_reserved":false,"is_disabled":false,"rental_uris":{"android":"levelo://app?vid=19d31a38-0140-4912-a979-4764caac8f22","ios":"levelo://app?vid=19d31a38-0140-4912-a979-4764caac8f22"},"vehicle_type_id":"4","last_reported":1743488132,"current_range_meters":11200,"station_id":"ce4bgvp2rcd13ifvqct0","pricing_plan_id":"cebpf4jnsgd1na2vs0mg"},{"bike_id":"78151ad8-8355-4843-aac1-9199769ad65b","system_id":"levelo_inurba_marseille","lat":43.300861,"lon":5.390708,"is_reserved":false,"is_disabled":false,"rental_uris":{"android":"levelo://app?vid=78151ad8-8355-4843-aac1-9199769ad65b","ios":"levelo://app?vid=78151ad8-8355-4843-aac1-9199769ad65b"},"vehicle_type_id":"4","last_reported":1743488132,"current_range_meters":11200,"station_id":"ce4bh192rcd13ifvqdb0","pricing_plan_id":"cebpf4jnsgd1na2vs0mg"},{"bike_id":"192e4076-b3db-4f87-9e9d-cbff777926a6","system_id":"levelo_inurba_marseille","lat":43.31992,"lon":5.3814,"is_reserved":false,"is_disabled":false,"rental_uris":{"android":"levelo://app?vid=192e4076-b3db-4f87-9e9d-cbff777926a6","ios":"levelo://app?vid=192e4076-b3db-4f87-9e9d-cbff777926a6"},"vehicle_type_id":"4","last_reported":1743488132,"current_range_meters":11200,"station_id":"ce4bhr12rcd13ifvqhpg","pricing_plan_id":"cebpf4jnsgd1na2vs0mg"},{"bike_id":"c4309e96-2b99-44ab-8879-0256a8334749","system_id":"levelo_inurba_marseille","lat":43.301829,"lon":5.39508,"is_reserved":false,"is_disabled":false,"rental_uris":{"android":"levelo://app?vid=c4309e96-2b99-44ab-8879-0256a8334749","ios":"levelo://app?vid=c4309e96-2b99-44ab-8879-0256a8334749"},"vehicle_type_id":"4","last_reported":1743488132,"current_range_meters":11600,"station_id":"","pricing_plan_id":"cebpf4jnsgd1na2vs0mg"},{"bike_id":"a61d69b6-c682-4e51-b65c-90e9332cb9b6","system_id":"levelo_inurba_marseille","lat":43.29251,"lon":5.37621,"is_reserved":false,"is_disabled":false,"rental_uris":{"android":"levelo://app?vid=a61d69b6-c682-4e51-b65c-90e9332cb9b6","ios":"levelo://app?vid=a61d69b6-c682-4e51-b65c-90e9332cb9b6"},"vehicle_type_id":"4","last_reported":1743488132,"current_range_meters":11600,"station_id":"ce4bgi12rcd13ifvqb80","pricing_plan_id":"cebpf4jnsgd1na2vs0mg"},{"bike_id":"0b00571b-c653-46be-9a4e-9ffc18512b76","system_id":"levelo_inurba_marseille","lat":43.28936,"lon":5.39623,"is_reserved":false,"is_disabled":false,"rental_uris":{"android":"levelo://app?vid=0b00571b-c653-46be-9a4e-9ffc18512b76","ios":"levelo://app?vid=0b00571b-c653-46be-9a4e-9ffc18512b76"},"vehicle_type_id":"4","last_reported":1743488132,"current_range_meters":11600,"station_id":"ce4bh3h2rcd13ifvqdn0","pricing_plan_id":"cebpf4jnsgd1na2vs0mg"},{"bike_id":"ab05b9e6-b4aa-4546-847d-f8454fc2290a","system_id":"levelo_inurba_marseille","lat":43.28693,"lon":5.37934,"is_reserved":false,"is_disabled":false,"rental_uris":{"android":"levelo://app?vid=ab05b9e6-b4aa-4546-847d-f8454fc2290a","ios":"levelo://app?vid=ab05b9e6-b4aa-4546-847d-f8454fc2290a"},"vehicle_type_id":"4","last_reported":1743488132,"current_range_meters":11600,"station_id":"ce4bh9p2rcd13ifvqec0","pricing_plan_id":"cebpf4jnsgd1na2vs0mg"},{"bike_id":"14c6f955-5601-4536-bf1a-199a9389832d","system_id":"levelo_inurba_marseille","lat":43.28461,"lon":5.35889,"is_reserved":false,"is_disabled":false,"rental_uris":{"android":"levelo://app?vid=14c6f955-5601-4536-bf1a-199a9389832d","ios":"levelo://app?vid=14c6f955-5601-4536-bf1a-199a9389832d"},"vehicle_type_id":"4","last_reported":1743488132,"current_range_meters":11600,"station_id":"ce4bhah2rcd13ifvqei0","pricing_plan_id":"cebpf4jnsgd1na2vs0mg"},{"bike_id":"af8c818b-f7fe-47e2-828d-b358fed904c1","system_id":"levelo_inurba_marseille","lat":43.33606,"lon":5.41027,"is_reserved":false,"is_disabled":false,"rental_uris":{"android":"levelo://app?vid=af8c818b-f7fe-47e2-828d-b358fed904c1","ios":"levelo://app?vid=af8c818b-f7fe-47e2-828d-b358fed904c1"},"vehicle_type_id":"4","last_reported":1743488132,"current_range_meters":11600,"station_id":"ce4bhqh2rcd13ifvqhmg","pricing_plan_id":"cebpf4jnsgd1na2vs0mg"},{"bike_id":"c7f99555-9bb9-46de-b35d-237f01680bb5","system_id":"levelo_inurba_marseille","lat":43.31751,"lon":5.38995,"is_reserved":false,"is_disabled":false,"rental_uris":{"android":"levelo://app?vid=c7f99555-9bb9-46de-b35d-237f01680bb5","ios":"levelo://app?vid=c7f99555-9bb9-46de-b35d-237f01680bb5"},"vehicle_type_id":"4","last_reported":1743488132,"current_range_meters":11600,"station_id":"ce4bhqp2rcd13ifvqhng","pricing_plan_id":"cebpf4jnsgd1na2vs0mg"},{"bike_id":"e47bc61d-df2d-41b3-b26b-dd94e6e5e301","system_id":"levelo_inurba_marseille","lat":43.26227,"lon":5.4214,"is_reserved":false,"is_disabled":false,"rental_uris":{"android":"levelo://app?vid=e47bc61d-df2d-41b3-b26b-dd94e6e5e301","ios":"levelo://app?vid=e47bc61d-df2d-41b3-b26b-dd94e6e5e301"},"vehicle_type_id":"4","last_reported":1743488132,"current_range_meters":12000,"station_id":"","pricing_plan_id":"cebpf4jnsgd1na2vs0mg"},{"bike_id":"4a362ba8-8259-4262-8363-14d2defcf354","system_id":"levelo_inurba_marseille","lat":43.31693,"lon":5.40452,"is_reserved":false,"is_disabled":false,"rental_uris":{"android":"levelo://app?vid=4a362ba8-8259-4262-8363-14d2defcf354","ios":"levelo://app?vid=4a362ba8-8259-4262-8363-14d2defcf354"},"vehicle_type_id":"4","last_reported":1743488132,"current_range_meters":12000,"station_id":"ce4bh012rcd13ifvqd00","pricing_plan_id":"cebpf4jnsgd1na2vs0mg"},{"bike_id":"c71f9e95-8191-4b4a-aa14-d07199333c77","system_id":"levelo_inurba_marseille","lat":43.28482,"lon":5.38414,"is_reserved":false,"is_disabled":false,"rental_uris":{"android":"levelo://app?vid=c71f9e95-8191-4b4a-aa14-d07199333c77","ios":"levelo://app?vid=c71f9e95-8191-4b4a-aa14-d07199333c77"},"vehicle_type_id":"4","last_reported":1743488132,"current_range_meters":12000,"station_id":"ce4bh512rcd13ifvqe3g","pricing_plan_id":"cebpf4jnsgd1na2vs0mg"},{"bike_id":"1b63ccb2-1298-4d96-b7f3-6ad6cace00e9","system_id":"levelo_inurba_marseille","lat":43.261186,"lon":5.400939,"is_reserved":false,"is_disabled":false,"rental_uris":{"android":"levelo://app?vid=1b63ccb2-1298-4d96-b7f3-6ad6cace00e9","ios":"levelo://app?vid=1b63ccb2-1298-4d96-b7f3-6ad6cace00e9"},"vehicle_type_id":"4","last_reported":1743488132,"current_range_meters":12400,"station_id":"","pricing_plan_id":"cebpf4jnsgd1na2vs0mg"},{"bike_id":"c8c43e9b-b4ca-43c7-93b2-dbb8f6ddb2e6","system_id":"levelo_inurba_marseille","lat":43.31687,"lon":5.4048,"is_reserved":false,"is_disabled":false,"rental_uris":{"android":"levelo://app?vid=c8c43e9b-b4ca-43c7-93b2-dbb8f6ddb2e6","ios":"levelo://app?vid=c8c43e9b-b4ca-43c7-93b2-dbb8f6ddb2e6"},"vehicle_type_id":"4","last_reported":1743488132,"current_range_meters":12400,"station_id":"ce4bh012rcd13ifvqd00","pricing_plan_id":"cebpf4jnsgd1na2vs0mg"},{"bike_id":"9ef34a2b-2324-476e-957c-d915473487fe","system_id":"levelo_inurba_marseille","lat":43.28841,"lon":5.39323,"is_reserved":false,"is_disabled":false,"rental_uris":{"android":"levelo://app?vid=9ef34a2b-2324-476e-957c-d915473487fe","ios":"levelo://app?vid=9ef34a2b-2324-476e-957c-d915473487fe"},"vehicle_type_id":"4","last_reported":1743488132,"current_range_meters":12400,"station_id":"ce4bh2p2rcd13ifvqdi0","pricing_plan_id":"cebpf4jnsgd1na2vs0mg"},{"bike_id":"ab789467-5397-4859-aede-1a452b069c78","system_id":"levelo_inurba_marseille","lat":43.23175,"lon":5.39988,"is_reserved":false,"is_disabled":false,"rental_uris":{"android":"levelo://app?vid=ab789467-5397-4859-aede-1a452b069c78","ios":"levelo://app?vid=ab789467-5397-4859-aede-1a452b069c78"},"vehicle_type_id":"4","last_reported":1743488132,"current_range_meters":12400,"station_id":"ce4bhn12rcd13ifvqgqg","pricing_plan_id":"cebpf4jnsgd1na2vs0mg"},{"bike_id":"27773214-4312-4127-aa54-e74cba3d6d07","system_id":"levelo_inurba_marseille","lat":43.27792,"lon":5.40725,"is_reserved":false,"is_disabled":false,"rental_uris":{"android":"levelo://app?vid=27773214-4312-4127-aa54-e74cba3d6d07","ios":"levelo://app?vid=27773214-4312-4127-aa54-e74cba3d6d07"},"vehicle_type_id":"4","last_reported":1743488132,"current_range_meters":12400,"station_id":"ce4bhnh2rcd13ifvqgtg","pricing_plan_id":"cebpf4jnsgd1na2vs0mg"},{"bike_id":"536ba4f2-6326-4b02-b6f0-b28fefa5dd7b","system_id":"levelo_inurba_marseille","lat":43.34142,"lon":5.40906,"is_reserved":false,"is_disabled":false,"rental_uris":{"android":"levelo://app?vid=536ba4f2-6326-4b02-b6f0-b28fefa5dd7b","ios":"levelo://app?vid=536ba4f2-6326-4b02-b6f0-b28fefa5dd7b"},"vehicle_type_id":"4","last_reported":1743488132,"current_range_meters":12400,"station_id":"ce4bhqh2rcd13ifvqhlg","pricing_plan_id":"cebpf4jnsgd1na2vs0mg"},{"bike_id":"722b18b3-c8a7-4fa7-88f6-bead613f090f","system_id":"levelo_inurba_marseille","lat":43.32279,"lon":5.38274,"is_reserved":false,"is_disabled":false,"rental_uris":{"android":"levelo://app?vid=722b18b3-c8a7-4fa7-88f6-bead613f090f","ios":"levelo://app?vid=722b18b3-c8a7-4fa7-88f6-bead613f090f"},"vehicle_type_id":"4","last_reported":1743488132,"current_range_meters":12400,"station_id":"ce4bhr12rcd13ifvqhqg","pricing_plan_id":"cebpf4jnsgd1na2vs0mg"},{"bike_id":"e90190bf-3342-43b0-b16e-594c3a332304","system_id":"levelo_inurba_marseille","lat":43.3086,"lon":5.40297,"is_reserved":false,"is_disabled":false,"rental_uris":{"android":"levelo://app?vid=e90190bf-3342-43b0-b16e-594c3a332304","ios":"levelo://app?vid=e90190bf-3342-43b0-b16e-594c3a332304"},"vehicle_type_id":"4","last_reported":1743488132,"current_range_meters":13600,"station_id":"","pricing_plan_id":"cebpf4jnsgd1na2vs0mg"},{"bike_id":"9803795d-6b5b-4b7d-a8c2-32fcbe1605b1","system_id":"levelo_inurba_marseille","lat":43.30304,"lon":5.39213,"is_reserved":false,"is_disabled":false,"rental_uris":{"android":"levelo://app?vid=9803795d-6b5b-4b7d-a8c2-32fcbe1605b1","ios":"levelo://app?vid=9803795d-6b5b-4b7d-a8c2-32fcbe1605b1"},"vehicle_type_id":"4","last_reported":1743488132,"current_range_meters":13600,"station_id":"ce4bgkh2rcd13ifvqbk0","pricing_plan_id":"cebpf4jnsgd1na2vs0mg"},{"bike_id":"1f100e9f-9c83-4ddd-ac5d-fcedbcc7d654","system_id":"levelo_inurba_marseille","lat":43.306375,"lon":5.400611,"is_reserved":false,"is_disabled":false,"rental_uris":{"android":"levelo://app?vid=1f100e9f-9c83-4ddd-ac5d-fcedbcc7d654","ios":"levelo://app?vid=1f100e9f-9c83-4ddd-ac5d-fcedbcc7d654"},"vehicle_type_id":"4","last_reported":1743488132,"current_range_meters":13600,"station_id":"ce4bh112rcd13ifvqda0","pricing_plan_id":"cebpf4jnsgd1na2vs0mg"},{"bike_id":"cc9f2f22-428d-43f4-88fa-84d844928722","system_id":"levelo_inurba_marseille","lat":43.28411,"lon":5.37512,"is_reserved":false,"is_disabled":false,"rental_uris":{"android":"levelo://app?vid=cc9f2f22-428d-43f4-88fa-84d844928722","ios":"levelo://app?vid=cc9f2f22-428d-43f4-88fa-84d844928722"},"vehicle_type_id":"4","last_reported":1743488132,"current_range_meters":13600,"station_id":"ce4bh412rcd13ifvqds0","pricing_plan_id":"cebpf4jnsgd1na2vs0mg"},{"bike_id":"f9556671-f8e9-4ef6-b997-21a30e85c7b2","system_id":"levelo_inurba_marseille","lat":43.23152,"lon":5.43733,"is_reserved":false,"is_disabled":false,"rental_uris":{"android":"levelo://app?vid=f9556671-f8e9-4ef6-b997-21a30e85c7b2","ios":"levelo://app?vid=f9556671-f8e9-4ef6-b997-21a30e85c7b2"},"vehicle_type_id":"4","last_reported":1743488132,"current_range_meters":13600,"station_id":"ce4bhmp2rcd13ifvqgog","pricing_plan_id":"cebpf4jnsgd1na2vs0mg"},{"bike_id":"4220d26d-272d-4b23-9cec-a79c1d919b49","system_id":"levelo_inurba_marseille","lat":43.30588,"lon":5.37123,"is_reserved":false,"is_disabled":false,"rental_uris":{"android":"levelo://app?vid=4220d26d-272d-4b23-9cec-a79c1d919b49","ios":"levelo://app?vid=4220d26d-272d-4b23-9cec-a79c1d919b49"},"vehicle_type_id":"4","last_reported":1743488132,"current_range_meters":14000,"station_id":"","pricing_plan_id":"cebpf4jnsgd1na2vs0mg"},{"bike_id":"a6a86f9a-9594-4071-b32a-a0d60f0f96bc","system_id":"levelo_inurba_marseille","lat":43.28942,"lon":5.39632,"is_reserved":false,"is_disabled":false,"rental_uris":{"android":"levelo://app?vid=a6a86f9a-9594-4071-b32a-a0d60f0f96bc","ios":"levelo://app?vid=a6a86f9a-9594-4071-b32a-a0d60f0f96bc"},"vehicle_type_id":"4","last_reported":1743488132,"current_range_meters":14000,"station_id":"ce4bh3h2rcd13ifvqdn0","pricing_plan_id":"cebpf4jnsgd1na2vs0mg"},{"bike_id":"b5587872-12d3-4ab4-9944-4a840be522c9","system_id":"levelo_inurba_marseille","lat":43.29791,"lon":5.38119,"is_reserved":false,"is_disabled":false,"rental_uris":{"android":"levelo://app?vid=b5587872-12d3-4ab4-9944-4a840be522c9","ios":"levelo://app?vid=b5587872-12d3-4ab4-9944-4a840be522c9"},"vehicle_type_id":"4","last_reported":1743488132,"current_range_meters":14400,"station_id":"ce4bgip2rcd13ifvqbb0","pricing_plan_id":"cebpf4jnsgd1na2vs0mg"},{"bike_id":"38dbf7d6-7fcb-45b4-a92b-470a8b4224f2","system_id":"levelo_inurba_marseille","lat":43.30153,"lon":5.38092,"is_reserved":false,"is_disabled":false,"rental_uris":{"android":"levelo://app?vid=38dbf7d6-7fcb-45b4-a92b-470a8b4224f2","ios":"levelo://app?vid=38dbf7d6-7fcb-45b4-a92b-470a8b4224f2"},"vehicle_type_id":"4","last_reported":1743488132,"current_range_meters":14400,"station_id":"ce4bgjp2rcd13ifvqbh0","pricing_plan_id":"cebpf4jnsgd1na2vs0mg"},{"bike_id":"9797f779-9da6-466d-b017-1a020ce2563b","system_id":"levelo_inurba_marseille","lat":43.305969,"lon":5.393586,"is_reserved":false,"is_disabled":false,"rental_uris":{"android":"levelo://app?vid=9797f779-9da6-466d-b017-1a020ce2563b","ios":"levelo://app?vid=9797f779-9da6-466d-b017-1a020ce2563b"},"vehicle_type_id":"4","last_reported":1743488132,"current_range_meters":14400,"station_id":"ce4bh0p2rcd13ifvqd80","pricing_plan_id":"cebpf4jnsgd1na2vs0mg"},{"bike_id":"6e6a66e5-58ca-4db1-9695-b46ed5c28827","system_id":"levelo_inurba_marseille","lat":43.31768,"lon":5.36805,"is_reserved":false,"is_disabled":false,"rental_uris":{"android":"levelo://app?vid=6e6a66e5-58ca-4db1-9695-b46ed5c28827","ios":"levelo://app?vid=6e6a66e5-58ca-4db1-9695-b46ed5c28827"},"vehicle_type_id":"4","last_reported":1743488132,"current_range_meters":14800,"station_id":"","pricing_plan_id":"cebpf4jnsgd1na2vs0mg"},{"bike_id":"4474f66b-3eb6-4aea-af7b-d43fdaacf384","system_id":"levelo_inurba_marseille","lat":43.28036,"lon":5.40562,"is_reserved":false,"is_disabled":false,"rental_uris":{"android":"levelo://app?vid=4474f66b-3eb6-4aea-af7b-d43fdaacf384","ios":"levelo://app?vid=4474f66b-3eb6-4aea-af7b-d43fdaacf384"},"vehicle_type_id":"4","last_reported":1743488132,"current_range_meters":14800,"station_id":"","pricing_plan_id":"cebpf4jnsgd1na2vs0mg"},{"bike_id":"eec8e4eb-a54a-43be-9e77-ec12c2eb8995","system_id":"levelo_inurba_marseille","lat":43.28935,"lon":5.3963,"is_reserved":false,"is_disabled":false,"rental_uris":{"android":"levelo://app?vid=eec8e4eb-a54a-43be-9e77-ec12c2eb8995","ios":"levelo://app?vid=eec8e4eb-a54a-43be-9e77-ec12c2eb8995"},"vehicle_type_id":"4","last_reported":1743488132,"current_range_meters":15200,"station_id":"ce4bh3h2rcd13ifvqdn0","pricing_plan_id":"cebpf4jnsgd1na2vs0mg"},{"bike_id":"4c564b34-6817-415a-8489-26db1ea03ff9","system_id":"levelo_inurba_marseille","lat":43.2315,"lon":5.43702,"is_reserved":false,"is_disabled":false,"rental_uris":{"android":"levelo://app?vid=4c564b34-6817-415a-8489-26db1ea03ff9","ios":"levelo://app?vid=4c564b34-6817-415a-8489-26db1ea03ff9"},"vehicle_type_id":"4","last_reported":1743488132,"current_range_meters":15200,"station_id":"ce4bhmp2rcd13ifvqgog","pricing_plan_id":"cebpf4jnsgd1na2vs0mg"},{"bike_id":"ba9895d7-228c-4468-b2a3-7e61f625cb0b","system_id":"levelo_inurba_marseille","lat":43.317242,"lon":5.423941,"is_reserved":false,"is_disabled":false,"rental_uris":{"android":"levelo://app?vid=ba9895d7-228c-4468-b2a3-7e61f625cb0b","ios":"levelo://app?vid=ba9895d7-228c-4468-b2a3-7e61f625cb0b"},"vehicle_type_id":"4","last_reported":1743488132,"current_range_meters":15200,"station_id":"ce4bhp92rcd13ifvqhbg","pricing_plan_id":"cebpf4jnsgd1na2vs0mg"},{"bike_id":"67b0dca2-631a-498e-9a98-55627078357f","system_id":"levelo_inurba_marseille","lat":43.29619,"lon":5.40608,"is_reserved":false,"is_disabled":false,"rental_uris":{"android":"levelo://app?vid=67b0dca2-631a-498e-9a98-55627078357f","ios":"levelo://app?vid=67b0dca2-631a-498e-9a98-55627078357f"},"vehicle_type_id":"4","last_reported":1743488132,"current_range_meters":16000,"station_id":"ce4bh0h2rcd13ifvqd60","pricing_plan_id":"cebpf4jnsgd1na2vs0mg"},{"bike_id":"e04b1cbf-578e-43dd-82ec-ed8a072256c2","system_id":"levelo_inurba_marseille","lat":43.28692,"lon":5.37932,"is_reserved":false,"is_disabled":false,"rental_uris":{"android":"levelo://app?vid=e04b1cbf-578e-43dd-82ec-ed8a072256c2","ios":"levelo://app?vid=e04b1cbf-578e-43dd-82ec-ed8a072256c2"},"vehicle_type_id":"4","last_reported":1743488132,"current_range_meters":16000,"station_id":"ce4bh9p2rcd13ifvqec0","pricing_plan_id":"cebpf4jnsgd1na2vs0mg"},{"bike_id":"41abcc1e-313e-45c8-927f-6bfdf373ea8c","system_id":"levelo_inurba_marseille","lat":43.28937,"lon":5.36394,"is_reserved":false,"is_disabled":false,"rental_uris":{"android":"levelo://app?vid=41abcc1e-313e-45c8-927f-6bfdf373ea8c","ios":"levelo://app?vid=41abcc1e-313e-45c8-927f-6bfdf373ea8c"},"vehicle_type_id":"4","last_reported":1743488132,"current_range_meters":16000,"station_id":"ce4bhc92rcd13ifvqetg","pricing_plan_id":"cebpf4jnsgd1na2vs0mg"},{"bike_id":"4fba9a1b-0032-4ce1-843c-a85bdd1d6355","system_id":"levelo_inurba_marseille","lat":43.265,"lon":5.39541,"is_reserved":false,"is_disabled":false,"rental_uris":{"android":"levelo://app?vid=4fba9a1b-0032-4ce1-843c-a85bdd1d6355","ios":"levelo://app?vid=4fba9a1b-0032-4ce1-843c-a85bdd1d6355"},"vehicle_type_id":"4","last_reported":1743488132,"current_range_meters":16000,"station_id":"ce4bhi12rcd13ifvqfq0","pricing_plan_id":"cebpf4jnsgd1na2vs0mg"},{"bike_id":"fa868129-2f9e-4924-8ec8-3b1bc2aa10dc","system_id":"levelo_inurba_marseille","lat":43.32981,"lon":5.43884,"is_reserved":false,"is_disabled":false,"rental_uris":{"android":"levelo://app?vid=fa868129-2f9e-4924-8ec8-3b1bc2aa10dc","ios":"levelo://app?vid=fa868129-2f9e-4924-8ec8-3b1bc2aa10dc"},"vehicle_type_id":"4","last_reported":1743488132,"current_range_meters":16400,"station_id":"","pricing_plan_id":"cebpf4jnsgd1na2vs0mg"},{"bike_id":"d6073d5e-eb42-4845-b426-b0410622b2db","system_id":"levelo_inurba_marseille","lat":43.27827,"lon":5.39197,"is_reserved":false,"is_disabled":false,"rental_uris":{"android":"levelo://app?vid=d6073d5e-eb42-4845-b426-b0410622b2db","ios":"levelo://app?vid=d6073d5e-eb42-4845-b426-b0410622b2db"},"vehicle_type_id":"4","last_reported":1743488132,"current_range_meters":16400,"station_id":"ce4bhjp2rcd13ifvqga0","pricing_plan_id":"cebpf4jnsgd1na2vs0mg"},{"bike_id":"962fd783-90c8-4086-89fb-970de35df336","system_id":"levelo_inurba_marseille","lat":43.24175,"lon":5.39735,"is_reserved":false,"is_disabled":false,"rental_uris":{"android":"levelo://app?vid=962fd783-90c8-4086-89fb-970de35df336","ios":"levelo://app?vid=962fd783-90c8-4086-89fb-970de35df336"},"vehicle_type_id":"4","last_reported":1743488132,"current_range_meters":16400,"station_id":"ce4bhn12rcd13ifvqgpg","pricing_plan_id":"cebpf4jnsgd1na2vs0mg"},{"bike_id":"dd3db03f-0f43-4986-9ec8-2a76818fb28c","system_id":"levelo_inurba_marseille","lat":43.23179,"lon":5.35568,"is_reserved":false,"is_disabled":false,"rental_uris":{"android":"levelo://app?vid=dd3db03f-0f43-4986-9ec8-2a76818fb28c","ios":"levelo://app?vid=dd3db03f-0f43-4986-9ec8-2a76818fb28c"},"vehicle_type_id":"4","last_reported":1743488132,"current_range_meters":16400,"station_id":"ce4bhu92rcd13ifvqi70","pricing_plan_id":"cebpf4jnsgd1na2vs0mg"},{"bike_id":"75dae32f-059a-4b5b-a5e8-963c6eda2f66","system_id":"levelo_inurba_marseille","lat":43.27513,"lon":5.41049,"is_reserved":false,"is_disabled":false,"rental_uris":{"android":"levelo://app?vid=75dae32f-059a-4b5b-a5e8-963c6eda2f66","ios":"levelo://app?vid=75dae32f-059a-4b5b-a5e8-963c6eda2f66"},"vehicle_type_id":"4","last_reported":1743488132,"current_range_meters":16800,"station_id":"","pricing_plan_id":"cebpf4jnsgd1na2vs0mg"},{"bike_id":"bcff4569-fa8d-43bb-af31-b1b23b84c973","system_id":"levelo_inurba_marseille","lat":43.30425,"lon":5.38878,"is_reserved":false,"is_disabled":false,"rental_uris":{"android":"levelo://app?vid=bcff4569-fa8d-43bb-af31-b1b23b84c973","ios":"levelo://app?vid=bcff4569-fa8d-43bb-af31-b1b23b84c973"},"vehicle_type_id":"4","last_reported":1743488132,"current_range_meters":16800,"station_id":"ce4bgk12rcd13ifvqbi0","pricing_plan_id":"cebpf4jnsgd1na2vs0mg"},{"bike_id":"977536d9-ed77-4008-bda0-3f560c78983a","system_id":"levelo_inurba_marseille","lat":43.23184,"lon":5.39978,"is_reserved":false,"is_disabled":false,"rental_uris":{"android":"levelo://app?vid=977536d9-ed77-4008-bda0-3f560c78983a","ios":"levelo://app?vid=977536d9-ed77-4008-bda0-3f560c78983a"},"vehicle_type_id":"4","last_reported":1743488132,"current_range_meters":16800,"station_id":"ce4bhn12rcd13ifvqgqg","pricing_plan_id":"cebpf4jnsgd1na2vs0mg"},{"bike_id":"cdd751d6-f2e0-41b6-ae7f-f6402eaaba99","system_id":"levelo_inurba_marseille","lat":43.231865,"lon":5.39979,"is_reserved":false,"is_disabled":false,"rental_uris":{"android":"levelo://app?vid=cdd751d6-f2e0-41b6-ae7f-f6402eaaba99","ios":"levelo://app?vid=cdd751d6-f2e0-41b6-ae7f-f6402eaaba99"},"vehicle_type_id":"4","last_reported":1743488132,"current_range_meters":16800,"station_id":"ce4bhn12rcd13ifvqgqg","pricing_plan_id":"cebpf4jnsgd1na2vs0mg"},{"bike_id":"b80ee275-2592-4659-b2e9-175feb839700","system_id":"levelo_inurba_marseille","lat":43.232008,"lon":5.355452,"is_reserved":false,"is_disabled":false,"rental_uris":{"android":"levelo://app?vid=b80ee275-2592-4659-b2e9-175feb839700","ios":"levelo://app?vid=b80ee275-2592-4659-b2e9-175feb839700"},"vehicle_type_id":"4","last_reported":1743488132,"current_range_meters":16800,"station_id":"ce4bhu92rcd13ifvqi70","pricing_plan_id":"cebpf4jnsgd1na2vs0mg"},{"bike_id":"7bc03694-e65f-4cca-8576-b7d5276a8af3","system_id":"levelo_inurba_marseille","lat":43.33792,"lon":5.37429,"is_reserved":false,"is_disabled":false,"rental_uris":{"android":"levelo://app?vid=7bc03694-e65f-4cca-8576-b7d5276a8af3","ios":"levelo://app?vid=7bc03694-e65f-4cca-8576-b7d5276a8af3"},"vehicle_type_id":"4","last_reported":1743488132,"current_range_meters":17600,"station_id":"","pricing_plan_id":"cebpf4jnsgd1na2vs0mg"},{"bike_id":"4c6a1e10-a1fa-4e6a-bb9c-fcab838d8d0a","system_id":"levelo_inurba_marseille","lat":43.31218,"lon":5.36863,"is_reserved":false,"is_disabled":false,"rental_uris":{"android":"levelo://app?vid=4c6a1e10-a1fa-4e6a-bb9c-fcab838d8d0a","ios":"levelo://app?vid=4c6a1e10-a1fa-4e6a-bb9c-fcab838d8d0a"},"vehicle_type_id":"4","last_reported":1743488132,"current_range_meters":17600,"station_id":"ce4bgl92rcd13ifvqbq0","pricing_plan_id":"cebpf4jnsgd1na2vs0mg"},{"bike_id":"05887dc1-0418-4d7b-a1d4-6d5ea56db4eb","system_id":"levelo_inurba_marseille","lat":43.28342,"lon":5.38111,"is_reserved":false,"is_disabled":false,"rental_uris":{"android":"levelo://app?vid=05887dc1-0418-4d7b-a1d4-6d5ea56db4eb","ios":"levelo://app?vid=05887dc1-0418-4d7b-a1d4-6d5ea56db4eb"},"vehicle_type_id":"4","last_reported":1743488132,"current_range_meters":17600,"station_id":"ce4bh412rcd13ifvqdr0","pricing_plan_id":"cebpf4jnsgd1na2vs0mg"},{"bike_id":"1112535a-504b-4b56-a1cd-5ad567889f89","system_id":"levelo_inurba_marseille","lat":43.284917,"lon":5.385651,"is_reserved":false,"is_disabled":false,"rental_uris":{"android":"levelo://app?vid=1112535a-504b-4b56-a1cd-5ad567889f89","ios":"levelo://app?vid=1112535a-504b-4b56-a1cd-5ad567889f89"},"vehicle_type_id":"4","last_reported":1743488132,"current_range_meters":17600,"station_id":"ce4bh8p2rcd13ifvqeb0","pricing_plan_id":"cebpf4jnsgd1na2vs0mg"},{"bike_id":"7b869cea-1d61-42d2-b04b-29df5bd7497f","system_id":"levelo_inurba_marseille","lat":43.32071,"lon":5.36813,"is_reserved":false,"is_disabled":false,"rental_uris":{"android":"levelo://app?vid=7b869cea-1d61-42d2-b04b-29df5bd7497f","ios":"levelo://app?vid=7b869cea-1d61-42d2-b04b-29df5bd7497f"},"vehicle_type_id":"4","last_reported":1743488132,"current_range_meters":17600,"station_id":"ce4bhrh2rcd13ifvqhug","pricing_plan_id":"cebpf4jnsgd1na2vs0mg"},{"bike_id":"09db899d-041c-49e4-8dd3-2b2c7ab99631","system_id":"levelo_inurba_marseille","lat":43.33798,"lon":5.37427,"is_reserved":false,"is_disabled":false,"rental_uris":{"android":"levelo://app?vid=09db899d-041c-49e4-8dd3-2b2c7ab99631","ios":"levelo://app?vid=09db899d-041c-49e4-8dd3-2b2c7ab99631"},"vehicle_type_id":"4","last_reported":1743488132,"current_range_meters":18000,"station_id":"","pricing_plan_id":"cebpf4jnsgd1na2vs0mg"},{"bike_id":"d8fdaeca-bcbb-44f4-9db3-c65d94e47158","system_id":"levelo_inurba_marseille","lat":43.28347,"lon":5.38107,"is_reserved":false,"is_disabled":false,"rental_uris":{"android":"levelo://app?vid=d8fdaeca-bcbb-44f4-9db3-c65d94e47158","ios":"levelo://app?vid=d8fdaeca-bcbb-44f4-9db3-c65d94e47158"},"vehicle_type_id":"4","last_reported":1743488132,"current_range_meters":18000,"station_id":"ce4bh412rcd13ifvqdr0","pricing_plan_id":"cebpf4jnsgd1na2vs0mg"},{"bike_id":"82e77359-ee4b-43a1-a610-32134cd6d2ac","system_id":"levelo_inurba_marseille","lat":43.286138,"lon":5.351016,"is_reserved":false,"is_disabled":false,"rental_uris":{"android":"levelo://app?vid=82e77359-ee4b-43a1-a610-32134cd6d2ac","ios":"levelo://app?vid=82e77359-ee4b-43a1-a610-32134cd6d2ac"},"vehicle_type_id":"4","last_reported":1743488132,"current_range_meters":18000,"station_id":"ce4bhch2rcd13ifvqeug","pricing_plan_id":"cebpf4jnsgd1na2vs0mg"},{"bike_id":"4b74d3d7-562a-4979-84e0-8b55ba7163d0","system_id":"levelo_inurba_marseille","lat":43.260639,"lon":5.393979,"is_reserved":false,"is_disabled":false,"rental_uris":{"android":"levelo://app?vid=4b74d3d7-562a-4979-84e0-8b55ba7163d0","ios":"levelo://app?vid=4b74d3d7-562a-4979-84e0-8b55ba7163d0"},"vehicle_type_id":"4","last_reported":1743488132,"current_range_meters":18000,"station_id":"ce4bhh92rcd13ifvqfj0","pricing_plan_id":"cebpf4jnsgd1na2vs0mg"},{"bike_id":"ad4586b9-68b0-4c7f-8bdd-d49608a7f1bc","system_id":"levelo_inurba_marseille","lat":43.27814,"lon":5.40703,"is_reserved":false,"is_disabled":false,"rental_uris":{"android":"levelo://app?vid=ad4586b9-68b0-4c7f-8bdd-d49608a7f1bc","ios":"levelo://app?vid=ad4586b9-68b0-4c7f-8bdd-d49608a7f1bc"},"vehicle_type_id":"4","last_reported":1743488132,"current_range_meters":18000,"station_id":"ce4bhnh2rcd13ifvqgtg","pricing_plan_id":"cebpf4jnsgd1na2vs0mg"},{"bike_id":"d157a8ac-f1ea-480a-a1ee-9ac00962bb01","system_id":"levelo_inurba_marseille","lat":43.29547,"lon":5.42306,"is_reserved":false,"is_disabled":false,"rental_uris":{"android":"levelo://app?vid=d157a8ac-f1ea-480a-a1ee-9ac00962bb01","ios":"levelo://app?vid=d157a8ac-f1ea-480a-a1ee-9ac00962bb01"},"vehicle_type_id":"4","last_reported":1743488132,"current_range_meters":18000,"station_id":"ce4bhph2rcd13ifvqhdg","pricing_plan_id":"cebpf4jnsgd1na2vs0mg"},{"bike_id":"5765f793-2a97-46ae-a08f-416f68df8c7a","system_id":"levelo_inurba_marseille","lat":43.31483,"lon":5.37306,"is_reserved":false,"is_disabled":false,"rental_uris":{"android":"levelo://app?vid=5765f793-2a97-46ae-a08f-416f68df8c7a","ios":"levelo://app?vid=5765f793-2a97-46ae-a08f-416f68df8c7a"},"vehicle_type_id":"4","last_reported":1743488132,"current_range_meters":18800,"station_id":"ce4bgt12rcd13ifvqcd0","pricing_plan_id":"cebpf4jnsgd1na2vs0mg"},{"bike_id":"6c65ca65-1a57-4db0-aa92-171b7cd7f082","system_id":"levelo_inurba_marseille","lat":43.30257,"lon":5.40088,"is_reserved":false,"is_disabled":false,"rental_uris":{"android":"levelo://app?vid=6c65ca65-1a57-4db0-aa92-171b7cd7f082","ios":"levelo://app?vid=6c65ca65-1a57-4db0-aa92-171b7cd7f082"},"vehicle_type_id":"4","last_reported":1743488132,"current_range_meters":18800,"station_id":"ce4bgvh2rcd13ifvqcs0","pricing_plan_id":"cebpf4jnsgd1na2vs0mg"},{"bike_id":"4f621d3f-93db-4dda-8ce7-c3a3010d0da5","system_id":"levelo_inurba_marseille","lat":43.310101,"lon":5.370369,"is_reserved":false,"is_disabled":false,"rental_uris":{"android":"levelo://app?vid=4f621d3f-93db-4dda-8ce7-c3a3010d0da5","ios":"levelo://app?vid=4f621d3f-93db-4dda-8ce7-c3a3010d0da5"},"vehicle_type_id":"4","last_reported":1743488132,"current_range_meters":19200,"station_id":"","pricing_plan_id":"cebpf4jnsgd1na2vs0mg"},{"bike_id":"4a12488c-675f-4a79-a88f-71f05e306f37","system_id":"levelo_inurba_marseille","lat":43.30006,"lon":5.38481,"is_reserved":false,"is_disabled":false,"rental_uris":{"android":"levelo://app?vid=4a12488c-675f-4a79-a88f-71f05e306f37","ios":"levelo://app?vid=4a12488c-675f-4a79-a88f-71f05e306f37"},"vehicle_type_id":"4","last_reported":1743488132,"current_range_meters":19200,"station_id":"ce4bgj92rcd13ifvqbd0","pricing_plan_id":"cebpf4jnsgd1na2vs0mg"},{"bike_id":"fbeca43f-ecce-41cd-8399-4e195c8db6da","system_id":"levelo_inurba_marseille","lat":43.29015,"lon":5.39992,"is_reserved":false,"is_disabled":false,"rental_uris":{"android":"levelo://app?vid=fbeca43f-ecce-41cd-8399-4e195c8db6da","ios":"levelo://app?vid=fbeca43f-ecce-41cd-8399-4e195c8db6da"},"vehicle_type_id":"4","last_reported":1743488132,"current_range_meters":19200,"station_id":"ce4bh392rcd13ifvqdm0","pricing_plan_id":"cebpf4jnsgd1na2vs0mg"},{"bike_id":"c86416e6-3eab-4ffc-bdc0-1bd290b5afdb","system_id":"levelo_inurba_marseille","lat":43.284149,"lon":5.375158,"is_reserved":false,"is_disabled":false,"rental_uris":{"android":"levelo://app?vid=c86416e6-3eab-4ffc-bdc0-1bd290b5afdb","ios":"levelo://app?vid=c86416e6-3eab-4ffc-bdc0-1bd290b5afdb"},"vehicle_type_id":"4","last_reported":1743488132,"current_range_meters":19200,"station_id":"ce4bh412rcd13ifvqds0","pricing_plan_id":"cebpf4jnsgd1na2vs0mg"},{"bike_id":"1e764aae-ccf2-40bc-b3c4-27226284b25d","system_id":"levelo_inurba_marseille","lat":43.27054,"lon":5.40272,"is_reserved":false,"is_disabled":false,"rental_uris":{"android":"levelo://app?vid=1e764aae-ccf2-40bc-b3c4-27226284b25d","ios":"levelo://app?vid=1e764aae-ccf2-40bc-b3c4-27226284b25d"},"vehicle_type_id":"4","last_reported":1743488132,"current_range_meters":19200,"station_id":"ce4bhk92rcd13ifvqgc0","pricing_plan_id":"cebpf4jnsgd1na2vs0mg"},{"bike_id":"e3903415-859a-4d9b-b141-5943455167f0","system_id":"levelo_inurba_marseille","lat":43.23197,"lon":5.39975,"is_reserved":false,"is_disabled":false,"rental_uris":{"android":"levelo://app?vid=e3903415-859a-4d9b-b141-5943455167f0","ios":"levelo://app?vid=e3903415-859a-4d9b-b141-5943455167f0"},"vehicle_type_id":"4","last_reported":1743488132,"current_range_meters":19200,"station_id":"ce4bhn12rcd13ifvqgqg","pricing_plan_id":"cebpf4jnsgd1na2vs0mg"},{"bike_id":"8c2874c5-c9cb-485e-991a-10bbcb610af5","system_id":"levelo_inurba_marseille","lat":43.231826,"lon":5.399864,"is_reserved":false,"is_disabled":false,"rental_uris":{"android":"levelo://app?vid=8c2874c5-c9cb-485e-991a-10bbcb610af5","ios":"levelo://app?vid=8c2874c5-c9cb-485e-991a-10bbcb610af5"},"vehicle_type_id":"4","last_reported":1743488132,"current_range_meters":19200,"station_id":"ce4bhn12rcd13ifvqgqg","pricing_plan_id":"cebpf4jnsgd1na2vs0mg"},{"bike_id":"cd83c8ac-ed09-4369-9279-b6f36f2bbd3c","system_id":"levelo_inurba_marseille","lat":43.30792,"lon":5.3827,"is_reserved":false,"is_disabled":false,"rental_uris":{"android":"levelo://app?vid=cd83c8ac-ed09-4369-9279-b6f36f2bbd3c","ios":"levelo://app?vid=cd83c8ac-ed09-4369-9279-b6f36f2bbd3c"},"vehicle_type_id":"4","last_reported":1743488132,"current_range_meters":19600,"station_id":"","pricing_plan_id":"cebpf4jnsgd1na2vs0mg"},{"bike_id":"d65bbd24-e31b-4f87-a427-7cedbb8cf975","system_id":"levelo_inurba_marseille","lat":43.31086,"lon":5.367856,"is_reserved":false,"is_disabled":false,"rental_uris":{"android":"levelo://app?vid=d65bbd24-e31b-4f87-a427-7cedbb8cf975","ios":"levelo://app?vid=d65bbd24-e31b-4f87-a427-7cedbb8cf975"},"vehicle_type_id":"4","last_reported":1743488132,"current_range_meters":19600,"station_id":"ce4bgr92rcd13ifvqc6g","pricing_plan_id":"cebpf4jnsgd1na2vs0mg"},{"bike_id":"e2e84050-b1df-42f7-a349-75ac368b6b8f","system_id":"levelo_inurba_marseille","lat":43.30647,"lon":5.40074,"is_reserved":false,"is_disabled":false,"rental_uris":{"android":"levelo://app?vid=e2e84050-b1df-42f7-a349-75ac368b6b8f","ios":"levelo://app?vid=e2e84050-b1df-42f7-a349-75ac368b6b8f"},"vehicle_type_id":"4","last_reported":1743488132,"current_range_meters":19600,"station_id":"ce4bh112rcd13ifvqda0","pricing_plan_id":"cebpf4jnsgd1na2vs0mg"},{"bike_id":"33cf3a07-9183-4e54-abfc-0bc38ca47a4a","system_id":"levelo_inurba_marseille","lat":43.26206,"lon":5.37928,"is_reserved":false,"is_disabled":false,"rental_uris":{"android":"levelo://app?vid=33cf3a07-9183-4e54-abfc-0bc38ca47a4a","ios":"levelo://app?vid=33cf3a07-9183-4e54-abfc-0bc38ca47a4a"},"vehicle_type_id":"4","last_reported":1743488132,"current_range_meters":19600,"station_id":"ce4bhjp2rcd13ifvqg90","pricing_plan_id":"cebpf4jnsgd1na2vs0mg"},{"bike_id":"ccb14cda-6c4e-496c-8fc5-e1bfb96cf863","system_id":"levelo_inurba_marseille","lat":43.27493,"lon":5.42455,"is_reserved":false,"is_disabled":false,"rental_uris":{"android":"levelo://app?vid=ccb14cda-6c4e-496c-8fc5-e1bfb96cf863","ios":"levelo://app?vid=ccb14cda-6c4e-496c-8fc5-e1bfb96cf863"},"vehicle_type_id":"4","last_reported":1743488132,"current_range_meters":19600,"station_id":"ce4bhn92rcd13ifvqgrg","pricing_plan_id":"cebpf4jnsgd1na2vs0mg"},{"bike_id":"57d4876a-8f8b-4d87-897f-57dd486b8a04","system_id":"levelo_inurba_marseille","lat":43.33608,"lon":5.41032,"is_reserved":false,"is_disabled":false,"rental_uris":{"android":"levelo://app?vid=57d4876a-8f8b-4d87-897f-57dd486b8a04","ios":"levelo://app?vid=57d4876a-8f8b-4d87-897f-57dd486b8a04"},"vehicle_type_id":"4","last_reported":1743488132,"current_range_meters":19600,"station_id":"ce4bhqh2rcd13ifvqhmg","pricing_plan_id":"cebpf4jnsgd1na2vs0mg"},{"bike_id":"06eb6f57-5511-47ac-b796-23847114bf3e","system_id":"levelo_inurba_marseille","lat":43.283174,"lon":5.36096,"is_reserved":false,"is_disabled":false,"rental_uris":{"android":"levelo://app?vid=06eb6f57-5511-47ac-b796-23847114bf3e","ios":"levelo://app?vid=06eb6f57-5511-47ac-b796-23847114bf3e"},"vehicle_type_id":"4","last_reported":1743488132,"current_range_meters":20000,"station_id":"","pricing_plan_id":"cebpf4jnsgd1na2vs0mg"},{"bike_id":"da148363-22ea-4a2b-8830-e2dcfb88d08c","system_id":"levelo_inurba_marseille","lat":43.30218,"lon":5.38027,"is_reserved":false,"is_disabled":false,"rental_uris":{"android":"levelo://app?vid=da148363-22ea-4a2b-8830-e2dcfb88d08c","ios":"levelo://app?vid=da148363-22ea-4a2b-8830-e2dcfb88d08c"},"vehicle_type_id":"4","last_reported":1743488132,"current_range_meters":20000,"station_id":"ce4bgjp2rcd13ifvqbh0","pricing_plan_id":"cebpf4jnsgd1na2vs0mg"},{"bike_id":"07c33504-2284-44d4-a7b0-3ac565e0b359","system_id":"levelo_inurba_marseille","lat":43.31747,"lon":5.37727,"is_reserved":false,"is_disabled":false,"rental_uris":{"android":"levelo://app?vid=07c33504-2284-44d4-a7b0-3ac565e0b359","ios":"levelo://app?vid=07c33504-2284-44d4-a7b0-3ac565e0b359"},"vehicle_type_id":"4","last_reported":1743488132,"current_range_meters":20000,"station_id":"ce4bgth2rcd13ifvqch0","pricing_plan_id":"cebpf4jnsgd1na2vs0mg"},{"bike_id":"fe602837-67f0-4071-aeca-31c1f686785e","system_id":"levelo_inurba_marseille","lat":43.2572,"lon":5.41109,"is_reserved":false,"is_disabled":false,"rental_uris":{"android":"levelo://app?vid=fe602837-67f0-4071-aeca-31c1f686785e","ios":"levelo://app?vid=fe602837-67f0-4071-aeca-31c1f686785e"},"vehicle_type_id":"4","last_reported":1743488132,"current_range_meters":20000,"station_id":"ce4bhkp2rcd13ifvqgd0","pricing_plan_id":"cebpf4jnsgd1na2vs0mg"},{"bike_id":"6e05811e-06e7-4304-8ce9-6c25e6bc01dd","system_id":"levelo_inurba_marseille","lat":43.32072,"lon":5.3682,"is_reserved":false,"is_disabled":false,"rental_uris":{"android":"levelo://app?vid=6e05811e-06e7-4304-8ce9-6c25e6bc01dd","ios":"levelo://app?vid=6e05811e-06e7-4304-8ce9-6c25e6bc01dd"},"vehicle_type_id":"4","last_reported":1743488132,"current_range_meters":20000,"station_id":"ce4bhrh2rcd13ifvqhug","pricing_plan_id":"cebpf4jnsgd1na2vs0mg"},{"bike_id":"9c9137b0-6693-49a6-bedc-f2ea63e283a3","system_id":"levelo_inurba_marseille","lat":43.30709,"lon":5.36792,"is_reserved":false,"is_disabled":false,"rental_uris":{"android":"levelo://app?vid=9c9137b0-6693-49a6-bedc-f2ea63e283a3","ios":"levelo://app?vid=9c9137b0-6693-49a6-bedc-f2ea63e283a3"},"vehicle_type_id":"4","last_reported":1743488132,"current_range_meters":20400,"station_id":"","pricing_plan_id":"cebpf4jnsgd1na2vs0mg"},{"bike_id":"afca25a4-6504-43b2-ad24-93020efecf25","system_id":"levelo_inurba_marseille","lat":43.30448,"lon":5.37923,"is_reserved":false,"is_disabled":false,"rental_uris":{"android":"levelo://app?vid=afca25a4-6504-43b2-ad24-93020efecf25","ios":"levelo://app?vid=afca25a4-6504-43b2-ad24-93020efecf25"},"vehicle_type_id":"4","last_reported":1743488132,"current_range_meters":20400,"station_id":"ce4bgup2rcd13ifvqcn0","pricing_plan_id":"cebpf4jnsgd1na2vs0mg"},{"bike_id":"9c3694e3-52dc-4a4e-8938-c16e24e330c9","system_id":"levelo_inurba_marseille","lat":43.28345,"lon":5.38118,"is_reserved":false,"is_disabled":false,"rental_uris":{"android":"levelo://app?vid=9c3694e3-52dc-4a4e-8938-c16e24e330c9","ios":"levelo://app?vid=9c3694e3-52dc-4a4e-8938-c16e24e330c9"},"vehicle_type_id":"4","last_reported":1743488132,"current_range_meters":20400,"station_id":"ce4bh412rcd13ifvqdr0","pricing_plan_id":"cebpf4jnsgd1na2vs0mg"},{"bike_id":"65e8481b-75a2-4ec6-add7-6afd76e51a3a","system_id":"levelo_inurba_marseille","lat":43.2315,"lon":5.43724,"is_reserved":false,"is_disabled":false,"rental_uris":{"android":"levelo://app?vid=65e8481b-75a2-4ec6-add7-6afd76e51a3a","ios":"levelo://app?vid=65e8481b-75a2-4ec6-add7-6afd76e51a3a"},"vehicle_type_id":"4","last_reported":1743488132,"current_range_meters":20400,"station_id":"ce4bhmp2rcd13ifvqgog","pricing_plan_id":"cebpf4jnsgd1na2vs0mg"},{"bike_id":"181d7540-2847-4be6-bcaa-bb577f46f752","system_id":"levelo_inurba_marseille","lat":43.32272,"lon":5.38262,"is_reserved":false,"is_disabled":false,"rental_uris":{"android":"levelo://app?vid=181d7540-2847-4be6-bcaa-bb577f46f752","ios":"levelo://app?vid=181d7540-2847-4be6-bcaa-bb577f46f752"},"vehicle_type_id":"4","last_reported":1743488132,"current_range_meters":20400,"station_id":"ce4bhr12rcd13ifvqhqg","pricing_plan_id":"cebpf4jnsgd1na2vs0mg"},{"bike_id":"ccf26bf6-52fc-4f2a-afbb-c11f1e216121","system_id":"levelo_inurba_marseille","lat":43.33766,"lon":5.37447,"is_reserved":false,"is_disabled":false,"rental_uris":{"android":"levelo://app?vid=ccf26bf6-52fc-4f2a-afbb-c11f1e216121","ios":"levelo://app?vid=ccf26bf6-52fc-4f2a-afbb-c11f1e216121"},"vehicle_type_id":"4","last_reported":1743488132,"current_range_meters":20800,"station_id":"","pricing_plan_id":"cebpf4jnsgd1na2vs0mg"},{"bike_id":"3b5af23b-4872-4d88-bb22-afbe21d2d709","system_id":"levelo_inurba_marseille","lat":43.30154,"lon":5.38079,"is_reserved":false,"is_disabled":false,"rental_uris":{"android":"levelo://app?vid=3b5af23b-4872-4d88-bb22-afbe21d2d709","ios":"levelo://app?vid=3b5af23b-4872-4d88-bb22-afbe21d2d709"},"vehicle_type_id":"4","last_reported":1743488132,"current_range_meters":20800,"station_id":"ce4bgjp2rcd13ifvqbh0","pricing_plan_id":"cebpf4jnsgd1na2vs0mg"},{"bike_id":"221c0156-fbf1-47cc-914a-df4f0e358700","system_id":"levelo_inurba_marseille","lat":43.30479,"lon":5.37916,"is_reserved":false,"is_disabled":false,"rental_uris":{"android":"levelo://app?vid=221c0156-fbf1-47cc-914a-df4f0e358700","ios":"levelo://app?vid=221c0156-fbf1-47cc-914a-df4f0e358700"},"vehicle_type_id":"4","last_reported":1743488132,"current_range_meters":20800,"station_id":"ce4bgup2rcd13ifvqcn0","pricing_plan_id":"cebpf4jnsgd1na2vs0mg"},{"bike_id":"faf9fc5c-4c03-497a-b13c-df4035c2ca13","system_id":"levelo_inurba_marseille","lat":43.30588,"lon":5.39358,"is_reserved":false,"is_disabled":false,"rental_uris":{"android":"levelo://app?vid=faf9fc5c-4c03-497a-b13c-df4035c2ca13","ios":"levelo://app?vid=faf9fc5c-4c03-497a-b13c-df4035c2ca13"},"vehicle_type_id":"4","last_reported":1743488132,"current_range_meters":20800,"station_id":"ce4bh0p2rcd13ifvqd80","pricing_plan_id":"cebpf4jnsgd1na2vs0mg"},{"bike_id":"2be55957-9250-487c-85a2-afb2b0e7642a","system_id":"levelo_inurba_marseille","lat":43.28342,"lon":5.38115,"is_reserved":false,"is_disabled":false,"rental_uris":{"android":"levelo://app?vid=2be55957-9250-487c-85a2-afb2b0e7642a","ios":"levelo://app?vid=2be55957-9250-487c-85a2-afb2b0e7642a"},"vehicle_type_id":"4","last_reported":1743488132,"current_range_meters":20800,"station_id":"ce4bh412rcd13ifvqdr0","pricing_plan_id":"cebpf4jnsgd1na2vs0mg"},{"bike_id":"7df478f7-4ddc-4f7f-b893-d42feb3102a5","system_id":"levelo_inurba_marseille","lat":43.255776,"lon":5.382298,"is_reserved":false,"is_disabled":false,"rental_uris":{"android":"levelo://app?vid=7df478f7-4ddc-4f7f-b893-d42feb3102a5","ios":"levelo://app?vid=7df478f7-4ddc-4f7f-b893-d42feb3102a5"},"vehicle_type_id":"4","last_reported":1743488132,"current_range_meters":20800,"station_id":"cpo36qri1sfpv3e86is0","pricing_plan_id":"cebpf4jnsgd1na2vs0mg"},{"bike_id":"72862927-9635-4629-a70f-82ae88011c8e","system_id":"levelo_inurba_marseille","lat":43.295227,"lon":5.385195,"is_reserved":false,"is_disabled":false,"rental_uris":{"android":"levelo://app?vid=72862927-9635-4629-a70f-82ae88011c8e","ios":"levelo://app?vid=72862927-9635-4629-a70f-82ae88011c8e"},"vehicle_type_id":"4","last_reported":1743488132,"current_range_meters":21600,"station_id":"","pricing_plan_id":"cebpf4jnsgd1na2vs0mg"},{"bike_id":"9d3db0e9-c916-4334-9582-f7402ed3907a","system_id":"levelo_inurba_marseille","lat":43.30134,"lon":5.381,"is_reserved":false,"is_disabled":false,"rental_uris":{"android":"levelo://app?vid=9d3db0e9-c916-4334-9582-f7402ed3907a","ios":"levelo://app?vid=9d3db0e9-c916-4334-9582-f7402ed3907a"},"vehicle_type_id":"4","last_reported":1743488132,"current_range_meters":21600,"station_id":"ce4bgjp2rcd13ifvqbh0","pricing_plan_id":"cebpf4jnsgd1na2vs0mg"},{"bike_id":"66f55281-f9dc-4fb2-897b-1a81d22c6ac0","system_id":"levelo_inurba_marseille","lat":43.243878,"lon":5.370589,"is_reserved":false,"is_disabled":false,"rental_uris":{"android":"levelo://app?vid=66f55281-f9dc-4fb2-897b-1a81d22c6ac0","ios":"levelo://app?vid=66f55281-f9dc-4fb2-897b-1a81d22c6ac0"},"vehicle_type_id":"4","last_reported":1743488132,"current_range_meters":21600,"station_id":"ce4bhhh2rcd13ifvqfk0","pricing_plan_id":"cebpf4jnsgd1na2vs0mg"},{"bike_id":"3db21f2b-48b7-4462-96a6-d5e76276365b","system_id":"levelo_inurba_marseille","lat":43.33607,"lon":5.41024,"is_reserved":false,"is_disabled":false,"rental_uris":{"android":"levelo://app?vid=3db21f2b-48b7-4462-96a6-d5e76276365b","ios":"levelo://app?vid=3db21f2b-48b7-4462-96a6-d5e76276365b"},"vehicle_type_id":"4","last_reported":1743488132,"current_range_meters":21600,"station_id":"ce4bhqh2rcd13ifvqhmg","pricing_plan_id":"cebpf4jnsgd1na2vs0mg"},{"bike_id":"9846b91b-ec88-492a-8099-36e9e0ba09d8","system_id":"levelo_inurba_marseille","lat":43.30435,"lon":5.38891,"is_reserved":false,"is_disabled":false,"rental_uris":{"android":"levelo://app?vid=9846b91b-ec88-492a-8099-36e9e0ba09d8","ios":"levelo://app?vid=9846b91b-ec88-492a-8099-36e9e0ba09d8"},"vehicle_type_id":"4","last_reported":1743488132,"current_range_meters":22000,"station_id":"ce4bgk12rcd13ifvqbi0","pricing_plan_id":"cebpf4jnsgd1na2vs0mg"},{"bike_id":"f589a502-c33b-4891-84e4-a69832b76b7b","system_id":"levelo_inurba_marseille","lat":43.27424,"lon":5.39423,"is_reserved":false,"is_disabled":false,"rental_uris":{"android":"levelo://app?vid=f589a502-c33b-4891-84e4-a69832b76b7b","ios":"levelo://app?vid=f589a502-c33b-4891-84e4-a69832b76b7b"},"vehicle_type_id":"4","last_reported":1743488132,"current_range_meters":22000,"station_id":"ce4bhdp2rcd13ifvqf20","pricing_plan_id":"cebpf4jnsgd1na2vs0mg"},{"bike_id":"7cfa9651-c619-4f32-8438-45593b4b31b1","system_id":"levelo_inurba_marseille","lat":43.26946,"lon":5.3864,"is_reserved":false,"is_disabled":false,"rental_uris":{"android":"levelo://app?vid=7cfa9651-c619-4f32-8438-45593b4b31b1","ios":"levelo://app?vid=7cfa9651-c619-4f32-8438-45593b4b31b1"},"vehicle_type_id":"4","last_reported":1743488132,"current_range_meters":22000,"station_id":"ce4bhh92rcd13ifvqfh0","pricing_plan_id":"cebpf4jnsgd1na2vs0mg"},{"bike_id":"9b0db4f1-c6a1-4ca7-86c5-ec1daffe0ea2","system_id":"levelo_inurba_marseille","lat":43.25095,"lon":5.39515,"is_reserved":false,"is_disabled":false,"rental_uris":{"android":"levelo://app?vid=9b0db4f1-c6a1-4ca7-86c5-ec1daffe0ea2","ios":"levelo://app?vid=9b0db4f1-c6a1-4ca7-86c5-ec1daffe0ea2"},"vehicle_type_id":"4","last_reported":1743488132,"current_range_meters":22000,"station_id":"ce4bhm12rcd13ifvqgkg","pricing_plan_id":"cebpf4jnsgd1na2vs0mg"},{"bike_id":"d83bbe43-4e2b-4675-9435-ff0ff802a84d","system_id":"levelo_inurba_marseille","lat":43.24181,"lon":5.39729,"is_reserved":false,"is_disabled":false,"rental_uris":{"android":"levelo://app?vid=d83bbe43-4e2b-4675-9435-ff0ff802a84d","ios":"levelo://app?vid=d83bbe43-4e2b-4675-9435-ff0ff802a84d"},"vehicle_type_id":"4","last_reported":1743488132,"current_range_meters":22000,"station_id":"ce4bhn12rcd13ifvqgpg","pricing_plan_id":"cebpf4jnsgd1na2vs0mg"},{"bike_id":"60f7a92f-847c-41b2-a7c3-7d4daa33b7a8","system_id":"levelo_inurba_marseille","lat":43.24076,"lon":5.37757,"is_reserved":false,"is_disabled":false,"rental_uris":{"android":"levelo://app?vid=60f7a92f-847c-41b2-a7c3-7d4daa33b7a8","ios":"levelo://app?vid=60f7a92f-847c-41b2-a7c3-7d4daa33b7a8"},"vehicle_type_id":"4","last_reported":1743488132,"current_range_meters":22000,"station_id":"ce4bhnp2rcd13ifvqgvg","pricing_plan_id":"cebpf4jnsgd1na2vs0mg"},{"bike_id":"ca4618f7-2e1b-48c8-a7c2-9314560a1d02","system_id":"levelo_inurba_marseille","lat":43.336059,"lon":5.410225,"is_reserved":false,"is_disabled":false,"rental_uris":{"android":"levelo://app?vid=ca4618f7-2e1b-48c8-a7c2-9314560a1d02","ios":"levelo://app?vid=ca4618f7-2e1b-48c8-a7c2-9314560a1d02"},"vehicle_type_id":"4","last_reported":1743488132,"current_range_meters":22000,"station_id":"ce4bhqh2rcd13ifvqhmg","pricing_plan_id":"cebpf4jnsgd1na2vs0mg"},{"bike_id":"46c7dc79-c0c6-4c4c-958d-c42d930393d5","system_id":"levelo_inurba_marseille","lat":43.32074,"lon":5.36851,"is_reserved":false,"is_disabled":false,"rental_uris":{"android":"levelo://app?vid=46c7dc79-c0c6-4c4c-958d-c42d930393d5","ios":"levelo://app?vid=46c7dc79-c0c6-4c4c-958d-c42d930393d5"},"vehicle_type_id":"4","last_reported":1743488132,"current_range_meters":22400,"station_id":"","pricing_plan_id":"cebpf4jnsgd1na2vs0mg"},{"bike_id":"bb25a992-8529-4731-a3ed-d9125278815b","system_id":"levelo_inurba_marseille","lat":43.30463,"lon":5.37912,"is_reserved":false,"is_disabled":false,"rental_uris":{"android":"levelo://app?vid=bb25a992-8529-4731-a3ed-d9125278815b","ios":"levelo://app?vid=bb25a992-8529-4731-a3ed-d9125278815b"},"vehicle_type_id":"4","last_reported":1743488132,"current_range_meters":22400,"station_id":"ce4bgup2rcd13ifvqcn0","pricing_plan_id":"cebpf4jnsgd1na2vs0mg"},{"bike_id":"c3863b72-9f43-43cd-95ba-f8da2c98258d","system_id":"levelo_inurba_marseille","lat":43.28415,"lon":5.3752,"is_reserved":false,"is_disabled":false,"rental_uris":{"android":"levelo://app?vid=c3863b72-9f43-43cd-95ba-f8da2c98258d","ios":"levelo://app?vid=c3863b72-9f43-43cd-95ba-f8da2c98258d"},"vehicle_type_id":"4","last_reported":1743488132,"current_range_meters":22400,"station_id":"ce4bh412rcd13ifvqds0","pricing_plan_id":"cebpf4jnsgd1na2vs0mg"},{"bike_id":"850672dc-b2fe-4aef-9295-41ddbd01b718","system_id":"levelo_inurba_marseille","lat":43.25942,"lon":5.40924,"is_reserved":false,"is_disabled":false,"rental_uris":{"android":"levelo://app?vid=850672dc-b2fe-4aef-9295-41ddbd01b718","ios":"levelo://app?vid=850672dc-b2fe-4aef-9295-41ddbd01b718"},"vehicle_type_id":"4","last_reported":1743488132,"current_range_meters":22400,"station_id":"ce4bhm92rcd13ifvqglg","pricing_plan_id":"cebpf4jnsgd1na2vs0mg"},{"bike_id":"4ef8de21-81ae-41c1-8da8-af6c83441849","system_id":"levelo_inurba_marseille","lat":43.27496,"lon":5.42452,"is_reserved":false,"is_disabled":false,"rental_uris":{"android":"levelo://app?vid=4ef8de21-81ae-41c1-8da8-af6c83441849","ios":"levelo://app?vid=4ef8de21-81ae-41c1-8da8-af6c83441849"},"vehicle_type_id":"4","last_reported":1743488132,"current_range_meters":22400,"station_id":"ce4bhn92rcd13ifvqgrg","pricing_plan_id":"cebpf4jnsgd1na2vs0mg"},{"bike_id":"3d099367-9866-4f5c-84de-2f1d242b575a","system_id":"levelo_inurba_marseille","lat":43.27495,"lon":5.4245,"is_reserved":false,"is_disabled":false,"rental_uris":{"android":"levelo://app?vid=3d099367-9866-4f5c-84de-2f1d242b575a","ios":"levelo://app?vid=3d099367-9866-4f5c-84de-2f1d242b575a"},"vehicle_type_id":"4","last_reported":1743488132,"current_range_meters":22400,"station_id":"ce4bhn92rcd13ifvqgrg","pricing_plan_id":"cebpf4jnsgd1na2vs0mg"},{"bike_id":"97aa5e6f-e45b-4e21-a47e-52761ee9cdb1","system_id":"levelo_inurba_marseille","lat":43.32092,"lon":5.36782,"is_reserved":false,"is_disabled":false,"rental_uris":{"android":"levelo://app?vid=97aa5e6f-e45b-4e21-a47e-52761ee9cdb1","ios":"levelo://app?vid=97aa5e6f-e45b-4e21-a47e-52761ee9cdb1"},"vehicle_type_id":"4","last_reported":1743488132,"current_range_meters":22400,"station_id":"ce4bhrh2rcd13ifvqhug","pricing_plan_id":"cebpf4jnsgd1na2vs0mg"},{"bike_id":"f3183491-a6c4-47d9-98d1-7a1f95d4bf52","system_id":"levelo_inurba_marseille","lat":43.29805,"lon":5.38117,"is_reserved":false,"is_disabled":false,"rental_uris":{"android":"levelo://app?vid=f3183491-a6c4-47d9-98d1-7a1f95d4bf52","ios":"levelo://app?vid=f3183491-a6c4-47d9-98d1-7a1f95d4bf52"},"vehicle_type_id":"4","last_reported":1743488132,"current_range_meters":22800,"station_id":"ce4bgip2rcd13ifvqbb0","pricing_plan_id":"cebpf4jnsgd1na2vs0mg"},{"bike_id":"1b91c292-6812-4cfe-b207-e685d853d478","system_id":"levelo_inurba_marseille","lat":43.30532,"lon":5.36551,"is_reserved":false,"is_disabled":false,"rental_uris":{"android":"levelo://app?vid=1b91c292-6812-4cfe-b207-e685d853d478","ios":"levelo://app?vid=1b91c292-6812-4cfe-b207-e685d853d478"},"vehicle_type_id":"4","last_reported":1743488132,"current_range_meters":22800,"station_id":"ce4bgs12rcd13ifvqcag","pricing_plan_id":"cebpf4jnsgd1na2vs0mg"},{"bike_id":"b289f5f9-48cd-42be-a3bd-89337abd758e","system_id":"levelo_inurba_marseille","lat":43.30472,"lon":5.37911,"is_reserved":false,"is_disabled":false,"rental_uris":{"android":"levelo://app?vid=b289f5f9-48cd-42be-a3bd-89337abd758e","ios":"levelo://app?vid=b289f5f9-48cd-42be-a3bd-89337abd758e"},"vehicle_type_id":"4","last_reported":1743488132,"current_range_meters":22800,"station_id":"ce4bgup2rcd13ifvqcn0","pricing_plan_id":"cebpf4jnsgd1na2vs0mg"},{"bike_id":"0a19db3a-3ff1-49ef-a520-47f7faaa0206","system_id":"levelo_inurba_marseille","lat":43.302,"lon":5.39479,"is_reserved":false,"is_disabled":false,"rental_uris":{"android":"levelo://app?vid=0a19db3a-3ff1-49ef-a520-47f7faaa0206","ios":"levelo://app?vid=0a19db3a-3ff1-49ef-a520-47f7faaa0206"},"vehicle_type_id":"4","last_reported":1743488132,"current_range_meters":22800,"station_id":"ce4bh0p2rcd13ifvqd70","pricing_plan_id":"cebpf4jnsgd1na2vs0mg"},{"bike_id":"b399b68e-2155-4a72-829e-0516a33864b7","system_id":"levelo_inurba_marseille","lat":43.30642,"lon":5.4006,"is_reserved":false,"is_disabled":false,"rental_uris":{"android":"levelo://app?vid=b399b68e-2155-4a72-829e-0516a33864b7","ios":"levelo://app?vid=b399b68e-2155-4a72-829e-0516a33864b7"},"vehicle_type_id":"4","last_reported":1743488132,"current_range_meters":22800,"station_id":"ce4bh112rcd13ifvqda0","pricing_plan_id":"cebpf4jnsgd1na2vs0mg"},{"bike_id":"9fb349a3-45b3-4416-b44b-f5c2490eae3d","system_id":"levelo_inurba_marseille","lat":43.300855,"lon":5.390738,"is_reserved":false,"is_disabled":false,"rental_uris":{"android":"levelo://app?vid=9fb349a3-45b3-4416-b44b-f5c2490eae3d","ios":"levelo://app?vid=9fb349a3-45b3-4416-b44b-f5c2490eae3d"},