{"last_updated":1685207149,"ttl":30,"version":"2.2","data":{"bikes":[{"bike_id":"54716154-8db0-4266-ab8e-a58a594b5020","system_id":"levelo_inurba_marseille","lat":43.312239,"lon":5.368562,"is_reserved":false,"is_disabled":false,"rental_uris":{"android":"levelo://app?vid=54716154-8db0-4266-ab8e-a58a594b5020","ios":"levelo://app?vid=54716154-8db0-4266-ab8e-a58a594b5020"},"vehicle_type_id":"4","last_reported":1685207149,"current_range_meters":0,"station_id":"ce4bgl92rcd13ifvqbq0","pricing_plan_id":"free"},{"bike_id":"434b499d-a3c1-4d78-a194-5f95d610d127","system_id":"levelo_inurba_marseille","lat":43.309076,"lon":5.368465,"is_reserved":false,"is_disabled":false,"rental_uris":{"android":"levelo://app?vid=434b499d-a3c1-4d78-a194-5f95d610d127","ios":"levelo://app?vid=434b499d-a3c1-4d78-a194-5f95d610d127"},"vehicle_type_id":"4","last_reported":1685207149,"current_range_meters":7600,"station_id":"ce4bgn92rcd13ifvqbvg","pricing_plan_id":"free"},{"bike_id":"3277475c-03a6-4f60-9fe6-118522f4afc6","system_id":"levelo_inurba_marseille","lat":43.314811,"lon":5.373103,"is_reserved":false,"is_disabled":false,"rental_uris":{"android":"levelo://app?vid=3277475c-03a6-4f60-9fe6-118522f4afc6","ios":"levelo://app?vid=3277475c-03a6-4f60-9fe6-118522f4afc6"},"vehicle_type_id":"4","last_reported":1685207149,"current_range_meters":27600,"station_id":"ce4bgt12rcd13ifvqcd0","pricing_plan_id":"free"},{"bike_id":"b3a421fe-74f5-4dbe-bffe-b169c6f77325","system_id":"levelo_inurba_marseille","lat":43.305989,"lon":5.37225,"is_reserved":false,"is_disabled":false,"rental_uris":{"android":"levelo://app?vid=b3a421fe-74f5-4dbe-bffe-b169c6f77325","ios":"levelo://app?vid=b3a421fe-74f5-4dbe-bffe-b169c6f77325"},"vehicle_type_id":"4","last_reported":1685207149,"current_range_meters":23600,"station_id":"ce4bgqh2rcd13ifvqc4g","pricing_plan_id":"free"},{"bike_id":"304bbbfc-e1ec-4802-b268-5173235e1885","system_id":"levelo_inurba_marseille","lat":43.3048,"lon":5.36699,"is_reserved":false,"is_disabled":false,"rental_uris":{"android":"levelo://app?vid=304bbbfc-e1ec-4802-b268-5173235e1885","ios":"levelo://app?vid=304bbbfc-e1ec-4802-b268-5173235e1885"},"vehicle_type_id":"4","last_reported":1685207149,"current_range_meters":19200,"station_id":"","pricing_plan_id":"free"},{"bike_id":"b2f83fe0-8170-4fb3-b5ca-42fc93a0f249","system_id":"levelo_inurba_marseille","lat":43.31717,"lon":5.37746,"is_reserved":false,"is_disabled":false,"rental_uris":{"android":"levelo://app?vid=b2f83fe0-8170-4fb3-b5ca-42fc93a0f249","ios":"levelo://app?vid=b2f83fe0-8170-4fb3-b5ca-42fc93a0f249"},"vehicle_type_id":"4","last_reported":1685207149,"current_range_meters":9200,"station_id":"ce4bgth2rcd13ifvqch0","pricing_plan_id":"free"},{"bike_id":"ba33db60-4f58-477b-8cc4-fd5b7339d0ab","system_id":"levelo_inurba_marseille","lat":43.301939,"lon":5.366286,"is_reserved":false,"is_disabled":false,"rental_uris":{"android":"levelo://app?vid=ba33db60-4f58-477b-8cc4-fd5b7339d0ab","ios":"levelo://app?vid=ba33db60-4f58-477b-8cc4-fd5b7339d0ab"},"vehicle_type_id":"4","last_reported":1685207149,"current_range_meters":10800,"station_id":"ce4bgrh2rcd13ifvqc8g","pricing_plan_id":"free"},{"bike_id":"e5d2a1b9-56a8-4ee5-a905-3be01a810441","system_id":"levelo_inurba_marseille","lat":43.3019,"lon":5.36621,"is_reserved":false,"is_disabled":false,"rental_uris":{"android":"levelo://app?vid=e5d2a1b9-56a8-4ee5-a905-3be01a810441","ios":"levelo://app?vid=e5d2a1b9-56a8-4ee5-a905-3be01a810441"},"vehicle_type_id":"4","last_reported":1685207149,"current_range_meters":10000,"station_id":"ce4bgrh2rcd13ifvqc8g","pricing_plan_id":"free"},{"bike_id":"30fe600f-8c7b-4f5b-908e-e0b14c6498e0","system_id":"levelo_inurba_marseille","lat":43.301939,"lon":5.366286,"is_reserved":false,"is_disabled":false,"rental_uris":{"android":"levelo://app?vid=30fe600f-8c7b-4f5b-908e-e0b14c6498e0","ios":"levelo://app?vid=30fe600f-8c7b-4f5b-908e-e0b14c6498e0"},"vehicle_type_id":"4","last_reported":1685207149,"current_range_meters":4000,"station_id":"ce4bgrh2rcd13ifvqc8g","pricing_plan_id":"free"},{"bike_id":"7eb53555-11f1-4d07-9f3e-2b558458aa7c","system_id":"levelo_inurba_marseille","lat":43.308435,"lon":5.381155,"is_reserved":false,"is_disabled":false,"rental_uris":{"android":"levelo://app?vid=7eb53555-11f1-4d07-9f3e-2b558458aa7c","ios":"levelo://app?vid=7eb53555-11f1-4d07-9f3e-2b558458aa7c"},"vehicle_type_id":"4","last_reported":1685207149,"current_range_meters":9600,"station_id":"","pricing_plan_id":"free"},{"bike_id":"4002e0e4-3346-4712-bb56-52a027c1dfe1","system_id":"levelo_inurba_marseille","lat":43.30798,"lon":5.38166,"is_reserved":false,"is_disabled":false,"rental_uris":{"android":"levelo://app?vid=4002e0e4-3346-4712-bb56-52a027c1dfe1","ios":"levelo://app?vid=4002e0e4-3346-4712-bb56-52a027c1dfe1"},"vehicle_type_id":"4","last_reported":1685207149,"current_range_meters":18400,"station_id":"ce4bgt12rcd13ifvqce0","pricing_plan_id":"free"},{"bike_id":"59cfc450-0db5-4882-951e-859a25a7d928","system_id":"levelo_inurba_marseille","lat":43.304606,"lon":5.379026,"is_reserved":false,"is_disabled":false,"rental_uris":{"android":"levelo://app?vid=59cfc450-0db5-4882-951e-859a25a7d928","ios":"levelo://app?vid=59cfc450-0db5-4882-951e-859a25a7d928"},"vehicle_type_id":"4","last_reported":1685207149,"current_range_meters":11200,"station_id":"ce4bgup2rcd13ifvqcn0","pricing_plan_id":"free"},{"bike_id":"94c1de24-4058-45be-a445-f90bd4274a6f","system_id":"levelo_inurba_marseille","lat":43.301437,"lon":5.373974,"is_reserved":false,"is_disabled":false,"rental_uris":{"android":"levelo://app?vid=94c1de24-4058-45be-a445-f90bd4274a6f","ios":"levelo://app?vid=94c1de24-4058-45be-a445-f90bd4274a6f"},"vehicle_type_id":"4","last_reported":1685207149,"current_range_meters":0,"station_id":"","pricing_plan_id":"free"},{"bike_id":"81db7ef9-133d-43aa-9356-89f4215ccf59","system_id":"levelo_inurba_marseille","lat":43.301939,"lon":5.366286,"is_reserved":false,"is_disabled":false,"rental_uris":{"android":"levelo://app?vid=81db7ef9-133d-43aa-9356-89f4215ccf59","ios":"levelo://app?vid=81db7ef9-133d-43aa-9356-89f4215ccf59"},"vehicle_type_id":"4","last_reported":1685207149,"current_range_meters":3200,"station_id":"ce4bgrh2rcd13ifvqc8g","pricing_plan_id":"free"},{"bike_id":"9a10df30-a035-428c-8723-8b73ccf38c21","system_id":"levelo_inurba_marseille","lat":43.313571,"lon":5.384829,"is_reserved":false,"is_disabled":false,"rental_uris":{"android":"levelo://app?vid=9a10df30-a035-428c-8723-8b73ccf38c21","ios":"levelo://app?vid=9a10df30-a035-428c-8723-8b73ccf38c21"},"vehicle_type_id":"4","last_reported":1685207149,"current_range_meters":4400,"station_id":"ce4bgt92rcd13ifvqcf0","pricing_plan_id":"free"},{"bike_id":"edc96815-b3ab-4c58-b65b-672be6b50dea","system_id":"levelo_inurba_marseille","lat":43.31368,"lon":5.38508,"is_reserved":false,"is_disabled":false,"rental_uris":{"android":"levelo://app?vid=edc96815-b3ab-4c58-b65b-672be6b50dea","ios":"levelo://app?vid=edc96815-b3ab-4c58-b65b-672be6b50dea"},"vehicle_type_id":"4","last_reported":1685207149,"current_range_meters":18800,"station_id":"ce4bgt92rcd13ifvqcf0","pricing_plan_id":"free"},{"bike_id":"87866409-f2d1-4916-ba3c-6befa8a327b2","system_id":"levelo_inurba_marseille","lat":43.299222,"lon":5.365554,"is_reserved":false,"is_disabled":false,"rental_uris":{"android":"levelo://app?vid=87866409-f2d1-4916-ba3c-6befa8a327b2","ios":"levelo://app?vid=87866409-f2d1-4916-ba3c-6befa8a327b2"},"vehicle_type_id":"4","last_reported":1685207149,"current_range_meters":4000,"station_id":"ce4bgm92rcd13ifvqbr0","pricing_plan_id":"free"},{"bike_id":"8fad28b3-3946-4b78-b97d-77304c60f226","system_id":"levelo_inurba_marseille","lat":43.29935,"lon":5.36559,"is_reserved":false,"is_disabled":false,"rental_uris":{"android":"levelo://app?vid=8fad28b3-3946-4b78-b97d-77304c60f226","ios":"levelo://app?vid=8fad28b3-3946-4b78-b97d-77304c60f226"},"vehicle_type_id":"4","last_reported":1685207149,"current_range_meters":14400,"station_id":"ce4bgm92rcd13ifvqbr0","pricing_plan_id":"free"},{"bike_id":"62f3ac68-c50f-42be-8c26-61e3cd8632ae","system_id":"levelo_inurba_marseille","lat":43.298433,"lon":5.362774,"is_reserved":false,"is_disabled":false,"rental_uris":{"android":"levelo://app?vid=62f3ac68-c50f-42be-8c26-61e3cd8632ae","ios":"levelo://app?vid=62f3ac68-c50f-42be-8c26-61e3cd8632ae"},"vehicle_type_id":"4","last_reported":1685207149,"current_range_meters":3600,"station_id":"ce4bgpp2rcd13ifvqc3g","pricing_plan_id":"free"},{"bike_id":"1f72c050-0438-48ec-aa79-1d6945094749","system_id":"levelo_inurba_marseille","lat":43.328146,"lon":5.366879,"is_reserved":false,"is_disabled":false,"rental_uris":{"android":"levelo://app?vid=1f72c050-0438-48ec-aa79-1d6945094749","ios":"levelo://app?vid=1f72c050-0438-48ec-aa79-1d6945094749"},"vehicle_type_id":"4","last_reported":1685207149,"current_range_meters":4800,"station_id":"","pricing_plan_id":"free"},{"bike_id":"65cc97b7-cad9-4759-8e6f-67a57e5466f8","system_id":"levelo_inurba_marseille","lat":43.328371,"lon":5.366909,"is_reserved":false,"is_disabled":false,"rental_uris":{"android":"levelo://app?vid=65cc97b7-cad9-4759-8e6f-67a57e5466f8","ios":"levelo://app?vid=65cc97b7-cad9-4759-8e6f-67a57e5466f8"},"vehicle_type_id":"4","last_reported":1685207149,"current_range_meters":6000,"station_id":"ce4bhs92rcd13ifvqi0g","pricing_plan_id":"free"},{"bike_id":"3b07cc09-c795-45a1-8711-e2e32a7947a1","system_id":"levelo_inurba_marseille","lat":43.32833,"lon":5.36686,"is_reserved":false,"is_disabled":false,"rental_uris":{"android":"levelo://app?vid=3b07cc09-c795-45a1-8711-e2e32a7947a1","ios":"levelo://app?vid=3b07cc09-c795-45a1-8711-e2e32a7947a1"},"vehicle_type_id":"4","last_reported":1685207149,"current_range_meters":0,"station_id":"ce4bhs92rcd13ifvqi0g","pricing_plan_id":"free"},{"bike_id":"bd0b4929-6164-4472-82ac-319580bbcc4a","system_id":"levelo_inurba_marseille","lat":43.29714,"lon":5.36612,"is_reserved":false,"is_disabled":false,"rental_uris":{"android":"levelo://app?vid=bd0b4929-6164-4472-82ac-319580bbcc4a","ios":"levelo://app?vid=bd0b4929-6164-4472-82ac-319580bbcc4a"},"vehicle_type_id":"4","last_reported":1685207149,"current_range_meters":30400,"station_id":"","pricing_plan_id":"free"},{"bike_id":"6aadd20f-ee22-42f7-9c69-f3066c5dfcf1","system_id":"levelo_inurba_marseille","lat":43.328371,"lon":5.366909,"is_reserved":false,"is_disabled":false,"rental_uris":{"android":"levelo://app?vid=6aadd20f-ee22-42f7-9c69-f3066c5dfcf1","ios":"levelo://app?vid=6aadd20f-ee22-42f7-9c69-f3066c5dfcf1"},"vehicle_type_id":"4","last_reported":1685207149,"current_range_meters":14800,"station_id":"ce4bhs92rcd13ifvqi0g","pricing_plan_id":"free"},{"bike_id":"105a0b0f-08f0-4791-9615-568979920c02","system_id":"levelo_inurba_marseille","lat":43.29708,"lon":5.36596,"is_reserved":false,"is_disabled":false,"rental_uris":{"android":"levelo://app?vid=105a0b0f-08f0-4791-9615-568979920c02","ios":"levelo://app?vid=105a0b0f-08f0-4791-9615-568979920c02"},"vehicle_type_id":"4","last_reported":1685207149,"current_range_meters":4000,"station_id":"","pricing_plan_id":"free"},{"bike_id":"859f413a-e3be-487e-b25c-44a311bb7123","system_id":"levelo_inurba_marseille","lat":43.296131,"lon":5.370791,"is_reserved":false,"is_disabled":false,"rental_uris":{"android":"levelo://app?vid=859f413a-e3be-487e-b25c-44a311bb7123","ios":"levelo://app?vid=859f413a-e3be-487e-b25c-44a311bb7123"},"vehicle_type_id":"4","last_reported":1685207149,"current_range_meters":0,"station_id":"ce4bgnh2rcd13ifvqc0g","pricing_plan_id":"free"},{"bike_id":"8e0862c4-49bd-4f2b-b022-fcbf65b205f9","system_id":"levelo_inurba_marseille","lat":43.299028,"lon":5.381509,"is_reserved":false,"is_disabled":false,"rental_uris":{"android":"levelo://app?vid=8e0862c4-49bd-4f2b-b022-fcbf65b205f9","ios":"levelo://app?vid=8e0862c4-49bd-4f2b-b022-fcbf65b205f9"},"vehicle_type_id":"4","last_reported":1685207149,"current_range_meters":27200,"station_id":"ce4bgj12rcd13ifvqbc0","pricing_plan_id":"free"},{"bike_id":"a933a669-3d1d-41e8-8ac9-73cb34c9a648","system_id":"levelo_inurba_marseille","lat":43.299028,"lon":5.381509,"is_reserved":false,"is_disabled":false,"rental_uris":{"android":"levelo://app?vid=a933a669-3d1d-41e8-8ac9-73cb34c9a648","ios":"levelo://app?vid=a933a669-3d1d-41e8-8ac9-73cb34c9a648"},"vehicle_type_id":"4","last_reported":1685207149,"current_range_meters":12800,"station_id":"ce4bgj12rcd13ifvqbc0","pricing_plan_id":"free"},{"bike_id":"5efe5066-dae8-4e9e-b4b1-bb9053e5b95b","system_id":"levelo_inurba_marseille","lat":43.299028,"lon":5.381509,"is_reserved":false,"is_disabled":false,"rental_uris":{"android":"levelo://app?vid=5efe5066-dae8-4e9e-b4b1-bb9053e5b95b","ios":"levelo://app?vid=5efe5066-dae8-4e9e-b4b1-bb9053e5b95b"},"vehicle_type_id":"4","last_reported":1685207149,"current_range_meters":19200,"station_id":"ce4bgj12rcd13ifvqbc0","pricing_plan_id":"free"},{"bike_id":"2f344b05-96c2-477e-a3fa-0af1af6d33ad","system_id":"levelo_inurba_marseille","lat":43.309589,"lon":5.390258,"is_reserved":false,"is_disabled":false,"rental_uris":{"android":"levelo://app?vid=2f344b05-96c2-477e-a3fa-0af1af6d33ad","ios":"levelo://app?vid=2f344b05-96c2-477e-a3fa-0af1af6d33ad"},"vehicle_type_id":"4","last_reported":1685207149,"current_range_meters":0,"station_id":"ce4bgup2rcd13ifvqco0","pricing_plan_id":"free"},{"bike_id":"6c3e0481-4816-4329-94dc-2f3ab55f6fea","system_id":"levelo_inurba_marseille","lat":43.309589,"lon":5.390258,"is_reserved":false,"is_disabled":false,"rental_uris":{"android":"levelo://app?vid=6c3e0481-4816-4329-94dc-2f3ab55f6fea","ios":"levelo://app?vid=6c3e0481-4816-4329-94dc-2f3ab55f6fea"},"vehicle_type_id":"4","last_reported":1685207149,"current_range_meters":23600,"station_id":"ce4bgup2rcd13ifvqco0","pricing_plan_id":"free"},{"bike_id":"b79501ed-c0d8-4767-99e7-a47e0d879be0","system_id":"levelo_inurba_marseille","lat":43.309589,"lon":5.390258,"is_reserved":false,"is_disabled":false,"rental_uris":{"android":"levelo://app?vid=b79501ed-c0d8-4767-99e7-a47e0d879be0","ios":"levelo://app?vid=b79501ed-c0d8-4767-99e7-a47e0d879be0"},"vehicle_type_id":"4","last_reported":1685207149,"current_range_meters":17600,"station_id":"ce4bgup2rcd13ifvqco0","pricing_plan_id":"free"},{"bike_id":"448c62fc-6495-4ffc-ae07-5c41772e145b","system_id":"levelo_inurba_marseille","lat":43.309589,"lon":5.390258,"is_reserved":false,"is_disabled":false,"rental_uris":{"android":"levelo://app?vid=448c62fc-6495-4ffc-ae07-5c41772e145b","ios":"levelo://app?vid=448c62fc-6495-4ffc-ae07-5c41772e145b"},"vehicle_type_id":"4","last_reported":1685207149,"current_range_meters":16800,"station_id":"ce4bgup2rcd13ifvqco0","pricing_plan_id":"free"},{"bike_id":"ab87b208-680b-4ab1-9564-50953473aff6","system_id":"levelo_inurba_marseille","lat":43.309589,"lon":5.390258,"is_reserved":false,"is_disabled":false,"rental_uris":{"android":"levelo://app?vid=ab87b208-680b-4ab1-9564-50953473aff6","ios":"levelo://app?vid=ab87b208-680b-4ab1-9564-50953473aff6"},"vehicle_type_id":"4","last_reported":1685207149,"current_range_meters":16000,"station_id":"ce4bgup2rcd13ifvqco0","pricing_plan_id":"free"},{"bike_id":"c68837c8-74cf-4f31-82c2-d93e523ebb19","system_id":"levelo_inurba_marseille","lat":43.309589,"lon":5.390258,"is_reserved":false,"is_disabled":false,"rental_uris":{"android":"levelo://app?vid=c68837c8-74cf-4f31-82c2-d93e523ebb19","ios":"levelo://app?vid=c68837c8-74cf-4f31-82c2-d93e523ebb19"},"vehicle_type_id":"4","last_reported":1685207149,"current_range_meters":8800,"station_id":"ce4bgup2rcd13ifvqco0","pricing_plan_id":"free"},{"bike_id":"f24b89c9-ffff-4a3e-a27a-36808fe3f6b6","system_id":"levelo_inurba_marseille","lat":43.309589,"lon":5.390258,"is_reserved":false,"is_disabled":false,"rental_uris":{"android":"levelo://app?vid=f24b89c9-ffff-4a3e-a27a-36808fe3f6b6","ios":"levelo://app?vid=f24b89c9-ffff-4a3e-a27a-36808fe3f6b6"},"vehicle_type_id":"4","last_reported":1685207149,"current_range_meters":14800,"station_id":"ce4bgup2rcd13ifvqco0","pricing_plan_id":"free"},{"bike_id":"e57f6cef-8c51-4060-b6b5-92130aa20c3b","system_id":"levelo_inurba_marseille","lat":43.309589,"lon":5.390258,"is_reserved":false,"is_disabled":false,"rental_uris":{"android":"levelo://app?vid=e57f6cef-8c51-4060-b6b5-92130aa20c3b","ios":"levelo://app?vid=e57f6cef-8c51-4060-b6b5-92130aa20c3b"},"vehicle_type_id":"4","last_reported":1685207149,"current_range_meters":26400,"station_id":"ce4bgup2rcd13ifvqco0","pricing_plan_id":"free"},{"bike_id":"72966e51-d58a-4fc8-a11a-bed670ea3838","system_id":"levelo_inurba_marseille","lat":43.2962,"lon":5.37728,"is_reserved":false,"is_disabled":false,"rental_uris":{"android":"levelo://app?vid=72966e51-d58a-4fc8-a11a-bed670ea3838","ios":"levelo://app?vid=72966e51-d58a-4fc8-a11a-bed670ea3838"},"vehicle_type_id":"4","last_reported":1685207149,"current_range_meters":0,"station_id":"ce4bgi92rcd13ifvqb90","pricing_plan_id":"free"},{"bike_id":"7bef7a89-27f5-450f-aebb-ef3c11867233","system_id":"levelo_inurba_marseille","lat":43.29969,"lon":5.38491,"is_reserved":false,"is_disabled":false,"rental_uris":{"android":"levelo://app?vid=7bef7a89-27f5-450f-aebb-ef3c11867233","ios":"levelo://app?vid=7bef7a89-27f5-450f-aebb-ef3c11867233"},"vehicle_type_id":"4","last_reported":1685207149,"current_range_meters":0,"station_id":"ce4bgj92rcd13ifvqbd0","pricing_plan_id":"free"},{"bike_id":"3289b7bc-6138-4ebb-8d82-2b0e69f1f911","system_id":"levelo_inurba_marseille","lat":43.296556,"lon":5.381226,"is_reserved":false,"is_disabled":false,"rental_uris":{"android":"levelo://app?vid=3289b7bc-6138-4ebb-8d82-2b0e69f1f911","ios":"levelo://app?vid=3289b7bc-6138-4ebb-8d82-2b0e69f1f911"},"vehicle_type_id":"4","last_reported":1685207149,"current_range_meters":0,"station_id":"","pricing_plan_id":"free"},{"bike_id":"0edf322c-f3f9-43dc-9658-9e9f3dc5037e","system_id":"levelo_inurba_marseille","lat":43.293249,"lon":5.371578,"is_reserved":false,"is_disabled":false,"rental_uris":{"android":"levelo://app?vid=0edf322c-f3f9-43dc-9658-9e9f3dc5037e","ios":"levelo://app?vid=0edf322c-f3f9-43dc-9658-9e9f3dc5037e"},"vehicle_type_id":"4","last_reported":1685207149,"current_range_meters":0,"station_id":"ce4bgh92rcd13ifvqb40","pricing_plan_id":"free"},{"bike_id":"d8ea81bf-44a7-4431-a66e-d267c0b53e3b","system_id":"levelo_inurba_marseille","lat":43.293249,"lon":5.371578,"is_reserved":false,"is_disabled":false,"rental_uris":{"android":"levelo://app?vid=d8ea81bf-44a7-4431-a66e-d267c0b53e3b","ios":"levelo://app?vid=d8ea81bf-44a7-4431-a66e-d267c0b53e3b"},"vehicle_type_id":"4","last_reported":1685207149,"current_range_meters":0,"station_id":"ce4bgh92rcd13ifvqb40","pricing_plan_id":"free"},{"bike_id":"8666333f-5eb3-49a6-975f-5514ccc9f902","system_id":"levelo_inurba_marseille","lat":43.293009,"lon":5.374584,"is_reserved":false,"is_disabled":false,"rental_uris":{"android":"levelo://app?vid=8666333f-5eb3-49a6-975f-5514ccc9f902","ios":"levelo://app?vid=8666333f-5eb3-49a6-975f-5514ccc9f902"},"vehicle_type_id":"4","last_reported":1685207149,"current_range_meters":6000,"station_id":"ce4bgi12rcd13ifvqb70","pricing_plan_id":"free"},{"bike_id":"3a2c2709-22ce-466c-9ba9-f00639ccda33","system_id":"levelo_inurba_marseille","lat":43.300852,"lon":5.390859,"is_reserved":false,"is_disabled":false,"rental_uris":{"android":"levelo://app?vid=3a2c2709-22ce-466c-9ba9-f00639ccda33","ios":"levelo://app?vid=3a2c2709-22ce-466c-9ba9-f00639ccda33"},"vehicle_type_id":"4","last_reported":1685207149,"current_range_meters":0,"station_id":"ce4bh192rcd13ifvqdb0","pricing_plan_id":"free"},{"bike_id":"5610fc61-6947-4670-ba54-dbaa25f4254f","system_id":"levelo_inurba_marseille","lat":43.313291,"lon":5.396838,"is_reserved":false,"is_disabled":false,"rental_uris":{"android":"levelo://app?vid=5610fc61-6947-4670-ba54-dbaa25f4254f","ios":"levelo://app?vid=5610fc61-6947-4670-ba54-dbaa25f4254f"},"vehicle_type_id":"4","last_reported":1685207149,"current_range_meters":400,"station_id":"ce4bgvp2rcd13ifvqcu0","pricing_plan_id":"free"},{"bike_id":"fe4e4fe8-f1e9-4de3-a5da-831cb263befb","system_id":"levelo_inurba_marseille","lat":43.29156,"lon":5.35906,"is_reserved":false,"is_disabled":false,"rental_uris":{"android":"levelo://app?vid=fe4e4fe8-f1e9-4de3-a5da-831cb263befb","ios":"levelo://app?vid=fe4e4fe8-f1e9-4de3-a5da-831cb263befb"},"vehicle_type_id":"4","last_reported":1685207149,"current_range_meters":0,"station_id":"","pricing_plan_id":"free"},{"bike_id":"59879fd3-1122-4f98-973e-72d1a4582a07","system_id":"levelo_inurba_marseille","lat":43.29529,"lon":5.385581,"is_reserved":false,"is_disabled":false,"rental_uris":{"android":"levelo://app?vid=59879fd3-1122-4f98-973e-72d1a4582a07","ios":"levelo://app?vid=59879fd3-1122-4f98-973e-72d1a4582a07"},"vehicle_type_id":"4","last_reported":1685207149,"current_range_meters":2000,"station_id":"ce4bgih2rcd13ifvqba0","pricing_plan_id":"free"},{"bike_id":"fc7bc395-21dd-4169-9d33-3485e4c0e871","system_id":"levelo_inurba_marseille","lat":43.2953,"lon":5.38545,"is_reserved":false,"is_disabled":false,"rental_uris":{"android":"levelo://app?vid=fc7bc395-21dd-4169-9d33-3485e4c0e871","ios":"levelo://app?vid=fc7bc395-21dd-4169-9d33-3485e4c0e871"},"vehicle_type_id":"4","last_reported":1685207149,"current_range_meters":4000,"station_id":"ce4bgih2rcd13ifvqba0","pricing_plan_id":"free"},{"bike_id":"e78afd3f-4bab-4ea9-a211-cf831cd289e1","system_id":"levelo_inurba_marseille","lat":43.29529,"lon":5.385581,"is_reserved":false,"is_disabled":false,"rental_uris":{"android":"levelo://app?vid=e78afd3f-4bab-4ea9-a211-cf831cd289e1","ios":"levelo://app?vid=e78afd3f-4bab-4ea9-a211-cf831cd289e1"},"vehicle_type_id":"4","last_reported":1685207149,"current_range_meters":7200,"station_id":"ce4bgih2rcd13ifvqba0","pricing_plan_id":"free"},{"bike_id":"cc2545c1-15cf-46c1-a216-e75b07ce3e1b","system_id":"levelo_inurba_marseille","lat":43.290779,"lon":5.371482,"is_reserved":false,"is_disabled":false,"rental_uris":{"android":"levelo://app?vid=cc2545c1-15cf-46c1-a216-e75b07ce3e1b","ios":"levelo://app?vid=cc2545c1-15cf-46c1-a216-e75b07ce3e1b"},"vehicle_type_id":"4","last_reported":1685207149,"current_range_meters":0,"station_id":"ce4bh5p2rcd13ifvqe4g","pricing_plan_id":"free"},{"bike_id":"1cab0db9-cd5e-4877-9d5a-a24d4a0cb6d8","system_id":"levelo_inurba_marseille","lat":43.29896,"lon":5.39197,"is_reserved":false,"is_disabled":false,"rental_uris":{"android":"levelo://app?vid=1cab0db9-cd5e-4877-9d5a-a24d4a0cb6d8","ios":"levelo://app?vid=1cab0db9-cd5e-4877-9d5a-a24d4a0cb6d8"},"vehicle_type_id":"4","last_reported":1685207149,"current_range_meters":8400,"station_id":"","pricing_plan_id":"free"},{"bike_id":"6044c1cc-e07f-4cfe-9447-2a355413498d","system_id":"levelo_inurba_marseille","lat":43.2904,"lon":5.35904,"is_reserved":false,"is_disabled":false,"rental_uris":{"android":"levelo://app?vid=6044c1cc-e07f-4cfe-9447-2a355413498d","ios":"levelo://app?vid=6044c1cc-e07f-4cfe-9447-2a355413498d"},"vehicle_type_id":"4","last_reported":1685207149,"current_range_meters":0,"station_id":"","pricing_plan_id":"free"},{"bike_id":"81da0970-441d-4278-b9d8-b0039b5a08e2","system_id":"levelo_inurba_marseille","lat":43.2942,"lon":5.38624,"is_reserved":false,"is_disabled":false,"rental_uris":{"android":"levelo://app?vid=81da0970-441d-4278-b9d8-b0039b5a08e2","ios":"levelo://app?vid=81da0970-441d-4278-b9d8-b0039b5a08e2"},"vehicle_type_id":"4","last_reported":1685207149,"current_range_meters":3600,"station_id":"ce4bh2h2rcd13ifvqdh0","pricing_plan_id":"free"},{"bike_id":"12004aea-cb96-4792-ae06-a08f301e4b6e","system_id":"levelo_inurba_marseille","lat":43.294153,"lon":5.386305,"is_reserved":false,"is_disabled":false,"rental_uris":{"android":"levelo://app?vid=12004aea-cb96-4792-ae06-a08f301e4b6e","ios":"levelo://app?vid=12004aea-cb96-4792-ae06-a08f301e4b6e"},"vehicle_type_id":"4","last_reported":1685207149,"current_range_meters":6800,"station_id":"ce4bh2h2rcd13ifvqdh0","pricing_plan_id":"free"},{"bike_id":"bccaa70f-1408-4a3d-bc3e-efb5a1248b5d","system_id":"levelo_inurba_marseille","lat":43.294162,"lon":5.386292,"is_reserved":false,"is_disabled":false,"rental_uris":{"android":"levelo://app?vid=bccaa70f-1408-4a3d-bc3e-efb5a1248b5d","ios":"levelo://app?vid=bccaa70f-1408-4a3d-bc3e-efb5a1248b5d"},"vehicle_type_id":"4","last_reported":1685207149,"current_range_meters":800,"station_id":"ce4bh2h2rcd13ifvqdh0","pricing_plan_id":"free"},{"bike_id":"23b6b01d-e846-46f4-a662-4b8c6e86fe65","system_id":"levelo_inurba_marseille","lat":43.304296,"lon":5.397513,"is_reserved":false,"is_disabled":false,"rental_uris":{"android":"levelo://app?vid=23b6b01d-e846-46f4-a662-4b8c6e86fe65","ios":"levelo://app?vid=23b6b01d-e846-46f4-a662-4b8c6e86fe65"},"vehicle_type_id":"4","last_reported":1685207149,"current_range_meters":400,"station_id":"ce4bh092rcd13ifvqd20","pricing_plan_id":"free"},{"bike_id":"84c07c36-2253-4928-ad6e-059903337581","system_id":"levelo_inurba_marseille","lat":43.309076,"lon":5.368465,"is_reserved":false,"is_disabled":false,"rental_uris":{"android":"levelo://app?vid=84c07c36-2253-4928-ad6e-059903337581","ios":"levelo://app?vid=84c07c36-2253-4928-ad6e-059903337581"},"vehicle_type_id":"4","last_reported":1685207149,"current_range_meters":6000,"station_id":"ce4bgn92rcd13ifvqbvg","pricing_plan_id":"free"},{"bike_id":"a0b05998-58ef-4489-864b-98f8d50744e2","system_id":"levelo_inurba_marseille","lat":43.295169,"lon":5.390426,"is_reserved":false,"is_disabled":false,"rental_uris":{"android":"levelo://app?vid=a0b05998-58ef-4489-864b-98f8d50744e2","ios":"levelo://app?vid=a0b05998-58ef-4489-864b-98f8d50744e2"},"vehicle_type_id":"4","last_reported":1685207149,"current_range_meters":3200,"station_id":"ce4bh3p2rcd13ifvqdp0","pricing_plan_id":"free"},{"bike_id":"c67b547c-3fcb-4384-8614-e15f558fec55","system_id":"levelo_inurba_marseille","lat":43.33744,"lon":5.37451,"is_reserved":false,"is_disabled":false,"rental_uris":{"android":"levelo://app?vid=c67b547c-3fcb-4384-8614-e15f558fec55","ios":"levelo://app?vid=c67b547c-3fcb-4384-8614-e15f558fec55"},"vehicle_type_id":"4","last_reported":1685207149,"current_range_meters":30400,"station_id":"","pricing_plan_id":"free"},{"bike_id":"493860ce-e063-4684-ab33-c360eaf64153","system_id":"levelo_inurba_marseille","lat":43.33744,"lon":5.37451,"is_reserved":false,"is_disabled":false,"rental_uris":{"android":"levelo://app?vid=493860ce-e063-4684-ab33-c360eaf64153","ios":"levelo://app?vid=493860ce-e063-4684-ab33-c360eaf64153"},"vehicle_type_id":"4","last_reported":1685207149,"current_range_meters":21200,"station_id":"","pricing_plan_id":"free"},{"bike_id":"4a9be2f7-5d74-4d13-b74a-62d2aef957fc","system_id":"levelo_inurba_marseille","lat":43.337564,"lon":5.374517,"is_reserved":false,"is_disabled":false,"rental_uris":{"android":"levelo://app?vid=4a9be2f7-5d74-4d13-b74a-62d2aef957fc","ios":"levelo://app?vid=4a9be2f7-5d74-4d13-b74a-62d2aef957fc"},"vehicle_type_id":"4","last_reported":1685207149,"current_range_meters":30400,"station_id":"","pricing_plan_id":"free"},{"bike_id":"21bebb90-bd37-4351-9ead-f26273aea005","system_id":"levelo_inurba_marseille","lat":43.33759,"lon":5.37441,"is_reserved":false,"is_disabled":false,"rental_uris":{"android":"levelo://app?vid=21bebb90-bd37-4351-9ead-f26273aea005","ios":"levelo://app?vid=21bebb90-bd37-4351-9ead-f26273aea005"},"vehicle_type_id":"4","last_reported":1685207149,"current_range_meters":15200,"station_id":"","pricing_plan_id":"free"},{"bike_id":"5aaf445f-f097-4041-99e9-0b2edc8a39b1","system_id":"levelo_inurba_marseille","lat":43.3376,"lon":5.37438,"is_reserved":false,"is_disabled":false,"rental_uris":{"android":"levelo://app?vid=5aaf445f-f097-4041-99e9-0b2edc8a39b1","ios":"levelo://app?vid=5aaf445f-f097-4041-99e9-0b2edc8a39b1"},"vehicle_type_id":"4","last_reported":1685207149,"current_range_meters":24000,"station_id":"","pricing_plan_id":"free"},{"bike_id":"9e8ba907-b276-46b3-a0d4-643791b8cf62","system_id":"levelo_inurba_marseille","lat":43.33758,"lon":5.37457,"is_reserved":false,"is_disabled":false,"rental_uris":{"android":"levelo://app?vid=9e8ba907-b276-46b3-a0d4-643791b8cf62","ios":"levelo://app?vid=9e8ba907-b276-46b3-a0d4-643791b8cf62"},"vehicle_type_id":"4","last_reported":1685207149,"current_range_meters":30400,"station_id":"","pricing_plan_id":"free"},{"bike_id":"141c14ea-594b-43ee-894e-8c44af1dcd73","system_id":"levelo_inurba_marseille","lat":43.33759,"lon":5.37453,"is_reserved":false,"is_disabled":false,"rental_uris":{"android":"levelo://app?vid=141c14ea-594b-43ee-894e-8c44af1dcd73","ios":"levelo://app?vid=141c14ea-594b-43ee-894e-8c44af1dcd73"},"vehicle_type_id":"4","last_reported":1685207149,"current_range_meters":11200,"station_id":"","pricing_plan_id":"free"},{"bike_id":"556c6db1-2600-4c2b-9521-aae8453517c1","system_id":"levelo_inurba_marseille","lat":43.33763,"lon":5.37442,"is_reserved":false,"is_disabled":false,"rental_uris":{"android":"levelo://app?vid=556c6db1-2600-4c2b-9521-aae8453517c1","ios":"levelo://app?vid=556c6db1-2600-4c2b-9521-aae8453517c1"},"vehicle_type_id":"4","last_reported":1685207149,"current_range_meters":17200,"station_id":"","pricing_plan_id":"free"},{"bike_id":"c622c08e-a260-4027-b92a-839107253eb5","system_id":"levelo_inurba_marseille","lat":43.33764,"lon":5.37464,"is_reserved":false,"is_disabled":false,"rental_uris":{"android":"levelo://app?vid=c622c08e-a260-4027-b92a-839107253eb5","ios":"levelo://app?vid=c622c08e-a260-4027-b92a-839107253eb5"},"vehicle_type_id":"4","last_reported":1685207149,"current_range_meters":29200,"station_id":"","pricing_plan_id":"free"},{"bike_id":"a03892f5-0c37-4895-806a-ec0eff96e1df","system_id":"levelo_inurba_marseille","lat":43.30642,"lon":5.401031,"is_reserved":false,"is_disabled":false,"rental_uris":{"android":"levelo://app?vid=a03892f5-0c37-4895-806a-ec0eff96e1df","ios":"levelo://app?vid=a03892f5-0c37-4895-806a-ec0eff96e1df"},"vehicle_type_id":"4","last_reported":1685207149,"current_range_meters":8400,"station_id":"ce4bh112rcd13ifvqda0","pricing_plan_id":"free"},{"bike_id":"6fc3a49b-4f36-4e74-a940-3498c6e01c9b","system_id":"levelo_inurba_marseille","lat":43.286732,"lon":5.363514,"is_reserved":false,"is_disabled":false,"rental_uris":{"android":"levelo://app?vid=6fc3a49b-4f36-4e74-a940-3498c6e01c9b","ios":"levelo://app?vid=6fc3a49b-4f36-4e74-a940-3498c6e01c9b"},"vehicle_type_id":"4","last_reported":1685207149,"current_range_meters":8400,"station_id":"ce4bhah2rcd13ifvqej0","pricing_plan_id":"free"},{"bike_id":"b2f99242-0b16-4782-9ec1-fce69b91a2d9","system_id":"levelo_inurba_marseille","lat":43.28671,"lon":5.36346,"is_reserved":false,"is_disabled":false,"rental_uris":{"android":"levelo://app?vid=b2f99242-0b16-4782-9ec1-fce69b91a2d9","ios":"levelo://app?vid=b2f99242-0b16-4782-9ec1-fce69b91a2d9"},"vehicle_type_id":"4","last_reported":1685207149,"current_range_meters":800,"station_id":"ce4bhah2rcd13ifvqej0","pricing_plan_id":"free"},{"bike_id":"73487cb2-04e3-4e65-869e-f9da9c24347d","system_id":"levelo_inurba_marseille","lat":43.3025,"lon":5.40047,"is_reserved":false,"is_disabled":false,"rental_uris":{"android":"levelo://app?vid=73487cb2-04e3-4e65-869e-f9da9c24347d","ios":"levelo://app?vid=73487cb2-04e3-4e65-869e-f9da9c24347d"},"vehicle_type_id":"4","last_reported":1685207149,"current_range_meters":25200,"station_id":"","pricing_plan_id":"free"},{"bike_id":"c315df92-f7a8-4669-a138-d121ab2eac5d","system_id":"levelo_inurba_marseille","lat":43.286039,"lon":5.370679,"is_reserved":false,"is_disabled":false,"rental_uris":{"android":"levelo://app?vid=c315df92-f7a8-4669-a138-d121ab2eac5d","ios":"levelo://app?vid=c315df92-f7a8-4669-a138-d121ab2eac5d"},"vehicle_type_id":"4","last_reported":1685207149,"current_range_meters":19200,"station_id":"ce4bht12rcd13ifvqi60","pricing_plan_id":"free"},{"bike_id":"7136b3bb-c330-4891-abd6-77c3ec8c0ff9","system_id":"levelo_inurba_marseille","lat":43.28607,"lon":5.370627,"is_reserved":false,"is_disabled":false,"rental_uris":{"android":"levelo://app?vid=7136b3bb-c330-4891-abd6-77c3ec8c0ff9","ios":"levelo://app?vid=7136b3bb-c330-4891-abd6-77c3ec8c0ff9"},"vehicle_type_id":"4","last_reported":1685207149,"current_range_meters":400,"station_id":"ce4bht12rcd13ifvqi60","pricing_plan_id":"free"},{"bike_id":"4ebe09ea-bbd9-477a-ad27-805daef49ec1","system_id":"levelo_inurba_marseille","lat":43.31649,"lon":5.40437,"is_reserved":false,"is_disabled":false,"rental_uris":{"android":"levelo://app?vid=4ebe09ea-bbd9-477a-ad27-805daef49ec1","ios":"levelo://app?vid=4ebe09ea-bbd9-477a-ad27-805daef49ec1"},"vehicle_type_id":"4","last_reported":1685207149,"current_range_meters":0,"station_id":"ce4bh012rcd13ifvqd00","pricing_plan_id":"free"},{"bike_id":"82882b79-47cc-4a56-8693-f7ecb9212981","system_id":"levelo_inurba_marseille","lat":43.2847,"lon":5.35891,"is_reserved":false,"is_disabled":false,"rental_uris":{"android":"levelo://app?vid=82882b79-47cc-4a56-8693-f7ecb9212981","ios":"levelo://app?vid=82882b79-47cc-4a56-8693-f7ecb9212981"},"vehicle_type_id":"4","last_reported":1685207149,"current_range_meters":10400,"station_id":"ce4bhah2rcd13ifvqei0","pricing_plan_id":"free"},{"bike_id":"a69337f2-f0be-412a-8c4a-0b72d2d5c20e","system_id":"levelo_inurba_marseille","lat":43.285856,"lon":5.350771,"is_reserved":false,"is_disabled":false,"rental_uris":{"android":"levelo://app?vid=a69337f2-f0be-412a-8c4a-0b72d2d5c20e","ios":"levelo://app?vid=a69337f2-f0be-412a-8c4a-0b72d2d5c20e"},"vehicle_type_id":"4","last_reported":1685207149,"current_range_meters":2000,"station_id":"ce4bhch2rcd13ifvqeug","pricing_plan_id":"free"},{"bike_id":"c78f103b-4617-4d0b-bdef-10fbb6593591","system_id":"levelo_inurba_marseille","lat":43.285856,"lon":5.350771,"is_reserved":false,"is_disabled":false,"rental_uris":{"android":"levelo://app?vid=c78f103b-4617-4d0b-bdef-10fbb6593591","ios":"levelo://app?vid=c78f103b-4617-4d0b-bdef-10fbb6593591"},"vehicle_type_id":"4","last_reported":1685207149,"current_range_meters":2400,"station_id":"ce4bhch2rcd13ifvqeug","pricing_plan_id":"free"},{"bike_id":"5b9edce7-e5ae-4f61-a1a6-8b177e67a339","system_id":"levelo_inurba_marseille","lat":43.285856,"lon":5.350771,"is_reserved":false,"is_disabled":false,"rental_uris":{"android":"levelo://app?vid=5b9edce7-e5ae-4f61-a1a6-8b177e67a339","ios":"levelo://app?vid=5b9edce7-e5ae-4f61-a1a6-8b177e67a339"},"vehicle_type_id":"4","last_reported":1685207149,"current_range_meters":0,"station_id":"ce4bhch2rcd13ifvqeug","pricing_plan_id":"free"},{"bike_id":"e8d17731-68f3-44b5-9065-c07996775097","system_id":"levelo_inurba_marseille","lat":43.323464,"lon":5.406297,"is_reserved":false,"is_disabled":false,"rental_uris":{"android":"levelo://app?vid=e8d17731-68f3-44b5-9065-c07996775097","ios":"levelo://app?vid=e8d17731-68f3-44b5-9065-c07996775097"},"vehicle_type_id":"4","last_reported":1685207149,"current_range_meters":28000,"station_id":"ce4bhq92rcd13ifvqhjg","pricing_plan_id":"free"},{"bike_id":"313049e2-232c-4f54-9b26-81086cea8884","system_id":"levelo_inurba_marseille","lat":43.33726,"lon":5.39188,"is_reserved":false,"is_disabled":false,"rental_uris":{"android":"levelo://app?vid=313049e2-232c-4f54-9b26-81086cea8884","ios":"levelo://app?vid=313049e2-232c-4f54-9b26-81086cea8884"},"vehicle_type_id":"4","last_reported":1685207149,"current_range_meters":8000,"station_id":"","pricing_plan_id":"free"},{"bike_id":"bbc6062f-499a-4331-8bea-edb4be86e9dc","system_id":"levelo_inurba_marseille","lat":43.283494,"lon":5.380945,"is_reserved":false,"is_disabled":false,"rental_uris":{"android":"levelo://app?vid=bbc6062f-499a-4331-8bea-edb4be86e9dc","ios":"levelo://app?vid=bbc6062f-499a-4331-8bea-edb4be86e9dc"},"vehicle_type_id":"4","last_reported":1685207149,"current_range_meters":0,"station_id":"ce4bh412rcd13ifvqdr0","pricing_plan_id":"free"},{"bike_id":"224c6030-c4f1-4078-b0c1-8619dee1782a","system_id":"levelo_inurba_marseille","lat":43.267966,"lon":5.393976,"is_reserved":false,"is_disabled":false,"rental_uris":{"android":"levelo://app?vid=224c6030-c4f1-4078-b0c1-8619dee1782a","ios":"levelo://app?vid=224c6030-c4f1-4078-b0c1-8619dee1782a"},"vehicle_type_id":"4","last_reported":1685207149,"current_range_meters":8800,"station_id":"ce4bhh12rcd13ifvqfg0","pricing_plan_id":"free"},{"bike_id":"d028f9ad-56fe-49a5-b267-c8d341200d5e","system_id":"levelo_inurba_marseille","lat":43.29279,"lon":5.40116,"is_reserved":false,"is_disabled":false,"rental_uris":{"android":"levelo://app?vid=d028f9ad-56fe-49a5-b267-c8d341200d5e","ios":"levelo://app?vid=d028f9ad-56fe-49a5-b267-c8d341200d5e"},"vehicle_type_id":"4","last_reported":1685207149,"current_range_meters":24800,"station_id":"ce4bh312rcd13ifvqdk0","pricing_plan_id":"free"},{"bike_id":"9bef1ac6-f2e6-49a4-962e-2788636f05ea","system_id":"levelo_inurba_marseille","lat":43.29274,"lon":5.40113,"is_reserved":false,"is_disabled":false,"rental_uris":{"android":"levelo://app?vid=9bef1ac6-f2e6-49a4-962e-2788636f05ea","ios":"levelo://app?vid=9bef1ac6-f2e6-49a4-962e-2788636f05ea"},"vehicle_type_id":"4","last_reported":1685207149,"current_range_meters":9600,"station_id":"ce4bh312rcd13ifvqdk0","pricing_plan_id":"free"},{"bike_id":"58a7a3f3-73ab-4e97-a5db-7ab89fd44bf7","system_id":"levelo_inurba_marseille","lat":43.292724,"lon":5.401131,"is_reserved":false,"is_disabled":false,"rental_uris":{"android":"levelo://app?vid=58a7a3f3-73ab-4e97-a5db-7ab89fd44bf7","ios":"levelo://app?vid=58a7a3f3-73ab-4e97-a5db-7ab89fd44bf7"},"vehicle_type_id":"4","last_reported":1685207149,"current_range_meters":800,"station_id":"ce4bh312rcd13ifvqdk0","pricing_plan_id":"free"},{"bike_id":"4d86ce40-e406-44d0-9e2e-59dcfae65e59","system_id":"levelo_inurba_marseille","lat":43.29041,"lon":5.39947,"is_reserved":false,"is_disabled":false,"rental_uris":{"android":"levelo://app?vid=4d86ce40-e406-44d0-9e2e-59dcfae65e59","ios":"levelo://app?vid=4d86ce40-e406-44d0-9e2e-59dcfae65e59"},"vehicle_type_id":"4","last_reported":1685207149,"current_range_meters":0,"station_id":"ce4bh392rcd13ifvqdm0","pricing_plan_id":"free"},{"bike_id":"b89932b1-f80c-4c0d-b2f3-c86979c8eb46","system_id":"levelo_inurba_marseille","lat":43.290412,"lon":5.399633,"is_reserved":false,"is_disabled":false,"rental_uris":{"android":"levelo://app?vid=b89932b1-f80c-4c0d-b2f3-c86979c8eb46","ios":"levelo://app?vid=b89932b1-f80c-4c0d-b2f3-c86979c8eb46"},"vehicle_type_id":"4","last_reported":1685207149,"current_range_meters":14800,"station_id":"ce4bh392rcd13ifvqdm0","pricing_plan_id":"free"},{"bike_id":"bc36f78a-ad9c-41d4-b96e-76e199a1a478","system_id":"levelo_inurba_marseille","lat":43.28105,"lon":5.37834,"is_reserved":false,"is_disabled":false,"rental_uris":{"android":"levelo://app?vid=bc36f78a-ad9c-41d4-b96e-76e199a1a478","ios":"levelo://app?vid=bc36f78a-ad9c-41d4-b96e-76e199a1a478"},"vehicle_type_id":"4","last_reported":1685207149,"current_range_meters":4800,"station_id":"ce4bha12rcd13ifvqee0","pricing_plan_id":"free"},{"bike_id":"dfdfae55-4e53-46cd-a866-eb629c598282","system_id":"levelo_inurba_marseille","lat":43.281042,"lon":5.378326,"is_reserved":false,"is_disabled":false,"rental_uris":{"android":"levelo://app?vid=dfdfae55-4e53-46cd-a866-eb629c598282","ios":"levelo://app?vid=dfdfae55-4e53-46cd-a866-eb629c598282"},"vehicle_type_id":"4","last_reported":1685207149,"current_range_meters":0,"station_id":"","pricing_plan_id":"free"},{"bike_id":"40632052-9d31-47a9-a186-bfd1185afa44","system_id":"levelo_inurba_marseille","lat":43.28104,"lon":5.37836,"is_reserved":false,"is_disabled":false,"rental_uris":{"android":"levelo://app?vid=40632052-9d31-47a9-a186-bfd1185afa44","ios":"levelo://app?vid=40632052-9d31-47a9-a186-bfd1185afa44"},"vehicle_type_id":"4","last_reported":1685207149,"current_range_meters":4400,"station_id":"","pricing_plan_id":"free"},{"bike_id":"efee6400-f8d3-4023-a52a-7bf7c9d343d5","system_id":"levelo_inurba_marseille","lat":43.279742,"lon":5.38744,"is_reserved":false,"is_disabled":false,"rental_uris":{"android":"levelo://app?vid=efee6400-f8d3-4023-a52a-7bf7c9d343d5","ios":"levelo://app?vid=efee6400-f8d3-4023-a52a-7bf7c9d343d5"},"vehicle_type_id":"4","last_reported":1685207149,"current_range_meters":17200,"station_id":"ce4bhg12rcd13ifvqf80","pricing_plan_id":"free"},{"bike_id":"8d8896c0-6c20-4302-9724-898ff1437229","system_id":"levelo_inurba_marseille","lat":43.279742,"lon":5.38744,"is_reserved":false,"is_disabled":false,"rental_uris":{"android":"levelo://app?vid=8d8896c0-6c20-4302-9724-898ff1437229","ios":"levelo://app?vid=8d8896c0-6c20-4302-9724-898ff1437229"},"vehicle_type_id":"4","last_reported":1685207149,"current_range_meters":12000,"station_id":"ce4bhg12rcd13ifvqf80","pricing_plan_id":"free"},{"bike_id":"95d05f92-5853-46a0-b1dc-a953fed743ce","system_id":"levelo_inurba_marseille","lat":43.279742,"lon":5.38744,"is_reserved":false,"is_disabled":false,"rental_uris":{"android":"levelo://app?vid=95d05f92-5853-46a0-b1dc-a953fed743ce","ios":"levelo://app?vid=95d05f92-5853-46a0-b1dc-a953fed743ce"},"vehicle_type_id":"4","last_reported":1685207149,"current_range_meters":16400,"station_id":"ce4bhg12rcd13ifvqf80","pricing_plan_id":"free"},{"bike_id":"ba809c9f-acb1-4030-8211-8d1ecd77de9f","system_id":"levelo_inurba_marseille","lat":43.29259,"lon":5.40911,"is_reserved":false,"is_disabled":false,"rental_uris":{"android":"levelo://app?vid=ba809c9f-acb1-4030-8211-8d1ecd77de9f","ios":"levelo://app?vid=ba809c9f-acb1-4030-8211-8d1ecd77de9f"},"vehicle_type_id":"4","last_reported":1685207149,"current_range_meters":18400,"station_id":"ce4bh192rcd13ifvqdc0","pricing_plan_id":"free"},{"bike_id":"c5ee0541-8115-48b9-8992-09af3a4ff2f8","system_id":"levelo_inurba_marseille","lat":43.278401,"lon":5.392152,"is_reserved":false,"is_disabled":false,"rental_uris":{"android":"levelo://app?vid=c5ee0541-8115-48b9-8992-09af3a4ff2f8","ios":"levelo://app?vid=c5ee0541-8115-48b9-8992-09af3a4ff2f8"},"vehicle_type_id":"4","last_reported":1685207149,"current_range_meters":12800,"station_id":"ce4bhjp2rcd13ifvqga0","pricing_plan_id":"free"},{"bike_id":"91b49189-18df-431a-bbbf-f0b2350181de","system_id":"levelo_inurba_marseille","lat":43.28416,"lon":5.40787,"is_reserved":false,"is_disabled":false,"rental_uris":{"android":"levelo://app?vid=91b49189-18df-431a-bbbf-f0b2350181de","ios":"levelo://app?vid=91b49189-18df-431a-bbbf-f0b2350181de"},"vehicle_type_id":"4","last_reported":1685207149,"current_range_meters":10000,"station_id":"","pricing_plan_id":"free"},{"bike_id":"1703a072-f892-4538-95f0-928ce6730ef9","system_id":"levelo_inurba_marseille","lat":43.317121,"lon":5.423936,"is_reserved":false,"is_disabled":false,"rental_uris":{"android":"levelo://app?vid=1703a072-f892-4538-95f0-928ce6730ef9","ios":"levelo://app?vid=1703a072-f892-4538-95f0-928ce6730ef9"},"vehicle_type_id":"4","last_reported":1685207149,"current_range_meters":7200,"station_id":"ce4bhp92rcd13ifvqhbg","pricing_plan_id":"free"},{"bike_id":"8da8a837-7698-4a68-b724-f670b0f24b42","system_id":"levelo_inurba_marseille","lat":43.310785,"lon":5.424305,"is_reserved":false,"is_disabled":false,"rental_uris":{"android":"levelo://app?vid=8da8a837-7698-4a68-b724-f670b0f24b42","ios":"levelo://app?vid=8da8a837-7698-4a68-b724-f670b0f24b42"},"vehicle_type_id":"4","last_reported":1685207149,"current_range_meters":12800,"station_id":"ce4bhp92rcd13ifvqhag","pricing_plan_id":"free"},{"bike_id":"1beeca66-cb3f-448e-9e79-4e716e3e7894","system_id":"levelo_inurba_marseille","lat":43.310785,"lon":5.424305,"is_reserved":false,"is_disabled":false,"rental_uris":{"android":"levelo://app?vid=1beeca66-cb3f-448e-9e79-4e716e3e7894","ios":"levelo://app?vid=1beeca66-cb3f-448e-9e79-4e716e3e7894"},"vehicle_type_id":"4","last_reported":1685207149,"current_range_meters":11200,"station_id":"ce4bhp92rcd13ifvqhag","pricing_plan_id":"free"},{"bike_id":"79520a60-a07e-4b3b-8a5d-b3653dd350bc","system_id":"levelo_inurba_marseille","lat":43.273129,"lon":5.390725,"is_reserved":false,"is_disabled":false,"rental_uris":{"android":"levelo://app?vid=79520a60-a07e-4b3b-8a5d-b3653dd350bc","ios":"levelo://app?vid=79520a60-a07e-4b3b-8a5d-b3653dd350bc"},"vehicle_type_id":"4","last_reported":1685207149,"current_range_meters":4800,"station_id":"ce4bhgp2rcd13ifvqfe0","pricing_plan_id":"free"},{"bike_id":"732594ec-4ce4-46a5-8ed1-bd8df3913d2f","system_id":"levelo_inurba_marseille","lat":43.27432,"lon":5.39415,"is_reserved":false,"is_disabled":false,"rental_uris":{"android":"levelo://app?vid=732594ec-4ce4-46a5-8ed1-bd8df3913d2f","ios":"levelo://app?vid=732594ec-4ce4-46a5-8ed1-bd8df3913d2f"},"vehicle_type_id":"4","last_reported":1685207149,"current_range_meters":2800,"station_id":"","pricing_plan_id":"free"},{"bike_id":"b858ad10-13de-44b8-b3bd-a7bb51ffe5eb","system_id":"levelo_inurba_marseille","lat":43.27423,"lon":5.39407,"is_reserved":false,"is_disabled":false,"rental_uris":{"android":"levelo://app?vid=b858ad10-13de-44b8-b3bd-a7bb51ffe5eb","ios":"levelo://app?vid=b858ad10-13de-44b8-b3bd-a7bb51ffe5eb"},"vehicle_type_id":"4","last_reported":1685207149,"current_range_meters":5200,"station_id":"","pricing_plan_id":"free"},{"bike_id":"b8e06914-965e-429c-8ec9-cc3599162d0e","system_id":"levelo_inurba_marseille","lat":43.27209,"lon":5.3917,"is_reserved":false,"is_disabled":false,"rental_uris":{"android":"levelo://app?vid=b8e06914-965e-429c-8ec9-cc3599162d0e","ios":"levelo://app?vid=b8e06914-965e-429c-8ec9-cc3599162d0e"},"vehicle_type_id":"4","last_reported":1685207149,"current_range_meters":2800,"station_id":"ce4bhhp2rcd13ifvqfm0","pricing_plan_id":"free"},{"bike_id":"cebe37dd-26be-46ed-bc41-0c69e451a776","system_id":"levelo_inurba_marseille","lat":43.272116,"lon":5.391747,"is_reserved":false,"is_disabled":false,"rental_uris":{"android":"levelo://app?vid=cebe37dd-26be-46ed-bc41-0c69e451a776","ios":"levelo://app?vid=cebe37dd-26be-46ed-bc41-0c69e451a776"},"vehicle_type_id":"4","last_reported":1685207149,"current_range_meters":14400,"station_id":"ce4bhhp2rcd13ifvqfm0","pricing_plan_id":"free"},{"bike_id":"215ee86c-5532-4f0d-bd0d-9f68911f542d","system_id":"levelo_inurba_marseille","lat":43.2781,"lon":5.40708,"is_reserved":false,"is_disabled":false,"rental_uris":{"android":"levelo://app?vid=215ee86c-5532-4f0d-bd0d-9f68911f542d","ios":"levelo://app?vid=215ee86c-5532-4f0d-bd0d-9f68911f542d"},"vehicle_type_id":"4","last_reported":1685207149,"current_range_meters":2400,"station_id":"ce4bhnh2rcd13ifvqgtg","pricing_plan_id":"free"},{"bike_id":"289f875e-c7d6-4616-b0f0-70f35dd57272","system_id":"levelo_inurba_marseille","lat":43.269467,"lon":5.386439,"is_reserved":false,"is_disabled":false,"rental_uris":{"android":"levelo://app?vid=289f875e-c7d6-4616-b0f0-70f35dd57272","ios":"levelo://app?vid=289f875e-c7d6-4616-b0f0-70f35dd57272"},"vehicle_type_id":"4","last_reported":1685207149,"current_range_meters":11200,"station_id":"ce4bhh92rcd13ifvqfh0","pricing_plan_id":"free"},{"bike_id":"4681cd27-e5b9-49dd-8c99-8aa4735c84d9","system_id":"levelo_inurba_marseille","lat":43.26924,"lon":5.38912,"is_reserved":false,"is_disabled":false,"rental_uris":{"android":"levelo://app?vid=4681cd27-e5b9-49dd-8c99-8aa4735c84d9","ios":"levelo://app?vid=4681cd27-e5b9-49dd-8c99-8aa4735c84d9"},"vehicle_type_id":"4","last_reported":1685207149,"current_range_meters":8000,"station_id":"ce4bhhh2rcd13ifvqfl0","pricing_plan_id":"free"},{"bike_id":"ddf99742-61cb-4dfc-8636-8357c4d44716","system_id":"levelo_inurba_marseille","lat":43.265714,"lon":5.372891,"is_reserved":false,"is_disabled":false,"rental_uris":{"android":"levelo://app?vid=ddf99742-61cb-4dfc-8636-8357c4d44716","ios":"levelo://app?vid=ddf99742-61cb-4dfc-8636-8357c4d44716"},"vehicle_type_id":"4","last_reported":1685207149,"current_range_meters":0,"station_id":"ce4bhg12rcd13ifvqf70","pricing_plan_id":"free"},{"bike_id":"82179b2b-4468-40aa-b620-585d7d2c364a","system_id":"levelo_inurba_marseille","lat":43.267966,"lon":5.393976,"is_reserved":false,"is_disabled":false,"rental_uris":{"android":"levelo://app?vid=82179b2b-4468-40aa-b620-585d7d2c364a","ios":"levelo://app?vid=82179b2b-4468-40aa-b620-585d7d2c364a"},"vehicle_type_id":"4","last_reported":1685207149,"current_range_meters":20400,"station_id":"ce4bhh12rcd13ifvqfg0","pricing_plan_id":"free"},{"bike_id":"8cd5d57b-14eb-498b-b79d-18711a6d3834","system_id":"levelo_inurba_marseille","lat":43.267966,"lon":5.393976,"is_reserved":false,"is_disabled":false,"rental_uris":{"android":"levelo://app?vid=8cd5d57b-14eb-498b-b79d-18711a6d3834","ios":"levelo://app?vid=8cd5d57b-14eb-498b-b79d-18711a6d3834"},"vehicle_type_id":"4","last_reported":1685207149,"current_range_meters":400,"station_id":"ce4bhh12rcd13ifvqfg0","pricing_plan_id":"free"},{"bike_id":"dd888ba9-9abe-4fb1-bc09-1447d9046a9f","system_id":"levelo_inurba_marseille","lat":43.267966,"lon":5.393976,"is_reserved":false,"is_disabled":false,"rental_uris":{"android":"levelo://app?vid=dd888ba9-9abe-4fb1-bc09-1447d9046a9f","ios":"levelo://app?vid=dd888ba9-9abe-4fb1-bc09-1447d9046a9f"},"vehicle_type_id":"4","last_reported":1685207149,"current_range_meters":29200,"station_id":"ce4bhh12rcd13ifvqfg0","pricing_plan_id":"free"},{"bike_id":"a04e08f5-b3fc-4fa7-967d-184720d9a981","system_id":"levelo_inurba_marseille","lat":43.267966,"lon":5.393976,"is_reserved":false,"is_disabled":false,"rental_uris":{"android":"levelo://app?vid=a04e08f5-b3fc-4fa7-967d-184720d9a981","ios":"levelo://app?vid=a04e08f5-b3fc-4fa7-967d-184720d9a981"},"vehicle_type_id":"4","last_reported":1685207149,"current_range_meters":4800,"station_id":"ce4bhh12rcd13ifvqfg0","pricing_plan_id":"free"},{"bike_id":"3ba9708f-bff7-41c1-9340-bfea0f3467ce","system_id":"levelo_inurba_marseille","lat":43.31693,"lon":5.43648,"is_reserved":false,"is_disabled":false,"rental_uris":{"android":"levelo://app?vid=3ba9708f-bff7-41c1-9340-bfea0f3467ce","ios":"levelo://app?vid=3ba9708f-bff7-41c1-9340-bfea0f3467ce"},"vehicle_type_id":"4","last_reported":1685207149,"current_range_meters":30000,"station_id":"ce4bhp92rcd13ifvqhcg","pricing_plan_id":"free"},{"bike_id":"97f92444-dc7f-4ac8-885e-43ac50454dc0","system_id":"levelo_inurba_marseille","lat":43.3172,"lon":5.43706,"is_reserved":false,"is_disabled":false,"rental_uris":{"android":"levelo://app?vid=97f92444-dc7f-4ac8-885e-43ac50454dc0","ios":"levelo://app?vid=97f92444-dc7f-4ac8-885e-43ac50454dc0"},"vehicle_type_id":"4","last_reported":1685207149,"current_range_meters":0,"station_id":"ce4bhp92rcd13ifvqhcg","pricing_plan_id":"free"},{"bike_id":"997fbca5-8dd6-4985-8f12-98f562376a79","system_id":"levelo_inurba_marseille","lat":43.317104,"lon":5.436818,"is_reserved":false,"is_disabled":false,"rental_uris":{"android":"levelo://app?vid=997fbca5-8dd6-4985-8f12-98f562376a79","ios":"levelo://app?vid=997fbca5-8dd6-4985-8f12-98f562376a79"},"vehicle_type_id":"4","last_reported":1685207149,"current_range_meters":30400,"station_id":"ce4bhp92rcd13ifvqhcg","pricing_plan_id":"free"},{"bike_id":"ce1559a9-200c-4e85-abbd-5e802595fac5","system_id":"levelo_inurba_marseille","lat":43.317104,"lon":5.436818,"is_reserved":false,"is_disabled":false,"rental_uris":{"android":"levelo://app?vid=ce1559a9-200c-4e85-abbd-5e802595fac5","ios":"levelo://app?vid=ce1559a9-200c-4e85-abbd-5e802595fac5"},"vehicle_type_id":"4","last_reported":1685207149,"current_range_meters":6800,"station_id":"ce4bhp92rcd13ifvqhcg","pricing_plan_id":"free"},{"bike_id":"2b281727-2410-4f3f-b205-7a64f3993ba0","system_id":"levelo_inurba_marseille","lat":43.31712,"lon":5.43709,"is_reserved":false,"is_disabled":false,"rental_uris":{"android":"levelo://app?vid=2b281727-2410-4f3f-b205-7a64f3993ba0","ios":"levelo://app?vid=2b281727-2410-4f3f-b205-7a64f3993ba0"},"vehicle_type_id":"4","last_reported":1685207149,"current_range_meters":14800,"station_id":"ce4bhp92rcd13ifvqhcg","pricing_plan_id":"free"},{"bike_id":"32069570-ce3f-4a9d-b693-0d078799951b","system_id":"levelo_inurba_marseille","lat":43.317104,"lon":5.436818,"is_reserved":false,"is_disabled":false,"rental_uris":{"android":"levelo://app?vid=32069570-ce3f-4a9d-b693-0d078799951b","ios":"levelo://app?vid=32069570-ce3f-4a9d-b693-0d078799951b"},"vehicle_type_id":"4","last_reported":1685207149,"current_range_meters":6800,"station_id":"ce4bhp92rcd13ifvqhcg","pricing_plan_id":"free"},{"bike_id":"b812b941-5eb1-4382-ac02-c15d6233d807","system_id":"levelo_inurba_marseille","lat":43.26172,"lon":5.37441,"is_reserved":false,"is_disabled":false,"rental_uris":{"android":"levelo://app?vid=b812b941-5eb1-4382-ac02-c15d6233d807","ios":"levelo://app?vid=b812b941-5eb1-4382-ac02-c15d6233d807"},"vehicle_type_id":"4","last_reported":1685207149,"current_range_meters":18400,"station_id":"","pricing_plan_id":"free"},{"bike_id":"c16238d4-9287-44c3-ba1a-bbb2673025ce","system_id":"levelo_inurba_marseille","lat":43.267959,"lon":5.402687,"is_reserved":false,"is_disabled":false,"rental_uris":{"android":"levelo://app?vid=c16238d4-9287-44c3-ba1a-bbb2673025ce","ios":"levelo://app?vid=c16238d4-9287-44c3-ba1a-bbb2673025ce"},"vehicle_type_id":"4","last_reported":1685207149,"current_range_meters":14800,"station_id":"ce501612rcd8frsf0b60","pricing_plan_id":"free"},{"bike_id":"625cf51e-ab1a-4754-ae5a-a72655adf3ff","system_id":"levelo_inurba_marseille","lat":43.298768,"lon":5.43643,"is_reserved":false,"is_disabled":false,"rental_uris":{"android":"levelo://app?vid=625cf51e-ab1a-4754-ae5a-a72655adf3ff","ios":"levelo://app?vid=625cf51e-ab1a-4754-ae5a-a72655adf3ff"},"vehicle_type_id":"4","last_reported":1685207149,"current_range_meters":7600,"station_id":"ce4bhpp2rcd13ifvqhfg","pricing_plan_id":"free"},{"bike_id":"a01b8269-cd6f-432a-9c44-37513ea96cd0","system_id":"levelo_inurba_marseille","lat":43.298768,"lon":5.43643,"is_reserved":false,"is_disabled":false,"rental_uris":{"android":"levelo://app?vid=a01b8269-cd6f-432a-9c44-37513ea96cd0","ios":"levelo://app?vid=a01b8269-cd6f-432a-9c44-37513ea96cd0"},"vehicle_type_id":"4","last_reported":1685207149,"current_range_meters":30000,"station_id":"ce4bhpp2rcd13ifvqhfg","pricing_plan_id":"free"},{"bike_id":"57572c88-3708-4036-891a-204b9f884608","system_id":"levelo_inurba_marseille","lat":43.298768,"lon":5.43643,"is_reserved":false,"is_disabled":false,"rental_uris":{"android":"levelo://app?vid=57572c88-3708-4036-891a-204b9f884608","ios":"levelo://app?vid=57572c88-3708-4036-891a-204b9f884608"},"vehicle_type_id":"4","last_reported":1685207149,"current_range_meters":10000,"station_id":"ce4bhpp2rcd13ifvqhfg","pricing_plan_id":"free"},{"bike_id":"393fb8d7-9c3a-4c26-adde-9c67bba0a82d","system_id":"levelo_inurba_marseille","lat":43.298768,"lon":5.43643,"is_reserved":false,"is_disabled":false,"rental_uris":{"android":"levelo://app?vid=393fb8d7-9c3a-4c26-adde-9c67bba0a82d","ios":"levelo://app?vid=393fb8d7-9c3a-4c26-adde-9c67bba0a82d"},"vehicle_type_id":"4","last_reported":1685207149,"current_range_meters":18000,"station_id":"ce4bhpp2rcd13ifvqhfg","pricing_plan_id":"free"},{"bike_id":"1522e6fe-e66c-4a0c-a606-391cd3d5a93b","system_id":"levelo_inurba_marseille","lat":43.298768,"lon":5.43643,"is_reserved":false,"is_disabled":false,"rental_uris":{"android":"levelo://app?vid=1522e6fe-e66c-4a0c-a606-391cd3d5a93b","ios":"levelo://app?vid=1522e6fe-e66c-4a0c-a606-391cd3d5a93b"},"vehicle_type_id":"4","last_reported":1685207149,"current_range_meters":31600,"station_id":"ce4bhpp2rcd13ifvqhfg","pricing_plan_id":"free"},{"bike_id":"4e1b86b6-b12c-441f-b5c1-ba0a90fca197","system_id":"levelo_inurba_marseille","lat":43.298768,"lon":5.43643,"is_reserved":false,"is_disabled":false,"rental_uris":{"android":"levelo://app?vid=4e1b86b6-b12c-441f-b5c1-ba0a90fca197","ios":"levelo://app?vid=4e1b86b6-b12c-441f-b5c1-ba0a90fca197"},"vehicle_type_id":"4","last_reported":1685207149,"current_range_meters":32000,"station_id":"ce4bhpp2rcd13ifvqhfg","pricing_plan_id":"free"},{"bike_id":"6b404443-757b-4b8d-9a78-a03ca59013fb","system_id":"levelo_inurba_marseille","lat":43.2592,"lon":5.37283,"is_reserved":false,"is_disabled":false,"rental_uris":{"android":"levelo://app?vid=6b404443-757b-4b8d-9a78-a03ca59013fb","ios":"levelo://app?vid=6b404443-757b-4b8d-9a78-a03ca59013fb"},"vehicle_type_id":"4","last_reported":1685207149,"current_range_meters":13600,"station_id":"","pricing_plan_id":"free"},{"bike_id":"b0a7e71e-201d-40ab-9f70-05d310a2ee14","system_id":"levelo_inurba_marseille","lat":43.2607,"lon":5.393983,"is_reserved":false,"is_disabled":false,"rental_uris":{"android":"levelo://app?vid=b0a7e71e-201d-40ab-9f70-05d310a2ee14","ios":"levelo://app?vid=b0a7e71e-201d-40ab-9f70-05d310a2ee14"},"vehicle_type_id":"4","last_reported":1685207149,"current_range_meters":0,"station_id":"ce4bhh92rcd13ifvqfj0","pricing_plan_id":"free"},{"bike_id":"966f0d5e-fe95-4137-b71a-af80d2d36220","system_id":"levelo_inurba_marseille","lat":43.2607,"lon":5.393983,"is_reserved":false,"is_disabled":false,"rental_uris":{"android":"levelo://app?vid=966f0d5e-fe95-4137-b71a-af80d2d36220","ios":"levelo://app?vid=966f0d5e-fe95-4137-b71a-af80d2d36220"},"vehicle_type_id":"4","last_reported":1685207149,"current_range_meters":31200,"station_id":"ce4bhh92rcd13ifvqfj0","pricing_plan_id":"free"},{"bike_id":"15c0880d-d89e-4a26-b342-5728e2b2cdbc","system_id":"levelo_inurba_marseille","lat":43.2607,"lon":5.393983,"is_reserved":false,"is_disabled":false,"rental_uris":{"android":"levelo://app?vid=15c0880d-d89e-4a26-b342-5728e2b2cdbc","ios":"levelo://app?vid=15c0880d-d89e-4a26-b342-5728e2b2cdbc"},"vehicle_type_id":"4","last_reported":1685207149,"current_range_meters":13600,"station_id":"ce4bhh92rcd13ifvqfj0","pricing_plan_id":"free"},{"bike_id":"93706d8c-fdd6-4a85-93a7-fbb9d7347149","system_id":"levelo_inurba_marseille","lat":43.2607,"lon":5.393983,"is_reserved":false,"is_disabled":false,"rental_uris":{"android":"levelo://app?vid=93706d8c-fdd6-4a85-93a7-fbb9d7347149","ios":"levelo://app?vid=93706d8c-fdd6-4a85-93a7-fbb9d7347149"},"vehicle_type_id":"4","last_reported":1685207149,"current_range_meters":13600,"station_id":"ce4bhh92rcd13ifvqfj0","pricing_plan_id":"free"},{"bike_id":"6b9fc50f-95c4-41e3-bd47-ec41605e3cb3","system_id":"levelo_inurba_marseille","lat":43.2607,"lon":5.393983,"is_reserved":false,"is_disabled":false,"rental_uris":{"android":"levelo://app?vid=6b9fc50f-95c4-41e3-bd47-ec41605e3cb3","ios":"levelo://app?vid=6b9fc50f-95c4-41e3-bd47-ec41605e3cb3"},"vehicle_type_id":"4","last_reported":1685207149,"current_range_meters":11200,"station_id":"ce4bhh92rcd13ifvqfj0","pricing_plan_id":"free"},{"bike_id":"031327cf-fb0d-489a-8feb-a7a8f31cd827","system_id":"levelo_inurba_marseille","lat":43.260909,"lon":5.397591,"is_reserved":false,"is_disabled":false,"rental_uris":{"android":"levelo://app?vid=031327cf-fb0d-489a-8feb-a7a8f31cd827","ios":"levelo://app?vid=031327cf-fb0d-489a-8feb-a7a8f31cd827"},"vehicle_type_id":"4","last_reported":1685207149,"current_range_meters":6800,"station_id":"ce4bhi12rcd13ifvqfq0","pricing_plan_id":"free"},{"bike_id":"f072cd81-3b89-40b1-a023-ab01c8f89174","system_id":"levelo_inurba_marseille","lat":43.26082,"lon":5.3977,"is_reserved":false,"is_disabled":false,"rental_uris":{"android":"levelo://app?vid=f072cd81-3b89-40b1-a023-ab01c8f89174","ios":"levelo://app?vid=f072cd81-3b89-40b1-a023-ab01c8f89174"},"vehicle_type_id":"4","last_reported":1685207149,"current_range_meters":14000,"station_id":"ce4bhi12rcd13ifvqfq0","pricing_plan_id":"free"},{"bike_id":"dba4a43c-d297-4b15-9b2e-431d436ffbbf","system_id":"levelo_inurba_marseille","lat":43.254945,"lon":5.376454,"is_reserved":false,"is_disabled":false,"rental_uris":{"android":"levelo://app?vid=dba4a43c-d297-4b15-9b2e-431d436ffbbf","ios":"levelo://app?vid=dba4a43c-d297-4b15-9b2e-431d436ffbbf"},"vehicle_type_id":"4","last_reported":1685207149,"current_range_meters":1200,"station_id":"ce4bhh12rcd13ifvqff0","pricing_plan_id":"free"},{"bike_id":"21a94e83-2bcf-4902-8a6a-85407ac0d3c9","system_id":"levelo_inurba_marseille","lat":43.254952,"lon":5.376471,"is_reserved":false,"is_disabled":false,"rental_uris":{"android":"levelo://app?vid=21a94e83-2bcf-4902-8a6a-85407ac0d3c9","ios":"levelo://app?vid=21a94e83-2bcf-4902-8a6a-85407ac0d3c9"},"vehicle_type_id":"4","last_reported":1685207149,"current_range_meters":4000,"station_id":"","pricing_plan_id":"free"},{"bike_id":"6e581c97-fc93-4aa5-9cd9-b443f01abafb","system_id":"levelo_inurba_marseille","lat":43.2549,"lon":5.37647,"is_reserved":false,"is_disabled":false,"rental_uris":{"android":"levelo://app?vid=6e581c97-fc93-4aa5-9cd9-b443f01abafb","ios":"levelo://app?vid=6e581c97-fc93-4aa5-9cd9-b443f01abafb"},"vehicle_type_id":"4","last_reported":1685207149,"current_range_meters":0,"station_id":"ce4bhh12rcd13ifvqff0","pricing_plan_id":"free"},{"bike_id":"995d82b1-8fa1-48e4-b080-bf31b5f9b14b","system_id":"levelo_inurba_marseille","lat":43.258658,"lon":5.398935,"is_reserved":false,"is_disabled":false,"rental_uris":{"android":"levelo://app?vid=995d82b1-8fa1-48e4-b080-bf31b5f9b14b","ios":"levelo://app?vid=995d82b1-8fa1-48e4-b080-bf31b5f9b14b"},"vehicle_type_id":"4","last_reported":1685207149,"current_range_meters":24000,"station_id":"ce4bhl92rcd13ifvqghg","pricing_plan_id":"free"},{"bike_id":"315f5e0a-a652-486f-858a-3e20bcad95c9","system_id":"levelo_inurba_marseille","lat":43.25094,"lon":5.39516,"is_reserved":false,"is_disabled":false,"rental_uris":{"android":"levelo://app?vid=315f5e0a-a652-486f-858a-3e20bcad95c9","ios":"levelo://app?vid=315f5e0a-a652-486f-858a-3e20bcad95c9"},"vehicle_type_id":"4","last_reported":1685207149,"current_range_meters":0,"station_id":"ce4bhm12rcd13ifvqgkg","pricing_plan_id":"free"},{"bike_id":"42fa27b7-dcca-4371-82ca-806917481198","system_id":"levelo_inurba_marseille","lat":43.250966,"lon":5.395186,"is_reserved":false,"is_disabled":false,"rental_uris":{"android":"levelo://app?vid=42fa27b7-dcca-4371-82ca-806917481198","ios":"levelo://app?vid=42fa27b7-dcca-4371-82ca-806917481198"},"vehicle_type_id":"4","last_reported":1685207149,"current_range_meters":11200,"station_id":"ce4bhm12rcd13ifvqgkg","pricing_plan_id":"free"},{"bike_id":"2d3b7258-47c2-4eb0-8076-d7e998509b11","system_id":"levelo_inurba_marseille","lat":43.25102,"lon":5.403214,"is_reserved":false,"is_disabled":false,"rental_uris":{"android":"levelo://app?vid=2d3b7258-47c2-4eb0-8076-d7e998509b11","ios":"levelo://app?vid=2d3b7258-47c2-4eb0-8076-d7e998509b11"},"vehicle_type_id":"4","last_reported":1685207149,"current_range_meters":13600,"station_id":"ce4bhlh2rcd13ifvqgig","pricing_plan_id":"free"},{"bike_id":"fa2c2e61-6629-4fac-9937-e7f019b3de7c","system_id":"levelo_inurba_marseille","lat":43.24693,"lon":5.382096,"is_reserved":false,"is_disabled":false,"rental_uris":{"android":"levelo://app?vid=fa2c2e61-6629-4fac-9937-e7f019b3de7c","ios":"levelo://app?vid=fa2c2e61-6629-4fac-9937-e7f019b3de7c"},"vehicle_type_id":"4","last_reported":1685207149,"current_range_meters":31600,"station_id":"ce4bhih2rcd13ifvqfr0","pricing_plan_id":"free"},{"bike_id":"50b24532-54d6-48b1-87d2-18938117b39c","system_id":"levelo_inurba_marseille","lat":43.25102,"lon":5.403214,"is_reserved":false,"is_disabled":false,"rental_uris":{"android":"levelo://app?vid=50b24532-54d6-48b1-87d2-18938117b39c","ios":"levelo://app?vid=50b24532-54d6-48b1-87d2-18938117b39c"},"vehicle_type_id":"4","last_reported":1685207149,"current_range_meters":12400,"station_id":"ce4bhlh2rcd13ifvqgig","pricing_plan_id":"free"},{"bike_id":"51754d08-f18e-48ae-bd88-e773c557c489","system_id":"levelo_inurba_marseille","lat":43.24693,"lon":5.382096,"is_reserved":false,"is_disabled":false,"rental_uris":{"android":"levelo://app?vid=51754d08-f18e-48ae-bd88-e773c557c489","ios":"levelo://app?vid=51754d08-f18e-48ae-bd88-e773c557c489"},"vehicle_type_id":"4","last_reported":1685207149,"current_range_meters":14000,"station_id":"ce4bhih2rcd13ifvqfr0","pricing_plan_id":"free"},{"bike_id":"058da123-8868-4e21-b336-ce3e7f5772e7","system_id":"levelo_inurba_marseille","lat":43.24693,"lon":5.382096,"is_reserved":false,"is_disabled":false,"rental_uris":{"android":"levelo://app?vid=058da123-8868-4e21-b336-ce3e7f5772e7","ios":"levelo://app?vid=058da123-8868-4e21-b336-ce3e7f5772e7"},"vehicle_type_id":"4","last_reported":1685207149,"current_range_meters":14800,"station_id":"ce4bhih2rcd13ifvqfr0","pricing_plan_id":"free"},{"bike_id":"4dafd8cb-9053-49f7-b8f7-897a58b16ccd","system_id":"levelo_inurba_marseille","lat":43.24693,"lon":5.382096,"is_reserved":false,"is_disabled":false,"rental_uris":{"android":"levelo://app?vid=4dafd8cb-9053-49f7-b8f7-897a58b16ccd","ios":"levelo://app?vid=4dafd8cb-9053-49f7-b8f7-897a58b16ccd"},"vehicle_type_id":"4","last_reported":1685207149,"current_range_meters":31600,"station_id":"ce4bhih2rcd13ifvqfr0","pricing_plan_id":"free"},{"bike_id":"28195c54-7f8a-4ce8-9740-1aaa85644c34","system_id":"levelo_inurba_marseille","lat":43.24693,"lon":5.382096,"is_reserved":false,"is_disabled":false,"rental_uris":{"android":"levelo://app?vid=28195c54-7f8a-4ce8-9740-1aaa85644c34","ios":"levelo://app?vid=28195c54-7f8a-4ce8-9740-1aaa85644c34"},"vehicle_type_id":"4","last_reported":1685207149,"current_range_meters":31600,"station_id":"ce4bhih2rcd13ifvqfr0","pricing_plan_id":"free"},{"bike_id":"ff06caf1-531e-4caa-ad0c-250a1fb10538","system_id":"levelo_inurba_marseille","lat":43.24693,"lon":5.382096,"is_reserved":false,"is_disabled":false,"rental_uris":{"android":"levelo://app?vid=ff06caf1-531e-4caa-ad0c-250a1fb10538","ios":"levelo://app?vid=ff06caf1-531e-4caa-ad0c-250a1fb10538"},"vehicle_type_id":"4","last_reported":1685207149,"current_range_meters":15200,"station_id":"ce4bhih2rcd13ifvqfr0","pricing_plan_id":"free"},{"bike_id":"1a9c2f89-7963-49cd-9ec4-a9a912023e6b","system_id":"levelo_inurba_marseille","lat":43.24693,"lon":5.382096,"is_reserved":false,"is_disabled":false,"rental_uris":{"android":"levelo://app?vid=1a9c2f89-7963-49cd-9ec4-a9a912023e6b","ios":"levelo://app?vid=1a9c2f89-7963-49cd-9ec4-a9a912023e6b"},"vehicle_type_id":"4","last_reported":1685207149,"current_range_meters":16800,"station_id":"ce4bhih2rcd13ifvqfr0","pricing_plan_id":"free"},{"bike_id":"0ea236eb-581d-41fc-a9b0-df1004e3db0e","system_id":"levelo_inurba_marseille","lat":43.246571,"lon":5.381585,"is_reserved":false,"is_disabled":false,"rental_uris":{"android":"levelo://app?vid=0ea236eb-581d-41fc-a9b0-df1004e3db0e","ios":"levelo://app?vid=0ea236eb-581d-41fc-a9b0-df1004e3db0e"},"vehicle_type_id":"4","last_reported":1685207149,"current_range_meters":18800,"station_id":"ce4bhih2rcd13ifvqfr0","pricing_plan_id":"free"},{"bike_id":"c684c0c4-6551-44f2-b6cc-e2b7da662ced","system_id":"levelo_inurba_marseille","lat":43.25102,"lon":5.403214,"is_reserved":false,"is_disabled":false,"rental_uris":{"android":"levelo://app?vid=c684c0c4-6551-44f2-b6cc-e2b7da662ced","ios":"levelo://app?vid=c684c0c4-6551-44f2-b6cc-e2b7da662ced"},"vehicle_type_id":"4","last_reported":1685207149,"current_range_meters":6400,"station_id":"ce4bhlh2rcd13ifvqgig","pricing_plan_id":"free"},{"bike_id":"65bc1bac-9ace-4076-831a-adb96e8ce3ad","system_id":"levelo_inurba_marseille","lat":43.25102,"lon":5.403214,"is_reserved":false,"is_disabled":false,"rental_uris":{"android":"levelo://app?vid=65bc1bac-9ace-4076-831a-adb96e8ce3ad","ios":"levelo://app?vid=65bc1bac-9ace-4076-831a-adb96e8ce3ad"},"vehicle_type_id":"4","last_reported":1685207149,"current_range_meters":21200,"station_id":"ce4bhlh2rcd13ifvqgig","pricing_plan_id":"free"},{"bike_id":"1724d333-d765-4eff-939f-ec9fe43331b8","system_id":"levelo_inurba_marseille","lat":43.25102,"lon":5.403214,"is_reserved":false,"is_disabled":false,"rental_uris":{"android":"levelo://app?vid=1724d333-d765-4eff-939f-ec9fe43331b8","ios":"levelo://app?vid=1724d333-d765-4eff-939f-ec9fe43331b8"},"vehicle_type_id":"4","last_reported":1685207149,"current_range_meters":12800,"station_id":"ce4bhlh2rcd13ifvqgig","pricing_plan_id":"free"},{"bike_id":"3a873fb4-06c2-406f-8d34-58e29e8fb0f4","system_id":"levelo_inurba_marseille","lat":43.24693,"lon":5.382096,"is_reserved":false,"is_disabled":false,"rental_uris":{"android":"levelo://app?vid=3a873fb4-06c2-406f-8d34-58e29e8fb0f4","ios":"levelo://app?vid=3a873fb4-06c2-406f-8d34-58e29e8fb0f4"},"vehicle_type_id":"4","last_reported":1685207149,"current_range_meters":24800,"station_id":"ce4bhih2rcd13ifvqfr0","pricing_plan_id":"free"},{"bike_id":"df6ed138-15f1-4293-a9f6-260650001f58","system_id":"levelo_inurba_marseille","lat":43.24656,"lon":5.38897,"is_reserved":false,"is_disabled":false,"rental_uris":{"android":"levelo://app?vid=df6ed138-15f1-4293-a9f6-260650001f58","ios":"levelo://app?vid=df6ed138-15f1-4293-a9f6-260650001f58"},"vehicle_type_id":"4","last_reported":1685207149,"current_range_meters":19200,"station_id":"ce4bhg12rcd13ifvqf60","pricing_plan_id":"free"},{"bike_id":"fdbaa511-c57a-4de7-a869-3ea8dcff4545","system_id":"levelo_inurba_marseille","lat":43.246467,"lon":5.388984,"is_reserved":false,"is_disabled":false,"rental_uris":{"android":"levelo://app?vid=fdbaa511-c57a-4de7-a869-3ea8dcff4545","ios":"levelo://app?vid=fdbaa511-c57a-4de7-a869-3ea8dcff4545"},"vehicle_type_id":"4","last_reported":1685207149,"current_range_meters":5200,"station_id":"ce4bhg12rcd13ifvqf60","pricing_plan_id":"free"},{"bike_id":"ca48a4b8-aafe-4d34-bc24-09630ca6a745","system_id":"levelo_inurba_marseille","lat":43.245581,"lon":5.395069,"is_reserved":false,"is_disabled":false,"rental_uris":{"android":"levelo://app?vid=ca48a4b8-aafe-4d34-bc24-09630ca6a745","ios":"levelo://app?vid=ca48a4b8-aafe-4d34-bc24-09630ca6a745"},"vehicle_type_id":"4","last_reported":1685207149,"current_range_meters":8400,"station_id":"ce4bhlp2rcd13ifvqgjg","pricing_plan_id":"free"},{"bike_id":"ce35cd0c-3412-42d2-bc81-38a30e81ce2d","system_id":"levelo_inurba_marseille","lat":43.245581,"lon":5.395069,"is_reserved":false,"is_disabled":false,"rental_uris":{"android":"levelo://app?vid=ce35cd0c-3412-42d2-bc81-38a30e81ce2d","ios":"levelo://app?vid=ce35cd0c-3412-42d2-bc81-38a30e81ce2d"},"vehicle_type_id":"4","last_reported":1685207149,"current_range_meters":26000,"station_id":"ce4bhlp2rcd13ifvqgjg","pricing_plan_id":"free"},{"bike_id":"e576bd0c-fe79-45d1-9ced-ebed99da6675","system_id":"levelo_inurba_marseille","lat":43.245581,"lon":5.395069,"is_reserved":false,"is_disabled":false,"rental_uris":{"android":"levelo://app?vid=e576bd0c-fe79-45d1-9ced-ebed99da6675","ios":"levelo://app?vid=e576bd0c-fe79-45d1-9ced-ebed99da6675"},"vehicle_type_id":"4","last_reported":1685207149,"current_range_meters":400,"station_id":"ce4bhlp2rcd13ifvqgjg","pricing_plan_id":"free"},{"bike_id":"18f076d8-3344-423e-9b08-269f60c9dc01","system_id":"levelo_inurba_marseille","lat":43.24087,"lon":5.37754,"is_reserved":false,"is_disabled":false,"rental_uris":{"android":"levelo://app?vid=18f076d8-3344-423e-9b08-269f60c9dc01","ios":"levelo://app?vid=18f076d8-3344-423e-9b08-269f60c9dc01"},"vehicle_type_id":"4","last_reported":1685207149,"current_range_meters":0,"station_id":"","pricing_plan_id":"free"},{"bike_id":"65c9d813-f717-43b6-a0c3-55f47a8bccea","system_id":"levelo_inurba_marseille","lat":43.2408,"lon":5.3774,"is_reserved":false,"is_disabled":false,"rental_uris":{"android":"levelo://app?vid=65c9d813-f717-43b6-a0c3-55f47a8bccea","ios":"levelo://app?vid=65c9d813-f717-43b6-a0c3-55f47a8bccea"},"vehicle_type_id":"4","last_reported":1685207149,"current_range_meters":21600,"station_id":"","pricing_plan_id":"free"},{"bike_id":"b3ac0f63-1d71-46d2-ba24-5e1165bfbe33","system_id":"levelo_inurba_marseille","lat":43.24081,"lon":5.37758,"is_reserved":false,"is_disabled":false,"rental_uris":{"android":"levelo://app?vid=b3ac0f63-1d71-46d2-ba24-5e1165bfbe33","ios":"levelo://app?vid=b3ac0f63-1d71-46d2-ba24-5e1165bfbe33"},"vehicle_type_id":"4","last_reported":1685207149,"current_range_meters":28800,"station_id":"","pricing_plan_id":"free"},{"bike_id":"bc231acf-4e1f-42a5-9e94-c7405517798f","system_id":"levelo_inurba_marseille","lat":43.24079,"lon":5.3775,"is_reserved":false,"is_disabled":false,"rental_uris":{"android":"levelo://app?vid=bc231acf-4e1f-42a5-9e94-c7405517798f","ios":"levelo://app?vid=bc231acf-4e1f-42a5-9e94-c7405517798f"},"vehicle_type_id":"4","last_reported":1685207149,"current_range_meters":31200,"station_id":"","pricing_plan_id":"free"},{"bike_id":"2695bb1c-d416-4b47-a9ac-e4e78cd251e0","system_id":"levelo_inurba_marseille","lat":43.24079,"lon":5.37753,"is_reserved":false,"is_disabled":false,"rental_uris":{"android":"levelo://app?vid=2695bb1c-d416-4b47-a9ac-e4e78cd251e0","ios":"levelo://app?vid=2695bb1c-d416-4b47-a9ac-e4e78cd251e0"},"vehicle_type_id":"4","last_reported":1685207149,"current_range_meters":21600,"station_id":"","pricing_plan_id":"free"},{"bike_id":"52de56d3-a7eb-4913-89b3-faf4b4e296da","system_id":"levelo_inurba_marseille","lat":43.24079,"lon":5.3776,"is_reserved":false,"is_disabled":false,"rental_uris":{"android":"levelo://app?vid=52de56d3-a7eb-4913-89b3-faf4b4e296da","ios":"levelo://app?vid=52de56d3-a7eb-4913-89b3-faf4b4e296da"},"vehicle_type_id":"4","last_reported":1685207149,"current_range_meters":5200,"station_id":"","pricing_plan_id":"free"},{"bike_id":"657db3b8-f489-4f15-8e95-e1ef01e39191","system_id":"levelo_inurba_marseille","lat":43.24078,"lon":5.37756,"is_reserved":false,"is_disabled":false,"rental_uris":{"android":"levelo://app?vid=657db3b8-f489-4f15-8e95-e1ef01e39191","ios":"levelo://app?vid=657db3b8-f489-4f15-8e95-e1ef01e39191"},"vehicle_type_id":"4","last_reported":1685207149,"current_range_meters":6800,"station_id":"","pricing_plan_id":"free"},{"bike_id":"ed25434e-0e78-44ff-8a4b-1b410bfeac8e","system_id":"levelo_inurba_marseille","lat":43.239588,"lon":5.366238,"is_reserved":false,"is_disabled":false,"rental_uris":{"android":"levelo://app?vid=ed25434e-0e78-44ff-8a4b-1b410bfeac8e","ios":"levelo://app?vid=ed25434e-0e78-44ff-8a4b-1b410bfeac8e"},"vehicle_type_id":"4","last_reported":1685207149,"current_range_meters":30800,"station_id":"ce4bhi12rcd13ifvqfp0","pricing_plan_id":"free"},{"bike_id":"017cbb90-9d16-469d-ab9b-008c01d90208","system_id":"levelo_inurba_marseille","lat":43.23986,"lon":5.38363,"is_reserved":false,"is_disabled":false,"rental_uris":{"android":"levelo://app?vid=017cbb90-9d16-469d-ab9b-008c01d90208","ios":"levelo://app?vid=017cbb90-9d16-469d-ab9b-008c01d90208"},"vehicle_type_id":"4","last_reported":1685207149,"current_range_meters":4400,"station_id":"","pricing_plan_id":"free"},{"bike_id":"059dd65e-2649-4021-9928-9cd305bd846c","system_id":"levelo_inurba_marseille","lat":43.241782,"lon":5.397261,"is_reserved":false,"is_disabled":false,"rental_uris":{"android":"levelo://app?vid=059dd65e-2649-4021-9928-9cd305bd846c","ios":"levelo://app?vid=059dd65e-2649-4021-9928-9cd305bd846c"},"vehicle_type_id":"4","last_reported":1685207149,"current_range_meters":6800,"station_id":"ce4bhn12rcd13ifvqgpg","pricing_plan_id":"free"},{"bike_id":"7b639687-2037-4fde-bdc8-1cc34059d9d7","system_id":"levelo_inurba_marseille","lat":43.241782,"lon":5.397264,"is_reserved":false,"is_disabled":false,"rental_uris":{"android":"levelo://app?vid=7b639687-2037-4fde-bdc8-1cc34059d9d7","ios":"levelo://app?vid=7b639687-2037-4fde-bdc8-1cc34059d9d7"},"vehicle_type_id":"4","last_reported":1685207149,"current_range_meters":6000,"station_id":"ce4bhn12rcd13ifvqgpg","pricing_plan_id":"free"},{"bike_id":"622814d8-ef07-4004-b769-cbeaf0caef2e","system_id":"levelo_inurba_marseille","lat":43.24185,"lon":5.39724,"is_reserved":false,"is_disabled":false,"rental_uris":{"android":"levelo://app?vid=622814d8-ef07-4004-b769-cbeaf0caef2e","ios":"levelo://app?vid=622814d8-ef07-4004-b769-cbeaf0caef2e"},"vehicle_type_id":"4","last_reported":1685207149,"current_range_meters":20400,"station_id":"ce4bhn12rcd13ifvqgpg","pricing_plan_id":"free"},{"bike_id":"4f24d25d-0ea1-4607-918c-bc9cda638969","system_id":"levelo_inurba_marseille","lat":43.241782,"lon":5.397261,"is_reserved":false,"is_disabled":false,"rental_uris":{"android":"levelo://app?vid=4f24d25d-0ea1-4607-918c-bc9cda638969","ios":"levelo://app?vid=4f24d25d-0ea1-4607-918c-bc9cda638969"},"vehicle_type_id":"4","last_reported":1685207149,"current_range_meters":4000,"station_id":"ce4bhn12rcd13ifvqgpg","pricing_plan_id":"free"},{"bike_id":"15e3f892-2b21-49f5-8d92-6151801256bd","system_id":"levelo_inurba_marseille","lat":43.241782,"lon":5.397261,"is_reserved":false,"is_disabled":false,"rental_uris":{"android":"levelo://app?vid=15e3f892-2b21-49f5-8d92-6151801256bd","ios":"levelo://app?vid=15e3f892-2b21-49f5-8d92-6151801256bd"},"vehicle_type_id":"4","last_reported":1685207149,"current_range_meters":19200,"station_id":"ce4bhn12rcd13ifvqgpg","pricing_plan_id":"free"},{"bike_id":"28ad54f4-c398-4f31-8332-0e96db427bbd","system_id":"levelo_inurba_marseille","lat":43.241782,"lon":5.397264,"is_reserved":false,"is_disabled":false,"rental_uris":{"android":"levelo://app?vid=28ad54f4-c398-4f31-8332-0e96db427bbd","ios":"levelo://app?vid=28ad54f4-c398-4f31-8332-0e96db427bbd"},"vehicle_type_id":"4","last_reported":1685207149,"current_range_meters":0,"station_id":"ce4bhn12rcd13ifvqgpg","pricing_plan_id":"free"},{"bike_id":"81eeadbd-9829-41dd-82d5-66dfbf91b7db","system_id":"levelo_inurba_marseille","lat":43.241782,"lon":5.397261,"is_reserved":false,"is_disabled":false,"rental_uris":{"android":"levelo://app?vid=81eeadbd-9829-41dd-82d5-66dfbf91b7db","ios":"levelo://app?vid=81eeadbd-9829-41dd-82d5-66dfbf91b7db"},"vehicle_type_id":"4","last_reported":1685207149,"current_range_meters":31200,"station_id":"ce4bhn12rcd13ifvqgpg","pricing_plan_id":"free"},{"bike_id":"2ba8040e-3e84-4d1c-8e8b-bb67e4c779d0","system_id":"levelo_inurba_marseille","lat":43.241782,"lon":5.397261,"is_reserved":false,"is_disabled":false,"rental_uris":{"android":"levelo://app?vid=2ba8040e-3e84-4d1c-8e8b-bb67e4c779d0","ios":"levelo://app?vid=2ba8040e-3e84-4d1c-8e8b-bb67e4c779d0"},"vehicle_type_id":"4","last_reported":1685207149,"current_range_meters":13600,"station_id":"ce4bhn12rcd13ifvqgpg","pricing_plan_id":"free"},{"bike_id":"4c9ce13d-0ccd-4e0a-8d71-726dd91283c4","system_id":"levelo_inurba_marseille","lat":43.24176,"lon":5.39734,"is_reserved":false,"is_disabled":false,"rental_uris":{"android":"levelo://app?vid=4c9ce13d-0ccd-4e0a-8d71-726dd91283c4","ios":"levelo://app?vid=4c9ce13d-0ccd-4e0a-8d71-726dd91283c4"},"vehicle_type_id":"4","last_reported":1685207149,"current_range_meters":6800,"station_id":"ce4bhn12rcd13ifvqgpg","pricing_plan_id":"free"},{"bike_id":"32c1acc0-fc7a-4556-aeed-50f2c5d1a04e","system_id":"levelo_inurba_marseille","lat":43.23201,"lon":5.35561,"is_reserved":false,"is_disabled":false,"rental_uris":{"android":"levelo://app?vid=32c1acc0-fc7a-4556-aeed-50f2c5d1a04e","ios":"levelo://app?vid=32c1acc0-fc7a-4556-aeed-50f2c5d1a04e"},"vehicle_type_id":"4","last_reported":1685207149,"current_range_meters":10400,"station_id":"ce4bhu92rcd13ifvqi70","pricing_plan_id":"free"},{"bike_id":"40782b5c-2472-4eb6-a0b3-cb8fbd7a5f7c","system_id":"levelo_inurba_marseille","lat":43.231919,"lon":5.355532,"is_reserved":false,"is_disabled":false,"rental_uris":{"android":"levelo://app?vid=40782b5c-2472-4eb6-a0b3-cb8fbd7a5f7c","ios":"levelo://app?vid=40782b5c-2472-4eb6-a0b3-cb8fbd7a5f7c"},"vehicle_type_id":"4","last_reported":1685207149,"current_range_meters":18800,"station_id":"ce4bhu92rcd13ifvqi70","pricing_plan_id":"free"},{"bike_id":"06cc29fe-4669-4afc-bb35-a5e1af0a1bc4","system_id":"levelo_inurba_marseille","lat":43.23196,"lon":5.35552,"is_reserved":false,"is_disabled":false,"rental_uris":{"android":"levelo://app?vid=06cc29fe-4669-4afc-bb35-a5e1af0a1bc4","ios":"levelo://app?vid=06cc29fe-4669-4afc-bb35-a5e1af0a1bc4"},"vehicle_type_id":"4","last_reported":1685207149,"current_range_meters":1200,"station_id":"ce4bhu92rcd13ifvqi70","pricing_plan_id":"free"},{"bike_id":"c610a91d-6873-4603-a7e0-667af06ce82c","system_id":"levelo_inurba_marseille","lat":43.23194,"lon":5.35559,"is_reserved":false,"is_disabled":false,"rental_uris":{"android":"levelo://app?vid=c610a91d-6873-4603-a7e0-667af06ce82c","ios":"levelo://app?vid=c610a91d-6873-4603-a7e0-667af06ce82c"},"vehicle_type_id":"4","last_reported":1685207149,"current_range_meters":8000,"station_id":"ce4bhu92rcd13ifvqi70","pricing_plan_id":"free"},{"bike_id":"6ed80210-e865-4830-a64d-7a44325491b1","system_id":"levelo_inurba_marseille","lat":43.23194,"lon":5.35554,"is_reserved":false,"is_disabled":false,"rental_uris":{"android":"levelo://app?vid=6ed80210-e865-4830-a64d-7a44325491b1","ios":"levelo://app?vid=6ed80210-e865-4830-a64d-7a44325491b1"},"vehicle_type_id":"4","last_reported":1685207149,"current_range_meters":25200,"station_id":"ce4bhu92rcd13ifvqi70","pricing_plan_id":"free"},{"bike_id":"ba4d59a8-54c3-439d-b6ce-459d537c072d","system_id":"levelo_inurba_marseille","lat":43.23194,"lon":5.35551,"is_reserved":false,"is_disabled":false,"rental_uris":{"android":"levelo://app?vid=ba4d59a8-54c3-439d-b6ce-459d537c072d","ios":"levelo://app?vid=ba4d59a8-54c3-439d-b6ce-459d537c072d"},"vehicle_type_id":"4","last_reported":1685207149,"current_range_meters":8400,"station_id":"ce4bhu92rcd13ifvqi70","pricing_plan_id":"free"},{"bike_id":"cdba1f78-f1c6-41ec-a8f0-6e70f887a7cc","system_id":"levelo_inurba_marseille","lat":43.2319,"lon":5.35561,"is_reserved":false,"is_disabled":false,"rental_uris":{"android":"levelo://app?vid=cdba1f78-f1c6-41ec-a8f0-6e70f887a7cc","ios":"levelo://app?vid=cdba1f78-f1c6-41ec-a8f0-6e70f887a7cc"},"vehicle_type_id":"4","last_reported":1685207149,"current_range_meters":4800,"station_id":"ce4bhu92rcd13ifvqi70","pricing_plan_id":"free"},{"bike_id":"5c272820-3a04-409e-a879-87b2d365273d","system_id":"levelo_inurba_marseille","lat":43.23135,"lon":5.35508,"is_reserved":false,"is_disabled":false,"rental_uris":{"android":"levelo://app?vid=5c272820-3a04-409e-a879-87b2d365273d","ios":"levelo://app?vid=5c272820-3a04-409e-a879-87b2d365273d"},"vehicle_type_id":"4","last_reported":1685207149,"current_range_meters":11200,"station_id":"","pricing_plan_id":"free"},{"bike_id":"a7fbfb05-3a72-4dea-b5c9-12ad7997a8ad","system_id":"levelo_inurba_marseille","lat":43.231794,"lon":5.400052,"is_reserved":false,"is_disabled":false,"rental_uris":{"android":"levelo://app?vid=a7fbfb05-3a72-4dea-b5c9-12ad7997a8ad","ios":"levelo://app?vid=a7fbfb05-3a72-4dea-b5c9-12ad7997a8ad"},"vehicle_type_id":"4","last_reported":1685207149,"current_range_meters":29600,"station_id":"ce4bhn12rcd13ifvqgqg","pricing_plan_id":"free"},{"bike_id":"67b77559-a903-49c5-9f37-4b2143617b52","system_id":"levelo_inurba_marseille","lat":43.231794,"lon":5.400052,"is_reserved":false,"is_disabled":false,"rental_uris":{"android":"levelo://app?vid=67b77559-a903-49c5-9f37-4b2143617b52","ios":"levelo://app?vid=67b77559-a903-49c5-9f37-4b2143617b52"},"vehicle_type_id":"4","last_reported":1685207149,"current_range_meters":31600,"station_id":"ce4bhn12rcd13ifvqgqg","pricing_plan_id":"free"},{"bike_id":"6bf87b3f-2e5e-484d-9f73-d12a90c06e2e","system_id":"levelo_inurba_marseille","lat":43.231794,"lon":5.400052,"is_reserved":false,"is_disabled":false,"rental_uris":{"android":"levelo://app?vid=6bf87b3f-2e5e-484d-9f73-d12a90c06e2e","ios":"levelo://app?vid=6bf87b3f-2e5e-484d-9f73-d12a90c06e2e"},"vehicle_type_id":"4","last_reported":1685207149,"current_range_meters":31600,"station_id":"ce4bhn12rcd13ifvqgqg","pricing_plan_id":"free"},{"bike_id":"7dcc073b-b41d-40ec-9cbd-380dfe07c27c","system_id":"levelo_inurba_marseille","lat":43.231794,"lon":5.400052,"is_reserved":false,"is_disabled":false,"rental_uris":{"android":"levelo://app?vid=7dcc073b-b41d-40ec-9cbd-380dfe07c27c","ios":"levelo://app?vid=7dcc073b-b41d-40ec-9cbd-380dfe07c27c"},"vehicle_type_id":"4","last_reported":1685207149,"current_range_meters":19200,"station_id":"ce4bhn12rcd13ifvqgqg","pricing_plan_id":"free"},{"bike_id":"fa025f6b-9b72-4047-81a2-78b1accb1a5e","system_id":"levelo_inurba_marseille","lat":43.231793,"lon":5.400044,"is_reserved":false,"is_disabled":false,"rental_uris":{"android":"levelo://app?vid=fa025f6b-9b72-4047-81a2-78b1accb1a5e","ios":"levelo://app?vid=fa025f6b-9b72-4047-81a2-78b1accb1a5e"},"vehicle_type_id":"4","last_reported":1685207149,"current_range_meters":11200,"station_id":"ce4bhn12rcd13ifvqgqg","pricing_plan_id":"free"},{"bike_id":"1420567d-5493-4112-adec-f09973b532e9","system_id":"levelo_inurba_marseille","lat":43.231793,"lon":5.400044,"is_reserved":false,"is_disabled":false,"rental_uris":{"android":"levelo://app?vid=1420567d-5493-4112-adec-f09973b532e9","ios":"levelo://app?vid=1420567d-5493-4112-adec-f09973b532e9"},"vehicle_type_id":"4","last_reported":1685207149,"current_range_meters":21600,"station_id":"ce4bhn12rcd13ifvqgqg","pricing_plan_id":"free"},{"bike_id":"e39c0672-1b6c-4e48-943d-c79fd5ce8d4a","system_id":"levelo_inurba_marseille","lat":43.23185,"lon":5.39991,"is_reserved":false,"is_disabled":false,"rental_uris":{"android":"levelo://app?vid=e39c0672-1b6c-4e48-943d-c79fd5ce8d4a","ios":"levelo://app?vid=e39c0672-1b6c-4e48-943d-c79fd5ce8d4a"},"vehicle_type_id":"4","last_reported":1685207149,"current_range_meters":12800,"station_id":"ce4bhn12rcd13ifvqgqg","pricing_plan_id":"free"},{"bike_id":"279132f9-fc26-4eef-a41e-65b19a1b60ea","system_id":"levelo_inurba_marseille","lat":43.231794,"lon":5.400052,"is_reserved":false,"is_disabled":false,"rental_uris":{"android":"levelo://app?vid=279132f9-fc26-4eef-a41e-65b19a1b60ea","ios":"levelo://app?vid=279132f9-fc26-4eef-a41e-65b19a1b60ea"},"vehicle_type_id":"4","last_reported":1685207149,"current_range_meters":16000,"station_id":"ce4bhn12rcd13ifvqgqg","pricing_plan_id":"free"}]}}