{"last_updated":1765926630,"ttl":60,"version":"2.2","data":{"bikes":[{"bike_id":"0267d1ab-5c71-4bd3-8bb7-0031204e1b9f","system_id":"levelo_inurba_marseille","lat":43.262,"lon":5.37933,"is_reserved":false,"is_disabled":false,"rental_uris":{"android":"levelo://app?vid=0267d1ab-5c71-4bd3-8bb7-0031204e1b9f","ios":"levelo://app?vid=0267d1ab-5c71-4bd3-8bb7-0031204e1b9f"},"vehicle_type_id":"4","last_reported":1765926630,"current_range_meters":2800,"station_id":"ce4bhjp2rcd13ifvqg90","pricing_plan_id":"cebpf4jnsgd1na2vs0mg"},{"bike_id":"12fb49b5-ea20-4b61-8002-ba5e08e27ef3","system_id":"levelo_inurba_marseille","lat":43.271105,"lon":5.408822,"is_reserved":false,"is_disabled":false,"rental_uris":{"android":"levelo://app?vid=12fb49b5-ea20-4b61-8002-ba5e08e27ef3","ios":"levelo://app?vid=12fb49b5-ea20-4b61-8002-ba5e08e27ef3"},"vehicle_type_id":"4","last_reported":1765926630,"current_range_meters":2800,"station_id":"ce4bho92rcd13ifvqh4g","pricing_plan_id":"cebpf4jnsgd1na2vs0mg"},{"bike_id":"8809623b-bcab-46c3-8a73-160886551c22","system_id":"levelo_inurba_marseille","lat":43.23197,"lon":5.39967,"is_reserved":false,"is_disabled":false,"rental_uris":{"android":"levelo://app?vid=8809623b-bcab-46c3-8a73-160886551c22","ios":"levelo://app?vid=8809623b-bcab-46c3-8a73-160886551c22"},"vehicle_type_id":"4","last_reported":1765926630,"current_range_meters":3200,"station_id":"ce4bhn12rcd13ifvqgqg","pricing_plan_id":"cebpf4jnsgd1na2vs0mg"},{"bike_id":"9da14f02-4610-4edc-997a-2fbb69404f3f","system_id":"levelo_inurba_marseille","lat":43.30427,"lon":5.39744,"is_reserved":false,"is_disabled":false,"rental_uris":{"android":"levelo://app?vid=9da14f02-4610-4edc-997a-2fbb69404f3f","ios":"levelo://app?vid=9da14f02-4610-4edc-997a-2fbb69404f3f"},"vehicle_type_id":"4","last_reported":1765926630,"current_range_meters":3200,"station_id":"ce4bh092rcd13ifvqd20","pricing_plan_id":"cebpf4jnsgd1na2vs0mg"},{"bike_id":"5cfcac19-e885-4209-96ab-a70a0192b25a","system_id":"levelo_inurba_marseille","lat":43.33742,"lon":5.37451,"is_reserved":false,"is_disabled":false,"rental_uris":{"android":"levelo://app?vid=5cfcac19-e885-4209-96ab-a70a0192b25a","ios":"levelo://app?vid=5cfcac19-e885-4209-96ab-a70a0192b25a"},"vehicle_type_id":"4","last_reported":1765926630,"current_range_meters":3600,"station_id":"","pricing_plan_id":"cebpf4jnsgd1na2vs0mg"},{"bike_id":"2bee5706-ce55-4174-a664-0f508668a0a2","system_id":"levelo_inurba_marseille","lat":43.30606,"lon":5.37214,"is_reserved":false,"is_disabled":false,"rental_uris":{"android":"levelo://app?vid=2bee5706-ce55-4174-a664-0f508668a0a2","ios":"levelo://app?vid=2bee5706-ce55-4174-a664-0f508668a0a2"},"vehicle_type_id":"4","last_reported":1765926630,"current_range_meters":3600,"station_id":"ce4bgqh2rcd13ifvqc4g","pricing_plan_id":"cebpf4jnsgd1na2vs0mg"},{"bike_id":"78c46628-9c4f-473b-91e7-9f8e9f1cf58b","system_id":"levelo_inurba_marseille","lat":43.30141,"lon":5.37419,"is_reserved":false,"is_disabled":false,"rental_uris":{"android":"levelo://app?vid=78c46628-9c4f-473b-91e7-9f8e9f1cf58b","ios":"levelo://app?vid=78c46628-9c4f-473b-91e7-9f8e9f1cf58b"},"vehicle_type_id":"4","last_reported":1765926630,"current_range_meters":3600,"station_id":"ce4bgs92rcd13ifvqcc0","pricing_plan_id":"cebpf4jnsgd1na2vs0mg"},{"bike_id":"b45d2bbe-5126-48a9-aba8-e2d84650bde7","system_id":"levelo_inurba_marseille","lat":43.284187,"lon":5.349817,"is_reserved":false,"is_disabled":false,"rental_uris":{"android":"levelo://app?vid=b45d2bbe-5126-48a9-aba8-e2d84650bde7","ios":"levelo://app?vid=b45d2bbe-5126-48a9-aba8-e2d84650bde7"},"vehicle_type_id":"4","last_reported":1765926630,"current_range_meters":4000,"station_id":"ce4bhbh2rcd13ifvqepg","pricing_plan_id":"cebpf4jnsgd1na2vs0mg"},{"bike_id":"e1ae77a3-b5d6-49c5-80a3-e36bf02eb42d","system_id":"levelo_inurba_marseille","lat":43.2587,"lon":5.39892,"is_reserved":false,"is_disabled":false,"rental_uris":{"android":"levelo://app?vid=e1ae77a3-b5d6-49c5-80a3-e36bf02eb42d","ios":"levelo://app?vid=e1ae77a3-b5d6-49c5-80a3-e36bf02eb42d"},"vehicle_type_id":"4","last_reported":1765926630,"current_range_meters":4000,"station_id":"ce4bhl92rcd13ifvqghg","pricing_plan_id":"cebpf4jnsgd1na2vs0mg"},{"bike_id":"bf4ec8c6-3a04-40b3-b0f1-8aee8feac994","system_id":"levelo_inurba_marseille","lat":43.2418,"lon":5.39718,"is_reserved":false,"is_disabled":false,"rental_uris":{"android":"levelo://app?vid=bf4ec8c6-3a04-40b3-b0f1-8aee8feac994","ios":"levelo://app?vid=bf4ec8c6-3a04-40b3-b0f1-8aee8feac994"},"vehicle_type_id":"4","last_reported":1765926630,"current_range_meters":4000,"station_id":"ce4bhn12rcd13ifvqgpg","pricing_plan_id":"cebpf4jnsgd1na2vs0mg"},{"bike_id":"af60ad45-1773-4b17-8cbf-b5714f9a120e","system_id":"levelo_inurba_marseille","lat":43.337666,"lon":5.374436,"is_reserved":false,"is_disabled":false,"rental_uris":{"android":"levelo://app?vid=af60ad45-1773-4b17-8cbf-b5714f9a120e","ios":"levelo://app?vid=af60ad45-1773-4b17-8cbf-b5714f9a120e"},"vehicle_type_id":"4","last_reported":1765926630,"current_range_meters":4400,"station_id":"","pricing_plan_id":"cebpf4jnsgd1na2vs0mg"},{"bike_id":"aac3a556-eab0-4156-bc9c-29564664e6f5","system_id":"levelo_inurba_marseille","lat":43.337725,"lon":5.374316,"is_reserved":false,"is_disabled":false,"rental_uris":{"android":"levelo://app?vid=aac3a556-eab0-4156-bc9c-29564664e6f5","ios":"levelo://app?vid=aac3a556-eab0-4156-bc9c-29564664e6f5"},"vehicle_type_id":"4","last_reported":1765926630,"current_range_meters":4400,"station_id":"","pricing_plan_id":"cebpf4jnsgd1na2vs0mg"},{"bike_id":"30ffdef9-3ee1-4be3-aa4a-5baa21a1b2e0","system_id":"levelo_inurba_marseille","lat":43.27939,"lon":5.41047,"is_reserved":false,"is_disabled":false,"rental_uris":{"android":"levelo://app?vid=30ffdef9-3ee1-4be3-aa4a-5baa21a1b2e0","ios":"levelo://app?vid=30ffdef9-3ee1-4be3-aa4a-5baa21a1b2e0"},"vehicle_type_id":"4","last_reported":1765926630,"current_range_meters":4800,"station_id":"ce4bhnp2rcd13ifvqh0g","pricing_plan_id":"cebpf4jnsgd1na2vs0mg"},{"bike_id":"23c44aa6-0e6c-42bb-a106-2c20dde25380","system_id":"levelo_inurba_marseille","lat":43.277641,"lon":5.406978,"is_reserved":false,"is_disabled":false,"rental_uris":{"android":"levelo://app?vid=23c44aa6-0e6c-42bb-a106-2c20dde25380","ios":"levelo://app?vid=23c44aa6-0e6c-42bb-a106-2c20dde25380"},"vehicle_type_id":"4","last_reported":1765926630,"current_range_meters":4800,"station_id":"ce4bhnh2rcd13ifvqgtg","pricing_plan_id":"cebpf4jnsgd1na2vs0mg"},{"bike_id":"fcceeac8-34c6-4a4c-898a-276efdf273d7","system_id":"levelo_inurba_marseille","lat":43.30944,"lon":5.4014,"is_reserved":false,"is_disabled":false,"rental_uris":{"android":"levelo://app?vid=fcceeac8-34c6-4a4c-898a-276efdf273d7","ios":"levelo://app?vid=fcceeac8-34c6-4a4c-898a-276efdf273d7"},"vehicle_type_id":"4","last_reported":1765926630,"current_range_meters":4800,"station_id":"ce4bgvp2rcd13ifvqct0","pricing_plan_id":"cebpf4jnsgd1na2vs0mg"},{"bike_id":"0224f08a-bd8a-4dcc-9ae0-e6df47d6d7f2","system_id":"levelo_inurba_marseille","lat":43.337444,"lon":5.374475,"is_reserved":false,"is_disabled":false,"rental_uris":{"android":"levelo://app?vid=0224f08a-bd8a-4dcc-9ae0-e6df47d6d7f2","ios":"levelo://app?vid=0224f08a-bd8a-4dcc-9ae0-e6df47d6d7f2"},"vehicle_type_id":"4","last_reported":1765926630,"current_range_meters":4800,"station_id":"","pricing_plan_id":"cebpf4jnsgd1na2vs0mg"},{"bike_id":"4d8305f5-3b23-4d85-b774-71093376b965","system_id":"levelo_inurba_marseille","lat":43.30148,"lon":5.37414,"is_reserved":false,"is_disabled":false,"rental_uris":{"android":"levelo://app?vid=4d8305f5-3b23-4d85-b774-71093376b965","ios":"levelo://app?vid=4d8305f5-3b23-4d85-b774-71093376b965"},"vehicle_type_id":"4","last_reported":1765926630,"current_range_meters":5600,"station_id":"ce4bgs92rcd13ifvqcc0","pricing_plan_id":"cebpf4jnsgd1na2vs0mg"},{"bike_id":"514830aa-b5fa-4389-bfe9-171ba5aad87c","system_id":"levelo_inurba_marseille","lat":43.28428,"lon":5.37519,"is_reserved":false,"is_disabled":false,"rental_uris":{"android":"levelo://app?vid=514830aa-b5fa-4389-bfe9-171ba5aad87c","ios":"levelo://app?vid=514830aa-b5fa-4389-bfe9-171ba5aad87c"},"vehicle_type_id":"4","last_reported":1765926630,"current_range_meters":5600,"station_id":"ce4bh412rcd13ifvqds0","pricing_plan_id":"cebpf4jnsgd1na2vs0mg"},{"bike_id":"6bbeca0d-c7f3-4e46-9950-ab97b480fed0","system_id":"levelo_inurba_marseille","lat":43.28704,"lon":5.37371,"is_reserved":false,"is_disabled":false,"rental_uris":{"android":"levelo://app?vid=6bbeca0d-c7f3-4e46-9950-ab97b480fed0","ios":"levelo://app?vid=6bbeca0d-c7f3-4e46-9950-ab97b480fed0"},"vehicle_type_id":"4","last_reported":1765926630,"current_range_meters":5600,"station_id":"ce4bh3p2rcd13ifvqdq0","pricing_plan_id":"cebpf4jnsgd1na2vs0mg"},{"bike_id":"3e7989aa-dd36-4a25-bc5c-e64bc1aaaf70","system_id":"levelo_inurba_marseille","lat":43.28457,"lon":5.35886,"is_reserved":false,"is_disabled":false,"rental_uris":{"android":"levelo://app?vid=3e7989aa-dd36-4a25-bc5c-e64bc1aaaf70","ios":"levelo://app?vid=3e7989aa-dd36-4a25-bc5c-e64bc1aaaf70"},"vehicle_type_id":"4","last_reported":1765926630,"current_range_meters":6000,"station_id":"ce4bhah2rcd13ifvqei0","pricing_plan_id":"cebpf4jnsgd1na2vs0mg"},{"bike_id":"7c36070f-bddc-40ed-a333-875a2d58c60c","system_id":"levelo_inurba_marseille","lat":43.2649,"lon":5.39441,"is_reserved":false,"is_disabled":false,"rental_uris":{"android":"levelo://app?vid=7c36070f-bddc-40ed-a333-875a2d58c60c","ios":"levelo://app?vid=7c36070f-bddc-40ed-a333-875a2d58c60c"},"vehicle_type_id":"4","last_reported":1765926630,"current_range_meters":6000,"station_id":"","pricing_plan_id":"cebpf4jnsgd1na2vs0mg"},{"bike_id":"a613a717-96a3-4acb-9729-59a3a8cc0b12","system_id":"levelo_inurba_marseille","lat":43.28661,"lon":5.363585,"is_reserved":false,"is_disabled":false,"rental_uris":{"android":"levelo://app?vid=a613a717-96a3-4acb-9729-59a3a8cc0b12","ios":"levelo://app?vid=a613a717-96a3-4acb-9729-59a3a8cc0b12"},"vehicle_type_id":"4","last_reported":1765926630,"current_range_meters":6000,"station_id":"","pricing_plan_id":"cebpf4jnsgd1na2vs0mg"},{"bike_id":"0e49c737-64fa-42df-b477-b17639740d5d","system_id":"levelo_inurba_marseille","lat":43.21191,"lon":5.35077,"is_reserved":false,"is_disabled":false,"rental_uris":{"android":"levelo://app?vid=0e49c737-64fa-42df-b477-b17639740d5d","ios":"levelo://app?vid=0e49c737-64fa-42df-b477-b17639740d5d"},"vehicle_type_id":"4","last_reported":1765926630,"current_range_meters":6000,"station_id":"","pricing_plan_id":"cebpf4jnsgd1na2vs0mg"},{"bike_id":"4a03dbba-e5b4-4f11-b0f9-d5d1883ab050","system_id":"levelo_inurba_marseille","lat":43.31099,"lon":5.42442,"is_reserved":false,"is_disabled":false,"rental_uris":{"android":"levelo://app?vid=4a03dbba-e5b4-4f11-b0f9-d5d1883ab050","ios":"levelo://app?vid=4a03dbba-e5b4-4f11-b0f9-d5d1883ab050"},"vehicle_type_id":"4","last_reported":1765926630,"current_range_meters":6400,"station_id":"ce4bhp92rcd13ifvqhag","pricing_plan_id":"cebpf4jnsgd1na2vs0mg"},{"bike_id":"ff21a575-7c72-4c57-84fd-92071b5f80e8","system_id":"levelo_inurba_marseille","lat":43.28081,"lon":5.39663,"is_reserved":false,"is_disabled":false,"rental_uris":{"android":"levelo://app?vid=ff21a575-7c72-4c57-84fd-92071b5f80e8","ios":"levelo://app?vid=ff21a575-7c72-4c57-84fd-92071b5f80e8"},"vehicle_type_id":"4","last_reported":1765926630,"current_range_meters":6400,"station_id":"ce4bho12rcd13ifvqh2g","pricing_plan_id":"cebpf4jnsgd1na2vs0mg"},{"bike_id":"8b4ec205-81bb-4fe4-a25a-8d4a5ee131ee","system_id":"levelo_inurba_marseille","lat":43.24807,"lon":5.37454,"is_reserved":false,"is_disabled":false,"rental_uris":{"android":"levelo://app?vid=8b4ec205-81bb-4fe4-a25a-8d4a5ee131ee","ios":"levelo://app?vid=8b4ec205-81bb-4fe4-a25a-8d4a5ee131ee"},"vehicle_type_id":"4","last_reported":1765926630,"current_range_meters":6400,"station_id":"ce4bhgh2rcd13ifvqfb0","pricing_plan_id":"cebpf4jnsgd1na2vs0mg"},{"bike_id":"a0250cd9-047b-4dcb-96a7-b1959783fdaf","system_id":"levelo_inurba_marseille","lat":43.33801,"lon":5.3745,"is_reserved":false,"is_disabled":false,"rental_uris":{"android":"levelo://app?vid=a0250cd9-047b-4dcb-96a7-b1959783fdaf","ios":"levelo://app?vid=a0250cd9-047b-4dcb-96a7-b1959783fdaf"},"vehicle_type_id":"4","last_reported":1765926630,"current_range_meters":6400,"station_id":"","pricing_plan_id":"cebpf4jnsgd1na2vs0mg"},{"bike_id":"dcf86aea-2e35-4fc9-b06f-cfd052d91d73","system_id":"levelo_inurba_marseille","lat":43.211912,"lon":5.350736,"is_reserved":false,"is_disabled":false,"rental_uris":{"android":"levelo://app?vid=dcf86aea-2e35-4fc9-b06f-cfd052d91d73","ios":"levelo://app?vid=dcf86aea-2e35-4fc9-b06f-cfd052d91d73"},"vehicle_type_id":"4","last_reported":1765926630,"current_range_meters":6400,"station_id":"st_cvj6sg6p6f1abm77japg","pricing_plan_id":"cebpf4jnsgd1na2vs0mg"},{"bike_id":"5e7e082d-c949-4efd-b442-be6d0cf3943e","system_id":"levelo_inurba_marseille","lat":43.24556,"lon":5.40016,"is_reserved":false,"is_disabled":false,"rental_uris":{"android":"levelo://app?vid=5e7e082d-c949-4efd-b442-be6d0cf3943e","ios":"levelo://app?vid=5e7e082d-c949-4efd-b442-be6d0cf3943e"},"vehicle_type_id":"4","last_reported":1765926630,"current_range_meters":6400,"station_id":"","pricing_plan_id":"cebpf4jnsgd1na2vs0mg"},{"bike_id":"e080d691-4951-43e9-9ffd-9277319373bb","system_id":"levelo_inurba_marseille","lat":43.316035,"lon":5.379218,"is_reserved":false,"is_disabled":false,"rental_uris":{"android":"levelo://app?vid=e080d691-4951-43e9-9ffd-9277319373bb","ios":"levelo://app?vid=e080d691-4951-43e9-9ffd-9277319373bb"},"vehicle_type_id":"4","last_reported":1765926630,"current_range_meters":6400,"station_id":"","pricing_plan_id":"cebpf4jnsgd1na2vs0mg"},{"bike_id":"856c3ccb-008b-46de-87d0-f907db8f269f","system_id":"levelo_inurba_marseille","lat":43.26509,"lon":5.39534,"is_reserved":false,"is_disabled":false,"rental_uris":{"android":"levelo://app?vid=856c3ccb-008b-46de-87d0-f907db8f269f","ios":"levelo://app?vid=856c3ccb-008b-46de-87d0-f907db8f269f"},"vehicle_type_id":"4","last_reported":1765926630,"current_range_meters":6400,"station_id":"ce4bhi12rcd13ifvqfq0","pricing_plan_id":"cebpf4jnsgd1na2vs0mg"},{"bike_id":"9916aee8-38ee-4718-8ab5-188be146fb87","system_id":"levelo_inurba_marseille","lat":43.3011,"lon":5.365264,"is_reserved":false,"is_disabled":false,"rental_uris":{"android":"levelo://app?vid=9916aee8-38ee-4718-8ab5-188be146fb87","ios":"levelo://app?vid=9916aee8-38ee-4718-8ab5-188be146fb87"},"vehicle_type_id":"4","last_reported":1765926630,"current_range_meters":6400,"station_id":"","pricing_plan_id":"cebpf4jnsgd1na2vs0mg"},{"bike_id":"850184bc-d4cf-4521-b35e-4473cd72a028","system_id":"levelo_inurba_marseille","lat":43.29089,"lon":5.38121,"is_reserved":false,"is_disabled":false,"rental_uris":{"android":"levelo://app?vid=850184bc-d4cf-4521-b35e-4473cd72a028","ios":"levelo://app?vid=850184bc-d4cf-4521-b35e-4473cd72a028"},"vehicle_type_id":"4","last_reported":1765926630,"current_range_meters":6800,"station_id":"","pricing_plan_id":"cebpf4jnsgd1na2vs0mg"},{"bike_id":"974e4159-2dde-48e8-8a68-f52dacedf70d","system_id":"levelo_inurba_marseille","lat":43.2993,"lon":5.36484,"is_reserved":false,"is_disabled":false,"rental_uris":{"android":"levelo://app?vid=974e4159-2dde-48e8-8a68-f52dacedf70d","ios":"levelo://app?vid=974e4159-2dde-48e8-8a68-f52dacedf70d"},"vehicle_type_id":"4","last_reported":1765926630,"current_range_meters":6800,"station_id":"","pricing_plan_id":"cebpf4jnsgd1na2vs0mg"},{"bike_id":"820801fc-2ecd-4da2-a804-e9811aec7e18","system_id":"levelo_inurba_marseille","lat":43.29039,"lon":5.40018,"is_reserved":false,"is_disabled":false,"rental_uris":{"android":"levelo://app?vid=820801fc-2ecd-4da2-a804-e9811aec7e18","ios":"levelo://app?vid=820801fc-2ecd-4da2-a804-e9811aec7e18"},"vehicle_type_id":"4","last_reported":1765926630,"current_range_meters":6800,"station_id":"ce4bh392rcd13ifvqdm0","pricing_plan_id":"cebpf4jnsgd1na2vs0mg"},{"bike_id":"2415159b-5c18-4eab-8f6a-ab05ead8e969","system_id":"levelo_inurba_marseille","lat":43.29006,"lon":5.35607,"is_reserved":false,"is_disabled":false,"rental_uris":{"android":"levelo://app?vid=2415159b-5c18-4eab-8f6a-ab05ead8e969","ios":"levelo://app?vid=2415159b-5c18-4eab-8f6a-ab05ead8e969"},"vehicle_type_id":"4","last_reported":1765926630,"current_range_meters":7200,"station_id":"ce4bhb92rcd13ifvqen0","pricing_plan_id":"cebpf4jnsgd1na2vs0mg"},{"bike_id":"71012492-1e58-4d46-bb47-b4a76eefeb6a","system_id":"levelo_inurba_marseille","lat":43.28445,"lon":5.39196,"is_reserved":false,"is_disabled":false,"rental_uris":{"android":"levelo://app?vid=71012492-1e58-4d46-bb47-b4a76eefeb6a","ios":"levelo://app?vid=71012492-1e58-4d46-bb47-b4a76eefeb6a"},"vehicle_type_id":"4","last_reported":1765926630,"current_range_meters":7200,"station_id":"ce4bhoh2rcd13ifvqh5g","pricing_plan_id":"cebpf4jnsgd1na2vs0mg"},{"bike_id":"dd5aa473-c8e7-41f8-9e2a-c088c0cf88de","system_id":"levelo_inurba_marseille","lat":43.26215,"lon":5.37444,"is_reserved":false,"is_disabled":false,"rental_uris":{"android":"levelo://app?vid=dd5aa473-c8e7-41f8-9e2a-c088c0cf88de","ios":"levelo://app?vid=dd5aa473-c8e7-41f8-9e2a-c088c0cf88de"},"vehicle_type_id":"4","last_reported":1765926630,"current_range_meters":7200,"station_id":"ce4bhgp2rcd13ifvqfc0","pricing_plan_id":"cebpf4jnsgd1na2vs0mg"},{"bike_id":"349fbd1f-0468-4718-af9e-2c2e9f46c264","system_id":"levelo_inurba_marseille","lat":43.31213,"lon":5.36928,"is_reserved":false,"is_disabled":false,"rental_uris":{"android":"levelo://app?vid=349fbd1f-0468-4718-af9e-2c2e9f46c264","ios":"levelo://app?vid=349fbd1f-0468-4718-af9e-2c2e9f46c264"},"vehicle_type_id":"4","last_reported":1765926630,"current_range_meters":8000,"station_id":"ce4bgl92rcd13ifvqbq0","pricing_plan_id":"cebpf4jnsgd1na2vs0mg"},{"bike_id":"552583b7-e328-467f-a82b-5d4f28133ee4","system_id":"levelo_inurba_marseille","lat":43.290704,"lon":5.371651,"is_reserved":false,"is_disabled":false,"rental_uris":{"android":"levelo://app?vid=552583b7-e328-467f-a82b-5d4f28133ee4","ios":"levelo://app?vid=552583b7-e328-467f-a82b-5d4f28133ee4"},"vehicle_type_id":"4","last_reported":1765926630,"current_range_meters":8000,"station_id":"cki0cbj6b192h4jlfktg","pricing_plan_id":"cebpf4jnsgd1na2vs0mg"},{"bike_id":"c6648296-1875-4b06-9e7a-b298c5e80ddb","system_id":"levelo_inurba_marseille","lat":43.28684,"lon":5.38689,"is_reserved":false,"is_disabled":false,"rental_uris":{"android":"levelo://app?vid=c6648296-1875-4b06-9e7a-b298c5e80ddb","ios":"levelo://app?vid=c6648296-1875-4b06-9e7a-b298c5e80ddb"},"vehicle_type_id":"4","last_reported":1765926630,"current_range_meters":8400,"station_id":"ce4bh492rcd13ifvqdug","pricing_plan_id":"cebpf4jnsgd1na2vs0mg"},{"bike_id":"c31e1273-394a-4341-b3f6-f2bc6199d3db","system_id":"levelo_inurba_marseille","lat":43.282595,"lon":5.350713,"is_reserved":false,"is_disabled":false,"rental_uris":{"android":"levelo://app?vid=c31e1273-394a-4341-b3f6-f2bc6199d3db","ios":"levelo://app?vid=c31e1273-394a-4341-b3f6-f2bc6199d3db"},"vehicle_type_id":"4","last_reported":1765926630,"current_range_meters":8400,"station_id":"ce4bhbp2rcd13ifvqerg","pricing_plan_id":"cebpf4jnsgd1na2vs0mg"},{"bike_id":"1d567078-65b6-458c-86b3-c17f9e793c67","system_id":"levelo_inurba_marseille","lat":43.2845,"lon":5.35895,"is_reserved":false,"is_disabled":false,"rental_uris":{"android":"levelo://app?vid=1d567078-65b6-458c-86b3-c17f9e793c67","ios":"levelo://app?vid=1d567078-65b6-458c-86b3-c17f9e793c67"},"vehicle_type_id":"4","last_reported":1765926630,"current_range_meters":8400,"station_id":"ce4bhah2rcd13ifvqei0","pricing_plan_id":"cebpf4jnsgd1na2vs0mg"},{"bike_id":"a3cf6e32-8a5b-405a-8e1a-e62fc2a41c92","system_id":"levelo_inurba_marseille","lat":43.28026,"lon":5.42135,"is_reserved":false,"is_disabled":false,"rental_uris":{"android":"levelo://app?vid=a3cf6e32-8a5b-405a-8e1a-e62fc2a41c92","ios":"levelo://app?vid=a3cf6e32-8a5b-405a-8e1a-e62fc2a41c92"},"vehicle_type_id":"4","last_reported":1765926630,"current_range_meters":8800,"station_id":"","pricing_plan_id":"cebpf4jnsgd1na2vs0mg"},{"bike_id":"66198d54-27eb-4c7e-8cb9-cdd1febf5508","system_id":"levelo_inurba_marseille","lat":43.31259,"lon":5.40165,"is_reserved":false,"is_disabled":false,"rental_uris":{"android":"levelo://app?vid=66198d54-27eb-4c7e-8cb9-cdd1febf5508","ios":"levelo://app?vid=66198d54-27eb-4c7e-8cb9-cdd1febf5508"},"vehicle_type_id":"4","last_reported":1765926630,"current_range_meters":8800,"station_id":"ce4bh092rcd13ifvqd30","pricing_plan_id":"cebpf4jnsgd1na2vs0mg"},{"bike_id":"4f2c2ae9-cceb-4f6c-925d-23d363970b60","system_id":"levelo_inurba_marseille","lat":43.27638,"lon":5.36112,"is_reserved":false,"is_disabled":false,"rental_uris":{"android":"levelo://app?vid=4f2c2ae9-cceb-4f6c-925d-23d363970b60","ios":"levelo://app?vid=4f2c2ae9-cceb-4f6c-925d-23d363970b60"},"vehicle_type_id":"4","last_reported":1765926630,"current_range_meters":8800,"station_id":"ce4bgj92rcd13ifvqbe0","pricing_plan_id":"cebpf4jnsgd1na2vs0mg"},{"bike_id":"326938aa-2228-4d10-ac06-cb03784dcba0","system_id":"levelo_inurba_marseille","lat":43.29782,"lon":5.4041,"is_reserved":false,"is_disabled":false,"rental_uris":{"android":"levelo://app?vid=326938aa-2228-4d10-ac06-cb03784dcba0","ios":"levelo://app?vid=326938aa-2228-4d10-ac06-cb03784dcba0"},"vehicle_type_id":"4","last_reported":1765926630,"current_range_meters":8800,"station_id":"ce4bh112rcd13ifvqd90","pricing_plan_id":"cebpf4jnsgd1na2vs0mg"},{"bike_id":"b87a5a4e-f1aa-4157-a322-71a7cf4f7ca0","system_id":"levelo_inurba_marseille","lat":43.30998,"lon":5.39342,"is_reserved":false,"is_disabled":false,"rental_uris":{"android":"levelo://app?vid=b87a5a4e-f1aa-4157-a322-71a7cf4f7ca0","ios":"levelo://app?vid=b87a5a4e-f1aa-4157-a322-71a7cf4f7ca0"},"vehicle_type_id":"4","last_reported":1765926630,"current_range_meters":8800,"station_id":"","pricing_plan_id":"cebpf4jnsgd1na2vs0mg"},{"bike_id":"fb31deb4-1b33-4b6b-a960-914cb33129a5","system_id":"levelo_inurba_marseille","lat":43.30332,"lon":5.40431,"is_reserved":false,"is_disabled":false,"rental_uris":{"android":"levelo://app?vid=fb31deb4-1b33-4b6b-a960-914cb33129a5","ios":"levelo://app?vid=fb31deb4-1b33-4b6b-a960-914cb33129a5"},"vehicle_type_id":"4","last_reported":1765926630,"current_range_meters":8800,"station_id":"ce4bh012rcd13ifvqd10","pricing_plan_id":"cebpf4jnsgd1na2vs0mg"},{"bike_id":"6df4c56c-c6f5-4fb1-84fc-9f50cb5ef178","system_id":"levelo_inurba_marseille","lat":43.23208,"lon":5.35538,"is_reserved":false,"is_disabled":true,"rental_uris":{"android":"levelo://app?vid=6df4c56c-c6f5-4fb1-84fc-9f50cb5ef178","ios":"levelo://app?vid=6df4c56c-c6f5-4fb1-84fc-9f50cb5ef178"},"vehicle_type_id":"4","last_reported":1765926630,"current_range_meters":9200,"station_id":"ce4bhu92rcd13ifvqi70","pricing_plan_id":"cebpf4jnsgd1na2vs0mg"},{"bike_id":"46b9da8e-600f-4b77-a964-111e9eafd3fa","system_id":"levelo_inurba_marseille","lat":43.26459,"lon":5.37362,"is_reserved":false,"is_disabled":false,"rental_uris":{"android":"levelo://app?vid=46b9da8e-600f-4b77-a964-111e9eafd3fa","ios":"levelo://app?vid=46b9da8e-600f-4b77-a964-111e9eafd3fa"},"vehicle_type_id":"4","last_reported":1765926630,"current_range_meters":9200,"station_id":"","pricing_plan_id":"cebpf4jnsgd1na2vs0mg"},{"bike_id":"187e95dd-1ca0-44dd-bfaf-b9ad8a869387","system_id":"levelo_inurba_marseille","lat":43.31437,"lon":5.37402,"is_reserved":false,"is_disabled":false,"rental_uris":{"android":"levelo://app?vid=187e95dd-1ca0-44dd-bfaf-b9ad8a869387","ios":"levelo://app?vid=187e95dd-1ca0-44dd-bfaf-b9ad8a869387"},"vehicle_type_id":"4","last_reported":1765926630,"current_range_meters":9200,"station_id":"","pricing_plan_id":"cebpf4jnsgd1na2vs0mg"},{"bike_id":"f0607238-9fab-432e-a6c6-c5acd6257feb","system_id":"levelo_inurba_marseille","lat":43.30353,"lon":5.39294,"is_reserved":false,"is_disabled":true,"rental_uris":{"android":"levelo://app?vid=f0607238-9fab-432e-a6c6-c5acd6257feb","ios":"levelo://app?vid=f0607238-9fab-432e-a6c6-c5acd6257feb"},"vehicle_type_id":"4","last_reported":1765926630,"current_range_meters":9200,"station_id":"","pricing_plan_id":"cebpf4jnsgd1na2vs0mg"},{"bike_id":"c2dbecdc-0ef9-48e5-a6d6-1106c2dfe04a","system_id":"levelo_inurba_marseille","lat":43.274902,"lon":5.424391,"is_reserved":false,"is_disabled":false,"rental_uris":{"android":"levelo://app?vid=c2dbecdc-0ef9-48e5-a6d6-1106c2dfe04a","ios":"levelo://app?vid=c2dbecdc-0ef9-48e5-a6d6-1106c2dfe04a"},"vehicle_type_id":"4","last_reported":1765926630,"current_range_meters":9200,"station_id":"ce4bhn92rcd13ifvqgrg","pricing_plan_id":"cebpf4jnsgd1na2vs0mg"},{"bike_id":"f863adb9-b7de-4f92-ab5c-6a5e6bf3dd21","system_id":"levelo_inurba_marseille","lat":43.2467,"lon":5.38168,"is_reserved":false,"is_disabled":false,"rental_uris":{"android":"levelo://app?vid=f863adb9-b7de-4f92-ab5c-6a5e6bf3dd21","ios":"levelo://app?vid=f863adb9-b7de-4f92-ab5c-6a5e6bf3dd21"},"vehicle_type_id":"4","last_reported":1765926630,"current_range_meters":9200,"station_id":"ce4bhih2rcd13ifvqfr0","pricing_plan_id":"cebpf4jnsgd1na2vs0mg"},{"bike_id":"a9a3221e-6d0a-404e-bd54-71184c5d5451","system_id":"levelo_inurba_marseille","lat":43.29639,"lon":5.38075,"is_reserved":false,"is_disabled":true,"rental_uris":{"android":"levelo://app?vid=a9a3221e-6d0a-404e-bd54-71184c5d5451","ios":"levelo://app?vid=a9a3221e-6d0a-404e-bd54-71184c5d5451"},"vehicle_type_id":"4","last_reported":1765926630,"current_range_meters":9200,"station_id":"","pricing_plan_id":"cebpf4jnsgd1na2vs0mg"},{"bike_id":"d3967905-8c4e-48e2-81c5-5da67a46011b","system_id":"levelo_inurba_marseille","lat":43.31513,"lon":5.37318,"is_reserved":false,"is_disabled":false,"rental_uris":{"android":"levelo://app?vid=d3967905-8c4e-48e2-81c5-5da67a46011b","ios":"levelo://app?vid=d3967905-8c4e-48e2-81c5-5da67a46011b"},"vehicle_type_id":"4","last_reported":1765926630,"current_range_meters":9200,"station_id":"ce4bgt12rcd13ifvqcd0","pricing_plan_id":"cebpf4jnsgd1na2vs0mg"},{"bike_id":"27c037aa-092f-45ca-988a-d395e534503e","system_id":"levelo_inurba_marseille","lat":43.28275,"lon":5.35049,"is_reserved":false,"is_disabled":false,"rental_uris":{"android":"levelo://app?vid=27c037aa-092f-45ca-988a-d395e534503e","ios":"levelo://app?vid=27c037aa-092f-45ca-988a-d395e534503e"},"vehicle_type_id":"4","last_reported":1765926630,"current_range_meters":9600,"station_id":"ce4bhbp2rcd13ifvqerg","pricing_plan_id":"cebpf4jnsgd1na2vs0mg"},{"bike_id":"33a2b083-5c83-46bd-ace8-47e24d0924d4","system_id":"levelo_inurba_marseille","lat":43.28665,"lon":5.36355,"is_reserved":false,"is_disabled":false,"rental_uris":{"android":"levelo://app?vid=33a2b083-5c83-46bd-ace8-47e24d0924d4","ios":"levelo://app?vid=33a2b083-5c83-46bd-ace8-47e24d0924d4"},"vehicle_type_id":"4","last_reported":1765926630,"current_range_meters":9600,"station_id":"ce4bhah2rcd13ifvqej0","pricing_plan_id":"cebpf4jnsgd1na2vs0mg"},{"bike_id":"3654ae97-b203-4383-af3d-8ace8cb0b862","system_id":"levelo_inurba_marseille","lat":43.28463,"lon":5.35885,"is_reserved":false,"is_disabled":false,"rental_uris":{"android":"levelo://app?vid=3654ae97-b203-4383-af3d-8ace8cb0b862","ios":"levelo://app?vid=3654ae97-b203-4383-af3d-8ace8cb0b862"},"vehicle_type_id":"4","last_reported":1765926630,"current_range_meters":9600,"station_id":"ce4bhah2rcd13ifvqei0","pricing_plan_id":"cebpf4jnsgd1na2vs0mg"},{"bike_id":"90cd5556-a24c-4dd3-985e-d8a9cae16717","system_id":"levelo_inurba_marseille","lat":43.25571,"lon":5.38246,"is_reserved":false,"is_disabled":false,"rental_uris":{"android":"levelo://app?vid=90cd5556-a24c-4dd3-985e-d8a9cae16717","ios":"levelo://app?vid=90cd5556-a24c-4dd3-985e-d8a9cae16717"},"vehicle_type_id":"4","last_reported":1765926630,"current_range_meters":9600,"station_id":"ce4bhih2rcd13ifvqfs0","pricing_plan_id":"cebpf4jnsgd1na2vs0mg"},{"bike_id":"fd7fe341-e9e1-43e0-9282-b94a778a6675","system_id":"levelo_inurba_marseille","lat":43.337444,"lon":5.374475,"is_reserved":false,"is_disabled":false,"rental_uris":{"android":"levelo://app?vid=fd7fe341-e9e1-43e0-9282-b94a778a6675","ios":"levelo://app?vid=fd7fe341-e9e1-43e0-9282-b94a778a6675"},"vehicle_type_id":"4","last_reported":1765926630,"current_range_meters":9600,"station_id":"","pricing_plan_id":"cebpf4jnsgd1na2vs0mg"},{"bike_id":"689366f2-5dc3-46d3-b076-15bda5909247","system_id":"levelo_inurba_marseille","lat":43.308039,"lon":5.381465,"is_reserved":false,"is_disabled":false,"rental_uris":{"android":"levelo://app?vid=689366f2-5dc3-46d3-b076-15bda5909247","ios":"levelo://app?vid=689366f2-5dc3-46d3-b076-15bda5909247"},"vehicle_type_id":"4","last_reported":1765926630,"current_range_meters":9600,"station_id":"ce4bho92rcd13ifvqh4g","pricing_plan_id":"cebpf4jnsgd1na2vs0mg"},{"bike_id":"ea881942-7d58-44fd-8f08-d173c0dae020","system_id":"levelo_inurba_marseille","lat":43.24636,"lon":5.43149,"is_reserved":false,"is_disabled":true,"rental_uris":{"android":"levelo://app?vid=ea881942-7d58-44fd-8f08-d173c0dae020","ios":"levelo://app?vid=ea881942-7d58-44fd-8f08-d173c0dae020"},"vehicle_type_id":"4","last_reported":1765926630,"current_range_meters":9600,"station_id":"st_d2m6c4gdas8pm72e190g","pricing_plan_id":"cebpf4jnsgd1na2vs0mg"},{"bike_id":"c87d7976-ab91-4cec-b1a8-b879f3c8ce70","system_id":"levelo_inurba_marseille","lat":43.24076,"lon":5.37762,"is_reserved":false,"is_disabled":false,"rental_uris":{"android":"levelo://app?vid=c87d7976-ab91-4cec-b1a8-b879f3c8ce70","ios":"levelo://app?vid=c87d7976-ab91-4cec-b1a8-b879f3c8ce70"},"vehicle_type_id":"4","last_reported":1765926630,"current_range_meters":9600,"station_id":"ce4bhnp2rcd13ifvqgvg","pricing_plan_id":"cebpf4jnsgd1na2vs0mg"},{"bike_id":"91462983-47d0-4712-b68d-008b5bbc3453","system_id":"levelo_inurba_marseille","lat":43.30739,"lon":5.42432,"is_reserved":false,"is_disabled":false,"rental_uris":{"android":"levelo://app?vid=91462983-47d0-4712-b68d-008b5bbc3453","ios":"levelo://app?vid=91462983-47d0-4712-b68d-008b5bbc3453"},"vehicle_type_id":"4","last_reported":1765926630,"current_range_meters":9600,"station_id":"st_cvj6ca6bvosntc0bfgr0","pricing_plan_id":"cebpf4jnsgd1na2vs0mg"},{"bike_id":"f371150b-2fd5-4957-af32-bdb4e9dab7ee","system_id":"levelo_inurba_marseille","lat":43.31092,"lon":5.42432,"is_reserved":false,"is_disabled":false,"rental_uris":{"android":"levelo://app?vid=f371150b-2fd5-4957-af32-bdb4e9dab7ee","ios":"levelo://app?vid=f371150b-2fd5-4957-af32-bdb4e9dab7ee"},"vehicle_type_id":"4","last_reported":1765926630,"current_range_meters":9600,"station_id":"ce4bhp92rcd13ifvqhag","pricing_plan_id":"cebpf4jnsgd1na2vs0mg"},{"bike_id":"30373659-1302-4bf2-b36d-72447b8a5e72","system_id":"levelo_inurba_marseille","lat":43.28756,"lon":5.37848,"is_reserved":false,"is_disabled":false,"rental_uris":{"android":"levelo://app?vid=30373659-1302-4bf2-b36d-72447b8a5e72","ios":"levelo://app?vid=30373659-1302-4bf2-b36d-72447b8a5e72"},"vehicle_type_id":"4","last_reported":1765926630,"current_range_meters":9600,"station_id":"","pricing_plan_id":"cebpf4jnsgd1na2vs0mg"},{"bike_id":"8f1e215d-7f38-4b5d-954b-5cf04b55b078","system_id":"levelo_inurba_marseille","lat":43.27074,"lon":5.38303,"is_reserved":false,"is_disabled":false,"rental_uris":{"android":"levelo://app?vid=8f1e215d-7f38-4b5d-954b-5cf04b55b078","ios":"levelo://app?vid=8f1e215d-7f38-4b5d-954b-5cf04b55b078"},"vehicle_type_id":"4","last_reported":1765926630,"current_range_meters":10000,"station_id":"st_d3n2fo6cfp8s73cte1j0","pricing_plan_id":"cebpf4jnsgd1na2vs0mg"},{"bike_id":"ebd8bf1b-f660-4eb5-8ea2-2aef2922fbd8","system_id":"levelo_inurba_marseille","lat":43.24557,"lon":5.39529,"is_reserved":false,"is_disabled":true,"rental_uris":{"android":"levelo://app?vid=ebd8bf1b-f660-4eb5-8ea2-2aef2922fbd8","ios":"levelo://app?vid=ebd8bf1b-f660-4eb5-8ea2-2aef2922fbd8"},"vehicle_type_id":"4","last_reported":1765926630,"current_range_meters":10000,"station_id":"ce4bhlp2rcd13ifvqgjg","pricing_plan_id":"cebpf4jnsgd1na2vs0mg"},{"bike_id":"2ef24484-8e4e-49c0-a3a9-f83b77f53191","system_id":"levelo_inurba_marseille","lat":43.27061,"lon":5.42257,"is_reserved":false,"is_disabled":true,"rental_uris":{"android":"levelo://app?vid=2ef24484-8e4e-49c0-a3a9-f83b77f53191","ios":"levelo://app?vid=2ef24484-8e4e-49c0-a3a9-f83b77f53191"},"vehicle_type_id":"4","last_reported":1765926630,"current_range_meters":10000,"station_id":"ce4bhk92rcd13ifvqgb0","pricing_plan_id":"cebpf4jnsgd1na2vs0mg"},{"bike_id":"42387731-6365-42fa-b845-76984e9ca7ca","system_id":"levelo_inurba_marseille","lat":43.26805,"lon":5.40251,"is_reserved":false,"is_disabled":false,"rental_uris":{"android":"levelo://app?vid=42387731-6365-42fa-b845-76984e9ca7ca","ios":"levelo://app?vid=42387731-6365-42fa-b845-76984e9ca7ca"},"vehicle_type_id":"4","last_reported":1765926630,"current_range_meters":10000,"station_id":"ce501612rcd8frsf0b60","pricing_plan_id":"cebpf4jnsgd1na2vs0mg"},{"bike_id":"63883887-39c0-4b38-b546-2a3cd2d9408c","system_id":"levelo_inurba_marseille","lat":43.33607,"lon":5.41023,"is_reserved":false,"is_disabled":false,"rental_uris":{"android":"levelo://app?vid=63883887-39c0-4b38-b546-2a3cd2d9408c","ios":"levelo://app?vid=63883887-39c0-4b38-b546-2a3cd2d9408c"},"vehicle_type_id":"4","last_reported":1765926630,"current_range_meters":10000,"station_id":"ce4bhqh2rcd13ifvqhmg","pricing_plan_id":"cebpf4jnsgd1na2vs0mg"},{"bike_id":"5baf169f-bf45-4dd8-bfb0-f5b474d99a69","system_id":"levelo_inurba_marseille","lat":43.28773,"lon":5.38427,"is_reserved":false,"is_disabled":false,"rental_uris":{"android":"levelo://app?vid=5baf169f-bf45-4dd8-bfb0-f5b474d99a69","ios":"levelo://app?vid=5baf169f-bf45-4dd8-bfb0-f5b474d99a69"},"vehicle_type_id":"4","last_reported":1765926630,"current_range_meters":10000,"station_id":"","pricing_plan_id":"cebpf4jnsgd1na2vs0mg"},{"bike_id":"b959cc19-b00a-4f78-bf9b-f737abeb0c3b","system_id":"levelo_inurba_marseille","lat":43.29513,"lon":5.38269,"is_reserved":false,"is_disabled":false,"rental_uris":{"android":"levelo://app?vid=b959cc19-b00a-4f78-bf9b-f737abeb0c3b","ios":"levelo://app?vid=b959cc19-b00a-4f78-bf9b-f737abeb0c3b"},"vehicle_type_id":"4","last_reported":1765926630,"current_range_meters":10000,"station_id":"","pricing_plan_id":"cebpf4jnsgd1na2vs0mg"},{"bike_id":"46979c81-887d-4029-9400-dc1c21dc3e38","system_id":"levelo_inurba_marseille","lat":43.26537,"lon":5.37318,"is_reserved":false,"is_disabled":false,"rental_uris":{"android":"levelo://app?vid=46979c81-887d-4029-9400-dc1c21dc3e38","ios":"levelo://app?vid=46979c81-887d-4029-9400-dc1c21dc3e38"},"vehicle_type_id":"4","last_reported":1765926630,"current_range_meters":10800,"station_id":"ce4bhg12rcd13ifvqf70","pricing_plan_id":"cebpf4jnsgd1na2vs0mg"},{"bike_id":"4c1c7053-1690-46ae-b248-e8260967b03f","system_id":"levelo_inurba_marseille","lat":43.316791,"lon":5.375612,"is_reserved":false,"is_disabled":false,"rental_uris":{"android":"levelo://app?vid=4c1c7053-1690-46ae-b248-e8260967b03f","ios":"levelo://app?vid=4c1c7053-1690-46ae-b248-e8260967b03f"},"vehicle_type_id":"4","last_reported":1765926630,"current_range_meters":10800,"station_id":"","pricing_plan_id":"cebpf4jnsgd1na2vs0mg"},{"bike_id":"65ef1610-5e5b-4ae4-92ec-9a2a1dd20a47","system_id":"levelo_inurba_marseille","lat":43.25332,"lon":5.42175,"is_reserved":false,"is_disabled":false,"rental_uris":{"android":"levelo://app?vid=65ef1610-5e5b-4ae4-92ec-9a2a1dd20a47","ios":"levelo://app?vid=65ef1610-5e5b-4ae4-92ec-9a2a1dd20a47"},"vehicle_type_id":"4","last_reported":1765926630,"current_range_meters":10800,"station_id":"st_d2m65c5bi1j21697t3ng","pricing_plan_id":"cebpf4jnsgd1na2vs0mg"},{"bike_id":"d6f90051-adc4-44d1-a726-3c1a90bf2e04","system_id":"levelo_inurba_marseille","lat":43.28227,"lon":5.34908,"is_reserved":false,"is_disabled":false,"rental_uris":{"android":"levelo://app?vid=d6f90051-adc4-44d1-a726-3c1a90bf2e04","ios":"levelo://app?vid=d6f90051-adc4-44d1-a726-3c1a90bf2e04"},"vehicle_type_id":"4","last_reported":1765926630,"current_range_meters":10800,"station_id":"","pricing_plan_id":"cebpf4jnsgd1na2vs0mg"},{"bike_id":"9ebcaad2-2e19-4608-9c02-cecea313b5ae","system_id":"levelo_inurba_marseille","lat":43.24634,"lon":5.43144,"is_reserved":false,"is_disabled":false,"rental_uris":{"android":"levelo://app?vid=9ebcaad2-2e19-4608-9c02-cecea313b5ae","ios":"levelo://app?vid=9ebcaad2-2e19-4608-9c02-cecea313b5ae"},"vehicle_type_id":"4","last_reported":1765926630,"current_range_meters":10800,"station_id":"st_d2m6c4gdas8pm72e190g","pricing_plan_id":"cebpf4jnsgd1na2vs0mg"},{"bike_id":"d3c83fe0-d981-40bd-809a-723ce3ba3f18","system_id":"levelo_inurba_marseille","lat":43.31591,"lon":5.36671,"is_reserved":false,"is_disabled":false,"rental_uris":{"android":"levelo://app?vid=d3c83fe0-d981-40bd-809a-723ce3ba3f18","ios":"levelo://app?vid=d3c83fe0-d981-40bd-809a-723ce3ba3f18"},"vehicle_type_id":"4","last_reported":1765926630,"current_range_meters":10800,"station_id":"","pricing_plan_id":"cebpf4jnsgd1na2vs0mg"},{"bike_id":"d3a2e4e7-6aac-4366-981a-52d89642477a","system_id":"levelo_inurba_marseille","lat":43.30301,"lon":5.3778,"is_reserved":false,"is_disabled":true,"rental_uris":{"android":"levelo://app?vid=d3a2e4e7-6aac-4366-981a-52d89642477a","ios":"levelo://app?vid=d3a2e4e7-6aac-4366-981a-52d89642477a"},"vehicle_type_id":"4","last_reported":1765926630,"current_range_meters":10800,"station_id":"","pricing_plan_id":"cebpf4jnsgd1na2vs0mg"},{"bike_id":"094e6f42-8188-456e-b536-25ce771d7e44","system_id":"levelo_inurba_marseille","lat":43.241664,"lon":5.363884,"is_reserved":false,"is_disabled":false,"rental_uris":{"android":"levelo://app?vid=094e6f42-8188-456e-b536-25ce771d7e44","ios":"levelo://app?vid=094e6f42-8188-456e-b536-25ce771d7e44"},"vehicle_type_id":"4","last_reported":1765926630,"current_range_meters":10800,"station_id":"cpo36qri1sfpv3e86is0","pricing_plan_id":"cebpf4jnsgd1na2vs0mg"},{"bike_id":"0bcdf10f-4331-4e78-a53f-f7b76c8949fc","system_id":"levelo_inurba_marseille","lat":43.30538,"lon":5.38434,"is_reserved":false,"is_disabled":false,"rental_uris":{"android":"levelo://app?vid=0bcdf10f-4331-4e78-a53f-f7b76c8949fc","ios":"levelo://app?vid=0bcdf10f-4331-4e78-a53f-f7b76c8949fc"},"vehicle_type_id":"4","last_reported":1765926630,"current_range_meters":10800,"station_id":"ce4bgg92rcd13ifvqb30","pricing_plan_id":"cebpf4jnsgd1na2vs0mg"},{"bike_id":"b9c17c67-b161-4bc0-a0bb-9f1de3309a6b","system_id":"levelo_inurba_marseille","lat":43.31086,"lon":5.42431,"is_reserved":false,"is_disabled":false,"rental_uris":{"android":"levelo://app?vid=b9c17c67-b161-4bc0-a0bb-9f1de3309a6b","ios":"levelo://app?vid=b9c17c67-b161-4bc0-a0bb-9f1de3309a6b"},"vehicle_type_id":"4","last_reported":1765926630,"current_range_meters":10800,"station_id":"ce4bhp92rcd13ifvqhag","pricing_plan_id":"cebpf4jnsgd1na2vs0mg"},{"bike_id":"e5980e7c-71ff-48a0-bfe5-63b936e86622","system_id":"levelo_inurba_marseille","lat":43.27911,"lon":5.39585,"is_reserved":false,"is_disabled":false,"rental_uris":{"android":"levelo://app?vid=e5980e7c-71ff-48a0-bfe5-63b936e86622","ios":"levelo://app?vid=e5980e7c-71ff-48a0-bfe5-63b936e86622"},"vehicle_type_id":"4","last_reported":1765926630,"current_range_meters":10800,"station_id":"ce4bhf92rcd13ifvqf40","pricing_plan_id":"cebpf4jnsgd1na2vs0mg"},{"bike_id":"2baf383b-6381-419d-bee0-bdbabee5e0e0","system_id":"levelo_inurba_marseille","lat":43.2293,"lon":5.35372,"is_reserved":false,"is_disabled":false,"rental_uris":{"android":"levelo://app?vid=2baf383b-6381-419d-bee0-bdbabee5e0e0","ios":"levelo://app?vid=2baf383b-6381-419d-bee0-bdbabee5e0e0"},"vehicle_type_id":"4","last_reported":1765926630,"current_range_meters":10800,"station_id":"cpo3532slgdg3j2ikp40","pricing_plan_id":"cebpf4jnsgd1na2vs0mg"},{"bike_id":"17b1f6e4-cd25-476d-9da4-07bb020a18a5","system_id":"levelo_inurba_marseille","lat":43.30886,"lon":5.39645,"is_reserved":false,"is_disabled":false,"rental_uris":{"android":"levelo://app?vid=17b1f6e4-cd25-476d-9da4-07bb020a18a5","ios":"levelo://app?vid=17b1f6e4-cd25-476d-9da4-07bb020a18a5"},"vehicle_type_id":"4","last_reported":1765926630,"current_range_meters":10800,"station_id":"ce4bh012rcd13ifvqcv0","pricing_plan_id":"cebpf4jnsgd1na2vs0mg"},{"bike_id":"794dd06f-96f4-4bc0-b0e7-3f3c0f480b28","system_id":"levelo_inurba_marseille","lat":43.30525,"lon":5.3844,"is_reserved":false,"is_disabled":false,"rental_uris":{"android":"levelo://app?vid=794dd06f-96f4-4bc0-b0e7-3f3c0f480b28","ios":"levelo://app?vid=794dd06f-96f4-4bc0-b0e7-3f3c0f480b28"},"vehicle_type_id":"4","last_reported":1765926630,"current_range_meters":10800,"station_id":"ce4bgg92rcd13ifvqb30","pricing_plan_id":"cebpf4jnsgd1na2vs0mg"},{"bike_id":"6b1dc20f-8087-4a95-a1bf-eb154eb5f097","system_id":"levelo_inurba_marseille","lat":43.34141,"lon":5.408845,"is_reserved":false,"is_disabled":false,"rental_uris":{"android":"levelo://app?vid=6b1dc20f-8087-4a95-a1bf-eb154eb5f097","ios":"levelo://app?vid=6b1dc20f-8087-4a95-a1bf-eb154eb5f097"},"vehicle_type_id":"4","last_reported":1765926630,"current_range_meters":10800,"station_id":"ce4bhqh2rcd13ifvqhlg","pricing_plan_id":"cebpf4jnsgd1na2vs0mg"},{"bike_id":"71508078-6838-4792-8f86-6d1edd517671","system_id":"levelo_inurba_marseille","lat":43.28528,"lon":5.44126,"is_reserved":false,"is_disabled":false,"rental_uris":{"android":"levelo://app?vid=71508078-6838-4792-8f86-6d1edd517671","ios":"levelo://app?vid=71508078-6838-4792-8f86-6d1edd517671"},"vehicle_type_id":"4","last_reported":1765926630,"current_range_meters":11200,"station_id":"st_d3j3df2ikq2c7380ej80","pricing_plan_id":"cebpf4jnsgd1na2vs0mg"},{"bike_id":"5e6d2f4f-45a2-42c7-b61c-14e34160b4c2","system_id":"levelo_inurba_marseille","lat":43.25932,"lon":5.40898,"is_reserved":false,"is_disabled":false,"rental_uris":{"android":"levelo://app?vid=5e6d2f4f-45a2-42c7-b61c-14e34160b4c2","ios":"levelo://app?vid=5e6d2f4f-45a2-42c7-b61c-14e34160b4c2"},"vehicle_type_id":"4","last_reported":1765926630,"current_range_meters":11200,"station_id":"ce4bhm92rcd13ifvqglg","pricing_plan_id":"cebpf4jnsgd1na2vs0mg"},{"bike_id":"516b3289-2209-47cd-8852-dcc2c8e7a52a","system_id":"levelo_inurba_marseille","lat":43.286663,"lon":5.36347,"is_reserved":false,"is_disabled":false,"rental_uris":{"android":"levelo://app?vid=516b3289-2209-47cd-8852-dcc2c8e7a52a","ios":"levelo://app?vid=516b3289-2209-47cd-8852-dcc2c8e7a52a"},"vehicle_type_id":"4","last_reported":1765926630,"current_range_meters":11200,"station_id":"ce4bhah2rcd13ifvqej0","pricing_plan_id":"cebpf4jnsgd1na2vs0mg"},{"bike_id":"6785a733-f42a-4cd9-b344-72abcab25882","system_id":"levelo_inurba_marseille","lat":43.28421,"lon":5.3753,"is_reserved":false,"is_disabled":false,"rental_uris":{"android":"levelo://app?vid=6785a733-f42a-4cd9-b344-72abcab25882","ios":"levelo://app?vid=6785a733-f42a-4cd9-b344-72abcab25882"},"vehicle_type_id":"4","last_reported":1765926630,"current_range_meters":11200,"station_id":"ce4bh412rcd13ifvqds0","pricing_plan_id":"cebpf4jnsgd1na2vs0mg"},{"bike_id":"784c724b-1e00-451a-9341-48d453f22431","system_id":"levelo_inurba_marseille","lat":43.30356,"lon":5.41888,"is_reserved":false,"is_disabled":false,"rental_uris":{"android":"levelo://app?vid=784c724b-1e00-451a-9341-48d453f22431","ios":"levelo://app?vid=784c724b-1e00-451a-9341-48d453f22431"},"vehicle_type_id":"4","last_reported":1765926630,"current_range_meters":11200,"station_id":"ce4bhop2rcd13ifvqh7g","pricing_plan_id":"cebpf4jnsgd1na2vs0mg"},{"bike_id":"e41d969c-d64a-438b-b008-851f2317551a","system_id":"levelo_inurba_marseille","lat":43.2695,"lon":5.38641,"is_reserved":false,"is_disabled":false,"rental_uris":{"android":"levelo://app?vid=e41d969c-d64a-438b-b008-851f2317551a","ios":"levelo://app?vid=e41d969c-d64a-438b-b008-851f2317551a"},"vehicle_type_id":"4","last_reported":1765926630,"current_range_meters":11200,"station_id":"ce4bhh92rcd13ifvqfh0","pricing_plan_id":"cebpf4jnsgd1na2vs0mg"},{"bike_id":"33ef33cd-94f9-4af3-ad50-bbfaced9b12d","system_id":"levelo_inurba_marseille","lat":43.28342,"lon":5.38097,"is_reserved":false,"is_disabled":false,"rental_uris":{"android":"levelo://app?vid=33ef33cd-94f9-4af3-ad50-bbfaced9b12d","ios":"levelo://app?vid=33ef33cd-94f9-4af3-ad50-bbfaced9b12d"},"vehicle_type_id":"4","last_reported":1765926630,"current_range_meters":11600,"station_id":"ce4bh412rcd13ifvqdr0","pricing_plan_id":"cebpf4jnsgd1na2vs0mg"},{"bike_id":"bcccdbb6-69f5-4866-9e66-4cf8d73fd952","system_id":"levelo_inurba_marseille","lat":43.24944,"lon":5.40479,"is_reserved":false,"is_disabled":false,"rental_uris":{"android":"levelo://app?vid=bcccdbb6-69f5-4866-9e66-4cf8d73fd952","ios":"levelo://app?vid=bcccdbb6-69f5-4866-9e66-4cf8d73fd952"},"vehicle_type_id":"4","last_reported":1765926630,"current_range_meters":11600,"station_id":"st_d2ngiaodas8pm72gd1h0","pricing_plan_id":"cebpf4jnsgd1na2vs0mg"},{"bike_id":"651b29d3-4f51-4bd5-bf59-d7b9bcb7f108","system_id":"levelo_inurba_marseille","lat":43.25353,"lon":5.42164,"is_reserved":false,"is_disabled":true,"rental_uris":{"android":"levelo://app?vid=651b29d3-4f51-4bd5-bf59-d7b9bcb7f108","ios":"levelo://app?vid=651b29d3-4f51-4bd5-bf59-d7b9bcb7f108"},"vehicle_type_id":"4","last_reported":1765926630,"current_range_meters":11600,"station_id":"st_d2m65c5bi1j21697t3ng","pricing_plan_id":"cebpf4jnsgd1na2vs0mg"},{"bike_id":"680fce15-6b7d-4238-a599-499dcf5fd4e8","system_id":"levelo_inurba_marseille","lat":43.27563,"lon":5.38411,"is_reserved":false,"is_disabled":false,"rental_uris":{"android":"levelo://app?vid=680fce15-6b7d-4238-a599-499dcf5fd4e8","ios":"levelo://app?vid=680fce15-6b7d-4238-a599-499dcf5fd4e8"},"vehicle_type_id":"4","last_reported":1765926630,"current_range_meters":11600,"station_id":"ce4bhh92rcd13ifvqfi0","pricing_plan_id":"cebpf4jnsgd1na2vs0mg"},{"bike_id":"2e621454-785d-4cf6-8af1-69c603b2aa60","system_id":"levelo_inurba_marseille","lat":43.311737,"lon":5.401414,"is_reserved":false,"is_disabled":false,"rental_uris":{"android":"levelo://app?vid=2e621454-785d-4cf6-8af1-69c603b2aa60","ios":"levelo://app?vid=2e621454-785d-4cf6-8af1-69c603b2aa60"},"vehicle_type_id":"4","last_reported":1765926630,"current_range_meters":12000,"station_id":"ce4bh092rcd13ifvqd30","pricing_plan_id":"cebpf4jnsgd1na2vs0mg"},{"bike_id":"e2cbb5e6-3f9d-4a3d-a899-57d885f29ddd","system_id":"levelo_inurba_marseille","lat":43.337444,"lon":5.374475,"is_reserved":false,"is_disabled":false,"rental_uris":{"android":"levelo://app?vid=e2cbb5e6-3f9d-4a3d-a899-57d885f29ddd","ios":"levelo://app?vid=e2cbb5e6-3f9d-4a3d-a899-57d885f29ddd"},"vehicle_type_id":"4","last_reported":1765926630,"current_range_meters":12000,"station_id":"","pricing_plan_id":"cebpf4jnsgd1na2vs0mg"},{"bike_id":"9483486a-df89-4cb9-9a5f-8106cc6e6096","system_id":"levelo_inurba_marseille","lat":43.3015,"lon":5.380674,"is_reserved":false,"is_disabled":false,"rental_uris":{"android":"levelo://app?vid=9483486a-df89-4cb9-9a5f-8106cc6e6096","ios":"levelo://app?vid=9483486a-df89-4cb9-9a5f-8106cc6e6096"},"vehicle_type_id":"4","last_reported":1765926630,"current_range_meters":12000,"station_id":"","pricing_plan_id":"cebpf4jnsgd1na2vs0mg"},{"bike_id":"f96d197e-d68e-4b9e-b261-84222baa54d9","system_id":"levelo_inurba_marseille","lat":43.23785,"lon":5.36636,"is_reserved":false,"is_disabled":false,"rental_uris":{"android":"levelo://app?vid=f96d197e-d68e-4b9e-b261-84222baa54d9","ios":"levelo://app?vid=f96d197e-d68e-4b9e-b261-84222baa54d9"},"vehicle_type_id":"4","last_reported":1765926630,"current_range_meters":12000,"station_id":"st_d3nk18o9ro0c73en2l3g","pricing_plan_id":"cebpf4jnsgd1na2vs0mg"},{"bike_id":"3b6f2af1-9f66-4108-a7eb-b76b3755b1cb","system_id":"levelo_inurba_marseille","lat":43.29257,"lon":5.40904,"is_reserved":false,"is_disabled":false,"rental_uris":{"android":"levelo://app?vid=3b6f2af1-9f66-4108-a7eb-b76b3755b1cb","ios":"levelo://app?vid=3b6f2af1-9f66-4108-a7eb-b76b3755b1cb"},"vehicle_type_id":"4","last_reported":1765926630,"current_range_meters":12000,"station_id":"ce4bh192rcd13ifvqdc0","pricing_plan_id":"cebpf4jnsgd1na2vs0mg"},{"bike_id":"cf03ac1a-09e8-4c44-b64b-412f03f98f41","system_id":"levelo_inurba_marseille","lat":43.3117,"lon":5.38724,"is_reserved":false,"is_disabled":false,"rental_uris":{"android":"levelo://app?vid=cf03ac1a-09e8-4c44-b64b-412f03f98f41","ios":"levelo://app?vid=cf03ac1a-09e8-4c44-b64b-412f03f98f41"},"vehicle_type_id":"4","last_reported":1765926630,"current_range_meters":12000,"station_id":"ce4bgv12rcd13ifvqcp0","pricing_plan_id":"cebpf4jnsgd1na2vs0mg"},{"bike_id":"76c4fd32-9a7d-4f84-9c75-22df2e2d5430","system_id":"levelo_inurba_marseille","lat":43.30888,"lon":5.39594,"is_reserved":false,"is_disabled":false,"rental_uris":{"android":"levelo://app?vid=76c4fd32-9a7d-4f84-9c75-22df2e2d5430","ios":"levelo://app?vid=76c4fd32-9a7d-4f84-9c75-22df2e2d5430"},"vehicle_type_id":"4","last_reported":1765926630,"current_range_meters":12000,"station_id":"","pricing_plan_id":"cebpf4jnsgd1na2vs0mg"},{"bike_id":"8c2c2ce3-73da-4ebf-ba92-d3797395fcb1","system_id":"levelo_inurba_marseille","lat":43.24639,"lon":5.43145,"is_reserved":false,"is_disabled":true,"rental_uris":{"android":"levelo://app?vid=8c2c2ce3-73da-4ebf-ba92-d3797395fcb1","ios":"levelo://app?vid=8c2c2ce3-73da-4ebf-ba92-d3797395fcb1"},"vehicle_type_id":"4","last_reported":1765926630,"current_range_meters":12400,"station_id":"st_d2m6c4gdas8pm72e190g","pricing_plan_id":"cebpf4jnsgd1na2vs0mg"},{"bike_id":"ddb7d15d-3f99-4d7a-aae0-1a9d45669c33","system_id":"levelo_inurba_marseille","lat":43.23157,"lon":5.43705,"is_reserved":false,"is_disabled":true,"rental_uris":{"android":"levelo://app?vid=ddb7d15d-3f99-4d7a-aae0-1a9d45669c33","ios":"levelo://app?vid=ddb7d15d-3f99-4d7a-aae0-1a9d45669c33"},"vehicle_type_id":"4","last_reported":1765926630,"current_range_meters":12400,"station_id":"ce4bhmp2rcd13ifvqgog","pricing_plan_id":"cebpf4jnsgd1na2vs0mg"},{"bike_id":"2f55b60b-9e1e-48dc-bbbb-c371d55361ae","system_id":"levelo_inurba_marseille","lat":43.246525,"lon":5.388927,"is_reserved":false,"is_disabled":false,"rental_uris":{"android":"levelo://app?vid=2f55b60b-9e1e-48dc-bbbb-c371d55361ae","ios":"levelo://app?vid=2f55b60b-9e1e-48dc-bbbb-c371d55361ae"},"vehicle_type_id":"4","last_reported":1765926630,"current_range_meters":12400,"station_id":"ce4bhg12rcd13ifvqf60","pricing_plan_id":"cebpf4jnsgd1na2vs0mg"},{"bike_id":"19b66638-3211-46a9-8beb-4f12406d7672","system_id":"levelo_inurba_marseille","lat":43.27283,"lon":5.41078,"is_reserved":false,"is_disabled":false,"rental_uris":{"android":"levelo://app?vid=19b66638-3211-46a9-8beb-4f12406d7672","ios":"levelo://app?vid=19b66638-3211-46a9-8beb-4f12406d7672"},"vehicle_type_id":"4","last_reported":1765926630,"current_range_meters":12400,"station_id":"","pricing_plan_id":"cebpf4jnsgd1na2vs0mg"},{"bike_id":"37c64312-bacf-418e-938c-ab682523f7de","system_id":"levelo_inurba_marseille","lat":43.28547,"lon":5.44093,"is_reserved":false,"is_disabled":false,"rental_uris":{"android":"levelo://app?vid=37c64312-bacf-418e-938c-ab682523f7de","ios":"levelo://app?vid=37c64312-bacf-418e-938c-ab682523f7de"},"vehicle_type_id":"4","last_reported":1765926630,"current_range_meters":12400,"station_id":"st_d3j3df2ikq2c7380ej80","pricing_plan_id":"cebpf4jnsgd1na2vs0mg"},{"bike_id":"8ed9eb8f-12b4-4fdf-8b49-3aa9f27d4c21","system_id":"levelo_inurba_marseille","lat":43.3031,"lon":5.39186,"is_reserved":false,"is_disabled":false,"rental_uris":{"android":"levelo://app?vid=8ed9eb8f-12b4-4fdf-8b49-3aa9f27d4c21","ios":"levelo://app?vid=8ed9eb8f-12b4-4fdf-8b49-3aa9f27d4c21"},"vehicle_type_id":"4","last_reported":1765926630,"current_range_meters":12800,"station_id":"ce4bgkh2rcd13ifvqbk0","pricing_plan_id":"cebpf4jnsgd1na2vs0mg"},{"bike_id":"33583a3e-eb6f-4736-a38d-d228e9cd63c0","system_id":"levelo_inurba_marseille","lat":43.29814,"lon":5.44069,"is_reserved":false,"is_disabled":false,"rental_uris":{"android":"levelo://app?vid=33583a3e-eb6f-4736-a38d-d228e9cd63c0","ios":"levelo://app?vid=33583a3e-eb6f-4736-a38d-d228e9cd63c0"},"vehicle_type_id":"4","last_reported":1765926630,"current_range_meters":12800,"station_id":"","pricing_plan_id":"cebpf4jnsgd1na2vs0mg"},{"bike_id":"8c7465bb-38d0-4c5c-a95d-c15db3e1fefe","system_id":"levelo_inurba_marseille","lat":43.319943,"lon":5.381532,"is_reserved":false,"is_disabled":false,"rental_uris":{"android":"levelo://app?vid=8c7465bb-38d0-4c5c-a95d-c15db3e1fefe","ios":"levelo://app?vid=8c7465bb-38d0-4c5c-a95d-c15db3e1fefe"},"vehicle_type_id":"4","last_reported":1765926630,"current_range_meters":12800,"station_id":"ce4bhr12rcd13ifvqhpg","pricing_plan_id":"cebpf4jnsgd1na2vs0mg"},{"bike_id":"bf5099b0-d96d-4f3f-af37-2a470a031a41","system_id":"levelo_inurba_marseille","lat":43.30893,"lon":5.39644,"is_reserved":false,"is_disabled":false,"rental_uris":{"android":"levelo://app?vid=bf5099b0-d96d-4f3f-af37-2a470a031a41","ios":"levelo://app?vid=bf5099b0-d96d-4f3f-af37-2a470a031a41"},"vehicle_type_id":"4","last_reported":1765926630,"current_range_meters":12800,"station_id":"ce4bh012rcd13ifvqcv0","pricing_plan_id":"cebpf4jnsgd1na2vs0mg"},{"bike_id":"3fd328e0-bf1a-49cd-a05f-3f7fb1cb81a0","system_id":"levelo_inurba_marseille","lat":43.29242,"lon":5.40923,"is_reserved":false,"is_disabled":false,"rental_uris":{"android":"levelo://app?vid=3fd328e0-bf1a-49cd-a05f-3f7fb1cb81a0","ios":"levelo://app?vid=3fd328e0-bf1a-49cd-a05f-3f7fb1cb81a0"},"vehicle_type_id":"4","last_reported":1765926630,"current_range_meters":12800,"station_id":"ce4bh192rcd13ifvqdc0","pricing_plan_id":"cebpf4jnsgd1na2vs0mg"},{"bike_id":"43e98a42-00ee-44db-bbb8-0326349684be","system_id":"levelo_inurba_marseille","lat":43.31709,"lon":5.43696,"is_reserved":false,"is_disabled":false,"rental_uris":{"android":"levelo://app?vid=43e98a42-00ee-44db-bbb8-0326349684be","ios":"levelo://app?vid=43e98a42-00ee-44db-bbb8-0326349684be"},"vehicle_type_id":"4","last_reported":1765926630,"current_range_meters":12800,"station_id":"ce4bhp92rcd13ifvqhcg","pricing_plan_id":"cebpf4jnsgd1na2vs0mg"},{"bike_id":"1761dee6-2fc9-43ea-a081-e6bc83df43e8","system_id":"levelo_inurba_marseille","lat":43.31741,"lon":5.37638,"is_reserved":false,"is_disabled":false,"rental_uris":{"android":"levelo://app?vid=1761dee6-2fc9-43ea-a081-e6bc83df43e8","ios":"levelo://app?vid=1761dee6-2fc9-43ea-a081-e6bc83df43e8"},"vehicle_type_id":"4","last_reported":1765926630,"current_range_meters":13600,"station_id":"","pricing_plan_id":"cebpf4jnsgd1na2vs0mg"},{"bike_id":"77836165-b3d3-41b4-9c19-b050638ed6b2","system_id":"levelo_inurba_marseille","lat":43.2895,"lon":5.3664,"is_reserved":false,"is_disabled":false,"rental_uris":{"android":"levelo://app?vid=77836165-b3d3-41b4-9c19-b050638ed6b2","ios":"levelo://app?vid=77836165-b3d3-41b4-9c19-b050638ed6b2"},"vehicle_type_id":"4","last_reported":1765926630,"current_range_meters":13600,"station_id":"ce4bhap2rcd13ifvqek0","pricing_plan_id":"cebpf4jnsgd1na2vs0mg"},{"bike_id":"b972c994-16b3-47fe-974f-b887645957a5","system_id":"levelo_inurba_marseille","lat":43.265576,"lon":5.372854,"is_reserved":false,"is_disabled":false,"rental_uris":{"android":"levelo://app?vid=b972c994-16b3-47fe-974f-b887645957a5","ios":"levelo://app?vid=b972c994-16b3-47fe-974f-b887645957a5"},"vehicle_type_id":"4","last_reported":1765926630,"current_range_meters":13600,"station_id":"ce4bhih2rcd13ifvqfr0","pricing_plan_id":"cebpf4jnsgd1na2vs0mg"},{"bike_id":"dcf7f466-451f-4dc2-aa6a-64376446a890","system_id":"levelo_inurba_marseille","lat":43.26946,"lon":5.38656,"is_reserved":false,"is_disabled":false,"rental_uris":{"android":"levelo://app?vid=dcf7f466-451f-4dc2-aa6a-64376446a890","ios":"levelo://app?vid=dcf7f466-451f-4dc2-aa6a-64376446a890"},"vehicle_type_id":"4","last_reported":1765926630,"current_range_meters":13600,"station_id":"ce4bhh92rcd13ifvqfh0","pricing_plan_id":"cebpf4jnsgd1na2vs0mg"},{"bike_id":"4824a2bb-7351-4049-8fb9-1f8b55445bbe","system_id":"levelo_inurba_marseille","lat":43.24172,"lon":5.36398,"is_reserved":false,"is_disabled":false,"rental_uris":{"android":"levelo://app?vid=4824a2bb-7351-4049-8fb9-1f8b55445bbe","ios":"levelo://app?vid=4824a2bb-7351-4049-8fb9-1f8b55445bbe"},"vehicle_type_id":"4","last_reported":1765926630,"current_range_meters":13600,"station_id":"cpo36qri1sfpv3e86is0","pricing_plan_id":"cebpf4jnsgd1na2vs0mg"},{"bike_id":"8fb69c52-e174-4c35-b229-8436cc385bed","system_id":"levelo_inurba_marseille","lat":43.287054,"lon":5.373851,"is_reserved":false,"is_disabled":true,"rental_uris":{"android":"levelo://app?vid=8fb69c52-e174-4c35-b229-8436cc385bed","ios":"levelo://app?vid=8fb69c52-e174-4c35-b229-8436cc385bed"},"vehicle_type_id":"4","last_reported":1765926630,"current_range_meters":13600,"station_id":"ce4bh3p2rcd13ifvqdq0","pricing_plan_id":"cebpf4jnsgd1na2vs0mg"},{"bike_id":"3e6e7e6f-2302-4f68-942b-a1bfdece444a","system_id":"levelo_inurba_marseille","lat":43.284647,"lon":5.358839,"is_reserved":false,"is_disabled":false,"rental_uris":{"android":"levelo://app?vid=3e6e7e6f-2302-4f68-942b-a1bfdece444a","ios":"levelo://app?vid=3e6e7e6f-2302-4f68-942b-a1bfdece444a"},"vehicle_type_id":"4","last_reported":1765926630,"current_range_meters":13600,"station_id":"ce4bhah2rcd13ifvqei0","pricing_plan_id":"cebpf4jnsgd1na2vs0mg"},{"bike_id":"358f3cf8-7d63-439e-a35c-d9ba63b561b9","system_id":"levelo_inurba_marseille","lat":43.232397,"lon":5.399893,"is_reserved":false,"is_disabled":false,"rental_uris":{"android":"levelo://app?vid=358f3cf8-7d63-439e-a35c-d9ba63b561b9","ios":"levelo://app?vid=358f3cf8-7d63-439e-a35c-d9ba63b561b9"},"vehicle_type_id":"4","last_reported":1765926630,"current_range_meters":13600,"station_id":"ce4bhn12rcd13ifvqgqg","pricing_plan_id":"cebpf4jnsgd1na2vs0mg"},{"bike_id":"5560bc30-feb5-441e-bb0e-aa8412fb304f","system_id":"levelo_inurba_marseille","lat":43.267681,"lon":5.393201,"is_reserved":false,"is_disabled":false,"rental_uris":{"android":"levelo://app?vid=5560bc30-feb5-441e-bb0e-aa8412fb304f","ios":"levelo://app?vid=5560bc30-feb5-441e-bb0e-aa8412fb304f"},"vehicle_type_id":"4","last_reported":1765926630,"current_range_meters":13600,"station_id":"","pricing_plan_id":"cebpf4jnsgd1na2vs0mg"},{"bike_id":"d969ddc8-1fa1-4359-907e-09087c32195b","system_id":"levelo_inurba_marseille","lat":43.29851,"lon":5.36279,"is_reserved":false,"is_disabled":false,"rental_uris":{"android":"levelo://app?vid=d969ddc8-1fa1-4359-907e-09087c32195b","ios":"levelo://app?vid=d969ddc8-1fa1-4359-907e-09087c32195b"},"vehicle_type_id":"4","last_reported":1765926630,"current_range_meters":13600,"station_id":"ce4bgpp2rcd13ifvqc3g","pricing_plan_id":"cebpf4jnsgd1na2vs0mg"},{"bike_id":"8f444c81-73e2-4250-8cf4-4c25aa9fc238","system_id":"levelo_inurba_marseille","lat":43.27812,"lon":5.407,"is_reserved":false,"is_disabled":false,"rental_uris":{"android":"levelo://app?vid=8f444c81-73e2-4250-8cf4-4c25aa9fc238","ios":"levelo://app?vid=8f444c81-73e2-4250-8cf4-4c25aa9fc238"},"vehicle_type_id":"4","last_reported":1765926630,"current_range_meters":13600,"station_id":"ce4bhnh2rcd13ifvqgtg","pricing_plan_id":"cebpf4jnsgd1na2vs0mg"},{"bike_id":"18c43bbe-2d90-4a5f-ad4c-0f4200ded6cd","system_id":"levelo_inurba_marseille","lat":43.29196,"lon":5.39306,"is_reserved":false,"is_disabled":false,"rental_uris":{"android":"levelo://app?vid=18c43bbe-2d90-4a5f-ad4c-0f4200ded6cd","ios":"levelo://app?vid=18c43bbe-2d90-4a5f-ad4c-0f4200ded6cd"},"vehicle_type_id":"4","last_reported":1765926630,"current_range_meters":14000,"station_id":"ce4bh192rcd13ifvqdd0","pricing_plan_id":"cebpf4jnsgd1na2vs0mg"},{"bike_id":"446cd2e6-600b-4f97-ae78-bdca639f47c7","system_id":"levelo_inurba_marseille","lat":43.30619,"lon":5.37216,"is_reserved":false,"is_disabled":false,"rental_uris":{"android":"levelo://app?vid=446cd2e6-600b-4f97-ae78-bdca639f47c7","ios":"levelo://app?vid=446cd2e6-600b-4f97-ae78-bdca639f47c7"},"vehicle_type_id":"4","last_reported":1765926630,"current_range_meters":14000,"station_id":"ce4bgqh2rcd13ifvqc4g","pricing_plan_id":"cebpf4jnsgd1na2vs0mg"},{"bike_id":"ecb1270f-a66e-4863-8763-3506609d0278","system_id":"levelo_inurba_marseille","lat":43.241686,"lon":5.363871,"is_reserved":false,"is_disabled":false,"rental_uris":{"android":"levelo://app?vid=ecb1270f-a66e-4863-8763-3506609d0278","ios":"levelo://app?vid=ecb1270f-a66e-4863-8763-3506609d0278"},"vehicle_type_id":"4","last_reported":1765926630,"current_range_meters":14000,"station_id":"cpo36qri1sfpv3e86is0","pricing_plan_id":"cebpf4jnsgd1na2vs0mg"},{"bike_id":"5542e50a-0abd-4334-b9c8-d3ed3aed793c","system_id":"levelo_inurba_marseille","lat":43.30463,"lon":5.37107,"is_reserved":false,"is_disabled":false,"rental_uris":{"android":"levelo://app?vid=5542e50a-0abd-4334-b9c8-d3ed3aed793c","ios":"levelo://app?vid=5542e50a-0abd-4334-b9c8-d3ed3aed793c"},"vehicle_type_id":"4","last_reported":1765926630,"current_range_meters":14000,"station_id":"","pricing_plan_id":"cebpf4jnsgd1na2vs0mg"},{"bike_id":"ee6e7961-b245-47cf-a408-4b1bcffde8cb","system_id":"levelo_inurba_marseille","lat":43.30321,"lon":5.40428,"is_reserved":false,"is_disabled":false,"rental_uris":{"android":"levelo://app?vid=ee6e7961-b245-47cf-a408-4b1bcffde8cb","ios":"levelo://app?vid=ee6e7961-b245-47cf-a408-4b1bcffde8cb"},"vehicle_type_id":"4","last_reported":1765926630,"current_range_meters":14000,"station_id":"ce4bh012rcd13ifvqd10","pricing_plan_id":"cebpf4jnsgd1na2vs0mg"},{"bike_id":"a46445b0-0e05-4854-90e8-7e9116d714dc","system_id":"levelo_inurba_marseille","lat":43.337634,"lon":5.37441,"is_reserved":false,"is_disabled":false,"rental_uris":{"android":"levelo://app?vid=a46445b0-0e05-4854-90e8-7e9116d714dc","ios":"levelo://app?vid=a46445b0-0e05-4854-90e8-7e9116d714dc"},"vehicle_type_id":"4","last_reported":1765926630,"current_range_meters":14000,"station_id":"","pricing_plan_id":"cebpf4jnsgd1na2vs0mg"},{"bike_id":"3e95ac5b-5978-4d3b-bc9e-777b9d18515b","system_id":"levelo_inurba_marseille","lat":43.29799,"lon":5.39332,"is_reserved":false,"is_disabled":false,"rental_uris":{"android":"levelo://app?vid=3e95ac5b-5978-4d3b-bc9e-777b9d18515b","ios":"levelo://app?vid=3e95ac5b-5978-4d3b-bc9e-777b9d18515b"},"vehicle_type_id":"4","last_reported":1765926630,"current_range_meters":14000,"station_id":"chh1huq6cuj3fo74tm60","pricing_plan_id":"cebpf4jnsgd1na2vs0mg"},{"bike_id":"2d9be9df-3d9b-45f9-8822-775a0a71b6a1","system_id":"levelo_inurba_marseille","lat":43.28157,"lon":5.42637,"is_reserved":false,"is_disabled":false,"rental_uris":{"android":"levelo://app?vid=2d9be9df-3d9b-45f9-8822-775a0a71b6a1","ios":"levelo://app?vid=2d9be9df-3d9b-45f9-8822-775a0a71b6a1"},"vehicle_type_id":"4","last_reported":1765926630,"current_range_meters":14000,"station_id":"ce4bhnh2rcd13ifvqgug","pricing_plan_id":"cebpf4jnsgd1na2vs0mg"},{"bike_id":"ba878d74-e799-463b-ba34-a01afef01353","system_id":"levelo_inurba_marseille","lat":43.31176,"lon":5.38713,"is_reserved":false,"is_disabled":false,"rental_uris":{"android":"levelo://app?vid=ba878d74-e799-463b-ba34-a01afef01353","ios":"levelo://app?vid=ba878d74-e799-463b-ba34-a01afef01353"},"vehicle_type_id":"4","last_reported":1765926630,"current_range_meters":14000,"station_id":"ce4bgv12rcd13ifvqcp0","pricing_plan_id":"cebpf4jnsgd1na2vs0mg"},{"bike_id":"18953caf-d01c-4b0d-8851-91553f0b549a","system_id":"levelo_inurba_marseille","lat":43.282687,"lon":5.350681,"is_reserved":false,"is_disabled":false,"rental_uris":{"android":"levelo://app?vid=18953caf-d01c-4b0d-8851-91553f0b549a","ios":"levelo://app?vid=18953caf-d01c-4b0d-8851-91553f0b549a"},"vehicle_type_id":"4","last_reported":1765926630,"current_range_meters":14000,"station_id":"ce4bhbp2rcd13ifvqerg","pricing_plan_id":"cebpf4jnsgd1na2vs0mg"},{"bike_id":"1d2455c6-f0bf-453f-9956-10480769b06b","system_id":"levelo_inurba_marseille","lat":43.257998,"lon":5.394423,"is_reserved":false,"is_disabled":false,"rental_uris":{"android":"levelo://app?vid=1d2455c6-f0bf-453f-9956-10480769b06b","ios":"levelo://app?vid=1d2455c6-f0bf-453f-9956-10480769b06b"},"vehicle_type_id":"4","last_reported":1765926630,"current_range_meters":14000,"station_id":"ce4bhip2rcd13ifvqft0","pricing_plan_id":"cebpf4jnsgd1na2vs0mg"},{"bike_id":"abec624c-de7b-4638-80fd-67a911484c32","system_id":"levelo_inurba_marseille","lat":43.28961,"lon":5.36613,"is_reserved":false,"is_disabled":true,"rental_uris":{"android":"levelo://app?vid=abec624c-de7b-4638-80fd-67a911484c32","ios":"levelo://app?vid=abec624c-de7b-4638-80fd-67a911484c32"},"vehicle_type_id":"4","last_reported":1765926630,"current_range_meters":14000,"station_id":"ce4bhap2rcd13ifvqek0","pricing_plan_id":"cebpf4jnsgd1na2vs0mg"},{"bike_id":"8c9125f2-ff55-4322-8386-0785c8a01fb4","system_id":"levelo_inurba_marseille","lat":43.27952,"lon":5.41059,"is_reserved":false,"is_disabled":false,"rental_uris":{"android":"levelo://app?vid=8c9125f2-ff55-4322-8386-0785c8a01fb4","ios":"levelo://app?vid=8c9125f2-ff55-4322-8386-0785c8a01fb4"},"vehicle_type_id":"4","last_reported":1765926630,"current_range_meters":14000,"station_id":"ce4bhnp2rcd13ifvqh0g","pricing_plan_id":"cebpf4jnsgd1na2vs0mg"},{"bike_id":"b155b5a9-9c7c-490c-abcd-e3473ddc01de","system_id":"levelo_inurba_marseille","lat":43.30532,"lon":5.38425,"is_reserved":false,"is_disabled":true,"rental_uris":{"android":"levelo://app?vid=b155b5a9-9c7c-490c-abcd-e3473ddc01de","ios":"levelo://app?vid=b155b5a9-9c7c-490c-abcd-e3473ddc01de"},"vehicle_type_id":"4","last_reported":1765926630,"current_range_meters":14000,"station_id":"ce4bgg92rcd13ifvqb30","pricing_plan_id":"cebpf4jnsgd1na2vs0mg"},{"bike_id":"d624ea1e-42c8-428b-8145-fda7a530b4e9","system_id":"levelo_inurba_marseille","lat":43.28595,"lon":5.39896,"is_reserved":false,"is_disabled":false,"rental_uris":{"android":"levelo://app?vid=d624ea1e-42c8-428b-8145-fda7a530b4e9","ios":"levelo://app?vid=d624ea1e-42c8-428b-8145-fda7a530b4e9"},"vehicle_type_id":"4","last_reported":1765926630,"current_range_meters":14400,"station_id":"st_d4a7ka997mjs738ck50g","pricing_plan_id":"cebpf4jnsgd1na2vs0mg"},{"bike_id":"bef235ce-083c-4ae4-b380-024222f4170f","system_id":"levelo_inurba_marseille","lat":43.3089,"lon":5.36865,"is_reserved":false,"is_disabled":false,"rental_uris":{"android":"levelo://app?vid=bef235ce-083c-4ae4-b380-024222f4170f","ios":"levelo://app?vid=bef235ce-083c-4ae4-b380-024222f4170f"},"vehicle_type_id":"4","last_reported":1765926630,"current_range_meters":14400,"station_id":"ce4bgn92rcd13ifvqbvg","pricing_plan_id":"cebpf4jnsgd1na2vs0mg"},{"bike_id":"9107e02a-87cd-4f3d-a7fa-518ba3c3efd7","system_id":"levelo_inurba_marseille","lat":43.307984,"lon":5.381394,"is_reserved":false,"is_disabled":false,"rental_uris":{"android":"levelo://app?vid=9107e02a-87cd-4f3d-a7fa-518ba3c3efd7","ios":"levelo://app?vid=9107e02a-87cd-4f3d-a7fa-518ba3c3efd7"},"vehicle_type_id":"4","last_reported":1765926630,"current_range_meters":14400,"station_id":"ce4bgt12rcd13ifvqce0","pricing_plan_id":"cebpf4jnsgd1na2vs0mg"},{"bike_id":"fc1d66a7-234d-4c25-b015-3a1e2891fc81","system_id":"levelo_inurba_marseille","lat":43.28709,"lon":5.37412,"is_reserved":false,"is_disabled":false,"rental_uris":{"android":"levelo://app?vid=fc1d66a7-234d-4c25-b015-3a1e2891fc81","ios":"levelo://app?vid=fc1d66a7-234d-4c25-b015-3a1e2891fc81"},"vehicle_type_id":"4","last_reported":1765926630,"current_range_meters":14400,"station_id":"ce4bh3p2rcd13ifvqdq0","pricing_plan_id":"cebpf4jnsgd1na2vs0mg"},{"bike_id":"6a1c7e85-8e77-445a-88b1-93dccc0c75c2","system_id":"levelo_inurba_marseille","lat":43.31762,"lon":5.39028,"is_reserved":false,"is_disabled":false,"rental_uris":{"android":"levelo://app?vid=6a1c7e85-8e77-445a-88b1-93dccc0c75c2","ios":"levelo://app?vid=6a1c7e85-8e77-445a-88b1-93dccc0c75c2"},"vehicle_type_id":"4","last_reported":1765926630,"current_range_meters":14400,"station_id":"ce4bhqp2rcd13ifvqhng","pricing_plan_id":"cebpf4jnsgd1na2vs0mg"},{"bike_id":"966ee9b8-6cc6-4ddb-a687-fdc2139f50ef","system_id":"levelo_inurba_marseille","lat":43.288393,"lon":5.3588,"is_reserved":false,"is_disabled":false,"rental_uris":{"android":"levelo://app?vid=966ee9b8-6cc6-4ddb-a687-fdc2139f50ef","ios":"levelo://app?vid=966ee9b8-6cc6-4ddb-a687-fdc2139f50ef"},"vehicle_type_id":"4","last_reported":1765926630,"current_range_meters":14800,"station_id":"ce4bhb12rcd13ifvqem0","pricing_plan_id":"cebpf4jnsgd1na2vs0mg"},{"bike_id":"47386b70-d1a6-403d-bcde-2b22b9b9b4a4","system_id":"levelo_inurba_marseille","lat":43.29171,"lon":5.39346,"is_reserved":false,"is_disabled":true,"rental_uris":{"android":"levelo://app?vid=47386b70-d1a6-403d-bcde-2b22b9b9b4a4","ios":"levelo://app?vid=47386b70-d1a6-403d-bcde-2b22b9b9b4a4"},"vehicle_type_id":"4","last_reported":1765926630,"current_range_meters":14800,"station_id":"ce4bh192rcd13ifvqdd0","pricing_plan_id":"cebpf4jnsgd1na2vs0mg"},{"bike_id":"6b43d3b9-1459-4d69-b4cc-d5d7836be96a","system_id":"levelo_inurba_marseille","lat":43.27827,"lon":5.4069,"is_reserved":false,"is_disabled":false,"rental_uris":{"android":"levelo://app?vid=6b43d3b9-1459-4d69-b4cc-d5d7836be96a","ios":"levelo://app?vid=6b43d3b9-1459-4d69-b4cc-d5d7836be96a"},"vehicle_type_id":"4","last_reported":1765926630,"current_range_meters":14800,"station_id":"ce4bhnh2rcd13ifvqgtg","pricing_plan_id":"cebpf4jnsgd1na2vs0mg"},{"bike_id":"18111425-c355-4d96-9053-87d6969c08f9","system_id":"levelo_inurba_marseille","lat":43.30651,"lon":5.4008,"is_reserved":false,"is_disabled":false,"rental_uris":{"android":"levelo://app?vid=18111425-c355-4d96-9053-87d6969c08f9","ios":"levelo://app?vid=18111425-c355-4d96-9053-87d6969c08f9"},"vehicle_type_id":"4","last_reported":1765926630,"current_range_meters":14800,"station_id":"ce4bh112rcd13ifvqda0","pricing_plan_id":"cebpf4jnsgd1na2vs0mg"},{"bike_id":"54fe97ba-9cb7-4e8e-9d1f-51f63f7b2da8","system_id":"levelo_inurba_marseille","lat":43.296416,"lon":5.406088,"is_reserved":false,"is_disabled":false,"rental_uris":{"android":"levelo://app?vid=54fe97ba-9cb7-4e8e-9d1f-51f63f7b2da8","ios":"levelo://app?vid=54fe97ba-9cb7-4e8e-9d1f-51f63f7b2da8"},"vehicle_type_id":"4","last_reported":1765926630,"current_range_meters":14800,"station_id":"ce4bh0h2rcd13ifvqd60","pricing_plan_id":"cebpf4jnsgd1na2vs0mg"},{"bike_id":"a6eda475-c230-4d29-8cd6-85fc42674f4d","system_id":"levelo_inurba_marseille","lat":43.30445,"lon":5.38904,"is_reserved":false,"is_disabled":false,"rental_uris":{"android":"levelo://app?vid=a6eda475-c230-4d29-8cd6-85fc42674f4d","ios":"levelo://app?vid=a6eda475-c230-4d29-8cd6-85fc42674f4d"},"vehicle_type_id":"4","last_reported":1765926630,"current_range_meters":14800,"station_id":"ce4bgk12rcd13ifvqbi0","pricing_plan_id":"cebpf4jnsgd1na2vs0mg"},{"bike_id":"c7231bdc-0256-4f5f-b61c-ccce7cc5012b","system_id":"levelo_inurba_marseille","lat":43.24189,"lon":5.39744,"is_reserved":false,"is_disabled":false,"rental_uris":{"android":"levelo://app?vid=c7231bdc-0256-4f5f-b61c-ccce7cc5012b","ios":"levelo://app?vid=c7231bdc-0256-4f5f-b61c-ccce7cc5012b"},"vehicle_type_id":"4","last_reported":1765926630,"current_range_meters":15200,"station_id":"ce4bhn12rcd13ifvqgpg","pricing_plan_id":"cebpf4jnsgd1na2vs0mg"},{"bike_id":"103401f7-dff1-4044-90bd-ee3d2d530810","system_id":"levelo_inurba_marseille","lat":43.24399,"lon":5.37062,"is_reserved":false,"is_disabled":false,"rental_uris":{"android":"levelo://app?vid=103401f7-dff1-4044-90bd-ee3d2d530810","ios":"levelo://app?vid=103401f7-dff1-4044-90bd-ee3d2d530810"},"vehicle_type_id":"4","last_reported":1765926630,"current_range_meters":15200,"station_id":"ce4bhhh2rcd13ifvqfk0","pricing_plan_id":"cebpf4jnsgd1na2vs0mg"},{"bike_id":"aae25742-9eeb-49ec-a8e5-f2b92e66260e","system_id":"levelo_inurba_marseille","lat":43.28477,"lon":5.48393,"is_reserved":false,"is_disabled":false,"rental_uris":{"android":"levelo://app?vid=aae25742-9eeb-49ec-a8e5-f2b92e66260e","ios":"levelo://app?vid=aae25742-9eeb-49ec-a8e5-f2b92e66260e"},"vehicle_type_id":"4","last_reported":1765926630,"current_range_meters":15200,"station_id":"st_d3svhcjqgbts73a3dn0g","pricing_plan_id":"cebpf4jnsgd1na2vs0mg"},{"bike_id":"8e42f5bd-0a55-4d3c-9096-d82a20a55cfc","system_id":"levelo_inurba_marseille","lat":43.286,"lon":5.38356,"is_reserved":false,"is_disabled":false,"rental_uris":{"android":"levelo://app?vid=8e42f5bd-0a55-4d3c-9096-d82a20a55cfc","ios":"levelo://app?vid=8e42f5bd-0a55-4d3c-9096-d82a20a55cfc"},"vehicle_type_id":"4","last_reported":1765926630,"current_range_meters":15200,"station_id":"","pricing_plan_id":"cebpf4jnsgd1na2vs0mg"},{"bike_id":"50a5b016-cf9a-497e-8e9c-2f2d39e2c6a3","system_id":"levelo_inurba_marseille","lat":43.32071,"lon":5.36808,"is_reserved":false,"is_disabled":false,"rental_uris":{"android":"levelo://app?vid=50a5b016-cf9a-497e-8e9c-2f2d39e2c6a3","ios":"levelo://app?vid=50a5b016-cf9a-497e-8e9c-2f2d39e2c6a3"},"vehicle_type_id":"4","last_reported":1765926630,"current_range_meters":15200,"station_id":"ce4bhrh2rcd13ifvqhug","pricing_plan_id":"cebpf4jnsgd1na2vs0mg"},{"bike_id":"4515132a-3268-4b1c-81eb-02cb63ec18dc","system_id":"levelo_inurba_marseille","lat":43.33168,"lon":5.37685,"is_reserved":false,"is_disabled":false,"rental_uris":{"android":"levelo://app?vid=4515132a-3268-4b1c-81eb-02cb63ec18dc","ios":"levelo://app?vid=4515132a-3268-4b1c-81eb-02cb63ec18dc"},"vehicle_type_id":"4","last_reported":1765926630,"current_range_meters":15200,"station_id":"st_d46cu089ee8s73dldbu0","pricing_plan_id":"cebpf4jnsgd1na2vs0mg"},{"bike_id":"50434642-f9bc-48a5-9aa9-e1c1ac067a3f","system_id":"levelo_inurba_marseille","lat":43.2481,"lon":5.37458,"is_reserved":false,"is_disabled":false,"rental_uris":{"android":"levelo://app?vid=50434642-f9bc-48a5-9aa9-e1c1ac067a3f","ios":"levelo://app?vid=50434642-f9bc-48a5-9aa9-e1c1ac067a3f"},"vehicle_type_id":"4","last_reported":1765926630,"current_range_meters":15200,"station_id":"ce4bhgh2rcd13ifvqfb0","pricing_plan_id":"cebpf4jnsgd1na2vs0mg"},{"bike_id":"d726324f-1229-4ee5-babb-773d48683f7d","system_id":"levelo_inurba_marseille","lat":43.25114,"lon":5.40319,"is_reserved":false,"is_disabled":false,"rental_uris":{"android":"levelo://app?vid=d726324f-1229-4ee5-babb-773d48683f7d","ios":"levelo://app?vid=d726324f-1229-4ee5-babb-773d48683f7d"},"vehicle_type_id":"4","last_reported":1765926630,"current_range_meters":16000,"station_id":"ce4bhlh2rcd13ifvqgig","pricing_plan_id":"cebpf4jnsgd1na2vs0mg"},{"bike_id":"1765b530-9151-4df0-968d-51c660c0b20a","system_id":"levelo_inurba_marseille","lat":43.28236,"lon":5.39051,"is_reserved":false,"is_disabled":false,"rental_uris":{"android":"levelo://app?vid=1765b530-9151-4df0-968d-51c660c0b20a","ios":"levelo://app?vid=1765b530-9151-4df0-968d-51c660c0b20a"},"vehicle_type_id":"4","last_reported":1765926630,"current_range_meters":16000,"station_id":"ce4bhn92rcd13ifvqgsg","pricing_plan_id":"cebpf4jnsgd1na2vs0mg"},{"bike_id":"5aef10e9-7731-44de-ac85-aecf23e178c2","system_id":"levelo_inurba_marseille","lat":43.2893,"lon":5.364,"is_reserved":false,"is_disabled":false,"rental_uris":{"android":"levelo://app?vid=5aef10e9-7731-44de-ac85-aecf23e178c2","ios":"levelo://app?vid=5aef10e9-7731-44de-ac85-aecf23e178c2"},"vehicle_type_id":"4","last_reported":1765926630,"current_range_meters":16000,"station_id":"ce4bhc92rcd13ifvqetg","pricing_plan_id":"cebpf4jnsgd1na2vs0mg"},{"bike_id":"d0e47d82-46b1-4391-9c6a-cf32785e1c0d","system_id":"levelo_inurba_marseille","lat":43.2849,"lon":5.38487,"is_reserved":false,"is_disabled":false,"rental_uris":{"android":"levelo://app?vid=d0e47d82-46b1-4391-9c6a-cf32785e1c0d","ios":"levelo://app?vid=d0e47d82-46b1-4391-9c6a-cf32785e1c0d"},"vehicle_type_id":"4","last_reported":1765926630,"current_range_meters":16000,"station_id":"ce4bh8p2rcd13ifvqeb0","pricing_plan_id":"cebpf4jnsgd1na2vs0mg"},{"bike_id":"2beaffa6-8bca-4ec0-8c78-30674bba7f30","system_id":"levelo_inurba_marseille","lat":43.284069,"lon":5.375291,"is_reserved":false,"is_disabled":false,"rental_uris":{"android":"levelo://app?vid=2beaffa6-8bca-4ec0-8c78-30674bba7f30","ios":"levelo://app?vid=2beaffa6-8bca-4ec0-8c78-30674bba7f30"},"vehicle_type_id":"4","last_reported":1765926630,"current_range_meters":16000,"station_id":"ce4bh412rcd13ifvqds0","pricing_plan_id":"cebpf4jnsgd1na2vs0mg"},{"bike_id":"e21f959b-b32b-4121-9b18-45968d8c64ce","system_id":"levelo_inurba_marseille","lat":43.33723,"lon":5.3748,"is_reserved":false,"is_disabled":false,"rental_uris":{"android":"levelo://app?vid=e21f959b-b32b-4121-9b18-45968d8c64ce","ios":"levelo://app?vid=e21f959b-b32b-4121-9b18-45968d8c64ce"},"vehicle_type_id":"4","last_reported":1765926630,"current_range_meters":16000,"station_id":"","pricing_plan_id":"cebpf4jnsgd1na2vs0mg"},{"bike_id":"22703888-0df8-4a04-b448-79498ff0176e","system_id":"levelo_inurba_marseille","lat":43.24388,"lon":5.37056,"is_reserved":false,"is_disabled":false,"rental_uris":{"android":"levelo://app?vid=22703888-0df8-4a04-b448-79498ff0176e","ios":"levelo://app?vid=22703888-0df8-4a04-b448-79498ff0176e"},"vehicle_type_id":"4","last_reported":1765926630,"current_range_meters":16000,"station_id":"ce4bhhh2rcd13ifvqfk0","pricing_plan_id":"cebpf4jnsgd1na2vs0mg"},{"bike_id":"94940544-f449-4a5d-a591-464bb2355837","system_id":"levelo_inurba_marseille","lat":43.28709,"lon":5.39989,"is_reserved":false,"is_disabled":false,"rental_uris":{"android":"levelo://app?vid=94940544-f449-4a5d-a591-464bb2355837","ios":"levelo://app?vid=94940544-f449-4a5d-a591-464bb2355837"},"vehicle_type_id":"4","last_reported":1765926630,"current_range_meters":16000,"station_id":"ce4bho92rcd13ifvqh3g","pricing_plan_id":"cebpf4jnsgd1na2vs0mg"},{"bike_id":"d86a7f1a-f79d-463b-a1c2-d024f86399cc","system_id":"levelo_inurba_marseille","lat":43.289344,"lon":5.366337,"is_reserved":false,"is_disabled":false,"rental_uris":{"android":"levelo://app?vid=d86a7f1a-f79d-463b-a1c2-d024f86399cc","ios":"levelo://app?vid=d86a7f1a-f79d-463b-a1c2-d024f86399cc"},"vehicle_type_id":"4","last_reported":1765926630,"current_range_meters":16000,"station_id":"ce4bhap2rcd13ifvqek0","pricing_plan_id":"cebpf4jnsgd1na2vs0mg"},{"bike_id":"5ad7ae56-1bf2-4a49-acab-2337e8c17ac5","system_id":"levelo_inurba_marseille","lat":43.32487,"lon":5.36566,"is_reserved":false,"is_disabled":false,"rental_uris":{"android":"levelo://app?vid=5ad7ae56-1bf2-4a49-acab-2337e8c17ac5","ios":"levelo://app?vid=5ad7ae56-1bf2-4a49-acab-2337e8c17ac5"},"vehicle_type_id":"4","last_reported":1765926630,"current_range_meters":16000,"station_id":"ce4bhs12rcd13ifvqhvg","pricing_plan_id":"cebpf4jnsgd1na2vs0mg"},{"bike_id":"5cd2c6a4-491e-41ad-96f1-eeae4aa7f184","system_id":"levelo_inurba_marseille","lat":43.292696,"lon":5.384386,"is_reserved":false,"is_disabled":false,"rental_uris":{"android":"levelo://app?vid=5cd2c6a4-491e-41ad-96f1-eeae4aa7f184","ios":"levelo://app?vid=5cd2c6a4-491e-41ad-96f1-eeae4aa7f184"},"vehicle_type_id":"4","last_reported":1765926630,"current_range_meters":16400,"station_id":"ce4bh692rcd13ifvqea0","pricing_plan_id":"cebpf4jnsgd1na2vs0mg"},{"bike_id":"dcb01274-5e8a-43d9-ad91-618c3ca3f56a","system_id":"levelo_inurba_marseille","lat":43.29834,"lon":5.4413,"is_reserved":false,"is_disabled":false,"rental_uris":{"android":"levelo://app?vid=dcb01274-5e8a-43d9-ad91-618c3ca3f56a","ios":"levelo://app?vid=dcb01274-5e8a-43d9-ad91-618c3ca3f56a"},"vehicle_type_id":"4","last_reported":1765926630,"current_range_meters":16400,"station_id":"","pricing_plan_id":"cebpf4jnsgd1na2vs0mg"},{"bike_id":"37715231-2619-4904-ae92-72d042ef2a71","system_id":"levelo_inurba_marseille","lat":43.265551,"lon":5.372831,"is_reserved":false,"is_disabled":false,"rental_uris":{"android":"levelo://app?vid=37715231-2619-4904-ae92-72d042ef2a71","ios":"levelo://app?vid=37715231-2619-4904-ae92-72d042ef2a71"},"vehicle_type_id":"4","last_reported":1765926630,"current_range_meters":16400,"station_id":"ce4bhg12rcd13ifvqf70","pricing_plan_id":"cebpf4jnsgd1na2vs0mg"},{"bike_id":"9a30f84f-1824-4a3b-a3e5-7cf716d48de5","system_id":"levelo_inurba_marseille","lat":43.31913,"lon":5.40079,"is_reserved":false,"is_disabled":false,"rental_uris":{"android":"levelo://app?vid=9a30f84f-1824-4a3b-a3e5-7cf716d48de5","ios":"levelo://app?vid=9a30f84f-1824-4a3b-a3e5-7cf716d48de5"},"vehicle_type_id":"4","last_reported":1765926630,"current_range_meters":16400,"station_id":"","pricing_plan_id":"cebpf4jnsgd1na2vs0mg"},{"bike_id":"663abcc3-7020-47f7-91af-67cf3c971377","system_id":"levelo_inurba_marseille","lat":43.29026,"lon":5.38641,"is_reserved":false,"is_disabled":false,"rental_uris":{"android":"levelo://app?vid=663abcc3-7020-47f7-91af-67cf3c971377","ios":"levelo://app?vid=663abcc3-7020-47f7-91af-67cf3c971377"},"vehicle_type_id":"4","last_reported":1765926630,"current_range_meters":16400,"station_id":"ce4bh4p2rcd13ifvqe0g","pricing_plan_id":"cebpf4jnsgd1na2vs0mg"},{"bike_id":"2f909eee-f9c5-496b-bfae-4e9f2b3e5888","system_id":"levelo_inurba_marseille","lat":43.240748,"lon":5.377573,"is_reserved":false,"is_disabled":false,"rental_uris":{"android":"levelo://app?vid=2f909eee-f9c5-496b-bfae-4e9f2b3e5888","ios":"levelo://app?vid=2f909eee-f9c5-496b-bfae-4e9f2b3e5888"},"vehicle_type_id":"4","last_reported":1765926630,"current_range_meters":16400,"station_id":"ce4bhnp2rcd13ifvqgvg","pricing_plan_id":"cebpf4jnsgd1na2vs0mg"},{"bike_id":"cb19c46a-9c99-46ca-ae90-dced0257df91","system_id":"levelo_inurba_marseille","lat":43.30104,"lon":5.36861,"is_reserved":false,"is_disabled":false,"rental_uris":{"android":"levelo://app?vid=cb19c46a-9c99-46ca-ae90-dced0257df91","ios":"levelo://app?vid=cb19c46a-9c99-46ca-ae90-dced0257df91"},"vehicle_type_id":"4","last_reported":1765926630,"current_range_meters":16400,"station_id":"","pricing_plan_id":"cebpf4jnsgd1na2vs0mg"},{"bike_id":"8a46e599-2fe4-40df-bdb7-4c0d6639579e","system_id":"levelo_inurba_marseille","lat":43.30439,"lon":5.41562,"is_reserved":false,"is_disabled":false,"rental_uris":{"android":"levelo://app?vid=8a46e599-2fe4-40df-bdb7-4c0d6639579e","ios":"levelo://app?vid=8a46e599-2fe4-40df-bdb7-4c0d6639579e"},"vehicle_type_id":"4","last_reported":1765926630,"current_range_meters":16400,"station_id":"","pricing_plan_id":"cebpf4jnsgd1na2vs0mg"},{"bike_id":"d37444e6-4695-4e98-b6f9-bbcb1600d416","system_id":"levelo_inurba_marseille","lat":43.31464,"lon":5.45387,"is_reserved":false,"is_disabled":false,"rental_uris":{"android":"levelo://app?vid=d37444e6-4695-4e98-b6f9-bbcb1600d416","ios":"levelo://app?vid=d37444e6-4695-4e98-b6f9-bbcb1600d416"},"vehicle_type_id":"4","last_reported":1765926630,"current_range_meters":16400,"station_id":"","pricing_plan_id":"cebpf4jnsgd1na2vs0mg"},{"bike_id":"cd57c9d5-f8fa-438e-9265-5fd72d0caa2e","system_id":"levelo_inurba_marseille","lat":43.2991,"lon":5.37483,"is_reserved":false,"is_disabled":false,"rental_uris":{"android":"levelo://app?vid=cd57c9d5-f8fa-438e-9265-5fd72d0caa2e","ios":"levelo://app?vid=cd57c9d5-f8fa-438e-9265-5fd72d0caa2e"},"vehicle_type_id":"4","last_reported":1765926630,"current_range_meters":16800,"station_id":"ce4bgjh2rcd13ifvqbg0","pricing_plan_id":"cebpf4jnsgd1na2vs0mg"},{"bike_id":"01bb0adf-d6e0-41a2-8fd4-d7e66a7517c9","system_id":"levelo_inurba_marseille","lat":43.28846,"lon":5.3585,"is_reserved":false,"is_disabled":false,"rental_uris":{"android":"levelo://app?vid=01bb0adf-d6e0-41a2-8fd4-d7e66a7517c9","ios":"levelo://app?vid=01bb0adf-d6e0-41a2-8fd4-d7e66a7517c9"},"vehicle_type_id":"4","last_reported":1765926630,"current_range_meters":16800,"station_id":"ce4bhb12rcd13ifvqem0","pricing_plan_id":"cebpf4jnsgd1na2vs0mg"},{"bike_id":"7c81ee1f-b092-44b0-b68a-cd163a9268f6","system_id":"levelo_inurba_marseille","lat":43.262082,"lon":5.374402,"is_reserved":false,"is_disabled":false,"rental_uris":{"android":"levelo://app?vid=7c81ee1f-b092-44b0-b68a-cd163a9268f6","ios":"levelo://app?vid=7c81ee1f-b092-44b0-b68a-cd163a9268f6"},"vehicle_type_id":"4","last_reported":1765926630,"current_range_meters":16800,"station_id":"","pricing_plan_id":"cebpf4jnsgd1na2vs0mg"},{"bike_id":"01143ee8-bcad-4467-9f86-9fe6c743160a","system_id":"levelo_inurba_marseille","lat":43.31337,"lon":5.39695,"is_reserved":false,"is_disabled":false,"rental_uris":{"android":"levelo://app?vid=01143ee8-bcad-4467-9f86-9fe6c743160a","ios":"levelo://app?vid=01143ee8-bcad-4467-9f86-9fe6c743160a"},"vehicle_type_id":"4","last_reported":1765926630,"current_range_meters":16800,"station_id":"ce4bgvp2rcd13ifvqcu0","pricing_plan_id":"cebpf4jnsgd1na2vs0mg"},{"bike_id":"d3f7e838-9c86-437e-8b22-33798336e317","system_id":"levelo_inurba_marseille","lat":43.265534,"lon":5.372831,"is_reserved":false,"is_disabled":false,"rental_uris":{"android":"levelo://app?vid=d3f7e838-9c86-437e-8b22-33798336e317","ios":"levelo://app?vid=d3f7e838-9c86-437e-8b22-33798336e317"},"vehicle_type_id":"4","last_reported":1765926630,"current_range_meters":16800,"station_id":"ce4bhg12rcd13ifvqf70","pricing_plan_id":"cebpf4jnsgd1na2vs0mg"},{"bike_id":"f7a7c48a-9529-4a62-870c-83c6bb5fc874","system_id":"levelo_inurba_marseille","lat":43.3121,"lon":5.36586,"is_reserved":false,"is_disabled":false,"rental_uris":{"android":"levelo://app?vid=f7a7c48a-9529-4a62-870c-83c6bb5fc874","ios":"levelo://app?vid=f7a7c48a-9529-4a62-870c-83c6bb5fc874"},"vehicle_type_id":"4","last_reported":1765926630,"current_range_meters":16800,"station_id":"","pricing_plan_id":"cebpf4jnsgd1na2vs0mg"},{"bike_id":"e41f3810-76de-40e8-9fb4-a209ba7fc4c6","system_id":"levelo_inurba_marseille","lat":43.29026,"lon":5.38621,"is_reserved":false,"is_disabled":false,"rental_uris":{"android":"levelo://app?vid=e41f3810-76de-40e8-9fb4-a209ba7fc4c6","ios":"levelo://app?vid=e41f3810-76de-40e8-9fb4-a209ba7fc4c6"},"vehicle_type_id":"4","last_reported":1765926630,"current_range_meters":16800,"station_id":"ce4bh4p2rcd13ifvqe0g","pricing_plan_id":"cebpf4jnsgd1na2vs0mg"},{"bike_id":"8bd26cde-5f62-40f9-ba7f-767c13d6f8ec","system_id":"levelo_inurba_marseille","lat":43.298687,"lon":5.378926,"is_reserved":false,"is_disabled":false,"rental_uris":{"android":"levelo://app?vid=8bd26cde-5f62-40f9-ba7f-767c13d6f8ec","ios":"levelo://app?vid=8bd26cde-5f62-40f9-ba7f-767c13d6f8ec"},"vehicle_type_id":"4","last_reported":1765926630,"current_range_meters":16800,"station_id":"","pricing_plan_id":"cebpf4jnsgd1na2vs0mg"},{"bike_id":"8a93b054-ad4f-48e1-9ec6-40815bc6843f","system_id":"levelo_inurba_marseille","lat":43.29405,"lon":5.37328,"is_reserved":false,"is_disabled":false,"rental_uris":{"android":"levelo://app?vid=8a93b054-ad4f-48e1-9ec6-40815bc6843f","ios":"levelo://app?vid=8a93b054-ad4f-48e1-9ec6-40815bc6843f"},"vehicle_type_id":"4","last_reported":1765926630,"current_range_meters":16800,"station_id":"","pricing_plan_id":"cebpf4jnsgd1na2vs0mg"},{"bike_id":"32547288-45b6-41e5-8efd-38c3a33a26cd","system_id":"levelo_inurba_marseille","lat":43.284378,"lon":5.391908,"is_reserved":false,"is_disabled":false,"rental_uris":{"android":"levelo://app?vid=32547288-45b6-41e5-8efd-38c3a33a26cd","ios":"levelo://app?vid=32547288-45b6-41e5-8efd-38c3a33a26cd"},"vehicle_type_id":"4","last_reported":1765926630,"current_range_meters":16800,"station_id":"ce4bhoh2rcd13ifvqh5g","pricing_plan_id":"cebpf4jnsgd1na2vs0mg"},{"bike_id":"f83af38e-8319-48a4-9e6d-4c71475c4147","system_id":"levelo_inurba_marseille","lat":43.31368,"lon":5.38517,"is_reserved":false,"is_disabled":false,"rental_uris":{"android":"levelo://app?vid=f83af38e-8319-48a4-9e6d-4c71475c4147","ios":"levelo://app?vid=f83af38e-8319-48a4-9e6d-4c71475c4147"},"vehicle_type_id":"4","last_reported":1765926630,"current_range_meters":16800,"station_id":"ce4bgt92rcd13ifvqcf0","pricing_plan_id":"cebpf4jnsgd1na2vs0mg"},{"bike_id":"9507a12a-0700-47f0-a47e-608070752d22","system_id":"levelo_inurba_marseille","lat":43.31996,"lon":5.38125,"is_reserved":false,"is_disabled":false,"rental_uris":{"android":"levelo://app?vid=9507a12a-0700-47f0-a47e-608070752d22","ios":"levelo://app?vid=9507a12a-0700-47f0-a47e-608070752d22"},"vehicle_type_id":"4","last_reported":1765926630,"current_range_meters":16800,"station_id":"ce4bhr12rcd13ifvqhpg","pricing_plan_id":"cebpf4jnsgd1na2vs0mg"},{"bike_id":"c23d8bdf-deca-4d7f-92c5-b23b730afcf9","system_id":"levelo_inurba_marseille","lat":43.24068,"lon":5.37747,"is_reserved":false,"is_disabled":false,"rental_uris":{"android":"levelo://app?vid=c23d8bdf-deca-4d7f-92c5-b23b730afcf9","ios":"levelo://app?vid=c23d8bdf-deca-4d7f-92c5-b23b730afcf9"},"vehicle_type_id":"4","last_reported":1765926630,"current_range_meters":16800,"station_id":"ce4bhnp2rcd13ifvqgvg","pricing_plan_id":"cebpf4jnsgd1na2vs0mg"},{"bike_id":"6dd5b542-725b-469d-afe4-36183c3867e0","system_id":"levelo_inurba_marseille","lat":43.22598,"lon":5.4169,"is_reserved":false,"is_disabled":false,"rental_uris":{"android":"levelo://app?vid=6dd5b542-725b-469d-afe4-36183c3867e0","ios":"levelo://app?vid=6dd5b542-725b-469d-afe4-36183c3867e0"},"vehicle_type_id":"4","last_reported":1765926630,"current_range_meters":16800,"station_id":"st_d2o4gvlbi1j2169b742g","pricing_plan_id":"cebpf4jnsgd1na2vs0mg"},{"bike_id":"c7d74418-6f39-4c89-bf1a-09792a4dec8c","system_id":"levelo_inurba_marseille","lat":43.28449,"lon":5.35899,"is_reserved":false,"is_disabled":true,"rental_uris":{"android":"levelo://app?vid=c7d74418-6f39-4c89-bf1a-09792a4dec8c","ios":"levelo://app?vid=c7d74418-6f39-4c89-bf1a-09792a4dec8c"},"vehicle_type_id":"4","last_reported":1765926630,"current_range_meters":16800,"station_id":"ce4bhah2rcd13ifvqei0","pricing_plan_id":"cebpf4jnsgd1na2vs0mg"},{"bike_id":"543609c0-9838-4e72-b64b-418471aa6b28","system_id":"levelo_inurba_marseille","lat":43.31171,"lon":5.38712,"is_reserved":false,"is_disabled":false,"rental_uris":{"android":"levelo://app?vid=543609c0-9838-4e72-b64b-418471aa6b28","ios":"levelo://app?vid=543609c0-9838-4e72-b64b-418471aa6b28"},"vehicle_type_id":"4","last_reported":1765926630,"current_range_meters":17200,"station_id":"ce4bgv12rcd13ifvqcp0","pricing_plan_id":"cebpf4jnsgd1na2vs0mg"},{"bike_id":"62d7bf44-19d0-45da-b289-9d7b7270b0d2","system_id":"levelo_inurba_marseille","lat":43.29052,"lon":5.37955,"is_reserved":false,"is_disabled":false,"rental_uris":{"android":"levelo://app?vid=62d7bf44-19d0-45da-b289-9d7b7270b0d2","ios":"levelo://app?vid=62d7bf44-19d0-45da-b289-9d7b7270b0d2"},"vehicle_type_id":"4","last_reported":1765926630,"current_range_meters":17200,"station_id":"","pricing_plan_id":"cebpf4jnsgd1na2vs0mg"},{"bike_id":"78b68b75-4de6-4247-8dcd-5e0ddc7f129b","system_id":"levelo_inurba_marseille","lat":43.30153,"lon":5.38067,"is_reserved":false,"is_disabled":false,"rental_uris":{"android":"levelo://app?vid=78b68b75-4de6-4247-8dcd-5e0ddc7f129b","ios":"levelo://app?vid=78b68b75-4de6-4247-8dcd-5e0ddc7f129b"},"vehicle_type_id":"4","last_reported":1765926630,"current_range_meters":17200,"station_id":"ce4bgjp2rcd13ifvqbh0","pricing_plan_id":"cebpf4jnsgd1na2vs0mg"},{"bike_id":"8640dff4-f56c-4538-98ff-cf696b09b8f1","system_id":"levelo_inurba_marseille","lat":43.30884,"lon":5.39623,"is_reserved":false,"is_disabled":false,"rental_uris":{"android":"levelo://app?vid=8640dff4-f56c-4538-98ff-cf696b09b8f1","ios":"levelo://app?vid=8640dff4-f56c-4538-98ff-cf696b09b8f1"},"vehicle_type_id":"4","last_reported":1765926630,"current_range_meters":17200,"station_id":"ce4bh012rcd13ifvqcv0","pricing_plan_id":"cebpf4jnsgd1na2vs0mg"},{"bike_id":"58687136-b914-42e6-80a0-8dfc7e3ee7ac","system_id":"levelo_inurba_marseille","lat":43.29542,"lon":5.38543,"is_reserved":false,"is_disabled":false,"rental_uris":{"android":"levelo://app?vid=58687136-b914-42e6-80a0-8dfc7e3ee7ac","ios":"levelo://app?vid=58687136-b914-42e6-80a0-8dfc7e3ee7ac"},"vehicle_type_id":"4","last_reported":1765926630,"current_range_meters":17200,"station_id":"ce4bgih2rcd13ifvqba0","pricing_plan_id":"cebpf4jnsgd1na2vs0mg"},{"bike_id":"306b636c-e53e-4301-a0e7-bc47e15eb932","system_id":"levelo_inurba_marseille","lat":43.28859,"lon":5.39328,"is_reserved":false,"is_disabled":true,"rental_uris":{"android":"levelo://app?vid=306b636c-e53e-4301-a0e7-bc47e15eb932","ios":"levelo://app?vid=306b636c-e53e-4301-a0e7-bc47e15eb932"},"vehicle_type_id":"4","last_reported":1765926630,"current_range_meters":17200,"station_id":"ce4bh2p2rcd13ifvqdi0","pricing_plan_id":"cebpf4jnsgd1na2vs0mg"},{"bike_id":"0cf21a01-e782-415d-994b-e6f97cf35f44","system_id":"levelo_inurba_marseille","lat":43.27813,"lon":5.40718,"is_reserved":false,"is_disabled":false,"rental_uris":{"android":"levelo://app?vid=0cf21a01-e782-415d-994b-e6f97cf35f44","ios":"levelo://app?vid=0cf21a01-e782-415d-994b-e6f97cf35f44"},"vehicle_type_id":"4","last_reported":1765926630,"current_range_meters":17200,"station_id":"ce4bhnh2rcd13ifvqgtg","pricing_plan_id":"cebpf4jnsgd1na2vs0mg"},{"bike_id":"66e29c81-8019-4d11-bb2e-f70af25284a4","system_id":"levelo_inurba_marseille","lat":43.29534,"lon":5.38543,"is_reserved":false,"is_disabled":false,"rental_uris":{"android":"levelo://app?vid=66e29c81-8019-4d11-bb2e-f70af25284a4","ios":"levelo://app?vid=66e29c81-8019-4d11-bb2e-f70af25284a4"},"vehicle_type_id":"4","last_reported":1765926630,"current_range_meters":17200,"station_id":"ce4bgih2rcd13ifvqba0","pricing_plan_id":"cebpf4jnsgd1na2vs0mg"},{"bike_id":"63ed059f-0bd8-4fbe-a6d9-24725ddfa2b6","system_id":"levelo_inurba_marseille","lat":43.32365,"lon":5.3674,"is_reserved":false,"is_disabled":false,"rental_uris":{"android":"levelo://app?vid=63ed059f-0bd8-4fbe-a6d9-24725ddfa2b6","ios":"levelo://app?vid=63ed059f-0bd8-4fbe-a6d9-24725ddfa2b6"},"vehicle_type_id":"4","last_reported":1765926630,"current_range_meters":17200,"station_id":"ce4bhsh2rcd13ifvqi2g","pricing_plan_id":"cebpf4jnsgd1na2vs0mg"},{"bike_id":"a8c19996-f300-462d-a9f6-261332e8e963","system_id":"levelo_inurba_marseille","lat":43.23147,"lon":5.43705,"is_reserved":false,"is_disabled":true,"rental_uris":{"android":"levelo://app?vid=a8c19996-f300-462d-a9f6-261332e8e963","ios":"levelo://app?vid=a8c19996-f300-462d-a9f6-261332e8e963"},"vehicle_type_id":"4","last_reported":1765926630,"current_range_meters":17200,"station_id":"ce4bhmp2rcd13ifvqgog","pricing_plan_id":"cebpf4jnsgd1na2vs0mg"},{"bike_id":"7b10dc07-2125-4598-92f3-8802d55146e2","system_id":"levelo_inurba_marseille","lat":43.270552,"lon":5.383082,"is_reserved":false,"is_disabled":false,"rental_uris":{"android":"levelo://app?vid=7b10dc07-2125-4598-92f3-8802d55146e2","ios":"levelo://app?vid=7b10dc07-2125-4598-92f3-8802d55146e2"},"vehicle_type_id":"4","last_reported":1765926630,"current_range_meters":17200,"station_id":"ce4bhbh2rcd13ifvqeo0","pricing_plan_id":"cebpf4jnsgd1na2vs0mg"},{"bike_id":"7d45bae8-42d8-41f1-9287-4349005baefe","system_id":"levelo_inurba_marseille","lat":43.2848,"lon":5.48391,"is_reserved":false,"is_disabled":false,"rental_uris":{"android":"levelo://app?vid=7d45bae8-42d8-41f1-9287-4349005baefe","ios":"levelo://app?vid=7d45bae8-42d8-41f1-9287-4349005baefe"},"vehicle_type_id":"4","last_reported":1765926630,"current_range_meters":17600,"station_id":"st_d3svhcjqgbts73a3dn0g","pricing_plan_id":"cebpf4jnsgd1na2vs0mg"},{"bike_id":"beb219cc-608b-4216-8204-8aa828669025","system_id":"levelo_inurba_marseille","lat":43.30794,"lon":5.38154,"is_reserved":false,"is_disabled":false,"rental_uris":{"android":"levelo://app?vid=beb219cc-608b-4216-8204-8aa828669025","ios":"levelo://app?vid=beb219cc-608b-4216-8204-8aa828669025"},"vehicle_type_id":"4","last_reported":1765926630,"current_range_meters":17600,"station_id":"ce4bgt12rcd13ifvqce0","pricing_plan_id":"cebpf4jnsgd1na2vs0mg"},{"bike_id":"b4f455b1-650d-420b-9c30-347ed9584de3","system_id":"levelo_inurba_marseille","lat":43.2439,"lon":5.37081,"is_reserved":false,"is_disabled":false,"rental_uris":{"android":"levelo://app?vid=b4f455b1-650d-420b-9c30-347ed9584de3","ios":"levelo://app?vid=b4f455b1-650d-420b-9c30-347ed9584de3"},"vehicle_type_id":"4","last_reported":1765926630,"current_range_meters":17600,"station_id":"ce4bhhh2rcd13ifvqfk0","pricing_plan_id":"cebpf4jnsgd1na2vs0mg"},{"bike_id":"d58cb00c-a06a-4889-a533-917770d8e4fc","system_id":"levelo_inurba_marseille","lat":43.27199,"lon":5.40975,"is_reserved":false,"is_disabled":false,"rental_uris":{"android":"levelo://app?vid=d58cb00c-a06a-4889-a533-917770d8e4fc","ios":"levelo://app?vid=d58cb00c-a06a-4889-a533-917770d8e4fc"},"vehicle_type_id":"4","last_reported":1765926630,"current_range_meters":17600,"station_id":"ce4bhl12rcd13ifvqgf0","pricing_plan_id":"cebpf4jnsgd1na2vs0mg"},{"bike_id":"d8c1575c-ce87-4119-aeb4-0b6fa027adf7","system_id":"levelo_inurba_marseille","lat":43.29814,"lon":5.44066,"is_reserved":false,"is_disabled":false,"rental_uris":{"android":"levelo://app?vid=d8c1575c-ce87-4119-aeb4-0b6fa027adf7","ios":"levelo://app?vid=d8c1575c-ce87-4119-aeb4-0b6fa027adf7"},"vehicle_type_id":"4","last_reported":1765926630,"current_range_meters":17600,"station_id":"st_d3jp68qikq2c7381ktn0","pricing_plan_id":"cebpf4jnsgd1na2vs0mg"},{"bike_id":"e96059bf-8ab9-49e1-8729-f612104306c4","system_id":"levelo_inurba_marseille","lat":43.26676,"lon":5.39614,"is_reserved":false,"is_disabled":false,"rental_uris":{"android":"levelo://app?vid=e96059bf-8ab9-49e1-8729-f612104306c4","ios":"levelo://app?vid=e96059bf-8ab9-49e1-8729-f612104306c4"},"vehicle_type_id":"4","last_reported":1765926630,"current_range_meters":17600,"station_id":"","pricing_plan_id":"cebpf4jnsgd1na2vs0mg"},{"bike_id":"95a30983-c978-4041-b281-50b0db077a0d","system_id":"levelo_inurba_marseille","lat":43.28618,"lon":5.35104,"is_reserved":false,"is_disabled":true,"rental_uris":{"android":"levelo://app?vid=95a30983-c978-4041-b281-50b0db077a0d","ios":"levelo://app?vid=95a30983-c978-4041-b281-50b0db077a0d"},"vehicle_type_id":"4","last_reported":1765926630,"current_range_meters":17600,"station_id":"ce4bhch2rcd13ifvqeug","pricing_plan_id":"cebpf4jnsgd1na2vs0mg"},{"bike_id":"aa15371c-c7a5-4862-b7ac-faed336d9de4","system_id":"levelo_inurba_marseille","lat":43.32108,"lon":5.36806,"is_reserved":false,"is_disabled":false,"rental_uris":{"android":"levelo://app?vid=aa15371c-c7a5-4862-b7ac-faed336d9de4","ios":"levelo://app?vid=aa15371c-c7a5-4862-b7ac-faed336d9de4"},"vehicle_type_id":"4","last_reported":1765926630,"current_range_meters":17600,"station_id":"ce4bhrh2rcd13ifvqhug","pricing_plan_id":"cebpf4jnsgd1na2vs0mg"},{"bike_id":"1e36bf84-68c4-436e-8bbb-e4609d237cad","system_id":"levelo_inurba_marseille","lat":43.23057,"lon":5.35497,"is_reserved":false,"is_disabled":false,"rental_uris":{"android":"levelo://app?vid=1e36bf84-68c4-436e-8bbb-e4609d237cad","ios":"levelo://app?vid=1e36bf84-68c4-436e-8bbb-e4609d237cad"},"vehicle_type_id":"4","last_reported":1765926630,"current_range_meters":17600,"station_id":"cpo3342slgdg3j2ifvpg","pricing_plan_id":"cebpf4jnsgd1na2vs0mg"},{"bike_id":"0c0ad760-3c64-4b61-a284-e4344255a545","system_id":"levelo_inurba_marseille","lat":43.24396,"lon":5.37048,"is_reserved":false,"is_disabled":false,"rental_uris":{"android":"levelo://app?vid=0c0ad760-3c64-4b61-a284-e4344255a545","ios":"levelo://app?vid=0c0ad760-3c64-4b61-a284-e4344255a545"},"vehicle_type_id":"4","last_reported":1765926630,"current_range_meters":17600,"station_id":"ce4bhhh2rcd13ifvqfk0","pricing_plan_id":"cebpf4jnsgd1na2vs0mg"},{"bike_id":"38b85834-b839-442d-9be1-7566b2275643","system_id":"levelo_inurba_marseille","lat":43.24174,"lon":5.36407,"is_reserved":false,"is_disabled":false,"rental_uris":{"android":"levelo://app?vid=38b85834-b839-442d-9be1-7566b2275643","ios":"levelo://app?vid=38b85834-b839-442d-9be1-7566b2275643"},"vehicle_type_id":"4","last_reported":1765926630,"current_range_meters":17600,"station_id":"cpo36qri1sfpv3e86is0","pricing_plan_id":"cebpf4jnsgd1na2vs0mg"},{"bike_id":"62a27870-1e04-4b7b-8580-839494963e78","system_id":"levelo_inurba_marseille","lat":43.29443,"lon":5.39749,"is_reserved":false,"is_disabled":false,"rental_uris":{"android":"levelo://app?vid=62a27870-1e04-4b7b-8580-839494963e78","ios":"levelo://app?vid=62a27870-1e04-4b7b-8580-839494963e78"},"vehicle_type_id":"4","last_reported":1765926630,"current_range_meters":17600,"station_id":"ce4bh3h2rcd13ifvqdo0","pricing_plan_id":"cebpf4jnsgd1na2vs0mg"},{"bike_id":"a252479c-c3d9-4b8f-a785-5eb0588f088c","system_id":"levelo_inurba_marseille","lat":43.2853,"lon":5.44097,"is_reserved":false,"is_disabled":false,"rental_uris":{"android":"levelo://app?vid=a252479c-c3d9-4b8f-a785-5eb0588f088c","ios":"levelo://app?vid=a252479c-c3d9-4b8f-a785-5eb0588f088c"},"vehicle_type_id":"4","last_reported":1765926630,"current_range_meters":18000,"station_id":"st_d3j3df2ikq2c7380ej80","pricing_plan_id":"cebpf4jnsgd1na2vs0mg"},{"bike_id":"f641aa90-ec3b-4796-8606-62959c7d36d4","system_id":"levelo_inurba_marseille","lat":43.29515,"lon":5.39401,"is_reserved":false,"is_disabled":false,"rental_uris":{"android":"levelo://app?vid=f641aa90-ec3b-4796-8606-62959c7d36d4","ios":"levelo://app?vid=f641aa90-ec3b-4796-8606-62959c7d36d4"},"vehicle_type_id":"4","last_reported":1765926630,"current_range_meters":18000,"station_id":"ce4bh292rcd13ifvqdf0","pricing_plan_id":"cebpf4jnsgd1na2vs0mg"},{"bike_id":"4426e565-55ce-4ab9-b08c-86117389e09a","system_id":"levelo_inurba_marseille","lat":43.28034,"lon":5.36931,"is_reserved":false,"is_disabled":false,"rental_uris":{"android":"levelo://app?vid=4426e565-55ce-4ab9-b08c-86117389e09a","ios":"levelo://app?vid=4426e565-55ce-4ab9-b08c-86117389e09a"},