{"last_updated":1775053446,"ttl":60,"version":"2.2","data":{"bikes":[{"bike_id":"a29e9ded-b261-451d-a1ca-f8715b701215","system_id":"levelo_inurba_marseille","lat":43.289388,"lon":5.366415,"is_reserved":false,"is_disabled":false,"rental_uris":{"android":"levelo://app?vid=a29e9ded-b261-451d-a1ca-f8715b701215","ios":"levelo://app?vid=a29e9ded-b261-451d-a1ca-f8715b701215"},"vehicle_type_id":"4","last_reported":1775053447,"current_range_meters":2800,"station_id":"ce4bhap2rcd13ifvqek0","pricing_plan_id":"cebpf4jnsgd1na2vs0mg"},{"bike_id":"a8162cdc-af44-494e-8a92-2dedec6f1705","system_id":"levelo_inurba_marseille","lat":43.28094,"lon":5.37837,"is_reserved":false,"is_disabled":false,"rental_uris":{"android":"levelo://app?vid=a8162cdc-af44-494e-8a92-2dedec6f1705","ios":"levelo://app?vid=a8162cdc-af44-494e-8a92-2dedec6f1705"},"vehicle_type_id":"4","last_reported":1775053447,"current_range_meters":2800,"station_id":"ce4bha12rcd13ifvqee0","pricing_plan_id":"cebpf4jnsgd1na2vs0mg"},{"bike_id":"05b700ea-9bbc-436d-9f8b-7ccf8feb86bf","system_id":"levelo_inurba_marseille","lat":43.24456,"lon":5.42535,"is_reserved":false,"is_disabled":false,"rental_uris":{"android":"levelo://app?vid=05b700ea-9bbc-436d-9f8b-7ccf8feb86bf","ios":"levelo://app?vid=05b700ea-9bbc-436d-9f8b-7ccf8feb86bf"},"vehicle_type_id":"4","last_reported":1775053447,"current_range_meters":2800,"station_id":"st_d4a3vfp97mjs738cd8kg","pricing_plan_id":"cebpf4jnsgd1na2vs0mg"},{"bike_id":"41122fd4-e77b-4ae9-b0fd-3e844c020e1b","system_id":"levelo_inurba_marseille","lat":43.25505,"lon":5.37654,"is_reserved":false,"is_disabled":false,"rental_uris":{"android":"levelo://app?vid=41122fd4-e77b-4ae9-b0fd-3e844c020e1b","ios":"levelo://app?vid=41122fd4-e77b-4ae9-b0fd-3e844c020e1b"},"vehicle_type_id":"4","last_reported":1775053447,"current_range_meters":2800,"station_id":"ce4bhh12rcd13ifvqff0","pricing_plan_id":"cebpf4jnsgd1na2vs0mg"},{"bike_id":"d64ce500-cd7e-492f-bdec-ea9983642334","system_id":"levelo_inurba_marseille","lat":43.31185,"lon":5.38722,"is_reserved":false,"is_disabled":false,"rental_uris":{"android":"levelo://app?vid=d64ce500-cd7e-492f-bdec-ea9983642334","ios":"levelo://app?vid=d64ce500-cd7e-492f-bdec-ea9983642334"},"vehicle_type_id":"4","last_reported":1775053447,"current_range_meters":2800,"station_id":"ce4bgv12rcd13ifvqcp0","pricing_plan_id":"cebpf4jnsgd1na2vs0mg"},{"bike_id":"7486e167-bd2a-40a6-9f10-cd1d3c654830","system_id":"levelo_inurba_marseille","lat":43.26027,"lon":5.37549,"is_reserved":false,"is_disabled":false,"rental_uris":{"android":"levelo://app?vid=7486e167-bd2a-40a6-9f10-cd1d3c654830","ios":"levelo://app?vid=7486e167-bd2a-40a6-9f10-cd1d3c654830"},"vehicle_type_id":"4","last_reported":1775053447,"current_range_meters":2800,"station_id":"ce4bhgh2rcd13ifvqfa0","pricing_plan_id":"cebpf4jnsgd1na2vs0mg"},{"bike_id":"cb048b43-5286-47cc-a441-12e0e591a44a","system_id":"levelo_inurba_marseille","lat":43.27918,"lon":5.39574,"is_reserved":false,"is_disabled":false,"rental_uris":{"android":"levelo://app?vid=cb048b43-5286-47cc-a441-12e0e591a44a","ios":"levelo://app?vid=cb048b43-5286-47cc-a441-12e0e591a44a"},"vehicle_type_id":"4","last_reported":1775053447,"current_range_meters":2800,"station_id":"ce4bhf92rcd13ifvqf40","pricing_plan_id":"cebpf4jnsgd1na2vs0mg"},{"bike_id":"a1baf17f-8881-49fe-922a-832e70e0433c","system_id":"levelo_inurba_marseille","lat":43.2572,"lon":5.41121,"is_reserved":false,"is_disabled":false,"rental_uris":{"android":"levelo://app?vid=a1baf17f-8881-49fe-922a-832e70e0433c","ios":"levelo://app?vid=a1baf17f-8881-49fe-922a-832e70e0433c"},"vehicle_type_id":"4","last_reported":1775053447,"current_range_meters":2800,"station_id":"ce4bhkp2rcd13ifvqgd0","pricing_plan_id":"cebpf4jnsgd1na2vs0mg"},{"bike_id":"35e50811-b7e7-4e88-9d44-8422ceb0ef01","system_id":"levelo_inurba_marseille","lat":43.30939,"lon":5.39012,"is_reserved":false,"is_disabled":false,"rental_uris":{"android":"levelo://app?vid=35e50811-b7e7-4e88-9d44-8422ceb0ef01","ios":"levelo://app?vid=35e50811-b7e7-4e88-9d44-8422ceb0ef01"},"vehicle_type_id":"4","last_reported":1775053447,"current_range_meters":2800,"station_id":"ce4bgup2rcd13ifvqco0","pricing_plan_id":"cebpf4jnsgd1na2vs0mg"},{"bike_id":"7e8898e6-1c00-4250-9ed7-cd44bb8bc075","system_id":"levelo_inurba_marseille","lat":43.29193,"lon":5.3932,"is_reserved":false,"is_disabled":false,"rental_uris":{"android":"levelo://app?vid=7e8898e6-1c00-4250-9ed7-cd44bb8bc075","ios":"levelo://app?vid=7e8898e6-1c00-4250-9ed7-cd44bb8bc075"},"vehicle_type_id":"4","last_reported":1775053447,"current_range_meters":2800,"station_id":"ce4bh192rcd13ifvqdd0","pricing_plan_id":"cebpf4jnsgd1na2vs0mg"},{"bike_id":"1b6a734f-0c23-40f4-b2a6-4376dd8d57f0","system_id":"levelo_inurba_marseille","lat":43.23393,"lon":5.41222,"is_reserved":false,"is_disabled":false,"rental_uris":{"android":"levelo://app?vid=1b6a734f-0c23-40f4-b2a6-4376dd8d57f0","ios":"levelo://app?vid=1b6a734f-0c23-40f4-b2a6-4376dd8d57f0"},"vehicle_type_id":"4","last_reported":1775053447,"current_range_meters":2800,"station_id":"st_d75pvndhf9lc73cqq3eg","pricing_plan_id":"cebpf4jnsgd1na2vs0mg"},{"bike_id":"df9ba9ea-758d-4390-88d2-b454dfaea29c","system_id":"levelo_inurba_marseille","lat":43.30696,"lon":5.38394,"is_reserved":false,"is_disabled":false,"rental_uris":{"android":"levelo://app?vid=df9ba9ea-758d-4390-88d2-b454dfaea29c","ios":"levelo://app?vid=df9ba9ea-758d-4390-88d2-b454dfaea29c"},"vehicle_type_id":"4","last_reported":1775053447,"current_range_meters":3200,"station_id":"","pricing_plan_id":"cebpf4jnsgd1na2vs0mg"},{"bike_id":"e4956c66-fba0-45d5-a7d2-90ca01f34637","system_id":"levelo_inurba_marseille","lat":43.21756,"lon":5.34599,"is_reserved":false,"is_disabled":false,"rental_uris":{"android":"levelo://app?vid=e4956c66-fba0-45d5-a7d2-90ca01f34637","ios":"levelo://app?vid=e4956c66-fba0-45d5-a7d2-90ca01f34637"},"vehicle_type_id":"4","last_reported":1775053447,"current_range_meters":3200,"station_id":"st_cvj6r9ubvosntc0bgbag","pricing_plan_id":"cebpf4jnsgd1na2vs0mg"},{"bike_id":"aff3ff3f-6b67-4330-8619-cb367673fc13","system_id":"levelo_inurba_marseille","lat":43.24411,"lon":5.37056,"is_reserved":false,"is_disabled":false,"rental_uris":{"android":"levelo://app?vid=aff3ff3f-6b67-4330-8619-cb367673fc13","ios":"levelo://app?vid=aff3ff3f-6b67-4330-8619-cb367673fc13"},"vehicle_type_id":"4","last_reported":1775053447,"current_range_meters":3200,"station_id":"ce4bhhh2rcd13ifvqfk0","pricing_plan_id":"cebpf4jnsgd1na2vs0mg"},{"bike_id":"9e8c35a2-3d4d-48a8-87e2-0775e9d3d581","system_id":"levelo_inurba_marseille","lat":43.27484,"lon":5.40814,"is_reserved":false,"is_disabled":false,"rental_uris":{"android":"levelo://app?vid=9e8c35a2-3d4d-48a8-87e2-0775e9d3d581","ios":"levelo://app?vid=9e8c35a2-3d4d-48a8-87e2-0775e9d3d581"},"vehicle_type_id":"4","last_reported":1775053447,"current_range_meters":3200,"station_id":"","pricing_plan_id":"cebpf4jnsgd1na2vs0mg"},{"bike_id":"ff7881b4-77ea-4b3a-b777-8c6357d34309","system_id":"levelo_inurba_marseille","lat":43.2648,"lon":5.39547,"is_reserved":false,"is_disabled":false,"rental_uris":{"android":"levelo://app?vid=ff7881b4-77ea-4b3a-b777-8c6357d34309","ios":"levelo://app?vid=ff7881b4-77ea-4b3a-b777-8c6357d34309"},"vehicle_type_id":"4","last_reported":1775053447,"current_range_meters":3200,"station_id":"ce4bhi12rcd13ifvqfq0","pricing_plan_id":"cebpf4jnsgd1na2vs0mg"},{"bike_id":"b56e07c1-b812-4392-b509-22221252f482","system_id":"levelo_inurba_marseille","lat":43.28291,"lon":5.40792,"is_reserved":false,"is_disabled":false,"rental_uris":{"android":"levelo://app?vid=b56e07c1-b812-4392-b509-22221252f482","ios":"levelo://app?vid=b56e07c1-b812-4392-b509-22221252f482"},"vehicle_type_id":"4","last_reported":1775053447,"current_range_meters":3200,"station_id":"","pricing_plan_id":"cebpf4jnsgd1na2vs0mg"},{"bike_id":"9413365a-3f56-4b1d-b117-b074e05b3240","system_id":"levelo_inurba_marseille","lat":43.31084,"lon":5.37103,"is_reserved":false,"is_disabled":true,"rental_uris":{"android":"levelo://app?vid=9413365a-3f56-4b1d-b117-b074e05b3240","ios":"levelo://app?vid=9413365a-3f56-4b1d-b117-b074e05b3240"},"vehicle_type_id":"4","last_reported":1775053447,"current_range_meters":3200,"station_id":"st_d4kl2rp97mjs73e7tdfg","pricing_plan_id":"cebpf4jnsgd1na2vs0mg"},{"bike_id":"59dd7cea-1fd3-4432-ab54-3a824507c81c","system_id":"levelo_inurba_marseille","lat":43.25174,"lon":5.4196,"is_reserved":false,"is_disabled":false,"rental_uris":{"android":"levelo://app?vid=59dd7cea-1fd3-4432-ab54-3a824507c81c","ios":"levelo://app?vid=59dd7cea-1fd3-4432-ab54-3a824507c81c"},"vehicle_type_id":"4","last_reported":1775053447,"current_range_meters":3200,"station_id":"","pricing_plan_id":"cebpf4jnsgd1na2vs0mg"},{"bike_id":"9da6f0a0-254f-4937-8243-355fe7b156df","system_id":"levelo_inurba_marseille","lat":43.28526,"lon":5.44109,"is_reserved":false,"is_disabled":false,"rental_uris":{"android":"levelo://app?vid=9da6f0a0-254f-4937-8243-355fe7b156df","ios":"levelo://app?vid=9da6f0a0-254f-4937-8243-355fe7b156df"},"vehicle_type_id":"4","last_reported":1775053447,"current_range_meters":3200,"station_id":"st_d3j3df2ikq2c7380ej80","pricing_plan_id":"cebpf4jnsgd1na2vs0mg"},{"bike_id":"3398a272-3388-4322-b7d1-4801a5bb8bb6","system_id":"levelo_inurba_marseille","lat":43.24541,"lon":5.39512,"is_reserved":false,"is_disabled":false,"rental_uris":{"android":"levelo://app?vid=3398a272-3388-4322-b7d1-4801a5bb8bb6","ios":"levelo://app?vid=3398a272-3388-4322-b7d1-4801a5bb8bb6"},"vehicle_type_id":"4","last_reported":1775053447,"current_range_meters":3200,"station_id":"ce4bhlp2rcd13ifvqgjg","pricing_plan_id":"cebpf4jnsgd1na2vs0mg"},{"bike_id":"f8fc97de-3cc0-4d59-b927-2064a756faee","system_id":"levelo_inurba_marseille","lat":43.30165,"lon":5.38069,"is_reserved":false,"is_disabled":false,"rental_uris":{"android":"levelo://app?vid=f8fc97de-3cc0-4d59-b927-2064a756faee","ios":"levelo://app?vid=f8fc97de-3cc0-4d59-b927-2064a756faee"},"vehicle_type_id":"4","last_reported":1775053447,"current_range_meters":3200,"station_id":"ce4bgjp2rcd13ifvqbh0","pricing_plan_id":"cebpf4jnsgd1na2vs0mg"},{"bike_id":"5f8ce50d-e59d-44ad-9646-24fed4114323","system_id":"levelo_inurba_marseille","lat":43.25227,"lon":5.38073,"is_reserved":false,"is_disabled":false,"rental_uris":{"android":"levelo://app?vid=5f8ce50d-e59d-44ad-9646-24fed4114323","ios":"levelo://app?vid=5f8ce50d-e59d-44ad-9646-24fed4114323"},"vehicle_type_id":"4","last_reported":1775053447,"current_range_meters":3200,"station_id":"","pricing_plan_id":"cebpf4jnsgd1na2vs0mg"},{"bike_id":"f98076ad-2624-4554-bed5-566261a5455d","system_id":"levelo_inurba_marseille","lat":43.28536,"lon":5.44089,"is_reserved":false,"is_disabled":false,"rental_uris":{"android":"levelo://app?vid=f98076ad-2624-4554-bed5-566261a5455d","ios":"levelo://app?vid=f98076ad-2624-4554-bed5-566261a5455d"},"vehicle_type_id":"4","last_reported":1775053447,"current_range_meters":3600,"station_id":"st_d3j3df2ikq2c7380ej80","pricing_plan_id":"cebpf4jnsgd1na2vs0mg"},{"bike_id":"18327cda-d43e-4902-8c79-012633da7d01","system_id":"levelo_inurba_marseille","lat":43.25832,"lon":5.39435,"is_reserved":false,"is_disabled":false,"rental_uris":{"android":"levelo://app?vid=18327cda-d43e-4902-8c79-012633da7d01","ios":"levelo://app?vid=18327cda-d43e-4902-8c79-012633da7d01"},"vehicle_type_id":"4","last_reported":1775053447,"current_range_meters":3600,"station_id":"ce4bhip2rcd13ifvqft0","pricing_plan_id":"cebpf4jnsgd1na2vs0mg"},{"bike_id":"3681bea9-2900-445c-b2d4-06ae4cedc9b9","system_id":"levelo_inurba_marseille","lat":43.29596,"lon":5.38095,"is_reserved":false,"is_disabled":true,"rental_uris":{"android":"levelo://app?vid=3681bea9-2900-445c-b2d4-06ae4cedc9b9","ios":"levelo://app?vid=3681bea9-2900-445c-b2d4-06ae4cedc9b9"},"vehicle_type_id":"4","last_reported":1775053447,"current_range_meters":3600,"station_id":"ce4bgl12rcd13ifvqbo0","pricing_plan_id":"cebpf4jnsgd1na2vs0mg"},{"bike_id":"1b696ba7-1268-4f77-b988-fc0fa467655d","system_id":"levelo_inurba_marseille","lat":43.27836,"lon":5.39214,"is_reserved":false,"is_disabled":false,"rental_uris":{"android":"levelo://app?vid=1b696ba7-1268-4f77-b988-fc0fa467655d","ios":"levelo://app?vid=1b696ba7-1268-4f77-b988-fc0fa467655d"},"vehicle_type_id":"4","last_reported":1775053447,"current_range_meters":3600,"station_id":"ce4bhjp2rcd13ifvqga0","pricing_plan_id":"cebpf4jnsgd1na2vs0mg"},{"bike_id":"4977f95e-718a-4120-8926-2364059fe1a3","system_id":"levelo_inurba_marseille","lat":43.27276,"lon":5.40166,"is_reserved":false,"is_disabled":false,"rental_uris":{"android":"levelo://app?vid=4977f95e-718a-4120-8926-2364059fe1a3","ios":"levelo://app?vid=4977f95e-718a-4120-8926-2364059fe1a3"},"vehicle_type_id":"4","last_reported":1775053447,"current_range_meters":3600,"station_id":"","pricing_plan_id":"cebpf4jnsgd1na2vs0mg"},{"bike_id":"ace2b5ee-1355-40d7-ba59-bba7c913ea22","system_id":"levelo_inurba_marseille","lat":43.337444,"lon":5.374475,"is_reserved":false,"is_disabled":true,"rental_uris":{"android":"levelo://app?vid=ace2b5ee-1355-40d7-ba59-bba7c913ea22","ios":"levelo://app?vid=ace2b5ee-1355-40d7-ba59-bba7c913ea22"},"vehicle_type_id":"4","last_reported":1775053447,"current_range_meters":3600,"station_id":"","pricing_plan_id":"cebpf4jnsgd1na2vs0mg"},{"bike_id":"6af2f196-5c16-458c-8441-901ba3d7b4d9","system_id":"levelo_inurba_marseille","lat":43.23054,"lon":5.35487,"is_reserved":false,"is_disabled":false,"rental_uris":{"android":"levelo://app?vid=6af2f196-5c16-458c-8441-901ba3d7b4d9","ios":"levelo://app?vid=6af2f196-5c16-458c-8441-901ba3d7b4d9"},"vehicle_type_id":"4","last_reported":1775053447,"current_range_meters":3600,"station_id":"cpo3342slgdg3j2ifvpg","pricing_plan_id":"cebpf4jnsgd1na2vs0mg"},{"bike_id":"aac1d201-4604-4928-a1e8-3a9c499870e7","system_id":"levelo_inurba_marseille","lat":43.2466,"lon":5.38881,"is_reserved":false,"is_disabled":false,"rental_uris":{"android":"levelo://app?vid=aac1d201-4604-4928-a1e8-3a9c499870e7","ios":"levelo://app?vid=aac1d201-4604-4928-a1e8-3a9c499870e7"},"vehicle_type_id":"4","last_reported":1775053447,"current_range_meters":3600,"station_id":"ce4bhg12rcd13ifvqf60","pricing_plan_id":"cebpf4jnsgd1na2vs0mg"},{"bike_id":"f1c7cedb-7ca6-425d-bb6e-eba3f64564e5","system_id":"levelo_inurba_marseille","lat":43.24181,"lon":5.39719,"is_reserved":false,"is_disabled":false,"rental_uris":{"android":"levelo://app?vid=f1c7cedb-7ca6-425d-bb6e-eba3f64564e5","ios":"levelo://app?vid=f1c7cedb-7ca6-425d-bb6e-eba3f64564e5"},"vehicle_type_id":"4","last_reported":1775053447,"current_range_meters":3600,"station_id":"ce4bhn12rcd13ifvqgpg","pricing_plan_id":"cebpf4jnsgd1na2vs0mg"},{"bike_id":"895454a4-b2a9-4659-a69d-b068ca687ad0","system_id":"levelo_inurba_marseille","lat":43.29517,"lon":5.38547,"is_reserved":false,"is_disabled":true,"rental_uris":{"android":"levelo://app?vid=895454a4-b2a9-4659-a69d-b068ca687ad0","ios":"levelo://app?vid=895454a4-b2a9-4659-a69d-b068ca687ad0"},"vehicle_type_id":"4","last_reported":1775053447,"current_range_meters":3600,"station_id":"","pricing_plan_id":"cebpf4jnsgd1na2vs0mg"},{"bike_id":"09fd0961-537f-4b10-9218-06513f653464","system_id":"levelo_inurba_marseille","lat":43.29158,"lon":5.42621,"is_reserved":false,"is_disabled":false,"rental_uris":{"android":"levelo://app?vid=09fd0961-537f-4b10-9218-06513f653464","ios":"levelo://app?vid=09fd0961-537f-4b10-9218-06513f653464"},"vehicle_type_id":"4","last_reported":1775053447,"current_range_meters":3600,"station_id":"","pricing_plan_id":"cebpf4jnsgd1na2vs0mg"},{"bike_id":"8b972516-364d-4c36-a2f6-f81da10bf5ee","system_id":"levelo_inurba_marseille","lat":43.30106,"lon":5.43105,"is_reserved":false,"is_disabled":false,"rental_uris":{"android":"levelo://app?vid=8b972516-364d-4c36-a2f6-f81da10bf5ee","ios":"levelo://app?vid=8b972516-364d-4c36-a2f6-f81da10bf5ee"},"vehicle_type_id":"4","last_reported":1775053447,"current_range_meters":3600,"station_id":"st_d3js3co5814s73ftftug","pricing_plan_id":"cebpf4jnsgd1na2vs0mg"},{"bike_id":"5594fef1-50b5-4719-8406-506999474c85","system_id":"levelo_inurba_marseille","lat":43.23062,"lon":5.3547,"is_reserved":false,"is_disabled":false,"rental_uris":{"android":"levelo://app?vid=5594fef1-50b5-4719-8406-506999474c85","ios":"levelo://app?vid=5594fef1-50b5-4719-8406-506999474c85"},"vehicle_type_id":"4","last_reported":1775053447,"current_range_meters":3600,"station_id":"cpo3342slgdg3j2ifvpg","pricing_plan_id":"cebpf4jnsgd1na2vs0mg"},{"bike_id":"6e18f0a3-1ce0-4eed-9ae1-d7aaa399f3e2","system_id":"levelo_inurba_marseille","lat":43.21189,"lon":5.3508,"is_reserved":false,"is_disabled":false,"rental_uris":{"android":"levelo://app?vid=6e18f0a3-1ce0-4eed-9ae1-d7aaa399f3e2","ios":"levelo://app?vid=6e18f0a3-1ce0-4eed-9ae1-d7aaa399f3e2"},"vehicle_type_id":"4","last_reported":1775053447,"current_range_meters":3600,"station_id":"","pricing_plan_id":"cebpf4jnsgd1na2vs0mg"},{"bike_id":"58ab0879-e119-435d-b2bc-1f9333df8ee7","system_id":"levelo_inurba_marseille","lat":43.26684,"lon":5.38263,"is_reserved":false,"is_disabled":false,"rental_uris":{"android":"levelo://app?vid=58ab0879-e119-435d-b2bc-1f9333df8ee7","ios":"levelo://app?vid=58ab0879-e119-435d-b2bc-1f9333df8ee7"},"vehicle_type_id":"4","last_reported":1775053447,"current_range_meters":3600,"station_id":"ce4bhg92rcd13ifvqf90","pricing_plan_id":"cebpf4jnsgd1na2vs0mg"},{"bike_id":"63e1e584-9fe3-47dd-bab5-20142dab11c4","system_id":"levelo_inurba_marseille","lat":43.26941,"lon":5.40246,"is_reserved":false,"is_disabled":false,"rental_uris":{"android":"levelo://app?vid=63e1e584-9fe3-47dd-bab5-20142dab11c4","ios":"levelo://app?vid=63e1e584-9fe3-47dd-bab5-20142dab11c4"},"vehicle_type_id":"4","last_reported":1775053447,"current_range_meters":3600,"station_id":"cjm6bp8fraef2m0cb0m0","pricing_plan_id":"cebpf4jnsgd1na2vs0mg"},{"bike_id":"be49e0de-9040-4008-9078-785bfead0608","system_id":"levelo_inurba_marseille","lat":43.29208,"lon":5.36335,"is_reserved":false,"is_disabled":false,"rental_uris":{"android":"levelo://app?vid=be49e0de-9040-4008-9078-785bfead0608","ios":"levelo://app?vid=be49e0de-9040-4008-9078-785bfead0608"},"vehicle_type_id":"4","last_reported":1775053447,"current_range_meters":3600,"station_id":"","pricing_plan_id":"cebpf4jnsgd1na2vs0mg"},{"bike_id":"e5a7a53a-b267-4440-9c9f-66f6b2ca226b","system_id":"levelo_inurba_marseille","lat":43.29602,"lon":5.37193,"is_reserved":false,"is_disabled":false,"rental_uris":{"android":"levelo://app?vid=e5a7a53a-b267-4440-9c9f-66f6b2ca226b","ios":"levelo://app?vid=e5a7a53a-b267-4440-9c9f-66f6b2ca226b"},"vehicle_type_id":"4","last_reported":1775053447,"current_range_meters":4000,"station_id":"ce4bgnh2rcd13ifvqc0g","pricing_plan_id":"cebpf4jnsgd1na2vs0mg"},{"bike_id":"3a922081-a991-4b97-906e-7f7dba00403a","system_id":"levelo_inurba_marseille","lat":43.32362,"lon":5.36759,"is_reserved":false,"is_disabled":false,"rental_uris":{"android":"levelo://app?vid=3a922081-a991-4b97-906e-7f7dba00403a","ios":"levelo://app?vid=3a922081-a991-4b97-906e-7f7dba00403a"},"vehicle_type_id":"4","last_reported":1775053447,"current_range_meters":4000,"station_id":"ce4bhsh2rcd13ifvqi2g","pricing_plan_id":"cebpf4jnsgd1na2vs0mg"},{"bike_id":"7f5ae181-411b-4491-9dd7-466e9c57f0ee","system_id":"levelo_inurba_marseille","lat":43.29959,"lon":5.38485,"is_reserved":false,"is_disabled":false,"rental_uris":{"android":"levelo://app?vid=7f5ae181-411b-4491-9dd7-466e9c57f0ee","ios":"levelo://app?vid=7f5ae181-411b-4491-9dd7-466e9c57f0ee"},"vehicle_type_id":"4","last_reported":1775053447,"current_range_meters":4000,"station_id":"ce4bgj92rcd13ifvqbd0","pricing_plan_id":"cebpf4jnsgd1na2vs0mg"},{"bike_id":"53879992-769e-433a-9fe8-396906624217","system_id":"levelo_inurba_marseille","lat":43.24386,"lon":5.3705,"is_reserved":false,"is_disabled":false,"rental_uris":{"android":"levelo://app?vid=53879992-769e-433a-9fe8-396906624217","ios":"levelo://app?vid=53879992-769e-433a-9fe8-396906624217"},"vehicle_type_id":"4","last_reported":1775053447,"current_range_meters":4000,"station_id":"ce4bhhh2rcd13ifvqfk0","pricing_plan_id":"cebpf4jnsgd1na2vs0mg"},{"bike_id":"9c1440ce-c955-43db-9800-7794805da744","system_id":"levelo_inurba_marseille","lat":43.23975,"lon":5.36612,"is_reserved":false,"is_disabled":false,"rental_uris":{"android":"levelo://app?vid=9c1440ce-c955-43db-9800-7794805da744","ios":"levelo://app?vid=9c1440ce-c955-43db-9800-7794805da744"},"vehicle_type_id":"4","last_reported":1775053447,"current_range_meters":4000,"station_id":"ce4bhi12rcd13ifvqfp0","pricing_plan_id":"cebpf4jnsgd1na2vs0mg"},{"bike_id":"b53f224e-5c2b-47b3-a19b-0c6884245c31","system_id":"levelo_inurba_marseille","lat":43.23968,"lon":5.36619,"is_reserved":false,"is_disabled":false,"rental_uris":{"android":"levelo://app?vid=b53f224e-5c2b-47b3-a19b-0c6884245c31","ios":"levelo://app?vid=b53f224e-5c2b-47b3-a19b-0c6884245c31"},"vehicle_type_id":"4","last_reported":1775053447,"current_range_meters":4000,"station_id":"ce4bhi12rcd13ifvqfp0","pricing_plan_id":"cebpf4jnsgd1na2vs0mg"},{"bike_id":"220112ee-7160-43bb-8085-3a89f0835be2","system_id":"levelo_inurba_marseille","lat":43.26565,"lon":5.37343,"is_reserved":false,"is_disabled":false,"rental_uris":{"android":"levelo://app?vid=220112ee-7160-43bb-8085-3a89f0835be2","ios":"levelo://app?vid=220112ee-7160-43bb-8085-3a89f0835be2"},"vehicle_type_id":"4","last_reported":1775053447,"current_range_meters":4000,"station_id":"ce4bhg12rcd13ifvqf70","pricing_plan_id":"cebpf4jnsgd1na2vs0mg"},{"bike_id":"2087d413-f15e-4f97-98f2-ae1153fc5db4","system_id":"levelo_inurba_marseille","lat":43.24397,"lon":5.37035,"is_reserved":false,"is_disabled":false,"rental_uris":{"android":"levelo://app?vid=2087d413-f15e-4f97-98f2-ae1153fc5db4","ios":"levelo://app?vid=2087d413-f15e-4f97-98f2-ae1153fc5db4"},"vehicle_type_id":"4","last_reported":1775053447,"current_range_meters":4000,"station_id":"ce4bhhh2rcd13ifvqfk0","pricing_plan_id":"cebpf4jnsgd1na2vs0mg"},{"bike_id":"514a159e-fa1b-4003-8377-7e04e842f599","system_id":"levelo_inurba_marseille","lat":43.290283,"lon":5.386497,"is_reserved":false,"is_disabled":false,"rental_uris":{"android":"levelo://app?vid=514a159e-fa1b-4003-8377-7e04e842f599","ios":"levelo://app?vid=514a159e-fa1b-4003-8377-7e04e842f599"},"vehicle_type_id":"4","last_reported":1775053447,"current_range_meters":4000,"station_id":"ce4bh4p2rcd13ifvqe0g","pricing_plan_id":"cebpf4jnsgd1na2vs0mg"},{"bike_id":"08e71c86-43a8-4902-86cf-de3f77db33e6","system_id":"levelo_inurba_marseille","lat":43.29691,"lon":5.44437,"is_reserved":false,"is_disabled":false,"rental_uris":{"android":"levelo://app?vid=08e71c86-43a8-4902-86cf-de3f77db33e6","ios":"levelo://app?vid=08e71c86-43a8-4902-86cf-de3f77db33e6"},"vehicle_type_id":"4","last_reported":1775053447,"current_range_meters":4000,"station_id":"","pricing_plan_id":"cebpf4jnsgd1na2vs0mg"},{"bike_id":"0ebcc71a-1070-45ee-8791-56ad76c8f07f","system_id":"levelo_inurba_marseille","lat":43.26392,"lon":5.41041,"is_reserved":false,"is_disabled":false,"rental_uris":{"android":"levelo://app?vid=0ebcc71a-1070-45ee-8791-56ad76c8f07f","ios":"levelo://app?vid=0ebcc71a-1070-45ee-8791-56ad76c8f07f"},"vehicle_type_id":"4","last_reported":1775053447,"current_range_meters":4000,"station_id":"st_d4e5ca6na9uc73bfl5fg","pricing_plan_id":"cebpf4jnsgd1na2vs0mg"},{"bike_id":"75dd533e-dd26-413b-bee9-3aeb1cc71e4b","system_id":"levelo_inurba_marseille","lat":43.29804,"lon":5.38107,"is_reserved":false,"is_disabled":false,"rental_uris":{"android":"levelo://app?vid=75dd533e-dd26-413b-bee9-3aeb1cc71e4b","ios":"levelo://app?vid=75dd533e-dd26-413b-bee9-3aeb1cc71e4b"},"vehicle_type_id":"4","last_reported":1775053447,"current_range_meters":4000,"station_id":"ce4bgip2rcd13ifvqbb0","pricing_plan_id":"cebpf4jnsgd1na2vs0mg"},{"bike_id":"aaabb18d-dbda-45ab-9df7-8aca627135af","system_id":"levelo_inurba_marseille","lat":43.287061,"lon":5.373845,"is_reserved":false,"is_disabled":false,"rental_uris":{"android":"levelo://app?vid=aaabb18d-dbda-45ab-9df7-8aca627135af","ios":"levelo://app?vid=aaabb18d-dbda-45ab-9df7-8aca627135af"},"vehicle_type_id":"4","last_reported":1775053447,"current_range_meters":4000,"station_id":"ce4bh3p2rcd13ifvqdq0","pricing_plan_id":"cebpf4jnsgd1na2vs0mg"},{"bike_id":"b1587879-15da-4841-9c39-70b45e15f4c0","system_id":"levelo_inurba_marseille","lat":43.33162,"lon":5.37678,"is_reserved":false,"is_disabled":false,"rental_uris":{"android":"levelo://app?vid=b1587879-15da-4841-9c39-70b45e15f4c0","ios":"levelo://app?vid=b1587879-15da-4841-9c39-70b45e15f4c0"},"vehicle_type_id":"4","last_reported":1775053447,"current_range_meters":4000,"station_id":"st_d46cu089ee8s73dldbu0","pricing_plan_id":"cebpf4jnsgd1na2vs0mg"},{"bike_id":"43e4bb96-0cd3-4e42-baf5-dd0ee842f69a","system_id":"levelo_inurba_marseille","lat":43.23775,"lon":5.36634,"is_reserved":false,"is_disabled":false,"rental_uris":{"android":"levelo://app?vid=43e4bb96-0cd3-4e42-baf5-dd0ee842f69a","ios":"levelo://app?vid=43e4bb96-0cd3-4e42-baf5-dd0ee842f69a"},"vehicle_type_id":"4","last_reported":1775053447,"current_range_meters":4000,"station_id":"st_d3nk18o9ro0c73en2l3g","pricing_plan_id":"cebpf4jnsgd1na2vs0mg"},{"bike_id":"37eb3fab-ef0c-4540-827a-5365245b083e","system_id":"levelo_inurba_marseille","lat":43.24944,"lon":5.40491,"is_reserved":false,"is_disabled":false,"rental_uris":{"android":"levelo://app?vid=37eb3fab-ef0c-4540-827a-5365245b083e","ios":"levelo://app?vid=37eb3fab-ef0c-4540-827a-5365245b083e"},"vehicle_type_id":"4","last_reported":1775053447,"current_range_meters":4000,"station_id":"st_d2ngiaodas8pm72gd1h0","pricing_plan_id":"cebpf4jnsgd1na2vs0mg"},{"bike_id":"937ba182-457f-4d6b-9d00-86ee15b00067","system_id":"levelo_inurba_marseille","lat":43.30647,"lon":5.40068,"is_reserved":false,"is_disabled":false,"rental_uris":{"android":"levelo://app?vid=937ba182-457f-4d6b-9d00-86ee15b00067","ios":"levelo://app?vid=937ba182-457f-4d6b-9d00-86ee15b00067"},"vehicle_type_id":"4","last_reported":1775053447,"current_range_meters":4400,"station_id":"ce4bh112rcd13ifvqda0","pricing_plan_id":"cebpf4jnsgd1na2vs0mg"},{"bike_id":"9c014c21-0814-46e2-9079-4ed86b4000e6","system_id":"levelo_inurba_marseille","lat":43.23787,"lon":5.36636,"is_reserved":false,"is_disabled":false,"rental_uris":{"android":"levelo://app?vid=9c014c21-0814-46e2-9079-4ed86b4000e6","ios":"levelo://app?vid=9c014c21-0814-46e2-9079-4ed86b4000e6"},"vehicle_type_id":"4","last_reported":1775053447,"current_range_meters":4400,"station_id":"st_d3nk18o9ro0c73en2l3g","pricing_plan_id":"cebpf4jnsgd1na2vs0mg"},{"bike_id":"76cb063d-d528-4b85-bd1f-92cb87912c86","system_id":"levelo_inurba_marseille","lat":43.28366,"lon":5.39373,"is_reserved":false,"is_disabled":false,"rental_uris":{"android":"levelo://app?vid=76cb063d-d528-4b85-bd1f-92cb87912c86","ios":"levelo://app?vid=76cb063d-d528-4b85-bd1f-92cb87912c86"},"vehicle_type_id":"4","last_reported":1775053447,"current_range_meters":4400,"station_id":"","pricing_plan_id":"cebpf4jnsgd1na2vs0mg"},{"bike_id":"10143625-4f1f-4b98-a23a-f0e119d830ff","system_id":"levelo_inurba_marseille","lat":43.24815,"lon":5.37479,"is_reserved":false,"is_disabled":false,"rental_uris":{"android":"levelo://app?vid=10143625-4f1f-4b98-a23a-f0e119d830ff","ios":"levelo://app?vid=10143625-4f1f-4b98-a23a-f0e119d830ff"},"vehicle_type_id":"4","last_reported":1775053447,"current_range_meters":4400,"station_id":"ce4bhgh2rcd13ifvqfb0","pricing_plan_id":"cebpf4jnsgd1na2vs0mg"},{"bike_id":"b1e9f130-d8ae-4858-bc10-b368a2ad0d85","system_id":"levelo_inurba_marseille","lat":43.28493,"lon":5.48394,"is_reserved":false,"is_disabled":false,"rental_uris":{"android":"levelo://app?vid=b1e9f130-d8ae-4858-bc10-b368a2ad0d85","ios":"levelo://app?vid=b1e9f130-d8ae-4858-bc10-b368a2ad0d85"},"vehicle_type_id":"4","last_reported":1775053447,"current_range_meters":4400,"station_id":"","pricing_plan_id":"cebpf4jnsgd1na2vs0mg"},{"bike_id":"a5b21948-fcb5-4ade-bce3-37cd3c403d4c","system_id":"levelo_inurba_marseille","lat":43.23062,"lon":5.35482,"is_reserved":false,"is_disabled":false,"rental_uris":{"android":"levelo://app?vid=a5b21948-fcb5-4ade-bce3-37cd3c403d4c","ios":"levelo://app?vid=a5b21948-fcb5-4ade-bce3-37cd3c403d4c"},"vehicle_type_id":"4","last_reported":1775053447,"current_range_meters":4400,"station_id":"cpo3342slgdg3j2ifvpg","pricing_plan_id":"cebpf4jnsgd1na2vs0mg"},{"bike_id":"6ecded90-e08a-42ec-a535-e9f406d9d027","system_id":"levelo_inurba_marseille","lat":43.2454,"lon":5.3952,"is_reserved":false,"is_disabled":false,"rental_uris":{"android":"levelo://app?vid=6ecded90-e08a-42ec-a535-e9f406d9d027","ios":"levelo://app?vid=6ecded90-e08a-42ec-a535-e9f406d9d027"},"vehicle_type_id":"4","last_reported":1775053447,"current_range_meters":4400,"station_id":"ce4bhlp2rcd13ifvqgjg","pricing_plan_id":"cebpf4jnsgd1na2vs0mg"},{"bike_id":"fdd9208f-bcc7-410b-aa42-618c2e7dea0c","system_id":"levelo_inurba_marseille","lat":43.30201,"lon":5.39466,"is_reserved":false,"is_disabled":false,"rental_uris":{"android":"levelo://app?vid=fdd9208f-bcc7-410b-aa42-618c2e7dea0c","ios":"levelo://app?vid=fdd9208f-bcc7-410b-aa42-618c2e7dea0c"},"vehicle_type_id":"4","last_reported":1775053447,"current_range_meters":4400,"station_id":"ce4bh0p2rcd13ifvqd70","pricing_plan_id":"cebpf4jnsgd1na2vs0mg"},{"bike_id":"b2752c14-57b1-492e-91e5-68b726022ce6","system_id":"levelo_inurba_marseille","lat":43.32102,"lon":5.36755,"is_reserved":false,"is_disabled":false,"rental_uris":{"android":"levelo://app?vid=b2752c14-57b1-492e-91e5-68b726022ce6","ios":"levelo://app?vid=b2752c14-57b1-492e-91e5-68b726022ce6"},"vehicle_type_id":"4","last_reported":1775053447,"current_range_meters":4400,"station_id":"ce4bhrh2rcd13ifvqhug","pricing_plan_id":"cebpf4jnsgd1na2vs0mg"},{"bike_id":"ea3a296b-a9b2-4e1a-8c5c-2dcc4b99876f","system_id":"levelo_inurba_marseille","lat":43.23964,"lon":5.36625,"is_reserved":false,"is_disabled":false,"rental_uris":{"android":"levelo://app?vid=ea3a296b-a9b2-4e1a-8c5c-2dcc4b99876f","ios":"levelo://app?vid=ea3a296b-a9b2-4e1a-8c5c-2dcc4b99876f"},"vehicle_type_id":"4","last_reported":1775053447,"current_range_meters":4400,"station_id":"ce4bhi12rcd13ifvqfp0","pricing_plan_id":"cebpf4jnsgd1na2vs0mg"},{"bike_id":"43ecb730-4f2d-42f6-b4b6-05ed9bc91d2f","system_id":"levelo_inurba_marseille","lat":43.24405,"lon":5.37015,"is_reserved":false,"is_disabled":false,"rental_uris":{"android":"levelo://app?vid=43ecb730-4f2d-42f6-b4b6-05ed9bc91d2f","ios":"levelo://app?vid=43ecb730-4f2d-42f6-b4b6-05ed9bc91d2f"},"vehicle_type_id":"4","last_reported":1775053447,"current_range_meters":4400,"station_id":"","pricing_plan_id":"cebpf4jnsgd1na2vs0mg"},{"bike_id":"2e501741-9929-4ddd-905c-c53c23abb93c","system_id":"levelo_inurba_marseille","lat":43.29527,"lon":5.39022,"is_reserved":false,"is_disabled":true,"rental_uris":{"android":"levelo://app?vid=2e501741-9929-4ddd-905c-c53c23abb93c","ios":"levelo://app?vid=2e501741-9929-4ddd-905c-c53c23abb93c"},"vehicle_type_id":"4","last_reported":1775053447,"current_range_meters":4400,"station_id":"ce4bh3p2rcd13ifvqdp0","pricing_plan_id":"cebpf4jnsgd1na2vs0mg"},{"bike_id":"f16b5cd3-bbc5-4be5-8171-95842c0cc8e5","system_id":"levelo_inurba_marseille","lat":43.26688,"lon":5.38275,"is_reserved":false,"is_disabled":false,"rental_uris":{"android":"levelo://app?vid=f16b5cd3-bbc5-4be5-8171-95842c0cc8e5","ios":"levelo://app?vid=f16b5cd3-bbc5-4be5-8171-95842c0cc8e5"},"vehicle_type_id":"4","last_reported":1775053447,"current_range_meters":4400,"station_id":"ce4bhg92rcd13ifvqf90","pricing_plan_id":"cebpf4jnsgd1na2vs0mg"},{"bike_id":"5b71f1ba-dd1f-43f1-b6b4-2abe86527623","system_id":"levelo_inurba_marseille","lat":43.29541,"lon":5.37498,"is_reserved":false,"is_disabled":false,"rental_uris":{"android":"levelo://app?vid=5b71f1ba-dd1f-43f1-b6b4-2abe86527623","ios":"levelo://app?vid=5b71f1ba-dd1f-43f1-b6b4-2abe86527623"},"vehicle_type_id":"4","last_reported":1775053447,"current_range_meters":4400,"station_id":"ce4bgkp2rcd13ifvqbmg","pricing_plan_id":"cebpf4jnsgd1na2vs0mg"},{"bike_id":"bb0d11db-19ae-4f1c-8146-45d8cf0530f7","system_id":"levelo_inurba_marseille","lat":43.337444,"lon":5.374475,"is_reserved":false,"is_disabled":true,"rental_uris":{"android":"levelo://app?vid=bb0d11db-19ae-4f1c-8146-45d8cf0530f7","ios":"levelo://app?vid=bb0d11db-19ae-4f1c-8146-45d8cf0530f7"},"vehicle_type_id":"4","last_reported":1775053447,"current_range_meters":4400,"station_id":"","pricing_plan_id":"cebpf4jnsgd1na2vs0mg"},{"bike_id":"ab037882-3a5b-44be-a566-b0df722a8623","system_id":"levelo_inurba_marseille","lat":43.29078,"lon":5.37163,"is_reserved":false,"is_disabled":false,"rental_uris":{"android":"levelo://app?vid=ab037882-3a5b-44be-a566-b0df722a8623","ios":"levelo://app?vid=ab037882-3a5b-44be-a566-b0df722a8623"},"vehicle_type_id":"4","last_reported":1775053447,"current_range_meters":4400,"station_id":"ce4bh5p2rcd13ifvqe4g","pricing_plan_id":"cebpf4jnsgd1na2vs0mg"},{"bike_id":"db6617ff-b229-43d1-b211-6c6791a78651","system_id":"levelo_inurba_marseille","lat":43.232606,"lon":5.353942,"is_reserved":false,"is_disabled":false,"rental_uris":{"android":"levelo://app?vid=db6617ff-b229-43d1-b211-6c6791a78651","ios":"levelo://app?vid=db6617ff-b229-43d1-b211-6c6791a78651"},"vehicle_type_id":"4","last_reported":1775053447,"current_range_meters":4400,"station_id":"ce4bhu92rcd13ifvqi70","pricing_plan_id":"cebpf4jnsgd1na2vs0mg"},{"bike_id":"dfb946ce-fedb-4e12-8519-cb8fb15a5c14","system_id":"levelo_inurba_marseille","lat":43.24173,"lon":5.36404,"is_reserved":false,"is_disabled":false,"rental_uris":{"android":"levelo://app?vid=dfb946ce-fedb-4e12-8519-cb8fb15a5c14","ios":"levelo://app?vid=dfb946ce-fedb-4e12-8519-cb8fb15a5c14"},"vehicle_type_id":"4","last_reported":1775053447,"current_range_meters":4800,"station_id":"cpo36qri1sfpv3e86is0","pricing_plan_id":"cebpf4jnsgd1na2vs0mg"},{"bike_id":"a20f850c-d4ca-4157-bd3f-18fda064d36f","system_id":"levelo_inurba_marseille","lat":43.29529,"lon":5.38657,"is_reserved":false,"is_disabled":false,"rental_uris":{"android":"levelo://app?vid=a20f850c-d4ca-4157-bd3f-18fda064d36f","ios":"levelo://app?vid=a20f850c-d4ca-4157-bd3f-18fda064d36f"},"vehicle_type_id":"4","last_reported":1775053447,"current_range_meters":4800,"station_id":"","pricing_plan_id":"cebpf4jnsgd1na2vs0mg"},{"bike_id":"54b32ec7-ddfd-41e6-ae23-087da91e8924","system_id":"levelo_inurba_marseille","lat":43.29885,"lon":5.4365,"is_reserved":false,"is_disabled":false,"rental_uris":{"android":"levelo://app?vid=54b32ec7-ddfd-41e6-ae23-087da91e8924","ios":"levelo://app?vid=54b32ec7-ddfd-41e6-ae23-087da91e8924"},"vehicle_type_id":"4","last_reported":1775053447,"current_range_meters":4800,"station_id":"ce4bhpp2rcd13ifvqhfg","pricing_plan_id":"cebpf4jnsgd1na2vs0mg"},{"bike_id":"166aab49-0c4b-4035-9d1f-8e2a71ed121a","system_id":"levelo_inurba_marseille","lat":43.30427,"lon":5.41276,"is_reserved":false,"is_disabled":false,"rental_uris":{"android":"levelo://app?vid=166aab49-0c4b-4035-9d1f-8e2a71ed121a","ios":"levelo://app?vid=166aab49-0c4b-4035-9d1f-8e2a71ed121a"},"vehicle_type_id":"4","last_reported":1775053447,"current_range_meters":4800,"station_id":"ce4bhop2rcd13ifvqh8g","pricing_plan_id":"cebpf4jnsgd1na2vs0mg"},{"bike_id":"38fa3918-21fd-4e4d-a1bb-2cb71f51b7fa","system_id":"levelo_inurba_marseille","lat":43.30155,"lon":5.38089,"is_reserved":false,"is_disabled":false,"rental_uris":{"android":"levelo://app?vid=38fa3918-21fd-4e4d-a1bb-2cb71f51b7fa","ios":"levelo://app?vid=38fa3918-21fd-4e4d-a1bb-2cb71f51b7fa"},"vehicle_type_id":"4","last_reported":1775053447,"current_range_meters":4800,"station_id":"ce4bgjp2rcd13ifvqbh0","pricing_plan_id":"cebpf4jnsgd1na2vs0mg"},{"bike_id":"5a354721-9725-4059-b6ca-89e0df8dd9e6","system_id":"levelo_inurba_marseille","lat":43.290419,"lon":5.399652,"is_reserved":false,"is_disabled":false,"rental_uris":{"android":"levelo://app?vid=5a354721-9725-4059-b6ca-89e0df8dd9e6","ios":"levelo://app?vid=5a354721-9725-4059-b6ca-89e0df8dd9e6"},"vehicle_type_id":"4","last_reported":1775053447,"current_range_meters":4800,"station_id":"ce4bh392rcd13ifvqdm0","pricing_plan_id":"cebpf4jnsgd1na2vs0mg"},{"bike_id":"435393ff-9e8e-4fa2-82a4-6ce12bbccbed","system_id":"levelo_inurba_marseille","lat":43.28483,"lon":5.484,"is_reserved":false,"is_disabled":false,"rental_uris":{"android":"levelo://app?vid=435393ff-9e8e-4fa2-82a4-6ce12bbccbed","ios":"levelo://app?vid=435393ff-9e8e-4fa2-82a4-6ce12bbccbed"},"vehicle_type_id":"4","last_reported":1775053447,"current_range_meters":4800,"station_id":"st_d3svhcjqgbts73a3dn0g","pricing_plan_id":"cebpf4jnsgd1na2vs0mg"},{"bike_id":"dd0c2c54-978e-49b8-89a3-9926153b6f8e","system_id":"levelo_inurba_marseille","lat":43.29908,"lon":5.43677,"is_reserved":false,"is_disabled":false,"rental_uris":{"android":"levelo://app?vid=dd0c2c54-978e-49b8-89a3-9926153b6f8e","ios":"levelo://app?vid=dd0c2c54-978e-49b8-89a3-9926153b6f8e"},"vehicle_type_id":"4","last_reported":1775053447,"current_range_meters":4800,"station_id":"ce4bhpp2rcd13ifvqhfg","pricing_plan_id":"cebpf4jnsgd1na2vs0mg"},{"bike_id":"1f6bd616-f380-4630-a66b-f980a33e8714","system_id":"levelo_inurba_marseille","lat":43.31357,"lon":5.36686,"is_reserved":false,"is_disabled":false,"rental_uris":{"android":"levelo://app?vid=1f6bd616-f380-4630-a66b-f980a33e8714","ios":"levelo://app?vid=1f6bd616-f380-4630-a66b-f980a33e8714"},"vehicle_type_id":"4","last_reported":1775053447,"current_range_meters":4800,"station_id":"ce4bgr92rcd13ifvqc6g","pricing_plan_id":"cebpf4jnsgd1na2vs0mg"},{"bike_id":"3419a408-ab31-43ef-b75c-92281255117d","system_id":"levelo_inurba_marseille","lat":43.26557,"lon":5.37271,"is_reserved":false,"is_disabled":false,"rental_uris":{"android":"levelo://app?vid=3419a408-ab31-43ef-b75c-92281255117d","ios":"levelo://app?vid=3419a408-ab31-43ef-b75c-92281255117d"},"vehicle_type_id":"4","last_reported":1775053447,"current_range_meters":4800,"station_id":"ce4bhg12rcd13ifvqf70","pricing_plan_id":"cebpf4jnsgd1na2vs0mg"},{"bike_id":"cf450e1b-8aa1-4d78-ac0a-8df926f4f821","system_id":"levelo_inurba_marseille","lat":43.24397,"lon":5.3705,"is_reserved":false,"is_disabled":false,"rental_uris":{"android":"levelo://app?vid=cf450e1b-8aa1-4d78-ac0a-8df926f4f821","ios":"levelo://app?vid=cf450e1b-8aa1-4d78-ac0a-8df926f4f821"},"vehicle_type_id":"4","last_reported":1775053447,"current_range_meters":4800,"station_id":"ce4bhhh2rcd13ifvqfk0","pricing_plan_id":"cebpf4jnsgd1na2vs0mg"},{"bike_id":"e19af7f2-d57f-45fe-90a9-c229c5650634","system_id":"levelo_inurba_marseille","lat":43.31358,"lon":5.38497,"is_reserved":false,"is_disabled":false,"rental_uris":{"android":"levelo://app?vid=e19af7f2-d57f-45fe-90a9-c229c5650634","ios":"levelo://app?vid=e19af7f2-d57f-45fe-90a9-c229c5650634"},"vehicle_type_id":"4","last_reported":1775053447,"current_range_meters":4800,"station_id":"ce4bgt92rcd13ifvqcf0","pricing_plan_id":"cebpf4jnsgd1na2vs0mg"},{"bike_id":"2472a388-2ba6-406a-93b5-09de3d970e91","system_id":"levelo_inurba_marseille","lat":43.24389,"lon":5.37051,"is_reserved":false,"is_disabled":false,"rental_uris":{"android":"levelo://app?vid=2472a388-2ba6-406a-93b5-09de3d970e91","ios":"levelo://app?vid=2472a388-2ba6-406a-93b5-09de3d970e91"},"vehicle_type_id":"4","last_reported":1775053447,"current_range_meters":4800,"station_id":"ce4bhhh2rcd13ifvqfk0","pricing_plan_id":"cebpf4jnsgd1na2vs0mg"},{"bike_id":"ae252984-33f9-4582-8e8a-f420930221a8","system_id":"levelo_inurba_marseille","lat":43.29533,"lon":5.38656,"is_reserved":false,"is_disabled":false,"rental_uris":{"android":"levelo://app?vid=ae252984-33f9-4582-8e8a-f420930221a8","ios":"levelo://app?vid=ae252984-33f9-4582-8e8a-f420930221a8"},"vehicle_type_id":"4","last_reported":1775053447,"current_range_meters":4800,"station_id":"","pricing_plan_id":"cebpf4jnsgd1na2vs0mg"},{"bike_id":"82ef25fe-ced1-4b2f-9f5f-f3e9366b70f0","system_id":"levelo_inurba_marseille","lat":43.28479,"lon":5.48398,"is_reserved":false,"is_disabled":false,"rental_uris":{"android":"levelo://app?vid=82ef25fe-ced1-4b2f-9f5f-f3e9366b70f0","ios":"levelo://app?vid=82ef25fe-ced1-4b2f-9f5f-f3e9366b70f0"},"vehicle_type_id":"4","last_reported":1775053447,"current_range_meters":4800,"station_id":"st_d3svhcjqgbts73a3dn0g","pricing_plan_id":"cebpf4jnsgd1na2vs0mg"},{"bike_id":"fbb75834-f22e-4b0c-a13f-b3782403aa38","system_id":"levelo_inurba_marseille","lat":43.23953,"lon":5.36631,"is_reserved":false,"is_disabled":false,"rental_uris":{"android":"levelo://app?vid=fbb75834-f22e-4b0c-a13f-b3782403aa38","ios":"levelo://app?vid=fbb75834-f22e-4b0c-a13f-b3782403aa38"},"vehicle_type_id":"4","last_reported":1775053447,"current_range_meters":4800,"station_id":"ce4bhi12rcd13ifvqfp0","pricing_plan_id":"cebpf4jnsgd1na2vs0mg"},{"bike_id":"44f9d2b5-878b-45f7-83f0-9fe3de8ddc6b","system_id":"levelo_inurba_marseille","lat":43.30653,"lon":5.36587,"is_reserved":false,"is_disabled":false,"rental_uris":{"android":"levelo://app?vid=44f9d2b5-878b-45f7-83f0-9fe3de8ddc6b","ios":"levelo://app?vid=44f9d2b5-878b-45f7-83f0-9fe3de8ddc6b"},"vehicle_type_id":"4","last_reported":1775053447,"current_range_meters":4800,"station_id":"","pricing_plan_id":"cebpf4jnsgd1na2vs0mg"},{"bike_id":"267eac66-8fd1-470b-8537-e830c9435859","system_id":"levelo_inurba_marseille","lat":43.31121,"lon":5.37757,"is_reserved":false,"is_disabled":false,"rental_uris":{"android":"levelo://app?vid=267eac66-8fd1-470b-8537-e830c9435859","ios":"levelo://app?vid=267eac66-8fd1-470b-8537-e830c9435859"},"vehicle_type_id":"4","last_reported":1775053447,"current_range_meters":4800,"station_id":"ce4bgt92rcd13ifvqcg0","pricing_plan_id":"cebpf4jnsgd1na2vs0mg"},{"bike_id":"680327fb-1e0f-4692-b498-84cf2d0547dc","system_id":"levelo_inurba_marseille","lat":43.29027,"lon":5.38642,"is_reserved":false,"is_disabled":false,"rental_uris":{"android":"levelo://app?vid=680327fb-1e0f-4692-b498-84cf2d0547dc","ios":"levelo://app?vid=680327fb-1e0f-4692-b498-84cf2d0547dc"},"vehicle_type_id":"4","last_reported":1775053447,"current_range_meters":4800,"station_id":"ce4bh4p2rcd13ifvqe0g","pricing_plan_id":"cebpf4jnsgd1na2vs0mg"},{"bike_id":"41f2d05d-5de5-4240-8492-08072a8e89cb","system_id":"levelo_inurba_marseille","lat":43.26566,"lon":5.37284,"is_reserved":false,"is_disabled":false,"rental_uris":{"android":"levelo://app?vid=41f2d05d-5de5-4240-8492-08072a8e89cb","ios":"levelo://app?vid=41f2d05d-5de5-4240-8492-08072a8e89cb"},"vehicle_type_id":"4","last_reported":1775053447,"current_range_meters":4800,"station_id":"ce4bhg12rcd13ifvqf70","pricing_plan_id":"cebpf4jnsgd1na2vs0mg"},{"bike_id":"b1d02504-2c4f-47d1-9d0a-aa3599012e9a","system_id":"levelo_inurba_marseille","lat":43.26817,"lon":5.40241,"is_reserved":false,"is_disabled":false,"rental_uris":{"android":"levelo://app?vid=b1d02504-2c4f-47d1-9d0a-aa3599012e9a","ios":"levelo://app?vid=b1d02504-2c4f-47d1-9d0a-aa3599012e9a"},"vehicle_type_id":"4","last_reported":1775053447,"current_range_meters":4800,"station_id":"ce501612rcd8frsf0b60","pricing_plan_id":"cebpf4jnsgd1na2vs0mg"},{"bike_id":"2143be35-497d-4c7b-9f85-3e781cd61463","system_id":"levelo_inurba_marseille","lat":43.29894,"lon":5.43669,"is_reserved":false,"is_disabled":false,"rental_uris":{"android":"levelo://app?vid=2143be35-497d-4c7b-9f85-3e781cd61463","ios":"levelo://app?vid=2143be35-497d-4c7b-9f85-3e781cd61463"},"vehicle_type_id":"4","last_reported":1775053447,"current_range_meters":4800,"station_id":"ce4bhpp2rcd13ifvqhfg","pricing_plan_id":"cebpf4jnsgd1na2vs0mg"},{"bike_id":"b30474c6-10d5-47a6-9acc-a4af281f9552","system_id":"levelo_inurba_marseille","lat":43.24413,"lon":5.37048,"is_reserved":false,"is_disabled":false,"rental_uris":{"android":"levelo://app?vid=b30474c6-10d5-47a6-9acc-a4af281f9552","ios":"levelo://app?vid=b30474c6-10d5-47a6-9acc-a4af281f9552"},"vehicle_type_id":"4","last_reported":1775053447,"current_range_meters":4800,"station_id":"ce4bhhh2rcd13ifvqfk0","pricing_plan_id":"cebpf4jnsgd1na2vs0mg"},{"bike_id":"db4060f5-2554-4632-b06d-47b3307eff07","system_id":"levelo_inurba_marseille","lat":43.30773,"lon":5.37643,"is_reserved":false,"is_disabled":false,"rental_uris":{"android":"levelo://app?vid=db4060f5-2554-4632-b06d-47b3307eff07","ios":"levelo://app?vid=db4060f5-2554-4632-b06d-47b3307eff07"},"vehicle_type_id":"4","last_reported":1775053447,"current_range_meters":4800,"station_id":"ce4bgv92rcd13ifvqcq0","pricing_plan_id":"cebpf4jnsgd1na2vs0mg"},{"bike_id":"6ec1889d-c43d-42d7-9ebb-6d09626d1897","system_id":"levelo_inurba_marseille","lat":43.24654,"lon":5.38889,"is_reserved":false,"is_disabled":false,"rental_uris":{"android":"levelo://app?vid=6ec1889d-c43d-42d7-9ebb-6d09626d1897","ios":"levelo://app?vid=6ec1889d-c43d-42d7-9ebb-6d09626d1897"},"vehicle_type_id":"4","last_reported":1775053447,"current_range_meters":5600,"station_id":"ce4bhg12rcd13ifvqf60","pricing_plan_id":"cebpf4jnsgd1na2vs0mg"},{"bike_id":"8429f855-c4a0-4803-9ce7-0d1fb93dbfe8","system_id":"levelo_inurba_marseille","lat":43.28553,"lon":5.48337,"is_reserved":false,"is_disabled":false,"rental_uris":{"android":"levelo://app?vid=8429f855-c4a0-4803-9ce7-0d1fb93dbfe8","ios":"levelo://app?vid=8429f855-c4a0-4803-9ce7-0d1fb93dbfe8"},"vehicle_type_id":"4","last_reported":1775053447,"current_range_meters":5600,"station_id":"","pricing_plan_id":"cebpf4jnsgd1na2vs0mg"},{"bike_id":"97911566-b39d-4772-9786-37508c49e45f","system_id":"levelo_inurba_marseille","lat":43.22556,"lon":5.41623,"is_reserved":false,"is_disabled":false,"rental_uris":{"android":"levelo://app?vid=97911566-b39d-4772-9786-37508c49e45f","ios":"levelo://app?vid=97911566-b39d-4772-9786-37508c49e45f"},"vehicle_type_id":"4","last_reported":1775053447,"current_range_meters":5600,"station_id":"st_d2o4gvlbi1j2169b742g","pricing_plan_id":"cebpf4jnsgd1na2vs0mg"},{"bike_id":"920edf2e-1b58-4176-9c0f-fc609deb1ed3","system_id":"levelo_inurba_marseille","lat":43.24159,"lon":5.364,"is_reserved":false,"is_disabled":false,"rental_uris":{"android":"levelo://app?vid=920edf2e-1b58-4176-9c0f-fc609deb1ed3","ios":"levelo://app?vid=920edf2e-1b58-4176-9c0f-fc609deb1ed3"},"vehicle_type_id":"4","last_reported":1775053447,"current_range_meters":5600,"station_id":"cpo36qri1sfpv3e86is0","pricing_plan_id":"cebpf4jnsgd1na2vs0mg"},{"bike_id":"a839aac3-1b3b-4d34-b97c-4ea5e42ef15e","system_id":"levelo_inurba_marseille","lat":43.28712,"lon":5.37922,"is_reserved":false,"is_disabled":false,"rental_uris":{"android":"levelo://app?vid=a839aac3-1b3b-4d34-b97c-4ea5e42ef15e","ios":"levelo://app?vid=a839aac3-1b3b-4d34-b97c-4ea5e42ef15e"},"vehicle_type_id":"4","last_reported":1775053447,"current_range_meters":5600,"station_id":"ce4bh9p2rcd13ifvqec0","pricing_plan_id":"cebpf4jnsgd1na2vs0mg"},{"bike_id":"58f34c6b-a86e-4e7a-8bcc-4b268f42924a","system_id":"levelo_inurba_marseille","lat":43.3226,"lon":5.37143,"is_reserved":false,"is_disabled":false,"rental_uris":{"android":"levelo://app?vid=58f34c6b-a86e-4e7a-8bcc-4b268f42924a","ios":"levelo://app?vid=58f34c6b-a86e-4e7a-8bcc-4b268f42924a"},"vehicle_type_id":"4","last_reported":1775053447,"current_range_meters":5600,"station_id":"","pricing_plan_id":"cebpf4jnsgd1na2vs0mg"},{"bike_id":"437e69ca-aec6-4e88-bbcd-4cfa901819a2","system_id":"levelo_inurba_marseille","lat":43.25008,"lon":5.38905,"is_reserved":false,"is_disabled":false,"rental_uris":{"android":"levelo://app?vid=437e69ca-aec6-4e88-bbcd-4cfa901819a2","ios":"levelo://app?vid=437e69ca-aec6-4e88-bbcd-4cfa901819a2"},"vehicle_type_id":"4","last_reported":1775053447,"current_range_meters":5600,"station_id":"ce4bhgp2rcd13ifvqfd0","pricing_plan_id":"cebpf4jnsgd1na2vs0mg"},{"bike_id":"053836a3-5f71-4d15-a156-ebbaaa91a436","system_id":"levelo_inurba_marseille","lat":43.312219,"lon":5.368487,"is_reserved":false,"is_disabled":false,"rental_uris":{"android":"levelo://app?vid=053836a3-5f71-4d15-a156-ebbaaa91a436","ios":"levelo://app?vid=053836a3-5f71-4d15-a156-ebbaaa91a436"},"vehicle_type_id":"4","last_reported":1775053447,"current_range_meters":5600,"station_id":"ce4bgl92rcd13ifvqbq0","pricing_plan_id":"cebpf4jnsgd1na2vs0mg"},{"bike_id":"210ab8bc-ca83-4666-9c63-3fe5db44eaa0","system_id":"levelo_inurba_marseille","lat":43.27376,"lon":5.36251,"is_reserved":false,"is_disabled":false,"rental_uris":{"android":"levelo://app?vid=210ab8bc-ca83-4666-9c63-3fe5db44eaa0","ios":"levelo://app?vid=210ab8bc-ca83-4666-9c63-3fe5db44eaa0"},"vehicle_type_id":"4","last_reported":1775053447,"current_range_meters":5600,"station_id":"ce4bhbh2rcd13ifvqeo0","pricing_plan_id":"cebpf4jnsgd1na2vs0mg"},{"bike_id":"72509681-52aa-4782-9de0-820bb878387d","system_id":"levelo_inurba_marseille","lat":43.22564,"lon":5.41633,"is_reserved":false,"is_disabled":false,"rental_uris":{"android":"levelo://app?vid=72509681-52aa-4782-9de0-820bb878387d","ios":"levelo://app?vid=72509681-52aa-4782-9de0-820bb878387d"},"vehicle_type_id":"4","last_reported":1775053447,"current_range_meters":5600,"station_id":"st_d2o4gvlbi1j2169b742g","pricing_plan_id":"cebpf4jnsgd1na2vs0mg"},{"bike_id":"01dd1b0a-d1c5-4c11-846c-483bf7b69f14","system_id":"levelo_inurba_marseille","lat":43.30128,"lon":5.38782,"is_reserved":false,"is_disabled":false,"rental_uris":{"android":"levelo://app?vid=01dd1b0a-d1c5-4c11-846c-483bf7b69f14","ios":"levelo://app?vid=01dd1b0a-d1c5-4c11-846c-483bf7b69f14"},"vehicle_type_id":"4","last_reported":1775053447,"current_range_meters":5600,"station_id":"ce4bghh2rcd13ifvqb60","pricing_plan_id":"cebpf4jnsgd1na2vs0mg"},{"bike_id":"96f8f60c-9345-442e-8427-a977368b0ef0","system_id":"levelo_inurba_marseille","lat":43.27367,"lon":5.36251,"is_reserved":false,"is_disabled":false,"rental_uris":{"android":"levelo://app?vid=96f8f60c-9345-442e-8427-a977368b0ef0","ios":"levelo://app?vid=96f8f60c-9345-442e-8427-a977368b0ef0"},"vehicle_type_id":"4","last_reported":1775053447,"current_range_meters":5600,"station_id":"ce4bhbh2rcd13ifvqeo0","pricing_plan_id":"cebpf4jnsgd1na2vs0mg"},{"bike_id":"4a5c62a4-1fd5-4528-96f1-bf30177843eb","system_id":"levelo_inurba_marseille","lat":43.2901,"lon":5.35603,"is_reserved":false,"is_disabled":false,"rental_uris":{"android":"levelo://app?vid=4a5c62a4-1fd5-4528-96f1-bf30177843eb","ios":"levelo://app?vid=4a5c62a4-1fd5-4528-96f1-bf30177843eb"},"vehicle_type_id":"4","last_reported":1775053447,"current_range_meters":5600,"station_id":"ce4bhb92rcd13ifvqen0","pricing_plan_id":"cebpf4jnsgd1na2vs0mg"},{"bike_id":"bcc288dd-6942-4899-95ee-d43aed6e21bd","system_id":"levelo_inurba_marseille","lat":43.31356,"lon":5.36708,"is_reserved":false,"is_disabled":false,"rental_uris":{"android":"levelo://app?vid=bcc288dd-6942-4899-95ee-d43aed6e21bd","ios":"levelo://app?vid=bcc288dd-6942-4899-95ee-d43aed6e21bd"},"vehicle_type_id":"4","last_reported":1775053447,"current_range_meters":6000,"station_id":"ce4bgr92rcd13ifvqc6g","pricing_plan_id":"cebpf4jnsgd1na2vs0mg"},{"bike_id":"1130d409-34d2-42ba-a5d5-ed99d6325005","system_id":"levelo_inurba_marseille","lat":43.2175,"lon":5.346,"is_reserved":false,"is_disabled":false,"rental_uris":{"android":"levelo://app?vid=1130d409-34d2-42ba-a5d5-ed99d6325005","ios":"levelo://app?vid=1130d409-34d2-42ba-a5d5-ed99d6325005"},"vehicle_type_id":"4","last_reported":1775053447,"current_range_meters":6000,"station_id":"st_cvj6r9ubvosntc0bgbag","pricing_plan_id":"cebpf4jnsgd1na2vs0mg"},{"bike_id":"3a0952ec-ee71-44ca-a8c7-6044d44fb1ca","system_id":"levelo_inurba_marseille","lat":43.30276,"lon":5.3771,"is_reserved":false,"is_disabled":false,"rental_uris":{"android":"levelo://app?vid=3a0952ec-ee71-44ca-a8c7-6044d44fb1ca","ios":"levelo://app?vid=3a0952ec-ee71-44ca-a8c7-6044d44fb1ca"},"vehicle_type_id":"4","last_reported":1775053447,"current_range_meters":6000,"station_id":"ce4bguh2rcd13ifvqcj0","pricing_plan_id":"cebpf4jnsgd1na2vs0mg"},{"bike_id":"1fd14647-60cf-49f0-a971-843beb62395e","system_id":"levelo_inurba_marseille","lat":43.28513,"lon":5.44075,"is_reserved":false,"is_disabled":false,"rental_uris":{"android":"levelo://app?vid=1fd14647-60cf-49f0-a971-843beb62395e","ios":"levelo://app?vid=1fd14647-60cf-49f0-a971-843beb62395e"},"vehicle_type_id":"4","last_reported":1775053447,"current_range_meters":6000,"station_id":"st_d3j3df2ikq2c7380ej80","pricing_plan_id":"cebpf4jnsgd1na2vs0mg"},{"bike_id":"35e9492a-806d-4bf1-bcb9-db0c2ea29b2a","system_id":"levelo_inurba_marseille","lat":43.296134,"lon":5.385594,"is_reserved":false,"is_disabled":false,"rental_uris":{"android":"levelo://app?vid=35e9492a-806d-4bf1-bcb9-db0c2ea29b2a","ios":"levelo://app?vid=35e9492a-806d-4bf1-bcb9-db0c2ea29b2a"},"vehicle_type_id":"4","last_reported":1775053447,"current_range_meters":6000,"station_id":"ce4bgih2rcd13ifvqba0","pricing_plan_id":"cebpf4jnsgd1na2vs0mg"},{"bike_id":"839f391b-feab-427a-b17d-2d524e38c555","system_id":"levelo_inurba_marseille","lat":43.23781,"lon":5.36615,"is_reserved":false,"is_disabled":false,"rental_uris":{"android":"levelo://app?vid=839f391b-feab-427a-b17d-2d524e38c555","ios":"levelo://app?vid=839f391b-feab-427a-b17d-2d524e38c555"},"vehicle_type_id":"4","last_reported":1775053447,"current_range_meters":6000,"station_id":"st_d3nk18o9ro0c73en2l3g","pricing_plan_id":"cebpf4jnsgd1na2vs0mg"},{"bike_id":"3b0676d0-3c5e-443f-a620-c38959c0c6cb","system_id":"levelo_inurba_marseille","lat":43.22533,"lon":5.3483,"is_reserved":false,"is_disabled":false,"rental_uris":{"android":"levelo://app?vid=3b0676d0-3c5e-443f-a620-c38959c0c6cb","ios":"levelo://app?vid=3b0676d0-3c5e-443f-a620-c38959c0c6cb"},"vehicle_type_id":"4","last_reported":1775053447,"current_range_meters":6000,"station_id":"","pricing_plan_id":"cebpf4jnsgd1na2vs0mg"},{"bike_id":"4f461c12-a839-4112-843e-a559d023da9c","system_id":"levelo_inurba_marseille","lat":43.21184,"lon":5.3506,"is_reserved":false,"is_disabled":false,"rental_uris":{"android":"levelo://app?vid=4f461c12-a839-4112-843e-a559d023da9c","ios":"levelo://app?vid=4f461c12-a839-4112-843e-a559d023da9c"},"vehicle_type_id":"4","last_reported":1775053447,"current_range_meters":6000,"station_id":"st_cvj6sg6p6f1abm77japg","pricing_plan_id":"cebpf4jnsgd1na2vs0mg"},{"bike_id":"75d689cb-1c04-4dfa-8582-0f51308d34b4","system_id":"levelo_inurba_marseille","lat":43.21743,"lon":5.34608,"is_reserved":false,"is_disabled":false,"rental_uris":{"android":"levelo://app?vid=75d689cb-1c04-4dfa-8582-0f51308d34b4","ios":"levelo://app?vid=75d689cb-1c04-4dfa-8582-0f51308d34b4"},"vehicle_type_id":"4","last_reported":1775053447,"current_range_meters":6000,"station_id":"st_cvj6r9ubvosntc0bgbag","pricing_plan_id":"cebpf4jnsgd1na2vs0mg"},{"bike_id":"29cdac5f-ab24-4680-bdbb-b9f9e11d744e","system_id":"levelo_inurba_marseille","lat":43.33158,"lon":5.37685,"is_reserved":false,"is_disabled":false,"rental_uris":{"android":"levelo://app?vid=29cdac5f-ab24-4680-bdbb-b9f9e11d744e","ios":"levelo://app?vid=29cdac5f-ab24-4680-bdbb-b9f9e11d744e"},"vehicle_type_id":"4","last_reported":1775053447,"current_range_meters":6000,"station_id":"st_d46cu089ee8s73dldbu0","pricing_plan_id":"cebpf4jnsgd1na2vs0mg"},{"bike_id":"dbafccf7-0909-44bd-86f0-abe7aa0ed694","system_id":"levelo_inurba_marseille","lat":43.29033,"lon":5.43655,"is_reserved":false,"is_disabled":false,"rental_uris":{"android":"levelo://app?vid=dbafccf7-0909-44bd-86f0-abe7aa0ed694","ios":"levelo://app?vid=dbafccf7-0909-44bd-86f0-abe7aa0ed694"},"vehicle_type_id":"4","last_reported":1775053447,"current_range_meters":6400,"station_id":"","pricing_plan_id":"cebpf4jnsgd1na2vs0mg"},{"bike_id":"52dc2264-cce2-4d05-81cc-597b892a962a","system_id":"levelo_inurba_marseille","lat":43.28411,"lon":5.34977,"is_reserved":false,"is_disabled":false,"rental_uris":{"android":"levelo://app?vid=52dc2264-cce2-4d05-81cc-597b892a962a","ios":"levelo://app?vid=52dc2264-cce2-4d05-81cc-597b892a962a"},"vehicle_type_id":"4","last_reported":1775053447,"current_range_meters":6400,"station_id":"ce4bhbh2rcd13ifvqepg","pricing_plan_id":"cebpf4jnsgd1na2vs0mg"},{"bike_id":"81700ba6-1842-4dd9-b315-99276961d80f","system_id":"levelo_inurba_marseille","lat":43.26556,"lon":5.37274,"is_reserved":false,"is_disabled":false,"rental_uris":{"android":"levelo://app?vid=81700ba6-1842-4dd9-b315-99276961d80f","ios":"levelo://app?vid=81700ba6-1842-4dd9-b315-99276961d80f"},"vehicle_type_id":"4","last_reported":1775053447,"current_range_meters":6400,"station_id":"ce4bhg12rcd13ifvqf70","pricing_plan_id":"cebpf4jnsgd1na2vs0mg"},{"bike_id":"d0b59360-ea7c-470e-bcd9-34ce03fd1706","system_id":"levelo_inurba_marseille","lat":43.25493,"lon":5.37643,"is_reserved":false,"is_disabled":false,"rental_uris":{"android":"levelo://app?vid=d0b59360-ea7c-470e-bcd9-34ce03fd1706","ios":"levelo://app?vid=d0b59360-ea7c-470e-bcd9-34ce03fd1706"},"vehicle_type_id":"4","last_reported":1775053447,"current_range_meters":6400,"station_id":"ce4bhh12rcd13ifvqff0","pricing_plan_id":"cebpf4jnsgd1na2vs0mg"},{"bike_id":"028261e5-b01c-40b3-aac6-0d82cb6906fe","system_id":"levelo_inurba_marseille","lat":43.21752,"lon":5.34601,"is_reserved":false,"is_disabled":false,"rental_uris":{"android":"levelo://app?vid=028261e5-b01c-40b3-aac6-0d82cb6906fe","ios":"levelo://app?vid=028261e5-b01c-40b3-aac6-0d82cb6906fe"},"vehicle_type_id":"4","last_reported":1775053447,"current_range_meters":6400,"station_id":"st_cvj6r9ubvosntc0bgbag","pricing_plan_id":"cebpf4jnsgd1na2vs0mg"},{"bike_id":"a3f5981a-cab1-412b-bf97-3e9bc0f6ef92","system_id":"levelo_inurba_marseille","lat":43.25509,"lon":5.37655,"is_reserved":false,"is_disabled":false,"rental_uris":{"android":"levelo://app?vid=a3f5981a-cab1-412b-bf97-3e9bc0f6ef92","ios":"levelo://app?vid=a3f5981a-cab1-412b-bf97-3e9bc0f6ef92"},"vehicle_type_id":"4","last_reported":1775053447,"current_range_meters":6400,"station_id":"ce4bhh12rcd13ifvqff0","pricing_plan_id":"cebpf4jnsgd1na2vs0mg"},{"bike_id":"df3803fc-a4e8-41a3-a0f5-2361c135450e","system_id":"levelo_inurba_marseille","lat":43.24159,"lon":5.36386,"is_reserved":false,"is_disabled":false,"rental_uris":{"android":"levelo://app?vid=df3803fc-a4e8-41a3-a0f5-2361c135450e","ios":"levelo://app?vid=df3803fc-a4e8-41a3-a0f5-2361c135450e"},"vehicle_type_id":"4","last_reported":1775053447,"current_range_meters":6400,"station_id":"cpo36qri1sfpv3e86is0","pricing_plan_id":"cebpf4jnsgd1na2vs0mg"},{"bike_id":"61dc7beb-63c5-45cd-906b-0925d0f5df41","system_id":"levelo_inurba_marseille","lat":43.28532,"lon":5.44082,"is_reserved":false,"is_disabled":false,"rental_uris":{"android":"levelo://app?vid=61dc7beb-63c5-45cd-906b-0925d0f5df41","ios":"levelo://app?vid=61dc7beb-63c5-45cd-906b-0925d0f5df41"},"vehicle_type_id":"4","last_reported":1775053447,"current_range_meters":6400,"station_id":"st_d3j3df2ikq2c7380ej80","pricing_plan_id":"cebpf4jnsgd1na2vs0mg"},{"bike_id":"4dc5e590-cebf-4591-86fa-2533cf011660","system_id":"levelo_inurba_marseille","lat":43.23967,"lon":5.36631,"is_reserved":false,"is_disabled":false,"rental_uris":{"android":"levelo://app?vid=4dc5e590-cebf-4591-86fa-2533cf011660","ios":"levelo://app?vid=4dc5e590-cebf-4591-86fa-2533cf011660"},"vehicle_type_id":"4","last_reported":1775053447,"current_range_meters":6400,"station_id":"ce4bhi12rcd13ifvqfp0","pricing_plan_id":"cebpf4jnsgd1na2vs0mg"},{"bike_id":"806f57d2-5dd5-41e2-af03-598e37cbcde4","system_id":"levelo_inurba_marseille","lat":43.29015,"lon":5.3562,"is_reserved":false,"is_disabled":false,"rental_uris":{"android":"levelo://app?vid=806f57d2-5dd5-41e2-af03-598e37cbcde4","ios":"levelo://app?vid=806f57d2-5dd5-41e2-af03-598e37cbcde4"},"vehicle_type_id":"4","last_reported":1775053447,"current_range_meters":6400,"station_id":"ce4bhb92rcd13ifvqen0","pricing_plan_id":"cebpf4jnsgd1na2vs0mg"},{"bike_id":"96f64e49-7ba9-4a9b-ae7d-7e7667644a85","system_id":"levelo_inurba_marseille","lat":43.23197,"lon":5.35543,"is_reserved":false,"is_disabled":false,"rental_uris":{"android":"levelo://app?vid=96f64e49-7ba9-4a9b-ae7d-7e7667644a85","ios":"levelo://app?vid=96f64e49-7ba9-4a9b-ae7d-7e7667644a85"},"vehicle_type_id":"4","last_reported":1775053447,"current_range_meters":6400,"station_id":"ce4bhu92rcd13ifvqi70","pricing_plan_id":"cebpf4jnsgd1na2vs0mg"},{"bike_id":"f2a7e3a5-cac5-4b5c-9077-f8604e7b1b43","system_id":"levelo_inurba_marseille","lat":43.29005,"lon":5.43,"is_reserved":false,"is_disabled":false,"rental_uris":{"android":"levelo://app?vid=f2a7e3a5-cac5-4b5c-9077-f8604e7b1b43","ios":"levelo://app?vid=f2a7e3a5-cac5-4b5c-9077-f8604e7b1b43"},"vehicle_type_id":"4","last_reported":1775053447,"current_range_meters":6400,"station_id":"","pricing_plan_id":"cebpf4jnsgd1na2vs0mg"},{"bike_id":"333a339b-a965-44f4-82f3-17a0518601d7","system_id":"levelo_inurba_marseille","lat":43.24805,"lon":5.37454,"is_reserved":false,"is_disabled":false,"rental_uris":{"android":"levelo://app?vid=333a339b-a965-44f4-82f3-17a0518601d7","ios":"levelo://app?vid=333a339b-a965-44f4-82f3-17a0518601d7"},"vehicle_type_id":"4","last_reported":1775053447,"current_range_meters":6400,"station_id":"ce4bhgh2rcd13ifvqfb0","pricing_plan_id":"cebpf4jnsgd1na2vs0mg"},{"bike_id":"f39875c6-a23a-44c7-b212-491d34eb9802","system_id":"levelo_inurba_marseille","lat":43.29797,"lon":5.3934,"is_reserved":false,"is_disabled":false,"rental_uris":{"android":"levelo://app?vid=f39875c6-a23a-44c7-b212-491d34eb9802","ios":"levelo://app?vid=f39875c6-a23a-44c7-b212-491d34eb9802"},"vehicle_type_id":"4","last_reported":1775053447,"current_range_meters":6800,"station_id":"chh1huq6cuj3fo74tm60","pricing_plan_id":"cebpf4jnsgd1na2vs0mg"},{"bike_id":"e48449c9-7d13-4803-b2aa-7fb857c0a68c","system_id":"levelo_inurba_marseille","lat":43.24431,"lon":5.41587,"is_reserved":false,"is_disabled":false,"rental_uris":{"android":"levelo://app?vid=e48449c9-7d13-4803-b2aa-7fb857c0a68c","ios":"levelo://app?vid=e48449c9-7d13-4803-b2aa-7fb857c0a68c"},"vehicle_type_id":"4","last_reported":1775053447,"current_range_meters":6800,"station_id":"","pricing_plan_id":"cebpf4jnsgd1na2vs0mg"},{"bike_id":"a12ced21-9765-4fca-9fbf-5660d7509d0d","system_id":"levelo_inurba_marseille","lat":43.28415,"lon":5.34986,"is_reserved":false,"is_disabled":false,"rental_uris":{"android":"levelo://app?vid=a12ced21-9765-4fca-9fbf-5660d7509d0d","ios":"levelo://app?vid=a12ced21-9765-4fca-9fbf-5660d7509d0d"},"vehicle_type_id":"4","last_reported":1775053447,"current_range_meters":6800,"station_id":"ce4bhbh2rcd13ifvqepg","pricing_plan_id":"cebpf4jnsgd1na2vs0mg"},{"bike_id":"3779fce9-2c24-4d4f-a0f7-bcfba516f403","system_id":"levelo_inurba_marseille","lat":43.21746,"lon":5.34599,"is_reserved":false,"is_disabled":false,"rental_uris":{"android":"levelo://app?vid=3779fce9-2c24-4d4f-a0f7-bcfba516f403","ios":"levelo://app?vid=3779fce9-2c24-4d4f-a0f7-bcfba516f403"},"vehicle_type_id":"4","last_reported":1775053447,"current_range_meters":6800,"station_id":"st_cvj6r9ubvosntc0bgbag","pricing_plan_id":"cebpf4jnsgd1na2vs0mg"},{"bike_id":"ed72e654-2844-4004-8d12-516889e5de0c","system_id":"levelo_inurba_marseille","lat":43.24081,"lon":5.37753,"is_reserved":false,"is_disabled":false,"rental_uris":{"android":"levelo://app?vid=ed72e654-2844-4004-8d12-516889e5de0c","ios":"levelo://app?vid=ed72e654-2844-4004-8d12-516889e5de0c"},"vehicle_type_id":"4","last_reported":1775053447,"current_range_meters":6800,"station_id":"ce4bhnp2rcd13ifvqgvg","pricing_plan_id":"cebpf4jnsgd1na2vs0mg"},{"bike_id":"0d0c8f03-48a7-4e97-9825-e79885ed278e","system_id":"levelo_inurba_marseille","lat":43.23051,"lon":5.35481,"is_reserved":false,"is_disabled":false,"rental_uris":{"android":"levelo://app?vid=0d0c8f03-48a7-4e97-9825-e79885ed278e","ios":"levelo://app?vid=0d0c8f03-48a7-4e97-9825-e79885ed278e"},"vehicle_type_id":"4","last_reported":1775053447,"current_range_meters":6800,"station_id":"cpo3342slgdg3j2ifvpg","pricing_plan_id":"cebpf4jnsgd1na2vs0mg"},{"bike_id":"d41d5ff3-651c-4e70-8a12-e8a105b53c64","system_id":"levelo_inurba_marseille","lat":43.31574,"lon":5.44535,"is_reserved":false,"is_disabled":false,"rental_uris":{"android":"levelo://app?vid=d41d5ff3-651c-4e70-8a12-e8a105b53c64","ios":"levelo://app?vid=d41d5ff3-651c-4e70-8a12-e8a105b53c64"},"vehicle_type_id":"4","last_reported":1775053447,"current_range_meters":6800,"station_id":"","pricing_plan_id":"cebpf4jnsgd1na2vs0mg"},{"bike_id":"a9616136-f3db-4e2d-951b-e20c22b73feb","system_id":"levelo_inurba_marseille","lat":43.24803,"lon":5.37452,"is_reserved":false,"is_disabled":false,"rental_uris":{"android":"levelo://app?vid=a9616136-f3db-4e2d-951b-e20c22b73feb","ios":"levelo://app?vid=a9616136-f3db-4e2d-951b-e20c22b73feb"},"vehicle_type_id":"4","last_reported":1775053447,"current_range_meters":6800,"station_id":"ce4bhgh2rcd13ifvqfb0","pricing_plan_id":"cebpf4jnsgd1na2vs0mg"},{"bike_id":"e100bd93-1703-44b8-a832-5d7ea88fe7f4","system_id":"levelo_inurba_marseille","lat":43.24473,"lon":5.42547,"is_reserved":false,"is_disabled":false,"rental_uris":{"android":"levelo://app?vid=e100bd93-1703-44b8-a832-5d7ea88fe7f4","ios":"levelo://app?vid=e100bd93-1703-44b8-a832-5d7ea88fe7f4"},"vehicle_type_id":"4","last_reported":1775053447,"current_range_meters":6800,"station_id":"st_d4a3vfp97mjs738cd8kg","pricing_plan_id":"cebpf4jnsgd1na2vs0mg"},{"bike_id":"ac750519-69a1-4eac-846f-31128d535c20","system_id":"levelo_inurba_marseille","lat":43.24422,"lon":5.36969,"is_reserved":false,"is_disabled":false,"rental_uris":{"android":"levelo://app?vid=ac750519-69a1-4eac-846f-31128d535c20","ios":"levelo://app?vid=ac750519-69a1-4eac-846f-31128d535c20"},"vehicle_type_id":"4","last_reported":1775053447,"current_range_meters":6800,"station_id":"","pricing_plan_id":"cebpf4jnsgd1na2vs0mg"},{"bike_id":"81b00432-51ba-4db2-9f54-2c041f2427bd","system_id":"levelo_inurba_marseille","lat":43.25001,"lon":5.38938,"is_reserved":false,"is_disabled":false,"rental_uris":{"android":"levelo://app?vid=81b00432-51ba-4db2-9f54-2c041f2427bd","ios":"levelo://app?vid=81b00432-51ba-4db2-9f54-2c041f2427bd"},"vehicle_type_id":"4","last_reported":1775053447,"current_range_meters":6800,"station_id":"ce4bhgp2rcd13ifvqfd0","pricing_plan_id":"cebpf4jnsgd1na2vs0mg"},{"bike_id":"e1a367f1-e965-4b14-910c-035500053b1f","system_id":"levelo_inurba_marseille","lat":43.28421,"lon":5.34981,"is_reserved":false,"is_disabled":false,"rental_uris":{"android":"levelo://app?vid=e1a367f1-e965-4b14-910c-035500053b1f","ios":"levelo://app?vid=e1a367f1-e965-4b14-910c-035500053b1f"},"vehicle_type_id":"4","last_reported":1775053447,"current_range_meters":6800,"station_id":"ce4bhbh2rcd13ifvqepg","pricing_plan_id":"cebpf4jnsgd1na2vs0mg"},{"bike_id":"3010ca9d-c8fb-41d7-ace8-3104f4f63f5d","system_id":"levelo_inurba_marseille","lat":43.23198,"lon":5.3555,"is_reserved":false,"is_disabled":false,"rental_uris":{"android":"levelo://app?vid=3010ca9d-c8fb-41d7-ace8-3104f4f63f5d","ios":"levelo://app?vid=3010ca9d-c8fb-41d7-ace8-3104f4f63f5d"},"vehicle_type_id":"4","last_reported":1775053447,"current_range_meters":6800,"station_id":"ce4bhu92rcd13ifvqi70","pricing_plan_id":"cebpf4jnsgd1na2vs0mg"},{"bike_id":"a15f4114-aaae-4758-a526-23144560e54e","system_id":"levelo_inurba_marseille","lat":43.30547,"lon":5.36677,"is_reserved":false,"is_disabled":false,"rental_uris":{"android":"levelo://app?vid=a15f4114-aaae-4758-a526-23144560e54e","ios":"levelo://app?vid=a15f4114-aaae-4758-a526-23144560e54e"},"vehicle_type_id":"4","last_reported":1775053447,"current_range_meters":6800,"station_id":"ce4bgrp2rcd13ifvqc9g","pricing_plan_id":"cebpf4jnsgd1na2vs0mg"},{"bike_id":"60f5c726-df58-408b-b64f-895541cbb220","system_id":"levelo_inurba_marseille","lat":43.25128,"lon":5.40313,"is_reserved":false,"is_disabled":false,"rental_uris":{"android":"levelo://app?vid=60f5c726-df58-408b-b64f-895541cbb220","ios":"levelo://app?vid=60f5c726-df58-408b-b64f-895541cbb220"},"vehicle_type_id":"4","last_reported":1775053447,"current_range_meters":6800,"station_id":"ce4bhlh2rcd13ifvqgig","pricing_plan_id":"cebpf4jnsgd1na2vs0mg"},{"bike_id":"45c050e8-a329-47f8-a86f-69826197952f","system_id":"levelo_inurba_marseille","lat":43.24171,"lon":5.36396,"is_reserved":false,"is_disabled":false,"rental_uris":{"android":"levelo://app?vid=45c050e8-a329-47f8-a86f-69826197952f","ios":"levelo://app?vid=45c050e8-a329-47f8-a86f-69826197952f"},"vehicle_type_id":"4","last_reported":1775053447,"current_range_meters":6800,"station_id":"cpo36qri1sfpv3e86is0","pricing_plan_id":"cebpf4jnsgd1na2vs0mg"},{"bike_id":"437e4f3a-fe91-4ac4-a609-0c5a83e9fa75","system_id":"levelo_inurba_marseille","lat":43.31062,"lon":5.37172,"is_reserved":false,"is_disabled":false,"rental_uris":{"android":"levelo://app?vid=437e4f3a-fe91-4ac4-a609-0c5a83e9fa75","ios":"levelo://app?vid=437e4f3a-fe91-4ac4-a609-0c5a83e9fa75"},"vehicle_type_id":"4","last_reported":1775053447,"current_range_meters":6800,"station_id":"st_d4kl2rp97mjs73e7tdfg","pricing_plan_id":"cebpf4jnsgd1na2vs0mg"},{"bike_id":"693d8833-84f3-4a2a-b7f6-04069c366d6f","system_id":"levelo_inurba_marseille","lat":43.2828,"lon":5.35084,"is_reserved":false,"is_disabled":false,"rental_uris":{"android":"levelo://app?vid=693d8833-84f3-4a2a-b7f6-04069c366d6f","ios":"levelo://app?vid=693d8833-84f3-4a2a-b7f6-04069c366d6f"},"vehicle_type_id":"4","last_reported":1775053447,"current_range_meters":6800,"station_id":"ce4bhbp2rcd13ifvqerg","pricing_plan_id":"cebpf4jnsgd1na2vs0mg"},{"bike_id":"751823b1-fecf-476f-a14d-b22ea92d3e4c","system_id":"levelo_inurba_marseille","lat":43.29179,"lon":5.42652,"is_reserved":false,"is_disabled":false,"rental_uris":{"android":"levelo://app?vid=751823b1-fecf-476f-a14d-b22ea92d3e4c","ios":"levelo://app?vid=751823b1-fecf-476f-a14d-b22ea92d3e4c"},"vehicle_type_id":"4","last_reported":1775053447,"current_range_meters":6800,"station_id":"","pricing_plan_id":"cebpf4jnsgd1na2vs0mg"},{"bike_id":"86f155e1-1ac1-445c-bbca-e5237a1a1a71","system_id":"levelo_inurba_marseille","lat":43.24385,"lon":5.37058,"is_reserved":false,"is_disabled":false,"rental_uris":{"android":"levelo://app?vid=86f155e1-1ac1-445c-bbca-e5237a1a1a71","ios":"levelo://app?vid=86f155e1-1ac1-445c-bbca-e5237a1a1a71"},"vehicle_type_id":"4","last_reported":1775053447,"current_range_meters":6800,"station_id":"ce4bhhh2rcd13ifvqfk0","pricing_plan_id":"cebpf4jnsgd1na2vs0mg"},{"bike_id":"77f46a51-e56c-4bc4-9780-c0047cf28a69","system_id":"levelo_inurba_marseille","lat":43.25106,"lon":5.40341,"is_reserved":false,"is_disabled":false,"rental_uris":{"android":"levelo://app?vid=77f46a51-e56c-4bc4-9780-c0047cf28a69","ios":"levelo://app?vid=77f46a51-e56c-4bc4-9780-c0047cf28a69"},"vehicle_type_id":"4","last_reported":1775053447,"current_range_meters":6800,"station_id":"ce4bhlh2rcd13ifvqgig","pricing_plan_id":"cebpf4jnsgd1na2vs0mg"},{"bike_id":"8fc970ee-a484-45a1-8680-8f7f28a23ddf","system_id":"levelo_inurba_marseille","lat":43.21747,"lon":5.34608,"is_reserved":false,"is_disabled":false,"rental_uris":{"android":"levelo://app?vid=8fc970ee-a484-45a1-8680-8f7f28a23ddf","ios":"levelo://app?vid=8fc970ee-a484-45a1-8680-8f7f28a23ddf"},"vehicle_type_id":"4","last_reported":1775053447,"current_range_meters":6800,"station_id":"st_cvj6r9ubvosntc0bgbag","pricing_plan_id":"cebpf4jnsgd1na2vs0mg"},{"bike_id":"521fdd5c-22f2-444b-870e-16f0ca92be9e","system_id":"levelo_inurba_marseille","lat":43.29525,"lon":5.38653,"is_reserved":false,"is_disabled":false,"rental_uris":{"android":"levelo://app?vid=521fdd5c-22f2-444b-870e-16f0ca92be9e","ios":"levelo://app?vid=521fdd5c-22f2-444b-870e-16f0ca92be9e"},"vehicle_type_id":"4","last_reported":1775053447,"current_range_meters":7200,"station_id":"","pricing_plan_id":"cebpf4jnsgd1na2vs0mg"},{"bike_id":"95f7805f-9c5b-490d-a323-50802b900c25","system_id":"levelo_inurba_marseille","lat":43.29846,"lon":5.36286,"is_reserved":false,"is_disabled":false,"rental_uris":{"android":"levelo://app?vid=95f7805f-9c5b-490d-a323-50802b900c25","ios":"levelo://app?vid=95f7805f-9c5b-490d-a323-50802b900c25"},"vehicle_type_id":"4","last_reported":1775053447,"current_range_meters":7200,"station_id":"ce4bgpp2rcd13ifvqc3g","pricing_plan_id":"cebpf4jnsgd1na2vs0mg"},{"bike_id":"5ff08e28-4d2d-4e88-8f96-9e09f9a7a51a","system_id":"levelo_inurba_marseille","lat":43.28272,"lon":5.35059,"is_reserved":false,"is_disabled":false,"rental_uris":{"android":"levelo://app?vid=5ff08e28-4d2d-4e88-8f96-9e09f9a7a51a","ios":"levelo://app?vid=5ff08e28-4d2d-4e88-8f96-9e09f9a7a51a"},"vehicle_type_id":"4","last_reported":1775053447,"current_range_meters":7200,"station_id":"ce4bhbp2rcd13ifvqerg","pricing_plan_id":"cebpf4jnsgd1na2vs0mg"},{"bike_id":"982951ba-d1eb-42d4-bb65-5d98050aa6ef","system_id":"levelo_inurba_marseille","lat":43.28478,"lon":5.48401,"is_reserved":false,"is_disabled":false,"rental_uris":{"android":"levelo://app?vid=982951ba-d1eb-42d4-bb65-5d98050aa6ef","ios":"levelo://app?vid=982951ba-d1eb-42d4-bb65-5d98050aa6ef"},"vehicle_type_id":"4","last_reported":1775053447,"current_range_meters":7200,"station_id":"","pricing_plan_id":"cebpf4jnsgd1na2vs0mg"},{"bike_id":"15627b94-0339-4aab-b936-c98235ca103a","system_id":"levelo_inurba_marseille","lat":43.23191,"lon":5.39987,"is_reserved":false,"is_disabled":true,"rental_uris":{"android":"levelo://app?vid=15627b94-0339-4aab-b936-c98235ca103a","ios":"levelo://app?vid=15627b94-0339-4aab-b936-c98235ca103a"},"vehicle_type_id":"4","last_reported":1775053447,"current_range_meters":7200,"station_id":"ce4bhn12rcd13ifvqgqg","pricing_plan_id":"cebpf4jnsgd1na2vs0mg"},{"bike_id":"13bdf853-afc2-4aaa-b17a-15283655f76c","system_id":"levelo_inurba_marseille","lat":43.25004,"lon":5.38938,"is_reserved":false,"is_disabled":false,"rental_uris":{"android":"levelo://app?vid=13bdf853-afc2-4aaa-b17a-15283655f76c","ios":"levelo://app?vid=13bdf853-afc2-4aaa-b17a-15283655f76c"},"vehicle_type_id":"4","last_reported":1775053447,"current_range_meters":7200,"station_id":"ce4bhgp2rcd13ifvqfd0","pricing_plan_id":"cebpf4jnsgd1na2vs0mg"},{"bike_id":"ace8d92c-665e-46a4-858d-e12872c8b9f0","system_id":"levelo_inurba_marseille","lat":43.28482,"lon":5.48405,"is_reserved":false,"is_disabled":false,"rental_uris":{"android":"levelo://app?vid=ace8d92c-665e-46a4-858d-e12872c8b9f0","ios":"levelo://app?vid=ace8d92c-665e-46a4-858d-e12872c8b9f0"},"vehicle_type_id":"4","last_reported":1775053447,"current_range_meters":7200,"station_id":"","pricing_plan_id":"cebpf4jnsgd1na2vs0mg"},{"bike_id":"ddacb53e-55a3-4a67-a531-5d71504540ee","system_id":"levelo_inurba_marseille","lat":43.22546,"lon":5.41619,"is_reserved":false,"is_disabled":false,"rental_uris":{"android":"levelo://app?vid=ddacb53e-55a3-4a67-a531-5d71504540ee","ios":"levelo://app?vid=ddacb53e-55a3-4a67-a531-5d71504540ee"},"vehicle_type_id":"4","last_reported":1775053447,"current_range_meters":7200,"station_id":"st_d2o4gvlbi1j2169b742g","pricing_plan_id":"cebpf4jnsgd1na2vs0mg"},{"bike_id":"c46b9691-8495-4ec3-9b9e-c04c1003a346","system_id":"levelo_inurba_marseille","lat":43.28539,"lon":5.44094,"is_reserved":false,"is_disabled":false,"rental_uris":{"android":"levelo://app?vid=c46b9691-8495-4ec3-9b9e-c04c1003a346","ios":"levelo://app?vid=c46b9691-8495-4ec3-9b9e-c04c1003a346"},"vehicle_type_id":"4","last_reported":1775053447,"current_range_meters":7200,"station_id":"st_d3j3df2ikq2c7380ej80","pricing_plan_id":"cebpf4jnsgd1na2vs0mg"},{"bike_id":"47d58aad-6935-45b4-be28-19a84ffbba58","system_id":"levelo_inurba_marseille","lat":43.2652,"lon":5.396,"is_reserved":false,"is_disabled":false,"rental_uris":{"android":"levelo://app?vid=47d58aad-6935-45b4-be28-19a84ffbba58","ios":"levelo://app?vid=47d58aad-6935-45b4-be28-19a84ffbba58"},"vehicle_type_id":"4","last_reported":1775053447,"current_range_meters":7200,"station_id":"","pricing_plan_id":"cebpf4jnsgd1na2vs0mg"},{"bike_id":"6c3b2188-ad26-44f1-97bc-4de5c5fe5d74","system_id":"levelo_inurba_marseille","lat":43.28477,"lon":5.48384,"is_reserved":false,"is_disabled":false,"rental_uris":{"android":"levelo://app?vid=6c3b2188-ad26-44f1-97bc-4de5c5fe5d74","ios":"levelo://app?vid=6c3b2188-ad26-44f1-97bc-4de5c5fe5d74"},"vehicle_type_id":"4","last_reported":1775053447,"current_range_meters":7200,"station_id":"","pricing_plan_id":"cebpf4jnsgd1na2vs0mg"},{"bike_id":"8266319a-1bed-411a-8e60-b4c7adc9be53","system_id":"levelo_inurba_marseille","lat":43.27961,"lon":5.38743,"is_reserved":false,"is_disabled":false,"rental_uris":{"android":"levelo://app?vid=8266319a-1bed-411a-8e60-b4c7adc9be53","ios":"levelo://app?vid=8266319a-1bed-411a-8e60-b4c7adc9be53"},"vehicle_type_id":"4","last_reported":1775053447,"current_range_meters":7200,"station_id":"ce4bhg12rcd13ifvqf80","pricing_plan_id":"cebpf4jnsgd1na2vs0mg"},{"bike_id":"61347705-ad09-4da0-88fd-36ae93b6cbe6","system_id":"levelo_inurba_marseille","lat":43.32355,"lon":5.36741,"is_reserved":false,"is_disabled":false,"rental_uris":{"android":"levelo://app?vid=61347705-ad09-4da0-88fd-36ae93b6cbe6","ios":"levelo://app?vid=61347705-ad09-4da0-88fd-36ae93b6cbe6"},"vehicle_type_id":"4","last_reported":1775053447,"current_range_meters":7200,"station_id":"ce4bhsh2rcd13ifvqi2g","pricing_plan_id":"cebpf4jnsgd1na2vs0mg"},{"bike_id":"a82ec4ed-298e-4720-a520-446ed9ed16c0","system_id":"levelo_inurba_marseille","lat":43.3128,"lon":5.40162,"is_reserved":false,"is_disabled":false,"rental_uris":{"android":"levelo://app?vid=a82ec4ed-298e-4720-a520-446ed9ed16c0","ios":"levelo://app?vid=a82ec4ed-298e-4720-a520-446ed9ed16c0"},"vehicle_type_id":"4","last_reported":1775053447,"current_range_meters":7200,"station_id":"ce4bh092rcd13ifvqd30","pricing_plan_id":"cebpf4jnsgd1na2vs0mg"},{"bike_id":"7f77661e-8255-4bff-ae87-d0ced813db2a","system_id":"levelo_inurba_marseille","lat":43.24164,"lon":5.36389,"is_reserved":false,"is_disabled":false,"rental_uris":{"android":"levelo://app?vid=7f77661e-8255-4bff-ae87-d0ced813db2a","ios":"levelo://app?vid=7f77661e-8255-4bff-ae87-d0ced813db2a"},"vehicle_type_id":"4","last_reported":1775053447,"current_range_meters":7200,"station_id":"cpo36qri1sfpv3e86is0","pricing_plan_id":"cebpf4jnsgd1na2vs0mg"},{"bike_id":"febd890f-8091-48ad-815e-abf0b801ed37","system_id":"levelo_inurba_marseille","lat":43.24404,"lon":5.37062,"is_reserved":false,"is_disabled":false,"rental_uris":{"android":"levelo://app?vid=febd890f-8091-48ad-815e-abf0b801ed37","ios":"levelo://app?vid=febd890f-8091-48ad-815e-abf0b801ed37"},"vehicle_type_id":"4","last_reported":1775053447,"current_range_meters":7200,"station_id":"ce4bhhh2rcd13ifvqfk0","pricing_plan_id":"cebpf4jnsgd1na2vs0mg"},{"bike_id":"657aad9b-f4cd-4540-8fd8-f49309a0d6e5","system_id":"levelo_inurba_marseille","lat":43.27915,"lon":5.39575,"is_reserved":false,"is_disabled":false,"rental_uris":{"android":"levelo://app?vid=657aad9b-f4cd-4540-8fd8-f49309a0d6e5","ios":"levelo://app?vid=657aad9b-f4cd-4540-8fd8-f49309a0d6e5"},"vehicle_type_id":"4","last_reported":1775053447,"current_range_meters":7200,"station_id":"ce4bhf92rcd13ifvqf40","pricing_plan_id":"cebpf4jnsgd1na2vs0mg"},{"bike_id":"70b15db6-3217-4d89-ac61-5713567e98b7","system_id":"levelo_inurba_marseille","lat":43.31877,"lon":5.39992,"is_reserved":false,"is_disabled":false,"rental_uris":{"android":"levelo://app?vid=70b15db6-3217-4d89-ac61-5713567e98b7","ios":"levelo://app?vid=70b15db6-3217-4d89-ac61-5713567e98b7"},"vehicle_type_id":"4","last_reported":1775053447,"current_range_meters":7200,"station_id":"","pricing_plan_id":"cebpf4jnsgd1na2vs0mg"},{"bike_id":"7d221536-c309-4cb7-98fe-5bdf54751499","system_id":"levelo_inurba_marseille","lat":43.28476,"lon":5.48406,"is_reserved":false,"is_disabled":false,"rental_uris":{"android":"levelo://app?vid=7d221536-c309-4cb7-98fe-5bdf54751499","ios":"levelo://app?vid=7d221536-c309-4cb7-98fe-5bdf54751499"},"vehicle_type_id":"4","last_reported":1775053447,"current_range_meters":7200,"station_id":"","pricing_plan_id":"cebpf4jnsgd1na2vs0mg"},{"bike_id":"2b49fafc-1982-406b-b509-135eb726e407","system_id":"levelo_inurba_marseille","lat":43.28538,"lon":5.4409,"is_reserved":false,"is_disabled":false,"rental_uris":{"android":"levelo://app?vid=2b49fafc-1982-406b-b509-135eb726e407","ios":"levelo://app?vid=2b49fafc-1982-406b-b509-135eb726e407"},"vehicle_type_id":"4","last_reported":1775053447,"current_range_meters":7200,"station_id":"st_d3j3df2ikq2c7380ej80","pricing_plan_id":"cebpf4jnsgd1na2vs0mg"},{"bike_id":"c01d9e49-fff9-456c-8c86-45ce90e055c7","system_id":"levelo_inurba_marseille","lat":43.31233,"lon":5.36865,"is_reserved":false,"is_disabled":false,"rental_uris":{"android":"levelo://app?vid=c01d9e49-fff9-456c-8c86-45ce90e055c7","ios":"levelo://app?vid=c01d9e49-fff9-456c-8c86-45ce90e055c7"},"vehicle_type_id":"4","last_reported":1775053447,"current_range_meters":7200,"station_id":"ce4bgl92rcd13ifvqbq0","pricing_plan_id":"cebpf4jnsgd1na2vs0mg"},{"bike_id":"0be0f331-343d-4e35-84d1-0c2a496d1cfe","system_id":"levelo_inurba_marseille","lat":43.31897,"lon":5.36797,"is_reserved":false,"is_disabled":false,"rental_uris":{"android":"levelo://app?vid=0be0f331-343d-4e35-84d1-0c2a496d1cfe","ios":"levelo://app?vid=0be0f331-343d-4e35-84d1-0c2a496d1cfe"},"vehicle_type_id":"4","last_reported":1775053447,"current_range_meters":7200,"station_id":"","pricing_plan_id":"cebpf4jnsgd1na2vs0mg"},{"bike_id":"dbb463b5-6249-4cb0-a91a-704c133aae64","system_id":"levelo_inurba_marseille","lat":43.27287,"lon":5.3624,"is_reserved":false,"is_disabled":false,"rental_uris":{"android":"levelo://app?vid=dbb463b5-6249-4cb0-a91a-704c133aae64","ios":"levelo://app?vid=dbb463b5-6249-4cb0-a91a-704c133aae64"},"vehicle_type_id":"4","last_reported":1775053447,"current_range_meters":7200,"station_id":"","pricing_plan_id":"cebpf4jnsgd1na2vs0mg"},{"bike_id":"1bfa51ce-78f3-4c67-be01-387854e4298a","system_id":"levelo_inurba_marseille","lat":43.29286,"lon":5.37194,"is_reserved":false,"is_disabled":true,"rental_uris":{"android":"levelo://app?vid=1bfa51ce-78f3-4c67-be01-387854e4298a","ios":"levelo://app?vid=1bfa51ce-78f3-4c67-be01-387854e4298a"},"vehicle_type_id":"4","last_reported":1775053447,"current_range_meters":7200,"station_id":"ce4bgh92rcd13ifvqb40","pricing_plan_id":"cebpf4jnsgd1na2vs0mg"},{"bike_id":"05d0dfb6-cef6-4fef-97d7-8eafb1bc0891","system_id":"levelo_inurba_marseille","lat":43.3014,"lon":5.39849,"is_reserved":false,"is_disabled":false,"rental_uris":{"android":"levelo://app?vid=05d0dfb6-cef6-4fef-97d7-8eafb1bc0891","ios":"levelo://app?vid=05d0dfb6-cef6-4fef-97d7-8eafb1bc0891"},"vehicle_type_id":"4","last_reported":1775053447,"current_range_meters":7200,"station_id":"ce4bh0h2rcd13ifvqd40","pricing_plan_id":"cebpf4jnsgd1na2vs0mg"},{"bike_id":"2c78b9d7-6797-4c09-ad87-2e1c14443b34","system_id":"levelo_inurba_marseille","lat":43.28572,"lon":5.42917,"is_reserved":false,"is_disabled":false,"rental_uris":{"android":"levelo://app?vid=2c78b9d7-6797-4c09-ad87-2e1c14443b34","ios":"levelo://app?vid=2c78b9d7-6797-4c09-ad87-2e1c14443b34"},"vehicle_type_id":"4","last_reported":1775053447,"current_range_meters":7200,"station_id":"","pricing_plan_id":"cebpf4jnsgd1na2vs0mg"},{"bike_id":"912dea0f-9efe-4bc4-9127-17071b0a2c9e","system_id":"levelo_inurba_marseille","lat":43.24176,"lon":5.3973,"is_reserved":false,"is_disabled":false,"rental_uris":{"android":"levelo://app?vid=912dea0f-9efe-4bc4-9127-17071b0a2c9e","ios":"levelo://app?vid=912dea0f-9efe-4bc4-9127-17071b0a2c9e"},"vehicle_type_id":"4","last_reported":1775053447,"current_range_meters":7200,"station_id":"ce4bhn12rcd13ifvqgpg","pricing_plan_id":"cebpf4jnsgd1na2vs0mg"},{"bike_id":"0fb57e09-b43b-4018-a68b-a36a0540a577","system_id":"levelo_inurba_marseille","lat":43.31385,"lon":5.36699,"is_reserved":false,"is_disabled":false,"rental_uris":{"android":"levelo://app?vid=0fb57e09-b43b-4018-a68b-a36a0540a577","ios":"levelo://app?vid=0fb57e09-b43b-4018-a68b-a36a0540a577"},"vehicle_type_id":"4","last_reported":1775053447,"current_range_meters":7200,"station_id":"","pricing_plan_id":"cebpf4jnsgd1na2vs0mg"},{"bike_id":"f56d7445-00a0-462a-9cac-ec053ad4a04e","system_id":"levelo_inurba_marseille","lat":43.31541,"lon":5.38019,"is_reserved":false,"is_disabled":true,"rental_uris":{"android":"levelo://app?vid=f56d7445-00a0-462a-9cac-ec053ad4a04e","ios":"levelo://app?vid=f56d7445-00a0-462a-9cac-ec053ad4a04e"},"vehicle_type_id":"4","last_reported":1775053447,"current_range_meters":8000,"station_id":"ce4bhsp2rcd13ifvqi50","pricing_plan_id":"cebpf4jnsgd1na2vs0mg"},{"bike_id":"a2eaa8fe-9ee3-4783-9910-a0708dc6938b","system_id":"levelo_inurba_marseille","lat":43.23058,"lon":5.35487,"is_reserved":false,"is_disabled":false,"rental_uris":{"android":"levelo://app?vid=a2eaa8fe-9ee3-4783-9910-a0708dc6938b","ios":"levelo://app?vid=a2eaa8fe-9ee3-4783-9910-a0708dc6938b"},"vehicle_type_id":"4","last_reported":1775053447,"current_range_meters":8000,"station_id":"cpo3342slgdg3j2ifvpg","pricing_plan_id":"cebpf4jnsgd1na2vs0mg"},{"bike_id":"020709b2-4511-4f7a-8597-5644cfeba6fe","system_id":"levelo_inurba_marseille","lat":43.24169,"lon":5.36402,"is_reserved":false,"is_disabled":false,"rental_uris":{"android":"levelo://app?vid=020709b2-4511-4f7a-8597-5644cfeba6fe","ios":"levelo://app?vid=020709b2-4511-4f7a-8597-5644cfeba6fe"},"vehicle_type_id":"4","last_reported":1775053447,"current_range_meters":8000,"station_id":"cpo36qri1sfpv3e86is0","pricing_plan_id":"cebpf4jnsgd1na2vs0mg"},{"bike_id":"9f379acd-775f-40aa-a2ad-0898810cd24c","system_id":"levelo_inurba_marseille","lat":43.24401,"lon":5.37055,"is_reserved":false,"is_disabled":false,"rental_uris":{"android":"levelo://app?vid=9f379acd-775f-40aa-a2ad-0898810cd24c","ios":"levelo://app?vid=9f379acd-775f-40aa-a2ad-0898810cd24c"},"vehicle_type_id":"4","last_reported":1775053447,"current_range_meters":8000,"station_id":"ce4bhhh2rcd13ifvqfk0","pricing_plan_id":"cebpf4jnsgd1na2vs0mg"},{"bike_id":"5d8fbb60-1f90-4530-9114-4be561a1e0d8","system_id":"levelo_inurba_marseille","lat":43.292317,"lon":5.36062,"is_reserved":false,"is_disabled":false,"rental_uris":{"android":"levelo://app?vid=5d8fbb60-1f90-4530-9114-4be561a1e0d8","ios":"levelo://app?vid=5d8fbb60-1f90-4530-9114-4be561a1e0d8"},"vehicle_type_id":"4","last_reported":1775053447,"current_range_meters":8000,"station_id":"ce4bhbh2rcd13ifvqeqg","pricing_plan_id":"cebpf4jnsgd1na2vs0mg"},{"bike_id":"ac9cfb47-6491-4537-bdd0-177ab07e5667","system_id":"levelo_inurba_marseille","lat":43.31346,"lon":5.36745,"is_reserved":false,"is_disabled":false,"rental_uris":{"android":"levelo://app?vid=ac9cfb47-6491-4537-bdd0-177ab07e5667","ios":"levelo://app?vid=ac9cfb47-6491-4537-bdd0-177ab07e5667"},"vehicle_type_id":"4","last_reported":1775053447,"current_range_meters":8000,"station_id":"ce4bgr92rcd13ifvqc6g","pricing_plan_id":"cebpf4jnsgd1na2vs0mg"},{"bike_id":"19d804f8-e022-4728-979b-c94761dfb083","system_id":"levelo_inurba_marseille","lat":43.2378,"lon":5.36626,"is_reserved":false,"is_disabled":false,"rental_uris":{"android":"levelo://app?vid=19d804f8-e022-4728-979b-c94761dfb083","ios":"levelo://app?vid=19d804f8-e022-4728-979b-c94761dfb083"},"vehicle_type_id":"4","last_reported":1775053447,"current_range_meters":8000,"station_id":"st_d3nk18o9ro0c73en2l3g","pricing_plan_id":"cebpf4jnsgd1na2vs0mg"},{"bike_id":"e2a6579d-e160-4567-84f5-2adb8c3e1154","system_id":"levelo_inurba_marseille","lat":43.21739,"lon":5.34606,"is_reserved":false,"is_disabled":false,"rental_uris":{"android":"levelo://app?vid=e2a6579d-e160-4567-84f5-2adb8c3e1154","ios":"levelo://app?vid=e2a6579d-e160-4567-84f5-2adb8c3e1154"},"vehicle_type_id":"4","last_reported":1775053447,"current_range_meters":8000,"station_id":"st_cvj6r9ubvosntc0bgbag","pricing_plan_id":"cebpf4jnsgd1na2vs0mg"},{"bike_id":"d5d3c35b-4420-4569-83eb-e2eef5fa6559","system_id":"levelo_inurba_marseille","lat":43.22561,"lon":5.41629,"is_reserved":false,"is_disabled":false,"rental_uris":{"android":"levelo://app?vid=d5d3c35b-4420-4569-83eb-e2eef5fa6559","ios":"levelo://app?vid=d5d3c35b-4420-4569-83eb-e2eef5fa6559"},"vehicle_type_id":"4","last_reported":1775053447,"current_range_meters":8000,"station_id":"st_d2o4gvlbi1j2169b742g","pricing_plan_id":"cebpf4jnsgd1na2vs0mg"},{"bike_id":"f46616a9-3a20-4934-ad51-3a5a7b5308f4","system_id":"levelo_inurba_marseille","lat":43.28415,"lon":5.34981,"is_reserved":false,"is_disabled":false,"rental_uris":{"android":"levelo://app?vid=f46616a9-3a20-4934-ad51-3a5a7b5308f4","ios":"levelo://app?vid=f46616a9-3a20-4934-ad51-3a5a7b5308f4"},"vehicle_type_id":"4","last_reported":1775053447,"current_range_meters":8000,"station_id":"ce4bhbh2rcd13ifvqepg","pricing_plan_id":"cebpf4jnsgd1na2vs0mg"},{"bike_id":"1017fc08-104d-4d24-bbe5-048715a1d868","system_id":"levelo_inurba_marseille","lat":43.28615,"lon":5.35108,"is_reserved":false,"is_disabled":false,"rental_uris":{"android":"levelo://app?vid=1017fc08-104d-4d24-bbe5-048715a1d868","ios":"levelo://app?vid=1017fc08-104d-4d24-bbe5-048715a1d868"},"vehicle_type_id":"4","last_reported":1775053447,"current_range_meters":8000,"station_id":"ce4bhch2rcd13ifvqeug","pricing_plan_id":"cebpf4jnsgd1na2vs0mg"},{"bike_id":"a17dbbf9-2919-4aa7-a6bc-4d101b9dc30c","system_id":"levelo_inurba_marseille","lat":43.27528,"lon":5.40949,"is_reserved":false,"is_disabled":false,"rental_uris":{"android":"levelo://app?vid=a17dbbf9-2919-4aa7-a6bc-4d101b9dc30c","ios":"levelo://app?vid=a17dbbf9-2919-4aa7-a6bc-4d101b9dc30c"},"vehicle_type_id":"4","last_reported":1775053447,"current_range_meters":8000,"station_id":"","pricing_plan_id":"cebpf4jnsgd1na2vs0mg"},{"bike_id":"32bbc785-7878-457c-9b63-c753cac045af","system_id":"levelo_inurba_marseille","lat":43.21749,"lon":5.34596,"is_reserved":false,"is_disabled":false,"rental_uris":{"android":"levelo://app?vid=32bbc785-7878-457c-9b63-c753cac045af","ios":"levelo://app?vid=32bbc785-7878-457c-9b63-c753cac045af"},"vehicle_type_id":"4","last_reported":1775053447,"current_range_meters":8000,"station_id":"st_cvj6r9ubvosntc0bgbag","pricing_plan_id":"cebpf4jnsgd1na2vs0mg"},{"bike_id":"414e0a70-6dfc-4ae8-82b3-ec8ad75a8436","system_id":"levelo_inurba_marseille","lat":43.25581,"lon":5.38232,"is_reserved":false,"is_disabled":false,"rental_uris":{"android":"levelo://app?vid=414e0a70-6dfc-4ae8-82b3-ec8ad75a8436","ios":"levelo://app?vid=414e0a70-6dfc-4ae8-82b3-ec8ad75a8436"},"vehicle_type_id":"4","last_reported":1775053447,"current_range_meters":8000,"station_id":"ce4bhih2rcd13ifvqfs0","pricing_plan_id":"cebpf4jnsgd1na2vs0mg"},{"bike_id":"96b824b6-e7fd-42c3-9c8e-2b60944cea49","system_id":"levelo_inurba_marseille","lat":43.25593,"lon":5.38217,"is_reserved":false,"is_disabled":false,"rental_uris":{"android":"levelo://app?vid=96b824b6-e7fd-42c3-9c8e-2b60944cea49","ios":"levelo://app?vid=96b824b6-e7fd-42c3-9c8e-2b60944cea49"},"vehicle_type_id":"4","last_reported":1775053447,"current_range_meters":8000,"station_id":"ce4bhih2rcd13ifvqfs0","pricing_plan_id":"cebpf4jnsgd1na2vs0mg"},{"bike_id":"60302b5d-df5c-45a3-a2b0-7da1516d2ff3","system_id":"levelo_inurba_marseille","lat":43.31362,"lon":5.36698,"is_reserved":false,"is_disabled":false,"rental_uris":{"android":"levelo://app?vid=60302b5d-df5c-45a3-a2b0-7da1516d2ff3","ios":"levelo://app?vid=60302b5d-df5c-45a3-a2b0-7da1516d2ff3"},"vehicle_type_id":"4","last_reported":1775053447,"current_range_meters":8000,"station_id":"ce4bgr92rcd13ifvqc6g","pricing_plan_id":"cebpf4jnsgd1na2vs0mg"},{"bike_id":"34202a4d-30c4-4b01-92b6-12f62e5395d5","system_id":"levelo_inurba_marseille","lat":43.2493,"lon":5.40493,"is_reserved":false,"is_disabled":false,"rental_uris":{"android":"levelo://app?vid=34202a4d-30c4-4b01-92b6-12f62e5395d5","ios":"levelo://app?vid=34202a4d-30c4-4b01-92b6-12f62e5395d5"},"vehicle_type_id":"4","last_reported":1775053447,"current_range_meters":8000,"station_id":"st_d2ngiaodas8pm72gd1h0","pricing_plan_id":"cebpf4jnsgd1na2vs0mg"},{"bike_id":"06b49e24-a061-43ad-b73e-282c0db63764","system_id":"levelo_inurba_marseille","lat":43.24134,"lon":5.39706,"is_reserved":false,"is_disabled":false,"rental_uris":{"android":"levelo://app?vid=06b49e24-a061-43ad-b73e-282c0db63764","ios":"levelo://app?vid=06b49e24-a061-43ad-b73e-282c0db63764"},"vehicle_type_id":"4","last_reported":1775053447,"current_range_meters":8000,"station_id":"ce4bhn12rcd13ifvqgpg","pricing_plan_id":"cebpf4jnsgd1na2vs0mg"},{"bike_id":"b12daf54-08b9-4934-808b-22cb4ab0ef88","system_id":"levelo_inurba_marseille","lat":43.30491,"lon":5.36513,"is_reserved":false,"is_disabled":false,"rental_uris":{"android":"levelo://app?vid=b12daf54-08b9-4934-808b-22cb4ab0ef88","ios":"levelo://app?vid=b12daf54-08b9-4934-808b-22cb4ab0ef88"},"vehicle_type_id":"4","last_reported":1775053447,"current_range_meters":8000,"station_id":"ce4bgs12rcd13ifvqcag","pricing_plan_id":"cebpf4jnsgd1na2vs0mg"},{"bike_id":"bed085cd-e643-4cf8-a83c-4e3f37218df7","system_id":"levelo_inurba_marseille","lat":43.23128,"lon":5.40173,"is_reserved":false,"is_disabled":false,"rental_uris":{"android":"levelo://app?vid=bed085cd-e643-4cf8-a83c-4e3f37218df7","ios":"levelo://app?vid=bed085cd-e643-4cf8-a83c-4e3f37218df7"},"vehicle_type_id":"4","last_reported":1775053447,"current_range_meters":8000,"station_id":"","pricing_plan_id":"cebpf4jnsgd1na2vs0mg"},{"bike_id":"801e394f-075e-436d-a193-48f5477757ff","system_id":"levelo_inurba_marseille","lat":43.24643,"lon":5.38889,"is_reserved":false,"is_disabled":false,"rental_uris":{"android":"levelo://app?vid=801e394f-075e-436d-a193-48f5477757ff","ios":"levelo://app?vid=801e394f-075e-436d-a193-48f5477757ff"},"vehicle_type_id":"4","last_reported":1775053447,"current_range_meters":8000,"station_id":"ce4bhg12rcd13ifvqf60","pricing_plan_id":"cebpf4jnsgd1na2vs0mg"},{"bike_id":"c267eaf3-200a-4a1c-8074-fa1f1a8154c6","system_id":"levelo_inurba_marseille","lat":43.21746,"lon":5.34603,"is_reserved":false,"is_disabled":false,"rental_uris":{"android":"levelo://app?vid=c267eaf3-200a-4a1c-8074-fa1f1a8154c6","ios":"levelo://app?vid=c267eaf3-200a-4a1c-8074-fa1f1a8154c6"},"vehicle_type_id":"4","last_reported":1775053447,"current_range_meters":8000,"station_id":"st_cvj6r9ubvosntc0bgbag","pricing_plan_id":"cebpf4jnsgd1na2vs0mg"},{"bike_id":"f28e4a14-d180-4ecc-a04d-c8aaafbee892","system_id":"levelo_inurba_marseille","lat":43.24999,"lon":5.38925,"is_reserved":false,"is_disabled":false,"rental_uris":{"android":"levelo://app?vid=f28e4a14-d180-4ecc-a04d-c8aaafbee892","ios":"levelo://app?vid=f28e4a14-d180-4ecc-a04d-c8aaafbee892"},"vehicle_type_id":"4","last_reported":1775053447,"current_range_meters":8000,"station_id":"ce4bhgp2rcd13ifvqfd0","pricing_plan_id":"cebpf4jnsgd1na2vs0mg"},{"bike_id":"4bf36fd2-1e8c-4fcf-9092-da10f6287b33","system_id":"levelo_inurba_marseille","lat":43.27368,"lon":5.36252,"is_reserved":false,"is_disabled":false,"rental_uris":{"android":"levelo://app?vid=4bf36fd2-1e8c-4fcf-9092-da10f6287b33","ios":"levelo://app?vid=4bf36fd2-1e8c-4fcf-9092-da10f6287b33"},"vehicle_type_id":"4","last_reported":1775053447,"current_range_meters":8000,"station_id":"ce4bhbh2rcd13ifvqeo0","pricing_plan_id":"cebpf4jnsgd1na2vs0mg"},{"bike_id":"255efcce-2b99-4f4e-b9d7-a398d703d731","system_id":"levelo_inurba_marseille","lat":43.297081,"lon":5.389291,"is_reserved":false,"is_disabled":false,"rental_uris":{"android":"levelo://app?vid=255efcce-2b99-4f4e-b9d7-a398d703d731","ios":"levelo://app?vid=255efcce-2b99-4f4e-b9d7-a398d703d731"},"vehicle_type_id":"4","last_reported":1775053447,"current_range_meters":8400,"station_id":"ce4bh112rcd13ifvqda0","pricing_plan_id":"cebpf4jnsgd1na2vs0mg"},{"bike_id":"b9a2dc0a-a78c-4ec1-b214-1ebc47ea2ab0","system_id":"levelo_inurba_marseille","lat":43.22548,"lon":5.41646,"is_reserved":false,"is_disabled":false,"rental_uris":{"android":"levelo://app?vid=b9a2dc0a-a78c-4ec1-b214-1ebc47ea2ab0","ios":"levelo://app?vid=b9a2dc0a-a78c-4ec1-b214-1ebc47ea2ab0"},"vehicle_type_id":"4","last_reported":1775053447,"current_range_meters":8400,"station_id":"st_d2o4gvlbi1j2169b742g","pricing_plan_id":"cebpf4jnsgd1na2vs0mg"},{"bike_id":"ce8c76c9-8d46-40c8-b510-58f72cf4c10f","system_id":"levelo_inurba_marseille","lat":43.2841,"lon":5.35001,"is_reserved":false,"is_disabled":false,"rental_uris":{"android":"levelo://app?vid=ce8c76c9-8d46-40c8-b510-58f72cf4c10f","ios":"levelo://app?vid=ce8c76c9-8d46-40c8-b510-58f72cf4c10f"},"vehicle_type_id":"4","last_reported":1775053447,"current_range_meters":8400,"station_id":"ce4bhbh2rcd13ifvqepg","pricing_plan_id":"cebpf4jnsgd1na2vs0mg"},{"bike_id":"11d19dab-7798-472d-a3cd-c1ff1cf623a6","system_id":"levelo_inurba_marseille","lat":43.25007,"lon":5.38912,"is_reserved":false,"is_disabled":false,"rental_uris":{"android":"levelo://app?vid=11d19dab-7798-472d-a3cd-c1ff1cf623a6","ios":"levelo://app?vid=11d19dab-7798-472d-a3cd-c1ff1cf623a6"},"vehicle_type_id":"4","last_reported":1775053447,"current_range_meters":8400,"station_id":"ce4bhgp2rcd13ifvqfd0","pricing_plan_id":"cebpf4jnsgd1na2vs0mg"},{"bike_id":"3d77d88e-794b-4680-b1b8-de3bf4d0cda7","system_id":"levelo_inurba_marseille","lat":43.25582,"lon":5.38231,"is_reserved":false,"is_disabled":false,"rental_uris":{"android":"levelo://app?vid=3d77d88e-794b-4680-b1b8-de3bf4d0cda7","ios":"levelo://app?vid=3d77d88e-794b-4680-b1b8-de3bf4d0cda7"},"vehicle_type_id":"4","last_reported":1775053447,"current_range_meters":8400,"station_id":"ce4bhih2rcd13ifvqfs0","pricing_plan_id":"cebpf4jnsgd1na2vs0mg"},{"bike_id":"17987e54-a74f-4b58-9a2b-684ccc9cae15","system_id":"levelo_inurba_marseille","lat":43.30294,"lon":5.3689,"is_reserved":false,"is_disabled":false,"rental_uris":{"android":"levelo://app?vid=17987e54-a74f-4b58-9a2b-684ccc9cae15","ios":"levelo://app?vid=17987e54-a74f-4b58-9a2b-684ccc9cae15"},"vehicle_type_id":"4","last_reported":1775053447,"current_range_meters":8400,"station_id":"ce4bgqh2rcd13ifvqc5g","pricing_plan_id":"cebpf4jnsgd1na2vs0mg"},{"bike_id":"68945dd7-fcc7-4d4c-a459-6c84a8a17358","system_id":"levelo_inurba_marseille","lat":43.23962,"lon":5.3663,"is_reserved":false,"is_disabled":false,"rental_uris":{"android":"levelo://app?vid=68945dd7-fcc7-4d4c-a459-6c84a8a17358","ios":"levelo://app?vid=68945dd7-fcc7-4d4c-a459-6c84a8a17358"},"vehicle_type_id":"4","last_reported":1775053447,"current_range_meters":8400,"station_id":"ce4bhi12rcd13ifvqfp0","pricing_plan_id":"cebpf4jnsgd1na2vs0mg"},{"bike_id":"9139abb1-4c46-4177-a461-e51c411e8289","system_id":"levelo_inurba_marseille","lat":43.24966,"lon":5.40482,"is_reserved":false,"is_disabled":false,"rental_uris":{"android":"levelo://app?vid=9139abb1-4c46-4177-a461-e51c411e8289","ios":"levelo://app?vid=9139abb1-4c46-4177-a461-e51c411e8289"},"vehicle_type_id":"4","last_reported":1775053447,"current_range_meters":8400,"station_id":"st_d2ngiaodas8pm72gd1h0","pricing_plan_id":"cebpf4jnsgd1na2vs0mg"},{"bike_id":"b423bea6-7a9b-4d39-a7eb-1c407ac541d0","system_id":"levelo_inurba_marseille","lat":43.28262,"lon":5.35064,"is_reserved":false,"is_disabled":false,"rental_uris":{"android":"levelo://app?vid=b423bea6-7a9b-4d39-a7eb-1c407ac541d0","ios":"levelo://app?vid=b423bea6-7a9b-4d39-a7eb-1c407ac541d0"},"vehicle_type_id":"4","last_reported":1775053447,"current_range_meters":8400,"station_id":"ce4bhbp2rcd13ifvqerg","pricing_plan_id":"cebpf4jnsgd1na2vs0mg"},{"bike_id":"17b8fc26-3ba8-4cf9-a457-0b2cc0ec871e","system_id":"levelo_inurba_marseille","lat":43.27466,"lon":5.41658,"is_reserved":false,"is_disabled":false,"rental_uris":{"android":"levelo://app?vid=17b8fc26-3ba8-4cf9-a457-0b2cc0ec871e","ios":"levelo://app?vid=17b8fc26-3ba8-4cf9-a457-0b2cc0ec871e"},"vehicle_type_id":"4","last_reported":1775053447,"current_range_meters":8400,"station_id":"","pricing_plan_id":"cebpf4jnsgd1na2vs0mg"},{"bike_id":"e125ec2c-c1f3-4f98-8302-6b86870eed3b","system_id":"levelo_inurba_marseille","lat":43.28617,"lon":5.35097,"is_reserved":false,"is_disabled":false,"rental_uris":{"android":"levelo://app?vid=e125ec2c-c1f3-4f98-8302-6b86870eed3b","ios":"levelo://app?vid=e125ec2c-c1f3-4f98-8302-6b86870eed3b"},"vehicle_type_id":"4","last_reported":1775053447,"current_range_meters":8400,"station_id":"ce4bhch2rcd13ifvqeug","pricing_plan_id":"cebpf4jnsgd1na2vs0mg"},{"bike_id":"b8acc31c-8e82-4e01-a84e-0ccdc5227b32","system_id":"levelo_inurba_marseille","lat":43.31332,"lon":5.36736,"is_reserved":false,"is_disabled":false,"rental_uris":{"android":"levelo://app?vid=b8acc31c-8e82-4e01-a84e-0ccdc5227b32","ios":"levelo://app?vid=b8acc31c-8e82-4e01-a84e-0ccdc5227b32"},"vehicle_type_id":"4","last_reported":1775053447,"current_range_meters":8400,"station_id":"ce4bgr92rcd13ifvqc6g","pricing_plan_id":"cebpf4jnsgd1na2vs0mg"},{"bike_id":"a03b38c3-0cbd-4143-b398-c981b6d41a75","system_id":"levelo_inurba_marseille","lat":43.24396,"lon":5.37075,"is_reserved":false,"is_disabled":false,"rental_uris":{"android":"levelo://app?vid=a03b38c3-0cbd-4143-b398-c981b6d41a75","ios":"levelo://app?vid=a03b38c3-0cbd-4143-b398-c981b6d41a75"},"vehicle_type_id":"4","last_reported":1775053447,"current_range_meters":8400,"station_id":"ce4bhhh2rcd13ifvqfk0","pricing_plan_id":"cebpf4jnsgd1na2vs0mg"},{"bike_id":"0206ffc5-0182-40fd-8d99-4000e06086be","system_id":"levelo_inurba_marseille","lat":43.29524,"lon":5.38649,"is_reserved":false,"is_disabled":true,"rental_uris":{"android":"levelo://app?vid=0206ffc5-0182-40fd-8d99-4000e06086be","ios":"levelo://app?vid=0206ffc5-0182-40fd-8d99-4000e06086be"},