{"last_updated":1743963117,"ttl":60,"version":"2.2","data":{"bikes":[{"bike_id":"b7e73b14-b806-4034-9682-05f3b9f76937","system_id":"levelo_inurba_marseille","lat":43.30118,"lon":5.39869,"is_reserved":false,"is_disabled":false,"rental_uris":{"android":"levelo://app?vid=b7e73b14-b806-4034-9682-05f3b9f76937","ios":"levelo://app?vid=b7e73b14-b806-4034-9682-05f3b9f76937"},"vehicle_type_id":"4","last_reported":1743963118,"current_range_meters":2800,"station_id":"ce4bh0h2rcd13ifvqd40","pricing_plan_id":"cebpf4jnsgd1na2vs0mg"},{"bike_id":"90694776-fa89-4062-b3cb-ea3b0f594559","system_id":"levelo_inurba_marseille","lat":43.304457,"lon":5.388951,"is_reserved":false,"is_disabled":false,"rental_uris":{"android":"levelo://app?vid=90694776-fa89-4062-b3cb-ea3b0f594559","ios":"levelo://app?vid=90694776-fa89-4062-b3cb-ea3b0f594559"},"vehicle_type_id":"4","last_reported":1743963118,"current_range_meters":2000,"station_id":"ce4bgk12rcd13ifvqbi0","pricing_plan_id":"cebpf4jnsgd1na2vs0mg"},{"bike_id":"28ae5d26-b551-490f-b580-1fa226ddc37d","system_id":"levelo_inurba_marseille","lat":43.29008,"lon":5.37539,"is_reserved":false,"is_disabled":false,"rental_uris":{"android":"levelo://app?vid=28ae5d26-b551-490f-b580-1fa226ddc37d","ios":"levelo://app?vid=28ae5d26-b551-490f-b580-1fa226ddc37d"},"vehicle_type_id":"4","last_reported":1743963118,"current_range_meters":2800,"station_id":"ce4bh692rcd13ifvqe90","pricing_plan_id":"cebpf4jnsgd1na2vs0mg"},{"bike_id":"952aa551-7f53-46a6-bd36-6c2a48f76585","system_id":"levelo_inurba_marseille","lat":43.28998,"lon":5.35594,"is_reserved":false,"is_disabled":false,"rental_uris":{"android":"levelo://app?vid=952aa551-7f53-46a6-bd36-6c2a48f76585","ios":"levelo://app?vid=952aa551-7f53-46a6-bd36-6c2a48f76585"},"vehicle_type_id":"4","last_reported":1743963118,"current_range_meters":2800,"station_id":"ce4bhb92rcd13ifvqen0","pricing_plan_id":"cebpf4jnsgd1na2vs0mg"},{"bike_id":"fffee423-3616-4068-af4d-f834db6e04a9","system_id":"levelo_inurba_marseille","lat":43.303,"lon":5.36898,"is_reserved":false,"is_disabled":false,"rental_uris":{"android":"levelo://app?vid=fffee423-3616-4068-af4d-f834db6e04a9","ios":"levelo://app?vid=fffee423-3616-4068-af4d-f834db6e04a9"},"vehicle_type_id":"4","last_reported":1743963118,"current_range_meters":2800,"station_id":"ce4bgqh2rcd13ifvqc5g","pricing_plan_id":"cebpf4jnsgd1na2vs0mg"},{"bike_id":"8a954b1a-9ca0-4b4a-ba38-a64a7b4d9e73","system_id":"levelo_inurba_marseille","lat":43.282715,"lon":5.350711,"is_reserved":false,"is_disabled":false,"rental_uris":{"android":"levelo://app?vid=8a954b1a-9ca0-4b4a-ba38-a64a7b4d9e73","ios":"levelo://app?vid=8a954b1a-9ca0-4b4a-ba38-a64a7b4d9e73"},"vehicle_type_id":"4","last_reported":1743963118,"current_range_meters":2000,"station_id":"ce4bhbp2rcd13ifvqerg","pricing_plan_id":"cebpf4jnsgd1na2vs0mg"},{"bike_id":"1c3f9a69-a1d2-4029-8789-36a33f1d247e","system_id":"levelo_inurba_marseille","lat":43.29189,"lon":5.35803,"is_reserved":false,"is_disabled":false,"rental_uris":{"android":"levelo://app?vid=1c3f9a69-a1d2-4029-8789-36a33f1d247e","ios":"levelo://app?vid=1c3f9a69-a1d2-4029-8789-36a33f1d247e"},"vehicle_type_id":"4","last_reported":1743963118,"current_range_meters":2000,"station_id":"ce4bhb12rcd13ifvqel0","pricing_plan_id":"cebpf4jnsgd1na2vs0mg"},{"bike_id":"33ff0f49-f094-4c47-b861-ac25bc6bb883","system_id":"levelo_inurba_marseille","lat":43.30917,"lon":5.40139,"is_reserved":false,"is_disabled":false,"rental_uris":{"android":"levelo://app?vid=33ff0f49-f094-4c47-b861-ac25bc6bb883","ios":"levelo://app?vid=33ff0f49-f094-4c47-b861-ac25bc6bb883"},"vehicle_type_id":"4","last_reported":1743963118,"current_range_meters":2800,"station_id":"ce4bgvp2rcd13ifvqct0","pricing_plan_id":"cebpf4jnsgd1na2vs0mg"},{"bike_id":"29adc4d4-dad4-47ef-92c2-8ad58eb5a3df","system_id":"levelo_inurba_marseille","lat":43.31506,"lon":5.37284,"is_reserved":false,"is_disabled":false,"rental_uris":{"android":"levelo://app?vid=29adc4d4-dad4-47ef-92c2-8ad58eb5a3df","ios":"levelo://app?vid=29adc4d4-dad4-47ef-92c2-8ad58eb5a3df"},"vehicle_type_id":"4","last_reported":1743963118,"current_range_meters":3200,"station_id":"ce4bgt12rcd13ifvqcd0","pricing_plan_id":"cebpf4jnsgd1na2vs0mg"},{"bike_id":"b780db30-7dc3-42ce-950b-43bda8c5cdf9","system_id":"levelo_inurba_marseille","lat":43.29556,"lon":5.42292,"is_reserved":false,"is_disabled":false,"rental_uris":{"android":"levelo://app?vid=b780db30-7dc3-42ce-950b-43bda8c5cdf9","ios":"levelo://app?vid=b780db30-7dc3-42ce-950b-43bda8c5cdf9"},"vehicle_type_id":"4","last_reported":1743963118,"current_range_meters":3200,"station_id":"ce4bhph2rcd13ifvqhdg","pricing_plan_id":"cebpf4jnsgd1na2vs0mg"},{"bike_id":"897c73b2-cceb-4ea5-bddb-dbf222bcdd14","system_id":"levelo_inurba_marseille","lat":43.2681,"lon":5.40274,"is_reserved":false,"is_disabled":false,"rental_uris":{"android":"levelo://app?vid=897c73b2-cceb-4ea5-bddb-dbf222bcdd14","ios":"levelo://app?vid=897c73b2-cceb-4ea5-bddb-dbf222bcdd14"},"vehicle_type_id":"4","last_reported":1743963118,"current_range_meters":3200,"station_id":"ce501612rcd8frsf0b60","pricing_plan_id":"cebpf4jnsgd1na2vs0mg"},{"bike_id":"7b19163d-c9f3-4b2f-8840-d2916f5f53b2","system_id":"levelo_inurba_marseille","lat":43.31272,"lon":5.40182,"is_reserved":false,"is_disabled":false,"rental_uris":{"android":"levelo://app?vid=7b19163d-c9f3-4b2f-8840-d2916f5f53b2","ios":"levelo://app?vid=7b19163d-c9f3-4b2f-8840-d2916f5f53b2"},"vehicle_type_id":"4","last_reported":1743963118,"current_range_meters":3200,"station_id":"ce4bh092rcd13ifvqd30","pricing_plan_id":"cebpf4jnsgd1na2vs0mg"},{"bike_id":"fa797c50-e7d1-4028-a02b-33881f91fce3","system_id":"levelo_inurba_marseille","lat":43.26965,"lon":5.40265,"is_reserved":false,"is_disabled":false,"rental_uris":{"android":"levelo://app?vid=fa797c50-e7d1-4028-a02b-33881f91fce3","ios":"levelo://app?vid=fa797c50-e7d1-4028-a02b-33881f91fce3"},"vehicle_type_id":"4","last_reported":1743963118,"current_range_meters":3200,"station_id":"cjm6bp8fraef2m0cb0m0","pricing_plan_id":"cebpf4jnsgd1na2vs0mg"},{"bike_id":"3a69c7bf-ffb3-4dce-af64-5df0ba24282c","system_id":"levelo_inurba_marseille","lat":43.27671,"lon":5.38926,"is_reserved":false,"is_disabled":false,"rental_uris":{"android":"levelo://app?vid=3a69c7bf-ffb3-4dce-af64-5df0ba24282c","ios":"levelo://app?vid=3a69c7bf-ffb3-4dce-af64-5df0ba24282c"},"vehicle_type_id":"4","last_reported":1743963118,"current_range_meters":3200,"station_id":"ce4bhi12rcd13ifvqfo0","pricing_plan_id":"cebpf4jnsgd1na2vs0mg"},{"bike_id":"a7a4d96d-d183-424b-b457-cca239a3e09a","system_id":"levelo_inurba_marseille","lat":43.29021,"lon":5.3863,"is_reserved":false,"is_disabled":false,"rental_uris":{"android":"levelo://app?vid=a7a4d96d-d183-424b-b457-cca239a3e09a","ios":"levelo://app?vid=a7a4d96d-d183-424b-b457-cca239a3e09a"},"vehicle_type_id":"4","last_reported":1743963118,"current_range_meters":3200,"station_id":"ce4bh4p2rcd13ifvqe0g","pricing_plan_id":"cebpf4jnsgd1na2vs0mg"},{"bike_id":"adc342d2-19f5-42c8-bd32-0f6dd7900d25","system_id":"levelo_inurba_marseille","lat":43.274266,"lon":5.394114,"is_reserved":false,"is_disabled":false,"rental_uris":{"android":"levelo://app?vid=adc342d2-19f5-42c8-bd32-0f6dd7900d25","ios":"levelo://app?vid=adc342d2-19f5-42c8-bd32-0f6dd7900d25"},"vehicle_type_id":"4","last_reported":1743963118,"current_range_meters":3600,"station_id":"ce4bhdp2rcd13ifvqf20","pricing_plan_id":"cebpf4jnsgd1na2vs0mg"},{"bike_id":"2d8bb08d-82a1-4643-af79-3fb90700aa5e","system_id":"levelo_inurba_marseille","lat":43.27908,"lon":5.38018,"is_reserved":false,"is_disabled":false,"rental_uris":{"android":"levelo://app?vid=2d8bb08d-82a1-4643-af79-3fb90700aa5e","ios":"levelo://app?vid=2d8bb08d-82a1-4643-af79-3fb90700aa5e"},"vehicle_type_id":"4","last_reported":1743963118,"current_range_meters":3200,"station_id":"ce4bhf92rcd13ifvqf50","pricing_plan_id":"cebpf4jnsgd1na2vs0mg"},{"bike_id":"a1842ac9-e197-40d3-93e7-9bd66c78e7b9","system_id":"levelo_inurba_marseille","lat":43.27209,"lon":5.39179,"is_reserved":false,"is_disabled":false,"rental_uris":{"android":"levelo://app?vid=a1842ac9-e197-40d3-93e7-9bd66c78e7b9","ios":"levelo://app?vid=a1842ac9-e197-40d3-93e7-9bd66c78e7b9"},"vehicle_type_id":"4","last_reported":1743963118,"current_range_meters":3600,"station_id":"ce4bhhp2rcd13ifvqfm0","pricing_plan_id":"cebpf4jnsgd1na2vs0mg"},{"bike_id":"ae716273-6780-43d4-ab38-cb6063eb2cf2","system_id":"levelo_inurba_marseille","lat":43.2668,"lon":5.38275,"is_reserved":false,"is_disabled":false,"rental_uris":{"android":"levelo://app?vid=ae716273-6780-43d4-ab38-cb6063eb2cf2","ios":"levelo://app?vid=ae716273-6780-43d4-ab38-cb6063eb2cf2"},"vehicle_type_id":"4","last_reported":1743963118,"current_range_meters":3600,"station_id":"ce4bhg92rcd13ifvqf90","pricing_plan_id":"cebpf4jnsgd1na2vs0mg"},{"bike_id":"0aaaea80-019d-47ef-91c5-b5c4f9991457","system_id":"levelo_inurba_marseille","lat":43.29514,"lon":5.3941,"is_reserved":false,"is_disabled":false,"rental_uris":{"android":"levelo://app?vid=0aaaea80-019d-47ef-91c5-b5c4f9991457","ios":"levelo://app?vid=0aaaea80-019d-47ef-91c5-b5c4f9991457"},"vehicle_type_id":"4","last_reported":1743963118,"current_range_meters":3600,"station_id":"ce4bh292rcd13ifvqdf0","pricing_plan_id":"cebpf4jnsgd1na2vs0mg"},{"bike_id":"1193d21e-5d20-4e82-a914-65683e3843b0","system_id":"levelo_inurba_marseille","lat":43.27432,"lon":5.3941,"is_reserved":false,"is_disabled":false,"rental_uris":{"android":"levelo://app?vid=1193d21e-5d20-4e82-a914-65683e3843b0","ios":"levelo://app?vid=1193d21e-5d20-4e82-a914-65683e3843b0"},"vehicle_type_id":"4","last_reported":1743963118,"current_range_meters":3600,"station_id":"ce4bhdp2rcd13ifvqf20","pricing_plan_id":"cebpf4jnsgd1na2vs0mg"},{"bike_id":"fc2d6ab6-f582-48e7-be41-4ce25b8b94a7","system_id":"levelo_inurba_marseille","lat":43.29962,"lon":5.3849,"is_reserved":false,"is_disabled":false,"rental_uris":{"android":"levelo://app?vid=fc2d6ab6-f582-48e7-be41-4ce25b8b94a7","ios":"levelo://app?vid=fc2d6ab6-f582-48e7-be41-4ce25b8b94a7"},"vehicle_type_id":"4","last_reported":1743963118,"current_range_meters":3600,"station_id":"ce4bgj92rcd13ifvqbd0","pricing_plan_id":"cebpf4jnsgd1na2vs0mg"},{"bike_id":"89e691c1-f177-4a50-8b6b-be3afb38044c","system_id":"levelo_inurba_marseille","lat":43.31333,"lon":5.39709,"is_reserved":false,"is_disabled":false,"rental_uris":{"android":"levelo://app?vid=89e691c1-f177-4a50-8b6b-be3afb38044c","ios":"levelo://app?vid=89e691c1-f177-4a50-8b6b-be3afb38044c"},"vehicle_type_id":"4","last_reported":1743963118,"current_range_meters":3600,"station_id":"ce4bgvp2rcd13ifvqcu0","pricing_plan_id":"cebpf4jnsgd1na2vs0mg"},{"bike_id":"fb0d4993-67fa-4314-9525-ef2ba9197c72","system_id":"levelo_inurba_marseille","lat":43.30263,"lon":5.4063,"is_reserved":false,"is_disabled":false,"rental_uris":{"android":"levelo://app?vid=fb0d4993-67fa-4314-9525-ef2ba9197c72","ios":"levelo://app?vid=fb0d4993-67fa-4314-9525-ef2ba9197c72"},"vehicle_type_id":"4","last_reported":1743963118,"current_range_meters":3600,"station_id":"","pricing_plan_id":"cebpf4jnsgd1na2vs0mg"},{"bike_id":"e46b8432-7453-4839-8af5-ba41a6bf037a","system_id":"levelo_inurba_marseille","lat":43.24389,"lon":5.37061,"is_reserved":false,"is_disabled":false,"rental_uris":{"android":"levelo://app?vid=e46b8432-7453-4839-8af5-ba41a6bf037a","ios":"levelo://app?vid=e46b8432-7453-4839-8af5-ba41a6bf037a"},"vehicle_type_id":"4","last_reported":1743963118,"current_range_meters":3600,"station_id":"ce4bhhh2rcd13ifvqfk0","pricing_plan_id":"cebpf4jnsgd1na2vs0mg"},{"bike_id":"0ed64cac-6016-48db-ac4a-cd345445dade","system_id":"levelo_inurba_marseille","lat":43.29345,"lon":5.37471,"is_reserved":false,"is_disabled":false,"rental_uris":{"android":"levelo://app?vid=0ed64cac-6016-48db-ac4a-cd345445dade","ios":"levelo://app?vid=0ed64cac-6016-48db-ac4a-cd345445dade"},"vehicle_type_id":"4","last_reported":1743963118,"current_range_meters":3600,"station_id":"ce4bgi12rcd13ifvqb70","pricing_plan_id":"cebpf4jnsgd1na2vs0mg"},{"bike_id":"e235c6bc-12c9-40dc-b105-78466e8db30f","system_id":"levelo_inurba_marseille","lat":43.27208,"lon":5.39187,"is_reserved":false,"is_disabled":false,"rental_uris":{"android":"levelo://app?vid=e235c6bc-12c9-40dc-b105-78466e8db30f","ios":"levelo://app?vid=e235c6bc-12c9-40dc-b105-78466e8db30f"},"vehicle_type_id":"4","last_reported":1743963118,"current_range_meters":3600,"station_id":"ce4bhhp2rcd13ifvqfm0","pricing_plan_id":"cebpf4jnsgd1na2vs0mg"},{"bike_id":"78a6c39c-1164-42e4-9e01-9540e04e73af","system_id":"levelo_inurba_marseille","lat":43.27673,"lon":5.38904,"is_reserved":false,"is_disabled":false,"rental_uris":{"android":"levelo://app?vid=78a6c39c-1164-42e4-9e01-9540e04e73af","ios":"levelo://app?vid=78a6c39c-1164-42e4-9e01-9540e04e73af"},"vehicle_type_id":"4","last_reported":1743963118,"current_range_meters":3600,"station_id":"ce4bhi12rcd13ifvqfo0","pricing_plan_id":"cebpf4jnsgd1na2vs0mg"},{"bike_id":"2a362067-20ab-4ead-a91d-625d111eb10b","system_id":"levelo_inurba_marseille","lat":43.293671,"lon":5.378567,"is_reserved":false,"is_disabled":false,"rental_uris":{"android":"levelo://app?vid=2a362067-20ab-4ead-a91d-625d111eb10b","ios":"levelo://app?vid=2a362067-20ab-4ead-a91d-625d111eb10b"},"vehicle_type_id":"4","last_reported":1743963118,"current_range_meters":3600,"station_id":"ce4bgpp2rcd13ifvqc3g","pricing_plan_id":"cebpf4jnsgd1na2vs0mg"},{"bike_id":"d013b7de-d4ec-4296-894f-25f511911876","system_id":"levelo_inurba_marseille","lat":43.28491,"lon":5.38549,"is_reserved":false,"is_disabled":false,"rental_uris":{"android":"levelo://app?vid=d013b7de-d4ec-4296-894f-25f511911876","ios":"levelo://app?vid=d013b7de-d4ec-4296-894f-25f511911876"},"vehicle_type_id":"4","last_reported":1743963118,"current_range_meters":3600,"station_id":"ce4bh8p2rcd13ifvqeb0","pricing_plan_id":"cebpf4jnsgd1na2vs0mg"},{"bike_id":"a8c5543f-0892-43cb-b96f-3c97bb120ec9","system_id":"levelo_inurba_marseille","lat":43.3173,"lon":5.43712,"is_reserved":false,"is_disabled":false,"rental_uris":{"android":"levelo://app?vid=a8c5543f-0892-43cb-b96f-3c97bb120ec9","ios":"levelo://app?vid=a8c5543f-0892-43cb-b96f-3c97bb120ec9"},"vehicle_type_id":"4","last_reported":1743963118,"current_range_meters":4000,"station_id":"ce4bhp92rcd13ifvqhcg","pricing_plan_id":"cebpf4jnsgd1na2vs0mg"},{"bike_id":"fd9b2368-7dbb-4d0b-b0b0-a7d542ae2300","system_id":"levelo_inurba_marseille","lat":43.27829,"lon":5.39212,"is_reserved":false,"is_disabled":false,"rental_uris":{"android":"levelo://app?vid=fd9b2368-7dbb-4d0b-b0b0-a7d542ae2300","ios":"levelo://app?vid=fd9b2368-7dbb-4d0b-b0b0-a7d542ae2300"},"vehicle_type_id":"4","last_reported":1743963118,"current_range_meters":4000,"station_id":"ce4bhjp2rcd13ifvqga0","pricing_plan_id":"cebpf4jnsgd1na2vs0mg"},{"bike_id":"a57e6b2f-d2aa-4ea0-8ac9-143e1e273859","system_id":"levelo_inurba_marseille","lat":43.28576,"lon":5.395,"is_reserved":false,"is_disabled":false,"rental_uris":{"android":"levelo://app?vid=a57e6b2f-d2aa-4ea0-8ac9-143e1e273859","ios":"levelo://app?vid=a57e6b2f-d2aa-4ea0-8ac9-143e1e273859"},"vehicle_type_id":"4","last_reported":1743963118,"current_range_meters":3600,"station_id":"ce4bh292rcd13ifvqdg0","pricing_plan_id":"cebpf4jnsgd1na2vs0mg"},{"bike_id":"19c21be0-0877-4548-935f-a1ee611aad09","system_id":"levelo_inurba_marseille","lat":43.26803,"lon":5.40267,"is_reserved":false,"is_disabled":false,"rental_uris":{"android":"levelo://app?vid=19c21be0-0877-4548-935f-a1ee611aad09","ios":"levelo://app?vid=19c21be0-0877-4548-935f-a1ee611aad09"},"vehicle_type_id":"4","last_reported":1743963118,"current_range_meters":4000,"station_id":"ce501612rcd8frsf0b60","pricing_plan_id":"cebpf4jnsgd1na2vs0mg"},{"bike_id":"058cee04-69ca-49c8-9c72-2e78fb77071d","system_id":"levelo_inurba_marseille","lat":43.28934,"lon":5.36635,"is_reserved":false,"is_disabled":false,"rental_uris":{"android":"levelo://app?vid=058cee04-69ca-49c8-9c72-2e78fb77071d","ios":"levelo://app?vid=058cee04-69ca-49c8-9c72-2e78fb77071d"},"vehicle_type_id":"4","last_reported":1743963118,"current_range_meters":4000,"station_id":"ce4bhap2rcd13ifvqek0","pricing_plan_id":"cebpf4jnsgd1na2vs0mg"},{"bike_id":"37566333-73c3-4404-ba7c-c72222dd323d","system_id":"levelo_inurba_marseille","lat":43.29037,"lon":5.38139,"is_reserved":false,"is_disabled":false,"rental_uris":{"android":"levelo://app?vid=37566333-73c3-4404-ba7c-c72222dd323d","ios":"levelo://app?vid=37566333-73c3-4404-ba7c-c72222dd323d"},"vehicle_type_id":"4","last_reported":1743963118,"current_range_meters":4000,"station_id":"ce4bh4p2rcd13ifvqe1g","pricing_plan_id":"cebpf4jnsgd1na2vs0mg"},{"bike_id":"8bb65164-1e34-40cc-9e52-1793cf4bc7fd","system_id":"levelo_inurba_marseille","lat":43.3143,"lon":5.38541,"is_reserved":false,"is_disabled":false,"rental_uris":{"android":"levelo://app?vid=8bb65164-1e34-40cc-9e52-1793cf4bc7fd","ios":"levelo://app?vid=8bb65164-1e34-40cc-9e52-1793cf4bc7fd"},"vehicle_type_id":"4","last_reported":1743963118,"current_range_meters":4000,"station_id":"","pricing_plan_id":"cebpf4jnsgd1na2vs0mg"},{"bike_id":"92e02262-6e02-43da-9559-af9c6648ad7a","system_id":"levelo_inurba_marseille","lat":43.2842,"lon":5.37524,"is_reserved":false,"is_disabled":false,"rental_uris":{"android":"levelo://app?vid=92e02262-6e02-43da-9559-af9c6648ad7a","ios":"levelo://app?vid=92e02262-6e02-43da-9559-af9c6648ad7a"},"vehicle_type_id":"4","last_reported":1743963118,"current_range_meters":4000,"station_id":"ce4bh412rcd13ifvqds0","pricing_plan_id":"cebpf4jnsgd1na2vs0mg"},{"bike_id":"8739ea41-f2be-441b-82fb-ac6608ea96ab","system_id":"levelo_inurba_marseille","lat":43.27108,"lon":5.3897,"is_reserved":false,"is_disabled":false,"rental_uris":{"android":"levelo://app?vid=8739ea41-f2be-441b-82fb-ac6608ea96ab","ios":"levelo://app?vid=8739ea41-f2be-441b-82fb-ac6608ea96ab"},"vehicle_type_id":"4","last_reported":1743963118,"current_range_meters":4000,"station_id":"ce4bh612rcd13ifvqe6g","pricing_plan_id":"cebpf4jnsgd1na2vs0mg"},{"bike_id":"a637d94b-88a9-424d-9a24-f7dbc8c0fb71","system_id":"levelo_inurba_marseille","lat":43.27428,"lon":5.39427,"is_reserved":false,"is_disabled":false,"rental_uris":{"android":"levelo://app?vid=a637d94b-88a9-424d-9a24-f7dbc8c0fb71","ios":"levelo://app?vid=a637d94b-88a9-424d-9a24-f7dbc8c0fb71"},"vehicle_type_id":"4","last_reported":1743963118,"current_range_meters":4000,"station_id":"ce4bhdp2rcd13ifvqf20","pricing_plan_id":"cebpf4jnsgd1na2vs0mg"},{"bike_id":"81e4dfdb-9987-477e-a9a5-d888b8697f65","system_id":"levelo_inurba_marseille","lat":43.29426,"lon":5.38613,"is_reserved":false,"is_disabled":true,"rental_uris":{"android":"levelo://app?vid=81e4dfdb-9987-477e-a9a5-d888b8697f65","ios":"levelo://app?vid=81e4dfdb-9987-477e-a9a5-d888b8697f65"},"vehicle_type_id":"4","last_reported":1743963118,"current_range_meters":4400,"station_id":"ce4bh2h2rcd13ifvqdh0","pricing_plan_id":"cebpf4jnsgd1na2vs0mg"},{"bike_id":"69f8a740-a0ff-4635-87ad-9b7d7d0db53e","system_id":"levelo_inurba_marseille","lat":43.246487,"lon":5.389124,"is_reserved":false,"is_disabled":true,"rental_uris":{"android":"levelo://app?vid=69f8a740-a0ff-4635-87ad-9b7d7d0db53e","ios":"levelo://app?vid=69f8a740-a0ff-4635-87ad-9b7d7d0db53e"},"vehicle_type_id":"4","last_reported":1743963118,"current_range_meters":4400,"station_id":"ce4bhg12rcd13ifvqf60","pricing_plan_id":"cebpf4jnsgd1na2vs0mg"},{"bike_id":"f13fd71f-d571-40d8-8115-4c103cd75902","system_id":"levelo_inurba_marseille","lat":43.30888,"lon":5.39651,"is_reserved":false,"is_disabled":false,"rental_uris":{"android":"levelo://app?vid=f13fd71f-d571-40d8-8115-4c103cd75902","ios":"levelo://app?vid=f13fd71f-d571-40d8-8115-4c103cd75902"},"vehicle_type_id":"4","last_reported":1743963118,"current_range_meters":4400,"station_id":"ce4bh012rcd13ifvqcv0","pricing_plan_id":"cebpf4jnsgd1na2vs0mg"},{"bike_id":"8e8105ce-63e2-4441-9ebe-d6a09a08a22e","system_id":"levelo_inurba_marseille","lat":43.29668,"lon":5.36204,"is_reserved":false,"is_disabled":false,"rental_uris":{"android":"levelo://app?vid=8e8105ce-63e2-4441-9ebe-d6a09a08a22e","ios":"levelo://app?vid=8e8105ce-63e2-4441-9ebe-d6a09a08a22e"},"vehicle_type_id":"4","last_reported":1743963118,"current_range_meters":4400,"station_id":"","pricing_plan_id":"cebpf4jnsgd1na2vs0mg"},{"bike_id":"e7670d38-02ac-4542-8a16-10a2d3ea197f","system_id":"levelo_inurba_marseille","lat":43.251007,"lon":5.403206,"is_reserved":false,"is_disabled":false,"rental_uris":{"android":"levelo://app?vid=e7670d38-02ac-4542-8a16-10a2d3ea197f","ios":"levelo://app?vid=e7670d38-02ac-4542-8a16-10a2d3ea197f"},"vehicle_type_id":"4","last_reported":1743963118,"current_range_meters":4400,"station_id":"ce4bhlh2rcd13ifvqgig","pricing_plan_id":"cebpf4jnsgd1na2vs0mg"},{"bike_id":"d43805a4-61bf-4345-8e28-e304be0d6a57","system_id":"levelo_inurba_marseille","lat":43.28612,"lon":5.37073,"is_reserved":false,"is_disabled":false,"rental_uris":{"android":"levelo://app?vid=d43805a4-61bf-4345-8e28-e304be0d6a57","ios":"levelo://app?vid=d43805a4-61bf-4345-8e28-e304be0d6a57"},"vehicle_type_id":"4","last_reported":1743963118,"current_range_meters":4400,"station_id":"ce4bht12rcd13ifvqi60","pricing_plan_id":"cebpf4jnsgd1na2vs0mg"},{"bike_id":"bd967021-b17d-43b1-ab6a-2dc24cd5274d","system_id":"levelo_inurba_marseille","lat":43.27305,"lon":5.39082,"is_reserved":false,"is_disabled":false,"rental_uris":{"android":"levelo://app?vid=bd967021-b17d-43b1-ab6a-2dc24cd5274d","ios":"levelo://app?vid=bd967021-b17d-43b1-ab6a-2dc24cd5274d"},"vehicle_type_id":"4","last_reported":1743963118,"current_range_meters":4400,"station_id":"ce4bhgp2rcd13ifvqfe0","pricing_plan_id":"cebpf4jnsgd1na2vs0mg"},{"bike_id":"018e8e99-63f3-4ddd-8c43-119a8d01c677","system_id":"levelo_inurba_marseille","lat":43.2319,"lon":5.39992,"is_reserved":false,"is_disabled":false,"rental_uris":{"android":"levelo://app?vid=018e8e99-63f3-4ddd-8c43-119a8d01c677","ios":"levelo://app?vid=018e8e99-63f3-4ddd-8c43-119a8d01c677"},"vehicle_type_id":"4","last_reported":1743963118,"current_range_meters":4400,"station_id":"ce4bhn12rcd13ifvqgqg","pricing_plan_id":"cebpf4jnsgd1na2vs0mg"},{"bike_id":"35988cb1-0f21-4499-b83c-b5570806f4f8","system_id":"levelo_inurba_marseille","lat":43.27156,"lon":5.40987,"is_reserved":false,"is_disabled":false,"rental_uris":{"android":"levelo://app?vid=35988cb1-0f21-4499-b83c-b5570806f4f8","ios":"levelo://app?vid=35988cb1-0f21-4499-b83c-b5570806f4f8"},"vehicle_type_id":"4","last_reported":1743963118,"current_range_meters":4800,"station_id":"ce4bhl12rcd13ifvqgf0","pricing_plan_id":"cebpf4jnsgd1na2vs0mg"},{"bike_id":"8120ed93-03d2-4df4-aeb6-31901aaff17e","system_id":"levelo_inurba_marseille","lat":43.2885,"lon":5.39329,"is_reserved":false,"is_disabled":false,"rental_uris":{"android":"levelo://app?vid=8120ed93-03d2-4df4-aeb6-31901aaff17e","ios":"levelo://app?vid=8120ed93-03d2-4df4-aeb6-31901aaff17e"},"vehicle_type_id":"4","last_reported":1743963118,"current_range_meters":4400,"station_id":"ce4bh2p2rcd13ifvqdi0","pricing_plan_id":"cebpf4jnsgd1na2vs0mg"},{"bike_id":"b13774f8-5e0e-447a-a517-a8852ce89fb5","system_id":"levelo_inurba_marseille","lat":43.27212,"lon":5.39184,"is_reserved":false,"is_disabled":false,"rental_uris":{"android":"levelo://app?vid=b13774f8-5e0e-447a-a517-a8852ce89fb5","ios":"levelo://app?vid=b13774f8-5e0e-447a-a517-a8852ce89fb5"},"vehicle_type_id":"4","last_reported":1743963118,"current_range_meters":4800,"station_id":"ce4bhhp2rcd13ifvqfm0","pricing_plan_id":"cebpf4jnsgd1na2vs0mg"},{"bike_id":"8752f352-63c7-4035-84db-ab936a48425a","system_id":"levelo_inurba_marseille","lat":43.27315,"lon":5.39065,"is_reserved":false,"is_disabled":false,"rental_uris":{"android":"levelo://app?vid=8752f352-63c7-4035-84db-ab936a48425a","ios":"levelo://app?vid=8752f352-63c7-4035-84db-ab936a48425a"},"vehicle_type_id":"4","last_reported":1743963118,"current_range_meters":4800,"station_id":"ce4bhgp2rcd13ifvqfe0","pricing_plan_id":"cebpf4jnsgd1na2vs0mg"},{"bike_id":"738422d5-b698-4761-a517-bd037d33cb4a","system_id":"levelo_inurba_marseille","lat":43.285725,"lon":5.394911,"is_reserved":false,"is_disabled":false,"rental_uris":{"android":"levelo://app?vid=738422d5-b698-4761-a517-bd037d33cb4a","ios":"levelo://app?vid=738422d5-b698-4761-a517-bd037d33cb4a"},"vehicle_type_id":"4","last_reported":1743963118,"current_range_meters":4800,"station_id":"cjm6bp8fraef2m0cb0m0","pricing_plan_id":"cebpf4jnsgd1na2vs0mg"},{"bike_id":"5e96b480-0943-41ff-bc95-79d78b1301a2","system_id":"levelo_inurba_marseille","lat":43.27494,"lon":5.42449,"is_reserved":false,"is_disabled":false,"rental_uris":{"android":"levelo://app?vid=5e96b480-0943-41ff-bc95-79d78b1301a2","ios":"levelo://app?vid=5e96b480-0943-41ff-bc95-79d78b1301a2"},"vehicle_type_id":"4","last_reported":1743963118,"current_range_meters":4800,"station_id":"ce4bhn92rcd13ifvqgrg","pricing_plan_id":"cebpf4jnsgd1na2vs0mg"},{"bike_id":"b29d8d9b-5ac4-48d4-9fac-832689b8d71d","system_id":"levelo_inurba_marseille","lat":43.30644,"lon":5.4006,"is_reserved":false,"is_disabled":false,"rental_uris":{"android":"levelo://app?vid=b29d8d9b-5ac4-48d4-9fac-832689b8d71d","ios":"levelo://app?vid=b29d8d9b-5ac4-48d4-9fac-832689b8d71d"},"vehicle_type_id":"4","last_reported":1743963118,"current_range_meters":4800,"station_id":"ce4bh112rcd13ifvqda0","pricing_plan_id":"cebpf4jnsgd1na2vs0mg"},{"bike_id":"c6ca1077-59ad-4c2b-aa98-15a6831e058b","system_id":"levelo_inurba_marseille","lat":43.30936,"lon":5.40149,"is_reserved":false,"is_disabled":false,"rental_uris":{"android":"levelo://app?vid=c6ca1077-59ad-4c2b-aa98-15a6831e058b","ios":"levelo://app?vid=c6ca1077-59ad-4c2b-aa98-15a6831e058b"},"vehicle_type_id":"4","last_reported":1743963118,"current_range_meters":4400,"station_id":"ce4bgvp2rcd13ifvqct0","pricing_plan_id":"cebpf4jnsgd1na2vs0mg"},{"bike_id":"69327e66-60b1-49d6-8800-d7ecebe467b1","system_id":"levelo_inurba_marseille","lat":43.27302,"lon":5.39081,"is_reserved":false,"is_disabled":false,"rental_uris":{"android":"levelo://app?vid=69327e66-60b1-49d6-8800-d7ecebe467b1","ios":"levelo://app?vid=69327e66-60b1-49d6-8800-d7ecebe467b1"},"vehicle_type_id":"4","last_reported":1743963118,"current_range_meters":4800,"station_id":"ce4bhgp2rcd13ifvqfe0","pricing_plan_id":"cebpf4jnsgd1na2vs0mg"},{"bike_id":"eb79d1f9-7c91-4ea2-b5f8-796189743e1a","system_id":"levelo_inurba_marseille","lat":43.34249,"lon":5.3811,"is_reserved":false,"is_disabled":false,"rental_uris":{"android":"levelo://app?vid=eb79d1f9-7c91-4ea2-b5f8-796189743e1a","ios":"levelo://app?vid=eb79d1f9-7c91-4ea2-b5f8-796189743e1a"},"vehicle_type_id":"4","last_reported":1743963118,"current_range_meters":5600,"station_id":"","pricing_plan_id":"cebpf4jnsgd1na2vs0mg"},{"bike_id":"e4062517-e30a-40ce-a1f1-c647699da836","system_id":"levelo_inurba_marseille","lat":43.29172,"lon":5.35867,"is_reserved":false,"is_disabled":false,"rental_uris":{"android":"levelo://app?vid=e4062517-e30a-40ce-a1f1-c647699da836","ios":"levelo://app?vid=e4062517-e30a-40ce-a1f1-c647699da836"},"vehicle_type_id":"4","last_reported":1743963118,"current_range_meters":5600,"station_id":"ce4bgkp2rcd13ifvqbmg","pricing_plan_id":"cebpf4jnsgd1na2vs0mg"},{"bike_id":"472b8fe7-284f-466b-91c2-7c7917171f9d","system_id":"levelo_inurba_marseille","lat":43.25585,"lon":5.38251,"is_reserved":false,"is_disabled":false,"rental_uris":{"android":"levelo://app?vid=472b8fe7-284f-466b-91c2-7c7917171f9d","ios":"levelo://app?vid=472b8fe7-284f-466b-91c2-7c7917171f9d"},"vehicle_type_id":"4","last_reported":1743963118,"current_range_meters":4800,"station_id":"ce4bhih2rcd13ifvqfs0","pricing_plan_id":"cebpf4jnsgd1na2vs0mg"},{"bike_id":"71d5aad2-e8a9-4c9e-9b9e-6a5d13464bc5","system_id":"levelo_inurba_marseille","lat":43.27422,"lon":5.39373,"is_reserved":false,"is_disabled":false,"rental_uris":{"android":"levelo://app?vid=71d5aad2-e8a9-4c9e-9b9e-6a5d13464bc5","ios":"levelo://app?vid=71d5aad2-e8a9-4c9e-9b9e-6a5d13464bc5"},"vehicle_type_id":"4","last_reported":1743963118,"current_range_meters":5600,"station_id":"ce4bhdp2rcd13ifvqf20","pricing_plan_id":"cebpf4jnsgd1na2vs0mg"},{"bike_id":"8427b0ca-fd53-4bb5-8afa-2522fb9340dc","system_id":"levelo_inurba_marseille","lat":43.28603,"lon":5.37066,"is_reserved":false,"is_disabled":false,"rental_uris":{"android":"levelo://app?vid=8427b0ca-fd53-4bb5-8afa-2522fb9340dc","ios":"levelo://app?vid=8427b0ca-fd53-4bb5-8afa-2522fb9340dc"},"vehicle_type_id":"4","last_reported":1743963118,"current_range_meters":5600,"station_id":"ce4bht12rcd13ifvqi60","pricing_plan_id":"cebpf4jnsgd1na2vs0mg"},{"bike_id":"4077dc53-508d-42fb-a1ff-bc1f7899cab0","system_id":"levelo_inurba_marseille","lat":43.28473,"lon":5.3841,"is_reserved":false,"is_disabled":false,"rental_uris":{"android":"levelo://app?vid=4077dc53-508d-42fb-a1ff-bc1f7899cab0","ios":"levelo://app?vid=4077dc53-508d-42fb-a1ff-bc1f7899cab0"},"vehicle_type_id":"4","last_reported":1743963118,"current_range_meters":5600,"station_id":"ce4bh512rcd13ifvqe3g","pricing_plan_id":"cebpf4jnsgd1na2vs0mg"},{"bike_id":"d440885a-3a56-4282-9f55-f12333ae2639","system_id":"levelo_inurba_marseille","lat":43.28455,"lon":5.35894,"is_reserved":false,"is_disabled":false,"rental_uris":{"android":"levelo://app?vid=d440885a-3a56-4282-9f55-f12333ae2639","ios":"levelo://app?vid=d440885a-3a56-4282-9f55-f12333ae2639"},"vehicle_type_id":"4","last_reported":1743963118,"current_range_meters":6000,"station_id":"ce4bhah2rcd13ifvqei0","pricing_plan_id":"cebpf4jnsgd1na2vs0mg"},{"bike_id":"2804ca96-9246-481a-82a1-60dd44b2dfb3","system_id":"levelo_inurba_marseille","lat":43.31493,"lon":5.373112,"is_reserved":false,"is_disabled":false,"rental_uris":{"android":"levelo://app?vid=2804ca96-9246-481a-82a1-60dd44b2dfb3","ios":"levelo://app?vid=2804ca96-9246-481a-82a1-60dd44b2dfb3"},"vehicle_type_id":"4","last_reported":1743963118,"current_range_meters":6000,"station_id":"ce4bgt12rcd13ifvqcd0","pricing_plan_id":"cebpf4jnsgd1na2vs0mg"},{"bike_id":"1a9de583-349a-43da-9e13-a60b58ab62f3","system_id":"levelo_inurba_marseille","lat":43.31283,"lon":5.4017,"is_reserved":false,"is_disabled":false,"rental_uris":{"android":"levelo://app?vid=1a9de583-349a-43da-9e13-a60b58ab62f3","ios":"levelo://app?vid=1a9de583-349a-43da-9e13-a60b58ab62f3"},"vehicle_type_id":"4","last_reported":1743963118,"current_range_meters":6000,"station_id":"ce4bh092rcd13ifvqd30","pricing_plan_id":"cebpf4jnsgd1na2vs0mg"},{"bike_id":"12c487b7-1842-4783-bebc-3ae4822f34f0","system_id":"levelo_inurba_marseille","lat":43.29092,"lon":5.38147,"is_reserved":false,"is_disabled":false,"rental_uris":{"android":"levelo://app?vid=12c487b7-1842-4783-bebc-3ae4822f34f0","ios":"levelo://app?vid=12c487b7-1842-4783-bebc-3ae4822f34f0"},"vehicle_type_id":"4","last_reported":1743963118,"current_range_meters":6000,"station_id":"ce4bh512rcd13ifvqe2g","pricing_plan_id":"cebpf4jnsgd1na2vs0mg"},{"bike_id":"69cff322-0f78-42de-b1f2-a02daeb9183a","system_id":"levelo_inurba_marseille","lat":43.27205,"lon":5.39183,"is_reserved":false,"is_disabled":false,"rental_uris":{"android":"levelo://app?vid=69cff322-0f78-42de-b1f2-a02daeb9183a","ios":"levelo://app?vid=69cff322-0f78-42de-b1f2-a02daeb9183a"},"vehicle_type_id":"4","last_reported":1743963118,"current_range_meters":6000,"station_id":"ce4bhhp2rcd13ifvqfm0","pricing_plan_id":"cebpf4jnsgd1na2vs0mg"},{"bike_id":"b6104604-afcd-4524-8f91-5c49130d76d7","system_id":"levelo_inurba_marseille","lat":43.30212,"lon":5.39463,"is_reserved":false,"is_disabled":false,"rental_uris":{"android":"levelo://app?vid=b6104604-afcd-4524-8f91-5c49130d76d7","ios":"levelo://app?vid=b6104604-afcd-4524-8f91-5c49130d76d7"},"vehicle_type_id":"4","last_reported":1743963118,"current_range_meters":6000,"station_id":"ce4bh0p2rcd13ifvqd70","pricing_plan_id":"cebpf4jnsgd1na2vs0mg"},{"bike_id":"8474f455-4eab-448c-9e4b-3d0704475d2e","system_id":"levelo_inurba_marseille","lat":43.27173,"lon":5.40991,"is_reserved":false,"is_disabled":false,"rental_uris":{"android":"levelo://app?vid=8474f455-4eab-448c-9e4b-3d0704475d2e","ios":"levelo://app?vid=8474f455-4eab-448c-9e4b-3d0704475d2e"},"vehicle_type_id":"4","last_reported":1743963118,"current_range_meters":6000,"station_id":"ce4bhl12rcd13ifvqgf0","pricing_plan_id":"cebpf4jnsgd1na2vs0mg"},{"bike_id":"8b213532-e448-4a27-8d64-e206dac72956","system_id":"levelo_inurba_marseille","lat":43.31764,"lon":5.38807,"is_reserved":false,"is_disabled":false,"rental_uris":{"android":"levelo://app?vid=8b213532-e448-4a27-8d64-e206dac72956","ios":"levelo://app?vid=8b213532-e448-4a27-8d64-e206dac72956"},"vehicle_type_id":"4","last_reported":1743963118,"current_range_meters":6000,"station_id":"","pricing_plan_id":"cebpf4jnsgd1na2vs0mg"},{"bike_id":"abf828e0-bebc-4654-bc93-1d92f449deee","system_id":"levelo_inurba_marseille","lat":43.32374,"lon":5.36777,"is_reserved":false,"is_disabled":true,"rental_uris":{"android":"levelo://app?vid=abf828e0-bebc-4654-bc93-1d92f449deee","ios":"levelo://app?vid=abf828e0-bebc-4654-bc93-1d92f449deee"},"vehicle_type_id":"4","last_reported":1743963118,"current_range_meters":6000,"station_id":"ce4bhsh2rcd13ifvqi2g","pricing_plan_id":"cebpf4jnsgd1na2vs0mg"},{"bike_id":"30a816c9-38c3-4aff-aed0-bb5b1c55d05c","system_id":"levelo_inurba_marseille","lat":43.32044,"lon":5.41546,"is_reserved":false,"is_disabled":false,"rental_uris":{"android":"levelo://app?vid=30a816c9-38c3-4aff-aed0-bb5b1c55d05c","ios":"levelo://app?vid=30a816c9-38c3-4aff-aed0-bb5b1c55d05c"},"vehicle_type_id":"4","last_reported":1743963118,"current_range_meters":6000,"station_id":"ce4bhq92rcd13ifvqhkg","pricing_plan_id":"cebpf4jnsgd1na2vs0mg"},{"bike_id":"0fa97019-5f09-4603-a1af-f37326e1f52e","system_id":"levelo_inurba_marseille","lat":43.2683,"lon":5.39506,"is_reserved":false,"is_disabled":false,"rental_uris":{"android":"levelo://app?vid=0fa97019-5f09-4603-a1af-f37326e1f52e","ios":"levelo://app?vid=0fa97019-5f09-4603-a1af-f37326e1f52e"},"vehicle_type_id":"4","last_reported":1743963118,"current_range_meters":6400,"station_id":"","pricing_plan_id":"cebpf4jnsgd1na2vs0mg"},{"bike_id":"0f167d88-99f6-4fc2-b450-bcd2bf45b0b3","system_id":"levelo_inurba_marseille","lat":43.295288,"lon":5.385385,"is_reserved":false,"is_disabled":false,"rental_uris":{"android":"levelo://app?vid=0f167d88-99f6-4fc2-b450-bcd2bf45b0b3","ios":"levelo://app?vid=0f167d88-99f6-4fc2-b450-bcd2bf45b0b3"},"vehicle_type_id":"4","last_reported":1743963118,"current_range_meters":6400,"station_id":"ce4bgih2rcd13ifvqba0","pricing_plan_id":"cebpf4jnsgd1na2vs0mg"},{"bike_id":"f645b37a-0839-4712-a072-b19e8efed802","system_id":"levelo_inurba_marseille","lat":43.24548,"lon":5.39521,"is_reserved":false,"is_disabled":false,"rental_uris":{"android":"levelo://app?vid=f645b37a-0839-4712-a072-b19e8efed802","ios":"levelo://app?vid=f645b37a-0839-4712-a072-b19e8efed802"},"vehicle_type_id":"4","last_reported":1743963118,"current_range_meters":6400,"station_id":"ce4bhlp2rcd13ifvqgjg","pricing_plan_id":"cebpf4jnsgd1na2vs0mg"},{"bike_id":"37823676-6983-4c6b-857c-cf94b572aa24","system_id":"levelo_inurba_marseille","lat":43.280732,"lon":5.396561,"is_reserved":false,"is_disabled":false,"rental_uris":{"android":"levelo://app?vid=37823676-6983-4c6b-857c-cf94b572aa24","ios":"levelo://app?vid=37823676-6983-4c6b-857c-cf94b572aa24"},"vehicle_type_id":"4","last_reported":1743963118,"current_range_meters":6000,"station_id":"ce4bhn92rcd13ifvqgrg","pricing_plan_id":"cebpf4jnsgd1na2vs0mg"},{"bike_id":"fea10571-de43-4404-842c-d7352e571b48","system_id":"levelo_inurba_marseille","lat":43.27312,"lon":5.39073,"is_reserved":false,"is_disabled":false,"rental_uris":{"android":"levelo://app?vid=fea10571-de43-4404-842c-d7352e571b48","ios":"levelo://app?vid=fea10571-de43-4404-842c-d7352e571b48"},"vehicle_type_id":"4","last_reported":1743963118,"current_range_meters":6400,"station_id":"ce4bhgp2rcd13ifvqfe0","pricing_plan_id":"cebpf4jnsgd1na2vs0mg"},{"bike_id":"52efead5-c0ed-483e-b2c7-c01342c1e591","system_id":"levelo_inurba_marseille","lat":43.281567,"lon":5.426462,"is_reserved":false,"is_disabled":false,"rental_uris":{"android":"levelo://app?vid=52efead5-c0ed-483e-b2c7-c01342c1e591","ios":"levelo://app?vid=52efead5-c0ed-483e-b2c7-c01342c1e591"},"vehicle_type_id":"4","last_reported":1743963118,"current_range_meters":6400,"station_id":"ce4bhnh2rcd13ifvqgug","pricing_plan_id":"cebpf4jnsgd1na2vs0mg"},{"bike_id":"feb1fef1-b700-4d8e-aebe-f10fca030e54","system_id":"levelo_inurba_marseille","lat":43.2847,"lon":5.35905,"is_reserved":false,"is_disabled":false,"rental_uris":{"android":"levelo://app?vid=feb1fef1-b700-4d8e-aebe-f10fca030e54","ios":"levelo://app?vid=feb1fef1-b700-4d8e-aebe-f10fca030e54"},"vehicle_type_id":"4","last_reported":1743963118,"current_range_meters":6000,"station_id":"ce4bhah2rcd13ifvqei0","pricing_plan_id":"cebpf4jnsgd1na2vs0mg"},{"bike_id":"0acf090a-51fa-45b7-9db6-dd9f6119dca2","system_id":"levelo_inurba_marseille","lat":43.25933,"lon":5.40862,"is_reserved":false,"is_disabled":false,"rental_uris":{"android":"levelo://app?vid=0acf090a-51fa-45b7-9db6-dd9f6119dca2","ios":"levelo://app?vid=0acf090a-51fa-45b7-9db6-dd9f6119dca2"},"vehicle_type_id":"4","last_reported":1743963118,"current_range_meters":6400,"station_id":"ce4bhm92rcd13ifvqglg","pricing_plan_id":"cebpf4jnsgd1na2vs0mg"},{"bike_id":"9d3a6400-f14e-4889-b1f0-7c20f6abed23","system_id":"levelo_inurba_marseille","lat":43.27428,"lon":5.39434,"is_reserved":false,"is_disabled":false,"rental_uris":{"android":"levelo://app?vid=9d3a6400-f14e-4889-b1f0-7c20f6abed23","ios":"levelo://app?vid=9d3a6400-f14e-4889-b1f0-7c20f6abed23"},"vehicle_type_id":"4","last_reported":1743963118,"current_range_meters":6800,"station_id":"ce4bhdp2rcd13ifvqf20","pricing_plan_id":"cebpf4jnsgd1na2vs0mg"},{"bike_id":"bf3fcdce-64e1-42dd-ade7-9b670702a350","system_id":"levelo_inurba_marseille","lat":43.28612,"lon":5.3511,"is_reserved":false,"is_disabled":false,"rental_uris":{"android":"levelo://app?vid=bf3fcdce-64e1-42dd-ade7-9b670702a350","ios":"levelo://app?vid=bf3fcdce-64e1-42dd-ade7-9b670702a350"},"vehicle_type_id":"4","last_reported":1743963118,"current_range_meters":6800,"station_id":"ce4bhch2rcd13ifvqeug","pricing_plan_id":"cebpf4jnsgd1na2vs0mg"},{"bike_id":"73368964-235c-4655-8e04-fc3e5fd9cb4d","system_id":"levelo_inurba_marseille","lat":43.27205,"lon":5.39184,"is_reserved":false,"is_disabled":false,"rental_uris":{"android":"levelo://app?vid=73368964-235c-4655-8e04-fc3e5fd9cb4d","ios":"levelo://app?vid=73368964-235c-4655-8e04-fc3e5fd9cb4d"},"vehicle_type_id":"4","last_reported":1743963118,"current_range_meters":6800,"station_id":"ce4bhhp2rcd13ifvqfm0","pricing_plan_id":"cebpf4jnsgd1na2vs0mg"},{"bike_id":"69f27ac7-c201-4d7b-a41a-066249700815","system_id":"levelo_inurba_marseille","lat":43.241683,"lon":5.363968,"is_reserved":false,"is_disabled":true,"rental_uris":{"android":"levelo://app?vid=69f27ac7-c201-4d7b-a41a-066249700815","ios":"levelo://app?vid=69f27ac7-c201-4d7b-a41a-066249700815"},"vehicle_type_id":"4","last_reported":1743963118,"current_range_meters":6800,"station_id":"ce4bh412rcd13ifvqdr0","pricing_plan_id":"cebpf4jnsgd1na2vs0mg"},{"bike_id":"8f60a1ce-4ee1-4740-bb37-318710b0fd3d","system_id":"levelo_inurba_marseille","lat":43.31079,"lon":5.38365,"is_reserved":false,"is_disabled":false,"rental_uris":{"android":"levelo://app?vid=8f60a1ce-4ee1-4740-bb37-318710b0fd3d","ios":"levelo://app?vid=8f60a1ce-4ee1-4740-bb37-318710b0fd3d"},"vehicle_type_id":"4","last_reported":1743963118,"current_range_meters":6800,"station_id":"ce4bgv92rcd13ifvqcr0","pricing_plan_id":"cebpf4jnsgd1na2vs0mg"},{"bike_id":"11635c08-0789-406d-9b0c-e2bfefae03fe","system_id":"levelo_inurba_marseille","lat":43.293092,"lon":5.37127,"is_reserved":false,"is_disabled":false,"rental_uris":{"android":"levelo://app?vid=11635c08-0789-406d-9b0c-e2bfefae03fe","ios":"levelo://app?vid=11635c08-0789-406d-9b0c-e2bfefae03fe"},"vehicle_type_id":"4","last_reported":1743963118,"current_range_meters":6800,"station_id":"ce4bgi12rcd13ifvqb70","pricing_plan_id":"cebpf4jnsgd1na2vs0mg"},{"bike_id":"05923cf4-bbe2-46b7-8a9b-2f9882fa5688","system_id":"levelo_inurba_marseille","lat":43.30103,"lon":5.39094,"is_reserved":false,"is_disabled":false,"rental_uris":{"android":"levelo://app?vid=05923cf4-bbe2-46b7-8a9b-2f9882fa5688","ios":"levelo://app?vid=05923cf4-bbe2-46b7-8a9b-2f9882fa5688"},"vehicle_type_id":"4","last_reported":1743963118,"current_range_meters":6800,"station_id":"ce4bh192rcd13ifvqdb0","pricing_plan_id":"cebpf4jnsgd1na2vs0mg"},{"bike_id":"8ee6e75d-557a-42ec-913e-2f455aaa2266","system_id":"levelo_inurba_marseille","lat":43.28465,"lon":5.35896,"is_reserved":false,"is_disabled":false,"rental_uris":{"android":"levelo://app?vid=8ee6e75d-557a-42ec-913e-2f455aaa2266","ios":"levelo://app?vid=8ee6e75d-557a-42ec-913e-2f455aaa2266"},"vehicle_type_id":"4","last_reported":1743963118,"current_range_meters":6800,"station_id":"ce4bhah2rcd13ifvqei0","pricing_plan_id":"cebpf4jnsgd1na2vs0mg"},{"bike_id":"46c28730-414e-47a3-a8fc-36235e0b6fdd","system_id":"levelo_inurba_marseille","lat":43.257248,"lon":5.411133,"is_reserved":false,"is_disabled":false,"rental_uris":{"android":"levelo://app?vid=46c28730-414e-47a3-a8fc-36235e0b6fdd","ios":"levelo://app?vid=46c28730-414e-47a3-a8fc-36235e0b6fdd"},"vehicle_type_id":"4","last_reported":1743963118,"current_range_meters":6800,"station_id":"ce4bhkp2rcd13ifvqgd0","pricing_plan_id":"cebpf4jnsgd1na2vs0mg"},{"bike_id":"9378cab7-1ef7-47d6-af28-c6473192be1a","system_id":"levelo_inurba_marseille","lat":43.31189,"lon":5.40779,"is_reserved":false,"is_disabled":false,"rental_uris":{"android":"levelo://app?vid=9378cab7-1ef7-47d6-af28-c6473192be1a","ios":"levelo://app?vid=9378cab7-1ef7-47d6-af28-c6473192be1a"},"vehicle_type_id":"4","last_reported":1743963118,"current_range_meters":6800,"station_id":"","pricing_plan_id":"cebpf4jnsgd1na2vs0mg"},{"bike_id":"5266b485-864e-49e2-903e-a864283d04cb","system_id":"levelo_inurba_marseille","lat":43.27319,"lon":5.39098,"is_reserved":false,"is_disabled":false,"rental_uris":{"android":"levelo://app?vid=5266b485-864e-49e2-903e-a864283d04cb","ios":"levelo://app?vid=5266b485-864e-49e2-903e-a864283d04cb"},"vehicle_type_id":"4","last_reported":1743963118,"current_range_meters":6800,"station_id":"ce4bhgp2rcd13ifvqfe0","pricing_plan_id":"cebpf4jnsgd1na2vs0mg"},{"bike_id":"34d41bf7-71f9-44d2-b340-0c69aadc77ed","system_id":"levelo_inurba_marseille","lat":43.29848,"lon":5.36277,"is_reserved":false,"is_disabled":false,"rental_uris":{"android":"levelo://app?vid=34d41bf7-71f9-44d2-b340-0c69aadc77ed","ios":"levelo://app?vid=34d41bf7-71f9-44d2-b340-0c69aadc77ed"},"vehicle_type_id":"4","last_reported":1743963118,"current_range_meters":6800,"station_id":"ce4bgpp2rcd13ifvqc3g","pricing_plan_id":"cebpf4jnsgd1na2vs0mg"},{"bike_id":"e4d2f197-789e-4a9b-b12e-6f72b2af4d33","system_id":"levelo_inurba_marseille","lat":43.269421,"lon":5.402472,"is_reserved":false,"is_disabled":false,"rental_uris":{"android":"levelo://app?vid=e4d2f197-789e-4a9b-b12e-6f72b2af4d33","ios":"levelo://app?vid=e4d2f197-789e-4a9b-b12e-6f72b2af4d33"},"vehicle_type_id":"4","last_reported":1743963118,"current_range_meters":6800,"station_id":"cjm6bp8fraef2m0cb0m0","pricing_plan_id":"cebpf4jnsgd1na2vs0mg"},{"bike_id":"34f62bea-f2eb-412e-8f55-bf9283ccb2a7","system_id":"levelo_inurba_marseille","lat":43.28364,"lon":5.3812,"is_reserved":false,"is_disabled":false,"rental_uris":{"android":"levelo://app?vid=34f62bea-f2eb-412e-8f55-bf9283ccb2a7","ios":"levelo://app?vid=34f62bea-f2eb-412e-8f55-bf9283ccb2a7"},"vehicle_type_id":"4","last_reported":1743963118,"current_range_meters":7200,"station_id":"ce4bh412rcd13ifvqdr0","pricing_plan_id":"cebpf4jnsgd1na2vs0mg"},{"bike_id":"72a4f661-6d65-4e28-994b-cb9ec5276606","system_id":"levelo_inurba_marseille","lat":43.2732,"lon":5.39082,"is_reserved":false,"is_disabled":false,"rental_uris":{"android":"levelo://app?vid=72a4f661-6d65-4e28-994b-cb9ec5276606","ios":"levelo://app?vid=72a4f661-6d65-4e28-994b-cb9ec5276606"},"vehicle_type_id":"4","last_reported":1743963118,"current_range_meters":7200,"station_id":"ce4bhgp2rcd13ifvqfe0","pricing_plan_id":"cebpf4jnsgd1na2vs0mg"},{"bike_id":"8c21126a-5e36-405d-9640-e224cb0a062f","system_id":"levelo_inurba_marseille","lat":43.29557,"lon":5.42292,"is_reserved":false,"is_disabled":false,"rental_uris":{"android":"levelo://app?vid=8c21126a-5e36-405d-9640-e224cb0a062f","ios":"levelo://app?vid=8c21126a-5e36-405d-9640-e224cb0a062f"},"vehicle_type_id":"4","last_reported":1743963118,"current_range_meters":7200,"station_id":"ce4bhph2rcd13ifvqhdg","pricing_plan_id":"cebpf4jnsgd1na2vs0mg"},{"bike_id":"c8be0129-67cf-4771-bca7-cd6357bdcd90","system_id":"levelo_inurba_marseille","lat":43.27317,"lon":5.39079,"is_reserved":false,"is_disabled":false,"rental_uris":{"android":"levelo://app?vid=c8be0129-67cf-4771-bca7-cd6357bdcd90","ios":"levelo://app?vid=c8be0129-67cf-4771-bca7-cd6357bdcd90"},"vehicle_type_id":"4","last_reported":1743963118,"current_range_meters":7200,"station_id":"ce4bhgp2rcd13ifvqfe0","pricing_plan_id":"cebpf4jnsgd1na2vs0mg"},{"bike_id":"e90c174d-3c7f-49c8-8d8a-ebe030243bdd","system_id":"levelo_inurba_marseille","lat":43.27199,"lon":5.39175,"is_reserved":false,"is_disabled":false,"rental_uris":{"android":"levelo://app?vid=e90c174d-3c7f-49c8-8d8a-ebe030243bdd","ios":"levelo://app?vid=e90c174d-3c7f-49c8-8d8a-ebe030243bdd"},"vehicle_type_id":"4","last_reported":1743963118,"current_range_meters":7200,"station_id":"ce4bhhp2rcd13ifvqfm0","pricing_plan_id":"cebpf4jnsgd1na2vs0mg"},{"bike_id":"45b4008f-54c1-4d17-8bbf-96f80d4fa84f","system_id":"levelo_inurba_marseille","lat":43.32105,"lon":5.36822,"is_reserved":false,"is_disabled":false,"rental_uris":{"android":"levelo://app?vid=45b4008f-54c1-4d17-8bbf-96f80d4fa84f","ios":"levelo://app?vid=45b4008f-54c1-4d17-8bbf-96f80d4fa84f"},"vehicle_type_id":"4","last_reported":1743963118,"current_range_meters":7200,"station_id":"ce4bhrh2rcd13ifvqhug","pricing_plan_id":"cebpf4jnsgd1na2vs0mg"},{"bike_id":"cfde0f36-ce86-4c0c-a6b5-7d08513a7ffd","system_id":"levelo_inurba_marseille","lat":43.26946,"lon":5.4025,"is_reserved":false,"is_disabled":false,"rental_uris":{"android":"levelo://app?vid=cfde0f36-ce86-4c0c-a6b5-7d08513a7ffd","ios":"levelo://app?vid=cfde0f36-ce86-4c0c-a6b5-7d08513a7ffd"},"vehicle_type_id":"4","last_reported":1743963118,"current_range_meters":7200,"station_id":"cjm6bp8fraef2m0cb0m0","pricing_plan_id":"cebpf4jnsgd1na2vs0mg"},{"bike_id":"e3c5f122-d61d-4b7a-b30e-709a3dbe5e46","system_id":"levelo_inurba_marseille","lat":43.324,"lon":5.39014,"is_reserved":false,"is_disabled":false,"rental_uris":{"android":"levelo://app?vid=e3c5f122-d61d-4b7a-b30e-709a3dbe5e46","ios":"levelo://app?vid=e3c5f122-d61d-4b7a-b30e-709a3dbe5e46"},"vehicle_type_id":"4","last_reported":1743963118,"current_range_meters":8000,"station_id":"","pricing_plan_id":"cebpf4jnsgd1na2vs0mg"},{"bike_id":"02b07445-ab3e-4d26-9e59-522fcf775d06","system_id":"levelo_inurba_marseille","lat":43.29587,"lon":5.36737,"is_reserved":false,"is_disabled":false,"rental_uris":{"android":"levelo://app?vid=02b07445-ab3e-4d26-9e59-522fcf775d06","ios":"levelo://app?vid=02b07445-ab3e-4d26-9e59-522fcf775d06"},"vehicle_type_id":"4","last_reported":1743963118,"current_range_meters":8000,"station_id":"ce4bgph2rcd13ifvqc2g","pricing_plan_id":"cebpf4jnsgd1na2vs0mg"},{"bike_id":"46aaf249-f504-46ae-93ce-7245839b78b5","system_id":"levelo_inurba_marseille","lat":43.25753,"lon":5.38654,"is_reserved":false,"is_disabled":true,"rental_uris":{"android":"levelo://app?vid=46aaf249-f504-46ae-93ce-7245839b78b5","ios":"levelo://app?vid=46aaf249-f504-46ae-93ce-7245839b78b5"},"vehicle_type_id":"4","last_reported":1743963118,"current_range_meters":8000,"station_id":"","pricing_plan_id":"cebpf4jnsgd1na2vs0mg"},{"bike_id":"fc537366-d760-4111-86e8-f468e2979858","system_id":"levelo_inurba_marseille","lat":43.295227,"lon":5.390234,"is_reserved":false,"is_disabled":false,"rental_uris":{"android":"levelo://app?vid=fc537366-d760-4111-86e8-f468e2979858","ios":"levelo://app?vid=fc537366-d760-4111-86e8-f468e2979858"},"vehicle_type_id":"4","last_reported":1743963118,"current_range_meters":8000,"station_id":"ce4bh3p2rcd13ifvqdp0","pricing_plan_id":"cebpf4jnsgd1na2vs0mg"},{"bike_id":"5f6ae756-0263-4f65-a00a-f37672e8948d","system_id":"levelo_inurba_marseille","lat":43.28407,"lon":5.37514,"is_reserved":false,"is_disabled":false,"rental_uris":{"android":"levelo://app?vid=5f6ae756-0263-4f65-a00a-f37672e8948d","ios":"levelo://app?vid=5f6ae756-0263-4f65-a00a-f37672e8948d"},"vehicle_type_id":"4","last_reported":1743963118,"current_range_meters":8000,"station_id":"ce4bh412rcd13ifvqds0","pricing_plan_id":"cebpf4jnsgd1na2vs0mg"},{"bike_id":"a54afff0-bbdc-410b-8b30-e28e90183110","system_id":"levelo_inurba_marseille","lat":43.29091,"lon":5.38141,"is_reserved":false,"is_disabled":false,"rental_uris":{"android":"levelo://app?vid=a54afff0-bbdc-410b-8b30-e28e90183110","ios":"levelo://app?vid=a54afff0-bbdc-410b-8b30-e28e90183110"},"vehicle_type_id":"4","last_reported":1743963118,"current_range_meters":8000,"station_id":"ce4bh512rcd13ifvqe2g","pricing_plan_id":"cebpf4jnsgd1na2vs0mg"},{"bike_id":"461cbda9-cd14-4037-94d8-86328851e267","system_id":"levelo_inurba_marseille","lat":43.27178,"lon":5.40989,"is_reserved":false,"is_disabled":false,"rental_uris":{"android":"levelo://app?vid=461cbda9-cd14-4037-94d8-86328851e267","ios":"levelo://app?vid=461cbda9-cd14-4037-94d8-86328851e267"},"vehicle_type_id":"4","last_reported":1743963118,"current_range_meters":8000,"station_id":"ce4bhl12rcd13ifvqgf0","pricing_plan_id":"cebpf4jnsgd1na2vs0mg"},{"bike_id":"a3a3f188-dc26-403e-921c-c60dca29e86e","system_id":"levelo_inurba_marseille","lat":43.25725,"lon":5.41118,"is_reserved":false,"is_disabled":false,"rental_uris":{"android":"levelo://app?vid=a3a3f188-dc26-403e-921c-c60dca29e86e","ios":"levelo://app?vid=a3a3f188-dc26-403e-921c-c60dca29e86e"},"vehicle_type_id":"4","last_reported":1743963118,"current_range_meters":8000,"station_id":"ce4bhkp2rcd13ifvqgd0","pricing_plan_id":"cebpf4jnsgd1na2vs0mg"},{"bike_id":"de06763b-c1d6-4a10-84fd-2998c3ec8014","system_id":"levelo_inurba_marseille","lat":43.2942,"lon":5.38618,"is_reserved":false,"is_disabled":false,"rental_uris":{"android":"levelo://app?vid=de06763b-c1d6-4a10-84fd-2998c3ec8014","ios":"levelo://app?vid=de06763b-c1d6-4a10-84fd-2998c3ec8014"},"vehicle_type_id":"4","last_reported":1743963118,"current_range_meters":8000,"station_id":"ce4bh2h2rcd13ifvqdh0","pricing_plan_id":"cebpf4jnsgd1na2vs0mg"},{"bike_id":"9b08b373-5157-4c31-8ba4-2e3293d2895a","system_id":"levelo_inurba_marseille","lat":43.28082,"lon":5.39646,"is_reserved":false,"is_disabled":false,"rental_uris":{"android":"levelo://app?vid=9b08b373-5157-4c31-8ba4-2e3293d2895a","ios":"levelo://app?vid=9b08b373-5157-4c31-8ba4-2e3293d2895a"},"vehicle_type_id":"4","last_reported":1743963118,"current_range_meters":8000,"station_id":"ce4bho12rcd13ifvqh2g","pricing_plan_id":"cebpf4jnsgd1na2vs0mg"},{"bike_id":"6023584e-870f-454d-88b0-bf3dc0e21fbe","system_id":"levelo_inurba_marseille","lat":43.24426,"lon":5.37055,"is_reserved":false,"is_disabled":true,"rental_uris":{"android":"levelo://app?vid=6023584e-870f-454d-88b0-bf3dc0e21fbe","ios":"levelo://app?vid=6023584e-870f-454d-88b0-bf3dc0e21fbe"},"vehicle_type_id":"4","last_reported":1743963118,"current_range_meters":8000,"station_id":"ce4bhhh2rcd13ifvqfk0","pricing_plan_id":"cebpf4jnsgd1na2vs0mg"},{"bike_id":"3493ec88-f37c-47fa-882b-5202e06f0afd","system_id":"levelo_inurba_marseille","lat":43.29028,"lon":5.3814,"is_reserved":false,"is_disabled":false,"rental_uris":{"android":"levelo://app?vid=3493ec88-f37c-47fa-882b-5202e06f0afd","ios":"levelo://app?vid=3493ec88-f37c-47fa-882b-5202e06f0afd"},"vehicle_type_id":"4","last_reported":1743963118,"current_range_meters":8400,"station_id":"ce4bh4p2rcd13ifvqe1g","pricing_plan_id":"cebpf4jnsgd1na2vs0mg"},{"bike_id":"5492949d-43b1-4216-b699-2e5b2d0d7424","system_id":"levelo_inurba_marseille","lat":43.27208,"lon":5.39179,"is_reserved":false,"is_disabled":false,"rental_uris":{"android":"levelo://app?vid=5492949d-43b1-4216-b699-2e5b2d0d7424","ios":"levelo://app?vid=5492949d-43b1-4216-b699-2e5b2d0d7424"},"vehicle_type_id":"4","last_reported":1743963118,"current_range_meters":8800,"station_id":"ce4bhhp2rcd13ifvqfm0","pricing_plan_id":"cebpf4jnsgd1na2vs0mg"},{"bike_id":"0dcb39dc-0e79-4947-8205-8420d9745a1c","system_id":"levelo_inurba_marseille","lat":43.29899,"lon":5.43672,"is_reserved":false,"is_disabled":false,"rental_uris":{"android":"levelo://app?vid=0dcb39dc-0e79-4947-8205-8420d9745a1c","ios":"levelo://app?vid=0dcb39dc-0e79-4947-8205-8420d9745a1c"},"vehicle_type_id":"4","last_reported":1743963118,"current_range_meters":8000,"station_id":"ce4bhpp2rcd13ifvqhfg","pricing_plan_id":"cebpf4jnsgd1na2vs0mg"},{"bike_id":"5bfc1cd3-8059-4899-a4b7-052c46174925","system_id":"levelo_inurba_marseille","lat":43.32286,"lon":5.3827,"is_reserved":false,"is_disabled":false,"rental_uris":{"android":"levelo://app?vid=5bfc1cd3-8059-4899-a4b7-052c46174925","ios":"levelo://app?vid=5bfc1cd3-8059-4899-a4b7-052c46174925"},"vehicle_type_id":"4","last_reported":1743963118,"current_range_meters":8400,"station_id":"ce4bhr12rcd13ifvqhqg","pricing_plan_id":"cebpf4jnsgd1na2vs0mg"},{"bike_id":"a66bfb7e-4dd6-417b-aae3-57ef13edda18","system_id":"levelo_inurba_marseille","lat":43.313674,"lon":5.384929,"is_reserved":false,"is_disabled":false,"rental_uris":{"android":"levelo://app?vid=a66bfb7e-4dd6-417b-aae3-57ef13edda18","ios":"levelo://app?vid=a66bfb7e-4dd6-417b-aae3-57ef13edda18"},"vehicle_type_id":"4","last_reported":1743963118,"current_range_meters":8000,"station_id":"ce4bgt92rcd13ifvqcf0","pricing_plan_id":"cebpf4jnsgd1na2vs0mg"},{"bike_id":"121a6d66-3ef1-4b52-b9b6-9d9ebec43e55","system_id":"levelo_inurba_marseille","lat":43.26787,"lon":5.3943,"is_reserved":false,"is_disabled":false,"rental_uris":{"android":"levelo://app?vid=121a6d66-3ef1-4b52-b9b6-9d9ebec43e55","ios":"levelo://app?vid=121a6d66-3ef1-4b52-b9b6-9d9ebec43e55"},"vehicle_type_id":"4","last_reported":1743963118,"current_range_meters":8800,"station_id":"ce4bhh12rcd13ifvqfg0","pricing_plan_id":"cebpf4jnsgd1na2vs0mg"},{"bike_id":"d2c55d28-9623-4746-8e13-0222273561e7","system_id":"levelo_inurba_marseille","lat":43.28445,"lon":5.39204,"is_reserved":false,"is_disabled":false,"rental_uris":{"android":"levelo://app?vid=d2c55d28-9623-4746-8e13-0222273561e7","ios":"levelo://app?vid=d2c55d28-9623-4746-8e13-0222273561e7"},"vehicle_type_id":"4","last_reported":1743963118,"current_range_meters":8800,"station_id":"ce4bhoh2rcd13ifvqh5g","pricing_plan_id":"cebpf4jnsgd1na2vs0mg"},{"bike_id":"70774e13-dd61-4dd4-bf40-530e1485e81c","system_id":"levelo_inurba_marseille","lat":43.32371,"lon":5.38897,"is_reserved":false,"is_disabled":false,"rental_uris":{"android":"levelo://app?vid=70774e13-dd61-4dd4-bf40-530e1485e81c","ios":"levelo://app?vid=70774e13-dd61-4dd4-bf40-530e1485e81c"},"vehicle_type_id":"4","last_reported":1743963118,"current_range_meters":8800,"station_id":"ce4bhqp2rcd13ifvqhog","pricing_plan_id":"cebpf4jnsgd1na2vs0mg"},{"bike_id":"f2b845ae-d345-426f-b42a-4bdf8d453464","system_id":"levelo_inurba_marseille","lat":43.299792,"lon":5.37173,"is_reserved":false,"is_disabled":false,"rental_uris":{"android":"levelo://app?vid=f2b845ae-d345-426f-b42a-4bdf8d453464","ios":"levelo://app?vid=f2b845ae-d345-426f-b42a-4bdf8d453464"},"vehicle_type_id":"4","last_reported":1743963118,"current_range_meters":8400,"station_id":"ce4bgr92rcd13ifvqc7g","pricing_plan_id":"cebpf4jnsgd1na2vs0mg"},{"bike_id":"607308b3-6cb0-49ad-9852-b5ced867feea","system_id":"levelo_inurba_marseille","lat":43.27302,"lon":5.39057,"is_reserved":false,"is_disabled":false,"rental_uris":{"android":"levelo://app?vid=607308b3-6cb0-49ad-9852-b5ced867feea","ios":"levelo://app?vid=607308b3-6cb0-49ad-9852-b5ced867feea"},"vehicle_type_id":"4","last_reported":1743963118,"current_range_meters":8800,"station_id":"ce4bhgp2rcd13ifvqfe0","pricing_plan_id":"cebpf4jnsgd1na2vs0mg"},{"bike_id":"607bc019-83aa-4c5f-9a00-7697e5e1f6b5","system_id":"levelo_inurba_marseille","lat":43.31279,"lon":5.40172,"is_reserved":false,"is_disabled":false,"rental_uris":{"android":"levelo://app?vid=607bc019-83aa-4c5f-9a00-7697e5e1f6b5","ios":"levelo://app?vid=607bc019-83aa-4c5f-9a00-7697e5e1f6b5"},"vehicle_type_id":"4","last_reported":1743963118,"current_range_meters":8800,"station_id":"ce4bh092rcd13ifvqd30","pricing_plan_id":"cebpf4jnsgd1na2vs0mg"},{"bike_id":"dfe033e5-eb50-4610-85ee-430cd4939587","system_id":"levelo_inurba_marseille","lat":43.276148,"lon":5.361081,"is_reserved":false,"is_disabled":true,"rental_uris":{"android":"levelo://app?vid=dfe033e5-eb50-4610-85ee-430cd4939587","ios":"levelo://app?vid=dfe033e5-eb50-4610-85ee-430cd4939587"},"vehicle_type_id":"4","last_reported":1743963118,"current_range_meters":8800,"station_id":"ce4bgj92rcd13ifvqbe0","pricing_plan_id":"cebpf4jnsgd1na2vs0mg"},{"bike_id":"97a85479-1c8f-4791-83e1-8f82aca74007","system_id":"levelo_inurba_marseille","lat":43.29966,"lon":5.38496,"is_reserved":false,"is_disabled":false,"rental_uris":{"android":"levelo://app?vid=97a85479-1c8f-4791-83e1-8f82aca74007","ios":"levelo://app?vid=97a85479-1c8f-4791-83e1-8f82aca74007"},"vehicle_type_id":"4","last_reported":1743963118,"current_range_meters":9200,"station_id":"ce4bgj92rcd13ifvqbd0","pricing_plan_id":"cebpf4jnsgd1na2vs0mg"},{"bike_id":"2c45e8d5-20dc-4bf0-85bc-17d4e50ba3f8","system_id":"levelo_inurba_marseille","lat":43.29544,"lon":5.42287,"is_reserved":false,"is_disabled":false,"rental_uris":{"android":"levelo://app?vid=2c45e8d5-20dc-4bf0-85bc-17d4e50ba3f8","ios":"levelo://app?vid=2c45e8d5-20dc-4bf0-85bc-17d4e50ba3f8"},"vehicle_type_id":"4","last_reported":1743963118,"current_range_meters":8800,"station_id":"ce4bhph2rcd13ifvqhdg","pricing_plan_id":"cebpf4jnsgd1na2vs0mg"},{"bike_id":"6a6145b1-a1be-480d-adcf-f18f229d4981","system_id":"levelo_inurba_marseille","lat":43.29098,"lon":5.38135,"is_reserved":false,"is_disabled":false,"rental_uris":{"android":"levelo://app?vid=6a6145b1-a1be-480d-adcf-f18f229d4981","ios":"levelo://app?vid=6a6145b1-a1be-480d-adcf-f18f229d4981"},"vehicle_type_id":"4","last_reported":1743963118,"current_range_meters":9200,"station_id":"ce4bh512rcd13ifvqe2g","pricing_plan_id":"cebpf4jnsgd1na2vs0mg"},{"bike_id":"00393ee2-317d-4e98-a30d-fd25773ef49f","system_id":"levelo_inurba_marseille","lat":43.35226,"lon":5.35783,"is_reserved":false,"is_disabled":false,"rental_uris":{"android":"levelo://app?vid=00393ee2-317d-4e98-a30d-fd25773ef49f","ios":"levelo://app?vid=00393ee2-317d-4e98-a30d-fd25773ef49f"},"vehicle_type_id":"4","last_reported":1743963118,"current_range_meters":9200,"station_id":"","pricing_plan_id":"cebpf4jnsgd1na2vs0mg"},{"bike_id":"283d9ac2-ea7e-4f45-beb7-6857e584a52d","system_id":"levelo_inurba_marseille","lat":43.24555,"lon":5.39528,"is_reserved":false,"is_disabled":false,"rental_uris":{"android":"levelo://app?vid=283d9ac2-ea7e-4f45-beb7-6857e584a52d","ios":"levelo://app?vid=283d9ac2-ea7e-4f45-beb7-6857e584a52d"},"vehicle_type_id":"4","last_reported":1743963118,"current_range_meters":9200,"station_id":"ce4bhlp2rcd13ifvqgjg","pricing_plan_id":"cebpf4jnsgd1na2vs0mg"},{"bike_id":"d2c0f1ed-7cb7-410c-aa2f-6defec26c88a","system_id":"levelo_inurba_marseille","lat":43.27979,"lon":5.41662,"is_reserved":false,"is_disabled":false,"rental_uris":{"android":"levelo://app?vid=d2c0f1ed-7cb7-410c-aa2f-6defec26c88a","ios":"levelo://app?vid=d2c0f1ed-7cb7-410c-aa2f-6defec26c88a"},"vehicle_type_id":"4","last_reported":1743963118,"current_range_meters":9200,"station_id":"ce4bho12rcd13ifvqh1g","pricing_plan_id":"cebpf4jnsgd1na2vs0mg"},{"bike_id":"33e3d54d-21a5-47ff-9ee3-76450b0321fa","system_id":"levelo_inurba_marseille","lat":43.2989,"lon":5.43671,"is_reserved":false,"is_disabled":false,"rental_uris":{"android":"levelo://app?vid=33e3d54d-21a5-47ff-9ee3-76450b0321fa","ios":"levelo://app?vid=33e3d54d-21a5-47ff-9ee3-76450b0321fa"},"vehicle_type_id":"4","last_reported":1743963118,"current_range_meters":9200,"station_id":"ce4bhpp2rcd13ifvqhfg","pricing_plan_id":"cebpf4jnsgd1na2vs0mg"},{"bike_id":"e231b6fd-8563-4094-ab36-834679c8f703","system_id":"levelo_inurba_marseille","lat":43.30642,"lon":5.40097,"is_reserved":false,"is_disabled":false,"rental_uris":{"android":"levelo://app?vid=e231b6fd-8563-4094-ab36-834679c8f703","ios":"levelo://app?vid=e231b6fd-8563-4094-ab36-834679c8f703"},"vehicle_type_id":"4","last_reported":1743963118,"current_range_meters":9200,"station_id":"ce4bh112rcd13ifvqda0","pricing_plan_id":"cebpf4jnsgd1na2vs0mg"},{"bike_id":"4ac2d2f1-02e3-4fa8-af51-20fecff207d4","system_id":"levelo_inurba_marseille","lat":43.26781,"lon":5.39416,"is_reserved":false,"is_disabled":false,"rental_uris":{"android":"levelo://app?vid=4ac2d2f1-02e3-4fa8-af51-20fecff207d4","ios":"levelo://app?vid=4ac2d2f1-02e3-4fa8-af51-20fecff207d4"},"vehicle_type_id":"4","last_reported":1743963118,"current_range_meters":9200,"station_id":"ce4bhh12rcd13ifvqfg0","pricing_plan_id":"cebpf4jnsgd1na2vs0mg"},{"bike_id":"7e998a0c-eed3-46de-aa53-8ecfbd4eddbb","system_id":"levelo_inurba_marseille","lat":43.231887,"lon":5.355624,"is_reserved":false,"is_disabled":true,"rental_uris":{"android":"levelo://app?vid=7e998a0c-eed3-46de-aa53-8ecfbd4eddbb","ios":"levelo://app?vid=7e998a0c-eed3-46de-aa53-8ecfbd4eddbb"},"vehicle_type_id":"4","last_reported":1743963118,"current_range_meters":9200,"station_id":"ce4bhu92rcd13ifvqi70","pricing_plan_id":"cebpf4jnsgd1na2vs0mg"},{"bike_id":"2efe7e98-cfd6-4287-a6e8-ff5cbd45de59","system_id":"levelo_inurba_marseille","lat":43.27212,"lon":5.3918,"is_reserved":false,"is_disabled":false,"rental_uris":{"android":"levelo://app?vid=2efe7e98-cfd6-4287-a6e8-ff5cbd45de59","ios":"levelo://app?vid=2efe7e98-cfd6-4287-a6e8-ff5cbd45de59"},"vehicle_type_id":"4","last_reported":1743963118,"current_range_meters":9200,"station_id":"ce4bhhp2rcd13ifvqfm0","pricing_plan_id":"cebpf4jnsgd1na2vs0mg"},{"bike_id":"2accc475-bd71-44b4-a695-177d2b9f9148","system_id":"levelo_inurba_marseille","lat":43.29951,"lon":5.38502,"is_reserved":false,"is_disabled":false,"rental_uris":{"android":"levelo://app?vid=2accc475-bd71-44b4-a695-177d2b9f9148","ios":"levelo://app?vid=2accc475-bd71-44b4-a695-177d2b9f9148"},"vehicle_type_id":"4","last_reported":1743963118,"current_range_meters":9200,"station_id":"ce4bgj92rcd13ifvqbd0","pricing_plan_id":"cebpf4jnsgd1na2vs0mg"},{"bike_id":"abde5d83-9b30-4b2f-8a88-f914ca452329","system_id":"levelo_inurba_marseille","lat":43.31281,"lon":5.38781,"is_reserved":false,"is_disabled":false,"rental_uris":{"android":"levelo://app?vid=abde5d83-9b30-4b2f-8a88-f914ca452329","ios":"levelo://app?vid=abde5d83-9b30-4b2f-8a88-f914ca452329"},"vehicle_type_id":"4","last_reported":1743963118,"current_range_meters":9600,"station_id":"","pricing_plan_id":"cebpf4jnsgd1na2vs0mg"},{"bike_id":"de563113-1ce4-411c-8909-456ad3024294","system_id":"levelo_inurba_marseille","lat":43.286684,"lon":5.363418,"is_reserved":false,"is_disabled":false,"rental_uris":{"android":"levelo://app?vid=de563113-1ce4-411c-8909-456ad3024294","ios":"levelo://app?vid=de563113-1ce4-411c-8909-456ad3024294"},"vehicle_type_id":"4","last_reported":1743963118,"current_range_meters":9200,"station_id":"ce4bhb92rcd13ifvqen0","pricing_plan_id":"cebpf4jnsgd1na2vs0mg"},{"bike_id":"a3ef7b01-f77e-41fb-8d52-7a5c16824257","system_id":"levelo_inurba_marseille","lat":43.29542,"lon":5.38564,"is_reserved":false,"is_disabled":false,"rental_uris":{"android":"levelo://app?vid=a3ef7b01-f77e-41fb-8d52-7a5c16824257","ios":"levelo://app?vid=a3ef7b01-f77e-41fb-8d52-7a5c16824257"},"vehicle_type_id":"4","last_reported":1743963118,"current_range_meters":9200,"station_id":"ce4bgih2rcd13ifvqba0","pricing_plan_id":"cebpf4jnsgd1na2vs0mg"},{"bike_id":"6d6e9ad6-b5a4-4a12-87c7-40f269472603","system_id":"levelo_inurba_marseille","lat":43.26777,"lon":5.39418,"is_reserved":false,"is_disabled":false,"rental_uris":{"android":"levelo://app?vid=6d6e9ad6-b5a4-4a12-87c7-40f269472603","ios":"levelo://app?vid=6d6e9ad6-b5a4-4a12-87c7-40f269472603"},"vehicle_type_id":"4","last_reported":1743963118,"current_range_meters":9600,"station_id":"ce4bhh12rcd13ifvqfg0","pricing_plan_id":"cebpf4jnsgd1na2vs0mg"},{"bike_id":"8ecca9f4-51d2-4b04-a431-8ffaa2c9ce6d","system_id":"levelo_inurba_marseille","lat":43.29536,"lon":5.38552,"is_reserved":false,"is_disabled":false,"rental_uris":{"android":"levelo://app?vid=8ecca9f4-51d2-4b04-a431-8ffaa2c9ce6d","ios":"levelo://app?vid=8ecca9f4-51d2-4b04-a431-8ffaa2c9ce6d"},"vehicle_type_id":"4","last_reported":1743963118,"current_range_meters":9600,"station_id":"ce4bgih2rcd13ifvqba0","pricing_plan_id":"cebpf4jnsgd1na2vs0mg"},{"bike_id":"7fd0635d-68ad-4ce6-a52b-daef56987b4b","system_id":"levelo_inurba_marseille","lat":43.30849,"lon":5.38632,"is_reserved":false,"is_disabled":false,"rental_uris":{"android":"levelo://app?vid=7fd0635d-68ad-4ce6-a52b-daef56987b4b","ios":"levelo://app?vid=7fd0635d-68ad-4ce6-a52b-daef56987b4b"},"vehicle_type_id":"4","last_reported":1743963118,"current_range_meters":9600,"station_id":"","pricing_plan_id":"cebpf4jnsgd1na2vs0mg"},{"bike_id":"a7293dfb-8be8-4035-a36a-364c4bebcfa2","system_id":"levelo_inurba_marseille","lat":43.29278,"lon":5.40117,"is_reserved":false,"is_disabled":false,"rental_uris":{"android":"levelo://app?vid=a7293dfb-8be8-4035-a36a-364c4bebcfa2","ios":"levelo://app?vid=a7293dfb-8be8-4035-a36a-364c4bebcfa2"},"vehicle_type_id":"4","last_reported":1743963118,"current_range_meters":9600,"station_id":"ce4bh312rcd13ifvqdk0","pricing_plan_id":"cebpf4jnsgd1na2vs0mg"},{"bike_id":"db1f6964-7f95-4348-8439-8d74778d6065","system_id":"levelo_inurba_marseille","lat":43.2848,"lon":5.38425,"is_reserved":false,"is_disabled":false,"rental_uris":{"android":"levelo://app?vid=db1f6964-7f95-4348-8439-8d74778d6065","ios":"levelo://app?vid=db1f6964-7f95-4348-8439-8d74778d6065"},"vehicle_type_id":"4","last_reported":1743963118,"current_range_meters":9600,"station_id":"ce4bh512rcd13ifvqe3g","pricing_plan_id":"cebpf4jnsgd1na2vs0mg"},{"bike_id":"136b6e45-ee21-453e-aa22-e07947db9071","system_id":"levelo_inurba_marseille","lat":43.23183,"lon":5.43706,"is_reserved":false,"is_disabled":true,"rental_uris":{"android":"levelo://app?vid=136b6e45-ee21-453e-aa22-e07947db9071","ios":"levelo://app?vid=136b6e45-ee21-453e-aa22-e07947db9071"},"vehicle_type_id":"4","last_reported":1743963118,"current_range_meters":9600,"station_id":"ce4bhmp2rcd13ifvqgog","pricing_plan_id":"cebpf4jnsgd1na2vs0mg"},{"bike_id":"845e31bb-c9b5-450b-8331-d6285d4d5265","system_id":"levelo_inurba_marseille","lat":43.33747,"lon":5.39174,"is_reserved":false,"is_disabled":false,"rental_uris":{"android":"levelo://app?vid=845e31bb-c9b5-450b-8331-d6285d4d5265","ios":"levelo://app?vid=845e31bb-c9b5-450b-8331-d6285d4d5265"},"vehicle_type_id":"4","last_reported":1743963118,"current_range_meters":10000,"station_id":"ce4bhr92rcd13ifvqhsg","pricing_plan_id":"cebpf4jnsgd1na2vs0mg"},{"bike_id":"19ac5b71-1492-4e41-b2f9-391ba416f560","system_id":"levelo_inurba_marseille","lat":43.27308,"lon":5.39097,"is_reserved":false,"is_disabled":false,"rental_uris":{"android":"levelo://app?vid=19ac5b71-1492-4e41-b2f9-391ba416f560","ios":"levelo://app?vid=19ac5b71-1492-4e41-b2f9-391ba416f560"},"vehicle_type_id":"4","last_reported":1743963118,"current_range_meters":10000,"station_id":"ce4bhgp2rcd13ifvqfe0","pricing_plan_id":"cebpf4jnsgd1na2vs0mg"},{"bike_id":"f8321878-9e9a-4e56-8919-d9cad8905f3c","system_id":"levelo_inurba_marseille","lat":43.30539,"lon":5.36523,"is_reserved":false,"is_disabled":true,"rental_uris":{"android":"levelo://app?vid=f8321878-9e9a-4e56-8919-d9cad8905f3c","ios":"levelo://app?vid=f8321878-9e9a-4e56-8919-d9cad8905f3c"},"vehicle_type_id":"4","last_reported":1743963118,"current_range_meters":10000,"station_id":"ce4bgs12rcd13ifvqcag","pricing_plan_id":"cebpf4jnsgd1na2vs0mg"},{"bike_id":"590bd0e2-9f1d-4e6f-9e37-05bb0e5ae5dc","system_id":"levelo_inurba_marseille","lat":43.29876,"lon":5.36404,"is_reserved":false,"is_disabled":false,"rental_uris":{"android":"levelo://app?vid=590bd0e2-9f1d-4e6f-9e37-05bb0e5ae5dc","ios":"levelo://app?vid=590bd0e2-9f1d-4e6f-9e37-05bb0e5ae5dc"},"vehicle_type_id":"4","last_reported":1743963118,"current_range_meters":8800,"station_id":"","pricing_plan_id":"cebpf4jnsgd1na2vs0mg"},{"bike_id":"43a56d6e-fcce-4563-a1a3-7cbd4983c521","system_id":"levelo_inurba_marseille","lat":43.28707,"lon":5.37941,"is_reserved":false,"is_disabled":false,"rental_uris":{"android":"levelo://app?vid=43a56d6e-fcce-4563-a1a3-7cbd4983c521","ios":"levelo://app?vid=43a56d6e-fcce-4563-a1a3-7cbd4983c521"},"vehicle_type_id":"4","last_reported":1743963118,"current_range_meters":10000,"station_id":"ce4bh9p2rcd13ifvqec0","pricing_plan_id":"cebpf4jnsgd1na2vs0mg"},{"bike_id":"fac1eaca-8caf-4698-b64a-b753cd2da290","system_id":"levelo_inurba_marseille","lat":43.29971,"lon":5.38484,"is_reserved":false,"is_disabled":false,"rental_uris":{"android":"levelo://app?vid=fac1eaca-8caf-4698-b64a-b753cd2da290","ios":"levelo://app?vid=fac1eaca-8caf-4698-b64a-b753cd2da290"},"vehicle_type_id":"4","last_reported":1743963118,"current_range_meters":10000,"station_id":"ce4bgj92rcd13ifvqbd0","pricing_plan_id":"cebpf4jnsgd1na2vs0mg"},{"bike_id":"ce7676f0-1234-4012-947f-fdef7bde273d","system_id":"levelo_inurba_marseille","lat":43.26481,"lon":5.39563,"is_reserved":false,"is_disabled":false,"rental_uris":{"android":"levelo://app?vid=ce7676f0-1234-4012-947f-fdef7bde273d","ios":"levelo://app?vid=ce7676f0-1234-4012-947f-fdef7bde273d"},"vehicle_type_id":"4","last_reported":1743963118,"current_range_meters":10000,"station_id":"ce4bhi12rcd13ifvqfq0","pricing_plan_id":"cebpf4jnsgd1na2vs0mg"},{"bike_id":"aa9b59b6-65cb-49e0-b211-3fb1aecd03a8","system_id":"levelo_inurba_marseille","lat":43.292154,"lon":5.360577,"is_reserved":false,"is_disabled":true,"rental_uris":{"android":"levelo://app?vid=aa9b59b6-65cb-49e0-b211-3fb1aecd03a8","ios":"levelo://app?vid=aa9b59b6-65cb-49e0-b211-3fb1aecd03a8"},"vehicle_type_id":"4","last_reported":1743963118,"current_range_meters":10000,"station_id":"","pricing_plan_id":"cebpf4jnsgd1na2vs0mg"},{"bike_id":"f64adc8f-ea0a-4a9e-bbd4-a1e2beaecb98","system_id":"levelo_inurba_marseille","lat":43.27419,"lon":5.39406,"is_reserved":false,"is_disabled":false,"rental_uris":{"android":"levelo://app?vid=f64adc8f-ea0a-4a9e-bbd4-a1e2beaecb98","ios":"levelo://app?vid=f64adc8f-ea0a-4a9e-bbd4-a1e2beaecb98"},"vehicle_type_id":"4","last_reported":1743963118,"current_range_meters":10000,"station_id":"ce4bhdp2rcd13ifvqf20","pricing_plan_id":"cebpf4jnsgd1na2vs0mg"},{"bike_id":"6f6d6376-8b5f-4fba-bf7f-7c538d406caf","system_id":"levelo_inurba_marseille","lat":43.26778,"lon":5.39416,"is_reserved":false,"is_disabled":false,"rental_uris":{"android":"levelo://app?vid=6f6d6376-8b5f-4fba-bf7f-7c538d406caf","ios":"levelo://app?vid=6f6d6376-8b5f-4fba-bf7f-7c538d406caf"},"vehicle_type_id":"4","last_reported":1743963118,"current_range_meters":10000,"station_id":"ce4bhh12rcd13ifvqfg0","pricing_plan_id":"cebpf4jnsgd1na2vs0mg"},{"bike_id":"21381cf3-e45b-498b-95cc-783a234c1beb","system_id":"levelo_inurba_marseille","lat":43.29007,"lon":5.356183,"is_reserved":false,"is_disabled":false,"rental_uris":{"android":"levelo://app?vid=21381cf3-e45b-498b-95cc-783a234c1beb","ios":"levelo://app?vid=21381cf3-e45b-498b-95cc-783a234c1beb"},"vehicle_type_id":"4","last_reported":1743963118,"current_range_meters":9600,"station_id":"ce4bgj92rcd13ifvqbd0","pricing_plan_id":"cebpf4jnsgd1na2vs0mg"},{"bike_id":"e0c91de3-1d3d-4404-b8e4-a5b4c2c9d600","system_id":"levelo_inurba_marseille","lat":43.29035,"lon":5.3815,"is_reserved":false,"is_disabled":false,"rental_uris":{"android":"levelo://app?vid=e0c91de3-1d3d-4404-b8e4-a5b4c2c9d600","ios":"levelo://app?vid=e0c91de3-1d3d-4404-b8e4-a5b4c2c9d600"},"vehicle_type_id":"4","last_reported":1743963118,"current_range_meters":10000,"station_id":"ce4bh4p2rcd13ifvqe1g","pricing_plan_id":"cebpf4jnsgd1na2vs0mg"},{"bike_id":"d612b281-6c91-4665-a220-46a4339a0200","system_id":"levelo_inurba_marseille","lat":43.28609,"lon":5.37064,"is_reserved":false,"is_disabled":false,"rental_uris":{"android":"levelo://app?vid=d612b281-6c91-4665-a220-46a4339a0200","ios":"levelo://app?vid=d612b281-6c91-4665-a220-46a4339a0200"},"vehicle_type_id":"4","last_reported":1743963118,"current_range_meters":10800,"station_id":"ce4bht12rcd13ifvqi60","pricing_plan_id":"cebpf4jnsgd1na2vs0mg"},{"bike_id":"dc945757-a363-40df-a45e-cb2c57dff9d6","system_id":"levelo_inurba_marseille","lat":43.27428,"lon":5.39431,"is_reserved":false,"is_disabled":false,"rental_uris":{"android":"levelo://app?vid=dc945757-a363-40df-a45e-cb2c57dff9d6","ios":"levelo://app?vid=dc945757-a363-40df-a45e-cb2c57dff9d6"},"vehicle_type_id":"4","last_reported":1743963118,"current_range_meters":10800,"station_id":"ce4bhdp2rcd13ifvqf20","pricing_plan_id":"cebpf4jnsgd1na2vs0mg"},{"bike_id":"b00ae81f-2a44-41ae-bba7-fb7f45644854","system_id":"levelo_inurba_marseille","lat":43.29095,"lon":5.38123,"is_reserved":false,"is_disabled":false,"rental_uris":{"android":"levelo://app?vid=b00ae81f-2a44-41ae-bba7-fb7f45644854","ios":"levelo://app?vid=b00ae81f-2a44-41ae-bba7-fb7f45644854"},"vehicle_type_id":"4","last_reported":1743963118,"current_range_meters":10800,"station_id":"ce4bh512rcd13ifvqe2g","pricing_plan_id":"cebpf4jnsgd1na2vs0mg"},{"bike_id":"72543552-8188-4373-8db0-bd2f24c14e7b","system_id":"levelo_inurba_marseille","lat":43.32307,"lon":5.37622,"is_reserved":false,"is_disabled":false,"rental_uris":{"android":"levelo://app?vid=72543552-8188-4373-8db0-bd2f24c14e7b","ios":"levelo://app?vid=72543552-8188-4373-8db0-bd2f24c14e7b"},"vehicle_type_id":"4","last_reported":1743963118,"current_range_meters":10800,"station_id":"","pricing_plan_id":"cebpf4jnsgd1na2vs0mg"},{"bike_id":"c3e6d442-6282-4c88-9f90-93d85aff9e76","system_id":"levelo_inurba_marseille","lat":43.28171,"lon":5.42672,"is_reserved":false,"is_disabled":false,"rental_uris":{"android":"levelo://app?vid=c3e6d442-6282-4c88-9f90-93d85aff9e76","ios":"levelo://app?vid=c3e6d442-6282-4c88-9f90-93d85aff9e76"},"vehicle_type_id":"4","last_reported":1743963118,"current_range_meters":10800,"station_id":"ce4bhnh2rcd13ifvqgug","pricing_plan_id":"cebpf4jnsgd1na2vs0mg"},{"bike_id":"a2a5f364-72c1-467a-a12e-0e6c5bb68091","system_id":"levelo_inurba_marseille","lat":43.29976,"lon":5.37235,"is_reserved":false,"is_disabled":false,"rental_uris":{"android":"levelo://app?vid=a2a5f364-72c1-467a-a12e-0e6c5bb68091","ios":"levelo://app?vid=a2a5f364-72c1-467a-a12e-0e6c5bb68091"},"vehicle_type_id":"4","last_reported":1743963118,"current_range_meters":10800,"station_id":"ce4bgr92rcd13ifvqc7g","pricing_plan_id":"cebpf4jnsgd1na2vs0mg"},{"bike_id":"79bcf0da-979c-4cb0-b35e-33d30ccf07ba","system_id":"levelo_inurba_marseille","lat":43.30315,"lon":5.3922,"is_reserved":false,"is_disabled":false,"rental_uris":{"android":"levelo://app?vid=79bcf0da-979c-4cb0-b35e-33d30ccf07ba","ios":"levelo://app?vid=79bcf0da-979c-4cb0-b35e-33d30ccf07ba"},"vehicle_type_id":"4","last_reported":1743963118,"current_range_meters":11200,"station_id":"ce4bgkh2rcd13ifvqbk0","pricing_plan_id":"cebpf4jnsgd1na2vs0mg"},{"bike_id":"19379d7b-b3b4-46ff-9af1-6370bf06ecc3","system_id":"levelo_inurba_marseille","lat":43.2901,"lon":5.3562,"is_reserved":false,"is_disabled":true,"rental_uris":{"android":"levelo://app?vid=19379d7b-b3b4-46ff-9af1-6370bf06ecc3","ios":"levelo://app?vid=19379d7b-b3b4-46ff-9af1-6370bf06ecc3"},"vehicle_type_id":"4","last_reported":1743963118,"current_range_meters":10800,"station_id":"ce4bhb92rcd13ifvqen0","pricing_plan_id":"cebpf4jnsgd1na2vs0mg"},{"bike_id":"7d2cfb4e-978e-4815-8eab-ea8f793e5814","system_id":"levelo_inurba_marseille","lat":43.29868,"lon":5.39729,"is_reserved":false,"is_disabled":false,"rental_uris":{"android":"levelo://app?vid=7d2cfb4e-978e-4815-8eab-ea8f793e5814","ios":"levelo://app?vid=7d2cfb4e-978e-4815-8eab-ea8f793e5814"},"vehicle_type_id":"4","last_reported":1743963118,"current_range_meters":10800,"station_id":"ce4bh0h2rcd13ifvqd50","pricing_plan_id":"cebpf4jnsgd1na2vs0mg"},{"bike_id":"e41bd095-8d4f-4e45-bcd6-26277f901ef3","system_id":"levelo_inurba_marseille","lat":43.26816,"lon":5.40247,"is_reserved":false,"is_disabled":false,"rental_uris":{"android":"levelo://app?vid=e41bd095-8d4f-4e45-bcd6-26277f901ef3","ios":"levelo://app?vid=e41bd095-8d4f-4e45-bcd6-26277f901ef3"},"vehicle_type_id":"4","last_reported":1743963118,"current_range_meters":11200,"station_id":"ce501612rcd8frsf0b60","pricing_plan_id":"cebpf4jnsgd1na2vs0mg"},{"bike_id":"3cef06d1-305c-4853-a1e1-b65be079796d","system_id":"levelo_inurba_marseille","lat":43.29557,"lon":5.42285,"is_reserved":false,"is_disabled":false,"rental_uris":{"android":"levelo://app?vid=3cef06d1-305c-4853-a1e1-b65be079796d","ios":"levelo://app?vid=3cef06d1-305c-4853-a1e1-b65be079796d"},"vehicle_type_id":"4","last_reported":1743963118,"current_range_meters":11200,"station_id":"ce4bhph2rcd13ifvqhdg","pricing_plan_id":"cebpf4jnsgd1na2vs0mg"},{"bike_id":"4f217e6c-3894-4d01-9bc7-dde4f3ef133f","system_id":"levelo_inurba_marseille","lat":43.27898,"lon":5.3801,"is_reserved":false,"is_disabled":false,"rental_uris":{"android":"levelo://app?vid=4f217e6c-3894-4d01-9bc7-dde4f3ef133f","ios":"levelo://app?vid=4f217e6c-3894-4d01-9bc7-dde4f3ef133f"},"vehicle_type_id":"4","last_reported":1743963118,"current_range_meters":10800,"station_id":"ce4bhf92rcd13ifvqf50","pricing_plan_id":"cebpf4jnsgd1na2vs0mg"},{"bike_id":"f52b6982-25ee-4698-90cd-bde95d947adc","system_id":"levelo_inurba_marseille","lat":43.29596,"lon":5.38105,"is_reserved":false,"is_disabled":false,"rental_uris":{"android":"levelo://app?vid=f52b6982-25ee-4698-90cd-bde95d947adc","ios":"levelo://app?vid=f52b6982-25ee-4698-90cd-bde95d947adc"},"vehicle_type_id":"4","last_reported":1743963118,"current_range_meters":10800,"station_id":"ce4bgl12rcd13ifvqbo0","pricing_plan_id":"cebpf4jnsgd1na2vs0mg"},{"bike_id":"8a38320c-a733-4cf5-8c8e-152497fe8f8f","system_id":"levelo_inurba_marseille","lat":43.2819,"lon":5.42657,"is_reserved":false,"is_disabled":false,"rental_uris":{"android":"levelo://app?vid=8a38320c-a733-4cf5-8c8e-152497fe8f8f","ios":"levelo://app?vid=8a38320c-a733-4cf5-8c8e-152497fe8f8f"},"vehicle_type_id":"4","last_reported":1743963118,"current_range_meters":11600,"station_id":"ce4bhnh2rcd13ifvqgug","pricing_plan_id":"cebpf4jnsgd1na2vs0mg"},{"bike_id":"6ee85d75-9576-48a6-9ea1-92da0dac2d73","system_id":"levelo_inurba_marseille","lat":43.3083,"lon":5.43554,"is_reserved":false,"is_disabled":false,"rental_uris":{"android":"levelo://app?vid=6ee85d75-9576-48a6-9ea1-92da0dac2d73","ios":"levelo://app?vid=6ee85d75-9576-48a6-9ea1-92da0dac2d73"},"vehicle_type_id":"4","last_reported":1743963118,"current_range_meters":11600,"station_id":"ce4bhph2rcd13ifvqheg","pricing_plan_id":"cebpf4jnsgd1na2vs0mg"},{"bike_id":"4ca32f5b-c057-4c72-a8ec-eac630d9e875","system_id":"levelo_inurba_marseille","lat":43.2707,"lon":5.38875,"is_reserved":false,"is_disabled":false,"rental_uris":{"android":"levelo://app?vid=4ca32f5b-c057-4c72-a8ec-eac630d9e875","ios":"levelo://app?vid=4ca32f5b-c057-4c72-a8ec-eac630d9e875"},"vehicle_type_id":"4","last_reported":1743963118,"current_range_meters":11600,"station_id":"","pricing_plan_id":"cebpf4jnsgd1na2vs0mg"},{"bike_id":"63e1d95c-79be-4b82-a868-e312bf827ceb","system_id":"levelo_inurba_marseille","lat":43.29044,"lon":5.3864,"is_reserved":false,"is_disabled":true,"rental_uris":{"android":"levelo://app?vid=63e1d95c-79be-4b82-a868-e312bf827ceb","ios":"levelo://app?vid=63e1d95c-79be-4b82-a868-e312bf827ceb"},"vehicle_type_id":"4","last_reported":1743963118,"current_range_meters":11600,"station_id":"ce4bh4p2rcd13ifvqe0g","pricing_plan_id":"cebpf4jnsgd1na2vs0mg"},{"bike_id":"e62d8178-b8e6-41c0-a71c-8a2629180d3c","system_id":"levelo_inurba_marseille","lat":43.26935,"lon":5.40253,"is_reserved":false,"is_disabled":false,"rental_uris":{"android":"levelo://app?vid=e62d8178-b8e6-41c0-a71c-8a2629180d3c","ios":"levelo://app?vid=e62d8178-b8e6-41c0-a71c-8a2629180d3c"},"vehicle_type_id":"4","last_reported":1743963118,"current_range_meters":11600,"station_id":"cjm6bp8fraef2m0cb0m0","pricing_plan_id":"cebpf4jnsgd1na2vs0mg"},{"bike_id":"6f8df81a-61dd-4e9d-ab0f-a81fa90c7a08","system_id":"levelo_inurba_marseille","lat":43.29554,"lon":5.42292,"is_reserved":false,"is_disabled":false,"rental_uris":{"android":"levelo://app?vid=6f8df81a-61dd-4e9d-ab0f-a81fa90c7a08","ios":"levelo://app?vid=6f8df81a-61dd-4e9d-ab0f-a81fa90c7a08"},"vehicle_type_id":"4","last_reported":1743963118,"current_range_meters":11600,"station_id":"ce4bhph2rcd13ifvqhdg","pricing_plan_id":"cebpf4jnsgd1na2vs0mg"},{"bike_id":"8539495d-a8db-48e8-999c-a0eec7f95200","system_id":"levelo_inurba_marseille","lat":43.25516,"lon":5.37638,"is_reserved":false,"is_disabled":true,"rental_uris":{"android":"levelo://app?vid=8539495d-a8db-48e8-999c-a0eec7f95200","ios":"levelo://app?vid=8539495d-a8db-48e8-999c-a0eec7f95200"},"vehicle_type_id":"4","last_reported":1743963118,"current_range_meters":11600,"station_id":"ce4bhh12rcd13ifvqff0","pricing_plan_id":"cebpf4jnsgd1na2vs0mg"},{"bike_id":"a409c3f0-8991-4228-afb5-57b19bb06658","system_id":"levelo_inurba_marseille","lat":43.32401,"lon":5.38997,"is_reserved":false,"is_disabled":false,"rental_uris":{"android":"levelo://app?vid=a409c3f0-8991-4228-afb5-57b19bb06658","ios":"levelo://app?vid=a409c3f0-8991-4228-afb5-57b19bb06658"},"vehicle_type_id":"4","last_reported":1743963118,"current_range_meters":12000,"station_id":"","pricing_plan_id":"cebpf4jnsgd1na2vs0mg"},{"bike_id":"e4d4dc7a-abcd-4c1d-8017-887f937d011f","system_id":"levelo_inurba_marseille","lat":43.29574,"lon":5.39948,"is_reserved":false,"is_disabled":true,"rental_uris":{"android":"levelo://app?vid=e4d4dc7a-abcd-4c1d-8017-887f937d011f","ios":"levelo://app?vid=e4d4dc7a-abcd-4c1d-8017-887f937d011f"},"vehicle_type_id":"4","last_reported":1743963118,"current_range_meters":12000,"station_id":"ce4bh312rcd13ifvqdj0","pricing_plan_id":"cebpf4jnsgd1na2vs0mg"},{"bike_id":"689d3f1e-d3a5-40fb-9c50-1856875b83a1","system_id":"levelo_inurba_marseille","lat":43.29569,"lon":5.39973,"is_reserved":false,"is_disabled":false,"rental_uris":{"android":"levelo://app?vid=689d3f1e-d3a5-40fb-9c50-1856875b83a1","ios":"levelo://app?vid=689d3f1e-d3a5-40fb-9c50-1856875b83a1"},"vehicle_type_id":"4","last_reported":1743963118,"current_range_meters":12000,"station_id":"ce4bh312rcd13ifvqdj0","pricing_plan_id":"cebpf4jnsgd1na2vs0mg"},{"bike_id":"1846512e-48db-4d3b-8ff7-b42293ccef2b","system_id":"levelo_inurba_marseille","lat":43.250127,"lon":5.389222,"is_reserved":false,"is_disabled":false,"rental_uris":{"android":"levelo://app?vid=1846512e-48db-4d3b-8ff7-b42293ccef2b","ios":"levelo://app?vid=1846512e-48db-4d3b-8ff7-b42293ccef2b"},"vehicle_type_id":"4","last_reported":1743963118,"current_range_meters":12000,"station_id":"ce4bhgp2rcd13ifvqfd0","pricing_plan_id":"cebpf4jnsgd1na2vs0mg"},{"bike_id":"33448e42-2dee-4e4d-933a-57b94ec14f0c","system_id":"levelo_inurba_marseille","lat":43.2918,"lon":5.35586,"is_reserved":false,"is_disabled":true,"rental_uris":{"android":"levelo://app?vid=33448e42-2dee-4e4d-933a-57b94ec14f0c","ios":"levelo://app?vid=33448e42-2dee-4e4d-933a-57b94ec14f0c"},"vehicle_type_id":"4","last_reported":1743963118,"current_range_meters":12000,"station_id":"","pricing_plan_id":"cebpf4jnsgd1na2vs0mg"},{"bike_id":"aeae4b67-254c-4f52-8e2b-f0975e2a158b","system_id":"levelo_inurba_marseille","lat":43.30139,"lon":5.38773,"is_reserved":false,"is_disabled":false,"rental_uris":{"android":"levelo://app?vid=aeae4b67-254c-4f52-8e2b-f0975e2a158b","ios":"levelo://app?vid=aeae4b67-254c-4f52-8e2b-f0975e2a158b"},"vehicle_type_id":"4","last_reported":1743963118,"current_range_meters":12000,"station_id":"ce4bghh2rcd13ifvqb60","pricing_plan_id":"cebpf4jnsgd1na2vs0mg"},{"bike_id":"36b898b1-0d44-42a6-9ddd-e5e443f25c6a","system_id":"levelo_inurba_marseille","lat":43.27916,"lon":5.39575,"is_reserved":false,"is_disabled":false,"rental_uris":{"android":"levelo://app?vid=36b898b1-0d44-42a6-9ddd-e5e443f25c6a","ios":"levelo://app?vid=36b898b1-0d44-42a6-9ddd-e5e443f25c6a"},"vehicle_type_id":"4","last_reported":1743963118,"current_range_meters":12000,"station_id":"ce4bhf92rcd13ifvqf40","pricing_plan_id":"cebpf4jnsgd1na2vs0mg"},{"bike_id":"b923e869-91fa-43e6-9a92-3caab85aa7e7","system_id":"levelo_inurba_marseille","lat":43.27199,"lon":5.39193,"is_reserved":false,"is_disabled":false,"rental_uris":{"android":"levelo://app?vid=b923e869-91fa-43e6-9a92-3caab85aa7e7","ios":"levelo://app?vid=b923e869-91fa-43e6-9a92-3caab85aa7e7"},"vehicle_type_id":"4","last_reported":1743963118,"current_range_meters":12000,"station_id":"ce4bhhp2rcd13ifvqfm0","pricing_plan_id":"cebpf4jnsgd1na2vs0mg"},{"bike_id":"d0323e15-b315-4ff2-9c4b-b95dddecd0cf","system_id":"levelo_inurba_marseille","lat":43.29844,"lon":5.36272,"is_reserved":false,"is_disabled":false,"rental_uris":{"android":"levelo://app?vid=d0323e15-b315-4ff2-9c4b-b95dddecd0cf","ios":"levelo://app?vid=d0323e15-b315-4ff2-9c4b-b95dddecd0cf"},"vehicle_type_id":"4","last_reported":1743963118,"current_range_meters":12000,"station_id":"ce4bgpp2rcd13ifvqc3g","pricing_plan_id":"cebpf4jnsgd1na2vs0mg"},{"bike_id":"a56d9e93-ff14-4dc3-9550-a56fbad1008e","system_id":"levelo_inurba_marseille","lat":43.2961,"lon":5.38118,"is_reserved":false,"is_disabled":false,"rental_uris":{"android":"levelo://app?vid=a56d9e93-ff14-4dc3-9550-a56fbad1008e","ios":"levelo://app?vid=a56d9e93-ff14-4dc3-9550-a56fbad1008e"},"vehicle_type_id":"4","last_reported":1743963118,"current_range_meters":12000,"station_id":"ce4bgl12rcd13ifvqbo0","pricing_plan_id":"cebpf4jnsgd1na2vs0mg"},{"bike_id":"433c436d-389b-468f-b513-ac8f0014f2eb","system_id":"levelo_inurba_marseille","lat":43.28349,"lon":5.38106,"is_reserved":false,"is_disabled":false,"rental_uris":{"android":"levelo://app?vid=433c436d-389b-468f-b513-ac8f0014f2eb","ios":"levelo://app?vid=433c436d-389b-468f-b513-ac8f0014f2eb"},"vehicle_type_id":"4","last_reported":1743963118,"current_range_meters":12400,"station_id":"ce4bh412rcd13ifvqdr0","pricing_plan_id":"cebpf4jnsgd1na2vs0mg"},{"bike_id":"1caa313b-bb8f-48c3-ad86-14dfa98d6a62","system_id":"levelo_inurba_marseille","lat":43.25589,"lon":5.3824,"is_reserved":false,"is_disabled":true,"rental_uris":{"android":"levelo://app?vid=1caa313b-bb8f-48c3-ad86-14dfa98d6a62","ios":"levelo://app?vid=1caa313b-bb8f-48c3-ad86-14dfa98d6a62"},"vehicle_type_id":"4","last_reported":1743963118,"current_range_meters":12400,"station_id":"","pricing_plan_id":"cebpf4jnsgd1na2vs0mg"},{"bike_id":"509fadcb-5e81-44f6-b3e7-8b33f30bca1b","system_id":"levelo_inurba_marseille","lat":43.28723,"lon":5.37949,"is_reserved":false,"is_disabled":false,"rental_uris":{"android":"levelo://app?vid=509fadcb-5e81-44f6-b3e7-8b33f30bca1b","ios":"levelo://app?vid=509fadcb-5e81-44f6-b3e7-8b33f30bca1b"},"vehicle_type_id":"4","last_reported":1743963118,"current_range_meters":12400,"station_id":"ce4bh9p2rcd13ifvqec0","pricing_plan_id":"cebpf4jnsgd1na2vs0mg"},{"bike_id":"41731f09-45af-4962-9d0e-ea8028a168a1","system_id":"levelo_inurba_marseille","lat":43.29521,"lon":5.38506,"is_reserved":false,"is_disabled":false,"rental_uris":{"android":"levelo://app?vid=41731f09-45af-4962-9d0e-ea8028a168a1","ios":"levelo://app?vid=41731f09-45af-4962-9d0e-ea8028a168a1"},"vehicle_type_id":"4","last_reported":1743963118,"current_range_meters":12400,"station_id":"ce4bgih2rcd13ifvqba0","pricing_plan_id":"cebpf4jnsgd1na2vs0mg"},{"bike_id":"a5bd5abf-e64b-49fb-9823-db9745ea97e7","system_id":"levelo_inurba_marseille","lat":43.28934,"lon":5.36644,"is_reserved":false,"is_disabled":true,"rental_uris":{"android":"levelo://app?vid=a5bd5abf-e64b-49fb-9823-db9745ea97e7","ios":"levelo://app?vid=a5bd5abf-e64b-49fb-9823-db9745ea97e7"},"vehicle_type_id":"4","last_reported":1743963118,"current_range_meters":12400,"station_id":"ce4bhap2rcd13ifvqek0","pricing_plan_id":"cebpf4jnsgd1na2vs0mg"},{"bike_id":"1abbd067-5b66-4986-bcbf-cff2a7e29ed5","system_id":"levelo_inurba_marseille","lat":43.25717,"lon":5.41098,"is_reserved":false,"is_disabled":false,"rental_uris":{"android":"levelo://app?vid=1abbd067-5b66-4986-bcbf-cff2a7e29ed5","ios":"levelo://app?vid=1abbd067-5b66-4986-bcbf-cff2a7e29ed5"},"vehicle_type_id":"4","last_reported":1743963118,"current_range_meters":12400,"station_id":"ce4bhkp2rcd13ifvqgd0","pricing_plan_id":"cebpf4jnsgd1na2vs0mg"},{"bike_id":"5c141e09-1770-4a15-9fe0-3eda9db430fa","system_id":"levelo_inurba_marseille","lat":43.30187,"lon":5.36626,"is_reserved":false,"is_disabled":false,"rental_uris":{"android":"levelo://app?vid=5c141e09-1770-4a15-9fe0-3eda9db430fa","ios":"levelo://app?vid=5c141e09-1770-4a15-9fe0-3eda9db430fa"},"vehicle_type_id":"4","last_reported":1743963118,"current_range_meters":12000,"station_id":"ce4bgrh2rcd13ifvqc8g","pricing_plan_id":"cebpf4jnsgd1na2vs0mg"},{"bike_id":"546143a5-5f5f-4a75-b8e3-cec9adfc8b13","system_id":"levelo_inurba_marseille","lat":43.250012,"lon":5.389282,"is_reserved":false,"is_disabled":false,"rental_uris":{"android":"levelo://app?vid=546143a5-5f5f-4a75-b8e3-cec9adfc8b13","ios":"levelo://app?vid=546143a5-5f5f-4a75-b8e3-cec9adfc8b13"},"vehicle_type_id":"4","last_reported":1743963118,"current_range_meters":12400,"station_id":"ce4bhgp2rcd13ifvqfd0","pricing_plan_id":"cebpf4jnsgd1na2vs0mg"},{"bike_id":"d6c3d7f4-760c-422c-8667-25e15a7934b3","system_id":"levelo_inurba_marseille","lat":43.30773,"lon":5.37383,"is_reserved":false,"is_disabled":false,"rental_uris":{"android":"levelo://app?vid=d6c3d7f4-760c-422c-8667-25e15a7934b3","ios":"levelo://app?vid=d6c3d7f4-760c-422c-8667-25e15a7934b3"},"vehicle_type_id":"4","last_reported":1743963118,"current_range_meters":12800,"station_id":"","pricing_plan_id":"cebpf4jnsgd1na2vs0mg"},{"bike_id":"a1913776-e0d9-47a2-9906-ec745965407d","system_id":"levelo_inurba_marseille","lat":43.31274,"lon":5.40168,"is_reserved":false,"is_disabled":false,"rental_uris":{"android":"levelo://app?vid=a1913776-e0d9-47a2-9906-ec745965407d","ios":"levelo://app?vid=a1913776-e0d9-47a2-9906-ec745965407d"},"vehicle_type_id":"4","last_reported":1743963118,"current_range_meters":12800,"station_id":"ce4bh092rcd13ifvqd30","pricing_plan_id":"cebpf4jnsgd1na2vs0mg"},{"bike_id":"abdb972a-904b-445c-94aa-26bf166a4855","system_id":"levelo_inurba_marseille","lat":43.28609,"lon":5.37066,"is_reserved":false,"is_disabled":false,"rental_uris":{"android":"levelo://app?vid=abdb972a-904b-445c-94aa-26bf166a4855","ios":"levelo://app?vid=abdb972a-904b-445c-94aa-26bf166a4855"},"vehicle_type_id":"4","last_reported":1743963118,"current_range_meters":12800,"station_id":"ce4bht12rcd13ifvqi60","pricing_plan_id":"cebpf4jnsgd1na2vs0mg"},{"bike_id":"3837d401-4b67-474f-8f9a-dee49039f218","system_id":"levelo_inurba_marseille","lat":43.32285,"lon":5.38271,"is_reserved":false,"is_disabled":false,"rental_uris":{"android":"levelo://app?vid=3837d401-4b67-474f-8f9a-dee49039f218","ios":"levelo://app?vid=3837d401-4b67-474f-8f9a-dee49039f218"},"vehicle_type_id":"4","last_reported":1743963118,"current_range_meters":12400,"station_id":"ce4bhr12rcd13ifvqhqg","pricing_plan_id":"cebpf4jnsgd1na2vs0mg"},{"bike_id":"73c31629-d4c6-4112-85f3-81a995f1389f","system_id":"levelo_inurba_marseille","lat":43.26922,"lon":5.4025,"is_reserved":false,"is_disabled":false,"rental_uris":{"android":"levelo://app?vid=73c31629-d4c6-4112-85f3-81a995f1389f","ios":"levelo://app?vid=73c31629-d4c6-4112-85f3-81a995f1389f"},"vehicle_type_id":"4","last_reported":1743963118,"current_range_meters":12800,"station_id":"cjm6bp8fraef2m0cb0m0","pricing_plan_id":"cebpf4jnsgd1na2vs0mg"},{"bike_id":"84759aad-57e1-4587-bee9-0135d28a8cc3","system_id":"levelo_inurba_marseille","lat":43.26939,"lon":5.40263,"is_reserved":false,"is_disabled":false,"rental_uris":{"android":"levelo://app?vid=84759aad-57e1-4587-bee9-0135d28a8cc3","ios":"levelo://app?vid=84759aad-57e1-4587-bee9-0135d28a8cc3"},"vehicle_type_id":"4","last_reported":1743963118,"current_range_meters":12800,"station_id":"cjm6bp8fraef2m0cb0m0","pricing_plan_id":"cebpf4jnsgd1na2vs0mg"},{"bike_id":"c2148175-2f3d-4185-be30-49c9f5027c65","system_id":"levelo_inurba_marseille","lat":43.32042,"lon":5.41552,"is_reserved":false,"is_disabled":false,"rental_uris":{"android":"levelo://app?vid=c2148175-2f3d-4185-be30-49c9f5027c65","ios":"levelo://app?vid=c2148175-2f3d-4185-be30-49c9f5027c65"},"vehicle_type_id":"4","last_reported":1743963118,"current_range_meters":13600,"station_id":"ce4bhq92rcd13ifvqhkg","pricing_plan_id":"cebpf4jnsgd1na2vs0mg"},{"bike_id":"a959694d-18ce-4d80-917f-23c91ed81065","system_id":"levelo_inurba_marseille","lat":43.29905,"lon":5.43675,"is_reserved":false,"is_disabled":false,"rental_uris":{"android":"levelo://app?vid=a959694d-18ce-4d80-917f-23c91ed81065","ios":"levelo://app?vid=a959694d-18ce-4d80-917f-23c91ed81065"},"vehicle_type_id":"4","last_reported":1743963118,"current_range_meters":13600,"station_id":"ce4bhpp2rcd13ifvqhfg","pricing_plan_id":"cebpf4jnsgd1na2vs0mg"},{"bike_id":"b16e1d70-ed33-4f43-89db-79dfef218792","system_id":"levelo_inurba_marseille","lat":43.27487,"lon":5.42443,"is_reserved":false,"is_disabled":false,"rental_uris":{"android":"levelo://app?vid=b16e1d70-ed33-4f43-89db-79dfef218792","ios":"levelo://app?vid=b16e1d70-ed33-4f43-89db-79dfef218792"},"vehicle_type_id":"4","last_reported":1743963118,"current_range_meters":13600,"station_id":"ce4bhn92rcd13ifvqgrg","pricing_plan_id":"cebpf4jnsgd1na2vs0mg"},{"bike_id":"ca3db27d-af3b-4719-adf1-dad8d2e63619","system_id":"levelo_inurba_marseille","lat":43.27203,"lon":5.4101,"is_reserved":false,"is_disabled":false,"rental_uris":{"android":"levelo://app?vid=ca3db27d-af3b-4719-adf1-dad8d2e63619","ios":"levelo://app?vid=ca3db27d-af3b-4719-adf1-dad8d2e63619"},"vehicle_type_id":"4","last_reported":1743963118,"current_range_meters":13600,"station_id":"ce4bhl12rcd13ifvqgf0","pricing_plan_id":"cebpf4jnsgd1na2vs0mg"},{"bike_id":"513d947d-ed4d-4933-804d-2b6984a930cd","system_id":"levelo_inurba_marseille","lat":43.27318,"lon":5.39087,"is_reserved":false,"is_disabled":false,"rental_uris":{"android":"levelo://app?vid=513d947d-ed4d-4933-804d-2b6984a930cd","ios":"levelo://app?vid=513d947d-ed4d-4933-804d-2b6984a930cd"},"vehicle_type_id":"4","last_reported":1743963118,"current_range_meters":12800,"station_id":"ce4bhgp2rcd13ifvqfe0","pricing_plan_id":"cebpf4jnsgd1na2vs0mg"},{"bike_id":"d893a78a-9318-483a-996e-9bec91fd98dc","system_id":"levelo_inurba_marseille","lat":43.31711,"lon":5.43703,"is_reserved":false,"is_disabled":false,"rental_uris":{"android":"levelo://app?vid=d893a78a-9318-483a-996e-9bec91fd98dc","ios":"levelo://app?vid=d893a78a-9318-483a-996e-9bec91fd98dc"},"vehicle_type_id":"4","last_reported":1743963118,"current_range_meters":13600,"station_id":"ce4bhp92rcd13ifvqhcg","pricing_plan_id":"cebpf4jnsgd1na2vs0mg"},{"bike_id":"f45270bc-169e-4f58-95eb-099a7eb98562","system_id":"levelo_inurba_marseille","lat":43.23185,"lon":5.40006,"is_reserved":false,"is_disabled":false,"rental_uris":{"android":"levelo://app?vid=f45270bc-169e-4f58-95eb-099a7eb98562","ios":"levelo://app?vid=f45270bc-169e-4f58-95eb-099a7eb98562"},"vehicle_type_id":"4","last_reported":1743963118,"current_range_meters":13600,"station_id":"ce4bhn12rcd13ifvqgqg","pricing_plan_id":"cebpf4jnsgd1na2vs0mg"},{"bike_id":"c0435adb-5dbf-41fd-b455-b7f5e0811df2","system_id":"levelo_inurba_marseille","lat":43.29671,"lon":5.3719,"is_reserved":false,"is_disabled":false,"rental_uris":{"android":"levelo://app?vid=c0435adb-5dbf-41fd-b455-b7f5e0811df2","ios":"levelo://app?vid=c0435adb-5dbf-41fd-b455-b7f5e0811df2"},"vehicle_type_id":"4","last_reported":1743963118,"current_range_meters":13600,"station_id":"ce4bgnh2rcd13ifvqc0g","pricing_plan_id":"cebpf4jnsgd1na2vs0mg"},{"bike_id":"bebeb4f3-aae2-41b0-82ec-96e0ee8a57fa","system_id":"levelo_inurba_marseille","lat":43.32357,"lon":5.36749,"is_reserved":false,"is_disabled":false,"rental_uris":{"android":"levelo://app?vid=bebeb4f3-aae2-41b0-82ec-96e0ee8a57fa","ios":"levelo://app?vid=bebeb4f3-aae2-41b0-82ec-96e0ee8a57fa"},"vehicle_type_id":"4","last_reported":1743963118,"current_range_meters":13600,"station_id":"ce4bhsh2rcd13ifvqi2g","pricing_plan_id":"cebpf4jnsgd1na2vs0mg"},{"bike_id":"21e70ada-a2f6-4577-a60f-b0f83105be6b","system_id":"levelo_inurba_marseille","lat":43.30212,"lon":5.39461,"is_reserved":false,"is_disabled":false,"rental_uris":{"android":"levelo://app?vid=21e70ada-a2f6-4577-a60f-b0f83105be6b","ios":"levelo://app?vid=21e70ada-a2f6-4577-a60f-b0f83105be6b"},"vehicle_type_id":"4","last_reported":1743963118,"current_range_meters":13600,"station_id":"ce4bh0p2rcd13ifvqd70","pricing_plan_id":"cebpf4jnsgd1na2vs0mg"},{"bike_id":"6a048934-5500-43af-ba99-f0bd2276a959","system_id":"levelo_inurba_marseille","lat":43.25723,"lon":5.4111,"is_reserved":false,"is_disabled":false,"rental_uris":{"android":"levelo://app?vid=6a048934-5500-43af-ba99-f0bd2276a959","ios":"levelo://app?vid=6a048934-5500-43af-ba99-f0bd2276a959"},"vehicle_type_id":"4","last_reported":1743963118,"current_range_meters":14000,"station_id":"ce4bhkp2rcd13ifvqgd0","pricing_plan_id":"cebpf4jnsgd1na2vs0mg"},{"bike_id":"5726a46d-72a9-43a3-aa16-2ba78e26437d","system_id":"levelo_inurba_marseille","lat":43.26811,"lon":5.40275,"is_reserved":false,"is_disabled":false,"rental_uris":{"android":"levelo://app?vid=5726a46d-72a9-43a3-aa16-2ba78e26437d","ios":"levelo://app?vid=5726a46d-72a9-43a3-aa16-2ba78e26437d"},"vehicle_type_id":"4","last_reported":1743963118,"current_range_meters":14000,"station_id":"ce501612rcd8frsf0b60","pricing_plan_id":"cebpf4jnsgd1na2vs0mg"},{"bike_id":"8e537bbe-87d2-4f85-bb2d-52fe40ef8b23","system_id":"levelo_inurba_marseille","lat":43.299,"lon":5.37464,"is_reserved":false,"is_disabled":false,"rental_uris":{"android":"levelo://app?vid=8e537bbe-87d2-4f85-bb2d-52fe40ef8b23","ios":"levelo://app?vid=8e537bbe-87d2-4f85-bb2d-52fe40ef8b23"},"vehicle_type_id":"4","last_reported":1743963118,"current_range_meters":13600,"station_id":"ce4bgjh2rcd13ifvqbg0","pricing_plan_id":"cebpf4jnsgd1na2vs0mg"},{"bike_id":"14013b0f-1d3c-4caa-b475-0539d5ed5d51","system_id":"levelo_inurba_marseille","lat":43.28609,"lon":5.37067,"is_reserved":false,"is_disabled":false,"rental_uris":{"android":"levelo://app?vid=14013b0f-1d3c-4caa-b475-0539d5ed5d51","ios":"levelo://app?vid=14013b0f-1d3c-4caa-b475-0539d5ed5d51"},"vehicle_type_id":"4","last_reported":1743963118,"current_range_meters":14000,"station_id":"ce4bht12rcd13ifvqi60","pricing_plan_id":"cebpf4jnsgd1na2vs0mg"},{"bike_id":"48cdc0d9-d338-49af-8f83-8d032febedcc","system_id":"levelo_inurba_marseille","lat":43.28937,"lon":5.36647,"is_reserved":false,"is_disabled":false,"rental_uris":{"android":"levelo://app?vid=48cdc0d9-d338-49af-8f83-8d032febedcc","ios":"levelo://app?vid=48cdc0d9-d338-49af-8f83-8d032febedcc"},"vehicle_type_id":"4","last_reported":1743963118,"current_range_meters":13600,"station_id":"ce4bhap2rcd13ifvqek0","pricing_plan_id":"cebpf4jnsgd1na2vs0mg"},{"bike_id":"a697520e-eec2-4545-9102-fffdbc4625ad","system_id":"levelo_inurba_marseille","lat":43.29269,"lon":5.38457,"is_reserved":false,"is_disabled":false,"rental_uris":{"android":"levelo://app?vid=a697520e-eec2-4545-9102-fffdbc4625ad","ios":"levelo://app?vid=a697520e-eec2-4545-9102-fffdbc4625ad"},"vehicle_type_id":"4","last_reported":1743963118,"current_range_meters":14000,"station_id":"ce4bh692rcd13ifvqea0","pricing_plan_id":"cebpf4jnsgd1na2vs0mg"},{"bike_id":"d6b71cfd-b415-44f5-ae7e-13bc7c4d13b2","system_id":"levelo_inurba_marseille","lat":43.290981,"lon":5.399971,"is_reserved":false,"is_disabled":false,"rental_uris":{"android":"levelo://app?vid=d6b71cfd-b415-44f5-ae7e-13bc7c4d13b2","ios":"levelo://app?vid=d6b71cfd-b415-44f5-ae7e-13bc7c4d13b2"},"vehicle_type_id":"4","last_reported":1743963118,"current_range_meters":16000,"station_id":"ce4bh312rcd13ifvqdj0","pricing_plan_id":"cebpf4jnsgd1na2vs0mg"},{"bike_id":"b60b64b1-a99f-441c-909c-35b47add718a","system_id":"levelo_inurba_marseille","lat":43.26943,"lon":5.40253,"is_reserved":false,"is_disabled":false,"rental_uris":{"android":"levelo://app?vid=b60b64b1-a99f-441c-909c-35b47add718a","ios":"levelo://app?vid=b60b64b1-a99f-441c-909c-35b47add718a"},"vehicle_type_id":"4","last_reported":1743963118,"current_range_meters":14000,"station_id":"cjm6bp8fraef2m0cb0m0","pricing_plan_id":"cebpf4jnsgd1na2vs0mg"},{"bike_id":"231abada-1368-47b8-9872-a64b187ad8c3","system_id":"levelo_inurba_marseille","lat":43.26784,"lon":5.39422,"is_reserved":false,"is_disabled":false,"rental_uris":{"android":"levelo://app?vid=231abada-1368-47b8-9872-a64b187ad8c3","ios":"levelo://app?vid=231abada-1368-47b8-9872-a64b187ad8c3"},