{"last_updated":1758816778,"ttl":60,"version":"2.2","data":{"bikes":[{"bike_id":"07254a1a-c99d-4413-bd66-b65d02af076e","system_id":"levelo_inurba_marseille","lat":43.243866,"lon":5.370538,"is_reserved":false,"is_disabled":false,"rental_uris":{"android":"levelo://app?vid=07254a1a-c99d-4413-bd66-b65d02af076e","ios":"levelo://app?vid=07254a1a-c99d-4413-bd66-b65d02af076e"},"vehicle_type_id":"4","last_reported":1758816778,"current_range_meters":2000,"station_id":"ce4bhhh2rcd13ifvqfk0","pricing_plan_id":"cebpf4jnsgd1na2vs0mg"},{"bike_id":"532f00a8-7ba1-4070-bd19-8a5f66417a37","system_id":"levelo_inurba_marseille","lat":43.28154,"lon":5.42644,"is_reserved":false,"is_disabled":false,"rental_uris":{"android":"levelo://app?vid=532f00a8-7ba1-4070-bd19-8a5f66417a37","ios":"levelo://app?vid=532f00a8-7ba1-4070-bd19-8a5f66417a37"},"vehicle_type_id":"4","last_reported":1758816778,"current_range_meters":2800,"station_id":"ce4bhnh2rcd13ifvqgug","pricing_plan_id":"cebpf4jnsgd1na2vs0mg"},{"bike_id":"37440679-fa44-449d-8a54-e5c5f2fd1af2","system_id":"levelo_inurba_marseille","lat":43.26817,"lon":5.4121,"is_reserved":false,"is_disabled":false,"rental_uris":{"android":"levelo://app?vid=37440679-fa44-449d-8a54-e5c5f2fd1af2","ios":"levelo://app?vid=37440679-fa44-449d-8a54-e5c5f2fd1af2"},"vehicle_type_id":"4","last_reported":1758816778,"current_range_meters":2800,"station_id":"","pricing_plan_id":"cebpf4jnsgd1na2vs0mg"},{"bike_id":"ac8662ff-b568-481f-be83-7589a5ccf500","system_id":"levelo_inurba_marseille","lat":43.28478,"lon":5.38411,"is_reserved":false,"is_disabled":false,"rental_uris":{"android":"levelo://app?vid=ac8662ff-b568-481f-be83-7589a5ccf500","ios":"levelo://app?vid=ac8662ff-b568-481f-be83-7589a5ccf500"},"vehicle_type_id":"4","last_reported":1758816778,"current_range_meters":2000,"station_id":"ce4bh512rcd13ifvqe3g","pricing_plan_id":"cebpf4jnsgd1na2vs0mg"},{"bike_id":"dfa2e0eb-c01c-40f5-bdf0-94cf19dc56f0","system_id":"levelo_inurba_marseille","lat":43.25098,"lon":5.39534,"is_reserved":false,"is_disabled":true,"rental_uris":{"android":"levelo://app?vid=dfa2e0eb-c01c-40f5-bdf0-94cf19dc56f0","ios":"levelo://app?vid=dfa2e0eb-c01c-40f5-bdf0-94cf19dc56f0"},"vehicle_type_id":"4","last_reported":1758816778,"current_range_meters":2800,"station_id":"ce4bhm12rcd13ifvqgkg","pricing_plan_id":"cebpf4jnsgd1na2vs0mg"},{"bike_id":"dca5f231-fce8-4483-8a31-3ec644770ea1","system_id":"levelo_inurba_marseille","lat":43.29042,"lon":5.39986,"is_reserved":false,"is_disabled":false,"rental_uris":{"android":"levelo://app?vid=dca5f231-fce8-4483-8a31-3ec644770ea1","ios":"levelo://app?vid=dca5f231-fce8-4483-8a31-3ec644770ea1"},"vehicle_type_id":"4","last_reported":1758816778,"current_range_meters":2800,"station_id":"ce4bh392rcd13ifvqdm0","pricing_plan_id":"cebpf4jnsgd1na2vs0mg"},{"bike_id":"c444c3e6-02b8-4ff8-8370-ad3555416e71","system_id":"levelo_inurba_marseille","lat":43.27838,"lon":5.392022,"is_reserved":false,"is_disabled":false,"rental_uris":{"android":"levelo://app?vid=c444c3e6-02b8-4ff8-8370-ad3555416e71","ios":"levelo://app?vid=c444c3e6-02b8-4ff8-8370-ad3555416e71"},"vehicle_type_id":"4","last_reported":1758816778,"current_range_meters":2800,"station_id":"ce4bhjp2rcd13ifvqga0","pricing_plan_id":"cebpf4jnsgd1na2vs0mg"},{"bike_id":"db9a4829-1f30-477b-a071-62ee7ea0df58","system_id":"levelo_inurba_marseille","lat":43.286114,"lon":5.370694,"is_reserved":false,"is_disabled":false,"rental_uris":{"android":"levelo://app?vid=db9a4829-1f30-477b-a071-62ee7ea0df58","ios":"levelo://app?vid=db9a4829-1f30-477b-a071-62ee7ea0df58"},"vehicle_type_id":"4","last_reported":1758816778,"current_range_meters":2800,"station_id":"ce4bht12rcd13ifvqi60","pricing_plan_id":"cebpf4jnsgd1na2vs0mg"},{"bike_id":"49b8d5ae-5163-4051-828c-be8e8bcc9b64","system_id":"levelo_inurba_marseille","lat":43.29795,"lon":5.37126,"is_reserved":false,"is_disabled":false,"rental_uris":{"android":"levelo://app?vid=49b8d5ae-5163-4051-828c-be8e8bcc9b64","ios":"levelo://app?vid=49b8d5ae-5163-4051-828c-be8e8bcc9b64"},"vehicle_type_id":"4","last_reported":1758816778,"current_range_meters":2800,"station_id":"ce4bgop2rcd13ifvqc1g","pricing_plan_id":"cebpf4jnsgd1na2vs0mg"},{"bike_id":"9446425e-0a86-42ae-bc3c-f72ad738e590","system_id":"levelo_inurba_marseille","lat":43.3366,"lon":5.36293,"is_reserved":false,"is_disabled":false,"rental_uris":{"android":"levelo://app?vid=9446425e-0a86-42ae-bc3c-f72ad738e590","ios":"levelo://app?vid=9446425e-0a86-42ae-bc3c-f72ad738e590"},"vehicle_type_id":"4","last_reported":1758816778,"current_range_meters":3200,"station_id":"","pricing_plan_id":"cebpf4jnsgd1na2vs0mg"},{"bike_id":"88a9b128-cc95-42e8-b1cf-171d6177b8cb","system_id":"levelo_inurba_marseille","lat":43.28078,"lon":5.39661,"is_reserved":false,"is_disabled":false,"rental_uris":{"android":"levelo://app?vid=88a9b128-cc95-42e8-b1cf-171d6177b8cb","ios":"levelo://app?vid=88a9b128-cc95-42e8-b1cf-171d6177b8cb"},"vehicle_type_id":"4","last_reported":1758816778,"current_range_meters":3200,"station_id":"ce4bho12rcd13ifvqh2g","pricing_plan_id":"cebpf4jnsgd1na2vs0mg"},{"bike_id":"1efddf8d-578f-4e4c-8c3f-e3a8bd592ba4","system_id":"levelo_inurba_marseille","lat":43.29953,"lon":5.37317,"is_reserved":false,"is_disabled":false,"rental_uris":{"android":"levelo://app?vid=1efddf8d-578f-4e4c-8c3f-e3a8bd592ba4","ios":"levelo://app?vid=1efddf8d-578f-4e4c-8c3f-e3a8bd592ba4"},"vehicle_type_id":"4","last_reported":1758816778,"current_range_meters":3600,"station_id":"","pricing_plan_id":"cebpf4jnsgd1na2vs0mg"},{"bike_id":"5d3df889-eebb-40dc-8732-8dd40cb2d6af","system_id":"levelo_inurba_marseille","lat":43.26812,"lon":5.40273,"is_reserved":false,"is_disabled":false,"rental_uris":{"android":"levelo://app?vid=5d3df889-eebb-40dc-8732-8dd40cb2d6af","ios":"levelo://app?vid=5d3df889-eebb-40dc-8732-8dd40cb2d6af"},"vehicle_type_id":"4","last_reported":1758816778,"current_range_meters":3200,"station_id":"ce501612rcd8frsf0b60","pricing_plan_id":"cebpf4jnsgd1na2vs0mg"},{"bike_id":"67f4ba28-f8b3-4c93-abe5-1f176d4bb95f","system_id":"levelo_inurba_marseille","lat":43.284792,"lon":5.384144,"is_reserved":false,"is_disabled":false,"rental_uris":{"android":"levelo://app?vid=67f4ba28-f8b3-4c93-abe5-1f176d4bb95f","ios":"levelo://app?vid=67f4ba28-f8b3-4c93-abe5-1f176d4bb95f"},"vehicle_type_id":"4","last_reported":1758816778,"current_range_meters":2000,"station_id":"ce4bh512rcd13ifvqe3g","pricing_plan_id":"cebpf4jnsgd1na2vs0mg"},{"bike_id":"a10cd35d-70fc-4fac-bdc7-8b3e7ab99490","system_id":"levelo_inurba_marseille","lat":43.27957,"lon":5.41042,"is_reserved":false,"is_disabled":false,"rental_uris":{"android":"levelo://app?vid=a10cd35d-70fc-4fac-bdc7-8b3e7ab99490","ios":"levelo://app?vid=a10cd35d-70fc-4fac-bdc7-8b3e7ab99490"},"vehicle_type_id":"4","last_reported":1758816778,"current_range_meters":3600,"station_id":"ce4bhnp2rcd13ifvqh0g","pricing_plan_id":"cebpf4jnsgd1na2vs0mg"},{"bike_id":"96dff99c-cd7d-425b-b97c-c9f64a6df371","system_id":"levelo_inurba_marseille","lat":43.28405,"lon":5.37523,"is_reserved":false,"is_disabled":false,"rental_uris":{"android":"levelo://app?vid=96dff99c-cd7d-425b-b97c-c9f64a6df371","ios":"levelo://app?vid=96dff99c-cd7d-425b-b97c-c9f64a6df371"},"vehicle_type_id":"4","last_reported":1758816778,"current_range_meters":3600,"station_id":"ce4bh412rcd13ifvqds0","pricing_plan_id":"cebpf4jnsgd1na2vs0mg"},{"bike_id":"612bc19d-2d94-46d0-ac67-f7c0a92076fa","system_id":"levelo_inurba_marseille","lat":43.28361,"lon":5.38624,"is_reserved":false,"is_disabled":false,"rental_uris":{"android":"levelo://app?vid=612bc19d-2d94-46d0-ac67-f7c0a92076fa","ios":"levelo://app?vid=612bc19d-2d94-46d0-ac67-f7c0a92076fa"},"vehicle_type_id":"4","last_reported":1758816778,"current_range_meters":4000,"station_id":"ce4bh492rcd13ifvqdvg","pricing_plan_id":"cebpf4jnsgd1na2vs0mg"},{"bike_id":"bfb27231-f10a-404f-90db-0d03e1d021ed","system_id":"levelo_inurba_marseille","lat":43.28584,"lon":5.39464,"is_reserved":false,"is_disabled":false,"rental_uris":{"android":"levelo://app?vid=bfb27231-f10a-404f-90db-0d03e1d021ed","ios":"levelo://app?vid=bfb27231-f10a-404f-90db-0d03e1d021ed"},"vehicle_type_id":"4","last_reported":1758816778,"current_range_meters":4000,"station_id":"ce4bh292rcd13ifvqdg0","pricing_plan_id":"cebpf4jnsgd1na2vs0mg"},{"bike_id":"2f193047-d61b-4939-ae70-e10eda37ccf9","system_id":"levelo_inurba_marseille","lat":43.29885,"lon":5.38903,"is_reserved":false,"is_disabled":false,"rental_uris":{"android":"levelo://app?vid=2f193047-d61b-4939-ae70-e10eda37ccf9","ios":"levelo://app?vid=2f193047-d61b-4939-ae70-e10eda37ccf9"},"vehicle_type_id":"4","last_reported":1758816778,"current_range_meters":4000,"station_id":"ce4bh392rcd13ifvqdl0","pricing_plan_id":"cebpf4jnsgd1na2vs0mg"},{"bike_id":"b2361cec-9d53-411b-9084-d8a5ad59364e","system_id":"levelo_inurba_marseille","lat":43.28934,"lon":5.36641,"is_reserved":false,"is_disabled":false,"rental_uris":{"android":"levelo://app?vid=b2361cec-9d53-411b-9084-d8a5ad59364e","ios":"levelo://app?vid=b2361cec-9d53-411b-9084-d8a5ad59364e"},"vehicle_type_id":"4","last_reported":1758816778,"current_range_meters":4000,"station_id":"ce4bhap2rcd13ifvqek0","pricing_plan_id":"cebpf4jnsgd1na2vs0mg"},{"bike_id":"5eeab33f-b124-49d8-80c8-9a0bc81b7c66","system_id":"levelo_inurba_marseille","lat":43.30324,"lon":5.40439,"is_reserved":false,"is_disabled":false,"rental_uris":{"android":"levelo://app?vid=5eeab33f-b124-49d8-80c8-9a0bc81b7c66","ios":"levelo://app?vid=5eeab33f-b124-49d8-80c8-9a0bc81b7c66"},"vehicle_type_id":"4","last_reported":1758816778,"current_range_meters":4000,"station_id":"ce4bh012rcd13ifvqd10","pricing_plan_id":"cebpf4jnsgd1na2vs0mg"},{"bike_id":"8263535b-e892-4b0c-9ad0-8532aadc0e9f","system_id":"levelo_inurba_marseille","lat":43.3079,"lon":5.37641,"is_reserved":false,"is_disabled":false,"rental_uris":{"android":"levelo://app?vid=8263535b-e892-4b0c-9ad0-8532aadc0e9f","ios":"levelo://app?vid=8263535b-e892-4b0c-9ad0-8532aadc0e9f"},"vehicle_type_id":"4","last_reported":1758816778,"current_range_meters":3600,"station_id":"ce4bgv92rcd13ifvqcq0","pricing_plan_id":"cebpf4jnsgd1na2vs0mg"},{"bike_id":"9bd5365f-e25b-4e9a-ae59-5e4297d8b479","system_id":"levelo_inurba_marseille","lat":43.28955,"lon":5.39628,"is_reserved":false,"is_disabled":false,"rental_uris":{"android":"levelo://app?vid=9bd5365f-e25b-4e9a-ae59-5e4297d8b479","ios":"levelo://app?vid=9bd5365f-e25b-4e9a-ae59-5e4297d8b479"},"vehicle_type_id":"4","last_reported":1758816778,"current_range_meters":4000,"station_id":"ce4bh3h2rcd13ifvqdn0","pricing_plan_id":"cebpf4jnsgd1na2vs0mg"},{"bike_id":"3a6eacbb-148f-4073-b9a0-8dcb977fef95","system_id":"levelo_inurba_marseille","lat":43.295771,"lon":5.375186,"is_reserved":false,"is_disabled":false,"rental_uris":{"android":"levelo://app?vid=3a6eacbb-148f-4073-b9a0-8dcb977fef95","ios":"levelo://app?vid=3a6eacbb-148f-4073-b9a0-8dcb977fef95"},"vehicle_type_id":"4","last_reported":1758816778,"current_range_meters":4000,"station_id":"ce4bgh92rcd13ifvqb50","pricing_plan_id":"cebpf4jnsgd1na2vs0mg"},{"bike_id":"d8c6a9f3-39d1-454a-9e79-8fd3b93849ad","system_id":"levelo_inurba_marseille","lat":43.3048,"lon":5.36708,"is_reserved":false,"is_disabled":false,"rental_uris":{"android":"levelo://app?vid=d8c6a9f3-39d1-454a-9e79-8fd3b93849ad","ios":"levelo://app?vid=d8c6a9f3-39d1-454a-9e79-8fd3b93849ad"},"vehicle_type_id":"4","last_reported":1758816778,"current_range_meters":4000,"station_id":"","pricing_plan_id":"cebpf4jnsgd1na2vs0mg"},{"bike_id":"04408545-6e01-49da-ac2a-cc5252608756","system_id":"levelo_inurba_marseille","lat":43.31274,"lon":5.40174,"is_reserved":false,"is_disabled":false,"rental_uris":{"android":"levelo://app?vid=04408545-6e01-49da-ac2a-cc5252608756","ios":"levelo://app?vid=04408545-6e01-49da-ac2a-cc5252608756"},"vehicle_type_id":"4","last_reported":1758816778,"current_range_meters":4000,"station_id":"ce4bh092rcd13ifvqd30","pricing_plan_id":"cebpf4jnsgd1na2vs0mg"},{"bike_id":"2fcdfe1c-51e6-4e8a-9ed8-5bafbc22c382","system_id":"levelo_inurba_marseille","lat":43.27997,"lon":5.40019,"is_reserved":false,"is_disabled":false,"rental_uris":{"android":"levelo://app?vid=2fcdfe1c-51e6-4e8a-9ed8-5bafbc22c382","ios":"levelo://app?vid=2fcdfe1c-51e6-4e8a-9ed8-5bafbc22c382"},"vehicle_type_id":"4","last_reported":1758816778,"current_range_meters":3600,"station_id":"ce4bho92rcd13ifvqh4g","pricing_plan_id":"cebpf4jnsgd1na2vs0mg"},{"bike_id":"4f420e8f-e4a3-41c8-995b-438e6d1efec8","system_id":"levelo_inurba_marseille","lat":43.2781,"lon":5.4071,"is_reserved":false,"is_disabled":false,"rental_uris":{"android":"levelo://app?vid=4f420e8f-e4a3-41c8-995b-438e6d1efec8","ios":"levelo://app?vid=4f420e8f-e4a3-41c8-995b-438e6d1efec8"},"vehicle_type_id":"4","last_reported":1758816778,"current_range_meters":4400,"station_id":"ce4bhnh2rcd13ifvqgtg","pricing_plan_id":"cebpf4jnsgd1na2vs0mg"},{"bike_id":"6d906be0-1bd0-4d34-8938-e157973b2065","system_id":"levelo_inurba_marseille","lat":43.24387,"lon":5.37059,"is_reserved":false,"is_disabled":false,"rental_uris":{"android":"levelo://app?vid=6d906be0-1bd0-4d34-8938-e157973b2065","ios":"levelo://app?vid=6d906be0-1bd0-4d34-8938-e157973b2065"},"vehicle_type_id":"4","last_reported":1758816778,"current_range_meters":4400,"station_id":"ce4bhhh2rcd13ifvqfk0","pricing_plan_id":"cebpf4jnsgd1na2vs0mg"},{"bike_id":"418c6046-b658-473e-9eb3-d68c7cd29c52","system_id":"levelo_inurba_marseille","lat":43.28413,"lon":5.34982,"is_reserved":false,"is_disabled":false,"rental_uris":{"android":"levelo://app?vid=418c6046-b658-473e-9eb3-d68c7cd29c52","ios":"levelo://app?vid=418c6046-b658-473e-9eb3-d68c7cd29c52"},"vehicle_type_id":"4","last_reported":1758816778,"current_range_meters":4400,"station_id":"ce4bhbh2rcd13ifvqepg","pricing_plan_id":"cebpf4jnsgd1na2vs0mg"},{"bike_id":"c80e1f6e-41df-47e3-91cd-de5847cd5136","system_id":"levelo_inurba_marseille","lat":43.324675,"lon":5.388925,"is_reserved":false,"is_disabled":false,"rental_uris":{"android":"levelo://app?vid=c80e1f6e-41df-47e3-91cd-de5847cd5136","ios":"levelo://app?vid=c80e1f6e-41df-47e3-91cd-de5847cd5136"},"vehicle_type_id":"4","last_reported":1758816778,"current_range_meters":4400,"station_id":"","pricing_plan_id":"cebpf4jnsgd1na2vs0mg"},{"bike_id":"0f06f537-017f-4fda-9e51-305dd36f33a9","system_id":"levelo_inurba_marseille","lat":43.31325,"lon":5.39704,"is_reserved":false,"is_disabled":false,"rental_uris":{"android":"levelo://app?vid=0f06f537-017f-4fda-9e51-305dd36f33a9","ios":"levelo://app?vid=0f06f537-017f-4fda-9e51-305dd36f33a9"},"vehicle_type_id":"4","last_reported":1758816778,"current_range_meters":4400,"station_id":"ce4bgvp2rcd13ifvqcu0","pricing_plan_id":"cebpf4jnsgd1na2vs0mg"},{"bike_id":"6308b424-7cab-468b-aa6c-ea1edf8cb733","system_id":"levelo_inurba_marseille","lat":43.31094,"lon":5.38584,"is_reserved":false,"is_disabled":false,"rental_uris":{"android":"levelo://app?vid=6308b424-7cab-468b-aa6c-ea1edf8cb733","ios":"levelo://app?vid=6308b424-7cab-468b-aa6c-ea1edf8cb733"},"vehicle_type_id":"4","last_reported":1758816778,"current_range_meters":4400,"station_id":"","pricing_plan_id":"cebpf4jnsgd1na2vs0mg"},{"bike_id":"3d476d69-4af4-40a8-8ecd-153d3d338261","system_id":"levelo_inurba_marseille","lat":43.27188,"lon":5.42869,"is_reserved":false,"is_disabled":false,"rental_uris":{"android":"levelo://app?vid=3d476d69-4af4-40a8-8ecd-153d3d338261","ios":"levelo://app?vid=3d476d69-4af4-40a8-8ecd-153d3d338261"},"vehicle_type_id":"4","last_reported":1758816778,"current_range_meters":4800,"station_id":"","pricing_plan_id":"cebpf4jnsgd1na2vs0mg"},{"bike_id":"db05b0b9-b783-4d17-b8df-34c081588a9a","system_id":"levelo_inurba_marseille","lat":43.27945,"lon":5.41038,"is_reserved":false,"is_disabled":false,"rental_uris":{"android":"levelo://app?vid=db05b0b9-b783-4d17-b8df-34c081588a9a","ios":"levelo://app?vid=db05b0b9-b783-4d17-b8df-34c081588a9a"},"vehicle_type_id":"4","last_reported":1758816778,"current_range_meters":4800,"station_id":"ce4bhnp2rcd13ifvqh0g","pricing_plan_id":"cebpf4jnsgd1na2vs0mg"},{"bike_id":"7c0482c3-9253-4d1b-b4f3-be55cdb7721d","system_id":"levelo_inurba_marseille","lat":43.33757,"lon":5.37466,"is_reserved":false,"is_disabled":false,"rental_uris":{"android":"levelo://app?vid=7c0482c3-9253-4d1b-b4f3-be55cdb7721d","ios":"levelo://app?vid=7c0482c3-9253-4d1b-b4f3-be55cdb7721d"},"vehicle_type_id":"4","last_reported":1758816778,"current_range_meters":4800,"station_id":"","pricing_plan_id":"cebpf4jnsgd1na2vs0mg"},{"bike_id":"d354ec98-01d7-4b55-bec4-abd29718e136","system_id":"levelo_inurba_marseille","lat":43.27997,"lon":5.41671,"is_reserved":false,"is_disabled":false,"rental_uris":{"android":"levelo://app?vid=d354ec98-01d7-4b55-bec4-abd29718e136","ios":"levelo://app?vid=d354ec98-01d7-4b55-bec4-abd29718e136"},"vehicle_type_id":"4","last_reported":1758816778,"current_range_meters":4800,"station_id":"ce4bho12rcd13ifvqh1g","pricing_plan_id":"cebpf4jnsgd1na2vs0mg"},{"bike_id":"29bf1cfb-46f7-4676-a0c9-7d00064036f8","system_id":"levelo_inurba_marseille","lat":43.2894,"lon":5.39636,"is_reserved":false,"is_disabled":false,"rental_uris":{"android":"levelo://app?vid=29bf1cfb-46f7-4676-a0c9-7d00064036f8","ios":"levelo://app?vid=29bf1cfb-46f7-4676-a0c9-7d00064036f8"},"vehicle_type_id":"4","last_reported":1758816778,"current_range_meters":4800,"station_id":"ce4bh3h2rcd13ifvqdn0","pricing_plan_id":"cebpf4jnsgd1na2vs0mg"},{"bike_id":"ad0f565d-c935-4ed1-88c9-c5c38ff8b0d5","system_id":"levelo_inurba_marseille","lat":43.292206,"lon":5.360581,"is_reserved":false,"is_disabled":false,"rental_uris":{"android":"levelo://app?vid=ad0f565d-c935-4ed1-88c9-c5c38ff8b0d5","ios":"levelo://app?vid=ad0f565d-c935-4ed1-88c9-c5c38ff8b0d5"},"vehicle_type_id":"4","last_reported":1758816778,"current_range_meters":4800,"station_id":"ce4bhbh2rcd13ifvqeqg","pricing_plan_id":"cebpf4jnsgd1na2vs0mg"},{"bike_id":"1157ef48-61e1-4458-aa94-d10d52804b3d","system_id":"levelo_inurba_marseille","lat":43.28104,"lon":5.3784,"is_reserved":false,"is_disabled":false,"rental_uris":{"android":"levelo://app?vid=1157ef48-61e1-4458-aa94-d10d52804b3d","ios":"levelo://app?vid=1157ef48-61e1-4458-aa94-d10d52804b3d"},"vehicle_type_id":"4","last_reported":1758816778,"current_range_meters":4800,"station_id":"ce4bha12rcd13ifvqee0","pricing_plan_id":"cebpf4jnsgd1na2vs0mg"},{"bike_id":"16f5bf6f-8f1f-45d1-aca5-e906f3b695af","system_id":"levelo_inurba_marseille","lat":43.28106,"lon":5.37842,"is_reserved":false,"is_disabled":false,"rental_uris":{"android":"levelo://app?vid=16f5bf6f-8f1f-45d1-aca5-e906f3b695af","ios":"levelo://app?vid=16f5bf6f-8f1f-45d1-aca5-e906f3b695af"},"vehicle_type_id":"4","last_reported":1758816778,"current_range_meters":4800,"station_id":"ce4bha12rcd13ifvqee0","pricing_plan_id":"cebpf4jnsgd1na2vs0mg"},{"bike_id":"438359bd-c2eb-4e17-ba28-fc0e60b5ab55","system_id":"levelo_inurba_marseille","lat":43.29731,"lon":5.3769,"is_reserved":false,"is_disabled":false,"rental_uris":{"android":"levelo://app?vid=438359bd-c2eb-4e17-ba28-fc0e60b5ab55","ios":"levelo://app?vid=438359bd-c2eb-4e17-ba28-fc0e60b5ab55"},"vehicle_type_id":"4","last_reported":1758816778,"current_range_meters":5600,"station_id":"ce4bgkh2rcd13ifvqbl0","pricing_plan_id":"cebpf4jnsgd1na2vs0mg"},{"bike_id":"939538dc-20bd-4d94-8a10-8e1e0a179bc7","system_id":"levelo_inurba_marseille","lat":43.30483,"lon":5.36611,"is_reserved":false,"is_disabled":false,"rental_uris":{"android":"levelo://app?vid=939538dc-20bd-4d94-8a10-8e1e0a179bc7","ios":"levelo://app?vid=939538dc-20bd-4d94-8a10-8e1e0a179bc7"},"vehicle_type_id":"4","last_reported":1758816778,"current_range_meters":5600,"station_id":"","pricing_plan_id":"cebpf4jnsgd1na2vs0mg"},{"bike_id":"8425bdcc-052b-4c44-af33-ed39b1d648d8","system_id":"levelo_inurba_marseille","lat":43.28713,"lon":5.39983,"is_reserved":false,"is_disabled":true,"rental_uris":{"android":"levelo://app?vid=8425bdcc-052b-4c44-af33-ed39b1d648d8","ios":"levelo://app?vid=8425bdcc-052b-4c44-af33-ed39b1d648d8"},"vehicle_type_id":"4","last_reported":1758816778,"current_range_meters":5600,"station_id":"ce4bho92rcd13ifvqh3g","pricing_plan_id":"cebpf4jnsgd1na2vs0mg"},{"bike_id":"73ea4ef5-381d-45d3-b9ec-30802149cac8","system_id":"levelo_inurba_marseille","lat":43.27997,"lon":5.41666,"is_reserved":false,"is_disabled":false,"rental_uris":{"android":"levelo://app?vid=73ea4ef5-381d-45d3-b9ec-30802149cac8","ios":"levelo://app?vid=73ea4ef5-381d-45d3-b9ec-30802149cac8"},"vehicle_type_id":"4","last_reported":1758816778,"current_range_meters":6000,"station_id":"ce4bho12rcd13ifvqh1g","pricing_plan_id":"cebpf4jnsgd1na2vs0mg"},{"bike_id":"25746e2c-c97a-4a8d-84a3-b860c80a151c","system_id":"levelo_inurba_marseille","lat":43.29195,"lon":5.35813,"is_reserved":false,"is_disabled":false,"rental_uris":{"android":"levelo://app?vid=25746e2c-c97a-4a8d-84a3-b860c80a151c","ios":"levelo://app?vid=25746e2c-c97a-4a8d-84a3-b860c80a151c"},"vehicle_type_id":"4","last_reported":1758816778,"current_range_meters":6000,"station_id":"ce4bhb12rcd13ifvqel0","pricing_plan_id":"cebpf4jnsgd1na2vs0mg"},{"bike_id":"e7d119f7-bee5-4753-bfab-abdd4e6f8a8f","system_id":"levelo_inurba_marseille","lat":43.283707,"lon":5.386308,"is_reserved":false,"is_disabled":false,"rental_uris":{"android":"levelo://app?vid=e7d119f7-bee5-4753-bfab-abdd4e6f8a8f","ios":"levelo://app?vid=e7d119f7-bee5-4753-bfab-abdd4e6f8a8f"},"vehicle_type_id":"4","last_reported":1758816778,"current_range_meters":6000,"station_id":"ce4bh492rcd13ifvqdvg","pricing_plan_id":"cebpf4jnsgd1na2vs0mg"},{"bike_id":"9c4a7bdb-c552-4dfd-8efb-40b9e0b0b147","system_id":"levelo_inurba_marseille","lat":43.30909,"lon":5.36725,"is_reserved":false,"is_disabled":false,"rental_uris":{"android":"levelo://app?vid=9c4a7bdb-c552-4dfd-8efb-40b9e0b0b147","ios":"levelo://app?vid=9c4a7bdb-c552-4dfd-8efb-40b9e0b0b147"},"vehicle_type_id":"4","last_reported":1758816778,"current_range_meters":6400,"station_id":"","pricing_plan_id":"cebpf4jnsgd1na2vs0mg"},{"bike_id":"7578db28-fb3a-4f8e-994a-c4c02d1f87d4","system_id":"levelo_inurba_marseille","lat":43.30415,"lon":5.41274,"is_reserved":false,"is_disabled":false,"rental_uris":{"android":"levelo://app?vid=7578db28-fb3a-4f8e-994a-c4c02d1f87d4","ios":"levelo://app?vid=7578db28-fb3a-4f8e-994a-c4c02d1f87d4"},"vehicle_type_id":"4","last_reported":1758816778,"current_range_meters":6400,"station_id":"ce4bhop2rcd13ifvqh8g","pricing_plan_id":"cebpf4jnsgd1na2vs0mg"},{"bike_id":"1d747dfd-5c8b-40b4-af62-a1eccdd74a4c","system_id":"levelo_inurba_marseille","lat":43.29448,"lon":5.39754,"is_reserved":false,"is_disabled":true,"rental_uris":{"android":"levelo://app?vid=1d747dfd-5c8b-40b4-af62-a1eccdd74a4c","ios":"levelo://app?vid=1d747dfd-5c8b-40b4-af62-a1eccdd74a4c"},"vehicle_type_id":"4","last_reported":1758816778,"current_range_meters":6400,"station_id":"ce4bh3h2rcd13ifvqdo0","pricing_plan_id":"cebpf4jnsgd1na2vs0mg"},{"bike_id":"cb3d83dd-8277-415b-bc5d-a118e1200728","system_id":"levelo_inurba_marseille","lat":43.30105,"lon":5.41032,"is_reserved":false,"is_disabled":false,"rental_uris":{"android":"levelo://app?vid=cb3d83dd-8277-415b-bc5d-a118e1200728","ios":"levelo://app?vid=cb3d83dd-8277-415b-bc5d-a118e1200728"},"vehicle_type_id":"4","last_reported":1758816778,"current_range_meters":6400,"station_id":"","pricing_plan_id":"cebpf4jnsgd1na2vs0mg"},{"bike_id":"2c4628e8-46a1-4181-8fae-88379f486902","system_id":"levelo_inurba_marseille","lat":43.29211,"lon":5.36038,"is_reserved":false,"is_disabled":false,"rental_uris":{"android":"levelo://app?vid=2c4628e8-46a1-4181-8fae-88379f486902","ios":"levelo://app?vid=2c4628e8-46a1-4181-8fae-88379f486902"},"vehicle_type_id":"4","last_reported":1758816778,"current_range_meters":6800,"station_id":"ce4bhbh2rcd13ifvqeqg","pricing_plan_id":"cebpf4jnsgd1na2vs0mg"},{"bike_id":"136a707a-b224-4c44-8119-f846f7b7d0a7","system_id":"levelo_inurba_marseille","lat":43.29516,"lon":5.37375,"is_reserved":false,"is_disabled":false,"rental_uris":{"android":"levelo://app?vid=136a707a-b224-4c44-8119-f846f7b7d0a7","ios":"levelo://app?vid=136a707a-b224-4c44-8119-f846f7b7d0a7"},"vehicle_type_id":"4","last_reported":1758816778,"current_range_meters":6800,"station_id":"","pricing_plan_id":"cebpf4jnsgd1na2vs0mg"},{"bike_id":"e3a60956-1c4d-4819-9ca4-cfcf5f638972","system_id":"levelo_inurba_marseille","lat":43.29268,"lon":5.38452,"is_reserved":false,"is_disabled":false,"rental_uris":{"android":"levelo://app?vid=e3a60956-1c4d-4819-9ca4-cfcf5f638972","ios":"levelo://app?vid=e3a60956-1c4d-4819-9ca4-cfcf5f638972"},"vehicle_type_id":"4","last_reported":1758816778,"current_range_meters":6800,"station_id":"ce4bh692rcd13ifvqea0","pricing_plan_id":"cebpf4jnsgd1na2vs0mg"},{"bike_id":"4dd3c820-2b6e-44ba-8d31-9877c15f7e64","system_id":"levelo_inurba_marseille","lat":43.32339,"lon":5.40622,"is_reserved":false,"is_disabled":false,"rental_uris":{"android":"levelo://app?vid=4dd3c820-2b6e-44ba-8d31-9877c15f7e64","ios":"levelo://app?vid=4dd3c820-2b6e-44ba-8d31-9877c15f7e64"},"vehicle_type_id":"4","last_reported":1758816778,"current_range_meters":6800,"station_id":"ce4bhq92rcd13ifvqhjg","pricing_plan_id":"cebpf4jnsgd1na2vs0mg"},{"bike_id":"ee43aef1-7396-4498-a076-87542c10f7b2","system_id":"levelo_inurba_marseille","lat":43.28478,"lon":5.3857,"is_reserved":false,"is_disabled":false,"rental_uris":{"android":"levelo://app?vid=ee43aef1-7396-4498-a076-87542c10f7b2","ios":"levelo://app?vid=ee43aef1-7396-4498-a076-87542c10f7b2"},"vehicle_type_id":"4","last_reported":1758816778,"current_range_meters":6400,"station_id":"ce4bh8p2rcd13ifvqeb0","pricing_plan_id":"cebpf4jnsgd1na2vs0mg"},{"bike_id":"bba4285f-15e8-4c05-8a45-f004355fcd66","system_id":"levelo_inurba_marseille","lat":43.28447,"lon":5.39206,"is_reserved":false,"is_disabled":false,"rental_uris":{"android":"levelo://app?vid=bba4285f-15e8-4c05-8a45-f004355fcd66","ios":"levelo://app?vid=bba4285f-15e8-4c05-8a45-f004355fcd66"},"vehicle_type_id":"4","last_reported":1758816778,"current_range_meters":7200,"station_id":"ce4bhoh2rcd13ifvqh5g","pricing_plan_id":"cebpf4jnsgd1na2vs0mg"},{"bike_id":"6e939818-866e-481d-ae79-f2f748177a90","system_id":"levelo_inurba_marseille","lat":43.26487,"lon":5.39563,"is_reserved":false,"is_disabled":false,"rental_uris":{"android":"levelo://app?vid=6e939818-866e-481d-ae79-f2f748177a90","ios":"levelo://app?vid=6e939818-866e-481d-ae79-f2f748177a90"},"vehicle_type_id":"4","last_reported":1758816778,"current_range_meters":7200,"station_id":"ce4bhi12rcd13ifvqfq0","pricing_plan_id":"cebpf4jnsgd1na2vs0mg"},{"bike_id":"df57c47a-7249-4c3a-b22d-ca8e2357c6e5","system_id":"levelo_inurba_marseille","lat":43.281568,"lon":5.426415,"is_reserved":false,"is_disabled":false,"rental_uris":{"android":"levelo://app?vid=df57c47a-7249-4c3a-b22d-ca8e2357c6e5","ios":"levelo://app?vid=df57c47a-7249-4c3a-b22d-ca8e2357c6e5"},"vehicle_type_id":"4","last_reported":1758816778,"current_range_meters":7200,"station_id":"ce4bhnh2rcd13ifvqgug","pricing_plan_id":"cebpf4jnsgd1na2vs0mg"},{"bike_id":"58bcb43d-c000-4e3e-b004-30450f57645b","system_id":"levelo_inurba_marseille","lat":43.29527,"lon":5.37448,"is_reserved":false,"is_disabled":false,"rental_uris":{"android":"levelo://app?vid=58bcb43d-c000-4e3e-b004-30450f57645b","ios":"levelo://app?vid=58bcb43d-c000-4e3e-b004-30450f57645b"},"vehicle_type_id":"4","last_reported":1758816778,"current_range_meters":7200,"station_id":"","pricing_plan_id":"cebpf4jnsgd1na2vs0mg"},{"bike_id":"a4905eb3-250e-4e9a-bff2-cbbc506b6338","system_id":"levelo_inurba_marseille","lat":43.265,"lon":5.39545,"is_reserved":false,"is_disabled":false,"rental_uris":{"android":"levelo://app?vid=a4905eb3-250e-4e9a-bff2-cbbc506b6338","ios":"levelo://app?vid=a4905eb3-250e-4e9a-bff2-cbbc506b6338"},"vehicle_type_id":"4","last_reported":1758816778,"current_range_meters":7200,"station_id":"ce4bhi12rcd13ifvqfq0","pricing_plan_id":"cebpf4jnsgd1na2vs0mg"},{"bike_id":"7b505351-7b81-4cc3-b860-607a6efc38e6","system_id":"levelo_inurba_marseille","lat":43.29039,"lon":5.39966,"is_reserved":false,"is_disabled":false,"rental_uris":{"android":"levelo://app?vid=7b505351-7b81-4cc3-b860-607a6efc38e6","ios":"levelo://app?vid=7b505351-7b81-4cc3-b860-607a6efc38e6"},"vehicle_type_id":"4","last_reported":1758816778,"current_range_meters":7200,"station_id":"ce4bh392rcd13ifvqdm0","pricing_plan_id":"cebpf4jnsgd1na2vs0mg"},{"bike_id":"438ead59-de14-4fa0-a61d-03a70a4122ae","system_id":"levelo_inurba_marseille","lat":43.97269,"lon":4.89111,"is_reserved":false,"is_disabled":true,"rental_uris":{"android":"levelo://app?vid=438ead59-de14-4fa0-a61d-03a70a4122ae","ios":"levelo://app?vid=438ead59-de14-4fa0-a61d-03a70a4122ae"},"vehicle_type_id":"4","last_reported":1758816778,"current_range_meters":7200,"station_id":"","pricing_plan_id":"cebpf4jnsgd1na2vs0mg"},{"bike_id":"1fe5dc00-0e25-4f33-9668-5781139af736","system_id":"levelo_inurba_marseille","lat":43.253468,"lon":5.421687,"is_reserved":false,"is_disabled":false,"rental_uris":{"android":"levelo://app?vid=1fe5dc00-0e25-4f33-9668-5781139af736","ios":"levelo://app?vid=1fe5dc00-0e25-4f33-9668-5781139af736"},"vehicle_type_id":"4","last_reported":1758816778,"current_range_meters":7200,"station_id":"st_d2m65c5bi1j21697t3ng","pricing_plan_id":"cebpf4jnsgd1na2vs0mg"},{"bike_id":"edf7961e-b664-4e56-bfc1-286f1e98a957","system_id":"levelo_inurba_marseille","lat":43.27551,"lon":5.38426,"is_reserved":false,"is_disabled":false,"rental_uris":{"android":"levelo://app?vid=edf7961e-b664-4e56-bfc1-286f1e98a957","ios":"levelo://app?vid=edf7961e-b664-4e56-bfc1-286f1e98a957"},"vehicle_type_id":"4","last_reported":1758816778,"current_range_meters":6800,"station_id":"ce4bhh92rcd13ifvqfi0","pricing_plan_id":"cebpf4jnsgd1na2vs0mg"},{"bike_id":"ddd8c0a7-a7ac-4c34-b48b-0710c492a44c","system_id":"levelo_inurba_marseille","lat":43.32467,"lon":5.38928,"is_reserved":false,"is_disabled":false,"rental_uris":{"android":"levelo://app?vid=ddd8c0a7-a7ac-4c34-b48b-0710c492a44c","ios":"levelo://app?vid=ddd8c0a7-a7ac-4c34-b48b-0710c492a44c"},"vehicle_type_id":"4","last_reported":1758816778,"current_range_meters":7200,"station_id":"","pricing_plan_id":"cebpf4jnsgd1na2vs0mg"},{"bike_id":"fb12d337-a45e-43a8-8de3-5a13049bd28a","system_id":"levelo_inurba_marseille","lat":43.2827,"lon":5.35064,"is_reserved":false,"is_disabled":false,"rental_uris":{"android":"levelo://app?vid=fb12d337-a45e-43a8-8de3-5a13049bd28a","ios":"levelo://app?vid=fb12d337-a45e-43a8-8de3-5a13049bd28a"},"vehicle_type_id":"4","last_reported":1758816778,"current_range_meters":7200,"station_id":"ce4bhbp2rcd13ifvqerg","pricing_plan_id":"cebpf4jnsgd1na2vs0mg"},{"bike_id":"4e737411-53ce-4bdf-9802-c3bc30d9bc94","system_id":"levelo_inurba_marseille","lat":43.29551,"lon":5.40647,"is_reserved":false,"is_disabled":false,"rental_uris":{"android":"levelo://app?vid=4e737411-53ce-4bdf-9802-c3bc30d9bc94","ios":"levelo://app?vid=4e737411-53ce-4bdf-9802-c3bc30d9bc94"},"vehicle_type_id":"4","last_reported":1758816778,"current_range_meters":8000,"station_id":"","pricing_plan_id":"cebpf4jnsgd1na2vs0mg"},{"bike_id":"f846ee5b-9ee8-4e5a-8463-3634c6e8ecd4","system_id":"levelo_inurba_marseille","lat":43.30331,"lon":5.4043,"is_reserved":false,"is_disabled":false,"rental_uris":{"android":"levelo://app?vid=f846ee5b-9ee8-4e5a-8463-3634c6e8ecd4","ios":"levelo://app?vid=f846ee5b-9ee8-4e5a-8463-3634c6e8ecd4"},"vehicle_type_id":"4","last_reported":1758816778,"current_range_meters":8000,"station_id":"ce4bh012rcd13ifvqd10","pricing_plan_id":"cebpf4jnsgd1na2vs0mg"},{"bike_id":"3cb7717d-7a1d-4932-b4cd-e45576b84a35","system_id":"levelo_inurba_marseille","lat":43.26515,"lon":5.39549,"is_reserved":false,"is_disabled":false,"rental_uris":{"android":"levelo://app?vid=3cb7717d-7a1d-4932-b4cd-e45576b84a35","ios":"levelo://app?vid=3cb7717d-7a1d-4932-b4cd-e45576b84a35"},"vehicle_type_id":"4","last_reported":1758816778,"current_range_meters":8000,"station_id":"ce4bhi12rcd13ifvqfq0","pricing_plan_id":"cebpf4jnsgd1na2vs0mg"},{"bike_id":"d3470834-8bfa-403f-bbb3-c30444b2fced","system_id":"levelo_inurba_marseille","lat":43.28614,"lon":5.35106,"is_reserved":false,"is_disabled":false,"rental_uris":{"android":"levelo://app?vid=d3470834-8bfa-403f-bbb3-c30444b2fced","ios":"levelo://app?vid=d3470834-8bfa-403f-bbb3-c30444b2fced"},"vehicle_type_id":"4","last_reported":1758816778,"current_range_meters":8000,"station_id":"ce4bhch2rcd13ifvqeug","pricing_plan_id":"cebpf4jnsgd1na2vs0mg"},{"bike_id":"a40824da-4cf5-4897-b0e8-b4b68fe08f81","system_id":"levelo_inurba_marseille","lat":43.28446,"lon":5.39207,"is_reserved":false,"is_disabled":false,"rental_uris":{"android":"levelo://app?vid=a40824da-4cf5-4897-b0e8-b4b68fe08f81","ios":"levelo://app?vid=a40824da-4cf5-4897-b0e8-b4b68fe08f81"},"vehicle_type_id":"4","last_reported":1758816778,"current_range_meters":8000,"station_id":"ce4bhoh2rcd13ifvqh5g","pricing_plan_id":"cebpf4jnsgd1na2vs0mg"},{"bike_id":"4aba39bb-de02-443b-9aea-4f28da6ec904","system_id":"levelo_inurba_marseille","lat":43.28399,"lon":5.37548,"is_reserved":false,"is_disabled":false,"rental_uris":{"android":"levelo://app?vid=4aba39bb-de02-443b-9aea-4f28da6ec904","ios":"levelo://app?vid=4aba39bb-de02-443b-9aea-4f28da6ec904"},"vehicle_type_id":"4","last_reported":1758816778,"current_range_meters":8400,"station_id":"ce4bh412rcd13ifvqds0","pricing_plan_id":"cebpf4jnsgd1na2vs0mg"},{"bike_id":"84e79cfe-caf8-4769-8450-b5c558d670dd","system_id":"levelo_inurba_marseille","lat":43.28616,"lon":5.35107,"is_reserved":false,"is_disabled":false,"rental_uris":{"android":"levelo://app?vid=84e79cfe-caf8-4769-8450-b5c558d670dd","ios":"levelo://app?vid=84e79cfe-caf8-4769-8450-b5c558d670dd"},"vehicle_type_id":"4","last_reported":1758816778,"current_range_meters":8400,"station_id":"ce4bhch2rcd13ifvqeug","pricing_plan_id":"cebpf4jnsgd1na2vs0mg"},{"bike_id":"363d9321-cba2-4e7a-9315-18e5ea1bb2d5","system_id":"levelo_inurba_marseille","lat":43.27906,"lon":5.38019,"is_reserved":false,"is_disabled":false,"rental_uris":{"android":"levelo://app?vid=363d9321-cba2-4e7a-9315-18e5ea1bb2d5","ios":"levelo://app?vid=363d9321-cba2-4e7a-9315-18e5ea1bb2d5"},"vehicle_type_id":"4","last_reported":1758816778,"current_range_meters":8400,"station_id":"ce4bhf92rcd13ifvqf50","pricing_plan_id":"cebpf4jnsgd1na2vs0mg"},{"bike_id":"cb48ce28-ee91-4713-800f-a600f4aff5db","system_id":"levelo_inurba_marseille","lat":43.24386,"lon":5.37062,"is_reserved":false,"is_disabled":false,"rental_uris":{"android":"levelo://app?vid=cb48ce28-ee91-4713-800f-a600f4aff5db","ios":"levelo://app?vid=cb48ce28-ee91-4713-800f-a600f4aff5db"},"vehicle_type_id":"4","last_reported":1758816778,"current_range_meters":8400,"station_id":"ce4bhhh2rcd13ifvqfk0","pricing_plan_id":"cebpf4jnsgd1na2vs0mg"},{"bike_id":"26e4c8d4-2ea1-403e-853c-7c54f186e1f2","system_id":"levelo_inurba_marseille","lat":43.27619,"lon":5.36103,"is_reserved":false,"is_disabled":false,"rental_uris":{"android":"levelo://app?vid=26e4c8d4-2ea1-403e-853c-7c54f186e1f2","ios":"levelo://app?vid=26e4c8d4-2ea1-403e-853c-7c54f186e1f2"},"vehicle_type_id":"4","last_reported":1758816778,"current_range_meters":8400,"station_id":"ce4bgj92rcd13ifvqbe0","pricing_plan_id":"cebpf4jnsgd1na2vs0mg"},{"bike_id":"b3fcdaea-b5ef-4025-9195-7e015ccb0611","system_id":"levelo_inurba_marseille","lat":43.24167,"lon":5.36403,"is_reserved":false,"is_disabled":false,"rental_uris":{"android":"levelo://app?vid=b3fcdaea-b5ef-4025-9195-7e015ccb0611","ios":"levelo://app?vid=b3fcdaea-b5ef-4025-9195-7e015ccb0611"},"vehicle_type_id":"4","last_reported":1758816778,"current_range_meters":8400,"station_id":"cpo36qri1sfpv3e86is0","pricing_plan_id":"cebpf4jnsgd1na2vs0mg"},{"bike_id":"4f2a028c-664f-4a57-80a4-6cdc6d9878b6","system_id":"levelo_inurba_marseille","lat":43.27833,"lon":5.3922,"is_reserved":false,"is_disabled":false,"rental_uris":{"android":"levelo://app?vid=4f2a028c-664f-4a57-80a4-6cdc6d9878b6","ios":"levelo://app?vid=4f2a028c-664f-4a57-80a4-6cdc6d9878b6"},"vehicle_type_id":"4","last_reported":1758816778,"current_range_meters":8800,"station_id":"ce4bhjp2rcd13ifvqga0","pricing_plan_id":"cebpf4jnsgd1na2vs0mg"},{"bike_id":"6eb6bfc8-b6f6-4b63-8c32-a93d390996d8","system_id":"levelo_inurba_marseille","lat":43.28106,"lon":5.37849,"is_reserved":false,"is_disabled":false,"rental_uris":{"android":"levelo://app?vid=6eb6bfc8-b6f6-4b63-8c32-a93d390996d8","ios":"levelo://app?vid=6eb6bfc8-b6f6-4b63-8c32-a93d390996d8"},"vehicle_type_id":"4","last_reported":1758816778,"current_range_meters":8800,"station_id":"ce4bha12rcd13ifvqee0","pricing_plan_id":"cebpf4jnsgd1na2vs0mg"},{"bike_id":"05ab7f16-fa05-4883-ad35-653bbebdfb6e","system_id":"levelo_inurba_marseille","lat":43.26198,"lon":5.37948,"is_reserved":false,"is_disabled":false,"rental_uris":{"android":"levelo://app?vid=05ab7f16-fa05-4883-ad35-653bbebdfb6e","ios":"levelo://app?vid=05ab7f16-fa05-4883-ad35-653bbebdfb6e"},"vehicle_type_id":"4","last_reported":1758816778,"current_range_meters":8800,"station_id":"ce4bhjp2rcd13ifvqg90","pricing_plan_id":"cebpf4jnsgd1na2vs0mg"},{"bike_id":"e836aa10-0d2e-4904-aa10-054ceeade0cf","system_id":"levelo_inurba_marseille","lat":43.23965,"lon":5.36635,"is_reserved":false,"is_disabled":false,"rental_uris":{"android":"levelo://app?vid=e836aa10-0d2e-4904-aa10-054ceeade0cf","ios":"levelo://app?vid=e836aa10-0d2e-4904-aa10-054ceeade0cf"},"vehicle_type_id":"4","last_reported":1758816778,"current_range_meters":8800,"station_id":"ce4bhi12rcd13ifvqfp0","pricing_plan_id":"cebpf4jnsgd1na2vs0mg"},{"bike_id":"b67f9620-e791-446a-8f15-03646ab8697e","system_id":"levelo_inurba_marseille","lat":43.29704,"lon":5.3661,"is_reserved":false,"is_disabled":false,"rental_uris":{"android":"levelo://app?vid=b67f9620-e791-446a-8f15-03646ab8697e","ios":"levelo://app?vid=b67f9620-e791-446a-8f15-03646ab8697e"},"vehicle_type_id":"4","last_reported":1758816778,"current_range_meters":9200,"station_id":"ce4bgn12rcd13ifvqbt0","pricing_plan_id":"cebpf4jnsgd1na2vs0mg"},{"bike_id":"899c74ab-d307-4a5d-9f4a-91938abe7a7e","system_id":"levelo_inurba_marseille","lat":43.3199,"lon":5.38139,"is_reserved":false,"is_disabled":false,"rental_uris":{"android":"levelo://app?vid=899c74ab-d307-4a5d-9f4a-91938abe7a7e","ios":"levelo://app?vid=899c74ab-d307-4a5d-9f4a-91938abe7a7e"},"vehicle_type_id":"4","last_reported":1758816778,"current_range_meters":9200,"station_id":"ce4bhr12rcd13ifvqhpg","pricing_plan_id":"cebpf4jnsgd1na2vs0mg"},{"bike_id":"94b2f036-4ca4-4693-89f2-72df2150ee98","system_id":"levelo_inurba_marseille","lat":43.258265,"lon":5.394374,"is_reserved":false,"is_disabled":true,"rental_uris":{"android":"levelo://app?vid=94b2f036-4ca4-4693-89f2-72df2150ee98","ios":"levelo://app?vid=94b2f036-4ca4-4693-89f2-72df2150ee98"},"vehicle_type_id":"4","last_reported":1758816778,"current_range_meters":9200,"station_id":"ce4bhip2rcd13ifvqft0","pricing_plan_id":"cebpf4jnsgd1na2vs0mg"},{"bike_id":"450844ba-2fc2-47be-9959-8fee61f07fb6","system_id":"levelo_inurba_marseille","lat":43.31741,"lon":5.39024,"is_reserved":false,"is_disabled":false,"rental_uris":{"android":"levelo://app?vid=450844ba-2fc2-47be-9959-8fee61f07fb6","ios":"levelo://app?vid=450844ba-2fc2-47be-9959-8fee61f07fb6"},"vehicle_type_id":"4","last_reported":1758816778,"current_range_meters":9600,"station_id":"ce4bhqp2rcd13ifvqhng","pricing_plan_id":"cebpf4jnsgd1na2vs0mg"},{"bike_id":"9f5f3a89-3fee-4006-bac3-0a871262f689","system_id":"levelo_inurba_marseille","lat":43.34136,"lon":5.40902,"is_reserved":false,"is_disabled":false,"rental_uris":{"android":"levelo://app?vid=9f5f3a89-3fee-4006-bac3-0a871262f689","ios":"levelo://app?vid=9f5f3a89-3fee-4006-bac3-0a871262f689"},"vehicle_type_id":"4","last_reported":1758816778,"current_range_meters":9600,"station_id":"ce4bhqh2rcd13ifvqhlg","pricing_plan_id":"cebpf4jnsgd1na2vs0mg"},{"bike_id":"3701ec52-ed2d-4cc2-b7e6-4da28a96224e","system_id":"levelo_inurba_marseille","lat":43.2781,"lon":5.40711,"is_reserved":false,"is_disabled":false,"rental_uris":{"android":"levelo://app?vid=3701ec52-ed2d-4cc2-b7e6-4da28a96224e","ios":"levelo://app?vid=3701ec52-ed2d-4cc2-b7e6-4da28a96224e"},"vehicle_type_id":"4","last_reported":1758816778,"current_range_meters":9600,"station_id":"ce4bhnh2rcd13ifvqgtg","pricing_plan_id":"cebpf4jnsgd1na2vs0mg"},{"bike_id":"d2be082e-bd73-4203-addb-18871b3a9587","system_id":"levelo_inurba_marseille","lat":43.29413,"lon":5.37483,"is_reserved":false,"is_disabled":false,"rental_uris":{"android":"levelo://app?vid=d2be082e-bd73-4203-addb-18871b3a9587","ios":"levelo://app?vid=d2be082e-bd73-4203-addb-18871b3a9587"},"vehicle_type_id":"4","last_reported":1758816778,"current_range_meters":9600,"station_id":"","pricing_plan_id":"cebpf4jnsgd1na2vs0mg"},{"bike_id":"3a83ddcd-ce03-4ed4-a7fa-b273c2464f02","system_id":"levelo_inurba_marseille","lat":43.27956,"lon":5.36343,"is_reserved":false,"is_disabled":false,"rental_uris":{"android":"levelo://app?vid=3a83ddcd-ce03-4ed4-a7fa-b273c2464f02","ios":"levelo://app?vid=3a83ddcd-ce03-4ed4-a7fa-b273c2464f02"},"vehicle_type_id":"4","last_reported":1758816778,"current_range_meters":9600,"station_id":"","pricing_plan_id":"cebpf4jnsgd1na2vs0mg"},{"bike_id":"117acf13-6b03-4ee3-b4a5-edb1f47e11bc","system_id":"levelo_inurba_marseille","lat":43.26836,"lon":5.38721,"is_reserved":false,"is_disabled":false,"rental_uris":{"android":"levelo://app?vid=117acf13-6b03-4ee3-b4a5-edb1f47e11bc","ios":"levelo://app?vid=117acf13-6b03-4ee3-b4a5-edb1f47e11bc"},"vehicle_type_id":"4","last_reported":1758816778,"current_range_meters":9600,"station_id":"","pricing_plan_id":"cebpf4jnsgd1na2vs0mg"},{"bike_id":"f1ddae52-de85-44c5-bff2-d97a710804ee","system_id":"levelo_inurba_marseille","lat":43.30331,"lon":5.40431,"is_reserved":false,"is_disabled":false,"rental_uris":{"android":"levelo://app?vid=f1ddae52-de85-44c5-bff2-d97a710804ee","ios":"levelo://app?vid=f1ddae52-de85-44c5-bff2-d97a710804ee"},"vehicle_type_id":"4","last_reported":1758816778,"current_range_meters":10000,"station_id":"ce4bh012rcd13ifvqd10","pricing_plan_id":"cebpf4jnsgd1na2vs0mg"},{"bike_id":"dca1abc0-fc1d-45a7-9356-bf4adf36c071","system_id":"levelo_inurba_marseille","lat":43.23194,"lon":5.35556,"is_reserved":false,"is_disabled":false,"rental_uris":{"android":"levelo://app?vid=dca1abc0-fc1d-45a7-9356-bf4adf36c071","ios":"levelo://app?vid=dca1abc0-fc1d-45a7-9356-bf4adf36c071"},"vehicle_type_id":"4","last_reported":1758816778,"current_range_meters":10000,"station_id":"ce4bhu92rcd13ifvqi70","pricing_plan_id":"cebpf4jnsgd1na2vs0mg"},{"bike_id":"65428737-209d-4d15-887b-f5af213e1860","system_id":"levelo_inurba_marseille","lat":43.28459,"lon":5.35882,"is_reserved":false,"is_disabled":false,"rental_uris":{"android":"levelo://app?vid=65428737-209d-4d15-887b-f5af213e1860","ios":"levelo://app?vid=65428737-209d-4d15-887b-f5af213e1860"},"vehicle_type_id":"4","last_reported":1758816778,"current_range_meters":10000,"station_id":"ce4bhah2rcd13ifvqei0","pricing_plan_id":"cebpf4jnsgd1na2vs0mg"},{"bike_id":"b67f4f54-132e-4927-82a0-b4094019e062","system_id":"levelo_inurba_marseille","lat":43.28413,"lon":5.34981,"is_reserved":false,"is_disabled":false,"rental_uris":{"android":"levelo://app?vid=b67f4f54-132e-4927-82a0-b4094019e062","ios":"levelo://app?vid=b67f4f54-132e-4927-82a0-b4094019e062"},"vehicle_type_id":"4","last_reported":1758816778,"current_range_meters":10000,"station_id":"ce4bhbh2rcd13ifvqepg","pricing_plan_id":"cebpf4jnsgd1na2vs0mg"},{"bike_id":"379911e0-a8b9-4b05-96ac-c75be54d3c45","system_id":"levelo_inurba_marseille","lat":43.28861,"lon":5.42517,"is_reserved":false,"is_disabled":false,"rental_uris":{"android":"levelo://app?vid=379911e0-a8b9-4b05-96ac-c75be54d3c45","ios":"levelo://app?vid=379911e0-a8b9-4b05-96ac-c75be54d3c45"},"vehicle_type_id":"4","last_reported":1758816778,"current_range_meters":10000,"station_id":"","pricing_plan_id":"cebpf4jnsgd1na2vs0mg"},{"bike_id":"0ef81889-2d7f-4e70-b480-0b08f55cbfba","system_id":"levelo_inurba_marseille","lat":43.30884,"lon":5.36835,"is_reserved":false,"is_disabled":false,"rental_uris":{"android":"levelo://app?vid=0ef81889-2d7f-4e70-b480-0b08f55cbfba","ios":"levelo://app?vid=0ef81889-2d7f-4e70-b480-0b08f55cbfba"},"vehicle_type_id":"4","last_reported":1758816778,"current_range_meters":10000,"station_id":"ce4bgn92rcd13ifvqbvg","pricing_plan_id":"cebpf4jnsgd1na2vs0mg"},{"bike_id":"e294b9f0-f777-4960-b82c-3da4612abccf","system_id":"levelo_inurba_marseille","lat":43.29705,"lon":5.36614,"is_reserved":false,"is_disabled":false,"rental_uris":{"android":"levelo://app?vid=e294b9f0-f777-4960-b82c-3da4612abccf","ios":"levelo://app?vid=e294b9f0-f777-4960-b82c-3da4612abccf"},"vehicle_type_id":"4","last_reported":1758816778,"current_range_meters":10000,"station_id":"ce4bgn12rcd13ifvqbt0","pricing_plan_id":"cebpf4jnsgd1na2vs0mg"},{"bike_id":"d4071356-3b27-4712-90fe-44d37fa422bc","system_id":"levelo_inurba_marseille","lat":43.24649,"lon":5.43145,"is_reserved":false,"is_disabled":false,"rental_uris":{"android":"levelo://app?vid=d4071356-3b27-4712-90fe-44d37fa422bc","ios":"levelo://app?vid=d4071356-3b27-4712-90fe-44d37fa422bc"},"vehicle_type_id":"4","last_reported":1758816778,"current_range_meters":10800,"station_id":"st_d2m6c4gdas8pm72e190g","pricing_plan_id":"cebpf4jnsgd1na2vs0mg"},{"bike_id":"e4d01aa9-5d3f-4233-9922-5f658be9ab60","system_id":"levelo_inurba_marseille","lat":43.27809,"lon":5.40712,"is_reserved":false,"is_disabled":false,"rental_uris":{"android":"levelo://app?vid=e4d01aa9-5d3f-4233-9922-5f658be9ab60","ios":"levelo://app?vid=e4d01aa9-5d3f-4233-9922-5f658be9ab60"},"vehicle_type_id":"4","last_reported":1758816778,"current_range_meters":10000,"station_id":"ce4bhnh2rcd13ifvqgtg","pricing_plan_id":"cebpf4jnsgd1na2vs0mg"},{"bike_id":"8eae954c-dab6-4303-94f5-569e1c483f62","system_id":"levelo_inurba_marseille","lat":43.29447,"lon":5.40753,"is_reserved":false,"is_disabled":false,"rental_uris":{"android":"levelo://app?vid=8eae954c-dab6-4303-94f5-569e1c483f62","ios":"levelo://app?vid=8eae954c-dab6-4303-94f5-569e1c483f62"},"vehicle_type_id":"4","last_reported":1758816778,"current_range_meters":10800,"station_id":"","pricing_plan_id":"cebpf4jnsgd1na2vs0mg"},{"bike_id":"9f261db2-295b-4cd2-af02-4ac86e0c33c4","system_id":"levelo_inurba_marseille","lat":43.24381,"lon":5.37051,"is_reserved":false,"is_disabled":false,"rental_uris":{"android":"levelo://app?vid=9f261db2-295b-4cd2-af02-4ac86e0c33c4","ios":"levelo://app?vid=9f261db2-295b-4cd2-af02-4ac86e0c33c4"},"vehicle_type_id":"4","last_reported":1758816778,"current_range_meters":10000,"station_id":"ce4bhhh2rcd13ifvqfk0","pricing_plan_id":"cebpf4jnsgd1na2vs0mg"},{"bike_id":"0e9ca394-4351-4bf8-a641-f4e5215baf20","system_id":"levelo_inurba_marseille","lat":43.28262,"lon":5.35081,"is_reserved":false,"is_disabled":false,"rental_uris":{"android":"levelo://app?vid=0e9ca394-4351-4bf8-a641-f4e5215baf20","ios":"levelo://app?vid=0e9ca394-4351-4bf8-a641-f4e5215baf20"},"vehicle_type_id":"4","last_reported":1758816778,"current_range_meters":10800,"station_id":"ce4bhbp2rcd13ifvqerg","pricing_plan_id":"cebpf4jnsgd1na2vs0mg"},{"bike_id":"72be0181-be39-4fa6-84f1-5855c1c803ce","system_id":"levelo_inurba_marseille","lat":43.26496,"lon":5.39546,"is_reserved":false,"is_disabled":false,"rental_uris":{"android":"levelo://app?vid=72be0181-be39-4fa6-84f1-5855c1c803ce","ios":"levelo://app?vid=72be0181-be39-4fa6-84f1-5855c1c803ce"},"vehicle_type_id":"4","last_reported":1758816778,"current_range_meters":10800,"station_id":"ce4bhi12rcd13ifvqfq0","pricing_plan_id":"cebpf4jnsgd1na2vs0mg"},{"bike_id":"a8d1d15d-89c7-424a-b178-acc360251cbd","system_id":"levelo_inurba_marseille","lat":43.29573,"lon":5.37512,"is_reserved":false,"is_disabled":false,"rental_uris":{"android":"levelo://app?vid=a8d1d15d-89c7-424a-b178-acc360251cbd","ios":"levelo://app?vid=a8d1d15d-89c7-424a-b178-acc360251cbd"},"vehicle_type_id":"4","last_reported":1758816778,"current_range_meters":10800,"station_id":"ce4bgh92rcd13ifvqb50","pricing_plan_id":"cebpf4jnsgd1na2vs0mg"},{"bike_id":"10a852a6-5904-4eaa-a72e-b544d38657ad","system_id":"levelo_inurba_marseille","lat":43.27809,"lon":5.40711,"is_reserved":false,"is_disabled":false,"rental_uris":{"android":"levelo://app?vid=10a852a6-5904-4eaa-a72e-b544d38657ad","ios":"levelo://app?vid=10a852a6-5904-4eaa-a72e-b544d38657ad"},"vehicle_type_id":"4","last_reported":1758816778,"current_range_meters":10800,"station_id":"ce4bhnh2rcd13ifvqgtg","pricing_plan_id":"cebpf4jnsgd1na2vs0mg"},{"bike_id":"8584eb3e-f7b4-4300-97fe-005a37d8d75b","system_id":"levelo_inurba_marseille","lat":43.36835,"lon":5.36298,"is_reserved":false,"is_disabled":false,"rental_uris":{"android":"levelo://app?vid=8584eb3e-f7b4-4300-97fe-005a37d8d75b","ios":"levelo://app?vid=8584eb3e-f7b4-4300-97fe-005a37d8d75b"},"vehicle_type_id":"4","last_reported":1758816778,"current_range_meters":10800,"station_id":"","pricing_plan_id":"cebpf4jnsgd1na2vs0mg"},{"bike_id":"d5632eaf-207f-4351-be9c-95c58bc9c538","system_id":"levelo_inurba_marseille","lat":43.29541,"lon":5.3752,"is_reserved":false,"is_disabled":true,"rental_uris":{"android":"levelo://app?vid=d5632eaf-207f-4351-be9c-95c58bc9c538","ios":"levelo://app?vid=d5632eaf-207f-4351-be9c-95c58bc9c538"},"vehicle_type_id":"4","last_reported":1758816778,"current_range_meters":11200,"station_id":"ce4bgkp2rcd13ifvqbmg","pricing_plan_id":"cebpf4jnsgd1na2vs0mg"},{"bike_id":"0cc9f93a-781e-4ac8-8947-dd1c46fa73e0","system_id":"levelo_inurba_marseille","lat":43.29933,"lon":5.36569,"is_reserved":false,"is_disabled":false,"rental_uris":{"android":"levelo://app?vid=0cc9f93a-781e-4ac8-8947-dd1c46fa73e0","ios":"levelo://app?vid=0cc9f93a-781e-4ac8-8947-dd1c46fa73e0"},"vehicle_type_id":"4","last_reported":1758816778,"current_range_meters":11200,"station_id":"ce4bgm92rcd13ifvqbr0","pricing_plan_id":"cebpf4jnsgd1na2vs0mg"},{"bike_id":"0fa25639-03ac-45c7-b903-02a196ec8bed","system_id":"levelo_inurba_marseille","lat":43.24623,"lon":5.4314,"is_reserved":false,"is_disabled":false,"rental_uris":{"android":"levelo://app?vid=0fa25639-03ac-45c7-b903-02a196ec8bed","ios":"levelo://app?vid=0fa25639-03ac-45c7-b903-02a196ec8bed"},"vehicle_type_id":"4","last_reported":1758816778,"current_range_meters":11200,"station_id":"st_d2m6c4gdas8pm72e190g","pricing_plan_id":"cebpf4jnsgd1na2vs0mg"},{"bike_id":"237c6c1c-3b20-4dcb-82ea-76107a136d3e","system_id":"levelo_inurba_marseille","lat":43.29275,"lon":5.36843,"is_reserved":false,"is_disabled":true,"rental_uris":{"android":"levelo://app?vid=237c6c1c-3b20-4dcb-82ea-76107a136d3e","ios":"levelo://app?vid=237c6c1c-3b20-4dcb-82ea-76107a136d3e"},"vehicle_type_id":"4","last_reported":1758816778,"current_range_meters":11200,"station_id":"ce4bhbp2rcd13ifvqesg","pricing_plan_id":"cebpf4jnsgd1na2vs0mg"},{"bike_id":"2de9aed9-21fd-4a30-8bc2-1db9c1b575af","system_id":"levelo_inurba_marseille","lat":43.26944,"lon":5.40246,"is_reserved":false,"is_disabled":false,"rental_uris":{"android":"levelo://app?vid=2de9aed9-21fd-4a30-8bc2-1db9c1b575af","ios":"levelo://app?vid=2de9aed9-21fd-4a30-8bc2-1db9c1b575af"},"vehicle_type_id":"4","last_reported":1758816778,"current_range_meters":12000,"station_id":"cjm6bp8fraef2m0cb0m0","pricing_plan_id":"cebpf4jnsgd1na2vs0mg"},{"bike_id":"003515e8-8117-44bb-979d-5f47e8d50fda","system_id":"levelo_inurba_marseille","lat":43.30649,"lon":5.37591,"is_reserved":false,"is_disabled":false,"rental_uris":{"android":"levelo://app?vid=003515e8-8117-44bb-979d-5f47e8d50fda","ios":"levelo://app?vid=003515e8-8117-44bb-979d-5f47e8d50fda"},"vehicle_type_id":"4","last_reported":1758816778,"current_range_meters":11600,"station_id":"","pricing_plan_id":"cebpf4jnsgd1na2vs0mg"},{"bike_id":"e1677242-6dbe-4274-a0a3-28c31635b0a5","system_id":"levelo_inurba_marseille","lat":43.25336,"lon":5.42173,"is_reserved":false,"is_disabled":false,"rental_uris":{"android":"levelo://app?vid=e1677242-6dbe-4274-a0a3-28c31635b0a5","ios":"levelo://app?vid=e1677242-6dbe-4274-a0a3-28c31635b0a5"},"vehicle_type_id":"4","last_reported":1758816778,"current_range_meters":11600,"station_id":"st_d2m65c5bi1j21697t3ng","pricing_plan_id":"cebpf4jnsgd1na2vs0mg"},{"bike_id":"bdec3261-de13-477f-818b-7af8ae1d1f6a","system_id":"levelo_inurba_marseille","lat":43.23972,"lon":5.37688,"is_reserved":false,"is_disabled":false,"rental_uris":{"android":"levelo://app?vid=bdec3261-de13-477f-818b-7af8ae1d1f6a","ios":"levelo://app?vid=bdec3261-de13-477f-818b-7af8ae1d1f6a"},"vehicle_type_id":"4","last_reported":1758816778,"current_range_meters":11600,"station_id":"","pricing_plan_id":"cebpf4jnsgd1na2vs0mg"},{"bike_id":"9fd15e46-d713-423e-ab94-b5de949787aa","system_id":"levelo_inurba_marseille","lat":43.26563,"lon":5.37304,"is_reserved":false,"is_disabled":false,"rental_uris":{"android":"levelo://app?vid=9fd15e46-d713-423e-ab94-b5de949787aa","ios":"levelo://app?vid=9fd15e46-d713-423e-ab94-b5de949787aa"},"vehicle_type_id":"4","last_reported":1758816778,"current_range_meters":11600,"station_id":"ce4bhg12rcd13ifvqf70","pricing_plan_id":"cebpf4jnsgd1na2vs0mg"},{"bike_id":"09d77c9d-563b-48c3-92ec-b23d84c0ccdd","system_id":"levelo_inurba_marseille","lat":43.27811,"lon":5.40712,"is_reserved":false,"is_disabled":false,"rental_uris":{"android":"levelo://app?vid=09d77c9d-563b-48c3-92ec-b23d84c0ccdd","ios":"levelo://app?vid=09d77c9d-563b-48c3-92ec-b23d84c0ccdd"},"vehicle_type_id":"4","last_reported":1758816778,"current_range_meters":11600,"station_id":"ce4bhnh2rcd13ifvqgtg","pricing_plan_id":"cebpf4jnsgd1na2vs0mg"},{"bike_id":"c976f2bd-d17c-4ba4-b53e-a3c01ed3340c","system_id":"levelo_inurba_marseille","lat":43.29765,"lon":5.37102,"is_reserved":false,"is_disabled":false,"rental_uris":{"android":"levelo://app?vid=c976f2bd-d17c-4ba4-b53e-a3c01ed3340c","ios":"levelo://app?vid=c976f2bd-d17c-4ba4-b53e-a3c01ed3340c"},"vehicle_type_id":"4","last_reported":1758816778,"current_range_meters":11600,"station_id":"ce4bgop2rcd13ifvqc1g","pricing_plan_id":"cebpf4jnsgd1na2vs0mg"},{"bike_id":"10b077bb-f8d2-4c64-a610-3f47b2091346","system_id":"levelo_inurba_marseille","lat":43.3033,"lon":5.40441,"is_reserved":false,"is_disabled":false,"rental_uris":{"android":"levelo://app?vid=10b077bb-f8d2-4c64-a610-3f47b2091346","ios":"levelo://app?vid=10b077bb-f8d2-4c64-a610-3f47b2091346"},"vehicle_type_id":"4","last_reported":1758816778,"current_range_meters":12000,"station_id":"ce4bh012rcd13ifvqd10","pricing_plan_id":"cebpf4jnsgd1na2vs0mg"},{"bike_id":"0925e247-bfbc-49b8-a943-36dc9c686dc9","system_id":"levelo_inurba_marseille","lat":43.30298,"lon":5.39221,"is_reserved":false,"is_disabled":false,"rental_uris":{"android":"levelo://app?vid=0925e247-bfbc-49b8-a943-36dc9c686dc9","ios":"levelo://app?vid=0925e247-bfbc-49b8-a943-36dc9c686dc9"},"vehicle_type_id":"4","last_reported":1758816778,"current_range_meters":12000,"station_id":"ce4bgkh2rcd13ifvqbk0","pricing_plan_id":"cebpf4jnsgd1na2vs0mg"},{"bike_id":"60ce6fd7-7f33-4599-9303-866740393f77","system_id":"levelo_inurba_marseille","lat":43.29027,"lon":5.38652,"is_reserved":false,"is_disabled":false,"rental_uris":{"android":"levelo://app?vid=60ce6fd7-7f33-4599-9303-866740393f77","ios":"levelo://app?vid=60ce6fd7-7f33-4599-9303-866740393f77"},"vehicle_type_id":"4","last_reported":1758816778,"current_range_meters":12000,"station_id":"ce4bh4p2rcd13ifvqe0g","pricing_plan_id":"cebpf4jnsgd1na2vs0mg"},{"bike_id":"91a7af58-e5b6-4061-9925-7ba6efc20e01","system_id":"levelo_inurba_marseille","lat":43.28151,"lon":5.42671,"is_reserved":false,"is_disabled":false,"rental_uris":{"android":"levelo://app?vid=91a7af58-e5b6-4061-9925-7ba6efc20e01","ios":"levelo://app?vid=91a7af58-e5b6-4061-9925-7ba6efc20e01"},"vehicle_type_id":"4","last_reported":1758816778,"current_range_meters":12000,"station_id":"ce4bhnh2rcd13ifvqgug","pricing_plan_id":"cebpf4jnsgd1na2vs0mg"},{"bike_id":"38f93fed-9b82-4585-9c9e-81d003f1a6c7","system_id":"levelo_inurba_marseille","lat":43.30453,"lon":5.37902,"is_reserved":false,"is_disabled":true,"rental_uris":{"android":"levelo://app?vid=38f93fed-9b82-4585-9c9e-81d003f1a6c7","ios":"levelo://app?vid=38f93fed-9b82-4585-9c9e-81d003f1a6c7"},"vehicle_type_id":"4","last_reported":1758816778,"current_range_meters":12000,"station_id":"ce4bgup2rcd13ifvqcn0","pricing_plan_id":"cebpf4jnsgd1na2vs0mg"},{"bike_id":"46923300-e0d3-40c1-8c76-7dadc761100f","system_id":"levelo_inurba_marseille","lat":43.29004,"lon":5.35614,"is_reserved":false,"is_disabled":false,"rental_uris":{"android":"levelo://app?vid=46923300-e0d3-40c1-8c76-7dadc761100f","ios":"levelo://app?vid=46923300-e0d3-40c1-8c76-7dadc761100f"},"vehicle_type_id":"4","last_reported":1758816778,"current_range_meters":12000,"station_id":"ce4bhb92rcd13ifvqen0","pricing_plan_id":"cebpf4jnsgd1na2vs0mg"},{"bike_id":"212de2eb-8bbc-413c-b204-9fe1facd76e8","system_id":"levelo_inurba_marseille","lat":43.31319,"lon":5.37835,"is_reserved":false,"is_disabled":false,"rental_uris":{"android":"levelo://app?vid=212de2eb-8bbc-413c-b204-9fe1facd76e8","ios":"levelo://app?vid=212de2eb-8bbc-413c-b204-9fe1facd76e8"},"vehicle_type_id":"4","last_reported":1758816778,"current_range_meters":12000,"station_id":"","pricing_plan_id":"cebpf4jnsgd1na2vs0mg"},{"bike_id":"f9af076b-c426-46f0-97f6-f6a5a530c8e2","system_id":"levelo_inurba_marseille","lat":43.33053,"lon":5.39467,"is_reserved":false,"is_disabled":false,"rental_uris":{"android":"levelo://app?vid=f9af076b-c426-46f0-97f6-f6a5a530c8e2","ios":"levelo://app?vid=f9af076b-c426-46f0-97f6-f6a5a530c8e2"},"vehicle_type_id":"4","last_reported":1758816778,"current_range_meters":12000,"station_id":"","pricing_plan_id":"cebpf4jnsgd1na2vs0mg"},{"bike_id":"bbe4674a-a5d1-4316-b7ef-04ce25f76e29","system_id":"levelo_inurba_marseille","lat":43.28447,"lon":5.35907,"is_reserved":false,"is_disabled":false,"rental_uris":{"android":"levelo://app?vid=bbe4674a-a5d1-4316-b7ef-04ce25f76e29","ios":"levelo://app?vid=bbe4674a-a5d1-4316-b7ef-04ce25f76e29"},"vehicle_type_id":"4","last_reported":1758816778,"current_range_meters":12000,"station_id":"ce4bhah2rcd13ifvqei0","pricing_plan_id":"cebpf4jnsgd1na2vs0mg"},{"bike_id":"9957286a-78bd-4512-a2e9-c89373c449b0","system_id":"levelo_inurba_marseille","lat":43.23191,"lon":5.39983,"is_reserved":false,"is_disabled":false,"rental_uris":{"android":"levelo://app?vid=9957286a-78bd-4512-a2e9-c89373c449b0","ios":"levelo://app?vid=9957286a-78bd-4512-a2e9-c89373c449b0"},"vehicle_type_id":"4","last_reported":1758816778,"current_range_meters":12000,"station_id":"ce4bhn12rcd13ifvqgqg","pricing_plan_id":"cebpf4jnsgd1na2vs0mg"},{"bike_id":"3e795a56-fcd5-414a-824d-13838a97cb44","system_id":"levelo_inurba_marseille","lat":43.24162,"lon":5.36402,"is_reserved":false,"is_disabled":false,"rental_uris":{"android":"levelo://app?vid=3e795a56-fcd5-414a-824d-13838a97cb44","ios":"levelo://app?vid=3e795a56-fcd5-414a-824d-13838a97cb44"},"vehicle_type_id":"4","last_reported":1758816778,"current_range_meters":12400,"station_id":"cpo36qri1sfpv3e86is0","pricing_plan_id":"cebpf4jnsgd1na2vs0mg"},{"bike_id":"2bd2a176-8590-4e06-8b8c-a96b49b7b36a","system_id":"levelo_inurba_marseille","lat":43.242409,"lon":5.41085,"is_reserved":false,"is_disabled":false,"rental_uris":{"android":"levelo://app?vid=2bd2a176-8590-4e06-8b8c-a96b49b7b36a","ios":"levelo://app?vid=2bd2a176-8590-4e06-8b8c-a96b49b7b36a"},"vehicle_type_id":"4","last_reported":1758816778,"current_range_meters":12400,"station_id":"","pricing_plan_id":"cebpf4jnsgd1na2vs0mg"},{"bike_id":"2398e714-da7f-4f0e-a401-0b08570bddf3","system_id":"levelo_inurba_marseille","lat":43.32105,"lon":5.36801,"is_reserved":false,"is_disabled":false,"rental_uris":{"android":"levelo://app?vid=2398e714-da7f-4f0e-a401-0b08570bddf3","ios":"levelo://app?vid=2398e714-da7f-4f0e-a401-0b08570bddf3"},"vehicle_type_id":"4","last_reported":1758816778,"current_range_meters":12400,"station_id":"ce4bhrh2rcd13ifvqhug","pricing_plan_id":"cebpf4jnsgd1na2vs0mg"},{"bike_id":"fda5da04-cd5a-483f-adf1-fc8ab71eb87b","system_id":"levelo_inurba_marseille","lat":43.27368,"lon":5.36264,"is_reserved":false,"is_disabled":false,"rental_uris":{"android":"levelo://app?vid=fda5da04-cd5a-483f-adf1-fc8ab71eb87b","ios":"levelo://app?vid=fda5da04-cd5a-483f-adf1-fc8ab71eb87b"},"vehicle_type_id":"4","last_reported":1758816778,"current_range_meters":11200,"station_id":"ce4bhbh2rcd13ifvqeo0","pricing_plan_id":"cebpf4jnsgd1na2vs0mg"},{"bike_id":"1c27f7d4-507d-43e2-b324-44f5e35dee72","system_id":"levelo_inurba_marseille","lat":43.32511,"lon":5.38929,"is_reserved":false,"is_disabled":false,"rental_uris":{"android":"levelo://app?vid=1c27f7d4-507d-43e2-b324-44f5e35dee72","ios":"levelo://app?vid=1c27f7d4-507d-43e2-b324-44f5e35dee72"},"vehicle_type_id":"4","last_reported":1758816778,"current_range_meters":12800,"station_id":"","pricing_plan_id":"cebpf4jnsgd1na2vs0mg"},{"bike_id":"b1e08031-7887-471e-a069-6f00a28e51c7","system_id":"levelo_inurba_marseille","lat":43.21749,"lon":5.34602,"is_reserved":false,"is_disabled":false,"rental_uris":{"android":"levelo://app?vid=b1e08031-7887-471e-a069-6f00a28e51c7","ios":"levelo://app?vid=b1e08031-7887-471e-a069-6f00a28e51c7"},"vehicle_type_id":"4","last_reported":1758816778,"current_range_meters":12800,"station_id":"","pricing_plan_id":"cebpf4jnsgd1na2vs0mg"},{"bike_id":"5fc37daa-1806-410f-908a-3b9c68198c97","system_id":"levelo_inurba_marseille","lat":43.299536,"lon":5.380907,"is_reserved":false,"is_disabled":false,"rental_uris":{"android":"levelo://app?vid=5fc37daa-1806-410f-908a-3b9c68198c97","ios":"levelo://app?vid=5fc37daa-1806-410f-908a-3b9c68198c97"},"vehicle_type_id":"4","last_reported":1758816778,"current_range_meters":12800,"station_id":"ce4bgj12rcd13ifvqbc0","pricing_plan_id":"cebpf4jnsgd1na2vs0mg"},{"bike_id":"22bf3c2f-49e7-49d5-a3f3-d66c7e9b2df5","system_id":"levelo_inurba_marseille","lat":43.2657,"lon":5.39036,"is_reserved":false,"is_disabled":false,"rental_uris":{"android":"levelo://app?vid=22bf3c2f-49e7-49d5-a3f3-d66c7e9b2df5","ios":"levelo://app?vid=22bf3c2f-49e7-49d5-a3f3-d66c7e9b2df5"},"vehicle_type_id":"4","last_reported":1758816778,"current_range_meters":12800,"station_id":"ce4bhe12rcd13ifvqf30","pricing_plan_id":"cebpf4jnsgd1na2vs0mg"},{"bike_id":"2e22e098-1e6e-4376-9dcc-d2faf4d95e30","system_id":"levelo_inurba_marseille","lat":43.2953,"lon":5.37838,"is_reserved":false,"is_disabled":false,"rental_uris":{"android":"levelo://app?vid=2e22e098-1e6e-4376-9dcc-d2faf4d95e30","ios":"levelo://app?vid=2e22e098-1e6e-4376-9dcc-d2faf4d95e30"},"vehicle_type_id":"4","last_reported":1758816778,"current_range_meters":12800,"station_id":"","pricing_plan_id":"cebpf4jnsgd1na2vs0mg"},{"bike_id":"d31d856a-933d-49cf-948f-ce03657dfc74","system_id":"levelo_inurba_marseille","lat":43.2842,"lon":5.35015,"is_reserved":false,"is_disabled":false,"rental_uris":{"android":"levelo://app?vid=d31d856a-933d-49cf-948f-ce03657dfc74","ios":"levelo://app?vid=d31d856a-933d-49cf-948f-ce03657dfc74"},"vehicle_type_id":"4","last_reported":1758816778,"current_range_meters":13600,"station_id":"ce4bhbh2rcd13ifvqepg","pricing_plan_id":"cebpf4jnsgd1na2vs0mg"},{"bike_id":"1fb752c3-daa8-4231-800c-19b93b94a631","system_id":"levelo_inurba_marseille","lat":43.24659,"lon":5.38165,"is_reserved":false,"is_disabled":false,"rental_uris":{"android":"levelo://app?vid=1fb752c3-daa8-4231-800c-19b93b94a631","ios":"levelo://app?vid=1fb752c3-daa8-4231-800c-19b93b94a631"},"vehicle_type_id":"4","last_reported":1758816778,"current_range_meters":12800,"station_id":"ce4bhih2rcd13ifvqfr0","pricing_plan_id":"cebpf4jnsgd1na2vs0mg"},{"bike_id":"fa83bb3a-6e11-4ca4-905d-15b9a87def77","system_id":"levelo_inurba_marseille","lat":43.24803,"lon":5.37459,"is_reserved":false,"is_disabled":false,"rental_uris":{"android":"levelo://app?vid=fa83bb3a-6e11-4ca4-905d-15b9a87def77","ios":"levelo://app?vid=fa83bb3a-6e11-4ca4-905d-15b9a87def77"},"vehicle_type_id":"4","last_reported":1758816778,"current_range_meters":12400,"station_id":"ce4bhgh2rcd13ifvqfb0","pricing_plan_id":"cebpf4jnsgd1na2vs0mg"},{"bike_id":"96c55bcf-90b7-4618-9025-978539f925b5","system_id":"levelo_inurba_marseille","lat":43.32358,"lon":5.36757,"is_reserved":false,"is_disabled":false,"rental_uris":{"android":"levelo://app?vid=96c55bcf-90b7-4618-9025-978539f925b5","ios":"levelo://app?vid=96c55bcf-90b7-4618-9025-978539f925b5"},"vehicle_type_id":"4","last_reported":1758816778,"current_range_meters":12800,"station_id":"ce4bhsh2rcd13ifvqi2g","pricing_plan_id":"cebpf4jnsgd1na2vs0mg"},{"bike_id":"1a48820e-08fe-4675-a54b-651241ef6812","system_id":"levelo_inurba_marseille","lat":43.25339,"lon":5.42164,"is_reserved":false,"is_disabled":false,"rental_uris":{"android":"levelo://app?vid=1a48820e-08fe-4675-a54b-651241ef6812","ios":"levelo://app?vid=1a48820e-08fe-4675-a54b-651241ef6812"},"vehicle_type_id":"4","last_reported":1758816778,"current_range_meters":12800,"station_id":"st_d2m65c5bi1j21697t3ng","pricing_plan_id":"cebpf4jnsgd1na2vs0mg"},{"bike_id":"38a8f5f0-3a6c-4a6b-8a10-72b03067b05d","system_id":"levelo_inurba_marseille","lat":43.27993,"lon":5.40022,"is_reserved":false,"is_disabled":false,"rental_uris":{"android":"levelo://app?vid=38a8f5f0-3a6c-4a6b-8a10-72b03067b05d","ios":"levelo://app?vid=38a8f5f0-3a6c-4a6b-8a10-72b03067b05d"},"vehicle_type_id":"4","last_reported":1758816778,"current_range_meters":12800,"station_id":"ce4bho92rcd13ifvqh4g","pricing_plan_id":"cebpf4jnsgd1na2vs0mg"},{"bike_id":"3952ec1a-5cfb-434f-9d45-e68c238a2097","system_id":"levelo_inurba_marseille","lat":43.337444,"lon":5.374475,"is_reserved":false,"is_disabled":false,"rental_uris":{"android":"levelo://app?vid=3952ec1a-5cfb-434f-9d45-e68c238a2097","ios":"levelo://app?vid=3952ec1a-5cfb-434f-9d45-e68c238a2097"},"vehicle_type_id":"4","last_reported":1758816778,"current_range_meters":12800,"station_id":"","pricing_plan_id":"cebpf4jnsgd1na2vs0mg"},{"bike_id":"af60c407-5d0d-4124-90bc-f5c672eb5129","system_id":"levelo_inurba_marseille","lat":43.31716,"lon":5.40486,"is_reserved":false,"is_disabled":false,"rental_uris":{"android":"levelo://app?vid=af60c407-5d0d-4124-90bc-f5c672eb5129","ios":"levelo://app?vid=af60c407-5d0d-4124-90bc-f5c672eb5129"},"vehicle_type_id":"4","last_reported":1758816778,"current_range_meters":13600,"station_id":"ce4bh012rcd13ifvqd00","pricing_plan_id":"cebpf4jnsgd1na2vs0mg"},{"bike_id":"402b573d-229b-4b0e-977a-075c271e85c6","system_id":"levelo_inurba_marseille","lat":43.28862,"lon":5.42532,"is_reserved":false,"is_disabled":false,"rental_uris":{"android":"levelo://app?vid=402b573d-229b-4b0e-977a-075c271e85c6","ios":"levelo://app?vid=402b573d-229b-4b0e-977a-075c271e85c6"},"vehicle_type_id":"4","last_reported":1758816778,"current_range_meters":14000,"station_id":"","pricing_plan_id":"cebpf4jnsgd1na2vs0mg"},{"bike_id":"88fbda15-681c-4d80-862d-73bb9781b2a7","system_id":"levelo_inurba_marseille","lat":43.32347,"lon":5.36736,"is_reserved":false,"is_disabled":false,"rental_uris":{"android":"levelo://app?vid=88fbda15-681c-4d80-862d-73bb9781b2a7","ios":"levelo://app?vid=88fbda15-681c-4d80-862d-73bb9781b2a7"},"vehicle_type_id":"4","last_reported":1758816778,"current_range_meters":13600,"station_id":"ce4bhsh2rcd13ifvqi2g","pricing_plan_id":"cebpf4jnsgd1na2vs0mg"},{"bike_id":"2e37c4a4-ec94-4d14-b1d1-493c97484a5f","system_id":"levelo_inurba_marseille","lat":43.23156,"lon":5.43712,"is_reserved":false,"is_disabled":false,"rental_uris":{"android":"levelo://app?vid=2e37c4a4-ec94-4d14-b1d1-493c97484a5f","ios":"levelo://app?vid=2e37c4a4-ec94-4d14-b1d1-493c97484a5f"},"vehicle_type_id":"4","last_reported":1758816778,"current_range_meters":12800,"station_id":"ce4bhmp2rcd13ifvqgog","pricing_plan_id":"cebpf4jnsgd1na2vs0mg"},{"bike_id":"2ff258b3-a761-49f2-be01-c8d3accc514b","system_id":"levelo_inurba_marseille","lat":43.30771,"lon":5.37657,"is_reserved":false,"is_disabled":false,"rental_uris":{"android":"levelo://app?vid=2ff258b3-a761-49f2-be01-c8d3accc514b","ios":"levelo://app?vid=2ff258b3-a761-49f2-be01-c8d3accc514b"},"vehicle_type_id":"4","last_reported":1758816778,"current_range_meters":13600,"station_id":"ce4bgv92rcd13ifvqcq0","pricing_plan_id":"cebpf4jnsgd1na2vs0mg"},{"bike_id":"3731e4b4-e57b-4ad8-affe-801decac42ca","system_id":"levelo_inurba_marseille","lat":43.2496,"lon":5.40499,"is_reserved":false,"is_disabled":false,"rental_uris":{"android":"levelo://app?vid=3731e4b4-e57b-4ad8-affe-801decac42ca","ios":"levelo://app?vid=3731e4b4-e57b-4ad8-affe-801decac42ca"},"vehicle_type_id":"4","last_reported":1758816778,"current_range_meters":13600,"station_id":"st_d2ngiaodas8pm72gd1h0","pricing_plan_id":"cebpf4jnsgd1na2vs0mg"},{"bike_id":"6be3db1b-a7e1-4b66-be3e-5b47cbb87b33","system_id":"levelo_inurba_marseille","lat":43.26199,"lon":5.37443,"is_reserved":false,"is_disabled":false,"rental_uris":{"android":"levelo://app?vid=6be3db1b-a7e1-4b66-be3e-5b47cbb87b33","ios":"levelo://app?vid=6be3db1b-a7e1-4b66-be3e-5b47cbb87b33"},"vehicle_type_id":"4","last_reported":1758816778,"current_range_meters":13600,"station_id":"ce4bhgp2rcd13ifvqfc0","pricing_plan_id":"cebpf4jnsgd1na2vs0mg"},{"bike_id":"358b5bd0-bd1a-4b9c-b0d1-08dbb5ab85b3","system_id":"levelo_inurba_marseille","lat":43.26835,"lon":5.40385,"is_reserved":false,"is_disabled":false,"rental_uris":{"android":"levelo://app?vid=358b5bd0-bd1a-4b9c-b0d1-08dbb5ab85b3","ios":"levelo://app?vid=358b5bd0-bd1a-4b9c-b0d1-08dbb5ab85b3"},"vehicle_type_id":"4","last_reported":1758816778,"current_range_meters":14000,"station_id":"","pricing_plan_id":"cebpf4jnsgd1na2vs0mg"},{"bike_id":"f897d300-643c-4c7a-951b-f56d70ef23ca","system_id":"levelo_inurba_marseille","lat":43.30323,"lon":5.3909,"is_reserved":false,"is_disabled":false,"rental_uris":{"android":"levelo://app?vid=f897d300-643c-4c7a-951b-f56d70ef23ca","ios":"levelo://app?vid=f897d300-643c-4c7a-951b-f56d70ef23ca"},"vehicle_type_id":"4","last_reported":1758816778,"current_range_meters":14000,"station_id":"","pricing_plan_id":"cebpf4jnsgd1na2vs0mg"},{"bike_id":"1c00f561-9299-4c11-9997-842a86607f8c","system_id":"levelo_inurba_marseille","lat":43.26809,"lon":5.40272,"is_reserved":false,"is_disabled":false,"rental_uris":{"android":"levelo://app?vid=1c00f561-9299-4c11-9997-842a86607f8c","ios":"levelo://app?vid=1c00f561-9299-4c11-9997-842a86607f8c"},"vehicle_type_id":"4","last_reported":1758816778,"current_range_meters":14000,"station_id":"ce501612rcd8frsf0b60","pricing_plan_id":"cebpf4jnsgd1na2vs0mg"},{"bike_id":"c5ab64bf-78c4-42cd-8ad8-d5c54f85cca0","system_id":"levelo_inurba_marseille","lat":43.29266,"lon":5.38431,"is_reserved":false,"is_disabled":true,"rental_uris":{"android":"levelo://app?vid=c5ab64bf-78c4-42cd-8ad8-d5c54f85cca0","ios":"levelo://app?vid=c5ab64bf-78c4-42cd-8ad8-d5c54f85cca0"},"vehicle_type_id":"4","last_reported":1758816778,"current_range_meters":14000,"station_id":"ce4bh692rcd13ifvqea0","pricing_plan_id":"cebpf4jnsgd1na2vs0mg"},{"bike_id":"4d56814b-356c-4dae-9dad-37bfac39451f","system_id":"levelo_inurba_marseille","lat":43.2953,"lon":5.39405,"is_reserved":false,"is_disabled":false,"rental_uris":{"android":"levelo://app?vid=4d56814b-356c-4dae-9dad-37bfac39451f","ios":"levelo://app?vid=4d56814b-356c-4dae-9dad-37bfac39451f"},"vehicle_type_id":"4","last_reported":1758816778,"current_range_meters":14000,"station_id":"ce4bh292rcd13ifvqdf0","pricing_plan_id":"cebpf4jnsgd1na2vs0mg"},{"bike_id":"d56c8807-b008-42a8-aef7-dee66ee4e851","system_id":"levelo_inurba_marseille","lat":43.317428,"lon":5.377637,"is_reserved":false,"is_disabled":false,"rental_uris":{"android":"levelo://app?vid=d56c8807-b008-42a8-aef7-dee66ee4e851","ios":"levelo://app?vid=d56c8807-b008-42a8-aef7-dee66ee4e851"},"vehicle_type_id":"4","last_reported":1758816778,"current_range_meters":13600,"station_id":"ce4bgth2rcd13ifvqch0","pricing_plan_id":"cebpf4jnsgd1na2vs0mg"},{"bike_id":"c7f6a08b-c655-4213-b2ba-7d02e7f382fe","system_id":"levelo_inurba_marseille","lat":43.27988,"lon":5.39483,"is_reserved":false,"is_disabled":false,"rental_uris":{"android":"levelo://app?vid=c7f6a08b-c655-4213-b2ba-7d02e7f382fe","ios":"levelo://app?vid=c7f6a08b-c655-4213-b2ba-7d02e7f382fe"},"vehicle_type_id":"4","last_reported":1758816778,"current_range_meters":14000,"station_id":"","pricing_plan_id":"cebpf4jnsgd1na2vs0mg"},{"bike_id":"e5303607-da03-4ac7-b81e-b332ede84cf7","system_id":"levelo_inurba_marseille","lat":43.31298,"lon":5.37821,"is_reserved":false,"is_disabled":false,"rental_uris":{"android":"levelo://app?vid=e5303607-da03-4ac7-b81e-b332ede84cf7","ios":"levelo://app?vid=e5303607-da03-4ac7-b81e-b332ede84cf7"},"vehicle_type_id":"4","last_reported":1758816778,"current_range_meters":14000,"station_id":"","pricing_plan_id":"cebpf4jnsgd1na2vs0mg"},{"bike_id":"97be8e1b-8e50-4131-b4ce-8a578ed1e157","system_id":"levelo_inurba_marseille","lat":43.2927,"lon":5.36852,"is_reserved":false,"is_disabled":false,"rental_uris":{"android":"levelo://app?vid=97be8e1b-8e50-4131-b4ce-8a578ed1e157","ios":"levelo://app?vid=97be8e1b-8e50-4131-b4ce-8a578ed1e157"},"vehicle_type_id":"4","last_reported":1758816778,"current_range_meters":14400,"station_id":"ce4bhbp2rcd13ifvqesg","pricing_plan_id":"cebpf4jnsgd1na2vs0mg"},{"bike_id":"c3fb334e-be4e-4c10-b225-32fb635081fa","system_id":"levelo_inurba_marseille","lat":43.309588,"lon":5.401929,"is_reserved":false,"is_disabled":false,"rental_uris":{"android":"levelo://app?vid=c3fb334e-be4e-4c10-b225-32fb635081fa","ios":"levelo://app?vid=c3fb334e-be4e-4c10-b225-32fb635081fa"},"vehicle_type_id":"4","last_reported":1758816778,"current_range_meters":14400,"station_id":"ce4bgvp2rcd13ifvqct0","pricing_plan_id":"cebpf4jnsgd1na2vs0mg"},{"bike_id":"516548f4-efe3-4545-a721-bb03f8f9d7d2","system_id":"levelo_inurba_marseille","lat":43.29412,"lon":5.3975,"is_reserved":false,"is_disabled":false,"rental_uris":{"android":"levelo://app?vid=516548f4-efe3-4545-a721-bb03f8f9d7d2","ios":"levelo://app?vid=516548f4-efe3-4545-a721-bb03f8f9d7d2"},"vehicle_type_id":"4","last_reported":1758816778,"current_range_meters":14800,"station_id":"ce4bh3h2rcd13ifvqdo0","pricing_plan_id":"cebpf4jnsgd1na2vs0mg"},{"bike_id":"08292ac0-f4a0-4778-9703-5ac015ee1e3a","system_id":"levelo_inurba_marseille","lat":43.2463,"lon":5.43146,"is_reserved":false,"is_disabled":false,"rental_uris":{"android":"levelo://app?vid=08292ac0-f4a0-4778-9703-5ac015ee1e3a","ios":"levelo://app?vid=08292ac0-f4a0-4778-9703-5ac015ee1e3a"},"vehicle_type_id":"4","last_reported":1758816778,"current_range_meters":14800,"station_id":"st_d2m6c4gdas8pm72e190g","pricing_plan_id":"cebpf4jnsgd1na2vs0mg"},{"bike_id":"e88cd35e-bc3e-4052-85dc-39663366689f","system_id":"levelo_inurba_marseille","lat":43.31714,"lon":5.42423,"is_reserved":false,"is_disabled":false,"rental_uris":{"android":"levelo://app?vid=e88cd35e-bc3e-4052-85dc-39663366689f","ios":"levelo://app?vid=e88cd35e-bc3e-4052-85dc-39663366689f"},"vehicle_type_id":"4","last_reported":1758816778,"current_range_meters":14800,"station_id":"ce4bhp92rcd13ifvqhbg","pricing_plan_id":"cebpf4jnsgd1na2vs0mg"},{"bike_id":"d514e04a-079c-416f-abc8-06d58ffe185d","system_id":"levelo_inurba_marseille","lat":43.26556,"lon":5.3902,"is_reserved":false,"is_disabled":false,"rental_uris":{"android":"levelo://app?vid=d514e04a-079c-416f-abc8-06d58ffe185d","ios":"levelo://app?vid=d514e04a-079c-416f-abc8-06d58ffe185d"},"vehicle_type_id":"4","last_reported":1758816778,"current_range_meters":14800,"station_id":"ce4bhe12rcd13ifvqf30","pricing_plan_id":"cebpf4jnsgd1na2vs0mg"},{"bike_id":"d734f0f7-bb82-4cbc-9571-824c32d91d22","system_id":"levelo_inurba_marseille","lat":43.24162,"lon":5.36414,"is_reserved":false,"is_disabled":false,"rental_uris":{"android":"levelo://app?vid=d734f0f7-bb82-4cbc-9571-824c32d91d22","ios":"levelo://app?vid=d734f0f7-bb82-4cbc-9571-824c32d91d22"},"vehicle_type_id":"4","last_reported":1758816778,"current_range_meters":14800,"station_id":"cpo36qri1sfpv3e86is0","pricing_plan_id":"cebpf4jnsgd1na2vs0mg"},{"bike_id":"8abb542a-4787-40e1-8a1f-4959546fa4c3","system_id":"levelo_inurba_marseille","lat":43.2315,"lon":5.43714,"is_reserved":false,"is_disabled":false,"rental_uris":{"android":"levelo://app?vid=8abb542a-4787-40e1-8a1f-4959546fa4c3","ios":"levelo://app?vid=8abb542a-4787-40e1-8a1f-4959546fa4c3"},"vehicle_type_id":"4","last_reported":1758816778,"current_range_meters":14800,"station_id":"ce4bhmp2rcd13ifvqgog","pricing_plan_id":"cebpf4jnsgd1na2vs0mg"},{"bike_id":"0bd4f36b-04f6-4391-a31b-38f70fb605dc","system_id":"levelo_inurba_marseille","lat":43.290851,"lon":5.371637,"is_reserved":false,"is_disabled":false,"rental_uris":{"android":"levelo://app?vid=0bd4f36b-04f6-4391-a31b-38f70fb605dc","ios":"levelo://app?vid=0bd4f36b-04f6-4391-a31b-38f70fb605dc"},"vehicle_type_id":"4","last_reported":1758816778,"current_range_meters":14400,"station_id":"ce4bh5p2rcd13ifvqe4g","pricing_plan_id":"cebpf4jnsgd1na2vs0mg"},{"bike_id":"753836e2-5a37-4520-bbfb-71019bfd6e12","system_id":"levelo_inurba_marseille","lat":43.28429,"lon":5.349875,"is_reserved":false,"is_disabled":false,"rental_uris":{"android":"levelo://app?vid=753836e2-5a37-4520-bbfb-71019bfd6e12","ios":"levelo://app?vid=753836e2-5a37-4520-bbfb-71019bfd6e12"},"vehicle_type_id":"4","last_reported":1758816778,"current_range_meters":14800,"station_id":"ce4bhbh2rcd13ifvqepg","pricing_plan_id":"cebpf4jnsgd1na2vs0mg"},{"bike_id":"041cd397-24ab-4e04-af23-07b961e161f4","system_id":"levelo_inurba_marseille","lat":43.337444,"lon":5.374475,"is_reserved":false,"is_disabled":false,"rental_uris":{"android":"levelo://app?vid=041cd397-24ab-4e04-af23-07b961e161f4","ios":"levelo://app?vid=041cd397-24ab-4e04-af23-07b961e161f4"},"vehicle_type_id":"4","last_reported":1758816778,"current_range_meters":14800,"station_id":"","pricing_plan_id":"cebpf4jnsgd1na2vs0mg"},{"bike_id":"df649d25-1f44-4471-8cdd-9566da8ef9b9","system_id":"levelo_inurba_marseille","lat":43.33016,"lon":5.39529,"is_reserved":false,"is_disabled":false,"rental_uris":{"android":"levelo://app?vid=df649d25-1f44-4471-8cdd-9566da8ef9b9","ios":"levelo://app?vid=df649d25-1f44-4471-8cdd-9566da8ef9b9"},"vehicle_type_id":"4","last_reported":1758816778,"current_range_meters":15200,"station_id":"","pricing_plan_id":"cebpf4jnsgd1na2vs0mg"},{"bike_id":"4ef52851-9da1-45e9-8ba1-17c78132380c","system_id":"levelo_inurba_marseille","lat":43.24806,"lon":5.3746,"is_reserved":false,"is_disabled":false,"rental_uris":{"android":"levelo://app?vid=4ef52851-9da1-45e9-8ba1-17c78132380c","ios":"levelo://app?vid=4ef52851-9da1-45e9-8ba1-17c78132380c"},"vehicle_type_id":"4","last_reported":1758816778,"current_range_meters":15200,"station_id":"ce4bhgh2rcd13ifvqfb0","pricing_plan_id":"cebpf4jnsgd1na2vs0mg"},{"bike_id":"dab79b20-c8b4-484d-93bf-53b74176e69f","system_id":"levelo_inurba_marseille","lat":43.28578,"lon":5.39501,"is_reserved":false,"is_disabled":false,"rental_uris":{"android":"levelo://app?vid=dab79b20-c8b4-484d-93bf-53b74176e69f","ios":"levelo://app?vid=dab79b20-c8b4-484d-93bf-53b74176e69f"},"vehicle_type_id":"4","last_reported":1758816778,"current_range_meters":15200,"station_id":"ce4bh292rcd13ifvqdg0","pricing_plan_id":"cebpf4jnsgd1na2vs0mg"},{"bike_id":"97a5ee76-2e0a-479d-a727-d5a9ad8fecb2","system_id":"levelo_inurba_marseille","lat":43.22957,"lon":5.35387,"is_reserved":false,"is_disabled":false,"rental_uris":{"android":"levelo://app?vid=97a5ee76-2e0a-479d-a727-d5a9ad8fecb2","ios":"levelo://app?vid=97a5ee76-2e0a-479d-a727-d5a9ad8fecb2"},"vehicle_type_id":"4","last_reported":1758816778,"current_range_meters":16000,"station_id":"cpo3532slgdg3j2ikp40","pricing_plan_id":"cebpf4jnsgd1na2vs0mg"},{"bike_id":"784ce342-ff34-4982-b4f1-008de65ec6b8","system_id":"levelo_inurba_marseille","lat":43.262,"lon":5.37929,"is_reserved":false,"is_disabled":false,"rental_uris":{"android":"levelo://app?vid=784ce342-ff34-4982-b4f1-008de65ec6b8","ios":"levelo://app?vid=784ce342-ff34-4982-b4f1-008de65ec6b8"},"vehicle_type_id":"4","last_reported":1758816778,"current_range_meters":16000,"station_id":"ce4bhjp2rcd13ifvqg90","pricing_plan_id":"cebpf4jnsgd1na2vs0mg"},{"bike_id":"9b60f32b-f965-4366-b2f7-6a0d1f9f47cb","system_id":"levelo_inurba_marseille","lat":43.26073,"lon":5.39382,"is_reserved":false,"is_disabled":false,"rental_uris":{"android":"levelo://app?vid=9b60f32b-f965-4366-b2f7-6a0d1f9f47cb","ios":"levelo://app?vid=9b60f32b-f965-4366-b2f7-6a0d1f9f47cb"},"vehicle_type_id":"4","last_reported":1758816778,"current_range_meters":16000,"station_id":"ce4bhh92rcd13ifvqfj0","pricing_plan_id":"cebpf4jnsgd1na2vs0mg"},{"bike_id":"c6b3e536-9745-4760-93b7-a9b7697329d8","system_id":"levelo_inurba_marseille","lat":43.28414,"lon":5.34998,"is_reserved":false,"is_disabled":false,"rental_uris":{"android":"levelo://app?vid=c6b3e536-9745-4760-93b7-a9b7697329d8","ios":"levelo://app?vid=c6b3e536-9745-4760-93b7-a9b7697329d8"},"vehicle_type_id":"4","last_reported":1758816778,"current_range_meters":16000,"station_id":"ce4bhbh2rcd13ifvqepg","pricing_plan_id":"cebpf4jnsgd1na2vs0mg"},{"bike_id":"9811e1f7-6003-4f66-9587-6fdbbe85e0ed","system_id":"levelo_inurba_marseille","lat":43.29549,"lon":5.42289,"is_reserved":false,"is_disabled":false,"rental_uris":{"android":"levelo://app?vid=9811e1f7-6003-4f66-9587-6fdbbe85e0ed","ios":"levelo://app?vid=9811e1f7-6003-4f66-9587-6fdbbe85e0ed"},"vehicle_type_id":"4","last_reported":1758816778,"current_range_meters":16000,"station_id":"ce4bhph2rcd13ifvqhdg","pricing_plan_id":"cebpf4jnsgd1na2vs0mg"},{"bike_id":"f08718b9-e1c7-4dd4-8a31-eead7fcd1c85","system_id":"levelo_inurba_marseille","lat":43.3211,"lon":5.36771,"is_reserved":false,"is_disabled":false,"rental_uris":{"android":"levelo://app?vid=f08718b9-e1c7-4dd4-8a31-eead7fcd1c85","ios":"levelo://app?vid=f08718b9-e1c7-4dd4-8a31-eead7fcd1c85"},"vehicle_type_id":"4","last_reported":1758816778,"current_range_meters":16000,"station_id":"ce4bhrh2rcd13ifvqhug","pricing_plan_id":"cebpf4jnsgd1na2vs0mg"},{"bike_id":"39e6b2d7-e7bc-4366-8a01-87bc46855564","system_id":"levelo_inurba_marseille","lat":43.32149,"lon":5.36845,"is_reserved":false,"is_disabled":false,"rental_uris":{"android":"levelo://app?vid=39e6b2d7-e7bc-4366-8a01-87bc46855564","ios":"levelo://app?vid=39e6b2d7-e7bc-4366-8a01-87bc46855564"},"vehicle_type_id":"4","last_reported":1758816778,"current_range_meters":16000,"station_id":"ce4bhrh2rcd13ifvqhug","pricing_plan_id":"cebpf4jnsgd1na2vs0mg"},{"bike_id":"b6ff3672-4e7c-404c-ab2a-bd902cf95e14","system_id":"levelo_inurba_marseille","lat":43.26854,"lon":5.40675,"is_reserved":false,"is_disabled":false,"rental_uris":{"android":"levelo://app?vid=b6ff3672-4e7c-404c-ab2a-bd902cf95e14","ios":"levelo://app?vid=b6ff3672-4e7c-404c-ab2a-bd902cf95e14"},"vehicle_type_id":"4","last_reported":1758816778,"current_range_meters":16000,"station_id":"","pricing_plan_id":"cebpf4jnsgd1na2vs0mg"},{"bike_id":"1429b765-2b83-4bfa-8307-ea2280718a0c","system_id":"levelo_inurba_marseille","lat":43.26197,"lon":5.37436,"is_reserved":false,"is_disabled":false,"rental_uris":{"android":"levelo://app?vid=1429b765-2b83-4bfa-8307-ea2280718a0c","ios":"levelo://app?vid=1429b765-2b83-4bfa-8307-ea2280718a0c"},"vehicle_type_id":"4","last_reported":1758816778,"current_range_meters":16400,"station_id":"ce4bhgp2rcd13ifvqfc0","pricing_plan_id":"cebpf4jnsgd1na2vs0mg"},{"bike_id":"6e7ed7f7-8d8f-44d0-996c-23efef42f50f","system_id":"levelo_inurba_marseille","lat":43.28931,"lon":5.3841,"is_reserved":false,"is_disabled":false,"rental_uris":{"android":"levelo://app?vid=6e7ed7f7-8d8f-44d0-996c-23efef42f50f","ios":"levelo://app?vid=6e7ed7f7-8d8f-44d0-996c-23efef42f50f"},"vehicle_type_id":"4","last_reported":1758816778,"current_range_meters":16400,"station_id":"ce4bh612rcd13ifvqe6g","pricing_plan_id":"cebpf4jnsgd1na2vs0mg"},{"bike_id":"232f7f05-11b0-4e83-87a0-d64195604901","system_id":"levelo_inurba_marseille","lat":43.27987,"lon":5.41661,"is_reserved":false,"is_disabled":false,"rental_uris":{"android":"levelo://app?vid=232f7f05-11b0-4e83-87a0-d64195604901","ios":"levelo://app?vid=232f7f05-11b0-4e83-87a0-d64195604901"},"vehicle_type_id":"4","last_reported":1758816778,"current_range_meters":16400,"station_id":"ce4bho12rcd13ifvqh1g","pricing_plan_id":"cebpf4jnsgd1na2vs0mg"},{"bike_id":"b3cd50c5-91d9-480c-b822-ddb39fc2bed0","system_id":"levelo_inurba_marseille","lat":43.27812,"lon":5.40722,"is_reserved":false,"is_disabled":false,"rental_uris":{"android":"levelo://app?vid=b3cd50c5-91d9-480c-b822-ddb39fc2bed0","ios":"levelo://app?vid=b3cd50c5-91d9-480c-b822-ddb39fc2bed0"},"vehicle_type_id":"4","last_reported":1758816778,"current_range_meters":16000,"station_id":"ce4bhnh2rcd13ifvqgtg","pricing_plan_id":"cebpf4jnsgd1na2vs0mg"},{"bike_id":"3025432a-4f0f-4f34-8363-2f139165c4b4","system_id":"levelo_inurba_marseille","lat":43.26202,"lon":5.37932,"is_reserved":false,"is_disabled":false,"rental_uris":{"android":"levelo://app?vid=3025432a-4f0f-4f34-8363-2f139165c4b4","ios":"levelo://app?vid=3025432a-4f0f-4f34-8363-2f139165c4b4"},"vehicle_type_id":"4","last_reported":1758816778,"current_range_meters":16400,"station_id":"ce4bhjp2rcd13ifvqg90","pricing_plan_id":"cebpf4jnsgd1na2vs0mg"},{"bike_id":"c31c58ee-4e29-4ce3-bf0a-25ae5cf57cfc","system_id":"levelo_inurba_marseille","lat":43.24929,"lon":5.40499,"is_reserved":false,"is_disabled":false,"rental_uris":{"android":"levelo://app?vid=c31c58ee-4e29-4ce3-bf0a-25ae5cf57cfc","ios":"levelo://app?vid=c31c58ee-4e29-4ce3-bf0a-25ae5cf57cfc"},"vehicle_type_id":"4","last_reported":1758816778,"current_range_meters":16400,"station_id":"st_d2ngiaodas8pm72gd1h0","pricing_plan_id":"cebpf4jnsgd1na2vs0mg"},{"bike_id":"069480d0-124a-43de-8364-db2285169da0","system_id":"levelo_inurba_marseille","lat":43.27938,"lon":5.41049,"is_reserved":false,"is_disabled":false,"rental_uris":{"android":"levelo://app?vid=069480d0-124a-43de-8364-db2285169da0","ios":"levelo://app?vid=069480d0-124a-43de-8364-db2285169da0"},"vehicle_type_id":"4","last_reported":1758816778,"current_range_meters":16400,"station_id":"ce4bhnp2rcd13ifvqh0g","pricing_plan_id":"cebpf4jnsgd1na2vs0mg"},{"bike_id":"ba25f525-ded1-4f8a-92e1-1790e6d3ab45","system_id":"levelo_inurba_marseille","lat":43.250032,"lon":5.389244,"is_reserved":false,"is_disabled":false,"rental_uris":{"android":"levelo://app?vid=ba25f525-ded1-4f8a-92e1-1790e6d3ab45","ios":"levelo://app?vid=ba25f525-ded1-4f8a-92e1-1790e6d3ab45"},"vehicle_type_id":"4","last_reported":1758816778,"current_range_meters":16400,"station_id":"ce4bhgp2rcd13ifvqfd0","pricing_plan_id":"cebpf4jnsgd1na2vs0mg"},{"bike_id":"a57b3feb-2354-42fe-87fd-e8fcee3a0260","system_id":"levelo_inurba_marseille","lat":43.26953,"lon":5.40241,"is_reserved":false,"is_disabled":false,"rental_uris":{"android":"levelo://app?vid=a57b3feb-2354-42fe-87fd-e8fcee3a0260","ios":"levelo://app?vid=a57b3feb-2354-42fe-87fd-e8fcee3a0260"},"vehicle_type_id":"4","last_reported":1758816778,"current_range_meters":16400,"station_id":"","pricing_plan_id":"cebpf4jnsgd1na2vs0mg"},{"bike_id":"4052b6b4-dea9-4e36-bbaf-d29a31dfd458","system_id":"levelo_inurba_marseille","lat":43.30802,"lon":5.3815,"is_reserved":false,"is_disabled":false,"rental_uris":{"android":"levelo://app?vid=4052b6b4-dea9-4e36-bbaf-d29a31dfd458","ios":"levelo://app?vid=4052b6b4-dea9-4e36-bbaf-d29a31dfd458"},"vehicle_type_id":"4","last_reported":1758816778,"current_range_meters":16400,"station_id":"ce4bgt12rcd13ifvqce0","pricing_plan_id":"cebpf4jnsgd1na2vs0mg"},{"bike_id":"92f15bd2-bf63-466d-be39-4c856ba0ecac","system_id":"levelo_inurba_marseille","lat":43.28935,"lon":5.39626,"is_reserved":false,"is_disabled":false,"rental_uris":{"android":"levelo://app?vid=92f15bd2-bf63-466d-be39-4c856ba0ecac","ios":"levelo://app?vid=92f15bd2-bf63-466d-be39-4c856ba0ecac"},"vehicle_type_id":"4","last_reported":1758816778,"current_range_meters":16400,"station_id":"ce4bh3h2rcd13ifvqdn0","pricing_plan_id":"cebpf4jnsgd1na2vs0mg"},{"bike_id":"7e848ad8-3b46-4990-8791-073379270774","system_id":"levelo_inurba_marseille","lat":43.27324,"lon":5.3912,"is_reserved":false,"is_disabled":true,"rental_uris":{"android":"levelo://app?vid=7e848ad8-3b46-4990-8791-073379270774","ios":"levelo://app?vid=7e848ad8-3b46-4990-8791-073379270774"},"vehicle_type_id":"4","last_reported":1758816778,"current_range_meters":16800,"station_id":"ce4bhgp2rcd13ifvqfe0","pricing_plan_id":"cebpf4jnsgd1na2vs0mg"},{"bike_id":"b4f47bc1-4d12-4541-a757-a859819c9d1c","system_id":"levelo_inurba_marseille","lat":43.276802,"lon":5.388803,"is_reserved":false,"is_disabled":true,"rental_uris":{"android":"levelo://app?vid=b4f47bc1-4d12-4541-a757-a859819c9d1c","ios":"levelo://app?vid=b4f47bc1-4d12-4541-a757-a859819c9d1c"},"vehicle_type_id":"4","last_reported":1758816778,"current_range_meters":16800,"station_id":"","pricing_plan_id":"cebpf4jnsgd1na2vs0mg"},{"bike_id":"a40fc296-5f3c-4fdb-886c-c91f4568b6ea","system_id":"levelo_inurba_marseille","lat":43.30927,"lon":5.40133,"is_reserved":false,"is_disabled":false,"rental_uris":{"android":"levelo://app?vid=a40fc296-5f3c-4fdb-886c-c91f4568b6ea","ios":"levelo://app?vid=a40fc296-5f3c-4fdb-886c-c91f4568b6ea"},"vehicle_type_id":"4","last_reported":1758816778,"current_range_meters":16800,"station_id":"ce4bgvp2rcd13ifvqct0","pricing_plan_id":"cebpf4jnsgd1na2vs0mg"},{"bike_id":"2bfa8a20-e6c7-4e13-affe-abd23ed083c5","system_id":"levelo_inurba_marseille","lat":43.29267,"lon":5.38439,"is_reserved":false,"is_disabled":false,"rental_uris":{"android":"levelo://app?vid=2bfa8a20-e6c7-4e13-affe-abd23ed083c5","ios":"levelo://app?vid=2bfa8a20-e6c7-4e13-affe-abd23ed083c5"},"vehicle_type_id":"4","last_reported":1758816778,"current_range_meters":16400,"station_id":"ce4bh692rcd13ifvqea0","pricing_plan_id":"cebpf4jnsgd1na2vs0mg"},{"bike_id":"7ed5076a-547f-489d-a123-412f62c8eba6","system_id":"levelo_inurba_marseille","lat":43.26211,"lon":5.37441,"is_reserved":false,"is_disabled":false,"rental_uris":{"android":"levelo://app?vid=7ed5076a-547f-489d-a123-412f62c8eba6","ios":"levelo://app?vid=7ed5076a-547f-489d-a123-412f62c8eba6"},"vehicle_type_id":"4","last_reported":1758816778,"current_range_meters":16800,"station_id":"ce4bhgp2rcd13ifvqfc0","pricing_plan_id":"cebpf4jnsgd1na2vs0mg"},{"bike_id":"f94de778-ba23-4509-a67f-90915ce20c15","system_id":"levelo_inurba_marseille","lat":43.32333,"lon":5.40626,"is_reserved":false,"is_disabled":false,"rental_uris":{"android":"levelo://app?vid=f94de778-ba23-4509-a67f-90915ce20c15","ios":"levelo://app?vid=f94de778-ba23-4509-a67f-90915ce20c15"},"vehicle_type_id":"4","last_reported":1758816778,"current_range_meters":16800,"station_id":"ce4bhq92rcd13ifvqhjg","pricing_plan_id":"cebpf4jnsgd1na2vs0mg"},{"bike_id":"6f97756d-103a-472e-9ee0-e1b6357d8727","system_id":"levelo_inurba_marseille","lat":43.30858,"lon":5.39678,"is_reserved":false,"is_disabled":false,"rental_uris":{"android":"levelo://app?vid=6f97756d-103a-472e-9ee0-e1b6357d8727","ios":"levelo://app?vid=6f97756d-103a-472e-9ee0-e1b6357d8727"},"vehicle_type_id":"4","last_reported":1758816778,"current_range_meters":17200,"station_id":"","pricing_plan_id":"cebpf4jnsgd1na2vs0mg"},{"bike_id":"13be0879-670b-43f4-8fc1-8fbc1c4ccf9c","system_id":"levelo_inurba_marseille","lat":43.28417,"lon":5.34977,"is_reserved":false,"is_disabled":false,"rental_uris":{"android":"levelo://app?vid=13be0879-670b-43f4-8fc1-8fbc1c4ccf9c","ios":"levelo://app?vid=13be0879-670b-43f4-8fc1-8fbc1c4ccf9c"},"vehicle_type_id":"4","last_reported":1758816778,"current_range_meters":17200,"station_id":"ce4bhbh2rcd13ifvqepg","pricing_plan_id":"cebpf4jnsgd1na2vs0mg"},{"bike_id":"1c073000-e0cd-4bc9-8e07-5ae515900f5c","system_id":"levelo_inurba_marseille","lat":43.23188,"lon":5.39989,"is_reserved":false,"is_disabled":false,"rental_uris":{"android":"levelo://app?vid=1c073000-e0cd-4bc9-8e07-5ae515900f5c","ios":"levelo://app?vid=1c073000-e0cd-4bc9-8e07-5ae515900f5c"},"vehicle_type_id":"4","last_reported":1758816778,"current_range_meters":17200,"station_id":"ce4bhn12rcd13ifvqgqg","pricing_plan_id":"cebpf4jnsgd1na2vs0mg"},{"bike_id":"f5a888db-229a-4246-81ee-0ff2a1bcfdfa","system_id":"levelo_inurba_marseille","lat":43.22932,"lon":5.35375,"is_reserved":false,"is_disabled":false,"rental_uris":{"android":"levelo://app?vid=f5a888db-229a-4246-81ee-0ff2a1bcfdfa","ios":"levelo://app?vid=f5a888db-229a-4246-81ee-0ff2a1bcfdfa"},"vehicle_type_id":"4","last_reported":1758816778,"current_range_meters":17200,"station_id":"cpo3532slgdg3j2ikp40","pricing_plan_id":"cebpf4jnsgd1na2vs0mg"},{"bike_id":"ceafa8c9-a265-4f0b-bd2a-f831d2067a40","system_id":"levelo_inurba_marseille","lat":43.27781,"lon":5.39886,"is_reserved":false,"is_disabled":false,"rental_uris":{"android":"levelo://app?vid=ceafa8c9-a265-4f0b-bd2a-f831d2067a40","ios":"levelo://app?vid=ceafa8c9-a265-4f0b-bd2a-f831d2067a40"},"vehicle_type_id":"4","last_reported":1758816778,"current_range_meters":17200,"station_id":"","pricing_plan_id":"cebpf4jnsgd1na2vs0mg"},{"bike_id":"56089c86-8fe3-4c53-b854-40c4c5d13a3d","system_id":"levelo_inurba_marseille","lat":43.31529,"lon":5.38038,"is_reserved":false,"is_disabled":false,"rental_uris":{"android":"levelo://app?vid=56089c86-8fe3-4c53-b854-40c4c5d13a3d","ios":"levelo://app?vid=56089c86-8fe3-4c53-b854-40c4c5d13a3d"},"vehicle_type_id":"4","last_reported":1758816778,"current_range_meters":16800,"station_id":"ce4bhsp2rcd13ifvqi50","pricing_plan_id":"cebpf4jnsgd1na2vs0mg"},{"bike_id":"d4532aa9-abfe-4f69-a77c-11ab584b2701","system_id":"levelo_inurba_marseille","lat":43.27369,"lon":5.36257,"is_reserved":false,"is_disabled":false,"rental_uris":{"android":"levelo://app?vid=d4532aa9-abfe-4f69-a77c-11ab584b2701","ios":"levelo://app?vid=d4532aa9-abfe-4f69-a77c-11ab584b2701"},"vehicle_type_id":"4","last_reported":1758816778,"current_range_meters":17600,"station_id":"ce4bhbh2rcd13ifvqeo0","pricing_plan_id":"cebpf4jnsgd1na2vs0mg"},{"bike_id":"c77df517-c627-4083-b811-1dadabe7a1dc","system_id":"levelo_inurba_marseille","lat":43.29283,"lon":5.36854,"is_reserved":false,"is_disabled":false,"rental_uris":{"android":"levelo://app?vid=c77df517-c627-4083-b811-1dadabe7a1dc","ios":"levelo://app?vid=c77df517-c627-4083-b811-1dadabe7a1dc"},"vehicle_type_id":"4","last_reported":1758816778,"current_range_meters":17600,"station_id":"ce4bhbp2rcd13ifvqesg","pricing_plan_id":"cebpf4jnsgd1na2vs0mg"},{"bike_id":"327c041e-5c9e-4b0d-a97c-a2dbaab036ae","system_id":"levelo_inurba_marseille","lat":43.3281,"lon":5.41129,"is_reserved":false,"is_disabled":false,"rental_uris":{"android":"levelo://app?vid=327c041e-5c9e-4b0d-a97c-a2dbaab036ae","ios":"levelo://app?vid=327c041e-5c9e-4b0d-a97c-a2dbaab036ae"},"vehicle_type_id":"4","last_reported":1758816778,"current_range_meters":17600,"station_id":"","pricing_plan_id":"cebpf4jnsgd1na2vs0mg"},{"bike_id":"75611fb7-df45-4d9f-9db0-a181136cc424","system_id":"levelo_inurba_marseille","lat":43.21767,"lon":5.34609,"is_reserved":false,"is_disabled":true,"rental_uris":{"android":"levelo://app?vid=75611fb7-df45-4d9f-9db0-a181136cc424","ios":"levelo://app?vid=75611fb7-df45-4d9f-9db0-a181136cc424"},"vehicle_type_id":"4","last_reported":1758816778,"current_range_meters":17600,"station_id":"st_cvj6r9ubvosntc0bgbag","pricing_plan_id":"cebpf4jnsgd1na2vs0mg"},{"bike_id":"e177388a-da95-4bce-85a3-7e57a8454327","system_id":"levelo_inurba_marseille","lat":43.283712,"lon":5.386343,"is_reserved":false,"is_disabled":false,"rental_uris":{"android":"levelo://app?vid=e177388a-da95-4bce-85a3-7e57a8454327","ios":"levelo://app?vid=e177388a-da95-4bce-85a3-7e57a8454327"},"vehicle_type_id":"4","last_reported":1758816778,"current_range_meters":17600,"station_id":"ce4bh492rcd13ifvqdvg","pricing_plan_id":"cebpf4jnsgd1na2vs0mg"},{"bike_id":"d7a32180-f683-469a-bbaa-f32e69567008","system_id":"levelo_inurba_marseille","lat":43.29001,"lon":5.35615,"is_reserved":false,"is_disabled":false,"rental_uris":{"android":"levelo://app?vid=d7a32180-f683-469a-bbaa-f32e69567008","ios":"levelo://app?vid=d7a32180-f683-469a-bbaa-f32e69567008"},"vehicle_type_id":"4","last_reported":1758816778,"current_range_meters":17600,"station_id":"ce4bhb92rcd13ifvqen0","pricing_plan_id":"cebpf4jnsgd1na2vs0mg"},{"bike_id":"97bc617e-be95-40e0-91de-bf36d0fa1d7d","system_id":"levelo_inurba_marseille","lat":43.26201,"lon":5.37939,"is_reserved":false,"is_disabled":false,"rental_uris":{"android":"levelo://app?vid=97bc617e-be95-40e0-91de-bf36d0fa1d7d","ios":"levelo://app?vid=97bc617e-be95-40e0-91de-bf36d0fa1d7d"},"vehicle_type_id":"4","last_reported":1758816778,"current_range_meters":17600,"station_id":"ce4bhjp2rcd13ifvqg90","pricing_plan_id":"cebpf4jnsgd1na2vs0mg"},{"bike_id":"032dddcc-2fc7-4dfe-a553-2a8380ca21a3","system_id":"levelo_inurba_marseille","lat":43.31261,"lon":5.40185,"is_reserved":false,"is_disabled":false,"rental_uris":{"android":"levelo://app?vid=032dddcc-2fc7-4dfe-a553-2a8380ca21a3","ios":"levelo://app?vid=032dddcc-2fc7-4dfe-a553-2a8380ca21a3"},"vehicle_type_id":"4","last_reported":1758816778,"current_range_meters":17600,"station_id":"ce4bh092rcd13ifvqd30","pricing_plan_id":"cebpf4jnsgd1na2vs0mg"},{"bike_id":"77e2d895-129a-4ff3-9d84-075d048492b7","system_id":"levelo_inurba_marseille","lat":43.24992,"lon":5.38935,"is_reserved":false,"is_disabled":false,"rental_uris":{"android":"levelo://app?vid=77e2d895-129a-4ff3-9d84-075d048492b7","ios":"levelo://app?vid=77e2d895-129a-4ff3-9d84-075d048492b7"},"vehicle_type_id":"4","last_reported":1758816778,"current_range_meters":17600,"station_id":"ce4bhgp2rcd13ifvqfd0","pricing_plan_id":"cebpf4jnsgd1na2vs0mg"},{"bike_id":"7f09bc43-02a6-468a-9182-731c83281b4a","system_id":"levelo_inurba_marseille","lat":43.26382,"lon":5.37506,"is_reserved":false,"is_disabled":false,"rental_uris":{"android":"levelo://app?vid=7f09bc43-02a6-468a-9182-731c83281b4a","ios":"levelo://app?vid=7f09bc43-02a6-468a-9182-731c83281b4a"},"vehicle_type_id":"4","last_reported":1758816778,"current_range_meters":17600,"station_id":"","pricing_plan_id":"cebpf4jnsgd1na2vs0mg"},{"bike_id":"a5ff0666-8b47-4e05-92af-94005fec2105","system_id":"levelo_inurba_marseille","lat":43.29968,"lon":5.38496,"is_reserved":false,"is_disabled":false,"rental_uris":{"android":"levelo://app?vid=a5ff0666-8b47-4e05-92af-94005fec2105","ios":"levelo://app?vid=a5ff0666-8b47-4e05-92af-94005fec2105"},"vehicle_type_id":"4","last_reported":1758816778,"current_range_meters":17600,"station_id":"ce4bgj92rcd13ifvqbd0","pricing_plan_id":"cebpf4jnsgd1na2vs0mg"},{"bike_id":"377142cb-267c-494b-99d9-6fe238c4e676","system_id":"levelo_inurba_marseille","lat":43.30986,"lon":5.40788,"is_reserved":false,"is_disabled":false,"rental_uris":{"android":"levelo://app?vid=377142cb-267c-494b-99d9-6fe238c4e676","ios":"levelo://app?vid=377142cb-267c-494b-99d9-6fe238c4e676"},"vehicle_type_id":"4","last_reported":1758816778,"current_range_meters":17600,"station_id":"","pricing_plan_id":"cebpf4jnsgd1na2vs0mg"},{"bike_id":"08fe2b08-b3fa-43f8-ae73-04061f76318d","system_id":"levelo_inurba_marseille","lat":43.305552,"lon":5.365395,"is_reserved":false,"is_disabled":false,"rental_uris":{"android":"levelo://app?vid=08fe2b08-b3fa-43f8-ae73-04061f76318d","ios":"levelo://app?vid=08fe2b08-b3fa-43f8-ae73-04061f76318d"},"vehicle_type_id":"4","last_reported":1758816778,"current_range_meters":17600,"station_id":"","pricing_plan_id":"cebpf4jnsgd1na2vs0mg"},{"bike_id":"03e3ea6b-94f7-4ff0-a853-2ddf770d20e3","system_id":"levelo_inurba_marseille","lat":43.28076,"lon":5.3966,"is_reserved":false,"is_disabled":false,"rental_uris":{"android":"levelo://app?vid=03e3ea6b-94f7-4ff0-a853-2ddf770d20e3","ios":"levelo://app?vid=03e3ea6b-94f7-4ff0-a853-2ddf770d20e3"},"vehicle_type_id":"4","last_reported":1758816778,"current_range_meters":17600,"station_id":"ce4bho12rcd13ifvqh2g","pricing_plan_id":"cebpf4jnsgd1na2vs0mg"},{"bike_id":"208d8654-3228-40c7-b9c8-8618c2e5fa52","system_id":"levelo_inurba_marseille","lat":43.28634,"lon":5.38271,"is_reserved":false,"is_disabled":false,"rental_uris":{"android":"levelo://app?vid=208d8654-3228-40c7-b9c8-8618c2e5fa52","ios":"levelo://app?vid=208d8654-3228-40c7-b9c8-8618c2e5fa52"},"vehicle_type_id":"4","last_reported":1758816778,"current_range_meters":17600,"station_id":"","pricing_plan_id":"cebpf4jnsgd1na2vs0mg"},{"bike_id":"10b8d871-07e9-4114-9eb9-6bcce40e7beb","system_id":"levelo_inurba_marseille","lat":43.27045,"lon":5.392226,"is_reserved":false,"is_disabled":false,"rental_uris":{"android":"levelo://app?vid=10b8d871-07e9-4114-9eb9-6bcce40e7beb","ios":"levelo://app?vid=10b8d871-07e9-4114-9eb9-6bcce40e7beb"},"vehicle_type_id":"4","last_reported":1758816778,"current_range_meters":17600,"station_id":"ce4bhe12rcd13ifvqf30","pricing_plan_id":"cebpf4jnsgd1na2vs0mg"},{"bike_id":"248a95b0-4ac5-493d-984f-f1ba803e2059","system_id":"levelo_inurba_marseille","lat":43.29224,"lon":5.36055,"is_reserved":false,"is_disabled":false,"rental_uris":{"android":"levelo://app?vid=248a95b0-4ac5-493d-984f-f1ba803e2059","ios":"levelo://app?vid=248a95b0-4ac5-493d-984f-f1ba803e2059"},