{"last_updated":1730556455,"ttl":60,"version":"2.2","data":{"bikes":[{"bike_id":"e56120f1-3807-41fd-8d4a-7abc85cc6b48","system_id":"levelo_inurba_marseille","lat":43.2827,"lon":5.35078,"is_reserved":false,"is_disabled":false,"rental_uris":{"android":"levelo://app?vid=e56120f1-3807-41fd-8d4a-7abc85cc6b48","ios":"levelo://app?vid=e56120f1-3807-41fd-8d4a-7abc85cc6b48"},"vehicle_type_id":"4","last_reported":1730556455,"current_range_meters":26800,"station_id":"ce4bhbp2rcd13ifvqerg","pricing_plan_id":"cebpf4jnsgd1na2vs0mg"},{"bike_id":"8edb629f-9edb-4e6d-8453-3a06eb0fc1e0","system_id":"levelo_inurba_marseille","lat":43.24672,"lon":5.38167,"is_reserved":false,"is_disabled":false,"rental_uris":{"android":"levelo://app?vid=8edb629f-9edb-4e6d-8453-3a06eb0fc1e0","ios":"levelo://app?vid=8edb629f-9edb-4e6d-8453-3a06eb0fc1e0"},"vehicle_type_id":"4","last_reported":1730556455,"current_range_meters":28400,"station_id":"ce4bhih2rcd13ifvqfr0","pricing_plan_id":"cebpf4jnsgd1na2vs0mg"},{"bike_id":"37ce3ac7-0b91-4a47-adb7-42ccea57d3b2","system_id":"levelo_inurba_marseille","lat":43.27381,"lon":5.36252,"is_reserved":false,"is_disabled":false,"rental_uris":{"android":"levelo://app?vid=37ce3ac7-0b91-4a47-adb7-42ccea57d3b2","ios":"levelo://app?vid=37ce3ac7-0b91-4a47-adb7-42ccea57d3b2"},"vehicle_type_id":"4","last_reported":1730556455,"current_range_meters":18800,"station_id":"ce4bhbh2rcd13ifvqeo0","pricing_plan_id":"cebpf4jnsgd1na2vs0mg"},{"bike_id":"032c4db8-b3d6-4d60-bd9a-b02b04645aa6","system_id":"levelo_inurba_marseille","lat":43.27375,"lon":5.36251,"is_reserved":false,"is_disabled":false,"rental_uris":{"android":"levelo://app?vid=032c4db8-b3d6-4d60-bd9a-b02b04645aa6","ios":"levelo://app?vid=032c4db8-b3d6-4d60-bd9a-b02b04645aa6"},"vehicle_type_id":"4","last_reported":1730556455,"current_range_meters":24400,"station_id":"ce4bhbh2rcd13ifvqeo0","pricing_plan_id":"cebpf4jnsgd1na2vs0mg"},{"bike_id":"02fe0e86-bc31-4b56-981a-890ed6cd1c76","system_id":"levelo_inurba_marseille","lat":43.32662,"lon":5.40984,"is_reserved":false,"is_disabled":false,"rental_uris":{"android":"levelo://app?vid=02fe0e86-bc31-4b56-981a-890ed6cd1c76","ios":"levelo://app?vid=02fe0e86-bc31-4b56-981a-890ed6cd1c76"},"vehicle_type_id":"4","last_reported":1730556455,"current_range_meters":8400,"station_id":"ce4bhpp2rcd13ifvqhgg","pricing_plan_id":"cebpf4jnsgd1na2vs0mg"},{"bike_id":"8682c02d-b75e-4986-bf40-c0b0cf6578e7","system_id":"levelo_inurba_marseille","lat":43.32108,"lon":5.36775,"is_reserved":false,"is_disabled":false,"rental_uris":{"android":"levelo://app?vid=8682c02d-b75e-4986-bf40-c0b0cf6578e7","ios":"levelo://app?vid=8682c02d-b75e-4986-bf40-c0b0cf6578e7"},"vehicle_type_id":"4","last_reported":1730556455,"current_range_meters":38000,"station_id":"ce4bhrh2rcd13ifvqhug","pricing_plan_id":"cebpf4jnsgd1na2vs0mg"},{"bike_id":"dbd026cc-4570-4761-bfa1-68dae00b3a97","system_id":"levelo_inurba_marseille","lat":43.305283,"lon":5.365393,"is_reserved":false,"is_disabled":false,"rental_uris":{"android":"levelo://app?vid=dbd026cc-4570-4761-bfa1-68dae00b3a97","ios":"levelo://app?vid=dbd026cc-4570-4761-bfa1-68dae00b3a97"},"vehicle_type_id":"4","last_reported":1730556455,"current_range_meters":38800,"station_id":"ce4bgs12rcd13ifvqcag","pricing_plan_id":"cebpf4jnsgd1na2vs0mg"},{"bike_id":"9544e8e1-810b-40e5-8e45-0e98bf35fbaa","system_id":"levelo_inurba_marseille","lat":43.30135,"lon":5.37422,"is_reserved":false,"is_disabled":false,"rental_uris":{"android":"levelo://app?vid=9544e8e1-810b-40e5-8e45-0e98bf35fbaa","ios":"levelo://app?vid=9544e8e1-810b-40e5-8e45-0e98bf35fbaa"},"vehicle_type_id":"4","last_reported":1730556455,"current_range_meters":37600,"station_id":"ce4bgs92rcd13ifvqcc0","pricing_plan_id":"cebpf4jnsgd1na2vs0mg"},{"bike_id":"1c7235cb-2316-4435-98f3-50e51cf4474c","system_id":"levelo_inurba_marseille","lat":43.26556,"lon":5.37285,"is_reserved":false,"is_disabled":false,"rental_uris":{"android":"levelo://app?vid=1c7235cb-2316-4435-98f3-50e51cf4474c","ios":"levelo://app?vid=1c7235cb-2316-4435-98f3-50e51cf4474c"},"vehicle_type_id":"4","last_reported":1730556455,"current_range_meters":8000,"station_id":"ce4bhg12rcd13ifvqf70","pricing_plan_id":"cebpf4jnsgd1na2vs0mg"},{"bike_id":"ae2ccb33-795f-44d2-a6c0-9c58090a88ce","system_id":"levelo_inurba_marseille","lat":43.2439,"lon":5.37045,"is_reserved":false,"is_disabled":false,"rental_uris":{"android":"levelo://app?vid=ae2ccb33-795f-44d2-a6c0-9c58090a88ce","ios":"levelo://app?vid=ae2ccb33-795f-44d2-a6c0-9c58090a88ce"},"vehicle_type_id":"4","last_reported":1730556455,"current_range_meters":32400,"station_id":"ce4bhhh2rcd13ifvqfk0","pricing_plan_id":"cebpf4jnsgd1na2vs0mg"},{"bike_id":"615d6bf6-418b-485f-937b-5a225c4b34f6","system_id":"levelo_inurba_marseille","lat":43.3046,"lon":5.379,"is_reserved":false,"is_disabled":false,"rental_uris":{"android":"levelo://app?vid=615d6bf6-418b-485f-937b-5a225c4b34f6","ios":"levelo://app?vid=615d6bf6-418b-485f-937b-5a225c4b34f6"},"vehicle_type_id":"4","last_reported":1730556455,"current_range_meters":34000,"station_id":"ce4bgup2rcd13ifvqcn0","pricing_plan_id":"cebpf4jnsgd1na2vs0mg"},{"bike_id":"cd3e86ad-d45b-4da8-8cd7-1ab0a47373f2","system_id":"levelo_inurba_marseille","lat":43.25718,"lon":5.41109,"is_reserved":false,"is_disabled":false,"rental_uris":{"android":"levelo://app?vid=cd3e86ad-d45b-4da8-8cd7-1ab0a47373f2","ios":"levelo://app?vid=cd3e86ad-d45b-4da8-8cd7-1ab0a47373f2"},"vehicle_type_id":"4","last_reported":1730556455,"current_range_meters":39200,"station_id":"ce4bhkp2rcd13ifvqgd0","pricing_plan_id":"cebpf4jnsgd1na2vs0mg"},{"bike_id":"84085d49-04c3-4f2c-ac36-950adf35bccd","system_id":"levelo_inurba_marseille","lat":43.26788,"lon":5.39411,"is_reserved":false,"is_disabled":false,"rental_uris":{"android":"levelo://app?vid=84085d49-04c3-4f2c-ac36-950adf35bccd","ios":"levelo://app?vid=84085d49-04c3-4f2c-ac36-950adf35bccd"},"vehicle_type_id":"4","last_reported":1730556455,"current_range_meters":6000,"station_id":"ce4bhh12rcd13ifvqfg0","pricing_plan_id":"cebpf4jnsgd1na2vs0mg"},{"bike_id":"89f6af82-5515-4acd-8115-73ec7f27cb46","system_id":"levelo_inurba_marseille","lat":43.26945,"lon":5.40251,"is_reserved":false,"is_disabled":false,"rental_uris":{"android":"levelo://app?vid=89f6af82-5515-4acd-8115-73ec7f27cb46","ios":"levelo://app?vid=89f6af82-5515-4acd-8115-73ec7f27cb46"},"vehicle_type_id":"4","last_reported":1730556455,"current_range_meters":28400,"station_id":"cjm6bp8fraef2m0cb0m0","pricing_plan_id":"cebpf4jnsgd1na2vs0mg"},{"bike_id":"a4627486-a087-47d1-bdea-e9476cd49986","system_id":"levelo_inurba_marseille","lat":43.23197,"lon":5.3555,"is_reserved":false,"is_disabled":false,"rental_uris":{"android":"levelo://app?vid=a4627486-a087-47d1-bdea-e9476cd49986","ios":"levelo://app?vid=a4627486-a087-47d1-bdea-e9476cd49986"},"vehicle_type_id":"4","last_reported":1730556455,"current_range_meters":27200,"station_id":"ce4bhu92rcd13ifvqi70","pricing_plan_id":"cebpf4jnsgd1na2vs0mg"},{"bike_id":"ae654449-1c08-4df0-8aa4-a718fc91a4d2","system_id":"levelo_inurba_marseille","lat":43.2905,"lon":5.35924,"is_reserved":false,"is_disabled":false,"rental_uris":{"android":"levelo://app?vid=ae654449-1c08-4df0-8aa4-a718fc91a4d2","ios":"levelo://app?vid=ae654449-1c08-4df0-8aa4-a718fc91a4d2"},"vehicle_type_id":"4","last_reported":1730556455,"current_range_meters":19200,"station_id":"ce4bha92rcd13ifvqeg0","pricing_plan_id":"cebpf4jnsgd1na2vs0mg"},{"bike_id":"509a9bdc-ca48-4855-8040-748bb9b3087b","system_id":"levelo_inurba_marseille","lat":43.25934,"lon":5.409,"is_reserved":false,"is_disabled":false,"rental_uris":{"android":"levelo://app?vid=509a9bdc-ca48-4855-8040-748bb9b3087b","ios":"levelo://app?vid=509a9bdc-ca48-4855-8040-748bb9b3087b"},"vehicle_type_id":"4","last_reported":1730556455,"current_range_meters":20000,"station_id":"ce4bhm92rcd13ifvqglg","pricing_plan_id":"cebpf4jnsgd1na2vs0mg"},{"bike_id":"2b2e6e87-bd18-4a7a-a7c7-3db057ae8e16","system_id":"levelo_inurba_marseille","lat":43.29613,"lon":5.37157,"is_reserved":false,"is_disabled":false,"rental_uris":{"android":"levelo://app?vid=2b2e6e87-bd18-4a7a-a7c7-3db057ae8e16","ios":"levelo://app?vid=2b2e6e87-bd18-4a7a-a7c7-3db057ae8e16"},"vehicle_type_id":"4","last_reported":1730556455,"current_range_meters":38800,"station_id":"ce4bgnh2rcd13ifvqc0g","pricing_plan_id":"cebpf4jnsgd1na2vs0mg"},{"bike_id":"8c6509b6-8196-4470-b566-6dbaf324417d","system_id":"levelo_inurba_marseille","lat":43.30477,"lon":5.37911,"is_reserved":false,"is_disabled":false,"rental_uris":{"android":"levelo://app?vid=8c6509b6-8196-4470-b566-6dbaf324417d","ios":"levelo://app?vid=8c6509b6-8196-4470-b566-6dbaf324417d"},"vehicle_type_id":"4","last_reported":1730556455,"current_range_meters":39200,"station_id":"ce4bgup2rcd13ifvqcn0","pricing_plan_id":"cebpf4jnsgd1na2vs0mg"},{"bike_id":"198657cb-dfe2-4960-98ba-591830066bbd","system_id":"levelo_inurba_marseille","lat":43.28157,"lon":5.42644,"is_reserved":false,"is_disabled":false,"rental_uris":{"android":"levelo://app?vid=198657cb-dfe2-4960-98ba-591830066bbd","ios":"levelo://app?vid=198657cb-dfe2-4960-98ba-591830066bbd"},"vehicle_type_id":"4","last_reported":1730556455,"current_range_meters":9200,"station_id":"","pricing_plan_id":"cebpf4jnsgd1na2vs0mg"},{"bike_id":"c728b923-65ff-4f3c-af65-445c0ab5ad59","system_id":"levelo_inurba_marseille","lat":43.28614,"lon":5.35106,"is_reserved":false,"is_disabled":false,"rental_uris":{"android":"levelo://app?vid=c728b923-65ff-4f3c-af65-445c0ab5ad59","ios":"levelo://app?vid=c728b923-65ff-4f3c-af65-445c0ab5ad59"},"vehicle_type_id":"4","last_reported":1730556455,"current_range_meters":34800,"station_id":"ce4bhch2rcd13ifvqeug","pricing_plan_id":"cebpf4jnsgd1na2vs0mg"},{"bike_id":"6aee0ce1-c7a0-45e8-a515-069ca31b3763","system_id":"levelo_inurba_marseille","lat":43.25735,"lon":5.41115,"is_reserved":false,"is_disabled":false,"rental_uris":{"android":"levelo://app?vid=6aee0ce1-c7a0-45e8-a515-069ca31b3763","ios":"levelo://app?vid=6aee0ce1-c7a0-45e8-a515-069ca31b3763"},"vehicle_type_id":"4","last_reported":1730556455,"current_range_meters":37600,"station_id":"ce4bhkp2rcd13ifvqgd0","pricing_plan_id":"cebpf4jnsgd1na2vs0mg"},{"bike_id":"03ecf539-acfb-438e-8e4a-2d04df101460","system_id":"levelo_inurba_marseille","lat":43.25492,"lon":5.37647,"is_reserved":false,"is_disabled":false,"rental_uris":{"android":"levelo://app?vid=03ecf539-acfb-438e-8e4a-2d04df101460","ios":"levelo://app?vid=03ecf539-acfb-438e-8e4a-2d04df101460"},"vehicle_type_id":"4","last_reported":1730556455,"current_range_meters":36400,"station_id":"ce4bhh12rcd13ifvqff0","pricing_plan_id":"cebpf4jnsgd1na2vs0mg"},{"bike_id":"5ab17023-8660-410b-88a5-127d565b058c","system_id":"levelo_inurba_marseille","lat":43.24171,"lon":5.36387,"is_reserved":false,"is_disabled":false,"rental_uris":{"android":"levelo://app?vid=5ab17023-8660-410b-88a5-127d565b058c","ios":"levelo://app?vid=5ab17023-8660-410b-88a5-127d565b058c"},"vehicle_type_id":"4","last_reported":1730556455,"current_range_meters":19600,"station_id":"cpo36qri1sfpv3e86is0","pricing_plan_id":"cebpf4jnsgd1na2vs0mg"},{"bike_id":"7d467372-7059-4321-81bc-a3b8c1dcaf52","system_id":"levelo_inurba_marseille","lat":43.29833,"lon":5.36263,"is_reserved":false,"is_disabled":false,"rental_uris":{"android":"levelo://app?vid=7d467372-7059-4321-81bc-a3b8c1dcaf52","ios":"levelo://app?vid=7d467372-7059-4321-81bc-a3b8c1dcaf52"},"vehicle_type_id":"4","last_reported":1730556455,"current_range_meters":36400,"station_id":"ce4bgpp2rcd13ifvqc3g","pricing_plan_id":"cebpf4jnsgd1na2vs0mg"},{"bike_id":"1c6c4ea4-1422-4f95-9fb3-989475604eaf","system_id":"levelo_inurba_marseille","lat":43.28272,"lon":5.35067,"is_reserved":false,"is_disabled":false,"rental_uris":{"android":"levelo://app?vid=1c6c4ea4-1422-4f95-9fb3-989475604eaf","ios":"levelo://app?vid=1c6c4ea4-1422-4f95-9fb3-989475604eaf"},"vehicle_type_id":"4","last_reported":1730556455,"current_range_meters":37600,"station_id":"ce4bhbp2rcd13ifvqerg","pricing_plan_id":"cebpf4jnsgd1na2vs0mg"},{"bike_id":"4f0de445-15e8-4d4f-b6cb-dd85cf93ce95","system_id":"levelo_inurba_marseille","lat":43.2984,"lon":5.36266,"is_reserved":false,"is_disabled":false,"rental_uris":{"android":"levelo://app?vid=4f0de445-15e8-4d4f-b6cb-dd85cf93ce95","ios":"levelo://app?vid=4f0de445-15e8-4d4f-b6cb-dd85cf93ce95"},"vehicle_type_id":"4","last_reported":1730556455,"current_range_meters":38800,"station_id":"ce4bgpp2rcd13ifvqc3g","pricing_plan_id":"cebpf4jnsgd1na2vs0mg"},{"bike_id":"415aad22-c206-4c34-b278-7a5c492c23e0","system_id":"levelo_inurba_marseille","lat":43.30835,"lon":5.37541,"is_reserved":false,"is_disabled":false,"rental_uris":{"android":"levelo://app?vid=415aad22-c206-4c34-b278-7a5c492c23e0","ios":"levelo://app?vid=415aad22-c206-4c34-b278-7a5c492c23e0"},"vehicle_type_id":"4","last_reported":1730556455,"current_range_meters":36400,"station_id":"","pricing_plan_id":"cebpf4jnsgd1na2vs0mg"},{"bike_id":"7f39b1a9-937f-4de6-9cb9-6fb824b11a9d","system_id":"levelo_inurba_marseille","lat":43.29269,"lon":5.36845,"is_reserved":false,"is_disabled":false,"rental_uris":{"android":"levelo://app?vid=7f39b1a9-937f-4de6-9cb9-6fb824b11a9d","ios":"levelo://app?vid=7f39b1a9-937f-4de6-9cb9-6fb824b11a9d"},"vehicle_type_id":"4","last_reported":1730556455,"current_range_meters":30400,"station_id":"ce4bhbp2rcd13ifvqesg","pricing_plan_id":"cebpf4jnsgd1na2vs0mg"},{"bike_id":"c0f9e7cc-9311-4a80-a452-3ffec7c1659e","system_id":"levelo_inurba_marseille","lat":43.25865,"lon":5.39899,"is_reserved":false,"is_disabled":false,"rental_uris":{"android":"levelo://app?vid=c0f9e7cc-9311-4a80-a452-3ffec7c1659e","ios":"levelo://app?vid=c0f9e7cc-9311-4a80-a452-3ffec7c1659e"},"vehicle_type_id":"4","last_reported":1730556455,"current_range_meters":24800,"station_id":"ce4bhl92rcd13ifvqghg","pricing_plan_id":"cebpf4jnsgd1na2vs0mg"},{"bike_id":"071a9def-d642-4768-a94f-6e5163be4c04","system_id":"levelo_inurba_marseille","lat":43.29277,"lon":5.36848,"is_reserved":false,"is_disabled":false,"rental_uris":{"android":"levelo://app?vid=071a9def-d642-4768-a94f-6e5163be4c04","ios":"levelo://app?vid=071a9def-d642-4768-a94f-6e5163be4c04"},"vehicle_type_id":"4","last_reported":1730556455,"current_range_meters":16800,"station_id":"ce4bhbp2rcd13ifvqesg","pricing_plan_id":"cebpf4jnsgd1na2vs0mg"},{"bike_id":"52856f06-780d-4d88-b7d7-1645a212efd1","system_id":"levelo_inurba_marseille","lat":43.27618,"lon":5.36113,"is_reserved":false,"is_disabled":false,"rental_uris":{"android":"levelo://app?vid=52856f06-780d-4d88-b7d7-1645a212efd1","ios":"levelo://app?vid=52856f06-780d-4d88-b7d7-1645a212efd1"},"vehicle_type_id":"4","last_reported":1730556455,"current_range_meters":23200,"station_id":"ce4bgj92rcd13ifvqbe0","pricing_plan_id":"cebpf4jnsgd1na2vs0mg"},{"bike_id":"a27537a9-293c-4729-b529-ba852433eb62","system_id":"levelo_inurba_marseille","lat":43.2827,"lon":5.35082,"is_reserved":false,"is_disabled":false,"rental_uris":{"android":"levelo://app?vid=a27537a9-293c-4729-b529-ba852433eb62","ios":"levelo://app?vid=a27537a9-293c-4729-b529-ba852433eb62"},"vehicle_type_id":"4","last_reported":1730556455,"current_range_meters":25600,"station_id":"ce4bhbp2rcd13ifvqerg","pricing_plan_id":"cebpf4jnsgd1na2vs0mg"},{"bike_id":"5c117c30-c9d4-4863-8fdc-81b90bc538d8","system_id":"levelo_inurba_marseille","lat":43.29225,"lon":5.36079,"is_reserved":false,"is_disabled":false,"rental_uris":{"android":"levelo://app?vid=5c117c30-c9d4-4863-8fdc-81b90bc538d8","ios":"levelo://app?vid=5c117c30-c9d4-4863-8fdc-81b90bc538d8"},"vehicle_type_id":"4","last_reported":1730556455,"current_range_meters":20400,"station_id":"ce4bhbh2rcd13ifvqeqg","pricing_plan_id":"cebpf4jnsgd1na2vs0mg"},{"bike_id":"dccc613c-7c9d-44fc-9625-47ccbc365073","system_id":"levelo_inurba_marseille","lat":43.27487,"lon":5.4246,"is_reserved":false,"is_disabled":false,"rental_uris":{"android":"levelo://app?vid=dccc613c-7c9d-44fc-9625-47ccbc365073","ios":"levelo://app?vid=dccc613c-7c9d-44fc-9625-47ccbc365073"},"vehicle_type_id":"4","last_reported":1730556455,"current_range_meters":36000,"station_id":"ce4bhn92rcd13ifvqgrg","pricing_plan_id":"cebpf4jnsgd1na2vs0mg"},{"bike_id":"1572999f-2282-494c-b835-dd81d7784e32","system_id":"levelo_inurba_marseille","lat":43.30422,"lon":5.41294,"is_reserved":false,"is_disabled":false,"rental_uris":{"android":"levelo://app?vid=1572999f-2282-494c-b835-dd81d7784e32","ios":"levelo://app?vid=1572999f-2282-494c-b835-dd81d7784e32"},"vehicle_type_id":"4","last_reported":1730556455,"current_range_meters":16800,"station_id":"ce4bhop2rcd13ifvqh8g","pricing_plan_id":"cebpf4jnsgd1na2vs0mg"},{"bike_id":"aba4f827-511c-4b17-a6dc-67e175842f39","system_id":"levelo_inurba_marseille","lat":43.29899,"lon":5.38907,"is_reserved":false,"is_disabled":false,"rental_uris":{"android":"levelo://app?vid=aba4f827-511c-4b17-a6dc-67e175842f39","ios":"levelo://app?vid=aba4f827-511c-4b17-a6dc-67e175842f39"},"vehicle_type_id":"4","last_reported":1730556455,"current_range_meters":28400,"station_id":"ce4bh392rcd13ifvqdl0","pricing_plan_id":"cebpf4jnsgd1na2vs0mg"},{"bike_id":"80380532-68c2-4c6a-b44b-6a09f25c96fe","system_id":"levelo_inurba_marseille","lat":43.31689,"lon":5.4047,"is_reserved":false,"is_disabled":false,"rental_uris":{"android":"levelo://app?vid=80380532-68c2-4c6a-b44b-6a09f25c96fe","ios":"levelo://app?vid=80380532-68c2-4c6a-b44b-6a09f25c96fe"},"vehicle_type_id":"4","last_reported":1730556455,"current_range_meters":38800,"station_id":"ce4bh012rcd13ifvqd00","pricing_plan_id":"cebpf4jnsgd1na2vs0mg"},{"bike_id":"cd9991c3-5a78-476b-aba2-9b5c478cd010","system_id":"levelo_inurba_marseille","lat":43.29531,"lon":5.38546,"is_reserved":false,"is_disabled":false,"rental_uris":{"android":"levelo://app?vid=cd9991c3-5a78-476b-aba2-9b5c478cd010","ios":"levelo://app?vid=cd9991c3-5a78-476b-aba2-9b5c478cd010"},"vehicle_type_id":"4","last_reported":1730556455,"current_range_meters":38800,"station_id":"ce4bgih2rcd13ifvqba0","pricing_plan_id":"cebpf4jnsgd1na2vs0mg"},{"bike_id":"eb5e2aff-2352-4549-8c33-6fb0bfb3dc35","system_id":"levelo_inurba_marseille","lat":43.24388,"lon":5.37067,"is_reserved":false,"is_disabled":false,"rental_uris":{"android":"levelo://app?vid=eb5e2aff-2352-4549-8c33-6fb0bfb3dc35","ios":"levelo://app?vid=eb5e2aff-2352-4549-8c33-6fb0bfb3dc35"},"vehicle_type_id":"4","last_reported":1730556455,"current_range_meters":24400,"station_id":"ce4bhhh2rcd13ifvqfk0","pricing_plan_id":"cebpf4jnsgd1na2vs0mg"},{"bike_id":"d18b06a2-e31b-4b03-b44c-5f86c8277850","system_id":"levelo_inurba_marseille","lat":43.26609,"lon":5.37357,"is_reserved":false,"is_disabled":false,"rental_uris":{"android":"levelo://app?vid=d18b06a2-e31b-4b03-b44c-5f86c8277850","ios":"levelo://app?vid=d18b06a2-e31b-4b03-b44c-5f86c8277850"},"vehicle_type_id":"4","last_reported":1730556455,"current_range_meters":38000,"station_id":"ce4bhg12rcd13ifvqf70","pricing_plan_id":"cebpf4jnsgd1na2vs0mg"},{"bike_id":"32eb5427-083d-4aaa-badb-f12e29b0ca80","system_id":"levelo_inurba_marseille","lat":43.2926,"lon":5.3844,"is_reserved":false,"is_disabled":false,"rental_uris":{"android":"levelo://app?vid=32eb5427-083d-4aaa-badb-f12e29b0ca80","ios":"levelo://app?vid=32eb5427-083d-4aaa-badb-f12e29b0ca80"},"vehicle_type_id":"4","last_reported":1730556455,"current_range_meters":22800,"station_id":"ce4bh692rcd13ifvqea0","pricing_plan_id":"cebpf4jnsgd1na2vs0mg"},{"bike_id":"7c8b1384-6e43-45de-a029-5edf8eef4b35","system_id":"levelo_inurba_marseille","lat":43.29006,"lon":5.3561,"is_reserved":false,"is_disabled":false,"rental_uris":{"android":"levelo://app?vid=7c8b1384-6e43-45de-a029-5edf8eef4b35","ios":"levelo://app?vid=7c8b1384-6e43-45de-a029-5edf8eef4b35"},"vehicle_type_id":"4","last_reported":1730556455,"current_range_meters":16800,"station_id":"ce4bhb92rcd13ifvqen0","pricing_plan_id":"cebpf4jnsgd1na2vs0mg"},{"bike_id":"ad27a309-825b-48cf-b531-54c6b8b4f6b8","system_id":"levelo_inurba_marseille","lat":43.2761,"lon":5.36117,"is_reserved":false,"is_disabled":false,"rental_uris":{"android":"levelo://app?vid=ad27a309-825b-48cf-b531-54c6b8b4f6b8","ios":"levelo://app?vid=ad27a309-825b-48cf-b531-54c6b8b4f6b8"},"vehicle_type_id":"4","last_reported":1730556455,"current_range_meters":10800,"station_id":"ce4bgj92rcd13ifvqbe0","pricing_plan_id":"cebpf4jnsgd1na2vs0mg"},{"bike_id":"ecfa560e-2684-4e47-b638-39832417ebb8","system_id":"levelo_inurba_marseille","lat":43.28271,"lon":5.35078,"is_reserved":false,"is_disabled":false,"rental_uris":{"android":"levelo://app?vid=ecfa560e-2684-4e47-b638-39832417ebb8","ios":"levelo://app?vid=ecfa560e-2684-4e47-b638-39832417ebb8"},"vehicle_type_id":"4","last_reported":1730556455,"current_range_meters":18800,"station_id":"ce4bhbp2rcd13ifvqerg","pricing_plan_id":"cebpf4jnsgd1na2vs0mg"},{"bike_id":"f1d6a245-6de6-4b14-a3f1-91c3c8b2f300","system_id":"levelo_inurba_marseille","lat":43.27567,"lon":5.38434,"is_reserved":false,"is_disabled":false,"rental_uris":{"android":"levelo://app?vid=f1d6a245-6de6-4b14-a3f1-91c3c8b2f300","ios":"levelo://app?vid=f1d6a245-6de6-4b14-a3f1-91c3c8b2f300"},"vehicle_type_id":"4","last_reported":1730556455,"current_range_meters":29600,"station_id":"ce4bhh92rcd13ifvqfi0","pricing_plan_id":"cebpf4jnsgd1na2vs0mg"},{"bike_id":"4dd74b80-423d-4a82-8b5a-fef5ebd97f46","system_id":"levelo_inurba_marseille","lat":43.24385,"lon":5.37056,"is_reserved":false,"is_disabled":false,"rental_uris":{"android":"levelo://app?vid=4dd74b80-423d-4a82-8b5a-fef5ebd97f46","ios":"levelo://app?vid=4dd74b80-423d-4a82-8b5a-fef5ebd97f46"},"vehicle_type_id":"4","last_reported":1730556455,"current_range_meters":22400,"station_id":"ce4bhhh2rcd13ifvqfk0","pricing_plan_id":"cebpf4jnsgd1na2vs0mg"},{"bike_id":"6e04ac4c-c8e9-4c42-b357-81938231659f","system_id":"levelo_inurba_marseille","lat":43.26558,"lon":5.37283,"is_reserved":false,"is_disabled":false,"rental_uris":{"android":"levelo://app?vid=6e04ac4c-c8e9-4c42-b357-81938231659f","ios":"levelo://app?vid=6e04ac4c-c8e9-4c42-b357-81938231659f"},"vehicle_type_id":"4","last_reported":1730556455,"current_range_meters":38800,"station_id":"ce4bhg12rcd13ifvqf70","pricing_plan_id":"cebpf4jnsgd1na2vs0mg"},{"bike_id":"8332221e-497a-411c-8f4b-c7869bd3c71b","system_id":"levelo_inurba_marseille","lat":43.275577,"lon":5.389538,"is_reserved":false,"is_disabled":false,"rental_uris":{"android":"levelo://app?vid=8332221e-497a-411c-8f4b-c7869bd3c71b","ios":"levelo://app?vid=8332221e-497a-411c-8f4b-c7869bd3c71b"},"vehicle_type_id":"4","last_reported":1730556455,"current_range_meters":20800,"station_id":"ce4bhjp2rcd13ifvqga0","pricing_plan_id":"cebpf4jnsgd1na2vs0mg"},{"bike_id":"8dcd6a18-2c6c-46f8-8cf3-a9465daa6785","system_id":"levelo_inurba_marseille","lat":43.28463,"lon":5.35887,"is_reserved":false,"is_disabled":false,"rental_uris":{"android":"levelo://app?vid=8dcd6a18-2c6c-46f8-8cf3-a9465daa6785","ios":"levelo://app?vid=8dcd6a18-2c6c-46f8-8cf3-a9465daa6785"},"vehicle_type_id":"4","last_reported":1730556455,"current_range_meters":38800,"station_id":"ce4bhah2rcd13ifvqei0","pricing_plan_id":"cebpf4jnsgd1na2vs0mg"},{"bike_id":"4e852d9a-bfc9-4489-8ad4-f24b3e3a9351","system_id":"levelo_inurba_marseille","lat":43.29762,"lon":5.37097,"is_reserved":false,"is_disabled":false,"rental_uris":{"android":"levelo://app?vid=4e852d9a-bfc9-4489-8ad4-f24b3e3a9351","ios":"levelo://app?vid=4e852d9a-bfc9-4489-8ad4-f24b3e3a9351"},"vehicle_type_id":"4","last_reported":1730556455,"current_range_meters":16000,"station_id":"ce4bgop2rcd13ifvqc1g","pricing_plan_id":"cebpf4jnsgd1na2vs0mg"},{"bike_id":"ba745c96-3de6-45f0-92b1-f41c3a9382aa","system_id":"levelo_inurba_marseille","lat":43.2549,"lon":5.37645,"is_reserved":false,"is_disabled":false,"rental_uris":{"android":"levelo://app?vid=ba745c96-3de6-45f0-92b1-f41c3a9382aa","ios":"levelo://app?vid=ba745c96-3de6-45f0-92b1-f41c3a9382aa"},"vehicle_type_id":"4","last_reported":1730556455,"current_range_meters":12000,"station_id":"ce4bhh12rcd13ifvqff0","pricing_plan_id":"cebpf4jnsgd1na2vs0mg"},{"bike_id":"6d6f3741-7b88-43b3-95e7-fc6649c3fc79","system_id":"levelo_inurba_marseille","lat":43.3112,"lon":5.37772,"is_reserved":false,"is_disabled":false,"rental_uris":{"android":"levelo://app?vid=6d6f3741-7b88-43b3-95e7-fc6649c3fc79","ios":"levelo://app?vid=6d6f3741-7b88-43b3-95e7-fc6649c3fc79"},"vehicle_type_id":"4","last_reported":1730556455,"current_range_meters":38800,"station_id":"ce4bgt92rcd13ifvqcg0","pricing_plan_id":"cebpf4jnsgd1na2vs0mg"},{"bike_id":"39be4061-4f3f-4a23-8131-369bba8f1d61","system_id":"levelo_inurba_marseille","lat":43.27675,"lon":5.38891,"is_reserved":false,"is_disabled":false,"rental_uris":{"android":"levelo://app?vid=39be4061-4f3f-4a23-8131-369bba8f1d61","ios":"levelo://app?vid=39be4061-4f3f-4a23-8131-369bba8f1d61"},"vehicle_type_id":"4","last_reported":1730556455,"current_range_meters":6000,"station_id":"ce4bhi12rcd13ifvqfo0","pricing_plan_id":"cebpf4jnsgd1na2vs0mg"},{"bike_id":"f609db10-d365-48ba-8a60-631d29005da7","system_id":"levelo_inurba_marseille","lat":43.27381,"lon":5.36257,"is_reserved":false,"is_disabled":false,"rental_uris":{"android":"levelo://app?vid=f609db10-d365-48ba-8a60-631d29005da7","ios":"levelo://app?vid=f609db10-d365-48ba-8a60-631d29005da7"},"vehicle_type_id":"4","last_reported":1730556455,"current_range_meters":8400,"station_id":"ce4bhbh2rcd13ifvqeo0","pricing_plan_id":"cebpf4jnsgd1na2vs0mg"},{"bike_id":"cd9c51c3-66f1-4423-a637-2a576f24f89d","system_id":"levelo_inurba_marseille","lat":43.2707,"lon":5.42287,"is_reserved":false,"is_disabled":false,"rental_uris":{"android":"levelo://app?vid=cd9c51c3-66f1-4423-a637-2a576f24f89d","ios":"levelo://app?vid=cd9c51c3-66f1-4423-a637-2a576f24f89d"},"vehicle_type_id":"4","last_reported":1730556455,"current_range_meters":10800,"station_id":"ce4bhk92rcd13ifvqgb0","pricing_plan_id":"cebpf4jnsgd1na2vs0mg"},{"bike_id":"7ae89f74-df1b-4053-8ff0-ae2dd7c2848a","system_id":"levelo_inurba_marseille","lat":43.30282,"lon":5.37707,"is_reserved":false,"is_disabled":false,"rental_uris":{"android":"levelo://app?vid=7ae89f74-df1b-4053-8ff0-ae2dd7c2848a","ios":"levelo://app?vid=7ae89f74-df1b-4053-8ff0-ae2dd7c2848a"},"vehicle_type_id":"4","last_reported":1730556455,"current_range_meters":22400,"station_id":"ce4bguh2rcd13ifvqcj0","pricing_plan_id":"cebpf4jnsgd1na2vs0mg"},{"bike_id":"e07697b1-f95f-41d5-8531-9f69a446e6ad","system_id":"levelo_inurba_marseille","lat":43.28271,"lon":5.35071,"is_reserved":false,"is_disabled":false,"rental_uris":{"android":"levelo://app?vid=e07697b1-f95f-41d5-8531-9f69a446e6ad","ios":"levelo://app?vid=e07697b1-f95f-41d5-8531-9f69a446e6ad"},"vehicle_type_id":"4","last_reported":1730556455,"current_range_meters":33200,"station_id":"ce4bhbp2rcd13ifvqerg","pricing_plan_id":"cebpf4jnsgd1na2vs0mg"},{"bike_id":"d69eef29-33f1-400b-9dbd-e583b4f600d8","system_id":"levelo_inurba_marseille","lat":43.2465,"lon":5.38904,"is_reserved":false,"is_disabled":false,"rental_uris":{"android":"levelo://app?vid=d69eef29-33f1-400b-9dbd-e583b4f600d8","ios":"levelo://app?vid=d69eef29-33f1-400b-9dbd-e583b4f600d8"},"vehicle_type_id":"4","last_reported":1730556455,"current_range_meters":38800,"station_id":"ce4bhg12rcd13ifvqf60","pricing_plan_id":"cebpf4jnsgd1na2vs0mg"},{"bike_id":"eb7ad57f-44c5-453a-818a-9d84e7a936ef","system_id":"levelo_inurba_marseille","lat":43.30539,"lon":5.3654,"is_reserved":false,"is_disabled":false,"rental_uris":{"android":"levelo://app?vid=eb7ad57f-44c5-453a-818a-9d84e7a936ef","ios":"levelo://app?vid=eb7ad57f-44c5-453a-818a-9d84e7a936ef"},"vehicle_type_id":"4","last_reported":1730556455,"current_range_meters":25600,"station_id":"ce4bgs12rcd13ifvqcag","pricing_plan_id":"cebpf4jnsgd1na2vs0mg"},{"bike_id":"e515cc14-ec45-4493-a6ef-e8658b9cbc95","system_id":"levelo_inurba_marseille","lat":43.26206,"lon":5.37932,"is_reserved":false,"is_disabled":false,"rental_uris":{"android":"levelo://app?vid=e515cc14-ec45-4493-a6ef-e8658b9cbc95","ios":"levelo://app?vid=e515cc14-ec45-4493-a6ef-e8658b9cbc95"},"vehicle_type_id":"4","last_reported":1730556455,"current_range_meters":38400,"station_id":"ce4bhjp2rcd13ifvqg90","pricing_plan_id":"cebpf4jnsgd1na2vs0mg"},{"bike_id":"3c9b25a2-27ea-4952-ae38-cfc4538da70c","system_id":"levelo_inurba_marseille","lat":43.241644,"lon":5.363965,"is_reserved":false,"is_disabled":false,"rental_uris":{"android":"levelo://app?vid=3c9b25a2-27ea-4952-ae38-cfc4538da70c","ios":"levelo://app?vid=3c9b25a2-27ea-4952-ae38-cfc4538da70c"},"vehicle_type_id":"4","last_reported":1730556455,"current_range_meters":27600,"station_id":"cpo36qri1sfpv3e86is0","pricing_plan_id":"cebpf4jnsgd1na2vs0mg"},{"bike_id":"99b34e1f-9e1b-4352-a35e-54e99460fdd9","system_id":"levelo_inurba_marseille","lat":43.28267,"lon":5.35085,"is_reserved":false,"is_disabled":false,"rental_uris":{"android":"levelo://app?vid=99b34e1f-9e1b-4352-a35e-54e99460fdd9","ios":"levelo://app?vid=99b34e1f-9e1b-4352-a35e-54e99460fdd9"},"vehicle_type_id":"4","last_reported":1730556455,"current_range_meters":28000,"station_id":"ce4bhbp2rcd13ifvqerg","pricing_plan_id":"cebpf4jnsgd1na2vs0mg"},{"bike_id":"c90dd512-be3d-4197-a4ff-49e1467cf48c","system_id":"levelo_inurba_marseille","lat":43.3047,"lon":5.37914,"is_reserved":false,"is_disabled":false,"rental_uris":{"android":"levelo://app?vid=c90dd512-be3d-4197-a4ff-49e1467cf48c","ios":"levelo://app?vid=c90dd512-be3d-4197-a4ff-49e1467cf48c"},"vehicle_type_id":"4","last_reported":1730556455,"current_range_meters":36800,"station_id":"ce4bgup2rcd13ifvqcn0","pricing_plan_id":"cebpf4jnsgd1na2vs0mg"},{"bike_id":"6a2b518f-0149-4299-a228-a5890a1b919f","system_id":"levelo_inurba_marseille","lat":43.30425,"lon":5.39758,"is_reserved":false,"is_disabled":false,"rental_uris":{"android":"levelo://app?vid=6a2b518f-0149-4299-a228-a5890a1b919f","ios":"levelo://app?vid=6a2b518f-0149-4299-a228-a5890a1b919f"},"vehicle_type_id":"4","last_reported":1730556455,"current_range_meters":39200,"station_id":"ce4bh092rcd13ifvqd20","pricing_plan_id":"cebpf4jnsgd1na2vs0mg"},{"bike_id":"6c06e156-1e8f-418a-8055-90762e65eb89","system_id":"levelo_inurba_marseille","lat":43.29042,"lon":5.35912,"is_reserved":false,"is_disabled":false,"rental_uris":{"android":"levelo://app?vid=6c06e156-1e8f-418a-8055-90762e65eb89","ios":"levelo://app?vid=6c06e156-1e8f-418a-8055-90762e65eb89"},"vehicle_type_id":"4","last_reported":1730556455,"current_range_meters":17200,"station_id":"ce4bha92rcd13ifvqeg0","pricing_plan_id":"cebpf4jnsgd1na2vs0mg"},{"bike_id":"658dacf4-7ef3-4634-8126-9bbd88e5a6eb","system_id":"levelo_inurba_marseille","lat":43.23196,"lon":5.35545,"is_reserved":false,"is_disabled":false,"rental_uris":{"android":"levelo://app?vid=658dacf4-7ef3-4634-8126-9bbd88e5a6eb","ios":"levelo://app?vid=658dacf4-7ef3-4634-8126-9bbd88e5a6eb"},"vehicle_type_id":"4","last_reported":1730556455,"current_range_meters":18800,"station_id":"ce4bhu92rcd13ifvqi70","pricing_plan_id":"cebpf4jnsgd1na2vs0mg"},{"bike_id":"6792bc93-230c-4def-ac36-4b932ec7eafa","system_id":"levelo_inurba_marseille","lat":43.30209,"lon":5.39454,"is_reserved":false,"is_disabled":false,"rental_uris":{"android":"levelo://app?vid=6792bc93-230c-4def-ac36-4b932ec7eafa","ios":"levelo://app?vid=6792bc93-230c-4def-ac36-4b932ec7eafa"},"vehicle_type_id":"4","last_reported":1730556455,"current_range_meters":11200,"station_id":"ce4bh0p2rcd13ifvqd70","pricing_plan_id":"cebpf4jnsgd1na2vs0mg"},{"bike_id":"17248b28-8f06-448b-adb7-c72f419e577e","system_id":"levelo_inurba_marseille","lat":43.25576,"lon":5.3824,"is_reserved":false,"is_disabled":false,"rental_uris":{"android":"levelo://app?vid=17248b28-8f06-448b-adb7-c72f419e577e","ios":"levelo://app?vid=17248b28-8f06-448b-adb7-c72f419e577e"},"vehicle_type_id":"4","last_reported":1730556455,"current_range_meters":9200,"station_id":"ce4bhih2rcd13ifvqfs0","pricing_plan_id":"cebpf4jnsgd1na2vs0mg"},{"bike_id":"fa1232ca-5715-42c4-984f-624a8552d886","system_id":"levelo_inurba_marseille","lat":43.32293,"lon":5.3827,"is_reserved":false,"is_disabled":false,"rental_uris":{"android":"levelo://app?vid=fa1232ca-5715-42c4-984f-624a8552d886","ios":"levelo://app?vid=fa1232ca-5715-42c4-984f-624a8552d886"},"vehicle_type_id":"4","last_reported":1730556455,"current_range_meters":38800,"station_id":"ce4bhr12rcd13ifvqhqg","pricing_plan_id":"cebpf4jnsgd1na2vs0mg"},{"bike_id":"378addf0-76a7-4c97-baa9-5c7edd0acca4","system_id":"levelo_inurba_marseille","lat":43.31711,"lon":5.40465,"is_reserved":false,"is_disabled":false,"rental_uris":{"android":"levelo://app?vid=378addf0-76a7-4c97-baa9-5c7edd0acca4","ios":"levelo://app?vid=378addf0-76a7-4c97-baa9-5c7edd0acca4"},"vehicle_type_id":"4","last_reported":1730556455,"current_range_meters":38800,"station_id":"ce4bh012rcd13ifvqd00","pricing_plan_id":"cebpf4jnsgd1na2vs0mg"},{"bike_id":"d53c1efc-1780-42b2-bd05-17084930abb0","system_id":"levelo_inurba_marseille","lat":43.31231,"lon":5.36866,"is_reserved":false,"is_disabled":false,"rental_uris":{"android":"levelo://app?vid=d53c1efc-1780-42b2-bd05-17084930abb0","ios":"levelo://app?vid=d53c1efc-1780-42b2-bd05-17084930abb0"},"vehicle_type_id":"4","last_reported":1730556455,"current_range_meters":39200,"station_id":"ce4bgl92rcd13ifvqbq0","pricing_plan_id":"cebpf4jnsgd1na2vs0mg"},{"bike_id":"f493fcf3-d01a-4471-8350-8f1edd0382a9","system_id":"levelo_inurba_marseille","lat":43.23151,"lon":5.43726,"is_reserved":false,"is_disabled":false,"rental_uris":{"android":"levelo://app?vid=f493fcf3-d01a-4471-8350-8f1edd0382a9","ios":"levelo://app?vid=f493fcf3-d01a-4471-8350-8f1edd0382a9"},"vehicle_type_id":"4","last_reported":1730556455,"current_range_meters":39200,"station_id":"ce4bhmp2rcd13ifvqgog","pricing_plan_id":"cebpf4jnsgd1na2vs0mg"},{"bike_id":"a098e981-a813-44c3-a67c-669c13995034","system_id":"levelo_inurba_marseille","lat":43.29256,"lon":5.40904,"is_reserved":false,"is_disabled":false,"rental_uris":{"android":"levelo://app?vid=a098e981-a813-44c3-a67c-669c13995034","ios":"levelo://app?vid=a098e981-a813-44c3-a67c-669c13995034"},"vehicle_type_id":"4","last_reported":1730556455,"current_range_meters":10000,"station_id":"ce4bh192rcd13ifvqdc0","pricing_plan_id":"cebpf4jnsgd1na2vs0mg"},{"bike_id":"ce306eaa-e968-4e02-a267-fe16179ced44","system_id":"levelo_inurba_marseille","lat":43.30132,"lon":5.37419,"is_reserved":false,"is_disabled":false,"rental_uris":{"android":"levelo://app?vid=ce306eaa-e968-4e02-a267-fe16179ced44","ios":"levelo://app?vid=ce306eaa-e968-4e02-a267-fe16179ced44"},"vehicle_type_id":"4","last_reported":1730556455,"current_range_meters":14400,"station_id":"ce4bgs92rcd13ifvqcc0","pricing_plan_id":"cebpf4jnsgd1na2vs0mg"},{"bike_id":"1c5a55f6-fa70-42a9-8229-60ea5f15ac2f","system_id":"levelo_inurba_marseille","lat":43.26057,"lon":5.39405,"is_reserved":false,"is_disabled":false,"rental_uris":{"android":"levelo://app?vid=1c5a55f6-fa70-42a9-8229-60ea5f15ac2f","ios":"levelo://app?vid=1c5a55f6-fa70-42a9-8229-60ea5f15ac2f"},"vehicle_type_id":"4","last_reported":1730556455,"current_range_meters":22000,"station_id":"ce4bhh92rcd13ifvqfj0","pricing_plan_id":"cebpf4jnsgd1na2vs0mg"},{"bike_id":"34ef6d6b-12c3-421a-befa-6fdd83de6a96","system_id":"levelo_inurba_marseille","lat":43.29043,"lon":5.35903,"is_reserved":false,"is_disabled":false,"rental_uris":{"android":"levelo://app?vid=34ef6d6b-12c3-421a-befa-6fdd83de6a96","ios":"levelo://app?vid=34ef6d6b-12c3-421a-befa-6fdd83de6a96"},"vehicle_type_id":"4","last_reported":1730556455,"current_range_meters":29600,"station_id":"ce4bha92rcd13ifvqeg0","pricing_plan_id":"cebpf4jnsgd1na2vs0mg"},{"bike_id":"b36c1dc6-4f09-4cc1-97f1-02557e940b39","system_id":"levelo_inurba_marseille","lat":43.27042,"lon":5.40284,"is_reserved":false,"is_disabled":false,"rental_uris":{"android":"levelo://app?vid=b36c1dc6-4f09-4cc1-97f1-02557e940b39","ios":"levelo://app?vid=b36c1dc6-4f09-4cc1-97f1-02557e940b39"},"vehicle_type_id":"4","last_reported":1730556455,"current_range_meters":38400,"station_id":"ce4bhk92rcd13ifvqgc0","pricing_plan_id":"cebpf4jnsgd1na2vs0mg"},{"bike_id":"2e8907c0-8f4f-4707-98c8-0128b04eb2a4","system_id":"levelo_inurba_marseille","lat":43.28425,"lon":5.34996,"is_reserved":false,"is_disabled":false,"rental_uris":{"android":"levelo://app?vid=2e8907c0-8f4f-4707-98c8-0128b04eb2a4","ios":"levelo://app?vid=2e8907c0-8f4f-4707-98c8-0128b04eb2a4"},"vehicle_type_id":"4","last_reported":1730556455,"current_range_meters":16800,"station_id":"ce4bhbh2rcd13ifvqepg","pricing_plan_id":"cebpf4jnsgd1na2vs0mg"},{"bike_id":"e280da99-b2b5-408f-b9bf-e17c85927f9c","system_id":"levelo_inurba_marseille","lat":43.30304,"lon":5.36905,"is_reserved":false,"is_disabled":false,"rental_uris":{"android":"levelo://app?vid=e280da99-b2b5-408f-b9bf-e17c85927f9c","ios":"levelo://app?vid=e280da99-b2b5-408f-b9bf-e17c85927f9c"},"vehicle_type_id":"4","last_reported":1730556455,"current_range_meters":29600,"station_id":"ce4bgqh2rcd13ifvqc5g","pricing_plan_id":"cebpf4jnsgd1na2vs0mg"},{"bike_id":"13204629-6f37-4fdc-ae71-efb691ec9cf2","system_id":"levelo_inurba_marseille","lat":43.27177,"lon":5.4099,"is_reserved":false,"is_disabled":false,"rental_uris":{"android":"levelo://app?vid=13204629-6f37-4fdc-ae71-efb691ec9cf2","ios":"levelo://app?vid=13204629-6f37-4fdc-ae71-efb691ec9cf2"},"vehicle_type_id":"4","last_reported":1730556455,"current_range_meters":39200,"station_id":"ce4bhl12rcd13ifvqgf0","pricing_plan_id":"cebpf4jnsgd1na2vs0mg"},{"bike_id":"5074764b-1508-4d0f-8c27-e00cc97a3ae3","system_id":"levelo_inurba_marseille","lat":43.24068,"lon":5.37774,"is_reserved":false,"is_disabled":false,"rental_uris":{"android":"levelo://app?vid=5074764b-1508-4d0f-8c27-e00cc97a3ae3","ios":"levelo://app?vid=5074764b-1508-4d0f-8c27-e00cc97a3ae3"},"vehicle_type_id":"4","last_reported":1730556455,"current_range_meters":14400,"station_id":"ce4bhnp2rcd13ifvqgvg","pricing_plan_id":"cebpf4jnsgd1na2vs0mg"},{"bike_id":"ef209de0-80b5-4af0-a9af-a170afbbaa81","system_id":"levelo_inurba_marseille","lat":43.29606,"lon":5.3772,"is_reserved":false,"is_disabled":false,"rental_uris":{"android":"levelo://app?vid=ef209de0-80b5-4af0-a9af-a170afbbaa81","ios":"levelo://app?vid=ef209de0-80b5-4af0-a9af-a170afbbaa81"},"vehicle_type_id":"4","last_reported":1730556455,"current_range_meters":36400,"station_id":"ce4bgi92rcd13ifvqb90","pricing_plan_id":"cebpf4jnsgd1na2vs0mg"},{"bike_id":"c2fdf6dc-4448-4da8-9269-f444f8e65bcc","system_id":"levelo_inurba_marseille","lat":43.30462,"lon":5.37913,"is_reserved":false,"is_disabled":false,"rental_uris":{"android":"levelo://app?vid=c2fdf6dc-4448-4da8-9269-f444f8e65bcc","ios":"levelo://app?vid=c2fdf6dc-4448-4da8-9269-f444f8e65bcc"},"vehicle_type_id":"4","last_reported":1730556455,"current_range_meters":38800,"station_id":"ce4bgup2rcd13ifvqcn0","pricing_plan_id":"cebpf4jnsgd1na2vs0mg"},{"bike_id":"a5ddc947-d21c-49a7-bb2f-b3f5184de1d0","system_id":"levelo_inurba_marseille","lat":43.26027,"lon":5.37547,"is_reserved":false,"is_disabled":false,"rental_uris":{"android":"levelo://app?vid=a5ddc947-d21c-49a7-bb2f-b3f5184de1d0","ios":"levelo://app?vid=a5ddc947-d21c-49a7-bb2f-b3f5184de1d0"},"vehicle_type_id":"4","last_reported":1730556455,"current_range_meters":38800,"station_id":"ce4bhgh2rcd13ifvqfa0","pricing_plan_id":"cebpf4jnsgd1na2vs0mg"},{"bike_id":"04dee499-a3c2-4a22-8f00-4eb87a2bbf10","system_id":"levelo_inurba_marseille","lat":43.24664,"lon":5.38167,"is_reserved":false,"is_disabled":false,"rental_uris":{"android":"levelo://app?vid=04dee499-a3c2-4a22-8f00-4eb87a2bbf10","ios":"levelo://app?vid=04dee499-a3c2-4a22-8f00-4eb87a2bbf10"},"vehicle_type_id":"4","last_reported":1730556455,"current_range_meters":9600,"station_id":"ce4bhih2rcd13ifvqfr0","pricing_plan_id":"cebpf4jnsgd1na2vs0mg"},{"bike_id":"41b96aca-2ea4-4301-87f9-c7535c49534b","system_id":"levelo_inurba_marseille","lat":43.29003,"lon":5.35615,"is_reserved":false,"is_disabled":false,"rental_uris":{"android":"levelo://app?vid=41b96aca-2ea4-4301-87f9-c7535c49534b","ios":"levelo://app?vid=41b96aca-2ea4-4301-87f9-c7535c49534b"},"vehicle_type_id":"4","last_reported":1730556455,"current_range_meters":32800,"station_id":"ce4bhb92rcd13ifvqen0","pricing_plan_id":"cebpf4jnsgd1na2vs0mg"},{"bike_id":"cc5a9cb4-1bb8-4c29-8ebe-e102934b04d0","system_id":"levelo_inurba_marseille","lat":43.26207,"lon":5.37454,"is_reserved":false,"is_disabled":false,"rental_uris":{"android":"levelo://app?vid=cc5a9cb4-1bb8-4c29-8ebe-e102934b04d0","ios":"levelo://app?vid=cc5a9cb4-1bb8-4c29-8ebe-e102934b04d0"},"vehicle_type_id":"4","last_reported":1730556455,"current_range_meters":8000,"station_id":"ce4bhgp2rcd13ifvqfc0","pricing_plan_id":"cebpf4jnsgd1na2vs0mg"},{"bike_id":"aa2f88be-26a6-4b72-9ff9-879642248b1f","system_id":"levelo_inurba_marseille","lat":43.287231,"lon":5.360917,"is_reserved":false,"is_disabled":false,"rental_uris":{"android":"levelo://app?vid=aa2f88be-26a6-4b72-9ff9-879642248b1f","ios":"levelo://app?vid=aa2f88be-26a6-4b72-9ff9-879642248b1f"},"vehicle_type_id":"4","last_reported":1730556455,"current_range_meters":31200,"station_id":"cki0cbj6b192h4jlfktg","pricing_plan_id":"cebpf4jnsgd1na2vs0mg"},{"bike_id":"e7f59d36-b4d3-482d-b5fb-9da08c3ef485","system_id":"levelo_inurba_marseille","lat":43.23151,"lon":5.43721,"is_reserved":false,"is_disabled":false,"rental_uris":{"android":"levelo://app?vid=e7f59d36-b4d3-482d-b5fb-9da08c3ef485","ios":"levelo://app?vid=e7f59d36-b4d3-482d-b5fb-9da08c3ef485"},"vehicle_type_id":"4","last_reported":1730556455,"current_range_meters":6400,"station_id":"ce4bhmp2rcd13ifvqgog","pricing_plan_id":"cebpf4jnsgd1na2vs0mg"},{"bike_id":"7eac6086-9c55-491f-b51a-f6d316539019","system_id":"levelo_inurba_marseille","lat":43.28614,"lon":5.35104,"is_reserved":false,"is_disabled":false,"rental_uris":{"android":"levelo://app?vid=7eac6086-9c55-491f-b51a-f6d316539019","ios":"levelo://app?vid=7eac6086-9c55-491f-b51a-f6d316539019"},"vehicle_type_id":"4","last_reported":1730556455,"current_range_meters":27200,"station_id":"ce4bhch2rcd13ifvqeug","pricing_plan_id":"cebpf4jnsgd1na2vs0mg"},{"bike_id":"e897136e-8c37-4f90-8788-9b6a3c81507d","system_id":"levelo_inurba_marseille","lat":43.23059,"lon":5.35493,"is_reserved":false,"is_disabled":false,"rental_uris":{"android":"levelo://app?vid=e897136e-8c37-4f90-8788-9b6a3c81507d","ios":"levelo://app?vid=e897136e-8c37-4f90-8788-9b6a3c81507d"},"vehicle_type_id":"4","last_reported":1730556455,"current_range_meters":29600,"station_id":"cpo3342slgdg3j2ifvpg","pricing_plan_id":"cebpf4jnsgd1na2vs0mg"},{"bike_id":"ca307028-0107-4684-88a7-8576221bd260","system_id":"levelo_inurba_marseille","lat":43.2901,"lon":5.35617,"is_reserved":false,"is_disabled":false,"rental_uris":{"android":"levelo://app?vid=ca307028-0107-4684-88a7-8576221bd260","ios":"levelo://app?vid=ca307028-0107-4684-88a7-8576221bd260"},"vehicle_type_id":"4","last_reported":1730556455,"current_range_meters":7200,"station_id":"ce4bhb92rcd13ifvqen0","pricing_plan_id":"cebpf4jnsgd1na2vs0mg"},{"bike_id":"02230dac-ebce-4aa4-9174-db473244d1bc","system_id":"levelo_inurba_marseille","lat":43.3302,"lon":5.39046,"is_reserved":false,"is_disabled":false,"rental_uris":{"android":"levelo://app?vid=02230dac-ebce-4aa4-9174-db473244d1bc","ios":"levelo://app?vid=02230dac-ebce-4aa4-9174-db473244d1bc"},"vehicle_type_id":"4","last_reported":1730556455,"current_range_meters":38000,"station_id":"ce4bhr92rcd13ifvqhrg","pricing_plan_id":"cebpf4jnsgd1na2vs0mg"},{"bike_id":"f313c068-4fc1-4505-bbd5-ae3055d331e6","system_id":"levelo_inurba_marseille","lat":43.304545,"lon":5.37905,"is_reserved":false,"is_disabled":false,"rental_uris":{"android":"levelo://app?vid=f313c068-4fc1-4505-bbd5-ae3055d331e6","ios":"levelo://app?vid=f313c068-4fc1-4505-bbd5-ae3055d331e6"},"vehicle_type_id":"4","last_reported":1730556455,"current_range_meters":38800,"station_id":"ce4bgup2rcd13ifvqcn0","pricing_plan_id":"cebpf4jnsgd1na2vs0mg"},{"bike_id":"f0365e39-da4f-4fcd-a178-7855790154f7","system_id":"levelo_inurba_marseille","lat":43.3014,"lon":5.37418,"is_reserved":false,"is_disabled":false,"rental_uris":{"android":"levelo://app?vid=f0365e39-da4f-4fcd-a178-7855790154f7","ios":"levelo://app?vid=f0365e39-da4f-4fcd-a178-7855790154f7"},"vehicle_type_id":"4","last_reported":1730556455,"current_range_meters":38800,"station_id":"ce4bgs92rcd13ifvqcc0","pricing_plan_id":"cebpf4jnsgd1na2vs0mg"},{"bike_id":"5d49116d-9ac2-4fe3-b140-1c8daccc859c","system_id":"levelo_inurba_marseille","lat":43.302817,"lon":5.377,"is_reserved":false,"is_disabled":false,"rental_uris":{"android":"levelo://app?vid=5d49116d-9ac2-4fe3-b140-1c8daccc859c","ios":"levelo://app?vid=5d49116d-9ac2-4fe3-b140-1c8daccc859c"},"vehicle_type_id":"4","last_reported":1730556455,"current_range_meters":38800,"station_id":"ce4bguh2rcd13ifvqcj0","pricing_plan_id":"cebpf4jnsgd1na2vs0mg"},{"bike_id":"8801d648-fc69-49cc-b287-26db96386ecd","system_id":"levelo_inurba_marseille","lat":43.26944,"lon":5.40253,"is_reserved":false,"is_disabled":false,"rental_uris":{"android":"levelo://app?vid=8801d648-fc69-49cc-b287-26db96386ecd","ios":"levelo://app?vid=8801d648-fc69-49cc-b287-26db96386ecd"},"vehicle_type_id":"4","last_reported":1730556455,"current_range_meters":20400,"station_id":"cjm6bp8fraef2m0cb0m0","pricing_plan_id":"cebpf4jnsgd1na2vs0mg"},{"bike_id":"aa7fa3a1-8ccc-4422-80a7-d901bb92256f","system_id":"levelo_inurba_marseille","lat":43.29843,"lon":5.36276,"is_reserved":false,"is_disabled":false,"rental_uris":{"android":"levelo://app?vid=aa7fa3a1-8ccc-4422-80a7-d901bb92256f","ios":"levelo://app?vid=aa7fa3a1-8ccc-4422-80a7-d901bb92256f"},"vehicle_type_id":"4","last_reported":1730556455,"current_range_meters":20000,"station_id":"ce4bgpp2rcd13ifvqc3g","pricing_plan_id":"cebpf4jnsgd1na2vs0mg"},{"bike_id":"11cdf20f-5b5f-4879-9af2-34d18e598ea4","system_id":"levelo_inurba_marseille","lat":43.25489,"lon":5.3765,"is_reserved":false,"is_disabled":false,"rental_uris":{"android":"levelo://app?vid=11cdf20f-5b5f-4879-9af2-34d18e598ea4","ios":"levelo://app?vid=11cdf20f-5b5f-4879-9af2-34d18e598ea4"},"vehicle_type_id":"4","last_reported":1730556455,"current_range_meters":35600,"station_id":"ce4bhh12rcd13ifvqff0","pricing_plan_id":"cebpf4jnsgd1na2vs0mg"},{"bike_id":"aa310a5a-41c8-4da1-a1b5-abc344fd5ec1","system_id":"levelo_inurba_marseille","lat":43.22921,"lon":5.353813,"is_reserved":false,"is_disabled":false,"rental_uris":{"android":"levelo://app?vid=aa310a5a-41c8-4da1-a1b5-abc344fd5ec1","ios":"levelo://app?vid=aa310a5a-41c8-4da1-a1b5-abc344fd5ec1"},"vehicle_type_id":"4","last_reported":1730556455,"current_range_meters":9600,"station_id":"cpo3532slgdg3j2ikp40","pricing_plan_id":"cebpf4jnsgd1na2vs0mg"},{"bike_id":"9ca12022-716a-4ed5-ac9c-2033946b0c38","system_id":"levelo_inurba_marseille","lat":43.29837,"lon":5.36274,"is_reserved":false,"is_disabled":false,"rental_uris":{"android":"levelo://app?vid=9ca12022-716a-4ed5-ac9c-2033946b0c38","ios":"levelo://app?vid=9ca12022-716a-4ed5-ac9c-2033946b0c38"},"vehicle_type_id":"4","last_reported":1730556455,"current_range_meters":39200,"station_id":"ce4bgpp2rcd13ifvqc3g","pricing_plan_id":"cebpf4jnsgd1na2vs0mg"},{"bike_id":"cf7522f5-c4e5-4ca3-adc5-ef2c57596f55","system_id":"levelo_inurba_marseille","lat":43.23202,"lon":5.35549,"is_reserved":false,"is_disabled":false,"rental_uris":{"android":"levelo://app?vid=cf7522f5-c4e5-4ca3-adc5-ef2c57596f55","ios":"levelo://app?vid=cf7522f5-c4e5-4ca3-adc5-ef2c57596f55"},"vehicle_type_id":"4","last_reported":1730556455,"current_range_meters":24400,"station_id":"ce4bhu92rcd13ifvqi70","pricing_plan_id":"cebpf4jnsgd1na2vs0mg"},{"bike_id":"f8eb9b70-700c-4a80-a371-63c24ad91afe","system_id":"levelo_inurba_marseille","lat":43.29051,"lon":5.35913,"is_reserved":false,"is_disabled":false,"rental_uris":{"android":"levelo://app?vid=f8eb9b70-700c-4a80-a371-63c24ad91afe","ios":"levelo://app?vid=f8eb9b70-700c-4a80-a371-63c24ad91afe"},"vehicle_type_id":"4","last_reported":1730556455,"current_range_meters":16000,"station_id":"ce4bha92rcd13ifvqeg0","pricing_plan_id":"cebpf4jnsgd1na2vs0mg"},{"bike_id":"896b9ac6-c1fa-4368-ba42-57972c747962","system_id":"levelo_inurba_marseille","lat":43.29056,"lon":5.37166,"is_reserved":false,"is_disabled":false,"rental_uris":{"android":"levelo://app?vid=896b9ac6-c1fa-4368-ba42-57972c747962","ios":"levelo://app?vid=896b9ac6-c1fa-4368-ba42-57972c747962"},"vehicle_type_id":"4","last_reported":1730556455,"current_range_meters":39200,"station_id":"ce4bh5p2rcd13ifvqe4g","pricing_plan_id":"cebpf4jnsgd1na2vs0mg"},{"bike_id":"6eaa2dbe-2228-4b69-8462-634d74f7bcad","system_id":"levelo_inurba_marseille","lat":43.22926,"lon":5.35371,"is_reserved":false,"is_disabled":false,"rental_uris":{"android":"levelo://app?vid=6eaa2dbe-2228-4b69-8462-634d74f7bcad","ios":"levelo://app?vid=6eaa2dbe-2228-4b69-8462-634d74f7bcad"},"vehicle_type_id":"4","last_reported":1730556455,"current_range_meters":25200,"station_id":"cpo3532slgdg3j2ikp40","pricing_plan_id":"cebpf4jnsgd1na2vs0mg"},{"bike_id":"25efdd14-e5a3-4f02-a8ea-e62e3c219fa3","system_id":"levelo_inurba_marseille","lat":43.281501,"lon":5.426509,"is_reserved":false,"is_disabled":false,"rental_uris":{"android":"levelo://app?vid=25efdd14-e5a3-4f02-a8ea-e62e3c219fa3","ios":"levelo://app?vid=25efdd14-e5a3-4f02-a8ea-e62e3c219fa3"},"vehicle_type_id":"4","last_reported":1730556455,"current_range_meters":39200,"station_id":"ce4bhnh2rcd13ifvqgug","pricing_plan_id":"cebpf4jnsgd1na2vs0mg"},{"bike_id":"a7539dfc-e8ec-47cd-8dbc-d48543cf053d","system_id":"levelo_inurba_marseille","lat":43.30528,"lon":5.36543,"is_reserved":false,"is_disabled":false,"rental_uris":{"android":"levelo://app?vid=a7539dfc-e8ec-47cd-8dbc-d48543cf053d","ios":"levelo://app?vid=a7539dfc-e8ec-47cd-8dbc-d48543cf053d"},"vehicle_type_id":"4","last_reported":1730556455,"current_range_meters":39200,"station_id":"ce4bgs12rcd13ifvqcag","pricing_plan_id":"cebpf4jnsgd1na2vs0mg"},{"bike_id":"b01ec6bc-8885-4ebd-9bf0-430c90c77ffb","system_id":"levelo_inurba_marseille","lat":43.28267,"lon":5.35069,"is_reserved":false,"is_disabled":false,"rental_uris":{"android":"levelo://app?vid=b01ec6bc-8885-4ebd-9bf0-430c90c77ffb","ios":"levelo://app?vid=b01ec6bc-8885-4ebd-9bf0-430c90c77ffb"},"vehicle_type_id":"4","last_reported":1730556455,"current_range_meters":28800,"station_id":"ce4bhbp2rcd13ifvqerg","pricing_plan_id":"cebpf4jnsgd1na2vs0mg"},{"bike_id":"18402065-9e87-476b-95ad-30853de181a0","system_id":"levelo_inurba_marseille","lat":43.32455,"lon":5.45557,"is_reserved":false,"is_disabled":false,"rental_uris":{"android":"levelo://app?vid=18402065-9e87-476b-95ad-30853de181a0","ios":"levelo://app?vid=18402065-9e87-476b-95ad-30853de181a0"},"vehicle_type_id":"4","last_reported":1730556455,"current_range_meters":7200,"station_id":"","pricing_plan_id":"cebpf4jnsgd1na2vs0mg"},{"bike_id":"004e98f2-575c-4f6c-b840-5cb6196fe2a0","system_id":"levelo_inurba_marseille","lat":43.24175,"lon":5.39736,"is_reserved":false,"is_disabled":false,"rental_uris":{"android":"levelo://app?vid=004e98f2-575c-4f6c-b840-5cb6196fe2a0","ios":"levelo://app?vid=004e98f2-575c-4f6c-b840-5cb6196fe2a0"},"vehicle_type_id":"4","last_reported":1730556455,"current_range_meters":17600,"station_id":"ce4bhn12rcd13ifvqgpg","pricing_plan_id":"cebpf4jnsgd1na2vs0mg"},{"bike_id":"18520dd0-747d-4cb1-9d78-6ede88f81896","system_id":"levelo_inurba_marseille","lat":43.24658,"lon":5.38899,"is_reserved":false,"is_disabled":false,"rental_uris":{"android":"levelo://app?vid=18520dd0-747d-4cb1-9d78-6ede88f81896","ios":"levelo://app?vid=18520dd0-747d-4cb1-9d78-6ede88f81896"},"vehicle_type_id":"4","last_reported":1730556455,"current_range_meters":2000,"station_id":"ce4bhg12rcd13ifvqf60","pricing_plan_id":"cebpf4jnsgd1na2vs0mg"},{"bike_id":"d0e25e8e-55c1-4556-bac9-0e6f2eddf471","system_id":"levelo_inurba_marseille","lat":43.23188,"lon":5.35553,"is_reserved":false,"is_disabled":false,"rental_uris":{"android":"levelo://app?vid=d0e25e8e-55c1-4556-bac9-0e6f2eddf471","ios":"levelo://app?vid=d0e25e8e-55c1-4556-bac9-0e6f2eddf471"},"vehicle_type_id":"4","last_reported":1730556455,"current_range_meters":27200,"station_id":"ce4bhu92rcd13ifvqi70","pricing_plan_id":"cebpf4jnsgd1na2vs0mg"},{"bike_id":"33386d68-977c-4ff5-a790-2d136663868e","system_id":"levelo_inurba_marseille","lat":43.29264,"lon":5.38448,"is_reserved":false,"is_disabled":false,"rental_uris":{"android":"levelo://app?vid=33386d68-977c-4ff5-a790-2d136663868e","ios":"levelo://app?vid=33386d68-977c-4ff5-a790-2d136663868e"},"vehicle_type_id":"4","last_reported":1730556455,"current_range_meters":3200,"station_id":"ce4bh692rcd13ifvqea0","pricing_plan_id":"cebpf4jnsgd1na2vs0mg"},{"bike_id":"1034806c-6c6f-4a1d-8b43-365ef47030de","system_id":"levelo_inurba_marseille","lat":43.29913,"lon":5.3747,"is_reserved":false,"is_disabled":false,"rental_uris":{"android":"levelo://app?vid=1034806c-6c6f-4a1d-8b43-365ef47030de","ios":"levelo://app?vid=1034806c-6c6f-4a1d-8b43-365ef47030de"},"vehicle_type_id":"4","last_reported":1730556455,"current_range_meters":35600,"station_id":"ce4bgjh2rcd13ifvqbg0","pricing_plan_id":"cebpf4jnsgd1na2vs0mg"},{"bike_id":"532fa508-844e-45a1-88db-7ade697e0375","system_id":"levelo_inurba_marseille","lat":43.30323,"lon":5.36911,"is_reserved":false,"is_disabled":false,"rental_uris":{"android":"levelo://app?vid=532fa508-844e-45a1-88db-7ade697e0375","ios":"levelo://app?vid=532fa508-844e-45a1-88db-7ade697e0375"},"vehicle_type_id":"4","last_reported":1730556455,"current_range_meters":30800,"station_id":"ce4bgqh2rcd13ifvqc5g","pricing_plan_id":"cebpf4jnsgd1na2vs0mg"},{"bike_id":"c7a6a60a-ebc3-43dc-847c-5817f23f3b49","system_id":"levelo_inurba_marseille","lat":43.25724,"lon":5.41113,"is_reserved":false,"is_disabled":false,"rental_uris":{"android":"levelo://app?vid=c7a6a60a-ebc3-43dc-847c-5817f23f3b49","ios":"levelo://app?vid=c7a6a60a-ebc3-43dc-847c-5817f23f3b49"},"vehicle_type_id":"4","last_reported":1730556455,"current_range_meters":11200,"station_id":"ce4bhkp2rcd13ifvqgd0","pricing_plan_id":"cebpf4jnsgd1na2vs0mg"},{"bike_id":"af00fbff-82bb-4b65-bd38-51a4e344c584","system_id":"levelo_inurba_marseille","lat":43.29257,"lon":5.40915,"is_reserved":false,"is_disabled":false,"rental_uris":{"android":"levelo://app?vid=af00fbff-82bb-4b65-bd38-51a4e344c584","ios":"levelo://app?vid=af00fbff-82bb-4b65-bd38-51a4e344c584"},"vehicle_type_id":"4","last_reported":1730556455,"current_range_meters":32000,"station_id":"ce4bh192rcd13ifvqdc0","pricing_plan_id":"cebpf4jnsgd1na2vs0mg"},{"bike_id":"ffb99be8-861d-4e54-bfb7-09d544efe3d5","system_id":"levelo_inurba_marseille","lat":43.31232,"lon":5.36867,"is_reserved":false,"is_disabled":false,"rental_uris":{"android":"levelo://app?vid=ffb99be8-861d-4e54-bfb7-09d544efe3d5","ios":"levelo://app?vid=ffb99be8-861d-4e54-bfb7-09d544efe3d5"},"vehicle_type_id":"4","last_reported":1730556455,"current_range_meters":24000,"station_id":"ce4bgl92rcd13ifvqbq0","pricing_plan_id":"cebpf4jnsgd1na2vs0mg"},{"bike_id":"56f2d66b-9c06-42d7-b325-8eb03b4cc8bb","system_id":"levelo_inurba_marseille","lat":43.2827,"lon":5.35074,"is_reserved":false,"is_disabled":false,"rental_uris":{"android":"levelo://app?vid=56f2d66b-9c06-42d7-b325-8eb03b4cc8bb","ios":"levelo://app?vid=56f2d66b-9c06-42d7-b325-8eb03b4cc8bb"},"vehicle_type_id":"4","last_reported":1730556455,"current_range_meters":16400,"station_id":"ce4bhbp2rcd13ifvqerg","pricing_plan_id":"cebpf4jnsgd1na2vs0mg"},{"bike_id":"b497b502-42e6-495a-9d87-cccccec74c8a","system_id":"levelo_inurba_marseille","lat":43.29066,"lon":5.37162,"is_reserved":false,"is_disabled":false,"rental_uris":{"android":"levelo://app?vid=b497b502-42e6-495a-9d87-cccccec74c8a","ios":"levelo://app?vid=b497b502-42e6-495a-9d87-cccccec74c8a"},"vehicle_type_id":"4","last_reported":1730556455,"current_range_meters":37600,"station_id":"ce4bh5p2rcd13ifvqe4g","pricing_plan_id":"cebpf4jnsgd1na2vs0mg"},{"bike_id":"04d79745-ffbf-422e-9b3c-ce29dd9eae6e","system_id":"levelo_inurba_marseille","lat":43.31121,"lon":5.37789,"is_reserved":false,"is_disabled":false,"rental_uris":{"android":"levelo://app?vid=04d79745-ffbf-422e-9b3c-ce29dd9eae6e","ios":"levelo://app?vid=04d79745-ffbf-422e-9b3c-ce29dd9eae6e"},"vehicle_type_id":"4","last_reported":1730556455,"current_range_meters":33600,"station_id":"ce4bgt92rcd13ifvqcg0","pricing_plan_id":"cebpf4jnsgd1na2vs0mg"},{"bike_id":"16e0937e-b968-408d-990a-e92c8f1d8e7f","system_id":"levelo_inurba_marseille","lat":43.337444,"lon":5.374475,"is_reserved":false,"is_disabled":false,"rental_uris":{"android":"levelo://app?vid=16e0937e-b968-408d-990a-e92c8f1d8e7f","ios":"levelo://app?vid=16e0937e-b968-408d-990a-e92c8f1d8e7f"},"vehicle_type_id":"4","last_reported":1730556455,"current_range_meters":7200,"station_id":"ce4bhbh2rcd13ifvqepg","pricing_plan_id":"cebpf4jnsgd1na2vs0mg"},{"bike_id":"c464d67e-1a73-40bd-b8bb-ad08b05c10b4","system_id":"levelo_inurba_marseille","lat":43.31286,"lon":5.40169,"is_reserved":false,"is_disabled":false,"rental_uris":{"android":"levelo://app?vid=c464d67e-1a73-40bd-b8bb-ad08b05c10b4","ios":"levelo://app?vid=c464d67e-1a73-40bd-b8bb-ad08b05c10b4"},"vehicle_type_id":"4","last_reported":1730556455,"current_range_meters":7200,"station_id":"ce4bh092rcd13ifvqd30","pricing_plan_id":"cebpf4jnsgd1na2vs0mg"},{"bike_id":"6a73a468-ee4e-4504-97ad-7d286c4beb89","system_id":"levelo_inurba_marseille","lat":43.28615,"lon":5.35109,"is_reserved":false,"is_disabled":false,"rental_uris":{"android":"levelo://app?vid=6a73a468-ee4e-4504-97ad-7d286c4beb89","ios":"levelo://app?vid=6a73a468-ee4e-4504-97ad-7d286c4beb89"},"vehicle_type_id":"4","last_reported":1730556455,"current_range_meters":38800,"station_id":"ce4bhch2rcd13ifvqeug","pricing_plan_id":"cebpf4jnsgd1na2vs0mg"},{"bike_id":"039a64d6-5e87-4141-81e3-2e1ffc1e11a5","system_id":"levelo_inurba_marseille","lat":43.27998,"lon":5.40016,"is_reserved":false,"is_disabled":false,"rental_uris":{"android":"levelo://app?vid=039a64d6-5e87-4141-81e3-2e1ffc1e11a5","ios":"levelo://app?vid=039a64d6-5e87-4141-81e3-2e1ffc1e11a5"},"vehicle_type_id":"4","last_reported":1730556455,"current_range_meters":39200,"station_id":"ce4bho92rcd13ifvqh4g","pricing_plan_id":"cebpf4jnsgd1na2vs0mg"},{"bike_id":"4be17eee-2bee-4bce-abc6-693cda9fbd8f","system_id":"levelo_inurba_marseille","lat":43.25009,"lon":5.38913,"is_reserved":false,"is_disabled":false,"rental_uris":{"android":"levelo://app?vid=4be17eee-2bee-4bce-abc6-693cda9fbd8f","ios":"levelo://app?vid=4be17eee-2bee-4bce-abc6-693cda9fbd8f"},"vehicle_type_id":"4","last_reported":1730556455,"current_range_meters":36000,"station_id":"ce4bhgp2rcd13ifvqfd0","pricing_plan_id":"cebpf4jnsgd1na2vs0mg"},{"bike_id":"21ff1bff-f285-482f-b9d5-5da60c9f151d","system_id":"levelo_inurba_marseille","lat":43.32482,"lon":5.36571,"is_reserved":false,"is_disabled":false,"rental_uris":{"android":"levelo://app?vid=21ff1bff-f285-482f-b9d5-5da60c9f151d","ios":"levelo://app?vid=21ff1bff-f285-482f-b9d5-5da60c9f151d"},"vehicle_type_id":"4","last_reported":1730556455,"current_range_meters":33200,"station_id":"ce4bhs12rcd13ifvqhvg","pricing_plan_id":"cebpf4jnsgd1na2vs0mg"},{"bike_id":"75968a9a-818d-4467-8ac4-d296b7248db9","system_id":"levelo_inurba_marseille","lat":43.29044,"lon":5.35918,"is_reserved":false,"is_disabled":false,"rental_uris":{"android":"levelo://app?vid=75968a9a-818d-4467-8ac4-d296b7248db9","ios":"levelo://app?vid=75968a9a-818d-4467-8ac4-d296b7248db9"},"vehicle_type_id":"4","last_reported":1730556455,"current_range_meters":26000,"station_id":"ce4bha92rcd13ifvqeg0","pricing_plan_id":"cebpf4jnsgd1na2vs0mg"},{"bike_id":"6b0b35dc-28aa-42ce-aff9-a94663bb6f88","system_id":"levelo_inurba_marseille","lat":43.24386,"lon":5.37056,"is_reserved":false,"is_disabled":false,"rental_uris":{"android":"levelo://app?vid=6b0b35dc-28aa-42ce-aff9-a94663bb6f88","ios":"levelo://app?vid=6b0b35dc-28aa-42ce-aff9-a94663bb6f88"},"vehicle_type_id":"4","last_reported":1730556455,"current_range_meters":30800,"station_id":"ce4bhhh2rcd13ifvqfk0","pricing_plan_id":"cebpf4jnsgd1na2vs0mg"},{"bike_id":"7f17982b-36f5-4d90-b1be-eb793cb933c4","system_id":"levelo_inurba_marseille","lat":43.28421,"lon":5.34985,"is_reserved":false,"is_disabled":false,"rental_uris":{"android":"levelo://app?vid=7f17982b-36f5-4d90-b1be-eb793cb933c4","ios":"levelo://app?vid=7f17982b-36f5-4d90-b1be-eb793cb933c4"},"vehicle_type_id":"4","last_reported":1730556455,"current_range_meters":39200,"station_id":"ce4bhbh2rcd13ifvqepg","pricing_plan_id":"cebpf4jnsgd1na2vs0mg"},{"bike_id":"fdc13e45-1292-4156-a60a-311145dc2337","system_id":"levelo_inurba_marseille","lat":43.2904,"lon":5.35917,"is_reserved":false,"is_disabled":false,"rental_uris":{"android":"levelo://app?vid=fdc13e45-1292-4156-a60a-311145dc2337","ios":"levelo://app?vid=fdc13e45-1292-4156-a60a-311145dc2337"},"vehicle_type_id":"4","last_reported":1730556455,"current_range_meters":16400,"station_id":"ce4bha92rcd13ifvqeg0","pricing_plan_id":"cebpf4jnsgd1na2vs0mg"},{"bike_id":"59e4e26f-f391-4dca-888b-ffdf71acb0a3","system_id":"levelo_inurba_marseille","lat":43.30801,"lon":5.37659,"is_reserved":false,"is_disabled":false,"rental_uris":{"android":"levelo://app?vid=59e4e26f-f391-4dca-888b-ffdf71acb0a3","ios":"levelo://app?vid=59e4e26f-f391-4dca-888b-ffdf71acb0a3"},"vehicle_type_id":"4","last_reported":1730556455,"current_range_meters":18800,"station_id":"ce4bgv92rcd13ifvqcq0","pricing_plan_id":"cebpf4jnsgd1na2vs0mg"},{"bike_id":"b81cfff5-af30-4440-b923-c7f43c087f4e","system_id":"levelo_inurba_marseille","lat":43.25872,"lon":5.39898,"is_reserved":false,"is_disabled":false,"rental_uris":{"android":"levelo://app?vid=b81cfff5-af30-4440-b923-c7f43c087f4e","ios":"levelo://app?vid=b81cfff5-af30-4440-b923-c7f43c087f4e"},"vehicle_type_id":"4","last_reported":1730556455,"current_range_meters":38400,"station_id":"ce4bhl92rcd13ifvqghg","pricing_plan_id":"cebpf4jnsgd1na2vs0mg"},{"bike_id":"29dfcaa8-bc20-43ae-86d7-19ec3dfce67e","system_id":"levelo_inurba_marseille","lat":43.29887,"lon":5.38906,"is_reserved":false,"is_disabled":false,"rental_uris":{"android":"levelo://app?vid=29dfcaa8-bc20-43ae-86d7-19ec3dfce67e","ios":"levelo://app?vid=29dfcaa8-bc20-43ae-86d7-19ec3dfce67e"},"vehicle_type_id":"4","last_reported":1730556455,"current_range_meters":33200,"station_id":"ce4bh392rcd13ifvqdl0","pricing_plan_id":"cebpf4jnsgd1na2vs0mg"},{"bike_id":"27da622e-94d9-400c-ab32-9ab521017e57","system_id":"levelo_inurba_marseille","lat":43.26556,"lon":5.37285,"is_reserved":false,"is_disabled":false,"rental_uris":{"android":"levelo://app?vid=27da622e-94d9-400c-ab32-9ab521017e57","ios":"levelo://app?vid=27da622e-94d9-400c-ab32-9ab521017e57"},"vehicle_type_id":"4","last_reported":1730556455,"current_range_meters":38000,"station_id":"ce4bhg12rcd13ifvqf70","pricing_plan_id":"cebpf4jnsgd1na2vs0mg"},{"bike_id":"e74f712e-8cad-4a9d-9601-4cfc15e43810","system_id":"levelo_inurba_marseille","lat":43.27183,"lon":5.40991,"is_reserved":false,"is_disabled":false,"rental_uris":{"android":"levelo://app?vid=e74f712e-8cad-4a9d-9601-4cfc15e43810","ios":"levelo://app?vid=e74f712e-8cad-4a9d-9601-4cfc15e43810"},"vehicle_type_id":"4","last_reported":1730556455,"current_range_meters":8800,"station_id":"ce4bhl12rcd13ifvqgf0","pricing_plan_id":"cebpf4jnsgd1na2vs0mg"},{"bike_id":"c64bc634-5699-440b-9029-134a7a65a134","system_id":"levelo_inurba_marseille","lat":43.27375,"lon":5.36259,"is_reserved":false,"is_disabled":false,"rental_uris":{"android":"levelo://app?vid=c64bc634-5699-440b-9029-134a7a65a134","ios":"levelo://app?vid=c64bc634-5699-440b-9029-134a7a65a134"},"vehicle_type_id":"4","last_reported":1730556455,"current_range_meters":39200,"station_id":"ce4bhbh2rcd13ifvqeo0","pricing_plan_id":"cebpf4jnsgd1na2vs0mg"},{"bike_id":"ad3e9952-3f50-44d8-a74e-6763bc2ff022","system_id":"levelo_inurba_marseille","lat":43.26213,"lon":5.37441,"is_reserved":false,"is_disabled":false,"rental_uris":{"android":"levelo://app?vid=ad3e9952-3f50-44d8-a74e-6763bc2ff022","ios":"levelo://app?vid=ad3e9952-3f50-44d8-a74e-6763bc2ff022"},"vehicle_type_id":"4","last_reported":1730556455,"current_range_meters":32400,"station_id":"ce4bhgp2rcd13ifvqfc0","pricing_plan_id":"cebpf4jnsgd1na2vs0mg"},{"bike_id":"d82d6e2b-1165-4273-a5f4-2471dcf3ace3","system_id":"levelo_inurba_marseille","lat":43.29926,"lon":5.36548,"is_reserved":false,"is_disabled":false,"rental_uris":{"android":"levelo://app?vid=d82d6e2b-1165-4273-a5f4-2471dcf3ace3","ios":"levelo://app?vid=d82d6e2b-1165-4273-a5f4-2471dcf3ace3"},"vehicle_type_id":"4","last_reported":1730556455,"current_range_meters":39200,"station_id":"ce4bgm92rcd13ifvqbr0","pricing_plan_id":"cebpf4jnsgd1na2vs0mg"},{"bike_id":"9c510165-3fd2-45d1-85c8-68b221c6f474","system_id":"levelo_inurba_marseille","lat":43.23967,"lon":5.36632,"is_reserved":false,"is_disabled":false,"rental_uris":{"android":"levelo://app?vid=9c510165-3fd2-45d1-85c8-68b221c6f474","ios":"levelo://app?vid=9c510165-3fd2-45d1-85c8-68b221c6f474"},"vehicle_type_id":"4","last_reported":1730556455,"current_range_meters":38800,"station_id":"ce4bhi12rcd13ifvqfp0","pricing_plan_id":"cebpf4jnsgd1na2vs0mg"},{"bike_id":"eb7ca17f-6237-4461-b9e3-d5063d969a7a","system_id":"levelo_inurba_marseille","lat":43.29789,"lon":5.37096,"is_reserved":false,"is_disabled":false,"rental_uris":{"android":"levelo://app?vid=eb7ca17f-6237-4461-b9e3-d5063d969a7a","ios":"levelo://app?vid=eb7ca17f-6237-4461-b9e3-d5063d969a7a"},"vehicle_type_id":"4","last_reported":1730556455,"current_range_meters":39200,"station_id":"ce4bgop2rcd13ifvqc1g","pricing_plan_id":"cebpf4jnsgd1na2vs0mg"},{"bike_id":"3213f454-3345-4dcc-8139-ab9af3f586b5","system_id":"levelo_inurba_marseille","lat":43.28843,"lon":5.39323,"is_reserved":false,"is_disabled":false,"rental_uris":{"android":"levelo://app?vid=3213f454-3345-4dcc-8139-ab9af3f586b5","ios":"levelo://app?vid=3213f454-3345-4dcc-8139-ab9af3f586b5"},"vehicle_type_id":"4","last_reported":1730556455,"current_range_meters":38000,"station_id":"ce4bh2p2rcd13ifvqdi0","pricing_plan_id":"cebpf4jnsgd1na2vs0mg"},{"bike_id":"dbfc27fb-cb97-4ca1-bf7a-15da0f969d35","system_id":"levelo_inurba_marseille","lat":43.25719,"lon":5.41107,"is_reserved":false,"is_disabled":false,"rental_uris":{"android":"levelo://app?vid=dbfc27fb-cb97-4ca1-bf7a-15da0f969d35","ios":"levelo://app?vid=dbfc27fb-cb97-4ca1-bf7a-15da0f969d35"},"vehicle_type_id":"4","last_reported":1730556455,"current_range_meters":4800,"station_id":"ce4bhkp2rcd13ifvqgd0","pricing_plan_id":"cebpf4jnsgd1na2vs0mg"},{"bike_id":"395be709-9625-40aa-aa1e-2c9913fbe4bc","system_id":"levelo_inurba_marseille","lat":43.30528,"lon":5.3654,"is_reserved":false,"is_disabled":false,"rental_uris":{"android":"levelo://app?vid=395be709-9625-40aa-aa1e-2c9913fbe4bc","ios":"levelo://app?vid=395be709-9625-40aa-aa1e-2c9913fbe4bc"},"vehicle_type_id":"4","last_reported":1730556455,"current_range_meters":14800,"station_id":"ce4bgs12rcd13ifvqcag","pricing_plan_id":"cebpf4jnsgd1na2vs0mg"},{"bike_id":"8c67d340-801d-46e5-b910-2f8aff3ff078","system_id":"levelo_inurba_marseille","lat":43.33339,"lon":5.37054,"is_reserved":false,"is_disabled":false,"rental_uris":{"android":"levelo://app?vid=8c67d340-801d-46e5-b910-2f8aff3ff078","ios":"levelo://app?vid=8c67d340-801d-46e5-b910-2f8aff3ff078"},"vehicle_type_id":"4","last_reported":1730556455,"current_range_meters":10000,"station_id":"","pricing_plan_id":"cebpf4jnsgd1na2vs0mg"},{"bike_id":"a3126320-4df6-4373-adf1-0e451d1ee725","system_id":"levelo_inurba_marseille","lat":43.25088,"lon":5.39526,"is_reserved":false,"is_disabled":false,"rental_uris":{"android":"levelo://app?vid=a3126320-4df6-4373-adf1-0e451d1ee725","ios":"levelo://app?vid=a3126320-4df6-4373-adf1-0e451d1ee725"},"vehicle_type_id":"4","last_reported":1730556455,"current_range_meters":6400,"station_id":"ce4bhm12rcd13ifvqgkg","pricing_plan_id":"cebpf4jnsgd1na2vs0mg"},{"bike_id":"df63b9c4-e15c-4263-a5c8-6ddf8c81a210","system_id":"levelo_inurba_marseille","lat":43.26059,"lon":5.39393,"is_reserved":false,"is_disabled":false,"rental_uris":{"android":"levelo://app?vid=df63b9c4-e15c-4263-a5c8-6ddf8c81a210","ios":"levelo://app?vid=df63b9c4-e15c-4263-a5c8-6ddf8c81a210"},"vehicle_type_id":"4","last_reported":1730556455,"current_range_meters":39200,"station_id":"ce4bhh92rcd13ifvqfj0","pricing_plan_id":"cebpf4jnsgd1na2vs0mg"},{"bike_id":"e4ea768f-c877-4e21-89bd-a5c946605e3b","system_id":"levelo_inurba_marseille","lat":43.23188,"lon":5.35554,"is_reserved":false,"is_disabled":false,"rental_uris":{"android":"levelo://app?vid=e4ea768f-c877-4e21-89bd-a5c946605e3b","ios":"levelo://app?vid=e4ea768f-c877-4e21-89bd-a5c946605e3b"},"vehicle_type_id":"4","last_reported":1730556455,"current_range_meters":9600,"station_id":"ce4bhu92rcd13ifvqi70","pricing_plan_id":"cebpf4jnsgd1na2vs0mg"},{"bike_id":"07d0df56-f8bc-46e6-871c-8e071fb175e5","system_id":"levelo_inurba_marseille","lat":43.23184,"lon":5.35558,"is_reserved":false,"is_disabled":false,"rental_uris":{"android":"levelo://app?vid=07d0df56-f8bc-46e6-871c-8e071fb175e5","ios":"levelo://app?vid=07d0df56-f8bc-46e6-871c-8e071fb175e5"},"vehicle_type_id":"4","last_reported":1730556455,"current_range_meters":36800,"station_id":"ce4bhu92rcd13ifvqi70","pricing_plan_id":"cebpf4jnsgd1na2vs0mg"},{"bike_id":"531365e0-19b4-481a-afb8-a2ea83e11e8d","system_id":"levelo_inurba_marseille","lat":43.24166,"lon":5.36397,"is_reserved":false,"is_disabled":false,"rental_uris":{"android":"levelo://app?vid=531365e0-19b4-481a-afb8-a2ea83e11e8d","ios":"levelo://app?vid=531365e0-19b4-481a-afb8-a2ea83e11e8d"},"vehicle_type_id":"4","last_reported":1730556455,"current_range_meters":30400,"station_id":"cpo36qri1sfpv3e86is0","pricing_plan_id":"cebpf4jnsgd1na2vs0mg"},{"bike_id":"19e6008c-0743-45ac-b4bf-fc683ef0e14c","system_id":"levelo_inurba_marseille","lat":43.25721,"lon":5.41112,"is_reserved":false,"is_disabled":false,"rental_uris":{"android":"levelo://app?vid=19e6008c-0743-45ac-b4bf-fc683ef0e14c","ios":"levelo://app?vid=19e6008c-0743-45ac-b4bf-fc683ef0e14c"},"vehicle_type_id":"4","last_reported":1730556455,"current_range_meters":25600,"station_id":"ce4bhkp2rcd13ifvqgd0","pricing_plan_id":"cebpf4jnsgd1na2vs0mg"},{"bike_id":"1fc28198-1c17-47be-887b-58439e4191f0","system_id":"levelo_inurba_marseille","lat":43.23149,"lon":5.43719,"is_reserved":false,"is_disabled":false,"rental_uris":{"android":"levelo://app?vid=1fc28198-1c17-47be-887b-58439e4191f0","ios":"levelo://app?vid=1fc28198-1c17-47be-887b-58439e4191f0"},"vehicle_type_id":"4","last_reported":1730556455,"current_range_meters":8000,"station_id":"ce4bhmp2rcd13ifvqgog","pricing_plan_id":"cebpf4jnsgd1na2vs0mg"},{"bike_id":"eb9224dd-4d88-4497-8c81-0e5bc0ea44ac","system_id":"levelo_inurba_marseille","lat":43.2958,"lon":5.36744,"is_reserved":false,"is_disabled":false,"rental_uris":{"android":"levelo://app?vid=eb9224dd-4d88-4497-8c81-0e5bc0ea44ac","ios":"levelo://app?vid=eb9224dd-4d88-4497-8c81-0e5bc0ea44ac"},"vehicle_type_id":"4","last_reported":1730556455,"current_range_meters":38800,"station_id":"ce4bgph2rcd13ifvqc2g","pricing_plan_id":"cebpf4jnsgd1na2vs0mg"},{"bike_id":"7efb9cd7-f03e-4c1d-b63f-e87ffe819639","system_id":"levelo_inurba_marseille","lat":43.22933,"lon":5.35374,"is_reserved":false,"is_disabled":false,"rental_uris":{"android":"levelo://app?vid=7efb9cd7-f03e-4c1d-b63f-e87ffe819639","ios":"levelo://app?vid=7efb9cd7-f03e-4c1d-b63f-e87ffe819639"},"vehicle_type_id":"4","last_reported":1730556455,"current_range_meters":26000,"station_id":"cpo3532slgdg3j2ikp40","pricing_plan_id":"cebpf4jnsgd1na2vs0mg"},{"bike_id":"6c387352-7466-4f96-a4b3-8df4d9956144","system_id":"levelo_inurba_marseille","lat":43.29558,"lon":5.42293,"is_reserved":false,"is_disabled":false,"rental_uris":{"android":"levelo://app?vid=6c387352-7466-4f96-a4b3-8df4d9956144","ios":"levelo://app?vid=6c387352-7466-4f96-a4b3-8df4d9956144"},"vehicle_type_id":"4","last_reported":1730556455,"current_range_meters":37600,"station_id":"ce4bhph2rcd13ifvqhdg","pricing_plan_id":"cebpf4jnsgd1na2vs0mg"},{"bike_id":"c3805ff5-fb19-46f8-860d-d42dc265a4c5","system_id":"levelo_inurba_marseille","lat":43.30465,"lon":5.3792,"is_reserved":false,"is_disabled":false,"rental_uris":{"android":"levelo://app?vid=c3805ff5-fb19-46f8-860d-d42dc265a4c5","ios":"levelo://app?vid=c3805ff5-fb19-46f8-860d-d42dc265a4c5"},"vehicle_type_id":"4","last_reported":1730556455,"current_range_meters":13600,"station_id":"ce4bgup2rcd13ifvqcn0","pricing_plan_id":"cebpf4jnsgd1na2vs0mg"},{"bike_id":"8d7d76cc-3c38-4302-8b06-788396ec7c5a","system_id":"levelo_inurba_marseille","lat":43.29622,"lon":5.37156,"is_reserved":false,"is_disabled":false,"rental_uris":{"android":"levelo://app?vid=8d7d76cc-3c38-4302-8b06-788396ec7c5a","ios":"levelo://app?vid=8d7d76cc-3c38-4302-8b06-788396ec7c5a"},"vehicle_type_id":"4","last_reported":1730556455,"current_range_meters":33600,"station_id":"ce4bgnh2rcd13ifvqc0g","pricing_plan_id":"cebpf4jnsgd1na2vs0mg"},{"bike_id":"91dfd9cb-2175-467d-8ea9-cb6d546eecd8","system_id":"levelo_inurba_marseille","lat":43.29619,"lon":5.37153,"is_reserved":false,"is_disabled":false,"rental_uris":{"android":"levelo://app?vid=91dfd9cb-2175-467d-8ea9-cb6d546eecd8","ios":"levelo://app?vid=91dfd9cb-2175-467d-8ea9-cb6d546eecd8"},"vehicle_type_id":"4","last_reported":1730556455,"current_range_meters":38000,"station_id":"ce4bgnh2rcd13ifvqc0g","pricing_plan_id":"cebpf4jnsgd1na2vs0mg"},{"bike_id":"2d783b2d-071d-439f-a000-0399b98fb034","system_id":"levelo_inurba_marseille","lat":43.28671,"lon":5.38699,"is_reserved":false,"is_disabled":false,"rental_uris":{"android":"levelo://app?vid=2d783b2d-071d-439f-a000-0399b98fb034","ios":"levelo://app?vid=2d783b2d-071d-439f-a000-0399b98fb034"},"vehicle_type_id":"4","last_reported":1730556455,"current_range_meters":38400,"station_id":"ce4bh492rcd13ifvqdug","pricing_plan_id":"cebpf4jnsgd1na2vs0mg"},{"bike_id":"84c54c15-b283-4df4-8ef5-7137112968a7","system_id":"levelo_inurba_marseille","lat":43.28271,"lon":5.35068,"is_reserved":false,"is_disabled":false,"rental_uris":{"android":"levelo://app?vid=84c54c15-b283-4df4-8ef5-7137112968a7","ios":"levelo://app?vid=84c54c15-b283-4df4-8ef5-7137112968a7"},"vehicle_type_id":"4","last_reported":1730556455,"current_range_meters":28400,"station_id":"ce4bhbp2rcd13ifvqerg","pricing_plan_id":"cebpf4jnsgd1na2vs0mg"},{"bike_id":"a319becd-84f6-4fa3-8f37-f8af98cfe3d9","system_id":"levelo_inurba_marseille","lat":43.27386,"lon":5.36279,"is_reserved":false,"is_disabled":false,"rental_uris":{"android":"levelo://app?vid=a319becd-84f6-4fa3-8f37-f8af98cfe3d9","ios":"levelo://app?vid=a319becd-84f6-4fa3-8f37-f8af98cfe3d9"},"vehicle_type_id":"4","last_reported":1730556455,"current_range_meters":33600,"station_id":"ce4bhbh2rcd13ifvqeo0","pricing_plan_id":"cebpf4jnsgd1na2vs0mg"},{"bike_id":"5e658862-f025-4948-ad81-ab765993bce0","system_id":"levelo_inurba_marseille","lat":43.27383,"lon":5.36255,"is_reserved":false,"is_disabled":false,"rental_uris":{"android":"levelo://app?vid=5e658862-f025-4948-ad81-ab765993bce0","ios":"levelo://app?vid=5e658862-f025-4948-ad81-ab765993bce0"},"vehicle_type_id":"4","last_reported":1730556455,"current_range_meters":30000,"station_id":"ce4bhbh2rcd13ifvqeo0","pricing_plan_id":"cebpf4jnsgd1na2vs0mg"},{"bike_id":"1a7bc166-dd17-4fa0-8c2f-c8f41c30538f","system_id":"levelo_inurba_marseille","lat":43.298464,"lon":5.362746,"is_reserved":false,"is_disabled":false,"rental_uris":{"android":"levelo://app?vid=1a7bc166-dd17-4fa0-8c2f-c8f41c30538f","ios":"levelo://app?vid=1a7bc166-dd17-4fa0-8c2f-c8f41c30538f"},"vehicle_type_id":"4","last_reported":1730556455,"current_range_meters":17600,"station_id":"ce4bgpp2rcd13ifvqc3g","pricing_plan_id":"cebpf4jnsgd1na2vs0mg"},{"bike_id":"74e3715e-b844-4180-8ba0-50b9e962470d","system_id":"levelo_inurba_marseille","lat":43.26573,"lon":5.38997,"is_reserved":false,"is_disabled":false,"rental_uris":{"android":"levelo://app?vid=74e3715e-b844-4180-8ba0-50b9e962470d","ios":"levelo://app?vid=74e3715e-b844-4180-8ba0-50b9e962470d"},"vehicle_type_id":"4","last_reported":1730556455,"current_range_meters":30000,"station_id":"ce4bhe12rcd13ifvqf30","pricing_plan_id":"cebpf4jnsgd1na2vs0mg"},{"bike_id":"be1d46f5-1de1-4141-a3a0-2c6fdc86f9c8","system_id":"levelo_inurba_marseille","lat":43.2984,"lon":5.36267,"is_reserved":false,"is_disabled":false,"rental_uris":{"android":"levelo://app?vid=be1d46f5-1de1-4141-a3a0-2c6fdc86f9c8","ios":"levelo://app?vid=be1d46f5-1de1-4141-a3a0-2c6fdc86f9c8"},"vehicle_type_id":"4","last_reported":1730556455,"current_range_meters":9600,"station_id":"ce4bgpp2rcd13ifvqc3g","pricing_plan_id":"cebpf4jnsgd1na2vs0mg"},{"bike_id":"41c646d9-5935-46ea-b907-6439c2e8826d","system_id":"levelo_inurba_marseille","lat":43.29005,"lon":5.35612,"is_reserved":false,"is_disabled":false,"rental_uris":{"android":"levelo://app?vid=41c646d9-5935-46ea-b907-6439c2e8826d","ios":"levelo://app?vid=41c646d9-5935-46ea-b907-6439c2e8826d"},"vehicle_type_id":"4","last_reported":1730556455,"current_range_meters":3200,"station_id":"ce4bhb92rcd13ifvqen0","pricing_plan_id":"cebpf4jnsgd1na2vs0mg"},{"bike_id":"27fa8bc9-2c85-4a58-8444-d006798259a2","system_id":"levelo_inurba_marseille","lat":43.273784,"lon":5.362541,"is_reserved":false,"is_disabled":false,"rental_uris":{"android":"levelo://app?vid=27fa8bc9-2c85-4a58-8444-d006798259a2","ios":"levelo://app?vid=27fa8bc9-2c85-4a58-8444-d006798259a2"},"vehicle_type_id":"4","last_reported":1730556455,"current_range_meters":38800,"station_id":"ce4bhbh2rcd13ifvqeo0","pricing_plan_id":"cebpf4jnsgd1na2vs0mg"},{"bike_id":"a04b2bfc-c1e2-427f-940b-7f8c6f7018f2","system_id":"levelo_inurba_marseille","lat":43.24388,"lon":5.37069,"is_reserved":false,"is_disabled":false,"rental_uris":{"android":"levelo://app?vid=a04b2bfc-c1e2-427f-940b-7f8c6f7018f2","ios":"levelo://app?vid=a04b2bfc-c1e2-427f-940b-7f8c6f7018f2"},"vehicle_type_id":"4","last_reported":1730556455,"current_range_meters":6400,"station_id":"ce4bhhh2rcd13ifvqfk0","pricing_plan_id":"cebpf4jnsgd1na2vs0mg"},{"bike_id":"f64969e3-db0f-44d8-bed5-29edb16ec944","system_id":"levelo_inurba_marseille","lat":43.26945,"lon":5.40263,"is_reserved":false,"is_disabled":false,"rental_uris":{"android":"levelo://app?vid=f64969e3-db0f-44d8-bed5-29edb16ec944","ios":"levelo://app?vid=f64969e3-db0f-44d8-bed5-29edb16ec944"},"vehicle_type_id":"4","last_reported":1730556455,"current_range_meters":35600,"station_id":"cjm6bp8fraef2m0cb0m0","pricing_plan_id":"cebpf4jnsgd1na2vs0mg"},{"bike_id":"10f9ba4b-9b49-4148-b7f1-372208c6c423","system_id":"levelo_inurba_marseille","lat":43.3229,"lon":5.38267,"is_reserved":false,"is_disabled":false,"rental_uris":{"android":"levelo://app?vid=10f9ba4b-9b49-4148-b7f1-372208c6c423","ios":"levelo://app?vid=10f9ba4b-9b49-4148-b7f1-372208c6c423"},"vehicle_type_id":"4","last_reported":1730556455,"current_range_meters":23200,"station_id":"ce4bhr12rcd13ifvqhqg","pricing_plan_id":"cebpf4jnsgd1na2vs0mg"},{"bike_id":"e8e181c6-8ea6-4215-b834-5005ee673814","system_id":"levelo_inurba_marseille","lat":43.28408,"lon":5.3752,"is_reserved":false,"is_disabled":false,"rental_uris":{"android":"levelo://app?vid=e8e181c6-8ea6-4215-b834-5005ee673814","ios":"levelo://app?vid=e8e181c6-8ea6-4215-b834-5005ee673814"},"vehicle_type_id":"4","last_reported":1730556455,"current_range_meters":9200,"station_id":"ce4bh412rcd13ifvqds0","pricing_plan_id":"cebpf4jnsgd1na2vs0mg"},{"bike_id":"24ed88ef-7e13-4630-9c40-090c0b464b2b","system_id":"levelo_inurba_marseille","lat":43.25104,"lon":5.4033,"is_reserved":false,"is_disabled":false,"rental_uris":{"android":"levelo://app?vid=24ed88ef-7e13-4630-9c40-090c0b464b2b","ios":"levelo://app?vid=24ed88ef-7e13-4630-9c40-090c0b464b2b"},"vehicle_type_id":"4","last_reported":1730556455,"current_range_meters":35200,"station_id":"ce4bhlh2rcd13ifvqgig","pricing_plan_id":"cebpf4jnsgd1na2vs0mg"},{"bike_id":"16c8f677-ab6b-45a3-97df-31a15ad01255","system_id":"levelo_inurba_marseille","lat":43.29224,"lon":5.36065,"is_reserved":false,"is_disabled":false,"rental_uris":{"android":"levelo://app?vid=16c8f677-ab6b-45a3-97df-31a15ad01255","ios":"levelo://app?vid=16c8f677-ab6b-45a3-97df-31a15ad01255"},"vehicle_type_id":"4","last_reported":1730556455,"current_range_meters":11200,"station_id":"ce4bhbh2rcd13ifvqeqg","pricing_plan_id":"cebpf4jnsgd1na2vs0mg"},{"bike_id":"8f867bc2-b7e9-4ebf-853a-e3902c2a6291","system_id":"levelo_inurba_marseille","lat":43.29622,"lon":5.37149,"is_reserved":false,"is_disabled":false,"rental_uris":{"android":"levelo://app?vid=8f867bc2-b7e9-4ebf-853a-e3902c2a6291","ios":"levelo://app?vid=8f867bc2-b7e9-4ebf-853a-e3902c2a6291"},"vehicle_type_id":"4","last_reported":1730556455,"current_range_meters":36400,"station_id":"ce4bgnh2rcd13ifvqc0g","pricing_plan_id":"cebpf4jnsgd1na2vs0mg"},{"bike_id":"ace6ce99-29be-40d4-9b62-ff3331bf021c","system_id":"levelo_inurba_marseille","lat":43.22923,"lon":5.3538,"is_reserved":false,"is_disabled":false,"rental_uris":{"android":"levelo://app?vid=ace6ce99-29be-40d4-9b62-ff3331bf021c","ios":"levelo://app?vid=ace6ce99-29be-40d4-9b62-ff3331bf021c"},"vehicle_type_id":"4","last_reported":1730556455,"current_range_meters":24000,"station_id":"cpo3532slgdg3j2ikp40","pricing_plan_id":"cebpf4jnsgd1na2vs0mg"},{"bike_id":"d7a6a659-b28e-4f20-a80c-310f18a31b51","system_id":"levelo_inurba_marseille","lat":43.27806,"lon":5.40712,"is_reserved":false,"is_disabled":false,"rental_uris":{"android":"levelo://app?vid=d7a6a659-b28e-4f20-a80c-310f18a31b51","ios":"levelo://app?vid=d7a6a659-b28e-4f20-a80c-310f18a31b51"},"vehicle_type_id":"4","last_reported":1730556455,"current_range_meters":36800,"station_id":"ce4bhnh2rcd13ifvqgtg","pricing_plan_id":"cebpf4jnsgd1na2vs0mg"},{"bike_id":"b27b6b18-d801-4b0b-a4e3-bc55bc4a9aed","system_id":"levelo_inurba_marseille","lat":43.25722,"lon":5.41103,"is_reserved":false,"is_disabled":false,"rental_uris":{"android":"levelo://app?vid=b27b6b18-d801-4b0b-a4e3-bc55bc4a9aed","ios":"levelo://app?vid=b27b6b18-d801-4b0b-a4e3-bc55bc4a9aed"},"vehicle_type_id":"4","last_reported":1730556455,"current_range_meters":38000,"station_id":"ce4bhkp2rcd13ifvqgd0","pricing_plan_id":"cebpf4jnsgd1na2vs0mg"},{"bike_id":"da545c31-91a6-4be9-add5-53248f375426","system_id":"levelo_inurba_marseille","lat":43.26199,"lon":5.37934,"is_reserved":false,"is_disabled":false,"rental_uris":{"android":"levelo://app?vid=da545c31-91a6-4be9-add5-53248f375426","ios":"levelo://app?vid=da545c31-91a6-4be9-add5-53248f375426"},"vehicle_type_id":"4","last_reported":1730556455,"current_range_meters":3600,"station_id":"ce4bhjp2rcd13ifvqg90","pricing_plan_id":"cebpf4jnsgd1na2vs0mg"},{"bike_id":"1e14e7b5-7984-4db0-9a50-c9659a8f672d","system_id":"levelo_inurba_marseille","lat":43.249974,"lon":5.3894,"is_reserved":false,"is_disabled":false,"rental_uris":{"android":"levelo://app?vid=1e14e7b5-7984-4db0-9a50-c9659a8f672d","ios":"levelo://app?vid=1e14e7b5-7984-4db0-9a50-c9659a8f672d"},"vehicle_type_id":"4","last_reported":1730556455,"current_range_meters":4800,"station_id":"ce4bhgp2rcd13ifvqfd0","pricing_plan_id":"cebpf4jnsgd1na2vs0mg"},{"bike_id":"63ca4d85-c3cd-441a-bc30-f912be1a7f4c","system_id":"levelo_inurba_marseille","lat":43.23197,"lon":5.35566,"is_reserved":false,"is_disabled":false,"rental_uris":{"android":"levelo://app?vid=63ca4d85-c3cd-441a-bc30-f912be1a7f4c","ios":"levelo://app?vid=63ca4d85-c3cd-441a-bc30-f912be1a7f4c"},"vehicle_type_id":"4","last_reported":1730556455,"current_range_meters":28800,"station_id":"ce4bhu92rcd13ifvqi70","pricing_plan_id":"cebpf4jnsgd1na2vs0mg"},{"bike_id":"94279a57-03c0-47b7-abe3-7226e86fd3b0","system_id":"levelo_inurba_marseille","lat":43.27614,"lon":5.36117,"is_reserved":false,"is_disabled":false,"rental_uris":{"android":"levelo://app?vid=94279a57-03c0-47b7-abe3-7226e86fd3b0","ios":"levelo://app?vid=94279a57-03c0-47b7-abe3-7226e86fd3b0"},"vehicle_type_id":"4","last_reported":1730556455,"current_range_meters":19600,"station_id":"ce4bgj92rcd13ifvqbe0","pricing_plan_id":"cebpf4jnsgd1na2vs0mg"},{"bike_id":"0db17cb0-5170-47ef-81ee-ca79df75f125","system_id":"levelo_inurba_marseille","lat":43.30545,"lon":5.36544,"is_reserved":false,"is_disabled":false,"rental_uris":{"android":"levelo://app?vid=0db17cb0-5170-47ef-81ee-ca79df75f125","ios":"levelo://app?vid=0db17cb0-5170-47ef-81ee-ca79df75f125"},"vehicle_type_id":"4","last_reported":1730556455,"current_range_meters":36400,"station_id":"ce4bgs12rcd13ifvqcag","pricing_plan_id":"cebpf4jnsgd1na2vs0mg"},{"bike_id":"5ba8e5a8-09bf-412b-b182-000192a6d1f7","system_id":"levelo_inurba_marseille","lat":43.33024,"lon":5.39046,"is_reserved":false,"is_disabled":false,"rental_uris":{"android":"levelo://app?vid=5ba8e5a8-09bf-412b-b182-000192a6d1f7","ios":"levelo://app?vid=5ba8e5a8-09bf-412b-b182-000192a6d1f7"},"vehicle_type_id":"4","last_reported":1730556455,"current_range_meters":21600,"station_id":"ce4bhr92rcd13ifvqhrg","pricing_plan_id":"cebpf4jnsgd1na2vs0mg"},{"bike_id":"56e38add-0f78-4341-b643-7b0849d3280d","system_id":"levelo_inurba_marseille","lat":43.22922,"lon":5.35384,"is_reserved":false,"is_disabled":false,"rental_uris":{"android":"levelo://app?vid=56e38add-0f78-4341-b643-7b0849d3280d","ios":"levelo://app?vid=56e38add-0f78-4341-b643-7b0849d3280d"},"vehicle_type_id":"4","last_reported":1730556455,"current_range_meters":39200,"station_id":"cpo3532slgdg3j2ikp40","pricing_plan_id":"cebpf4jnsgd1na2vs0mg"},{"bike_id":"73bf3b5a-fd5f-4fb9-b0d9-d2264a22c29a","system_id":"levelo_inurba_marseille","lat":43.29275,"lon":5.36848,"is_reserved":false,"is_disabled":false,"rental_uris":{"android":"levelo://app?vid=73bf3b5a-fd5f-4fb9-b0d9-d2264a22c29a","ios":"levelo://app?vid=73bf3b5a-fd5f-4fb9-b0d9-d2264a22c29a"},"vehicle_type_id":"4","last_reported":1730556455,"current_range_meters":9200,"station_id":"ce4bhbp2rcd13ifvqesg","pricing_plan_id":"cebpf4jnsgd1na2vs0mg"},{"bike_id":"ab37d53b-9452-4e85-839c-f6508f3b9246","system_id":"levelo_inurba_marseille","lat":43.30598,"lon":5.3936,"is_reserved":false,"is_disabled":false,"rental_uris":{"android":"levelo://app?vid=ab37d53b-9452-4e85-839c-f6508f3b9246","ios":"levelo://app?vid=ab37d53b-9452-4e85-839c-f6508f3b9246"},"vehicle_type_id":"4","last_reported":1730556455,"current_range_meters":34800,"station_id":"ce4bh0p2rcd13ifvqd80","pricing_plan_id":"cebpf4jnsgd1na2vs0mg"},{"bike_id":"b7e5fcd4-fccc-4a36-ac73-b4f28d59aa73","system_id":"levelo_inurba_marseille","lat":43.28425,"lon":5.34986,"is_reserved":false,"is_disabled":false,"rental_uris":{"android":"levelo://app?vid=b7e5fcd4-fccc-4a36-ac73-b4f28d59aa73","ios":"levelo://app?vid=b7e5fcd4-fccc-4a36-ac73-b4f28d59aa73"},"vehicle_type_id":"4","last_reported":1730556455,"current_range_meters":28800,"station_id":"ce4bhbh2rcd13ifvqepg","pricing_plan_id":"cebpf4jnsgd1na2vs0mg"},{"bike_id":"6a1c7908-1c8b-41bc-8ee1-a7d98c5c1310","system_id":"levelo_inurba_marseille","lat":43.28456,"lon":5.359,"is_reserved":false,"is_disabled":false,"rental_uris":{"android":"levelo://app?vid=6a1c7908-1c8b-41bc-8ee1-a7d98c5c1310","ios":"levelo://app?vid=6a1c7908-1c8b-41bc-8ee1-a7d98c5c1310"},"vehicle_type_id":"4","last_reported":1730556455,"current_range_meters":10000,"station_id":"ce4bhah2rcd13ifvqei0","pricing_plan_id":"cebpf4jnsgd1na2vs0mg"},{"bike_id":"ba652f20-335e-499c-9c5f-09c9b18a178e","system_id":"levelo_inurba_marseille","lat":43.27069,"lon":5.42281,"is_reserved":false,"is_disabled":false,"rental_uris":{"android":"levelo://app?vid=ba652f20-335e-499c-9c5f-09c9b18a178e","ios":"levelo://app?vid=ba652f20-335e-499c-9c5f-09c9b18a178e"},"vehicle_type_id":"4","last_reported":1730556455,"current_range_meters":27200,"station_id":"ce4bhk92rcd13ifvqgb0","pricing_plan_id":"cebpf4jnsgd1na2vs0mg"},{"bike_id":"7860a8eb-8bd7-4aa0-83fa-7000922a7285","system_id":"levelo_inurba_marseille","lat":43.32292,"lon":5.38272,"is_reserved":false,"is_disabled":false,"rental_uris":{"android":"levelo://app?vid=7860a8eb-8bd7-4aa0-83fa-7000922a7285","ios":"levelo://app?vid=7860a8eb-8bd7-4aa0-83fa-7000922a7285"},"vehicle_type_id":"4","last_reported":1730556455,"current_range_meters":38800,"station_id":"ce4bhr12rcd13ifvqhqg","pricing_plan_id":"cebpf4jnsgd1na2vs0mg"},{"bike_id":"3ab46d2b-27f4-4eb5-a71a-7ef5d6848fd2","system_id":"levelo_inurba_marseille","lat":43.2692,"lon":5.38915,"is_reserved":false,"is_disabled":false,"rental_uris":{"android":"levelo://app?vid=3ab46d2b-27f4-4eb5-a71a-7ef5d6848fd2","ios":"levelo://app?vid=3ab46d2b-27f4-4eb5-a71a-7ef5d6848fd2"},"vehicle_type_id":"4","last_reported":1730556455,"current_range_meters":20800,"station_id":"ce4bhhh2rcd13ifvqfl0","pricing_plan_id":"cebpf4jnsgd1na2vs0mg"},{"bike_id":"84eff928-eb31-4529-a9cd-6308c845218b","system_id":"levelo_inurba_marseille","lat":43.26195,"lon":5.37448,"is_reserved":false,"is_disabled":false,"rental_uris":{"android":"levelo://app?vid=84eff928-eb31-4529-a9cd-6308c845218b","ios":"levelo://app?vid=84eff928-eb31-4529-a9cd-6308c845218b"},"vehicle_type_id":"4","last_reported":1730556455,"current_range_meters":30800,"station_id":"ce4bhgp2rcd13ifvqfc0","pricing_plan_id":"cebpf4jnsgd1na2vs0mg"},{"bike_id":"5e53f37e-57f3-45e9-9cfc-a2eccff42800","system_id":"levelo_inurba_marseille","lat":43.30464,"lon":5.37922,"is_reserved":false,"is_disabled":false,"rental_uris":{"android":"levelo://app?vid=5e53f37e-57f3-45e9-9cfc-a2eccff42800","ios":"levelo://app?vid=5e53f37e-57f3-45e9-9cfc-a2eccff42800"},"vehicle_type_id":"4","last_reported":1730556455,"current_range_meters":36800,"station_id":"ce4bgup2rcd13ifvqcn0","pricing_plan_id":"cebpf4jnsgd1na2vs0mg"},{"bike_id":"0e6a5012-9b0b-4949-bd7c-98dc2b9aad0a","system_id":"levelo_inurba_marseille","lat":43.28424,"lon":5.34984,"is_reserved":false,"is_disabled":false,"rental_uris":{"android":"levelo://app?vid=0e6a5012-9b0b-4949-bd7c-98dc2b9aad0a","ios":"levelo://app?vid=0e6a5012-9b0b-4949-bd7c-98dc2b9aad0a"},"vehicle_type_id":"4","last_reported":1730556455,"current_range_meters":34800,"station_id":"ce4bhbh2rcd13ifvqepg","pricing_plan_id":"cebpf4jnsgd1na2vs0mg"},{"bike_id":"b66ece50-bc4f-4a5d-b2a3-ef5f9aba4661","system_id":"levelo_inurba_marseille","lat":43.29269,"lon":5.36838,"is_reserved":false,"is_disabled":false,"rental_uris":{"android":"levelo://app?vid=b66ece50-bc4f-4a5d-b2a3-ef5f9aba4661","ios":"levelo://app?vid=b66ece50-bc4f-4a5d-b2a3-ef5f9aba4661"},"vehicle_type_id":"4","last_reported":1730556455,"current_range_meters":38800,"station_id":"ce4bhbp2rcd13ifvqesg","pricing_plan_id":"cebpf4jnsgd1na2vs0mg"},{"bike_id":"be3e39dd-ba2b-4ec9-87c0-24eda0d85e9d","system_id":"levelo_inurba_marseille","lat":43.2737,"lon":5.3626,"is_reserved":false,"is_disabled":false,"rental_uris":{"android":"levelo://app?vid=be3e39dd-ba2b-4ec9-87c0-24eda0d85e9d","ios":"levelo://app?vid=be3e39dd-ba2b-4ec9-87c0-24eda0d85e9d"},"vehicle_type_id":"4","last_reported":1730556455,"current_range_meters":22400,"station_id":"ce4bhbh2rcd13ifvqeo0","pricing_plan_id":"cebpf4jnsgd1na2vs0mg"},{"bike_id":"dd85fdee-7b4e-41ea-9ba5-3da808cd5ca6","system_id":"levelo_inurba_marseille","lat":43.22924,"lon":5.35381,"is_reserved":false,"is_disabled":false,"rental_uris":{"android":"levelo://app?vid=dd85fdee-7b4e-41ea-9ba5-3da808cd5ca6","ios":"levelo://app?vid=dd85fdee-7b4e-41ea-9ba5-3da808cd5ca6"},"vehicle_type_id":"4","last_reported":1730556455,"current_range_meters":39200,"station_id":"cpo3532slgdg3j2ikp40","pricing_plan_id":"cebpf4jnsgd1na2vs0mg"},{"bike_id":"513d14f4-5afd-4b94-9007-d500e8f033d7","system_id":"levelo_inurba_marseille","lat":43.24386,"lon":5.37047,"is_reserved":false,"is_disabled":false,"rental_uris":{"android":"levelo://app?vid=513d14f4-5afd-4b94-9007-d500e8f033d7","ios":"levelo://app?vid=513d14f4-5afd-4b94-9007-d500e8f033d7"},"vehicle_type_id":"4","last_reported":1730556455,"current_range_meters":25600,"station_id":"ce4bhhh2rcd13ifvqfk0","pricing_plan_id":"cebpf4jnsgd1na2vs0mg"},{"bike_id":"fa0d0175-496c-492e-bcfc-001ea3bdf18e","system_id":"levelo_inurba_marseille","lat":43.295257,"lon":5.37514,"is_reserved":false,"is_disabled":false,"rental_uris":{"android":"levelo://app?vid=fa0d0175-496c-492e-bcfc-001ea3bdf18e","ios":"levelo://app?vid=fa0d0175-496c-492e-bcfc-001ea3bdf18e"},"vehicle_type_id":"4","last_reported":1730556455,"current_range_meters":38800,"station_id":"ce4bgkp2rcd13ifvqbmg","pricing_plan_id":"cebpf4jnsgd1na2vs0mg"},{"bike_id":"8057a42a-f8ce-4fdc-978e-e7b8a2aaa700","system_id":"levelo_inurba_marseille","lat":43.23194,"lon":5.35549,"is_reserved":false,"is_disabled":false,"rental_uris":{"android":"levelo://app?vid=8057a42a-f8ce-4fdc-978e-e7b8a2aaa700","ios":"levelo://app?vid=8057a42a-f8ce-4fdc-978e-e7b8a2aaa700"},"vehicle_type_id":"4","last_reported":1730556455,"current_range_meters":24800,"station_id":"ce4bhu92rcd13ifvqi70","pricing_plan_id":"cebpf4jnsgd1na2vs0mg"},{"bike_id":"f4af9b65-ead8-42b6-9aff-96dcb65810b8","system_id":"levelo_inurba_marseille","lat":43.26946,"lon":5.40252,"is_reserved":false,"is_disabled":false,"rental_uris":{"android":"levelo://app?vid=f4af9b65-ead8-42b6-9aff-96dcb65810b8","ios":"levelo://app?vid=f4af9b65-ead8-42b6-9aff-96dcb65810b8"},"vehicle_type_id":"4","last_reported":1730556455,"current_range_meters":30400,"station_id":"cjm6bp8fraef2m0cb0m0","pricing_plan_id":"cebpf4jnsgd1na2vs0mg"},{"bike_id":"82c5577f-e6ae-4d6f-a008-7ec54a290700","system_id":"levelo_inurba_marseille","lat":43.279663,"lon":5.387445,"is_reserved":false,"is_disabled":false,"rental_uris":{"android":"levelo://app?vid=82c5577f-e6ae-4d6f-a008-7ec54a290700","ios":"levelo://app?vid=82c5577f-e6ae-4d6f-a008-7ec54a290700"},"vehicle_type_id":"4","last_reported":1730556455,"current_range_meters":38000,"station_id":"ce4bhg12rcd13ifvqf80","pricing_plan_id":"cebpf4jnsgd1na2vs0mg"},{"bike_id":"321c4d31-12ad-4375-9041-becaa3cb05da","system_id":"levelo_inurba_marseille","lat":43.27493,"lon":5.42456,"is_reserved":false,"is_disabled":false,"rental_uris":{"android":"levelo://app?vid=321c4d31-12ad-4375-9041-becaa3cb05da","ios":"levelo://app?vid=321c4d31-12ad-4375-9041-becaa3cb05da"},"vehicle_type_id":"4","last_reported":1730556455,"current_range_meters":31200,"station_id":"ce4bhn92rcd13ifvqgrg","pricing_plan_id":"cebpf4jnsgd1na2vs0mg"},{"bike_id":"f6d1eaf1-10f9-4cec-be54-3848e3e5a665","system_id":"levelo_inurba_marseille","lat":43.23155,"lon":5.43703,"is_reserved":false,"is_disabled":false,"rental_uris":{"android":"levelo://app?vid=f6d1eaf1-10f9-4cec-be54-3848e3e5a665","ios":"levelo://app?vid=f6d1eaf1-10f9-4cec-be54-3848e3e5a665"},"vehicle_type_id":"4","last_reported":1730556455,"current_range_meters":10000,"station_id":"ce4bhmp2rcd13ifvqgog","pricing_plan_id":"cebpf4jnsgd1na2vs0mg"},{"bike_id":"41d47d69-979b-4480-8fb6-135de4b1e8ff","system_id":"levelo_inurba_marseille","lat":43.2571,"lon":5.41133,"is_reserved":false,"is_disabled":false,"rental_uris":{"android":"levelo://app?vid=41d47d69-979b-4480-8fb6-135de4b1e8ff","ios":"levelo://app?vid=41d47d69-979b-4480-8fb6-135de4b1e8ff"},"vehicle_type_id":"4","last_reported":1730556455,"current_range_meters":38800,"station_id":"ce4bhkp2rcd13ifvqgd0","pricing_plan_id":"cebpf4jnsgd1na2vs0mg"},{"bike_id":"4a9fb076-52cf-4f3a-a4dc-4536b05804cd","system_id":"levelo_inurba_marseille","lat":43.28269,"lon":5.35077,"is_reserved":false,"is_disabled":false,"rental_uris":{"android":"levelo://app?vid=4a9fb076-52cf-4f3a-a4dc-4536b05804cd","ios":"levelo://app?vid=4a9fb076-52cf-4f3a-a4dc-4536b05804cd"},"vehicle_type_id":"4","last_reported":1730556455,"current_range_meters":37600,"station_id":"ce4bhbp2rcd13ifvqerg","pricing_plan_id":"cebpf4jnsgd1na2vs0mg"},{"bike_id":"6690dfac-4ede-40ff-9a05-5e48a2adb74e","system_id":"levelo_inurba_marseille","lat":43.25582,"lon":5.3823,"is_reserved":false,"is_disabled":false,"rental_uris":{"android":"levelo://app?vid=6690dfac-4ede-40ff-9a05-5e48a2adb74e","ios":"levelo://app?vid=6690dfac-4ede-40ff-9a05-5e48a2adb74e"},"vehicle_type_id":"4","last_reported":1730556455,"current_range_meters":7200,"station_id":"ce4bhih2rcd13ifvqfs0","pricing_plan_id":"cebpf4jnsgd1na2vs0mg"},{"bike_id":"fba35eaf-570a-46a8-917f-b0c8cafbe735","system_id":"levelo_inurba_marseille","lat":43.27174,"lon":5.40997,"is_reserved":false,"is_disabled":false,"rental_uris":{"android":"levelo://app?vid=fba35eaf-570a-46a8-917f-b0c8cafbe735","ios":"levelo://app?vid=fba35eaf-570a-46a8-917f-b0c8cafbe735"},"vehicle_type_id":"4","last_reported":1730556455,"current_range_meters":34800,"station_id":"ce4bhl12rcd13ifvqgf0","pricing_plan_id":"cebpf4jnsgd1na2vs0mg"},{"bike_id":"b8c4b104-f130-4889-80a7-2d5b5f02035d","system_id":"levelo_inurba_marseille","lat":43.28419,"lon":5.34982,"is_reserved":false,"is_disabled":false,"rental_uris":{"android":"levelo://app?vid=b8c4b104-f130-4889-80a7-2d5b5f02035d","ios":"levelo://app?vid=b8c4b104-f130-4889-80a7-2d5b5f02035d"},"vehicle_type_id":"4","last_reported":1730556455,"current_range_meters":38000,"station_id":"ce4bhbh2rcd13ifvqepg","pricing_plan_id":"cebpf4jnsgd1na2vs0mg"},{"bike_id":"922b627d-0694-41ee-9432-6b8033b4e347","system_id":"levelo_inurba_marseille","lat":43.29307,"lon":5.37169,"is_reserved":false,"is_disabled":false,"rental_uris":{"android":"levelo://app?vid=922b627d-0694-41ee-9432-6b8033b4e347","ios":"levelo://app?vid=922b627d-0694-41ee-9432-6b8033b4e347"},"vehicle_type_id":"4","last_reported":1730556455,"current_range_meters":38800,"station_id":"ce4bgh92rcd13ifvqb40","pricing_plan_id":"cebpf4jnsgd1na2vs0mg"},{"bike_id":"803b6c66-ab68-40a1-ac15-91315de0b858","system_id":"levelo_inurba_marseille","lat":43.29072,"lon":5.3717,"is_reserved":false,"is_disabled":false,"rental_uris":{"android":"levelo://app?vid=803b6c66-ab68-40a1-ac15-91315de0b858","ios":"levelo://app?vid=803b6c66-ab68-40a1-ac15-91315de0b858"},"vehicle_type_id":"4","last_reported":1730556455,"current_range_meters":22000,"station_id":"ce4bh5p2rcd13ifvqe4g","pricing_plan_id":"cebpf4jnsgd1na2vs0mg"},{"bike_id":"7277536f-fdff-4c4d-bd3f-063962ce583f","system_id":"levelo_inurba_marseille","lat":43.29897,"lon":5.43666,"is_reserved":false,"is_disabled":false,"rental_uris":{"android":"levelo://app?vid=7277536f-fdff-4c4d-bd3f-063962ce583f","ios":"levelo://app?vid=7277536f-fdff-4c4d-bd3f-063962ce583f"},"vehicle_type_id":"4","last_reported":1730556455,"current_range_meters":28000,"station_id":"ce4bhpp2rcd13ifvqhfg","pricing_plan_id":"cebpf4jnsgd1na2vs0mg"},{"bike_id":"50962afe-7baf-430e-bc64-2e13b0a313b1","system_id":"levelo_inurba_marseille","lat":43.30323,"lon":5.40442,"is_reserved":false,"is_disabled":false,"rental_uris":{"android":"levelo://app?vid=50962afe-7baf-430e-bc64-2e13b0a313b1","ios":"levelo://app?vid=50962afe-7baf-430e-bc64-2e13b0a313b1"},"vehicle_type_id":"4","last_reported":1730556455,"current_range_meters":33200,"station_id":"ce4bh012rcd13ifvqd10","pricing_plan_id":"cebpf4jnsgd1na2vs0mg"},{"bike_id":"bb903235-10f7-432d-bddc-ce7ccf0f3776","system_id":"levelo_inurba_marseille","lat":43.27052,"lon":5.40274,"is_reserved":false,"is_disabled":false,"rental_uris":{"android":"levelo://app?vid=bb903235-10f7-432d-bddc-ce7ccf0f3776","ios":"levelo://app?vid=bb903235-10f7-432d-bddc-ce7ccf0f3776"},"vehicle_type_id":"4","last_reported":1730556455,"current_range_meters":36800,"station_id":"ce4bhk92rcd13ifvqgc0","pricing_plan_id":"cebpf4jnsgd1na2vs0mg"},{"bike_id":"d1836a9b-c994-405a-81fd-676837d90764","system_id":"levelo_inurba_marseille","lat":43.2955,"lon":5.42291,"is_reserved":false,"is_disabled":false,"rental_uris":{"android":"levelo://app?vid=d1836a9b-c994-405a-81fd-676837d90764","ios":"levelo://app?vid=d1836a9b-c994-405a-81fd-676837d90764"},"vehicle_type_id":"4","last_reported":1730556455,"current_range_meters":31200,"station_id":"ce4bhph2rcd13ifvqhdg","pricing_plan_id":"cebpf4jnsgd1na2vs0mg"},{"bike_id":"6aecf1eb-4311-4d97-ac20-db3471fec668","system_id":"levelo_inurba_marseille","lat":43.30907,"lon":5.3685,"is_reserved":false,"is_disabled":false,"rental_uris":{"android":"levelo://app?vid=6aecf1eb-4311-4d97-ac20-db3471fec668","ios":"levelo://app?vid=6aecf1eb-4311-4d97-ac20-db3471fec668"},"vehicle_type_id":"4","last_reported":1730556455,"current_range_meters":24800,"station_id":"ce4bgn92rcd13ifvqbvg","pricing_plan_id":"cebpf4jnsgd1na2vs0mg"},{"bike_id":"998cece1-066c-41a2-bc33-b071eea0c432","system_id":"levelo_inurba_marseille","lat":43.29674,"lon":5.37288,"is_reserved":false,"is_disabled":false,"rental_uris":{"android":"levelo://app?vid=998cece1-066c-41a2-bc33-b071eea0c432","ios":"levelo://app?vid=998cece1-066c-41a2-bc33-b071eea0c432"},"vehicle_type_id":"4","last_reported":1730556455,"current_range_meters":38400,"station_id":"ce4bgk12rcd13ifvqbj0","pricing_plan_id":"cebpf4jnsgd1na2vs0mg"},{"bike_id":"c085e585-3807-4067-8841-1a78494ee531","system_id":"levelo_inurba_marseille","lat":43.25496,"lon":5.37647,"is_reserved":false,"is_disabled":false,"rental_uris":{"android":"levelo://app?vid=c085e585-3807-4067-8841-1a78494ee531","ios":"levelo://app?vid=c085e585-3807-4067-8841-1a78494ee531"},