{"last_updated":1751494213,"ttl":60,"version":"2.2","data":{"bikes":[{"bike_id":"3da29fb8-fc97-44c6-b9ac-31dd456b2fd4","system_id":"levelo_inurba_marseille","lat":43.33771,"lon":5.37424,"is_reserved":false,"is_disabled":true,"rental_uris":{"android":"levelo://app?vid=3da29fb8-fc97-44c6-b9ac-31dd456b2fd4","ios":"levelo://app?vid=3da29fb8-fc97-44c6-b9ac-31dd456b2fd4"},"vehicle_type_id":"4","last_reported":1751494213,"current_range_meters":0,"station_id":"","pricing_plan_id":"cebpf4jnsgd1na2vs0mg"},{"bike_id":"01861ad8-a8d7-4be6-816e-651927c87584","system_id":"levelo_inurba_marseille","lat":43.33751,"lon":5.37456,"is_reserved":false,"is_disabled":true,"rental_uris":{"android":"levelo://app?vid=01861ad8-a8d7-4be6-816e-651927c87584","ios":"levelo://app?vid=01861ad8-a8d7-4be6-816e-651927c87584"},"vehicle_type_id":"4","last_reported":1751494213,"current_range_meters":0,"station_id":"","pricing_plan_id":"cebpf4jnsgd1na2vs0mg"},{"bike_id":"371877a1-9494-4af8-8e6e-405e7c47ef43","system_id":"levelo_inurba_marseille","lat":43.29293,"lon":5.40714,"is_reserved":false,"is_disabled":true,"rental_uris":{"android":"levelo://app?vid=371877a1-9494-4af8-8e6e-405e7c47ef43","ios":"levelo://app?vid=371877a1-9494-4af8-8e6e-405e7c47ef43"},"vehicle_type_id":"4","last_reported":1751494213,"current_range_meters":0,"station_id":"","pricing_plan_id":"cebpf4jnsgd1na2vs0mg"},{"bike_id":"6e5b5a4d-1ee5-4068-9613-fb44ab4d8a9a","system_id":"levelo_inurba_marseille","lat":43.34857,"lon":5.34663,"is_reserved":false,"is_disabled":true,"rental_uris":{"android":"levelo://app?vid=6e5b5a4d-1ee5-4068-9613-fb44ab4d8a9a","ios":"levelo://app?vid=6e5b5a4d-1ee5-4068-9613-fb44ab4d8a9a"},"vehicle_type_id":"4","last_reported":1751494213,"current_range_meters":0,"station_id":"","pricing_plan_id":"cebpf4jnsgd1na2vs0mg"},{"bike_id":"88ba2eb8-6abc-42f0-a2b7-fafab863863b","system_id":"levelo_inurba_marseille","lat":43.26111,"lon":5.37358,"is_reserved":false,"is_disabled":true,"rental_uris":{"android":"levelo://app?vid=88ba2eb8-6abc-42f0-a2b7-fafab863863b","ios":"levelo://app?vid=88ba2eb8-6abc-42f0-a2b7-fafab863863b"},"vehicle_type_id":"4","last_reported":1751494213,"current_range_meters":0,"station_id":"","pricing_plan_id":"cebpf4jnsgd1na2vs0mg"},{"bike_id":"db230280-affa-43ed-865a-dbdbfae7105b","system_id":"levelo_inurba_marseille","lat":43.281535,"lon":5.426336,"is_reserved":false,"is_disabled":true,"rental_uris":{"android":"levelo://app?vid=db230280-affa-43ed-865a-dbdbfae7105b","ios":"levelo://app?vid=db230280-affa-43ed-865a-dbdbfae7105b"},"vehicle_type_id":"4","last_reported":1751494213,"current_range_meters":0,"station_id":"ce4bhnh2rcd13ifvqgug","pricing_plan_id":"cebpf4jnsgd1na2vs0mg"},{"bike_id":"be4771a0-f822-40f0-a95c-2aaca1d3fb3c","system_id":"levelo_inurba_marseille","lat":43.21762,"lon":5.34636,"is_reserved":false,"is_disabled":true,"rental_uris":{"android":"levelo://app?vid=be4771a0-f822-40f0-a95c-2aaca1d3fb3c","ios":"levelo://app?vid=be4771a0-f822-40f0-a95c-2aaca1d3fb3c"},"vehicle_type_id":"4","last_reported":1751494213,"current_range_meters":0,"station_id":"st_cvj6r9ubvosntc0bgbag","pricing_plan_id":"cebpf4jnsgd1na2vs0mg"},{"bike_id":"edeb6452-5ea1-44bc-9c4d-569aca49f8a0","system_id":"levelo_inurba_marseille","lat":43.30935,"lon":5.40141,"is_reserved":false,"is_disabled":true,"rental_uris":{"android":"levelo://app?vid=edeb6452-5ea1-44bc-9c4d-569aca49f8a0","ios":"levelo://app?vid=edeb6452-5ea1-44bc-9c4d-569aca49f8a0"},"vehicle_type_id":"4","last_reported":1751494213,"current_range_meters":800,"station_id":"ce4bgvp2rcd13ifvqct0","pricing_plan_id":"cebpf4jnsgd1na2vs0mg"},{"bike_id":"10be7a19-7bb3-4be8-8e03-f074498ccbe9","system_id":"levelo_inurba_marseille","lat":43.21758,"lon":5.34642,"is_reserved":false,"is_disabled":true,"rental_uris":{"android":"levelo://app?vid=10be7a19-7bb3-4be8-8e03-f074498ccbe9","ios":"levelo://app?vid=10be7a19-7bb3-4be8-8e03-f074498ccbe9"},"vehicle_type_id":"4","last_reported":1751494213,"current_range_meters":1600,"station_id":"st_cvj6r9ubvosntc0bgbag","pricing_plan_id":"cebpf4jnsgd1na2vs0mg"},{"bike_id":"8252b44a-d048-4379-9209-2efa2e627825","system_id":"levelo_inurba_marseille","lat":43.29245,"lon":5.40559,"is_reserved":false,"is_disabled":false,"rental_uris":{"android":"levelo://app?vid=8252b44a-d048-4379-9209-2efa2e627825","ios":"levelo://app?vid=8252b44a-d048-4379-9209-2efa2e627825"},"vehicle_type_id":"4","last_reported":1751494213,"current_range_meters":3200,"station_id":"","pricing_plan_id":"cebpf4jnsgd1na2vs0mg"},{"bike_id":"8e365e3c-559a-4ba6-a6c5-4c159e2434fc","system_id":"levelo_inurba_marseille","lat":43.21738,"lon":5.34606,"is_reserved":false,"is_disabled":false,"rental_uris":{"android":"levelo://app?vid=8e365e3c-559a-4ba6-a6c5-4c159e2434fc","ios":"levelo://app?vid=8e365e3c-559a-4ba6-a6c5-4c159e2434fc"},"vehicle_type_id":"4","last_reported":1751494213,"current_range_meters":3200,"station_id":"","pricing_plan_id":"cebpf4jnsgd1na2vs0mg"},{"bike_id":"c9061a5a-4bb6-45af-91b8-6b0edc9b163b","system_id":"levelo_inurba_marseille","lat":43.304169,"lon":5.412834,"is_reserved":false,"is_disabled":false,"rental_uris":{"android":"levelo://app?vid=c9061a5a-4bb6-45af-91b8-6b0edc9b163b","ios":"levelo://app?vid=c9061a5a-4bb6-45af-91b8-6b0edc9b163b"},"vehicle_type_id":"4","last_reported":1751494213,"current_range_meters":3200,"station_id":"ce4bhop2rcd13ifvqh8g","pricing_plan_id":"cebpf4jnsgd1na2vs0mg"},{"bike_id":"afa89442-abe0-42b4-a7eb-75a3e27dd984","system_id":"levelo_inurba_marseille","lat":43.24181,"lon":5.39743,"is_reserved":false,"is_disabled":false,"rental_uris":{"android":"levelo://app?vid=afa89442-abe0-42b4-a7eb-75a3e27dd984","ios":"levelo://app?vid=afa89442-abe0-42b4-a7eb-75a3e27dd984"},"vehicle_type_id":"4","last_reported":1751494213,"current_range_meters":3600,"station_id":"ce4bhn12rcd13ifvqgpg","pricing_plan_id":"cebpf4jnsgd1na2vs0mg"},{"bike_id":"eb6298f3-da23-4583-904d-84a7d9251bb0","system_id":"levelo_inurba_marseille","lat":43.296547,"lon":5.40623,"is_reserved":false,"is_disabled":false,"rental_uris":{"android":"levelo://app?vid=eb6298f3-da23-4583-904d-84a7d9251bb0","ios":"levelo://app?vid=eb6298f3-da23-4583-904d-84a7d9251bb0"},"vehicle_type_id":"4","last_reported":1751494213,"current_range_meters":4000,"station_id":"ce4bh0h2rcd13ifvqd60","pricing_plan_id":"cebpf4jnsgd1na2vs0mg"},{"bike_id":"27067321-28f8-41cd-b5ee-d1b06c146bef","system_id":"levelo_inurba_marseille","lat":43.29752,"lon":5.37714,"is_reserved":false,"is_disabled":false,"rental_uris":{"android":"levelo://app?vid=27067321-28f8-41cd-b5ee-d1b06c146bef","ios":"levelo://app?vid=27067321-28f8-41cd-b5ee-d1b06c146bef"},"vehicle_type_id":"4","last_reported":1751494213,"current_range_meters":4400,"station_id":"","pricing_plan_id":"cebpf4jnsgd1na2vs0mg"},{"bike_id":"68b2349c-6f12-4221-a715-e2c4004b49b1","system_id":"levelo_inurba_marseille","lat":43.3032,"lon":5.40444,"is_reserved":false,"is_disabled":false,"rental_uris":{"android":"levelo://app?vid=68b2349c-6f12-4221-a715-e2c4004b49b1","ios":"levelo://app?vid=68b2349c-6f12-4221-a715-e2c4004b49b1"},"vehicle_type_id":"4","last_reported":1751494213,"current_range_meters":4400,"station_id":"ce4bh012rcd13ifvqd10","pricing_plan_id":"cebpf4jnsgd1na2vs0mg"},{"bike_id":"7de7c2c8-df6b-43fa-b263-6c016dae4134","system_id":"levelo_inurba_marseille","lat":43.278147,"lon":5.414453,"is_reserved":false,"is_disabled":false,"rental_uris":{"android":"levelo://app?vid=7de7c2c8-df6b-43fa-b263-6c016dae4134","ios":"levelo://app?vid=7de7c2c8-df6b-43fa-b263-6c016dae4134"},"vehicle_type_id":"4","last_reported":1751494213,"current_range_meters":4800,"station_id":"","pricing_plan_id":"cebpf4jnsgd1na2vs0mg"},{"bike_id":"132b23ac-fe68-465e-a140-d27c98616424","system_id":"levelo_inurba_marseille","lat":43.28709,"lon":5.4,"is_reserved":false,"is_disabled":false,"rental_uris":{"android":"levelo://app?vid=132b23ac-fe68-465e-a140-d27c98616424","ios":"levelo://app?vid=132b23ac-fe68-465e-a140-d27c98616424"},"vehicle_type_id":"4","last_reported":1751494213,"current_range_meters":4800,"station_id":"ce4bho92rcd13ifvqh3g","pricing_plan_id":"cebpf4jnsgd1na2vs0mg"},{"bike_id":"983a24f1-7c8b-44f7-95ee-e3dfa2217662","system_id":"levelo_inurba_marseille","lat":43.273706,"lon":5.362591,"is_reserved":false,"is_disabled":false,"rental_uris":{"android":"levelo://app?vid=983a24f1-7c8b-44f7-95ee-e3dfa2217662","ios":"levelo://app?vid=983a24f1-7c8b-44f7-95ee-e3dfa2217662"},"vehicle_type_id":"4","last_reported":1751494213,"current_range_meters":6000,"station_id":"ce4bhbh2rcd13ifvqeo0","pricing_plan_id":"cebpf4jnsgd1na2vs0mg"},{"bike_id":"7e59a5e7-06bd-446f-b29a-690dbd3c834e","system_id":"levelo_inurba_marseille","lat":43.24663,"lon":5.3817,"is_reserved":false,"is_disabled":false,"rental_uris":{"android":"levelo://app?vid=7e59a5e7-06bd-446f-b29a-690dbd3c834e","ios":"levelo://app?vid=7e59a5e7-06bd-446f-b29a-690dbd3c834e"},"vehicle_type_id":"4","last_reported":1751494213,"current_range_meters":6400,"station_id":"ce4bhih2rcd13ifvqfr0","pricing_plan_id":"cebpf4jnsgd1na2vs0mg"},{"bike_id":"9bd28efc-20b9-4736-a7b2-bc51401b637c","system_id":"levelo_inurba_marseille","lat":43.27184,"lon":5.40995,"is_reserved":false,"is_disabled":false,"rental_uris":{"android":"levelo://app?vid=9bd28efc-20b9-4736-a7b2-bc51401b637c","ios":"levelo://app?vid=9bd28efc-20b9-4736-a7b2-bc51401b637c"},"vehicle_type_id":"4","last_reported":1751494213,"current_range_meters":6400,"station_id":"ce4bhl12rcd13ifvqgf0","pricing_plan_id":"cebpf4jnsgd1na2vs0mg"},{"bike_id":"29c5ba0f-727f-4a5f-a809-9108e5a801e9","system_id":"levelo_inurba_marseille","lat":43.30596,"lon":5.3722,"is_reserved":false,"is_disabled":false,"rental_uris":{"android":"levelo://app?vid=29c5ba0f-727f-4a5f-a809-9108e5a801e9","ios":"levelo://app?vid=29c5ba0f-727f-4a5f-a809-9108e5a801e9"},"vehicle_type_id":"4","last_reported":1751494213,"current_range_meters":6800,"station_id":"ce4bgqh2rcd13ifvqc4g","pricing_plan_id":"cebpf4jnsgd1na2vs0mg"},{"bike_id":"6df43c07-5a3b-4772-b27e-1e56435acb39","system_id":"levelo_inurba_marseille","lat":43.26498,"lon":5.39135,"is_reserved":false,"is_disabled":false,"rental_uris":{"android":"levelo://app?vid=6df43c07-5a3b-4772-b27e-1e56435acb39","ios":"levelo://app?vid=6df43c07-5a3b-4772-b27e-1e56435acb39"},"vehicle_type_id":"4","last_reported":1751494213,"current_range_meters":7200,"station_id":"","pricing_plan_id":"cebpf4jnsgd1na2vs0mg"},{"bike_id":"a98e9b2e-2cd7-455a-b4d2-274d7e49192f","system_id":"levelo_inurba_marseille","lat":43.3133,"lon":5.39695,"is_reserved":false,"is_disabled":false,"rental_uris":{"android":"levelo://app?vid=a98e9b2e-2cd7-455a-b4d2-274d7e49192f","ios":"levelo://app?vid=a98e9b2e-2cd7-455a-b4d2-274d7e49192f"},"vehicle_type_id":"4","last_reported":1751494213,"current_range_meters":7200,"station_id":"ce4bgvp2rcd13ifvqcu0","pricing_plan_id":"cebpf4jnsgd1na2vs0mg"},{"bike_id":"503a8ef8-0786-43c4-91c5-aa25f4b1cce5","system_id":"levelo_inurba_marseille","lat":43.28849,"lon":5.35844,"is_reserved":false,"is_disabled":false,"rental_uris":{"android":"levelo://app?vid=503a8ef8-0786-43c4-91c5-aa25f4b1cce5","ios":"levelo://app?vid=503a8ef8-0786-43c4-91c5-aa25f4b1cce5"},"vehicle_type_id":"4","last_reported":1751494213,"current_range_meters":7200,"station_id":"ce4bhb12rcd13ifvqem0","pricing_plan_id":"cebpf4jnsgd1na2vs0mg"},{"bike_id":"20f1bbe2-e323-41bc-b5a1-4aa14664c641","system_id":"levelo_inurba_marseille","lat":43.25111,"lon":5.40324,"is_reserved":false,"is_disabled":false,"rental_uris":{"android":"levelo://app?vid=20f1bbe2-e323-41bc-b5a1-4aa14664c641","ios":"levelo://app?vid=20f1bbe2-e323-41bc-b5a1-4aa14664c641"},"vehicle_type_id":"4","last_reported":1751494213,"current_range_meters":7200,"station_id":"ce4bhlh2rcd13ifvqgig","pricing_plan_id":"cebpf4jnsgd1na2vs0mg"},{"bike_id":"c357dccb-973a-4123-a0c0-b95d3e1fcdb2","system_id":"levelo_inurba_marseille","lat":43.295544,"lon":5.422916,"is_reserved":false,"is_disabled":false,"rental_uris":{"android":"levelo://app?vid=c357dccb-973a-4123-a0c0-b95d3e1fcdb2","ios":"levelo://app?vid=c357dccb-973a-4123-a0c0-b95d3e1fcdb2"},"vehicle_type_id":"4","last_reported":1751494213,"current_range_meters":7200,"station_id":"ce4bhph2rcd13ifvqhdg","pricing_plan_id":"cebpf4jnsgd1na2vs0mg"},{"bike_id":"831a1b78-c454-45e2-aef6-7c4056ceab21","system_id":"levelo_inurba_marseille","lat":43.26942,"lon":5.40255,"is_reserved":false,"is_disabled":false,"rental_uris":{"android":"levelo://app?vid=831a1b78-c454-45e2-aef6-7c4056ceab21","ios":"levelo://app?vid=831a1b78-c454-45e2-aef6-7c4056ceab21"},"vehicle_type_id":"4","last_reported":1751494213,"current_range_meters":7200,"station_id":"cjm6bp8fraef2m0cb0m0","pricing_plan_id":"cebpf4jnsgd1na2vs0mg"},{"bike_id":"8becf1b9-b72c-4763-a062-bbd587ae45bf","system_id":"levelo_inurba_marseille","lat":43.326,"lon":5.42593,"is_reserved":false,"is_disabled":false,"rental_uris":{"android":"levelo://app?vid=8becf1b9-b72c-4763-a062-bbd587ae45bf","ios":"levelo://app?vid=8becf1b9-b72c-4763-a062-bbd587ae45bf"},"vehicle_type_id":"4","last_reported":1751494213,"current_range_meters":8000,"station_id":"","pricing_plan_id":"cebpf4jnsgd1na2vs0mg"},{"bike_id":"3001cdd3-a0d0-4a79-a0b3-b2b32e0b61fb","system_id":"levelo_inurba_marseille","lat":43.30591,"lon":5.39366,"is_reserved":false,"is_disabled":false,"rental_uris":{"android":"levelo://app?vid=3001cdd3-a0d0-4a79-a0b3-b2b32e0b61fb","ios":"levelo://app?vid=3001cdd3-a0d0-4a79-a0b3-b2b32e0b61fb"},"vehicle_type_id":"4","last_reported":1751494213,"current_range_meters":8000,"station_id":"ce4bh0p2rcd13ifvqd80","pricing_plan_id":"cebpf4jnsgd1na2vs0mg"},{"bike_id":"b43948fd-18a9-4c3e-889b-135b21034194","system_id":"levelo_inurba_marseille","lat":43.28401,"lon":5.37521,"is_reserved":false,"is_disabled":false,"rental_uris":{"android":"levelo://app?vid=b43948fd-18a9-4c3e-889b-135b21034194","ios":"levelo://app?vid=b43948fd-18a9-4c3e-889b-135b21034194"},"vehicle_type_id":"4","last_reported":1751494213,"current_range_meters":8000,"station_id":"ce4bh412rcd13ifvqds0","pricing_plan_id":"cebpf4jnsgd1na2vs0mg"},{"bike_id":"14c844cb-335b-49d4-ac2a-1433ae529299","system_id":"levelo_inurba_marseille","lat":43.24642,"lon":5.3817,"is_reserved":false,"is_disabled":false,"rental_uris":{"android":"levelo://app?vid=14c844cb-335b-49d4-ac2a-1433ae529299","ios":"levelo://app?vid=14c844cb-335b-49d4-ac2a-1433ae529299"},"vehicle_type_id":"4","last_reported":1751494213,"current_range_meters":8000,"station_id":"ce4bhih2rcd13ifvqfr0","pricing_plan_id":"cebpf4jnsgd1na2vs0mg"},{"bike_id":"5d037150-1d71-4eaa-92cd-3f59dc9b5e93","system_id":"levelo_inurba_marseille","lat":43.25111,"lon":5.40327,"is_reserved":false,"is_disabled":false,"rental_uris":{"android":"levelo://app?vid=5d037150-1d71-4eaa-92cd-3f59dc9b5e93","ios":"levelo://app?vid=5d037150-1d71-4eaa-92cd-3f59dc9b5e93"},"vehicle_type_id":"4","last_reported":1751494213,"current_range_meters":8000,"station_id":"ce4bhlh2rcd13ifvqgig","pricing_plan_id":"cebpf4jnsgd1na2vs0mg"},{"bike_id":"9610e57b-e24c-4c16-838c-092b893b30dc","system_id":"levelo_inurba_marseille","lat":43.21746,"lon":5.34595,"is_reserved":false,"is_disabled":false,"rental_uris":{"android":"levelo://app?vid=9610e57b-e24c-4c16-838c-092b893b30dc","ios":"levelo://app?vid=9610e57b-e24c-4c16-838c-092b893b30dc"},"vehicle_type_id":"4","last_reported":1751494213,"current_range_meters":8000,"station_id":"st_cvj6r9ubvosntc0bgbag","pricing_plan_id":"cebpf4jnsgd1na2vs0mg"},{"bike_id":"0eaf2857-a337-402c-85aa-624ad3ffe4ca","system_id":"levelo_inurba_marseille","lat":43.28457,"lon":5.35885,"is_reserved":false,"is_disabled":false,"rental_uris":{"android":"levelo://app?vid=0eaf2857-a337-402c-85aa-624ad3ffe4ca","ios":"levelo://app?vid=0eaf2857-a337-402c-85aa-624ad3ffe4ca"},"vehicle_type_id":"4","last_reported":1751494213,"current_range_meters":8400,"station_id":"ce4bhah2rcd13ifvqei0","pricing_plan_id":"cebpf4jnsgd1na2vs0mg"},{"bike_id":"cc7a4414-2de6-47aa-8a43-b8db10d13620","system_id":"levelo_inurba_marseille","lat":43.25076,"lon":5.39501,"is_reserved":false,"is_disabled":false,"rental_uris":{"android":"levelo://app?vid=cc7a4414-2de6-47aa-8a43-b8db10d13620","ios":"levelo://app?vid=cc7a4414-2de6-47aa-8a43-b8db10d13620"},"vehicle_type_id":"4","last_reported":1751494213,"current_range_meters":8400,"station_id":"ce4bhm12rcd13ifvqgkg","pricing_plan_id":"cebpf4jnsgd1na2vs0mg"},{"bike_id":"de0e2776-92a9-4d42-9315-643ca72e80ba","system_id":"levelo_inurba_marseille","lat":43.30884,"lon":5.37194,"is_reserved":false,"is_disabled":false,"rental_uris":{"android":"levelo://app?vid=de0e2776-92a9-4d42-9315-643ca72e80ba","ios":"levelo://app?vid=de0e2776-92a9-4d42-9315-643ca72e80ba"},"vehicle_type_id":"4","last_reported":1751494213,"current_range_meters":8800,"station_id":"ce4bguh2rcd13ifvqckg","pricing_plan_id":"cebpf4jnsgd1na2vs0mg"},{"bike_id":"21fd0996-e27d-49ed-9c5a-bb3f01f30398","system_id":"levelo_inurba_marseille","lat":43.3094,"lon":5.40146,"is_reserved":false,"is_disabled":false,"rental_uris":{"android":"levelo://app?vid=21fd0996-e27d-49ed-9c5a-bb3f01f30398","ios":"levelo://app?vid=21fd0996-e27d-49ed-9c5a-bb3f01f30398"},"vehicle_type_id":"4","last_reported":1751494213,"current_range_meters":8800,"station_id":"ce4bgvp2rcd13ifvqct0","pricing_plan_id":"cebpf4jnsgd1na2vs0mg"},{"bike_id":"29b6a37a-9890-4a5e-8903-a13d8b4e27e5","system_id":"levelo_inurba_marseille","lat":43.24662,"lon":5.38218,"is_reserved":false,"is_disabled":false,"rental_uris":{"android":"levelo://app?vid=29b6a37a-9890-4a5e-8903-a13d8b4e27e5","ios":"levelo://app?vid=29b6a37a-9890-4a5e-8903-a13d8b4e27e5"},"vehicle_type_id":"4","last_reported":1751494213,"current_range_meters":8800,"station_id":"ce4bhih2rcd13ifvqfr0","pricing_plan_id":"cebpf4jnsgd1na2vs0mg"},{"bike_id":"5c7bb3a7-a190-49da-8e2c-9ed602fec668","system_id":"levelo_inurba_marseille","lat":43.314872,"lon":5.373102,"is_reserved":false,"is_disabled":false,"rental_uris":{"android":"levelo://app?vid=5c7bb3a7-a190-49da-8e2c-9ed602fec668","ios":"levelo://app?vid=5c7bb3a7-a190-49da-8e2c-9ed602fec668"},"vehicle_type_id":"4","last_reported":1751494213,"current_range_meters":9200,"station_id":"ce4bgt12rcd13ifvqcd0","pricing_plan_id":"cebpf4jnsgd1na2vs0mg"},{"bike_id":"85457ffa-8a9d-4396-8d0d-8cc26a9a96f3","system_id":"levelo_inurba_marseille","lat":43.30889,"lon":5.37201,"is_reserved":false,"is_disabled":false,"rental_uris":{"android":"levelo://app?vid=85457ffa-8a9d-4396-8d0d-8cc26a9a96f3","ios":"levelo://app?vid=85457ffa-8a9d-4396-8d0d-8cc26a9a96f3"},"vehicle_type_id":"4","last_reported":1751494213,"current_range_meters":9200,"station_id":"ce4bguh2rcd13ifvqckg","pricing_plan_id":"cebpf4jnsgd1na2vs0mg"},{"bike_id":"88f0d88a-1dec-4977-a19a-71293da7fba4","system_id":"levelo_inurba_marseille","lat":43.32355,"lon":5.36756,"is_reserved":false,"is_disabled":false,"rental_uris":{"android":"levelo://app?vid=88f0d88a-1dec-4977-a19a-71293da7fba4","ios":"levelo://app?vid=88f0d88a-1dec-4977-a19a-71293da7fba4"},"vehicle_type_id":"4","last_reported":1751494213,"current_range_meters":9600,"station_id":"ce4bhsh2rcd13ifvqi2g","pricing_plan_id":"cebpf4jnsgd1na2vs0mg"},{"bike_id":"116a65fd-ba85-4855-b765-b1c858ee38ca","system_id":"levelo_inurba_marseille","lat":43.29777,"lon":5.39376,"is_reserved":false,"is_disabled":false,"rental_uris":{"android":"levelo://app?vid=116a65fd-ba85-4855-b765-b1c858ee38ca","ios":"levelo://app?vid=116a65fd-ba85-4855-b765-b1c858ee38ca"},"vehicle_type_id":"4","last_reported":1751494213,"current_range_meters":9600,"station_id":"chh1huq6cuj3fo74tm60","pricing_plan_id":"cebpf4jnsgd1na2vs0mg"},{"bike_id":"8ad00ccc-3ccb-493b-a2b4-49cd4dd94c33","system_id":"levelo_inurba_marseille","lat":43.21733,"lon":5.34614,"is_reserved":false,"is_disabled":false,"rental_uris":{"android":"levelo://app?vid=8ad00ccc-3ccb-493b-a2b4-49cd4dd94c33","ios":"levelo://app?vid=8ad00ccc-3ccb-493b-a2b4-49cd4dd94c33"},"vehicle_type_id":"4","last_reported":1751494213,"current_range_meters":9600,"station_id":"st_cvj6r9ubvosntc0bgbag","pricing_plan_id":"cebpf4jnsgd1na2vs0mg"},{"bike_id":"0c431a06-7509-4b26-9043-0e121309d3bc","system_id":"levelo_inurba_marseille","lat":43.2953,"lon":5.38549,"is_reserved":false,"is_disabled":false,"rental_uris":{"android":"levelo://app?vid=0c431a06-7509-4b26-9043-0e121309d3bc","ios":"levelo://app?vid=0c431a06-7509-4b26-9043-0e121309d3bc"},"vehicle_type_id":"4","last_reported":1751494213,"current_range_meters":10000,"station_id":"ce4bgih2rcd13ifvqba0","pricing_plan_id":"cebpf4jnsgd1na2vs0mg"},{"bike_id":"5508769a-e540-4ee2-a165-4ca58bfaffab","system_id":"levelo_inurba_marseille","lat":43.30314,"lon":5.39239,"is_reserved":false,"is_disabled":false,"rental_uris":{"android":"levelo://app?vid=5508769a-e540-4ee2-a165-4ca58bfaffab","ios":"levelo://app?vid=5508769a-e540-4ee2-a165-4ca58bfaffab"},"vehicle_type_id":"4","last_reported":1751494213,"current_range_meters":10000,"station_id":"ce4bgkh2rcd13ifvqbk0","pricing_plan_id":"cebpf4jnsgd1na2vs0mg"},{"bike_id":"77a8aa44-ccc3-4411-92e2-24abedbedb2c","system_id":"levelo_inurba_marseille","lat":43.28847,"lon":5.39317,"is_reserved":false,"is_disabled":false,"rental_uris":{"android":"levelo://app?vid=77a8aa44-ccc3-4411-92e2-24abedbedb2c","ios":"levelo://app?vid=77a8aa44-ccc3-4411-92e2-24abedbedb2c"},"vehicle_type_id":"4","last_reported":1751494213,"current_range_meters":10000,"station_id":"ce4bh2p2rcd13ifvqdi0","pricing_plan_id":"cebpf4jnsgd1na2vs0mg"},{"bike_id":"54557343-aa5d-425a-86c5-c48dce2d8949","system_id":"levelo_inurba_marseille","lat":43.29037,"lon":5.39958,"is_reserved":false,"is_disabled":false,"rental_uris":{"android":"levelo://app?vid=54557343-aa5d-425a-86c5-c48dce2d8949","ios":"levelo://app?vid=54557343-aa5d-425a-86c5-c48dce2d8949"},"vehicle_type_id":"4","last_reported":1751494213,"current_range_meters":10000,"station_id":"ce4bh392rcd13ifvqdm0","pricing_plan_id":"cebpf4jnsgd1na2vs0mg"},{"bike_id":"bc73dab8-e684-40d1-b177-99b96779b225","system_id":"levelo_inurba_marseille","lat":43.28458,"lon":5.35896,"is_reserved":false,"is_disabled":false,"rental_uris":{"android":"levelo://app?vid=bc73dab8-e684-40d1-b177-99b96779b225","ios":"levelo://app?vid=bc73dab8-e684-40d1-b177-99b96779b225"},"vehicle_type_id":"4","last_reported":1751494213,"current_range_meters":10000,"station_id":"ce4bhah2rcd13ifvqei0","pricing_plan_id":"cebpf4jnsgd1na2vs0mg"},{"bike_id":"c4368a78-1796-4a05-bdf8-6d3f1745cfe1","system_id":"levelo_inurba_marseille","lat":43.27475,"lon":5.42472,"is_reserved":false,"is_disabled":false,"rental_uris":{"android":"levelo://app?vid=c4368a78-1796-4a05-bdf8-6d3f1745cfe1","ios":"levelo://app?vid=c4368a78-1796-4a05-bdf8-6d3f1745cfe1"},"vehicle_type_id":"4","last_reported":1751494213,"current_range_meters":10000,"station_id":"ce4bhn92rcd13ifvqgrg","pricing_plan_id":"cebpf4jnsgd1na2vs0mg"},{"bike_id":"eb6f172f-68c2-4fbc-b984-276818caa76a","system_id":"levelo_inurba_marseille","lat":43.293129,"lon":5.439146,"is_reserved":false,"is_disabled":false,"rental_uris":{"android":"levelo://app?vid=eb6f172f-68c2-4fbc-b984-276818caa76a","ios":"levelo://app?vid=eb6f172f-68c2-4fbc-b984-276818caa76a"},"vehicle_type_id":"4","last_reported":1751494213,"current_range_meters":10800,"station_id":"","pricing_plan_id":"cebpf4jnsgd1na2vs0mg"},{"bike_id":"fd5453c4-b513-4e66-a5c8-fb9bec973655","system_id":"levelo_inurba_marseille","lat":43.29262,"lon":5.40909,"is_reserved":false,"is_disabled":false,"rental_uris":{"android":"levelo://app?vid=fd5453c4-b513-4e66-a5c8-fb9bec973655","ios":"levelo://app?vid=fd5453c4-b513-4e66-a5c8-fb9bec973655"},"vehicle_type_id":"4","last_reported":1751494213,"current_range_meters":10800,"station_id":"ce4bh192rcd13ifvqdc0","pricing_plan_id":"cebpf4jnsgd1na2vs0mg"},{"bike_id":"c90c9da6-c722-453e-86cd-1cf20043cd75","system_id":"levelo_inurba_marseille","lat":43.25716,"lon":5.41117,"is_reserved":false,"is_disabled":false,"rental_uris":{"android":"levelo://app?vid=c90c9da6-c722-453e-86cd-1cf20043cd75","ios":"levelo://app?vid=c90c9da6-c722-453e-86cd-1cf20043cd75"},"vehicle_type_id":"4","last_reported":1751494213,"current_range_meters":10800,"station_id":"ce4bhkp2rcd13ifvqgd0","pricing_plan_id":"cebpf4jnsgd1na2vs0mg"},{"bike_id":"da126540-6d8c-4e69-85df-ed925617ee86","system_id":"levelo_inurba_marseille","lat":43.27061,"lon":5.36328,"is_reserved":false,"is_disabled":false,"rental_uris":{"android":"levelo://app?vid=da126540-6d8c-4e69-85df-ed925617ee86","ios":"levelo://app?vid=da126540-6d8c-4e69-85df-ed925617ee86"},"vehicle_type_id":"4","last_reported":1751494213,"current_range_meters":11200,"station_id":"","pricing_plan_id":"cebpf4jnsgd1na2vs0mg"},{"bike_id":"2f5dcdfb-9a33-47dc-a5d7-d61b78a2d713","system_id":"levelo_inurba_marseille","lat":43.29578,"lon":5.39971,"is_reserved":false,"is_disabled":false,"rental_uris":{"android":"levelo://app?vid=2f5dcdfb-9a33-47dc-a5d7-d61b78a2d713","ios":"levelo://app?vid=2f5dcdfb-9a33-47dc-a5d7-d61b78a2d713"},"vehicle_type_id":"4","last_reported":1751494213,"current_range_meters":11200,"station_id":"ce4bh312rcd13ifvqdj0","pricing_plan_id":"cebpf4jnsgd1na2vs0mg"},{"bike_id":"87c6e205-ef13-4e3c-a441-5900bcd9fa60","system_id":"levelo_inurba_marseille","lat":43.24998,"lon":5.38927,"is_reserved":false,"is_disabled":false,"rental_uris":{"android":"levelo://app?vid=87c6e205-ef13-4e3c-a441-5900bcd9fa60","ios":"levelo://app?vid=87c6e205-ef13-4e3c-a441-5900bcd9fa60"},"vehicle_type_id":"4","last_reported":1751494213,"current_range_meters":11200,"station_id":"ce4bhgp2rcd13ifvqfd0","pricing_plan_id":"cebpf4jnsgd1na2vs0mg"},{"bike_id":"b28aa0a0-791c-4a08-9a16-c7bf6ea0ed5a","system_id":"levelo_inurba_marseille","lat":43.22499,"lon":5.34791,"is_reserved":false,"is_disabled":false,"rental_uris":{"android":"levelo://app?vid=b28aa0a0-791c-4a08-9a16-c7bf6ea0ed5a","ios":"levelo://app?vid=b28aa0a0-791c-4a08-9a16-c7bf6ea0ed5a"},"vehicle_type_id":"4","last_reported":1751494213,"current_range_meters":11200,"station_id":"st_cvj5dfep6f1abm77gieg","pricing_plan_id":"cebpf4jnsgd1na2vs0mg"},{"bike_id":"d16b9dec-c438-4000-91c8-6cda5b0545dc","system_id":"levelo_inurba_marseille","lat":43.248923,"lon":5.375174,"is_reserved":false,"is_disabled":false,"rental_uris":{"android":"levelo://app?vid=d16b9dec-c438-4000-91c8-6cda5b0545dc","ios":"levelo://app?vid=d16b9dec-c438-4000-91c8-6cda5b0545dc"},"vehicle_type_id":"4","last_reported":1751494213,"current_range_meters":11600,"station_id":"","pricing_plan_id":"cebpf4jnsgd1na2vs0mg"},{"bike_id":"1bc3786d-5bb8-42c3-ae27-da1a9376acba","system_id":"levelo_inurba_marseille","lat":43.30143,"lon":5.37416,"is_reserved":false,"is_disabled":false,"rental_uris":{"android":"levelo://app?vid=1bc3786d-5bb8-42c3-ae27-da1a9376acba","ios":"levelo://app?vid=1bc3786d-5bb8-42c3-ae27-da1a9376acba"},"vehicle_type_id":"4","last_reported":1751494213,"current_range_meters":11600,"station_id":"ce4bgs92rcd13ifvqcc0","pricing_plan_id":"cebpf4jnsgd1na2vs0mg"},{"bike_id":"6f187575-31af-4e1c-b0e1-6d77c6f2f751","system_id":"levelo_inurba_marseille","lat":43.286628,"lon":5.386752,"is_reserved":false,"is_disabled":false,"rental_uris":{"android":"levelo://app?vid=6f187575-31af-4e1c-b0e1-6d77c6f2f751","ios":"levelo://app?vid=6f187575-31af-4e1c-b0e1-6d77c6f2f751"},"vehicle_type_id":"4","last_reported":1751494213,"current_range_meters":11600,"station_id":"ce4bh492rcd13ifvqdug","pricing_plan_id":"cebpf4jnsgd1na2vs0mg"},{"bike_id":"c2cc3873-3136-4ba7-984d-6514f2a6bcc2","system_id":"levelo_inurba_marseille","lat":43.26692,"lon":5.3827,"is_reserved":false,"is_disabled":false,"rental_uris":{"android":"levelo://app?vid=c2cc3873-3136-4ba7-984d-6514f2a6bcc2","ios":"levelo://app?vid=c2cc3873-3136-4ba7-984d-6514f2a6bcc2"},"vehicle_type_id":"4","last_reported":1751494213,"current_range_meters":11600,"station_id":"ce4bhg92rcd13ifvqf90","pricing_plan_id":"cebpf4jnsgd1na2vs0mg"},{"bike_id":"d6a7d106-bad3-43d9-bbe5-8efd918cb12d","system_id":"levelo_inurba_marseille","lat":43.25577,"lon":5.3823,"is_reserved":false,"is_disabled":false,"rental_uris":{"android":"levelo://app?vid=d6a7d106-bad3-43d9-bbe5-8efd918cb12d","ios":"levelo://app?vid=d6a7d106-bad3-43d9-bbe5-8efd918cb12d"},"vehicle_type_id":"4","last_reported":1751494213,"current_range_meters":11600,"station_id":"ce4bhih2rcd13ifvqfs0","pricing_plan_id":"cebpf4jnsgd1na2vs0mg"},{"bike_id":"f5469626-344e-4334-9049-486e9f34a090","system_id":"levelo_inurba_marseille","lat":43.32096,"lon":5.36788,"is_reserved":false,"is_disabled":false,"rental_uris":{"android":"levelo://app?vid=f5469626-344e-4334-9049-486e9f34a090","ios":"levelo://app?vid=f5469626-344e-4334-9049-486e9f34a090"},"vehicle_type_id":"4","last_reported":1751494213,"current_range_meters":11600,"station_id":"ce4bhrh2rcd13ifvqhug","pricing_plan_id":"cebpf4jnsgd1na2vs0mg"},{"bike_id":"bf00a211-3496-4df0-8e4e-99767047ca09","system_id":"levelo_inurba_marseille","lat":43.29995,"lon":5.37638,"is_reserved":false,"is_disabled":false,"rental_uris":{"android":"levelo://app?vid=bf00a211-3496-4df0-8e4e-99767047ca09","ios":"levelo://app?vid=bf00a211-3496-4df0-8e4e-99767047ca09"},"vehicle_type_id":"4","last_reported":1751494213,"current_range_meters":12000,"station_id":"","pricing_plan_id":"cebpf4jnsgd1na2vs0mg"},{"bike_id":"15685ff9-4ea7-4801-9755-adfa9b50a352","system_id":"levelo_inurba_marseille","lat":43.3043,"lon":5.38894,"is_reserved":false,"is_disabled":false,"rental_uris":{"android":"levelo://app?vid=15685ff9-4ea7-4801-9755-adfa9b50a352","ios":"levelo://app?vid=15685ff9-4ea7-4801-9755-adfa9b50a352"},"vehicle_type_id":"4","last_reported":1751494213,"current_range_meters":12000,"station_id":"ce4bgk12rcd13ifvqbi0","pricing_plan_id":"cebpf4jnsgd1na2vs0mg"},{"bike_id":"7e62b058-a7ed-4634-80f1-04d3de596de7","system_id":"levelo_inurba_marseille","lat":43.29838,"lon":5.36804,"is_reserved":false,"is_disabled":false,"rental_uris":{"android":"levelo://app?vid=7e62b058-a7ed-4634-80f1-04d3de596de7","ios":"levelo://app?vid=7e62b058-a7ed-4634-80f1-04d3de596de7"},"vehicle_type_id":"4","last_reported":1751494213,"current_range_meters":12400,"station_id":"","pricing_plan_id":"cebpf4jnsgd1na2vs0mg"},{"bike_id":"0e59bf3e-4e40-49ec-87e8-899a9f9eb208","system_id":"levelo_inurba_marseille","lat":43.29528,"lon":5.38535,"is_reserved":false,"is_disabled":false,"rental_uris":{"android":"levelo://app?vid=0e59bf3e-4e40-49ec-87e8-899a9f9eb208","ios":"levelo://app?vid=0e59bf3e-4e40-49ec-87e8-899a9f9eb208"},"vehicle_type_id":"4","last_reported":1751494213,"current_range_meters":12400,"station_id":"ce4bgih2rcd13ifvqba0","pricing_plan_id":"cebpf4jnsgd1na2vs0mg"},{"bike_id":"cb82481d-3fdd-44c6-a6dd-53e8df93963e","system_id":"levelo_inurba_marseille","lat":43.28392,"lon":5.3756,"is_reserved":false,"is_disabled":false,"rental_uris":{"android":"levelo://app?vid=cb82481d-3fdd-44c6-a6dd-53e8df93963e","ios":"levelo://app?vid=cb82481d-3fdd-44c6-a6dd-53e8df93963e"},"vehicle_type_id":"4","last_reported":1751494213,"current_range_meters":12400,"station_id":"ce4bh412rcd13ifvqds0","pricing_plan_id":"cebpf4jnsgd1na2vs0mg"},{"bike_id":"ae698825-2b59-4495-8ad5-6cc2b8bb90e6","system_id":"levelo_inurba_marseille","lat":43.271947,"lon":5.409876,"is_reserved":false,"is_disabled":false,"rental_uris":{"android":"levelo://app?vid=ae698825-2b59-4495-8ad5-6cc2b8bb90e6","ios":"levelo://app?vid=ae698825-2b59-4495-8ad5-6cc2b8bb90e6"},"vehicle_type_id":"4","last_reported":1751494213,"current_range_meters":12400,"station_id":"ce4bhl12rcd13ifvqgf0","pricing_plan_id":"cebpf4jnsgd1na2vs0mg"},{"bike_id":"b4e8da63-abf8-4782-9532-25d8419430a5","system_id":"levelo_inurba_marseille","lat":43.30437,"lon":5.38902,"is_reserved":false,"is_disabled":false,"rental_uris":{"android":"levelo://app?vid=b4e8da63-abf8-4782-9532-25d8419430a5","ios":"levelo://app?vid=b4e8da63-abf8-4782-9532-25d8419430a5"},"vehicle_type_id":"4","last_reported":1751494213,"current_range_meters":12800,"station_id":"ce4bgk12rcd13ifvqbi0","pricing_plan_id":"cebpf4jnsgd1na2vs0mg"},{"bike_id":"3d6c0b57-3967-44e8-95a1-a839c18ed625","system_id":"levelo_inurba_marseille","lat":43.30793,"lon":5.38175,"is_reserved":false,"is_disabled":false,"rental_uris":{"android":"levelo://app?vid=3d6c0b57-3967-44e8-95a1-a839c18ed625","ios":"levelo://app?vid=3d6c0b57-3967-44e8-95a1-a839c18ed625"},"vehicle_type_id":"4","last_reported":1751494213,"current_range_meters":13600,"station_id":"ce4bgt12rcd13ifvqce0","pricing_plan_id":"cebpf4jnsgd1na2vs0mg"},{"bike_id":"0fa84bde-6f79-497d-82a1-9d48e5be9f72","system_id":"levelo_inurba_marseille","lat":43.28104,"lon":5.37848,"is_reserved":false,"is_disabled":false,"rental_uris":{"android":"levelo://app?vid=0fa84bde-6f79-497d-82a1-9d48e5be9f72","ios":"levelo://app?vid=0fa84bde-6f79-497d-82a1-9d48e5be9f72"},"vehicle_type_id":"4","last_reported":1751494213,"current_range_meters":13600,"station_id":"ce4bha12rcd13ifvqee0","pricing_plan_id":"cebpf4jnsgd1na2vs0mg"},{"bike_id":"3cdb48bc-601d-45bb-8ef9-ebda43da091d","system_id":"levelo_inurba_marseille","lat":43.28667,"lon":5.36354,"is_reserved":false,"is_disabled":false,"rental_uris":{"android":"levelo://app?vid=3cdb48bc-601d-45bb-8ef9-ebda43da091d","ios":"levelo://app?vid=3cdb48bc-601d-45bb-8ef9-ebda43da091d"},"vehicle_type_id":"4","last_reported":1751494213,"current_range_meters":13600,"station_id":"ce4bhah2rcd13ifvqej0","pricing_plan_id":"cebpf4jnsgd1na2vs0mg"},{"bike_id":"17ad145c-f881-4017-969d-c8638a36a818","system_id":"levelo_inurba_marseille","lat":43.2655,"lon":5.39018,"is_reserved":false,"is_disabled":false,"rental_uris":{"android":"levelo://app?vid=17ad145c-f881-4017-969d-c8638a36a818","ios":"levelo://app?vid=17ad145c-f881-4017-969d-c8638a36a818"},"vehicle_type_id":"4","last_reported":1751494213,"current_range_meters":13600,"station_id":"ce4bhe12rcd13ifvqf30","pricing_plan_id":"cebpf4jnsgd1na2vs0mg"},{"bike_id":"56eb3fdf-ea87-4fcf-85df-3680fa66363e","system_id":"levelo_inurba_marseille","lat":43.225038,"lon":5.347903,"is_reserved":false,"is_disabled":false,"rental_uris":{"android":"levelo://app?vid=56eb3fdf-ea87-4fcf-85df-3680fa66363e","ios":"levelo://app?vid=56eb3fdf-ea87-4fcf-85df-3680fa66363e"},"vehicle_type_id":"4","last_reported":1751494213,"current_range_meters":13600,"station_id":"st_cvj5dfep6f1abm77gieg","pricing_plan_id":"cebpf4jnsgd1na2vs0mg"},{"bike_id":"bcfd0eda-b9ab-4bec-9ca3-3f2b86617415","system_id":"levelo_inurba_marseille","lat":43.21173,"lon":5.3508,"is_reserved":false,"is_disabled":false,"rental_uris":{"android":"levelo://app?vid=bcfd0eda-b9ab-4bec-9ca3-3f2b86617415","ios":"levelo://app?vid=bcfd0eda-b9ab-4bec-9ca3-3f2b86617415"},"vehicle_type_id":"4","last_reported":1751494213,"current_range_meters":13600,"station_id":"st_cvj6sg6p6f1abm77japg","pricing_plan_id":"cebpf4jnsgd1na2vs0mg"},{"bike_id":"e26ba497-efc7-4420-b8c5-9fa5e27f2ce4","system_id":"levelo_inurba_marseille","lat":43.31356,"lon":5.37073,"is_reserved":false,"is_disabled":false,"rental_uris":{"android":"levelo://app?vid=e26ba497-efc7-4420-b8c5-9fa5e27f2ce4","ios":"levelo://app?vid=e26ba497-efc7-4420-b8c5-9fa5e27f2ce4"},"vehicle_type_id":"4","last_reported":1751494213,"current_range_meters":14000,"station_id":"","pricing_plan_id":"cebpf4jnsgd1na2vs0mg"},{"bike_id":"11997f43-dda7-499d-88ff-8ff12f3319d9","system_id":"levelo_inurba_marseille","lat":43.29529,"lon":5.38538,"is_reserved":false,"is_disabled":false,"rental_uris":{"android":"levelo://app?vid=11997f43-dda7-499d-88ff-8ff12f3319d9","ios":"levelo://app?vid=11997f43-dda7-499d-88ff-8ff12f3319d9"},"vehicle_type_id":"4","last_reported":1751494213,"current_range_meters":14000,"station_id":"ce4bgih2rcd13ifvqba0","pricing_plan_id":"cebpf4jnsgd1na2vs0mg"},{"bike_id":"60cd62dc-581f-4cd5-9719-c6ca43172d75","system_id":"levelo_inurba_marseille","lat":43.29203,"lon":5.3933,"is_reserved":false,"is_disabled":false,"rental_uris":{"android":"levelo://app?vid=60cd62dc-581f-4cd5-9719-c6ca43172d75","ios":"levelo://app?vid=60cd62dc-581f-4cd5-9719-c6ca43172d75"},"vehicle_type_id":"4","last_reported":1751494213,"current_range_meters":14000,"station_id":"ce4bh192rcd13ifvqdd0","pricing_plan_id":"cebpf4jnsgd1na2vs0mg"},{"bike_id":"868a8f96-2b5e-44f8-9701-f23ca4b87916","system_id":"levelo_inurba_marseille","lat":43.29263,"lon":5.38448,"is_reserved":false,"is_disabled":false,"rental_uris":{"android":"levelo://app?vid=868a8f96-2b5e-44f8-9701-f23ca4b87916","ios":"levelo://app?vid=868a8f96-2b5e-44f8-9701-f23ca4b87916"},"vehicle_type_id":"4","last_reported":1751494213,"current_range_meters":14000,"station_id":"ce4bh692rcd13ifvqea0","pricing_plan_id":"cebpf4jnsgd1na2vs0mg"},{"bike_id":"a845bc47-93f7-4e07-bad6-282a1d836dad","system_id":"levelo_inurba_marseille","lat":43.32639,"lon":5.40988,"is_reserved":false,"is_disabled":false,"rental_uris":{"android":"levelo://app?vid=a845bc47-93f7-4e07-bad6-282a1d836dad","ios":"levelo://app?vid=a845bc47-93f7-4e07-bad6-282a1d836dad"},"vehicle_type_id":"4","last_reported":1751494213,"current_range_meters":14000,"station_id":"ce4bhpp2rcd13ifvqhgg","pricing_plan_id":"cebpf4jnsgd1na2vs0mg"},{"bike_id":"b50da02d-1fb5-4383-a93d-332785610080","system_id":"levelo_inurba_marseille","lat":43.21755,"lon":5.34623,"is_reserved":false,"is_disabled":false,"rental_uris":{"android":"levelo://app?vid=b50da02d-1fb5-4383-a93d-332785610080","ios":"levelo://app?vid=b50da02d-1fb5-4383-a93d-332785610080"},"vehicle_type_id":"4","last_reported":1751494213,"current_range_meters":14000,"station_id":"st_cvj6r9ubvosntc0bgbag","pricing_plan_id":"cebpf4jnsgd1na2vs0mg"},{"bike_id":"110be0f7-19b6-4419-935c-8afdb1f29359","system_id":"levelo_inurba_marseille","lat":43.2122,"lon":5.3504,"is_reserved":false,"is_disabled":false,"rental_uris":{"android":"levelo://app?vid=110be0f7-19b6-4419-935c-8afdb1f29359","ios":"levelo://app?vid=110be0f7-19b6-4419-935c-8afdb1f29359"},"vehicle_type_id":"4","last_reported":1751494213,"current_range_meters":14400,"station_id":"","pricing_plan_id":"cebpf4jnsgd1na2vs0mg"},{"bike_id":"16a8afe6-e43e-4d1b-a7bd-ed83d113735a","system_id":"levelo_inurba_marseille","lat":43.32436,"lon":5.41185,"is_reserved":false,"is_disabled":false,"rental_uris":{"android":"levelo://app?vid=16a8afe6-e43e-4d1b-a7bd-ed83d113735a","ios":"levelo://app?vid=16a8afe6-e43e-4d1b-a7bd-ed83d113735a"},"vehicle_type_id":"4","last_reported":1751494213,"current_range_meters":14400,"station_id":"","pricing_plan_id":"cebpf4jnsgd1na2vs0mg"},{"bike_id":"38bac79f-e35b-4649-a124-62df32b2dd19","system_id":"levelo_inurba_marseille","lat":43.31153,"lon":5.38753,"is_reserved":false,"is_disabled":false,"rental_uris":{"android":"levelo://app?vid=38bac79f-e35b-4649-a124-62df32b2dd19","ios":"levelo://app?vid=38bac79f-e35b-4649-a124-62df32b2dd19"},"vehicle_type_id":"4","last_reported":1751494213,"current_range_meters":14400,"station_id":"ce4bgv12rcd13ifvqcp0","pricing_plan_id":"cebpf4jnsgd1na2vs0mg"},{"bike_id":"959e6f20-8ed0-4d36-bc1d-3efb82d6190b","system_id":"levelo_inurba_marseille","lat":43.2119,"lon":5.35072,"is_reserved":false,"is_disabled":false,"rental_uris":{"android":"levelo://app?vid=959e6f20-8ed0-4d36-bc1d-3efb82d6190b","ios":"levelo://app?vid=959e6f20-8ed0-4d36-bc1d-3efb82d6190b"},"vehicle_type_id":"4","last_reported":1751494213,"current_range_meters":14400,"station_id":"st_cvj6sg6p6f1abm77japg","pricing_plan_id":"cebpf4jnsgd1na2vs0mg"},{"bike_id":"fe16e5d6-c086-4644-bea1-4f57a2866519","system_id":"levelo_inurba_marseille","lat":43.28564,"lon":5.35064,"is_reserved":false,"is_disabled":false,"rental_uris":{"android":"levelo://app?vid=fe16e5d6-c086-4644-bea1-4f57a2866519","ios":"levelo://app?vid=fe16e5d6-c086-4644-bea1-4f57a2866519"},"vehicle_type_id":"4","last_reported":1751494213,"current_range_meters":14800,"station_id":"","pricing_plan_id":"cebpf4jnsgd1na2vs0mg"},{"bike_id":"4b82e70d-1b51-4208-bfba-cf85d6a7e9da","system_id":"levelo_inurba_marseille","lat":43.30604,"lon":5.3723,"is_reserved":false,"is_disabled":false,"rental_uris":{"android":"levelo://app?vid=4b82e70d-1b51-4208-bfba-cf85d6a7e9da","ios":"levelo://app?vid=4b82e70d-1b51-4208-bfba-cf85d6a7e9da"},"vehicle_type_id":"4","last_reported":1751494213,"current_range_meters":14800,"station_id":"ce4bgqh2rcd13ifvqc4g","pricing_plan_id":"cebpf4jnsgd1na2vs0mg"},{"bike_id":"6a785a02-909e-4d8a-8794-668155cdebef","system_id":"levelo_inurba_marseille","lat":43.30644,"lon":5.40107,"is_reserved":false,"is_disabled":false,"rental_uris":{"android":"levelo://app?vid=6a785a02-909e-4d8a-8794-668155cdebef","ios":"levelo://app?vid=6a785a02-909e-4d8a-8794-668155cdebef"},"vehicle_type_id":"4","last_reported":1751494213,"current_range_meters":14800,"station_id":"ce4bh112rcd13ifvqda0","pricing_plan_id":"cebpf4jnsgd1na2vs0mg"},{"bike_id":"6e35dc9a-816b-452f-8a34-8607774709d0","system_id":"levelo_inurba_marseille","lat":43.27365,"lon":5.36272,"is_reserved":false,"is_disabled":false,"rental_uris":{"android":"levelo://app?vid=6e35dc9a-816b-452f-8a34-8607774709d0","ios":"levelo://app?vid=6e35dc9a-816b-452f-8a34-8607774709d0"},"vehicle_type_id":"4","last_reported":1751494213,"current_range_meters":14800,"station_id":"ce4bhbh2rcd13ifvqeo0","pricing_plan_id":"cebpf4jnsgd1na2vs0mg"},{"bike_id":"719e1788-4019-4ca6-9773-e09be03067c3","system_id":"levelo_inurba_marseille","lat":43.24073,"lon":5.37763,"is_reserved":false,"is_disabled":false,"rental_uris":{"android":"levelo://app?vid=719e1788-4019-4ca6-9773-e09be03067c3","ios":"levelo://app?vid=719e1788-4019-4ca6-9773-e09be03067c3"},"vehicle_type_id":"4","last_reported":1751494213,"current_range_meters":14800,"station_id":"ce4bhnp2rcd13ifvqgvg","pricing_plan_id":"cebpf4jnsgd1na2vs0mg"},{"bike_id":"e36eeb04-35cc-4a52-97d7-6ba58bfe555b","system_id":"levelo_inurba_marseille","lat":43.2955,"lon":5.42282,"is_reserved":false,"is_disabled":false,"rental_uris":{"android":"levelo://app?vid=e36eeb04-35cc-4a52-97d7-6ba58bfe555b","ios":"levelo://app?vid=e36eeb04-35cc-4a52-97d7-6ba58bfe555b"},"vehicle_type_id":"4","last_reported":1751494213,"current_range_meters":14800,"station_id":"ce4bhph2rcd13ifvqhdg","pricing_plan_id":"cebpf4jnsgd1na2vs0mg"},{"bike_id":"64bb485e-0856-48ce-befe-bde5a394f93d","system_id":"levelo_inurba_marseille","lat":43.27596,"lon":5.38874,"is_reserved":false,"is_disabled":false,"rental_uris":{"android":"levelo://app?vid=64bb485e-0856-48ce-befe-bde5a394f93d","ios":"levelo://app?vid=64bb485e-0856-48ce-befe-bde5a394f93d"},"vehicle_type_id":"4","last_reported":1751494213,"current_range_meters":15200,"station_id":"","pricing_plan_id":"cebpf4jnsgd1na2vs0mg"},{"bike_id":"244706c4-6552-4ad3-a697-b8f11d946169","system_id":"levelo_inurba_marseille","lat":43.30533,"lon":5.38436,"is_reserved":false,"is_disabled":false,"rental_uris":{"android":"levelo://app?vid=244706c4-6552-4ad3-a697-b8f11d946169","ios":"levelo://app?vid=244706c4-6552-4ad3-a697-b8f11d946169"},"vehicle_type_id":"4","last_reported":1751494213,"current_range_meters":15200,"station_id":"ce4bgg92rcd13ifvqb30","pricing_plan_id":"cebpf4jnsgd1na2vs0mg"},{"bike_id":"2444b2da-a65b-4099-bc80-c6a50913941a","system_id":"levelo_inurba_marseille","lat":43.29526,"lon":5.38555,"is_reserved":false,"is_disabled":false,"rental_uris":{"android":"levelo://app?vid=2444b2da-a65b-4099-bc80-c6a50913941a","ios":"levelo://app?vid=2444b2da-a65b-4099-bc80-c6a50913941a"},"vehicle_type_id":"4","last_reported":1751494213,"current_range_meters":15200,"station_id":"ce4bgih2rcd13ifvqba0","pricing_plan_id":"cebpf4jnsgd1na2vs0mg"},{"bike_id":"6381fed5-8a74-48cb-bdfc-e16a9a5ba26a","system_id":"levelo_inurba_marseille","lat":43.307872,"lon":5.376515,"is_reserved":false,"is_disabled":false,"rental_uris":{"android":"levelo://app?vid=6381fed5-8a74-48cb-bdfc-e16a9a5ba26a","ios":"levelo://app?vid=6381fed5-8a74-48cb-bdfc-e16a9a5ba26a"},"vehicle_type_id":"4","last_reported":1751494213,"current_range_meters":15200,"station_id":"ce4bgv92rcd13ifvqcq0","pricing_plan_id":"cebpf4jnsgd1na2vs0mg"},{"bike_id":"faced41a-be9e-4242-a462-79cd5b2c5402","system_id":"levelo_inurba_marseille","lat":43.24047,"lon":5.37764,"is_reserved":false,"is_disabled":false,"rental_uris":{"android":"levelo://app?vid=faced41a-be9e-4242-a462-79cd5b2c5402","ios":"levelo://app?vid=faced41a-be9e-4242-a462-79cd5b2c5402"},"vehicle_type_id":"4","last_reported":1751494213,"current_range_meters":15200,"station_id":"ce4bhnp2rcd13ifvqgvg","pricing_plan_id":"cebpf4jnsgd1na2vs0mg"},{"bike_id":"63072e0c-9f69-4913-be48-96789ec98037","system_id":"levelo_inurba_marseille","lat":43.33412,"lon":5.40086,"is_reserved":false,"is_disabled":false,"rental_uris":{"android":"levelo://app?vid=63072e0c-9f69-4913-be48-96789ec98037","ios":"levelo://app?vid=63072e0c-9f69-4913-be48-96789ec98037"},"vehicle_type_id":"4","last_reported":1751494213,"current_range_meters":16000,"station_id":"","pricing_plan_id":"cebpf4jnsgd1na2vs0mg"},{"bike_id":"9dbea238-2ef6-46e4-acce-4271b0047517","system_id":"levelo_inurba_marseille","lat":43.31069,"lon":5.38346,"is_reserved":false,"is_disabled":false,"rental_uris":{"android":"levelo://app?vid=9dbea238-2ef6-46e4-acce-4271b0047517","ios":"levelo://app?vid=9dbea238-2ef6-46e4-acce-4271b0047517"},"vehicle_type_id":"4","last_reported":1751494213,"current_range_meters":16000,"station_id":"ce4bgv92rcd13ifvqcr0","pricing_plan_id":"cebpf4jnsgd1na2vs0mg"},{"bike_id":"0e030323-4386-4e72-9a0d-0f6a2ff539de","system_id":"levelo_inurba_marseille","lat":43.29613,"lon":5.40565,"is_reserved":false,"is_disabled":false,"rental_uris":{"android":"levelo://app?vid=0e030323-4386-4e72-9a0d-0f6a2ff539de","ios":"levelo://app?vid=0e030323-4386-4e72-9a0d-0f6a2ff539de"},"vehicle_type_id":"4","last_reported":1751494213,"current_range_meters":16000,"station_id":"ce4bh0h2rcd13ifvqd60","pricing_plan_id":"cebpf4jnsgd1na2vs0mg"},{"bike_id":"6c0d24f1-3c10-4351-9923-09e6da1bd482","system_id":"levelo_inurba_marseille","lat":43.2513,"lon":5.4032,"is_reserved":false,"is_disabled":false,"rental_uris":{"android":"levelo://app?vid=6c0d24f1-3c10-4351-9923-09e6da1bd482","ios":"levelo://app?vid=6c0d24f1-3c10-4351-9923-09e6da1bd482"},"vehicle_type_id":"4","last_reported":1751494213,"current_range_meters":16000,"station_id":"ce4bhlh2rcd13ifvqgig","pricing_plan_id":"cebpf4jnsgd1na2vs0mg"},{"bike_id":"d5f8729b-0a18-44a6-bb76-461cfe9a522d","system_id":"levelo_inurba_marseille","lat":43.25106,"lon":5.40324,"is_reserved":false,"is_disabled":false,"rental_uris":{"android":"levelo://app?vid=d5f8729b-0a18-44a6-bb76-461cfe9a522d","ios":"levelo://app?vid=d5f8729b-0a18-44a6-bb76-461cfe9a522d"},"vehicle_type_id":"4","last_reported":1751494213,"current_range_meters":16000,"station_id":"ce4bhlh2rcd13ifvqgig","pricing_plan_id":"cebpf4jnsgd1na2vs0mg"},{"bike_id":"e3c62d49-b63e-4add-8ac2-e659c328186f","system_id":"levelo_inurba_marseille","lat":43.27808,"lon":5.40723,"is_reserved":false,"is_disabled":false,"rental_uris":{"android":"levelo://app?vid=e3c62d49-b63e-4add-8ac2-e659c328186f","ios":"levelo://app?vid=e3c62d49-b63e-4add-8ac2-e659c328186f"},"vehicle_type_id":"4","last_reported":1751494213,"current_range_meters":16000,"station_id":"ce4bhnh2rcd13ifvqgtg","pricing_plan_id":"cebpf4jnsgd1na2vs0mg"},{"bike_id":"18974184-022a-4948-a40d-04085271b61f","system_id":"levelo_inurba_marseille","lat":43.319978,"lon":5.381514,"is_reserved":false,"is_disabled":false,"rental_uris":{"android":"levelo://app?vid=18974184-022a-4948-a40d-04085271b61f","ios":"levelo://app?vid=18974184-022a-4948-a40d-04085271b61f"},"vehicle_type_id":"4","last_reported":1751494213,"current_range_meters":16000,"station_id":"ce4bhr12rcd13ifvqhpg","pricing_plan_id":"cebpf4jnsgd1na2vs0mg"},{"bike_id":"09a94feb-8911-4d3d-9f22-a7f611710ea1","system_id":"levelo_inurba_marseille","lat":43.21199,"lon":5.35057,"is_reserved":false,"is_disabled":false,"rental_uris":{"android":"levelo://app?vid=09a94feb-8911-4d3d-9f22-a7f611710ea1","ios":"levelo://app?vid=09a94feb-8911-4d3d-9f22-a7f611710ea1"},"vehicle_type_id":"4","last_reported":1751494213,"current_range_meters":16000,"station_id":"st_cvj6sg6p6f1abm77japg","pricing_plan_id":"cebpf4jnsgd1na2vs0mg"},{"bike_id":"8a74f5cd-9efa-4362-bea7-a32db4dcc85c","system_id":"levelo_inurba_marseille","lat":43.2124,"lon":5.35109,"is_reserved":false,"is_disabled":false,"rental_uris":{"android":"levelo://app?vid=8a74f5cd-9efa-4362-bea7-a32db4dcc85c","ios":"levelo://app?vid=8a74f5cd-9efa-4362-bea7-a32db4dcc85c"},"vehicle_type_id":"4","last_reported":1751494213,"current_range_meters":16400,"station_id":"","pricing_plan_id":"cebpf4jnsgd1na2vs0mg"},{"bike_id":"fbc29ac7-0ac2-4487-8d73-d24af15ed266","system_id":"levelo_inurba_marseille","lat":43.30299,"lon":5.39208,"is_reserved":false,"is_disabled":false,"rental_uris":{"android":"levelo://app?vid=fbc29ac7-0ac2-4487-8d73-d24af15ed266","ios":"levelo://app?vid=fbc29ac7-0ac2-4487-8d73-d24af15ed266"},"vehicle_type_id":"4","last_reported":1751494213,"current_range_meters":16400,"station_id":"ce4bgkh2rcd13ifvqbk0","pricing_plan_id":"cebpf4jnsgd1na2vs0mg"},{"bike_id":"bfbf050e-3f4b-4525-b614-0ea52fc5bc57","system_id":"levelo_inurba_marseille","lat":43.31114,"lon":5.37771,"is_reserved":false,"is_disabled":false,"rental_uris":{"android":"levelo://app?vid=bfbf050e-3f4b-4525-b614-0ea52fc5bc57","ios":"levelo://app?vid=bfbf050e-3f4b-4525-b614-0ea52fc5bc57"},"vehicle_type_id":"4","last_reported":1751494213,"current_range_meters":16400,"station_id":"ce4bgt92rcd13ifvqcg0","pricing_plan_id":"cebpf4jnsgd1na2vs0mg"},{"bike_id":"653fb59e-5b12-4e9b-a178-0e8aa80aafbf","system_id":"levelo_inurba_marseille","lat":43.30649,"lon":5.40097,"is_reserved":false,"is_disabled":false,"rental_uris":{"android":"levelo://app?vid=653fb59e-5b12-4e9b-a178-0e8aa80aafbf","ios":"levelo://app?vid=653fb59e-5b12-4e9b-a178-0e8aa80aafbf"},"vehicle_type_id":"4","last_reported":1751494213,"current_range_meters":16400,"station_id":"ce4bh112rcd13ifvqda0","pricing_plan_id":"cebpf4jnsgd1na2vs0mg"},{"bike_id":"bfb5db2d-ccad-4bfa-91db-998edbed86aa","system_id":"levelo_inurba_marseille","lat":43.28411,"lon":5.37517,"is_reserved":false,"is_disabled":false,"rental_uris":{"android":"levelo://app?vid=bfb5db2d-ccad-4bfa-91db-998edbed86aa","ios":"levelo://app?vid=bfb5db2d-ccad-4bfa-91db-998edbed86aa"},"vehicle_type_id":"4","last_reported":1751494213,"current_range_meters":16400,"station_id":"ce4bh412rcd13ifvqds0","pricing_plan_id":"cebpf4jnsgd1na2vs0mg"},{"bike_id":"8027ba18-6b68-46ed-810a-bacee77786fd","system_id":"levelo_inurba_marseille","lat":43.28407,"lon":5.3753,"is_reserved":false,"is_disabled":false,"rental_uris":{"android":"levelo://app?vid=8027ba18-6b68-46ed-810a-bacee77786fd","ios":"levelo://app?vid=8027ba18-6b68-46ed-810a-bacee77786fd"},"vehicle_type_id":"4","last_reported":1751494213,"current_range_meters":16400,"station_id":"ce4bh412rcd13ifvqds0","pricing_plan_id":"cebpf4jnsgd1na2vs0mg"},{"bike_id":"da929929-73ef-4880-a2c1-e218ece2ebc5","system_id":"levelo_inurba_marseille","lat":43.290957,"lon":5.381403,"is_reserved":false,"is_disabled":false,"rental_uris":{"android":"levelo://app?vid=da929929-73ef-4880-a2c1-e218ece2ebc5","ios":"levelo://app?vid=da929929-73ef-4880-a2c1-e218ece2ebc5"},"vehicle_type_id":"4","last_reported":1751494213,"current_range_meters":16400,"station_id":"ce4bh512rcd13ifvqe2g","pricing_plan_id":"cebpf4jnsgd1na2vs0mg"},{"bike_id":"9f8ca976-1d33-4202-baf8-9442771dfdb2","system_id":"levelo_inurba_marseille","lat":43.28141,"lon":5.42646,"is_reserved":false,"is_disabled":false,"rental_uris":{"android":"levelo://app?vid=9f8ca976-1d33-4202-baf8-9442771dfdb2","ios":"levelo://app?vid=9f8ca976-1d33-4202-baf8-9442771dfdb2"},"vehicle_type_id":"4","last_reported":1751494213,"current_range_meters":16400,"station_id":"ce4bhnh2rcd13ifvqgug","pricing_plan_id":"cebpf4jnsgd1na2vs0mg"},{"bike_id":"e06fa348-a70a-4143-9077-11c5f73e3e7d","system_id":"levelo_inurba_marseille","lat":43.28712,"lon":5.40003,"is_reserved":false,"is_disabled":false,"rental_uris":{"android":"levelo://app?vid=e06fa348-a70a-4143-9077-11c5f73e3e7d","ios":"levelo://app?vid=e06fa348-a70a-4143-9077-11c5f73e3e7d"},"vehicle_type_id":"4","last_reported":1751494213,"current_range_meters":16400,"station_id":"ce4bho92rcd13ifvqh3g","pricing_plan_id":"cebpf4jnsgd1na2vs0mg"},{"bike_id":"8bf0d992-d2a0-428e-940a-091ee9b7c2a4","system_id":"levelo_inurba_marseille","lat":43.21192,"lon":5.35057,"is_reserved":false,"is_disabled":false,"rental_uris":{"android":"levelo://app?vid=8bf0d992-d2a0-428e-940a-091ee9b7c2a4","ios":"levelo://app?vid=8bf0d992-d2a0-428e-940a-091ee9b7c2a4"},"vehicle_type_id":"4","last_reported":1751494213,"current_range_meters":16400,"station_id":"st_cvj6sg6p6f1abm77japg","pricing_plan_id":"cebpf4jnsgd1na2vs0mg"},{"bike_id":"c10a4283-320d-4e64-8d75-ff83e94026ba","system_id":"levelo_inurba_marseille","lat":43.211931,"lon":5.350696,"is_reserved":false,"is_disabled":false,"rental_uris":{"android":"levelo://app?vid=c10a4283-320d-4e64-8d75-ff83e94026ba","ios":"levelo://app?vid=c10a4283-320d-4e64-8d75-ff83e94026ba"},"vehicle_type_id":"4","last_reported":1751494213,"current_range_meters":16400,"station_id":"st_cvj6sg6p6f1abm77japg","pricing_plan_id":"cebpf4jnsgd1na2vs0mg"},{"bike_id":"1fec5f32-8b87-4aea-b22d-0f614d28af36","system_id":"levelo_inurba_marseille","lat":43.276245,"lon":5.36114,"is_reserved":false,"is_disabled":false,"rental_uris":{"android":"levelo://app?vid=1fec5f32-8b87-4aea-b22d-0f614d28af36","ios":"levelo://app?vid=1fec5f32-8b87-4aea-b22d-0f614d28af36"},"vehicle_type_id":"4","last_reported":1751494213,"current_range_meters":16800,"station_id":"","pricing_plan_id":"cebpf4jnsgd1na2vs0mg"},{"bike_id":"a588469b-12ca-41c6-8c6f-3f3bda5b7f15","system_id":"levelo_inurba_marseille","lat":43.31562,"lon":5.38364,"is_reserved":false,"is_disabled":false,"rental_uris":{"android":"levelo://app?vid=a588469b-12ca-41c6-8c6f-3f3bda5b7f15","ios":"levelo://app?vid=a588469b-12ca-41c6-8c6f-3f3bda5b7f15"},"vehicle_type_id":"4","last_reported":1751494213,"current_range_meters":16800,"station_id":"","pricing_plan_id":"cebpf4jnsgd1na2vs0mg"},{"bike_id":"357daa83-8383-4fed-aa49-bcbdaab5845a","system_id":"levelo_inurba_marseille","lat":43.30893,"lon":5.37193,"is_reserved":false,"is_disabled":false,"rental_uris":{"android":"levelo://app?vid=357daa83-8383-4fed-aa49-bcbdaab5845a","ios":"levelo://app?vid=357daa83-8383-4fed-aa49-bcbdaab5845a"},"vehicle_type_id":"4","last_reported":1751494213,"current_range_meters":16800,"station_id":"ce4bguh2rcd13ifvqckg","pricing_plan_id":"cebpf4jnsgd1na2vs0mg"},{"bike_id":"f1acddb2-bdb2-48cc-a3c3-58e7e9f8eb26","system_id":"levelo_inurba_marseille","lat":43.30935,"lon":5.40151,"is_reserved":false,"is_disabled":false,"rental_uris":{"android":"levelo://app?vid=f1acddb2-bdb2-48cc-a3c3-58e7e9f8eb26","ios":"levelo://app?vid=f1acddb2-bdb2-48cc-a3c3-58e7e9f8eb26"},"vehicle_type_id":"4","last_reported":1751494213,"current_range_meters":16800,"station_id":"ce4bgvp2rcd13ifvqct0","pricing_plan_id":"cebpf4jnsgd1na2vs0mg"},{"bike_id":"ecb761f7-9756-4b3c-bdd3-0b0561fc88a8","system_id":"levelo_inurba_marseille","lat":43.306474,"lon":5.401016,"is_reserved":false,"is_disabled":false,"rental_uris":{"android":"levelo://app?vid=ecb761f7-9756-4b3c-bdd3-0b0561fc88a8","ios":"levelo://app?vid=ecb761f7-9756-4b3c-bdd3-0b0561fc88a8"},"vehicle_type_id":"4","last_reported":1751494213,"current_range_meters":16800,"station_id":"ce4bh112rcd13ifvqda0","pricing_plan_id":"cebpf4jnsgd1na2vs0mg"},{"bike_id":"1184fcc2-d848-4874-a4be-78fe0985a881","system_id":"levelo_inurba_marseille","lat":43.29198,"lon":5.39329,"is_reserved":false,"is_disabled":false,"rental_uris":{"android":"levelo://app?vid=1184fcc2-d848-4874-a4be-78fe0985a881","ios":"levelo://app?vid=1184fcc2-d848-4874-a4be-78fe0985a881"},"vehicle_type_id":"4","last_reported":1751494213,"current_range_meters":16800,"station_id":"ce4bh192rcd13ifvqdd0","pricing_plan_id":"cebpf4jnsgd1na2vs0mg"},{"bike_id":"1a44e6f4-b565-4b1b-aace-d3b8981fbcbb","system_id":"levelo_inurba_marseille","lat":43.29033,"lon":5.38649,"is_reserved":false,"is_disabled":false,"rental_uris":{"android":"levelo://app?vid=1a44e6f4-b565-4b1b-aace-d3b8981fbcbb","ios":"levelo://app?vid=1a44e6f4-b565-4b1b-aace-d3b8981fbcbb"},"vehicle_type_id":"4","last_reported":1751494213,"current_range_meters":16800,"station_id":"ce4bh4p2rcd13ifvqe0g","pricing_plan_id":"cebpf4jnsgd1na2vs0mg"},{"bike_id":"1af4b95a-a929-4907-9c9a-94f75a2087fd","system_id":"levelo_inurba_marseille","lat":43.27361,"lon":5.36271,"is_reserved":false,"is_disabled":false,"rental_uris":{"android":"levelo://app?vid=1af4b95a-a929-4907-9c9a-94f75a2087fd","ios":"levelo://app?vid=1af4b95a-a929-4907-9c9a-94f75a2087fd"},"vehicle_type_id":"4","last_reported":1751494213,"current_range_meters":16800,"station_id":"ce4bhbh2rcd13ifvqeo0","pricing_plan_id":"cebpf4jnsgd1na2vs0mg"},{"bike_id":"e916934b-7ee1-407b-8211-2df66dfbbcb7","system_id":"levelo_inurba_marseille","lat":43.28411,"lon":5.34979,"is_reserved":false,"is_disabled":false,"rental_uris":{"android":"levelo://app?vid=e916934b-7ee1-407b-8211-2df66dfbbcb7","ios":"levelo://app?vid=e916934b-7ee1-407b-8211-2df66dfbbcb7"},"vehicle_type_id":"4","last_reported":1751494213,"current_range_meters":16800,"station_id":"ce4bhbh2rcd13ifvqepg","pricing_plan_id":"cebpf4jnsgd1na2vs0mg"},{"bike_id":"9671bc7e-cfc8-43b8-910b-34586791d9e1","system_id":"levelo_inurba_marseille","lat":43.28444,"lon":5.39213,"is_reserved":false,"is_disabled":false,"rental_uris":{"android":"levelo://app?vid=9671bc7e-cfc8-43b8-910b-34586791d9e1","ios":"levelo://app?vid=9671bc7e-cfc8-43b8-910b-34586791d9e1"},"vehicle_type_id":"4","last_reported":1751494213,"current_range_meters":16800,"station_id":"ce4bhoh2rcd13ifvqh5g","pricing_plan_id":"cebpf4jnsgd1na2vs0mg"},{"bike_id":"912d67f3-78e7-48fd-8929-37f0572cfee4","system_id":"levelo_inurba_marseille","lat":43.26356,"lon":5.37412,"is_reserved":false,"is_disabled":false,"rental_uris":{"android":"levelo://app?vid=912d67f3-78e7-48fd-8929-37f0572cfee4","ios":"levelo://app?vid=912d67f3-78e7-48fd-8929-37f0572cfee4"},"vehicle_type_id":"4","last_reported":1751494213,"current_range_meters":17200,"station_id":"","pricing_plan_id":"cebpf4jnsgd1na2vs0mg"},{"bike_id":"09fae636-3f69-4553-b897-e1c9a05f7a07","system_id":"levelo_inurba_marseille","lat":43.31162,"lon":5.38723,"is_reserved":false,"is_disabled":false,"rental_uris":{"android":"levelo://app?vid=09fae636-3f69-4553-b897-e1c9a05f7a07","ios":"levelo://app?vid=09fae636-3f69-4553-b897-e1c9a05f7a07"},"vehicle_type_id":"4","last_reported":1751494213,"current_range_meters":17200,"station_id":"ce4bgv12rcd13ifvqcp0","pricing_plan_id":"cebpf4jnsgd1na2vs0mg"},{"bike_id":"4fe47cf6-51b9-45ae-8fac-067f940faeca","system_id":"levelo_inurba_marseille","lat":43.30877,"lon":5.39644,"is_reserved":false,"is_disabled":false,"rental_uris":{"android":"levelo://app?vid=4fe47cf6-51b9-45ae-8fac-067f940faeca","ios":"levelo://app?vid=4fe47cf6-51b9-45ae-8fac-067f940faeca"},"vehicle_type_id":"4","last_reported":1751494213,"current_range_meters":17200,"station_id":"ce4bh012rcd13ifvqcv0","pricing_plan_id":"cebpf4jnsgd1na2vs0mg"},{"bike_id":"e5ec4e2d-7df7-4d72-b20e-5d414f733457","system_id":"levelo_inurba_marseille","lat":43.2902,"lon":5.38136,"is_reserved":false,"is_disabled":false,"rental_uris":{"android":"levelo://app?vid=e5ec4e2d-7df7-4d72-b20e-5d414f733457","ios":"levelo://app?vid=e5ec4e2d-7df7-4d72-b20e-5d414f733457"},"vehicle_type_id":"4","last_reported":1751494213,"current_range_meters":17200,"station_id":"ce4bh4p2rcd13ifvqe1g","pricing_plan_id":"cebpf4jnsgd1na2vs0mg"},{"bike_id":"bd63e5c5-945f-4bf5-8dae-397346ad2903","system_id":"levelo_inurba_marseille","lat":43.28155,"lon":5.4266,"is_reserved":false,"is_disabled":false,"rental_uris":{"android":"levelo://app?vid=bd63e5c5-945f-4bf5-8dae-397346ad2903","ios":"levelo://app?vid=bd63e5c5-945f-4bf5-8dae-397346ad2903"},"vehicle_type_id":"4","last_reported":1751494213,"current_range_meters":17200,"station_id":"ce4bhnh2rcd13ifvqgug","pricing_plan_id":"cebpf4jnsgd1na2vs0mg"},{"bike_id":"68e309f4-b1e4-4f3a-b754-9a7df441dc33","system_id":"levelo_inurba_marseille","lat":43.28153,"lon":5.42655,"is_reserved":false,"is_disabled":false,"rental_uris":{"android":"levelo://app?vid=68e309f4-b1e4-4f3a-b754-9a7df441dc33","ios":"levelo://app?vid=68e309f4-b1e4-4f3a-b754-9a7df441dc33"},"vehicle_type_id":"4","last_reported":1751494213,"current_range_meters":17200,"station_id":"ce4bhnh2rcd13ifvqgug","pricing_plan_id":"cebpf4jnsgd1na2vs0mg"},{"bike_id":"ba154a12-11bd-42a5-958a-5992f5d043d1","system_id":"levelo_inurba_marseille","lat":43.30475,"lon":5.37037,"is_reserved":false,"is_disabled":false,"rental_uris":{"android":"levelo://app?vid=ba154a12-11bd-42a5-958a-5992f5d043d1","ios":"levelo://app?vid=ba154a12-11bd-42a5-958a-5992f5d043d1"},"vehicle_type_id":"4","last_reported":1751494213,"current_range_meters":17600,"station_id":"","pricing_plan_id":"cebpf4jnsgd1na2vs0mg"},{"bike_id":"afc674af-1cfb-4db9-b4f3-736204ee0c0c","system_id":"levelo_inurba_marseille","lat":43.31159,"lon":5.38734,"is_reserved":false,"is_disabled":false,"rental_uris":{"android":"levelo://app?vid=afc674af-1cfb-4db9-b4f3-736204ee0c0c","ios":"levelo://app?vid=afc674af-1cfb-4db9-b4f3-736204ee0c0c"},"vehicle_type_id":"4","last_reported":1751494213,"current_range_meters":17600,"station_id":"ce4bgv12rcd13ifvqcp0","pricing_plan_id":"cebpf4jnsgd1na2vs0mg"},{"bike_id":"6c736814-975c-4490-a1ca-3c74108606ee","system_id":"levelo_inurba_marseille","lat":43.29036,"lon":5.39964,"is_reserved":false,"is_disabled":false,"rental_uris":{"android":"levelo://app?vid=6c736814-975c-4490-a1ca-3c74108606ee","ios":"levelo://app?vid=6c736814-975c-4490-a1ca-3c74108606ee"},"vehicle_type_id":"4","last_reported":1751494213,"current_range_meters":17600,"station_id":"ce4bh392rcd13ifvqdm0","pricing_plan_id":"cebpf4jnsgd1na2vs0mg"},{"bike_id":"d3cefdd2-b81e-4a2a-b412-7fb159d89b44","system_id":"levelo_inurba_marseille","lat":43.28718,"lon":5.37951,"is_reserved":false,"is_disabled":false,"rental_uris":{"android":"levelo://app?vid=d3cefdd2-b81e-4a2a-b412-7fb159d89b44","ios":"levelo://app?vid=d3cefdd2-b81e-4a2a-b412-7fb159d89b44"},"vehicle_type_id":"4","last_reported":1751494213,"current_range_meters":17600,"station_id":"ce4bh9p2rcd13ifvqec0","pricing_plan_id":"cebpf4jnsgd1na2vs0mg"},{"bike_id":"460f39c4-75ad-4525-a2ea-c965626a9a40","system_id":"levelo_inurba_marseille","lat":43.26232,"lon":5.40453,"is_reserved":false,"is_disabled":false,"rental_uris":{"android":"levelo://app?vid=460f39c4-75ad-4525-a2ea-c965626a9a40","ios":"levelo://app?vid=460f39c4-75ad-4525-a2ea-c965626a9a40"},"vehicle_type_id":"4","last_reported":1751494213,"current_range_meters":17600,"station_id":"ce4bhmh2rcd13ifvqgmg","pricing_plan_id":"cebpf4jnsgd1na2vs0mg"},{"bike_id":"7ac137a3-6a36-4277-8797-9e88a7336a6b","system_id":"levelo_inurba_marseille","lat":43.23185,"lon":5.39989,"is_reserved":false,"is_disabled":false,"rental_uris":{"android":"levelo://app?vid=7ac137a3-6a36-4277-8797-9e88a7336a6b","ios":"levelo://app?vid=7ac137a3-6a36-4277-8797-9e88a7336a6b"},"vehicle_type_id":"4","last_reported":1751494213,"current_range_meters":17600,"station_id":"ce4bhn12rcd13ifvqgqg","pricing_plan_id":"cebpf4jnsgd1na2vs0mg"},{"bike_id":"0f590c2a-c81e-469d-a7d1-2741de3642a2","system_id":"levelo_inurba_marseille","lat":43.21183,"lon":5.35063,"is_reserved":false,"is_disabled":false,"rental_uris":{"android":"levelo://app?vid=0f590c2a-c81e-469d-a7d1-2741de3642a2","ios":"levelo://app?vid=0f590c2a-c81e-469d-a7d1-2741de3642a2"},"vehicle_type_id":"4","last_reported":1751494213,"current_range_meters":17600,"station_id":"st_cvj6sg6p6f1abm77japg","pricing_plan_id":"cebpf4jnsgd1na2vs0mg"},{"bike_id":"69442a37-7e25-4399-9848-f28e35bcd19b","system_id":"levelo_inurba_marseille","lat":43.303646,"lon":5.38654,"is_reserved":false,"is_disabled":false,"rental_uris":{"android":"levelo://app?vid=69442a37-7e25-4399-9848-f28e35bcd19b","ios":"levelo://app?vid=69442a37-7e25-4399-9848-f28e35bcd19b"},"vehicle_type_id":"4","last_reported":1751494213,"current_range_meters":18000,"station_id":"ce4bgih2rcd13ifvqba0","pricing_plan_id":"cebpf4jnsgd1na2vs0mg"},{"bike_id":"772debc4-7a23-48ac-9b74-f20080f28919","system_id":"levelo_inurba_marseille","lat":43.25871,"lon":5.3991,"is_reserved":false,"is_disabled":false,"rental_uris":{"android":"levelo://app?vid=772debc4-7a23-48ac-9b74-f20080f28919","ios":"levelo://app?vid=772debc4-7a23-48ac-9b74-f20080f28919"},"vehicle_type_id":"4","last_reported":1751494213,"current_range_meters":18000,"station_id":"ce4bhl92rcd13ifvqghg","pricing_plan_id":"cebpf4jnsgd1na2vs0mg"},{"bike_id":"37b84a38-055a-4a6e-a56a-8ff3d0c1b2ec","system_id":"levelo_inurba_marseille","lat":43.21165,"lon":5.35113,"is_reserved":false,"is_disabled":false,"rental_uris":{"android":"levelo://app?vid=37b84a38-055a-4a6e-a56a-8ff3d0c1b2ec","ios":"levelo://app?vid=37b84a38-055a-4a6e-a56a-8ff3d0c1b2ec"},"vehicle_type_id":"4","last_reported":1751494213,"current_range_meters":18000,"station_id":"st_cvj6sg6p6f1abm77japg","pricing_plan_id":"cebpf4jnsgd1na2vs0mg"},{"bike_id":"0c5e46df-9adb-4aa5-842c-17a1961c0106","system_id":"levelo_inurba_marseille","lat":43.279884,"lon":5.407026,"is_reserved":false,"is_disabled":false,"rental_uris":{"android":"levelo://app?vid=0c5e46df-9adb-4aa5-842c-17a1961c0106","ios":"levelo://app?vid=0c5e46df-9adb-4aa5-842c-17a1961c0106"},"vehicle_type_id":"4","last_reported":1751494213,"current_range_meters":18800,"station_id":"","pricing_plan_id":"cebpf4jnsgd1na2vs0mg"},{"bike_id":"8d5973a5-85b7-4df2-812c-5a3453b01874","system_id":"levelo_inurba_marseille","lat":43.30129,"lon":5.38777,"is_reserved":false,"is_disabled":false,"rental_uris":{"android":"levelo://app?vid=8d5973a5-85b7-4df2-812c-5a3453b01874","ios":"levelo://app?vid=8d5973a5-85b7-4df2-812c-5a3453b01874"},"vehicle_type_id":"4","last_reported":1751494213,"current_range_meters":18800,"station_id":"ce4bghh2rcd13ifvqb60","pricing_plan_id":"cebpf4jnsgd1na2vs0mg"},{"bike_id":"24519aac-15e0-45a8-975d-e4fbd48e0369","system_id":"levelo_inurba_marseille","lat":43.30306,"lon":5.39215,"is_reserved":false,"is_disabled":false,"rental_uris":{"android":"levelo://app?vid=24519aac-15e0-45a8-975d-e4fbd48e0369","ios":"levelo://app?vid=24519aac-15e0-45a8-975d-e4fbd48e0369"},"vehicle_type_id":"4","last_reported":1751494213,"current_range_meters":18800,"station_id":"ce4bgkh2rcd13ifvqbk0","pricing_plan_id":"cebpf4jnsgd1na2vs0mg"},{"bike_id":"243cabe0-cf98-458f-bfaa-9a45f16e09f5","system_id":"levelo_inurba_marseille","lat":43.30145,"lon":5.37426,"is_reserved":false,"is_disabled":false,"rental_uris":{"android":"levelo://app?vid=243cabe0-cf98-458f-bfaa-9a45f16e09f5","ios":"levelo://app?vid=243cabe0-cf98-458f-bfaa-9a45f16e09f5"},"vehicle_type_id":"4","last_reported":1751494213,"current_range_meters":18800,"station_id":"ce4bgs92rcd13ifvqcc0","pricing_plan_id":"cebpf4jnsgd1na2vs0mg"},{"bike_id":"ea1c7fe1-43cf-4953-9c42-38e00e282eb1","system_id":"levelo_inurba_marseille","lat":43.30591,"lon":5.39354,"is_reserved":false,"is_disabled":false,"rental_uris":{"android":"levelo://app?vid=ea1c7fe1-43cf-4953-9c42-38e00e282eb1","ios":"levelo://app?vid=ea1c7fe1-43cf-4953-9c42-38e00e282eb1"},"vehicle_type_id":"4","last_reported":1751494213,"current_range_meters":18800,"station_id":"ce4bh0p2rcd13ifvqd80","pricing_plan_id":"cebpf4jnsgd1na2vs0mg"},{"bike_id":"0c9664b8-ad92-4e52-996b-b5a37d9410bf","system_id":"levelo_inurba_marseille","lat":43.30103,"lon":5.39124,"is_reserved":false,"is_disabled":false,"rental_uris":{"android":"levelo://app?vid=0c9664b8-ad92-4e52-996b-b5a37d9410bf","ios":"levelo://app?vid=0c9664b8-ad92-4e52-996b-b5a37d9410bf"},"vehicle_type_id":"4","last_reported":1751494213,"current_range_meters":18800,"station_id":"ce4bh192rcd13ifvqdb0","pricing_plan_id":"cebpf4jnsgd1na2vs0mg"},{"bike_id":"e97d0983-250b-4ca5-afa4-f4ab8cc9b91b","system_id":"levelo_inurba_marseille","lat":43.29274,"lon":5.40132,"is_reserved":false,"is_disabled":false,"rental_uris":{"android":"levelo://app?vid=e97d0983-250b-4ca5-afa4-f4ab8cc9b91b","ios":"levelo://app?vid=e97d0983-250b-4ca5-afa4-f4ab8cc9b91b"},"vehicle_type_id":"4","last_reported":1751494213,"current_range_meters":18800,"station_id":"ce4bh312rcd13ifvqdk0","pricing_plan_id":"cebpf4jnsgd1na2vs0mg"},{"bike_id":"fb42ecee-e2e2-45cf-b83e-52ab1bfd1c6f","system_id":"levelo_inurba_marseille","lat":43.29529,"lon":5.38554,"is_reserved":false,"is_disabled":false,"rental_uris":{"android":"levelo://app?vid=fb42ecee-e2e2-45cf-b83e-52ab1bfd1c6f","ios":"levelo://app?vid=fb42ecee-e2e2-45cf-b83e-52ab1bfd1c6f"},"vehicle_type_id":"4","last_reported":1751494213,"current_range_meters":19200,"station_id":"ce4bgih2rcd13ifvqba0","pricing_plan_id":"cebpf4jnsgd1na2vs0mg"},{"bike_id":"3d869376-5ba9-4e7f-9019-0c8b893c6b7c","system_id":"levelo_inurba_marseille","lat":43.255,"lon":5.37632,"is_reserved":false,"is_disabled":false,"rental_uris":{"android":"levelo://app?vid=3d869376-5ba9-4e7f-9019-0c8b893c6b7c","ios":"levelo://app?vid=3d869376-5ba9-4e7f-9019-0c8b893c6b7c"},"vehicle_type_id":"4","last_reported":1751494213,"current_range_meters":19200,"station_id":"ce4bhh12rcd13ifvqff0","pricing_plan_id":"cebpf4jnsgd1na2vs0mg"},{"bike_id":"62b1c7be-9328-49a7-9c80-69013d74befc","system_id":"levelo_inurba_marseille","lat":43.25585,"lon":5.38233,"is_reserved":false,"is_disabled":false,"rental_uris":{"android":"levelo://app?vid=62b1c7be-9328-49a7-9c80-69013d74befc","ios":"levelo://app?vid=62b1c7be-9328-49a7-9c80-69013d74befc"},"vehicle_type_id":"4","last_reported":1751494213,"current_range_meters":19200,"station_id":"ce4bhih2rcd13ifvqfs0","pricing_plan_id":"cebpf4jnsgd1na2vs0mg"},{"bike_id":"39a426f5-115a-45e5-bede-c3bdb1e3c555","system_id":"levelo_inurba_marseille","lat":43.25082,"lon":5.39526,"is_reserved":false,"is_disabled":false,"rental_uris":{"android":"levelo://app?vid=39a426f5-115a-45e5-bede-c3bdb1e3c555","ios":"levelo://app?vid=39a426f5-115a-45e5-bede-c3bdb1e3c555"},"vehicle_type_id":"4","last_reported":1751494213,"current_range_meters":19200,"station_id":"ce4bhm12rcd13ifvqgkg","pricing_plan_id":"cebpf4jnsgd1na2vs0mg"},{"bike_id":"a6715104-7492-4ec6-a996-23050baf8551","system_id":"levelo_inurba_marseille","lat":43.22494,"lon":5.34778,"is_reserved":false,"is_disabled":false,"rental_uris":{"android":"levelo://app?vid=a6715104-7492-4ec6-a996-23050baf8551","ios":"levelo://app?vid=a6715104-7492-4ec6-a996-23050baf8551"},"vehicle_type_id":"4","last_reported":1751494213,"current_range_meters":19200,"station_id":"st_cvj5dfep6f1abm77gieg","pricing_plan_id":"cebpf4jnsgd1na2vs0mg"},{"bike_id":"0a638a6c-7976-4cac-aa15-32d07db1b29a","system_id":"levelo_inurba_marseille","lat":43.30727,"lon":5.42439,"is_reserved":false,"is_disabled":false,"rental_uris":{"android":"levelo://app?vid=0a638a6c-7976-4cac-aa15-32d07db1b29a","ios":"levelo://app?vid=0a638a6c-7976-4cac-aa15-32d07db1b29a"},"vehicle_type_id":"4","last_reported":1751494213,"current_range_meters":19200,"station_id":"st_cvj6ca6bvosntc0bfgr0","pricing_plan_id":"cebpf4jnsgd1na2vs0mg"},{"bike_id":"4d4995e7-0bba-4ac2-a238-afd84a5e99b5","system_id":"levelo_inurba_marseille","lat":43.304848,"lon":5.398345,"is_reserved":false,"is_disabled":false,"rental_uris":{"android":"levelo://app?vid=4d4995e7-0bba-4ac2-a238-afd84a5e99b5","ios":"levelo://app?vid=4d4995e7-0bba-4ac2-a238-afd84a5e99b5"},"vehicle_type_id":"4","last_reported":1751494213,"current_range_meters":19600,"station_id":"","pricing_plan_id":"cebpf4jnsgd1na2vs0mg"},{"bike_id":"325fef7e-1299-4ebb-9d8b-1fb4d4917e2b","system_id":"levelo_inurba_marseille","lat":43.26746,"lon":5.37837,"is_reserved":false,"is_disabled":false,"rental_uris":{"android":"levelo://app?vid=325fef7e-1299-4ebb-9d8b-1fb4d4917e2b","ios":"levelo://app?vid=325fef7e-1299-4ebb-9d8b-1fb4d4917e2b"},"vehicle_type_id":"4","last_reported":1751494213,"current_range_meters":19600,"station_id":"","pricing_plan_id":"cebpf4jnsgd1na2vs0mg"},{"bike_id":"50bb0fdb-2cc1-4d8d-af26-b7febba54985","system_id":"levelo_inurba_marseille","lat":43.274139,"lon":5.39007,"is_reserved":false,"is_disabled":false,"rental_uris":{"android":"levelo://app?vid=50bb0fdb-2cc1-4d8d-af26-b7febba54985","ios":"levelo://app?vid=50bb0fdb-2cc1-4d8d-af26-b7febba54985"},"vehicle_type_id":"4","last_reported":1751494213,"current_range_meters":19600,"station_id":"","pricing_plan_id":"cebpf4jnsgd1na2vs0mg"},{"bike_id":"4425a5e2-33f1-47a3-993f-708df6ec3779","system_id":"levelo_inurba_marseille","lat":43.30799,"lon":5.37658,"is_reserved":false,"is_disabled":false,"rental_uris":{"android":"levelo://app?vid=4425a5e2-33f1-47a3-993f-708df6ec3779","ios":"levelo://app?vid=4425a5e2-33f1-47a3-993f-708df6ec3779"},"vehicle_type_id":"4","last_reported":1751494213,"current_range_meters":19600,"station_id":"ce4bgv92rcd13ifvqcq0","pricing_plan_id":"cebpf4jnsgd1na2vs0mg"},{"bike_id":"05655a7e-2c7e-46a8-ab33-e4b9a82e4d88","system_id":"levelo_inurba_marseille","lat":43.31343,"lon":5.39725,"is_reserved":false,"is_disabled":false,"rental_uris":{"android":"levelo://app?vid=05655a7e-2c7e-46a8-ab33-e4b9a82e4d88","ios":"levelo://app?vid=05655a7e-2c7e-46a8-ab33-e4b9a82e4d88"},"vehicle_type_id":"4","last_reported":1751494213,"current_range_meters":19600,"station_id":"ce4bgvp2rcd13ifvqcu0","pricing_plan_id":"cebpf4jnsgd1na2vs0mg"},{"bike_id":"723ce655-3305-4456-bcf3-317a44e39960","system_id":"levelo_inurba_marseille","lat":43.30629,"lon":5.40107,"is_reserved":false,"is_disabled":false,"rental_uris":{"android":"levelo://app?vid=723ce655-3305-4456-bcf3-317a44e39960","ios":"levelo://app?vid=723ce655-3305-4456-bcf3-317a44e39960"},"vehicle_type_id":"4","last_reported":1751494213,"current_range_meters":19600,"station_id":"ce4bh112rcd13ifvqda0","pricing_plan_id":"cebpf4jnsgd1na2vs0mg"},{"bike_id":"11619931-c2c7-4ccf-8980-6fc8befe473a","system_id":"levelo_inurba_marseille","lat":43.29254,"lon":5.40911,"is_reserved":false,"is_disabled":false,"rental_uris":{"android":"levelo://app?vid=11619931-c2c7-4ccf-8980-6fc8befe473a","ios":"levelo://app?vid=11619931-c2c7-4ccf-8980-6fc8befe473a"},"vehicle_type_id":"4","last_reported":1751494213,"current_range_meters":19600,"station_id":"ce4bh192rcd13ifvqdc0","pricing_plan_id":"cebpf4jnsgd1na2vs0mg"},{"bike_id":"7e21e8f2-09c8-4cc5-8113-278ebd23888d","system_id":"levelo_inurba_marseille","lat":43.21204,"lon":5.35094,"is_reserved":false,"is_disabled":false,"rental_uris":{"android":"levelo://app?vid=7e21e8f2-09c8-4cc5-8113-278ebd23888d","ios":"levelo://app?vid=7e21e8f2-09c8-4cc5-8113-278ebd23888d"},"vehicle_type_id":"4","last_reported":1751494213,"current_range_meters":19600,"station_id":"st_cvj6sg6p6f1abm77japg","pricing_plan_id":"cebpf4jnsgd1na2vs0mg"},{"bike_id":"875f8eb6-0efa-4b75-bcdf-09af6d80b846","system_id":"levelo_inurba_marseille","lat":43.29521,"lon":5.38551,"is_reserved":false,"is_disabled":false,"rental_uris":{"android":"levelo://app?vid=875f8eb6-0efa-4b75-bcdf-09af6d80b846","ios":"levelo://app?vid=875f8eb6-0efa-4b75-bcdf-09af6d80b846"},"vehicle_type_id":"4","last_reported":1751494213,"current_range_meters":20000,"station_id":"ce4bgih2rcd13ifvqba0","pricing_plan_id":"cebpf4jnsgd1na2vs0mg"},{"bike_id":"35407551-f39f-4246-9457-9562487d0d20","system_id":"levelo_inurba_marseille","lat":43.29031,"lon":5.3998,"is_reserved":false,"is_disabled":false,"rental_uris":{"android":"levelo://app?vid=35407551-f39f-4246-9457-9562487d0d20","ios":"levelo://app?vid=35407551-f39f-4246-9457-9562487d0d20"},"vehicle_type_id":"4","last_reported":1751494213,"current_range_meters":20000,"station_id":"ce4bh392rcd13ifvqdm0","pricing_plan_id":"cebpf4jnsgd1na2vs0mg"},{"bike_id":"4f17131e-8509-44d8-8ba2-62f504097e87","system_id":"levelo_inurba_marseille","lat":43.29091,"lon":5.38161,"is_reserved":false,"is_disabled":false,"rental_uris":{"android":"levelo://app?vid=4f17131e-8509-44d8-8ba2-62f504097e87","ios":"levelo://app?vid=4f17131e-8509-44d8-8ba2-62f504097e87"},"vehicle_type_id":"4","last_reported":1751494213,"current_range_meters":20000,"station_id":"ce4bh512rcd13ifvqe2g","pricing_plan_id":"cebpf4jnsgd1na2vs0mg"},{"bike_id":"cc04118e-9312-4bf8-9106-d64e829afbaa","system_id":"levelo_inurba_marseille","lat":43.21201,"lon":5.35091,"is_reserved":false,"is_disabled":false,"rental_uris":{"android":"levelo://app?vid=cc04118e-9312-4bf8-9106-d64e829afbaa","ios":"levelo://app?vid=cc04118e-9312-4bf8-9106-d64e829afbaa"},"vehicle_type_id":"4","last_reported":1751494213,"current_range_meters":20000,"station_id":"st_cvj6sg6p6f1abm77japg","pricing_plan_id":"cebpf4jnsgd1na2vs0mg"},{"bike_id":"b2ce53ca-166b-417e-9d70-9bee393f75bb","system_id":"levelo_inurba_marseille","lat":43.21186,"lon":5.35079,"is_reserved":false,"is_disabled":false,"rental_uris":{"android":"levelo://app?vid=b2ce53ca-166b-417e-9d70-9bee393f75bb","ios":"levelo://app?vid=b2ce53ca-166b-417e-9d70-9bee393f75bb"},"vehicle_type_id":"4","last_reported":1751494213,"current_range_meters":20000,"station_id":"st_cvj6sg6p6f1abm77japg","pricing_plan_id":"cebpf4jnsgd1na2vs0mg"},{"bike_id":"1c8ab180-05fd-405f-9922-b2b2c2d5142f","system_id":"levelo_inurba_marseille","lat":43.337905,"lon":5.381196,"is_reserved":false,"is_disabled":false,"rental_uris":{"android":"levelo://app?vid=1c8ab180-05fd-405f-9922-b2b2c2d5142f","ios":"levelo://app?vid=1c8ab180-05fd-405f-9922-b2b2c2d5142f"},"vehicle_type_id":"4","last_reported":1751494213,"current_range_meters":20400,"station_id":"","pricing_plan_id":"cebpf4jnsgd1na2vs0mg"},{"bike_id":"655d7bcf-b82d-4580-b558-94977be596c3","system_id":"levelo_inurba_marseille","lat":43.2871,"lon":5.37952,"is_reserved":false,"is_disabled":false,"rental_uris":{"android":"levelo://app?vid=655d7bcf-b82d-4580-b558-94977be596c3","ios":"levelo://app?vid=655d7bcf-b82d-4580-b558-94977be596c3"},"vehicle_type_id":"4","last_reported":1751494213,"current_range_meters":20400,"station_id":"ce4bh9p2rcd13ifvqec0","pricing_plan_id":"cebpf4jnsgd1na2vs0mg"},{"bike_id":"1cf5e5ba-13d2-4a48-8804-097e24ab75d3","system_id":"levelo_inurba_marseille","lat":43.28652,"lon":5.36354,"is_reserved":false,"is_disabled":false,"rental_uris":{"android":"levelo://app?vid=1cf5e5ba-13d2-4a48-8804-097e24ab75d3","ios":"levelo://app?vid=1cf5e5ba-13d2-4a48-8804-097e24ab75d3"},"vehicle_type_id":"4","last_reported":1751494213,"current_range_meters":20400,"station_id":"ce4bhah2rcd13ifvqej0","pricing_plan_id":"cebpf4jnsgd1na2vs0mg"},{"bike_id":"fe1efa48-03b3-4558-a972-1b4342c909d3","system_id":"levelo_inurba_marseille","lat":43.28699,"lon":5.39996,"is_reserved":false,"is_disabled":false,"rental_uris":{"android":"levelo://app?vid=fe1efa48-03b3-4558-a972-1b4342c909d3","ios":"levelo://app?vid=fe1efa48-03b3-4558-a972-1b4342c909d3"},"vehicle_type_id":"4","last_reported":1751494213,"current_range_meters":20400,"station_id":"ce4bho92rcd13ifvqh3g","pricing_plan_id":"cebpf4jnsgd1na2vs0mg"},{"bike_id":"0825b654-221d-4e28-adb5-2718a04a977c","system_id":"levelo_inurba_marseille","lat":43.31706,"lon":5.37733,"is_reserved":false,"is_disabled":false,"rental_uris":{"android":"levelo://app?vid=0825b654-221d-4e28-adb5-2718a04a977c","ios":"levelo://app?vid=0825b654-221d-4e28-adb5-2718a04a977c"},"vehicle_type_id":"4","last_reported":1751494213,"current_range_meters":20800,"station_id":"ce4bgth2rcd13ifvqch0","pricing_plan_id":"cebpf4jnsgd1na2vs0mg"},{"bike_id":"3c237a63-08eb-4fdd-b37b-7c2c47806415","system_id":"levelo_inurba_marseille","lat":43.30936,"lon":5.40162,"is_reserved":false,"is_disabled":false,"rental_uris":{"android":"levelo://app?vid=3c237a63-08eb-4fdd-b37b-7c2c47806415","ios":"levelo://app?vid=3c237a63-08eb-4fdd-b37b-7c2c47806415"},"vehicle_type_id":"4","last_reported":1751494213,"current_range_meters":20800,"station_id":"ce4bgvp2rcd13ifvqct0","pricing_plan_id":"cebpf4jnsgd1na2vs0mg"},{"bike_id":"241d3b69-f986-43b5-9c44-b1453436d000","system_id":"levelo_inurba_marseille","lat":43.312682,"lon":5.40171,"is_reserved":false,"is_disabled":false,"rental_uris":{"android":"levelo://app?vid=241d3b69-f986-43b5-9c44-b1453436d000","ios":"levelo://app?vid=241d3b69-f986-43b5-9c44-b1453436d000"},"vehicle_type_id":"4","last_reported":1751494213,"current_range_meters":20800,"station_id":"ce4bh092rcd13ifvqd30","pricing_plan_id":"cebpf4jnsgd1na2vs0mg"},{"bike_id":"21f966d9-35d4-47f5-b6d2-e23634b286b0","system_id":"levelo_inurba_marseille","lat":43.29174,"lon":5.39317,"is_reserved":false,"is_disabled":false,"rental_uris":{"android":"levelo://app?vid=21f966d9-35d4-47f5-b6d2-e23634b286b0","ios":"levelo://app?vid=21f966d9-35d4-47f5-b6d2-e23634b286b0"},"vehicle_type_id":"4","last_reported":1751494213,"current_range_meters":20800,"station_id":"ce4bh192rcd13ifvqdd0","pricing_plan_id":"cebpf4jnsgd1na2vs0mg"},{"bike_id":"b104ab62-283f-4496-8f7f-d1c732f16c33","system_id":"levelo_inurba_marseille","lat":43.28845,"lon":5.39322,"is_reserved":false,"is_disabled":false,"rental_uris":{"android":"levelo://app?vid=b104ab62-283f-4496-8f7f-d1c732f16c33","ios":"levelo://app?vid=b104ab62-283f-4496-8f7f-d1c732f16c33"},"vehicle_type_id":"4","last_reported":1751494213,"current_range_meters":20800,"station_id":"ce4bh2p2rcd13ifvqdi0","pricing_plan_id":"cebpf4jnsgd1na2vs0mg"},{"bike_id":"6dfa61fd-e24d-4103-b0b0-edde1791450f","system_id":"levelo_inurba_marseille","lat":43.31711,"lon":5.43709,"is_reserved":false,"is_disabled":false,"rental_uris":{"android":"levelo://app?vid=6dfa61fd-e24d-4103-b0b0-edde1791450f","ios":"levelo://app?vid=6dfa61fd-e24d-4103-b0b0-edde1791450f"},"vehicle_type_id":"4","last_reported":1751494213,"current_range_meters":20800,"station_id":"ce4bhp92rcd13ifvqhcg","pricing_plan_id":"cebpf4jnsgd1na2vs0mg"},{"bike_id":"2d09d379-c271-440c-9595-04362f8cefbf","system_id":"levelo_inurba_marseille","lat":43.29529,"lon":5.38537,"is_reserved":false,"is_disabled":false,"rental_uris":{"android":"levelo://app?vid=2d09d379-c271-440c-9595-04362f8cefbf","ios":"levelo://app?vid=2d09d379-c271-440c-9595-04362f8cefbf"},"vehicle_type_id":"4","last_reported":1751494213,"current_range_meters":21600,"station_id":"ce4bgih2rcd13ifvqba0","pricing_plan_id":"cebpf4jnsgd1na2vs0mg"},{"bike_id":"d5d751e2-1112-4345-bdeb-facfcc29c9d3","system_id":"levelo_inurba_marseille","lat":43.30432,"lon":5.38899,"is_reserved":false,"is_disabled":false,"rental_uris":{"android":"levelo://app?vid=d5d751e2-1112-4345-bdeb-facfcc29c9d3","ios":"levelo://app?vid=d5d751e2-1112-4345-bdeb-facfcc29c9d3"},"vehicle_type_id":"4","last_reported":1751494213,"current_range_meters":21600,"station_id":"ce4bgk12rcd13ifvqbi0","pricing_plan_id":"cebpf4jnsgd1na2vs0mg"},{"bike_id":"11a32117-68e4-4f1d-a256-6c5378fd975e","system_id":"levelo_inurba_marseille","lat":43.30949,"lon":5.39035,"is_reserved":false,"is_disabled":false,"rental_uris":{"android":"levelo://app?vid=11a32117-68e4-4f1d-a256-6c5378fd975e","ios":"levelo://app?vid=11a32117-68e4-4f1d-a256-6c5378fd975e"},"vehicle_type_id":"4","last_reported":1751494213,"current_range_meters":21600,"station_id":"ce4bgup2rcd13ifvqco0","pricing_plan_id":"cebpf4jnsgd1na2vs0mg"},{"bike_id":"7f075ad0-6665-499e-9a18-02e75fc4f6ca","system_id":"levelo_inurba_marseille","lat":43.3012,"lon":5.39875,"is_reserved":false,"is_disabled":false,"rental_uris":{"android":"levelo://app?vid=7f075ad0-6665-499e-9a18-02e75fc4f6ca","ios":"levelo://app?vid=7f075ad0-6665-499e-9a18-02e75fc4f6ca"},"vehicle_type_id":"4","last_reported":1751494213,"current_range_meters":21600,"station_id":"ce4bh0h2rcd13ifvqd40","pricing_plan_id":"cebpf4jnsgd1na2vs0mg"},{"bike_id":"561b8992-adc5-4c07-9ead-8ee0161750c1","system_id":"levelo_inurba_marseille","lat":43.292,"lon":5.39331,"is_reserved":false,"is_disabled":false,"rental_uris":{"android":"levelo://app?vid=561b8992-adc5-4c07-9ead-8ee0161750c1","ios":"levelo://app?vid=561b8992-adc5-4c07-9ead-8ee0161750c1"},"vehicle_type_id":"4","last_reported":1751494213,"current_range_meters":21600,"station_id":"ce4bh192rcd13ifvqdd0","pricing_plan_id":"cebpf4jnsgd1na2vs0mg"},{"bike_id":"8efd6d75-c4ae-499b-9331-5ea7c2d46d89","system_id":"levelo_inurba_marseille","lat":43.28847,"lon":5.3934,"is_reserved":false,"is_disabled":false,"rental_uris":{"android":"levelo://app?vid=8efd6d75-c4ae-499b-9331-5ea7c2d46d89","ios":"levelo://app?vid=8efd6d75-c4ae-499b-9331-5ea7c2d46d89"},"vehicle_type_id":"4","last_reported":1751494213,"current_range_meters":21600,"station_id":"ce4bh2p2rcd13ifvqdi0","pricing_plan_id":"cebpf4jnsgd1na2vs0mg"},{"bike_id":"c51ca9d6-9334-4511-ba24-501d03bfc003","system_id":"levelo_inurba_marseille","lat":43.28678,"lon":5.38658,"is_reserved":false,"is_disabled":false,"rental_uris":{"android":"levelo://app?vid=c51ca9d6-9334-4511-ba24-501d03bfc003","ios":"levelo://app?vid=c51ca9d6-9334-4511-ba24-501d03bfc003"},"vehicle_type_id":"4","last_reported":1751494213,"current_range_meters":21600,"station_id":"ce4bh492rcd13ifvqdug","pricing_plan_id":"cebpf4jnsgd1na2vs0mg"},{"bike_id":"dc7df308-0f4b-449b-8355-a2642542e9ed","system_id":"levelo_inurba_marseille","lat":43.26568,"lon":5.39015,"is_reserved":false,"is_disabled":false,"rental_uris":{"android":"levelo://app?vid=dc7df308-0f4b-449b-8355-a2642542e9ed","ios":"levelo://app?vid=dc7df308-0f4b-449b-8355-a2642542e9ed"},"vehicle_type_id":"4","last_reported":1751494213,"current_range_meters":21600,"station_id":"ce4bhe12rcd13ifvqf30","pricing_plan_id":"cebpf4jnsgd1na2vs0mg"},{"bike_id":"6f3623bd-129a-4d07-b516-53e9294419a2","system_id":"levelo_inurba_marseille","lat":43.24667,"lon":5.38171,"is_reserved":false,"is_disabled":false,"rental_uris":{"android":"levelo://app?vid=6f3623bd-129a-4d07-b516-53e9294419a2","ios":"levelo://app?vid=6f3623bd-129a-4d07-b516-53e9294419a2"},"vehicle_type_id":"4","last_reported":1751494213,"current_range_meters":21600,"station_id":"ce4bhih2rcd13ifvqfr0","pricing_plan_id":"cebpf4jnsgd1na2vs0mg"},{"bike_id":"0c401de6-85b7-4c47-9aae-7ff75e6987fd","system_id":"levelo_inurba_marseille","lat":43.25087,"lon":5.395243,"is_reserved":false,"is_disabled":false,"rental_uris":{"android":"levelo://app?vid=0c401de6-85b7-4c47-9aae-7ff75e6987fd","ios":"levelo://app?vid=0c401de6-85b7-4c47-9aae-7ff75e6987fd"},"vehicle_type_id":"4","last_reported":1751494213,"current_range_meters":21600,"station_id":"ce4bhm12rcd13ifvqgkg","pricing_plan_id":"cebpf4jnsgd1na2vs0mg"},{"bike_id":"f6a26f6a-15c2-427d-abc8-63ca7f14c7e2","system_id":"levelo_inurba_marseille","lat":43.27495,"lon":5.42451,"is_reserved":false,"is_disabled":false,"rental_uris":{"android":"levelo://app?vid=f6a26f6a-15c2-427d-abc8-63ca7f14c7e2","ios":"levelo://app?vid=f6a26f6a-15c2-427d-abc8-63ca7f14c7e2"},"vehicle_type_id":"4","last_reported":1751494213,"current_range_meters":21600,"station_id":"ce4bhn92rcd13ifvqgrg","pricing_plan_id":"cebpf4jnsgd1na2vs0mg"},{"bike_id":"53cf7c99-498e-46c6-bdb3-46f6cbf28c8e","system_id":"levelo_inurba_marseille","lat":43.28708,"lon":5.39988,"is_reserved":false,"is_disabled":false,"rental_uris":{"android":"levelo://app?vid=53cf7c99-498e-46c6-bdb3-46f6cbf28c8e","ios":"levelo://app?vid=53cf7c99-498e-46c6-bdb3-46f6cbf28c8e"},"vehicle_type_id":"4","last_reported":1751494213,"current_range_meters":21600,"station_id":"ce4bho92rcd13ifvqh3g","pricing_plan_id":"cebpf4jnsgd1na2vs0mg"},{"bike_id":"0dbbfd7c-5e93-4301-aea8-6d89ce7ed33b","system_id":"levelo_inurba_marseille","lat":43.21739,"lon":5.34624,"is_reserved":false,"is_disabled":false,"rental_uris":{"android":"levelo://app?vid=0dbbfd7c-5e93-4301-aea8-6d89ce7ed33b","ios":"levelo://app?vid=0dbbfd7c-5e93-4301-aea8-6d89ce7ed33b"},"vehicle_type_id":"4","last_reported":1751494213,"current_range_meters":21600,"station_id":"st_cvj6r9ubvosntc0bgbag","pricing_plan_id":"cebpf4jnsgd1na2vs0mg"},{"bike_id":"9caaf1e5-4a8c-436b-bfb9-bbd73817c5aa","system_id":"levelo_inurba_marseille","lat":43.29542,"lon":5.38541,"is_reserved":false,"is_disabled":false,"rental_uris":{"android":"levelo://app?vid=9caaf1e5-4a8c-436b-bfb9-bbd73817c5aa","ios":"levelo://app?vid=9caaf1e5-4a8c-436b-bfb9-bbd73817c5aa"},"vehicle_type_id":"4","last_reported":1751494213,"current_range_meters":22000,"station_id":"ce4bgih2rcd13ifvqba0","pricing_plan_id":"cebpf4jnsgd1na2vs0mg"},{"bike_id":"9f75baf9-319d-411e-927c-48034fb830dc","system_id":"levelo_inurba_marseille","lat":43.30795,"lon":5.38159,"is_reserved":false,"is_disabled":false,"rental_uris":{"android":"levelo://app?vid=9f75baf9-319d-411e-927c-48034fb830dc","ios":"levelo://app?vid=9f75baf9-319d-411e-927c-48034fb830dc"},"vehicle_type_id":"4","last_reported":1751494213,"current_range_meters":22000,"station_id":"ce4bgt12rcd13ifvqce0","pricing_plan_id":"cebpf4jnsgd1na2vs0mg"},{"bike_id":"8ae0fad5-958b-47e2-b7df-94ab733197e8","system_id":"levelo_inurba_marseille","lat":43.30892,"lon":5.39654,"is_reserved":false,"is_disabled":false,"rental_uris":{"android":"levelo://app?vid=8ae0fad5-958b-47e2-b7df-94ab733197e8","ios":"levelo://app?vid=8ae0fad5-958b-47e2-b7df-94ab733197e8"},"vehicle_type_id":"4","last_reported":1751494213,"current_range_meters":22000,"station_id":"ce4bh012rcd13ifvqcv0","pricing_plan_id":"cebpf4jnsgd1na2vs0mg"},{"bike_id":"adf5d5eb-b552-4b8a-a217-c13d7a6adc15","system_id":"levelo_inurba_marseille","lat":43.288582,"lon":5.393268,"is_reserved":false,"is_disabled":false,"rental_uris":{"android":"levelo://app?vid=adf5d5eb-b552-4b8a-a217-c13d7a6adc15","ios":"levelo://app?vid=adf5d5eb-b552-4b8a-a217-c13d7a6adc15"},"vehicle_type_id":"4","last_reported":1751494213,"current_range_meters":22000,"station_id":"ce4bh2p2rcd13ifvqdi0","pricing_plan_id":"cebpf4jnsgd1na2vs0mg"},{"bike_id":"5e31a68d-b087-4029-9a93-b29c23c17131","system_id":"levelo_inurba_marseille","lat":43.28723,"lon":5.37943,"is_reserved":false,"is_disabled":false,"rental_uris":{"android":"levelo://app?vid=5e31a68d-b087-4029-9a93-b29c23c17131","ios":"levelo://app?vid=5e31a68d-b087-4029-9a93-b29c23c17131"},"vehicle_type_id":"4","last_reported":1751494213,"current_range_meters":22000,"station_id":"ce4bh9p2rcd13ifvqec0","pricing_plan_id":"cebpf4jnsgd1na2vs0mg"},{"bike_id":"b8050a88-46ca-4f61-8961-31660b3bcb42","system_id":"levelo_inurba_marseille","lat":43.27997,"lon":5.41666,"is_reserved":false,"is_disabled":false,"rental_uris":{"android":"levelo://app?vid=b8050a88-46ca-4f61-8961-31660b3bcb42","ios":"levelo://app?vid=b8050a88-46ca-4f61-8961-31660b3bcb42"},"vehicle_type_id":"4","last_reported":1751494213,"current_range_meters":22000,"station_id":"ce4bho12rcd13ifvqh1g","pricing_plan_id":"cebpf4jnsgd1na2vs0mg"},{"bike_id":"32c0fc37-6823-41d0-9497-8d1eea24742c","system_id":"levelo_inurba_marseille","lat":43.24168,"lon":5.36378,"is_reserved":false,"is_disabled":false,"rental_uris":{"android":"levelo://app?vid=32c0fc37-6823-41d0-9497-8d1eea24742c","ios":"levelo://app?vid=32c0fc37-6823-41d0-9497-8d1eea24742c"},"vehicle_type_id":"4","last_reported":1751494213,"current_range_meters":22000,"station_id":"cpo36qri1sfpv3e86is0","pricing_plan_id":"cebpf4jnsgd1na2vs0mg"},{"bike_id":"5f1e5526-9ff8-4075-8194-48a897f058b4","system_id":"levelo_inurba_marseille","lat":43.21198,"lon":5.35063,"is_reserved":false,"is_disabled":false,"rental_uris":{"android":"levelo://app?vid=5f1e5526-9ff8-4075-8194-48a897f058b4","ios":"levelo://app?vid=5f1e5526-9ff8-4075-8194-48a897f058b4"},"vehicle_type_id":"4","last_reported":1751494213,"current_range_meters":22000,"station_id":"st_cvj6sg6p6f1abm77japg","pricing_plan_id":"cebpf4jnsgd1na2vs0mg"},{"bike_id":"0c39aa6f-2486-4f82-b13b-fbf99b07af01","system_id":"levelo_inurba_marseille","lat":43.2515,"lon":5.40324,"is_reserved":false,"is_disabled":false,"rental_uris":{"android":"levelo://app?vid=0c39aa6f-2486-4f82-b13b-fbf99b07af01","ios":"levelo://app?vid=0c39aa6f-2486-4f82-b13b-fbf99b07af01"},"vehicle_type_id":"4","last_reported":1751494213,"current_range_meters":22400,"station_id":"","pricing_plan_id":"cebpf4jnsgd1na2vs0mg"},{"bike_id":"8dc300f7-62a3-4763-8579-da0162f8f51b","system_id":"levelo_inurba_marseille","lat":43.29647,"lon":5.40651,"is_reserved":false,"is_disabled":false,"rental_uris":{"android":"levelo://app?vid=8dc300f7-62a3-4763-8579-da0162f8f51b","ios":"levelo://app?vid=8dc300f7-62a3-4763-8579-da0162f8f51b"},"vehicle_type_id":"4","last_reported":1751494213,"current_range_meters":22400,"station_id":"ce4bh0h2rcd13ifvqd60","pricing_plan_id":"cebpf4jnsgd1na2vs0mg"},{"bike_id":"ce248024-05d3-4be3-84a8-57fc37f363ba","system_id":"levelo_inurba_marseille","lat":43.28568,"lon":5.39496,"is_reserved":false,"is_disabled":false,"rental_uris":{"android":"levelo://app?vid=ce248024-05d3-4be3-84a8-57fc37f363ba","ios":"levelo://app?vid=ce248024-05d3-4be3-84a8-57fc37f363ba"},"vehicle_type_id":"4","last_reported":1751494213,"current_range_meters":22400,"station_id":"ce4bh292rcd13ifvqdg0","pricing_plan_id":"cebpf4jnsgd1na2vs0mg"},{"bike_id":"6985b6d1-59f2-4061-8886-944ec6e3e5be","system_id":"levelo_inurba_marseille","lat":43.28565,"lon":5.395,"is_reserved":false,"is_disabled":false,"rental_uris":{"android":"levelo://app?vid=6985b6d1-59f2-4061-8886-944ec6e3e5be","ios":"levelo://app?vid=6985b6d1-59f2-4061-8886-944ec6e3e5be"},"vehicle_type_id":"4","last_reported":1751494213,"current_range_meters":22400,"station_id":"ce4bh292rcd13ifvqdg0","pricing_plan_id":"cebpf4jnsgd1na2vs0mg"},{"bike_id":"88aee924-1a90-4297-b8d2-b65f7dc393be","system_id":"levelo_inurba_marseille","lat":43.29875,"lon":5.38886,"is_reserved":false,"is_disabled":false,"rental_uris":{"android":"levelo://app?vid=88aee924-1a90-4297-b8d2-b65f7dc393be","ios":"levelo://app?vid=88aee924-1a90-4297-b8d2-b65f7dc393be"},"vehicle_type_id":"4","last_reported":1751494213,"current_range_meters":22400,"station_id":"ce4bh392rcd13ifvqdl0","pricing_plan_id":"cebpf4jnsgd1na2vs0mg"},{"bike_id":"8f236141-4e7b-4a7e-804d-47eaf2b05efe","system_id":"levelo_inurba_marseille","lat":43.28675,"lon":5.38665,"is_reserved":false,"is_disabled":false,"rental_uris":{"android":"levelo://app?vid=8f236141-4e7b-4a7e-804d-47eaf2b05efe","ios":"levelo://app?vid=8f236141-4e7b-4a7e-804d-47eaf2b05efe"},"vehicle_type_id":"4","last_reported":1751494213,"current_range_meters":22400,"station_id":"ce4bh492rcd13ifvqdug","pricing_plan_id":"cebpf4jnsgd1na2vs0mg"},{"bike_id":"7bec88ae-dfee-454a-95f3-829df63482bb","system_id":"levelo_inurba_marseille","lat":43.28107,"lon":5.37854,"is_reserved":false,"is_disabled":false,"rental_uris":{"android":"levelo://app?vid=7bec88ae-dfee-454a-95f3-829df63482bb","ios":"levelo://app?vid=7bec88ae-dfee-454a-95f3-829df63482bb"},"vehicle_type_id":"4","last_reported":1751494213,"current_range_meters":22400,"station_id":"ce4bha12rcd13ifvqee0","pricing_plan_id":"cebpf4jnsgd1na2vs0mg"},{"bike_id":"89da5e73-11ab-48f2-8281-2178bbf7fe7b","system_id":"levelo_inurba_marseille","lat":43.25719,"lon":5.41115,"is_reserved":false,"is_disabled":false,"rental_uris":{"android":"levelo://app?vid=89da5e73-11ab-48f2-8281-2178bbf7fe7b","ios":"levelo://app?vid=89da5e73-11ab-48f2-8281-2178bbf7fe7b"},"vehicle_type_id":"4","last_reported":1751494213,"current_range_meters":22400,"station_id":"ce4bhkp2rcd13ifvqgd0","pricing_plan_id":"cebpf4jnsgd1na2vs0mg"},{"bike_id":"32b69e2f-44e7-4fcf-a4f3-4a2e482f3a38","system_id":"levelo_inurba_marseille","lat":43.25108,"lon":5.40342,"is_reserved":false,"is_disabled":false,"rental_uris":{"android":"levelo://app?vid=32b69e2f-44e7-4fcf-a4f3-4a2e482f3a38","ios":"levelo://app?vid=32b69e2f-44e7-4fcf-a4f3-4a2e482f3a38"},"vehicle_type_id":"4","last_reported":1751494213,"current_range_meters":22400,"station_id":"ce4bhlh2rcd13ifvqgig","pricing_plan_id":"cebpf4jnsgd1na2vs0mg"},{"bike_id":"3b89911a-1a79-4e35-bd49-9bd3f1c8ba54","system_id":"levelo_inurba_marseille","lat":43.31722,"lon":5.4243,"is_reserved":false,"is_disabled":false,"rental_uris":{"android":"levelo://app?vid=3b89911a-1a79-4e35-bd49-9bd3f1c8ba54","ios":"levelo://app?vid=3b89911a-1a79-4e35-bd49-9bd3f1c8ba54"},"vehicle_type_id":"4","last_reported":1751494213,"current_range_meters":22400,"station_id":"ce4bhp92rcd13ifvqhbg","pricing_plan_id":"cebpf4jnsgd1na2vs0mg"},{"bike_id":"3eabe1e2-f9f5-41cb-a4ed-73ca7f909c5c","system_id":"levelo_inurba_marseille","lat":43.2119,"lon":5.35071,"is_reserved":false,"is_disabled":false,"rental_uris":{"android":"levelo://app?vid=3eabe1e2-f9f5-41cb-a4ed-73ca7f909c5c","ios":"levelo://app?vid=3eabe1e2-f9f5-41cb-a4ed-73ca7f909c5c"},"vehicle_type_id":"4","last_reported":1751494213,"current_range_meters":22400,"station_id":"st_cvj6sg6p6f1abm77japg","pricing_plan_id":"cebpf4jnsgd1na2vs0mg"},{"bike_id":"ba926bfc-9632-4680-b0ed-32a040d6fb83","system_id":"levelo_inurba_marseille","lat":43.21241,"lon":5.35069,"is_reserved":false,"is_disabled":false,"rental_uris":{"android":"levelo://app?vid=ba926bfc-9632-4680-b0ed-32a040d6fb83","ios":"levelo://app?vid=ba926bfc-9632-4680-b0ed-32a040d6fb83"},"vehicle_type_id":"4","last_reported":1751494213,"current_range_meters":22800,"station_id":"","pricing_plan_id":"cebpf4jnsgd1na2vs0mg"},{"bike_id":"69ded744-def5-4747-ac55-a64f5fd6728b","system_id":"levelo_inurba_marseille","lat":43.29029,"lon":5.38658,"is_reserved":false,"is_disabled":false,"rental_uris":{"android":"levelo://app?vid=69ded744-def5-4747-ac55-a64f5fd6728b","ios":"levelo://app?vid=69ded744-def5-4747-ac55-a64f5fd6728b"},"vehicle_type_id":"4","last_reported":1751494213,"current_range_meters":22800,"station_id":"ce4bh4p2rcd13ifvqe0g","pricing_plan_id":"cebpf4jnsgd1na2vs0mg"},{"bike_id":"f7a1b855-3521-46af-82e8-4f61f7118c57","system_id":"levelo_inurba_marseille","lat":43.27566,"lon":5.38435,"is_reserved":false,"is_disabled":false,"rental_uris":{"android":"levelo://app?vid=f7a1b855-3521-46af-82e8-4f61f7118c57","ios":"levelo://app?vid=f7a1b855-3521-46af-82e8-4f61f7118c57"},"vehicle_type_id":"4","last_reported":1751494213,"current_range_meters":22800,"station_id":"ce4bhh92rcd13ifvqfi0","pricing_plan_id":"cebpf4jnsgd1na2vs0mg"},{"bike_id":"8d60398f-157b-403e-afe4-5a0864dff191","system_id":"levelo_inurba_marseille","lat":43.27043,"lon":5.40248,"is_reserved":false,"is_disabled":false,"rental_uris":{"android":"levelo://app?vid=8d60398f-157b-403e-afe4-5a0864dff191","ios":"levelo://app?vid=8d60398f-157b-403e-afe4-5a0864dff191"},"vehicle_type_id":"4","last_reported":1751494213,"current_range_meters":22800,"station_id":"ce4bhk92rcd13ifvqgc0","pricing_plan_id":"cebpf4jnsgd1na2vs0mg"},{"bike_id":"b13877a6-4825-4d82-b46b-67fa8ad66c5d","system_id":"levelo_inurba_marseille","lat":43.21205,"lon":5.35041,"is_reserved":false,"is_disabled":false,"rental_uris":{"android":"levelo://app?vid=b13877a6-4825-4d82-b46b-67fa8ad66c5d","ios":"levelo://app?vid=b13877a6-4825-4d82-b46b-67fa8ad66c5d"},"vehicle_type_id":"4","last_reported":1751494213,"current_range_meters":22800,"station_id":"st_cvj6sg6p6f1abm77japg","pricing_plan_id":"cebpf4jnsgd1na2vs0mg"},{"bike_id":"7712491c-e18b-4b09-bb79-30880b357c07","system_id":"levelo_inurba_marseille","lat":43.21212,"lon":5.35028,"is_reserved":false,"is_disabled":false,"rental_uris":{"android":"levelo://app?vid=7712491c-e18b-4b09-bb79-30880b357c07","ios":"levelo://app?vid=7712491c-e18b-4b09-bb79-30880b357c07"},"vehicle_type_id":"4","last_reported":1751494213,"current_range_meters":22800,"station_id":"st_cvj6sg6p6f1abm77japg","pricing_plan_id":"cebpf4jnsgd1na2vs0mg"},{"bike_id":"39fa5f31-4afa-4271-a36e-400e3970d6f0","system_id":"levelo_inurba_marseille","lat":43.30378,"lon":5.37593,"is_reserved":false,"is_disabled":false,"rental_uris":{"android":"levelo://app?vid=39fa5f31-4afa-4271-a36e-400e3970d6f0","ios":"levelo://app?vid=39fa5f31-4afa-4271-a36e-400e3970d6f0"},"vehicle_type_id":"4","last_reported":1751494213,"current_range_meters":23200,"station_id":"","pricing_plan_id":"cebpf4jnsgd1na2vs0mg"},{"bike_id":"f8e82e81-88da-4877-a480-0d5ff156df8b","system_id":"levelo_inurba_marseille","lat":43.29525,"lon":5.38538,"is_reserved":false,"is_disabled":false,"rental_uris":{"android":"levelo://app?vid=f8e82e81-88da-4877-a480-0d5ff156df8b","ios":"levelo://app?vid=f8e82e81-88da-4877-a480-0d5ff156df8b"},"vehicle_type_id":"4","last_reported":1751494213,"current_range_meters":23200,"station_id":"ce4bgih2rcd13ifvqba0","pricing_plan_id":"cebpf4jnsgd1na2vs0mg"},{"bike_id":"c4722e25-1382-49a1-8f9d-1ffbbe184433","system_id":"levelo_inurba_marseille","lat":43.28265,"lon":5.35064,"is_reserved":false,"is_disabled":false,"rental_uris":{"android":"levelo://app?vid=c4722e25-1382-49a1-8f9d-1ffbbe184433","ios":"levelo://app?vid=c4722e25-1382-49a1-8f9d-1ffbbe184433"},"vehicle_type_id":"4","last_reported":1751494213,"current_range_meters":23200,"station_id":"ce4bgj92rcd13ifvqbe0","pricing_plan_id":"cebpf4jnsgd1na2vs0mg"},{"bike_id":"cdafb99f-1874-49af-b2be-46b62cf01dc3","system_id":"levelo_inurba_marseille","lat":43.30426,"lon":5.38894,"is_reserved":false,"is_disabled":false,"rental_uris":{"android":"levelo://app?vid=cdafb99f-1874-49af-b2be-46b62cf01dc3","ios":"levelo://app?vid=cdafb99f-1874-49af-b2be-46b62cf01dc3"},"vehicle_type_id":"4","last_reported":1751494213,"current_range_meters":23200,"station_id":"ce4bgk12rcd13ifvqbi0","pricing_plan_id":"cebpf4jnsgd1na2vs0mg"},