{"last_updated":1730463419,"ttl":60,"version":"2.2","data":{"bikes":[{"bike_id":"b84cbfc2-8903-4e18-bb75-7660036a3ec8","system_id":"levelo_inurba_marseille","lat":43.3047,"lon":5.37909,"is_reserved":false,"is_disabled":false,"rental_uris":{"android":"levelo://app?vid=b84cbfc2-8903-4e18-bb75-7660036a3ec8","ios":"levelo://app?vid=b84cbfc2-8903-4e18-bb75-7660036a3ec8"},"vehicle_type_id":"4","last_reported":1730463420,"current_range_meters":14000,"station_id":"ce4bgup2rcd13ifvqcn0","pricing_plan_id":"cebpf4jnsgd1na2vs0mg"},{"bike_id":"baa5d8b2-8abc-4f47-aaea-2b6f975fb2b0","system_id":"levelo_inurba_marseille","lat":43.28415,"lon":5.34994,"is_reserved":false,"is_disabled":false,"rental_uris":{"android":"levelo://app?vid=baa5d8b2-8abc-4f47-aaea-2b6f975fb2b0","ios":"levelo://app?vid=baa5d8b2-8abc-4f47-aaea-2b6f975fb2b0"},"vehicle_type_id":"4","last_reported":1730463420,"current_range_meters":8000,"station_id":"ce4bhbh2rcd13ifvqepg","pricing_plan_id":"cebpf4jnsgd1na2vs0mg"},{"bike_id":"5f91fdb1-af44-4e60-814c-d84487ed3693","system_id":"levelo_inurba_marseille","lat":43.24665,"lon":5.3817,"is_reserved":false,"is_disabled":false,"rental_uris":{"android":"levelo://app?vid=5f91fdb1-af44-4e60-814c-d84487ed3693","ios":"levelo://app?vid=5f91fdb1-af44-4e60-814c-d84487ed3693"},"vehicle_type_id":"4","last_reported":1730463420,"current_range_meters":35200,"station_id":"ce4bhih2rcd13ifvqfr0","pricing_plan_id":"cebpf4jnsgd1na2vs0mg"},{"bike_id":"641cbb44-6505-428a-a278-5b8b97cf4cf1","system_id":"levelo_inurba_marseille","lat":43.29178,"lon":5.40853,"is_reserved":false,"is_disabled":false,"rental_uris":{"android":"levelo://app?vid=641cbb44-6505-428a-a278-5b8b97cf4cf1","ios":"levelo://app?vid=641cbb44-6505-428a-a278-5b8b97cf4cf1"},"vehicle_type_id":"4","last_reported":1730463420,"current_range_meters":25200,"station_id":"","pricing_plan_id":"cebpf4jnsgd1na2vs0mg"},{"bike_id":"c54cfa3e-39d5-4055-831b-16e50abdfddc","system_id":"levelo_inurba_marseille","lat":43.290351,"lon":5.358494,"is_reserved":false,"is_disabled":false,"rental_uris":{"android":"levelo://app?vid=c54cfa3e-39d5-4055-831b-16e50abdfddc","ios":"levelo://app?vid=c54cfa3e-39d5-4055-831b-16e50abdfddc"},"vehicle_type_id":"4","last_reported":1730463420,"current_range_meters":38000,"station_id":"ce4bha92rcd13ifvqeg0","pricing_plan_id":"cebpf4jnsgd1na2vs0mg"},{"bike_id":"e23ade05-5e1e-4ce1-bcfb-5bc36f49ae6a","system_id":"levelo_inurba_marseille","lat":43.31704,"lon":5.37765,"is_reserved":false,"is_disabled":false,"rental_uris":{"android":"levelo://app?vid=e23ade05-5e1e-4ce1-bcfb-5bc36f49ae6a","ios":"levelo://app?vid=e23ade05-5e1e-4ce1-bcfb-5bc36f49ae6a"},"vehicle_type_id":"4","last_reported":1730463420,"current_range_meters":8000,"station_id":"ce4bgth2rcd13ifvqch0","pricing_plan_id":"cebpf4jnsgd1na2vs0mg"},{"bike_id":"ce880f70-b3b1-4c40-b449-7d6ad9c5eb85","system_id":"levelo_inurba_marseille","lat":43.28487,"lon":5.38405,"is_reserved":false,"is_disabled":false,"rental_uris":{"android":"levelo://app?vid=ce880f70-b3b1-4c40-b449-7d6ad9c5eb85","ios":"levelo://app?vid=ce880f70-b3b1-4c40-b449-7d6ad9c5eb85"},"vehicle_type_id":"4","last_reported":1730463420,"current_range_meters":34800,"station_id":"ce4bh512rcd13ifvqe3g","pricing_plan_id":"cebpf4jnsgd1na2vs0mg"},{"bike_id":"dbe94e72-f046-4df3-a2fd-086fd312b6f4","system_id":"levelo_inurba_marseille","lat":43.26197,"lon":5.37449,"is_reserved":false,"is_disabled":false,"rental_uris":{"android":"levelo://app?vid=dbe94e72-f046-4df3-a2fd-086fd312b6f4","ios":"levelo://app?vid=dbe94e72-f046-4df3-a2fd-086fd312b6f4"},"vehicle_type_id":"4","last_reported":1730463420,"current_range_meters":19200,"station_id":"ce4bhgp2rcd13ifvqfc0","pricing_plan_id":"cebpf4jnsgd1na2vs0mg"},{"bike_id":"36409c24-1f14-4afa-8a25-992da51cc43d","system_id":"levelo_inurba_marseille","lat":43.24671,"lon":5.38159,"is_reserved":false,"is_disabled":false,"rental_uris":{"android":"levelo://app?vid=36409c24-1f14-4afa-8a25-992da51cc43d","ios":"levelo://app?vid=36409c24-1f14-4afa-8a25-992da51cc43d"},"vehicle_type_id":"4","last_reported":1730463420,"current_range_meters":22800,"station_id":"ce4bhih2rcd13ifvqfr0","pricing_plan_id":"cebpf4jnsgd1na2vs0mg"},{"bike_id":"dd638f6c-253a-4ae4-95bb-cc8b4b57caa6","system_id":"levelo_inurba_marseille","lat":43.2417,"lon":5.36397,"is_reserved":false,"is_disabled":false,"rental_uris":{"android":"levelo://app?vid=dd638f6c-253a-4ae4-95bb-cc8b4b57caa6","ios":"levelo://app?vid=dd638f6c-253a-4ae4-95bb-cc8b4b57caa6"},"vehicle_type_id":"4","last_reported":1730463420,"current_range_meters":22400,"station_id":"cpo36qri1sfpv3e86is0","pricing_plan_id":"cebpf4jnsgd1na2vs0mg"},{"bike_id":"764b93ee-81d1-48b6-ade3-6d8502db8492","system_id":"levelo_inurba_marseille","lat":43.27813,"lon":5.40719,"is_reserved":false,"is_disabled":false,"rental_uris":{"android":"levelo://app?vid=764b93ee-81d1-48b6-ade3-6d8502db8492","ios":"levelo://app?vid=764b93ee-81d1-48b6-ade3-6d8502db8492"},"vehicle_type_id":"4","last_reported":1730463420,"current_range_meters":24000,"station_id":"ce4bhnh2rcd13ifvqgtg","pricing_plan_id":"cebpf4jnsgd1na2vs0mg"},{"bike_id":"a4627486-a087-47d1-bdea-e9476cd49986","system_id":"levelo_inurba_marseille","lat":43.23198,"lon":5.35549,"is_reserved":false,"is_disabled":false,"rental_uris":{"android":"levelo://app?vid=a4627486-a087-47d1-bdea-e9476cd49986","ios":"levelo://app?vid=a4627486-a087-47d1-bdea-e9476cd49986"},"vehicle_type_id":"4","last_reported":1730463420,"current_range_meters":32000,"station_id":"ce4bhu92rcd13ifvqi70","pricing_plan_id":"cebpf4jnsgd1na2vs0mg"},{"bike_id":"55dab1c5-8299-4ba5-b0e5-ab02ab9376bc","system_id":"levelo_inurba_marseille","lat":43.2418,"lon":5.39727,"is_reserved":false,"is_disabled":false,"rental_uris":{"android":"levelo://app?vid=55dab1c5-8299-4ba5-b0e5-ab02ab9376bc","ios":"levelo://app?vid=55dab1c5-8299-4ba5-b0e5-ab02ab9376bc"},"vehicle_type_id":"4","last_reported":1730463420,"current_range_meters":39200,"station_id":"ce4bhn12rcd13ifvqgpg","pricing_plan_id":"cebpf4jnsgd1na2vs0mg"},{"bike_id":"509a9bdc-ca48-4855-8040-748bb9b3087b","system_id":"levelo_inurba_marseille","lat":43.25942,"lon":5.40902,"is_reserved":false,"is_disabled":false,"rental_uris":{"android":"levelo://app?vid=509a9bdc-ca48-4855-8040-748bb9b3087b","ios":"levelo://app?vid=509a9bdc-ca48-4855-8040-748bb9b3087b"},"vehicle_type_id":"4","last_reported":1730463420,"current_range_meters":27600,"station_id":"ce4bhm92rcd13ifvqglg","pricing_plan_id":"cebpf4jnsgd1na2vs0mg"},{"bike_id":"c6349e91-9caa-4934-a8ae-6e1d497938dd","system_id":"levelo_inurba_marseille","lat":43.28615,"lon":5.35103,"is_reserved":false,"is_disabled":false,"rental_uris":{"android":"levelo://app?vid=c6349e91-9caa-4934-a8ae-6e1d497938dd","ios":"levelo://app?vid=c6349e91-9caa-4934-a8ae-6e1d497938dd"},"vehicle_type_id":"4","last_reported":1730463420,"current_range_meters":38800,"station_id":"ce4bhch2rcd13ifvqeug","pricing_plan_id":"cebpf4jnsgd1na2vs0mg"},{"bike_id":"b58d7959-be24-4558-8014-49895e2f8ed4","system_id":"levelo_inurba_marseille","lat":43.23152,"lon":5.43712,"is_reserved":false,"is_disabled":false,"rental_uris":{"android":"levelo://app?vid=b58d7959-be24-4558-8014-49895e2f8ed4","ios":"levelo://app?vid=b58d7959-be24-4558-8014-49895e2f8ed4"},"vehicle_type_id":"4","last_reported":1730463420,"current_range_meters":22400,"station_id":"ce4bhmp2rcd13ifvqgog","pricing_plan_id":"cebpf4jnsgd1na2vs0mg"},{"bike_id":"a94e6882-7866-435a-83d7-d62cdf2eb55e","system_id":"levelo_inurba_marseille","lat":43.24178,"lon":5.39727,"is_reserved":false,"is_disabled":false,"rental_uris":{"android":"levelo://app?vid=a94e6882-7866-435a-83d7-d62cdf2eb55e","ios":"levelo://app?vid=a94e6882-7866-435a-83d7-d62cdf2eb55e"},"vehicle_type_id":"4","last_reported":1730463420,"current_range_meters":38800,"station_id":"ce4bhn12rcd13ifvqgpg","pricing_plan_id":"cebpf4jnsgd1na2vs0mg"},{"bike_id":"f90c7233-f112-4411-a745-3ee84b3555db","system_id":"levelo_inurba_marseille","lat":43.27371,"lon":5.36256,"is_reserved":false,"is_disabled":false,"rental_uris":{"android":"levelo://app?vid=f90c7233-f112-4411-a745-3ee84b3555db","ios":"levelo://app?vid=f90c7233-f112-4411-a745-3ee84b3555db"},"vehicle_type_id":"4","last_reported":1730463420,"current_range_meters":38400,"station_id":"ce4bhbh2rcd13ifvqeo0","pricing_plan_id":"cebpf4jnsgd1na2vs0mg"},{"bike_id":"efbe383f-83c6-4df5-ac1f-ffa8f2e0197b","system_id":"levelo_inurba_marseille","lat":43.31335,"lon":5.39699,"is_reserved":false,"is_disabled":false,"rental_uris":{"android":"levelo://app?vid=efbe383f-83c6-4df5-ac1f-ffa8f2e0197b","ios":"levelo://app?vid=efbe383f-83c6-4df5-ac1f-ffa8f2e0197b"},"vehicle_type_id":"4","last_reported":1730463420,"current_range_meters":9600,"station_id":"ce4bgvp2rcd13ifvqcu0","pricing_plan_id":"cebpf4jnsgd1na2vs0mg"},{"bike_id":"980e7e86-840e-4800-93c7-c5171cc55726","system_id":"levelo_inurba_marseille","lat":43.2306,"lon":5.35488,"is_reserved":false,"is_disabled":false,"rental_uris":{"android":"levelo://app?vid=980e7e86-840e-4800-93c7-c5171cc55726","ios":"levelo://app?vid=980e7e86-840e-4800-93c7-c5171cc55726"},"vehicle_type_id":"4","last_reported":1730463420,"current_range_meters":38800,"station_id":"cpo3342slgdg3j2ifvpg","pricing_plan_id":"cebpf4jnsgd1na2vs0mg"},{"bike_id":"f6a4620b-cdce-4e13-9b37-c603d3b58d57","system_id":"levelo_inurba_marseille","lat":43.29707,"lon":5.36603,"is_reserved":false,"is_disabled":false,"rental_uris":{"android":"levelo://app?vid=f6a4620b-cdce-4e13-9b37-c603d3b58d57","ios":"levelo://app?vid=f6a4620b-cdce-4e13-9b37-c603d3b58d57"},"vehicle_type_id":"4","last_reported":1730463420,"current_range_meters":38000,"station_id":"ce4bgn12rcd13ifvqbt0","pricing_plan_id":"cebpf4jnsgd1na2vs0mg"},{"bike_id":"69c9d3af-7e2a-4a67-b3d6-10ce6b87de2b","system_id":"levelo_inurba_marseille","lat":43.30186,"lon":5.36612,"is_reserved":false,"is_disabled":false,"rental_uris":{"android":"levelo://app?vid=69c9d3af-7e2a-4a67-b3d6-10ce6b87de2b","ios":"levelo://app?vid=69c9d3af-7e2a-4a67-b3d6-10ce6b87de2b"},"vehicle_type_id":"4","last_reported":1730463420,"current_range_meters":34000,"station_id":"ce4bgrh2rcd13ifvqc8g","pricing_plan_id":"cebpf4jnsgd1na2vs0mg"},{"bike_id":"276c9587-13b1-4ed9-a5c3-41b5dd9ac5c5","system_id":"levelo_inurba_marseille","lat":43.25826,"lon":5.39426,"is_reserved":false,"is_disabled":false,"rental_uris":{"android":"levelo://app?vid=276c9587-13b1-4ed9-a5c3-41b5dd9ac5c5","ios":"levelo://app?vid=276c9587-13b1-4ed9-a5c3-41b5dd9ac5c5"},"vehicle_type_id":"4","last_reported":1730463420,"current_range_meters":32800,"station_id":"ce4bhip2rcd13ifvqft0","pricing_plan_id":"cebpf4jnsgd1na2vs0mg"},{"bike_id":"902a84d5-56ca-468a-a9e6-146ab5c6eab3","system_id":"levelo_inurba_marseille","lat":43.25091,"lon":5.39517,"is_reserved":false,"is_disabled":false,"rental_uris":{"android":"levelo://app?vid=902a84d5-56ca-468a-a9e6-146ab5c6eab3","ios":"levelo://app?vid=902a84d5-56ca-468a-a9e6-146ab5c6eab3"},"vehicle_type_id":"4","last_reported":1730463420,"current_range_meters":17200,"station_id":"ce4bhm12rcd13ifvqgkg","pricing_plan_id":"cebpf4jnsgd1na2vs0mg"},{"bike_id":"c809b9c7-4e9f-4d82-ae25-fbc4e7e19952","system_id":"levelo_inurba_marseille","lat":43.32289,"lon":5.38262,"is_reserved":false,"is_disabled":false,"rental_uris":{"android":"levelo://app?vid=c809b9c7-4e9f-4d82-ae25-fbc4e7e19952","ios":"levelo://app?vid=c809b9c7-4e9f-4d82-ae25-fbc4e7e19952"},"vehicle_type_id":"4","last_reported":1730463420,"current_range_meters":28000,"station_id":"ce4bhr12rcd13ifvqhqg","pricing_plan_id":"cebpf4jnsgd1na2vs0mg"},{"bike_id":"98e591af-1b37-4791-81f8-0a1125c50536","system_id":"levelo_inurba_marseille","lat":43.262,"lon":5.37921,"is_reserved":false,"is_disabled":false,"rental_uris":{"android":"levelo://app?vid=98e591af-1b37-4791-81f8-0a1125c50536","ios":"levelo://app?vid=98e591af-1b37-4791-81f8-0a1125c50536"},"vehicle_type_id":"4","last_reported":1730463420,"current_range_meters":39200,"station_id":"ce4bhjp2rcd13ifvqg90","pricing_plan_id":"cebpf4jnsgd1na2vs0mg"},{"bike_id":"7db634f2-bbb2-4358-9c6b-f78e4105650f","system_id":"levelo_inurba_marseille","lat":43.22937,"lon":5.35379,"is_reserved":false,"is_disabled":false,"rental_uris":{"android":"levelo://app?vid=7db634f2-bbb2-4358-9c6b-f78e4105650f","ios":"levelo://app?vid=7db634f2-bbb2-4358-9c6b-f78e4105650f"},"vehicle_type_id":"4","last_reported":1730463420,"current_range_meters":13600,"station_id":"cpo3532slgdg3j2ikp40","pricing_plan_id":"cebpf4jnsgd1na2vs0mg"},{"bike_id":"85afd25d-d86d-4f37-9f25-c69aab1cc07b","system_id":"levelo_inurba_marseille","lat":43.25581,"lon":5.38235,"is_reserved":false,"is_disabled":false,"rental_uris":{"android":"levelo://app?vid=85afd25d-d86d-4f37-9f25-c69aab1cc07b","ios":"levelo://app?vid=85afd25d-d86d-4f37-9f25-c69aab1cc07b"},"vehicle_type_id":"4","last_reported":1730463420,"current_range_meters":39200,"station_id":"ce4bhih2rcd13ifvqfs0","pricing_plan_id":"cebpf4jnsgd1na2vs0mg"},{"bike_id":"1b436f23-8f0b-4583-9175-5da63ed86193","system_id":"levelo_inurba_marseille","lat":43.23959,"lon":5.36637,"is_reserved":false,"is_disabled":false,"rental_uris":{"android":"levelo://app?vid=1b436f23-8f0b-4583-9175-5da63ed86193","ios":"levelo://app?vid=1b436f23-8f0b-4583-9175-5da63ed86193"},"vehicle_type_id":"4","last_reported":1730463420,"current_range_meters":22400,"station_id":"ce4bhi12rcd13ifvqfp0","pricing_plan_id":"cebpf4jnsgd1na2vs0mg"},{"bike_id":"00266239-27c9-4b21-965e-d204e7a06b0d","system_id":"levelo_inurba_marseille","lat":43.30142,"lon":5.37408,"is_reserved":false,"is_disabled":false,"rental_uris":{"android":"levelo://app?vid=00266239-27c9-4b21-965e-d204e7a06b0d","ios":"levelo://app?vid=00266239-27c9-4b21-965e-d204e7a06b0d"},"vehicle_type_id":"4","last_reported":1730463420,"current_range_meters":35600,"station_id":"ce4bgs92rcd13ifvqcc0","pricing_plan_id":"cebpf4jnsgd1na2vs0mg"},{"bike_id":"547ec999-bc88-476b-810c-26a90a13b7af","system_id":"levelo_inurba_marseille","lat":43.2799,"lon":5.40021,"is_reserved":false,"is_disabled":false,"rental_uris":{"android":"levelo://app?vid=547ec999-bc88-476b-810c-26a90a13b7af","ios":"levelo://app?vid=547ec999-bc88-476b-810c-26a90a13b7af"},"vehicle_type_id":"4","last_reported":1730463420,"current_range_meters":28400,"station_id":"ce4bho92rcd13ifvqh4g","pricing_plan_id":"cebpf4jnsgd1na2vs0mg"},{"bike_id":"cd13b765-9561-4a74-9115-70db5d67c8c5","system_id":"levelo_inurba_marseille","lat":43.27814,"lon":5.4071,"is_reserved":false,"is_disabled":false,"rental_uris":{"android":"levelo://app?vid=cd13b765-9561-4a74-9115-70db5d67c8c5","ios":"levelo://app?vid=cd13b765-9561-4a74-9115-70db5d67c8c5"},"vehicle_type_id":"4","last_reported":1730463420,"current_range_meters":38800,"station_id":"ce4bhnh2rcd13ifvqgtg","pricing_plan_id":"cebpf4jnsgd1na2vs0mg"},{"bike_id":"72feaf02-2739-4ac2-a695-188f23da7347","system_id":"levelo_inurba_marseille","lat":43.30153,"lon":5.381,"is_reserved":false,"is_disabled":false,"rental_uris":{"android":"levelo://app?vid=72feaf02-2739-4ac2-a695-188f23da7347","ios":"levelo://app?vid=72feaf02-2739-4ac2-a695-188f23da7347"},"vehicle_type_id":"4","last_reported":1730463420,"current_range_meters":36800,"station_id":"ce4bgjp2rcd13ifvqbh0","pricing_plan_id":"cebpf4jnsgd1na2vs0mg"},{"bike_id":"a840abf5-d7dd-4191-a178-9bad364ce16b","system_id":"levelo_inurba_marseille","lat":43.337444,"lon":5.374475,"is_reserved":false,"is_disabled":false,"rental_uris":{"android":"levelo://app?vid=a840abf5-d7dd-4191-a178-9bad364ce16b","ios":"levelo://app?vid=a840abf5-d7dd-4191-a178-9bad364ce16b"},"vehicle_type_id":"4","last_reported":1730463420,"current_range_meters":38800,"station_id":"ce4bgj92rcd13ifvqbd0","pricing_plan_id":"cebpf4jnsgd1na2vs0mg"},{"bike_id":"1b367162-55de-4292-80b4-2581496ed25c","system_id":"levelo_inurba_marseille","lat":43.2925,"lon":5.4091,"is_reserved":false,"is_disabled":false,"rental_uris":{"android":"levelo://app?vid=1b367162-55de-4292-80b4-2581496ed25c","ios":"levelo://app?vid=1b367162-55de-4292-80b4-2581496ed25c"},"vehicle_type_id":"4","last_reported":1730463420,"current_range_meters":31200,"station_id":"ce4bh192rcd13ifvqdc0","pricing_plan_id":"cebpf4jnsgd1na2vs0mg"},{"bike_id":"2cbbd5fb-0d55-43a5-9858-9e639063b33a","system_id":"levelo_inurba_marseille","lat":43.317343,"lon":5.38987,"is_reserved":false,"is_disabled":false,"rental_uris":{"android":"levelo://app?vid=2cbbd5fb-0d55-43a5-9858-9e639063b33a","ios":"levelo://app?vid=2cbbd5fb-0d55-43a5-9858-9e639063b33a"},"vehicle_type_id":"4","last_reported":1730463420,"current_range_meters":38400,"station_id":"ce4bhqp2rcd13ifvqhng","pricing_plan_id":"cebpf4jnsgd1na2vs0mg"},{"bike_id":"328e4742-9293-4811-bae2-d6228dc19180","system_id":"levelo_inurba_marseille","lat":43.25502,"lon":5.37651,"is_reserved":false,"is_disabled":false,"rental_uris":{"android":"levelo://app?vid=328e4742-9293-4811-bae2-d6228dc19180","ios":"levelo://app?vid=328e4742-9293-4811-bae2-d6228dc19180"},"vehicle_type_id":"4","last_reported":1730463420,"current_range_meters":17600,"station_id":"ce4bhh12rcd13ifvqff0","pricing_plan_id":"cebpf4jnsgd1na2vs0mg"},{"bike_id":"e3626448-be19-4cd1-b72c-6e8c9dc35c36","system_id":"levelo_inurba_marseille","lat":43.27621,"lon":5.36094,"is_reserved":false,"is_disabled":false,"rental_uris":{"android":"levelo://app?vid=e3626448-be19-4cd1-b72c-6e8c9dc35c36","ios":"levelo://app?vid=e3626448-be19-4cd1-b72c-6e8c9dc35c36"},"vehicle_type_id":"4","last_reported":1730463420,"current_range_meters":38000,"station_id":"ce4bgj92rcd13ifvqbe0","pricing_plan_id":"cebpf4jnsgd1na2vs0mg"},{"bike_id":"f5e34e93-36c9-4f3a-964a-1fa88f81b3b5","system_id":"levelo_inurba_marseille","lat":43.30569,"lon":5.36724,"is_reserved":false,"is_disabled":false,"rental_uris":{"android":"levelo://app?vid=f5e34e93-36c9-4f3a-964a-1fa88f81b3b5","ios":"levelo://app?vid=f5e34e93-36c9-4f3a-964a-1fa88f81b3b5"},"vehicle_type_id":"4","last_reported":1730463420,"current_range_meters":39200,"station_id":"ce4bgrp2rcd13ifvqc9g","pricing_plan_id":"cebpf4jnsgd1na2vs0mg"},{"bike_id":"de4a4919-2150-4d82-967b-1c3b235506f4","system_id":"levelo_inurba_marseille","lat":43.29226,"lon":5.36062,"is_reserved":false,"is_disabled":false,"rental_uris":{"android":"levelo://app?vid=de4a4919-2150-4d82-967b-1c3b235506f4","ios":"levelo://app?vid=de4a4919-2150-4d82-967b-1c3b235506f4"},"vehicle_type_id":"4","last_reported":1730463420,"current_range_meters":38800,"station_id":"ce4bhbh2rcd13ifvqeqg","pricing_plan_id":"cebpf4jnsgd1na2vs0mg"},{"bike_id":"a323dabe-afd3-4771-9dbf-919154f998c7","system_id":"levelo_inurba_marseille","lat":43.2762,"lon":5.36099,"is_reserved":false,"is_disabled":false,"rental_uris":{"android":"levelo://app?vid=a323dabe-afd3-4771-9dbf-919154f998c7","ios":"levelo://app?vid=a323dabe-afd3-4771-9dbf-919154f998c7"},"vehicle_type_id":"4","last_reported":1730463420,"current_range_meters":28400,"station_id":"ce4bgj92rcd13ifvqbe0","pricing_plan_id":"cebpf4jnsgd1na2vs0mg"},{"bike_id":"69355a51-41a5-4455-b14c-61dd7df03e2c","system_id":"levelo_inurba_marseille","lat":43.33722,"lon":5.39186,"is_reserved":false,"is_disabled":false,"rental_uris":{"android":"levelo://app?vid=69355a51-41a5-4455-b14c-61dd7df03e2c","ios":"levelo://app?vid=69355a51-41a5-4455-b14c-61dd7df03e2c"},"vehicle_type_id":"4","last_reported":1730463420,"current_range_meters":39200,"station_id":"ce4bhr92rcd13ifvqhsg","pricing_plan_id":"cebpf4jnsgd1na2vs0mg"},{"bike_id":"b8812829-13c4-4cd9-8648-e8f45673a8cb","system_id":"levelo_inurba_marseille","lat":43.30418,"lon":5.4128,"is_reserved":false,"is_disabled":false,"rental_uris":{"android":"levelo://app?vid=b8812829-13c4-4cd9-8648-e8f45673a8cb","ios":"levelo://app?vid=b8812829-13c4-4cd9-8648-e8f45673a8cb"},"vehicle_type_id":"4","last_reported":1730463420,"current_range_meters":19600,"station_id":"ce4bhop2rcd13ifvqh8g","pricing_plan_id":"cebpf4jnsgd1na2vs0mg"},{"bike_id":"76e6c502-485e-4241-80ce-347950862050","system_id":"levelo_inurba_marseille","lat":43.2732,"lon":5.39071,"is_reserved":false,"is_disabled":false,"rental_uris":{"android":"levelo://app?vid=76e6c502-485e-4241-80ce-347950862050","ios":"levelo://app?vid=76e6c502-485e-4241-80ce-347950862050"},"vehicle_type_id":"4","last_reported":1730463420,"current_range_meters":28400,"station_id":"ce4bhgp2rcd13ifvqfe0","pricing_plan_id":"cebpf4jnsgd1na2vs0mg"},{"bike_id":"d8d25a3e-cbf6-4275-8121-e65c6b2ff3b0","system_id":"levelo_inurba_marseille","lat":43.24077,"lon":5.37754,"is_reserved":false,"is_disabled":false,"rental_uris":{"android":"levelo://app?vid=d8d25a3e-cbf6-4275-8121-e65c6b2ff3b0","ios":"levelo://app?vid=d8d25a3e-cbf6-4275-8121-e65c6b2ff3b0"},"vehicle_type_id":"4","last_reported":1730463420,"current_range_meters":36400,"station_id":"ce4bhnp2rcd13ifvqgvg","pricing_plan_id":"cebpf4jnsgd1na2vs0mg"},{"bike_id":"e002d1c8-bc06-4e35-ac2c-a761352dc127","system_id":"levelo_inurba_marseille","lat":43.28619,"lon":5.3511,"is_reserved":false,"is_disabled":false,"rental_uris":{"android":"levelo://app?vid=e002d1c8-bc06-4e35-ac2c-a761352dc127","ios":"levelo://app?vid=e002d1c8-bc06-4e35-ac2c-a761352dc127"},"vehicle_type_id":"4","last_reported":1730463420,"current_range_meters":26800,"station_id":"ce4bhch2rcd13ifvqeug","pricing_plan_id":"cebpf4jnsgd1na2vs0mg"},{"bike_id":"0d386634-2e45-4f6d-b152-f6a6855eb133","system_id":"levelo_inurba_marseille","lat":43.26192,"lon":5.37449,"is_reserved":false,"is_disabled":false,"rental_uris":{"android":"levelo://app?vid=0d386634-2e45-4f6d-b152-f6a6855eb133","ios":"levelo://app?vid=0d386634-2e45-4f6d-b152-f6a6855eb133"},"vehicle_type_id":"4","last_reported":1730463420,"current_range_meters":30000,"station_id":"ce4bhgp2rcd13ifvqfc0","pricing_plan_id":"cebpf4jnsgd1na2vs0mg"},{"bike_id":"9938ebcd-9900-4f33-ae62-087d07b91466","system_id":"levelo_inurba_marseille","lat":43.25726,"lon":5.41109,"is_reserved":false,"is_disabled":false,"rental_uris":{"android":"levelo://app?vid=9938ebcd-9900-4f33-ae62-087d07b91466","ios":"levelo://app?vid=9938ebcd-9900-4f33-ae62-087d07b91466"},"vehicle_type_id":"4","last_reported":1730463420,"current_range_meters":40000,"station_id":"ce4bhkp2rcd13ifvqgd0","pricing_plan_id":"cebpf4jnsgd1na2vs0mg"},{"bike_id":"5d039939-abf3-42e5-b79a-b48827c3ccb6","system_id":"levelo_inurba_marseille","lat":43.26829,"lon":5.38215,"is_reserved":false,"is_disabled":false,"rental_uris":{"android":"levelo://app?vid=5d039939-abf3-42e5-b79a-b48827c3ccb6","ios":"levelo://app?vid=5d039939-abf3-42e5-b79a-b48827c3ccb6"},"vehicle_type_id":"4","last_reported":1730463420,"current_range_meters":7200,"station_id":"","pricing_plan_id":"cebpf4jnsgd1na2vs0mg"},{"bike_id":"72c091d5-b2b9-4594-b414-7c8b03724881","system_id":"levelo_inurba_marseille","lat":43.31698,"lon":5.40469,"is_reserved":false,"is_disabled":false,"rental_uris":{"android":"levelo://app?vid=72c091d5-b2b9-4594-b414-7c8b03724881","ios":"levelo://app?vid=72c091d5-b2b9-4594-b414-7c8b03724881"},"vehicle_type_id":"4","last_reported":1730463420,"current_range_meters":37600,"station_id":"ce4bh012rcd13ifvqd00","pricing_plan_id":"cebpf4jnsgd1na2vs0mg"},{"bike_id":"9d361add-9eb5-4a13-ae18-0cc78beeaf0a","system_id":"levelo_inurba_marseille","lat":43.24079,"lon":5.37748,"is_reserved":false,"is_disabled":false,"rental_uris":{"android":"levelo://app?vid=9d361add-9eb5-4a13-ae18-0cc78beeaf0a","ios":"levelo://app?vid=9d361add-9eb5-4a13-ae18-0cc78beeaf0a"},"vehicle_type_id":"4","last_reported":1730463420,"current_range_meters":30400,"station_id":"ce4bhnp2rcd13ifvqgvg","pricing_plan_id":"cebpf4jnsgd1na2vs0mg"},{"bike_id":"337aedca-2f90-4d1a-84bd-12a131b00b94","system_id":"levelo_inurba_marseille","lat":43.23971,"lon":5.36613,"is_reserved":false,"is_disabled":false,"rental_uris":{"android":"levelo://app?vid=337aedca-2f90-4d1a-84bd-12a131b00b94","ios":"levelo://app?vid=337aedca-2f90-4d1a-84bd-12a131b00b94"},"vehicle_type_id":"4","last_reported":1730463420,"current_range_meters":24800,"station_id":"ce4bhi12rcd13ifvqfp0","pricing_plan_id":"cebpf4jnsgd1na2vs0mg"},{"bike_id":"5c8a5bb5-a198-4a3b-92e7-8543db03156f","system_id":"levelo_inurba_marseille","lat":43.31712,"lon":5.37773,"is_reserved":false,"is_disabled":false,"rental_uris":{"android":"levelo://app?vid=5c8a5bb5-a198-4a3b-92e7-8543db03156f","ios":"levelo://app?vid=5c8a5bb5-a198-4a3b-92e7-8543db03156f"},"vehicle_type_id":"4","last_reported":1730463420,"current_range_meters":39200,"station_id":"ce4bgth2rcd13ifvqch0","pricing_plan_id":"cebpf4jnsgd1na2vs0mg"},{"bike_id":"dd4ca9e5-826b-4fcd-b18b-ef909f9c70be","system_id":"levelo_inurba_marseille","lat":43.30152,"lon":5.38074,"is_reserved":false,"is_disabled":false,"rental_uris":{"android":"levelo://app?vid=dd4ca9e5-826b-4fcd-b18b-ef909f9c70be","ios":"levelo://app?vid=dd4ca9e5-826b-4fcd-b18b-ef909f9c70be"},"vehicle_type_id":"4","last_reported":1730463420,"current_range_meters":25600,"station_id":"ce4bgjp2rcd13ifvqbh0","pricing_plan_id":"cebpf4jnsgd1na2vs0mg"},{"bike_id":"58a716bf-d694-466f-989e-38efb9c28cd7","system_id":"levelo_inurba_marseille","lat":43.33024,"lon":5.39039,"is_reserved":false,"is_disabled":false,"rental_uris":{"android":"levelo://app?vid=58a716bf-d694-466f-989e-38efb9c28cd7","ios":"levelo://app?vid=58a716bf-d694-466f-989e-38efb9c28cd7"},"vehicle_type_id":"4","last_reported":1730463420,"current_range_meters":37600,"station_id":"ce4bhr92rcd13ifvqhrg","pricing_plan_id":"cebpf4jnsgd1na2vs0mg"},{"bike_id":"f98362a5-3b33-4fdf-8c1a-d5cba9f1b1ae","system_id":"levelo_inurba_marseille","lat":43.23152,"lon":5.43716,"is_reserved":false,"is_disabled":false,"rental_uris":{"android":"levelo://app?vid=f98362a5-3b33-4fdf-8c1a-d5cba9f1b1ae","ios":"levelo://app?vid=f98362a5-3b33-4fdf-8c1a-d5cba9f1b1ae"},"vehicle_type_id":"4","last_reported":1730463420,"current_range_meters":22400,"station_id":"ce4bhmp2rcd13ifvqgog","pricing_plan_id":"cebpf4jnsgd1na2vs0mg"},{"bike_id":"05b66808-27ba-48de-8c25-fa6353c85930","system_id":"levelo_inurba_marseille","lat":43.271,"lon":5.40408,"is_reserved":false,"is_disabled":false,"rental_uris":{"android":"levelo://app?vid=05b66808-27ba-48de-8c25-fa6353c85930","ios":"levelo://app?vid=05b66808-27ba-48de-8c25-fa6353c85930"},"vehicle_type_id":"4","last_reported":1730463420,"current_range_meters":10800,"station_id":"ce4bhjp2rcd13ifvqga0","pricing_plan_id":"cebpf4jnsgd1na2vs0mg"},{"bike_id":"9daca46e-b450-4f6e-8fa7-dc74aa35a5dd","system_id":"levelo_inurba_marseille","lat":43.23103,"lon":5.40065,"is_reserved":false,"is_disabled":false,"rental_uris":{"android":"levelo://app?vid=9daca46e-b450-4f6e-8fa7-dc74aa35a5dd","ios":"levelo://app?vid=9daca46e-b450-4f6e-8fa7-dc74aa35a5dd"},"vehicle_type_id":"4","last_reported":1730463420,"current_range_meters":20800,"station_id":"ce4bhn12rcd13ifvqgqg","pricing_plan_id":"cebpf4jnsgd1na2vs0mg"},{"bike_id":"0bd966fd-877b-4aae-8013-4621694ce072","system_id":"levelo_inurba_marseille","lat":43.32486,"lon":5.36557,"is_reserved":false,"is_disabled":false,"rental_uris":{"android":"levelo://app?vid=0bd966fd-877b-4aae-8013-4621694ce072","ios":"levelo://app?vid=0bd966fd-877b-4aae-8013-4621694ce072"},"vehicle_type_id":"4","last_reported":1730463420,"current_range_meters":30800,"station_id":"ce4bhs12rcd13ifvqhvg","pricing_plan_id":"cebpf4jnsgd1na2vs0mg"},{"bike_id":"8650d5e7-8d59-4d74-af9c-6b832171c700","system_id":"levelo_inurba_marseille","lat":43.23963,"lon":5.36631,"is_reserved":false,"is_disabled":false,"rental_uris":{"android":"levelo://app?vid=8650d5e7-8d59-4d74-af9c-6b832171c700","ios":"levelo://app?vid=8650d5e7-8d59-4d74-af9c-6b832171c700"},"vehicle_type_id":"4","last_reported":1730463420,"current_range_meters":12400,"station_id":"ce4bhi12rcd13ifvqfp0","pricing_plan_id":"cebpf4jnsgd1na2vs0mg"},{"bike_id":"7471bc9b-f984-44e8-a6de-2b1222eeead0","system_id":"levelo_inurba_marseille","lat":43.2417,"lon":5.36401,"is_reserved":false,"is_disabled":false,"rental_uris":{"android":"levelo://app?vid=7471bc9b-f984-44e8-a6de-2b1222eeead0","ios":"levelo://app?vid=7471bc9b-f984-44e8-a6de-2b1222eeead0"},"vehicle_type_id":"4","last_reported":1730463420,"current_range_meters":6000,"station_id":"cpo36qri1sfpv3e86is0","pricing_plan_id":"cebpf4jnsgd1na2vs0mg"},{"bike_id":"2a75acb8-6ce7-49e8-9e6d-fd1bab6bdae9","system_id":"levelo_inurba_marseille","lat":43.28359,"lon":5.38627,"is_reserved":false,"is_disabled":false,"rental_uris":{"android":"levelo://app?vid=2a75acb8-6ce7-49e8-9e6d-fd1bab6bdae9","ios":"levelo://app?vid=2a75acb8-6ce7-49e8-9e6d-fd1bab6bdae9"},"vehicle_type_id":"4","last_reported":1730463420,"current_range_meters":16000,"station_id":"ce4bh492rcd13ifvqdvg","pricing_plan_id":"cebpf4jnsgd1na2vs0mg"},{"bike_id":"2ccb3b49-30fe-45a4-927a-d202d253cd4d","system_id":"levelo_inurba_marseille","lat":43.2971,"lon":5.3661,"is_reserved":false,"is_disabled":false,"rental_uris":{"android":"levelo://app?vid=2ccb3b49-30fe-45a4-927a-d202d253cd4d","ios":"levelo://app?vid=2ccb3b49-30fe-45a4-927a-d202d253cd4d"},"vehicle_type_id":"4","last_reported":1730463420,"current_range_meters":22000,"station_id":"ce4bgn12rcd13ifvqbt0","pricing_plan_id":"cebpf4jnsgd1na2vs0mg"},{"bike_id":"d321846c-1972-4de6-84d1-acbc45f600cc","system_id":"levelo_inurba_marseille","lat":43.30889,"lon":5.39632,"is_reserved":false,"is_disabled":false,"rental_uris":{"android":"levelo://app?vid=d321846c-1972-4de6-84d1-acbc45f600cc","ios":"levelo://app?vid=d321846c-1972-4de6-84d1-acbc45f600cc"},"vehicle_type_id":"4","last_reported":1730463420,"current_range_meters":36800,"station_id":"ce4bh012rcd13ifvqcv0","pricing_plan_id":"cebpf4jnsgd1na2vs0mg"},{"bike_id":"a8594471-923b-4371-82a5-d750e1a3d991","system_id":"levelo_inurba_marseille","lat":43.31529,"lon":5.38028,"is_reserved":false,"is_disabled":false,"rental_uris":{"android":"levelo://app?vid=a8594471-923b-4371-82a5-d750e1a3d991","ios":"levelo://app?vid=a8594471-923b-4371-82a5-d750e1a3d991"},"vehicle_type_id":"4","last_reported":1730463420,"current_range_meters":11600,"station_id":"ce4bhsp2rcd13ifvqi50","pricing_plan_id":"cebpf4jnsgd1na2vs0mg"},{"bike_id":"0758a42e-43bf-4675-bb32-2cb529e7ba97","system_id":"levelo_inurba_marseille","lat":43.23957,"lon":5.36637,"is_reserved":false,"is_disabled":false,"rental_uris":{"android":"levelo://app?vid=0758a42e-43bf-4675-bb32-2cb529e7ba97","ios":"levelo://app?vid=0758a42e-43bf-4675-bb32-2cb529e7ba97"},"vehicle_type_id":"4","last_reported":1730463420,"current_range_meters":25600,"station_id":"ce4bhi12rcd13ifvqfp0","pricing_plan_id":"cebpf4jnsgd1na2vs0mg"},{"bike_id":"f215e603-b9b8-45fc-addd-1be5dd060d7c","system_id":"levelo_inurba_marseille","lat":43.30144,"lon":5.38077,"is_reserved":false,"is_disabled":false,"rental_uris":{"android":"levelo://app?vid=f215e603-b9b8-45fc-addd-1be5dd060d7c","ios":"levelo://app?vid=f215e603-b9b8-45fc-addd-1be5dd060d7c"},"vehicle_type_id":"4","last_reported":1730463420,"current_range_meters":37600,"station_id":"ce4bgjp2rcd13ifvqbh0","pricing_plan_id":"cebpf4jnsgd1na2vs0mg"},{"bike_id":"9a8cd3c7-aaa4-45f3-80bd-b5054fe6f960","system_id":"levelo_inurba_marseille","lat":43.23151,"lon":5.43701,"is_reserved":false,"is_disabled":false,"rental_uris":{"android":"levelo://app?vid=9a8cd3c7-aaa4-45f3-80bd-b5054fe6f960","ios":"levelo://app?vid=9a8cd3c7-aaa4-45f3-80bd-b5054fe6f960"},"vehicle_type_id":"4","last_reported":1730463420,"current_range_meters":9600,"station_id":"ce4bhmp2rcd13ifvqgog","pricing_plan_id":"cebpf4jnsgd1na2vs0mg"},{"bike_id":"dd44c6ba-8e07-4a4d-aebc-6d67384c1e5b","system_id":"levelo_inurba_marseille","lat":43.29964,"lon":5.41323,"is_reserved":false,"is_disabled":false,"rental_uris":{"android":"levelo://app?vid=dd44c6ba-8e07-4a4d-aebc-6d67384c1e5b","ios":"levelo://app?vid=dd44c6ba-8e07-4a4d-aebc-6d67384c1e5b"},"vehicle_type_id":"4","last_reported":1730463420,"current_range_meters":38800,"station_id":"ce4bhp12rcd13ifvqh9g","pricing_plan_id":"cebpf4jnsgd1na2vs0mg"},{"bike_id":"e9945190-061a-4dd7-b1d1-d2eba02f0de1","system_id":"levelo_inurba_marseille","lat":43.28414,"lon":5.3498,"is_reserved":false,"is_disabled":false,"rental_uris":{"android":"levelo://app?vid=e9945190-061a-4dd7-b1d1-d2eba02f0de1","ios":"levelo://app?vid=e9945190-061a-4dd7-b1d1-d2eba02f0de1"},"vehicle_type_id":"4","last_reported":1730463420,"current_range_meters":24400,"station_id":"ce4bhbh2rcd13ifvqepg","pricing_plan_id":"cebpf4jnsgd1na2vs0mg"},{"bike_id":"84b3858e-724d-4a51-abdd-a1c7708d404b","system_id":"levelo_inurba_marseille","lat":43.294988,"lon":5.381067,"is_reserved":false,"is_disabled":false,"rental_uris":{"android":"levelo://app?vid=84b3858e-724d-4a51-abdd-a1c7708d404b","ios":"levelo://app?vid=84b3858e-724d-4a51-abdd-a1c7708d404b"},"vehicle_type_id":"4","last_reported":1730463420,"current_range_meters":17200,"station_id":"","pricing_plan_id":"cebpf4jnsgd1na2vs0mg"},{"bike_id":"f8361ab9-5256-40f9-b9f1-5882b768ef64","system_id":"levelo_inurba_marseille","lat":43.30951,"lon":5.39037,"is_reserved":false,"is_disabled":false,"rental_uris":{"android":"levelo://app?vid=f8361ab9-5256-40f9-b9f1-5882b768ef64","ios":"levelo://app?vid=f8361ab9-5256-40f9-b9f1-5882b768ef64"},"vehicle_type_id":"4","last_reported":1730463420,"current_range_meters":18000,"station_id":"ce4bgup2rcd13ifvqco0","pricing_plan_id":"cebpf4jnsgd1na2vs0mg"},{"bike_id":"15289e72-ec4c-4c77-90d5-75db96b9e61c","system_id":"levelo_inurba_marseille","lat":43.29226,"lon":5.36051,"is_reserved":false,"is_disabled":false,"rental_uris":{"android":"levelo://app?vid=15289e72-ec4c-4c77-90d5-75db96b9e61c","ios":"levelo://app?vid=15289e72-ec4c-4c77-90d5-75db96b9e61c"},"vehicle_type_id":"4","last_reported":1730463420,"current_range_meters":38800,"station_id":"ce4bhbh2rcd13ifvqeqg","pricing_plan_id":"cebpf4jnsgd1na2vs0mg"},{"bike_id":"205d74b9-4188-436c-8520-a69986be2fad","system_id":"levelo_inurba_marseille","lat":43.2842,"lon":5.34988,"is_reserved":false,"is_disabled":false,"rental_uris":{"android":"levelo://app?vid=205d74b9-4188-436c-8520-a69986be2fad","ios":"levelo://app?vid=205d74b9-4188-436c-8520-a69986be2fad"},"vehicle_type_id":"4","last_reported":1730463420,"current_range_meters":38000,"station_id":"ce4bhbh2rcd13ifvqepg","pricing_plan_id":"cebpf4jnsgd1na2vs0mg"},{"bike_id":"421438a7-603f-43c4-8a4c-ce4f972aa0f2","system_id":"levelo_inurba_marseille","lat":43.30148,"lon":5.37422,"is_reserved":false,"is_disabled":false,"rental_uris":{"android":"levelo://app?vid=421438a7-603f-43c4-8a4c-ce4f972aa0f2","ios":"levelo://app?vid=421438a7-603f-43c4-8a4c-ce4f972aa0f2"},"vehicle_type_id":"4","last_reported":1730463420,"current_range_meters":40000,"station_id":"ce4bgs92rcd13ifvqcc0","pricing_plan_id":"cebpf4jnsgd1na2vs0mg"},{"bike_id":"3bae9340-aae2-47c4-82c5-5c0d7349f14b","system_id":"levelo_inurba_marseille","lat":43.308,"lon":5.43523,"is_reserved":false,"is_disabled":false,"rental_uris":{"android":"levelo://app?vid=3bae9340-aae2-47c4-82c5-5c0d7349f14b","ios":"levelo://app?vid=3bae9340-aae2-47c4-82c5-5c0d7349f14b"},"vehicle_type_id":"4","last_reported":1730463420,"current_range_meters":32000,"station_id":"ce4bhph2rcd13ifvqheg","pricing_plan_id":"cebpf4jnsgd1na2vs0mg"},{"bike_id":"5e952f6b-9aee-4257-81cc-27b4ae171e24","system_id":"levelo_inurba_marseille","lat":43.22936,"lon":5.35377,"is_reserved":false,"is_disabled":false,"rental_uris":{"android":"levelo://app?vid=5e952f6b-9aee-4257-81cc-27b4ae171e24","ios":"levelo://app?vid=5e952f6b-9aee-4257-81cc-27b4ae171e24"},"vehicle_type_id":"4","last_reported":1730463420,"current_range_meters":40000,"station_id":"cpo3532slgdg3j2ikp40","pricing_plan_id":"cebpf4jnsgd1na2vs0mg"},{"bike_id":"81eaa22b-96f5-47dd-9220-ed8909709108","system_id":"levelo_inurba_marseille","lat":43.28413,"lon":5.34992,"is_reserved":false,"is_disabled":false,"rental_uris":{"android":"levelo://app?vid=81eaa22b-96f5-47dd-9220-ed8909709108","ios":"levelo://app?vid=81eaa22b-96f5-47dd-9220-ed8909709108"},"vehicle_type_id":"4","last_reported":1730463420,"current_range_meters":40000,"station_id":"ce4bhbh2rcd13ifvqepg","pricing_plan_id":"cebpf4jnsgd1na2vs0mg"},{"bike_id":"57c8d37f-c0be-44cb-ad31-f1cd9bd7d9ef","system_id":"levelo_inurba_marseille","lat":43.31117,"lon":5.37763,"is_reserved":false,"is_disabled":false,"rental_uris":{"android":"levelo://app?vid=57c8d37f-c0be-44cb-ad31-f1cd9bd7d9ef","ios":"levelo://app?vid=57c8d37f-c0be-44cb-ad31-f1cd9bd7d9ef"},"vehicle_type_id":"4","last_reported":1730463420,"current_range_meters":38000,"station_id":"ce4bgt92rcd13ifvqcg0","pricing_plan_id":"cebpf4jnsgd1na2vs0mg"},{"bike_id":"240176cc-f5eb-4d42-a592-f83d91e78288","system_id":"levelo_inurba_marseille","lat":43.28668,"lon":5.36365,"is_reserved":false,"is_disabled":false,"rental_uris":{"android":"levelo://app?vid=240176cc-f5eb-4d42-a592-f83d91e78288","ios":"levelo://app?vid=240176cc-f5eb-4d42-a592-f83d91e78288"},"vehicle_type_id":"4","last_reported":1730463420,"current_range_meters":24000,"station_id":"ce4bhah2rcd13ifvqej0","pricing_plan_id":"cebpf4jnsgd1na2vs0mg"},{"bike_id":"99053024-e408-47d3-ae20-3c6a4df1163c","system_id":"levelo_inurba_marseille","lat":43.27427,"lon":5.3941,"is_reserved":false,"is_disabled":false,"rental_uris":{"android":"levelo://app?vid=99053024-e408-47d3-ae20-3c6a4df1163c","ios":"levelo://app?vid=99053024-e408-47d3-ae20-3c6a4df1163c"},"vehicle_type_id":"4","last_reported":1730463420,"current_range_meters":36000,"station_id":"ce4bhdp2rcd13ifvqf20","pricing_plan_id":"cebpf4jnsgd1na2vs0mg"},{"bike_id":"46aae2bc-b442-475d-81d4-be9123bf7fb6","system_id":"levelo_inurba_marseille","lat":43.33024,"lon":5.39034,"is_reserved":false,"is_disabled":false,"rental_uris":{"android":"levelo://app?vid=46aae2bc-b442-475d-81d4-be9123bf7fb6","ios":"levelo://app?vid=46aae2bc-b442-475d-81d4-be9123bf7fb6"},"vehicle_type_id":"4","last_reported":1730463420,"current_range_meters":16400,"station_id":"ce4bhr92rcd13ifvqhrg","pricing_plan_id":"cebpf4jnsgd1na2vs0mg"},{"bike_id":"4aaf9177-6ed9-4281-b081-6c2065ca8c1e","system_id":"levelo_inurba_marseille","lat":43.23188,"lon":5.39981,"is_reserved":false,"is_disabled":false,"rental_uris":{"android":"levelo://app?vid=4aaf9177-6ed9-4281-b081-6c2065ca8c1e","ios":"levelo://app?vid=4aaf9177-6ed9-4281-b081-6c2065ca8c1e"},"vehicle_type_id":"4","last_reported":1730463420,"current_range_meters":21600,"station_id":"ce4bhn12rcd13ifvqgqg","pricing_plan_id":"cebpf4jnsgd1na2vs0mg"},{"bike_id":"7f032ca0-2fbc-425c-b9e3-db49dd40b923","system_id":"levelo_inurba_marseille","lat":43.28269,"lon":5.35062,"is_reserved":false,"is_disabled":false,"rental_uris":{"android":"levelo://app?vid=7f032ca0-2fbc-425c-b9e3-db49dd40b923","ios":"levelo://app?vid=7f032ca0-2fbc-425c-b9e3-db49dd40b923"},"vehicle_type_id":"4","last_reported":1730463420,"current_range_meters":38800,"station_id":"ce4bhbp2rcd13ifvqerg","pricing_plan_id":"cebpf4jnsgd1na2vs0mg"},{"bike_id":"432245c8-aae7-4413-a01a-f97683516aa8","system_id":"levelo_inurba_marseille","lat":43.31274,"lon":5.4017,"is_reserved":false,"is_disabled":false,"rental_uris":{"android":"levelo://app?vid=432245c8-aae7-4413-a01a-f97683516aa8","ios":"levelo://app?vid=432245c8-aae7-4413-a01a-f97683516aa8"},"vehicle_type_id":"4","last_reported":1730463420,"current_range_meters":39200,"station_id":"ce4bh092rcd13ifvqd30","pricing_plan_id":"cebpf4jnsgd1na2vs0mg"},{"bike_id":"b647ad8c-5239-4792-a303-51c2978d56fb","system_id":"levelo_inurba_marseille","lat":43.33612,"lon":5.4101,"is_reserved":false,"is_disabled":false,"rental_uris":{"android":"levelo://app?vid=b647ad8c-5239-4792-a303-51c2978d56fb","ios":"levelo://app?vid=b647ad8c-5239-4792-a303-51c2978d56fb"},"vehicle_type_id":"4","last_reported":1730463420,"current_range_meters":38000,"station_id":"ce4bhqh2rcd13ifvqhmg","pricing_plan_id":"cebpf4jnsgd1na2vs0mg"},{"bike_id":"ca4e931c-8ef5-4130-8183-d440a5801a2f","system_id":"levelo_inurba_marseille","lat":43.23189,"lon":5.35554,"is_reserved":false,"is_disabled":false,"rental_uris":{"android":"levelo://app?vid=ca4e931c-8ef5-4130-8183-d440a5801a2f","ios":"levelo://app?vid=ca4e931c-8ef5-4130-8183-d440a5801a2f"},"vehicle_type_id":"4","last_reported":1730463420,"current_range_meters":32000,"station_id":"ce4bhu92rcd13ifvqi70","pricing_plan_id":"cebpf4jnsgd1na2vs0mg"},{"bike_id":"1dd9cb89-8142-459b-ac9d-6139f7c103f8","system_id":"levelo_inurba_marseille","lat":43.28261,"lon":5.35071,"is_reserved":false,"is_disabled":false,"rental_uris":{"android":"levelo://app?vid=1dd9cb89-8142-459b-ac9d-6139f7c103f8","ios":"levelo://app?vid=1dd9cb89-8142-459b-ac9d-6139f7c103f8"},"vehicle_type_id":"4","last_reported":1730463420,"current_range_meters":20400,"station_id":"ce4bhbp2rcd13ifvqerg","pricing_plan_id":"cebpf4jnsgd1na2vs0mg"},{"bike_id":"2e1b78e5-1809-4f29-99ff-b678cf502fe3","system_id":"levelo_inurba_marseille","lat":43.24666,"lon":5.38151,"is_reserved":false,"is_disabled":false,"rental_uris":{"android":"levelo://app?vid=2e1b78e5-1809-4f29-99ff-b678cf502fe3","ios":"levelo://app?vid=2e1b78e5-1809-4f29-99ff-b678cf502fe3"},"vehicle_type_id":"4","last_reported":1730463420,"current_range_meters":28800,"station_id":"ce4bhih2rcd13ifvqfr0","pricing_plan_id":"cebpf4jnsgd1na2vs0mg"},{"bike_id":"ed8cc943-8392-47e6-ad94-a46135ae2128","system_id":"levelo_inurba_marseille","lat":43.27809,"lon":5.407,"is_reserved":false,"is_disabled":false,"rental_uris":{"android":"levelo://app?vid=ed8cc943-8392-47e6-ad94-a46135ae2128","ios":"levelo://app?vid=ed8cc943-8392-47e6-ad94-a46135ae2128"},"vehicle_type_id":"4","last_reported":1730463420,"current_range_meters":24400,"station_id":"ce4bhnh2rcd13ifvqgtg","pricing_plan_id":"cebpf4jnsgd1na2vs0mg"},{"bike_id":"ecfff336-404e-4f76-9217-a25607b85b9b","system_id":"levelo_inurba_marseille","lat":43.30144,"lon":5.37408,"is_reserved":false,"is_disabled":false,"rental_uris":{"android":"levelo://app?vid=ecfff336-404e-4f76-9217-a25607b85b9b","ios":"levelo://app?vid=ecfff336-404e-4f76-9217-a25607b85b9b"},"vehicle_type_id":"4","last_reported":1730463420,"current_range_meters":16000,"station_id":"ce4bgs92rcd13ifvqcc0","pricing_plan_id":"cebpf4jnsgd1na2vs0mg"},{"bike_id":"b283c3a4-1bf0-4b62-a0f0-e4759ef60d62","system_id":"levelo_inurba_marseille","lat":43.23188,"lon":5.39998,"is_reserved":false,"is_disabled":false,"rental_uris":{"android":"levelo://app?vid=b283c3a4-1bf0-4b62-a0f0-e4759ef60d62","ios":"levelo://app?vid=b283c3a4-1bf0-4b62-a0f0-e4759ef60d62"},"vehicle_type_id":"4","last_reported":1730463420,"current_range_meters":23200,"station_id":"ce4bhn12rcd13ifvqgqg","pricing_plan_id":"cebpf4jnsgd1na2vs0mg"},{"bike_id":"65d4258f-797a-48b2-9312-a1cc88acc794","system_id":"levelo_inurba_marseille","lat":43.23188,"lon":5.39987,"is_reserved":false,"is_disabled":false,"rental_uris":{"android":"levelo://app?vid=65d4258f-797a-48b2-9312-a1cc88acc794","ios":"levelo://app?vid=65d4258f-797a-48b2-9312-a1cc88acc794"},"vehicle_type_id":"4","last_reported":1730463420,"current_range_meters":16400,"station_id":"ce4bhn12rcd13ifvqgqg","pricing_plan_id":"cebpf4jnsgd1na2vs0mg"},{"bike_id":"1947343f-1bf0-4833-b6c0-78755f50118b","system_id":"levelo_inurba_marseille","lat":43.32367,"lon":5.38881,"is_reserved":false,"is_disabled":false,"rental_uris":{"android":"levelo://app?vid=1947343f-1bf0-4833-b6c0-78755f50118b","ios":"levelo://app?vid=1947343f-1bf0-4833-b6c0-78755f50118b"},"vehicle_type_id":"4","last_reported":1730463420,"current_range_meters":21600,"station_id":"ce4bhqp2rcd13ifvqhog","pricing_plan_id":"cebpf4jnsgd1na2vs0mg"},{"bike_id":"ecf8c1a9-bcf9-42d8-9c26-3ce67d4effe4","system_id":"levelo_inurba_marseille","lat":43.30783,"lon":5.37646,"is_reserved":false,"is_disabled":false,"rental_uris":{"android":"levelo://app?vid=ecf8c1a9-bcf9-42d8-9c26-3ce67d4effe4","ios":"levelo://app?vid=ecf8c1a9-bcf9-42d8-9c26-3ce67d4effe4"},"vehicle_type_id":"4","last_reported":1730463420,"current_range_meters":30000,"station_id":"ce4bgv92rcd13ifvqcq0","pricing_plan_id":"cebpf4jnsgd1na2vs0mg"},{"bike_id":"655e5c84-6957-4a22-898b-b606bb7480d4","system_id":"levelo_inurba_marseille","lat":43.22933,"lon":5.35378,"is_reserved":false,"is_disabled":false,"rental_uris":{"android":"levelo://app?vid=655e5c84-6957-4a22-898b-b606bb7480d4","ios":"levelo://app?vid=655e5c84-6957-4a22-898b-b606bb7480d4"},"vehicle_type_id":"4","last_reported":1730463420,"current_range_meters":26800,"station_id":"cpo3532slgdg3j2ikp40","pricing_plan_id":"cebpf4jnsgd1na2vs0mg"},{"bike_id":"a0f5f9e5-b7c4-42ff-aa1e-24ee683f2054","system_id":"levelo_inurba_marseille","lat":43.3042,"lon":5.41288,"is_reserved":false,"is_disabled":false,"rental_uris":{"android":"levelo://app?vid=a0f5f9e5-b7c4-42ff-aa1e-24ee683f2054","ios":"levelo://app?vid=a0f5f9e5-b7c4-42ff-aa1e-24ee683f2054"},"vehicle_type_id":"4","last_reported":1730463420,"current_range_meters":28400,"station_id":"ce4bhop2rcd13ifvqh8g","pricing_plan_id":"cebpf4jnsgd1na2vs0mg"},{"bike_id":"18402065-9e87-476b-95ad-30853de181a0","system_id":"levelo_inurba_marseille","lat":43.32451,"lon":5.45549,"is_reserved":false,"is_disabled":false,"rental_uris":{"android":"levelo://app?vid=18402065-9e87-476b-95ad-30853de181a0","ios":"levelo://app?vid=18402065-9e87-476b-95ad-30853de181a0"},"vehicle_type_id":"4","last_reported":1730463420,"current_range_meters":12000,"station_id":"","pricing_plan_id":"cebpf4jnsgd1na2vs0mg"},{"bike_id":"a0645635-82d1-4330-ac5d-6d16d92f93a9","system_id":"levelo_inurba_marseille","lat":43.28933,"lon":5.36628,"is_reserved":false,"is_disabled":false,"rental_uris":{"android":"levelo://app?vid=a0645635-82d1-4330-ac5d-6d16d92f93a9","ios":"levelo://app?vid=a0645635-82d1-4330-ac5d-6d16d92f93a9"},"vehicle_type_id":"4","last_reported":1730463420,"current_range_meters":19200,"station_id":"ce4bhap2rcd13ifvqek0","pricing_plan_id":"cebpf4jnsgd1na2vs0mg"},{"bike_id":"a32e6cf8-c303-4fe6-ac67-bd3cd7a838c2","system_id":"levelo_inurba_marseille","lat":43.26551,"lon":5.37282,"is_reserved":false,"is_disabled":false,"rental_uris":{"android":"levelo://app?vid=a32e6cf8-c303-4fe6-ac67-bd3cd7a838c2","ios":"levelo://app?vid=a32e6cf8-c303-4fe6-ac67-bd3cd7a838c2"},"vehicle_type_id":"4","last_reported":1730463420,"current_range_meters":30400,"station_id":"ce4bhg12rcd13ifvqf70","pricing_plan_id":"cebpf4jnsgd1na2vs0mg"},{"bike_id":"d7547404-01f3-4bc3-88c4-b601865bf7d0","system_id":"levelo_inurba_marseille","lat":43.28271,"lon":5.35065,"is_reserved":false,"is_disabled":false,"rental_uris":{"android":"levelo://app?vid=d7547404-01f3-4bc3-88c4-b601865bf7d0","ios":"levelo://app?vid=d7547404-01f3-4bc3-88c4-b601865bf7d0"},"vehicle_type_id":"4","last_reported":1730463420,"current_range_meters":38800,"station_id":"ce4bhbp2rcd13ifvqerg","pricing_plan_id":"cebpf4jnsgd1na2vs0mg"},{"bike_id":"def5c73e-a270-4da4-9978-787dbcdf57fa","system_id":"levelo_inurba_marseille","lat":43.32291,"lon":5.38266,"is_reserved":false,"is_disabled":false,"rental_uris":{"android":"levelo://app?vid=def5c73e-a270-4da4-9978-787dbcdf57fa","ios":"levelo://app?vid=def5c73e-a270-4da4-9978-787dbcdf57fa"},"vehicle_type_id":"4","last_reported":1730463420,"current_range_meters":28000,"station_id":"ce4bhr12rcd13ifvqhqg","pricing_plan_id":"cebpf4jnsgd1na2vs0mg"},{"bike_id":"ef8a3dd0-a226-438e-8379-aa279fca8109","system_id":"levelo_inurba_marseille","lat":43.24393,"lon":5.37061,"is_reserved":false,"is_disabled":false,"rental_uris":{"android":"levelo://app?vid=ef8a3dd0-a226-438e-8379-aa279fca8109","ios":"levelo://app?vid=ef8a3dd0-a226-438e-8379-aa279fca8109"},"vehicle_type_id":"4","last_reported":1730463420,"current_range_meters":25600,"station_id":"ce4bhhh2rcd13ifvqfk0","pricing_plan_id":"cebpf4jnsgd1na2vs0mg"},{"bike_id":"49766241-4db4-4015-b3eb-214db8f5235e","system_id":"levelo_inurba_marseille","lat":43.25092,"lon":5.39522,"is_reserved":false,"is_disabled":false,"rental_uris":{"android":"levelo://app?vid=49766241-4db4-4015-b3eb-214db8f5235e","ios":"levelo://app?vid=49766241-4db4-4015-b3eb-214db8f5235e"},"vehicle_type_id":"4","last_reported":1730463420,"current_range_meters":24400,"station_id":"ce4bhm12rcd13ifvqgkg","pricing_plan_id":"cebpf4jnsgd1na2vs0mg"},{"bike_id":"8f55f6cc-0b54-4d5f-9029-aa15dfd6d9b0","system_id":"levelo_inurba_marseille","lat":43.31609,"lon":5.39053,"is_reserved":false,"is_disabled":false,"rental_uris":{"android":"levelo://app?vid=8f55f6cc-0b54-4d5f-9029-aa15dfd6d9b0","ios":"levelo://app?vid=8f55f6cc-0b54-4d5f-9029-aa15dfd6d9b0"},"vehicle_type_id":"4","last_reported":1730463420,"current_range_meters":4400,"station_id":"","pricing_plan_id":"cebpf4jnsgd1na2vs0mg"},{"bike_id":"fe198506-445a-4fd4-ad81-1c93c83826aa","system_id":"levelo_inurba_marseille","lat":43.28619,"lon":5.35104,"is_reserved":false,"is_disabled":false,"rental_uris":{"android":"levelo://app?vid=fe198506-445a-4fd4-ad81-1c93c83826aa","ios":"levelo://app?vid=fe198506-445a-4fd4-ad81-1c93c83826aa"},"vehicle_type_id":"4","last_reported":1730463420,"current_range_meters":8400,"station_id":"ce4bhch2rcd13ifvqeug","pricing_plan_id":"cebpf4jnsgd1na2vs0mg"},{"bike_id":"54b1db93-7993-4b47-8da3-8dc269c2f8e9","system_id":"levelo_inurba_marseille","lat":43.262,"lon":5.37928,"is_reserved":false,"is_disabled":false,"rental_uris":{"android":"levelo://app?vid=54b1db93-7993-4b47-8da3-8dc269c2f8e9","ios":"levelo://app?vid=54b1db93-7993-4b47-8da3-8dc269c2f8e9"},"vehicle_type_id":"4","last_reported":1730463420,"current_range_meters":20400,"station_id":"ce4bhjp2rcd13ifvqg90","pricing_plan_id":"cebpf4jnsgd1na2vs0mg"},{"bike_id":"c2228338-550c-4d7b-87ab-d313af2135e7","system_id":"levelo_inurba_marseille","lat":43.30462,"lon":5.37905,"is_reserved":false,"is_disabled":false,"rental_uris":{"android":"levelo://app?vid=c2228338-550c-4d7b-87ab-d313af2135e7","ios":"levelo://app?vid=c2228338-550c-4d7b-87ab-d313af2135e7"},"vehicle_type_id":"4","last_reported":1730463420,"current_range_meters":39200,"station_id":"ce4bgup2rcd13ifvqcn0","pricing_plan_id":"cebpf4jnsgd1na2vs0mg"},{"bike_id":"1d077ee6-49d7-4a05-b1a6-c17a591c03b6","system_id":"levelo_inurba_marseille","lat":43.27674,"lon":5.38884,"is_reserved":false,"is_disabled":false,"rental_uris":{"android":"levelo://app?vid=1d077ee6-49d7-4a05-b1a6-c17a591c03b6","ios":"levelo://app?vid=1d077ee6-49d7-4a05-b1a6-c17a591c03b6"},"vehicle_type_id":"4","last_reported":1730463420,"current_range_meters":11200,"station_id":"ce4bhi12rcd13ifvqfo0","pricing_plan_id":"cebpf4jnsgd1na2vs0mg"},{"bike_id":"c6e4a079-806a-4ede-ab8d-9ffd423b37a0","system_id":"levelo_inurba_marseille","lat":43.26957,"lon":5.38627,"is_reserved":false,"is_disabled":false,"rental_uris":{"android":"levelo://app?vid=c6e4a079-806a-4ede-ab8d-9ffd423b37a0","ios":"levelo://app?vid=c6e4a079-806a-4ede-ab8d-9ffd423b37a0"},"vehicle_type_id":"4","last_reported":1730463420,"current_range_meters":38800,"station_id":"ce4bhh92rcd13ifvqfh0","pricing_plan_id":"cebpf4jnsgd1na2vs0mg"},{"bike_id":"fadda05f-95af-4152-ab41-ce3a2d7a3da6","system_id":"levelo_inurba_marseille","lat":43.27807,"lon":5.40705,"is_reserved":false,"is_disabled":false,"rental_uris":{"android":"levelo://app?vid=fadda05f-95af-4152-ab41-ce3a2d7a3da6","ios":"levelo://app?vid=fadda05f-95af-4152-ab41-ce3a2d7a3da6"},"vehicle_type_id":"4","last_reported":1730463420,"current_range_meters":34000,"station_id":"ce4bhnh2rcd13ifvqgtg","pricing_plan_id":"cebpf4jnsgd1na2vs0mg"},{"bike_id":"c3892579-34c0-4f4d-b3e9-6b40091087e9","system_id":"levelo_inurba_marseille","lat":43.28412,"lon":5.34989,"is_reserved":false,"is_disabled":false,"rental_uris":{"android":"levelo://app?vid=c3892579-34c0-4f4d-b3e9-6b40091087e9","ios":"levelo://app?vid=c3892579-34c0-4f4d-b3e9-6b40091087e9"},"vehicle_type_id":"4","last_reported":1730463420,"current_range_meters":14800,"station_id":"ce4bhbh2rcd13ifvqepg","pricing_plan_id":"cebpf4jnsgd1na2vs0mg"},{"bike_id":"f7cd2e11-9116-45d3-91bc-6140ce51beb9","system_id":"levelo_inurba_marseille","lat":43.28414,"lon":5.3498,"is_reserved":false,"is_disabled":false,"rental_uris":{"android":"levelo://app?vid=f7cd2e11-9116-45d3-91bc-6140ce51beb9","ios":"levelo://app?vid=f7cd2e11-9116-45d3-91bc-6140ce51beb9"},"vehicle_type_id":"4","last_reported":1730463420,"current_range_meters":32800,"station_id":"ce4bhbh2rcd13ifvqepg","pricing_plan_id":"cebpf4jnsgd1na2vs0mg"},{"bike_id":"ca211adf-b79e-4c48-88b9-6f08fbad3c50","system_id":"levelo_inurba_marseille","lat":43.31365,"lon":5.38495,"is_reserved":false,"is_disabled":false,"rental_uris":{"android":"levelo://app?vid=ca211adf-b79e-4c48-88b9-6f08fbad3c50","ios":"levelo://app?vid=ca211adf-b79e-4c48-88b9-6f08fbad3c50"},"vehicle_type_id":"4","last_reported":1730463420,"current_range_meters":39200,"station_id":"ce4bgt92rcd13ifvqcf0","pricing_plan_id":"cebpf4jnsgd1na2vs0mg"},{"bike_id":"16ed540f-86e3-4fd0-b1d5-fcb9926bdf04","system_id":"levelo_inurba_marseille","lat":43.31329,"lon":5.39683,"is_reserved":false,"is_disabled":false,"rental_uris":{"android":"levelo://app?vid=16ed540f-86e3-4fd0-b1d5-fcb9926bdf04","ios":"levelo://app?vid=16ed540f-86e3-4fd0-b1d5-fcb9926bdf04"},"vehicle_type_id":"4","last_reported":1730463420,"current_range_meters":35200,"station_id":"ce4bgvp2rcd13ifvqcu0","pricing_plan_id":"cebpf4jnsgd1na2vs0mg"},{"bike_id":"af4e9ea9-0a7b-461e-a196-6a3fb6b64b49","system_id":"levelo_inurba_marseille","lat":43.23196,"lon":5.35552,"is_reserved":false,"is_disabled":false,"rental_uris":{"android":"levelo://app?vid=af4e9ea9-0a7b-461e-a196-6a3fb6b64b49","ios":"levelo://app?vid=af4e9ea9-0a7b-461e-a196-6a3fb6b64b49"},"vehicle_type_id":"4","last_reported":1730463420,"current_range_meters":29600,"station_id":"ce4bhu92rcd13ifvqi70","pricing_plan_id":"cebpf4jnsgd1na2vs0mg"},{"bike_id":"89c34bd5-1deb-41c7-aa71-ca88b8fb379b","system_id":"levelo_inurba_marseille","lat":43.293167,"lon":5.374162,"is_reserved":false,"is_disabled":false,"rental_uris":{"android":"levelo://app?vid=89c34bd5-1deb-41c7-aa71-ca88b8fb379b","ios":"levelo://app?vid=89c34bd5-1deb-41c7-aa71-ca88b8fb379b"},"vehicle_type_id":"4","last_reported":1730463420,"current_range_meters":38400,"station_id":"ce4bht12rcd13ifvqi60","pricing_plan_id":"cebpf4jnsgd1na2vs0mg"},{"bike_id":"24df5884-c5b9-48a0-8fd8-fe6a4145860c","system_id":"levelo_inurba_marseille","lat":43.31361,"lon":5.38487,"is_reserved":false,"is_disabled":false,"rental_uris":{"android":"levelo://app?vid=24df5884-c5b9-48a0-8fd8-fe6a4145860c","ios":"levelo://app?vid=24df5884-c5b9-48a0-8fd8-fe6a4145860c"},"vehicle_type_id":"4","last_reported":1730463420,"current_range_meters":25600,"station_id":"ce4bgt92rcd13ifvqcf0","pricing_plan_id":"cebpf4jnsgd1na2vs0mg"},{"bike_id":"76ff0f0f-932d-42ef-8025-75058f5d06cb","system_id":"levelo_inurba_marseille","lat":43.28415,"lon":5.34973,"is_reserved":false,"is_disabled":false,"rental_uris":{"android":"levelo://app?vid=76ff0f0f-932d-42ef-8025-75058f5d06cb","ios":"levelo://app?vid=76ff0f0f-932d-42ef-8025-75058f5d06cb"},"vehicle_type_id":"4","last_reported":1730463420,"current_range_meters":33200,"station_id":"ce4bhbh2rcd13ifvqepg","pricing_plan_id":"cebpf4jnsgd1na2vs0mg"},{"bike_id":"73ca8e42-3ce6-4b72-bc63-52b2622b3955","system_id":"levelo_inurba_marseille","lat":43.28413,"lon":5.34987,"is_reserved":false,"is_disabled":false,"rental_uris":{"android":"levelo://app?vid=73ca8e42-3ce6-4b72-bc63-52b2622b3955","ios":"levelo://app?vid=73ca8e42-3ce6-4b72-bc63-52b2622b3955"},"vehicle_type_id":"4","last_reported":1730463420,"current_range_meters":8800,"station_id":"ce4bhbh2rcd13ifvqepg","pricing_plan_id":"cebpf4jnsgd1na2vs0mg"},{"bike_id":"02d4b013-8577-4f40-8be4-d36736342592","system_id":"levelo_inurba_marseille","lat":43.29226,"lon":5.36064,"is_reserved":false,"is_disabled":false,"rental_uris":{"android":"levelo://app?vid=02d4b013-8577-4f40-8be4-d36736342592","ios":"levelo://app?vid=02d4b013-8577-4f40-8be4-d36736342592"},"vehicle_type_id":"4","last_reported":1730463420,"current_range_meters":33200,"station_id":"ce4bhbh2rcd13ifvqeqg","pricing_plan_id":"cebpf4jnsgd1na2vs0mg"},{"bike_id":"e774631b-ad90-4388-b9e5-795e1ebd992c","system_id":"levelo_inurba_marseille","lat":43.23191,"lon":5.39986,"is_reserved":false,"is_disabled":false,"rental_uris":{"android":"levelo://app?vid=e774631b-ad90-4388-b9e5-795e1ebd992c","ios":"levelo://app?vid=e774631b-ad90-4388-b9e5-795e1ebd992c"},"vehicle_type_id":"4","last_reported":1730463420,"current_range_meters":17600,"station_id":"ce4bhn12rcd13ifvqgqg","pricing_plan_id":"cebpf4jnsgd1na2vs0mg"},{"bike_id":"5b1beb29-08c3-4517-96e1-89c4b727e0c3","system_id":"levelo_inurba_marseille","lat":43.23189,"lon":5.35546,"is_reserved":false,"is_disabled":false,"rental_uris":{"android":"levelo://app?vid=5b1beb29-08c3-4517-96e1-89c4b727e0c3","ios":"levelo://app?vid=5b1beb29-08c3-4517-96e1-89c4b727e0c3"},"vehicle_type_id":"4","last_reported":1730463420,"current_range_meters":30000,"station_id":"ce4bhu92rcd13ifvqi70","pricing_plan_id":"cebpf4jnsgd1na2vs0mg"},{"bike_id":"42339223-a189-48de-95fe-09a8463b21d6","system_id":"levelo_inurba_marseille","lat":43.30612,"lon":5.3722,"is_reserved":false,"is_disabled":false,"rental_uris":{"android":"levelo://app?vid=42339223-a189-48de-95fe-09a8463b21d6","ios":"levelo://app?vid=42339223-a189-48de-95fe-09a8463b21d6"},"vehicle_type_id":"4","last_reported":1730463420,"current_range_meters":24400,"station_id":"ce4bgqh2rcd13ifvqc4g","pricing_plan_id":"cebpf4jnsgd1na2vs0mg"},{"bike_id":"22fa888f-b999-4d92-80ad-500f3c9842f7","system_id":"levelo_inurba_marseille","lat":43.26556,"lon":5.37284,"is_reserved":false,"is_disabled":false,"rental_uris":{"android":"levelo://app?vid=22fa888f-b999-4d92-80ad-500f3c9842f7","ios":"levelo://app?vid=22fa888f-b999-4d92-80ad-500f3c9842f7"},"vehicle_type_id":"4","last_reported":1730463420,"current_range_meters":27200,"station_id":"ce4bhg12rcd13ifvqf70","pricing_plan_id":"cebpf4jnsgd1na2vs0mg"},{"bike_id":"68c00515-8a66-4ef6-adbd-b0bb74466dbc","system_id":"levelo_inurba_marseille","lat":43.26026,"lon":5.37544,"is_reserved":false,"is_disabled":false,"rental_uris":{"android":"levelo://app?vid=68c00515-8a66-4ef6-adbd-b0bb74466dbc","ios":"levelo://app?vid=68c00515-8a66-4ef6-adbd-b0bb74466dbc"},"vehicle_type_id":"4","last_reported":1730463420,"current_range_meters":32400,"station_id":"ce4bhgh2rcd13ifvqfa0","pricing_plan_id":"cebpf4jnsgd1na2vs0mg"},{"bike_id":"f99547b6-e0b7-4a86-b4bb-f600f8ca5cb2","system_id":"levelo_inurba_marseille","lat":43.2418,"lon":5.36396,"is_reserved":false,"is_disabled":false,"rental_uris":{"android":"levelo://app?vid=f99547b6-e0b7-4a86-b4bb-f600f8ca5cb2","ios":"levelo://app?vid=f99547b6-e0b7-4a86-b4bb-f600f8ca5cb2"},"vehicle_type_id":"4","last_reported":1730463420,"current_range_meters":6800,"station_id":"cpo36qri1sfpv3e86is0","pricing_plan_id":"cebpf4jnsgd1na2vs0mg"},{"bike_id":"06ba2035-774a-4f77-9b17-1034301a8dc2","system_id":"levelo_inurba_marseille","lat":43.24075,"lon":5.3776,"is_reserved":false,"is_disabled":false,"rental_uris":{"android":"levelo://app?vid=06ba2035-774a-4f77-9b17-1034301a8dc2","ios":"levelo://app?vid=06ba2035-774a-4f77-9b17-1034301a8dc2"},"vehicle_type_id":"4","last_reported":1730463420,"current_range_meters":28000,"station_id":"ce4bhnp2rcd13ifvqgvg","pricing_plan_id":"cebpf4jnsgd1na2vs0mg"},{"bike_id":"e6a6d45a-e190-43cb-8101-dd964c389a88","system_id":"levelo_inurba_marseille","lat":43.28411,"lon":5.34983,"is_reserved":false,"is_disabled":false,"rental_uris":{"android":"levelo://app?vid=e6a6d45a-e190-43cb-8101-dd964c389a88","ios":"levelo://app?vid=e6a6d45a-e190-43cb-8101-dd964c389a88"},"vehicle_type_id":"4","last_reported":1730463420,"current_range_meters":40000,"station_id":"ce4bhbh2rcd13ifvqepg","pricing_plan_id":"cebpf4jnsgd1na2vs0mg"},{"bike_id":"262d72a8-1daa-4e03-a7e1-bfba22c913af","system_id":"levelo_inurba_marseille","lat":43.30145,"lon":5.39868,"is_reserved":false,"is_disabled":false,"rental_uris":{"android":"levelo://app?vid=262d72a8-1daa-4e03-a7e1-bfba22c913af","ios":"levelo://app?vid=262d72a8-1daa-4e03-a7e1-bfba22c913af"},"vehicle_type_id":"4","last_reported":1730463420,"current_range_meters":16800,"station_id":"ce4bh0h2rcd13ifvqd40","pricing_plan_id":"cebpf4jnsgd1na2vs0mg"},{"bike_id":"794d23c0-def7-4557-a69a-112ea268f585","system_id":"levelo_inurba_marseille","lat":43.2319,"lon":5.35557,"is_reserved":false,"is_disabled":false,"rental_uris":{"android":"levelo://app?vid=794d23c0-def7-4557-a69a-112ea268f585","ios":"levelo://app?vid=794d23c0-def7-4557-a69a-112ea268f585"},"vehicle_type_id":"4","last_reported":1730463420,"current_range_meters":38800,"station_id":"ce4bhu92rcd13ifvqi70","pricing_plan_id":"cebpf4jnsgd1na2vs0mg"},{"bike_id":"aaee36e5-aab7-4615-a76b-0b16df2e2ea8","system_id":"levelo_inurba_marseille","lat":43.29792,"lon":5.38101,"is_reserved":false,"is_disabled":false,"rental_uris":{"android":"levelo://app?vid=aaee36e5-aab7-4615-a76b-0b16df2e2ea8","ios":"levelo://app?vid=aaee36e5-aab7-4615-a76b-0b16df2e2ea8"},"vehicle_type_id":"4","last_reported":1730463420,"current_range_meters":7200,"station_id":"ce4bgip2rcd13ifvqbb0","pricing_plan_id":"cebpf4jnsgd1na2vs0mg"},{"bike_id":"014a528d-bfc7-4a06-b291-920e2b31889a","system_id":"levelo_inurba_marseille","lat":43.30473,"lon":5.37902,"is_reserved":false,"is_disabled":false,"rental_uris":{"android":"levelo://app?vid=014a528d-bfc7-4a06-b291-920e2b31889a","ios":"levelo://app?vid=014a528d-bfc7-4a06-b291-920e2b31889a"},"vehicle_type_id":"4","last_reported":1730463420,"current_range_meters":18800,"station_id":"ce4bgup2rcd13ifvqcn0","pricing_plan_id":"cebpf4jnsgd1na2vs0mg"},{"bike_id":"5b47bee9-f12b-4463-a9ea-9906df86d508","system_id":"levelo_inurba_marseille","lat":43.27945,"lon":5.41049,"is_reserved":false,"is_disabled":false,"rental_uris":{"android":"levelo://app?vid=5b47bee9-f12b-4463-a9ea-9906df86d508","ios":"levelo://app?vid=5b47bee9-f12b-4463-a9ea-9906df86d508"},"vehicle_type_id":"4","last_reported":1730463420,"current_range_meters":9200,"station_id":"ce4bhnp2rcd13ifvqh0g","pricing_plan_id":"cebpf4jnsgd1na2vs0mg"},{"bike_id":"c9fe9305-e5b5-403a-8ac6-ee784523647c","system_id":"levelo_inurba_marseille","lat":43.23429,"lon":5.35935,"is_reserved":false,"is_disabled":false,"rental_uris":{"android":"levelo://app?vid=c9fe9305-e5b5-403a-8ac6-ee784523647c","ios":"levelo://app?vid=c9fe9305-e5b5-403a-8ac6-ee784523647c"},"vehicle_type_id":"4","last_reported":1730463420,"current_range_meters":23200,"station_id":"","pricing_plan_id":"cebpf4jnsgd1na2vs0mg"},{"bike_id":"fd526086-03a2-47d8-820f-56c3ecf01748","system_id":"levelo_inurba_marseille","lat":43.28263,"lon":5.35066,"is_reserved":false,"is_disabled":false,"rental_uris":{"android":"levelo://app?vid=fd526086-03a2-47d8-820f-56c3ecf01748","ios":"levelo://app?vid=fd526086-03a2-47d8-820f-56c3ecf01748"},"vehicle_type_id":"4","last_reported":1730463420,"current_range_meters":36000,"station_id":"ce4bhbp2rcd13ifvqerg","pricing_plan_id":"cebpf4jnsgd1na2vs0mg"},{"bike_id":"5ba87955-e74e-4064-81bd-6d0e81eb9dc4","system_id":"levelo_inurba_marseille","lat":43.28719,"lon":5.3795,"is_reserved":false,"is_disabled":false,"rental_uris":{"android":"levelo://app?vid=5ba87955-e74e-4064-81bd-6d0e81eb9dc4","ios":"levelo://app?vid=5ba87955-e74e-4064-81bd-6d0e81eb9dc4"},"vehicle_type_id":"4","last_reported":1730463420,"current_range_meters":31200,"station_id":"ce4bh9p2rcd13ifvqec0","pricing_plan_id":"cebpf4jnsgd1na2vs0mg"},{"bike_id":"7ebe2ce0-54e1-46d2-b52a-a3371d0b9628","system_id":"levelo_inurba_marseille","lat":43.29034,"lon":5.37576,"is_reserved":false,"is_disabled":false,"rental_uris":{"android":"levelo://app?vid=7ebe2ce0-54e1-46d2-b52a-a3371d0b9628","ios":"levelo://app?vid=7ebe2ce0-54e1-46d2-b52a-a3371d0b9628"},"vehicle_type_id":"4","last_reported":1730463420,"current_range_meters":3200,"station_id":"ce4bh692rcd13ifvqe90","pricing_plan_id":"cebpf4jnsgd1na2vs0mg"},{"bike_id":"9b097327-316a-4944-93b9-9ad4b05c9c23","system_id":"levelo_inurba_marseille","lat":43.30606,"lon":5.37219,"is_reserved":false,"is_disabled":false,"rental_uris":{"android":"levelo://app?vid=9b097327-316a-4944-93b9-9ad4b05c9c23","ios":"levelo://app?vid=9b097327-316a-4944-93b9-9ad4b05c9c23"},"vehicle_type_id":"4","last_reported":1730463420,"current_range_meters":39200,"station_id":"ce4bgqh2rcd13ifvqc4g","pricing_plan_id":"cebpf4jnsgd1na2vs0mg"},{"bike_id":"0e1c4dc1-4209-4de4-9342-d4adaa453edb","system_id":"levelo_inurba_marseille","lat":43.313325,"lon":5.396899,"is_reserved":false,"is_disabled":false,"rental_uris":{"android":"levelo://app?vid=0e1c4dc1-4209-4de4-9342-d4adaa453edb","ios":"levelo://app?vid=0e1c4dc1-4209-4de4-9342-d4adaa453edb"},"vehicle_type_id":"4","last_reported":1730463420,"current_range_meters":38000,"station_id":"ce4bgvp2rcd13ifvqcu0","pricing_plan_id":"cebpf4jnsgd1na2vs0mg"},{"bike_id":"68ee9e57-81bc-4ab4-adb1-b44853174ba9","system_id":"levelo_inurba_marseille","lat":43.23959,"lon":5.3664,"is_reserved":false,"is_disabled":false,"rental_uris":{"android":"levelo://app?vid=68ee9e57-81bc-4ab4-adb1-b44853174ba9","ios":"levelo://app?vid=68ee9e57-81bc-4ab4-adb1-b44853174ba9"},"vehicle_type_id":"4","last_reported":1730463420,"current_range_meters":32800,"station_id":"ce4bhi12rcd13ifvqfp0","pricing_plan_id":"cebpf4jnsgd1na2vs0mg"},{"bike_id":"f4ffd02a-9cc3-4dfe-a3e8-ee45dcf577d7","system_id":"levelo_inurba_marseille","lat":43.29967,"lon":5.38484,"is_reserved":false,"is_disabled":false,"rental_uris":{"android":"levelo://app?vid=f4ffd02a-9cc3-4dfe-a3e8-ee45dcf577d7","ios":"levelo://app?vid=f4ffd02a-9cc3-4dfe-a3e8-ee45dcf577d7"},"vehicle_type_id":"4","last_reported":1730463420,"current_range_meters":38800,"station_id":"ce4bgj92rcd13ifvqbd0","pricing_plan_id":"cebpf4jnsgd1na2vs0mg"},{"bike_id":"e41c7007-ff61-4cce-920e-1480ea2ab0c0","system_id":"levelo_inurba_marseille","lat":43.31689,"lon":5.40468,"is_reserved":false,"is_disabled":false,"rental_uris":{"android":"levelo://app?vid=e41c7007-ff61-4cce-920e-1480ea2ab0c0","ios":"levelo://app?vid=e41c7007-ff61-4cce-920e-1480ea2ab0c0"},"vehicle_type_id":"4","last_reported":1730463420,"current_range_meters":32400,"station_id":"ce4bh012rcd13ifvqd00","pricing_plan_id":"cebpf4jnsgd1na2vs0mg"},{"bike_id":"9ec840bf-7eae-4cd4-ba47-7fe85e292862","system_id":"levelo_inurba_marseille","lat":43.31223,"lon":5.3686,"is_reserved":false,"is_disabled":false,"rental_uris":{"android":"levelo://app?vid=9ec840bf-7eae-4cd4-ba47-7fe85e292862","ios":"levelo://app?vid=9ec840bf-7eae-4cd4-ba47-7fe85e292862"},"vehicle_type_id":"4","last_reported":1730463420,"current_range_meters":39200,"station_id":"ce4bgl92rcd13ifvqbq0","pricing_plan_id":"cebpf4jnsgd1na2vs0mg"},{"bike_id":"30514b68-f146-4b5d-b222-45696243c2e4","system_id":"levelo_inurba_marseille","lat":43.2508,"lon":5.39512,"is_reserved":false,"is_disabled":false,"rental_uris":{"android":"levelo://app?vid=30514b68-f146-4b5d-b222-45696243c2e4","ios":"levelo://app?vid=30514b68-f146-4b5d-b222-45696243c2e4"},"vehicle_type_id":"4","last_reported":1730463420,"current_range_meters":24000,"station_id":"ce4bhm12rcd13ifvqgkg","pricing_plan_id":"cebpf4jnsgd1na2vs0mg"},{"bike_id":"901c09b1-7d23-450b-a699-85fb678b973a","system_id":"levelo_inurba_marseille","lat":43.26951,"lon":5.38646,"is_reserved":false,"is_disabled":false,"rental_uris":{"android":"levelo://app?vid=901c09b1-7d23-450b-a699-85fb678b973a","ios":"levelo://app?vid=901c09b1-7d23-450b-a699-85fb678b973a"},"vehicle_type_id":"4","last_reported":1730463420,"current_range_meters":39200,"station_id":"ce4bhh92rcd13ifvqfh0","pricing_plan_id":"cebpf4jnsgd1na2vs0mg"},{"bike_id":"94e5a78a-7095-4be1-a4e8-698f69574a49","system_id":"levelo_inurba_marseille","lat":43.23197,"lon":5.35559,"is_reserved":false,"is_disabled":false,"rental_uris":{"android":"levelo://app?vid=94e5a78a-7095-4be1-a4e8-698f69574a49","ios":"levelo://app?vid=94e5a78a-7095-4be1-a4e8-698f69574a49"},"vehicle_type_id":"4","last_reported":1730463420,"current_range_meters":28800,"station_id":"ce4bhu92rcd13ifvqi70","pricing_plan_id":"cebpf4jnsgd1na2vs0mg"},{"bike_id":"e28f4cf4-aaa0-4089-94fb-a26e49eaf87d","system_id":"levelo_inurba_marseille","lat":43.23191,"lon":5.39989,"is_reserved":false,"is_disabled":false,"rental_uris":{"android":"levelo://app?vid=e28f4cf4-aaa0-4089-94fb-a26e49eaf87d","ios":"levelo://app?vid=e28f4cf4-aaa0-4089-94fb-a26e49eaf87d"},"vehicle_type_id":"4","last_reported":1730463420,"current_range_meters":6400,"station_id":"ce4bhn12rcd13ifvqgqg","pricing_plan_id":"cebpf4jnsgd1na2vs0mg"},{"bike_id":"982c7b34-606e-4c5f-a6f3-050ffb83d605","system_id":"levelo_inurba_marseille","lat":43.30538,"lon":5.36532,"is_reserved":false,"is_disabled":false,"rental_uris":{"android":"levelo://app?vid=982c7b34-606e-4c5f-a6f3-050ffb83d605","ios":"levelo://app?vid=982c7b34-606e-4c5f-a6f3-050ffb83d605"},"vehicle_type_id":"4","last_reported":1730463420,"current_range_meters":28800,"station_id":"ce4bgs12rcd13ifvqcag","pricing_plan_id":"cebpf4jnsgd1na2vs0mg"},{"bike_id":"b82e46bd-dd93-438e-8032-253c0ff00e77","system_id":"levelo_inurba_marseille","lat":43.28616,"lon":5.35107,"is_reserved":false,"is_disabled":false,"rental_uris":{"android":"levelo://app?vid=b82e46bd-dd93-438e-8032-253c0ff00e77","ios":"levelo://app?vid=b82e46bd-dd93-438e-8032-253c0ff00e77"},"vehicle_type_id":"4","last_reported":1730463420,"current_range_meters":33600,"station_id":"ce4bhch2rcd13ifvqeug","pricing_plan_id":"cebpf4jnsgd1na2vs0mg"},{"bike_id":"f2f7151d-0851-45dd-9987-340113844efd","system_id":"levelo_inurba_marseille","lat":43.29713,"lon":5.36604,"is_reserved":false,"is_disabled":false,"rental_uris":{"android":"levelo://app?vid=f2f7151d-0851-45dd-9987-340113844efd","ios":"levelo://app?vid=f2f7151d-0851-45dd-9987-340113844efd"},"vehicle_type_id":"4","last_reported":1730463420,"current_range_meters":23200,"station_id":"ce4bgn12rcd13ifvqbt0","pricing_plan_id":"cebpf4jnsgd1na2vs0mg"},{"bike_id":"df167e9b-f340-4140-9da7-d071fc2afcaf","system_id":"levelo_inurba_marseille","lat":43.28006,"lon":5.40018,"is_reserved":false,"is_disabled":false,"rental_uris":{"android":"levelo://app?vid=df167e9b-f340-4140-9da7-d071fc2afcaf","ios":"levelo://app?vid=df167e9b-f340-4140-9da7-d071fc2afcaf"},"vehicle_type_id":"4","last_reported":1730463420,"current_range_meters":36800,"station_id":"ce4bho92rcd13ifvqh4g","pricing_plan_id":"cebpf4jnsgd1na2vs0mg"},{"bike_id":"c5f3d3e2-faa8-41ed-8672-2e547238e49b","system_id":"levelo_inurba_marseille","lat":43.29979,"lon":5.38484,"is_reserved":false,"is_disabled":false,"rental_uris":{"android":"levelo://app?vid=c5f3d3e2-faa8-41ed-8672-2e547238e49b","ios":"levelo://app?vid=c5f3d3e2-faa8-41ed-8672-2e547238e49b"},"vehicle_type_id":"4","last_reported":1730463420,"current_range_meters":22000,"station_id":"ce4bgj92rcd13ifvqbd0","pricing_plan_id":"cebpf4jnsgd1na2vs0mg"},{"bike_id":"5a870385-f346-471d-9f88-ab03efe0f065","system_id":"levelo_inurba_marseille","lat":43.29923,"lon":5.37478,"is_reserved":false,"is_disabled":false,"rental_uris":{"android":"levelo://app?vid=5a870385-f346-471d-9f88-ab03efe0f065","ios":"levelo://app?vid=5a870385-f346-471d-9f88-ab03efe0f065"},"vehicle_type_id":"4","last_reported":1730463420,"current_range_meters":38800,"station_id":"ce4bgjh2rcd13ifvqbg0","pricing_plan_id":"cebpf4jnsgd1na2vs0mg"},{"bike_id":"b1355da5-28a8-45fb-8db2-48c70c69ab0f","system_id":"levelo_inurba_marseille","lat":43.30538,"lon":5.36532,"is_reserved":false,"is_disabled":false,"rental_uris":{"android":"levelo://app?vid=b1355da5-28a8-45fb-8db2-48c70c69ab0f","ios":"levelo://app?vid=b1355da5-28a8-45fb-8db2-48c70c69ab0f"},"vehicle_type_id":"4","last_reported":1730463420,"current_range_meters":38800,"station_id":"ce4bgs12rcd13ifvqcag","pricing_plan_id":"cebpf4jnsgd1na2vs0mg"},{"bike_id":"58748d2a-dff2-4bfe-ba69-a9beed25e62c","system_id":"levelo_inurba_marseille","lat":43.27112,"lon":5.39449,"is_reserved":false,"is_disabled":false,"rental_uris":{"android":"levelo://app?vid=58748d2a-dff2-4bfe-ba69-a9beed25e62c","ios":"levelo://app?vid=58748d2a-dff2-4bfe-ba69-a9beed25e62c"},"vehicle_type_id":"4","last_reported":1730463420,"current_range_meters":23200,"station_id":"","pricing_plan_id":"cebpf4jnsgd1na2vs0mg"},{"bike_id":"08ed22d7-663d-413b-8e4a-a32596a7792f","system_id":"levelo_inurba_marseille","lat":43.32489,"lon":5.41569,"is_reserved":false,"is_disabled":false,"rental_uris":{"android":"levelo://app?vid=08ed22d7-663d-413b-8e4a-a32596a7792f","ios":"levelo://app?vid=08ed22d7-663d-413b-8e4a-a32596a7792f"},"vehicle_type_id":"4","last_reported":1730463420,"current_range_meters":36800,"station_id":"","pricing_plan_id":"cebpf4jnsgd1na2vs0mg"},{"bike_id":"55db49d4-5a48-49c8-9207-c7b4fb027811","system_id":"levelo_inurba_marseille","lat":43.25007,"lon":5.38924,"is_reserved":false,"is_disabled":false,"rental_uris":{"android":"levelo://app?vid=55db49d4-5a48-49c8-9207-c7b4fb027811","ios":"levelo://app?vid=55db49d4-5a48-49c8-9207-c7b4fb027811"},"vehicle_type_id":"4","last_reported":1730463420,"current_range_meters":28000,"station_id":"ce4bhgp2rcd13ifvqfd0","pricing_plan_id":"cebpf4jnsgd1na2vs0mg"},{"bike_id":"819560b3-07b7-47c9-9936-06dfb2faf181","system_id":"levelo_inurba_marseille","lat":43.23193,"lon":5.35552,"is_reserved":false,"is_disabled":false,"rental_uris":{"android":"levelo://app?vid=819560b3-07b7-47c9-9936-06dfb2faf181","ios":"levelo://app?vid=819560b3-07b7-47c9-9936-06dfb2faf181"},"vehicle_type_id":"4","last_reported":1730463420,"current_range_meters":26000,"station_id":"ce4bhu92rcd13ifvqi70","pricing_plan_id":"cebpf4jnsgd1na2vs0mg"},{"bike_id":"1a41ee22-be49-4919-b27c-221ae4c1dbba","system_id":"levelo_inurba_marseille","lat":43.27573,"lon":5.38424,"is_reserved":false,"is_disabled":false,"rental_uris":{"android":"levelo://app?vid=1a41ee22-be49-4919-b27c-221ae4c1dbba","ios":"levelo://app?vid=1a41ee22-be49-4919-b27c-221ae4c1dbba"},"vehicle_type_id":"4","last_reported":1730463420,"current_range_meters":20000,"station_id":"ce4bhh92rcd13ifvqfi0","pricing_plan_id":"cebpf4jnsgd1na2vs0mg"},{"bike_id":"0578f089-57c6-46bd-8801-f6477c0c7a26","system_id":"levelo_inurba_marseille","lat":43.2848,"lon":5.38489,"is_reserved":false,"is_disabled":false,"rental_uris":{"android":"levelo://app?vid=0578f089-57c6-46bd-8801-f6477c0c7a26","ios":"levelo://app?vid=0578f089-57c6-46bd-8801-f6477c0c7a26"},"vehicle_type_id":"4","last_reported":1730463420,"current_range_meters":32400,"station_id":"","pricing_plan_id":"cebpf4jnsgd1na2vs0mg"},{"bike_id":"7761dfd7-5811-407a-97cf-83e9d6d36c83","system_id":"levelo_inurba_marseille","lat":43.23185,"lon":5.39987,"is_reserved":false,"is_disabled":false,"rental_uris":{"android":"levelo://app?vid=7761dfd7-5811-407a-97cf-83e9d6d36c83","ios":"levelo://app?vid=7761dfd7-5811-407a-97cf-83e9d6d36c83"},"vehicle_type_id":"4","last_reported":1730463420,"current_range_meters":40000,"station_id":"ce4bhn12rcd13ifvqgqg","pricing_plan_id":"cebpf4jnsgd1na2vs0mg"},{"bike_id":"05677470-d17c-4540-9ee5-f2e3eb340d9e","system_id":"levelo_inurba_marseille","lat":43.3028,"lon":5.37697,"is_reserved":false,"is_disabled":false,"rental_uris":{"android":"levelo://app?vid=05677470-d17c-4540-9ee5-f2e3eb340d9e","ios":"levelo://app?vid=05677470-d17c-4540-9ee5-f2e3eb340d9e"},"vehicle_type_id":"4","last_reported":1730463420,"current_range_meters":38400,"station_id":"ce4bguh2rcd13ifvqcj0","pricing_plan_id":"cebpf4jnsgd1na2vs0mg"},{"bike_id":"ed239b41-af43-4f0b-bb81-814199b4db42","system_id":"levelo_inurba_marseille","lat":43.28267,"lon":5.35067,"is_reserved":false,"is_disabled":false,"rental_uris":{"android":"levelo://app?vid=ed239b41-af43-4f0b-bb81-814199b4db42","ios":"levelo://app?vid=ed239b41-af43-4f0b-bb81-814199b4db42"},"vehicle_type_id":"4","last_reported":1730463420,"current_range_meters":12800,"station_id":"ce4bhbp2rcd13ifvqerg","pricing_plan_id":"cebpf4jnsgd1na2vs0mg"},{"bike_id":"906248c1-39c7-4260-a5d8-8569c06931b0","system_id":"levelo_inurba_marseille","lat":43.300666,"lon":5.40086,"is_reserved":false,"is_disabled":false,"rental_uris":{"android":"levelo://app?vid=906248c1-39c7-4260-a5d8-8569c06931b0","ios":"levelo://app?vid=906248c1-39c7-4260-a5d8-8569c06931b0"},"vehicle_type_id":"4","last_reported":1730463420,"current_range_meters":26000,"station_id":"ce4bh3p2rcd13ifvqdp0","pricing_plan_id":"cebpf4jnsgd1na2vs0mg"},{"bike_id":"94279a57-03c0-47b7-abe3-7226e86fd3b0","system_id":"levelo_inurba_marseille","lat":43.27612,"lon":5.36117,"is_reserved":false,"is_disabled":false,"rental_uris":{"android":"levelo://app?vid=94279a57-03c0-47b7-abe3-7226e86fd3b0","ios":"levelo://app?vid=94279a57-03c0-47b7-abe3-7226e86fd3b0"},"vehicle_type_id":"4","last_reported":1730463420,"current_range_meters":25600,"station_id":"ce4bgj92rcd13ifvqbe0","pricing_plan_id":"cebpf4jnsgd1na2vs0mg"},{"bike_id":"1264d7f1-7306-4ac2-8f74-ff61475acfbd","system_id":"levelo_inurba_marseille","lat":43.29225,"lon":5.36066,"is_reserved":false,"is_disabled":false,"rental_uris":{"android":"levelo://app?vid=1264d7f1-7306-4ac2-8f74-ff61475acfbd","ios":"levelo://app?vid=1264d7f1-7306-4ac2-8f74-ff61475acfbd"},"vehicle_type_id":"4","last_reported":1730463420,"current_range_meters":28000,"station_id":"ce4bhbh2rcd13ifvqeqg","pricing_plan_id":"cebpf4jnsgd1na2vs0mg"},{"bike_id":"864a552f-87dd-464a-977f-d7ea2d5d0d29","system_id":"levelo_inurba_marseille","lat":43.27621,"lon":5.36107,"is_reserved":false,"is_disabled":false,"rental_uris":{"android":"levelo://app?vid=864a552f-87dd-464a-977f-d7ea2d5d0d29","ios":"levelo://app?vid=864a552f-87dd-464a-977f-d7ea2d5d0d29"},"vehicle_type_id":"4","last_reported":1730463420,"current_range_meters":22400,"station_id":"ce4bgj92rcd13ifvqbe0","pricing_plan_id":"cebpf4jnsgd1na2vs0mg"},{"bike_id":"c97b97e3-8572-413d-a972-8b4265cd9cd0","system_id":"levelo_inurba_marseille","lat":43.2827,"lon":5.35062,"is_reserved":false,"is_disabled":false,"rental_uris":{"android":"levelo://app?vid=c97b97e3-8572-413d-a972-8b4265cd9cd0","ios":"levelo://app?vid=c97b97e3-8572-413d-a972-8b4265cd9cd0"},"vehicle_type_id":"4","last_reported":1730463420,"current_range_meters":38400,"station_id":"ce4bhbp2rcd13ifvqerg","pricing_plan_id":"cebpf4jnsgd1na2vs0mg"},{"bike_id":"a59de3a1-b5ee-4992-95d5-92d91d1b8221","system_id":"levelo_inurba_marseille","lat":43.25868,"lon":5.39903,"is_reserved":false,"is_disabled":false,"rental_uris":{"android":"levelo://app?vid=a59de3a1-b5ee-4992-95d5-92d91d1b8221","ios":"levelo://app?vid=a59de3a1-b5ee-4992-95d5-92d91d1b8221"},"vehicle_type_id":"4","last_reported":1730463420,"current_range_meters":32400,"station_id":"ce4bhl92rcd13ifvqghg","pricing_plan_id":"cebpf4jnsgd1na2vs0mg"},{"bike_id":"58c04fe8-e956-4a60-a577-664ac8be4713","system_id":"levelo_inurba_marseille","lat":43.30787,"lon":5.37649,"is_reserved":false,"is_disabled":false,"rental_uris":{"android":"levelo://app?vid=58c04fe8-e956-4a60-a577-664ac8be4713","ios":"levelo://app?vid=58c04fe8-e956-4a60-a577-664ac8be4713"},"vehicle_type_id":"4","last_reported":1730463420,"current_range_meters":33600,"station_id":"ce4bgv92rcd13ifvqcq0","pricing_plan_id":"cebpf4jnsgd1na2vs0mg"},{"bike_id":"ce7a9679-1309-4337-a277-05901a838b7d","system_id":"levelo_inurba_marseille","lat":43.29358,"lon":5.43437,"is_reserved":false,"is_disabled":false,"rental_uris":{"android":"levelo://app?vid=ce7a9679-1309-4337-a277-05901a838b7d","ios":"levelo://app?vid=ce7a9679-1309-4337-a277-05901a838b7d"},"vehicle_type_id":"4","last_reported":1730463420,"current_range_meters":17200,"station_id":"","pricing_plan_id":"cebpf4jnsgd1na2vs0mg"},{"bike_id":"16a994cc-3b5c-4ba7-b255-a03c2192e716","system_id":"levelo_inurba_marseille","lat":43.24073,"lon":5.37756,"is_reserved":false,"is_disabled":false,"rental_uris":{"android":"levelo://app?vid=16a994cc-3b5c-4ba7-b255-a03c2192e716","ios":"levelo://app?vid=16a994cc-3b5c-4ba7-b255-a03c2192e716"},"vehicle_type_id":"4","last_reported":1730463420,"current_range_meters":20800,"station_id":"ce4bhnp2rcd13ifvqgvg","pricing_plan_id":"cebpf4jnsgd1na2vs0mg"},{"bike_id":"1fe219b2-8626-414e-8d61-0586c316f82f","system_id":"levelo_inurba_marseille","lat":43.2549,"lon":5.37646,"is_reserved":false,"is_disabled":false,"rental_uris":{"android":"levelo://app?vid=1fe219b2-8626-414e-8d61-0586c316f82f","ios":"levelo://app?vid=1fe219b2-8626-414e-8d61-0586c316f82f"},"vehicle_type_id":"4","last_reported":1730463420,"current_range_meters":9200,"station_id":"ce4bhh12rcd13ifvqff0","pricing_plan_id":"cebpf4jnsgd1na2vs0mg"},{"bike_id":"dcb8f151-5f72-4ce7-a41b-c8f44dd67b21","system_id":"levelo_inurba_marseille","lat":43.31362,"lon":5.38498,"is_reserved":false,"is_disabled":false,"rental_uris":{"android":"levelo://app?vid=dcb8f151-5f72-4ce7-a41b-c8f44dd67b21","ios":"levelo://app?vid=dcb8f151-5f72-4ce7-a41b-c8f44dd67b21"},"vehicle_type_id":"4","last_reported":1730463420,"current_range_meters":38400,"station_id":"ce4bgt92rcd13ifvqcf0","pricing_plan_id":"cebpf4jnsgd1na2vs0mg"},{"bike_id":"fcaccd5c-23fb-4cc8-8931-ae330b22fb5a","system_id":"levelo_inurba_marseille","lat":43.23183,"lon":5.39987,"is_reserved":false,"is_disabled":false,"rental_uris":{"android":"levelo://app?vid=fcaccd5c-23fb-4cc8-8931-ae330b22fb5a","ios":"levelo://app?vid=fcaccd5c-23fb-4cc8-8931-ae330b22fb5a"},"vehicle_type_id":"4","last_reported":1730463420,"current_range_meters":28000,"station_id":"ce4bhn12rcd13ifvqgqg","pricing_plan_id":"cebpf4jnsgd1na2vs0mg"},{"bike_id":"86008901-30ea-4421-9db2-a092ed66c428","system_id":"levelo_inurba_marseille","lat":43.25729,"lon":5.41109,"is_reserved":false,"is_disabled":false,"rental_uris":{"android":"levelo://app?vid=86008901-30ea-4421-9db2-a092ed66c428","ios":"levelo://app?vid=86008901-30ea-4421-9db2-a092ed66c428"},"vehicle_type_id":"4","last_reported":1730463420,"current_range_meters":4000,"station_id":"ce4bhkp2rcd13ifvqgd0","pricing_plan_id":"cebpf4jnsgd1na2vs0mg"},{"bike_id":"15c2fccc-80f7-45d0-be8e-be15bb7eb1a0","system_id":"levelo_inurba_marseille","lat":43.30611,"lon":5.37229,"is_reserved":false,"is_disabled":false,"rental_uris":{"android":"levelo://app?vid=15c2fccc-80f7-45d0-be8e-be15bb7eb1a0","ios":"levelo://app?vid=15c2fccc-80f7-45d0-be8e-be15bb7eb1a0"},"vehicle_type_id":"4","last_reported":1730463420,"current_range_meters":38800,"station_id":"ce4bgqh2rcd13ifvqc4g","pricing_plan_id":"cebpf4jnsgd1na2vs0mg"},{"bike_id":"b7a9d8e8-c35d-4971-bd3f-c64a2bbcec4e","system_id":"levelo_inurba_marseille","lat":43.28277,"lon":5.35062,"is_reserved":false,"is_disabled":false,"rental_uris":{"android":"levelo://app?vid=b7a9d8e8-c35d-4971-bd3f-c64a2bbcec4e","ios":"levelo://app?vid=b7a9d8e8-c35d-4971-bd3f-c64a2bbcec4e"},"vehicle_type_id":"4","last_reported":1730463420,"current_range_meters":38800,"station_id":"ce4bhbp2rcd13ifvqerg","pricing_plan_id":"cebpf4jnsgd1na2vs0mg"},{"bike_id":"abada35d-2a86-4ca0-8d29-70ee5eba4bc2","system_id":"levelo_inurba_marseille","lat":43.27991,"lon":5.40018,"is_reserved":false,"is_disabled":false,"rental_uris":{"android":"levelo://app?vid=abada35d-2a86-4ca0-8d29-70ee5eba4bc2","ios":"levelo://app?vid=abada35d-2a86-4ca0-8d29-70ee5eba4bc2"},"vehicle_type_id":"4","last_reported":1730463420,"current_range_meters":39200,"station_id":"ce4bho92rcd13ifvqh4g","pricing_plan_id":"cebpf4jnsgd1na2vs0mg"},{"bike_id":"1cf0cba5-3056-405b-97f2-dc66d2d3d26e","system_id":"levelo_inurba_marseille","lat":43.32047,"lon":5.41547,"is_reserved":false,"is_disabled":false,"rental_uris":{"android":"levelo://app?vid=1cf0cba5-3056-405b-97f2-dc66d2d3d26e","ios":"levelo://app?vid=1cf0cba5-3056-405b-97f2-dc66d2d3d26e"},"vehicle_type_id":"4","last_reported":1730463420,"current_range_meters":36800,"station_id":"ce4bhq92rcd13ifvqhkg","pricing_plan_id":"cebpf4jnsgd1na2vs0mg"},{"bike_id":"59cee71b-6321-48c1-98bb-e47da0373653","system_id":"levelo_inurba_marseille","lat":43.24658,"lon":5.38159,"is_reserved":false,"is_disabled":false,"rental_uris":{"android":"levelo://app?vid=59cee71b-6321-48c1-98bb-e47da0373653","ios":"levelo://app?vid=59cee71b-6321-48c1-98bb-e47da0373653"},"vehicle_type_id":"4","last_reported":1730463420,"current_range_meters":34000,"station_id":"ce4bhih2rcd13ifvqfr0","pricing_plan_id":"cebpf4jnsgd1na2vs0mg"},{"bike_id":"446f6894-235d-408e-b780-032a54ad2cb7","system_id":"levelo_inurba_marseille","lat":43.28268,"lon":5.35059,"is_reserved":false,"is_disabled":false,"rental_uris":{"android":"levelo://app?vid=446f6894-235d-408e-b780-032a54ad2cb7","ios":"levelo://app?vid=446f6894-235d-408e-b780-032a54ad2cb7"},"vehicle_type_id":"4","last_reported":1730463420,"current_range_meters":38800,"station_id":"ce4bhbp2rcd13ifvqerg","pricing_plan_id":"cebpf4jnsgd1na2vs0mg"},{"bike_id":"1c26a1ca-7eb0-48c2-8ccb-f22a90dac2ea","system_id":"levelo_inurba_marseille","lat":43.336007,"lon":5.410383,"is_reserved":false,"is_disabled":false,"rental_uris":{"android":"levelo://app?vid=1c26a1ca-7eb0-48c2-8ccb-f22a90dac2ea","ios":"levelo://app?vid=1c26a1ca-7eb0-48c2-8ccb-f22a90dac2ea"},"vehicle_type_id":"4","last_reported":1730463420,"current_range_meters":11200,"station_id":"ce4bhqh2rcd13ifvqhmg","pricing_plan_id":"cebpf4jnsgd1na2vs0mg"},{"bike_id":"ffcea463-c3ed-497e-8095-385644b9476c","system_id":"levelo_inurba_marseille","lat":43.28415,"lon":5.34986,"is_reserved":false,"is_disabled":false,"rental_uris":{"android":"levelo://app?vid=ffcea463-c3ed-497e-8095-385644b9476c","ios":"levelo://app?vid=ffcea463-c3ed-497e-8095-385644b9476c"},"vehicle_type_id":"4","last_reported":1730463420,"current_range_meters":40000,"station_id":"ce4bhbh2rcd13ifvqepg","pricing_plan_id":"cebpf4jnsgd1na2vs0mg"},{"bike_id":"ae31f7aa-ec14-4090-9ea9-479b30ff0ee5","system_id":"levelo_inurba_marseille","lat":43.33604,"lon":5.41029,"is_reserved":false,"is_disabled":false,"rental_uris":{"android":"levelo://app?vid=ae31f7aa-ec14-4090-9ea9-479b30ff0ee5","ios":"levelo://app?vid=ae31f7aa-ec14-4090-9ea9-479b30ff0ee5"},"vehicle_type_id":"4","last_reported":1730463420,"current_range_meters":39200,"station_id":"ce4bhqh2rcd13ifvqhmg","pricing_plan_id":"cebpf4jnsgd1na2vs0mg"},{"bike_id":"3f862de1-3221-4cb5-b04f-a32f0115487e","system_id":"levelo_inurba_marseille","lat":43.25576,"lon":5.3823,"is_reserved":false,"is_disabled":false,"rental_uris":{"android":"levelo://app?vid=3f862de1-3221-4cb5-b04f-a32f0115487e","ios":"levelo://app?vid=3f862de1-3221-4cb5-b04f-a32f0115487e"},"vehicle_type_id":"4","last_reported":1730463420,"current_range_meters":23200,"station_id":"ce4bhih2rcd13ifvqfs0","pricing_plan_id":"cebpf4jnsgd1na2vs0mg"},{"bike_id":"8f893d83-6849-4ca0-9625-25a16ec411b6","system_id":"levelo_inurba_marseille","lat":43.29912,"lon":5.38133,"is_reserved":false,"is_disabled":false,"rental_uris":{"android":"levelo://app?vid=8f893d83-6849-4ca0-9625-25a16ec411b6","ios":"levelo://app?vid=8f893d83-6849-4ca0-9625-25a16ec411b6"},"vehicle_type_id":"4","last_reported":1730463420,"current_range_meters":12800,"station_id":"ce4bgj12rcd13ifvqbc0","pricing_plan_id":"cebpf4jnsgd1na2vs0mg"},{"bike_id":"190a282f-07bf-4ada-a670-f773d4ca36ca","system_id":"levelo_inurba_marseille","lat":43.30182,"lon":5.40055,"is_reserved":false,"is_disabled":false,"rental_uris":{"android":"levelo://app?vid=190a282f-07bf-4ada-a670-f773d4ca36ca","ios":"levelo://app?vid=190a282f-07bf-4ada-a670-f773d4ca36ca"},"vehicle_type_id":"4","last_reported":1730463420,"current_range_meters":18800,"station_id":"","pricing_plan_id":"cebpf4jnsgd1na2vs0mg"},{"bike_id":"c6ce217e-2e80-4d38-9aaf-7c0559c959fd","system_id":"levelo_inurba_marseille","lat":43.3112,"lon":5.37768,"is_reserved":false,"is_disabled":false,"rental_uris":{"android":"levelo://app?vid=c6ce217e-2e80-4d38-9aaf-7c0559c959fd","ios":"levelo://app?vid=c6ce217e-2e80-4d38-9aaf-7c0559c959fd"},"vehicle_type_id":"4","last_reported":1730463420,"current_range_meters":25600,"station_id":"ce4bgt92rcd13ifvqcg0","pricing_plan_id":"cebpf4jnsgd1na2vs0mg"},{"bike_id":"50101b24-25b4-4937-9c1a-2772becd211a","system_id":"levelo_inurba_marseille","lat":43.27817,"lon":5.4071,"is_reserved":false,"is_disabled":false,"rental_uris":{"android":"levelo://app?vid=50101b24-25b4-4937-9c1a-2772becd211a","ios":"levelo://app?vid=50101b24-25b4-4937-9c1a-2772becd211a"},"vehicle_type_id":"4","last_reported":1730463420,"current_range_meters":32000,"station_id":"ce4bhnh2rcd13ifvqgtg","pricing_plan_id":"cebpf4jnsgd1na2vs0mg"},{"bike_id":"df929ed3-557f-4e11-9511-f0d001c9bb7d","system_id":"levelo_inurba_marseille","lat":43.28412,"lon":5.3499,"is_reserved":false,"is_disabled":false,"rental_uris":{"android":"levelo://app?vid=df929ed3-557f-4e11-9511-f0d001c9bb7d","ios":"levelo://app?vid=df929ed3-557f-4e11-9511-f0d001c9bb7d"},"vehicle_type_id":"4","last_reported":1730463420,"current_range_meters":39200,"station_id":"ce4bhbh2rcd13ifvqepg","pricing_plan_id":"cebpf4jnsgd1na2vs0mg"},{"bike_id":"ff2b8f6d-0356-465d-9dfe-c642ea8d5d32","system_id":"levelo_inurba_marseille","lat":43.24392,"lon":5.37056,"is_reserved":false,"is_disabled":false,"rental_uris":{"android":"levelo://app?vid=ff2b8f6d-0356-465d-9dfe-c642ea8d5d32","ios":"levelo://app?vid=ff2b8f6d-0356-465d-9dfe-c642ea8d5d32"},"vehicle_type_id":"4","last_reported":1730463420,"current_range_meters":38800,"station_id":"ce4bhhh2rcd13ifvqfk0","pricing_plan_id":"cebpf4jnsgd1na2vs0mg"},{"bike_id":"9c0ce7c2-266b-456a-b600-aad012ecaf01","system_id":"levelo_inurba_marseille","lat":43.26198,"lon":5.37924,"is_reserved":false,"is_disabled":false,"rental_uris":{"android":"levelo://app?vid=9c0ce7c2-266b-456a-b600-aad012ecaf01","ios":"levelo://app?vid=9c0ce7c2-266b-456a-b600-aad012ecaf01"},"vehicle_type_id":"4","last_reported":1730463420,"current_range_meters":40000,"station_id":"ce4bhjp2rcd13ifvqg90","pricing_plan_id":"cebpf4jnsgd1na2vs0mg"},{"bike_id":"41d47d69-979b-4480-8fb6-135de4b1e8ff","system_id":"levelo_inurba_marseille","lat":43.2572,"lon":5.41112,"is_reserved":false,"is_disabled":false,"rental_uris":{"android":"levelo://app?vid=41d47d69-979b-4480-8fb6-135de4b1e8ff","ios":"levelo://app?vid=41d47d69-979b-4480-8fb6-135de4b1e8ff"},"vehicle_type_id":"4","last_reported":1730463420,"current_range_meters":38800,"station_id":"ce4bhkp2rcd13ifvqgd0","pricing_plan_id":"cebpf4jnsgd1na2vs0mg"},{"bike_id":"06680b63-9402-4c2d-bd8c-d5881e972d8b","system_id":"levelo_inurba_marseille","lat":43.24392,"lon":5.3706,"is_reserved":false,"is_disabled":false,"rental_uris":{"android":"levelo://app?vid=06680b63-9402-4c2d-bd8c-d5881e972d8b","ios":"levelo://app?vid=06680b63-9402-4c2d-bd8c-d5881e972d8b"},"vehicle_type_id":"4","last_reported":1730463420,"current_range_meters":35600,"station_id":"ce4bhhh2rcd13ifvqfk0","pricing_plan_id":"cebpf4jnsgd1na2vs0mg"},{"bike_id":"22d8b523-4931-4112-9512-97c85dbf6c67","system_id":"levelo_inurba_marseille","lat":43.30474,"lon":5.37906,"is_reserved":false,"is_disabled":false,"rental_uris":{"android":"levelo://app?vid=22d8b523-4931-4112-9512-97c85dbf6c67","ios":"levelo://app?vid=22d8b523-4931-4112-9512-97c85dbf6c67"},"vehicle_type_id":"4","last_reported":1730463420,"current_range_meters":20000,"station_id":"ce4bgup2rcd13ifvqcn0","pricing_plan_id":"cebpf4jnsgd1na2vs0mg"},{"bike_id":"8a7ab539-39eb-4eab-80f0-0313e301edf0","system_id":"levelo_inurba_marseille","lat":43.23188,"lon":5.39978,"is_reserved":false,"is_disabled":false,"rental_uris":{"android":"levelo://app?vid=8a7ab539-39eb-4eab-80f0-0313e301edf0","ios":"levelo://app?vid=8a7ab539-39eb-4eab-80f0-0313e301edf0"},"vehicle_type_id":"4","last_reported":1730463420,"current_range_meters":37600,"station_id":"ce4bhn12rcd13ifvqgqg","pricing_plan_id":"cebpf4jnsgd1na2vs0mg"},{"bike_id":"4a9d7537-2dd5-4a75-98a3-23872058e9bb","system_id":"levelo_inurba_marseille","lat":43.27994,"lon":5.41652,"is_reserved":false,"is_disabled":false,"rental_uris":{"android":"levelo://app?vid=4a9d7537-2dd5-4a75-98a3-23872058e9bb","ios":"levelo://app?vid=4a9d7537-2dd5-4a75-98a3-23872058e9bb"},"vehicle_type_id":"4","last_reported":1730463420,"current_range_meters":23200,"station_id":"ce4bho12rcd13ifvqh1g","pricing_plan_id":"cebpf4jnsgd1na2vs0mg"},{"bike_id":"ca6df5db-bce8-4a1b-8f52-e46a373150fb","system_id":"levelo_inurba_marseille","lat":43.31127,"lon":5.37759,"is_reserved":false,"is_disabled":false,"rental_uris":{"android":"levelo://app?vid=ca6df5db-bce8-4a1b-8f52-e46a373150fb","ios":"levelo://app?vid=ca6df5db-bce8-4a1b-8f52-e46a373150fb"},"vehicle_type_id":"4","last_reported":1730463420,"current_range_meters":40000,"station_id":"ce4bgt92rcd13ifvqcg0","pricing_plan_id":"cebpf4jnsgd1na2vs0mg"},{"bike_id":"7c7381d4-3892-400d-8965-70ce33dbd3c3","system_id":"levelo_inurba_marseille","lat":43.30132,"lon":5.39864,"is_reserved":false,"is_disabled":false,"rental_uris":{"android":"levelo://app?vid=7c7381d4-3892-400d-8965-70ce33dbd3c3","ios":"levelo://app?vid=7c7381d4-3892-400d-8965-70ce33dbd3c3"},"vehicle_type_id":"4","last_reported":1730463420,"current_range_meters":33200,"station_id":"ce4bh0h2rcd13ifvqd40","pricing_plan_id":"cebpf4jnsgd1na2vs0mg"},{"bike_id":"ccd8082f-4eaa-4ae4-adc5-97eeb13931db","system_id":"levelo_inurba_marseille","lat":43.29279,"lon":5.36835,"is_reserved":false,"is_disabled":false,"rental_uris":{"android":"levelo://app?vid=ccd8082f-4eaa-4ae4-adc5-97eeb13931db","ios":"levelo://app?vid=ccd8082f-4eaa-4ae4-adc5-97eeb13931db"},"vehicle_type_id":"4","last_reported":1730463420,"current_range_meters":32000,"station_id":"ce4bhbp2rcd13ifvqesg","pricing_plan_id":"cebpf4jnsgd1na2vs0mg"},{"bike_id":"64efa716-73a6-4337-be20-e0aa8d60f0de","system_id":"levelo_inurba_marseille","lat":43.27981,"lon":5.35794,"is_reserved":false,"is_disabled":false,"rental_uris":{"android":"levelo://app?vid=64efa716-73a6-4337-be20-e0aa8d60f0de","ios":"levelo://app?vid=64efa716-73a6-4337-be20-e0aa8d60f0de"},"vehicle_type_id":"4","last_reported":1730463420,"current_range_meters":33200,"station_id":"","pricing_plan_id":"cebpf4jnsgd1na2vs0mg"},{"bike_id":"2e679aa2-6222-4666-94d2-8febbbac34cf","system_id":"levelo_inurba_marseille","lat":43.28954,"lon":5.48092,"is_reserved":false,"is_disabled":false,"rental_uris":{"android":"levelo://app?vid=2e679aa2-6222-4666-94d2-8febbbac34cf","ios":"levelo://app?vid=2e679aa2-6222-4666-94d2-8febbbac34cf"},"vehicle_type_id":"4","last_reported":1730463420,"current_range_meters":6800,"station_id":"ce4bgvp2rcd13ifvqct0","pricing_plan_id":"cebpf4jnsgd1na2vs0mg"},{"bike_id":"752a9ff4-37f1-43b1-8203-a0cb720586d7","system_id":"levelo_inurba_marseille","lat":43.31276,"lon":5.40172,"is_reserved":false,"is_disabled":false,"rental_uris":{"android":"levelo://app?vid=752a9ff4-37f1-43b1-8203-a0cb720586d7","ios":"levelo://app?vid=752a9ff4-37f1-43b1-8203-a0cb720586d7"},"vehicle_type_id":"4","last_reported":1730463420,"current_range_meters":22400,"station_id":"ce4bh092rcd13ifvqd30","pricing_plan_id":"cebpf4jnsgd1na2vs0mg"},{"bike_id":"f37747ca-e9c4-427d-80e3-aee733adf11b","system_id":"levelo_inurba_marseille","lat":43.23059,"lon":5.35484,"is_reserved":false,"is_disabled":false,"rental_uris":{"android":"levelo://app?vid=f37747ca-e9c4-427d-80e3-aee733adf11b","ios":"levelo://app?vid=f37747ca-e9c4-427d-80e3-aee733adf11b"},"vehicle_type_id":"4","last_reported":1730463420,"current_range_meters":17600,"station_id":"cpo3342slgdg3j2ifvpg","pricing_plan_id":"cebpf4jnsgd1na2vs0mg"},{"bike_id":"a2b24b7e-5aba-4c80-bdb5-7c03d8640965","system_id":"levelo_inurba_marseille","lat":43.26024,"lon":5.37548,"is_reserved":false,"is_disabled":false,"rental_uris":{"android":"levelo://app?vid=a2b24b7e-5aba-4c80-bdb5-7c03d8640965","ios":"levelo://app?vid=a2b24b7e-5aba-4c80-bdb5-7c03d8640965"},"vehicle_type_id":"4","last_reported":1730463420,"current_range_meters":34800,"station_id":"ce4bhgh2rcd13ifvqfa0","pricing_plan_id":"cebpf4jnsgd1na2vs0mg"},{"bike_id":"e193daaa-854a-485a-a54c-7d9ec839457b","system_id":"levelo_inurba_marseille","lat":43.28272,"lon":5.3505,"is_reserved":false,"is_disabled":false,"rental_uris":{"android":"levelo://app?vid=e193daaa-854a-485a-a54c-7d9ec839457b","ios":"levelo://app?vid=e193daaa-854a-485a-a54c-7d9ec839457b"},"vehicle_type_id":"4","last_reported":1730463420,"current_range_meters":39200,"station_id":"ce4bhbp2rcd13ifvqerg","pricing_plan_id":"cebpf4jnsgd1na2vs0mg"},{"bike_id":"b88053c0-3809-4101-8975-e0f82a1bcb5d","system_id":"levelo_inurba_marseille","lat":43.30873,"lon":5.39708,"is_reserved":false,"is_disabled":false,"rental_uris":{"android":"levelo://app?vid=b88053c0-3809-4101-8975-e0f82a1bcb5d","ios":"levelo://app?vid=b88053c0-3809-4101-8975-e0f82a1bcb5d"},"vehicle_type_id":"4","last_reported":1730463420,"current_range_meters":14800,"station_id":"","pricing_plan_id":"cebpf4jnsgd1na2vs0mg"},{"bike_id":"1dca45a8-0336-4041-83cb-7a06ca40420d","system_id":"levelo_inurba_marseille","lat":43.23198,"lon":5.35553,"is_reserved":false,"is_disabled":false,"rental_uris":{"android":"levelo://app?vid=1dca45a8-0336-4041-83cb-7a06ca40420d","ios":"levelo://app?vid=1dca45a8-0336-4041-83cb-7a06ca40420d"},"vehicle_type_id":"4","last_reported":1730463420,"current_range_meters":9600,"station_id":"ce4bhu92rcd13ifvqi70","pricing_plan_id":"cebpf4jnsgd1na2vs0mg"},{"bike_id":"bec68f2e-41b4-40fe-86fe-ff86aa9a9f0b","system_id":"levelo_inurba_marseille","lat":43.29559,"lon":5.42286,"is_reserved":false,"is_disabled":false,"rental_uris":{"android":"levelo://app?vid=bec68f2e-41b4-40fe-86fe-ff86aa9a9f0b","ios":"levelo://app?vid=bec68f2e-41b4-40fe-86fe-ff86aa9a9f0b"},"vehicle_type_id":"4","last_reported":1730463420,"current_range_meters":30000,"station_id":"ce4bhph2rcd13ifvqhdg","pricing_plan_id":"cebpf4jnsgd1na2vs0mg"},{"bike_id":"116f8d73-d789-4d51-b444-7d3f7a1fc8d1","system_id":"levelo_inurba_marseille","lat":43.25579,"lon":5.38238,"is_reserved":false,"is_disabled":false,"rental_uris":{"android":"levelo://app?vid=116f8d73-d789-4d51-b444-7d3f7a1fc8d1","ios":"levelo://app?vid=116f8d73-d789-4d51-b444-7d3f7a1fc8d1"},"vehicle_type_id":"4","last_reported":1730463420,"current_range_meters":40000,"station_id":"ce4bhih2rcd13ifvqfs0","pricing_plan_id":"cebpf4jnsgd1na2vs0mg"},{"bike_id":"a8605633-68fa-409b-a815-475e925d2bf8","system_id":"levelo_inurba_marseille","lat":43.25901,"lon":5.38126,"is_reserved":false,"is_disabled":false,"rental_uris":{"android":"levelo://app?vid=a8605633-68fa-409b-a815-475e925d2bf8","ios":"levelo://app?vid=a8605633-68fa-409b-a815-475e925d2bf8"},"vehicle_type_id":"4","last_reported":1730463420,"current_range_meters":19200,"station_id":"ce4bhgp2rcd13ifvqfd0","pricing_plan_id":"cebpf4jnsgd1na2vs0mg"},{"bike_id":"a4d3867e-9221-45b9-8b6b-6567e09269dd","system_id":"levelo_inurba_marseille","lat":43.28419,"lon":5.34988,"is_reserved":false,"is_disabled":false,"rental_uris":{"android":"levelo://app?vid=a4d3867e-9221-45b9-8b6b-6567e09269dd","ios":"levelo://app?vid=a4d3867e-9221-45b9-8b6b-6567e09269dd"},"vehicle_type_id":"4","last_reported":1730463420,"current_range_meters":20400,"station_id":"ce4bhbh2rcd13ifvqepg","pricing_plan_id":"cebpf4jnsgd1na2vs0mg"},{"bike_id":"283a90a9-2107-4998-9f6d-69c1aea9fd4c","system_id":"levelo_inurba_marseille","lat":43.28932,"lon":5.36636,"is_reserved":false,"is_disabled":false,"rental_uris":{"android":"levelo://app?vid=283a90a9-2107-4998-9f6d-69c1aea9fd4c","ios":"levelo://app?vid=283a90a9-2107-4998-9f6d-69c1aea9fd4c"},"vehicle_type_id":"4","last_reported":1730463420,"current_range_meters":8800,"station_id":"ce4bhap2rcd13ifvqek0","pricing_plan_id":"cebpf4jnsgd1na2vs0mg"},{"bike_id":"71f0eac6-afac-4fb0-8c9a-d4d0f80c4719","system_id":"levelo_inurba_marseille","lat":43.30143,"lon":5.3742,"is_reserved":false,"is_disabled":false,"rental_uris":{"android":"levelo://app?vid=71f0eac6-afac-4fb0-8c9a-d4d0f80c4719","ios":"levelo://app?vid=71f0eac6-afac-4fb0-8c9a-d4d0f80c4719"},"vehicle_type_id":"4","last_reported":1730463420,"current_range_meters":36000,"station_id":"ce4bgs92rcd13ifvqcc0","pricing_plan_id":"cebpf4jnsgd1na2vs0mg"},{"bike_id":"ed279d38-b7eb-4b14-96b9-94c615824290","system_id":"levelo_inurba_marseille","lat":43.23189,"lon":5.35545,"is_reserved":false,"is_disabled":false,"rental_uris":{"android":"levelo://app?vid=ed279d38-b7eb-4b14-96b9-94c615824290","ios":"levelo://app?vid=ed279d38-b7eb-4b14-96b9-94c615824290"},"vehicle_type_id":"4","last_reported":1730463420,"current_range_meters":16000,"station_id":"ce4bhu92rcd13ifvqi70","pricing_plan_id":"cebpf4jnsgd1na2vs0mg"},{"bike_id":"8a747cb8-f6a1-4bc2-96fb-18e7dee5de4b","system_id":"levelo_inurba_marseille","lat":43.24647,"lon":5.38896,"is_reserved":false,"is_disabled":false,"rental_uris":{"android":"levelo://app?vid=8a747cb8-f6a1-4bc2-96fb-18e7dee5de4b","ios":"levelo://app?vid=8a747cb8-f6a1-4bc2-96fb-18e7dee5de4b"},"vehicle_type_id":"4","last_reported":1730463420,"current_range_meters":40000,"station_id":"ce4bhg12rcd13ifvqf60","pricing_plan_id":"cebpf4jnsgd1na2vs0mg"},{"bike_id":"05d7bf34-85f8-478d-b39a-77883222a38b","system_id":"levelo_inurba_marseille","lat":43.253235,"lon":5.380447,"is_reserved":false,"is_disabled":false,"rental_uris":{"android":"levelo://app?vid=05d7bf34-85f8-478d-b39a-77883222a38b","ios":"levelo://app?vid=05d7bf34-85f8-478d-b39a-77883222a38b"},"vehicle_type_id":"4","last_reported":1730463420,"current_range_meters":33200,"station_id":"cpo3532slgdg3j2ikp40","pricing_plan_id":"cebpf4jnsgd1na2vs0mg"},