{"last_updated":1679126949,"ttl":30,"version":"2.2","data":{"bikes":[{"bike_id":"803dc7b6-96e3-48f6-b6f7-0ece13589a20","system_id":"levelo_inurba_marseille","lat":43.312239,"lon":5.368562,"is_reserved":false,"is_disabled":false,"rental_uris":{"android":"levelo://app?vid=803dc7b6-96e3-48f6-b6f7-0ece13589a20","ios":"levelo://app?vid=803dc7b6-96e3-48f6-b6f7-0ece13589a20"},"vehicle_type_id":"4","last_reported":1679126950,"current_range_meters":31600,"station_id":"ce4bgl92rcd13ifvqbq0","pricing_plan_id":"free"},{"bike_id":"8afc7ba9-3a59-43be-9309-00fc6eaa8926","system_id":"levelo_inurba_marseille","lat":43.312327,"lon":5.368576,"is_reserved":false,"is_disabled":false,"rental_uris":{"android":"levelo://app?vid=8afc7ba9-3a59-43be-9309-00fc6eaa8926","ios":"levelo://app?vid=8afc7ba9-3a59-43be-9309-00fc6eaa8926"},"vehicle_type_id":"4","last_reported":1679126950,"current_range_meters":0,"station_id":"ce4bgl92rcd13ifvqbq0","pricing_plan_id":"free"},{"bike_id":"440388ab-9e2b-4678-b2ea-526bf76a04de","system_id":"levelo_inurba_marseille","lat":43.312239,"lon":5.368562,"is_reserved":false,"is_disabled":false,"rental_uris":{"android":"levelo://app?vid=440388ab-9e2b-4678-b2ea-526bf76a04de","ios":"levelo://app?vid=440388ab-9e2b-4678-b2ea-526bf76a04de"},"vehicle_type_id":"4","last_reported":1679126950,"current_range_meters":10400,"station_id":"ce4bgl92rcd13ifvqbq0","pricing_plan_id":"free"},{"bike_id":"f46f6600-05e2-4af2-8518-8901da92f3b4","system_id":"levelo_inurba_marseille","lat":43.312239,"lon":5.368562,"is_reserved":false,"is_disabled":false,"rental_uris":{"android":"levelo://app?vid=f46f6600-05e2-4af2-8518-8901da92f3b4","ios":"levelo://app?vid=f46f6600-05e2-4af2-8518-8901da92f3b4"},"vehicle_type_id":"4","last_reported":1679126950,"current_range_meters":24000,"station_id":"ce4bgl92rcd13ifvqbq0","pricing_plan_id":"free"},{"bike_id":"ec77d17b-3d8a-4849-8d05-a46891881a27","system_id":"levelo_inurba_marseille","lat":43.309076,"lon":5.368465,"is_reserved":false,"is_disabled":false,"rental_uris":{"android":"levelo://app?vid=ec77d17b-3d8a-4849-8d05-a46891881a27","ios":"levelo://app?vid=ec77d17b-3d8a-4849-8d05-a46891881a27"},"vehicle_type_id":"4","last_reported":1679126950,"current_range_meters":7200,"station_id":"ce4bgn92rcd13ifvqbvg","pricing_plan_id":"free"},{"bike_id":"9dc1d69d-a534-4e16-ae10-9803d7013a85","system_id":"levelo_inurba_marseille","lat":43.30902,"lon":5.36851,"is_reserved":false,"is_disabled":false,"rental_uris":{"android":"levelo://app?vid=9dc1d69d-a534-4e16-ae10-9803d7013a85","ios":"levelo://app?vid=9dc1d69d-a534-4e16-ae10-9803d7013a85"},"vehicle_type_id":"4","last_reported":1679126950,"current_range_meters":0,"station_id":"ce4bgn92rcd13ifvqbvg","pricing_plan_id":"free"},{"bike_id":"dc7d4cde-684c-4844-8469-77bb438b0636","system_id":"levelo_inurba_marseille","lat":43.306383,"lon":5.373597,"is_reserved":false,"is_disabled":false,"rental_uris":{"android":"levelo://app?vid=dc7d4cde-684c-4844-8469-77bb438b0636","ios":"levelo://app?vid=dc7d4cde-684c-4844-8469-77bb438b0636"},"vehicle_type_id":"4","last_reported":1679126950,"current_range_meters":20800,"station_id":"","pricing_plan_id":"free"},{"bike_id":"23feac4a-a32d-4de4-9283-3dfbe341767e","system_id":"levelo_inurba_marseille","lat":43.30182,"lon":5.36624,"is_reserved":false,"is_disabled":false,"rental_uris":{"android":"levelo://app?vid=23feac4a-a32d-4de4-9283-3dfbe341767e","ios":"levelo://app?vid=23feac4a-a32d-4de4-9283-3dfbe341767e"},"vehicle_type_id":"4","last_reported":1679126950,"current_range_meters":20800,"station_id":"ce4bgrh2rcd13ifvqc8g","pricing_plan_id":"free"},{"bike_id":"9ed1a953-372b-486e-8017-37efb97eab81","system_id":"levelo_inurba_marseille","lat":43.308012,"lon":5.381511,"is_reserved":false,"is_disabled":false,"rental_uris":{"android":"levelo://app?vid=9ed1a953-372b-486e-8017-37efb97eab81","ios":"levelo://app?vid=9ed1a953-372b-486e-8017-37efb97eab81"},"vehicle_type_id":"4","last_reported":1679126950,"current_range_meters":30000,"station_id":"ce4bgt12rcd13ifvqce0","pricing_plan_id":"free"},{"bike_id":"22a5ba70-e98c-431f-b717-0590a8556569","system_id":"levelo_inurba_marseille","lat":43.304606,"lon":5.379026,"is_reserved":false,"is_disabled":false,"rental_uris":{"android":"levelo://app?vid=22a5ba70-e98c-431f-b717-0590a8556569","ios":"levelo://app?vid=22a5ba70-e98c-431f-b717-0590a8556569"},"vehicle_type_id":"4","last_reported":1679126950,"current_range_meters":14800,"station_id":"ce4bgup2rcd13ifvqcn0","pricing_plan_id":"free"},{"bike_id":"ccb7cb81-a08b-4a80-b634-49d781948f2a","system_id":"levelo_inurba_marseille","lat":43.304606,"lon":5.379026,"is_reserved":false,"is_disabled":false,"rental_uris":{"android":"levelo://app?vid=ccb7cb81-a08b-4a80-b634-49d781948f2a","ios":"levelo://app?vid=ccb7cb81-a08b-4a80-b634-49d781948f2a"},"vehicle_type_id":"4","last_reported":1679126950,"current_range_meters":11600,"station_id":"ce4bgup2rcd13ifvqcn0","pricing_plan_id":"free"},{"bike_id":"86a1695f-8d3a-49a4-a453-56ee0fa93ad8","system_id":"levelo_inurba_marseille","lat":43.304606,"lon":5.379026,"is_reserved":false,"is_disabled":false,"rental_uris":{"android":"levelo://app?vid=86a1695f-8d3a-49a4-a453-56ee0fa93ad8","ios":"levelo://app?vid=86a1695f-8d3a-49a4-a453-56ee0fa93ad8"},"vehicle_type_id":"4","last_reported":1679126950,"current_range_meters":2800,"station_id":"ce4bgup2rcd13ifvqcn0","pricing_plan_id":"free"},{"bike_id":"b22106a0-ed63-4349-8c26-65287937eead","system_id":"levelo_inurba_marseille","lat":43.304606,"lon":5.379026,"is_reserved":false,"is_disabled":false,"rental_uris":{"android":"levelo://app?vid=b22106a0-ed63-4349-8c26-65287937eead","ios":"levelo://app?vid=b22106a0-ed63-4349-8c26-65287937eead"},"vehicle_type_id":"4","last_reported":1679126950,"current_range_meters":28800,"station_id":"ce4bgup2rcd13ifvqcn0","pricing_plan_id":"free"},{"bike_id":"8dfe030e-3667-48d5-a690-e89c3e4b390e","system_id":"levelo_inurba_marseille","lat":43.304606,"lon":5.379026,"is_reserved":false,"is_disabled":false,"rental_uris":{"android":"levelo://app?vid=8dfe030e-3667-48d5-a690-e89c3e4b390e","ios":"levelo://app?vid=8dfe030e-3667-48d5-a690-e89c3e4b390e"},"vehicle_type_id":"4","last_reported":1679126950,"current_range_meters":23600,"station_id":"ce4bgup2rcd13ifvqcn0","pricing_plan_id":"free"},{"bike_id":"9b1c0954-bd28-4f3e-8e50-21a11d03b2de","system_id":"levelo_inurba_marseille","lat":43.304606,"lon":5.379026,"is_reserved":false,"is_disabled":false,"rental_uris":{"android":"levelo://app?vid=9b1c0954-bd28-4f3e-8e50-21a11d03b2de","ios":"levelo://app?vid=9b1c0954-bd28-4f3e-8e50-21a11d03b2de"},"vehicle_type_id":"4","last_reported":1679126950,"current_range_meters":32000,"station_id":"ce4bgup2rcd13ifvqcn0","pricing_plan_id":"free"},{"bike_id":"8e0c1990-caad-4966-ba85-8ed89c312a78","system_id":"levelo_inurba_marseille","lat":43.304606,"lon":5.379026,"is_reserved":false,"is_disabled":false,"rental_uris":{"android":"levelo://app?vid=8e0c1990-caad-4966-ba85-8ed89c312a78","ios":"levelo://app?vid=8e0c1990-caad-4966-ba85-8ed89c312a78"},"vehicle_type_id":"4","last_reported":1679126950,"current_range_meters":31600,"station_id":"ce4bgup2rcd13ifvqcn0","pricing_plan_id":"free"},{"bike_id":"c07ca463-d1cc-4391-86d7-0bc7297bce20","system_id":"levelo_inurba_marseille","lat":43.304606,"lon":5.379026,"is_reserved":false,"is_disabled":false,"rental_uris":{"android":"levelo://app?vid=c07ca463-d1cc-4391-86d7-0bc7297bce20","ios":"levelo://app?vid=c07ca463-d1cc-4391-86d7-0bc7297bce20"},"vehicle_type_id":"4","last_reported":1679126950,"current_range_meters":20400,"station_id":"ce4bgup2rcd13ifvqcn0","pricing_plan_id":"free"},{"bike_id":"096808a2-fd42-4532-aa48-c36e618693ac","system_id":"levelo_inurba_marseille","lat":43.304606,"lon":5.379026,"is_reserved":false,"is_disabled":false,"rental_uris":{"android":"levelo://app?vid=096808a2-fd42-4532-aa48-c36e618693ac","ios":"levelo://app?vid=096808a2-fd42-4532-aa48-c36e618693ac"},"vehicle_type_id":"4","last_reported":1679126950,"current_range_meters":28800,"station_id":"ce4bgup2rcd13ifvqcn0","pricing_plan_id":"free"},{"bike_id":"1123aec2-47ee-449e-affc-38dd2367876f","system_id":"levelo_inurba_marseille","lat":43.301452,"lon":5.374048,"is_reserved":false,"is_disabled":false,"rental_uris":{"android":"levelo://app?vid=1123aec2-47ee-449e-affc-38dd2367876f","ios":"levelo://app?vid=1123aec2-47ee-449e-affc-38dd2367876f"},"vehicle_type_id":"4","last_reported":1679126950,"current_range_meters":0,"station_id":"ce4bgs92rcd13ifvqcc0","pricing_plan_id":"free"},{"bike_id":"aa8a24dd-3abb-4001-ba48-525401ce470c","system_id":"levelo_inurba_marseille","lat":43.301429,"lon":5.37413,"is_reserved":false,"is_disabled":false,"rental_uris":{"android":"levelo://app?vid=aa8a24dd-3abb-4001-ba48-525401ce470c","ios":"levelo://app?vid=aa8a24dd-3abb-4001-ba48-525401ce470c"},"vehicle_type_id":"4","last_reported":1679126950,"current_range_meters":12400,"station_id":"ce4bgs92rcd13ifvqcc0","pricing_plan_id":"free"},{"bike_id":"f4b0a75e-45ac-4821-9088-42d89a772d17","system_id":"levelo_inurba_marseille","lat":43.30143,"lon":5.37413,"is_reserved":false,"is_disabled":false,"rental_uris":{"android":"levelo://app?vid=f4b0a75e-45ac-4821-9088-42d89a772d17","ios":"levelo://app?vid=f4b0a75e-45ac-4821-9088-42d89a772d17"},"vehicle_type_id":"4","last_reported":1679126950,"current_range_meters":12000,"station_id":"ce4bgs92rcd13ifvqcc0","pricing_plan_id":"free"},{"bike_id":"9e16d1b4-f156-49c2-b098-a98585703250","system_id":"levelo_inurba_marseille","lat":43.313571,"lon":5.384829,"is_reserved":false,"is_disabled":false,"rental_uris":{"android":"levelo://app?vid=9e16d1b4-f156-49c2-b098-a98585703250","ios":"levelo://app?vid=9e16d1b4-f156-49c2-b098-a98585703250"},"vehicle_type_id":"4","last_reported":1679126950,"current_range_meters":31600,"station_id":"ce4bgt92rcd13ifvqcf0","pricing_plan_id":"free"},{"bike_id":"a02fe618-aa03-45c9-9814-cec7106dbf0c","system_id":"levelo_inurba_marseille","lat":43.313571,"lon":5.384829,"is_reserved":false,"is_disabled":false,"rental_uris":{"android":"levelo://app?vid=a02fe618-aa03-45c9-9814-cec7106dbf0c","ios":"levelo://app?vid=a02fe618-aa03-45c9-9814-cec7106dbf0c"},"vehicle_type_id":"4","last_reported":1679126950,"current_range_meters":31600,"station_id":"ce4bgt92rcd13ifvqcf0","pricing_plan_id":"free"},{"bike_id":"eb82bb88-e609-427a-abbe-8bf8e98da90a","system_id":"levelo_inurba_marseille","lat":43.313571,"lon":5.384829,"is_reserved":false,"is_disabled":false,"rental_uris":{"android":"levelo://app?vid=eb82bb88-e609-427a-abbe-8bf8e98da90a","ios":"levelo://app?vid=eb82bb88-e609-427a-abbe-8bf8e98da90a"},"vehicle_type_id":"4","last_reported":1679126950,"current_range_meters":30400,"station_id":"ce4bgt92rcd13ifvqcf0","pricing_plan_id":"free"},{"bike_id":"0ebc0d82-f320-4c03-be47-ca62777d99aa","system_id":"levelo_inurba_marseille","lat":43.313571,"lon":5.384829,"is_reserved":false,"is_disabled":false,"rental_uris":{"android":"levelo://app?vid=0ebc0d82-f320-4c03-be47-ca62777d99aa","ios":"levelo://app?vid=0ebc0d82-f320-4c03-be47-ca62777d99aa"},"vehicle_type_id":"4","last_reported":1679126950,"current_range_meters":14400,"station_id":"ce4bgt92rcd13ifvqcf0","pricing_plan_id":"free"},{"bike_id":"9801bd15-092b-4673-9f22-0aa89efc38ff","system_id":"levelo_inurba_marseille","lat":43.313571,"lon":5.384829,"is_reserved":false,"is_disabled":false,"rental_uris":{"android":"levelo://app?vid=9801bd15-092b-4673-9f22-0aa89efc38ff","ios":"levelo://app?vid=9801bd15-092b-4673-9f22-0aa89efc38ff"},"vehicle_type_id":"4","last_reported":1679126950,"current_range_meters":31600,"station_id":"ce4bgt92rcd13ifvqcf0","pricing_plan_id":"free"},{"bike_id":"ad22c3df-101c-48ed-814f-de8df946e1c5","system_id":"levelo_inurba_marseille","lat":43.313571,"lon":5.384829,"is_reserved":false,"is_disabled":false,"rental_uris":{"android":"levelo://app?vid=ad22c3df-101c-48ed-814f-de8df946e1c5","ios":"levelo://app?vid=ad22c3df-101c-48ed-814f-de8df946e1c5"},"vehicle_type_id":"4","last_reported":1679126950,"current_range_meters":31600,"station_id":"ce4bgt92rcd13ifvqcf0","pricing_plan_id":"free"},{"bike_id":"cfe52341-f8e2-4747-9b4d-afcf0d97a249","system_id":"levelo_inurba_marseille","lat":43.313571,"lon":5.384829,"is_reserved":false,"is_disabled":false,"rental_uris":{"android":"levelo://app?vid=cfe52341-f8e2-4747-9b4d-afcf0d97a249","ios":"levelo://app?vid=cfe52341-f8e2-4747-9b4d-afcf0d97a249"},"vehicle_type_id":"4","last_reported":1679126950,"current_range_meters":28000,"station_id":"ce4bgt92rcd13ifvqcf0","pricing_plan_id":"free"},{"bike_id":"8ad41629-0428-4a33-a7ac-3349a28950f6","system_id":"levelo_inurba_marseille","lat":43.313571,"lon":5.384829,"is_reserved":false,"is_disabled":false,"rental_uris":{"android":"levelo://app?vid=8ad41629-0428-4a33-a7ac-3349a28950f6","ios":"levelo://app?vid=8ad41629-0428-4a33-a7ac-3349a28950f6"},"vehicle_type_id":"4","last_reported":1679126950,"current_range_meters":31600,"station_id":"ce4bgt92rcd13ifvqcf0","pricing_plan_id":"free"},{"bike_id":"4eee1518-13f1-42d3-a976-3b1fa2bcd9f2","system_id":"levelo_inurba_marseille","lat":43.305364,"lon":5.384119,"is_reserved":false,"is_disabled":false,"rental_uris":{"android":"levelo://app?vid=4eee1518-13f1-42d3-a976-3b1fa2bcd9f2","ios":"levelo://app?vid=4eee1518-13f1-42d3-a976-3b1fa2bcd9f2"},"vehicle_type_id":"4","last_reported":1679126950,"current_range_meters":14000,"station_id":"ce4bgg92rcd13ifvqb30","pricing_plan_id":"free"},{"bike_id":"fc363293-c5ef-41d7-8bac-ed864940121b","system_id":"levelo_inurba_marseille","lat":43.305364,"lon":5.384119,"is_reserved":false,"is_disabled":false,"rental_uris":{"android":"levelo://app?vid=fc363293-c5ef-41d7-8bac-ed864940121b","ios":"levelo://app?vid=fc363293-c5ef-41d7-8bac-ed864940121b"},"vehicle_type_id":"4","last_reported":1679126950,"current_range_meters":8800,"station_id":"ce4bgg92rcd13ifvqb30","pricing_plan_id":"free"},{"bike_id":"46d175ba-cf57-4a96-9d3c-13ecb5222cb1","system_id":"levelo_inurba_marseille","lat":43.311722,"lon":5.387247,"is_reserved":false,"is_disabled":false,"rental_uris":{"android":"levelo://app?vid=46d175ba-cf57-4a96-9d3c-13ecb5222cb1","ios":"levelo://app?vid=46d175ba-cf57-4a96-9d3c-13ecb5222cb1"},"vehicle_type_id":"4","last_reported":1679126950,"current_range_meters":6400,"station_id":"ce4bgv12rcd13ifvqcp0","pricing_plan_id":"free"},{"bike_id":"c0260c51-3da4-4fe4-9b2e-383eaeb10360","system_id":"levelo_inurba_marseille","lat":43.305364,"lon":5.384119,"is_reserved":false,"is_disabled":false,"rental_uris":{"android":"levelo://app?vid=c0260c51-3da4-4fe4-9b2e-383eaeb10360","ios":"levelo://app?vid=c0260c51-3da4-4fe4-9b2e-383eaeb10360"},"vehicle_type_id":"4","last_reported":1679126950,"current_range_meters":31600,"station_id":"ce4bgg92rcd13ifvqb30","pricing_plan_id":"free"},{"bike_id":"98387c0e-78cc-4deb-990f-611eab5ee203","system_id":"levelo_inurba_marseille","lat":43.297816,"lon":5.371116,"is_reserved":false,"is_disabled":false,"rental_uris":{"android":"levelo://app?vid=98387c0e-78cc-4deb-990f-611eab5ee203","ios":"levelo://app?vid=98387c0e-78cc-4deb-990f-611eab5ee203"},"vehicle_type_id":"4","last_reported":1679126950,"current_range_meters":0,"station_id":"ce4bgop2rcd13ifvqc1g","pricing_plan_id":"free"},{"bike_id":"0c15564e-835a-46f5-b1fa-49dd0ec7c3a3","system_id":"levelo_inurba_marseille","lat":43.296921,"lon":5.376579,"is_reserved":false,"is_disabled":false,"rental_uris":{"android":"levelo://app?vid=0c15564e-835a-46f5-b1fa-49dd0ec7c3a3","ios":"levelo://app?vid=0c15564e-835a-46f5-b1fa-49dd0ec7c3a3"},"vehicle_type_id":"4","last_reported":1679126950,"current_range_meters":12000,"station_id":"ce4bgkh2rcd13ifvqbl0","pricing_plan_id":"free"},{"bike_id":"1832f088-542b-48da-867e-bc09b793ccd3","system_id":"levelo_inurba_marseille","lat":43.296921,"lon":5.376579,"is_reserved":false,"is_disabled":false,"rental_uris":{"android":"levelo://app?vid=1832f088-542b-48da-867e-bc09b793ccd3","ios":"levelo://app?vid=1832f088-542b-48da-867e-bc09b793ccd3"},"vehicle_type_id":"4","last_reported":1679126950,"current_range_meters":30000,"station_id":"ce4bgkh2rcd13ifvqbl0","pricing_plan_id":"free"},{"bike_id":"3e7c0631-bf90-482f-bf00-0667068d3044","system_id":"levelo_inurba_marseille","lat":43.299028,"lon":5.381509,"is_reserved":false,"is_disabled":false,"rental_uris":{"android":"levelo://app?vid=3e7c0631-bf90-482f-bf00-0667068d3044","ios":"levelo://app?vid=3e7c0631-bf90-482f-bf00-0667068d3044"},"vehicle_type_id":"4","last_reported":1679126950,"current_range_meters":24000,"station_id":"ce4bgj12rcd13ifvqbc0","pricing_plan_id":"free"},{"bike_id":"ac646901-52c3-42cf-a923-ed599f1a27a7","system_id":"levelo_inurba_marseille","lat":43.299028,"lon":5.381509,"is_reserved":false,"is_disabled":false,"rental_uris":{"android":"levelo://app?vid=ac646901-52c3-42cf-a923-ed599f1a27a7","ios":"levelo://app?vid=ac646901-52c3-42cf-a923-ed599f1a27a7"},"vehicle_type_id":"4","last_reported":1679126950,"current_range_meters":18400,"station_id":"ce4bgj12rcd13ifvqbc0","pricing_plan_id":"free"},{"bike_id":"ec30c648-9039-4750-a0b5-51730b9771bd","system_id":"levelo_inurba_marseille","lat":43.317557,"lon":5.390173,"is_reserved":false,"is_disabled":false,"rental_uris":{"android":"levelo://app?vid=ec30c648-9039-4750-a0b5-51730b9771bd","ios":"levelo://app?vid=ec30c648-9039-4750-a0b5-51730b9771bd"},"vehicle_type_id":"4","last_reported":1679126950,"current_range_meters":22000,"station_id":"ce4bhqp2rcd13ifvqhng","pricing_plan_id":"free"},{"bike_id":"4dafff6b-9621-4e2b-86a4-abd86b4f6566","system_id":"levelo_inurba_marseille","lat":43.317594,"lon":5.390149,"is_reserved":false,"is_disabled":false,"rental_uris":{"android":"levelo://app?vid=4dafff6b-9621-4e2b-86a4-abd86b4f6566","ios":"levelo://app?vid=4dafff6b-9621-4e2b-86a4-abd86b4f6566"},"vehicle_type_id":"4","last_reported":1679126950,"current_range_meters":0,"station_id":"ce4bhqp2rcd13ifvqhng","pricing_plan_id":"free"},{"bike_id":"66017a68-f4b0-43e1-b69d-4d55b826fcbe","system_id":"levelo_inurba_marseille","lat":43.317557,"lon":5.390173,"is_reserved":false,"is_disabled":false,"rental_uris":{"android":"levelo://app?vid=66017a68-f4b0-43e1-b69d-4d55b826fcbe","ios":"levelo://app?vid=66017a68-f4b0-43e1-b69d-4d55b826fcbe"},"vehicle_type_id":"4","last_reported":1679126950,"current_range_meters":26800,"station_id":"ce4bhqp2rcd13ifvqhng","pricing_plan_id":"free"},{"bike_id":"0dd82044-24a0-4753-a67a-2ac8767c190a","system_id":"levelo_inurba_marseille","lat":43.317557,"lon":5.390173,"is_reserved":false,"is_disabled":false,"rental_uris":{"android":"levelo://app?vid=0dd82044-24a0-4753-a67a-2ac8767c190a","ios":"levelo://app?vid=0dd82044-24a0-4753-a67a-2ac8767c190a"},"vehicle_type_id":"4","last_reported":1679126950,"current_range_meters":30000,"station_id":"ce4bhqp2rcd13ifvqhng","pricing_plan_id":"free"},{"bike_id":"e7d9d9f1-6d13-4c91-a0c0-b21489190405","system_id":"levelo_inurba_marseille","lat":43.317557,"lon":5.390173,"is_reserved":false,"is_disabled":false,"rental_uris":{"android":"levelo://app?vid=e7d9d9f1-6d13-4c91-a0c0-b21489190405","ios":"levelo://app?vid=e7d9d9f1-6d13-4c91-a0c0-b21489190405"},"vehicle_type_id":"4","last_reported":1679126950,"current_range_meters":28800,"station_id":"ce4bhqp2rcd13ifvqhng","pricing_plan_id":"free"},{"bike_id":"f34baf69-ad81-45f9-8332-5cf8992878de","system_id":"levelo_inurba_marseille","lat":43.29803,"lon":5.38085,"is_reserved":false,"is_disabled":false,"rental_uris":{"android":"levelo://app?vid=f34baf69-ad81-45f9-8332-5cf8992878de","ios":"levelo://app?vid=f34baf69-ad81-45f9-8332-5cf8992878de"},"vehicle_type_id":"4","last_reported":1679126950,"current_range_meters":31600,"station_id":"","pricing_plan_id":"free"},{"bike_id":"4576061b-4e20-431e-9a76-9688a6984ea2","system_id":"levelo_inurba_marseille","lat":43.29791,"lon":5.38074,"is_reserved":false,"is_disabled":false,"rental_uris":{"android":"levelo://app?vid=4576061b-4e20-431e-9a76-9688a6984ea2","ios":"levelo://app?vid=4576061b-4e20-431e-9a76-9688a6984ea2"},"vehicle_type_id":"4","last_reported":1679126950,"current_range_meters":31600,"station_id":"","pricing_plan_id":"free"},{"bike_id":"8048beb9-5b80-4a93-8537-b704e18d81f0","system_id":"levelo_inurba_marseille","lat":43.29792,"lon":5.380955,"is_reserved":false,"is_disabled":false,"rental_uris":{"android":"levelo://app?vid=8048beb9-5b80-4a93-8537-b704e18d81f0","ios":"levelo://app?vid=8048beb9-5b80-4a93-8537-b704e18d81f0"},"vehicle_type_id":"4","last_reported":1679126950,"current_range_meters":30800,"station_id":"ce4bgip2rcd13ifvqbb0","pricing_plan_id":"free"},{"bike_id":"f78fb5b2-a84d-4f69-9962-2ee5e1c7e33f","system_id":"levelo_inurba_marseille","lat":43.297947,"lon":5.381023,"is_reserved":false,"is_disabled":false,"rental_uris":{"android":"levelo://app?vid=f78fb5b2-a84d-4f69-9962-2ee5e1c7e33f","ios":"levelo://app?vid=f78fb5b2-a84d-4f69-9962-2ee5e1c7e33f"},"vehicle_type_id":"4","last_reported":1679126950,"current_range_meters":31600,"station_id":"","pricing_plan_id":"free"},{"bike_id":"a4743816-fd02-438d-b455-4608312ea0b7","system_id":"levelo_inurba_marseille","lat":43.304278,"lon":5.388868,"is_reserved":false,"is_disabled":false,"rental_uris":{"android":"levelo://app?vid=a4743816-fd02-438d-b455-4608312ea0b7","ios":"levelo://app?vid=a4743816-fd02-438d-b455-4608312ea0b7"},"vehicle_type_id":"4","last_reported":1679126950,"current_range_meters":31600,"station_id":"ce4bgk12rcd13ifvqbi0","pricing_plan_id":"free"},{"bike_id":"5d52592c-0d6c-4119-b079-88d3f5cc8582","system_id":"levelo_inurba_marseille","lat":43.304274,"lon":5.388873,"is_reserved":false,"is_disabled":false,"rental_uris":{"android":"levelo://app?vid=5d52592c-0d6c-4119-b079-88d3f5cc8582","ios":"levelo://app?vid=5d52592c-0d6c-4119-b079-88d3f5cc8582"},"vehicle_type_id":"4","last_reported":1679126950,"current_range_meters":31600,"station_id":"ce4bgk12rcd13ifvqbi0","pricing_plan_id":"free"},{"bike_id":"01dd920e-0b73-42e9-aa0d-fc6317fb5879","system_id":"levelo_inurba_marseille","lat":43.29792,"lon":5.38109,"is_reserved":false,"is_disabled":false,"rental_uris":{"android":"levelo://app?vid=01dd920e-0b73-42e9-aa0d-fc6317fb5879","ios":"levelo://app?vid=01dd920e-0b73-42e9-aa0d-fc6317fb5879"},"vehicle_type_id":"4","last_reported":1679126950,"current_range_meters":23200,"station_id":"ce4bgip2rcd13ifvqbb0","pricing_plan_id":"free"},{"bike_id":"f4e7065a-1a7e-4e30-a5bc-6f7fa259f6ba","system_id":"levelo_inurba_marseille","lat":43.304274,"lon":5.388873,"is_reserved":false,"is_disabled":false,"rental_uris":{"android":"levelo://app?vid=f4e7065a-1a7e-4e30-a5bc-6f7fa259f6ba","ios":"levelo://app?vid=f4e7065a-1a7e-4e30-a5bc-6f7fa259f6ba"},"vehicle_type_id":"4","last_reported":1679126950,"current_range_meters":30000,"station_id":"ce4bgk12rcd13ifvqbi0","pricing_plan_id":"free"},{"bike_id":"b2f2b181-4b8d-416e-898c-70991ec881b6","system_id":"levelo_inurba_marseille","lat":43.304274,"lon":5.388873,"is_reserved":false,"is_disabled":false,"rental_uris":{"android":"levelo://app?vid=b2f2b181-4b8d-416e-898c-70991ec881b6","ios":"levelo://app?vid=b2f2b181-4b8d-416e-898c-70991ec881b6"},"vehicle_type_id":"4","last_reported":1679126950,"current_range_meters":31600,"station_id":"ce4bgk12rcd13ifvqbi0","pricing_plan_id":"free"},{"bike_id":"8bc8b19c-5359-4257-808a-e49df457fb52","system_id":"levelo_inurba_marseille","lat":43.296263,"lon":5.377094,"is_reserved":false,"is_disabled":false,"rental_uris":{"android":"levelo://app?vid=8bc8b19c-5359-4257-808a-e49df457fb52","ios":"levelo://app?vid=8bc8b19c-5359-4257-808a-e49df457fb52"},"vehicle_type_id":"4","last_reported":1679126950,"current_range_meters":8400,"station_id":"ce4bgi92rcd13ifvqb90","pricing_plan_id":"free"},{"bike_id":"1bbf5843-ced7-46ca-93a0-e04ca618789b","system_id":"levelo_inurba_marseille","lat":43.304274,"lon":5.388873,"is_reserved":false,"is_disabled":false,"rental_uris":{"android":"levelo://app?vid=1bbf5843-ced7-46ca-93a0-e04ca618789b","ios":"levelo://app?vid=1bbf5843-ced7-46ca-93a0-e04ca618789b"},"vehicle_type_id":"4","last_reported":1679126950,"current_range_meters":24400,"station_id":"ce4bgk12rcd13ifvqbi0","pricing_plan_id":"free"},{"bike_id":"f4a582e6-064e-4feb-a642-bfaf9dc231d6","system_id":"levelo_inurba_marseille","lat":43.296042,"lon":5.377147,"is_reserved":false,"is_disabled":false,"rental_uris":{"android":"levelo://app?vid=f4a582e6-064e-4feb-a642-bfaf9dc231d6","ios":"levelo://app?vid=f4a582e6-064e-4feb-a642-bfaf9dc231d6"},"vehicle_type_id":"4","last_reported":1679126950,"current_range_meters":0,"station_id":"ce4bgi92rcd13ifvqb90","pricing_plan_id":"free"},{"bike_id":"e35d71fe-4222-47e7-9453-ceb791ad2c38","system_id":"levelo_inurba_marseille","lat":43.29603,"lon":5.377153,"is_reserved":false,"is_disabled":false,"rental_uris":{"android":"levelo://app?vid=e35d71fe-4222-47e7-9453-ceb791ad2c38","ios":"levelo://app?vid=e35d71fe-4222-47e7-9453-ceb791ad2c38"},"vehicle_type_id":"4","last_reported":1679126950,"current_range_meters":0,"station_id":"ce4bgi92rcd13ifvqb90","pricing_plan_id":"free"},{"bike_id":"ca631a77-fee9-4be7-8070-e664b7c89cf8","system_id":"levelo_inurba_marseille","lat":43.299724,"lon":5.384848,"is_reserved":false,"is_disabled":false,"rental_uris":{"android":"levelo://app?vid=ca631a77-fee9-4be7-8070-e664b7c89cf8","ios":"levelo://app?vid=ca631a77-fee9-4be7-8070-e664b7c89cf8"},"vehicle_type_id":"4","last_reported":1679126950,"current_range_meters":31600,"station_id":"ce4bgj92rcd13ifvqbd0","pricing_plan_id":"free"},{"bike_id":"cd74b07e-4439-4faa-b54f-159415ed0939","system_id":"levelo_inurba_marseille","lat":43.299724,"lon":5.384848,"is_reserved":false,"is_disabled":false,"rental_uris":{"android":"levelo://app?vid=cd74b07e-4439-4faa-b54f-159415ed0939","ios":"levelo://app?vid=cd74b07e-4439-4faa-b54f-159415ed0939"},"vehicle_type_id":"4","last_reported":1679126950,"current_range_meters":31600,"station_id":"ce4bgj92rcd13ifvqbd0","pricing_plan_id":"free"},{"bike_id":"f2e9ad0b-d069-4651-aa35-7fe402095be7","system_id":"levelo_inurba_marseille","lat":43.296263,"lon":5.377094,"is_reserved":false,"is_disabled":false,"rental_uris":{"android":"levelo://app?vid=f2e9ad0b-d069-4651-aa35-7fe402095be7","ios":"levelo://app?vid=f2e9ad0b-d069-4651-aa35-7fe402095be7"},"vehicle_type_id":"4","last_reported":1679126950,"current_range_meters":30400,"station_id":"ce4bgi92rcd13ifvqb90","pricing_plan_id":"free"},{"bike_id":"6441520a-99cb-47f1-83a6-e74ec2e25760","system_id":"levelo_inurba_marseille","lat":43.299724,"lon":5.384848,"is_reserved":false,"is_disabled":false,"rental_uris":{"android":"levelo://app?vid=6441520a-99cb-47f1-83a6-e74ec2e25760","ios":"levelo://app?vid=6441520a-99cb-47f1-83a6-e74ec2e25760"},"vehicle_type_id":"4","last_reported":1679126950,"current_range_meters":30000,"station_id":"ce4bgj92rcd13ifvqbd0","pricing_plan_id":"free"},{"bike_id":"70100082-d077-4ea2-b9c4-6cfa8ffaa675","system_id":"levelo_inurba_marseille","lat":43.323631,"lon":5.388786,"is_reserved":false,"is_disabled":false,"rental_uris":{"android":"levelo://app?vid=70100082-d077-4ea2-b9c4-6cfa8ffaa675","ios":"levelo://app?vid=70100082-d077-4ea2-b9c4-6cfa8ffaa675"},"vehicle_type_id":"4","last_reported":1679126950,"current_range_meters":10400,"station_id":"ce4bhqp2rcd13ifvqhog","pricing_plan_id":"free"},{"bike_id":"a5fe50d9-061a-4cd5-a94b-10089754ee9e","system_id":"levelo_inurba_marseille","lat":43.32367,"lon":5.388836,"is_reserved":false,"is_disabled":false,"rental_uris":{"android":"levelo://app?vid=a5fe50d9-061a-4cd5-a94b-10089754ee9e","ios":"levelo://app?vid=a5fe50d9-061a-4cd5-a94b-10089754ee9e"},"vehicle_type_id":"4","last_reported":1679126950,"current_range_meters":8800,"station_id":"ce4bhqp2rcd13ifvqhog","pricing_plan_id":"free"},{"bike_id":"38bdb383-7422-4d95-b975-4502a8dfee4d","system_id":"levelo_inurba_marseille","lat":43.323651,"lon":5.388787,"is_reserved":false,"is_disabled":false,"rental_uris":{"android":"levelo://app?vid=38bdb383-7422-4d95-b975-4502a8dfee4d","ios":"levelo://app?vid=38bdb383-7422-4d95-b975-4502a8dfee4d"},"vehicle_type_id":"4","last_reported":1679126950,"current_range_meters":21200,"station_id":"","pricing_plan_id":"free"},{"bike_id":"334269ac-69e9-4862-9c8e-a7d433b09adf","system_id":"levelo_inurba_marseille","lat":43.32365,"lon":5.3888,"is_reserved":false,"is_disabled":false,"rental_uris":{"android":"levelo://app?vid=334269ac-69e9-4862-9c8e-a7d433b09adf","ios":"levelo://app?vid=334269ac-69e9-4862-9c8e-a7d433b09adf"},"vehicle_type_id":"4","last_reported":1679126950,"current_range_meters":20800,"station_id":"ce4bhqp2rcd13ifvqhog","pricing_plan_id":"free"},{"bike_id":"0697f7c4-7ca8-4885-ad60-f38638fd912d","system_id":"levelo_inurba_marseille","lat":43.32367,"lon":5.388836,"is_reserved":false,"is_disabled":false,"rental_uris":{"android":"levelo://app?vid=0697f7c4-7ca8-4885-ad60-f38638fd912d","ios":"levelo://app?vid=0697f7c4-7ca8-4885-ad60-f38638fd912d"},"vehicle_type_id":"4","last_reported":1679126950,"current_range_meters":19200,"station_id":"ce4bhqp2rcd13ifvqhog","pricing_plan_id":"free"},{"bike_id":"5fffa38b-9798-493f-a8ec-522c9a5b701c","system_id":"levelo_inurba_marseille","lat":43.32368,"lon":5.38884,"is_reserved":false,"is_disabled":false,"rental_uris":{"android":"levelo://app?vid=5fffa38b-9798-493f-a8ec-522c9a5b701c","ios":"levelo://app?vid=5fffa38b-9798-493f-a8ec-522c9a5b701c"},"vehicle_type_id":"4","last_reported":1679126950,"current_range_meters":28000,"station_id":"ce4bhqp2rcd13ifvqhog","pricing_plan_id":"free"},{"bike_id":"f75ba49f-dcfc-40a3-9b22-13c80f1980f2","system_id":"levelo_inurba_marseille","lat":43.313291,"lon":5.396838,"is_reserved":false,"is_disabled":false,"rental_uris":{"android":"levelo://app?vid=f75ba49f-dcfc-40a3-9b22-13c80f1980f2","ios":"levelo://app?vid=f75ba49f-dcfc-40a3-9b22-13c80f1980f2"},"vehicle_type_id":"4","last_reported":1679126950,"current_range_meters":31600,"station_id":"ce4bgvp2rcd13ifvqcu0","pricing_plan_id":"free"},{"bike_id":"d7410f75-77fa-476c-867e-f2a201d97511","system_id":"levelo_inurba_marseille","lat":43.313291,"lon":5.396838,"is_reserved":false,"is_disabled":false,"rental_uris":{"android":"levelo://app?vid=d7410f75-77fa-476c-867e-f2a201d97511","ios":"levelo://app?vid=d7410f75-77fa-476c-867e-f2a201d97511"},"vehicle_type_id":"4","last_reported":1679126950,"current_range_meters":31600,"station_id":"ce4bgvp2rcd13ifvqcu0","pricing_plan_id":"free"},{"bike_id":"ab09d664-4b52-4e09-a0f3-cbdb4f76a9f7","system_id":"levelo_inurba_marseille","lat":43.313291,"lon":5.396838,"is_reserved":false,"is_disabled":false,"rental_uris":{"android":"levelo://app?vid=ab09d664-4b52-4e09-a0f3-cbdb4f76a9f7","ios":"levelo://app?vid=ab09d664-4b52-4e09-a0f3-cbdb4f76a9f7"},"vehicle_type_id":"4","last_reported":1679126950,"current_range_meters":14800,"station_id":"ce4bgvp2rcd13ifvqcu0","pricing_plan_id":"free"},{"bike_id":"486beaed-628f-4bcc-ba3b-e0de696bd3dc","system_id":"levelo_inurba_marseille","lat":43.322102,"lon":5.394253,"is_reserved":false,"is_disabled":false,"rental_uris":{"android":"levelo://app?vid=486beaed-628f-4bcc-ba3b-e0de696bd3dc","ios":"levelo://app?vid=486beaed-628f-4bcc-ba3b-e0de696bd3dc"},"vehicle_type_id":"4","last_reported":1679126950,"current_range_meters":11600,"station_id":"","pricing_plan_id":"free"},{"bike_id":"acc91077-7360-4891-8b09-aaade952a2e9","system_id":"levelo_inurba_marseille","lat":43.29586,"lon":5.38666,"is_reserved":false,"is_disabled":false,"rental_uris":{"android":"levelo://app?vid=acc91077-7360-4891-8b09-aaade952a2e9","ios":"levelo://app?vid=acc91077-7360-4891-8b09-aaade952a2e9"},"vehicle_type_id":"4","last_reported":1679126950,"current_range_meters":0,"station_id":"","pricing_plan_id":"free"},{"bike_id":"3fb00d1d-192b-4f24-9447-39170ed6d66a","system_id":"levelo_inurba_marseille","lat":43.302008,"lon":5.394694,"is_reserved":false,"is_disabled":false,"rental_uris":{"android":"levelo://app?vid=3fb00d1d-192b-4f24-9447-39170ed6d66a","ios":"levelo://app?vid=3fb00d1d-192b-4f24-9447-39170ed6d66a"},"vehicle_type_id":"4","last_reported":1679126950,"current_range_meters":29200,"station_id":"ce4bh0p2rcd13ifvqd70","pricing_plan_id":"free"},{"bike_id":"c4940e3e-24ab-483a-9ed1-1dae48df7b22","system_id":"levelo_inurba_marseille","lat":43.302008,"lon":5.394694,"is_reserved":false,"is_disabled":false,"rental_uris":{"android":"levelo://app?vid=c4940e3e-24ab-483a-9ed1-1dae48df7b22","ios":"levelo://app?vid=c4940e3e-24ab-483a-9ed1-1dae48df7b22"},"vehicle_type_id":"4","last_reported":1679126950,"current_range_meters":8000,"station_id":"ce4bh0p2rcd13ifvqd70","pricing_plan_id":"free"},{"bike_id":"6b5c0500-aba8-409f-b8c6-38d835a3b20e","system_id":"levelo_inurba_marseille","lat":43.302008,"lon":5.394694,"is_reserved":false,"is_disabled":false,"rental_uris":{"android":"levelo://app?vid=6b5c0500-aba8-409f-b8c6-38d835a3b20e","ios":"levelo://app?vid=6b5c0500-aba8-409f-b8c6-38d835a3b20e"},"vehicle_type_id":"4","last_reported":1679126950,"current_range_meters":5200,"station_id":"ce4bh0p2rcd13ifvqd70","pricing_plan_id":"free"},{"bike_id":"bb0c58ec-bc5c-4742-9790-10d90351647b","system_id":"levelo_inurba_marseille","lat":43.289285,"lon":5.363914,"is_reserved":false,"is_disabled":false,"rental_uris":{"android":"levelo://app?vid=bb0c58ec-bc5c-4742-9790-10d90351647b","ios":"levelo://app?vid=bb0c58ec-bc5c-4742-9790-10d90351647b"},"vehicle_type_id":"4","last_reported":1679126950,"current_range_meters":25200,"station_id":"","pricing_plan_id":"free"},{"bike_id":"f847b704-6879-4d79-a6d3-d7aee1d10960","system_id":"levelo_inurba_marseille","lat":43.33011,"lon":5.38904,"is_reserved":false,"is_disabled":false,"rental_uris":{"android":"levelo://app?vid=f847b704-6879-4d79-a6d3-d7aee1d10960","ios":"levelo://app?vid=f847b704-6879-4d79-a6d3-d7aee1d10960"},"vehicle_type_id":"4","last_reported":1679126950,"current_range_meters":7200,"station_id":"","pricing_plan_id":"free"},{"bike_id":"db103031-3e1e-4206-a8e2-ecf9a0a7dbfd","system_id":"levelo_inurba_marseille","lat":43.29273,"lon":5.38434,"is_reserved":false,"is_disabled":false,"rental_uris":{"android":"levelo://app?vid=db103031-3e1e-4206-a8e2-ecf9a0a7dbfd","ios":"levelo://app?vid=db103031-3e1e-4206-a8e2-ecf9a0a7dbfd"},"vehicle_type_id":"4","last_reported":1679126950,"current_range_meters":31600,"station_id":"ce4bh692rcd13ifvqea0","pricing_plan_id":"free"},{"bike_id":"3c6160f1-3f83-44d5-b389-7ff9a9a15d34","system_id":"levelo_inurba_marseille","lat":43.29263,"lon":5.38447,"is_reserved":false,"is_disabled":false,"rental_uris":{"android":"levelo://app?vid=3c6160f1-3f83-44d5-b389-7ff9a9a15d34","ios":"levelo://app?vid=3c6160f1-3f83-44d5-b389-7ff9a9a15d34"},"vehicle_type_id":"4","last_reported":1679126950,"current_range_meters":31600,"station_id":"","pricing_plan_id":"free"},{"bike_id":"b799def0-bf00-4409-9ba7-8bddf8c3051d","system_id":"levelo_inurba_marseille","lat":43.330442,"lon":5.389148,"is_reserved":false,"is_disabled":false,"rental_uris":{"android":"levelo://app?vid=b799def0-bf00-4409-9ba7-8bddf8c3051d","ios":"levelo://app?vid=b799def0-bf00-4409-9ba7-8bddf8c3051d"},"vehicle_type_id":"4","last_reported":1679126950,"current_range_meters":30000,"station_id":"ce4bhr92rcd13ifvqhrg","pricing_plan_id":"free"},{"bike_id":"23ea9f68-ae8c-426e-bd80-5d4f6a9bb37d","system_id":"levelo_inurba_marseille","lat":43.330442,"lon":5.389148,"is_reserved":false,"is_disabled":false,"rental_uris":{"android":"levelo://app?vid=23ea9f68-ae8c-426e-bd80-5d4f6a9bb37d","ios":"levelo://app?vid=23ea9f68-ae8c-426e-bd80-5d4f6a9bb37d"},"vehicle_type_id":"4","last_reported":1679126950,"current_range_meters":17200,"station_id":"ce4bhr92rcd13ifvqhrg","pricing_plan_id":"free"},{"bike_id":"d74aa3e9-0c22-406f-a29f-3cd2f43e1816","system_id":"levelo_inurba_marseille","lat":43.330442,"lon":5.389148,"is_reserved":false,"is_disabled":false,"rental_uris":{"android":"levelo://app?vid=d74aa3e9-0c22-406f-a29f-3cd2f43e1816","ios":"levelo://app?vid=d74aa3e9-0c22-406f-a29f-3cd2f43e1816"},"vehicle_type_id":"4","last_reported":1679126950,"current_range_meters":16800,"station_id":"ce4bhr92rcd13ifvqhrg","pricing_plan_id":"free"},{"bike_id":"9dad7b6d-05a6-4811-8d70-d0de5b51c2d7","system_id":"levelo_inurba_marseille","lat":43.330434,"lon":5.389181,"is_reserved":false,"is_disabled":false,"rental_uris":{"android":"levelo://app?vid=9dad7b6d-05a6-4811-8d70-d0de5b51c2d7","ios":"levelo://app?vid=9dad7b6d-05a6-4811-8d70-d0de5b51c2d7"},"vehicle_type_id":"4","last_reported":1679126950,"current_range_meters":0,"station_id":"","pricing_plan_id":"free"},{"bike_id":"524de86b-2883-4a80-b759-f083c92aa20c","system_id":"levelo_inurba_marseille","lat":43.330442,"lon":5.389148,"is_reserved":false,"is_disabled":false,"rental_uris":{"android":"levelo://app?vid=524de86b-2883-4a80-b759-f083c92aa20c","ios":"levelo://app?vid=524de86b-2883-4a80-b759-f083c92aa20c"},"vehicle_type_id":"4","last_reported":1679126950,"current_range_meters":9200,"station_id":"ce4bhr92rcd13ifvqhrg","pricing_plan_id":"free"},{"bike_id":"bb3b3cee-b3de-4952-b882-fa911f225f43","system_id":"levelo_inurba_marseille","lat":43.330442,"lon":5.389148,"is_reserved":false,"is_disabled":false,"rental_uris":{"android":"levelo://app?vid=bb3b3cee-b3de-4952-b882-fa911f225f43","ios":"levelo://app?vid=bb3b3cee-b3de-4952-b882-fa911f225f43"},"vehicle_type_id":"4","last_reported":1679126950,"current_range_meters":31600,"station_id":"ce4bhr92rcd13ifvqhrg","pricing_plan_id":"free"},{"bike_id":"c69afdb3-4f0f-4cb6-a387-4969a018dbf0","system_id":"levelo_inurba_marseille","lat":43.330442,"lon":5.389148,"is_reserved":false,"is_disabled":false,"rental_uris":{"android":"levelo://app?vid=c69afdb3-4f0f-4cb6-a387-4969a018dbf0","ios":"levelo://app?vid=c69afdb3-4f0f-4cb6-a387-4969a018dbf0"},"vehicle_type_id":"4","last_reported":1679126950,"current_range_meters":22000,"station_id":"ce4bhr92rcd13ifvqhrg","pricing_plan_id":"free"},{"bike_id":"b645b1c0-4f3a-4d67-ab93-92144cf6a689","system_id":"levelo_inurba_marseille","lat":43.33042,"lon":5.38925,"is_reserved":false,"is_disabled":false,"rental_uris":{"android":"levelo://app?vid=b645b1c0-4f3a-4d67-ab93-92144cf6a689","ios":"levelo://app?vid=b645b1c0-4f3a-4d67-ab93-92144cf6a689"},"vehicle_type_id":"4","last_reported":1679126950,"current_range_meters":21600,"station_id":"ce4bhr92rcd13ifvqhrg","pricing_plan_id":"free"},{"bike_id":"40fa3a1a-2ecc-435c-868f-43dec3f32230","system_id":"levelo_inurba_marseille","lat":43.330442,"lon":5.389148,"is_reserved":false,"is_disabled":false,"rental_uris":{"android":"levelo://app?vid=40fa3a1a-2ecc-435c-868f-43dec3f32230","ios":"levelo://app?vid=40fa3a1a-2ecc-435c-868f-43dec3f32230"},"vehicle_type_id":"4","last_reported":1679126950,"current_range_meters":21600,"station_id":"ce4bhr92rcd13ifvqhrg","pricing_plan_id":"free"},{"bike_id":"f0888a5d-8469-4a4a-aa32-e51183159fbe","system_id":"levelo_inurba_marseille","lat":43.337437,"lon":5.374608,"is_reserved":false,"is_disabled":false,"rental_uris":{"android":"levelo://app?vid=f0888a5d-8469-4a4a-aa32-e51183159fbe","ios":"levelo://app?vid=f0888a5d-8469-4a4a-aa32-e51183159fbe"},"vehicle_type_id":"4","last_reported":1679126950,"current_range_meters":11600,"station_id":"","pricing_plan_id":"free"},{"bike_id":"97a70748-85a2-4139-aa8d-3426ee2a5b86","system_id":"levelo_inurba_marseille","lat":43.337501,"lon":5.374448,"is_reserved":false,"is_disabled":false,"rental_uris":{"android":"levelo://app?vid=97a70748-85a2-4139-aa8d-3426ee2a5b86","ios":"levelo://app?vid=97a70748-85a2-4139-aa8d-3426ee2a5b86"},"vehicle_type_id":"4","last_reported":1679126950,"current_range_meters":0,"station_id":"","pricing_plan_id":"free"},{"bike_id":"3691d997-1cad-46ed-b7e6-586680d35f2f","system_id":"levelo_inurba_marseille","lat":43.337487,"lon":5.37473,"is_reserved":false,"is_disabled":false,"rental_uris":{"android":"levelo://app?vid=3691d997-1cad-46ed-b7e6-586680d35f2f","ios":"levelo://app?vid=3691d997-1cad-46ed-b7e6-586680d35f2f"},"vehicle_type_id":"4","last_reported":1679126950,"current_range_meters":22800,"station_id":"","pricing_plan_id":"free"},{"bike_id":"f3e60a9c-2b74-43cb-ac11-5dfafdbb73c0","system_id":"levelo_inurba_marseille","lat":43.337568,"lon":5.374633,"is_reserved":false,"is_disabled":false,"rental_uris":{"android":"levelo://app?vid=f3e60a9c-2b74-43cb-ac11-5dfafdbb73c0","ios":"levelo://app?vid=f3e60a9c-2b74-43cb-ac11-5dfafdbb73c0"},"vehicle_type_id":"4","last_reported":1679126950,"current_range_meters":27600,"station_id":"","pricing_plan_id":"free"},{"bike_id":"992514d8-0a81-4cf9-a50b-e519ec3a7196","system_id":"levelo_inurba_marseille","lat":43.30642,"lon":5.401031,"is_reserved":false,"is_disabled":false,"rental_uris":{"android":"levelo://app?vid=992514d8-0a81-4cf9-a50b-e519ec3a7196","ios":"levelo://app?vid=992514d8-0a81-4cf9-a50b-e519ec3a7196"},"vehicle_type_id":"4","last_reported":1679126950,"current_range_meters":31200,"station_id":"ce4bh112rcd13ifvqda0","pricing_plan_id":"free"},{"bike_id":"c15195ce-7323-4e9b-8223-4f3334ea4fab","system_id":"levelo_inurba_marseille","lat":43.30642,"lon":5.401031,"is_reserved":false,"is_disabled":false,"rental_uris":{"android":"levelo://app?vid=c15195ce-7323-4e9b-8223-4f3334ea4fab","ios":"levelo://app?vid=c15195ce-7323-4e9b-8223-4f3334ea4fab"},"vehicle_type_id":"4","last_reported":1679126950,"current_range_meters":31600,"station_id":"ce4bh112rcd13ifvqda0","pricing_plan_id":"free"},{"bike_id":"02250c5e-9feb-4937-9352-71a6a23f77ff","system_id":"levelo_inurba_marseille","lat":43.298681,"lon":5.397225,"is_reserved":false,"is_disabled":false,"rental_uris":{"android":"levelo://app?vid=02250c5e-9feb-4937-9352-71a6a23f77ff","ios":"levelo://app?vid=02250c5e-9feb-4937-9352-71a6a23f77ff"},"vehicle_type_id":"4","last_reported":1679126950,"current_range_meters":5200,"station_id":"ce4bh0h2rcd13ifvqd50","pricing_plan_id":"free"},{"bike_id":"96c457c4-8246-47f8-bdde-c2337b03d348","system_id":"levelo_inurba_marseille","lat":43.298681,"lon":5.397225,"is_reserved":false,"is_disabled":false,"rental_uris":{"android":"levelo://app?vid=96c457c4-8246-47f8-bdde-c2337b03d348","ios":"levelo://app?vid=96c457c4-8246-47f8-bdde-c2337b03d348"},"vehicle_type_id":"4","last_reported":1679126950,"current_range_meters":28400,"station_id":"ce4bh0h2rcd13ifvqd50","pricing_plan_id":"free"},{"bike_id":"bca46c2c-6dc9-465a-b416-6a83188e9d2b","system_id":"levelo_inurba_marseille","lat":43.316517,"lon":5.404375,"is_reserved":false,"is_disabled":false,"rental_uris":{"android":"levelo://app?vid=bca46c2c-6dc9-465a-b416-6a83188e9d2b","ios":"levelo://app?vid=bca46c2c-6dc9-465a-b416-6a83188e9d2b"},"vehicle_type_id":"4","last_reported":1679126950,"current_range_meters":27600,"station_id":"ce4bh012rcd13ifvqd00","pricing_plan_id":"free"},{"bike_id":"516debef-fc21-4abd-9f22-13ab642323fe","system_id":"levelo_inurba_marseille","lat":43.316439,"lon":5.404316,"is_reserved":false,"is_disabled":false,"rental_uris":{"android":"levelo://app?vid=516debef-fc21-4abd-9f22-13ab642323fe","ios":"levelo://app?vid=516debef-fc21-4abd-9f22-13ab642323fe"},"vehicle_type_id":"4","last_reported":1679126950,"current_range_meters":0,"station_id":"","pricing_plan_id":"free"},{"bike_id":"a6c965e8-c929-4bb8-80ea-0c46eac07488","system_id":"levelo_inurba_marseille","lat":43.31646,"lon":5.40433,"is_reserved":false,"is_disabled":false,"rental_uris":{"android":"levelo://app?vid=a6c965e8-c929-4bb8-80ea-0c46eac07488","ios":"levelo://app?vid=a6c965e8-c929-4bb8-80ea-0c46eac07488"},"vehicle_type_id":"4","last_reported":1679126950,"current_range_meters":12800,"station_id":"","pricing_plan_id":"free"},{"bike_id":"ea0dda3f-dc7e-402b-b3a9-de97ab25c7d7","system_id":"levelo_inurba_marseille","lat":43.31643,"lon":5.40435,"is_reserved":false,"is_disabled":false,"rental_uris":{"android":"levelo://app?vid=ea0dda3f-dc7e-402b-b3a9-de97ab25c7d7","ios":"levelo://app?vid=ea0dda3f-dc7e-402b-b3a9-de97ab25c7d7"},"vehicle_type_id":"4","last_reported":1679126950,"current_range_meters":10800,"station_id":"","pricing_plan_id":"free"},{"bike_id":"7e5ab786-7701-4ef5-acdf-6f08b45031f4","system_id":"levelo_inurba_marseille","lat":43.316517,"lon":5.404375,"is_reserved":false,"is_disabled":false,"rental_uris":{"android":"levelo://app?vid=7e5ab786-7701-4ef5-acdf-6f08b45031f4","ios":"levelo://app?vid=7e5ab786-7701-4ef5-acdf-6f08b45031f4"},"vehicle_type_id":"4","last_reported":1679126950,"current_range_meters":31600,"station_id":"ce4bh012rcd13ifvqd00","pricing_plan_id":"free"},{"bike_id":"9ba17943-9b60-40e6-a2f1-8ef46c90ca70","system_id":"levelo_inurba_marseille","lat":43.31647,"lon":5.40435,"is_reserved":false,"is_disabled":false,"rental_uris":{"android":"levelo://app?vid=9ba17943-9b60-40e6-a2f1-8ef46c90ca70","ios":"levelo://app?vid=9ba17943-9b60-40e6-a2f1-8ef46c90ca70"},"vehicle_type_id":"4","last_reported":1679126950,"current_range_meters":19600,"station_id":"ce4bh012rcd13ifvqd00","pricing_plan_id":"free"},{"bike_id":"a23b46b9-6af7-488f-a1de-28317dc0a36f","system_id":"levelo_inurba_marseille","lat":43.31645,"lon":5.40438,"is_reserved":false,"is_disabled":false,"rental_uris":{"android":"levelo://app?vid=a23b46b9-6af7-488f-a1de-28317dc0a36f","ios":"levelo://app?vid=a23b46b9-6af7-488f-a1de-28317dc0a36f"},"vehicle_type_id":"4","last_reported":1679126950,"current_range_meters":30000,"station_id":"","pricing_plan_id":"free"},{"bike_id":"d22b3b9f-5614-454b-bc04-4b2e35f0cb31","system_id":"levelo_inurba_marseille","lat":43.316517,"lon":5.404375,"is_reserved":false,"is_disabled":false,"rental_uris":{"android":"levelo://app?vid=d22b3b9f-5614-454b-bc04-4b2e35f0cb31","ios":"levelo://app?vid=d22b3b9f-5614-454b-bc04-4b2e35f0cb31"},"vehicle_type_id":"4","last_reported":1679126950,"current_range_meters":31600,"station_id":"ce4bh012rcd13ifvqd00","pricing_plan_id":"free"},{"bike_id":"1b430cbb-c97f-48f0-82aa-67b8b83aacf9","system_id":"levelo_inurba_marseille","lat":43.286595,"lon":5.386795,"is_reserved":false,"is_disabled":false,"rental_uris":{"android":"levelo://app?vid=1b430cbb-c97f-48f0-82aa-67b8b83aacf9","ios":"levelo://app?vid=1b430cbb-c97f-48f0-82aa-67b8b83aacf9"},"vehicle_type_id":"4","last_reported":1679126950,"current_range_meters":18000,"station_id":"ce4bh492rcd13ifvqdug","pricing_plan_id":"free"},{"bike_id":"52794bcf-4cbc-4e48-ba86-630e6d4c1542","system_id":"levelo_inurba_marseille","lat":43.285406,"lon":5.383878,"is_reserved":false,"is_disabled":false,"rental_uris":{"android":"levelo://app?vid=52794bcf-4cbc-4e48-ba86-630e6d4c1542","ios":"levelo://app?vid=52794bcf-4cbc-4e48-ba86-630e6d4c1542"},"vehicle_type_id":"4","last_reported":1679126950,"current_range_meters":0,"station_id":"","pricing_plan_id":"free"},{"bike_id":"0d5ca4b0-30dc-4656-8edd-41b1500bd4dc","system_id":"levelo_inurba_marseille","lat":43.323409,"lon":5.406138,"is_reserved":false,"is_disabled":false,"rental_uris":{"android":"levelo://app?vid=0d5ca4b0-30dc-4656-8edd-41b1500bd4dc","ios":"levelo://app?vid=0d5ca4b0-30dc-4656-8edd-41b1500bd4dc"},"vehicle_type_id":"4","last_reported":1679126950,"current_range_meters":0,"station_id":"","pricing_plan_id":"free"},{"bike_id":"80ba76b4-d3c8-4ede-bc79-5a13e5122b90","system_id":"levelo_inurba_marseille","lat":43.323396,"lon":5.406149,"is_reserved":false,"is_disabled":false,"rental_uris":{"android":"levelo://app?vid=80ba76b4-d3c8-4ede-bc79-5a13e5122b90","ios":"levelo://app?vid=80ba76b4-d3c8-4ede-bc79-5a13e5122b90"},"vehicle_type_id":"4","last_reported":1679126950,"current_range_meters":29600,"station_id":"","pricing_plan_id":"free"},{"bike_id":"5f9f6a68-b7bd-4e7c-81f2-8596a29c1b98","system_id":"levelo_inurba_marseille","lat":43.323403,"lon":5.406147,"is_reserved":false,"is_disabled":false,"rental_uris":{"android":"levelo://app?vid=5f9f6a68-b7bd-4e7c-81f2-8596a29c1b98","ios":"levelo://app?vid=5f9f6a68-b7bd-4e7c-81f2-8596a29c1b98"},"vehicle_type_id":"4","last_reported":1679126950,"current_range_meters":0,"station_id":"ce4bhq92rcd13ifvqhjg","pricing_plan_id":"free"},{"bike_id":"e92849ce-e810-4025-8774-6ec0d3944c9a","system_id":"levelo_inurba_marseille","lat":43.32339,"lon":5.40617,"is_reserved":false,"is_disabled":false,"rental_uris":{"android":"levelo://app?vid=e92849ce-e810-4025-8774-6ec0d3944c9a","ios":"levelo://app?vid=e92849ce-e810-4025-8774-6ec0d3944c9a"},"vehicle_type_id":"4","last_reported":1679126950,"current_range_meters":30400,"station_id":"","pricing_plan_id":"free"},{"bike_id":"7da50cf2-84b2-4cdc-90b1-294cf45698cb","system_id":"levelo_inurba_marseille","lat":43.323393,"lon":5.406168,"is_reserved":false,"is_disabled":false,"rental_uris":{"android":"levelo://app?vid=7da50cf2-84b2-4cdc-90b1-294cf45698cb","ios":"levelo://app?vid=7da50cf2-84b2-4cdc-90b1-294cf45698cb"},"vehicle_type_id":"4","last_reported":1679126950,"current_range_meters":8800,"station_id":"ce4bhq92rcd13ifvqhjg","pricing_plan_id":"free"},{"bike_id":"faf9cb77-2dc5-49b1-8321-a55053e76641","system_id":"levelo_inurba_marseille","lat":43.282754,"lon":5.350519,"is_reserved":false,"is_disabled":false,"rental_uris":{"android":"levelo://app?vid=faf9cb77-2dc5-49b1-8321-a55053e76641","ios":"levelo://app?vid=faf9cb77-2dc5-49b1-8321-a55053e76641"},"vehicle_type_id":"4","last_reported":1679126950,"current_range_meters":31600,"station_id":"ce4bhbp2rcd13ifvqerg","pricing_plan_id":"free"},{"bike_id":"b0dccff7-f19d-40cc-b572-de795b5bc827","system_id":"levelo_inurba_marseille","lat":43.282754,"lon":5.350519,"is_reserved":false,"is_disabled":false,"rental_uris":{"android":"levelo://app?vid=b0dccff7-f19d-40cc-b572-de795b5bc827","ios":"levelo://app?vid=b0dccff7-f19d-40cc-b572-de795b5bc827"},"vehicle_type_id":"4","last_reported":1679126950,"current_range_meters":6400,"station_id":"ce4bhbp2rcd13ifvqerg","pricing_plan_id":"free"},{"bike_id":"6a352ce6-8801-4218-92e1-735bd50a8f1d","system_id":"levelo_inurba_marseille","lat":43.282754,"lon":5.350519,"is_reserved":false,"is_disabled":false,"rental_uris":{"android":"levelo://app?vid=6a352ce6-8801-4218-92e1-735bd50a8f1d","ios":"levelo://app?vid=6a352ce6-8801-4218-92e1-735bd50a8f1d"},"vehicle_type_id":"4","last_reported":1679126950,"current_range_meters":27200,"station_id":"ce4bhbp2rcd13ifvqerg","pricing_plan_id":"free"},{"bike_id":"1be45ae6-20e2-4238-ba08-12506ec36eeb","system_id":"levelo_inurba_marseille","lat":43.282754,"lon":5.350519,"is_reserved":false,"is_disabled":false,"rental_uris":{"android":"levelo://app?vid=1be45ae6-20e2-4238-ba08-12506ec36eeb","ios":"levelo://app?vid=1be45ae6-20e2-4238-ba08-12506ec36eeb"},"vehicle_type_id":"4","last_reported":1679126950,"current_range_meters":0,"station_id":"ce4bhbp2rcd13ifvqerg","pricing_plan_id":"free"},{"bike_id":"16fd9972-e501-4a52-94d7-d88c01002fb7","system_id":"levelo_inurba_marseille","lat":43.282754,"lon":5.350519,"is_reserved":false,"is_disabled":false,"rental_uris":{"android":"levelo://app?vid=16fd9972-e501-4a52-94d7-d88c01002fb7","ios":"levelo://app?vid=16fd9972-e501-4a52-94d7-d88c01002fb7"},"vehicle_type_id":"4","last_reported":1679126950,"current_range_meters":28000,"station_id":"ce4bhbp2rcd13ifvqerg","pricing_plan_id":"free"},{"bike_id":"a722ff41-c578-4f88-ac99-91d2ed0c5dca","system_id":"levelo_inurba_marseille","lat":43.28039,"lon":5.369297,"is_reserved":false,"is_disabled":false,"rental_uris":{"android":"levelo://app?vid=a722ff41-c578-4f88-ac99-91d2ed0c5dca","ios":"levelo://app?vid=a722ff41-c578-4f88-ac99-91d2ed0c5dca"},"vehicle_type_id":"4","last_reported":1679126950,"current_range_meters":29200,"station_id":"ce4bha12rcd13ifvqef0","pricing_plan_id":"free"},{"bike_id":"a8b6c8f6-d4c0-4099-be83-af8ae92927f3","system_id":"levelo_inurba_marseille","lat":43.284427,"lon":5.39188,"is_reserved":false,"is_disabled":false,"rental_uris":{"android":"levelo://app?vid=a8b6c8f6-d4c0-4099-be83-af8ae92927f3","ios":"levelo://app?vid=a8b6c8f6-d4c0-4099-be83-af8ae92927f3"},"vehicle_type_id":"4","last_reported":1679126950,"current_range_meters":0,"station_id":"","pricing_plan_id":"free"},{"bike_id":"45393937-dcaf-44fb-9447-7c776899be08","system_id":"levelo_inurba_marseille","lat":43.304188,"lon":5.412904,"is_reserved":false,"is_disabled":false,"rental_uris":{"android":"levelo://app?vid=45393937-dcaf-44fb-9447-7c776899be08","ios":"levelo://app?vid=45393937-dcaf-44fb-9447-7c776899be08"},"vehicle_type_id":"4","last_reported":1679126950,"current_range_meters":18800,"station_id":"ce4bhop2rcd13ifvqh8g","pricing_plan_id":"free"},{"bike_id":"fd94f329-7a13-4190-8e3c-0c1eb267c7ec","system_id":"levelo_inurba_marseille","lat":43.304188,"lon":5.412904,"is_reserved":false,"is_disabled":false,"rental_uris":{"android":"levelo://app?vid=fd94f329-7a13-4190-8e3c-0c1eb267c7ec","ios":"levelo://app?vid=fd94f329-7a13-4190-8e3c-0c1eb267c7ec"},"vehicle_type_id":"4","last_reported":1679126950,"current_range_meters":24400,"station_id":"ce4bhop2rcd13ifvqh8g","pricing_plan_id":"free"},{"bike_id":"2f032b77-131f-41ac-bb8c-c73cf83f7ea0","system_id":"levelo_inurba_marseille","lat":43.304188,"lon":5.412904,"is_reserved":false,"is_disabled":false,"rental_uris":{"android":"levelo://app?vid=2f032b77-131f-41ac-bb8c-c73cf83f7ea0","ios":"levelo://app?vid=2f032b77-131f-41ac-bb8c-c73cf83f7ea0"},"vehicle_type_id":"4","last_reported":1679126950,"current_range_meters":27600,"station_id":"ce4bhop2rcd13ifvqh8g","pricing_plan_id":"free"},{"bike_id":"5d5836d0-cb77-4370-9990-6356b735b69b","system_id":"levelo_inurba_marseille","lat":43.281451,"lon":5.391578,"is_reserved":false,"is_disabled":false,"rental_uris":{"android":"levelo://app?vid=5d5836d0-cb77-4370-9990-6356b735b69b","ios":"levelo://app?vid=5d5836d0-cb77-4370-9990-6356b735b69b"},"vehicle_type_id":"4","last_reported":1679126950,"current_range_meters":0,"station_id":"","pricing_plan_id":"free"},{"bike_id":"a3b58e55-88fe-4f24-8549-191d9ed82eea","system_id":"levelo_inurba_marseille","lat":43.28143,"lon":5.39161,"is_reserved":false,"is_disabled":false,"rental_uris":{"android":"levelo://app?vid=a3b58e55-88fe-4f24-8549-191d9ed82eea","ios":"levelo://app?vid=a3b58e55-88fe-4f24-8549-191d9ed82eea"},"vehicle_type_id":"4","last_reported":1679126950,"current_range_meters":9200,"station_id":"","pricing_plan_id":"free"},{"bike_id":"53313bda-b6c3-49f2-9ae1-f6929bc8dab2","system_id":"levelo_inurba_marseille","lat":43.320045,"lon":5.415048,"is_reserved":false,"is_disabled":false,"rental_uris":{"android":"levelo://app?vid=53313bda-b6c3-49f2-9ae1-f6929bc8dab2","ios":"levelo://app?vid=53313bda-b6c3-49f2-9ae1-f6929bc8dab2"},"vehicle_type_id":"4","last_reported":1679126950,"current_range_meters":31600,"station_id":"ce4bhq92rcd13ifvqhkg","pricing_plan_id":"free"},{"bike_id":"0639489d-1295-4cb2-a2d6-4bb0b0fc90f6","system_id":"levelo_inurba_marseille","lat":43.320045,"lon":5.415048,"is_reserved":false,"is_disabled":false,"rental_uris":{"android":"levelo://app?vid=0639489d-1295-4cb2-a2d6-4bb0b0fc90f6","ios":"levelo://app?vid=0639489d-1295-4cb2-a2d6-4bb0b0fc90f6"},"vehicle_type_id":"4","last_reported":1679126950,"current_range_meters":31600,"station_id":"ce4bhq92rcd13ifvqhkg","pricing_plan_id":"free"},{"bike_id":"9d002998-c479-45f0-879d-1bd38fbf953b","system_id":"levelo_inurba_marseille","lat":43.324752,"lon":5.414344,"is_reserved":false,"is_disabled":false,"rental_uris":{"android":"levelo://app?vid=9d002998-c479-45f0-879d-1bd38fbf953b","ios":"levelo://app?vid=9d002998-c479-45f0-879d-1bd38fbf953b"},"vehicle_type_id":"4","last_reported":1679126950,"current_range_meters":11600,"station_id":"","pricing_plan_id":"free"},{"bike_id":"c414d882-0c84-4eeb-b931-bc8968f7e3bb","system_id":"levelo_inurba_marseille","lat":43.325233,"lon":5.414318,"is_reserved":false,"is_disabled":false,"rental_uris":{"android":"levelo://app?vid=c414d882-0c84-4eeb-b931-bc8968f7e3bb","ios":"levelo://app?vid=c414d882-0c84-4eeb-b931-bc8968f7e3bb"},"vehicle_type_id":"4","last_reported":1679126950,"current_range_meters":16400,"station_id":"ce4bhq12rcd13ifvqhhg","pricing_plan_id":"free"},{"bike_id":"53283567-3df8-437e-9bd3-fbb43e15f866","system_id":"levelo_inurba_marseille","lat":43.325233,"lon":5.414318,"is_reserved":false,"is_disabled":false,"rental_uris":{"android":"levelo://app?vid=53283567-3df8-437e-9bd3-fbb43e15f866","ios":"levelo://app?vid=53283567-3df8-437e-9bd3-fbb43e15f866"},"vehicle_type_id":"4","last_reported":1679126950,"current_range_meters":7200,"station_id":"ce4bhq12rcd13ifvqhhg","pricing_plan_id":"free"},{"bike_id":"4c0a5127-e076-4597-8806-354b19081763","system_id":"levelo_inurba_marseille","lat":43.325233,"lon":5.414318,"is_reserved":false,"is_disabled":false,"rental_uris":{"android":"levelo://app?vid=4c0a5127-e076-4597-8806-354b19081763","ios":"levelo://app?vid=4c0a5127-e076-4597-8806-354b19081763"},"vehicle_type_id":"4","last_reported":1679126950,"current_range_meters":31600,"station_id":"ce4bhq12rcd13ifvqhhg","pricing_plan_id":"free"},{"bike_id":"833e774f-7b10-4be3-a81d-f669a035968d","system_id":"levelo_inurba_marseille","lat":43.325233,"lon":5.414318,"is_reserved":false,"is_disabled":false,"rental_uris":{"android":"levelo://app?vid=833e774f-7b10-4be3-a81d-f669a035968d","ios":"levelo://app?vid=833e774f-7b10-4be3-a81d-f669a035968d"},"vehicle_type_id":"4","last_reported":1679126950,"current_range_meters":31600,"station_id":"ce4bhq12rcd13ifvqhhg","pricing_plan_id":"free"},{"bike_id":"d5803fca-a710-48b0-a57a-86b78c822cf5","system_id":"levelo_inurba_marseille","lat":43.325233,"lon":5.414318,"is_reserved":false,"is_disabled":false,"rental_uris":{"android":"levelo://app?vid=d5803fca-a710-48b0-a57a-86b78c822cf5","ios":"levelo://app?vid=d5803fca-a710-48b0-a57a-86b78c822cf5"},"vehicle_type_id":"4","last_reported":1679126950,"current_range_meters":31600,"station_id":"ce4bhq12rcd13ifvqhhg","pricing_plan_id":"free"},{"bike_id":"475c1bf4-38c3-49a6-bf4f-dda43ab568f1","system_id":"levelo_inurba_marseille","lat":43.325243,"lon":5.414326,"is_reserved":false,"is_disabled":false,"rental_uris":{"android":"levelo://app?vid=475c1bf4-38c3-49a6-bf4f-dda43ab568f1","ios":"levelo://app?vid=475c1bf4-38c3-49a6-bf4f-dda43ab568f1"},"vehicle_type_id":"4","last_reported":1679126950,"current_range_meters":27600,"station_id":"ce4bhq12rcd13ifvqhhg","pricing_plan_id":"free"},{"bike_id":"0c668e4e-e0a5-4c13-8369-a5a145cb4df9","system_id":"levelo_inurba_marseille","lat":43.325243,"lon":5.414326,"is_reserved":false,"is_disabled":false,"rental_uris":{"android":"levelo://app?vid=0c668e4e-e0a5-4c13-8369-a5a145cb4df9","ios":"levelo://app?vid=0c668e4e-e0a5-4c13-8369-a5a145cb4df9"},"vehicle_type_id":"4","last_reported":1679126950,"current_range_meters":31600,"station_id":"ce4bhq12rcd13ifvqhhg","pricing_plan_id":"free"},{"bike_id":"32c6f58d-e99a-4136-b7b7-9ae50594571f","system_id":"levelo_inurba_marseille","lat":43.325243,"lon":5.414326,"is_reserved":false,"is_disabled":false,"rental_uris":{"android":"levelo://app?vid=32c6f58d-e99a-4136-b7b7-9ae50594571f","ios":"levelo://app?vid=32c6f58d-e99a-4136-b7b7-9ae50594571f"},"vehicle_type_id":"4","last_reported":1679126950,"current_range_meters":26800,"station_id":"ce4bhq12rcd13ifvqhhg","pricing_plan_id":"free"},{"bike_id":"f35169e8-0c85-4cfa-b943-66ea72517626","system_id":"levelo_inurba_marseille","lat":43.325233,"lon":5.414318,"is_reserved":false,"is_disabled":false,"rental_uris":{"android":"levelo://app?vid=f35169e8-0c85-4cfa-b943-66ea72517626","ios":"levelo://app?vid=f35169e8-0c85-4cfa-b943-66ea72517626"},"vehicle_type_id":"4","last_reported":1679126950,"current_range_meters":31600,"station_id":"ce4bhq12rcd13ifvqhhg","pricing_plan_id":"free"},{"bike_id":"03bf721f-fa7b-4e9d-b8f8-21712a735b70","system_id":"levelo_inurba_marseille","lat":43.336148,"lon":5.410349,"is_reserved":false,"is_disabled":false,"rental_uris":{"android":"levelo://app?vid=03bf721f-fa7b-4e9d-b8f8-21712a735b70","ios":"levelo://app?vid=03bf721f-fa7b-4e9d-b8f8-21712a735b70"},"vehicle_type_id":"4","last_reported":1679126950,"current_range_meters":30400,"station_id":"ce4bhqh2rcd13ifvqhmg","pricing_plan_id":"free"},{"bike_id":"07422096-5b2f-4fff-aeb4-8b0906c1b0e6","system_id":"levelo_inurba_marseille","lat":43.336148,"lon":5.410349,"is_reserved":false,"is_disabled":false,"rental_uris":{"android":"levelo://app?vid=07422096-5b2f-4fff-aeb4-8b0906c1b0e6","ios":"levelo://app?vid=07422096-5b2f-4fff-aeb4-8b0906c1b0e6"},"vehicle_type_id":"4","last_reported":1679126950,"current_range_meters":31600,"station_id":"ce4bhqh2rcd13ifvqhmg","pricing_plan_id":"free"},{"bike_id":"86a1b167-223a-4ef7-8830-5d1b683f711f","system_id":"levelo_inurba_marseille","lat":43.336148,"lon":5.410349,"is_reserved":false,"is_disabled":false,"rental_uris":{"android":"levelo://app?vid=86a1b167-223a-4ef7-8830-5d1b683f711f","ios":"levelo://app?vid=86a1b167-223a-4ef7-8830-5d1b683f711f"},"vehicle_type_id":"4","last_reported":1679126950,"current_range_meters":31600,"station_id":"ce4bhqh2rcd13ifvqhmg","pricing_plan_id":"free"},{"bike_id":"6009fc60-aa69-40d3-841c-7fe2617b93ea","system_id":"levelo_inurba_marseille","lat":43.336148,"lon":5.410349,"is_reserved":false,"is_disabled":false,"rental_uris":{"android":"levelo://app?vid=6009fc60-aa69-40d3-841c-7fe2617b93ea","ios":"levelo://app?vid=6009fc60-aa69-40d3-841c-7fe2617b93ea"},"vehicle_type_id":"4","last_reported":1679126950,"current_range_meters":30000,"station_id":"ce4bhqh2rcd13ifvqhmg","pricing_plan_id":"free"},{"bike_id":"a575a2f9-3307-4dc1-b894-76da5ed3793e","system_id":"levelo_inurba_marseille","lat":43.33604,"lon":5.41034,"is_reserved":false,"is_disabled":false,"rental_uris":{"android":"levelo://app?vid=a575a2f9-3307-4dc1-b894-76da5ed3793e","ios":"levelo://app?vid=a575a2f9-3307-4dc1-b894-76da5ed3793e"},"vehicle_type_id":"4","last_reported":1679126950,"current_range_meters":24400,"station_id":"ce4bhqh2rcd13ifvqhmg","pricing_plan_id":"free"},{"bike_id":"3e398d2e-cfd7-4b2e-91ac-0826b401e2ed","system_id":"levelo_inurba_marseille","lat":43.336148,"lon":5.410349,"is_reserved":false,"is_disabled":false,"rental_uris":{"android":"levelo://app?vid=3e398d2e-cfd7-4b2e-91ac-0826b401e2ed","ios":"levelo://app?vid=3e398d2e-cfd7-4b2e-91ac-0826b401e2ed"},"vehicle_type_id":"4","last_reported":1679126950,"current_range_meters":31600,"station_id":"ce4bhqh2rcd13ifvqhmg","pricing_plan_id":"free"},{"bike_id":"33c1b55e-8e49-4383-9aa0-0581e88b6ee2","system_id":"levelo_inurba_marseille","lat":43.33608,"lon":5.41032,"is_reserved":false,"is_disabled":false,"rental_uris":{"android":"levelo://app?vid=33c1b55e-8e49-4383-9aa0-0581e88b6ee2","ios":"levelo://app?vid=33c1b55e-8e49-4383-9aa0-0581e88b6ee2"},"vehicle_type_id":"4","last_reported":1679126950,"current_range_meters":31600,"station_id":"","pricing_plan_id":"free"},{"bike_id":"ed411acc-24e0-449f-96b9-d5888b534eb0","system_id":"levelo_inurba_marseille","lat":43.336134,"lon":5.410341,"is_reserved":false,"is_disabled":false,"rental_uris":{"android":"levelo://app?vid=ed411acc-24e0-449f-96b9-d5888b534eb0","ios":"levelo://app?vid=ed411acc-24e0-449f-96b9-d5888b534eb0"},"vehicle_type_id":"4","last_reported":1679126950,"current_range_meters":31600,"station_id":"ce4bhqh2rcd13ifvqhmg","pricing_plan_id":"free"},{"bike_id":"683942c8-a326-4600-a465-de8bfc28836e","system_id":"levelo_inurba_marseille","lat":43.336148,"lon":5.410349,"is_reserved":false,"is_disabled":false,"rental_uris":{"android":"levelo://app?vid=683942c8-a326-4600-a465-de8bfc28836e","ios":"levelo://app?vid=683942c8-a326-4600-a465-de8bfc28836e"},"vehicle_type_id":"4","last_reported":1679126950,"current_range_meters":31600,"station_id":"ce4bhqh2rcd13ifvqhmg","pricing_plan_id":"free"},{"bike_id":"1fcc799d-f7a6-41a4-a72c-851db06557f6","system_id":"levelo_inurba_marseille","lat":43.336134,"lon":5.410341,"is_reserved":false,"is_disabled":false,"rental_uris":{"android":"levelo://app?vid=1fcc799d-f7a6-41a4-a72c-851db06557f6","ios":"levelo://app?vid=1fcc799d-f7a6-41a4-a72c-851db06557f6"},"vehicle_type_id":"4","last_reported":1679126950,"current_range_meters":31600,"station_id":"ce4bhqh2rcd13ifvqhmg","pricing_plan_id":"free"},{"bike_id":"f8e4b898-92da-4665-9fcd-145f4bb2195e","system_id":"levelo_inurba_marseille","lat":43.336109,"lon":5.410339,"is_reserved":false,"is_disabled":false,"rental_uris":{"android":"levelo://app?vid=f8e4b898-92da-4665-9fcd-145f4bb2195e","ios":"levelo://app?vid=f8e4b898-92da-4665-9fcd-145f4bb2195e"},"vehicle_type_id":"4","last_reported":1679126950,"current_range_meters":29200,"station_id":"","pricing_plan_id":"free"},{"bike_id":"8ecd9035-33da-4efe-9cc7-35bd6404030c","system_id":"levelo_inurba_marseille","lat":43.336148,"lon":5.410349,"is_reserved":false,"is_disabled":false,"rental_uris":{"android":"levelo://app?vid=8ecd9035-33da-4efe-9cc7-35bd6404030c","ios":"levelo://app?vid=8ecd9035-33da-4efe-9cc7-35bd6404030c"},"vehicle_type_id":"4","last_reported":1679126950,"current_range_meters":28000,"station_id":"ce4bhqh2rcd13ifvqhmg","pricing_plan_id":"free"},{"bike_id":"03f81e19-7645-4413-bf4d-70bbbae26897","system_id":"levelo_inurba_marseille","lat":43.336134,"lon":5.410341,"is_reserved":false,"is_disabled":false,"rental_uris":{"android":"levelo://app?vid=03f81e19-7645-4413-bf4d-70bbbae26897","ios":"levelo://app?vid=03f81e19-7645-4413-bf4d-70bbbae26897"},"vehicle_type_id":"4","last_reported":1679126950,"current_range_meters":31200,"station_id":"ce4bhqh2rcd13ifvqhmg","pricing_plan_id":"free"},{"bike_id":"8a5b1134-272b-4294-88f9-a7d7d960b1d4","system_id":"levelo_inurba_marseille","lat":43.336134,"lon":5.410341,"is_reserved":false,"is_disabled":false,"rental_uris":{"android":"levelo://app?vid=8a5b1134-272b-4294-88f9-a7d7d960b1d4","ios":"levelo://app?vid=8a5b1134-272b-4294-88f9-a7d7d960b1d4"},"vehicle_type_id":"4","last_reported":1679126950,"current_range_meters":30400,"station_id":"ce4bhqh2rcd13ifvqhmg","pricing_plan_id":"free"},{"bike_id":"7c0909cb-15e7-44bc-981c-09dedc5adc8c","system_id":"levelo_inurba_marseille","lat":43.336105,"lon":5.410368,"is_reserved":false,"is_disabled":false,"rental_uris":{"android":"levelo://app?vid=7c0909cb-15e7-44bc-981c-09dedc5adc8c","ios":"levelo://app?vid=7c0909cb-15e7-44bc-981c-09dedc5adc8c"},"vehicle_type_id":"4","last_reported":1679126950,"current_range_meters":31600,"station_id":"","pricing_plan_id":"free"},{"bike_id":"2efb21a9-16c0-43f6-b737-57dcac4cc417","system_id":"levelo_inurba_marseille","lat":43.310785,"lon":5.424305,"is_reserved":false,"is_disabled":false,"rental_uris":{"android":"levelo://app?vid=2efb21a9-16c0-43f6-b737-57dcac4cc417","ios":"levelo://app?vid=2efb21a9-16c0-43f6-b737-57dcac4cc417"},"vehicle_type_id":"4","last_reported":1679126950,"current_range_meters":31600,"station_id":"ce4bhp92rcd13ifvqhag","pricing_plan_id":"free"},{"bike_id":"b7a56549-6b7d-497e-8496-7ff25fff6ed4","system_id":"levelo_inurba_marseille","lat":43.310785,"lon":5.424305,"is_reserved":false,"is_disabled":false,"rental_uris":{"android":"levelo://app?vid=b7a56549-6b7d-497e-8496-7ff25fff6ed4","ios":"levelo://app?vid=b7a56549-6b7d-497e-8496-7ff25fff6ed4"},"vehicle_type_id":"4","last_reported":1679126950,"current_range_meters":27600,"station_id":"ce4bhp92rcd13ifvqhag","pricing_plan_id":"free"},{"bike_id":"f3e8fb6d-352b-4dd2-b33c-1eafeef7186f","system_id":"levelo_inurba_marseille","lat":43.310785,"lon":5.424305,"is_reserved":false,"is_disabled":false,"rental_uris":{"android":"levelo://app?vid=f3e8fb6d-352b-4dd2-b33c-1eafeef7186f","ios":"levelo://app?vid=f3e8fb6d-352b-4dd2-b33c-1eafeef7186f"},"vehicle_type_id":"4","last_reported":1679126950,"current_range_meters":28400,"station_id":"ce4bhp92rcd13ifvqhag","pricing_plan_id":"free"},{"bike_id":"dcf781a7-183f-4b18-a082-0731d10fe12d","system_id":"levelo_inurba_marseille","lat":43.304096,"lon":5.425385,"is_reserved":false,"is_disabled":false,"rental_uris":{"android":"levelo://app?vid=dcf781a7-183f-4b18-a082-0731d10fe12d","ios":"levelo://app?vid=dcf781a7-183f-4b18-a082-0731d10fe12d"},"vehicle_type_id":"4","last_reported":1679126950,"current_range_meters":28400,"station_id":"ce4bhoh2rcd13ifvqh6g","pricing_plan_id":"free"},{"bike_id":"d332159b-fec7-4b67-9919-be60931f34a1","system_id":"levelo_inurba_marseille","lat":43.304096,"lon":5.425385,"is_reserved":false,"is_disabled":false,"rental_uris":{"android":"levelo://app?vid=d332159b-fec7-4b67-9919-be60931f34a1","ios":"levelo://app?vid=d332159b-fec7-4b67-9919-be60931f34a1"},"vehicle_type_id":"4","last_reported":1679126950,"current_range_meters":26000,"station_id":"ce4bhoh2rcd13ifvqh6g","pricing_plan_id":"free"},{"bike_id":"4c260c9a-8730-453f-9a5e-5d3f544c6a77","system_id":"levelo_inurba_marseille","lat":43.30413,"lon":5.4254,"is_reserved":false,"is_disabled":false,"rental_uris":{"android":"levelo://app?vid=4c260c9a-8730-453f-9a5e-5d3f544c6a77","ios":"levelo://app?vid=4c260c9a-8730-453f-9a5e-5d3f544c6a77"},"vehicle_type_id":"4","last_reported":1679126950,"current_range_meters":27600,"station_id":"ce4bhoh2rcd13ifvqh6g","pricing_plan_id":"free"},{"bike_id":"c65b0f2f-ddd4-4ced-99dc-a066a8acf787","system_id":"levelo_inurba_marseille","lat":43.304096,"lon":5.425385,"is_reserved":false,"is_disabled":false,"rental_uris":{"android":"levelo://app?vid=c65b0f2f-ddd4-4ced-99dc-a066a8acf787","ios":"levelo://app?vid=c65b0f2f-ddd4-4ced-99dc-a066a8acf787"},"vehicle_type_id":"4","last_reported":1679126950,"current_range_meters":16800,"station_id":"ce4bhoh2rcd13ifvqh6g","pricing_plan_id":"free"},{"bike_id":"f6c8bd2c-a4dc-41e6-b41c-3f99f5c5dd2b","system_id":"levelo_inurba_marseille","lat":43.304096,"lon":5.425385,"is_reserved":false,"is_disabled":false,"rental_uris":{"android":"levelo://app?vid=f6c8bd2c-a4dc-41e6-b41c-3f99f5c5dd2b","ios":"levelo://app?vid=f6c8bd2c-a4dc-41e6-b41c-3f99f5c5dd2b"},"vehicle_type_id":"4","last_reported":1679126950,"current_range_meters":25600,"station_id":"ce4bhoh2rcd13ifvqh6g","pricing_plan_id":"free"},{"bike_id":"5eecbdc6-4bd3-493c-a320-5c6a01a076fb","system_id":"levelo_inurba_marseille","lat":43.304096,"lon":5.425385,"is_reserved":false,"is_disabled":false,"rental_uris":{"android":"levelo://app?vid=5eecbdc6-4bd3-493c-a320-5c6a01a076fb","ios":"levelo://app?vid=5eecbdc6-4bd3-493c-a320-5c6a01a076fb"},"vehicle_type_id":"4","last_reported":1679126950,"current_range_meters":31600,"station_id":"ce4bhoh2rcd13ifvqh6g","pricing_plan_id":"free"},{"bike_id":"97845fa5-b394-4ad4-aedb-37c067bbba4d","system_id":"levelo_inurba_marseille","lat":43.304096,"lon":5.425385,"is_reserved":false,"is_disabled":false,"rental_uris":{"android":"levelo://app?vid=97845fa5-b394-4ad4-aedb-37c067bbba4d","ios":"levelo://app?vid=97845fa5-b394-4ad4-aedb-37c067bbba4d"},"vehicle_type_id":"4","last_reported":1679126950,"current_range_meters":25200,"station_id":"ce4bhoh2rcd13ifvqh6g","pricing_plan_id":"free"},{"bike_id":"d42ef606-e766-4dbb-9a6d-8e540834e31a","system_id":"levelo_inurba_marseille","lat":43.304096,"lon":5.425385,"is_reserved":false,"is_disabled":false,"rental_uris":{"android":"levelo://app?vid=d42ef606-e766-4dbb-9a6d-8e540834e31a","ios":"levelo://app?vid=d42ef606-e766-4dbb-9a6d-8e540834e31a"},"vehicle_type_id":"4","last_reported":1679126950,"current_range_meters":26000,"station_id":"ce4bhoh2rcd13ifvqh6g","pricing_plan_id":"free"},{"bike_id":"0102a14d-1976-4b23-815b-e01f89045796","system_id":"levelo_inurba_marseille","lat":43.304096,"lon":5.425385,"is_reserved":false,"is_disabled":false,"rental_uris":{"android":"levelo://app?vid=0102a14d-1976-4b23-815b-e01f89045796","ios":"levelo://app?vid=0102a14d-1976-4b23-815b-e01f89045796"},"vehicle_type_id":"4","last_reported":1679126950,"current_range_meters":26000,"station_id":"ce4bhoh2rcd13ifvqh6g","pricing_plan_id":"free"},{"bike_id":"1930c931-7c3d-4e8f-8003-d1ac6bd13849","system_id":"levelo_inurba_marseille","lat":43.304096,"lon":5.425385,"is_reserved":false,"is_disabled":false,"rental_uris":{"android":"levelo://app?vid=1930c931-7c3d-4e8f-8003-d1ac6bd13849","ios":"levelo://app?vid=1930c931-7c3d-4e8f-8003-d1ac6bd13849"},"vehicle_type_id":"4","last_reported":1679126950,"current_range_meters":24800,"station_id":"ce4bhoh2rcd13ifvqh6g","pricing_plan_id":"free"},{"bike_id":"97bea5a4-2f0f-454f-be18-1417d9f857e0","system_id":"levelo_inurba_marseille","lat":43.304606,"lon":5.379026,"is_reserved":false,"is_disabled":false,"rental_uris":{"android":"levelo://app?vid=97bea5a4-2f0f-454f-be18-1417d9f857e0","ios":"levelo://app?vid=97bea5a4-2f0f-454f-be18-1417d9f857e0"},"vehicle_type_id":"4","last_reported":1679126950,"current_range_meters":25200,"station_id":"ce4bgup2rcd13ifvqcn0","pricing_plan_id":"free"},{"bike_id":"5afa55bc-3c77-4991-925d-565df3f29669","system_id":"levelo_inurba_marseille","lat":43.295523,"lon":5.422926,"is_reserved":false,"is_disabled":false,"rental_uris":{"android":"levelo://app?vid=5afa55bc-3c77-4991-925d-565df3f29669","ios":"levelo://app?vid=5afa55bc-3c77-4991-925d-565df3f29669"},"vehicle_type_id":"4","last_reported":1679126950,"current_range_meters":4800,"station_id":"ce4bhph2rcd13ifvqhdg","pricing_plan_id":"free"},{"bike_id":"07b4fcbf-0b2a-496b-a57f-97dfd12cb6e4","system_id":"levelo_inurba_marseille","lat":43.29554,"lon":5.42276,"is_reserved":false,"is_disabled":false,"rental_uris":{"android":"levelo://app?vid=07b4fcbf-0b2a-496b-a57f-97dfd12cb6e4","ios":"levelo://app?vid=07b4fcbf-0b2a-496b-a57f-97dfd12cb6e4"},"vehicle_type_id":"4","last_reported":1679126950,"current_range_meters":6000,"station_id":"","pricing_plan_id":"free"},{"bike_id":"9b282168-f6a1-478c-b744-be67d026feb4","system_id":"levelo_inurba_marseille","lat":43.295523,"lon":5.422926,"is_reserved":false,"is_disabled":false,"rental_uris":{"android":"levelo://app?vid=9b282168-f6a1-478c-b744-be67d026feb4","ios":"levelo://app?vid=9b282168-f6a1-478c-b744-be67d026feb4"},"vehicle_type_id":"4","last_reported":1679126950,"current_range_meters":23600,"station_id":"ce4bhph2rcd13ifvqhdg","pricing_plan_id":"free"},{"bike_id":"d5ce91c7-eea7-4f5f-869d-fd52053f0c67","system_id":"levelo_inurba_marseille","lat":43.295548,"lon":5.422841,"is_reserved":false,"is_disabled":false,"rental_uris":{"android":"levelo://app?vid=d5ce91c7-eea7-4f5f-869d-fd52053f0c67","ios":"levelo://app?vid=d5ce91c7-eea7-4f5f-869d-fd52053f0c67"},"vehicle_type_id":"4","last_reported":1679126950,"current_range_meters":12800,"station_id":"ce4bhph2rcd13ifvqhdg","pricing_plan_id":"free"},{"bike_id":"c9972f80-e251-4166-af7c-0461e95842a3","system_id":"levelo_inurba_marseille","lat":43.29556,"lon":5.42295,"is_reserved":false,"is_disabled":false,"rental_uris":{"android":"levelo://app?vid=c9972f80-e251-4166-af7c-0461e95842a3","ios":"levelo://app?vid=c9972f80-e251-4166-af7c-0461e95842a3"},"vehicle_type_id":"4","last_reported":1679126950,"current_range_meters":23600,"station_id":"ce4bhph2rcd13ifvqhdg","pricing_plan_id":"free"},{"bike_id":"141a9303-f150-4a10-a349-f013d006a082","system_id":"levelo_inurba_marseille","lat":43.295532,"lon":5.422949,"is_reserved":false,"is_disabled":false,"rental_uris":{"android":"levelo://app?vid=141a9303-f150-4a10-a349-f013d006a082","ios":"levelo://app?vid=141a9303-f150-4a10-a349-f013d006a082"},"vehicle_type_id":"4","last_reported":1679126950,"current_range_meters":12000,"station_id":"ce4bhph2rcd13ifvqhdg","pricing_plan_id":"free"},{"bike_id":"a8f48a1e-a17d-40e7-95b1-58c487a13c06","system_id":"levelo_inurba_marseille","lat":43.272116,"lon":5.391763,"is_reserved":false,"is_disabled":false,"rental_uris":{"android":"levelo://app?vid=a8f48a1e-a17d-40e7-95b1-58c487a13c06","ios":"levelo://app?vid=a8f48a1e-a17d-40e7-95b1-58c487a13c06"},"vehicle_type_id":"4","last_reported":1679126950,"current_range_meters":29600,"station_id":"ce4bhhp2rcd13ifvqfm0","pricing_plan_id":"free"},{"bike_id":"4735a94f-4d4b-460a-b9dc-8e24f05749ca","system_id":"levelo_inurba_marseille","lat":43.272124,"lon":5.391768,"is_reserved":false,"is_disabled":false,"rental_uris":{"android":"levelo://app?vid=4735a94f-4d4b-460a-b9dc-8e24f05749ca","ios":"levelo://app?vid=4735a94f-4d4b-460a-b9dc-8e24f05749ca"},"vehicle_type_id":"4","last_reported":1679126950,"current_range_meters":28800,"station_id":"ce4bhhp2rcd13ifvqfm0","pricing_plan_id":"free"},{"bike_id":"5e495b5b-96f8-4d58-82b0-83cbe6149e0e","system_id":"levelo_inurba_marseille","lat":43.272118,"lon":5.391758,"is_reserved":false,"is_disabled":false,"rental_uris":{"android":"levelo://app?vid=5e495b5b-96f8-4d58-82b0-83cbe6149e0e","ios":"levelo://app?vid=5e495b5b-96f8-4d58-82b0-83cbe6149e0e"},"vehicle_type_id":"4","last_reported":1679126950,"current_range_meters":31600,"station_id":"ce4bhhp2rcd13ifvqfm0","pricing_plan_id":"free"},{"bike_id":"32f97963-dfcc-488f-af32-80fc33aa10f1","system_id":"levelo_inurba_marseille","lat":43.27809,"lon":5.40712,"is_reserved":false,"is_disabled":false,"rental_uris":{"android":"levelo://app?vid=32f97963-dfcc-488f-af32-80fc33aa10f1","ios":"levelo://app?vid=32f97963-dfcc-488f-af32-80fc33aa10f1"},"vehicle_type_id":"4","last_reported":1679126950,"current_range_meters":26800,"station_id":"ce4bhnh2rcd13ifvqgtg","pricing_plan_id":"free"},{"bike_id":"6e27e3e2-a96a-4283-9610-eaf7d52e9771","system_id":"levelo_inurba_marseille","lat":43.26956,"lon":5.38638,"is_reserved":false,"is_disabled":false,"rental_uris":{"android":"levelo://app?vid=6e27e3e2-a96a-4283-9610-eaf7d52e9771","ios":"levelo://app?vid=6e27e3e2-a96a-4283-9610-eaf7d52e9771"},"vehicle_type_id":"4","last_reported":1679126950,"current_range_meters":19600,"station_id":"ce4bhh92rcd13ifvqfh0","pricing_plan_id":"free"},{"bike_id":"6b3dcc17-e244-4278-873b-dcc4f88e1197","system_id":"levelo_inurba_marseille","lat":43.33775,"lon":5.42131,"is_reserved":false,"is_disabled":false,"rental_uris":{"android":"levelo://app?vid=6b3dcc17-e244-4278-873b-dcc4f88e1197","ios":"levelo://app?vid=6b3dcc17-e244-4278-873b-dcc4f88e1197"},"vehicle_type_id":"4","last_reported":1679126950,"current_range_meters":12000,"station_id":"","pricing_plan_id":"free"},{"bike_id":"6106a0a7-f621-4090-9876-b3f58c5d5b83","system_id":"levelo_inurba_marseille","lat":43.265714,"lon":5.372891,"is_reserved":false,"is_disabled":false,"rental_uris":{"android":"levelo://app?vid=6106a0a7-f621-4090-9876-b3f58c5d5b83","ios":"levelo://app?vid=6106a0a7-f621-4090-9876-b3f58c5d5b83"},"vehicle_type_id":"4","last_reported":1679126950,"current_range_meters":3200,"station_id":"ce4bhg12rcd13ifvqf70","pricing_plan_id":"free"},{"bike_id":"055e0440-97ca-4ece-ba19-5ba8097724d6","system_id":"levelo_inurba_marseille","lat":43.26676,"lon":5.38269,"is_reserved":false,"is_disabled":false,"rental_uris":{"android":"levelo://app?vid=055e0440-97ca-4ece-ba19-5ba8097724d6","ios":"levelo://app?vid=055e0440-97ca-4ece-ba19-5ba8097724d6"},"vehicle_type_id":"4","last_reported":1679126950,"current_range_meters":11600,"station_id":"ce4bhg92rcd13ifvqf90","pricing_plan_id":"free"},{"bike_id":"14e89fb1-566d-4d04-ae87-346b5298510c","system_id":"levelo_inurba_marseille","lat":43.265714,"lon":5.372891,"is_reserved":false,"is_disabled":false,"rental_uris":{"android":"levelo://app?vid=14e89fb1-566d-4d04-ae87-346b5298510c","ios":"levelo://app?vid=14e89fb1-566d-4d04-ae87-346b5298510c"},"vehicle_type_id":"4","last_reported":1679126950,"current_range_meters":2800,"station_id":"ce4bhg12rcd13ifvqf70","pricing_plan_id":"free"},{"bike_id":"7dbc6024-b154-4400-bb97-30cf8ea3da13","system_id":"levelo_inurba_marseille","lat":43.279969,"lon":5.416606,"is_reserved":false,"is_disabled":false,"rental_uris":{"android":"levelo://app?vid=7dbc6024-b154-4400-bb97-30cf8ea3da13","ios":"levelo://app?vid=7dbc6024-b154-4400-bb97-30cf8ea3da13"},"vehicle_type_id":"4","last_reported":1679126950,"current_range_meters":0,"station_id":"ce4bho12rcd13ifvqh1g","pricing_plan_id":"free"},{"bike_id":"a0319ce5-6bc9-47e9-8d08-77caae8df01b","system_id":"levelo_inurba_marseille","lat":43.261782,"lon":5.374515,"is_reserved":false,"is_disabled":false,"rental_uris":{"android":"levelo://app?vid=a0319ce5-6bc9-47e9-8d08-77caae8df01b","ios":"levelo://app?vid=a0319ce5-6bc9-47e9-8d08-77caae8df01b"},"vehicle_type_id":"4","last_reported":1679126950,"current_range_meters":28000,"station_id":"ce4bhgp2rcd13ifvqfc0","pricing_plan_id":"free"},{"bike_id":"94301f9b-a864-4ae0-b7cf-a7a163e226da","system_id":"levelo_inurba_marseille","lat":43.261782,"lon":5.374515,"is_reserved":false,"is_disabled":false,"rental_uris":{"android":"levelo://app?vid=94301f9b-a864-4ae0-b7cf-a7a163e226da","ios":"levelo://app?vid=94301f9b-a864-4ae0-b7cf-a7a163e226da"},"vehicle_type_id":"4","last_reported":1679126950,"current_range_meters":30800,"station_id":"ce4bhgp2rcd13ifvqfc0","pricing_plan_id":"free"},{"bike_id":"e96667f1-a214-4a1c-b594-76b9eac8aafa","system_id":"levelo_inurba_marseille","lat":43.317104,"lon":5.436818,"is_reserved":false,"is_disabled":false,"rental_uris":{"android":"levelo://app?vid=e96667f1-a214-4a1c-b594-76b9eac8aafa","ios":"levelo://app?vid=e96667f1-a214-4a1c-b594-76b9eac8aafa"},"vehicle_type_id":"4","last_reported":1679126950,"current_range_meters":12800,"station_id":"ce4bhp92rcd13ifvqhcg","pricing_plan_id":"free"},{"bike_id":"65090726-8750-427f-af89-a66eb7a21f1e","system_id":"levelo_inurba_marseille","lat":43.317104,"lon":5.436818,"is_reserved":false,"is_disabled":false,"rental_uris":{"android":"levelo://app?vid=65090726-8750-427f-af89-a66eb7a21f1e","ios":"levelo://app?vid=65090726-8750-427f-af89-a66eb7a21f1e"},"vehicle_type_id":"4","last_reported":1679126950,"current_range_meters":21200,"station_id":"ce4bhp92rcd13ifvqhcg","pricing_plan_id":"free"},{"bike_id":"a625ab38-02dd-4df7-afc8-1d5475ed9446","system_id":"levelo_inurba_marseille","lat":43.262012,"lon":5.379307,"is_reserved":false,"is_disabled":false,"rental_uris":{"android":"levelo://app?vid=a625ab38-02dd-4df7-afc8-1d5475ed9446","ios":"levelo://app?vid=a625ab38-02dd-4df7-afc8-1d5475ed9446"},"vehicle_type_id":"4","last_reported":1679126950,"current_range_meters":24400,"station_id":"ce4bhjp2rcd13ifvqg90","pricing_plan_id":"free"},{"bike_id":"4771475e-9e36-4bda-8975-732fd73a60f0","system_id":"levelo_inurba_marseille","lat":43.260127,"lon":5.375535,"is_reserved":false,"is_disabled":false,"rental_uris":{"android":"levelo://app?vid=4771475e-9e36-4bda-8975-732fd73a60f0","ios":"levelo://app?vid=4771475e-9e36-4bda-8975-732fd73a60f0"},"vehicle_type_id":"4","last_reported":1679126950,"current_range_meters":8400,"station_id":"ce4bhgh2rcd13ifvqfa0","pricing_plan_id":"free"},{"bike_id":"876bac53-a75b-4fd3-ab3a-449a30a095cb","system_id":"levelo_inurba_marseille","lat":43.255756,"lon":5.382303,"is_reserved":false,"is_disabled":false,"rental_uris":{"android":"levelo://app?vid=876bac53-a75b-4fd3-ab3a-449a30a095cb","ios":"levelo://app?vid=876bac53-a75b-4fd3-ab3a-449a30a095cb"},"vehicle_type_id":"4","last_reported":1679126950,"current_range_meters":20800,"station_id":"ce4bhih2rcd13ifvqfs0","pricing_plan_id":"free"},{"bike_id":"5f36aa2d-a9a0-48e5-8604-2636489cfd34","system_id":"levelo_inurba_marseille","lat":43.255756,"lon":5.382303,"is_reserved":false,"is_disabled":false,"rental_uris":{"android":"levelo://app?vid=5f36aa2d-a9a0-48e5-8604-2636489cfd34","ios":"levelo://app?vid=5f36aa2d-a9a0-48e5-8604-2636489cfd34"},"vehicle_type_id":"4","last_reported":1679126950,"current_range_meters":5600,"station_id":"ce4bhih2rcd13ifvqfs0","pricing_plan_id":"free"},{"bike_id":"6dc5f284-9f36-4d77-8777-29e8722bf162","system_id":"levelo_inurba_marseille","lat":43.255756,"lon":5.382303,"is_reserved":false,"is_disabled":false,"rental_uris":{"android":"levelo://app?vid=6dc5f284-9f36-4d77-8777-29e8722bf162","ios":"levelo://app?vid=6dc5f284-9f36-4d77-8777-29e8722bf162"},"vehicle_type_id":"4","last_reported":1679126950,"current_range_meters":23200,"station_id":"ce4bhih2rcd13ifvqfs0","pricing_plan_id":"free"},{"bike_id":"db26e18b-aab2-4a23-9e45-3cf7b1bf06f1","system_id":"levelo_inurba_marseille","lat":43.255789,"lon":5.382397,"is_reserved":false,"is_disabled":false,"rental_uris":{"android":"levelo://app?vid=db26e18b-aab2-4a23-9e45-3cf7b1bf06f1","ios":"levelo://app?vid=db26e18b-aab2-4a23-9e45-3cf7b1bf06f1"},"vehicle_type_id":"4","last_reported":1679126950,"current_range_meters":0,"station_id":"ce4bhih2rcd13ifvqfs0","pricing_plan_id":"free"},{"bike_id":"206b87ee-7e92-434d-866d-002ab3b698dd","system_id":"levelo_inurba_marseille","lat":43.270721,"lon":5.422764,"is_reserved":false,"is_disabled":false,"rental_uris":{"android":"levelo://app?vid=206b87ee-7e92-434d-866d-002ab3b698dd","ios":"levelo://app?vid=206b87ee-7e92-434d-866d-002ab3b698dd"},"vehicle_type_id":"4","last_reported":1679126950,"current_range_meters":17200,"station_id":"ce4bhk92rcd13ifvqgb0","pricing_plan_id":"free"},{"bike_id":"5a4f00b0-535f-4dde-93c2-d600d6ccbdfc","system_id":"levelo_inurba_marseille","lat":43.270687,"lon":5.422743,"is_reserved":false,"is_disabled":false,"rental_uris":{"android":"levelo://app?vid=5a4f00b0-535f-4dde-93c2-d600d6ccbdfc","ios":"levelo://app?vid=5a4f00b0-535f-4dde-93c2-d600d6ccbdfc"},"vehicle_type_id":"4","last_reported":1679126950,"current_range_meters":6400,"station_id":"ce4bhk92rcd13ifvqgb0","pricing_plan_id":"free"},{"bike_id":"01f9478c-d287-4d04-8514-90768cd6040c","system_id":"levelo_inurba_marseille","lat":43.270721,"lon":5.422764,"is_reserved":false,"is_disabled":false,"rental_uris":{"android":"levelo://app?vid=01f9478c-d287-4d04-8514-90768cd6040c","ios":"levelo://app?vid=01f9478c-d287-4d04-8514-90768cd6040c"},"vehicle_type_id":"4","last_reported":1679126950,"current_range_meters":13200,"station_id":"ce4bhk92rcd13ifvqgb0","pricing_plan_id":"free"},{"bike_id":"1698e4bc-0cd4-42c8-b568-28e7f57b0656","system_id":"levelo_inurba_marseille","lat":43.270721,"lon":5.422764,"is_reserved":false,"is_disabled":false,"rental_uris":{"android":"levelo://app?vid=1698e4bc-0cd4-42c8-b568-28e7f57b0656","ios":"levelo://app?vid=1698e4bc-0cd4-42c8-b568-28e7f57b0656"},"vehicle_type_id":"4","last_reported":1679126950,"current_range_meters":23600,"station_id":"ce4bhk92rcd13ifvqgb0","pricing_plan_id":"free"},{"bike_id":"e0fd48dc-999a-4a05-924e-75cc52b3a4e7","system_id":"levelo_inurba_marseille","lat":43.258697,"lon":5.398957,"is_reserved":false,"is_disabled":false,"rental_uris":{"android":"levelo://app?vid=e0fd48dc-999a-4a05-924e-75cc52b3a4e7","ios":"levelo://app?vid=e0fd48dc-999a-4a05-924e-75cc52b3a4e7"},"vehicle_type_id":"4","last_reported":1679126950,"current_range_meters":20800,"station_id":"ce4bhl92rcd13ifvqghg","pricing_plan_id":"free"},{"bike_id":"08f8b756-fd05-4885-bc41-c3240c56be78","system_id":"levelo_inurba_marseille","lat":43.258674,"lon":5.39901,"is_reserved":false,"is_disabled":false,"rental_uris":{"android":"levelo://app?vid=08f8b756-fd05-4885-bc41-c3240c56be78","ios":"levelo://app?vid=08f8b756-fd05-4885-bc41-c3240c56be78"},"vehicle_type_id":"4","last_reported":1679126950,"current_range_meters":28000,"station_id":"ce4bhl92rcd13ifvqghg","pricing_plan_id":"free"},{"bike_id":"7bf54680-7462-4f6a-b4c5-183a51d7c5a2","system_id":"levelo_inurba_marseille","lat":43.25867,"lon":5.39903,"is_reserved":false,"is_disabled":false,"rental_uris":{"android":"levelo://app?vid=7bf54680-7462-4f6a-b4c5-183a51d7c5a2","ios":"levelo://app?vid=7bf54680-7462-4f6a-b4c5-183a51d7c5a2"},"vehicle_type_id":"4","last_reported":1679126950,"current_range_meters":2000,"station_id":"ce4bhl92rcd13ifvqghg","pricing_plan_id":"free"},{"bike_id":"29573fda-6bf6-45fa-ba9d-1a64a5eaf3bf","system_id":"levelo_inurba_marseille","lat":43.25861,"lon":5.39906,"is_reserved":false,"is_disabled":false,"rental_uris":{"android":"levelo://app?vid=29573fda-6bf6-45fa-ba9d-1a64a5eaf3bf","ios":"levelo://app?vid=29573fda-6bf6-45fa-ba9d-1a64a5eaf3bf"},"vehicle_type_id":"4","last_reported":1679126950,"current_range_meters":8400,"station_id":"ce4bhl92rcd13ifvqghg","pricing_plan_id":"free"},{"bike_id":"1e222674-c7fa-4849-9836-a6f20052e7b9","system_id":"levelo_inurba_marseille","lat":43.250009,"lon":5.389195,"is_reserved":false,"is_disabled":false,"rental_uris":{"android":"levelo://app?vid=1e222674-c7fa-4849-9836-a6f20052e7b9","ios":"levelo://app?vid=1e222674-c7fa-4849-9836-a6f20052e7b9"},"vehicle_type_id":"4","last_reported":1679126950,"current_range_meters":4400,"station_id":"ce4bhgp2rcd13ifvqfd0","pricing_plan_id":"free"},{"bike_id":"bf4fb621-500e-4434-aef7-29623ecc99dc","system_id":"levelo_inurba_marseille","lat":43.25,"lon":5.38929,"is_reserved":false,"is_disabled":false,"rental_uris":{"android":"levelo://app?vid=bf4fb621-500e-4434-aef7-29623ecc99dc","ios":"levelo://app?vid=bf4fb621-500e-4434-aef7-29623ecc99dc"},"vehicle_type_id":"4","last_reported":1679126950,"current_range_meters":14000,"station_id":"ce4bhgp2rcd13ifvqfd0","pricing_plan_id":"free"},{"bike_id":"b97371b0-2081-4d7c-9ff6-4ce3dbddad9f","system_id":"levelo_inurba_marseille","lat":43.250009,"lon":5.389195,"is_reserved":false,"is_disabled":false,"rental_uris":{"android":"levelo://app?vid=b97371b0-2081-4d7c-9ff6-4ce3dbddad9f","ios":"levelo://app?vid=b97371b0-2081-4d7c-9ff6-4ce3dbddad9f"},"vehicle_type_id":"4","last_reported":1679126950,"current_range_meters":0,"station_id":"ce4bhgp2rcd13ifvqfd0","pricing_plan_id":"free"},{"bike_id":"fa2b681f-8672-4599-8263-aa7e1cbcfe31","system_id":"levelo_inurba_marseille","lat":43.24812,"lon":5.37455,"is_reserved":false,"is_disabled":false,"rental_uris":{"android":"levelo://app?vid=fa2b681f-8672-4599-8263-aa7e1cbcfe31","ios":"levelo://app?vid=fa2b681f-8672-4599-8263-aa7e1cbcfe31"},"vehicle_type_id":"4","last_reported":1679126950,"current_range_meters":18000,"station_id":"","pricing_plan_id":"free"},{"bike_id":"e7987d1e-4c1e-4857-95a0-727645aaef87","system_id":"levelo_inurba_marseille","lat":43.24996,"lon":5.38936,"is_reserved":false,"is_disabled":false,"rental_uris":{"android":"levelo://app?vid=e7987d1e-4c1e-4857-95a0-727645aaef87","ios":"levelo://app?vid=e7987d1e-4c1e-4857-95a0-727645aaef87"},"vehicle_type_id":"4","last_reported":1679126950,"current_range_meters":19600,"station_id":"","pricing_plan_id":"free"},{"bike_id":"b0ccfefc-3daf-4987-8681-8c237e38623c","system_id":"levelo_inurba_marseille","lat":43.2479,"lon":5.374457,"is_reserved":false,"is_disabled":false,"rental_uris":{"android":"levelo://app?vid=b0ccfefc-3daf-4987-8681-8c237e38623c","ios":"levelo://app?vid=b0ccfefc-3daf-4987-8681-8c237e38623c"},"vehicle_type_id":"4","last_reported":1679126950,"current_range_meters":30400,"station_id":"ce4bhgh2rcd13ifvqfb0","pricing_plan_id":"free"},{"bike_id":"b45c3d7d-725d-4701-b842-177ec60ec6ed","system_id":"levelo_inurba_marseille","lat":43.24693,"lon":5.382096,"is_reserved":false,"is_disabled":false,"rental_uris":{"android":"levelo://app?vid=b45c3d7d-725d-4701-b842-177ec60ec6ed","ios":"levelo://app?vid=b45c3d7d-725d-4701-b842-177ec60ec6ed"},"vehicle_type_id":"4","last_reported":1679126950,"current_range_meters":28800,"station_id":"ce4bhih2rcd13ifvqfr0","pricing_plan_id":"free"},{"bike_id":"e56b01f5-e13c-4a51-a6f6-d4286fbeb09e","system_id":"levelo_inurba_marseille","lat":43.24693,"lon":5.382096,"is_reserved":false,"is_disabled":false,"rental_uris":{"android":"levelo://app?vid=e56b01f5-e13c-4a51-a6f6-d4286fbeb09e","ios":"levelo://app?vid=e56b01f5-e13c-4a51-a6f6-d4286fbeb09e"},"vehicle_type_id":"4","last_reported":1679126950,"current_range_meters":28000,"station_id":"ce4bhih2rcd13ifvqfr0","pricing_plan_id":"free"},{"bike_id":"7ce66863-916e-43d9-9f4d-1ac9f0665a8c","system_id":"levelo_inurba_marseille","lat":43.246467,"lon":5.388984,"is_reserved":false,"is_disabled":false,"rental_uris":{"android":"levelo://app?vid=7ce66863-916e-43d9-9f4d-1ac9f0665a8c","ios":"levelo://app?vid=7ce66863-916e-43d9-9f4d-1ac9f0665a8c"},"vehicle_type_id":"4","last_reported":1679126950,"current_range_meters":26400,"station_id":"ce4bhg12rcd13ifvqf60","pricing_plan_id":"free"},{"bike_id":"592adabc-a5ae-45cb-8040-f3f3638a9dd4","system_id":"levelo_inurba_marseille","lat":43.246461,"lon":5.389014,"is_reserved":false,"is_disabled":false,"rental_uris":{"android":"levelo://app?vid=592adabc-a5ae-45cb-8040-f3f3638a9dd4","ios":"levelo://app?vid=592adabc-a5ae-45cb-8040-f3f3638a9dd4"},"vehicle_type_id":"4","last_reported":1679126950,"current_range_meters":29200,"station_id":"ce4bhg12rcd13ifvqf60","pricing_plan_id":"free"},{"bike_id":"2f2e67d9-ef12-49f5-93bb-89e83bd22016","system_id":"levelo_inurba_marseille","lat":43.246467,"lon":5.388984,"is_reserved":false,"is_disabled":false,"rental_uris":{"android":"levelo://app?vid=2f2e67d9-ef12-49f5-93bb-89e83bd22016","ios":"levelo://app?vid=2f2e67d9-ef12-49f5-93bb-89e83bd22016"},"vehicle_type_id":"4","last_reported":1679126950,"current_range_meters":31600,"station_id":"ce4bhg12rcd13ifvqf60","pricing_plan_id":"free"},{"bike_id":"ecb3a446-224f-464f-b1cd-12740cea4b67","system_id":"levelo_inurba_marseille","lat":43.243884,"lon":5.370736,"is_reserved":false,"is_disabled":false,"rental_uris":{"android":"levelo://app?vid=ecb3a446-224f-464f-b1cd-12740cea4b67","ios":"levelo://app?vid=ecb3a446-224f-464f-b1cd-12740cea4b67"},"vehicle_type_id":"4","last_reported":1679126950,"current_range_meters":30400,"station_id":"ce4bhhh2rcd13ifvqfk0","pricing_plan_id":"free"},{"bike_id":"2164f18f-0344-4d2e-98fb-4b2c39043597","system_id":"levelo_inurba_marseille","lat":43.243884,"lon":5.370736,"is_reserved":false,"is_disabled":false,"rental_uris":{"android":"levelo://app?vid=2164f18f-0344-4d2e-98fb-4b2c39043597","ios":"levelo://app?vid=2164f18f-0344-4d2e-98fb-4b2c39043597"},"vehicle_type_id":"4","last_reported":1679126950,"current_range_meters":31600,"station_id":"ce4bhhh2rcd13ifvqfk0","pricing_plan_id":"free"},{"bike_id":"a7bcec04-9f64-40ff-8d5c-251fa67987f5","system_id":"levelo_inurba_marseille","lat":43.243884,"lon":5.370736,"is_reserved":false,"is_disabled":false,"rental_uris":{"android":"levelo://app?vid=a7bcec04-9f64-40ff-8d5c-251fa67987f5","ios":"levelo://app?vid=a7bcec04-9f64-40ff-8d5c-251fa67987f5"},"vehicle_type_id":"4","last_reported":1679126950,"current_range_meters":31600,"station_id":"ce4bhhh2rcd13ifvqfk0","pricing_plan_id":"free"},{"bike_id":"7cf502a4-d89a-4150-9a4f-384b140ecf74","system_id":"levelo_inurba_marseille","lat":43.243884,"lon":5.370736,"is_reserved":false,"is_disabled":false,"rental_uris":{"android":"levelo://app?vid=7cf502a4-d89a-4150-9a4f-384b140ecf74","ios":"levelo://app?vid=7cf502a4-d89a-4150-9a4f-384b140ecf74"},"vehicle_type_id":"4","last_reported":1679126950,"current_range_meters":14000,"station_id":"ce4bhhh2rcd13ifvqfk0","pricing_plan_id":"free"},{"bike_id":"27450aed-d877-488a-a0ec-8d24e5ef24d4","system_id":"levelo_inurba_marseille","lat":43.243884,"lon":5.370736,"is_reserved":false,"is_disabled":false,"rental_uris":{"android":"levelo://app?vid=27450aed-d877-488a-a0ec-8d24e5ef24d4","ios":"levelo://app?vid=27450aed-d877-488a-a0ec-8d24e5ef24d4"},"vehicle_type_id":"4","last_reported":1679126950,"current_range_meters":20400,"station_id":"ce4bhhh2rcd13ifvqfk0","pricing_plan_id":"free"},{"bike_id":"782a3d8c-8a8b-4ca2-a441-c2168bb095ed","system_id":"levelo_inurba_marseille","lat":43.245581,"lon":5.395069,"is_reserved":false,"is_disabled":false,"rental_uris":{"android":"levelo://app?vid=782a3d8c-8a8b-4ca2-a441-c2168bb095ed","ios":"levelo://app?vid=782a3d8c-8a8b-4ca2-a441-c2168bb095ed"},"vehicle_type_id":"4","last_reported":1679126950,"current_range_meters":26400,"station_id":"ce4bhlp2rcd13ifvqgjg","pricing_plan_id":"free"},{"bike_id":"a21ff591-b797-470a-9a64-b6c3a667dee5","system_id":"levelo_inurba_marseille","lat":43.245581,"lon":5.395069,"is_reserved":false,"is_disabled":false,"rental_uris":{"android":"levelo://app?vid=a21ff591-b797-470a-9a64-b6c3a667dee5","ios":"levelo://app?vid=a21ff591-b797-470a-9a64-b6c3a667dee5"},"vehicle_type_id":"4","last_reported":1679126950,"current_range_meters":31600,"station_id":"ce4bhlp2rcd13ifvqgjg","pricing_plan_id":"free"},{"bike_id":"5c6341fd-8bc2-48ef-b984-5aab12472d86","system_id":"levelo_inurba_marseille","lat":43.287543,"lon":5.458893,"is_reserved":false,"is_disabled":false,"rental_uris":{"android":"levelo://app?vid=5c6341fd-8bc2-48ef-b984-5aab12472d86","ios":"levelo://app?vid=5c6341fd-8bc2-48ef-b984-5aab12472d86"},"vehicle_type_id":"4","last_reported":1679126950,"current_range_meters":8400,"station_id":"","pricing_plan_id":"free"},{"bike_id":"fd4f3f4c-fe43-47d4-bd0a-5ece4cf39169","system_id":"levelo_inurba_marseille","lat":43.28735,"lon":5.45888,"is_reserved":false,"is_disabled":false,"rental_uris":{"android":"levelo://app?vid=fd4f3f4c-fe43-47d4-bd0a-5ece4cf39169","ios":"levelo://app?vid=fd4f3f4c-fe43-47d4-bd0a-5ece4cf39169"},"vehicle_type_id":"4","last_reported":1679126950,"current_range_meters":0,"station_id":"","pricing_plan_id":"free"},{"bike_id":"c03daf93-bd02-4eae-9c2b-09e471aa7c7a","system_id":"levelo_inurba_marseille","lat":43.240623,"lon":5.377642,"is_reserved":false,"is_disabled":false,"rental_uris":{"android":"levelo://app?vid=c03daf93-bd02-4eae-9c2b-09e471aa7c7a","ios":"levelo://app?vid=c03daf93-bd02-4eae-9c2b-09e471aa7c7a"},"vehicle_type_id":"4","last_reported":1679126950,"current_range_meters":15200,"station_id":"ce4bhnp2rcd13ifvqgvg","pricing_plan_id":"free"},{"bike_id":"5521ec33-ee6d-49f4-9471-d24cf70bcd7b","system_id":"levelo_inurba_marseille","lat":43.240623,"lon":5.377642,"is_reserved":false,"is_disabled":false,"rental_uris":{"android":"levelo://app?vid=5521ec33-ee6d-49f4-9471-d24cf70bcd7b","ios":"levelo://app?vid=5521ec33-ee6d-49f4-9471-d24cf70bcd7b"},"vehicle_type_id":"4","last_reported":1679126950,"current_range_meters":31600,"station_id":"ce4bhnp2rcd13ifvqgvg","pricing_plan_id":"free"},{"bike_id":"d1636f64-6b09-4b48-bf38-0b5b7957612a","system_id":"levelo_inurba_marseille","lat":43.240623,"lon":5.377642,"is_reserved":false,"is_disabled":false,"rental_uris":{"android":"levelo://app?vid=d1636f64-6b09-4b48-bf38-0b5b7957612a","ios":"levelo://app?vid=d1636f64-6b09-4b48-bf38-0b5b7957612a"},"vehicle_type_id":"4","last_reported":1679126950,"current_range_meters":31600,"station_id":"ce4bhnp2rcd13ifvqgvg","pricing_plan_id":"free"},{"bike_id":"6c1b86ae-6f99-47ab-850c-d6cfd7e427f3","system_id":"levelo_inurba_marseille","lat":43.240623,"lon":5.377642,"is_reserved":false,"is_disabled":false,"rental_uris":{"android":"levelo://app?vid=6c1b86ae-6f99-47ab-850c-d6cfd7e427f3","ios":"levelo://app?vid=6c1b86ae-6f99-47ab-850c-d6cfd7e427f3"},"vehicle_type_id":"4","last_reported":1679126950,"current_range_meters":23600,"station_id":"ce4bhnp2rcd13ifvqgvg","pricing_plan_id":"free"},{"bike_id":"e2b39f61-a433-4fea-8ef4-f9a8742713b8","system_id":"levelo_inurba_marseille","lat":43.240623,"lon":5.377642,"is_reserved":false,"is_disabled":false,"rental_uris":{"android":"levelo://app?vid=e2b39f61-a433-4fea-8ef4-f9a8742713b8","ios":"levelo://app?vid=e2b39f61-a433-4fea-8ef4-f9a8742713b8"},"vehicle_type_id":"4","last_reported":1679126950,"current_range_meters":10400,"station_id":"ce4bhnp2rcd13ifvqgvg","pricing_plan_id":"free"},{"bike_id":"77800063-d00a-4522-9222-b8d7fdda693b","system_id":"levelo_inurba_marseille","lat":43.240623,"lon":5.377642,"is_reserved":false,"is_disabled":false,"rental_uris":{"android":"levelo://app?vid=77800063-d00a-4522-9222-b8d7fdda693b","ios":"levelo://app?vid=77800063-d00a-4522-9222-b8d7fdda693b"},"vehicle_type_id":"4","last_reported":1679126950,"current_range_meters":31600,"station_id":"ce4bhnp2rcd13ifvqgvg","pricing_plan_id":"free"},{"bike_id":"811a07ed-5ca5-49ed-93cc-5ab9d215e5d0","system_id":"levelo_inurba_marseille","lat":43.240623,"lon":5.377642,"is_reserved":false,"is_disabled":false,"rental_uris":{"android":"levelo://app?vid=811a07ed-5ca5-49ed-93cc-5ab9d215e5d0","ios":"levelo://app?vid=811a07ed-5ca5-49ed-93cc-5ab9d215e5d0"},"vehicle_type_id":"4","last_reported":1679126950,"current_range_meters":27200,"station_id":"ce4bhnp2rcd13ifvqgvg","pricing_plan_id":"free"},{"bike_id":"1b1d4d40-f035-4b05-ac23-061d1c3ac3e4","system_id":"levelo_inurba_marseille","lat":43.240623,"lon":5.377642,"is_reserved":false,"is_disabled":false,"rental_uris":{"android":"levelo://app?vid=1b1d4d40-f035-4b05-ac23-061d1c3ac3e4","ios":"levelo://app?vid=1b1d4d40-f035-4b05-ac23-061d1c3ac3e4"},"vehicle_type_id":"4","last_reported":1679126950,"current_range_meters":31600,"station_id":"ce4bhnp2rcd13ifvqgvg","pricing_plan_id":"free"},{"bike_id":"1cf51fd7-292b-4239-aa57-f8f4b8e031d4","system_id":"levelo_inurba_marseille","lat":43.240623,"lon":5.377642,"is_reserved":false,"is_disabled":false,"rental_uris":{"android":"levelo://app?vid=1cf51fd7-292b-4239-aa57-f8f4b8e031d4","ios":"levelo://app?vid=1cf51fd7-292b-4239-aa57-f8f4b8e031d4"},"vehicle_type_id":"4","last_reported":1679126950,"current_range_meters":31600,"station_id":"ce4bhnp2rcd13ifvqgvg","pricing_plan_id":"free"},{"bike_id":"339c1e63-5f80-41c0-9b02-04a53519dd7f","system_id":"levelo_inurba_marseille","lat":43.240623,"lon":5.377642,"is_reserved":false,"is_disabled":false,"rental_uris":{"android":"levelo://app?vid=339c1e63-5f80-41c0-9b02-04a53519dd7f","ios":"levelo://app?vid=339c1e63-5f80-41c0-9b02-04a53519dd7f"},"vehicle_type_id":"4","last_reported":1679126950,"current_range_meters":18000,"station_id":"ce4bhnp2rcd13ifvqgvg","pricing_plan_id":"free"},