{"last_updated":1739884594,"ttl":60,"version":"2.2","data":{"bikes":[{"bike_id":"ce61429a-686f-445d-80d9-4b10876ed4ef","system_id":"levelo_inurba_marseille","lat":43.337444,"lon":5.374475,"is_reserved":false,"is_disabled":true,"rental_uris":{"android":"levelo://app?vid=ce61429a-686f-445d-80d9-4b10876ed4ef","ios":"levelo://app?vid=ce61429a-686f-445d-80d9-4b10876ed4ef"},"vehicle_type_id":"4","last_reported":1739884594,"current_range_meters":2800,"station_id":"","pricing_plan_id":"cebpf4jnsgd1na2vs0mg"},{"bike_id":"6e1960f9-d53c-471a-9493-d99c2b003da3","system_id":"levelo_inurba_marseille","lat":43.30459,"lon":5.37902,"is_reserved":false,"is_disabled":false,"rental_uris":{"android":"levelo://app?vid=6e1960f9-d53c-471a-9493-d99c2b003da3","ios":"levelo://app?vid=6e1960f9-d53c-471a-9493-d99c2b003da3"},"vehicle_type_id":"4","last_reported":1739884594,"current_range_meters":3200,"station_id":"ce4bgup2rcd13ifvqcn0","pricing_plan_id":"cebpf4jnsgd1na2vs0mg"},{"bike_id":"c4916927-7d10-4eb6-bf80-df6fa900d439","system_id":"levelo_inurba_marseille","lat":43.29554,"lon":5.42302,"is_reserved":false,"is_disabled":true,"rental_uris":{"android":"levelo://app?vid=c4916927-7d10-4eb6-bf80-df6fa900d439","ios":"levelo://app?vid=c4916927-7d10-4eb6-bf80-df6fa900d439"},"vehicle_type_id":"4","last_reported":1739884594,"current_range_meters":3200,"station_id":"ce4bhph2rcd13ifvqhdg","pricing_plan_id":"cebpf4jnsgd1na2vs0mg"},{"bike_id":"c06aa0e5-9150-47d2-8bae-396b7a393565","system_id":"levelo_inurba_marseille","lat":43.259167,"lon":5.408906,"is_reserved":false,"is_disabled":true,"rental_uris":{"android":"levelo://app?vid=c06aa0e5-9150-47d2-8bae-396b7a393565","ios":"levelo://app?vid=c06aa0e5-9150-47d2-8bae-396b7a393565"},"vehicle_type_id":"4","last_reported":1739884594,"current_range_meters":3600,"station_id":"ce4bhg12rcd13ifvqf60","pricing_plan_id":"cebpf4jnsgd1na2vs0mg"},{"bike_id":"4a3367e9-80cf-447d-ae78-02201a45d005","system_id":"levelo_inurba_marseille","lat":43.33728,"lon":5.39175,"is_reserved":false,"is_disabled":false,"rental_uris":{"android":"levelo://app?vid=4a3367e9-80cf-447d-ae78-02201a45d005","ios":"levelo://app?vid=4a3367e9-80cf-447d-ae78-02201a45d005"},"vehicle_type_id":"4","last_reported":1739884594,"current_range_meters":4000,"station_id":"ce4bhr92rcd13ifvqhsg","pricing_plan_id":"cebpf4jnsgd1na2vs0mg"},{"bike_id":"52cb6900-966b-4c32-88d8-8050b7ae0489","system_id":"levelo_inurba_marseille","lat":43.29039,"lon":5.39973,"is_reserved":false,"is_disabled":false,"rental_uris":{"android":"levelo://app?vid=52cb6900-966b-4c32-88d8-8050b7ae0489","ios":"levelo://app?vid=52cb6900-966b-4c32-88d8-8050b7ae0489"},"vehicle_type_id":"4","last_reported":1739884594,"current_range_meters":4800,"station_id":"ce4bh392rcd13ifvqdm0","pricing_plan_id":"cebpf4jnsgd1na2vs0mg"},{"bike_id":"99490785-3eeb-4f92-9d91-0ddec27d0873","system_id":"levelo_inurba_marseille","lat":43.24008,"lon":5.37626,"is_reserved":false,"is_disabled":false,"rental_uris":{"android":"levelo://app?vid=99490785-3eeb-4f92-9d91-0ddec27d0873","ios":"levelo://app?vid=99490785-3eeb-4f92-9d91-0ddec27d0873"},"vehicle_type_id":"4","last_reported":1739884594,"current_range_meters":4800,"station_id":"ce4bhnp2rcd13ifvqgvg","pricing_plan_id":"cebpf4jnsgd1na2vs0mg"},{"bike_id":"8633cf5c-7853-4309-96a2-4edd0c35daef","system_id":"levelo_inurba_marseille","lat":43.28428,"lon":5.34978,"is_reserved":false,"is_disabled":false,"rental_uris":{"android":"levelo://app?vid=8633cf5c-7853-4309-96a2-4edd0c35daef","ios":"levelo://app?vid=8633cf5c-7853-4309-96a2-4edd0c35daef"},"vehicle_type_id":"4","last_reported":1739884594,"current_range_meters":4800,"station_id":"ce4bhbh2rcd13ifvqepg","pricing_plan_id":"cebpf4jnsgd1na2vs0mg"},{"bike_id":"f34fd237-e1d0-40c1-87cc-fbbf14a20021","system_id":"levelo_inurba_marseille","lat":43.25939,"lon":5.40899,"is_reserved":false,"is_disabled":false,"rental_uris":{"android":"levelo://app?vid=f34fd237-e1d0-40c1-87cc-fbbf14a20021","ios":"levelo://app?vid=f34fd237-e1d0-40c1-87cc-fbbf14a20021"},"vehicle_type_id":"4","last_reported":1739884594,"current_range_meters":5600,"station_id":"","pricing_plan_id":"cebpf4jnsgd1na2vs0mg"},{"bike_id":"2b278cf2-594f-4230-8154-882e1df047f2","system_id":"levelo_inurba_marseille","lat":43.24076,"lon":5.37762,"is_reserved":false,"is_disabled":false,"rental_uris":{"android":"levelo://app?vid=2b278cf2-594f-4230-8154-882e1df047f2","ios":"levelo://app?vid=2b278cf2-594f-4230-8154-882e1df047f2"},"vehicle_type_id":"4","last_reported":1739884594,"current_range_meters":5600,"station_id":"ce4bhnp2rcd13ifvqgvg","pricing_plan_id":"cebpf4jnsgd1na2vs0mg"},{"bike_id":"870c4024-39e9-4436-af7c-d6948b74c79b","system_id":"levelo_inurba_marseille","lat":43.28156,"lon":5.42636,"is_reserved":false,"is_disabled":false,"rental_uris":{"android":"levelo://app?vid=870c4024-39e9-4436-af7c-d6948b74c79b","ios":"levelo://app?vid=870c4024-39e9-4436-af7c-d6948b74c79b"},"vehicle_type_id":"4","last_reported":1739884594,"current_range_meters":6000,"station_id":"","pricing_plan_id":"cebpf4jnsgd1na2vs0mg"},{"bike_id":"995bac75-72ad-424a-8783-998d8811e434","system_id":"levelo_inurba_marseille","lat":43.26951,"lon":5.3862,"is_reserved":false,"is_disabled":false,"rental_uris":{"android":"levelo://app?vid=995bac75-72ad-424a-8783-998d8811e434","ios":"levelo://app?vid=995bac75-72ad-424a-8783-998d8811e434"},"vehicle_type_id":"4","last_reported":1739884594,"current_range_meters":6000,"station_id":"ce4bhh92rcd13ifvqfh0","pricing_plan_id":"cebpf4jnsgd1na2vs0mg"},{"bike_id":"5e6a1419-94ed-4e5f-b036-46974c0f39a4","system_id":"levelo_inurba_marseille","lat":43.2998,"lon":5.38479,"is_reserved":false,"is_disabled":false,"rental_uris":{"android":"levelo://app?vid=5e6a1419-94ed-4e5f-b036-46974c0f39a4","ios":"levelo://app?vid=5e6a1419-94ed-4e5f-b036-46974c0f39a4"},"vehicle_type_id":"4","last_reported":1739884594,"current_range_meters":4400,"station_id":"ce4bgj92rcd13ifvqbd0","pricing_plan_id":"cebpf4jnsgd1na2vs0mg"},{"bike_id":"6991a772-486c-4960-badd-5dde38b52526","system_id":"levelo_inurba_marseille","lat":43.3047,"lon":5.37894,"is_reserved":false,"is_disabled":false,"rental_uris":{"android":"levelo://app?vid=6991a772-486c-4960-badd-5dde38b52526","ios":"levelo://app?vid=6991a772-486c-4960-badd-5dde38b52526"},"vehicle_type_id":"4","last_reported":1739884594,"current_range_meters":6400,"station_id":"ce4bgup2rcd13ifvqcn0","pricing_plan_id":"cebpf4jnsgd1na2vs0mg"},{"bike_id":"2e5e89c3-0e0e-4cca-b25a-7707cb6d7c5d","system_id":"levelo_inurba_marseille","lat":43.27676,"lon":5.40839,"is_reserved":false,"is_disabled":false,"rental_uris":{"android":"levelo://app?vid=2e5e89c3-0e0e-4cca-b25a-7707cb6d7c5d","ios":"levelo://app?vid=2e5e89c3-0e0e-4cca-b25a-7707cb6d7c5d"},"vehicle_type_id":"4","last_reported":1739884594,"current_range_meters":6400,"station_id":"","pricing_plan_id":"cebpf4jnsgd1na2vs0mg"},{"bike_id":"082899f2-db62-443b-9d51-62d93188a678","system_id":"levelo_inurba_marseille","lat":43.27171,"lon":5.40998,"is_reserved":false,"is_disabled":false,"rental_uris":{"android":"levelo://app?vid=082899f2-db62-443b-9d51-62d93188a678","ios":"levelo://app?vid=082899f2-db62-443b-9d51-62d93188a678"},"vehicle_type_id":"4","last_reported":1739884594,"current_range_meters":6400,"station_id":"ce4bhl12rcd13ifvqgf0","pricing_plan_id":"cebpf4jnsgd1na2vs0mg"},{"bike_id":"dcc5e4d0-d8bc-44ba-96bd-c2009e98dea4","system_id":"levelo_inurba_marseille","lat":43.25932,"lon":5.40875,"is_reserved":false,"is_disabled":false,"rental_uris":{"android":"levelo://app?vid=dcc5e4d0-d8bc-44ba-96bd-c2009e98dea4","ios":"levelo://app?vid=dcc5e4d0-d8bc-44ba-96bd-c2009e98dea4"},"vehicle_type_id":"4","last_reported":1739884594,"current_range_meters":6400,"station_id":"ce4bhm92rcd13ifvqglg","pricing_plan_id":"cebpf4jnsgd1na2vs0mg"},{"bike_id":"6f2b3b15-b81d-4b23-9ad9-b54cf1f9c8fc","system_id":"levelo_inurba_marseille","lat":43.32555,"lon":5.41474,"is_reserved":false,"is_disabled":false,"rental_uris":{"android":"levelo://app?vid=6f2b3b15-b81d-4b23-9ad9-b54cf1f9c8fc","ios":"levelo://app?vid=6f2b3b15-b81d-4b23-9ad9-b54cf1f9c8fc"},"vehicle_type_id":"4","last_reported":1739884594,"current_range_meters":6400,"station_id":"ce4bhq12rcd13ifvqhhg","pricing_plan_id":"cebpf4jnsgd1na2vs0mg"},{"bike_id":"366c6b8f-5363-42c9-9eb4-d5983ecb03c6","system_id":"levelo_inurba_marseille","lat":43.31114,"lon":5.37765,"is_reserved":false,"is_disabled":false,"rental_uris":{"android":"levelo://app?vid=366c6b8f-5363-42c9-9eb4-d5983ecb03c6","ios":"levelo://app?vid=366c6b8f-5363-42c9-9eb4-d5983ecb03c6"},"vehicle_type_id":"4","last_reported":1739884594,"current_range_meters":6800,"station_id":"ce4bgt92rcd13ifvqcg0","pricing_plan_id":"cebpf4jnsgd1na2vs0mg"},{"bike_id":"3d44f9a9-8470-4c01-974a-625407d54e20","system_id":"levelo_inurba_marseille","lat":43.32455,"lon":5.3656,"is_reserved":false,"is_disabled":false,"rental_uris":{"android":"levelo://app?vid=3d44f9a9-8470-4c01-974a-625407d54e20","ios":"levelo://app?vid=3d44f9a9-8470-4c01-974a-625407d54e20"},"vehicle_type_id":"4","last_reported":1739884594,"current_range_meters":6800,"station_id":"","pricing_plan_id":"cebpf4jnsgd1na2vs0mg"},{"bike_id":"23956d5e-457a-41cf-b4c6-04eed1f4d6d4","system_id":"levelo_inurba_marseille","lat":43.25937,"lon":5.40894,"is_reserved":false,"is_disabled":false,"rental_uris":{"android":"levelo://app?vid=23956d5e-457a-41cf-b4c6-04eed1f4d6d4","ios":"levelo://app?vid=23956d5e-457a-41cf-b4c6-04eed1f4d6d4"},"vehicle_type_id":"4","last_reported":1739884594,"current_range_meters":6800,"station_id":"","pricing_plan_id":"cebpf4jnsgd1na2vs0mg"},{"bike_id":"34dc1391-a256-4af0-b6fe-18383869ac9a","system_id":"levelo_inurba_marseille","lat":43.24067,"lon":5.37753,"is_reserved":false,"is_disabled":false,"rental_uris":{"android":"levelo://app?vid=34dc1391-a256-4af0-b6fe-18383869ac9a","ios":"levelo://app?vid=34dc1391-a256-4af0-b6fe-18383869ac9a"},"vehicle_type_id":"4","last_reported":1739884594,"current_range_meters":6800,"station_id":"","pricing_plan_id":"cebpf4jnsgd1na2vs0mg"},{"bike_id":"0f119bb9-42f5-484d-a273-90a601312646","system_id":"levelo_inurba_marseille","lat":43.28426,"lon":5.34979,"is_reserved":false,"is_disabled":false,"rental_uris":{"android":"levelo://app?vid=0f119bb9-42f5-484d-a273-90a601312646","ios":"levelo://app?vid=0f119bb9-42f5-484d-a273-90a601312646"},"vehicle_type_id":"4","last_reported":1739884594,"current_range_meters":6800,"station_id":"ce4bhk92rcd13ifvqgb0","pricing_plan_id":"cebpf4jnsgd1na2vs0mg"},{"bike_id":"430110be-e494-4d47-88fd-fb2b33b394ee","system_id":"levelo_inurba_marseille","lat":43.33019,"lon":5.39044,"is_reserved":false,"is_disabled":false,"rental_uris":{"android":"levelo://app?vid=430110be-e494-4d47-88fd-fb2b33b394ee","ios":"levelo://app?vid=430110be-e494-4d47-88fd-fb2b33b394ee"},"vehicle_type_id":"4","last_reported":1739884594,"current_range_meters":7200,"station_id":"ce4bhr92rcd13ifvqhrg","pricing_plan_id":"cebpf4jnsgd1na2vs0mg"},{"bike_id":"49b2c4da-cc5a-4bfb-a60e-be328f98f1e4","system_id":"levelo_inurba_marseille","lat":43.29224,"lon":5.36062,"is_reserved":false,"is_disabled":false,"rental_uris":{"android":"levelo://app?vid=49b2c4da-cc5a-4bfb-a60e-be328f98f1e4","ios":"levelo://app?vid=49b2c4da-cc5a-4bfb-a60e-be328f98f1e4"},"vehicle_type_id":"4","last_reported":1739884594,"current_range_meters":7200,"station_id":"ce4bhbh2rcd13ifvqeqg","pricing_plan_id":"cebpf4jnsgd1na2vs0mg"},{"bike_id":"1441ab16-218e-4d90-b3a7-621633692bd3","system_id":"levelo_inurba_marseille","lat":43.25719,"lon":5.41122,"is_reserved":false,"is_disabled":false,"rental_uris":{"android":"levelo://app?vid=1441ab16-218e-4d90-b3a7-621633692bd3","ios":"levelo://app?vid=1441ab16-218e-4d90-b3a7-621633692bd3"},"vehicle_type_id":"4","last_reported":1739884594,"current_range_meters":7200,"station_id":"ce4bhkp2rcd13ifvqgd0","pricing_plan_id":"cebpf4jnsgd1na2vs0mg"},{"bike_id":"e05211db-bbfa-4a0b-ab6f-4634c955683b","system_id":"levelo_inurba_marseille","lat":43.31174,"lon":5.3872,"is_reserved":false,"is_disabled":false,"rental_uris":{"android":"levelo://app?vid=e05211db-bbfa-4a0b-ab6f-4634c955683b","ios":"levelo://app?vid=e05211db-bbfa-4a0b-ab6f-4634c955683b"},"vehicle_type_id":"4","last_reported":1739884594,"current_range_meters":8400,"station_id":"ce4bgv12rcd13ifvqcp0","pricing_plan_id":"cebpf4jnsgd1na2vs0mg"},{"bike_id":"8dbe617a-73bb-43b1-955a-f0b57c2f6fa2","system_id":"levelo_inurba_marseille","lat":43.27378,"lon":5.36254,"is_reserved":false,"is_disabled":false,"rental_uris":{"android":"levelo://app?vid=8dbe617a-73bb-43b1-955a-f0b57c2f6fa2","ios":"levelo://app?vid=8dbe617a-73bb-43b1-955a-f0b57c2f6fa2"},"vehicle_type_id":"4","last_reported":1739884594,"current_range_meters":7200,"station_id":"ce4bhbh2rcd13ifvqeo0","pricing_plan_id":"cebpf4jnsgd1na2vs0mg"},{"bike_id":"98dafedc-f25b-409d-b3e2-803b47ffb900","system_id":"levelo_inurba_marseille","lat":43.245,"lon":5.372373,"is_reserved":false,"is_disabled":false,"rental_uris":{"android":"levelo://app?vid=98dafedc-f25b-409d-b3e2-803b47ffb900","ios":"levelo://app?vid=98dafedc-f25b-409d-b3e2-803b47ffb900"},"vehicle_type_id":"4","last_reported":1739884594,"current_range_meters":7200,"station_id":"","pricing_plan_id":"cebpf4jnsgd1na2vs0mg"},{"bike_id":"2fc51c18-93da-4c7a-ae54-30bc1bf5f64d","system_id":"levelo_inurba_marseille","lat":43.2951,"lon":5.38198,"is_reserved":false,"is_disabled":true,"rental_uris":{"android":"levelo://app?vid=2fc51c18-93da-4c7a-ae54-30bc1bf5f64d","ios":"levelo://app?vid=2fc51c18-93da-4c7a-ae54-30bc1bf5f64d"},"vehicle_type_id":"4","last_reported":1739884594,"current_range_meters":7200,"station_id":"","pricing_plan_id":"cebpf4jnsgd1na2vs0mg"},{"bike_id":"55eb0a7c-6b29-484f-b637-0634ae3a25c8","system_id":"levelo_inurba_marseille","lat":43.25911,"lon":5.40879,"is_reserved":false,"is_disabled":false,"rental_uris":{"android":"levelo://app?vid=55eb0a7c-6b29-484f-b637-0634ae3a25c8","ios":"levelo://app?vid=55eb0a7c-6b29-484f-b637-0634ae3a25c8"},"vehicle_type_id":"4","last_reported":1739884594,"current_range_meters":8000,"station_id":"","pricing_plan_id":"cebpf4jnsgd1na2vs0mg"},{"bike_id":"24daba64-a19e-4f71-8127-0f17036d852c","system_id":"levelo_inurba_marseille","lat":43.30546,"lon":5.36674,"is_reserved":false,"is_disabled":true,"rental_uris":{"android":"levelo://app?vid=24daba64-a19e-4f71-8127-0f17036d852c","ios":"levelo://app?vid=24daba64-a19e-4f71-8127-0f17036d852c"},"vehicle_type_id":"4","last_reported":1739884594,"current_range_meters":8000,"station_id":"ce4bgrp2rcd13ifvqc9g","pricing_plan_id":"cebpf4jnsgd1na2vs0mg"},{"bike_id":"811901b7-6a39-4b98-9209-f363e05c2482","system_id":"levelo_inurba_marseille","lat":43.28149,"lon":5.42632,"is_reserved":false,"is_disabled":false,"rental_uris":{"android":"levelo://app?vid=811901b7-6a39-4b98-9209-f363e05c2482","ios":"levelo://app?vid=811901b7-6a39-4b98-9209-f363e05c2482"},"vehicle_type_id":"4","last_reported":1739884594,"current_range_meters":8000,"station_id":"ce4bhnh2rcd13ifvqgug","pricing_plan_id":"cebpf4jnsgd1na2vs0mg"},{"bike_id":"14686d57-0af6-406a-96ea-e45b7914e72a","system_id":"levelo_inurba_marseille","lat":43.30585,"lon":5.39343,"is_reserved":false,"is_disabled":false,"rental_uris":{"android":"levelo://app?vid=14686d57-0af6-406a-96ea-e45b7914e72a","ios":"levelo://app?vid=14686d57-0af6-406a-96ea-e45b7914e72a"},"vehicle_type_id":"4","last_reported":1739884594,"current_range_meters":8000,"station_id":"chh1huq6cuj3fo74tm60","pricing_plan_id":"cebpf4jnsgd1na2vs0mg"},{"bike_id":"a30116f0-2799-462a-8a1a-727a183e8c42","system_id":"levelo_inurba_marseille","lat":43.26929,"lon":5.38916,"is_reserved":false,"is_disabled":false,"rental_uris":{"android":"levelo://app?vid=a30116f0-2799-462a-8a1a-727a183e8c42","ios":"levelo://app?vid=a30116f0-2799-462a-8a1a-727a183e8c42"},"vehicle_type_id":"4","last_reported":1739884594,"current_range_meters":8000,"station_id":"ce4bhhh2rcd13ifvqfl0","pricing_plan_id":"cebpf4jnsgd1na2vs0mg"},{"bike_id":"8edd2fd8-1293-41ee-8d6f-3b2f2b027eab","system_id":"levelo_inurba_marseille","lat":43.25004,"lon":5.38948,"is_reserved":false,"is_disabled":false,"rental_uris":{"android":"levelo://app?vid=8edd2fd8-1293-41ee-8d6f-3b2f2b027eab","ios":"levelo://app?vid=8edd2fd8-1293-41ee-8d6f-3b2f2b027eab"},"vehicle_type_id":"4","last_reported":1739884594,"current_range_meters":8400,"station_id":"","pricing_plan_id":"cebpf4jnsgd1na2vs0mg"},{"bike_id":"a0dfaaa5-2564-40a0-a720-c6022c8dbdf6","system_id":"levelo_inurba_marseille","lat":43.25502,"lon":5.37663,"is_reserved":false,"is_disabled":false,"rental_uris":{"android":"levelo://app?vid=a0dfaaa5-2564-40a0-a720-c6022c8dbdf6","ios":"levelo://app?vid=a0dfaaa5-2564-40a0-a720-c6022c8dbdf6"},"vehicle_type_id":"4","last_reported":1739884594,"current_range_meters":8400,"station_id":"ce4bhh12rcd13ifvqff0","pricing_plan_id":"cebpf4jnsgd1na2vs0mg"},{"bike_id":"020f9db3-6048-4a83-8c59-4acc533112c8","system_id":"levelo_inurba_marseille","lat":43.28162,"lon":5.42633,"is_reserved":false,"is_disabled":false,"rental_uris":{"android":"levelo://app?vid=020f9db3-6048-4a83-8c59-4acc533112c8","ios":"levelo://app?vid=020f9db3-6048-4a83-8c59-4acc533112c8"},"vehicle_type_id":"4","last_reported":1739884594,"current_range_meters":8400,"station_id":"ce4bhnh2rcd13ifvqgug","pricing_plan_id":"cebpf4jnsgd1na2vs0mg"},{"bike_id":"789bddbf-51c2-49d5-bd4e-dd4e14c3cf92","system_id":"levelo_inurba_marseille","lat":43.26557,"lon":5.37288,"is_reserved":false,"is_disabled":false,"rental_uris":{"android":"levelo://app?vid=789bddbf-51c2-49d5-bd4e-dd4e14c3cf92","ios":"levelo://app?vid=789bddbf-51c2-49d5-bd4e-dd4e14c3cf92"},"vehicle_type_id":"4","last_reported":1739884594,"current_range_meters":8400,"station_id":"","pricing_plan_id":"cebpf4jnsgd1na2vs0mg"},{"bike_id":"d2c4fd2d-be27-459a-a56b-559fa286f93a","system_id":"levelo_inurba_marseille","lat":43.26682,"lon":5.38272,"is_reserved":false,"is_disabled":false,"rental_uris":{"android":"levelo://app?vid=d2c4fd2d-be27-459a-a56b-559fa286f93a","ios":"levelo://app?vid=d2c4fd2d-be27-459a-a56b-559fa286f93a"},"vehicle_type_id":"4","last_reported":1739884594,"current_range_meters":8800,"station_id":"","pricing_plan_id":"cebpf4jnsgd1na2vs0mg"},{"bike_id":"6528e792-6c2b-41ab-b102-37d30001a0e7","system_id":"levelo_inurba_marseille","lat":43.27227,"lon":5.40057,"is_reserved":false,"is_disabled":false,"rental_uris":{"android":"levelo://app?vid=6528e792-6c2b-41ab-b102-37d30001a0e7","ios":"levelo://app?vid=6528e792-6c2b-41ab-b102-37d30001a0e7"},"vehicle_type_id":"4","last_reported":1739884594,"current_range_meters":8800,"station_id":"","pricing_plan_id":"cebpf4jnsgd1na2vs0mg"},{"bike_id":"c275fe33-72ff-4eb8-939c-f6d0ace64eb7","system_id":"levelo_inurba_marseille","lat":43.30145,"lon":5.38073,"is_reserved":false,"is_disabled":false,"rental_uris":{"android":"levelo://app?vid=c275fe33-72ff-4eb8-939c-f6d0ace64eb7","ios":"levelo://app?vid=c275fe33-72ff-4eb8-939c-f6d0ace64eb7"},"vehicle_type_id":"4","last_reported":1739884594,"current_range_meters":13600,"station_id":"ce4bgjp2rcd13ifvqbh0","pricing_plan_id":"cebpf4jnsgd1na2vs0mg"},{"bike_id":"fa7d0d5e-8a57-4cb4-b91e-cb8450826f35","system_id":"levelo_inurba_marseille","lat":43.24999,"lon":5.38944,"is_reserved":false,"is_disabled":false,"rental_uris":{"android":"levelo://app?vid=fa7d0d5e-8a57-4cb4-b91e-cb8450826f35","ios":"levelo://app?vid=fa7d0d5e-8a57-4cb4-b91e-cb8450826f35"},"vehicle_type_id":"4","last_reported":1739884594,"current_range_meters":8800,"station_id":"ce4bhgp2rcd13ifvqfd0","pricing_plan_id":"cebpf4jnsgd1na2vs0mg"},{"bike_id":"95b4e92f-9fde-4b73-b8c7-8c23681a4351","system_id":"levelo_inurba_marseille","lat":43.29623,"lon":5.37159,"is_reserved":false,"is_disabled":false,"rental_uris":{"android":"levelo://app?vid=95b4e92f-9fde-4b73-b8c7-8c23681a4351","ios":"levelo://app?vid=95b4e92f-9fde-4b73-b8c7-8c23681a4351"},"vehicle_type_id":"4","last_reported":1739884594,"current_range_meters":8800,"station_id":"ce4bgnh2rcd13ifvqc0g","pricing_plan_id":"cebpf4jnsgd1na2vs0mg"},{"bike_id":"e7b5440b-9fd9-40fc-976b-200fd24b2e6d","system_id":"levelo_inurba_marseille","lat":43.25859,"lon":5.39895,"is_reserved":false,"is_disabled":false,"rental_uris":{"android":"levelo://app?vid=e7b5440b-9fd9-40fc-976b-200fd24b2e6d","ios":"levelo://app?vid=e7b5440b-9fd9-40fc-976b-200fd24b2e6d"},"vehicle_type_id":"4","last_reported":1739884594,"current_range_meters":9200,"station_id":"ce4bhl92rcd13ifvqghg","pricing_plan_id":"cebpf4jnsgd1na2vs0mg"},{"bike_id":"43e58a6d-2a17-41bb-bd75-661bed22a62b","system_id":"levelo_inurba_marseille","lat":43.31198,"lon":5.38703,"is_reserved":false,"is_disabled":false,"rental_uris":{"android":"levelo://app?vid=43e58a6d-2a17-41bb-bd75-661bed22a62b","ios":"levelo://app?vid=43e58a6d-2a17-41bb-bd75-661bed22a62b"},"vehicle_type_id":"4","last_reported":1739884594,"current_range_meters":9200,"station_id":"","pricing_plan_id":"cebpf4jnsgd1na2vs0mg"},{"bike_id":"ed877127-af89-40a6-a623-09dab416b51c","system_id":"levelo_inurba_marseille","lat":43.22933,"lon":5.35377,"is_reserved":false,"is_disabled":false,"rental_uris":{"android":"levelo://app?vid=ed877127-af89-40a6-a623-09dab416b51c","ios":"levelo://app?vid=ed877127-af89-40a6-a623-09dab416b51c"},"vehicle_type_id":"4","last_reported":1739884594,"current_range_meters":9200,"station_id":"cpo3532slgdg3j2ikp40","pricing_plan_id":"cebpf4jnsgd1na2vs0mg"},{"bike_id":"09625a22-d446-4e59-8267-015f8bb79d9d","system_id":"levelo_inurba_marseille","lat":43.24081,"lon":5.3775,"is_reserved":false,"is_disabled":false,"rental_uris":{"android":"levelo://app?vid=09625a22-d446-4e59-8267-015f8bb79d9d","ios":"levelo://app?vid=09625a22-d446-4e59-8267-015f8bb79d9d"},"vehicle_type_id":"4","last_reported":1739884594,"current_range_meters":9200,"station_id":"ce4bhnp2rcd13ifvqgvg","pricing_plan_id":"cebpf4jnsgd1na2vs0mg"},{"bike_id":"6bb7ac37-d16c-4a25-b6eb-1bf8ca1b78d5","system_id":"levelo_inurba_marseille","lat":43.32557,"lon":5.41495,"is_reserved":false,"is_disabled":false,"rental_uris":{"android":"levelo://app?vid=6bb7ac37-d16c-4a25-b6eb-1bf8ca1b78d5","ios":"levelo://app?vid=6bb7ac37-d16c-4a25-b6eb-1bf8ca1b78d5"},"vehicle_type_id":"4","last_reported":1739884594,"current_range_meters":9200,"station_id":"ce4bhq12rcd13ifvqhhg","pricing_plan_id":"cebpf4jnsgd1na2vs0mg"},{"bike_id":"2fa7caa2-4d89-4383-babd-96f44fa588f6","system_id":"levelo_inurba_marseille","lat":43.23159,"lon":5.4372,"is_reserved":false,"is_disabled":false,"rental_uris":{"android":"levelo://app?vid=2fa7caa2-4d89-4383-babd-96f44fa588f6","ios":"levelo://app?vid=2fa7caa2-4d89-4383-babd-96f44fa588f6"},"vehicle_type_id":"4","last_reported":1739884594,"current_range_meters":9200,"station_id":"ce4bhmp2rcd13ifvqgog","pricing_plan_id":"cebpf4jnsgd1na2vs0mg"},{"bike_id":"ddad1ce4-8484-4db1-94cd-8bcb14fba4f0","system_id":"levelo_inurba_marseille","lat":43.32056,"lon":5.41539,"is_reserved":false,"is_disabled":false,"rental_uris":{"android":"levelo://app?vid=ddad1ce4-8484-4db1-94cd-8bcb14fba4f0","ios":"levelo://app?vid=ddad1ce4-8484-4db1-94cd-8bcb14fba4f0"},"vehicle_type_id":"4","last_reported":1739884594,"current_range_meters":9600,"station_id":"ce4bhq92rcd13ifvqhkg","pricing_plan_id":"cebpf4jnsgd1na2vs0mg"},{"bike_id":"d809cf23-ec16-4959-8653-5a588cca4476","system_id":"levelo_inurba_marseille","lat":43.27673,"lon":5.38896,"is_reserved":false,"is_disabled":true,"rental_uris":{"android":"levelo://app?vid=d809cf23-ec16-4959-8653-5a588cca4476","ios":"levelo://app?vid=d809cf23-ec16-4959-8653-5a588cca4476"},"vehicle_type_id":"4","last_reported":1739884594,"current_range_meters":9600,"station_id":"ce4bhi12rcd13ifvqfo0","pricing_plan_id":"cebpf4jnsgd1na2vs0mg"},{"bike_id":"6bfe14e1-da21-4188-817d-8ac2f77d0245","system_id":"levelo_inurba_marseille","lat":43.3248,"lon":5.36567,"is_reserved":false,"is_disabled":false,"rental_uris":{"android":"levelo://app?vid=6bfe14e1-da21-4188-817d-8ac2f77d0245","ios":"levelo://app?vid=6bfe14e1-da21-4188-817d-8ac2f77d0245"},"vehicle_type_id":"4","last_reported":1739884594,"current_range_meters":9600,"station_id":"ce4bhs12rcd13ifvqhvg","pricing_plan_id":"cebpf4jnsgd1na2vs0mg"},{"bike_id":"505754d1-2dc7-470c-b387-3d7979600c24","system_id":"levelo_inurba_marseille","lat":43.23338,"lon":5.40286,"is_reserved":false,"is_disabled":false,"rental_uris":{"android":"levelo://app?vid=505754d1-2dc7-470c-b387-3d7979600c24","ios":"levelo://app?vid=505754d1-2dc7-470c-b387-3d7979600c24"},"vehicle_type_id":"4","last_reported":1739884594,"current_range_meters":34000,"station_id":"ce4bh312rcd13ifvqdk0","pricing_plan_id":"cebpf4jnsgd1na2vs0mg"},{"bike_id":"ae15c00c-5a08-4c2e-8269-6f391fdcf251","system_id":"levelo_inurba_marseille","lat":43.25092,"lon":5.3952,"is_reserved":false,"is_disabled":false,"rental_uris":{"android":"levelo://app?vid=ae15c00c-5a08-4c2e-8269-6f391fdcf251","ios":"levelo://app?vid=ae15c00c-5a08-4c2e-8269-6f391fdcf251"},"vehicle_type_id":"4","last_reported":1739884594,"current_range_meters":9600,"station_id":"","pricing_plan_id":"cebpf4jnsgd1na2vs0mg"},{"bike_id":"31c19be8-a050-4653-b9fc-35a010e52122","system_id":"levelo_inurba_marseille","lat":43.29621,"lon":5.37173,"is_reserved":false,"is_disabled":false,"rental_uris":{"android":"levelo://app?vid=31c19be8-a050-4653-b9fc-35a010e52122","ios":"levelo://app?vid=31c19be8-a050-4653-b9fc-35a010e52122"},"vehicle_type_id":"4","last_reported":1739884594,"current_range_meters":5600,"station_id":"ce4bgnh2rcd13ifvqc0g","pricing_plan_id":"cebpf4jnsgd1na2vs0mg"},{"bike_id":"fc9896ce-1f52-403c-86a7-1678079c9523","system_id":"levelo_inurba_marseille","lat":43.28163,"lon":5.44233,"is_reserved":false,"is_disabled":false,"rental_uris":{"android":"levelo://app?vid=fc9896ce-1f52-403c-86a7-1678079c9523","ios":"levelo://app?vid=fc9896ce-1f52-403c-86a7-1678079c9523"},"vehicle_type_id":"4","last_reported":1739884594,"current_range_meters":9600,"station_id":"","pricing_plan_id":"cebpf4jnsgd1na2vs0mg"},{"bike_id":"51f057e3-5c4c-4a2f-bfd5-0f038709a5d7","system_id":"levelo_inurba_marseille","lat":43.24815,"lon":5.37436,"is_reserved":false,"is_disabled":false,"rental_uris":{"android":"levelo://app?vid=51f057e3-5c4c-4a2f-bfd5-0f038709a5d7","ios":"levelo://app?vid=51f057e3-5c4c-4a2f-bfd5-0f038709a5d7"},"vehicle_type_id":"4","last_reported":1739884594,"current_range_meters":10000,"station_id":"ce4bhgh2rcd13ifvqfb0","pricing_plan_id":"cebpf4jnsgd1na2vs0mg"},{"bike_id":"132d4e0a-a373-4c6a-a8f0-02b6b68c08cb","system_id":"levelo_inurba_marseille","lat":43.28418,"lon":5.34986,"is_reserved":false,"is_disabled":false,"rental_uris":{"android":"levelo://app?vid=132d4e0a-a373-4c6a-a8f0-02b6b68c08cb","ios":"levelo://app?vid=132d4e0a-a373-4c6a-a8f0-02b6b68c08cb"},"vehicle_type_id":"4","last_reported":1739884594,"current_range_meters":10800,"station_id":"ce4bhbh2rcd13ifvqepg","pricing_plan_id":"cebpf4jnsgd1na2vs0mg"},{"bike_id":"3bb7703b-5d64-4e82-8145-cd64b29208ed","system_id":"levelo_inurba_marseille","lat":43.23972,"lon":5.36652,"is_reserved":false,"is_disabled":false,"rental_uris":{"android":"levelo://app?vid=3bb7703b-5d64-4e82-8145-cd64b29208ed","ios":"levelo://app?vid=3bb7703b-5d64-4e82-8145-cd64b29208ed"},"vehicle_type_id":"4","last_reported":1739884594,"current_range_meters":10000,"station_id":"","pricing_plan_id":"cebpf4jnsgd1na2vs0mg"},{"bike_id":"9084f880-c05c-41d9-962e-1ab7add2848e","system_id":"levelo_inurba_marseille","lat":43.2408,"lon":5.37759,"is_reserved":false,"is_disabled":false,"rental_uris":{"android":"levelo://app?vid=9084f880-c05c-41d9-962e-1ab7add2848e","ios":"levelo://app?vid=9084f880-c05c-41d9-962e-1ab7add2848e"},"vehicle_type_id":"4","last_reported":1739884594,"current_range_meters":10000,"station_id":"ce4bhnp2rcd13ifvqgvg","pricing_plan_id":"cebpf4jnsgd1na2vs0mg"},{"bike_id":"fd5113e2-f0c4-437d-9a49-8b63c943def0","system_id":"levelo_inurba_marseille","lat":43.29062,"lon":5.37145,"is_reserved":false,"is_disabled":false,"rental_uris":{"android":"levelo://app?vid=fd5113e2-f0c4-437d-9a49-8b63c943def0","ios":"levelo://app?vid=fd5113e2-f0c4-437d-9a49-8b63c943def0"},"vehicle_type_id":"4","last_reported":1739884594,"current_range_meters":10800,"station_id":"ce4bh5p2rcd13ifvqe4g","pricing_plan_id":"cebpf4jnsgd1na2vs0mg"},{"bike_id":"ee95d9be-7f70-4967-8b09-5f203b1c2d63","system_id":"levelo_inurba_marseille","lat":43.29224,"lon":5.36054,"is_reserved":false,"is_disabled":false,"rental_uris":{"android":"levelo://app?vid=ee95d9be-7f70-4967-8b09-5f203b1c2d63","ios":"levelo://app?vid=ee95d9be-7f70-4967-8b09-5f203b1c2d63"},"vehicle_type_id":"4","last_reported":1739884594,"current_range_meters":10800,"station_id":"ce4bhbh2rcd13ifvqeqg","pricing_plan_id":"cebpf4jnsgd1na2vs0mg"},{"bike_id":"e1c150d9-170d-41f6-b49e-944a557cf5aa","system_id":"levelo_inurba_marseille","lat":43.23188,"lon":5.35546,"is_reserved":false,"is_disabled":false,"rental_uris":{"android":"levelo://app?vid=e1c150d9-170d-41f6-b49e-944a557cf5aa","ios":"levelo://app?vid=e1c150d9-170d-41f6-b49e-944a557cf5aa"},"vehicle_type_id":"4","last_reported":1739884594,"current_range_meters":10800,"station_id":"ce4bhu92rcd13ifvqi70","pricing_plan_id":"cebpf4jnsgd1na2vs0mg"},{"bike_id":"7e1bcd16-719a-4da9-aa93-fa68923adaea","system_id":"levelo_inurba_marseille","lat":43.24074,"lon":5.37755,"is_reserved":false,"is_disabled":false,"rental_uris":{"android":"levelo://app?vid=7e1bcd16-719a-4da9-aa93-fa68923adaea","ios":"levelo://app?vid=7e1bcd16-719a-4da9-aa93-fa68923adaea"},"vehicle_type_id":"4","last_reported":1739884594,"current_range_meters":10800,"station_id":"ce4bhnp2rcd13ifvqgvg","pricing_plan_id":"cebpf4jnsgd1na2vs0mg"},{"bike_id":"2a4ab541-8a58-4cb8-8300-dc2349f8cb71","system_id":"levelo_inurba_marseille","lat":43.28614,"lon":5.35097,"is_reserved":false,"is_disabled":false,"rental_uris":{"android":"levelo://app?vid=2a4ab541-8a58-4cb8-8300-dc2349f8cb71","ios":"levelo://app?vid=2a4ab541-8a58-4cb8-8300-dc2349f8cb71"},"vehicle_type_id":"4","last_reported":1739884594,"current_range_meters":11200,"station_id":"ce4bhch2rcd13ifvqeug","pricing_plan_id":"cebpf4jnsgd1na2vs0mg"},{"bike_id":"b4f7951e-a8d9-4f42-b03f-b06ba82daa83","system_id":"levelo_inurba_marseille","lat":43.27185,"lon":5.41023,"is_reserved":false,"is_disabled":false,"rental_uris":{"android":"levelo://app?vid=b4f7951e-a8d9-4f42-b03f-b06ba82daa83","ios":"levelo://app?vid=b4f7951e-a8d9-4f42-b03f-b06ba82daa83"},"vehicle_type_id":"4","last_reported":1739884594,"current_range_meters":11200,"station_id":"ce4bhl12rcd13ifvqgf0","pricing_plan_id":"cebpf4jnsgd1na2vs0mg"},{"bike_id":"cbea2534-6656-4920-bbc2-3ccb6f0e64cd","system_id":"levelo_inurba_marseille","lat":43.30545,"lon":5.36528,"is_reserved":false,"is_disabled":false,"rental_uris":{"android":"levelo://app?vid=cbea2534-6656-4920-bbc2-3ccb6f0e64cd","ios":"levelo://app?vid=cbea2534-6656-4920-bbc2-3ccb6f0e64cd"},"vehicle_type_id":"4","last_reported":1739884594,"current_range_meters":11600,"station_id":"ce4bgs12rcd13ifvqcag","pricing_plan_id":"cebpf4jnsgd1na2vs0mg"},{"bike_id":"cb8372d6-bad2-4555-89ad-5b495afb0b59","system_id":"levelo_inurba_marseille","lat":43.24822,"lon":5.37459,"is_reserved":false,"is_disabled":false,"rental_uris":{"android":"levelo://app?vid=cb8372d6-bad2-4555-89ad-5b495afb0b59","ios":"levelo://app?vid=cb8372d6-bad2-4555-89ad-5b495afb0b59"},"vehicle_type_id":"4","last_reported":1739884594,"current_range_meters":11600,"station_id":"ce4bhgh2rcd13ifvqfb0","pricing_plan_id":"cebpf4jnsgd1na2vs0mg"},{"bike_id":"3eccfc18-51b1-4a32-9f00-dbe2668c8e61","system_id":"levelo_inurba_marseille","lat":43.3249,"lon":5.3656,"is_reserved":false,"is_disabled":false,"rental_uris":{"android":"levelo://app?vid=3eccfc18-51b1-4a32-9f00-dbe2668c8e61","ios":"levelo://app?vid=3eccfc18-51b1-4a32-9f00-dbe2668c8e61"},"vehicle_type_id":"4","last_reported":1739884594,"current_range_meters":11600,"station_id":"ce4bhs12rcd13ifvqhvg","pricing_plan_id":"cebpf4jnsgd1na2vs0mg"},{"bike_id":"d5e0f6fa-7486-40b9-9310-f55169810ce8","system_id":"levelo_inurba_marseille","lat":43.303,"lon":5.39212,"is_reserved":false,"is_disabled":false,"rental_uris":{"android":"levelo://app?vid=d5e0f6fa-7486-40b9-9310-f55169810ce8","ios":"levelo://app?vid=d5e0f6fa-7486-40b9-9310-f55169810ce8"},"vehicle_type_id":"4","last_reported":1739884594,"current_range_meters":8000,"station_id":"ce4bgkh2rcd13ifvqbk0","pricing_plan_id":"cebpf4jnsgd1na2vs0mg"},{"bike_id":"f1c76823-800c-4e2a-8c39-d65dea7c4c4e","system_id":"levelo_inurba_marseille","lat":43.29,"lon":5.3561,"is_reserved":false,"is_disabled":false,"rental_uris":{"android":"levelo://app?vid=f1c76823-800c-4e2a-8c39-d65dea7c4c4e","ios":"levelo://app?vid=f1c76823-800c-4e2a-8c39-d65dea7c4c4e"},"vehicle_type_id":"4","last_reported":1739884594,"current_range_meters":11600,"station_id":"ce4bhb92rcd13ifvqen0","pricing_plan_id":"cebpf4jnsgd1na2vs0mg"},{"bike_id":"5cddacca-eed2-499b-b2d3-d6a10d3e9638","system_id":"levelo_inurba_marseille","lat":43.29841,"lon":5.36267,"is_reserved":false,"is_disabled":false,"rental_uris":{"android":"levelo://app?vid=5cddacca-eed2-499b-b2d3-d6a10d3e9638","ios":"levelo://app?vid=5cddacca-eed2-499b-b2d3-d6a10d3e9638"},"vehicle_type_id":"4","last_reported":1739884594,"current_range_meters":11600,"station_id":"ce4bgpp2rcd13ifvqc3g","pricing_plan_id":"cebpf4jnsgd1na2vs0mg"},{"bike_id":"ce4d7000-25b5-4b5c-9f16-89bd6e4c9780","system_id":"levelo_inurba_marseille","lat":43.30555,"lon":5.36504,"is_reserved":false,"is_disabled":false,"rental_uris":{"android":"levelo://app?vid=ce4d7000-25b5-4b5c-9f16-89bd6e4c9780","ios":"levelo://app?vid=ce4d7000-25b5-4b5c-9f16-89bd6e4c9780"},"vehicle_type_id":"4","last_reported":1739884594,"current_range_meters":12000,"station_id":"ce4bgs12rcd13ifvqcag","pricing_plan_id":"cebpf4jnsgd1na2vs0mg"},{"bike_id":"fb5f22ff-2396-4087-a0fb-c0b12f026439","system_id":"levelo_inurba_marseille","lat":43.3031,"lon":5.36883,"is_reserved":false,"is_disabled":false,"rental_uris":{"android":"levelo://app?vid=fb5f22ff-2396-4087-a0fb-c0b12f026439","ios":"levelo://app?vid=fb5f22ff-2396-4087-a0fb-c0b12f026439"},"vehicle_type_id":"4","last_reported":1739884594,"current_range_meters":12000,"station_id":"ce4bgqh2rcd13ifvqc5g","pricing_plan_id":"cebpf4jnsgd1na2vs0mg"},{"bike_id":"91bf3218-0a05-4226-acc9-b3131b7d5a8d","system_id":"levelo_inurba_marseille","lat":43.23961,"lon":5.36624,"is_reserved":false,"is_disabled":false,"rental_uris":{"android":"levelo://app?vid=91bf3218-0a05-4226-acc9-b3131b7d5a8d","ios":"levelo://app?vid=91bf3218-0a05-4226-acc9-b3131b7d5a8d"},"vehicle_type_id":"4","last_reported":1739884594,"current_range_meters":12000,"station_id":"ce4bhi12rcd13ifvqfp0","pricing_plan_id":"cebpf4jnsgd1na2vs0mg"},{"bike_id":"65a75f30-2d2d-4292-ba38-69d397825b0f","system_id":"levelo_inurba_marseille","lat":43.28669,"lon":5.38675,"is_reserved":false,"is_disabled":false,"rental_uris":{"android":"levelo://app?vid=65a75f30-2d2d-4292-ba38-69d397825b0f","ios":"levelo://app?vid=65a75f30-2d2d-4292-ba38-69d397825b0f"},"vehicle_type_id":"4","last_reported":1739884594,"current_range_meters":12000,"station_id":"ce4bh492rcd13ifvqdug","pricing_plan_id":"cebpf4jnsgd1na2vs0mg"},{"bike_id":"3003c8da-cfc0-44aa-a514-3c9a04eee456","system_id":"levelo_inurba_marseille","lat":43.30461,"lon":5.37884,"is_reserved":false,"is_disabled":false,"rental_uris":{"android":"levelo://app?vid=3003c8da-cfc0-44aa-a514-3c9a04eee456","ios":"levelo://app?vid=3003c8da-cfc0-44aa-a514-3c9a04eee456"},"vehicle_type_id":"4","last_reported":1739884594,"current_range_meters":11600,"station_id":"ce4bgup2rcd13ifvqcn0","pricing_plan_id":"cebpf4jnsgd1na2vs0mg"},{"bike_id":"a69fe923-bbbf-424c-834a-23b10868f7c7","system_id":"levelo_inurba_marseille","lat":43.30297,"lon":5.36883,"is_reserved":false,"is_disabled":false,"rental_uris":{"android":"levelo://app?vid=a69fe923-bbbf-424c-834a-23b10868f7c7","ios":"levelo://app?vid=a69fe923-bbbf-424c-834a-23b10868f7c7"},"vehicle_type_id":"4","last_reported":1739884594,"current_range_meters":12000,"station_id":"ce4bgqh2rcd13ifvqc5g","pricing_plan_id":"cebpf4jnsgd1na2vs0mg"},{"bike_id":"1f73d6b6-e66e-4833-bfa1-148a7786476b","system_id":"levelo_inurba_marseille","lat":43.2417,"lon":5.36392,"is_reserved":false,"is_disabled":false,"rental_uris":{"android":"levelo://app?vid=1f73d6b6-e66e-4833-bfa1-148a7786476b","ios":"levelo://app?vid=1f73d6b6-e66e-4833-bfa1-148a7786476b"},"vehicle_type_id":"4","last_reported":1739884594,"current_range_meters":12000,"station_id":"cpo36qri1sfpv3e86is0","pricing_plan_id":"cebpf4jnsgd1na2vs0mg"},{"bike_id":"14311477-6ec0-4310-8732-61a600a44846","system_id":"levelo_inurba_marseille","lat":43.29633,"lon":5.40599,"is_reserved":false,"is_disabled":false,"rental_uris":{"android":"levelo://app?vid=14311477-6ec0-4310-8732-61a600a44846","ios":"levelo://app?vid=14311477-6ec0-4310-8732-61a600a44846"},"vehicle_type_id":"4","last_reported":1739884594,"current_range_meters":12400,"station_id":"ce4bh0h2rcd13ifvqd60","pricing_plan_id":"cebpf4jnsgd1na2vs0mg"},{"bike_id":"694680bb-b90d-4ded-917c-1467bce9ad9a","system_id":"levelo_inurba_marseille","lat":43.25574,"lon":5.3825,"is_reserved":false,"is_disabled":false,"rental_uris":{"android":"levelo://app?vid=694680bb-b90d-4ded-917c-1467bce9ad9a","ios":"levelo://app?vid=694680bb-b90d-4ded-917c-1467bce9ad9a"},"vehicle_type_id":"4","last_reported":1739884594,"current_range_meters":12400,"station_id":"ce4bhih2rcd13ifvqfs0","pricing_plan_id":"cebpf4jnsgd1na2vs0mg"},{"bike_id":"42c7cfa8-bce6-4834-be4f-e8fd7551245d","system_id":"levelo_inurba_marseille","lat":43.28614,"lon":5.42616,"is_reserved":false,"is_disabled":false,"rental_uris":{"android":"levelo://app?vid=42c7cfa8-bce6-4834-be4f-e8fd7551245d","ios":"levelo://app?vid=42c7cfa8-bce6-4834-be4f-e8fd7551245d"},"vehicle_type_id":"4","last_reported":1739884594,"current_range_meters":12400,"station_id":"","pricing_plan_id":"cebpf4jnsgd1na2vs0mg"},{"bike_id":"72d3fe14-fe7c-44d3-8a01-32a3cf7b6886","system_id":"levelo_inurba_marseille","lat":43.28615,"lon":5.35104,"is_reserved":false,"is_disabled":false,"rental_uris":{"android":"levelo://app?vid=72d3fe14-fe7c-44d3-8a01-32a3cf7b6886","ios":"levelo://app?vid=72d3fe14-fe7c-44d3-8a01-32a3cf7b6886"},"vehicle_type_id":"4","last_reported":1739884594,"current_range_meters":12400,"station_id":"ce4bhch2rcd13ifvqeug","pricing_plan_id":"cebpf4jnsgd1na2vs0mg"},{"bike_id":"c92086ff-8c9e-4524-b655-73d499dade21","system_id":"levelo_inurba_marseille","lat":43.29168,"lon":5.37146,"is_reserved":false,"is_disabled":false,"rental_uris":{"android":"levelo://app?vid=c92086ff-8c9e-4524-b655-73d499dade21","ios":"levelo://app?vid=c92086ff-8c9e-4524-b655-73d499dade21"},"vehicle_type_id":"4","last_reported":1739884594,"current_range_meters":11600,"station_id":"ce4bha92rcd13ifvqeh0","pricing_plan_id":"cebpf4jnsgd1na2vs0mg"},{"bike_id":"0abc1ab9-ba53-43c5-97f4-7846cddaf2b2","system_id":"levelo_inurba_marseille","lat":43.26222,"lon":5.37459,"is_reserved":false,"is_disabled":false,"rental_uris":{"android":"levelo://app?vid=0abc1ab9-ba53-43c5-97f4-7846cddaf2b2","ios":"levelo://app?vid=0abc1ab9-ba53-43c5-97f4-7846cddaf2b2"},"vehicle_type_id":"4","last_reported":1739884594,"current_range_meters":12400,"station_id":"","pricing_plan_id":"cebpf4jnsgd1na2vs0mg"},{"bike_id":"39fc215e-0db6-4887-aaff-bcc3515a473f","system_id":"levelo_inurba_marseille","lat":43.31341,"lon":5.39686,"is_reserved":false,"is_disabled":false,"rental_uris":{"android":"levelo://app?vid=39fc215e-0db6-4887-aaff-bcc3515a473f","ios":"levelo://app?vid=39fc215e-0db6-4887-aaff-bcc3515a473f"},"vehicle_type_id":"4","last_reported":1739884594,"current_range_meters":12800,"station_id":"","pricing_plan_id":"cebpf4jnsgd1na2vs0mg"},{"bike_id":"b33c4823-eab9-442c-b0d4-6939ce7eeb21","system_id":"levelo_inurba_marseille","lat":43.26558,"lon":5.37294,"is_reserved":false,"is_disabled":false,"rental_uris":{"android":"levelo://app?vid=b33c4823-eab9-442c-b0d4-6939ce7eeb21","ios":"levelo://app?vid=b33c4823-eab9-442c-b0d4-6939ce7eeb21"},"vehicle_type_id":"4","last_reported":1739884594,"current_range_meters":12800,"station_id":"ce4bhg12rcd13ifvqf70","pricing_plan_id":"cebpf4jnsgd1na2vs0mg"},{"bike_id":"9c37e5d8-91f5-4a64-8eca-b67a21a3955b","system_id":"levelo_inurba_marseille","lat":43.30418,"lon":5.41258,"is_reserved":false,"is_disabled":false,"rental_uris":{"android":"levelo://app?vid=9c37e5d8-91f5-4a64-8eca-b67a21a3955b","ios":"levelo://app?vid=9c37e5d8-91f5-4a64-8eca-b67a21a3955b"},"vehicle_type_id":"4","last_reported":1739884594,"current_range_meters":12800,"station_id":"ce4bhop2rcd13ifvqh8g","pricing_plan_id":"cebpf4jnsgd1na2vs0mg"},{"bike_id":"173f1074-7582-4e25-8d57-fe2f8ba065d7","system_id":"levelo_inurba_marseille","lat":43.25934,"lon":5.40907,"is_reserved":false,"is_disabled":false,"rental_uris":{"android":"levelo://app?vid=173f1074-7582-4e25-8d57-fe2f8ba065d7","ios":"levelo://app?vid=173f1074-7582-4e25-8d57-fe2f8ba065d7"},"vehicle_type_id":"4","last_reported":1739884594,"current_range_meters":12800,"station_id":"ce4bhm92rcd13ifvqglg","pricing_plan_id":"cebpf4jnsgd1na2vs0mg"},{"bike_id":"eb8e2e87-ad12-4e87-8e4a-757897446f7e","system_id":"levelo_inurba_marseille","lat":43.25578,"lon":5.38225,"is_reserved":false,"is_disabled":false,"rental_uris":{"android":"levelo://app?vid=eb8e2e87-ad12-4e87-8e4a-757897446f7e","ios":"levelo://app?vid=eb8e2e87-ad12-4e87-8e4a-757897446f7e"},"vehicle_type_id":"4","last_reported":1739884594,"current_range_meters":12800,"station_id":"","pricing_plan_id":"cebpf4jnsgd1na2vs0mg"},{"bike_id":"2135cab7-5b2a-44b1-bfb0-3fa59ca9e8b7","system_id":"levelo_inurba_marseille","lat":43.3012,"lon":5.3743,"is_reserved":false,"is_disabled":false,"rental_uris":{"android":"levelo://app?vid=2135cab7-5b2a-44b1-bfb0-3fa59ca9e8b7","ios":"levelo://app?vid=2135cab7-5b2a-44b1-bfb0-3fa59ca9e8b7"},"vehicle_type_id":"4","last_reported":1739884594,"current_range_meters":13600,"station_id":"ce4bgs92rcd13ifvqcc0","pricing_plan_id":"cebpf4jnsgd1na2vs0mg"},{"bike_id":"c7c0c49a-22a6-4792-abfc-aba1485d5cfe","system_id":"levelo_inurba_marseille","lat":43.2885,"lon":5.3931,"is_reserved":false,"is_disabled":false,"rental_uris":{"android":"levelo://app?vid=c7c0c49a-22a6-4792-abfc-aba1485d5cfe","ios":"levelo://app?vid=c7c0c49a-22a6-4792-abfc-aba1485d5cfe"},"vehicle_type_id":"4","last_reported":1739884594,"current_range_meters":13600,"station_id":"","pricing_plan_id":"cebpf4jnsgd1na2vs0mg"},{"bike_id":"6c96a73f-ff01-463f-bd8c-14885ee904b6","system_id":"levelo_inurba_marseille","lat":43.2907,"lon":5.35746,"is_reserved":false,"is_disabled":false,"rental_uris":{"android":"levelo://app?vid=6c96a73f-ff01-463f-bd8c-14885ee904b6","ios":"levelo://app?vid=6c96a73f-ff01-463f-bd8c-14885ee904b6"},"vehicle_type_id":"4","last_reported":1739884594,"current_range_meters":13600,"station_id":"ce4bhb92rcd13ifvqen0","pricing_plan_id":"cebpf4jnsgd1na2vs0mg"},{"bike_id":"586e0627-2b94-48ee-8e80-0cc56c525ee9","system_id":"levelo_inurba_marseille","lat":43.29229,"lon":5.3606,"is_reserved":false,"is_disabled":false,"rental_uris":{"android":"levelo://app?vid=586e0627-2b94-48ee-8e80-0cc56c525ee9","ios":"levelo://app?vid=586e0627-2b94-48ee-8e80-0cc56c525ee9"},"vehicle_type_id":"4","last_reported":1739884594,"current_range_meters":13600,"station_id":"ce4bhbh2rcd13ifvqeqg","pricing_plan_id":"cebpf4jnsgd1na2vs0mg"},{"bike_id":"ea51b316-7467-4200-85a3-bb369e5a3d7d","system_id":"levelo_inurba_marseille","lat":43.28157,"lon":5.42658,"is_reserved":false,"is_disabled":false,"rental_uris":{"android":"levelo://app?vid=ea51b316-7467-4200-85a3-bb369e5a3d7d","ios":"levelo://app?vid=ea51b316-7467-4200-85a3-bb369e5a3d7d"},"vehicle_type_id":"4","last_reported":1739884594,"current_range_meters":14000,"station_id":"ce4bhnh2rcd13ifvqgug","pricing_plan_id":"cebpf4jnsgd1na2vs0mg"},{"bike_id":"9e907f59-96ef-46d1-9ce6-fb36e513007c","system_id":"levelo_inurba_marseille","lat":43.26553,"lon":5.37296,"is_reserved":false,"is_disabled":false,"rental_uris":{"android":"levelo://app?vid=9e907f59-96ef-46d1-9ce6-fb36e513007c","ios":"levelo://app?vid=9e907f59-96ef-46d1-9ce6-fb36e513007c"},"vehicle_type_id":"4","last_reported":1739884594,"current_range_meters":14400,"station_id":"ce4bhg12rcd13ifvqf70","pricing_plan_id":"cebpf4jnsgd1na2vs0mg"},{"bike_id":"7c38c057-bdab-4198-9ac6-aab0ac6e0257","system_id":"levelo_inurba_marseille","lat":43.2657,"lon":5.39005,"is_reserved":false,"is_disabled":false,"rental_uris":{"android":"levelo://app?vid=7c38c057-bdab-4198-9ac6-aab0ac6e0257","ios":"levelo://app?vid=7c38c057-bdab-4198-9ac6-aab0ac6e0257"},"vehicle_type_id":"4","last_reported":1739884594,"current_range_meters":14400,"station_id":"ce4bhe12rcd13ifvqf30","pricing_plan_id":"cebpf4jnsgd1na2vs0mg"},{"bike_id":"c046719e-1a20-47e5-8cc4-b446b979b3dc","system_id":"levelo_inurba_marseille","lat":43.30417,"lon":5.41295,"is_reserved":false,"is_disabled":false,"rental_uris":{"android":"levelo://app?vid=c046719e-1a20-47e5-8cc4-b446b979b3dc","ios":"levelo://app?vid=c046719e-1a20-47e5-8cc4-b446b979b3dc"},"vehicle_type_id":"4","last_reported":1739884594,"current_range_meters":14400,"station_id":"","pricing_plan_id":"cebpf4jnsgd1na2vs0mg"},{"bike_id":"87e4e3d9-887e-4f25-bf58-279367bc8327","system_id":"levelo_inurba_marseille","lat":43.3065,"lon":5.40082,"is_reserved":false,"is_disabled":true,"rental_uris":{"android":"levelo://app?vid=87e4e3d9-887e-4f25-bf58-279367bc8327","ios":"levelo://app?vid=87e4e3d9-887e-4f25-bf58-279367bc8327"},"vehicle_type_id":"4","last_reported":1739884594,"current_range_meters":14800,"station_id":"ce4bh112rcd13ifvqda0","pricing_plan_id":"cebpf4jnsgd1na2vs0mg"},{"bike_id":"198241ea-2b60-497f-885d-e646fabd9adf","system_id":"levelo_inurba_marseille","lat":43.30535,"lon":5.36531,"is_reserved":false,"is_disabled":false,"rental_uris":{"android":"levelo://app?vid=198241ea-2b60-497f-885d-e646fabd9adf","ios":"levelo://app?vid=198241ea-2b60-497f-885d-e646fabd9adf"},"vehicle_type_id":"4","last_reported":1739884594,"current_range_meters":14800,"station_id":"ce4bgs12rcd13ifvqcag","pricing_plan_id":"cebpf4jnsgd1na2vs0mg"},{"bike_id":"5a135f3a-86f0-49d1-bed0-60395f578441","system_id":"levelo_inurba_marseille","lat":43.30147,"lon":5.39862,"is_reserved":false,"is_disabled":false,"rental_uris":{"android":"levelo://app?vid=5a135f3a-86f0-49d1-bed0-60395f578441","ios":"levelo://app?vid=5a135f3a-86f0-49d1-bed0-60395f578441"},"vehicle_type_id":"4","last_reported":1739884594,"current_range_meters":16000,"station_id":"ce4bh0h2rcd13ifvqd40","pricing_plan_id":"cebpf4jnsgd1na2vs0mg"},{"bike_id":"9444f0b1-ee63-4c08-b4c3-16d111b6017a","system_id":"levelo_inurba_marseille","lat":43.25944,"lon":5.40902,"is_reserved":false,"is_disabled":false,"rental_uris":{"android":"levelo://app?vid=9444f0b1-ee63-4c08-b4c3-16d111b6017a","ios":"levelo://app?vid=9444f0b1-ee63-4c08-b4c3-16d111b6017a"},"vehicle_type_id":"4","last_reported":1739884594,"current_range_meters":14800,"station_id":"","pricing_plan_id":"cebpf4jnsgd1na2vs0mg"},{"bike_id":"fb5d34ef-b93b-40b7-8eaa-8f58d48a435b","system_id":"levelo_inurba_marseille","lat":43.23148,"lon":5.43709,"is_reserved":false,"is_disabled":false,"rental_uris":{"android":"levelo://app?vid=fb5d34ef-b93b-40b7-8eaa-8f58d48a435b","ios":"levelo://app?vid=fb5d34ef-b93b-40b7-8eaa-8f58d48a435b"},"vehicle_type_id":"4","last_reported":1739884594,"current_range_meters":14800,"station_id":"ce4bhmp2rcd13ifvqgog","pricing_plan_id":"cebpf4jnsgd1na2vs0mg"},{"bike_id":"8c1b6425-35d6-48a7-8fa6-960133ec665f","system_id":"levelo_inurba_marseille","lat":43.28161,"lon":5.42637,"is_reserved":false,"is_disabled":false,"rental_uris":{"android":"levelo://app?vid=8c1b6425-35d6-48a7-8fa6-960133ec665f","ios":"levelo://app?vid=8c1b6425-35d6-48a7-8fa6-960133ec665f"},"vehicle_type_id":"4","last_reported":1739884594,"current_range_meters":15200,"station_id":"ce4bhnh2rcd13ifvqgug","pricing_plan_id":"cebpf4jnsgd1na2vs0mg"},{"bike_id":"291a2e8c-486a-4f2b-b424-4dce8491e62b","system_id":"levelo_inurba_marseille","lat":43.272078,"lon":5.391819,"is_reserved":false,"is_disabled":false,"rental_uris":{"android":"levelo://app?vid=291a2e8c-486a-4f2b-b424-4dce8491e62b","ios":"levelo://app?vid=291a2e8c-486a-4f2b-b424-4dce8491e62b"},"vehicle_type_id":"4","last_reported":1739884594,"current_range_meters":15200,"station_id":"ce4bhjp2rcd13ifvqga0","pricing_plan_id":"cebpf4jnsgd1na2vs0mg"},{"bike_id":"bb4e4ca4-eb80-4ef1-b14b-2571a3072fdd","system_id":"levelo_inurba_marseille","lat":43.23966,"lon":5.36632,"is_reserved":false,"is_disabled":false,"rental_uris":{"android":"levelo://app?vid=bb4e4ca4-eb80-4ef1-b14b-2571a3072fdd","ios":"levelo://app?vid=bb4e4ca4-eb80-4ef1-b14b-2571a3072fdd"},"vehicle_type_id":"4","last_reported":1739884594,"current_range_meters":15200,"station_id":"","pricing_plan_id":"cebpf4jnsgd1na2vs0mg"},{"bike_id":"a26a99d1-68ce-48da-a3b0-615523c50419","system_id":"levelo_inurba_marseille","lat":43.2315,"lon":5.43717,"is_reserved":false,"is_disabled":false,"rental_uris":{"android":"levelo://app?vid=a26a99d1-68ce-48da-a3b0-615523c50419","ios":"levelo://app?vid=a26a99d1-68ce-48da-a3b0-615523c50419"},"vehicle_type_id":"4","last_reported":1739884594,"current_range_meters":16000,"station_id":"ce4bhmp2rcd13ifvqgog","pricing_plan_id":"cebpf4jnsgd1na2vs0mg"},{"bike_id":"d1dec037-ee4c-4db9-a655-1087d8ee1f4f","system_id":"levelo_inurba_marseille","lat":43.28444,"lon":5.39175,"is_reserved":false,"is_disabled":true,"rental_uris":{"android":"levelo://app?vid=d1dec037-ee4c-4db9-a655-1087d8ee1f4f","ios":"levelo://app?vid=d1dec037-ee4c-4db9-a655-1087d8ee1f4f"},"vehicle_type_id":"4","last_reported":1739884594,"current_range_meters":16000,"station_id":"","pricing_plan_id":"cebpf4jnsgd1na2vs0mg"},{"bike_id":"98e62db4-7bd1-40ef-8540-03a857899c68","system_id":"levelo_inurba_marseille","lat":43.27221,"lon":5.39196,"is_reserved":false,"is_disabled":false,"rental_uris":{"android":"levelo://app?vid=98e62db4-7bd1-40ef-8540-03a857899c68","ios":"levelo://app?vid=98e62db4-7bd1-40ef-8540-03a857899c68"},"vehicle_type_id":"4","last_reported":1739884594,"current_range_meters":16000,"station_id":"ce4bhhp2rcd13ifvqfm0","pricing_plan_id":"cebpf4jnsgd1na2vs0mg"},{"bike_id":"25ea9eec-29d9-4063-8007-929ebb2d1ef2","system_id":"levelo_inurba_marseille","lat":43.25498,"lon":5.37651,"is_reserved":false,"is_disabled":false,"rental_uris":{"android":"levelo://app?vid=25ea9eec-29d9-4063-8007-929ebb2d1ef2","ios":"levelo://app?vid=25ea9eec-29d9-4063-8007-929ebb2d1ef2"},"vehicle_type_id":"4","last_reported":1739884594,"current_range_meters":16000,"station_id":"ce4bhh12rcd13ifvqff0","pricing_plan_id":"cebpf4jnsgd1na2vs0mg"},{"bike_id":"94efc668-dc5c-44a7-b774-548edd94b4de","system_id":"levelo_inurba_marseille","lat":43.25721,"lon":5.41114,"is_reserved":false,"is_disabled":false,"rental_uris":{"android":"levelo://app?vid=94efc668-dc5c-44a7-b774-548edd94b4de","ios":"levelo://app?vid=94efc668-dc5c-44a7-b774-548edd94b4de"},"vehicle_type_id":"4","last_reported":1739884594,"current_range_meters":16000,"station_id":"ce4bhkp2rcd13ifvqgd0","pricing_plan_id":"cebpf4jnsgd1na2vs0mg"},{"bike_id":"4bd64ff7-6c28-4df6-bd8a-e5a26782ea94","system_id":"levelo_inurba_marseille","lat":43.3229,"lon":5.38279,"is_reserved":false,"is_disabled":false,"rental_uris":{"android":"levelo://app?vid=4bd64ff7-6c28-4df6-bd8a-e5a26782ea94","ios":"levelo://app?vid=4bd64ff7-6c28-4df6-bd8a-e5a26782ea94"},"vehicle_type_id":"4","last_reported":1739884594,"current_range_meters":16000,"station_id":"ce4bhr12rcd13ifvqhqg","pricing_plan_id":"cebpf4jnsgd1na2vs0mg"},{"bike_id":"90017611-e2b1-401c-bcbf-f9d526ffc823","system_id":"levelo_inurba_marseille","lat":43.29366,"lon":5.3829,"is_reserved":false,"is_disabled":false,"rental_uris":{"android":"levelo://app?vid=90017611-e2b1-401c-bcbf-f9d526ffc823","ios":"levelo://app?vid=90017611-e2b1-401c-bcbf-f9d526ffc823"},"vehicle_type_id":"4","last_reported":1739884594,"current_range_meters":16000,"station_id":"","pricing_plan_id":"cebpf4jnsgd1na2vs0mg"},{"bike_id":"de2366b4-ced3-4eb3-be98-713932791fba","system_id":"levelo_inurba_marseille","lat":43.28421,"lon":5.34983,"is_reserved":false,"is_disabled":false,"rental_uris":{"android":"levelo://app?vid=de2366b4-ced3-4eb3-be98-713932791fba","ios":"levelo://app?vid=de2366b4-ced3-4eb3-be98-713932791fba"},"vehicle_type_id":"4","last_reported":1739884594,"current_range_meters":16400,"station_id":"ce4bhbh2rcd13ifvqepg","pricing_plan_id":"cebpf4jnsgd1na2vs0mg"},{"bike_id":"6b637fbf-d9f9-4779-9ec0-f52e07b19757","system_id":"levelo_inurba_marseille","lat":43.30655,"lon":5.40078,"is_reserved":false,"is_disabled":false,"rental_uris":{"android":"levelo://app?vid=6b637fbf-d9f9-4779-9ec0-f52e07b19757","ios":"levelo://app?vid=6b637fbf-d9f9-4779-9ec0-f52e07b19757"},"vehicle_type_id":"4","last_reported":1739884594,"current_range_meters":16000,"station_id":"ce4bh112rcd13ifvqda0","pricing_plan_id":"cebpf4jnsgd1na2vs0mg"},{"bike_id":"0acb739d-6d8a-4a01-8930-c8034538be63","system_id":"levelo_inurba_marseille","lat":43.295946,"lon":5.378099,"is_reserved":false,"is_disabled":false,"rental_uris":{"android":"levelo://app?vid=0acb739d-6d8a-4a01-8930-c8034538be63","ios":"levelo://app?vid=0acb739d-6d8a-4a01-8930-c8034538be63"},"vehicle_type_id":"4","last_reported":1739884594,"current_range_meters":16000,"station_id":"ce4bgj92rcd13ifvqbd0","pricing_plan_id":"cebpf4jnsgd1na2vs0mg"},{"bike_id":"63ea7e43-8eca-430c-8a7a-743145abbade","system_id":"levelo_inurba_marseille","lat":43.26553,"lon":5.37284,"is_reserved":false,"is_disabled":false,"rental_uris":{"android":"levelo://app?vid=63ea7e43-8eca-430c-8a7a-743145abbade","ios":"levelo://app?vid=63ea7e43-8eca-430c-8a7a-743145abbade"},"vehicle_type_id":"4","last_reported":1739884594,"current_range_meters":16400,"station_id":"","pricing_plan_id":"cebpf4jnsgd1na2vs0mg"},{"bike_id":"c3e5aef9-f672-4605-87c4-033e7ca14613","system_id":"levelo_inurba_marseille","lat":43.297455,"lon":5.380663,"is_reserved":false,"is_disabled":false,"rental_uris":{"android":"levelo://app?vid=c3e5aef9-f672-4605-87c4-033e7ca14613","ios":"levelo://app?vid=c3e5aef9-f672-4605-87c4-033e7ca14613"},"vehicle_type_id":"4","last_reported":1739884594,"current_range_meters":16400,"station_id":"ce4bh0p2rcd13ifvqd70","pricing_plan_id":"cebpf4jnsgd1na2vs0mg"},{"bike_id":"57be3f53-c4f4-4786-b668-381c41e92fed","system_id":"levelo_inurba_marseille","lat":43.30544,"lon":5.36538,"is_reserved":false,"is_disabled":false,"rental_uris":{"android":"levelo://app?vid=57be3f53-c4f4-4786-b668-381c41e92fed","ios":"levelo://app?vid=57be3f53-c4f4-4786-b668-381c41e92fed"},"vehicle_type_id":"4","last_reported":1739884594,"current_range_meters":16400,"station_id":"","pricing_plan_id":"cebpf4jnsgd1na2vs0mg"},{"bike_id":"397b80cf-cbf3-4f7e-9d00-ad56509053a2","system_id":"levelo_inurba_marseille","lat":43.29186,"lon":5.39782,"is_reserved":false,"is_disabled":false,"rental_uris":{"android":"levelo://app?vid=397b80cf-cbf3-4f7e-9d00-ad56509053a2","ios":"levelo://app?vid=397b80cf-cbf3-4f7e-9d00-ad56509053a2"},"vehicle_type_id":"4","last_reported":1739884594,"current_range_meters":16400,"station_id":"","pricing_plan_id":"cebpf4jnsgd1na2vs0mg"},{"bike_id":"695e2770-608f-4ea5-b074-b223fb811be9","system_id":"levelo_inurba_marseille","lat":43.30544,"lon":5.36538,"is_reserved":false,"is_disabled":false,"rental_uris":{"android":"levelo://app?vid=695e2770-608f-4ea5-b074-b223fb811be9","ios":"levelo://app?vid=695e2770-608f-4ea5-b074-b223fb811be9"},"vehicle_type_id":"4","last_reported":1739884594,"current_range_meters":16400,"station_id":"ce4bgs12rcd13ifvqcag","pricing_plan_id":"cebpf4jnsgd1na2vs0mg"},{"bike_id":"3951fb8a-16ed-4afe-8aa6-9378c2b7ee9a","system_id":"levelo_inurba_marseille","lat":43.27372,"lon":5.36255,"is_reserved":false,"is_disabled":false,"rental_uris":{"android":"levelo://app?vid=3951fb8a-16ed-4afe-8aa6-9378c2b7ee9a","ios":"levelo://app?vid=3951fb8a-16ed-4afe-8aa6-9378c2b7ee9a"},"vehicle_type_id":"4","last_reported":1739884594,"current_range_meters":15200,"station_id":"ce4bhbh2rcd13ifvqeo0","pricing_plan_id":"cebpf4jnsgd1na2vs0mg"},{"bike_id":"d7a15df9-526d-44d9-9149-0a3ee440ee5b","system_id":"levelo_inurba_marseille","lat":43.22937,"lon":5.35384,"is_reserved":false,"is_disabled":false,"rental_uris":{"android":"levelo://app?vid=d7a15df9-526d-44d9-9149-0a3ee440ee5b","ios":"levelo://app?vid=d7a15df9-526d-44d9-9149-0a3ee440ee5b"},"vehicle_type_id":"4","last_reported":1739884594,"current_range_meters":16800,"station_id":"cpo3532slgdg3j2ikp40","pricing_plan_id":"cebpf4jnsgd1na2vs0mg"},{"bike_id":"ef36ea69-cd6e-4974-8daa-be595f290138","system_id":"levelo_inurba_marseille","lat":43.28918,"lon":5.36636,"is_reserved":false,"is_disabled":false,"rental_uris":{"android":"levelo://app?vid=ef36ea69-cd6e-4974-8daa-be595f290138","ios":"levelo://app?vid=ef36ea69-cd6e-4974-8daa-be595f290138"},"vehicle_type_id":"4","last_reported":1739884594,"current_range_meters":16800,"station_id":"ce4bhap2rcd13ifvqek0","pricing_plan_id":"cebpf4jnsgd1na2vs0mg"},{"bike_id":"b879378f-9cee-458f-905a-cd7acea06f16","system_id":"levelo_inurba_marseille","lat":43.33025,"lon":5.39039,"is_reserved":false,"is_disabled":false,"rental_uris":{"android":"levelo://app?vid=b879378f-9cee-458f-905a-cd7acea06f16","ios":"levelo://app?vid=b879378f-9cee-458f-905a-cd7acea06f16"},"vehicle_type_id":"4","last_reported":1739884594,"current_range_meters":16800,"station_id":"ce4bhr92rcd13ifvqhrg","pricing_plan_id":"cebpf4jnsgd1na2vs0mg"},{"bike_id":"41ff2e8d-cc41-4abe-ad46-e0ddce68278d","system_id":"levelo_inurba_marseille","lat":43.28418,"lon":5.34996,"is_reserved":false,"is_disabled":false,"rental_uris":{"android":"levelo://app?vid=41ff2e8d-cc41-4abe-ad46-e0ddce68278d","ios":"levelo://app?vid=41ff2e8d-cc41-4abe-ad46-e0ddce68278d"},"vehicle_type_id":"4","last_reported":1739884594,"current_range_meters":16800,"station_id":"ce4bhbh2rcd13ifvqepg","pricing_plan_id":"cebpf4jnsgd1na2vs0mg"},{"bike_id":"5923042c-9e2f-44a9-b02c-cc366359465f","system_id":"levelo_inurba_marseille","lat":43.295976,"lon":5.373891,"is_reserved":false,"is_disabled":false,"rental_uris":{"android":"levelo://app?vid=5923042c-9e2f-44a9-b02c-cc366359465f","ios":"levelo://app?vid=5923042c-9e2f-44a9-b02c-cc366359465f"},"vehicle_type_id":"4","last_reported":1739884594,"current_range_meters":16800,"station_id":"ce4bgnh2rcd13ifvqc0g","pricing_plan_id":"cebpf4jnsgd1na2vs0mg"},{"bike_id":"1d63a175-89ef-49ff-9ead-dfe9ed6c22cf","system_id":"levelo_inurba_marseille","lat":43.24683,"lon":5.39433,"is_reserved":false,"is_disabled":false,"rental_uris":{"android":"levelo://app?vid=1d63a175-89ef-49ff-9ead-dfe9ed6c22cf","ios":"levelo://app?vid=1d63a175-89ef-49ff-9ead-dfe9ed6c22cf"},"vehicle_type_id":"4","last_reported":1739884594,"current_range_meters":16800,"station_id":"","pricing_plan_id":"cebpf4jnsgd1na2vs0mg"},{"bike_id":"fc432441-9008-451e-966f-adab986ed6be","system_id":"levelo_inurba_marseille","lat":43.23188,"lon":5.39982,"is_reserved":false,"is_disabled":false,"rental_uris":{"android":"levelo://app?vid=fc432441-9008-451e-966f-adab986ed6be","ios":"levelo://app?vid=fc432441-9008-451e-966f-adab986ed6be"},"vehicle_type_id":"4","last_reported":1739884594,"current_range_meters":16800,"station_id":"","pricing_plan_id":"cebpf4jnsgd1na2vs0mg"},{"bike_id":"dabd1b8a-0166-4296-9312-a00ac3d924b8","system_id":"levelo_inurba_marseille","lat":43.29752,"lon":5.37671,"is_reserved":false,"is_disabled":false,"rental_uris":{"android":"levelo://app?vid=dabd1b8a-0166-4296-9312-a00ac3d924b8","ios":"levelo://app?vid=dabd1b8a-0166-4296-9312-a00ac3d924b8"},"vehicle_type_id":"4","last_reported":1739884594,"current_range_meters":16800,"station_id":"ce4bgkh2rcd13ifvqbl0","pricing_plan_id":"cebpf4jnsgd1na2vs0mg"},{"bike_id":"cdb027a0-b875-4ada-92c3-2d2168720582","system_id":"levelo_inurba_marseille","lat":43.28274,"lon":5.3506,"is_reserved":false,"is_disabled":true,"rental_uris":{"android":"levelo://app?vid=cdb027a0-b875-4ada-92c3-2d2168720582","ios":"levelo://app?vid=cdb027a0-b875-4ada-92c3-2d2168720582"},"vehicle_type_id":"4","last_reported":1739884594,"current_range_meters":16800,"station_id":"ce4bhbp2rcd13ifvqerg","pricing_plan_id":"cebpf4jnsgd1na2vs0mg"},{"bike_id":"8c160f44-c51e-48d5-b265-05e338e192db","system_id":"levelo_inurba_marseille","lat":43.27997,"lon":5.40002,"is_reserved":false,"is_disabled":false,"rental_uris":{"android":"levelo://app?vid=8c160f44-c51e-48d5-b265-05e338e192db","ios":"levelo://app?vid=8c160f44-c51e-48d5-b265-05e338e192db"},"vehicle_type_id":"4","last_reported":1739884594,"current_range_meters":16800,"station_id":"ce4bho92rcd13ifvqh4g","pricing_plan_id":"cebpf4jnsgd1na2vs0mg"},{"bike_id":"b7ee7074-0ed1-413c-95bf-29ca1f13818b","system_id":"levelo_inurba_marseille","lat":43.25579,"lon":5.38243,"is_reserved":false,"is_disabled":false,"rental_uris":{"android":"levelo://app?vid=b7ee7074-0ed1-413c-95bf-29ca1f13818b","ios":"levelo://app?vid=b7ee7074-0ed1-413c-95bf-29ca1f13818b"},"vehicle_type_id":"4","last_reported":1739884594,"current_range_meters":17600,"station_id":"ce4bhih2rcd13ifvqfs0","pricing_plan_id":"cebpf4jnsgd1na2vs0mg"},{"bike_id":"7a8dc522-de25-4e1d-9892-60ff9d52d5bf","system_id":"levelo_inurba_marseille","lat":43.31335,"lon":5.39701,"is_reserved":false,"is_disabled":false,"rental_uris":{"android":"levelo://app?vid=7a8dc522-de25-4e1d-9892-60ff9d52d5bf","ios":"levelo://app?vid=7a8dc522-de25-4e1d-9892-60ff9d52d5bf"},"vehicle_type_id":"4","last_reported":1739884594,"current_range_meters":17600,"station_id":"","pricing_plan_id":"cebpf4jnsgd1na2vs0mg"},{"bike_id":"244d9b22-997d-4ed8-8c64-abb1d2751821","system_id":"levelo_inurba_marseille","lat":43.25935,"lon":5.40915,"is_reserved":false,"is_disabled":false,"rental_uris":{"android":"levelo://app?vid=244d9b22-997d-4ed8-8c64-abb1d2751821","ios":"levelo://app?vid=244d9b22-997d-4ed8-8c64-abb1d2751821"},"vehicle_type_id":"4","last_reported":1739884594,"current_range_meters":17600,"station_id":"ce4bhm92rcd13ifvqglg","pricing_plan_id":"cebpf4jnsgd1na2vs0mg"},{"bike_id":"5ac5fe80-e7ca-4a80-b6a8-59ed57d48582","system_id":"levelo_inurba_marseille","lat":43.30314,"lon":5.36898,"is_reserved":false,"is_disabled":false,"rental_uris":{"android":"levelo://app?vid=5ac5fe80-e7ca-4a80-b6a8-59ed57d48582","ios":"levelo://app?vid=5ac5fe80-e7ca-4a80-b6a8-59ed57d48582"},"vehicle_type_id":"4","last_reported":1739884594,"current_range_meters":17600,"station_id":"ce4bh5p2rcd13ifvqe4g","pricing_plan_id":"cebpf4jnsgd1na2vs0mg"},{"bike_id":"bcaaf6c7-6bc5-45b7-ad85-ca671eb1202b","system_id":"levelo_inurba_marseille","lat":43.33033,"lon":5.39038,"is_reserved":false,"is_disabled":false,"rental_uris":{"android":"levelo://app?vid=bcaaf6c7-6bc5-45b7-ad85-ca671eb1202b","ios":"levelo://app?vid=bcaaf6c7-6bc5-45b7-ad85-ca671eb1202b"},"vehicle_type_id":"4","last_reported":1739884594,"current_range_meters":17600,"station_id":"ce4bhr92rcd13ifvqhrg","pricing_plan_id":"cebpf4jnsgd1na2vs0mg"},{"bike_id":"22c1355e-1039-4fd9-8688-906435e4013c","system_id":"levelo_inurba_marseille","lat":43.23158,"lon":5.43719,"is_reserved":false,"is_disabled":false,"rental_uris":{"android":"levelo://app?vid=22c1355e-1039-4fd9-8688-906435e4013c","ios":"levelo://app?vid=22c1355e-1039-4fd9-8688-906435e4013c"},"vehicle_type_id":"4","last_reported":1739884594,"current_range_meters":17600,"station_id":"ce4bhmp2rcd13ifvqgog","pricing_plan_id":"cebpf4jnsgd1na2vs0mg"},{"bike_id":"572758ce-62f5-4849-b288-fda413023eea","system_id":"levelo_inurba_marseille","lat":43.29781,"lon":5.37094,"is_reserved":false,"is_disabled":false,"rental_uris":{"android":"levelo://app?vid=572758ce-62f5-4849-b288-fda413023eea","ios":"levelo://app?vid=572758ce-62f5-4849-b288-fda413023eea"},"vehicle_type_id":"4","last_reported":1739884594,"current_range_meters":17600,"station_id":"","pricing_plan_id":"cebpf4jnsgd1na2vs0mg"},{"bike_id":"baf6d894-ad10-49a9-b91a-24f60ad956f7","system_id":"levelo_inurba_marseille","lat":43.28976,"lon":5.4268,"is_reserved":false,"is_disabled":false,"rental_uris":{"android":"levelo://app?vid=baf6d894-ad10-49a9-b91a-24f60ad956f7","ios":"levelo://app?vid=baf6d894-ad10-49a9-b91a-24f60ad956f7"},"vehicle_type_id":"4","last_reported":1739884594,"current_range_meters":17600,"station_id":"","pricing_plan_id":"cebpf4jnsgd1na2vs0mg"},{"bike_id":"3a057b52-4c47-476b-927e-f322b0af127d","system_id":"levelo_inurba_marseille","lat":43.30314,"lon":5.36907,"is_reserved":false,"is_disabled":false,"rental_uris":{"android":"levelo://app?vid=3a057b52-4c47-476b-927e-f322b0af127d","ios":"levelo://app?vid=3a057b52-4c47-476b-927e-f322b0af127d"},"vehicle_type_id":"4","last_reported":1739884594,"current_range_meters":17600,"station_id":"ce4bgqh2rcd13ifvqc5g","pricing_plan_id":"cebpf4jnsgd1na2vs0mg"},{"bike_id":"fc971b16-bef3-4b6d-813c-ffc8ffa48842","system_id":"levelo_inurba_marseille","lat":43.2841,"lon":5.34986,"is_reserved":false,"is_disabled":true,"rental_uris":{"android":"levelo://app?vid=fc971b16-bef3-4b6d-813c-ffc8ffa48842","ios":"levelo://app?vid=fc971b16-bef3-4b6d-813c-ffc8ffa48842"},"vehicle_type_id":"4","last_reported":1739884594,"current_range_meters":17600,"station_id":"","pricing_plan_id":"cebpf4jnsgd1na2vs0mg"},{"bike_id":"5cc64a9a-eb17-49be-a823-94c377ed8381","system_id":"levelo_inurba_marseille","lat":43.31115,"lon":5.37778,"is_reserved":false,"is_disabled":false,"rental_uris":{"android":"levelo://app?vid=5cc64a9a-eb17-49be-a823-94c377ed8381","ios":"levelo://app?vid=5cc64a9a-eb17-49be-a823-94c377ed8381"},"vehicle_type_id":"4","last_reported":1739884594,"current_range_meters":17600,"station_id":"ce4bgt92rcd13ifvqcg0","pricing_plan_id":"cebpf4jnsgd1na2vs0mg"},{"bike_id":"f77eb7d8-9434-4c05-861f-edd4244aaffc","system_id":"levelo_inurba_marseille","lat":43.25508,"lon":5.37637,"is_reserved":false,"is_disabled":false,"rental_uris":{"android":"levelo://app?vid=f77eb7d8-9434-4c05-861f-edd4244aaffc","ios":"levelo://app?vid=f77eb7d8-9434-4c05-861f-edd4244aaffc"},"vehicle_type_id":"4","last_reported":1739884594,"current_range_meters":18000,"station_id":"","pricing_plan_id":"cebpf4jnsgd1na2vs0mg"},{"bike_id":"eb715102-e1b0-444b-990c-d34ec49d64ad","system_id":"levelo_inurba_marseille","lat":43.24169,"lon":5.39736,"is_reserved":false,"is_disabled":false,"rental_uris":{"android":"levelo://app?vid=eb715102-e1b0-444b-990c-d34ec49d64ad","ios":"levelo://app?vid=eb715102-e1b0-444b-990c-d34ec49d64ad"},"vehicle_type_id":"4","last_reported":1739884594,"current_range_meters":18000,"station_id":"ce4bhn12rcd13ifvqgpg","pricing_plan_id":"cebpf4jnsgd1na2vs0mg"},{"bike_id":"bbf59162-b126-43b6-a7e5-50fe3d921898","system_id":"levelo_inurba_marseille","lat":43.297821,"lon":5.393547,"is_reserved":false,"is_disabled":false,"rental_uris":{"android":"levelo://app?vid=bbf59162-b126-43b6-a7e5-50fe3d921898","ios":"levelo://app?vid=bbf59162-b126-43b6-a7e5-50fe3d921898"},"vehicle_type_id":"4","last_reported":1739884594,"current_range_meters":17600,"station_id":"ce4bh112rcd13ifvqda0","pricing_plan_id":"cebpf4jnsgd1na2vs0mg"},{"bike_id":"80c15e20-bc54-4576-a2cf-481d86974df1","system_id":"levelo_inurba_marseille","lat":43.23199,"lon":5.35544,"is_reserved":false,"is_disabled":false,"rental_uris":{"android":"levelo://app?vid=80c15e20-bc54-4576-a2cf-481d86974df1","ios":"levelo://app?vid=80c15e20-bc54-4576-a2cf-481d86974df1"},"vehicle_type_id":"4","last_reported":1739884594,"current_range_meters":18000,"station_id":"ce4bhu92rcd13ifvqi70","pricing_plan_id":"cebpf4jnsgd1na2vs0mg"},{"bike_id":"60b02e9a-0b9c-4cf0-94de-428417cec511","system_id":"levelo_inurba_marseille","lat":43.30546,"lon":5.36544,"is_reserved":false,"is_disabled":false,"rental_uris":{"android":"levelo://app?vid=60b02e9a-0b9c-4cf0-94de-428417cec511","ios":"levelo://app?vid=60b02e9a-0b9c-4cf0-94de-428417cec511"},"vehicle_type_id":"4","last_reported":1739884594,"current_range_meters":18000,"station_id":"ce4bgs12rcd13ifvqcag","pricing_plan_id":"cebpf4jnsgd1na2vs0mg"},{"bike_id":"38c9f437-02d0-463a-a42d-8bc647a31926","system_id":"levelo_inurba_marseille","lat":43.23143,"lon":5.43719,"is_reserved":false,"is_disabled":false,"rental_uris":{"android":"levelo://app?vid=38c9f437-02d0-463a-a42d-8bc647a31926","ios":"levelo://app?vid=38c9f437-02d0-463a-a42d-8bc647a31926"},"vehicle_type_id":"4","last_reported":1739884594,"current_range_meters":18000,"station_id":"ce4bhmp2rcd13ifvqgog","pricing_plan_id":"cebpf4jnsgd1na2vs0mg"},{"bike_id":"213e7174-e0fd-4c10-a7c5-ea5fe3376cc1","system_id":"levelo_inurba_marseille","lat":43.29543,"lon":5.38537,"is_reserved":false,"is_disabled":false,"rental_uris":{"android":"levelo://app?vid=213e7174-e0fd-4c10-a7c5-ea5fe3376cc1","ios":"levelo://app?vid=213e7174-e0fd-4c10-a7c5-ea5fe3376cc1"},"vehicle_type_id":"4","last_reported":1739884594,"current_range_meters":18000,"station_id":"ce4bgih2rcd13ifvqba0","pricing_plan_id":"cebpf4jnsgd1na2vs0mg"},{"bike_id":"9dbef433-b953-43d5-857a-c907318df799","system_id":"levelo_inurba_marseille","lat":43.304286,"lon":5.397412,"is_reserved":false,"is_disabled":false,"rental_uris":{"android":"levelo://app?vid=9dbef433-b953-43d5-857a-c907318df799","ios":"levelo://app?vid=9dbef433-b953-43d5-857a-c907318df799"},"vehicle_type_id":"4","last_reported":1739884594,"current_range_meters":18000,"station_id":"ce4bh092rcd13ifvqd20","pricing_plan_id":"cebpf4jnsgd1na2vs0mg"},{"bike_id":"c67fb496-8441-458a-af2d-8f07c087bdd0","system_id":"levelo_inurba_marseille","lat":43.24172,"lon":5.36426,"is_reserved":false,"is_disabled":true,"rental_uris":{"android":"levelo://app?vid=c67fb496-8441-458a-af2d-8f07c087bdd0","ios":"levelo://app?vid=c67fb496-8441-458a-af2d-8f07c087bdd0"},"vehicle_type_id":"4","last_reported":1739884594,"current_range_meters":18000,"station_id":"","pricing_plan_id":"cebpf4jnsgd1na2vs0mg"},{"bike_id":"2630215d-b7b3-480e-9e61-d29756c017fa","system_id":"levelo_inurba_marseille","lat":43.28959,"lon":5.374017,"is_reserved":false,"is_disabled":false,"rental_uris":{"android":"levelo://app?vid=2630215d-b7b3-480e-9e61-d29756c017fa","ios":"levelo://app?vid=2630215d-b7b3-480e-9e61-d29756c017fa"},"vehicle_type_id":"4","last_reported":1739884594,"current_range_meters":19200,"station_id":"ce4bgs92rcd13ifvqcc0","pricing_plan_id":"cebpf4jnsgd1na2vs0mg"},{"bike_id":"db7f2d58-492d-4297-aa78-ce0ad99a0a74","system_id":"levelo_inurba_marseille","lat":43.25934,"lon":5.40907,"is_reserved":false,"is_disabled":false,"rental_uris":{"android":"levelo://app?vid=db7f2d58-492d-4297-aa78-ce0ad99a0a74","ios":"levelo://app?vid=db7f2d58-492d-4297-aa78-ce0ad99a0a74"},"vehicle_type_id":"4","last_reported":1739884594,"current_range_meters":18000,"station_id":"ce4bhb92rcd13ifvqen0","pricing_plan_id":"cebpf4jnsgd1na2vs0mg"},{"bike_id":"d75534e2-9bc6-43b8-9a0d-fa650ae0b051","system_id":"levelo_inurba_marseille","lat":43.24097,"lon":5.37749,"is_reserved":false,"is_disabled":false,"rental_uris":{"android":"levelo://app?vid=d75534e2-9bc6-43b8-9a0d-fa650ae0b051","ios":"levelo://app?vid=d75534e2-9bc6-43b8-9a0d-fa650ae0b051"},"vehicle_type_id":"4","last_reported":1739884594,"current_range_meters":18000,"station_id":"ce4bhnp2rcd13ifvqgvg","pricing_plan_id":"cebpf4jnsgd1na2vs0mg"},{"bike_id":"037fddcd-906e-4bfa-9a73-3aa01958c5e9","system_id":"levelo_inurba_marseille","lat":43.29169,"lon":5.37165,"is_reserved":false,"is_disabled":false,"rental_uris":{"android":"levelo://app?vid=037fddcd-906e-4bfa-9a73-3aa01958c5e9","ios":"levelo://app?vid=037fddcd-906e-4bfa-9a73-3aa01958c5e9"},"vehicle_type_id":"4","last_reported":1739884594,"current_range_meters":18000,"station_id":"","pricing_plan_id":"cebpf4jnsgd1na2vs0mg"},{"bike_id":"ac230870-0df3-46a9-8510-62d4cc74a15c","system_id":"levelo_inurba_marseille","lat":43.23186,"lon":5.39996,"is_reserved":false,"is_disabled":false,"rental_uris":{"android":"levelo://app?vid=ac230870-0df3-46a9-8510-62d4cc74a15c","ios":"levelo://app?vid=ac230870-0df3-46a9-8510-62d4cc74a15c"},"vehicle_type_id":"4","last_reported":1739884594,"current_range_meters":18000,"station_id":"ce4bhn12rcd13ifvqgqg","pricing_plan_id":"cebpf4jnsgd1na2vs0mg"},{"bike_id":"658563df-1081-4b80-a4b7-02b23db69aab","system_id":"levelo_inurba_marseille","lat":43.29904,"lon":5.38136,"is_reserved":false,"is_disabled":false,"rental_uris":{"android":"levelo://app?vid=658563df-1081-4b80-a4b7-02b23db69aab","ios":"levelo://app?vid=658563df-1081-4b80-a4b7-02b23db69aab"},"vehicle_type_id":"4","last_reported":1739884594,"current_range_meters":18000,"station_id":"ce4bgj12rcd13ifvqbc0","pricing_plan_id":"cebpf4jnsgd1na2vs0mg"},{"bike_id":"674539e7-a9d0-41c5-ac26-e4f00b519c9b","system_id":"levelo_inurba_marseille","lat":43.31124,"lon":5.3778,"is_reserved":false,"is_disabled":false,"rental_uris":{"android":"levelo://app?vid=674539e7-a9d0-41c5-ac26-e4f00b519c9b","ios":"levelo://app?vid=674539e7-a9d0-41c5-ac26-e4f00b519c9b"},"vehicle_type_id":"4","last_reported":1739884594,"current_range_meters":18800,"station_id":"ce4bgt92rcd13ifvqcg0","pricing_plan_id":"cebpf4jnsgd1na2vs0mg"},{"bike_id":"f5c3f300-ea70-4da3-8ce6-bf6bed7aa916","system_id":"levelo_inurba_marseille","lat":43.28835,"lon":5.39319,"is_reserved":false,"is_disabled":false,"rental_uris":{"android":"levelo://app?vid=f5c3f300-ea70-4da3-8ce6-bf6bed7aa916","ios":"levelo://app?vid=f5c3f300-ea70-4da3-8ce6-bf6bed7aa916"},"vehicle_type_id":"4","last_reported":1739884594,"current_range_meters":18800,"station_id":"ce4bh2p2rcd13ifvqdi0","pricing_plan_id":"cebpf4jnsgd1na2vs0mg"},{"bike_id":"0aabc160-1b6f-43b2-844c-08c3dea9d45c","system_id":"levelo_inurba_marseille","lat":43.29258,"lon":5.40898,"is_reserved":false,"is_disabled":false,"rental_uris":{"android":"levelo://app?vid=0aabc160-1b6f-43b2-844c-08c3dea9d45c","ios":"levelo://app?vid=0aabc160-1b6f-43b2-844c-08c3dea9d45c"},"vehicle_type_id":"4","last_reported":1739884594,"current_range_meters":18800,"station_id":"ce4bh192rcd13ifvqdc0","pricing_plan_id":"cebpf4jnsgd1na2vs0mg"},{"bike_id":"2ac92b6d-f141-4c8f-80eb-b5281ca890fd","system_id":"levelo_inurba_marseille","lat":43.29976,"lon":5.3718,"is_reserved":false,"is_disabled":false,"rental_uris":{"android":"levelo://app?vid=2ac92b6d-f141-4c8f-80eb-b5281ca890fd","ios":"levelo://app?vid=2ac92b6d-f141-4c8f-80eb-b5281ca890fd"},"vehicle_type_id":"4","last_reported":1739884594,"current_range_meters":18800,"station_id":"ce4bgr92rcd13ifvqc7g","pricing_plan_id":"cebpf4jnsgd1na2vs0mg"},{"bike_id":"22196579-be9e-4f2d-b2dd-94d1ef2f58bc","system_id":"levelo_inurba_marseille","lat":43.23167,"lon":5.43708,"is_reserved":false,"is_disabled":false,"rental_uris":{"android":"levelo://app?vid=22196579-be9e-4f2d-b2dd-94d1ef2f58bc","ios":"levelo://app?vid=22196579-be9e-4f2d-b2dd-94d1ef2f58bc"},"vehicle_type_id":"4","last_reported":1739884594,"current_range_meters":18800,"station_id":"ce4bhmp2rcd13ifvqgog","pricing_plan_id":"cebpf4jnsgd1na2vs0mg"},{"bike_id":"24dd12c1-4d8a-40c0-b521-a98d2d462c41","system_id":"levelo_inurba_marseille","lat":43.24173,"lon":5.36401,"is_reserved":false,"is_disabled":false,"rental_uris":{"android":"levelo://app?vid=24dd12c1-4d8a-40c0-b521-a98d2d462c41","ios":"levelo://app?vid=24dd12c1-4d8a-40c0-b521-a98d2d462c41"},"vehicle_type_id":"4","last_reported":1739884594,"current_range_meters":18800,"station_id":"","pricing_plan_id":"cebpf4jnsgd1na2vs0mg"},{"bike_id":"f916af0f-8714-4518-adb5-98f1d3b8485a","system_id":"levelo_inurba_marseille","lat":43.28106,"lon":5.37803,"is_reserved":false,"is_disabled":false,"rental_uris":{"android":"levelo://app?vid=f916af0f-8714-4518-adb5-98f1d3b8485a","ios":"levelo://app?vid=f916af0f-8714-4518-adb5-98f1d3b8485a"},"vehicle_type_id":"4","last_reported":1739884594,"current_range_meters":18800,"station_id":"ce4bha12rcd13ifvqee0","pricing_plan_id":"cebpf4jnsgd1na2vs0mg"},{"bike_id":"e60db891-27e1-4a33-aa8e-9e937db9b2b1","system_id":"levelo_inurba_marseille","lat":43.29941,"lon":5.36518,"is_reserved":false,"is_disabled":false,"rental_uris":{"android":"levelo://app?vid=e60db891-27e1-4a33-aa8e-9e937db9b2b1","ios":"levelo://app?vid=e60db891-27e1-4a33-aa8e-9e937db9b2b1"},"vehicle_type_id":"4","last_reported":1739884594,"current_range_meters":18800,"station_id":"ce4bgm92rcd13ifvqbr0","pricing_plan_id":"cebpf4jnsgd1na2vs0mg"},{"bike_id":"be59961e-616b-4c75-97c4-c082d5d8fd20","system_id":"levelo_inurba_marseille","lat":43.24174,"lon":5.39727,"is_reserved":false,"is_disabled":false,"rental_uris":{"android":"levelo://app?vid=be59961e-616b-4c75-97c4-c082d5d8fd20","ios":"levelo://app?vid=be59961e-616b-4c75-97c4-c082d5d8fd20"},"vehicle_type_id":"4","last_reported":1739884594,"current_range_meters":18800,"station_id":"ce4bhn12rcd13ifvqgpg","pricing_plan_id":"cebpf4jnsgd1na2vs0mg"},{"bike_id":"aab56d93-547d-40cc-9ff6-b85d4684f798","system_id":"levelo_inurba_marseille","lat":43.23955,"lon":5.36635,"is_reserved":false,"is_disabled":false,"rental_uris":{"android":"levelo://app?vid=aab56d93-547d-40cc-9ff6-b85d4684f798","ios":"levelo://app?vid=aab56d93-547d-40cc-9ff6-b85d4684f798"},"vehicle_type_id":"4","last_reported":1739884594,"current_range_meters":18800,"station_id":"ce4bhi12rcd13ifvqfp0","pricing_plan_id":"cebpf4jnsgd1na2vs0mg"},{"bike_id":"890c3db8-194a-4889-bbe8-96d07be1a2d8","system_id":"levelo_inurba_marseille","lat":43.287,"lon":5.37388,"is_reserved":false,"is_disabled":false,"rental_uris":{"android":"levelo://app?vid=890c3db8-194a-4889-bbe8-96d07be1a2d8","ios":"levelo://app?vid=890c3db8-194a-4889-bbe8-96d07be1a2d8"},"vehicle_type_id":"4","last_reported":1739884594,"current_range_meters":19600,"station_id":"ce4bh3p2rcd13ifvqdq0","pricing_plan_id":"cebpf4jnsgd1na2vs0mg"},{"bike_id":"5f9ede52-c720-4107-a864-980fb2608395","system_id":"levelo_inurba_marseille","lat":43.24094,"lon":5.38658,"is_reserved":false,"is_disabled":false,"rental_uris":{"android":"levelo://app?vid=5f9ede52-c720-4107-a864-980fb2608395","ios":"levelo://app?vid=5f9ede52-c720-4107-a864-980fb2608395"},"vehicle_type_id":"4","last_reported":1739884594,"current_range_meters":19600,"station_id":"","pricing_plan_id":"cebpf4jnsgd1na2vs0mg"},{"bike_id":"57428e68-6178-4a63-998d-4f2eb2a0c995","system_id":"levelo_inurba_marseille","lat":43.24157,"lon":5.36409,"is_reserved":false,"is_disabled":false,"rental_uris":{"android":"levelo://app?vid=57428e68-6178-4a63-998d-4f2eb2a0c995","ios":"levelo://app?vid=57428e68-6178-4a63-998d-4f2eb2a0c995"},"vehicle_type_id":"4","last_reported":1739884594,"current_range_meters":19600,"station_id":"cpo36qri1sfpv3e86is0","pricing_plan_id":"cebpf4jnsgd1na2vs0mg"},{"bike_id":"7c789c15-7024-4219-855f-6dd2f9133c80","system_id":"levelo_inurba_marseille","lat":43.24985,"lon":5.38933,"is_reserved":false,"is_disabled":false,"rental_uris":{"android":"levelo://app?vid=7c789c15-7024-4219-855f-6dd2f9133c80","ios":"levelo://app?vid=7c789c15-7024-4219-855f-6dd2f9133c80"},"vehicle_type_id":"4","last_reported":1739884594,"current_range_meters":19600,"station_id":"","pricing_plan_id":"cebpf4jnsgd1na2vs0mg"},{"bike_id":"b768b1a6-dfb0-4283-bce3-5f90f2a7562b","system_id":"levelo_inurba_marseille","lat":43.32365,"lon":5.38883,"is_reserved":false,"is_disabled":false,"rental_uris":{"android":"levelo://app?vid=b768b1a6-dfb0-4283-bce3-5f90f2a7562b","ios":"levelo://app?vid=b768b1a6-dfb0-4283-bce3-5f90f2a7562b"},"vehicle_type_id":"4","last_reported":1739884594,"current_range_meters":19600,"station_id":"ce4bhqp2rcd13ifvqhog","pricing_plan_id":"cebpf4jnsgd1na2vs0mg"},{"bike_id":"69fa07c4-5920-41f1-ae17-c902ad20161f","system_id":"levelo_inurba_marseille","lat":43.29706,"lon":5.36605,"is_reserved":false,"is_disabled":false,"rental_uris":{"android":"levelo://app?vid=69fa07c4-5920-41f1-ae17-c902ad20161f","ios":"levelo://app?vid=69fa07c4-5920-41f1-ae17-c902ad20161f"},"vehicle_type_id":"4","last_reported":1739884594,"current_range_meters":19600,"station_id":"ce4bgn12rcd13ifvqbt0","pricing_plan_id":"cebpf4jnsgd1na2vs0mg"},{"bike_id":"51032506-98e3-405f-8a26-61faf7b60f8d","system_id":"levelo_inurba_marseille","lat":43.25719,"lon":5.4111,"is_reserved":false,"is_disabled":false,"rental_uris":{"android":"levelo://app?vid=51032506-98e3-405f-8a26-61faf7b60f8d","ios":"levelo://app?vid=51032506-98e3-405f-8a26-61faf7b60f8d"},"vehicle_type_id":"4","last_reported":1739884594,"current_range_meters":19600,"station_id":"ce4bhkp2rcd13ifvqgd0","pricing_plan_id":"cebpf4jnsgd1na2vs0mg"},{"bike_id":"955714a3-4c55-44a3-8fb8-9167bb844e5a","system_id":"levelo_inurba_marseille","lat":43.29,"lon":5.35617,"is_reserved":false,"is_disabled":false,"rental_uris":{"android":"levelo://app?vid=955714a3-4c55-44a3-8fb8-9167bb844e5a","ios":"levelo://app?vid=955714a3-4c55-44a3-8fb8-9167bb844e5a"},"vehicle_type_id":"4","last_reported":1739884594,"current_range_meters":20000,"station_id":"ce4bhb92rcd13ifvqen0","pricing_plan_id":"cebpf4jnsgd1na2vs0mg"},{"bike_id":"5089bb88-a0cd-4434-a1a9-f3d5b67361c6","system_id":"levelo_inurba_marseille","lat":43.24367,"lon":5.38764,"is_reserved":false,"is_disabled":false,"rental_uris":{"android":"levelo://app?vid=5089bb88-a0cd-4434-a1a9-f3d5b67361c6","ios":"levelo://app?vid=5089bb88-a0cd-4434-a1a9-f3d5b67361c6"},"vehicle_type_id":"4","last_reported":1739884594,"current_range_meters":20000,"station_id":"","pricing_plan_id":"cebpf4jnsgd1na2vs0mg"},{"bike_id":"a0af3547-0f5a-4ee7-a39d-23ed992db956","system_id":"levelo_inurba_marseille","lat":43.23418,"lon":5.40452,"is_reserved":false,"is_disabled":false,"rental_uris":{"android":"levelo://app?vid=a0af3547-0f5a-4ee7-a39d-23ed992db956","ios":"levelo://app?vid=a0af3547-0f5a-4ee7-a39d-23ed992db956"},"vehicle_type_id":"4","last_reported":1739884594,"current_range_meters":20000,"station_id":"","pricing_plan_id":"cebpf4jnsgd1na2vs0mg"},{"bike_id":"63603fa4-8591-4c86-9369-0e8930585a57","system_id":"levelo_inurba_marseille","lat":43.299479,"lon":5.380776,"is_reserved":false,"is_disabled":false,"rental_uris":{"android":"levelo://app?vid=63603fa4-8591-4c86-9369-0e8930585a57","ios":"levelo://app?vid=63603fa4-8591-4c86-9369-0e8930585a57"},"vehicle_type_id":"4","last_reported":1739884594,"current_range_meters":20800,"station_id":"ce4bhb92rcd13ifvqen0","pricing_plan_id":"cebpf4jnsgd1na2vs0mg"},{"bike_id":"2bb11c44-7ed8-490e-98a7-8e8e552809c9","system_id":"levelo_inurba_marseille","lat":43.30429,"lon":5.39746,"is_reserved":false,"is_disabled":false,"rental_uris":{"android":"levelo://app?vid=2bb11c44-7ed8-490e-98a7-8e8e552809c9","ios":"levelo://app?vid=2bb11c44-7ed8-490e-98a7-8e8e552809c9"},"vehicle_type_id":"4","last_reported":1739884594,"current_range_meters":19200,"station_id":"ce4bh092rcd13ifvqd20","pricing_plan_id":"cebpf4jnsgd1na2vs0mg"},{"bike_id":"5c8bbdb4-381c-481b-8b07-ca272612ce2c","system_id":"levelo_inurba_marseille","lat":43.29041,"lon":5.39973,"is_reserved":false,"is_disabled":false,"rental_uris":{"android":"levelo://app?vid=5c8bbdb4-381c-481b-8b07-ca272612ce2c","ios":"levelo://app?vid=5c8bbdb4-381c-481b-8b07-ca272612ce2c"},"vehicle_type_id":"4","last_reported":1739884594,"current_range_meters":20000,"station_id":"ce4bh392rcd13ifvqdm0","pricing_plan_id":"cebpf4jnsgd1na2vs0mg"},{"bike_id":"b76dce8d-1605-4338-b39a-492d6e3cee3f","system_id":"levelo_inurba_marseille","lat":43.30554,"lon":5.36558,"is_reserved":false,"is_disabled":false,"rental_uris":{"android":"levelo://app?vid=b76dce8d-1605-4338-b39a-492d6e3cee3f","ios":"levelo://app?vid=b76dce8d-1605-4338-b39a-492d6e3cee3f"},"vehicle_type_id":"4","last_reported":1739884594,"current_range_meters":20000,"station_id":"","pricing_plan_id":"cebpf4jnsgd1na2vs0mg"},{"bike_id":"7371a458-5614-4c34-a3ee-6e25fcfd9c7b","system_id":"levelo_inurba_marseille","lat":43.24649,"lon":5.38855,"is_reserved":false,"is_disabled":false,"rental_uris":{"android":"levelo://app?vid=7371a458-5614-4c34-a3ee-6e25fcfd9c7b","ios":"levelo://app?vid=7371a458-5614-4c34-a3ee-6e25fcfd9c7b"},"vehicle_type_id":"4","last_reported":1739884594,"current_range_meters":20000,"station_id":"ce4bhg12rcd13ifvqf60","pricing_plan_id":"cebpf4jnsgd1na2vs0mg"},{"bike_id":"3428648f-c478-4771-87a3-a6d28b29d7eb","system_id":"levelo_inurba_marseille","lat":43.306123,"lon":5.372298,"is_reserved":false,"is_disabled":false,"rental_uris":{"android":"levelo://app?vid=3428648f-c478-4771-87a3-a6d28b29d7eb","ios":"levelo://app?vid=3428648f-c478-4771-87a3-a6d28b29d7eb"},"vehicle_type_id":"4","last_reported":1739884594,"current_range_meters":19200,"station_id":"ce4bgqh2rcd13ifvqc4g","pricing_plan_id":"cebpf4jnsgd1na2vs0mg"},{"bike_id":"69b210eb-a35b-4be9-9c10-20c36a1f7fe9","system_id":"levelo_inurba_marseille","lat":43.24181,"lon":5.39732,"is_reserved":false,"is_disabled":false,"rental_uris":{"android":"levelo://app?vid=69b210eb-a35b-4be9-9c10-20c36a1f7fe9","ios":"levelo://app?vid=69b210eb-a35b-4be9-9c10-20c36a1f7fe9"},"vehicle_type_id":"4","last_reported":1739884594,"current_range_meters":20000,"station_id":"","pricing_plan_id":"cebpf4jnsgd1na2vs0mg"},{"bike_id":"4b197d5a-6ff9-41aa-96ba-a80fecda54f6","system_id":"levelo_inurba_marseille","lat":43.30307,"lon":5.36897,"is_reserved":false,"is_disabled":false,"rental_uris":{"android":"levelo://app?vid=4b197d5a-6ff9-41aa-96ba-a80fecda54f6","ios":"levelo://app?vid=4b197d5a-6ff9-41aa-96ba-a80fecda54f6"},"vehicle_type_id":"4","last_reported":1739884594,"current_range_meters":20000,"station_id":"","pricing_plan_id":"cebpf4jnsgd1na2vs0mg"},{"bike_id":"4ea4e19c-8458-44e4-ab6d-682e843885bd","system_id":"levelo_inurba_marseille","lat":43.29618,"lon":5.37716,"is_reserved":false,"is_disabled":false,"rental_uris":{"android":"levelo://app?vid=4ea4e19c-8458-44e4-ab6d-682e843885bd","ios":"levelo://app?vid=4ea4e19c-8458-44e4-ab6d-682e843885bd"},"vehicle_type_id":"4","last_reported":1739884594,"current_range_meters":20800,"station_id":"ce4bgi92rcd13ifvqb90","pricing_plan_id":"cebpf4jnsgd1na2vs0mg"},{"bike_id":"fb466ea4-8c80-4a91-a655-695634faf4d0","system_id":"levelo_inurba_marseille","lat":43.30949,"lon":5.39033,"is_reserved":false,"is_disabled":false,"rental_uris":{"android":"levelo://app?vid=fb466ea4-8c80-4a91-a655-695634faf4d0","ios":"levelo://app?vid=fb466ea4-8c80-4a91-a655-695634faf4d0"},"vehicle_type_id":"4","last_reported":1739884594,"current_range_meters":20400,"station_id":"ce4bgup2rcd13ifvqco0","pricing_plan_id":"cebpf4jnsgd1na2vs0mg"},{"bike_id":"11c049f6-310a-4659-92a3-719df9a45950","system_id":"levelo_inurba_marseille","lat":43.25877,"lon":5.40816,"is_reserved":false,"is_disabled":false,"rental_uris":{"android":"levelo://app?vid=11c049f6-310a-4659-92a3-719df9a45950","ios":"levelo://app?vid=11c049f6-310a-4659-92a3-719df9a45950"},"vehicle_type_id":"4","last_reported":1739884594,"current_range_meters":20400,"station_id":"","pricing_plan_id":"cebpf4jnsgd1na2vs0mg"},{"bike_id":"faa5627a-502d-4c4e-88a7-77f9ccde7751","system_id":"levelo_inurba_marseille","lat":43.32475,"lon":5.36564,"is_reserved":false,"is_disabled":false,"rental_uris":{"android":"levelo://app?vid=faa5627a-502d-4c4e-88a7-77f9ccde7751","ios":"levelo://app?vid=faa5627a-502d-4c4e-88a7-77f9ccde7751"},"vehicle_type_id":"4","last_reported":1739884594,"current_range_meters":20400,"station_id":"ce4bhs12rcd13ifvqhvg","pricing_plan_id":"cebpf4jnsgd1na2vs0mg"},{"bike_id":"9d8186d8-4c6c-48f4-b723-5deb007469f8","system_id":"levelo_inurba_marseille","lat":43.286262,"lon":5.385368,"is_reserved":false,"is_disabled":false,"rental_uris":{"android":"levelo://app?vid=9d8186d8-4c6c-48f4-b723-5deb007469f8","ios":"levelo://app?vid=9d8186d8-4c6c-48f4-b723-5deb007469f8"},"vehicle_type_id":"4","last_reported":1739884594,"current_range_meters":20400,"station_id":"ce4bh492rcd13ifvqdug","pricing_plan_id":"cebpf4jnsgd1na2vs0mg"},{"bike_id":"d59d0630-788e-48aa-96ef-a39f104a1b99","system_id":"levelo_inurba_marseille","lat":43.282654,"lon":5.350621,"is_reserved":false,"is_disabled":false,"rental_uris":{"android":"levelo://app?vid=d59d0630-788e-48aa-96ef-a39f104a1b99","ios":"levelo://app?vid=d59d0630-788e-48aa-96ef-a39f104a1b99"},"vehicle_type_id":"4","last_reported":1739884594,"current_range_meters":20400,"station_id":"ce4bhbp2rcd13ifvqerg","pricing_plan_id":"cebpf4jnsgd1na2vs0mg"},{"bike_id":"cfa34783-5808-48ab-8d7d-e629e165422a","system_id":"levelo_inurba_marseille","lat":43.29793,"lon":5.38111,"is_reserved":false,"is_disabled":false,"rental_uris":{"android":"levelo://app?vid=cfa34783-5808-48ab-8d7d-e629e165422a","ios":"levelo://app?vid=cfa34783-5808-48ab-8d7d-e629e165422a"},"vehicle_type_id":"4","last_reported":1739884594,"current_range_meters":22400,"station_id":"ce4bgip2rcd13ifvqbb0","pricing_plan_id":"cebpf4jnsgd1na2vs0mg"},{"bike_id":"5428c4a6-2268-45c5-aff9-a5f8e308d92b","system_id":"levelo_inurba_marseille","lat":43.30927,"lon":5.37305,"is_reserved":false,"is_disabled":false,"rental_uris":{"android":"levelo://app?vid=5428c4a6-2268-45c5-aff9-a5f8e308d92b","ios":"levelo://app?vid=5428c4a6-2268-45c5-aff9-a5f8e308d92b"},"vehicle_type_id":"4","last_reported":1739884594,"current_range_meters":20800,"station_id":"ce4bguh2rcd13ifvqckg","pricing_plan_id":"cebpf4jnsgd1na2vs0mg"},{"bike_id":"3ca880fb-be5d-41b1-9e3c-19b59ea52225","system_id":"levelo_inurba_marseille","lat":43.25504,"lon":5.37661,"is_reserved":false,"is_disabled":false,"rental_uris":{"android":"levelo://app?vid=3ca880fb-be5d-41b1-9e3c-19b59ea52225","ios":"levelo://app?vid=3ca880fb-be5d-41b1-9e3c-19b59ea52225"},"vehicle_type_id":"4","last_reported":1739884594,"current_range_meters":20800,"station_id":"ce4bhh12rcd13ifvqff0","pricing_plan_id":"cebpf4jnsgd1na2vs0mg"},{"bike_id":"ecbd6e29-5b86-41d0-a4bd-3518ee3bab53","system_id":"levelo_inurba_marseille","lat":43.24659,"lon":5.3889,"is_reserved":false,"is_disabled":false,"rental_uris":{"android":"levelo://app?vid=ecbd6e29-5b86-41d0-a4bd-3518ee3bab53","ios":"levelo://app?vid=ecbd6e29-5b86-41d0-a4bd-3518ee3bab53"},"vehicle_type_id":"4","last_reported":1739884594,"current_range_meters":20800,"station_id":"ce4bhg12rcd13ifvqf60","pricing_plan_id":"cebpf4jnsgd1na2vs0mg"},{"bike_id":"9d365055-48fa-4bdd-9e14-be8827a691d1","system_id":"levelo_inurba_marseille","lat":43.31332,"lon":5.39704,"is_reserved":false,"is_disabled":false,"rental_uris":{"android":"levelo://app?vid=9d365055-48fa-4bdd-9e14-be8827a691d1","ios":"levelo://app?vid=9d365055-48fa-4bdd-9e14-be8827a691d1"},"vehicle_type_id":"4","last_reported":1739884594,"current_range_meters":20800,"station_id":"","pricing_plan_id":"cebpf4jnsgd1na2vs0mg"},{"bike_id":"7ad51843-fafd-430f-8145-872226303098","system_id":"levelo_inurba_marseille","lat":43.30876,"lon":5.36815,"is_reserved":false,"is_disabled":false,"rental_uris":{"android":"levelo://app?vid=7ad51843-fafd-430f-8145-872226303098","ios":"levelo://app?vid=7ad51843-fafd-430f-8145-872226303098"},"vehicle_type_id":"4","last_reported":1739884594,"current_range_meters":20800,"station_id":"ce4bgn92rcd13ifvqbvg","pricing_plan_id":"cebpf4jnsgd1na2vs0mg"},{"bike_id":"24ae4e97-e7f0-436f-b21b-3ece91f960bf","system_id":"levelo_inurba_marseille","lat":43.24762,"lon":5.37439,"is_reserved":false,"is_disabled":false,"rental_uris":{"android":"levelo://app?vid=24ae4e97-e7f0-436f-b21b-3ece91f960bf","ios":"levelo://app?vid=24ae4e97-e7f0-436f-b21b-3ece91f960bf"},"vehicle_type_id":"4","last_reported":1739884594,"current_range_meters":20800,"station_id":"","pricing_plan_id":"cebpf4jnsgd1na2vs0mg"},{"bike_id":"80ea6495-7afe-44b8-9580-b06f6472ed07","system_id":"levelo_inurba_marseille","lat":43.30535,"lon":5.36532,"is_reserved":false,"is_disabled":false,"rental_uris":{"android":"levelo://app?vid=80ea6495-7afe-44b8-9580-b06f6472ed07","ios":"levelo://app?vid=80ea6495-7afe-44b8-9580-b06f6472ed07"},"vehicle_type_id":"4","last_reported":1739884594,"current_range_meters":20800,"station_id":"ce4bgs12rcd13ifvqcag","pricing_plan_id":"cebpf4jnsgd1na2vs0mg"},{"bike_id":"8969d16a-103a-4d8f-83d0-6220c0b67d86","system_id":"levelo_inurba_marseille","lat":43.30133,"lon":5.39873,"is_reserved":false,"is_disabled":false,"rental_uris":{"android":"levelo://app?vid=8969d16a-103a-4d8f-83d0-6220c0b67d86","ios":"levelo://app?vid=8969d16a-103a-4d8f-83d0-6220c0b67d86"},"vehicle_type_id":"4","last_reported":1739884594,"current_range_meters":19600,"station_id":"ce4bh0h2rcd13ifvqd40","pricing_plan_id":"cebpf4jnsgd1na2vs0mg"},{"bike_id":"84d13e52-68f9-4dc5-bc1b-afc409821b3d","system_id":"levelo_inurba_marseille","lat":43.26558,"lon":5.3729,"is_reserved":false,"is_disabled":false,"rental_uris":{"android":"levelo://app?vid=84d13e52-68f9-4dc5-bc1b-afc409821b3d","ios":"levelo://app?vid=84d13e52-68f9-4dc5-bc1b-afc409821b3d"},"vehicle_type_id":"4","last_reported":1739884594,"current_range_meters":21600,"station_id":"ce4bhg12rcd13ifvqf70","pricing_plan_id":"cebpf4jnsgd1na2vs0mg"},{"bike_id":"e8950b64-998d-4c98-8dd9-a4114dbcac05","system_id":"levelo_inurba_marseille","lat":43.25001,"lon":5.38943,"is_reserved":false,"is_disabled":false,"rental_uris":{"android":"levelo://app?vid=e8950b64-998d-4c98-8dd9-a4114dbcac05","ios":"levelo://app?vid=e8950b64-998d-4c98-8dd9-a4114dbcac05"},"vehicle_type_id":"4","last_reported":1739884594,"current_range_meters":20800,"station_id":"ce4bhgp2rcd13ifvqfd0","pricing_plan_id":"cebpf4jnsgd1na2vs0mg"},{"bike_id":"c1ddaba9-96e5-4265-b7eb-414248b43c03","system_id":"levelo_inurba_marseille","lat":43.33025,"lon":5.39042,"is_reserved":false,"is_disabled":false,"rental_uris":{"android":"levelo://app?vid=c1ddaba9-96e5-4265-b7eb-414248b43c03","ios":"levelo://app?vid=c1ddaba9-96e5-4265-b7eb-414248b43c03"},"vehicle_type_id":"4","last_reported":1739884594,"current_range_meters":21600,"station_id":"ce4bhr92rcd13ifvqhrg","pricing_plan_id":"cebpf4jnsgd1na2vs0mg"},{"bike_id":"64914ee1-541d-439f-984e-4cc0179511cb","system_id":"levelo_inurba_marseille","lat":43.28194,"lon":5.40245,"is_reserved":false,"is_disabled":false,"rental_uris":{"android":"levelo://app?vid=64914ee1-541d-439f-984e-4cc0179511cb","ios":"levelo://app?vid=64914ee1-541d-439f-984e-4cc0179511cb"},"vehicle_type_id":"4","last_reported":1739884594,"current_range_meters":21600,"station_id":"","pricing_plan_id":"cebpf4jnsgd1na2vs0mg"},{"bike_id":"e9bba9f6-2460-4a3d-be9c-0ff8bbc8efca","system_id":"levelo_inurba_marseille","lat":43.23146,"lon":5.43705,"is_reserved":false,"is_disabled":false,"rental_uris":{"android":"levelo://app?vid=e9bba9f6-2460-4a3d-be9c-0ff8bbc8efca","ios":"levelo://app?vid=e9bba9f6-2460-4a3d-be9c-0ff8bbc8efca"},"vehicle_type_id":"4","last_reported":1739884594,"current_range_meters":21600,"station_id":"ce4bhmp2rcd13ifvqgog","pricing_plan_id":"cebpf4jnsgd1na2vs0mg"},{"bike_id":"aef96103-a626-4137-bf32-bb7c05e44a45","system_id":"levelo_inurba_marseille","lat":43.291762,"lon":5.371508,"is_reserved":false,"is_disabled":false,"rental_uris":{"android":"levelo://app?vid=aef96103-a626-4137-bf32-bb7c05e44a45","ios":"levelo://app?vid=aef96103-a626-4137-bf32-bb7c05e44a45"},"vehicle_type_id":"4","last_reported":1739884594,"current_range_meters":20800,"station_id":"ce4bhh92rcd13ifvqfi0","pricing_plan_id":"cebpf4jnsgd1na2vs0mg"},{"bike_id":"ef23e8c5-bbde-4211-a3a9-69fab61c8633","system_id":"levelo_inurba_marseille","lat":43.279298,"lon":5.382924,"is_reserved":false,"is_disabled":false,"rental_uris":{"android":"levelo://app?vid=ef23e8c5-bbde-4211-a3a9-69fab61c8633","ios":"levelo://app?vid=ef23e8c5-bbde-4211-a3a9-69fab61c8633"},"vehicle_type_id":"4","last_reported":1739884594,"current_range_meters":20000,"station_id":"ce4bhh12rcd13ifvqff0","pricing_plan_id":"cebpf4jnsgd1na2vs0mg"},{"bike_id":"da9a19f2-2028-4e60-9cce-7752d60ae428","system_id":"levelo_inurba_marseille","lat":43.244,"lon":5.371,"is_reserved":false,"is_disabled":false,"rental_uris":{"android":"levelo://app?vid=da9a19f2-2028-4e60-9cce-7752d60ae428","ios":"levelo://app?vid=da9a19f2-2028-4e60-9cce-7752d60ae428"},"vehicle_type_id":"4","last_reported":1739884594,"current_range_meters":22000,"station_id":"","pricing_plan_id":"cebpf4jnsgd1na2vs0mg"},{"bike_id":"b4d2d5eb-e96c-4f9a-978d-48fad6e72c7c","system_id":"levelo_inurba_marseille","lat":43.282507,"lon":5.351177,"is_reserved":false,"is_disabled":false,"rental_uris":{"android":"levelo://app?vid=b4d2d5eb-e96c-4f9a-978d-48fad6e72c7c","ios":"levelo://app?vid=b4d2d5eb-e96c-4f9a-978d-48fad6e72c7c"},"vehicle_type_id":"4","last_reported":1739884594,"current_range_meters":22000,"station_id":"","pricing_plan_id":"cebpf4jnsgd1na2vs0mg"},{"bike_id":"94ce4c1f-b676-43e1-9e28-ed9f6f6c8e2b","system_id":"levelo_inurba_marseille","lat":43.23629,"lon":5.39201,"is_reserved":false,"is_disabled":false,"rental_uris":{"android":"levelo://app?vid=94ce4c1f-b676-43e1-9e28-ed9f6f6c8e2b","ios":"levelo://app?vid=94ce4c1f-b676-43e1-9e28-ed9f6f6c8e2b"},"vehicle_type_id":"4","last_reported":1739884594,"current_range_meters":22000,"station_id":"","pricing_plan_id":"cebpf4jnsgd1na2vs0mg"},{"bike_id":"1f4bb896-5acf-40f6-95c6-d6a43c79a06a","system_id":"levelo_inurba_marseille","lat":43.28961,"lon":5.37821,"is_reserved":false,"is_disabled":false,"rental_uris":{"android":"levelo://app?vid=1f4bb896-5acf-40f6-95c6-d6a43c79a06a","ios":"levelo://app?vid=1f4bb896-5acf-40f6-95c6-d6a43c79a06a"},"vehicle_type_id":"4","last_reported":1739884594,"current_range_meters":22000,"station_id":"ce4bh9p2rcd13ifvqed0","pricing_plan_id":"cebpf4jnsgd1na2vs0mg"},{"bike_id":"89b0891e-671e-4b94-b8a0-bc4cd38018bf","system_id":"levelo_inurba_marseille","lat":43.24171,"lon":5.364,"is_reserved":false,"is_disabled":false,"rental_uris":{"android":"levelo://app?vid=89b0891e-671e-4b94-b8a0-bc4cd38018bf","ios":"levelo://app?vid=89b0891e-671e-4b94-b8a0-bc4cd38018bf"},"vehicle_type_id":"4","last_reported":1739884594,"current_range_meters":22000,"station_id":"","pricing_plan_id":"cebpf4jnsgd1na2vs0mg"},{"bike_id":"22dce2ae-19ac-4421-8f78-be56ae506636","system_id":"levelo_inurba_marseille","lat":43.29796,"lon":5.40411,"is_reserved":false,"is_disabled":false,"rental_uris":{"android":"levelo://app?vid=22dce2ae-19ac-4421-8f78-be56ae506636","ios":"levelo://app?vid=22dce2ae-19ac-4421-8f78-be56ae506636"},"vehicle_type_id":"4","last_reported":1739884594,"current_range_meters":20400,"station_id":"ce4bh112rcd13ifvqd90","pricing_plan_id":"cebpf4jnsgd1na2vs0mg"},{"bike_id":"0396d488-6aeb-466c-a9c4-e21e0acd72cb","system_id":"levelo_inurba_marseille","lat":43.3236,"lon":5.36756,"is_reserved":false,"is_disabled":false,"rental_uris":{"android":"levelo://app?vid=0396d488-6aeb-466c-a9c4-e21e0acd72cb","ios":"levelo://app?vid=0396d488-6aeb-466c-a9c4-e21e0acd72cb"},"vehicle_type_id":"4","last_reported":1739884594,"current_range_meters":22000,"station_id":"ce4bhsh2rcd13ifvqi2g","pricing_plan_id":"cebpf4jnsgd1na2vs0mg"},{"bike_id":"9364b398-60be-4f7f-9f16-e80e5347be3e","system_id":"levelo_inurba_marseille","lat":43.22931,"lon":5.35377,"is_reserved":false,"is_disabled":false,"rental_uris":{"android":"levelo://app?vid=9364b398-60be-4f7f-9f16-e80e5347be3e","ios":"levelo://app?vid=9364b398-60be-4f7f-9f16-e80e5347be3e"},"vehicle_type_id":"4","last_reported":1739884594,"current_range_meters":20800,"station_id":"cpo3532slgdg3j2ikp40","pricing_plan_id":"cebpf4jnsgd1na2vs0mg"},{"bike_id":"f27d8168-ce97-4050-849c-93fe5508d445","system_id":"levelo_inurba_marseille","lat":43.30955,"lon":5.39622,"is_reserved":false,"is_disabled":false,"rental_uris":{"android":"levelo://app?vid=f27d8168-ce97-4050-849c-93fe5508d445","ios":"levelo://app?vid=f27d8168-ce97-4050-849c-93fe5508d445"},"vehicle_type_id":"4","last_reported":1739884594,"current_range_meters":22400,"station_id":"","pricing_plan_id":"cebpf4jnsgd1na2vs0mg"},{"bike_id":"d0ba6d13-41ec-4455-bcbb-2f48ec30c435","system_id":"levelo_inurba_marseille","lat":43.28863,"lon":5.39315,"is_reserved":false,"is_disabled":false,"rental_uris":{"android":"levelo://app?vid=d0ba6d13-41ec-4455-bcbb-2f48ec30c435","ios":"levelo://app?vid=d0ba6d13-41ec-4455-bcbb-2f48ec30c435"},"vehicle_type_id":"4","last_reported":1739884594,"current_range_meters":22800,"station_id":"ce4bh2p2rcd13ifvqdi0","pricing_plan_id":"cebpf4jnsgd1na2vs0mg"},{"bike_id":"50a2c7d1-3f25-4f81-9106-d7efa0be85e8","system_id":"levelo_inurba_marseille","lat":43.30542,"lon":5.36542,"is_reserved":false,"is_disabled":false,"rental_uris":{"android":"levelo://app?vid=50a2c7d1-3f25-4f81-9106-d7efa0be85e8","ios":"levelo://app?vid=50a2c7d1-3f25-4f81-9106-d7efa0be85e8"},"vehicle_type_id":"4","last_reported":1739884594,"current_range_meters":22400,"station_id":"","pricing_plan_id":"cebpf4jnsgd1na2vs0mg"},{"bike_id":"66b5a43e-2798-4c72-8acc-33d23152963b","system_id":"levelo_inurba_marseille","lat":43.27175,"lon":5.40999,"is_reserved":false,"is_disabled":false,"rental_uris":{"android":"levelo://app?vid=66b5a43e-2798-4c72-8acc-33d23152963b","ios":"levelo://app?vid=66b5a43e-2798-4c72-8acc-33d23152963b"},"vehicle_type_id":"4","last_reported":1739884594,"current_range_meters":22400,"station_id":"ce4bhl12rcd13ifvqgf0","pricing_plan_id":"cebpf4jnsgd1na2vs0mg"},