{"last_updated":1777464565,"ttl":60,"version":"2.2","data":{"bikes":[{"bike_id":"94b1d427-102e-4c64-aa76-0c93e226150f","system_id":"levelo_inurba_marseille","lat":43.28473,"lon":5.48406,"is_reserved":false,"is_disabled":false,"rental_uris":{"android":"levelo://app?vid=94b1d427-102e-4c64-aa76-0c93e226150f","ios":"levelo://app?vid=94b1d427-102e-4c64-aa76-0c93e226150f"},"vehicle_type_id":"4","last_reported":1777464566,"current_range_meters":2800,"station_id":"st_d3svhcjqgbts73a3dn0g","pricing_plan_id":"cebpf4jnsgd1na2vs0mg"},{"bike_id":"a5f2cc40-1cb3-4914-b397-285811a13313","system_id":"levelo_inurba_marseille","lat":43.29877,"lon":5.38908,"is_reserved":false,"is_disabled":false,"rental_uris":{"android":"levelo://app?vid=a5f2cc40-1cb3-4914-b397-285811a13313","ios":"levelo://app?vid=a5f2cc40-1cb3-4914-b397-285811a13313"},"vehicle_type_id":"4","last_reported":1777464566,"current_range_meters":2800,"station_id":"ce4bh392rcd13ifvqdl0","pricing_plan_id":"cebpf4jnsgd1na2vs0mg"},{"bike_id":"d2276d1c-4dd8-4805-b674-72347073e05f","system_id":"levelo_inurba_marseille","lat":43.28859,"lon":5.42507,"is_reserved":false,"is_disabled":false,"rental_uris":{"android":"levelo://app?vid=d2276d1c-4dd8-4805-b674-72347073e05f","ios":"levelo://app?vid=d2276d1c-4dd8-4805-b674-72347073e05f"},"vehicle_type_id":"4","last_reported":1777464566,"current_range_meters":2800,"station_id":"st_d3b462108ojc7389ooeg","pricing_plan_id":"cebpf4jnsgd1na2vs0mg"},{"bike_id":"b0fc715f-4a35-4272-9e2a-b10f7b105dc9","system_id":"levelo_inurba_marseille","lat":43.29349,"lon":5.44568,"is_reserved":false,"is_disabled":false,"rental_uris":{"android":"levelo://app?vid=b0fc715f-4a35-4272-9e2a-b10f7b105dc9","ios":"levelo://app?vid=b0fc715f-4a35-4272-9e2a-b10f7b105dc9"},"vehicle_type_id":"4","last_reported":1777464566,"current_range_meters":2800,"station_id":"","pricing_plan_id":"cebpf4jnsgd1na2vs0mg"},{"bike_id":"92b0e79d-5118-4cdc-a154-ad1d52d847b8","system_id":"levelo_inurba_marseille","lat":43.29608,"lon":5.36065,"is_reserved":false,"is_disabled":false,"rental_uris":{"android":"levelo://app?vid=92b0e79d-5118-4cdc-a154-ad1d52d847b8","ios":"levelo://app?vid=92b0e79d-5118-4cdc-a154-ad1d52d847b8"},"vehicle_type_id":"4","last_reported":1777464566,"current_range_meters":2800,"station_id":"","pricing_plan_id":"cebpf4jnsgd1na2vs0mg"},{"bike_id":"37384243-3290-472d-b920-4916a0700485","system_id":"levelo_inurba_marseille","lat":43.31325,"lon":5.39708,"is_reserved":false,"is_disabled":false,"rental_uris":{"android":"levelo://app?vid=37384243-3290-472d-b920-4916a0700485","ios":"levelo://app?vid=37384243-3290-472d-b920-4916a0700485"},"vehicle_type_id":"4","last_reported":1777464566,"current_range_meters":2800,"station_id":"ce4bgvp2rcd13ifvqcu0","pricing_plan_id":"cebpf4jnsgd1na2vs0mg"},{"bike_id":"9d4bc743-0311-437b-8b5f-efb984ce9e80","system_id":"levelo_inurba_marseille","lat":43.24392,"lon":5.370664,"is_reserved":false,"is_disabled":false,"rental_uris":{"android":"levelo://app?vid=9d4bc743-0311-437b-8b5f-efb984ce9e80","ios":"levelo://app?vid=9d4bc743-0311-437b-8b5f-efb984ce9e80"},"vehicle_type_id":"4","last_reported":1777464566,"current_range_meters":2800,"station_id":"ce4bhhh2rcd13ifvqfk0","pricing_plan_id":"cebpf4jnsgd1na2vs0mg"},{"bike_id":"c710c3f6-57e3-4062-8a93-aea52d20cf63","system_id":"levelo_inurba_marseille","lat":43.26551,"lon":5.37269,"is_reserved":false,"is_disabled":false,"rental_uris":{"android":"levelo://app?vid=c710c3f6-57e3-4062-8a93-aea52d20cf63","ios":"levelo://app?vid=c710c3f6-57e3-4062-8a93-aea52d20cf63"},"vehicle_type_id":"4","last_reported":1777464566,"current_range_meters":2800,"station_id":"ce4bhg12rcd13ifvqf70","pricing_plan_id":"cebpf4jnsgd1na2vs0mg"},{"bike_id":"7f495d9d-a1cc-43cc-947d-6854319a90d7","system_id":"levelo_inurba_marseille","lat":43.28184,"lon":5.39039,"is_reserved":false,"is_disabled":false,"rental_uris":{"android":"levelo://app?vid=7f495d9d-a1cc-43cc-947d-6854319a90d7","ios":"levelo://app?vid=7f495d9d-a1cc-43cc-947d-6854319a90d7"},"vehicle_type_id":"4","last_reported":1777464566,"current_range_meters":2800,"station_id":"","pricing_plan_id":"cebpf4jnsgd1na2vs0mg"},{"bike_id":"fcd3ea2b-f6f8-4dc5-bd02-e52a697c2846","system_id":"levelo_inurba_marseille","lat":43.32489,"lon":5.36564,"is_reserved":false,"is_disabled":false,"rental_uris":{"android":"levelo://app?vid=fcd3ea2b-f6f8-4dc5-bd02-e52a697c2846","ios":"levelo://app?vid=fcd3ea2b-f6f8-4dc5-bd02-e52a697c2846"},"vehicle_type_id":"4","last_reported":1777464566,"current_range_meters":3200,"station_id":"ce4bhs12rcd13ifvqhvg","pricing_plan_id":"cebpf4jnsgd1na2vs0mg"},{"bike_id":"c65bdda4-3be9-4b4c-9a15-e30e0a3b2234","system_id":"levelo_inurba_marseille","lat":43.29922,"lon":5.36545,"is_reserved":false,"is_disabled":false,"rental_uris":{"android":"levelo://app?vid=c65bdda4-3be9-4b4c-9a15-e30e0a3b2234","ios":"levelo://app?vid=c65bdda4-3be9-4b4c-9a15-e30e0a3b2234"},"vehicle_type_id":"4","last_reported":1777464566,"current_range_meters":3200,"station_id":"ce4bgm92rcd13ifvqbr0","pricing_plan_id":"cebpf4jnsgd1na2vs0mg"},{"bike_id":"f23051dc-53a7-4c13-883e-9c3927be7ee4","system_id":"levelo_inurba_marseille","lat":43.29675,"lon":5.40612,"is_reserved":false,"is_disabled":false,"rental_uris":{"android":"levelo://app?vid=f23051dc-53a7-4c13-883e-9c3927be7ee4","ios":"levelo://app?vid=f23051dc-53a7-4c13-883e-9c3927be7ee4"},"vehicle_type_id":"4","last_reported":1777464566,"current_range_meters":3200,"station_id":"ce4bh0h2rcd13ifvqd60","pricing_plan_id":"cebpf4jnsgd1na2vs0mg"},{"bike_id":"d355eeb0-a271-42f8-818f-d12be09a569b","system_id":"levelo_inurba_marseille","lat":43.28416,"lon":5.3498,"is_reserved":false,"is_disabled":false,"rental_uris":{"android":"levelo://app?vid=d355eeb0-a271-42f8-818f-d12be09a569b","ios":"levelo://app?vid=d355eeb0-a271-42f8-818f-d12be09a569b"},"vehicle_type_id":"4","last_reported":1777464566,"current_range_meters":3200,"station_id":"ce4bhbh2rcd13ifvqepg","pricing_plan_id":"cebpf4jnsgd1na2vs0mg"},{"bike_id":"987eda33-b3ad-4fac-a63c-0e3ff496e921","system_id":"levelo_inurba_marseille","lat":43.32229,"lon":5.36603,"is_reserved":false,"is_disabled":false,"rental_uris":{"android":"levelo://app?vid=987eda33-b3ad-4fac-a63c-0e3ff496e921","ios":"levelo://app?vid=987eda33-b3ad-4fac-a63c-0e3ff496e921"},"vehicle_type_id":"4","last_reported":1777464566,"current_range_meters":3200,"station_id":"","pricing_plan_id":"cebpf4jnsgd1na2vs0mg"},{"bike_id":"e51b7674-f7fc-42c9-b3a3-72b4639096a7","system_id":"levelo_inurba_marseille","lat":43.28727,"lon":5.3608,"is_reserved":false,"is_disabled":false,"rental_uris":{"android":"levelo://app?vid=e51b7674-f7fc-42c9-b3a3-72b4639096a7","ios":"levelo://app?vid=e51b7674-f7fc-42c9-b3a3-72b4639096a7"},"vehicle_type_id":"4","last_reported":1777464566,"current_range_meters":3200,"station_id":"cki0cbj6b192h4jlfktg","pricing_plan_id":"cebpf4jnsgd1na2vs0mg"},{"bike_id":"eec401be-82ad-4f63-b0db-33abd6b577d0","system_id":"levelo_inurba_marseille","lat":43.30117,"lon":5.43115,"is_reserved":false,"is_disabled":false,"rental_uris":{"android":"levelo://app?vid=eec401be-82ad-4f63-b0db-33abd6b577d0","ios":"levelo://app?vid=eec401be-82ad-4f63-b0db-33abd6b577d0"},"vehicle_type_id":"4","last_reported":1777464566,"current_range_meters":3200,"station_id":"st_d3js3co5814s73ftftug","pricing_plan_id":"cebpf4jnsgd1na2vs0mg"},{"bike_id":"c579cfd9-ef93-486c-baf6-63b0ced58f4e","system_id":"levelo_inurba_marseille","lat":43.24658,"lon":5.38156,"is_reserved":false,"is_disabled":false,"rental_uris":{"android":"levelo://app?vid=c579cfd9-ef93-486c-baf6-63b0ced58f4e","ios":"levelo://app?vid=c579cfd9-ef93-486c-baf6-63b0ced58f4e"},"vehicle_type_id":"4","last_reported":1777464566,"current_range_meters":3200,"station_id":"ce4bhih2rcd13ifvqfr0","pricing_plan_id":"cebpf4jnsgd1na2vs0mg"},{"bike_id":"637f5849-606e-44a9-b737-d55d345e26d8","system_id":"levelo_inurba_marseille","lat":43.30955,"lon":5.39035,"is_reserved":false,"is_disabled":false,"rental_uris":{"android":"levelo://app?vid=637f5849-606e-44a9-b737-d55d345e26d8","ios":"levelo://app?vid=637f5849-606e-44a9-b737-d55d345e26d8"},"vehicle_type_id":"4","last_reported":1777464566,"current_range_meters":3200,"station_id":"ce4bgup2rcd13ifvqco0","pricing_plan_id":"cebpf4jnsgd1na2vs0mg"},{"bike_id":"8b4e6bd3-1e82-4277-a45a-3a8abaa4e3ab","system_id":"levelo_inurba_marseille","lat":43.2848,"lon":5.48389,"is_reserved":false,"is_disabled":false,"rental_uris":{"android":"levelo://app?vid=8b4e6bd3-1e82-4277-a45a-3a8abaa4e3ab","ios":"levelo://app?vid=8b4e6bd3-1e82-4277-a45a-3a8abaa4e3ab"},"vehicle_type_id":"4","last_reported":1777464566,"current_range_meters":3200,"station_id":"","pricing_plan_id":"cebpf4jnsgd1na2vs0mg"},{"bike_id":"d77f8950-aef5-4d3d-993c-964bf6e5c2a4","system_id":"levelo_inurba_marseille","lat":43.30258,"lon":5.36878,"is_reserved":false,"is_disabled":false,"rental_uris":{"android":"levelo://app?vid=d77f8950-aef5-4d3d-993c-964bf6e5c2a4","ios":"levelo://app?vid=d77f8950-aef5-4d3d-993c-964bf6e5c2a4"},"vehicle_type_id":"4","last_reported":1777464566,"current_range_meters":3200,"station_id":"","pricing_plan_id":"cebpf4jnsgd1na2vs0mg"},{"bike_id":"16a53010-83c7-4a96-98d0-e849d8610fed","system_id":"levelo_inurba_marseille","lat":43.28694,"lon":5.46678,"is_reserved":false,"is_disabled":false,"rental_uris":{"android":"levelo://app?vid=16a53010-83c7-4a96-98d0-e849d8610fed","ios":"levelo://app?vid=16a53010-83c7-4a96-98d0-e849d8610fed"},"vehicle_type_id":"4","last_reported":1777464566,"current_range_meters":3600,"station_id":"st_d6tc3vkotcvc738tfjhg","pricing_plan_id":"cebpf4jnsgd1na2vs0mg"},{"bike_id":"4e54f39f-ccd7-441d-ba8f-e59a3a87e4e9","system_id":"levelo_inurba_marseille","lat":43.29525,"lon":5.38532,"is_reserved":false,"is_disabled":false,"rental_uris":{"android":"levelo://app?vid=4e54f39f-ccd7-441d-ba8f-e59a3a87e4e9","ios":"levelo://app?vid=4e54f39f-ccd7-441d-ba8f-e59a3a87e4e9"},"vehicle_type_id":"4","last_reported":1777464566,"current_range_meters":3600,"station_id":"ce4bgih2rcd13ifvqba0","pricing_plan_id":"cebpf4jnsgd1na2vs0mg"},{"bike_id":"21941b7c-a693-4e71-9dfb-9bac3e59fd4a","system_id":"levelo_inurba_marseille","lat":43.29924,"lon":5.36542,"is_reserved":false,"is_disabled":false,"rental_uris":{"android":"levelo://app?vid=21941b7c-a693-4e71-9dfb-9bac3e59fd4a","ios":"levelo://app?vid=21941b7c-a693-4e71-9dfb-9bac3e59fd4a"},"vehicle_type_id":"4","last_reported":1777464566,"current_range_meters":3600,"station_id":"ce4bgm92rcd13ifvqbr0","pricing_plan_id":"cebpf4jnsgd1na2vs0mg"},{"bike_id":"4541a58b-5803-4873-8531-8182c7674429","system_id":"levelo_inurba_marseille","lat":43.28488,"lon":5.48405,"is_reserved":false,"is_disabled":false,"rental_uris":{"android":"levelo://app?vid=4541a58b-5803-4873-8531-8182c7674429","ios":"levelo://app?vid=4541a58b-5803-4873-8531-8182c7674429"},"vehicle_type_id":"4","last_reported":1777464566,"current_range_meters":3600,"station_id":"st_d3svhcjqgbts73a3dn0g","pricing_plan_id":"cebpf4jnsgd1na2vs0mg"},{"bike_id":"13aa91e2-9ef0-4cf7-99a1-2108c94241e6","system_id":"levelo_inurba_marseille","lat":43.27369,"lon":5.36255,"is_reserved":false,"is_disabled":false,"rental_uris":{"android":"levelo://app?vid=13aa91e2-9ef0-4cf7-99a1-2108c94241e6","ios":"levelo://app?vid=13aa91e2-9ef0-4cf7-99a1-2108c94241e6"},"vehicle_type_id":"4","last_reported":1777464566,"current_range_meters":3600,"station_id":"ce4bhbh2rcd13ifvqeo0","pricing_plan_id":"cebpf4jnsgd1na2vs0mg"},{"bike_id":"a08e9086-88a7-4e74-80f3-8bfe3a759d35","system_id":"levelo_inurba_marseille","lat":43.312081,"lon":5.368424,"is_reserved":false,"is_disabled":false,"rental_uris":{"android":"levelo://app?vid=a08e9086-88a7-4e74-80f3-8bfe3a759d35","ios":"levelo://app?vid=a08e9086-88a7-4e74-80f3-8bfe3a759d35"},"vehicle_type_id":"4","last_reported":1777464566,"current_range_meters":3600,"station_id":"ce4bgl92rcd13ifvqbq0","pricing_plan_id":"cebpf4jnsgd1na2vs0mg"},{"bike_id":"f13c1412-9987-4b53-aa5c-79a6ecb2ba2d","system_id":"levelo_inurba_marseille","lat":43.32367,"lon":5.36752,"is_reserved":false,"is_disabled":false,"rental_uris":{"android":"levelo://app?vid=f13c1412-9987-4b53-aa5c-79a6ecb2ba2d","ios":"levelo://app?vid=f13c1412-9987-4b53-aa5c-79a6ecb2ba2d"},"vehicle_type_id":"4","last_reported":1777464566,"current_range_meters":3600,"station_id":"ce4bhsh2rcd13ifvqi2g","pricing_plan_id":"cebpf4jnsgd1na2vs0mg"},{"bike_id":"22f2f0da-fa80-44ff-a254-68e1f8b363bc","system_id":"levelo_inurba_marseille","lat":43.3081,"lon":5.38155,"is_reserved":false,"is_disabled":false,"rental_uris":{"android":"levelo://app?vid=22f2f0da-fa80-44ff-a254-68e1f8b363bc","ios":"levelo://app?vid=22f2f0da-fa80-44ff-a254-68e1f8b363bc"},"vehicle_type_id":"4","last_reported":1777464566,"current_range_meters":3600,"station_id":"ce4bgt12rcd13ifvqce0","pricing_plan_id":"cebpf4jnsgd1na2vs0mg"},{"bike_id":"9a82fb48-8e67-4766-95f4-056956d93400","system_id":"levelo_inurba_marseille","lat":43.25874,"lon":5.39895,"is_reserved":false,"is_disabled":false,"rental_uris":{"android":"levelo://app?vid=9a82fb48-8e67-4766-95f4-056956d93400","ios":"levelo://app?vid=9a82fb48-8e67-4766-95f4-056956d93400"},"vehicle_type_id":"4","last_reported":1777464566,"current_range_meters":3600,"station_id":"ce4bhl92rcd13ifvqghg","pricing_plan_id":"cebpf4jnsgd1na2vs0mg"},{"bike_id":"a3f0b2d8-2867-473c-a83b-f805c7eb3297","system_id":"levelo_inurba_marseille","lat":43.2679,"lon":5.39408,"is_reserved":false,"is_disabled":false,"rental_uris":{"android":"levelo://app?vid=a3f0b2d8-2867-473c-a83b-f805c7eb3297","ios":"levelo://app?vid=a3f0b2d8-2867-473c-a83b-f805c7eb3297"},"vehicle_type_id":"4","last_reported":1777464566,"current_range_meters":3600,"station_id":"ce4bhh12rcd13ifvqfg0","pricing_plan_id":"cebpf4jnsgd1na2vs0mg"},{"bike_id":"accb7c06-9708-4a71-afd0-c05fa43372fc","system_id":"levelo_inurba_marseille","lat":43.30949,"lon":5.39041,"is_reserved":false,"is_disabled":false,"rental_uris":{"android":"levelo://app?vid=accb7c06-9708-4a71-afd0-c05fa43372fc","ios":"levelo://app?vid=accb7c06-9708-4a71-afd0-c05fa43372fc"},"vehicle_type_id":"4","last_reported":1777464566,"current_range_meters":4000,"station_id":"ce4bgup2rcd13ifvqco0","pricing_plan_id":"cebpf4jnsgd1na2vs0mg"},{"bike_id":"686ce8d9-d7a9-403f-b48f-6d247d1d22fa","system_id":"levelo_inurba_marseille","lat":43.30127,"lon":5.38803,"is_reserved":false,"is_disabled":false,"rental_uris":{"android":"levelo://app?vid=686ce8d9-d7a9-403f-b48f-6d247d1d22fa","ios":"levelo://app?vid=686ce8d9-d7a9-403f-b48f-6d247d1d22fa"},"vehicle_type_id":"4","last_reported":1777464566,"current_range_meters":4000,"station_id":"ce4bghh2rcd13ifvqb60","pricing_plan_id":"cebpf4jnsgd1na2vs0mg"},{"bike_id":"8e8aafb2-32d9-499b-87d8-b4d094209349","system_id":"levelo_inurba_marseille","lat":43.27373,"lon":5.36256,"is_reserved":false,"is_disabled":false,"rental_uris":{"android":"levelo://app?vid=8e8aafb2-32d9-499b-87d8-b4d094209349","ios":"levelo://app?vid=8e8aafb2-32d9-499b-87d8-b4d094209349"},"vehicle_type_id":"4","last_reported":1777464566,"current_range_meters":4000,"station_id":"ce4bhbh2rcd13ifvqeo0","pricing_plan_id":"cebpf4jnsgd1na2vs0mg"},{"bike_id":"cd5d8912-7f3b-4c1b-88d4-17b7e1a57828","system_id":"levelo_inurba_marseille","lat":43.32534,"lon":5.41419,"is_reserved":false,"is_disabled":false,"rental_uris":{"android":"levelo://app?vid=cd5d8912-7f3b-4c1b-88d4-17b7e1a57828","ios":"levelo://app?vid=cd5d8912-7f3b-4c1b-88d4-17b7e1a57828"},"vehicle_type_id":"4","last_reported":1777464566,"current_range_meters":4000,"station_id":"ce4bhq12rcd13ifvqhhg","pricing_plan_id":"cebpf4jnsgd1na2vs0mg"},{"bike_id":"82cecfa6-b097-4c3a-b89e-cd5956a02272","system_id":"levelo_inurba_marseille","lat":43.30962,"lon":5.3904,"is_reserved":false,"is_disabled":false,"rental_uris":{"android":"levelo://app?vid=82cecfa6-b097-4c3a-b89e-cd5956a02272","ios":"levelo://app?vid=82cecfa6-b097-4c3a-b89e-cd5956a02272"},"vehicle_type_id":"4","last_reported":1777464566,"current_range_meters":4000,"station_id":"ce4bgup2rcd13ifvqco0","pricing_plan_id":"cebpf4jnsgd1na2vs0mg"},{"bike_id":"76907408-a8ff-4688-9cbf-66e48bb415e8","system_id":"levelo_inurba_marseille","lat":43.28694,"lon":5.46682,"is_reserved":false,"is_disabled":false,"rental_uris":{"android":"levelo://app?vid=76907408-a8ff-4688-9cbf-66e48bb415e8","ios":"levelo://app?vid=76907408-a8ff-4688-9cbf-66e48bb415e8"},"vehicle_type_id":"4","last_reported":1777464566,"current_range_meters":4000,"station_id":"st_d6tc3vkotcvc738tfjhg","pricing_plan_id":"cebpf4jnsgd1na2vs0mg"},{"bike_id":"e116e98a-e7c1-4e2d-9ae3-1a759c33b548","system_id":"levelo_inurba_marseille","lat":43.337444,"lon":5.374475,"is_reserved":false,"is_disabled":false,"rental_uris":{"android":"levelo://app?vid=e116e98a-e7c1-4e2d-9ae3-1a759c33b548","ios":"levelo://app?vid=e116e98a-e7c1-4e2d-9ae3-1a759c33b548"},"vehicle_type_id":"4","last_reported":1777464566,"current_range_meters":4400,"station_id":"ce4bgop2rcd13ifvqc1g","pricing_plan_id":"cebpf4jnsgd1na2vs0mg"},{"bike_id":"64fb9786-126f-4816-84be-9d9e22894187","system_id":"levelo_inurba_marseille","lat":43.28934,"lon":5.36379,"is_reserved":false,"is_disabled":false,"rental_uris":{"android":"levelo://app?vid=64fb9786-126f-4816-84be-9d9e22894187","ios":"levelo://app?vid=64fb9786-126f-4816-84be-9d9e22894187"},"vehicle_type_id":"4","last_reported":1777464566,"current_range_meters":4400,"station_id":"ce4bhc92rcd13ifvqetg","pricing_plan_id":"cebpf4jnsgd1na2vs0mg"},{"bike_id":"0a6c0553-dcbc-4308-9d50-ca7972036af9","system_id":"levelo_inurba_marseille","lat":43.2847,"lon":5.38426,"is_reserved":false,"is_disabled":false,"rental_uris":{"android":"levelo://app?vid=0a6c0553-dcbc-4308-9d50-ca7972036af9","ios":"levelo://app?vid=0a6c0553-dcbc-4308-9d50-ca7972036af9"},"vehicle_type_id":"4","last_reported":1777464566,"current_range_meters":4400,"station_id":"ce4bh512rcd13ifvqe3g","pricing_plan_id":"cebpf4jnsgd1na2vs0mg"},{"bike_id":"c6754837-ce63-45b7-96d9-4ba6fcda7f1b","system_id":"levelo_inurba_marseille","lat":43.3045,"lon":5.37905,"is_reserved":false,"is_disabled":false,"rental_uris":{"android":"levelo://app?vid=c6754837-ce63-45b7-96d9-4ba6fcda7f1b","ios":"levelo://app?vid=c6754837-ce63-45b7-96d9-4ba6fcda7f1b"},"vehicle_type_id":"4","last_reported":1777464566,"current_range_meters":4400,"station_id":"ce4bgup2rcd13ifvqcn0","pricing_plan_id":"cebpf4jnsgd1na2vs0mg"},{"bike_id":"27cbbdc8-76be-4943-abdc-2247bea40f15","system_id":"levelo_inurba_marseille","lat":43.28421,"lon":5.34987,"is_reserved":false,"is_disabled":false,"rental_uris":{"android":"levelo://app?vid=27cbbdc8-76be-4943-abdc-2247bea40f15","ios":"levelo://app?vid=27cbbdc8-76be-4943-abdc-2247bea40f15"},"vehicle_type_id":"4","last_reported":1777464566,"current_range_meters":4400,"station_id":"ce4bhbh2rcd13ifvqepg","pricing_plan_id":"cebpf4jnsgd1na2vs0mg"},{"bike_id":"e2605e88-9f7b-49cc-8a63-119a038d9512","system_id":"levelo_inurba_marseille","lat":43.25618,"lon":5.38559,"is_reserved":false,"is_disabled":false,"rental_uris":{"android":"levelo://app?vid=e2605e88-9f7b-49cc-8a63-119a038d9512","ios":"levelo://app?vid=e2605e88-9f7b-49cc-8a63-119a038d9512"},"vehicle_type_id":"4","last_reported":1777464566,"current_range_meters":4400,"station_id":"","pricing_plan_id":"cebpf4jnsgd1na2vs0mg"},{"bike_id":"e03a9553-f014-4591-84d1-bb481db182e5","system_id":"levelo_inurba_marseille","lat":43.2866,"lon":5.46664,"is_reserved":false,"is_disabled":false,"rental_uris":{"android":"levelo://app?vid=e03a9553-f014-4591-84d1-bb481db182e5","ios":"levelo://app?vid=e03a9553-f014-4591-84d1-bb481db182e5"},"vehicle_type_id":"4","last_reported":1777464566,"current_range_meters":4400,"station_id":"st_d6tc3vkotcvc738tfjhg","pricing_plan_id":"cebpf4jnsgd1na2vs0mg"},{"bike_id":"755f53de-88e7-42f0-a8e3-d9e1ba36f69a","system_id":"levelo_inurba_marseille","lat":43.24386,"lon":5.37071,"is_reserved":false,"is_disabled":false,"rental_uris":{"android":"levelo://app?vid=755f53de-88e7-42f0-a8e3-d9e1ba36f69a","ios":"levelo://app?vid=755f53de-88e7-42f0-a8e3-d9e1ba36f69a"},"vehicle_type_id":"4","last_reported":1777464566,"current_range_meters":4400,"station_id":"ce4bhhh2rcd13ifvqfk0","pricing_plan_id":"cebpf4jnsgd1na2vs0mg"},{"bike_id":"ff281201-7dc0-4335-b3cf-89659c26e47f","system_id":"levelo_inurba_marseille","lat":43.28968,"lon":5.36393,"is_reserved":false,"is_disabled":false,"rental_uris":{"android":"levelo://app?vid=ff281201-7dc0-4335-b3cf-89659c26e47f","ios":"levelo://app?vid=ff281201-7dc0-4335-b3cf-89659c26e47f"},"vehicle_type_id":"4","last_reported":1777464566,"current_range_meters":4400,"station_id":"ce4bhc92rcd13ifvqetg","pricing_plan_id":"cebpf4jnsgd1na2vs0mg"},{"bike_id":"b1a6189c-d582-421b-b931-ba75d057ac4f","system_id":"levelo_inurba_marseille","lat":43.29172,"lon":5.37149,"is_reserved":false,"is_disabled":false,"rental_uris":{"android":"levelo://app?vid=b1a6189c-d582-421b-b931-ba75d057ac4f","ios":"levelo://app?vid=b1a6189c-d582-421b-b931-ba75d057ac4f"},"vehicle_type_id":"4","last_reported":1777464566,"current_range_meters":4400,"station_id":"ce4bha92rcd13ifvqeh0","pricing_plan_id":"cebpf4jnsgd1na2vs0mg"},{"bike_id":"b94ff63d-7543-4e33-96a4-515421c88125","system_id":"levelo_inurba_marseille","lat":43.30956,"lon":5.39029,"is_reserved":false,"is_disabled":false,"rental_uris":{"android":"levelo://app?vid=b94ff63d-7543-4e33-96a4-515421c88125","ios":"levelo://app?vid=b94ff63d-7543-4e33-96a4-515421c88125"},"vehicle_type_id":"4","last_reported":1777464566,"current_range_meters":4400,"station_id":"ce4bgup2rcd13ifvqco0","pricing_plan_id":"cebpf4jnsgd1na2vs0mg"},{"bike_id":"45afc6f0-1727-46d2-9ccc-fe50c689f3cf","system_id":"levelo_inurba_marseille","lat":43.2738,"lon":5.36256,"is_reserved":false,"is_disabled":false,"rental_uris":{"android":"levelo://app?vid=45afc6f0-1727-46d2-9ccc-fe50c689f3cf","ios":"levelo://app?vid=45afc6f0-1727-46d2-9ccc-fe50c689f3cf"},"vehicle_type_id":"4","last_reported":1777464566,"current_range_meters":4800,"station_id":"ce4bhbh2rcd13ifvqeo0","pricing_plan_id":"cebpf4jnsgd1na2vs0mg"},{"bike_id":"5367fafd-42a5-4c52-bd35-5d85953af91c","system_id":"levelo_inurba_marseille","lat":43.3145,"lon":5.37379,"is_reserved":false,"is_disabled":true,"rental_uris":{"android":"levelo://app?vid=5367fafd-42a5-4c52-bd35-5d85953af91c","ios":"levelo://app?vid=5367fafd-42a5-4c52-bd35-5d85953af91c"},"vehicle_type_id":"4","last_reported":1777464566,"current_range_meters":4800,"station_id":"","pricing_plan_id":"cebpf4jnsgd1na2vs0mg"},{"bike_id":"ca7e766e-0c22-4bb4-9391-ff9b9db52725","system_id":"levelo_inurba_marseille","lat":43.28221,"lon":5.40568,"is_reserved":false,"is_disabled":false,"rental_uris":{"android":"levelo://app?vid=ca7e766e-0c22-4bb4-9391-ff9b9db52725","ios":"levelo://app?vid=ca7e766e-0c22-4bb4-9391-ff9b9db52725"},"vehicle_type_id":"4","last_reported":1777464566,"current_range_meters":4800,"station_id":"","pricing_plan_id":"cebpf4jnsgd1na2vs0mg"},{"bike_id":"145c254e-4088-4fef-87dc-d9bee17d760f","system_id":"levelo_inurba_marseille","lat":43.32116,"lon":5.36767,"is_reserved":false,"is_disabled":false,"rental_uris":{"android":"levelo://app?vid=145c254e-4088-4fef-87dc-d9bee17d760f","ios":"levelo://app?vid=145c254e-4088-4fef-87dc-d9bee17d760f"},"vehicle_type_id":"4","last_reported":1777464566,"current_range_meters":4800,"station_id":"ce4bhrh2rcd13ifvqhug","pricing_plan_id":"cebpf4jnsgd1na2vs0mg"},{"bike_id":"6ab308eb-f064-477b-96b8-1438a852ffab","system_id":"levelo_inurba_marseille","lat":43.28333,"lon":5.38106,"is_reserved":false,"is_disabled":false,"rental_uris":{"android":"levelo://app?vid=6ab308eb-f064-477b-96b8-1438a852ffab","ios":"levelo://app?vid=6ab308eb-f064-477b-96b8-1438a852ffab"},"vehicle_type_id":"4","last_reported":1777464566,"current_range_meters":4800,"station_id":"ce4bh412rcd13ifvqdr0","pricing_plan_id":"cebpf4jnsgd1na2vs0mg"},{"bike_id":"8ddf78e6-7053-4f51-a052-cbf410efa6bf","system_id":"levelo_inurba_marseille","lat":43.31245,"lon":5.36866,"is_reserved":false,"is_disabled":false,"rental_uris":{"android":"levelo://app?vid=8ddf78e6-7053-4f51-a052-cbf410efa6bf","ios":"levelo://app?vid=8ddf78e6-7053-4f51-a052-cbf410efa6bf"},"vehicle_type_id":"4","last_reported":1777464566,"current_range_meters":4800,"station_id":"ce4bgl92rcd13ifvqbq0","pricing_plan_id":"cebpf4jnsgd1na2vs0mg"},{"bike_id":"38c5e4f7-f888-4fdf-8e04-47c831530989","system_id":"levelo_inurba_marseille","lat":43.24553,"lon":5.39523,"is_reserved":false,"is_disabled":false,"rental_uris":{"android":"levelo://app?vid=38c5e4f7-f888-4fdf-8e04-47c831530989","ios":"levelo://app?vid=38c5e4f7-f888-4fdf-8e04-47c831530989"},"vehicle_type_id":"4","last_reported":1777464566,"current_range_meters":4800,"station_id":"ce4bhlp2rcd13ifvqgjg","pricing_plan_id":"cebpf4jnsgd1na2vs0mg"},{"bike_id":"fadbd9a5-2a49-4734-8db0-528994d97e40","system_id":"levelo_inurba_marseille","lat":43.29272,"lon":5.38362,"is_reserved":false,"is_disabled":false,"rental_uris":{"android":"levelo://app?vid=fadbd9a5-2a49-4734-8db0-528994d97e40","ios":"levelo://app?vid=fadbd9a5-2a49-4734-8db0-528994d97e40"},"vehicle_type_id":"4","last_reported":1777464566,"current_range_meters":4800,"station_id":"","pricing_plan_id":"cebpf4jnsgd1na2vs0mg"},{"bike_id":"f67355d8-cdb7-48dd-8a04-2f5e68eb08fd","system_id":"levelo_inurba_marseille","lat":43.28869,"lon":5.35842,"is_reserved":false,"is_disabled":false,"rental_uris":{"android":"levelo://app?vid=f67355d8-cdb7-48dd-8a04-2f5e68eb08fd","ios":"levelo://app?vid=f67355d8-cdb7-48dd-8a04-2f5e68eb08fd"},"vehicle_type_id":"4","last_reported":1777464566,"current_range_meters":4800,"station_id":"ce4bhb12rcd13ifvqem0","pricing_plan_id":"cebpf4jnsgd1na2vs0mg"},{"bike_id":"a29bb7b7-5af5-4cea-bd28-e4803818a032","system_id":"levelo_inurba_marseille","lat":43.27615,"lon":5.36101,"is_reserved":false,"is_disabled":false,"rental_uris":{"android":"levelo://app?vid=a29bb7b7-5af5-4cea-bd28-e4803818a032","ios":"levelo://app?vid=a29bb7b7-5af5-4cea-bd28-e4803818a032"},"vehicle_type_id":"4","last_reported":1777464566,"current_range_meters":4800,"station_id":"ce4bgj92rcd13ifvqbe0","pricing_plan_id":"cebpf4jnsgd1na2vs0mg"},{"bike_id":"960b39df-e4e6-474a-b84e-81c2cf1549e3","system_id":"levelo_inurba_marseille","lat":43.26061,"lon":5.39396,"is_reserved":false,"is_disabled":false,"rental_uris":{"android":"levelo://app?vid=960b39df-e4e6-474a-b84e-81c2cf1549e3","ios":"levelo://app?vid=960b39df-e4e6-474a-b84e-81c2cf1549e3"},"vehicle_type_id":"4","last_reported":1777464566,"current_range_meters":4800,"station_id":"ce4bhh92rcd13ifvqfj0","pricing_plan_id":"cebpf4jnsgd1na2vs0mg"},{"bike_id":"b9c0ca4a-61af-4a0b-994f-7b554a71a91c","system_id":"levelo_inurba_marseille","lat":43.32349,"lon":5.36703,"is_reserved":false,"is_disabled":false,"rental_uris":{"android":"levelo://app?vid=b9c0ca4a-61af-4a0b-994f-7b554a71a91c","ios":"levelo://app?vid=b9c0ca4a-61af-4a0b-994f-7b554a71a91c"},"vehicle_type_id":"4","last_reported":1777464566,"current_range_meters":5600,"station_id":"","pricing_plan_id":"cebpf4jnsgd1na2vs0mg"},{"bike_id":"21fa33d0-28a0-4e0a-9999-8d9d767ac49c","system_id":"levelo_inurba_marseille","lat":43.2706,"lon":5.38656,"is_reserved":false,"is_disabled":false,"rental_uris":{"android":"levelo://app?vid=21fa33d0-28a0-4e0a-9999-8d9d767ac49c","ios":"levelo://app?vid=21fa33d0-28a0-4e0a-9999-8d9d767ac49c"},"vehicle_type_id":"4","last_reported":1777464566,"current_range_meters":5600,"station_id":"","pricing_plan_id":"cebpf4jnsgd1na2vs0mg"},{"bike_id":"5cf5cac4-304b-4407-a8e5-357d3ab6bc0b","system_id":"levelo_inurba_marseille","lat":43.23898,"lon":5.37473,"is_reserved":false,"is_disabled":false,"rental_uris":{"android":"levelo://app?vid=5cf5cac4-304b-4407-a8e5-357d3ab6bc0b","ios":"levelo://app?vid=5cf5cac4-304b-4407-a8e5-357d3ab6bc0b"},"vehicle_type_id":"4","last_reported":1777464566,"current_range_meters":5600,"station_id":"st_d6sm7csbq4hs73f8fpjg","pricing_plan_id":"cebpf4jnsgd1na2vs0mg"},{"bike_id":"ccc64b12-fba8-4953-9e4c-789c15629674","system_id":"levelo_inurba_marseille","lat":43.23214,"lon":5.35046,"is_reserved":false,"is_disabled":false,"rental_uris":{"android":"levelo://app?vid=ccc64b12-fba8-4953-9e4c-789c15629674","ios":"levelo://app?vid=ccc64b12-fba8-4953-9e4c-789c15629674"},"vehicle_type_id":"4","last_reported":1777464566,"current_range_meters":5600,"station_id":"","pricing_plan_id":"cebpf4jnsgd1na2vs0mg"},{"bike_id":"f44de9e4-d139-455e-b15f-f35c140c4aff","system_id":"levelo_inurba_marseille","lat":43.30313,"lon":5.36893,"is_reserved":false,"is_disabled":false,"rental_uris":{"android":"levelo://app?vid=f44de9e4-d139-455e-b15f-f35c140c4aff","ios":"levelo://app?vid=f44de9e4-d139-455e-b15f-f35c140c4aff"},"vehicle_type_id":"4","last_reported":1777464566,"current_range_meters":5600,"station_id":"ce4bgqh2rcd13ifvqc5g","pricing_plan_id":"cebpf4jnsgd1na2vs0mg"},{"bike_id":"88877071-5639-4c38-a981-d59c49478905","system_id":"levelo_inurba_marseille","lat":43.3152,"lon":5.38049,"is_reserved":false,"is_disabled":false,"rental_uris":{"android":"levelo://app?vid=88877071-5639-4c38-a981-d59c49478905","ios":"levelo://app?vid=88877071-5639-4c38-a981-d59c49478905"},"vehicle_type_id":"4","last_reported":1777464566,"current_range_meters":5600,"station_id":"ce4bhsp2rcd13ifvqi50","pricing_plan_id":"cebpf4jnsgd1na2vs0mg"},{"bike_id":"006ac7cb-3897-4bb5-af18-37c45ecbf388","system_id":"levelo_inurba_marseille","lat":43.30143,"lon":5.38081,"is_reserved":false,"is_disabled":false,"rental_uris":{"android":"levelo://app?vid=006ac7cb-3897-4bb5-af18-37c45ecbf388","ios":"levelo://app?vid=006ac7cb-3897-4bb5-af18-37c45ecbf388"},"vehicle_type_id":"4","last_reported":1777464566,"current_range_meters":6000,"station_id":"ce4bgjp2rcd13ifvqbh0","pricing_plan_id":"cebpf4jnsgd1na2vs0mg"},{"bike_id":"7e4f8d59-b8db-4367-9652-49b446d5894e","system_id":"levelo_inurba_marseille","lat":43.25573,"lon":5.38222,"is_reserved":false,"is_disabled":false,"rental_uris":{"android":"levelo://app?vid=7e4f8d59-b8db-4367-9652-49b446d5894e","ios":"levelo://app?vid=7e4f8d59-b8db-4367-9652-49b446d5894e"},"vehicle_type_id":"4","last_reported":1777464566,"current_range_meters":6000,"station_id":"ce4bhih2rcd13ifvqfs0","pricing_plan_id":"cebpf4jnsgd1na2vs0mg"},{"bike_id":"ea26fbb8-1fe9-45fd-86a8-020ce9ce5f0e","system_id":"levelo_inurba_marseille","lat":43.27109,"lon":5.39124,"is_reserved":false,"is_disabled":false,"rental_uris":{"android":"levelo://app?vid=ea26fbb8-1fe9-45fd-86a8-020ce9ce5f0e","ios":"levelo://app?vid=ea26fbb8-1fe9-45fd-86a8-020ce9ce5f0e"},"vehicle_type_id":"4","last_reported":1777464566,"current_range_meters":6000,"station_id":"","pricing_plan_id":"cebpf4jnsgd1na2vs0mg"},{"bike_id":"e32bfe67-6005-473a-9e86-23f0ccf984d2","system_id":"levelo_inurba_marseille","lat":43.298524,"lon":5.362797,"is_reserved":false,"is_disabled":false,"rental_uris":{"android":"levelo://app?vid=e32bfe67-6005-473a-9e86-23f0ccf984d2","ios":"levelo://app?vid=e32bfe67-6005-473a-9e86-23f0ccf984d2"},"vehicle_type_id":"4","last_reported":1777464566,"current_range_meters":6000,"station_id":"ce4bgpp2rcd13ifvqc3g","pricing_plan_id":"cebpf4jnsgd1na2vs0mg"},{"bike_id":"6fc82280-8d03-4a10-afe7-724fadc97746","system_id":"levelo_inurba_marseille","lat":43.2849,"lon":5.3842,"is_reserved":false,"is_disabled":false,"rental_uris":{"android":"levelo://app?vid=6fc82280-8d03-4a10-afe7-724fadc97746","ios":"levelo://app?vid=6fc82280-8d03-4a10-afe7-724fadc97746"},"vehicle_type_id":"4","last_reported":1777464566,"current_range_meters":6000,"station_id":"ce4bh512rcd13ifvqe3g","pricing_plan_id":"cebpf4jnsgd1na2vs0mg"},{"bike_id":"a2cc500e-37cc-4e5a-8fbb-501b08b74776","system_id":"levelo_inurba_marseille","lat":43.25113,"lon":5.40328,"is_reserved":false,"is_disabled":false,"rental_uris":{"android":"levelo://app?vid=a2cc500e-37cc-4e5a-8fbb-501b08b74776","ios":"levelo://app?vid=a2cc500e-37cc-4e5a-8fbb-501b08b74776"},"vehicle_type_id":"4","last_reported":1777464566,"current_range_meters":6000,"station_id":"ce4bhlh2rcd13ifvqgig","pricing_plan_id":"cebpf4jnsgd1na2vs0mg"},{"bike_id":"ef3a68ef-5b94-411a-921f-f7cda00ffdfc","system_id":"levelo_inurba_marseille","lat":43.29439,"lon":5.39016,"is_reserved":false,"is_disabled":false,"rental_uris":{"android":"levelo://app?vid=ef3a68ef-5b94-411a-921f-f7cda00ffdfc","ios":"levelo://app?vid=ef3a68ef-5b94-411a-921f-f7cda00ffdfc"},"vehicle_type_id":"4","last_reported":1777464566,"current_range_meters":6000,"station_id":"","pricing_plan_id":"cebpf4jnsgd1na2vs0mg"},{"bike_id":"de127ff3-4dbd-40a5-926e-7a6862dbaee1","system_id":"levelo_inurba_marseille","lat":43.24467,"lon":5.42527,"is_reserved":false,"is_disabled":false,"rental_uris":{"android":"levelo://app?vid=de127ff3-4dbd-40a5-926e-7a6862dbaee1","ios":"levelo://app?vid=de127ff3-4dbd-40a5-926e-7a6862dbaee1"},"vehicle_type_id":"4","last_reported":1777464566,"current_range_meters":6400,"station_id":"st_d4a3vfp97mjs738cd8kg","pricing_plan_id":"cebpf4jnsgd1na2vs0mg"},{"bike_id":"de66add0-8c64-427a-bc65-2a87cd199838","system_id":"levelo_inurba_marseille","lat":43.26547,"lon":5.37291,"is_reserved":false,"is_disabled":false,"rental_uris":{"android":"levelo://app?vid=de66add0-8c64-427a-bc65-2a87cd199838","ios":"levelo://app?vid=de66add0-8c64-427a-bc65-2a87cd199838"},"vehicle_type_id":"4","last_reported":1777464566,"current_range_meters":6400,"station_id":"ce4bhg12rcd13ifvqf70","pricing_plan_id":"cebpf4jnsgd1na2vs0mg"},{"bike_id":"469bbb0a-6457-4290-a976-55742311e2fe","system_id":"levelo_inurba_marseille","lat":43.2592,"lon":5.40899,"is_reserved":false,"is_disabled":false,"rental_uris":{"android":"levelo://app?vid=469bbb0a-6457-4290-a976-55742311e2fe","ios":"levelo://app?vid=469bbb0a-6457-4290-a976-55742311e2fe"},"vehicle_type_id":"4","last_reported":1777464566,"current_range_meters":6400,"station_id":"ce4bhm92rcd13ifvqglg","pricing_plan_id":"cebpf4jnsgd1na2vs0mg"},{"bike_id":"f11e3633-986d-40f4-8b5f-6b5e41220dfc","system_id":"levelo_inurba_marseille","lat":43.31904,"lon":5.36802,"is_reserved":false,"is_disabled":false,"rental_uris":{"android":"levelo://app?vid=f11e3633-986d-40f4-8b5f-6b5e41220dfc","ios":"levelo://app?vid=f11e3633-986d-40f4-8b5f-6b5e41220dfc"},"vehicle_type_id":"4","last_reported":1777464566,"current_range_meters":6400,"station_id":"st_d6o2h0d0559c73evc1b0","pricing_plan_id":"cebpf4jnsgd1na2vs0mg"},{"bike_id":"ea36c9e8-58b8-4f79-a3ce-b396281d3b24","system_id":"levelo_inurba_marseille","lat":43.305074,"lon":5.380769,"is_reserved":false,"is_disabled":false,"rental_uris":{"android":"levelo://app?vid=ea36c9e8-58b8-4f79-a3ce-b396281d3b24","ios":"levelo://app?vid=ea36c9e8-58b8-4f79-a3ce-b396281d3b24"},"vehicle_type_id":"4","last_reported":1777464566,"current_range_meters":6400,"station_id":"","pricing_plan_id":"cebpf4jnsgd1na2vs0mg"},{"bike_id":"d4d191c1-1e42-44ce-acaa-f4fdd3a7ce8e","system_id":"levelo_inurba_marseille","lat":43.2851,"lon":5.38505,"is_reserved":false,"is_disabled":false,"rental_uris":{"android":"levelo://app?vid=d4d191c1-1e42-44ce-acaa-f4fdd3a7ce8e","ios":"levelo://app?vid=d4d191c1-1e42-44ce-acaa-f4fdd3a7ce8e"},"vehicle_type_id":"4","last_reported":1777464566,"current_range_meters":6800,"station_id":"","pricing_plan_id":"cebpf4jnsgd1na2vs0mg"},{"bike_id":"cf3590b8-1926-4616-ba76-3c09ef9b207d","system_id":"levelo_inurba_marseille","lat":43.30895,"lon":5.37181,"is_reserved":false,"is_disabled":false,"rental_uris":{"android":"levelo://app?vid=cf3590b8-1926-4616-ba76-3c09ef9b207d","ios":"levelo://app?vid=cf3590b8-1926-4616-ba76-3c09ef9b207d"},"vehicle_type_id":"4","last_reported":1777464566,"current_range_meters":6800,"station_id":"ce4bguh2rcd13ifvqckg","pricing_plan_id":"cebpf4jnsgd1na2vs0mg"},{"bike_id":"0af16a77-6623-4d37-a527-4f5e382437dc","system_id":"levelo_inurba_marseille","lat":43.21754,"lon":5.34593,"is_reserved":false,"is_disabled":false,"rental_uris":{"android":"levelo://app?vid=0af16a77-6623-4d37-a527-4f5e382437dc","ios":"levelo://app?vid=0af16a77-6623-4d37-a527-4f5e382437dc"},"vehicle_type_id":"4","last_reported":1777464566,"current_range_meters":6800,"station_id":"st_cvj6r9ubvosntc0bgbag","pricing_plan_id":"cebpf4jnsgd1na2vs0mg"},{"bike_id":"0fcf8d90-345e-45fb-9038-6d3bfbc1ea0c","system_id":"levelo_inurba_marseille","lat":43.30303,"lon":5.36891,"is_reserved":false,"is_disabled":false,"rental_uris":{"android":"levelo://app?vid=0fcf8d90-345e-45fb-9038-6d3bfbc1ea0c","ios":"levelo://app?vid=0fcf8d90-345e-45fb-9038-6d3bfbc1ea0c"},"vehicle_type_id":"4","last_reported":1777464566,"current_range_meters":6800,"station_id":"ce4bgqh2rcd13ifvqc5g","pricing_plan_id":"cebpf4jnsgd1na2vs0mg"},{"bike_id":"c5d87c94-f8c8-47f4-ae84-ea0b6e6ae165","system_id":"levelo_inurba_marseille","lat":43.26274,"lon":5.3889,"is_reserved":false,"is_disabled":false,"rental_uris":{"android":"levelo://app?vid=c5d87c94-f8c8-47f4-ae84-ea0b6e6ae165","ios":"levelo://app?vid=c5d87c94-f8c8-47f4-ae84-ea0b6e6ae165"},"vehicle_type_id":"4","last_reported":1777464566,"current_range_meters":6800,"station_id":"","pricing_plan_id":"cebpf4jnsgd1na2vs0mg"},{"bike_id":"ee5bca21-2a39-4c24-aced-c94d2451e251","system_id":"levelo_inurba_marseille","lat":43.28007,"lon":5.41609,"is_reserved":false,"is_disabled":false,"rental_uris":{"android":"levelo://app?vid=ee5bca21-2a39-4c24-aced-c94d2451e251","ios":"levelo://app?vid=ee5bca21-2a39-4c24-aced-c94d2451e251"},"vehicle_type_id":"4","last_reported":1777464566,"current_range_meters":6800,"station_id":"ce4bho12rcd13ifvqh1g","pricing_plan_id":"cebpf4jnsgd1na2vs0mg"},{"bike_id":"007bdae8-b143-425f-a1a7-c03b3544c030","system_id":"levelo_inurba_marseille","lat":43.31356,"lon":5.36695,"is_reserved":false,"is_disabled":false,"rental_uris":{"android":"levelo://app?vid=007bdae8-b143-425f-a1a7-c03b3544c030","ios":"levelo://app?vid=007bdae8-b143-425f-a1a7-c03b3544c030"},"vehicle_type_id":"4","last_reported":1777464566,"current_range_meters":6800,"station_id":"ce4bgr92rcd13ifvqc6g","pricing_plan_id":"cebpf4jnsgd1na2vs0mg"},{"bike_id":"c46d8a22-772b-40f4-a01d-512476bc1bbf","system_id":"levelo_inurba_marseille","lat":43.24958,"lon":5.40494,"is_reserved":false,"is_disabled":false,"rental_uris":{"android":"levelo://app?vid=c46d8a22-772b-40f4-a01d-512476bc1bbf","ios":"levelo://app?vid=c46d8a22-772b-40f4-a01d-512476bc1bbf"},"vehicle_type_id":"4","last_reported":1777464566,"current_range_meters":6800,"station_id":"st_d2ngiaodas8pm72gd1h0","pricing_plan_id":"cebpf4jnsgd1na2vs0mg"},{"bike_id":"eb5e53f4-a003-4387-9fb9-a6673523de67","system_id":"levelo_inurba_marseille","lat":43.25517,"lon":5.37664,"is_reserved":false,"is_disabled":true,"rental_uris":{"android":"levelo://app?vid=eb5e53f4-a003-4387-9fb9-a6673523de67","ios":"levelo://app?vid=eb5e53f4-a003-4387-9fb9-a6673523de67"},"vehicle_type_id":"4","last_reported":1777464566,"current_range_meters":6800,"station_id":"ce4bhh12rcd13ifvqff0","pricing_plan_id":"cebpf4jnsgd1na2vs0mg"},{"bike_id":"0256971e-927a-4136-bafd-665aafac7fc7","system_id":"levelo_inurba_marseille","lat":43.21742,"lon":5.34597,"is_reserved":false,"is_disabled":false,"rental_uris":{"android":"levelo://app?vid=0256971e-927a-4136-bafd-665aafac7fc7","ios":"levelo://app?vid=0256971e-927a-4136-bafd-665aafac7fc7"},"vehicle_type_id":"4","last_reported":1777464566,"current_range_meters":6800,"station_id":"st_cvj6r9ubvosntc0bgbag","pricing_plan_id":"cebpf4jnsgd1na2vs0mg"},{"bike_id":"60b1fd95-f943-4865-ae17-880cd93262df","system_id":"levelo_inurba_marseille","lat":43.29078,"lon":5.38155,"is_reserved":false,"is_disabled":false,"rental_uris":{"android":"levelo://app?vid=60b1fd95-f943-4865-ae17-880cd93262df","ios":"levelo://app?vid=60b1fd95-f943-4865-ae17-880cd93262df"},"vehicle_type_id":"4","last_reported":1777464566,"current_range_meters":6800,"station_id":"ce4bh512rcd13ifvqe2g","pricing_plan_id":"cebpf4jnsgd1na2vs0mg"},{"bike_id":"b29a16db-8bd0-4541-a731-051b044146be","system_id":"levelo_inurba_marseille","lat":43.24963,"lon":5.40494,"is_reserved":false,"is_disabled":false,"rental_uris":{"android":"levelo://app?vid=b29a16db-8bd0-4541-a731-051b044146be","ios":"levelo://app?vid=b29a16db-8bd0-4541-a731-051b044146be"},"vehicle_type_id":"4","last_reported":1777464566,"current_range_meters":6800,"station_id":"st_d2ngiaodas8pm72gd1h0","pricing_plan_id":"cebpf4jnsgd1na2vs0mg"},{"bike_id":"7bee8458-eb4c-46aa-a3db-04ce497a8da1","system_id":"levelo_inurba_marseille","lat":43.28418,"lon":5.3752,"is_reserved":false,"is_disabled":false,"rental_uris":{"android":"levelo://app?vid=7bee8458-eb4c-46aa-a3db-04ce497a8da1","ios":"levelo://app?vid=7bee8458-eb4c-46aa-a3db-04ce497a8da1"},"vehicle_type_id":"4","last_reported":1777464566,"current_range_meters":6800,"station_id":"ce4bh412rcd13ifvqds0","pricing_plan_id":"cebpf4jnsgd1na2vs0mg"},{"bike_id":"b66107f1-5b4d-42dc-bbc3-91a9d230f2cf","system_id":"levelo_inurba_marseille","lat":43.24183,"lon":5.3972,"is_reserved":false,"is_disabled":false,"rental_uris":{"android":"levelo://app?vid=b66107f1-5b4d-42dc-bbc3-91a9d230f2cf","ios":"levelo://app?vid=b66107f1-5b4d-42dc-bbc3-91a9d230f2cf"},"vehicle_type_id":"4","last_reported":1777464566,"current_range_meters":6800,"station_id":"ce4bhn12rcd13ifvqgpg","pricing_plan_id":"cebpf4jnsgd1na2vs0mg"},{"bike_id":"d626a255-08f0-42d3-82ff-a9d9060e5214","system_id":"levelo_inurba_marseille","lat":43.23155,"lon":5.43698,"is_reserved":false,"is_disabled":false,"rental_uris":{"android":"levelo://app?vid=d626a255-08f0-42d3-82ff-a9d9060e5214","ios":"levelo://app?vid=d626a255-08f0-42d3-82ff-a9d9060e5214"},"vehicle_type_id":"4","last_reported":1777464566,"current_range_meters":6800,"station_id":"ce4bhmp2rcd13ifvqgog","pricing_plan_id":"cebpf4jnsgd1na2vs0mg"},{"bike_id":"4c4fd5bf-edd1-4e64-bbba-8e4e3d30b47b","system_id":"levelo_inurba_marseille","lat":43.29173,"lon":5.42624,"is_reserved":false,"is_disabled":false,"rental_uris":{"android":"levelo://app?vid=4c4fd5bf-edd1-4e64-bbba-8e4e3d30b47b","ios":"levelo://app?vid=4c4fd5bf-edd1-4e64-bbba-8e4e3d30b47b"},"vehicle_type_id":"4","last_reported":1777464566,"current_range_meters":6800,"station_id":"","pricing_plan_id":"cebpf4jnsgd1na2vs0mg"},{"bike_id":"2aac5e51-6561-466f-8ce3-b3b2b88fe4ad","system_id":"levelo_inurba_marseille","lat":43.30542,"lon":5.36683,"is_reserved":false,"is_disabled":false,"rental_uris":{"android":"levelo://app?vid=2aac5e51-6561-466f-8ce3-b3b2b88fe4ad","ios":"levelo://app?vid=2aac5e51-6561-466f-8ce3-b3b2b88fe4ad"},"vehicle_type_id":"4","last_reported":1777464566,"current_range_meters":7200,"station_id":"ce4bgrp2rcd13ifvqc9g","pricing_plan_id":"cebpf4jnsgd1na2vs0mg"},{"bike_id":"b2f9a2ff-a5cc-494f-8472-b1312bdc6b79","system_id":"levelo_inurba_marseille","lat":43.28731,"lon":5.36079,"is_reserved":false,"is_disabled":false,"rental_uris":{"android":"levelo://app?vid=b2f9a2ff-a5cc-494f-8472-b1312bdc6b79","ios":"levelo://app?vid=b2f9a2ff-a5cc-494f-8472-b1312bdc6b79"},"vehicle_type_id":"4","last_reported":1777464566,"current_range_meters":7200,"station_id":"cki0cbj6b192h4jlfktg","pricing_plan_id":"cebpf4jnsgd1na2vs0mg"},{"bike_id":"4dbe00ec-feb8-4193-848e-b5324775416c","system_id":"levelo_inurba_marseille","lat":43.28409,"lon":5.34984,"is_reserved":false,"is_disabled":false,"rental_uris":{"android":"levelo://app?vid=4dbe00ec-feb8-4193-848e-b5324775416c","ios":"levelo://app?vid=4dbe00ec-feb8-4193-848e-b5324775416c"},"vehicle_type_id":"4","last_reported":1777464566,"current_range_meters":7200,"station_id":"ce4bhbh2rcd13ifvqepg","pricing_plan_id":"cebpf4jnsgd1na2vs0mg"},{"bike_id":"f9697429-2c5c-4c70-bed4-ce1564342445","system_id":"levelo_inurba_marseille","lat":43.27804,"lon":5.40711,"is_reserved":false,"is_disabled":false,"rental_uris":{"android":"levelo://app?vid=f9697429-2c5c-4c70-bed4-ce1564342445","ios":"levelo://app?vid=f9697429-2c5c-4c70-bed4-ce1564342445"},"vehicle_type_id":"4","last_reported":1777464566,"current_range_meters":7200,"station_id":"ce4bhnh2rcd13ifvqgtg","pricing_plan_id":"cebpf4jnsgd1na2vs0mg"},{"bike_id":"f9401361-5ebd-4500-a12c-1824b2eb7b6f","system_id":"levelo_inurba_marseille","lat":43.28706,"lon":5.39959,"is_reserved":false,"is_disabled":false,"rental_uris":{"android":"levelo://app?vid=f9401361-5ebd-4500-a12c-1824b2eb7b6f","ios":"levelo://app?vid=f9401361-5ebd-4500-a12c-1824b2eb7b6f"},"vehicle_type_id":"4","last_reported":1777464566,"current_range_meters":7200,"station_id":"ce4bho92rcd13ifvqh3g","pricing_plan_id":"cebpf4jnsgd1na2vs0mg"},{"bike_id":"417af28d-6b89-48f0-aca0-cec7348986d3","system_id":"levelo_inurba_marseille","lat":43.29841,"lon":5.36268,"is_reserved":false,"is_disabled":false,"rental_uris":{"android":"levelo://app?vid=417af28d-6b89-48f0-aca0-cec7348986d3","ios":"levelo://app?vid=417af28d-6b89-48f0-aca0-cec7348986d3"},"vehicle_type_id":"4","last_reported":1777464566,"current_range_meters":7200,"station_id":"ce4bgpp2rcd13ifvqc3g","pricing_plan_id":"cebpf4jnsgd1na2vs0mg"},{"bike_id":"f4acd856-0f6a-4b89-ab6f-6c8f700f9b79","system_id":"levelo_inurba_marseille","lat":43.279462,"lon":5.410472,"is_reserved":false,"is_disabled":false,"rental_uris":{"android":"levelo://app?vid=f4acd856-0f6a-4b89-ab6f-6c8f700f9b79","ios":"levelo://app?vid=f4acd856-0f6a-4b89-ab6f-6c8f700f9b79"},"vehicle_type_id":"4","last_reported":1777464566,"current_range_meters":7200,"station_id":"ce4bhnp2rcd13ifvqh0g","pricing_plan_id":"cebpf4jnsgd1na2vs0mg"},{"bike_id":"520b0305-48d7-4734-97bb-d7eb73e5dc09","system_id":"levelo_inurba_marseille","lat":43.26564,"lon":5.37304,"is_reserved":false,"is_disabled":true,"rental_uris":{"android":"levelo://app?vid=520b0305-48d7-4734-97bb-d7eb73e5dc09","ios":"levelo://app?vid=520b0305-48d7-4734-97bb-d7eb73e5dc09"},"vehicle_type_id":"4","last_reported":1777464566,"current_range_meters":7200,"station_id":"ce4bhg12rcd13ifvqf70","pricing_plan_id":"cebpf4jnsgd1na2vs0mg"},{"bike_id":"e1d26622-7491-4fdf-a6f0-77cbc7cac2ef","system_id":"levelo_inurba_marseille","lat":43.24165,"lon":5.36403,"is_reserved":false,"is_disabled":false,"rental_uris":{"android":"levelo://app?vid=e1d26622-7491-4fdf-a6f0-77cbc7cac2ef","ios":"levelo://app?vid=e1d26622-7491-4fdf-a6f0-77cbc7cac2ef"},"vehicle_type_id":"4","last_reported":1777464566,"current_range_meters":7200,"station_id":"cpo36qri1sfpv3e86is0","pricing_plan_id":"cebpf4jnsgd1na2vs0mg"},{"bike_id":"58bcbc47-e5a7-4c65-96aa-dacf724f1c47","system_id":"levelo_inurba_marseille","lat":43.26683,"lon":5.38272,"is_reserved":false,"is_disabled":false,"rental_uris":{"android":"levelo://app?vid=58bcbc47-e5a7-4c65-96aa-dacf724f1c47","ios":"levelo://app?vid=58bcbc47-e5a7-4c65-96aa-dacf724f1c47"},"vehicle_type_id":"4","last_reported":1777464566,"current_range_meters":7200,"station_id":"ce4bhg92rcd13ifvqf90","pricing_plan_id":"cebpf4jnsgd1na2vs0mg"},{"bike_id":"acb63e31-28e9-458b-bd3d-23462617804d","system_id":"levelo_inurba_marseille","lat":43.30291,"lon":5.36951,"is_reserved":false,"is_disabled":false,"rental_uris":{"android":"levelo://app?vid=acb63e31-28e9-458b-bd3d-23462617804d","ios":"levelo://app?vid=acb63e31-28e9-458b-bd3d-23462617804d"},"vehicle_type_id":"4","last_reported":1777464566,"current_range_meters":7200,"station_id":"ce4bgqh2rcd13ifvqc5g","pricing_plan_id":"cebpf4jnsgd1na2vs0mg"},{"bike_id":"ef5fa92f-8b4c-45c2-872e-9663fa79a642","system_id":"levelo_inurba_marseille","lat":43.27507,"lon":5.41582,"is_reserved":false,"is_disabled":false,"rental_uris":{"android":"levelo://app?vid=ef5fa92f-8b4c-45c2-872e-9663fa79a642","ios":"levelo://app?vid=ef5fa92f-8b4c-45c2-872e-9663fa79a642"},"vehicle_type_id":"4","last_reported":1777464566,"current_range_meters":7200,"station_id":"st_d6im8g6chgec73a5pndg","pricing_plan_id":"cebpf4jnsgd1na2vs0mg"},{"bike_id":"1bb8344f-1db0-45ef-ad3e-3af45d1f5a9f","system_id":"levelo_inurba_marseille","lat":43.25736,"lon":5.38719,"is_reserved":false,"is_disabled":false,"rental_uris":{"android":"levelo://app?vid=1bb8344f-1db0-45ef-ad3e-3af45d1f5a9f","ios":"levelo://app?vid=1bb8344f-1db0-45ef-ad3e-3af45d1f5a9f"},"vehicle_type_id":"4","last_reported":1777464566,"current_range_meters":7200,"station_id":"","pricing_plan_id":"cebpf4jnsgd1na2vs0mg"},{"bike_id":"15bddbb7-39db-4f70-8f44-b3f3fc366945","system_id":"levelo_inurba_marseille","lat":43.27194,"lon":5.40989,"is_reserved":false,"is_disabled":false,"rental_uris":{"android":"levelo://app?vid=15bddbb7-39db-4f70-8f44-b3f3fc366945","ios":"levelo://app?vid=15bddbb7-39db-4f70-8f44-b3f3fc366945"},"vehicle_type_id":"4","last_reported":1777464566,"current_range_meters":7200,"station_id":"ce4bhl12rcd13ifvqgf0","pricing_plan_id":"cebpf4jnsgd1na2vs0mg"},{"bike_id":"2a9f517f-dc7e-442a-8a6e-b3ad6200cb4e","system_id":"levelo_inurba_marseille","lat":43.33542,"lon":5.37464,"is_reserved":false,"is_disabled":false,"rental_uris":{"android":"levelo://app?vid=2a9f517f-dc7e-442a-8a6e-b3ad6200cb4e","ios":"levelo://app?vid=2a9f517f-dc7e-442a-8a6e-b3ad6200cb4e"},"vehicle_type_id":"4","last_reported":1777464566,"current_range_meters":7200,"station_id":"st_d46tts09ee8s73dlu43g","pricing_plan_id":"cebpf4jnsgd1na2vs0mg"},{"bike_id":"550b61bf-024e-4f9e-9492-2a8f7afeae1e","system_id":"levelo_inurba_marseille","lat":43.30851,"lon":5.40502,"is_reserved":false,"is_disabled":false,"rental_uris":{"android":"levelo://app?vid=550b61bf-024e-4f9e-9492-2a8f7afeae1e","ios":"levelo://app?vid=550b61bf-024e-4f9e-9492-2a8f7afeae1e"},"vehicle_type_id":"4","last_reported":1777464566,"current_range_meters":7200,"station_id":"","pricing_plan_id":"cebpf4jnsgd1na2vs0mg"},{"bike_id":"55bac593-352e-4642-8639-19fe2b8d6c00","system_id":"levelo_inurba_marseille","lat":43.27645,"lon":5.3583,"is_reserved":false,"is_disabled":false,"rental_uris":{"android":"levelo://app?vid=55bac593-352e-4642-8639-19fe2b8d6c00","ios":"levelo://app?vid=55bac593-352e-4642-8639-19fe2b8d6c00"},"vehicle_type_id":"4","last_reported":1777464566,"current_range_meters":7200,"station_id":"","pricing_plan_id":"cebpf4jnsgd1na2vs0mg"},{"bike_id":"3d592980-6cbc-4a54-b98b-10febd37641f","system_id":"levelo_inurba_marseille","lat":43.30436,"lon":5.39747,"is_reserved":false,"is_disabled":false,"rental_uris":{"android":"levelo://app?vid=3d592980-6cbc-4a54-b98b-10febd37641f","ios":"levelo://app?vid=3d592980-6cbc-4a54-b98b-10febd37641f"},"vehicle_type_id":"4","last_reported":1777464566,"current_range_meters":7200,"station_id":"ce4bh092rcd13ifvqd20","pricing_plan_id":"cebpf4jnsgd1na2vs0mg"},{"bike_id":"737d68a5-eec5-441b-8644-6998ab9b6ea1","system_id":"levelo_inurba_marseille","lat":43.28717,"lon":5.39973,"is_reserved":false,"is_disabled":true,"rental_uris":{"android":"levelo://app?vid=737d68a5-eec5-441b-8644-6998ab9b6ea1","ios":"levelo://app?vid=737d68a5-eec5-441b-8644-6998ab9b6ea1"},"vehicle_type_id":"4","last_reported":1777464566,"current_range_meters":7200,"station_id":"ce4bho92rcd13ifvqh3g","pricing_plan_id":"cebpf4jnsgd1na2vs0mg"},{"bike_id":"6fea8b3a-9065-41d8-b875-54476751f2b8","system_id":"levelo_inurba_marseille","lat":43.30971,"lon":5.3904,"is_reserved":false,"is_disabled":false,"rental_uris":{"android":"levelo://app?vid=6fea8b3a-9065-41d8-b875-54476751f2b8","ios":"levelo://app?vid=6fea8b3a-9065-41d8-b875-54476751f2b8"},"vehicle_type_id":"4","last_reported":1777464566,"current_range_meters":7200,"station_id":"ce4bgup2rcd13ifvqco0","pricing_plan_id":"cebpf4jnsgd1na2vs0mg"},{"bike_id":"be29becb-9bf0-4137-8c2f-9d967188483b","system_id":"levelo_inurba_marseille","lat":43.28343,"lon":5.381,"is_reserved":false,"is_disabled":false,"rental_uris":{"android":"levelo://app?vid=be29becb-9bf0-4137-8c2f-9d967188483b","ios":"levelo://app?vid=be29becb-9bf0-4137-8c2f-9d967188483b"},"vehicle_type_id":"4","last_reported":1777464566,"current_range_meters":7200,"station_id":"ce4bh412rcd13ifvqdr0","pricing_plan_id":"cebpf4jnsgd1na2vs0mg"},{"bike_id":"e86fde7f-f309-4c5c-9613-864f1a66fd8e","system_id":"levelo_inurba_marseille","lat":43.28871,"lon":5.42521,"is_reserved":false,"is_disabled":false,"rental_uris":{"android":"levelo://app?vid=e86fde7f-f309-4c5c-9613-864f1a66fd8e","ios":"levelo://app?vid=e86fde7f-f309-4c5c-9613-864f1a66fd8e"},"vehicle_type_id":"4","last_reported":1777464566,"current_range_meters":7200,"station_id":"st_d3b462108ojc7389ooeg","pricing_plan_id":"cebpf4jnsgd1na2vs0mg"},{"bike_id":"cbf5cca9-cc4c-4524-81e6-f041dad8a232","system_id":"levelo_inurba_marseille","lat":43.29097,"lon":5.38144,"is_reserved":false,"is_disabled":false,"rental_uris":{"android":"levelo://app?vid=cbf5cca9-cc4c-4524-81e6-f041dad8a232","ios":"levelo://app?vid=cbf5cca9-cc4c-4524-81e6-f041dad8a232"},"vehicle_type_id":"4","last_reported":1777464566,"current_range_meters":8000,"station_id":"ce4bh512rcd13ifvqe2g","pricing_plan_id":"cebpf4jnsgd1na2vs0mg"},{"bike_id":"883bc399-5d79-4374-8a95-15116dfe2a3d","system_id":"levelo_inurba_marseille","lat":43.23155,"lon":5.43699,"is_reserved":false,"is_disabled":false,"rental_uris":{"android":"levelo://app?vid=883bc399-5d79-4374-8a95-15116dfe2a3d","ios":"levelo://app?vid=883bc399-5d79-4374-8a95-15116dfe2a3d"},"vehicle_type_id":"4","last_reported":1777464566,"current_range_meters":8000,"station_id":"ce4bhmp2rcd13ifvqgog","pricing_plan_id":"cebpf4jnsgd1na2vs0mg"},{"bike_id":"09f483bc-90f7-4ed3-979e-52336857f4e9","system_id":"levelo_inurba_marseille","lat":43.2922,"lon":5.36054,"is_reserved":false,"is_disabled":false,"rental_uris":{"android":"levelo://app?vid=09f483bc-90f7-4ed3-979e-52336857f4e9","ios":"levelo://app?vid=09f483bc-90f7-4ed3-979e-52336857f4e9"},"vehicle_type_id":"4","last_reported":1777464566,"current_range_meters":8000,"station_id":"ce4bhbh2rcd13ifvqeqg","pricing_plan_id":"cebpf4jnsgd1na2vs0mg"},{"bike_id":"bbc2f778-ecf6-4419-b9a7-78a6f4492f95","system_id":"levelo_inurba_marseille","lat":43.292273,"lon":5.360653,"is_reserved":false,"is_disabled":false,"rental_uris":{"android":"levelo://app?vid=bbc2f778-ecf6-4419-b9a7-78a6f4492f95","ios":"levelo://app?vid=bbc2f778-ecf6-4419-b9a7-78a6f4492f95"},"vehicle_type_id":"4","last_reported":1777464566,"current_range_meters":8000,"station_id":"ce4bhbh2rcd13ifvqeqg","pricing_plan_id":"cebpf4jnsgd1na2vs0mg"},{"bike_id":"d2ff302a-3be9-42b6-9eb6-2d6a779ca762","system_id":"levelo_inurba_marseille","lat":43.31361,"lon":5.36705,"is_reserved":false,"is_disabled":false,"rental_uris":{"android":"levelo://app?vid=d2ff302a-3be9-42b6-9eb6-2d6a779ca762","ios":"levelo://app?vid=d2ff302a-3be9-42b6-9eb6-2d6a779ca762"},"vehicle_type_id":"4","last_reported":1777464566,"current_range_meters":8000,"station_id":"ce4bgr92rcd13ifvqc6g","pricing_plan_id":"cebpf4jnsgd1na2vs0mg"},{"bike_id":"dae418b5-1e2b-4264-ab51-e9fdc5e48982","system_id":"levelo_inurba_marseille","lat":43.24392,"lon":5.3706,"is_reserved":false,"is_disabled":false,"rental_uris":{"android":"levelo://app?vid=dae418b5-1e2b-4264-ab51-e9fdc5e48982","ios":"levelo://app?vid=dae418b5-1e2b-4264-ab51-e9fdc5e48982"},"vehicle_type_id":"4","last_reported":1777464566,"current_range_meters":8000,"station_id":"ce4bhhh2rcd13ifvqfk0","pricing_plan_id":"cebpf4jnsgd1na2vs0mg"},{"bike_id":"8c2ebc41-7bef-4c6d-91ac-124371586248","system_id":"levelo_inurba_marseille","lat":43.25587,"lon":5.38211,"is_reserved":false,"is_disabled":false,"rental_uris":{"android":"levelo://app?vid=8c2ebc41-7bef-4c6d-91ac-124371586248","ios":"levelo://app?vid=8c2ebc41-7bef-4c6d-91ac-124371586248"},"vehicle_type_id":"4","last_reported":1777464566,"current_range_meters":8000,"station_id":"ce4bhih2rcd13ifvqfs0","pricing_plan_id":"cebpf4jnsgd1na2vs0mg"},{"bike_id":"50614ad9-7c94-4316-828f-8aefa7f8890d","system_id":"levelo_inurba_marseille","lat":43.30554,"lon":5.36724,"is_reserved":false,"is_disabled":false,"rental_uris":{"android":"levelo://app?vid=50614ad9-7c94-4316-828f-8aefa7f8890d","ios":"levelo://app?vid=50614ad9-7c94-4316-828f-8aefa7f8890d"},"vehicle_type_id":"4","last_reported":1777464566,"current_range_meters":8000,"station_id":"ce4bgrp2rcd13ifvqc9g","pricing_plan_id":"cebpf4jnsgd1na2vs0mg"},{"bike_id":"b91f4f99-7987-40ea-afbb-1e1af65ec675","system_id":"levelo_inurba_marseille","lat":43.2944,"lon":5.40915,"is_reserved":false,"is_disabled":false,"rental_uris":{"android":"levelo://app?vid=b91f4f99-7987-40ea-afbb-1e1af65ec675","ios":"levelo://app?vid=b91f4f99-7987-40ea-afbb-1e1af65ec675"},"vehicle_type_id":"4","last_reported":1777464566,"current_range_meters":8000,"station_id":"","pricing_plan_id":"cebpf4jnsgd1na2vs0mg"},{"bike_id":"a3c3d910-843a-4469-b996-16fc4c009cf3","system_id":"levelo_inurba_marseille","lat":43.267853,"lon":5.394138,"is_reserved":false,"is_disabled":false,"rental_uris":{"android":"levelo://app?vid=a3c3d910-843a-4469-b996-16fc4c009cf3","ios":"levelo://app?vid=a3c3d910-843a-4469-b996-16fc4c009cf3"},"vehicle_type_id":"4","last_reported":1777464566,"current_range_meters":8000,"station_id":"ce4bhh12rcd13ifvqfg0","pricing_plan_id":"cebpf4jnsgd1na2vs0mg"},{"bike_id":"decce838-7070-4273-908c-7711e1a28aac","system_id":"levelo_inurba_marseille","lat":43.30522,"lon":5.36686,"is_reserved":false,"is_disabled":false,"rental_uris":{"android":"levelo://app?vid=decce838-7070-4273-908c-7711e1a28aac","ios":"levelo://app?vid=decce838-7070-4273-908c-7711e1a28aac"},"vehicle_type_id":"4","last_reported":1777464566,"current_range_meters":8000,"station_id":"ce4bgrp2rcd13ifvqc9g","pricing_plan_id":"cebpf4jnsgd1na2vs0mg"},{"bike_id":"fb48eb95-a721-45e3-a917-4c0e5102e02d","system_id":"levelo_inurba_marseille","lat":43.23217,"lon":5.35567,"is_reserved":false,"is_disabled":false,"rental_uris":{"android":"levelo://app?vid=fb48eb95-a721-45e3-a917-4c0e5102e02d","ios":"levelo://app?vid=fb48eb95-a721-45e3-a917-4c0e5102e02d"},"vehicle_type_id":"4","last_reported":1777464566,"current_range_meters":8000,"station_id":"ce4bhu92rcd13ifvqi70","pricing_plan_id":"cebpf4jnsgd1na2vs0mg"},{"bike_id":"28119ca7-2788-44de-96bd-34d0891073e7","system_id":"levelo_inurba_marseille","lat":43.31376,"lon":5.36657,"is_reserved":false,"is_disabled":false,"rental_uris":{"android":"levelo://app?vid=28119ca7-2788-44de-96bd-34d0891073e7","ios":"levelo://app?vid=28119ca7-2788-44de-96bd-34d0891073e7"},"vehicle_type_id":"4","last_reported":1777464566,"current_range_meters":8000,"station_id":"ce4bgr92rcd13ifvqc6g","pricing_plan_id":"cebpf4jnsgd1na2vs0mg"},{"bike_id":"b5592bc3-7c5d-4ba9-b1ae-b173928aef8c","system_id":"levelo_inurba_marseille","lat":43.28474,"lon":5.48392,"is_reserved":false,"is_disabled":false,"rental_uris":{"android":"levelo://app?vid=b5592bc3-7c5d-4ba9-b1ae-b173928aef8c","ios":"levelo://app?vid=b5592bc3-7c5d-4ba9-b1ae-b173928aef8c"},"vehicle_type_id":"4","last_reported":1777464566,"current_range_meters":8400,"station_id":"","pricing_plan_id":"cebpf4jnsgd1na2vs0mg"},{"bike_id":"b4a497ea-222e-419c-a826-4feb72e6ade8","system_id":"levelo_inurba_marseille","lat":43.28691,"lon":5.46685,"is_reserved":false,"is_disabled":false,"rental_uris":{"android":"levelo://app?vid=b4a497ea-222e-419c-a826-4feb72e6ade8","ios":"levelo://app?vid=b4a497ea-222e-419c-a826-4feb72e6ade8"},"vehicle_type_id":"4","last_reported":1777464566,"current_range_meters":8400,"station_id":"st_d6tc3vkotcvc738tfjhg","pricing_plan_id":"cebpf4jnsgd1na2vs0mg"},{"bike_id":"c62dd68e-1420-4f1f-9f98-ec3aebe502eb","system_id":"levelo_inurba_marseille","lat":43.3182,"lon":5.38486,"is_reserved":false,"is_disabled":false,"rental_uris":{"android":"levelo://app?vid=c62dd68e-1420-4f1f-9f98-ec3aebe502eb","ios":"levelo://app?vid=c62dd68e-1420-4f1f-9f98-ec3aebe502eb"},"vehicle_type_id":"4","last_reported":1777464566,"current_range_meters":8400,"station_id":"","pricing_plan_id":"cebpf4jnsgd1na2vs0mg"},{"bike_id":"028c092f-4138-4fdd-96b9-0cc64dcd2af8","system_id":"levelo_inurba_marseille","lat":43.260906,"lon":5.406541,"is_reserved":false,"is_disabled":false,"rental_uris":{"android":"levelo://app?vid=028c092f-4138-4fdd-96b9-0cc64dcd2af8","ios":"levelo://app?vid=028c092f-4138-4fdd-96b9-0cc64dcd2af8"},"vehicle_type_id":"4","last_reported":1777464566,"current_range_meters":8400,"station_id":"ce4bhm92rcd13ifvqglg","pricing_plan_id":"cebpf4jnsgd1na2vs0mg"},{"bike_id":"0f9fd773-714d-443b-964a-e7fb1113b017","system_id":"levelo_inurba_marseille","lat":43.28619,"lon":5.35104,"is_reserved":false,"is_disabled":false,"rental_uris":{"android":"levelo://app?vid=0f9fd773-714d-443b-964a-e7fb1113b017","ios":"levelo://app?vid=0f9fd773-714d-443b-964a-e7fb1113b017"},"vehicle_type_id":"4","last_reported":1777464566,"current_range_meters":8400,"station_id":"ce4bhch2rcd13ifvqeug","pricing_plan_id":"cebpf4jnsgd1na2vs0mg"},{"bike_id":"d3c2f94a-d6b7-4895-a969-bd05f186909d","system_id":"levelo_inurba_marseille","lat":43.23145,"lon":5.43735,"is_reserved":false,"is_disabled":false,"rental_uris":{"android":"levelo://app?vid=d3c2f94a-d6b7-4895-a969-bd05f186909d","ios":"levelo://app?vid=d3c2f94a-d6b7-4895-a969-bd05f186909d"},"vehicle_type_id":"4","last_reported":1777464566,"current_range_meters":8400,"station_id":"ce4bhmp2rcd13ifvqgog","pricing_plan_id":"cebpf4jnsgd1na2vs0mg"},{"bike_id":"3aa78bac-f7c2-4e06-89e3-99fb9d2affe7","system_id":"levelo_inurba_marseille","lat":43.29894,"lon":5.38133,"is_reserved":false,"is_disabled":false,"rental_uris":{"android":"levelo://app?vid=3aa78bac-f7c2-4e06-89e3-99fb9d2affe7","ios":"levelo://app?vid=3aa78bac-f7c2-4e06-89e3-99fb9d2affe7"},"vehicle_type_id":"4","last_reported":1777464566,"current_range_meters":8400,"station_id":"ce4bgj12rcd13ifvqbc0","pricing_plan_id":"cebpf4jnsgd1na2vs0mg"},{"bike_id":"547ae8c0-a8cc-461e-a4c8-b1a5482c8847","system_id":"levelo_inurba_marseille","lat":43.29571,"lon":5.39982,"is_reserved":false,"is_disabled":false,"rental_uris":{"android":"levelo://app?vid=547ae8c0-a8cc-461e-a4c8-b1a5482c8847","ios":"levelo://app?vid=547ae8c0-a8cc-461e-a4c8-b1a5482c8847"},"vehicle_type_id":"4","last_reported":1777464566,"current_range_meters":8400,"station_id":"ce4bh312rcd13ifvqdj0","pricing_plan_id":"cebpf4jnsgd1na2vs0mg"},{"bike_id":"a8725ac2-9ac9-4bb1-b76b-eda7dfc664e2","system_id":"levelo_inurba_marseille","lat":43.31212,"lon":5.36835,"is_reserved":false,"is_disabled":false,"rental_uris":{"android":"levelo://app?vid=a8725ac2-9ac9-4bb1-b76b-eda7dfc664e2","ios":"levelo://app?vid=a8725ac2-9ac9-4bb1-b76b-eda7dfc664e2"},"vehicle_type_id":"4","last_reported":1777464566,"current_range_meters":8400,"station_id":"ce4bgl92rcd13ifvqbq0","pricing_plan_id":"cebpf4jnsgd1na2vs0mg"},{"bike_id":"acc57406-75de-43a2-a6ec-d941193f0be0","system_id":"levelo_inurba_marseille","lat":43.32324,"lon":5.36766,"is_reserved":false,"is_disabled":false,"rental_uris":{"android":"levelo://app?vid=acc57406-75de-43a2-a6ec-d941193f0be0","ios":"levelo://app?vid=acc57406-75de-43a2-a6ec-d941193f0be0"},"vehicle_type_id":"4","last_reported":1777464566,"current_range_meters":8400,"station_id":"ce4bhsh2rcd13ifvqi2g","pricing_plan_id":"cebpf4jnsgd1na2vs0mg"},{"bike_id":"29750571-b858-4ceb-b6f8-2f4451e8576f","system_id":"levelo_inurba_marseille","lat":43.31112,"lon":5.37772,"is_reserved":false,"is_disabled":false,"rental_uris":{"android":"levelo://app?vid=29750571-b858-4ceb-b6f8-2f4451e8576f","ios":"levelo://app?vid=29750571-b858-4ceb-b6f8-2f4451e8576f"},"vehicle_type_id":"4","last_reported":1777464566,"current_range_meters":8400,"station_id":"ce4bgt92rcd13ifvqcg0","pricing_plan_id":"cebpf4jnsgd1na2vs0mg"},{"bike_id":"6eaae871-0a05-412a-9bc2-1e7ae31c884a","system_id":"levelo_inurba_marseille","lat":43.26198,"lon":5.37918,"is_reserved":false,"is_disabled":false,"rental_uris":{"android":"levelo://app?vid=6eaae871-0a05-412a-9bc2-1e7ae31c884a","ios":"levelo://app?vid=6eaae871-0a05-412a-9bc2-1e7ae31c884a"},"vehicle_type_id":"4","last_reported":1777464566,"current_range_meters":8400,"station_id":"ce4bhjp2rcd13ifvqg90","pricing_plan_id":"cebpf4jnsgd1na2vs0mg"},{"bike_id":"a496669f-42ea-4ec8-b909-b71bb128370f","system_id":"levelo_inurba_marseille","lat":43.33542,"lon":5.37469,"is_reserved":false,"is_disabled":false,"rental_uris":{"android":"levelo://app?vid=a496669f-42ea-4ec8-b909-b71bb128370f","ios":"levelo://app?vid=a496669f-42ea-4ec8-b909-b71bb128370f"},"vehicle_type_id":"4","last_reported":1777464566,"current_range_meters":8400,"station_id":"st_d46tts09ee8s73dlu43g","pricing_plan_id":"cebpf4jnsgd1na2vs0mg"},{"bike_id":"bafe7f5e-9ccc-4fc9-b495-711f5023462f","system_id":"levelo_inurba_marseille","lat":43.33578,"lon":5.41035,"is_reserved":false,"is_disabled":false,"rental_uris":{"android":"levelo://app?vid=bafe7f5e-9ccc-4fc9-b495-711f5023462f","ios":"levelo://app?vid=bafe7f5e-9ccc-4fc9-b495-711f5023462f"},"vehicle_type_id":"4","last_reported":1777464566,"current_range_meters":8400,"station_id":"ce4bhqh2rcd13ifvqhmg","pricing_plan_id":"cebpf4jnsgd1na2vs0mg"},{"bike_id":"86d7d48c-09cf-4b58-81dc-142fc8fd1391","system_id":"levelo_inurba_marseille","lat":43.27514,"lon":5.39373,"is_reserved":false,"is_disabled":false,"rental_uris":{"android":"levelo://app?vid=86d7d48c-09cf-4b58-81dc-142fc8fd1391","ios":"levelo://app?vid=86d7d48c-09cf-4b58-81dc-142fc8fd1391"},"vehicle_type_id":"4","last_reported":1777464566,"current_range_meters":8400,"station_id":"","pricing_plan_id":"cebpf4jnsgd1na2vs0mg"},{"bike_id":"a25d88f3-688c-43dd-b98a-7bab7d19a64a","system_id":"levelo_inurba_marseille","lat":43.295286,"lon":5.385403,"is_reserved":false,"is_disabled":false,"rental_uris":{"android":"levelo://app?vid=a25d88f3-688c-43dd-b98a-7bab7d19a64a","ios":"levelo://app?vid=a25d88f3-688c-43dd-b98a-7bab7d19a64a"},"vehicle_type_id":"4","last_reported":1777464566,"current_range_meters":8400,"station_id":"ce4bgih2rcd13ifvqba0","pricing_plan_id":"cebpf4jnsgd1na2vs0mg"},{"bike_id":"fa906423-10db-46f6-9ccb-cd18e7d03f78","system_id":"levelo_inurba_marseille","lat":43.29256,"lon":5.40906,"is_reserved":false,"is_disabled":false,"rental_uris":{"android":"levelo://app?vid=fa906423-10db-46f6-9ccb-cd18e7d03f78","ios":"levelo://app?vid=fa906423-10db-46f6-9ccb-cd18e7d03f78"},"vehicle_type_id":"4","last_reported":1777464566,"current_range_meters":8400,"station_id":"ce4bh192rcd13ifvqdc0","pricing_plan_id":"cebpf4jnsgd1na2vs0mg"},{"bike_id":"14015fc9-b839-4138-b4d5-9a2f5afbe521","system_id":"levelo_inurba_marseille","lat":43.29206,"lon":5.4266,"is_reserved":false,"is_disabled":false,"rental_uris":{"android":"levelo://app?vid=14015fc9-b839-4138-b4d5-9a2f5afbe521","ios":"levelo://app?vid=14015fc9-b839-4138-b4d5-9a2f5afbe521"},"vehicle_type_id":"4","last_reported":1777464566,"current_range_meters":8400,"station_id":"","pricing_plan_id":"cebpf4jnsgd1na2vs0mg"},{"bike_id":"196939d7-8120-4fa4-8a8f-be34c3561853","system_id":"levelo_inurba_marseille","lat":43.31887,"lon":5.368,"is_reserved":false,"is_disabled":false,"rental_uris":{"android":"levelo://app?vid=196939d7-8120-4fa4-8a8f-be34c3561853","ios":"levelo://app?vid=196939d7-8120-4fa4-8a8f-be34c3561853"},"vehicle_type_id":"4","last_reported":1777464566,"current_range_meters":8400,"station_id":"st_d6o2h0d0559c73evc1b0","pricing_plan_id":"cebpf4jnsgd1na2vs0mg"},{"bike_id":"4189a4e5-e32d-4ace-ba57-e9194861ce03","system_id":"levelo_inurba_marseille","lat":43.25586,"lon":5.38202,"is_reserved":false,"is_disabled":false,"rental_uris":{"android":"levelo://app?vid=4189a4e5-e32d-4ace-ba57-e9194861ce03","ios":"levelo://app?vid=4189a4e5-e32d-4ace-ba57-e9194861ce03"},"vehicle_type_id":"4","last_reported":1777464566,"current_range_meters":8400,"station_id":"ce4bhih2rcd13ifvqfs0","pricing_plan_id":"cebpf4jnsgd1na2vs0mg"},{"bike_id":"e6355fa9-1eb3-4f3e-acd6-83718451c66f","system_id":"levelo_inurba_marseille","lat":43.25585,"lon":5.38223,"is_reserved":false,"is_disabled":false,"rental_uris":{"android":"levelo://app?vid=e6355fa9-1eb3-4f3e-acd6-83718451c66f","ios":"levelo://app?vid=e6355fa9-1eb3-4f3e-acd6-83718451c66f"},"vehicle_type_id":"4","last_reported":1777464566,"current_range_meters":8400,"station_id":"ce4bhih2rcd13ifvqfs0","pricing_plan_id":"cebpf4jnsgd1na2vs0mg"},{"bike_id":"26335112-9b2a-4a27-9ec1-b93b9cc755ad","system_id":"levelo_inurba_marseille","lat":43.30851,"lon":5.41887,"is_reserved":false,"is_disabled":false,"rental_uris":{"android":"levelo://app?vid=26335112-9b2a-4a27-9ec1-b93b9cc755ad","ios":"levelo://app?vid=26335112-9b2a-4a27-9ec1-b93b9cc755ad"},"vehicle_type_id":"4","last_reported":1777464566,"current_range_meters":8400,"station_id":"","pricing_plan_id":"cebpf4jnsgd1na2vs0mg"},{"bike_id":"be71b94f-3052-409a-956e-fbb4cf86dc3a","system_id":"levelo_inurba_marseille","lat":43.28491,"lon":5.38396,"is_reserved":false,"is_disabled":false,"rental_uris":{"android":"levelo://app?vid=be71b94f-3052-409a-956e-fbb4cf86dc3a","ios":"levelo://app?vid=be71b94f-3052-409a-956e-fbb4cf86dc3a"},"vehicle_type_id":"4","last_reported":1777464566,"current_range_meters":8400,"station_id":"ce4bh512rcd13ifvqe3g","pricing_plan_id":"cebpf4jnsgd1na2vs0mg"},{"bike_id":"1acb6aec-78e6-49ab-a01d-dcf0952f8790","system_id":"levelo_inurba_marseille","lat":43.31211,"lon":5.36875,"is_reserved":false,"is_disabled":false,"rental_uris":{"android":"levelo://app?vid=1acb6aec-78e6-49ab-a01d-dcf0952f8790","ios":"levelo://app?vid=1acb6aec-78e6-49ab-a01d-dcf0952f8790"},"vehicle_type_id":"4","last_reported":1777464566,"current_range_meters":8800,"station_id":"ce4bgl92rcd13ifvqbq0","pricing_plan_id":"cebpf4jnsgd1na2vs0mg"},{"bike_id":"ac76ae09-5b0b-47f0-a217-e30754959f4b","system_id":"levelo_inurba_marseille","lat":43.3053,"lon":5.36522,"is_reserved":false,"is_disabled":false,"rental_uris":{"android":"levelo://app?vid=ac76ae09-5b0b-47f0-a217-e30754959f4b","ios":"levelo://app?vid=ac76ae09-5b0b-47f0-a217-e30754959f4b"},"vehicle_type_id":"4","last_reported":1777464566,"current_range_meters":8800,"station_id":"ce4bgs12rcd13ifvqcag","pricing_plan_id":"cebpf4jnsgd1na2vs0mg"},{"bike_id":"e0d46e43-4e0c-4db4-a5b2-c14177e6e14e","system_id":"levelo_inurba_marseille","lat":43.30036,"lon":5.36997,"is_reserved":false,"is_disabled":false,"rental_uris":{"android":"levelo://app?vid=e0d46e43-4e0c-4db4-a5b2-c14177e6e14e","ios":"levelo://app?vid=e0d46e43-4e0c-4db4-a5b2-c14177e6e14e"},"vehicle_type_id":"4","last_reported":1777464566,"current_range_meters":8800,"station_id":"","pricing_plan_id":"cebpf4jnsgd1na2vs0mg"},{"bike_id":"93b13b9e-0842-4649-88de-644dbf6c103a","system_id":"levelo_inurba_marseille","lat":43.26472,"lon":5.42023,"is_reserved":false,"is_disabled":false,"rental_uris":{"android":"levelo://app?vid=93b13b9e-0842-4649-88de-644dbf6c103a","ios":"levelo://app?vid=93b13b9e-0842-4649-88de-644dbf6c103a"},"vehicle_type_id":"4","last_reported":1777464566,"current_range_meters":8800,"station_id":"","pricing_plan_id":"cebpf4jnsgd1na2vs0mg"},{"bike_id":"dabb6558-388e-43f3-9124-582e742ee3c8","system_id":"levelo_inurba_marseille","lat":43.31905,"lon":5.36808,"is_reserved":false,"is_disabled":false,"rental_uris":{"android":"levelo://app?vid=dabb6558-388e-43f3-9124-582e742ee3c8","ios":"levelo://app?vid=dabb6558-388e-43f3-9124-582e742ee3c8"},"vehicle_type_id":"4","last_reported":1777464566,"current_range_meters":8800,"station_id":"st_d6o2h0d0559c73evc1b0","pricing_plan_id":"cebpf4jnsgd1na2vs0mg"},{"bike_id":"a68f04f0-97cc-4079-b7d8-d3f34af4d2b2","system_id":"levelo_inurba_marseille","lat":43.30169,"lon":5.3808,"is_reserved":false,"is_disabled":false,"rental_uris":{"android":"levelo://app?vid=a68f04f0-97cc-4079-b7d8-d3f34af4d2b2","ios":"levelo://app?vid=a68f04f0-97cc-4079-b7d8-d3f34af4d2b2"},"vehicle_type_id":"4","last_reported":1777464566,"current_range_meters":8800,"station_id":"ce4bgjp2rcd13ifvqbh0","pricing_plan_id":"cebpf4jnsgd1na2vs0mg"},{"bike_id":"822cee2f-8387-49f0-a607-9c589c51eadd","system_id":"levelo_inurba_marseille","lat":43.23165,"lon":5.43689,"is_reserved":false,"is_disabled":false,"rental_uris":{"android":"levelo://app?vid=822cee2f-8387-49f0-a607-9c589c51eadd","ios":"levelo://app?vid=822cee2f-8387-49f0-a607-9c589c51eadd"},"vehicle_type_id":"4","last_reported":1777464566,"current_range_meters":8800,"station_id":"ce4bhmp2rcd13ifvqgog","pricing_plan_id":"cebpf4jnsgd1na2vs0mg"},{"bike_id":"20c418db-2f1d-4a9c-9013-660ef304788e","system_id":"levelo_inurba_marseille","lat":43.32361,"lon":5.36714,"is_reserved":false,"is_disabled":false,"rental_uris":{"android":"levelo://app?vid=20c418db-2f1d-4a9c-9013-660ef304788e","ios":"levelo://app?vid=20c418db-2f1d-4a9c-9013-660ef304788e"},"vehicle_type_id":"4","last_reported":1777464566,"current_range_meters":8800,"station_id":"ce4bhsh2rcd13ifvqi2g","pricing_plan_id":"cebpf4jnsgd1na2vs0mg"},{"bike_id":"34cc31f5-cf43-4e83-8570-47ea6167c8d4","system_id":"levelo_inurba_marseille","lat":43.29279,"lon":5.37609,"is_reserved":false,"is_disabled":false,"rental_uris":{"android":"levelo://app?vid=34cc31f5-cf43-4e83-8570-47ea6167c8d4","ios":"levelo://app?vid=34cc31f5-cf43-4e83-8570-47ea6167c8d4"},"vehicle_type_id":"4","last_reported":1777464566,"current_range_meters":8800,"station_id":"ce4bgi12rcd13ifvqb80","pricing_plan_id":"cebpf4jnsgd1na2vs0mg"},{"bike_id":"f04f7859-b97d-41c8-87f8-c5834c57ab31","system_id":"levelo_inurba_marseille","lat":43.27226,"lon":5.39171,"is_reserved":false,"is_disabled":false,"rental_uris":{"android":"levelo://app?vid=f04f7859-b97d-41c8-87f8-c5834c57ab31","ios":"levelo://app?vid=f04f7859-b97d-41c8-87f8-c5834c57ab31"},"vehicle_type_id":"4","last_reported":1777464566,"current_range_meters":8800,"station_id":"ce4bhhp2rcd13ifvqfm0","pricing_plan_id":"cebpf4jnsgd1na2vs0mg"},{"bike_id":"c91b70d8-a700-45b7-b674-7eb236c9741e","system_id":"levelo_inurba_marseille","lat":43.3033,"lon":5.36868,"is_reserved":false,"is_disabled":false,"rental_uris":{"android":"levelo://app?vid=c91b70d8-a700-45b7-b674-7eb236c9741e","ios":"levelo://app?vid=c91b70d8-a700-45b7-b674-7eb236c9741e"},"vehicle_type_id":"4","last_reported":1777464566,"current_range_meters":8800,"station_id":"ce4bgqh2rcd13ifvqc5g","pricing_plan_id":"cebpf4jnsgd1na2vs0mg"},{"bike_id":"1d6d59ce-b99b-4c93-9eb0-a893b79f8432","system_id":"levelo_inurba_marseille","lat":43.31222,"lon":5.3683,"is_reserved":false,"is_disabled":false,"rental_uris":{"android":"levelo://app?vid=1d6d59ce-b99b-4c93-9eb0-a893b79f8432","ios":"levelo://app?vid=1d6d59ce-b99b-4c93-9eb0-a893b79f8432"},"vehicle_type_id":"4","last_reported":1777464566,"current_range_meters":8800,"station_id":"ce4bgl92rcd13ifvqbq0","pricing_plan_id":"cebpf4jnsgd1na2vs0mg"},{"bike_id":"415c3cd0-0758-4107-9b7b-81f4e056eadb","system_id":"levelo_inurba_marseille","lat":43.25135,"lon":5.40295,"is_reserved":false,"is_disabled":false,"rental_uris":{"android":"levelo://app?vid=415c3cd0-0758-4107-9b7b-81f4e056eadb","ios":"levelo://app?vid=415c3cd0-0758-4107-9b7b-81f4e056eadb"},"vehicle_type_id":"4","last_reported":1777464566,"current_range_meters":8800,"station_id":"ce4bhlh2rcd13ifvqgig","pricing_plan_id":"cebpf4jnsgd1na2vs0mg"},{"bike_id":"c393576f-dc7e-40b1-876f-3c25a664dd5f","system_id":"levelo_inurba_marseille","lat":43.32109,"lon":5.36773,"is_reserved":false,"is_disabled":false,"rental_uris":{"android":"levelo://app?vid=c393576f-dc7e-40b1-876f-3c25a664dd5f","ios":"levelo://app?vid=c393576f-dc7e-40b1-876f-3c25a664dd5f"},"vehicle_type_id":"4","last_reported":1777464566,"current_range_meters":8800,"station_id":"ce4bhrh2rcd13ifvqhug","pricing_plan_id":"cebpf4jnsgd1na2vs0mg"},{"bike_id":"907b975e-fb54-4198-ad71-0a6fda3075d0","system_id":"levelo_inurba_marseille","lat":43.29867,"lon":5.39733,"is_reserved":false,"is_disabled":true,"rental_uris":{"android":"levelo://app?vid=907b975e-fb54-4198-ad71-0a6fda3075d0","ios":"levelo://app?vid=907b975e-fb54-4198-ad71-0a6fda3075d0"},"vehicle_type_id":"4","last_reported":1777464566,"current_range_meters":8800,"station_id":"ce4bh0h2rcd13ifvqd50","pricing_plan_id":"cebpf4jnsgd1na2vs0mg"},{"bike_id":"9695e9d8-f753-4464-bfd5-dc9d5894f76f","system_id":"levelo_inurba_marseille","lat":43.28988,"lon":5.37813,"is_reserved":false,"is_disabled":false,"rental_uris":{"android":"levelo://app?vid=9695e9d8-f753-4464-bfd5-dc9d5894f76f","ios":"levelo://app?vid=9695e9d8-f753-4464-bfd5-dc9d5894f76f"},"vehicle_type_id":"4","last_reported":1777464566,"current_range_meters":8800,"station_id":"ce4bh9p2rcd13ifvqed0","pricing_plan_id":"cebpf4jnsgd1na2vs0mg"},{"bike_id":"b2d9f173-ebdf-4637-9547-ff1124c7519b","system_id":"levelo_inurba_marseille","lat":43.31166,"lon":5.37227,"is_reserved":false,"is_disabled":false,"rental_uris":{"android":"levelo://app?vid=b2d9f173-ebdf-4637-9547-ff1124c7519b","ios":"levelo://app?vid=b2d9f173-ebdf-4637-9547-ff1124c7519b"},"vehicle_type_id":"4","last_reported":1777464566,"current_range_meters":8800,"station_id":"","pricing_plan_id":"cebpf4jnsgd1na2vs0mg"},{"bike_id":"ad487f36-27dd-4926-a0dd-6505cf9eafaa","system_id":"levelo_inurba_marseille","lat":43.28439,"lon":5.39196,"is_reserved":false,"is_disabled":false,"rental_uris":{"android":"levelo://app?vid=ad487f36-27dd-4926-a0dd-6505cf9eafaa","ios":"levelo://app?vid=ad487f36-27dd-4926-a0dd-6505cf9eafaa"},"vehicle_type_id":"4","last_reported":1777464566,"current_range_meters":8800,"station_id":"ce4bhoh2rcd13ifvqh5g","pricing_plan_id":"cebpf4jnsgd1na2vs0mg"},{"bike_id":"557fb6c8-fcd1-4be6-b4e8-a9d8ed965ac6","system_id":"levelo_inurba_marseille","lat":43.27053,"lon":5.38303,"is_reserved":false,"is_disabled":false,"rental_uris":{"android":"levelo://app?vid=557fb6c8-fcd1-4be6-b4e8-a9d8ed965ac6","ios":"levelo://app?vid=557fb6c8-fcd1-4be6-b4e8-a9d8ed965ac6"},"vehicle_type_id":"4","last_reported":1777464566,"current_range_meters":8800,"station_id":"st_d3n2fo6cfp8s73cte1j0","pricing_plan_id":"cebpf4jnsgd1na2vs0mg"},{"bike_id":"d5fd0cb6-6867-4e5d-92ec-0dda5f3bc0b2","system_id":"levelo_inurba_marseille","lat":43.28618,"lon":5.351,"is_reserved":false,"is_disabled":true,"rental_uris":{"android":"levelo://app?vid=d5fd0cb6-6867-4e5d-92ec-0dda5f3bc0b2","ios":"levelo://app?vid=d5fd0cb6-6867-4e5d-92ec-0dda5f3bc0b2"},"vehicle_type_id":"4","last_reported":1777464566,"current_range_meters":8800,"station_id":"","pricing_plan_id":"cebpf4jnsgd1na2vs0mg"},{"bike_id":"2808f7e2-1a6b-4869-af43-29ca8cc2bf53","system_id":"levelo_inurba_marseille","lat":43.28662,"lon":5.36362,"is_reserved":false,"is_disabled":false,"rental_uris":{"android":"levelo://app?vid=2808f7e2-1a6b-4869-af43-29ca8cc2bf53","ios":"levelo://app?vid=2808f7e2-1a6b-4869-af43-29ca8cc2bf53"},"vehicle_type_id":"4","last_reported":1777464566,"current_range_meters":8800,"station_id":"ce4bhah2rcd13ifvqej0","pricing_plan_id":"cebpf4jnsgd1na2vs0mg"},{"bike_id":"c1bd4888-f44d-4354-bf21-bb5dccda2180","system_id":"levelo_inurba_marseille","lat":43.29676,"lon":5.37296,"is_reserved":false,"is_disabled":false,"rental_uris":{"android":"levelo://app?vid=c1bd4888-f44d-4354-bf21-bb5dccda2180","ios":"levelo://app?vid=c1bd4888-f44d-4354-bf21-bb5dccda2180"},"vehicle_type_id":"4","last_reported":1777464566,"current_range_meters":8800,"station_id":"ce4bgk12rcd13ifvqbj0","pricing_plan_id":"cebpf4jnsgd1na2vs0mg"},{"bike_id":"4e1b42df-7a1d-415e-b1ce-88e016ffc7e5","system_id":"levelo_inurba_marseille","lat":43.30126,"lon":5.39868,"is_reserved":false,"is_disabled":false,"rental_uris":{"android":"levelo://app?vid=4e1b42df-7a1d-415e-b1ce-88e016ffc7e5","ios":"levelo://app?vid=4e1b42df-7a1d-415e-b1ce-88e016ffc7e5"},"vehicle_type_id":"4","last_reported":1777464566,"current_range_meters":9200,"station_id":"ce4bh0h2rcd13ifvqd40","pricing_plan_id":"cebpf4jnsgd1na2vs0mg"},{"bike_id":"2c6e488e-5f57-41b5-a027-d13b49a7c8eb","system_id":"levelo_inurba_marseille","lat":43.29899,"lon":5.43666,"is_reserved":false,"is_disabled":false,"rental_uris":{"android":"levelo://app?vid=2c6e488e-5f57-41b5-a027-d13b49a7c8eb","ios":"levelo://app?vid=2c6e488e-5f57-41b5-a027-d13b49a7c8eb"},"vehicle_type_id":"4","last_reported":1777464566,"current_range_meters":9200,"station_id":"ce4bhpp2rcd13ifvqhfg","pricing_plan_id":"cebpf4jnsgd1na2vs0mg"},{"bike_id":"0438d68d-b4c6-4b23-a7e1-82657231ebe9","system_id":"levelo_inurba_marseille","lat":43.28484,"lon":5.48384,"is_reserved":false,"is_disabled":false,"rental_uris":{"android":"levelo://app?vid=0438d68d-b4c6-4b23-a7e1-82657231ebe9","ios":"levelo://app?vid=0438d68d-b4c6-4b23-a7e1-82657231ebe9"},"vehicle_type_id":"4","last_reported":1777464566,"current_range_meters":9200,"station_id":"","pricing_plan_id":"cebpf4jnsgd1na2vs0mg"},{"bike_id":"b972322e-c9a3-4217-bfe4-1d4403581a42","system_id":"levelo_inurba_marseille","lat":43.28616,"lon":5.35104,"is_reserved":false,"is_disabled":false,"rental_uris":{"android":"levelo://app?vid=b972322e-c9a3-4217-bfe4-1d4403581a42","ios":"levelo://app?vid=b972322e-c9a3-4217-bfe4-1d4403581a42"},"vehicle_type_id":"4","last_reported":1777464566,"current_range_meters":9200,"station_id":"ce4bhch2rcd13ifvqeug","pricing_plan_id":"cebpf4jnsgd1na2vs0mg"},{"bike_id":"262fc285-b6eb-4eda-9ac1-639b6caaacc5","system_id":"levelo_inurba_marseille","lat":43.32366,"lon":5.3672,"is_reserved":false,"is_disabled":false,"rental_uris":{"android":"levelo://app?vid=262fc285-b6eb-4eda-9ac1-639b6caaacc5","ios":"levelo://app?vid=262fc285-b6eb-4eda-9ac1-639b6caaacc5"},"vehicle_type_id":"4","last_reported":1777464566,"current_range_meters":9200,"station_id":"ce4bhsh2rcd13ifvqi2g","pricing_plan_id":"cebpf4jnsgd1na2vs0mg"},{"bike_id":"603df54c-d359-4e00-8712-7158e41daceb","system_id":"levelo_inurba_marseille","lat":43.3118,"lon":5.3682,"is_reserved":false,"is_disabled":false,"rental_uris":{"android":"levelo://app?vid=603df54c-d359-4e00-8712-7158e41daceb","ios":"levelo://app?vid=603df54c-d359-4e00-8712-7158e41daceb"},"vehicle_type_id":"4","last_reported":1777464566,"current_range_meters":9200,"station_id":"ce4bgl92rcd13ifvqbq0","pricing_plan_id":"cebpf4jnsgd1na2vs0mg"},{"bike_id":"1e36f91e-06df-410a-bf66-60717c77c721","system_id":"levelo_inurba_marseille","lat":43.24158,"lon":5.39696,"is_reserved":false,"is_disabled":false,"rental_uris":{"android":"levelo://app?vid=1e36f91e-06df-410a-bf66-60717c77c721","ios":"levelo://app?vid=1e36f91e-06df-410a-bf66-60717c77c721"},"vehicle_type_id":"4","last_reported":1777464566,"current_range_meters":9200,"station_id":"ce4bhn12rcd13ifvqgpg","pricing_plan_id":"cebpf4jnsgd1na2vs0mg"},{"bike_id":"37ae8a9b-7c42-476a-942c-6589a3594ef5","system_id":"levelo_inurba_marseille","lat":43.292985,"lon":5.374745,"is_reserved":false,"is_disabled":false,"rental_uris":{"android":"levelo://app?vid=37ae8a9b-7c42-476a-942c-6589a3594ef5","ios":"levelo://app?vid=37ae8a9b-7c42-476a-942c-6589a3594ef5"},"vehicle_type_id":"4","last_reported":1777464566,"current_range_meters":9200,"station_id":"ce4bgi12rcd13ifvqb70","pricing_plan_id":"cebpf4jnsgd1na2vs0mg"},{"bike_id":"15ea554c-52bf-4401-bd6f-acb1d2cf08aa","system_id":"levelo_inurba_marseille","lat":43.32491,"lon":5.36561,"is_reserved":false,"is_disabled":false,"rental_uris":{"android":"levelo://app?vid=15ea554c-52bf-4401-bd6f-acb1d2cf08aa","ios":"levelo://app?vid=15ea554c-52bf-4401-bd6f-acb1d2cf08aa"},"vehicle_type_id":"4","last_reported":1777464566,"current_range_meters":9200,"station_id":"ce4bhs12rcd13ifvqhvg","pricing_plan_id":"cebpf4jnsgd1na2vs0mg"},{"bike_id":"077fd9d6-fd31-4538-9468-c9995c699e08","system_id":"levelo_inurba_marseille","lat":43.29811,"lon":5.39197,"is_reserved":false,"is_disabled":false,"rental_uris":{"android":"levelo://app?vid=077fd9d6-fd31-4538-9468-c9995c699e08","ios":"levelo://app?vid=077fd9d6-fd31-4538-9468-c9995c699e08"},"vehicle_type_id":"4","last_reported":1777464566,"current_range_meters":9200,"station_id":"","pricing_plan_id":"cebpf4jnsgd1na2vs0mg"},{"bike_id":"a13cf09e-4dc6-4122-934a-08e5a4ad06bd","system_id":"levelo_inurba_marseille","lat":43.2654,"lon":5.3729,"is_reserved":false,"is_disabled":true,"rental_uris":{"android":"levelo://app?vid=a13cf09e-4dc6-4122-934a-08e5a4ad06bd","ios":"levelo://app?vid=a13cf09e-4dc6-4122-934a-08e5a4ad06bd"},"vehicle_type_id":"4","last_reported":1777464566,"current_range_meters":9200,"station_id":"ce4bhg12rcd13ifvqf70","pricing_plan_id":"cebpf4jnsgd1na2vs0mg"},{"bike_id":"ab1ce7c8-58f0-4af7-9f03-ad38edefceb4","system_id":"levelo_inurba_marseille","lat":43.26546,"lon":5.37284,"is_reserved":false,"is_disabled":false,"rental_uris":{"android":"levelo://app?vid=ab1ce7c8-58f0-4af7-9f03-ad38edefceb4","ios":"levelo://app?vid=ab1ce7c8-58f0-4af7-9f03-ad38edefceb4"},"vehicle_type_id":"4","last_reported":1777464566,"current_range_meters":9200,"station_id":"ce4bhg12rcd13ifvqf70","pricing_plan_id":"cebpf4jnsgd1na2vs0mg"},{"bike_id":"8829f460-aa5f-4233-9846-cd6731fc4acd","system_id":"levelo_inurba_marseille","lat":43.26983,"lon":5.40434,"is_reserved":false,"is_disabled":false,"rental_uris":{"android":"levelo://app?vid=8829f460-aa5f-4233-9846-cd6731fc4acd","ios":"levelo://app?vid=8829f460-aa5f-4233-9846-cd6731fc4acd"},"vehicle_type_id":"4","last_reported":1777464566,"current_range_meters":9600,"station_id":"","pricing_plan_id":"cebpf4jnsgd1na2vs0mg"},{"bike_id":"82a8043e-804e-4dc9-b426-b4d299449f67","system_id":"levelo_inurba_marseille","lat":43.31045,"lon":5.37164,"is_reserved":false,"is_disabled":false,"rental_uris":{"android":"levelo://app?vid=82a8043e-804e-4dc9-b426-b4d299449f67","ios":"levelo://app?vid=82a8043e-804e-4dc9-b426-b4d299449f67"},"vehicle_type_id":"4","last_reported":1777464566,"current_range_meters":9600,"station_id":"st_d4kl2rp97mjs73e7tdfg","pricing_plan_id":"cebpf4jnsgd1na2vs0mg"},{"bike_id":"68c6b592-a3e9-4f1f-8f05-7a72a86a9f78","system_id":"levelo_inurba_marseille","lat":43.31041,"lon":5.37171,"is_reserved":false,"is_disabled":false,"rental_uris":{"android":"levelo://app?vid=68c6b592-a3e9-4f1f-8f05-7a72a86a9f78","ios":"levelo://app?vid=68c6b592-a3e9-4f1f-8f05-7a72a86a9f78"},"vehicle_type_id":"4","last_reported":1777464566,"current_range_meters":9600,"station_id":"st_d4kl2rp97mjs73e7tdfg","pricing_plan_id":"cebpf4jnsgd1na2vs0mg"},{"bike_id":"565a8ac0-2b20-423c-a683-e409c051d1eb","system_id":"levelo_inurba_marseille","lat":43.31242,"lon":5.36869,"is_reserved":false,"is_disabled":false,"rental_uris":{"android":"levelo://app?vid=565a8ac0-2b20-423c-a683-e409c051d1eb","ios":"levelo://app?vid=565a8ac0-2b20-423c-a683-e409c051d1eb"},"vehicle_type_id":"4","last_reported":1777464566,"current_range_meters":9600,"station_id":"ce4bgl92rcd13ifvqbq0","pricing_plan_id":"cebpf4jnsgd1na2vs0mg"},{"bike_id":"21d95eb3-e7a7-42da-89cd-8c34dd2eb598","system_id":"levelo_inurba_marseille","lat":43.26554,"lon":5.37292,"is_reserved":false,"is_disabled":false,"rental_uris":{"android":"levelo://app?vid=21d95eb3-e7a7-42da-89cd-8c34dd2eb598","ios":"levelo://app?vid=21d95eb3-e7a7-42da-89cd-8c34dd2eb598"},"vehicle_type_id":"4","last_reported":1777464566,"current_range_meters":9600,"station_id":"ce4bhg12rcd13ifvqf70","pricing_plan_id":"cebpf4jnsgd1na2vs0mg"},{"bike_id":"6e25c67e-6fde-49d0-b892-e4042382cd1a","system_id":"levelo_inurba_marseille","lat":43.31383,"lon":5.36658,"is_reserved":false,"is_disabled":false,"rental_uris":{"android":"levelo://app?vid=6e25c67e-6fde-49d0-b892-e4042382cd1a","ios":"levelo://app?vid=6e25c67e-6fde-49d0-b892-e4042382cd1a"},"vehicle_type_id":"4","last_reported":1777464566,"current_range_meters":9600,"station_id":"","pricing_plan_id":"cebpf4jnsgd1na2vs0mg"},{"bike_id":"4b15047f-d68b-4152-b1b5-7233375039b4","system_id":"levelo_inurba_marseille","lat":43.26953,"lon":5.38641,"is_reserved":false,"is_disabled":false,"rental_uris":{"android":"levelo://app?vid=4b15047f-d68b-4152-b1b5-7233375039b4","ios":"levelo://app?vid=4b15047f-d68b-4152-b1b5-7233375039b4"},"vehicle_type_id":"4","last_reported":1777464566,"current_range_meters":9600,"station_id":"ce4bhh92rcd13ifvqfh0","pricing_plan_id":"cebpf4jnsgd1na2vs0mg"},{"bike_id":"8d3340c4-7fcc-42b4-9a5a-a619624afdec","system_id":"levelo_inurba_marseille","lat":43.2927,"lon":5.36845,"is_reserved":false,"is_disabled":false,"rental_uris":{"android":"levelo://app?vid=8d3340c4-7fcc-42b4-9a5a-a619624afdec","ios":"levelo://app?vid=8d3340c4-7fcc-42b4-9a5a-a619624afdec"},"vehicle_type_id":"4","last_reported":1777464566,"current_range_meters":9600,"station_id":"ce4bhbp2rcd13ifvqesg","pricing_plan_id":"cebpf4jnsgd1na2vs0mg"},{"bike_id":"617a2d9e-0aee-4cc2-9fe7-a6bb2f32f4cd","system_id":"levelo_inurba_marseille","lat":43.29267,"lon":5.4091,"is_reserved":false,"is_disabled":false,"rental_uris":{"android":"levelo://app?vid=617a2d9e-0aee-4cc2-9fe7-a6bb2f32f4cd","ios":"levelo://app?vid=617a2d9e-0aee-4cc2-9fe7-a6bb2f32f4cd"},"vehicle_type_id":"4","last_reported":1777464566,"current_range_meters":9600,"station_id":"ce4bh192rcd13ifvqdc0","pricing_plan_id":"cebpf4jnsgd1na2vs0mg"},{"bike_id":"eb8542ba-b1aa-4e62-a573-f2b50a99d2db","system_id":"levelo_inurba_marseille","lat":43.27076,"lon":5.40288,"is_reserved":false,"is_disabled":false,"rental_uris":{"android":"levelo://app?vid=eb8542ba-b1aa-4e62-a573-f2b50a99d2db","ios":"levelo://app?vid=eb8542ba-b1aa-4e62-a573-f2b50a99d2db"},"vehicle_type_id":"4","last_reported":1777464566,"current_range_meters":9600,"station_id":"ce4bhk92rcd13ifvqgc0","pricing_plan_id":"cebpf4jnsgd1na2vs0mg"},{"bike_id":"a2a694ab-bd57-45a8-a651-048e4cefae01","system_id":"levelo_inurba_marseille","lat":43.28699,"lon":5.46674,"is_reserved":false,"is_disabled":false,"rental_uris":{"android":"levelo://app?vid=a2a694ab-bd57-45a8-a651-048e4cefae01","ios":"levelo://app?vid=a2a694ab-bd57-45a8-a651-048e4cefae01"},"vehicle_type_id":"4","last_reported":1777464566,"current_range_meters":9600,"station_id":"st_d6tc3vkotcvc738tfjhg","pricing_plan_id":"cebpf4jnsgd1na2vs0mg"},{"bike_id":"d6376065-a7e2-41e8-99d5-29ecd7b8ac56","system_id":"levelo_inurba_marseille","lat":43.26683,"lon":5.38259,"is_reserved":false,"is_disabled":false,"rental_uris":{"android":"levelo://app?vid=d6376065-a7e2-41e8-99d5-29ecd7b8ac56","ios":"levelo://app?vid=d6376065-a7e2-41e8-99d5-29ecd7b8ac56"},"vehicle_type_id":"4","last_reported":1777464566,"current_range_meters":9600,"station_id":"ce4bhg92rcd13ifvqf90","pricing_plan_id":"cebpf4jnsgd1na2vs0mg"},{"bike_id":"0db6615c-89ec-4c94-ba86-335817fd5695","system_id":"levelo_inurba_marseille","lat":43.30535,"lon":5.36717,"is_reserved":false,"is_disabled":false,"rental_uris":{"android":"levelo://app?vid=0db6615c-89ec-4c94-ba86-335817fd5695","ios":"levelo://app?vid=0db6615c-89ec-4c94-ba86-335817fd5695"},"vehicle_type_id":"4","last_reported":1777464566,"current_range_meters":9600,"station_id":"ce4bgrp2rcd13ifvqc9g","pricing_plan_id":"cebpf4jnsgd1na2vs0mg"},{"bike_id":"809dbee3-b28b-45fa-8543-de3ebcdde081","system_id":"levelo_inurba_marseille","lat":43.29827,"lon":5.3812,"is_reserved":false,"is_disabled":false,"rental_uris":{"android":"levelo://app?vid=809dbee3-b28b-45fa-8543-de3ebcdde081","ios":"levelo://app?vid=809dbee3-b28b-45fa-8543-de3ebcdde081"},"vehicle_type_id":"4","last_reported":1777464566,"current_range_meters":9600,"station_id":"ce4bgip2rcd13ifvqbb0","pricing_plan_id":"cebpf4jnsgd1na2vs0mg"},{"bike_id":"72e5bb5d-486f-4ca3-b871-8f1bc8ed5aa8","system_id":"levelo_inurba_marseille","lat":43.23146,"lon":5.43699,"is_reserved":false,"is_disabled":false,"rental_uris":{"android":"levelo://app?vid=72e5bb5d-486f-4ca3-b871-8f1bc8ed5aa8","ios":"levelo://app?vid=72e5bb5d-486f-4ca3-b871-8f1bc8ed5aa8"},"vehicle_type_id":"4","last_reported":1777464566,"current_range_meters":9600,"station_id":"ce4bhmp2rcd13ifvqgog","pricing_plan_id":"cebpf4jnsgd1na2vs0mg"},{"bike_id":"f8b08a99-be2e-4ade-8fb0-3e565e1cc6af","system_id":"levelo_inurba_marseille","lat":43.30946,"lon":5.36845,"is_reserved":false,"is_disabled":false,"rental_uris":{"android":"levelo://app?vid=f8b08a99-be2e-4ade-8fb0-3e565e1cc6af","ios":"levelo://app?vid=f8b08a99-be2e-4ade-8fb0-3e565e1cc6af"},"vehicle_type_id":"4","last_reported":1777464566,"current_range_meters":9600,"station_id":"ce4bgn92rcd13ifvqbvg","pricing_plan_id":"cebpf4jnsgd1na2vs0mg"},{"bike_id":"bf9b525b-6169-435d-b06d-d31fa4c2a776","system_id":"levelo_inurba_marseille","lat":43.2447,"lon":5.42533,"is_reserved":false,"is_disabled":false,"rental_uris":{"android":"levelo://app?vid=bf9b525b-6169-435d-b06d-d31fa4c2a776","ios":"levelo://app?vid=bf9b525b-6169-435d-b06d-d31fa4c2a776"},"vehicle_type_id":"4","last_reported":1777464566,"current_range_meters":9600,"station_id":"st_d4a3vfp97mjs738cd8kg","pricing_plan_id":"cebpf4jnsgd1na2vs0mg"},{"bike_id":"c7d88e20-2bfd-457f-acf1-2b288b68259e","system_id":"levelo_inurba_marseille","lat":43.2668,"lon":5.38258,"is_reserved":false,"is_disabled":false,"rental_uris":{"android":"levelo://app?vid=c7d88e20-2bfd-457f-acf1-2b288b68259e","ios":"levelo://app?vid=c7d88e20-2bfd-457f-acf1-2b288b68259e"},"vehicle_type_id":"4","last_reported":1777464566,"current_range_meters":9600,"station_id":"ce4bhg92rcd13ifvqf90","pricing_plan_id":"cebpf4jnsgd1na2vs0mg"},{"bike_id":"60d77da4-6419-429b-9e7a-b2cf161a2f69","system_id":"levelo_inurba_marseille","lat":43.32642,"lon":5.39497,"is_reserved":false,"is_disabled":false,"rental_uris":{"android":"levelo://app?vid=60d77da4-6419-429b-9e7a-b2cf161a2f69","ios":"levelo://app?vid=60d77da4-6419-429b-9e7a-b2cf161a2f69"},"vehicle_type_id":"4","last_reported":1777464566,"current_range_meters":9600,"station_id":"","pricing_plan_id":"cebpf4jnsgd1na2vs0mg"},{"bike_id":"de86e739-b5ab-498a-9711-e575cf802efa","system_id":"levelo_inurba_marseille","lat":43.27369,"lon":5.36252,"is_reserved":false,"is_disabled":false,"rental_uris":{"android":"levelo://app?vid=de86e739-b5ab-498a-9711-e575cf802efa","ios":"levelo://app?vid=de86e739-b5ab-498a-9711-e575cf802efa"},"vehicle_type_id":"4","last_reported":1777464566,"current_range_meters":9600,"station_id":"ce4bhbh2rcd13ifvqeo0","pricing_plan_id":"cebpf4jnsgd1na2vs0mg"},{"bike_id":"291147aa-0aaa-4b69-807d-81a4dceb6fc5","system_id":"levelo_inurba_marseille","lat":43.26552,"lon":5.37299,"is_reserved":false,"is_disabled":false,"rental_uris":{"android":"levelo://app?vid=291147aa-0aaa-4b69-807d-81a4dceb6fc5","ios":"levelo://app?vid=291147aa-0aaa-4b69-807d-81a4dceb6fc5"},"vehicle_type_id":"4","last_reported":1777464566,"current_range_meters":10000,"station_id":"ce4bhg12rcd13ifvqf70","pricing_plan_id":"cebpf4jnsgd1na2vs0mg"},{"bike_id":"c14f1567-5728-412d-b0bb-7411d1c55b34","system_id":"levelo_inurba_marseille","lat":43.29191,"lon":5.35799,"is_reserved":false,"is_disabled":false,"rental_uris":{"android":"levelo://app?vid=c14f1567-5728-412d-b0bb-7411d1c55b34","ios":"levelo://app?vid=c14f1567-5728-412d-b0bb-7411d1c55b34"},"vehicle_type_id":"4","last_reported":1777464566,"current_range_meters":10000,"station_id":"ce4bhb12rcd13ifvqel0","pricing_plan_id":"cebpf4jnsgd1na2vs0mg"},{"bike_id":"49653bec-e653-4ec9-8e5d-0f621d1d7472","system_id":"levelo_inurba_marseille","lat":43.29674,"lon":5.3729,"is_reserved":false,"is_disabled":false,"rental_uris":{"android":"levelo://app?vid=49653bec-e653-4ec9-8e5d-0f621d1d7472","ios":"levelo://app?vid=49653bec-e653-4ec9-8e5d-0f621d1d7472"},"vehicle_type_id":"4","last_reported":1777464566,"current_range_meters":10000,"station_id":"ce4bgk12rcd13ifvqbj0","pricing_plan_id":"cebpf4jnsgd1na2vs0mg"},{"bike_id":"d97ed6ed-9254-4b2c-9752-a3aaf3378900","system_id":"levelo_inurba_marseille","lat":43.33533,"lon":5.37454,"is_reserved":false,"is_disabled":false,"rental_uris":{"android":"levelo://app?vid=d97ed6ed-9254-4b2c-9752-a3aaf3378900","ios":"levelo://app?vid=d97ed6ed-9254-4b2c-9752-a3aaf3378900"},"vehicle_type_id":"4","last_reported":1777464566,"current_range_meters":10000,"station_id":"st_d46tts09ee8s73dlu43g","pricing_plan_id":"cebpf4jnsgd1na2vs0mg"},{"bike_id":"987afc8d-fc4c-4f1a-acc9-30e0fa196b69","system_id":"levelo_inurba_marseille","lat":43.282007,"lon":5.34989,"is_reserved":false,"is_disabled":false,"rental_uris":{"android":"levelo://app?vid=987afc8d-fc4c-4f1a-acc9-30e0fa196b69","ios":"levelo://app?vid=987afc8d-fc4c-4f1a-acc9-30e0fa196b69"},"vehicle_type_id":"4","last_reported":1777464566,"current_range_meters":10000,"station_id":"","pricing_plan_id":"cebpf4jnsgd1na2vs0mg"},{"bike_id":"95f47514-1d7f-4013-95fe-a0916f7cc45a","system_id":"levelo_inurba_marseille","lat":43.33538,"lon":5.37463,"is_reserved":false,"is_disabled":false,"rental_uris":{"android":"levelo://app?vid=95f47514-1d7f-4013-95fe-a0916f7cc45a","ios":"levelo://app?vid=95f47514-1d7f-4013-95fe-a0916f7cc45a"},"vehicle_type_id":"4","last_reported":1777464566,"current_range_meters":10000,"station_id":"st_d46tts09ee8s73dlu43g","pricing_plan_id":"cebpf4jnsgd1na2vs0mg"},{"bike_id":"67770120-bd85-4b15-af1e-f85ca14859f3","system_id":"levelo_inurba_marseille","lat":43.28857,"lon":5.42519,"is_reserved":false,"is_disabled":false,"rental_uris":{"android":"levelo://app?vid=67770120-bd85-4b15-af1e-f85ca14859f3","ios":"levelo://app?vid=67770120-bd85-4b15-af1e-f85ca14859f3"},"vehicle_type_id":"4","last_reported":1777464566,"current_range_meters":10000,"station_id":"st_d3b462108ojc7389ooeg","pricing_plan_id":"cebpf4jnsgd1na2vs0mg"},{"bike_id":"e81022dd-19c8-4204-a3cc-bd5e81a601c4","system_id":"levelo_inurba_marseille","lat":43.24976,"lon":5.40494,"is_reserved":false,"is_disabled":false,"rental_uris":{"android":"levelo://app?vid=e81022dd-19c8-4204-a3cc-bd5e81a601c4","ios":"levelo://app?vid=e81022dd-19c8-4204-a3cc-bd5e81a601c4"},"vehicle_type_id":"4","last_reported":1777464566,"current_range_meters":10000,"station_id":"st_d2ngiaodas8pm72gd1h0","pricing_plan_id":"cebpf4jnsgd1na2vs0mg"},{"bike_id":"7be06c3a-8473-4b45-a3f6-aea060cfe576","system_id":"levelo_inurba_marseille","lat":43.25578,"lon":5.38226,"is_reserved":false,"is_disabled":false,"rental_uris":{"android":"levelo://app?vid=7be06c3a-8473-4b45-a3f6-aea060cfe576","ios":"levelo://app?vid=7be06c3a-8473-4b45-a3f6-aea060cfe576"},"vehicle_type_id":"4","last_reported":1777464566,"current_range_meters":10000,"station_id":"ce4bhih2rcd13ifvqfs0","pricing_plan_id":"cebpf4jnsgd1na2vs0mg"},{"bike_id":"27f16f9d-7796-4a24-ac9f-ef8a6bbeff36","system_id":"levelo_inurba_marseille","lat":43.29062,"lon":5.37156,"is_reserved":false,"is_disabled":false,"rental_uris":{"android":"levelo://app?vid=27f16f9d-7796-4a24-ac9f-ef8a6bbeff36","ios":"levelo://app?vid=27f16f9d-7796-4a24-ac9f-ef8a6bbeff36"},"vehicle_type_id":"4","last_reported":1777464566,"current_range_meters":10000,"station_id":"ce4bh5p2rcd13ifvqe4g","pricing_plan_id":"cebpf4jnsgd1na2vs0mg"},{"bike_id":"7f2dea88-205f-4739-a3ab-525ae7670615","system_id":"levelo_inurba_marseille","lat":43.29269,"lon":5.40895,"is_reserved":false,"is_disabled":true,"rental_uris":{"android":"levelo://app?vid=7f2dea88-205f-4739-a3ab-525ae7670615","ios":"levelo://app?vid=7f2dea88-205f-4739-a3ab-525ae7670615"},"vehicle_type_id":"4","last_reported":1777464566,"current_range_meters":10000,"station_id":"ce4bh192rcd13ifvqdc0","pricing_plan_id":"cebpf4jnsgd1na2vs0mg"},{"bike_id":"863d5d3b-e0d0-48a0-bb5a-14ad196b377b","system_id":"levelo_inurba_marseille","lat":43.29013,"lon":5.38634,"is_reserved":false,"is_disabled":false,"rental_uris":{"android":"levelo://app?vid=863d5d3b-e0d0-48a0-bb5a-14ad196b377b","ios":"levelo://app?vid=863d5d3b-e0d0-48a0-bb5a-14ad196b377b"},"vehicle_type_id":"4","last_reported":1777464566,"current_range_meters":10000,"station_id":"ce4bh4p2rcd13ifvqe0g","pricing_plan_id":"cebpf4jnsgd1na2vs0mg"},{"bike_id":"105f32f6-c368-4de0-8ad5-1075cdf8978e","system_id":"levelo_inurba_marseille","lat":43.24092,"lon":5.36458,"is_reserved":false,"is_disabled":false,"rental_uris":{"android":"levelo://app?vid=105f32f6-c368-4de0-8ad5-1075cdf8978e","ios":"levelo://app?vid=105f32f6-c368-4de0-8ad5-1075cdf8978e"},"vehicle_type_id":"4","last_reported":1777464566,"current_range_meters":10000,"station_id":"","pricing_plan_id":"cebpf4jnsgd1na2vs0mg"},{"bike_id":"6a9b58db-a215-46ac-8c9a-f4437be444a4","system_id":"levelo_inurba_marseille","lat":43.3154,"lon":5.38012,"is_reserved":false,"is_disabled":false,"rental_uris":{"android":"levelo://app?vid=6a9b58db-a215-46ac-8c9a-f4437be444a4","ios":"levelo://app?vid=6a9b58db-a215-46ac-8c9a-f4437be444a4"},"vehicle_type_id":"4","last_reported":1777464566,"current_range_meters":10800,"station_id":"ce4bhsp2rcd13ifvqi50","pricing_plan_id":"cebpf4jnsgd1na2vs0mg"},{"bike_id":"5eab11cc-0f53-4730-bb4b-083d658ed3f2","system_id":"levelo_inurba_marseille","lat":43.31346,"lon":5.3672,"is_reserved":false,"is_disabled":false,"rental_uris":{"android":"levelo://app?vid=5eab11cc-0f53-4730-bb4b-083d658ed3f2","ios":"levelo://app?vid=5eab11cc-0f53-4730-bb4b-083d658ed3f2"},"vehicle_type_id":"4","last_reported":1777464566,"current_range_meters":10800,"station_id":"ce4bgr92rcd13ifvqc6g","pricing_plan_id":"cebpf4jnsgd1na2vs0mg"},{"bike_id":"14ffd392-a207-41da-942f-3d5d62a42696","system_id":"levelo_inurba_marseille","lat":43.31897,"lon":5.36812,"is_reserved":false,"is_disabled":false,"rental_uris":{"android":"levelo://app?vid=14ffd392-a207-41da-942f-3d5d62a42696","ios":"levelo://app?vid=14ffd392-a207-41da-942f-3d5d62a42696"},"vehicle_type_id":"4","last_reported":1777464566,"current_range_meters":10800,"station_id":"st_d6o2h0d0559c73evc1b0","pricing_plan_id":"cebpf4jnsgd1na2vs0mg"},{"bike_id":"037d64f6-928a-49e8-acc5-65482391aa38","system_id":"levelo_inurba_marseille","lat":43.26549,"lon":5.37315,"is_reserved":false,"is_disabled":false,"rental_uris":{"android":"levelo://app?vid=037d64f6-928a-49e8-acc5-65482391aa38","ios":"levelo://app?vid=037d64f6-928a-49e8-acc5-65482391aa38"},