{"last_updated":1747667500,"ttl":60,"version":"2.2","data":{"bikes":[{"bike_id":"c0b9fd4f-e181-46ce-b0bf-f5119973334f","system_id":"levelo_inurba_marseille","lat":43.33771,"lon":5.37424,"is_reserved":false,"is_disabled":true,"rental_uris":{"android":"levelo://app?vid=c0b9fd4f-e181-46ce-b0bf-f5119973334f","ios":"levelo://app?vid=c0b9fd4f-e181-46ce-b0bf-f5119973334f"},"vehicle_type_id":"4","last_reported":1747667500,"current_range_meters":0,"station_id":"","pricing_plan_id":"cebpf4jnsgd1na2vs0mg"},{"bike_id":"25b4f69a-1726-4c58-a89d-ca45327456b0","system_id":"levelo_inurba_marseille","lat":43.27273,"lon":5.36288,"is_reserved":false,"is_disabled":true,"rental_uris":{"android":"levelo://app?vid=25b4f69a-1726-4c58-a89d-ca45327456b0","ios":"levelo://app?vid=25b4f69a-1726-4c58-a89d-ca45327456b0"},"vehicle_type_id":"4","last_reported":1747667500,"current_range_meters":0,"station_id":"","pricing_plan_id":"cebpf4jnsgd1na2vs0mg"},{"bike_id":"fc2577e7-1497-425b-9d4f-ab8d7dc843c6","system_id":"levelo_inurba_marseille","lat":43.33771,"lon":5.37485,"is_reserved":false,"is_disabled":true,"rental_uris":{"android":"levelo://app?vid=fc2577e7-1497-425b-9d4f-ab8d7dc843c6","ios":"levelo://app?vid=fc2577e7-1497-425b-9d4f-ab8d7dc843c6"},"vehicle_type_id":"4","last_reported":1747667500,"current_range_meters":0,"station_id":"","pricing_plan_id":"cebpf4jnsgd1na2vs0mg"},{"bike_id":"522a6fa9-3b0f-41ae-92d4-659155b9e6e8","system_id":"levelo_inurba_marseille","lat":43.239272,"lon":5.36185,"is_reserved":false,"is_disabled":true,"rental_uris":{"android":"levelo://app?vid=522a6fa9-3b0f-41ae-92d4-659155b9e6e8","ios":"levelo://app?vid=522a6fa9-3b0f-41ae-92d4-659155b9e6e8"},"vehicle_type_id":"4","last_reported":1747667500,"current_range_meters":0,"station_id":"","pricing_plan_id":"cebpf4jnsgd1na2vs0mg"},{"bike_id":"8f3685e3-183d-4c98-9513-bfeeb8fbc041","system_id":"levelo_inurba_marseille","lat":43.27958,"lon":5.41242,"is_reserved":false,"is_disabled":true,"rental_uris":{"android":"levelo://app?vid=8f3685e3-183d-4c98-9513-bfeeb8fbc041","ios":"levelo://app?vid=8f3685e3-183d-4c98-9513-bfeeb8fbc041"},"vehicle_type_id":"4","last_reported":1747667500,"current_range_meters":0,"station_id":"","pricing_plan_id":"cebpf4jnsgd1na2vs0mg"},{"bike_id":"54255574-d73a-48d1-85ed-ee6fbfc41d57","system_id":"levelo_inurba_marseille","lat":43.26419,"lon":5.37352,"is_reserved":false,"is_disabled":true,"rental_uris":{"android":"levelo://app?vid=54255574-d73a-48d1-85ed-ee6fbfc41d57","ios":"levelo://app?vid=54255574-d73a-48d1-85ed-ee6fbfc41d57"},"vehicle_type_id":"4","last_reported":1747667500,"current_range_meters":0,"station_id":"","pricing_plan_id":"cebpf4jnsgd1na2vs0mg"},{"bike_id":"80b49949-2015-46f6-95ad-3d3616eb898e","system_id":"levelo_inurba_marseille","lat":43.338,"lon":5.37423,"is_reserved":false,"is_disabled":true,"rental_uris":{"android":"levelo://app?vid=80b49949-2015-46f6-95ad-3d3616eb898e","ios":"levelo://app?vid=80b49949-2015-46f6-95ad-3d3616eb898e"},"vehicle_type_id":"4","last_reported":1747667500,"current_range_meters":0,"station_id":"","pricing_plan_id":"cebpf4jnsgd1na2vs0mg"},{"bike_id":"e9dd3aa4-b5e7-4480-926d-d7f537719bfa","system_id":"levelo_inurba_marseille","lat":43.23023,"lon":5.40209,"is_reserved":false,"is_disabled":true,"rental_uris":{"android":"levelo://app?vid=e9dd3aa4-b5e7-4480-926d-d7f537719bfa","ios":"levelo://app?vid=e9dd3aa4-b5e7-4480-926d-d7f537719bfa"},"vehicle_type_id":"4","last_reported":1747667500,"current_range_meters":0,"station_id":"","pricing_plan_id":"cebpf4jnsgd1na2vs0mg"},{"bike_id":"4c7789fc-8e06-4968-b265-03632a74ce7d","system_id":"levelo_inurba_marseille","lat":43.30326,"lon":5.40423,"is_reserved":false,"is_disabled":true,"rental_uris":{"android":"levelo://app?vid=4c7789fc-8e06-4968-b265-03632a74ce7d","ios":"levelo://app?vid=4c7789fc-8e06-4968-b265-03632a74ce7d"},"vehicle_type_id":"4","last_reported":1747667500,"current_range_meters":0,"station_id":"ce4bh012rcd13ifvqd10","pricing_plan_id":"cebpf4jnsgd1na2vs0mg"},{"bike_id":"1614c80b-6427-4d26-9afe-10b243bc2615","system_id":"levelo_inurba_marseille","lat":43.30424,"lon":5.39743,"is_reserved":false,"is_disabled":true,"rental_uris":{"android":"levelo://app?vid=1614c80b-6427-4d26-9afe-10b243bc2615","ios":"levelo://app?vid=1614c80b-6427-4d26-9afe-10b243bc2615"},"vehicle_type_id":"4","last_reported":1747667500,"current_range_meters":0,"station_id":"ce4bh092rcd13ifvqd20","pricing_plan_id":"cebpf4jnsgd1na2vs0mg"},{"bike_id":"48f953dd-7c7a-4aed-b9ce-7a16a4243351","system_id":"levelo_inurba_marseille","lat":43.28943,"lon":5.36636,"is_reserved":false,"is_disabled":true,"rental_uris":{"android":"levelo://app?vid=48f953dd-7c7a-4aed-b9ce-7a16a4243351","ios":"levelo://app?vid=48f953dd-7c7a-4aed-b9ce-7a16a4243351"},"vehicle_type_id":"4","last_reported":1747667500,"current_range_meters":0,"station_id":"ce4bhap2rcd13ifvqek0","pricing_plan_id":"cebpf4jnsgd1na2vs0mg"},{"bike_id":"2a24e6ec-5b73-41fa-a18d-8a6c48a6c7f6","system_id":"levelo_inurba_marseille","lat":43.26205,"lon":5.37448,"is_reserved":false,"is_disabled":true,"rental_uris":{"android":"levelo://app?vid=2a24e6ec-5b73-41fa-a18d-8a6c48a6c7f6","ios":"levelo://app?vid=2a24e6ec-5b73-41fa-a18d-8a6c48a6c7f6"},"vehicle_type_id":"4","last_reported":1747667500,"current_range_meters":0,"station_id":"ce4bhgp2rcd13ifvqfc0","pricing_plan_id":"cebpf4jnsgd1na2vs0mg"},{"bike_id":"cabc3ba3-d79c-44f0-b71f-3932a2db2e48","system_id":"levelo_inurba_marseille","lat":43.2315,"lon":5.43708,"is_reserved":false,"is_disabled":true,"rental_uris":{"android":"levelo://app?vid=cabc3ba3-d79c-44f0-b71f-3932a2db2e48","ios":"levelo://app?vid=cabc3ba3-d79c-44f0-b71f-3932a2db2e48"},"vehicle_type_id":"4","last_reported":1747667500,"current_range_meters":0,"station_id":"ce4bhmp2rcd13ifvqgog","pricing_plan_id":"cebpf4jnsgd1na2vs0mg"},{"bike_id":"cebaff24-ec9a-4f9a-af53-d79d3e8c8401","system_id":"levelo_inurba_marseille","lat":43.32367,"lon":5.38892,"is_reserved":false,"is_disabled":true,"rental_uris":{"android":"levelo://app?vid=cebaff24-ec9a-4f9a-af53-d79d3e8c8401","ios":"levelo://app?vid=cebaff24-ec9a-4f9a-af53-d79d3e8c8401"},"vehicle_type_id":"4","last_reported":1747667500,"current_range_meters":0,"station_id":"ce4bhqp2rcd13ifvqhog","pricing_plan_id":"cebpf4jnsgd1na2vs0mg"},{"bike_id":"f2db5e2d-fc51-4697-9f63-3a43f374cfe6","system_id":"levelo_inurba_marseille","lat":43.2966,"lon":5.37293,"is_reserved":false,"is_disabled":true,"rental_uris":{"android":"levelo://app?vid=f2db5e2d-fc51-4697-9f63-3a43f374cfe6","ios":"levelo://app?vid=f2db5e2d-fc51-4697-9f63-3a43f374cfe6"},"vehicle_type_id":"4","last_reported":1747667500,"current_range_meters":800,"station_id":"ce4bgk12rcd13ifvqbj0","pricing_plan_id":"cebpf4jnsgd1na2vs0mg"},{"bike_id":"74387275-4c06-4ffc-a6ad-896bd1541788","system_id":"levelo_inurba_marseille","lat":43.28464,"lon":5.38436,"is_reserved":false,"is_disabled":true,"rental_uris":{"android":"levelo://app?vid=74387275-4c06-4ffc-a6ad-896bd1541788","ios":"levelo://app?vid=74387275-4c06-4ffc-a6ad-896bd1541788"},"vehicle_type_id":"4","last_reported":1747667500,"current_range_meters":800,"station_id":"ce4bh512rcd13ifvqe3g","pricing_plan_id":"cebpf4jnsgd1na2vs0mg"},{"bike_id":"05e8c375-7a3c-4425-b819-2a917b67dc08","system_id":"levelo_inurba_marseille","lat":43.28156,"lon":5.42647,"is_reserved":false,"is_disabled":true,"rental_uris":{"android":"levelo://app?vid=05e8c375-7a3c-4425-b819-2a917b67dc08","ios":"levelo://app?vid=05e8c375-7a3c-4425-b819-2a917b67dc08"},"vehicle_type_id":"4","last_reported":1747667500,"current_range_meters":800,"station_id":"ce4bhnh2rcd13ifvqgug","pricing_plan_id":"cebpf4jnsgd1na2vs0mg"},{"bike_id":"4dc29447-e460-42a1-a775-e6666a1560ec","system_id":"levelo_inurba_marseille","lat":43.30627,"lon":5.40094,"is_reserved":false,"is_disabled":true,"rental_uris":{"android":"levelo://app?vid=4dc29447-e460-42a1-a775-e6666a1560ec","ios":"levelo://app?vid=4dc29447-e460-42a1-a775-e6666a1560ec"},"vehicle_type_id":"4","last_reported":1747667500,"current_range_meters":1200,"station_id":"ce4bh112rcd13ifvqda0","pricing_plan_id":"cebpf4jnsgd1na2vs0mg"},{"bike_id":"9f317e2d-9674-4c66-8215-205315cbc3ab","system_id":"levelo_inurba_marseille","lat":43.261802,"lon":5.374379,"is_reserved":false,"is_disabled":true,"rental_uris":{"android":"levelo://app?vid=9f317e2d-9674-4c66-8215-205315cbc3ab","ios":"levelo://app?vid=9f317e2d-9674-4c66-8215-205315cbc3ab"},"vehicle_type_id":"4","last_reported":1747667500,"current_range_meters":1200,"station_id":"ce4bhgp2rcd13ifvqfc0","pricing_plan_id":"cebpf4jnsgd1na2vs0mg"},{"bike_id":"5b5c5a5f-5b2b-4648-ba47-b6e52377e718","system_id":"levelo_inurba_marseille","lat":43.25026,"lon":5.38879,"is_reserved":false,"is_disabled":true,"rental_uris":{"android":"levelo://app?vid=5b5c5a5f-5b2b-4648-ba47-b6e52377e718","ios":"levelo://app?vid=5b5c5a5f-5b2b-4648-ba47-b6e52377e718"},"vehicle_type_id":"4","last_reported":1747667500,"current_range_meters":1200,"station_id":"ce4bhgp2rcd13ifvqfd0","pricing_plan_id":"cebpf4jnsgd1na2vs0mg"},{"bike_id":"252dba7f-9bbd-48d2-a90d-e1c85b5e3d0c","system_id":"levelo_inurba_marseille","lat":43.26567,"lon":5.40325,"is_reserved":false,"is_disabled":true,"rental_uris":{"android":"levelo://app?vid=252dba7f-9bbd-48d2-a90d-e1c85b5e3d0c","ios":"levelo://app?vid=252dba7f-9bbd-48d2-a90d-e1c85b5e3d0c"},"vehicle_type_id":"4","last_reported":1747667500,"current_range_meters":1600,"station_id":"","pricing_plan_id":"cebpf4jnsgd1na2vs0mg"},{"bike_id":"43c8c8f6-55d9-44a1-834e-1efab870202b","system_id":"levelo_inurba_marseille","lat":43.29573,"lon":5.3673,"is_reserved":false,"is_disabled":true,"rental_uris":{"android":"levelo://app?vid=43c8c8f6-55d9-44a1-834e-1efab870202b","ios":"levelo://app?vid=43c8c8f6-55d9-44a1-834e-1efab870202b"},"vehicle_type_id":"4","last_reported":1747667500,"current_range_meters":2000,"station_id":"ce4bgph2rcd13ifvqc2g","pricing_plan_id":"cebpf4jnsgd1na2vs0mg"},{"bike_id":"cfd1a619-6dd5-470b-b026-6111f5c79650","system_id":"levelo_inurba_marseille","lat":43.28579,"lon":5.39494,"is_reserved":false,"is_disabled":true,"rental_uris":{"android":"levelo://app?vid=cfd1a619-6dd5-470b-b026-6111f5c79650","ios":"levelo://app?vid=cfd1a619-6dd5-470b-b026-6111f5c79650"},"vehicle_type_id":"4","last_reported":1747667500,"current_range_meters":2000,"station_id":"ce4bh292rcd13ifvqdg0","pricing_plan_id":"cebpf4jnsgd1na2vs0mg"},{"bike_id":"778c3e03-f491-4e32-8e0b-99ae1993817f","system_id":"levelo_inurba_marseille","lat":43.24187,"lon":5.39733,"is_reserved":false,"is_disabled":true,"rental_uris":{"android":"levelo://app?vid=778c3e03-f491-4e32-8e0b-99ae1993817f","ios":"levelo://app?vid=778c3e03-f491-4e32-8e0b-99ae1993817f"},"vehicle_type_id":"4","last_reported":1747667500,"current_range_meters":2000,"station_id":"ce4bhn12rcd13ifvqgpg","pricing_plan_id":"cebpf4jnsgd1na2vs0mg"},{"bike_id":"6a31c5c0-d893-4871-b8cf-9a50882ef177","system_id":"levelo_inurba_marseille","lat":43.29868,"lon":5.389,"is_reserved":false,"is_disabled":false,"rental_uris":{"android":"levelo://app?vid=6a31c5c0-d893-4871-b8cf-9a50882ef177","ios":"levelo://app?vid=6a31c5c0-d893-4871-b8cf-9a50882ef177"},"vehicle_type_id":"4","last_reported":1747667500,"current_range_meters":2800,"station_id":"ce4bh392rcd13ifvqdl0","pricing_plan_id":"cebpf4jnsgd1na2vs0mg"},{"bike_id":"1ef9344f-9c1a-410e-bf6e-03f9dc8de8db","system_id":"levelo_inurba_marseille","lat":43.29558,"lon":5.42296,"is_reserved":false,"is_disabled":false,"rental_uris":{"android":"levelo://app?vid=1ef9344f-9c1a-410e-bf6e-03f9dc8de8db","ios":"levelo://app?vid=1ef9344f-9c1a-410e-bf6e-03f9dc8de8db"},"vehicle_type_id":"4","last_reported":1747667500,"current_range_meters":2800,"station_id":"ce4bhph2rcd13ifvqhdg","pricing_plan_id":"cebpf4jnsgd1na2vs0mg"},{"bike_id":"c0db4030-ef30-480b-a735-af5435a471ed","system_id":"levelo_inurba_marseille","lat":43.27758,"lon":5.42698,"is_reserved":false,"is_disabled":false,"rental_uris":{"android":"levelo://app?vid=c0db4030-ef30-480b-a735-af5435a471ed","ios":"levelo://app?vid=c0db4030-ef30-480b-a735-af5435a471ed"},"vehicle_type_id":"4","last_reported":1747667500,"current_range_meters":3200,"station_id":"","pricing_plan_id":"cebpf4jnsgd1na2vs0mg"},{"bike_id":"0422c83c-e880-485e-8bbd-ecda44ad9c48","system_id":"levelo_inurba_marseille","lat":43.24805,"lon":5.37453,"is_reserved":false,"is_disabled":false,"rental_uris":{"android":"levelo://app?vid=0422c83c-e880-485e-8bbd-ecda44ad9c48","ios":"levelo://app?vid=0422c83c-e880-485e-8bbd-ecda44ad9c48"},"vehicle_type_id":"4","last_reported":1747667500,"current_range_meters":3200,"station_id":"ce4bhgh2rcd13ifvqfb0","pricing_plan_id":"cebpf4jnsgd1na2vs0mg"},{"bike_id":"da4b80b9-4a34-42ee-9063-43ec0dda6969","system_id":"levelo_inurba_marseille","lat":43.27057,"lon":5.40259,"is_reserved":false,"is_disabled":false,"rental_uris":{"android":"levelo://app?vid=da4b80b9-4a34-42ee-9063-43ec0dda6969","ios":"levelo://app?vid=da4b80b9-4a34-42ee-9063-43ec0dda6969"},"vehicle_type_id":"4","last_reported":1747667500,"current_range_meters":3200,"station_id":"ce4bhk92rcd13ifvqgc0","pricing_plan_id":"cebpf4jnsgd1na2vs0mg"},{"bike_id":"112e5ddd-ac92-4091-ac9c-ab3f3dd7bfcc","system_id":"levelo_inurba_marseille","lat":43.28447,"lon":5.39201,"is_reserved":false,"is_disabled":false,"rental_uris":{"android":"levelo://app?vid=112e5ddd-ac92-4091-ac9c-ab3f3dd7bfcc","ios":"levelo://app?vid=112e5ddd-ac92-4091-ac9c-ab3f3dd7bfcc"},"vehicle_type_id":"4","last_reported":1747667500,"current_range_meters":3200,"station_id":"ce4bhoh2rcd13ifvqh5g","pricing_plan_id":"cebpf4jnsgd1na2vs0mg"},{"bike_id":"cc4b27b8-848a-4e58-9c60-13735182b6f4","system_id":"levelo_inurba_marseille","lat":43.29555,"lon":5.42293,"is_reserved":false,"is_disabled":false,"rental_uris":{"android":"levelo://app?vid=cc4b27b8-848a-4e58-9c60-13735182b6f4","ios":"levelo://app?vid=cc4b27b8-848a-4e58-9c60-13735182b6f4"},"vehicle_type_id":"4","last_reported":1747667500,"current_range_meters":3200,"station_id":"ce4bhph2rcd13ifvqhdg","pricing_plan_id":"cebpf4jnsgd1na2vs0mg"},{"bike_id":"94fee3ab-be64-4e23-9cfa-9cb634d3343a","system_id":"levelo_inurba_marseille","lat":43.26551,"lon":5.37284,"is_reserved":false,"is_disabled":false,"rental_uris":{"android":"levelo://app?vid=94fee3ab-be64-4e23-9cfa-9cb634d3343a","ios":"levelo://app?vid=94fee3ab-be64-4e23-9cfa-9cb634d3343a"},"vehicle_type_id":"4","last_reported":1747667500,"current_range_meters":3600,"station_id":"ce4bhg12rcd13ifvqf70","pricing_plan_id":"cebpf4jnsgd1na2vs0mg"},{"bike_id":"d07bd0d2-88c9-4981-b465-ce588edc628d","system_id":"levelo_inurba_marseille","lat":43.26806,"lon":5.40269,"is_reserved":false,"is_disabled":false,"rental_uris":{"android":"levelo://app?vid=d07bd0d2-88c9-4981-b465-ce588edc628d","ios":"levelo://app?vid=d07bd0d2-88c9-4981-b465-ce588edc628d"},"vehicle_type_id":"4","last_reported":1747667500,"current_range_meters":3600,"station_id":"ce501612rcd8frsf0b60","pricing_plan_id":"cebpf4jnsgd1na2vs0mg"},{"bike_id":"a5e2e551-b82a-4277-897a-beda6d8da38d","system_id":"levelo_inurba_marseille","lat":43.29239,"lon":5.40959,"is_reserved":false,"is_disabled":false,"rental_uris":{"android":"levelo://app?vid=a5e2e551-b82a-4277-897a-beda6d8da38d","ios":"levelo://app?vid=a5e2e551-b82a-4277-897a-beda6d8da38d"},"vehicle_type_id":"4","last_reported":1747667500,"current_range_meters":4000,"station_id":"ce4bh192rcd13ifvqdc0","pricing_plan_id":"cebpf4jnsgd1na2vs0mg"},{"bike_id":"0d3aa0d9-4ad2-4509-9362-1cd1cb1e5a89","system_id":"levelo_inurba_marseille","lat":43.29551,"lon":5.39992,"is_reserved":false,"is_disabled":false,"rental_uris":{"android":"levelo://app?vid=0d3aa0d9-4ad2-4509-9362-1cd1cb1e5a89","ios":"levelo://app?vid=0d3aa0d9-4ad2-4509-9362-1cd1cb1e5a89"},"vehicle_type_id":"4","last_reported":1747667500,"current_range_meters":4000,"station_id":"ce4bh312rcd13ifvqdj0","pricing_plan_id":"cebpf4jnsgd1na2vs0mg"},{"bike_id":"195139fc-4cbd-4c8d-b22d-34fe02ac164f","system_id":"levelo_inurba_marseille","lat":43.27377,"lon":5.36265,"is_reserved":false,"is_disabled":false,"rental_uris":{"android":"levelo://app?vid=195139fc-4cbd-4c8d-b22d-34fe02ac164f","ios":"levelo://app?vid=195139fc-4cbd-4c8d-b22d-34fe02ac164f"},"vehicle_type_id":"4","last_reported":1747667500,"current_range_meters":4000,"station_id":"ce4bhbh2rcd13ifvqeo0","pricing_plan_id":"cebpf4jnsgd1na2vs0mg"},{"bike_id":"c4736f83-8ab4-43c5-9688-05cfe1930587","system_id":"levelo_inurba_marseille","lat":43.282715,"lon":5.35058,"is_reserved":false,"is_disabled":false,"rental_uris":{"android":"levelo://app?vid=c4736f83-8ab4-43c5-9688-05cfe1930587","ios":"levelo://app?vid=c4736f83-8ab4-43c5-9688-05cfe1930587"},"vehicle_type_id":"4","last_reported":1747667500,"current_range_meters":4000,"station_id":"ce4bhbp2rcd13ifvqerg","pricing_plan_id":"cebpf4jnsgd1na2vs0mg"},{"bike_id":"25efd7d8-fd8b-4c49-b03c-fe55321b94d4","system_id":"levelo_inurba_marseille","lat":43.30921,"lon":5.37284,"is_reserved":false,"is_disabled":false,"rental_uris":{"android":"levelo://app?vid=25efd7d8-fd8b-4c49-b03c-fe55321b94d4","ios":"levelo://app?vid=25efd7d8-fd8b-4c49-b03c-fe55321b94d4"},"vehicle_type_id":"4","last_reported":1747667500,"current_range_meters":4400,"station_id":"","pricing_plan_id":"cebpf4jnsgd1na2vs0mg"},{"bike_id":"14603e41-b2dd-4757-a53c-2e366aa4f983","system_id":"levelo_inurba_marseille","lat":43.26994,"lon":5.42825,"is_reserved":false,"is_disabled":false,"rental_uris":{"android":"levelo://app?vid=14603e41-b2dd-4757-a53c-2e366aa4f983","ios":"levelo://app?vid=14603e41-b2dd-4757-a53c-2e366aa4f983"},"vehicle_type_id":"4","last_reported":1747667500,"current_range_meters":4400,"station_id":"","pricing_plan_id":"cebpf4jnsgd1na2vs0mg"},{"bike_id":"07c884a5-e134-4b57-be56-06434a5d94df","system_id":"levelo_inurba_marseille","lat":43.31127,"lon":5.37802,"is_reserved":false,"is_disabled":false,"rental_uris":{"android":"levelo://app?vid=07c884a5-e134-4b57-be56-06434a5d94df","ios":"levelo://app?vid=07c884a5-e134-4b57-be56-06434a5d94df"},"vehicle_type_id":"4","last_reported":1747667500,"current_range_meters":4400,"station_id":"ce4bgt92rcd13ifvqcg0","pricing_plan_id":"cebpf4jnsgd1na2vs0mg"},{"bike_id":"f40652e2-30a0-431e-b1f1-4d9fe84a8149","system_id":"levelo_inurba_marseille","lat":43.27375,"lon":5.36256,"is_reserved":false,"is_disabled":false,"rental_uris":{"android":"levelo://app?vid=f40652e2-30a0-431e-b1f1-4d9fe84a8149","ios":"levelo://app?vid=f40652e2-30a0-431e-b1f1-4d9fe84a8149"},"vehicle_type_id":"4","last_reported":1747667500,"current_range_meters":4400,"station_id":"ce4bhbh2rcd13ifvqeo0","pricing_plan_id":"cebpf4jnsgd1na2vs0mg"},{"bike_id":"0fb02880-5c6e-4026-9e4a-07529c572b44","system_id":"levelo_inurba_marseille","lat":43.25506,"lon":5.37408,"is_reserved":false,"is_disabled":false,"rental_uris":{"android":"levelo://app?vid=0fb02880-5c6e-4026-9e4a-07529c572b44","ios":"levelo://app?vid=0fb02880-5c6e-4026-9e4a-07529c572b44"},"vehicle_type_id":"4","last_reported":1747667500,"current_range_meters":4800,"station_id":"","pricing_plan_id":"cebpf4jnsgd1na2vs0mg"},{"bike_id":"0a80dab0-019f-412e-9426-7c721bdddfca","system_id":"levelo_inurba_marseille","lat":43.2467,"lon":5.38153,"is_reserved":false,"is_disabled":false,"rental_uris":{"android":"levelo://app?vid=0a80dab0-019f-412e-9426-7c721bdddfca","ios":"levelo://app?vid=0a80dab0-019f-412e-9426-7c721bdddfca"},"vehicle_type_id":"4","last_reported":1747667500,"current_range_meters":4800,"station_id":"ce4bhih2rcd13ifvqfr0","pricing_plan_id":"cebpf4jnsgd1na2vs0mg"},{"bike_id":"bc053913-b082-4631-92b9-f81869eb4451","system_id":"levelo_inurba_marseille","lat":43.30431,"lon":5.38891,"is_reserved":false,"is_disabled":false,"rental_uris":{"android":"levelo://app?vid=bc053913-b082-4631-92b9-f81869eb4451","ios":"levelo://app?vid=bc053913-b082-4631-92b9-f81869eb4451"},"vehicle_type_id":"4","last_reported":1747667500,"current_range_meters":5600,"station_id":"ce4bgk12rcd13ifvqbi0","pricing_plan_id":"cebpf4jnsgd1na2vs0mg"},{"bike_id":"5d48e9e2-dc37-4366-a09e-ae7bd1f1522b","system_id":"levelo_inurba_marseille","lat":43.27374,"lon":5.36262,"is_reserved":false,"is_disabled":false,"rental_uris":{"android":"levelo://app?vid=5d48e9e2-dc37-4366-a09e-ae7bd1f1522b","ios":"levelo://app?vid=5d48e9e2-dc37-4366-a09e-ae7bd1f1522b"},"vehicle_type_id":"4","last_reported":1747667500,"current_range_meters":5600,"station_id":"ce4bhbh2rcd13ifvqeo0","pricing_plan_id":"cebpf4jnsgd1na2vs0mg"},{"bike_id":"eb5102c5-1213-472a-9a72-15519bb0f220","system_id":"levelo_inurba_marseille","lat":43.27376,"lon":5.36261,"is_reserved":false,"is_disabled":false,"rental_uris":{"android":"levelo://app?vid=eb5102c5-1213-472a-9a72-15519bb0f220","ios":"levelo://app?vid=eb5102c5-1213-472a-9a72-15519bb0f220"},"vehicle_type_id":"4","last_reported":1747667500,"current_range_meters":5600,"station_id":"ce4bhbh2rcd13ifvqeo0","pricing_plan_id":"cebpf4jnsgd1na2vs0mg"},{"bike_id":"1eaeaf63-f50b-447f-9e89-fd83fe146bc4","system_id":"levelo_inurba_marseille","lat":43.27431,"lon":5.39427,"is_reserved":false,"is_disabled":false,"rental_uris":{"android":"levelo://app?vid=1eaeaf63-f50b-447f-9e89-fd83fe146bc4","ios":"levelo://app?vid=1eaeaf63-f50b-447f-9e89-fd83fe146bc4"},"vehicle_type_id":"4","last_reported":1747667500,"current_range_meters":5600,"station_id":"ce4bhdp2rcd13ifvqf20","pricing_plan_id":"cebpf4jnsgd1na2vs0mg"},{"bike_id":"0552e7f5-65e9-4147-bbe2-5c6025ab769e","system_id":"levelo_inurba_marseille","lat":43.2316,"lon":5.43718,"is_reserved":false,"is_disabled":false,"rental_uris":{"android":"levelo://app?vid=0552e7f5-65e9-4147-bbe2-5c6025ab769e","ios":"levelo://app?vid=0552e7f5-65e9-4147-bbe2-5c6025ab769e"},"vehicle_type_id":"4","last_reported":1747667500,"current_range_meters":5600,"station_id":"ce4bhmp2rcd13ifvqgog","pricing_plan_id":"cebpf4jnsgd1na2vs0mg"},{"bike_id":"6035c4ef-0edf-4847-9c02-e5868b6dd3d2","system_id":"levelo_inurba_marseille","lat":43.290736,"lon":5.371557,"is_reserved":false,"is_disabled":false,"rental_uris":{"android":"levelo://app?vid=6035c4ef-0edf-4847-9c02-e5868b6dd3d2","ios":"levelo://app?vid=6035c4ef-0edf-4847-9c02-e5868b6dd3d2"},"vehicle_type_id":"4","last_reported":1747667500,"current_range_meters":6000,"station_id":"ce4bh5p2rcd13ifvqe4g","pricing_plan_id":"cebpf4jnsgd1na2vs0mg"},{"bike_id":"93adb21e-0831-48f3-8e4e-6045d2a8de73","system_id":"levelo_inurba_marseille","lat":43.24676,"lon":5.38179,"is_reserved":false,"is_disabled":false,"rental_uris":{"android":"levelo://app?vid=93adb21e-0831-48f3-8e4e-6045d2a8de73","ios":"levelo://app?vid=93adb21e-0831-48f3-8e4e-6045d2a8de73"},"vehicle_type_id":"4","last_reported":1747667500,"current_range_meters":6000,"station_id":"ce4bhih2rcd13ifvqfr0","pricing_plan_id":"cebpf4jnsgd1na2vs0mg"},{"bike_id":"153cd2bc-bbd6-41db-bd30-cd66cdff651d","system_id":"levelo_inurba_marseille","lat":43.27058,"lon":5.40272,"is_reserved":false,"is_disabled":false,"rental_uris":{"android":"levelo://app?vid=153cd2bc-bbd6-41db-bd30-cd66cdff651d","ios":"levelo://app?vid=153cd2bc-bbd6-41db-bd30-cd66cdff651d"},"vehicle_type_id":"4","last_reported":1747667500,"current_range_meters":6000,"station_id":"ce4bhk92rcd13ifvqgc0","pricing_plan_id":"cebpf4jnsgd1na2vs0mg"},{"bike_id":"92bdc761-4693-4b22-ad3b-3f921db33d6c","system_id":"levelo_inurba_marseille","lat":43.2998,"lon":5.37189,"is_reserved":false,"is_disabled":false,"rental_uris":{"android":"levelo://app?vid=92bdc761-4693-4b22-ad3b-3f921db33d6c","ios":"levelo://app?vid=92bdc761-4693-4b22-ad3b-3f921db33d6c"},"vehicle_type_id":"4","last_reported":1747667500,"current_range_meters":6400,"station_id":"ce4bgr92rcd13ifvqc7g","pricing_plan_id":"cebpf4jnsgd1na2vs0mg"},{"bike_id":"1b003239-345a-45a4-b923-7ecc8e00e765","system_id":"levelo_inurba_marseille","lat":43.27918,"lon":5.3959,"is_reserved":false,"is_disabled":false,"rental_uris":{"android":"levelo://app?vid=1b003239-345a-45a4-b923-7ecc8e00e765","ios":"levelo://app?vid=1b003239-345a-45a4-b923-7ecc8e00e765"},"vehicle_type_id":"4","last_reported":1747667500,"current_range_meters":6400,"station_id":"ce4bhf92rcd13ifvqf40","pricing_plan_id":"cebpf4jnsgd1na2vs0mg"},{"bike_id":"12146428-9815-4f8a-a46c-669dfafb0149","system_id":"levelo_inurba_marseille","lat":43.2465,"lon":5.38893,"is_reserved":false,"is_disabled":false,"rental_uris":{"android":"levelo://app?vid=12146428-9815-4f8a-a46c-669dfafb0149","ios":"levelo://app?vid=12146428-9815-4f8a-a46c-669dfafb0149"},"vehicle_type_id":"4","last_reported":1747667500,"current_range_meters":6400,"station_id":"ce4bhg12rcd13ifvqf60","pricing_plan_id":"cebpf4jnsgd1na2vs0mg"},{"bike_id":"8372d15c-478f-4697-b890-7598b8e11b2c","system_id":"levelo_inurba_marseille","lat":43.304182,"lon":5.412787,"is_reserved":false,"is_disabled":false,"rental_uris":{"android":"levelo://app?vid=8372d15c-478f-4697-b890-7598b8e11b2c","ios":"levelo://app?vid=8372d15c-478f-4697-b890-7598b8e11b2c"},"vehicle_type_id":"4","last_reported":1747667500,"current_range_meters":6400,"station_id":"ce4bhop2rcd13ifvqh8g","pricing_plan_id":"cebpf4jnsgd1na2vs0mg"},{"bike_id":"2e68e997-6311-4229-a825-25836df505ad","system_id":"levelo_inurba_marseille","lat":43.30544,"lon":5.36542,"is_reserved":false,"is_disabled":false,"rental_uris":{"android":"levelo://app?vid=2e68e997-6311-4229-a825-25836df505ad","ios":"levelo://app?vid=2e68e997-6311-4229-a825-25836df505ad"},"vehicle_type_id":"4","last_reported":1747667500,"current_range_meters":6800,"station_id":"ce4bgs12rcd13ifvqcag","pricing_plan_id":"cebpf4jnsgd1na2vs0mg"},{"bike_id":"736dc4d3-92c3-4138-980a-58a483bd7cf6","system_id":"levelo_inurba_marseille","lat":43.30141,"lon":5.37427,"is_reserved":false,"is_disabled":false,"rental_uris":{"android":"levelo://app?vid=736dc4d3-92c3-4138-980a-58a483bd7cf6","ios":"levelo://app?vid=736dc4d3-92c3-4138-980a-58a483bd7cf6"},"vehicle_type_id":"4","last_reported":1747667500,"current_range_meters":6800,"station_id":"ce4bgs92rcd13ifvqcc0","pricing_plan_id":"cebpf4jnsgd1na2vs0mg"},{"bike_id":"cca6ab68-0e77-4554-927d-e05ca1ccbcd2","system_id":"levelo_inurba_marseille","lat":43.246776,"lon":5.381803,"is_reserved":false,"is_disabled":false,"rental_uris":{"android":"levelo://app?vid=cca6ab68-0e77-4554-927d-e05ca1ccbcd2","ios":"levelo://app?vid=cca6ab68-0e77-4554-927d-e05ca1ccbcd2"},"vehicle_type_id":"4","last_reported":1747667500,"current_range_meters":6800,"station_id":"ce4bhih2rcd13ifvqfr0","pricing_plan_id":"cebpf4jnsgd1na2vs0mg"},{"bike_id":"0eb7f958-813c-4599-a947-cc188a070eb3","system_id":"levelo_inurba_marseille","lat":43.25107,"lon":5.40325,"is_reserved":false,"is_disabled":false,"rental_uris":{"android":"levelo://app?vid=0eb7f958-813c-4599-a947-cc188a070eb3","ios":"levelo://app?vid=0eb7f958-813c-4599-a947-cc188a070eb3"},"vehicle_type_id":"4","last_reported":1747667500,"current_range_meters":6800,"station_id":"ce4bhlh2rcd13ifvqgig","pricing_plan_id":"cebpf4jnsgd1na2vs0mg"},{"bike_id":"10050242-63ad-40a3-ad0e-fe0a1bf957e2","system_id":"levelo_inurba_marseille","lat":43.26555,"lon":5.37285,"is_reserved":false,"is_disabled":false,"rental_uris":{"android":"levelo://app?vid=10050242-63ad-40a3-ad0e-fe0a1bf957e2","ios":"levelo://app?vid=10050242-63ad-40a3-ad0e-fe0a1bf957e2"},"vehicle_type_id":"4","last_reported":1747667500,"current_range_meters":7200,"station_id":"ce4bhg12rcd13ifvqf70","pricing_plan_id":"cebpf4jnsgd1na2vs0mg"},{"bike_id":"7c2f31a5-29a4-4b38-92a3-a37e6e9acbd5","system_id":"levelo_inurba_marseille","lat":43.25728,"lon":5.41053,"is_reserved":false,"is_disabled":false,"rental_uris":{"android":"levelo://app?vid=7c2f31a5-29a4-4b38-92a3-a37e6e9acbd5","ios":"levelo://app?vid=7c2f31a5-29a4-4b38-92a3-a37e6e9acbd5"},"vehicle_type_id":"4","last_reported":1747667500,"current_range_meters":7200,"station_id":"ce4bhkp2rcd13ifvqgd0","pricing_plan_id":"cebpf4jnsgd1na2vs0mg"},{"bike_id":"6d3d26bf-86d9-4e7a-8b39-6cbfd5b00bfa","system_id":"levelo_inurba_marseille","lat":43.29915,"lon":5.37481,"is_reserved":false,"is_disabled":false,"rental_uris":{"android":"levelo://app?vid=6d3d26bf-86d9-4e7a-8b39-6cbfd5b00bfa","ios":"levelo://app?vid=6d3d26bf-86d9-4e7a-8b39-6cbfd5b00bfa"},"vehicle_type_id":"4","last_reported":1747667500,"current_range_meters":8000,"station_id":"ce4bgjh2rcd13ifvqbg0","pricing_plan_id":"cebpf4jnsgd1na2vs0mg"},{"bike_id":"54c6b554-bf2f-41a2-82d1-4ba9585da37c","system_id":"levelo_inurba_marseille","lat":43.30191,"lon":5.36622,"is_reserved":false,"is_disabled":false,"rental_uris":{"android":"levelo://app?vid=54c6b554-bf2f-41a2-82d1-4ba9585da37c","ios":"levelo://app?vid=54c6b554-bf2f-41a2-82d1-4ba9585da37c"},"vehicle_type_id":"4","last_reported":1747667500,"current_range_meters":8000,"station_id":"ce4bgrh2rcd13ifvqc8g","pricing_plan_id":"cebpf4jnsgd1na2vs0mg"},{"bike_id":"cde7e66e-ce29-42a6-9356-65ed12e539a7","system_id":"levelo_inurba_marseille","lat":43.27382,"lon":5.36262,"is_reserved":false,"is_disabled":false,"rental_uris":{"android":"levelo://app?vid=cde7e66e-ce29-42a6-9356-65ed12e539a7","ios":"levelo://app?vid=cde7e66e-ce29-42a6-9356-65ed12e539a7"},"vehicle_type_id":"4","last_reported":1747667500,"current_range_meters":8000,"station_id":"ce4bhbh2rcd13ifvqeo0","pricing_plan_id":"cebpf4jnsgd1na2vs0mg"},{"bike_id":"d0658014-ae79-4072-ab98-5fe628ae2900","system_id":"levelo_inurba_marseille","lat":43.27376,"lon":5.36255,"is_reserved":false,"is_disabled":false,"rental_uris":{"android":"levelo://app?vid=d0658014-ae79-4072-ab98-5fe628ae2900","ios":"levelo://app?vid=d0658014-ae79-4072-ab98-5fe628ae2900"},"vehicle_type_id":"4","last_reported":1747667500,"current_range_meters":8000,"station_id":"ce4bhbh2rcd13ifvqeo0","pricing_plan_id":"cebpf4jnsgd1na2vs0mg"},{"bike_id":"97b70cf9-8044-48ed-93a1-0d759ff32bc0","system_id":"levelo_inurba_marseille","lat":43.2655,"lon":5.37313,"is_reserved":false,"is_disabled":false,"rental_uris":{"android":"levelo://app?vid=97b70cf9-8044-48ed-93a1-0d759ff32bc0","ios":"levelo://app?vid=97b70cf9-8044-48ed-93a1-0d759ff32bc0"},"vehicle_type_id":"4","last_reported":1747667500,"current_range_meters":8000,"station_id":"ce4bhg12rcd13ifvqf70","pricing_plan_id":"cebpf4jnsgd1na2vs0mg"},{"bike_id":"834b8d58-841d-4144-bf50-38272113ae3b","system_id":"levelo_inurba_marseille","lat":43.26208,"lon":5.37444,"is_reserved":false,"is_disabled":false,"rental_uris":{"android":"levelo://app?vid=834b8d58-841d-4144-bf50-38272113ae3b","ios":"levelo://app?vid=834b8d58-841d-4144-bf50-38272113ae3b"},"vehicle_type_id":"4","last_reported":1747667500,"current_range_meters":8000,"station_id":"ce4bhgp2rcd13ifvqfc0","pricing_plan_id":"cebpf4jnsgd1na2vs0mg"},{"bike_id":"138efd0e-f712-4d55-a504-261022078e91","system_id":"levelo_inurba_marseille","lat":43.25714,"lon":5.41132,"is_reserved":false,"is_disabled":false,"rental_uris":{"android":"levelo://app?vid=138efd0e-f712-4d55-a504-261022078e91","ios":"levelo://app?vid=138efd0e-f712-4d55-a504-261022078e91"},"vehicle_type_id":"4","last_reported":1747667500,"current_range_meters":8000,"station_id":"ce4bhkp2rcd13ifvqgd0","pricing_plan_id":"cebpf4jnsgd1na2vs0mg"},{"bike_id":"3b807369-3382-4986-ac85-4b14fe1e8a09","system_id":"levelo_inurba_marseille","lat":43.29283,"lon":5.38508,"is_reserved":false,"is_disabled":false,"rental_uris":{"android":"levelo://app?vid=3b807369-3382-4986-ac85-4b14fe1e8a09","ios":"levelo://app?vid=3b807369-3382-4986-ac85-4b14fe1e8a09"},"vehicle_type_id":"4","last_reported":1747667500,"current_range_meters":8400,"station_id":"","pricing_plan_id":"cebpf4jnsgd1na2vs0mg"},{"bike_id":"2639a0fb-c995-493c-b92c-6478c39d5c32","system_id":"levelo_inurba_marseille","lat":43.31318,"lon":5.39702,"is_reserved":false,"is_disabled":false,"rental_uris":{"android":"levelo://app?vid=2639a0fb-c995-493c-b92c-6478c39d5c32","ios":"levelo://app?vid=2639a0fb-c995-493c-b92c-6478c39d5c32"},"vehicle_type_id":"4","last_reported":1747667500,"current_range_meters":8400,"station_id":"ce4bgvp2rcd13ifvqcu0","pricing_plan_id":"cebpf4jnsgd1na2vs0mg"},{"bike_id":"99a70d7f-b9e2-414a-9098-9652799db392","system_id":"levelo_inurba_marseille","lat":43.29095,"lon":5.38155,"is_reserved":false,"is_disabled":false,"rental_uris":{"android":"levelo://app?vid=99a70d7f-b9e2-414a-9098-9652799db392","ios":"levelo://app?vid=99a70d7f-b9e2-414a-9098-9652799db392"},"vehicle_type_id":"4","last_reported":1747667500,"current_range_meters":8400,"station_id":"ce4bh512rcd13ifvqe2g","pricing_plan_id":"cebpf4jnsgd1na2vs0mg"},{"bike_id":"de339a91-abc1-4528-9feb-4a6f27444742","system_id":"levelo_inurba_marseille","lat":43.2969,"lon":5.36604,"is_reserved":false,"is_disabled":false,"rental_uris":{"android":"levelo://app?vid=de339a91-abc1-4528-9feb-4a6f27444742","ios":"levelo://app?vid=de339a91-abc1-4528-9feb-4a6f27444742"},"vehicle_type_id":"4","last_reported":1747667500,"current_range_meters":8800,"station_id":"ce4bgn12rcd13ifvqbt0","pricing_plan_id":"cebpf4jnsgd1na2vs0mg"},{"bike_id":"57d868ee-ea14-4118-8093-254181b25d01","system_id":"levelo_inurba_marseille","lat":43.27371,"lon":5.36257,"is_reserved":false,"is_disabled":false,"rental_uris":{"android":"levelo://app?vid=57d868ee-ea14-4118-8093-254181b25d01","ios":"levelo://app?vid=57d868ee-ea14-4118-8093-254181b25d01"},"vehicle_type_id":"4","last_reported":1747667500,"current_range_meters":8800,"station_id":"ce4bhbh2rcd13ifvqeo0","pricing_plan_id":"cebpf4jnsgd1na2vs0mg"},{"bike_id":"d9090cda-5b81-447f-829a-dd86382e9b77","system_id":"levelo_inurba_marseille","lat":43.27371,"lon":5.36262,"is_reserved":false,"is_disabled":false,"rental_uris":{"android":"levelo://app?vid=d9090cda-5b81-447f-829a-dd86382e9b77","ios":"levelo://app?vid=d9090cda-5b81-447f-829a-dd86382e9b77"},"vehicle_type_id":"4","last_reported":1747667500,"current_range_meters":8800,"station_id":"ce4bhbh2rcd13ifvqeo0","pricing_plan_id":"cebpf4jnsgd1na2vs0mg"},{"bike_id":"1251f3e6-f78a-418d-9e0a-7474b2b1d8ac","system_id":"levelo_inurba_marseille","lat":43.25895,"lon":5.40843,"is_reserved":false,"is_disabled":false,"rental_uris":{"android":"levelo://app?vid=1251f3e6-f78a-418d-9e0a-7474b2b1d8ac","ios":"levelo://app?vid=1251f3e6-f78a-418d-9e0a-7474b2b1d8ac"},"vehicle_type_id":"4","last_reported":1747667500,"current_range_meters":9200,"station_id":"","pricing_plan_id":"cebpf4jnsgd1na2vs0mg"},{"bike_id":"88a269df-9578-47ea-8604-85c4657cde71","system_id":"levelo_inurba_marseille","lat":43.28443,"lon":5.37468,"is_reserved":false,"is_disabled":false,"rental_uris":{"android":"levelo://app?vid=88a269df-9578-47ea-8604-85c4657cde71","ios":"levelo://app?vid=88a269df-9578-47ea-8604-85c4657cde71"},"vehicle_type_id":"4","last_reported":1747667500,"current_range_meters":9200,"station_id":"","pricing_plan_id":"cebpf4jnsgd1na2vs0mg"},{"bike_id":"a3a920aa-37ae-4f36-99e8-415e5c929461","system_id":"levelo_inurba_marseille","lat":43.284149,"lon":5.349795,"is_reserved":false,"is_disabled":false,"rental_uris":{"android":"levelo://app?vid=a3a920aa-37ae-4f36-99e8-415e5c929461","ios":"levelo://app?vid=a3a920aa-37ae-4f36-99e8-415e5c929461"},"vehicle_type_id":"4","last_reported":1747667500,"current_range_meters":9200,"station_id":"ce4bhbh2rcd13ifvqepg","pricing_plan_id":"cebpf4jnsgd1na2vs0mg"},{"bike_id":"faf131ab-4341-4f76-bd17-85aaf1a23e25","system_id":"levelo_inurba_marseille","lat":43.27168,"lon":5.40986,"is_reserved":false,"is_disabled":false,"rental_uris":{"android":"levelo://app?vid=faf131ab-4341-4f76-bd17-85aaf1a23e25","ios":"levelo://app?vid=faf131ab-4341-4f76-bd17-85aaf1a23e25"},"vehicle_type_id":"4","last_reported":1747667500,"current_range_meters":9200,"station_id":"ce4bhl12rcd13ifvqgf0","pricing_plan_id":"cebpf4jnsgd1na2vs0mg"},{"bike_id":"d233ed6c-21ce-435c-adcc-f392b8338a44","system_id":"levelo_inurba_marseille","lat":43.3059,"lon":5.37219,"is_reserved":false,"is_disabled":false,"rental_uris":{"android":"levelo://app?vid=d233ed6c-21ce-435c-adcc-f392b8338a44","ios":"levelo://app?vid=d233ed6c-21ce-435c-adcc-f392b8338a44"},"vehicle_type_id":"4","last_reported":1747667500,"current_range_meters":9600,"station_id":"ce4bgqh2rcd13ifvqc4g","pricing_plan_id":"cebpf4jnsgd1na2vs0mg"},{"bike_id":"fe5f4ae0-5b93-433e-bb52-f13f56f9a1a9","system_id":"levelo_inurba_marseille","lat":43.30784,"lon":5.3766,"is_reserved":false,"is_disabled":false,"rental_uris":{"android":"levelo://app?vid=fe5f4ae0-5b93-433e-bb52-f13f56f9a1a9","ios":"levelo://app?vid=fe5f4ae0-5b93-433e-bb52-f13f56f9a1a9"},"vehicle_type_id":"4","last_reported":1747667500,"current_range_meters":9600,"station_id":"ce4bgv92rcd13ifvqcq0","pricing_plan_id":"cebpf4jnsgd1na2vs0mg"},{"bike_id":"341b073e-0cc3-4810-ab3e-c86591a0a258","system_id":"levelo_inurba_marseille","lat":43.28616,"lon":5.35105,"is_reserved":false,"is_disabled":false,"rental_uris":{"android":"levelo://app?vid=341b073e-0cc3-4810-ab3e-c86591a0a258","ios":"levelo://app?vid=341b073e-0cc3-4810-ab3e-c86591a0a258"},"vehicle_type_id":"4","last_reported":1747667500,"current_range_meters":9600,"station_id":"ce4bhch2rcd13ifvqeug","pricing_plan_id":"cebpf4jnsgd1na2vs0mg"},{"bike_id":"053395f6-048b-4c88-8d0f-1e4b37d9b9f8","system_id":"levelo_inurba_marseille","lat":43.26214,"lon":5.37442,"is_reserved":false,"is_disabled":false,"rental_uris":{"android":"levelo://app?vid=053395f6-048b-4c88-8d0f-1e4b37d9b9f8","ios":"levelo://app?vid=053395f6-048b-4c88-8d0f-1e4b37d9b9f8"},"vehicle_type_id":"4","last_reported":1747667500,"current_range_meters":9600,"station_id":"ce4bhgp2rcd13ifvqfc0","pricing_plan_id":"cebpf4jnsgd1na2vs0mg"},{"bike_id":"58ad445d-65e4-48be-acfd-b0b6ce71d615","system_id":"levelo_inurba_marseille","lat":43.25002,"lon":5.38932,"is_reserved":false,"is_disabled":false,"rental_uris":{"android":"levelo://app?vid=58ad445d-65e4-48be-acfd-b0b6ce71d615","ios":"levelo://app?vid=58ad445d-65e4-48be-acfd-b0b6ce71d615"},"vehicle_type_id":"4","last_reported":1747667500,"current_range_meters":9600,"station_id":"ce4bhgp2rcd13ifvqfd0","pricing_plan_id":"cebpf4jnsgd1na2vs0mg"},{"bike_id":"06e452b4-00bd-4194-8cf0-97e51cbae02e","system_id":"levelo_inurba_marseille","lat":43.23186,"lon":5.39985,"is_reserved":false,"is_disabled":false,"rental_uris":{"android":"levelo://app?vid=06e452b4-00bd-4194-8cf0-97e51cbae02e","ios":"levelo://app?vid=06e452b4-00bd-4194-8cf0-97e51cbae02e"},"vehicle_type_id":"4","last_reported":1747667500,"current_range_meters":9600,"station_id":"ce4bhn12rcd13ifvqgqg","pricing_plan_id":"cebpf4jnsgd1na2vs0mg"},{"bike_id":"57d49cee-197d-434e-8012-8c8b17132997","system_id":"levelo_inurba_marseille","lat":43.323414,"lon":5.406189,"is_reserved":false,"is_disabled":false,"rental_uris":{"android":"levelo://app?vid=57d49cee-197d-434e-8012-8c8b17132997","ios":"levelo://app?vid=57d49cee-197d-434e-8012-8c8b17132997"},"vehicle_type_id":"4","last_reported":1747667500,"current_range_meters":9600,"station_id":"ce4bhq92rcd13ifvqhjg","pricing_plan_id":"cebpf4jnsgd1na2vs0mg"},{"bike_id":"ebdd8141-e604-4334-92f4-60291059a3ab","system_id":"levelo_inurba_marseille","lat":43.30946,"lon":5.39019,"is_reserved":false,"is_disabled":false,"rental_uris":{"android":"levelo://app?vid=ebdd8141-e604-4334-92f4-60291059a3ab","ios":"levelo://app?vid=ebdd8141-e604-4334-92f4-60291059a3ab"},"vehicle_type_id":"4","last_reported":1747667500,"current_range_meters":10000,"station_id":"ce4bgup2rcd13ifvqco0","pricing_plan_id":"cebpf4jnsgd1na2vs0mg"},{"bike_id":"15fff82b-c6ef-4c00-9b55-679e45bfa145","system_id":"levelo_inurba_marseille","lat":43.29009,"lon":5.35616,"is_reserved":false,"is_disabled":false,"rental_uris":{"android":"levelo://app?vid=15fff82b-c6ef-4c00-9b55-679e45bfa145","ios":"levelo://app?vid=15fff82b-c6ef-4c00-9b55-679e45bfa145"},"vehicle_type_id":"4","last_reported":1747667500,"current_range_meters":10000,"station_id":"ce4bhb92rcd13ifvqen0","pricing_plan_id":"cebpf4jnsgd1na2vs0mg"},{"bike_id":"dbf8222a-eea0-42f0-80c2-a4791ac4ed58","system_id":"levelo_inurba_marseille","lat":43.25041,"lon":5.38797,"is_reserved":false,"is_disabled":false,"rental_uris":{"android":"levelo://app?vid=dbf8222a-eea0-42f0-80c2-a4791ac4ed58","ios":"levelo://app?vid=dbf8222a-eea0-42f0-80c2-a4791ac4ed58"},"vehicle_type_id":"4","last_reported":1747667500,"current_range_meters":10000,"station_id":"ce4bhgp2rcd13ifvqfd0","pricing_plan_id":"cebpf4jnsgd1na2vs0mg"},{"bike_id":"ffe6d238-6026-4e0e-a599-949c46ef6d5a","system_id":"levelo_inurba_marseille","lat":43.25142,"lon":5.40367,"is_reserved":false,"is_disabled":false,"rental_uris":{"android":"levelo://app?vid=ffe6d238-6026-4e0e-a599-949c46ef6d5a","ios":"levelo://app?vid=ffe6d238-6026-4e0e-a599-949c46ef6d5a"},"vehicle_type_id":"4","last_reported":1747667500,"current_range_meters":10000,"station_id":"ce4bhlh2rcd13ifvqgig","pricing_plan_id":"cebpf4jnsgd1na2vs0mg"},{"bike_id":"bcbdbd69-7be8-42f8-a855-a4358565de8f","system_id":"levelo_inurba_marseille","lat":43.277327,"lon":5.413923,"is_reserved":false,"is_disabled":false,"rental_uris":{"android":"levelo://app?vid=bcbdbd69-7be8-42f8-a855-a4358565de8f","ios":"levelo://app?vid=bcbdbd69-7be8-42f8-a855-a4358565de8f"},"vehicle_type_id":"4","last_reported":1747667500,"current_range_meters":10800,"station_id":"","pricing_plan_id":"cebpf4jnsgd1na2vs0mg"},{"bike_id":"23dfe936-3909-46fc-b2ab-2edc04e02e2d","system_id":"levelo_inurba_marseille","lat":43.30303,"lon":5.3691,"is_reserved":false,"is_disabled":false,"rental_uris":{"android":"levelo://app?vid=23dfe936-3909-46fc-b2ab-2edc04e02e2d","ios":"levelo://app?vid=23dfe936-3909-46fc-b2ab-2edc04e02e2d"},"vehicle_type_id":"4","last_reported":1747667500,"current_range_meters":10800,"station_id":"ce4bgqh2rcd13ifvqc5g","pricing_plan_id":"cebpf4jnsgd1na2vs0mg"},{"bike_id":"e4ba76dd-5c80-435b-a504-91a141cf3345","system_id":"levelo_inurba_marseille","lat":43.29514,"lon":5.39396,"is_reserved":false,"is_disabled":false,"rental_uris":{"android":"levelo://app?vid=e4ba76dd-5c80-435b-a504-91a141cf3345","ios":"levelo://app?vid=e4ba76dd-5c80-435b-a504-91a141cf3345"},"vehicle_type_id":"4","last_reported":1747667500,"current_range_meters":10800,"station_id":"ce4bh292rcd13ifvqdf0","pricing_plan_id":"cebpf4jnsgd1na2vs0mg"},{"bike_id":"fef1c21d-9073-49d2-b566-86d9c97c0c37","system_id":"levelo_inurba_marseille","lat":43.284255,"lon":5.349815,"is_reserved":false,"is_disabled":false,"rental_uris":{"android":"levelo://app?vid=fef1c21d-9073-49d2-b566-86d9c97c0c37","ios":"levelo://app?vid=fef1c21d-9073-49d2-b566-86d9c97c0c37"},"vehicle_type_id":"4","last_reported":1747667500,"current_range_meters":10800,"station_id":"ce4bhbh2rcd13ifvqepg","pricing_plan_id":"cebpf4jnsgd1na2vs0mg"},{"bike_id":"09aab69e-ef44-48ca-8d46-8c5e932edf24","system_id":"levelo_inurba_marseille","lat":43.24808,"lon":5.37454,"is_reserved":false,"is_disabled":false,"rental_uris":{"android":"levelo://app?vid=09aab69e-ef44-48ca-8d46-8c5e932edf24","ios":"levelo://app?vid=09aab69e-ef44-48ca-8d46-8c5e932edf24"},"vehicle_type_id":"4","last_reported":1747667500,"current_range_meters":10800,"station_id":"ce4bhgh2rcd13ifvqfb0","pricing_plan_id":"cebpf4jnsgd1na2vs0mg"},{"bike_id":"a19a4a78-3370-4494-b809-5c1f7a787236","system_id":"levelo_inurba_marseille","lat":43.2587,"lon":5.39894,"is_reserved":false,"is_disabled":false,"rental_uris":{"android":"levelo://app?vid=a19a4a78-3370-4494-b809-5c1f7a787236","ios":"levelo://app?vid=a19a4a78-3370-4494-b809-5c1f7a787236"},"vehicle_type_id":"4","last_reported":1747667500,"current_range_meters":10800,"station_id":"ce4bhl92rcd13ifvqghg","pricing_plan_id":"cebpf4jnsgd1na2vs0mg"},{"bike_id":"41d6d43b-cdd6-43a9-a37f-11682e05448d","system_id":"levelo_inurba_marseille","lat":43.26804,"lon":5.40259,"is_reserved":false,"is_disabled":false,"rental_uris":{"android":"levelo://app?vid=41d6d43b-cdd6-43a9-a37f-11682e05448d","ios":"levelo://app?vid=41d6d43b-cdd6-43a9-a37f-11682e05448d"},"vehicle_type_id":"4","last_reported":1747667500,"current_range_meters":10800,"station_id":"ce501612rcd8frsf0b60","pricing_plan_id":"cebpf4jnsgd1na2vs0mg"},{"bike_id":"55b09823-bc03-4f59-bf57-da5b4848204d","system_id":"levelo_inurba_marseille","lat":43.30888,"lon":5.37199,"is_reserved":false,"is_disabled":false,"rental_uris":{"android":"levelo://app?vid=55b09823-bc03-4f59-bf57-da5b4848204d","ios":"levelo://app?vid=55b09823-bc03-4f59-bf57-da5b4848204d"},"vehicle_type_id":"4","last_reported":1747667500,"current_range_meters":11200,"station_id":"ce4bguh2rcd13ifvqckg","pricing_plan_id":"cebpf4jnsgd1na2vs0mg"},{"bike_id":"142867a9-9c2a-4f2b-bea8-bffaf3ba87f4","system_id":"levelo_inurba_marseille","lat":43.280989,"lon":5.378363,"is_reserved":false,"is_disabled":false,"rental_uris":{"android":"levelo://app?vid=142867a9-9c2a-4f2b-bea8-bffaf3ba87f4","ios":"levelo://app?vid=142867a9-9c2a-4f2b-bea8-bffaf3ba87f4"},"vehicle_type_id":"4","last_reported":1747667500,"current_range_meters":11200,"station_id":"ce4bha12rcd13ifvqee0","pricing_plan_id":"cebpf4jnsgd1na2vs0mg"},{"bike_id":"1781678f-9f63-4862-9053-a58939843977","system_id":"levelo_inurba_marseille","lat":43.27379,"lon":5.362657,"is_reserved":false,"is_disabled":false,"rental_uris":{"android":"levelo://app?vid=1781678f-9f63-4862-9053-a58939843977","ios":"levelo://app?vid=1781678f-9f63-4862-9053-a58939843977"},"vehicle_type_id":"4","last_reported":1747667500,"current_range_meters":11200,"station_id":"ce4bhbh2rcd13ifvqeo0","pricing_plan_id":"cebpf4jnsgd1na2vs0mg"},{"bike_id":"53c2b5c2-5264-4b71-80c7-781eafa2b9e5","system_id":"levelo_inurba_marseille","lat":43.27913,"lon":5.39575,"is_reserved":false,"is_disabled":false,"rental_uris":{"android":"levelo://app?vid=53c2b5c2-5264-4b71-80c7-781eafa2b9e5","ios":"levelo://app?vid=53c2b5c2-5264-4b71-80c7-781eafa2b9e5"},"vehicle_type_id":"4","last_reported":1747667500,"current_range_meters":11200,"station_id":"ce4bhf92rcd13ifvqf40","pricing_plan_id":"cebpf4jnsgd1na2vs0mg"},{"bike_id":"46fbcd8e-7e54-4205-ac61-6f9a83720d7e","system_id":"levelo_inurba_marseille","lat":43.27915,"lon":5.39576,"is_reserved":false,"is_disabled":false,"rental_uris":{"android":"levelo://app?vid=46fbcd8e-7e54-4205-ac61-6f9a83720d7e","ios":"levelo://app?vid=46fbcd8e-7e54-4205-ac61-6f9a83720d7e"},"vehicle_type_id":"4","last_reported":1747667500,"current_range_meters":11200,"station_id":"ce4bhf92rcd13ifvqf40","pricing_plan_id":"cebpf4jnsgd1na2vs0mg"},{"bike_id":"1304491c-9598-4f85-b166-545686317b13","system_id":"levelo_inurba_marseille","lat":43.23144,"lon":5.43719,"is_reserved":false,"is_disabled":false,"rental_uris":{"android":"levelo://app?vid=1304491c-9598-4f85-b166-545686317b13","ios":"levelo://app?vid=1304491c-9598-4f85-b166-545686317b13"},"vehicle_type_id":"4","last_reported":1747667500,"current_range_meters":11200,"station_id":"ce4bhmp2rcd13ifvqgog","pricing_plan_id":"cebpf4jnsgd1na2vs0mg"},{"bike_id":"268ca442-71ef-4962-a323-69469723594b","system_id":"levelo_inurba_marseille","lat":43.299114,"lon":5.381261,"is_reserved":false,"is_disabled":false,"rental_uris":{"android":"levelo://app?vid=268ca442-71ef-4962-a323-69469723594b","ios":"levelo://app?vid=268ca442-71ef-4962-a323-69469723594b"},"vehicle_type_id":"4","last_reported":1747667500,"current_range_meters":11600,"station_id":"","pricing_plan_id":"cebpf4jnsgd1na2vs0mg"},{"bike_id":"b31676d8-d019-4528-a004-517e0fd67051","system_id":"levelo_inurba_marseille","lat":43.290423,"lon":5.35931,"is_reserved":false,"is_disabled":false,"rental_uris":{"android":"levelo://app?vid=b31676d8-d019-4528-a004-517e0fd67051","ios":"levelo://app?vid=b31676d8-d019-4528-a004-517e0fd67051"},"vehicle_type_id":"4","last_reported":1747667500,"current_range_meters":11600,"station_id":"","pricing_plan_id":"cebpf4jnsgd1na2vs0mg"},{"bike_id":"34634a05-f3bf-47b8-9fe3-aa3061eac03f","system_id":"levelo_inurba_marseille","lat":43.29265,"lon":5.37612,"is_reserved":false,"is_disabled":false,"rental_uris":{"android":"levelo://app?vid=34634a05-f3bf-47b8-9fe3-aa3061eac03f","ios":"levelo://app?vid=34634a05-f3bf-47b8-9fe3-aa3061eac03f"},"vehicle_type_id":"4","last_reported":1747667500,"current_range_meters":11600,"station_id":"ce4bgi12rcd13ifvqb80","pricing_plan_id":"cebpf4jnsgd1na2vs0mg"},{"bike_id":"fe5e9ee1-c2bc-4f72-8da2-7228075c711b","system_id":"levelo_inurba_marseille","lat":43.29371,"lon":5.37851,"is_reserved":false,"is_disabled":false,"rental_uris":{"android":"levelo://app?vid=fe5e9ee1-c2bc-4f72-8da2-7228075c711b","ios":"levelo://app?vid=fe5e9ee1-c2bc-4f72-8da2-7228075c711b"},"vehicle_type_id":"4","last_reported":1747667500,"current_range_meters":11600,"station_id":"ce4bgjh2rcd13ifvqbf0","pricing_plan_id":"cebpf4jnsgd1na2vs0mg"},{"bike_id":"e3e128ef-5c6e-481f-b65c-b09c8bfc5df1","system_id":"levelo_inurba_marseille","lat":43.28999,"lon":5.35615,"is_reserved":false,"is_disabled":false,"rental_uris":{"android":"levelo://app?vid=e3e128ef-5c6e-481f-b65c-b09c8bfc5df1","ios":"levelo://app?vid=e3e128ef-5c6e-481f-b65c-b09c8bfc5df1"},"vehicle_type_id":"4","last_reported":1747667500,"current_range_meters":11600,"station_id":"ce4bhb92rcd13ifvqen0","pricing_plan_id":"cebpf4jnsgd1na2vs0mg"},{"bike_id":"1c18c559-1b3b-4456-8a7a-575754c605b0","system_id":"levelo_inurba_marseille","lat":43.26207,"lon":5.37443,"is_reserved":false,"is_disabled":false,"rental_uris":{"android":"levelo://app?vid=1c18c559-1b3b-4456-8a7a-575754c605b0","ios":"levelo://app?vid=1c18c559-1b3b-4456-8a7a-575754c605b0"},"vehicle_type_id":"4","last_reported":1747667500,"current_range_meters":11600,"station_id":"ce4bhgp2rcd13ifvqfc0","pricing_plan_id":"cebpf4jnsgd1na2vs0mg"},{"bike_id":"dd716423-e959-4fcf-ad4b-a11c97766549","system_id":"levelo_inurba_marseille","lat":43.2717,"lon":5.40994,"is_reserved":false,"is_disabled":false,"rental_uris":{"android":"levelo://app?vid=dd716423-e959-4fcf-ad4b-a11c97766549","ios":"levelo://app?vid=dd716423-e959-4fcf-ad4b-a11c97766549"},"vehicle_type_id":"4","last_reported":1747667500,"current_range_meters":11600,"station_id":"ce4bhl12rcd13ifvqgf0","pricing_plan_id":"cebpf4jnsgd1na2vs0mg"},{"bike_id":"8df932dc-ddf8-4fc9-822c-c44dc3ea0eac","system_id":"levelo_inurba_marseille","lat":43.31757,"lon":5.39013,"is_reserved":false,"is_disabled":false,"rental_uris":{"android":"levelo://app?vid=8df932dc-ddf8-4fc9-822c-c44dc3ea0eac","ios":"levelo://app?vid=8df932dc-ddf8-4fc9-822c-c44dc3ea0eac"},"vehicle_type_id":"4","last_reported":1747667500,"current_range_meters":11600,"station_id":"ce4bhqp2rcd13ifvqhng","pricing_plan_id":"cebpf4jnsgd1na2vs0mg"},{"bike_id":"0d6dd2a3-b74a-4125-8398-7cfd1f3dc481","system_id":"levelo_inurba_marseille","lat":43.32366,"lon":5.38881,"is_reserved":false,"is_disabled":false,"rental_uris":{"android":"levelo://app?vid=0d6dd2a3-b74a-4125-8398-7cfd1f3dc481","ios":"levelo://app?vid=0d6dd2a3-b74a-4125-8398-7cfd1f3dc481"},"vehicle_type_id":"4","last_reported":1747667500,"current_range_meters":11600,"station_id":"ce4bhqp2rcd13ifvqhog","pricing_plan_id":"cebpf4jnsgd1na2vs0mg"},{"bike_id":"42ee400e-24d8-4a62-842d-f2d3bd04ade1","system_id":"levelo_inurba_marseille","lat":43.313384,"lon":5.396946,"is_reserved":false,"is_disabled":false,"rental_uris":{"android":"levelo://app?vid=42ee400e-24d8-4a62-842d-f2d3bd04ade1","ios":"levelo://app?vid=42ee400e-24d8-4a62-842d-f2d3bd04ade1"},"vehicle_type_id":"4","last_reported":1747667500,"current_range_meters":12000,"station_id":"ce4bgvp2rcd13ifvqcu0","pricing_plan_id":"cebpf4jnsgd1na2vs0mg"},{"bike_id":"13e20a88-a285-4202-81cf-f2cfa114cf5f","system_id":"levelo_inurba_marseille","lat":43.29526,"lon":5.38534,"is_reserved":false,"is_disabled":false,"rental_uris":{"android":"levelo://app?vid=13e20a88-a285-4202-81cf-f2cfa114cf5f","ios":"levelo://app?vid=13e20a88-a285-4202-81cf-f2cfa114cf5f"},"vehicle_type_id":"4","last_reported":1747667500,"current_range_meters":12400,"station_id":"ce4bgih2rcd13ifvqba0","pricing_plan_id":"cebpf4jnsgd1na2vs0mg"},{"bike_id":"ca2ec4db-6c6f-4140-9ca9-e731b5bf5b97","system_id":"levelo_inurba_marseille","lat":43.3112,"lon":5.3778,"is_reserved":false,"is_disabled":false,"rental_uris":{"android":"levelo://app?vid=ca2ec4db-6c6f-4140-9ca9-e731b5bf5b97","ios":"levelo://app?vid=ca2ec4db-6c6f-4140-9ca9-e731b5bf5b97"},"vehicle_type_id":"4","last_reported":1747667500,"current_range_meters":12400,"station_id":"ce4bgt92rcd13ifvqcg0","pricing_plan_id":"cebpf4jnsgd1na2vs0mg"},{"bike_id":"f4ba9c6e-bcad-41c7-8d4e-bca01364d190","system_id":"levelo_inurba_marseille","lat":43.25922,"lon":5.4087,"is_reserved":false,"is_disabled":false,"rental_uris":{"android":"levelo://app?vid=f4ba9c6e-bcad-41c7-8d4e-bca01364d190","ios":"levelo://app?vid=f4ba9c6e-bcad-41c7-8d4e-bca01364d190"},"vehicle_type_id":"4","last_reported":1747667500,"current_range_meters":12400,"station_id":"ce4bhm92rcd13ifvqglg","pricing_plan_id":"cebpf4jnsgd1na2vs0mg"},{"bike_id":"a486c409-50e3-4319-942b-256cc6c595ab","system_id":"levelo_inurba_marseille","lat":43.31187,"lon":5.368,"is_reserved":false,"is_disabled":false,"rental_uris":{"android":"levelo://app?vid=a486c409-50e3-4319-942b-256cc6c595ab","ios":"levelo://app?vid=a486c409-50e3-4319-942b-256cc6c595ab"},"vehicle_type_id":"4","last_reported":1747667500,"current_range_meters":12800,"station_id":"","pricing_plan_id":"cebpf4jnsgd1na2vs0mg"},{"bike_id":"4d84e95c-d2af-4324-b46f-888d9bc5478f","system_id":"levelo_inurba_marseille","lat":43.312129,"lon":5.368421,"is_reserved":false,"is_disabled":false,"rental_uris":{"android":"levelo://app?vid=4d84e95c-d2af-4324-b46f-888d9bc5478f","ios":"levelo://app?vid=4d84e95c-d2af-4324-b46f-888d9bc5478f"},"vehicle_type_id":"4","last_reported":1747667500,"current_range_meters":12800,"station_id":"ce4bgl92rcd13ifvqbq0","pricing_plan_id":"cebpf4jnsgd1na2vs0mg"},{"bike_id":"9b0a9e58-48c1-4800-88b1-e86859e043e6","system_id":"levelo_inurba_marseille","lat":43.29855,"lon":5.36268,"is_reserved":false,"is_disabled":false,"rental_uris":{"android":"levelo://app?vid=9b0a9e58-48c1-4800-88b1-e86859e043e6","ios":"levelo://app?vid=9b0a9e58-48c1-4800-88b1-e86859e043e6"},"vehicle_type_id":"4","last_reported":1747667500,"current_range_meters":12800,"station_id":"ce4bgpp2rcd13ifvqc3g","pricing_plan_id":"cebpf4jnsgd1na2vs0mg"},{"bike_id":"f0be192c-ae4f-446a-8b5a-34019ce7051f","system_id":"levelo_inurba_marseille","lat":43.29846,"lon":5.36263,"is_reserved":false,"is_disabled":false,"rental_uris":{"android":"levelo://app?vid=f0be192c-ae4f-446a-8b5a-34019ce7051f","ios":"levelo://app?vid=f0be192c-ae4f-446a-8b5a-34019ce7051f"},"vehicle_type_id":"4","last_reported":1747667500,"current_range_meters":12800,"station_id":"ce4bgpp2rcd13ifvqc3g","pricing_plan_id":"cebpf4jnsgd1na2vs0mg"},{"bike_id":"330f30c4-f99e-40fb-864d-8d6b6e8d7857","system_id":"levelo_inurba_marseille","lat":43.27374,"lon":5.36262,"is_reserved":false,"is_disabled":false,"rental_uris":{"android":"levelo://app?vid=330f30c4-f99e-40fb-864d-8d6b6e8d7857","ios":"levelo://app?vid=330f30c4-f99e-40fb-864d-8d6b6e8d7857"},"vehicle_type_id":"4","last_reported":1747667500,"current_range_meters":12800,"station_id":"ce4bhbh2rcd13ifvqeo0","pricing_plan_id":"cebpf4jnsgd1na2vs0mg"},{"bike_id":"8c9def71-ec94-4c15-8fe5-8f5d78bf7287","system_id":"levelo_inurba_marseille","lat":43.266907,"lon":5.382682,"is_reserved":false,"is_disabled":false,"rental_uris":{"android":"levelo://app?vid=8c9def71-ec94-4c15-8fe5-8f5d78bf7287","ios":"levelo://app?vid=8c9def71-ec94-4c15-8fe5-8f5d78bf7287"},"vehicle_type_id":"4","last_reported":1747667500,"current_range_meters":12800,"station_id":"ce4bhg92rcd13ifvqf90","pricing_plan_id":"cebpf4jnsgd1na2vs0mg"},{"bike_id":"38b5c13c-ecfe-476a-abb0-33b1528de2bb","system_id":"levelo_inurba_marseille","lat":43.29961,"lon":5.41323,"is_reserved":false,"is_disabled":false,"rental_uris":{"android":"levelo://app?vid=38b5c13c-ecfe-476a-abb0-33b1528de2bb","ios":"levelo://app?vid=38b5c13c-ecfe-476a-abb0-33b1528de2bb"},"vehicle_type_id":"4","last_reported":1747667500,"current_range_meters":12800,"station_id":"ce4bhp12rcd13ifvqh9g","pricing_plan_id":"cebpf4jnsgd1na2vs0mg"},{"bike_id":"cfef367e-eb52-4536-abea-b1c739499c43","system_id":"levelo_inurba_marseille","lat":43.28617,"lon":5.37067,"is_reserved":false,"is_disabled":false,"rental_uris":{"android":"levelo://app?vid=cfef367e-eb52-4536-abea-b1c739499c43","ios":"levelo://app?vid=cfef367e-eb52-4536-abea-b1c739499c43"},"vehicle_type_id":"4","last_reported":1747667500,"current_range_meters":12800,"station_id":"ce4bht12rcd13ifvqi60","pricing_plan_id":"cebpf4jnsgd1na2vs0mg"},{"bike_id":"a4b0b05b-718f-44b0-b5ea-3db2e870d1fb","system_id":"levelo_inurba_marseille","lat":43.22931,"lon":5.35382,"is_reserved":false,"is_disabled":false,"rental_uris":{"android":"levelo://app?vid=a4b0b05b-718f-44b0-b5ea-3db2e870d1fb","ios":"levelo://app?vid=a4b0b05b-718f-44b0-b5ea-3db2e870d1fb"},"vehicle_type_id":"4","last_reported":1747667500,"current_range_meters":12800,"station_id":"cpo3532slgdg3j2ikp40","pricing_plan_id":"cebpf4jnsgd1na2vs0mg"},{"bike_id":"bffbaf88-357a-4e87-a68c-a9a27a6e01e6","system_id":"levelo_inurba_marseille","lat":43.26234,"lon":5.42141,"is_reserved":false,"is_disabled":false,"rental_uris":{"android":"levelo://app?vid=bffbaf88-357a-4e87-a68c-a9a27a6e01e6","ios":"levelo://app?vid=bffbaf88-357a-4e87-a68c-a9a27a6e01e6"},"vehicle_type_id":"4","last_reported":1747667500,"current_range_meters":13600,"station_id":"","pricing_plan_id":"cebpf4jnsgd1na2vs0mg"},{"bike_id":"07fa4798-56af-4489-92cc-3abfe36a6285","system_id":"levelo_inurba_marseille","lat":43.30142,"lon":5.37424,"is_reserved":false,"is_disabled":false,"rental_uris":{"android":"levelo://app?vid=07fa4798-56af-4489-92cc-3abfe36a6285","ios":"levelo://app?vid=07fa4798-56af-4489-92cc-3abfe36a6285"},"vehicle_type_id":"4","last_reported":1747667500,"current_range_meters":13600,"station_id":"ce4bgs92rcd13ifvqcc0","pricing_plan_id":"cebpf4jnsgd1na2vs0mg"},{"bike_id":"d3c87138-88ae-4fb3-ad39-024d87ac275e","system_id":"levelo_inurba_marseille","lat":43.29529,"lon":5.39049,"is_reserved":false,"is_disabled":false,"rental_uris":{"android":"levelo://app?vid=d3c87138-88ae-4fb3-ad39-024d87ac275e","ios":"levelo://app?vid=d3c87138-88ae-4fb3-ad39-024d87ac275e"},"vehicle_type_id":"4","last_reported":1747667500,"current_range_meters":13600,"station_id":"ce4bh3p2rcd13ifvqdp0","pricing_plan_id":"cebpf4jnsgd1na2vs0mg"},{"bike_id":"027e1fb9-8ab2-4245-a791-27e9dcd17185","system_id":"levelo_inurba_marseille","lat":43.29554,"lon":5.42307,"is_reserved":false,"is_disabled":false,"rental_uris":{"android":"levelo://app?vid=027e1fb9-8ab2-4245-a791-27e9dcd17185","ios":"levelo://app?vid=027e1fb9-8ab2-4245-a791-27e9dcd17185"},"vehicle_type_id":"4","last_reported":1747667500,"current_range_meters":13600,"station_id":"ce4bhph2rcd13ifvqhdg","pricing_plan_id":"cebpf4jnsgd1na2vs0mg"},{"bike_id":"52e5a0fd-9a82-4a4a-8f0b-b92665327644","system_id":"levelo_inurba_marseille","lat":43.30791,"lon":5.43524,"is_reserved":false,"is_disabled":false,"rental_uris":{"android":"levelo://app?vid=52e5a0fd-9a82-4a4a-8f0b-b92665327644","ios":"levelo://app?vid=52e5a0fd-9a82-4a4a-8f0b-b92665327644"},"vehicle_type_id":"4","last_reported":1747667500,"current_range_meters":14000,"station_id":"","pricing_plan_id":"cebpf4jnsgd1na2vs0mg"},{"bike_id":"2d38604a-0662-4568-b9d8-de4d6697f522","system_id":"levelo_inurba_marseille","lat":43.29593,"lon":5.36763,"is_reserved":false,"is_disabled":false,"rental_uris":{"android":"levelo://app?vid=2d38604a-0662-4568-b9d8-de4d6697f522","ios":"levelo://app?vid=2d38604a-0662-4568-b9d8-de4d6697f522"},"vehicle_type_id":"4","last_reported":1747667500,"current_range_meters":14000,"station_id":"ce4bgph2rcd13ifvqc2g","pricing_plan_id":"cebpf4jnsgd1na2vs0mg"},{"bike_id":"d22637a3-714d-40f0-b0ea-76d68a0690cb","system_id":"levelo_inurba_marseille","lat":43.295263,"lon":5.390357,"is_reserved":false,"is_disabled":false,"rental_uris":{"android":"levelo://app?vid=d22637a3-714d-40f0-b0ea-76d68a0690cb","ios":"levelo://app?vid=d22637a3-714d-40f0-b0ea-76d68a0690cb"},"vehicle_type_id":"4","last_reported":1747667500,"current_range_meters":14000,"station_id":"ce4bh3p2rcd13ifvqdp0","pricing_plan_id":"cebpf4jnsgd1na2vs0mg"},{"bike_id":"d49062f1-2aa4-45a7-89de-65f7f814a8f3","system_id":"levelo_inurba_marseille","lat":43.28431,"lon":5.34988,"is_reserved":false,"is_disabled":false,"rental_uris":{"android":"levelo://app?vid=d49062f1-2aa4-45a7-89de-65f7f814a8f3","ios":"levelo://app?vid=d49062f1-2aa4-45a7-89de-65f7f814a8f3"},"vehicle_type_id":"4","last_reported":1747667500,"current_range_meters":14000,"station_id":"ce4bhbh2rcd13ifvqepg","pricing_plan_id":"cebpf4jnsgd1na2vs0mg"},{"bike_id":"56b0ed36-22a3-4ab7-9131-57c87683a9a9","system_id":"levelo_inurba_marseille","lat":43.25004,"lon":5.38949,"is_reserved":false,"is_disabled":false,"rental_uris":{"android":"levelo://app?vid=56b0ed36-22a3-4ab7-9131-57c87683a9a9","ios":"levelo://app?vid=56b0ed36-22a3-4ab7-9131-57c87683a9a9"},"vehicle_type_id":"4","last_reported":1747667500,"current_range_meters":14000,"station_id":"ce4bhgp2rcd13ifvqfd0","pricing_plan_id":"cebpf4jnsgd1na2vs0mg"},{"bike_id":"cc251202-a371-4134-842f-070caab3e988","system_id":"levelo_inurba_marseille","lat":43.27176,"lon":5.41002,"is_reserved":false,"is_disabled":false,"rental_uris":{"android":"levelo://app?vid=cc251202-a371-4134-842f-070caab3e988","ios":"levelo://app?vid=cc251202-a371-4134-842f-070caab3e988"},"vehicle_type_id":"4","last_reported":1747667500,"current_range_meters":14000,"station_id":"ce4bhl12rcd13ifvqgf0","pricing_plan_id":"cebpf4jnsgd1na2vs0mg"},{"bike_id":"147f0919-b4f4-4da5-a06b-5f70c1438bc0","system_id":"levelo_inurba_marseille","lat":43.25913,"lon":5.40866,"is_reserved":false,"is_disabled":false,"rental_uris":{"android":"levelo://app?vid=147f0919-b4f4-4da5-a06b-5f70c1438bc0","ios":"levelo://app?vid=147f0919-b4f4-4da5-a06b-5f70c1438bc0"},"vehicle_type_id":"4","last_reported":1747667500,"current_range_meters":14000,"station_id":"ce4bhm92rcd13ifvqglg","pricing_plan_id":"cebpf4jnsgd1na2vs0mg"},{"bike_id":"96a3b318-3713-409a-83b3-1eb19adcc299","system_id":"levelo_inurba_marseille","lat":43.27974,"lon":5.38742,"is_reserved":false,"is_disabled":false,"rental_uris":{"android":"levelo://app?vid=96a3b318-3713-409a-83b3-1eb19adcc299","ios":"levelo://app?vid=96a3b318-3713-409a-83b3-1eb19adcc299"},"vehicle_type_id":"4","last_reported":1747667500,"current_range_meters":14400,"station_id":"ce4bhg12rcd13ifvqf80","pricing_plan_id":"cebpf4jnsgd1na2vs0mg"},{"bike_id":"08129706-0840-4cc7-a7e9-4dbc2d7407ba","system_id":"levelo_inurba_marseille","lat":43.23211,"lon":5.39998,"is_reserved":false,"is_disabled":false,"rental_uris":{"android":"levelo://app?vid=08129706-0840-4cc7-a7e9-4dbc2d7407ba","ios":"levelo://app?vid=08129706-0840-4cc7-a7e9-4dbc2d7407ba"},"vehicle_type_id":"4","last_reported":1747667500,"current_range_meters":14400,"station_id":"ce4bhn12rcd13ifvqgqg","pricing_plan_id":"cebpf4jnsgd1na2vs0mg"},{"bike_id":"45e6b7d6-de57-47a1-9fab-5cc16f45dbe0","system_id":"levelo_inurba_marseille","lat":43.2936,"lon":5.37843,"is_reserved":false,"is_disabled":false,"rental_uris":{"android":"levelo://app?vid=45e6b7d6-de57-47a1-9fab-5cc16f45dbe0","ios":"levelo://app?vid=45e6b7d6-de57-47a1-9fab-5cc16f45dbe0"},"vehicle_type_id":"4","last_reported":1747667500,"current_range_meters":14800,"station_id":"ce4bgjh2rcd13ifvqbf0","pricing_plan_id":"cebpf4jnsgd1na2vs0mg"},{"bike_id":"a29d28d6-c3f8-4ce7-a26d-6a24837c628c","system_id":"levelo_inurba_marseille","lat":43.30904,"lon":5.36855,"is_reserved":false,"is_disabled":false,"rental_uris":{"android":"levelo://app?vid=a29d28d6-c3f8-4ce7-a26d-6a24837c628c","ios":"levelo://app?vid=a29d28d6-c3f8-4ce7-a26d-6a24837c628c"},"vehicle_type_id":"4","last_reported":1747667500,"current_range_meters":15200,"station_id":"ce4bgn92rcd13ifvqbvg","pricing_plan_id":"cebpf4jnsgd1na2vs0mg"},{"bike_id":"6a8721c9-c914-4651-8fdb-7d0331567dbb","system_id":"levelo_inurba_marseille","lat":43.28065,"lon":5.3964,"is_reserved":false,"is_disabled":false,"rental_uris":{"android":"levelo://app?vid=6a8721c9-c914-4651-8fdb-7d0331567dbb","ios":"levelo://app?vid=6a8721c9-c914-4651-8fdb-7d0331567dbb"},"vehicle_type_id":"4","last_reported":1747667500,"current_range_meters":15200,"station_id":"ce4bho12rcd13ifvqh2g","pricing_plan_id":"cebpf4jnsgd1na2vs0mg"},{"bike_id":"58edc354-c183-4da4-b527-1ba0f2d395e0","system_id":"levelo_inurba_marseille","lat":43.27676,"lon":5.35758,"is_reserved":false,"is_disabled":false,"rental_uris":{"android":"levelo://app?vid=58edc354-c183-4da4-b527-1ba0f2d395e0","ios":"levelo://app?vid=58edc354-c183-4da4-b527-1ba0f2d395e0"},"vehicle_type_id":"4","last_reported":1747667500,"current_range_meters":16000,"station_id":"","pricing_plan_id":"cebpf4jnsgd1na2vs0mg"},{"bike_id":"e8162579-a5ad-485f-ad83-fec8a2ebe7e1","system_id":"levelo_inurba_marseille","lat":43.26826,"lon":5.39099,"is_reserved":false,"is_disabled":false,"rental_uris":{"android":"levelo://app?vid=e8162579-a5ad-485f-ad83-fec8a2ebe7e1","ios":"levelo://app?vid=e8162579-a5ad-485f-ad83-fec8a2ebe7e1"},"vehicle_type_id":"4","last_reported":1747667500,"current_range_meters":16000,"station_id":"","pricing_plan_id":"cebpf4jnsgd1na2vs0mg"},{"bike_id":"1e30b7ee-f45a-4fd6-bd28-f1a366d81882","system_id":"levelo_inurba_marseille","lat":43.29611,"lon":5.37713,"is_reserved":false,"is_disabled":false,"rental_uris":{"android":"levelo://app?vid=1e30b7ee-f45a-4fd6-bd28-f1a366d81882","ios":"levelo://app?vid=1e30b7ee-f45a-4fd6-bd28-f1a366d81882"},"vehicle_type_id":"4","last_reported":1747667500,"current_range_meters":16000,"station_id":"ce4bgi92rcd13ifvqb90","pricing_plan_id":"cebpf4jnsgd1na2vs0mg"},{"bike_id":"a63b38b4-cfc1-42e6-a185-b9c04d9aaad3","system_id":"levelo_inurba_marseille","lat":43.31324,"lon":5.39705,"is_reserved":false,"is_disabled":false,"rental_uris":{"android":"levelo://app?vid=a63b38b4-cfc1-42e6-a185-b9c04d9aaad3","ios":"levelo://app?vid=a63b38b4-cfc1-42e6-a185-b9c04d9aaad3"},"vehicle_type_id":"4","last_reported":1747667500,"current_range_meters":16000,"station_id":"ce4bgvp2rcd13ifvqcu0","pricing_plan_id":"cebpf4jnsgd1na2vs0mg"},{"bike_id":"fe7223ec-1927-4774-84c4-abba254281a3","system_id":"levelo_inurba_marseille","lat":43.29259,"lon":5.38423,"is_reserved":false,"is_disabled":false,"rental_uris":{"android":"levelo://app?vid=fe7223ec-1927-4774-84c4-abba254281a3","ios":"levelo://app?vid=fe7223ec-1927-4774-84c4-abba254281a3"},"vehicle_type_id":"4","last_reported":1747667500,"current_range_meters":16000,"station_id":"ce4bh692rcd13ifvqea0","pricing_plan_id":"cebpf4jnsgd1na2vs0mg"},{"bike_id":"f9bd452a-300d-4454-890a-c716cf8ab1c5","system_id":"levelo_inurba_marseille","lat":43.24996,"lon":5.38932,"is_reserved":false,"is_disabled":false,"rental_uris":{"android":"levelo://app?vid=f9bd452a-300d-4454-890a-c716cf8ab1c5","ios":"levelo://app?vid=f9bd452a-300d-4454-890a-c716cf8ab1c5"},"vehicle_type_id":"4","last_reported":1747667500,"current_range_meters":16000,"station_id":"ce4bhgp2rcd13ifvqfd0","pricing_plan_id":"cebpf4jnsgd1na2vs0mg"},{"bike_id":"a71c8718-75be-4c8b-b1c5-e084dff06010","system_id":"levelo_inurba_marseille","lat":43.25727,"lon":5.41103,"is_reserved":false,"is_disabled":false,"rental_uris":{"android":"levelo://app?vid=a71c8718-75be-4c8b-b1c5-e084dff06010","ios":"levelo://app?vid=a71c8718-75be-4c8b-b1c5-e084dff06010"},"vehicle_type_id":"4","last_reported":1747667500,"current_range_meters":16000,"station_id":"ce4bhkp2rcd13ifvqgd0","pricing_plan_id":"cebpf4jnsgd1na2vs0mg"},{"bike_id":"9f1594f9-fca5-4097-b3dd-214ba353f54f","system_id":"levelo_inurba_marseille","lat":43.276677,"lon":5.420742,"is_reserved":false,"is_disabled":false,"rental_uris":{"android":"levelo://app?vid=9f1594f9-fca5-4097-b3dd-214ba353f54f","ios":"levelo://app?vid=9f1594f9-fca5-4097-b3dd-214ba353f54f"},"vehicle_type_id":"4","last_reported":1747667500,"current_range_meters":16000,"station_id":"ce4bhn92rcd13ifvqgrg","pricing_plan_id":"cebpf4jnsgd1na2vs0mg"},{"bike_id":"a5fbda63-723d-4a0f-968f-b97363a065d3","system_id":"levelo_inurba_marseille","lat":43.282766,"lon":5.350651,"is_reserved":false,"is_disabled":false,"rental_uris":{"android":"levelo://app?vid=a5fbda63-723d-4a0f-968f-b97363a065d3","ios":"levelo://app?vid=a5fbda63-723d-4a0f-968f-b97363a065d3"},"vehicle_type_id":"4","last_reported":1747667500,"current_range_meters":16400,"station_id":"ce4bhbp2rcd13ifvqerg","pricing_plan_id":"cebpf4jnsgd1na2vs0mg"},{"bike_id":"c14d73f5-63cc-472d-8022-f19a13e28fa6","system_id":"levelo_inurba_marseille","lat":43.26563,"lon":5.37301,"is_reserved":false,"is_disabled":false,"rental_uris":{"android":"levelo://app?vid=c14d73f5-63cc-472d-8022-f19a13e28fa6","ios":"levelo://app?vid=c14d73f5-63cc-472d-8022-f19a13e28fa6"},"vehicle_type_id":"4","last_reported":1747667500,"current_range_meters":16400,"station_id":"ce4bhg12rcd13ifvqf70","pricing_plan_id":"cebpf4jnsgd1na2vs0mg"},{"bike_id":"67a6e700-e0c1-4a4a-9e91-6100c08af30b","system_id":"levelo_inurba_marseille","lat":43.27842,"lon":5.3921,"is_reserved":false,"is_disabled":false,"rental_uris":{"android":"levelo://app?vid=67a6e700-e0c1-4a4a-9e91-6100c08af30b","ios":"levelo://app?vid=67a6e700-e0c1-4a4a-9e91-6100c08af30b"},"vehicle_type_id":"4","last_reported":1747667500,"current_range_meters":16400,"station_id":"ce4bhjp2rcd13ifvqga0","pricing_plan_id":"cebpf4jnsgd1na2vs0mg"},{"bike_id":"53882ed9-e061-4498-98dc-917b66609f40","system_id":"levelo_inurba_marseille","lat":43.2592,"lon":5.40864,"is_reserved":false,"is_disabled":false,"rental_uris":{"android":"levelo://app?vid=53882ed9-e061-4498-98dc-917b66609f40","ios":"levelo://app?vid=53882ed9-e061-4498-98dc-917b66609f40"},"vehicle_type_id":"4","last_reported":1747667500,"current_range_meters":16400,"station_id":"ce4bhm92rcd13ifvqglg","pricing_plan_id":"cebpf4jnsgd1na2vs0mg"},{"bike_id":"b5aa1cd3-442e-43cc-ae37-a58c85bbf125","system_id":"levelo_inurba_marseille","lat":43.29557,"lon":5.42297,"is_reserved":false,"is_disabled":false,"rental_uris":{"android":"levelo://app?vid=b5aa1cd3-442e-43cc-ae37-a58c85bbf125","ios":"levelo://app?vid=b5aa1cd3-442e-43cc-ae37-a58c85bbf125"},"vehicle_type_id":"4","last_reported":1747667500,"current_range_meters":16400,"station_id":"ce4bhph2rcd13ifvqhdg","pricing_plan_id":"cebpf4jnsgd1na2vs0mg"},{"bike_id":"28f45564-465a-406a-9f7f-ac04ecf5329b","system_id":"levelo_inurba_marseille","lat":43.3247,"lon":5.36594,"is_reserved":false,"is_disabled":false,"rental_uris":{"android":"levelo://app?vid=28f45564-465a-406a-9f7f-ac04ecf5329b","ios":"levelo://app?vid=28f45564-465a-406a-9f7f-ac04ecf5329b"},"vehicle_type_id":"4","last_reported":1747667500,"current_range_meters":16400,"station_id":"ce4bhs12rcd13ifvqhvg","pricing_plan_id":"cebpf4jnsgd1na2vs0mg"},{"bike_id":"3552fbf2-b43a-446f-93f5-d695fc251b73","system_id":"levelo_inurba_marseille","lat":43.25167,"lon":5.37523,"is_reserved":false,"is_disabled":false,"rental_uris":{"android":"levelo://app?vid=3552fbf2-b43a-446f-93f5-d695fc251b73","ios":"levelo://app?vid=3552fbf2-b43a-446f-93f5-d695fc251b73"},"vehicle_type_id":"4","last_reported":1747667500,"current_range_meters":16800,"station_id":"","pricing_plan_id":"cebpf4jnsgd1na2vs0mg"},{"bike_id":"61161d6a-f616-49e7-9f70-711e2e5a376f","system_id":"levelo_inurba_marseille","lat":43.24545,"lon":5.395229,"is_reserved":false,"is_disabled":false,"rental_uris":{"android":"levelo://app?vid=61161d6a-f616-49e7-9f70-711e2e5a376f","ios":"levelo://app?vid=61161d6a-f616-49e7-9f70-711e2e5a376f"},"vehicle_type_id":"4","last_reported":1747667500,"current_range_meters":16800,"station_id":"","pricing_plan_id":"cebpf4jnsgd1na2vs0mg"},{"bike_id":"96730598-a1f5-4da7-a20f-2a33db75c11c","system_id":"levelo_inurba_marseille","lat":43.29294,"lon":5.37473,"is_reserved":false,"is_disabled":false,"rental_uris":{"android":"levelo://app?vid=96730598-a1f5-4da7-a20f-2a33db75c11c","ios":"levelo://app?vid=96730598-a1f5-4da7-a20f-2a33db75c11c"},"vehicle_type_id":"4","last_reported":1747667500,"current_range_meters":16800,"station_id":"ce4bgi12rcd13ifvqb70","pricing_plan_id":"cebpf4jnsgd1na2vs0mg"},{"bike_id":"83f3077a-d18c-4f7c-a581-9e7cf4cc1837","system_id":"levelo_inurba_marseille","lat":43.27619,"lon":5.36115,"is_reserved":false,"is_disabled":false,"rental_uris":{"android":"levelo://app?vid=83f3077a-d18c-4f7c-a581-9e7cf4cc1837","ios":"levelo://app?vid=83f3077a-d18c-4f7c-a581-9e7cf4cc1837"},"vehicle_type_id":"4","last_reported":1747667500,"current_range_meters":16800,"station_id":"ce4bgj92rcd13ifvqbe0","pricing_plan_id":"cebpf4jnsgd1na2vs0mg"},{"bike_id":"31036fa0-33e5-4aae-800b-114e608eea2f","system_id":"levelo_inurba_marseille","lat":43.31246,"lon":5.3684,"is_reserved":false,"is_disabled":false,"rental_uris":{"android":"levelo://app?vid=31036fa0-33e5-4aae-800b-114e608eea2f","ios":"levelo://app?vid=31036fa0-33e5-4aae-800b-114e608eea2f"},"vehicle_type_id":"4","last_reported":1747667500,"current_range_meters":16800,"station_id":"ce4bgl92rcd13ifvqbq0","pricing_plan_id":"cebpf4jnsgd1na2vs0mg"},{"bike_id":"8dbe363c-8315-481e-8f86-fb9293261bb9","system_id":"levelo_inurba_marseille","lat":43.29815,"lon":5.36295,"is_reserved":false,"is_disabled":false,"rental_uris":{"android":"levelo://app?vid=8dbe363c-8315-481e-8f86-fb9293261bb9","ios":"levelo://app?vid=8dbe363c-8315-481e-8f86-fb9293261bb9"},"vehicle_type_id":"4","last_reported":1747667500,"current_range_meters":16800,"station_id":"ce4bgpp2rcd13ifvqc3g","pricing_plan_id":"cebpf4jnsgd1na2vs0mg"},{"bike_id":"0f9d6bdf-1d4f-466e-aa63-557c75d3adc2","system_id":"levelo_inurba_marseille","lat":43.28026,"lon":5.36943,"is_reserved":false,"is_disabled":false,"rental_uris":{"android":"levelo://app?vid=0f9d6bdf-1d4f-466e-aa63-557c75d3adc2","ios":"levelo://app?vid=0f9d6bdf-1d4f-466e-aa63-557c75d3adc2"},"vehicle_type_id":"4","last_reported":1747667500,"current_range_meters":16800,"station_id":"ce4bha12rcd13ifvqef0","pricing_plan_id":"cebpf4jnsgd1na2vs0mg"},{"bike_id":"ef1ea103-d47c-4fed-ad4a-57358e0fd74e","system_id":"levelo_inurba_marseille","lat":43.28626,"lon":5.35157,"is_reserved":false,"is_disabled":false,"rental_uris":{"android":"levelo://app?vid=ef1ea103-d47c-4fed-ad4a-57358e0fd74e","ios":"levelo://app?vid=ef1ea103-d47c-4fed-ad4a-57358e0fd74e"},"vehicle_type_id":"4","last_reported":1747667500,"current_range_meters":16800,"station_id":"ce4bhch2rcd13ifvqeug","pricing_plan_id":"cebpf4jnsgd1na2vs0mg"},{"bike_id":"e2e3a6f6-0f08-4185-b27b-75bc9500a96d","system_id":"levelo_inurba_marseille","lat":43.211922,"lon":5.350691,"is_reserved":false,"is_disabled":false,"rental_uris":{"android":"levelo://app?vid=e2e3a6f6-0f08-4185-b27b-75bc9500a96d","ios":"levelo://app?vid=e2e3a6f6-0f08-4185-b27b-75bc9500a96d"},"vehicle_type_id":"4","last_reported":1747667500,"current_range_meters":16800,"station_id":"st_cvj6sg6p6f1abm77japg","pricing_plan_id":"cebpf4jnsgd1na2vs0mg"},{"bike_id":"6386b301-5c5b-41dc-9be6-064d845d26a2","system_id":"levelo_inurba_marseille","lat":43.28631,"lon":5.40651,"is_reserved":false,"is_disabled":false,"rental_uris":{"android":"levelo://app?vid=6386b301-5c5b-41dc-9be6-064d845d26a2","ios":"levelo://app?vid=6386b301-5c5b-41dc-9be6-064d845d26a2"},"vehicle_type_id":"4","last_reported":1747667500,"current_range_meters":17200,"station_id":"","pricing_plan_id":"cebpf4jnsgd1na2vs0mg"},{"bike_id":"750282c0-71bf-45d1-aaa7-c3138ea7a489","system_id":"levelo_inurba_marseille","lat":43.29303,"lon":5.37466,"is_reserved":false,"is_disabled":false,"rental_uris":{"android":"levelo://app?vid=750282c0-71bf-45d1-aaa7-c3138ea7a489","ios":"levelo://app?vid=750282c0-71bf-45d1-aaa7-c3138ea7a489"},"vehicle_type_id":"4","last_reported":1747667500,"current_range_meters":17200,"station_id":"ce4bgi12rcd13ifvqb70","pricing_plan_id":"cebpf4jnsgd1na2vs0mg"},{"bike_id":"b4092363-ce05-481e-b8a5-74f257327df5","system_id":"levelo_inurba_marseille","lat":43.250869,"lon":5.395242,"is_reserved":false,"is_disabled":false,"rental_uris":{"android":"levelo://app?vid=b4092363-ce05-481e-b8a5-74f257327df5","ios":"levelo://app?vid=b4092363-ce05-481e-b8a5-74f257327df5"},"vehicle_type_id":"4","last_reported":1747667500,"current_range_meters":17200,"station_id":"ce4bhm12rcd13ifvqgkg","pricing_plan_id":"cebpf4jnsgd1na2vs0mg"},{"bike_id":"c3c11b11-8507-45b4-bd48-1e3bdd46fbbe","system_id":"levelo_inurba_marseille","lat":43.23183,"lon":5.3999,"is_reserved":false,"is_disabled":false,"rental_uris":{"android":"levelo://app?vid=c3c11b11-8507-45b4-bd48-1e3bdd46fbbe","ios":"levelo://app?vid=c3c11b11-8507-45b4-bd48-1e3bdd46fbbe"},"vehicle_type_id":"4","last_reported":1747667500,"current_range_meters":17200,"station_id":"ce4bhn12rcd13ifvqgqg","pricing_plan_id":"cebpf4jnsgd1na2vs0mg"},{"bike_id":"4f329ca3-0a5e-4f29-97a2-5b167b87eb91","system_id":"levelo_inurba_marseille","lat":43.33025,"lon":5.3904,"is_reserved":false,"is_disabled":false,"rental_uris":{"android":"levelo://app?vid=4f329ca3-0a5e-4f29-97a2-5b167b87eb91","ios":"levelo://app?vid=4f329ca3-0a5e-4f29-97a2-5b167b87eb91"},"vehicle_type_id":"4","last_reported":1747667500,"current_range_meters":17200,"station_id":"ce4bhr92rcd13ifvqhrg","pricing_plan_id":"cebpf4jnsgd1na2vs0mg"},{"bike_id":"a77299a9-0afc-4000-817b-f97ca1eaadca","system_id":"levelo_inurba_marseille","lat":43.28848,"lon":5.45969,"is_reserved":false,"is_disabled":false,"rental_uris":{"android":"levelo://app?vid=a77299a9-0afc-4000-817b-f97ca1eaadca","ios":"levelo://app?vid=a77299a9-0afc-4000-817b-f97ca1eaadca"},"vehicle_type_id":"4","last_reported":1747667500,"current_range_meters":17600,"station_id":"","pricing_plan_id":"cebpf4jnsgd1na2vs0mg"},{"bike_id":"906fe159-989f-40af-8692-9d1d39f4da90","system_id":"levelo_inurba_marseille","lat":43.29837,"lon":5.36273,"is_reserved":false,"is_disabled":false,"rental_uris":{"android":"levelo://app?vid=906fe159-989f-40af-8692-9d1d39f4da90","ios":"levelo://app?vid=906fe159-989f-40af-8692-9d1d39f4da90"},"vehicle_type_id":"4","last_reported":1747667500,"current_range_meters":17600,"station_id":"ce4bgpp2rcd13ifvqc3g","pricing_plan_id":"cebpf4jnsgd1na2vs0mg"},{"bike_id":"e49bd9e6-9c86-498e-819d-4cfafcd393a8","system_id":"levelo_inurba_marseille","lat":43.29537,"lon":5.3904,"is_reserved":false,"is_disabled":false,"rental_uris":{"android":"levelo://app?vid=e49bd9e6-9c86-498e-819d-4cfafcd393a8","ios":"levelo://app?vid=e49bd9e6-9c86-498e-819d-4cfafcd393a8"},"vehicle_type_id":"4","last_reported":1747667500,"current_range_meters":17600,"station_id":"ce4bh3p2rcd13ifvqdp0","pricing_plan_id":"cebpf4jnsgd1na2vs0mg"},{"bike_id":"a4e1238a-803c-4451-ab7a-f02484116e55","system_id":"levelo_inurba_marseille","lat":43.28371,"lon":5.38653,"is_reserved":false,"is_disabled":false,"rental_uris":{"android":"levelo://app?vid=a4e1238a-803c-4451-ab7a-f02484116e55","ios":"levelo://app?vid=a4e1238a-803c-4451-ab7a-f02484116e55"},"vehicle_type_id":"4","last_reported":1747667500,"current_range_meters":17600,"station_id":"ce4bh492rcd13ifvqdvg","pricing_plan_id":"cebpf4jnsgd1na2vs0mg"},{"bike_id":"85d0eee4-7023-4816-8341-7b198d182543","system_id":"levelo_inurba_marseille","lat":43.25932,"lon":5.409026,"is_reserved":false,"is_disabled":false,"rental_uris":{"android":"levelo://app?vid=85d0eee4-7023-4816-8341-7b198d182543","ios":"levelo://app?vid=85d0eee4-7023-4816-8341-7b198d182543"},"vehicle_type_id":"4","last_reported":1747667500,"current_range_meters":17600,"station_id":"ce4bhm92rcd13ifvqglg","pricing_plan_id":"cebpf4jnsgd1na2vs0mg"},{"bike_id":"0c75e290-2f49-4428-9202-02a35670787a","system_id":"levelo_inurba_marseille","lat":43.23192,"lon":5.39992,"is_reserved":false,"is_disabled":false,"rental_uris":{"android":"levelo://app?vid=0c75e290-2f49-4428-9202-02a35670787a","ios":"levelo://app?vid=0c75e290-2f49-4428-9202-02a35670787a"},"vehicle_type_id":"4","last_reported":1747667500,"current_range_meters":17600,"station_id":"ce4bhn12rcd13ifvqgqg","pricing_plan_id":"cebpf4jnsgd1na2vs0mg"},{"bike_id":"74caece3-0366-45d1-ad29-c4f1a1a87b31","system_id":"levelo_inurba_marseille","lat":43.21794,"lon":5.34605,"is_reserved":false,"is_disabled":false,"rental_uris":{"android":"levelo://app?vid=74caece3-0366-45d1-ad29-c4f1a1a87b31","ios":"levelo://app?vid=74caece3-0366-45d1-ad29-c4f1a1a87b31"},"vehicle_type_id":"4","last_reported":1747667500,"current_range_meters":18000,"station_id":"","pricing_plan_id":"cebpf4jnsgd1na2vs0mg"},{"bike_id":"1922a53d-b217-40d9-9b17-9a36292d8ab8","system_id":"levelo_inurba_marseille","lat":43.25731,"lon":5.41106,"is_reserved":false,"is_disabled":false,"rental_uris":{"android":"levelo://app?vid=1922a53d-b217-40d9-9b17-9a36292d8ab8","ios":"levelo://app?vid=1922a53d-b217-40d9-9b17-9a36292d8ab8"},"vehicle_type_id":"4","last_reported":1747667500,"current_range_meters":18000,"station_id":"ce4bhkp2rcd13ifvqgd0","pricing_plan_id":"cebpf4jnsgd1na2vs0mg"},{"bike_id":"8675cc91-343d-4f04-a5ab-d440461b07f3","system_id":"levelo_inurba_marseille","lat":43.25907,"lon":5.40879,"is_reserved":false,"is_disabled":false,"rental_uris":{"android":"levelo://app?vid=8675cc91-343d-4f04-a5ab-d440461b07f3","ios":"levelo://app?vid=8675cc91-343d-4f04-a5ab-d440461b07f3"},"vehicle_type_id":"4","last_reported":1747667500,"current_range_meters":18000,"station_id":"ce4bhm92rcd13ifvqglg","pricing_plan_id":"cebpf4jnsgd1na2vs0mg"},{"bike_id":"42fdc09d-5504-40b0-bead-80cc35d99410","system_id":"levelo_inurba_marseille","lat":43.2956,"lon":5.42292,"is_reserved":false,"is_disabled":false,"rental_uris":{"android":"levelo://app?vid=42fdc09d-5504-40b0-bead-80cc35d99410","ios":"levelo://app?vid=42fdc09d-5504-40b0-bead-80cc35d99410"},"vehicle_type_id":"4","last_reported":1747667500,"current_range_meters":18000,"station_id":"ce4bhph2rcd13ifvqhdg","pricing_plan_id":"cebpf4jnsgd1na2vs0mg"},{"bike_id":"99667139-80a0-4d60-8abf-edc5bdeb0e63","system_id":"levelo_inurba_marseille","lat":43.26944,"lon":5.40254,"is_reserved":false,"is_disabled":false,"rental_uris":{"android":"levelo://app?vid=99667139-80a0-4d60-8abf-edc5bdeb0e63","ios":"levelo://app?vid=99667139-80a0-4d60-8abf-edc5bdeb0e63"},"vehicle_type_id":"4","last_reported":1747667500,"current_range_meters":18000,"station_id":"cjm6bp8fraef2m0cb0m0","pricing_plan_id":"cebpf4jnsgd1na2vs0mg"},{"bike_id":"77ae2670-5f4a-4f82-a74a-99848315064b","system_id":"levelo_inurba_marseille","lat":43.30315,"lon":5.40441,"is_reserved":false,"is_disabled":false,"rental_uris":{"android":"levelo://app?vid=77ae2670-5f4a-4f82-a74a-99848315064b","ios":"levelo://app?vid=77ae2670-5f4a-4f82-a74a-99848315064b"},"vehicle_type_id":"4","last_reported":1747667500,"current_range_meters":18800,"station_id":"ce4bh012rcd13ifvqd10","pricing_plan_id":"cebpf4jnsgd1na2vs0mg"},{"bike_id":"29990708-6136-476c-a643-7789f8c2de76","system_id":"levelo_inurba_marseille","lat":43.30642,"lon":5.40092,"is_reserved":false,"is_disabled":false,"rental_uris":{"android":"levelo://app?vid=29990708-6136-476c-a643-7789f8c2de76","ios":"levelo://app?vid=29990708-6136-476c-a643-7789f8c2de76"},"vehicle_type_id":"4","last_reported":1747667500,"current_range_meters":18800,"station_id":"ce4bh112rcd13ifvqda0","pricing_plan_id":"cebpf4jnsgd1na2vs0mg"},{"bike_id":"f5d903da-1fe6-42de-b785-2dd7a92d6da0","system_id":"levelo_inurba_marseille","lat":43.28276,"lon":5.35072,"is_reserved":false,"is_disabled":false,"rental_uris":{"android":"levelo://app?vid=f5d903da-1fe6-42de-b785-2dd7a92d6da0","ios":"levelo://app?vid=f5d903da-1fe6-42de-b785-2dd7a92d6da0"},"vehicle_type_id":"4","last_reported":1747667500,"current_range_meters":18800,"station_id":"ce4bhbp2rcd13ifvqerg","pricing_plan_id":"cebpf4jnsgd1na2vs0mg"},{"bike_id":"8003f1f1-aabc-4a95-af5a-f8124d5a7728","system_id":"levelo_inurba_marseille","lat":43.23178,"lon":5.39992,"is_reserved":false,"is_disabled":false,"rental_uris":{"android":"levelo://app?vid=8003f1f1-aabc-4a95-af5a-f8124d5a7728","ios":"levelo://app?vid=8003f1f1-aabc-4a95-af5a-f8124d5a7728"},"vehicle_type_id":"4","last_reported":1747667500,"current_range_meters":18800,"station_id":"ce4bhn12rcd13ifvqgqg","pricing_plan_id":"cebpf4jnsgd1na2vs0mg"},{"bike_id":"fac9948d-b97c-4592-84da-6ee550c6ce31","system_id":"levelo_inurba_marseille","lat":43.31726,"lon":5.42398,"is_reserved":false,"is_disabled":false,"rental_uris":{"android":"levelo://app?vid=fac9948d-b97c-4592-84da-6ee550c6ce31","ios":"levelo://app?vid=fac9948d-b97c-4592-84da-6ee550c6ce31"},"vehicle_type_id":"4","last_reported":1747667500,"current_range_meters":18800,"station_id":"ce4bhp92rcd13ifvqhbg","pricing_plan_id":"cebpf4jnsgd1na2vs0mg"},{"bike_id":"779d8437-6ee8-4a01-8e1c-9ee77ee987ce","system_id":"levelo_inurba_marseille","lat":43.32303,"lon":5.38273,"is_reserved":false,"is_disabled":false,"rental_uris":{"android":"levelo://app?vid=779d8437-6ee8-4a01-8e1c-9ee77ee987ce","ios":"levelo://app?vid=779d8437-6ee8-4a01-8e1c-9ee77ee987ce"},"vehicle_type_id":"4","last_reported":1747667500,"current_range_meters":18800,"station_id":"ce4bhr12rcd13ifvqhqg","pricing_plan_id":"cebpf4jnsgd1na2vs0mg"},{"bike_id":"3b1f060e-1249-4c63-91f2-48cd00432aba","system_id":"levelo_inurba_marseille","lat":43.30895,"lon":5.36845,"is_reserved":false,"is_disabled":false,"rental_uris":{"android":"levelo://app?vid=3b1f060e-1249-4c63-91f2-48cd00432aba","ios":"levelo://app?vid=3b1f060e-1249-4c63-91f2-48cd00432aba"},"vehicle_type_id":"4","last_reported":1747667500,"current_range_meters":19200,"station_id":"ce4bgn92rcd13ifvqbvg","pricing_plan_id":"cebpf4jnsgd1na2vs0mg"},{"bike_id":"390f9594-5094-4e8f-b8ac-f17a5be0ac3f","system_id":"levelo_inurba_marseille","lat":43.28934,"lon":5.36644,"is_reserved":false,"is_disabled":false,"rental_uris":{"android":"levelo://app?vid=390f9594-5094-4e8f-b8ac-f17a5be0ac3f","ios":"levelo://app?vid=390f9594-5094-4e8f-b8ac-f17a5be0ac3f"},"vehicle_type_id":"4","last_reported":1747667500,"current_range_meters":19200,"station_id":"ce4bhap2rcd13ifvqek0","pricing_plan_id":"cebpf4jnsgd1na2vs0mg"},{"bike_id":"00a4942d-f0a7-4a24-bad3-95e0d1227838","system_id":"levelo_inurba_marseille","lat":43.21751,"lon":5.34611,"is_reserved":false,"is_disabled":false,"rental_uris":{"android":"levelo://app?vid=00a4942d-f0a7-4a24-bad3-95e0d1227838","ios":"levelo://app?vid=00a4942d-f0a7-4a24-bad3-95e0d1227838"},"vehicle_type_id":"4","last_reported":1747667500,"current_range_meters":19200,"station_id":"st_cvj6r9ubvosntc0bgbag","pricing_plan_id":"cebpf4jnsgd1na2vs0mg"},{"bike_id":"704ea015-f11e-4ad9-8dcb-3aa820a9c231","system_id":"levelo_inurba_marseille","lat":43.30497,"lon":5.36247,"is_reserved":false,"is_disabled":false,"rental_uris":{"android":"levelo://app?vid=704ea015-f11e-4ad9-8dcb-3aa820a9c231","ios":"levelo://app?vid=704ea015-f11e-4ad9-8dcb-3aa820a9c231"},"vehicle_type_id":"4","last_reported":1747667500,"current_range_meters":19600,"station_id":"","pricing_plan_id":"cebpf4jnsgd1na2vs0mg"},{"bike_id":"d9912336-958d-497d-b02e-7ea4160dd091","system_id":"levelo_inurba_marseille","lat":43.31228,"lon":5.36861,"is_reserved":false,"is_disabled":false,"rental_uris":{"android":"levelo://app?vid=d9912336-958d-497d-b02e-7ea4160dd091","ios":"levelo://app?vid=d9912336-958d-497d-b02e-7ea4160dd091"},"vehicle_type_id":"4","last_reported":1747667500,"current_range_meters":19600,"station_id":"ce4bgl92rcd13ifvqbq0","pricing_plan_id":"cebpf4jnsgd1na2vs0mg"},{"bike_id":"225f3cea-db27-4174-a5ef-9d9d69f7434c","system_id":"levelo_inurba_marseille","lat":43.298428,"lon":5.362679,"is_reserved":false,"is_disabled":false,"rental_uris":{"android":"levelo://app?vid=225f3cea-db27-4174-a5ef-9d9d69f7434c","ios":"levelo://app?vid=225f3cea-db27-4174-a5ef-9d9d69f7434c"},"vehicle_type_id":"4","last_reported":1747667500,"current_range_meters":19600,"station_id":"ce4bgpp2rcd13ifvqc3g","pricing_plan_id":"cebpf4jnsgd1na2vs0mg"},{"bike_id":"68eada2b-37b6-42d0-a770-075abcb426db","system_id":"levelo_inurba_marseille","lat":43.28702,"lon":5.373747,"is_reserved":false,"is_disabled":false,"rental_uris":{"android":"levelo://app?vid=68eada2b-37b6-42d0-a770-075abcb426db","ios":"levelo://app?vid=68eada2b-37b6-42d0-a770-075abcb426db"},"vehicle_type_id":"4","last_reported":1747667500,"current_range_meters":19600,"station_id":"ce4bh3p2rcd13ifvqdq0","pricing_plan_id":"cebpf4jnsgd1na2vs0mg"},{"bike_id":"52c7c102-fd19-4f57-ab0a-37fe92c06012","system_id":"levelo_inurba_marseille","lat":43.26679,"lon":5.38264,"is_reserved":false,"is_disabled":false,"rental_uris":{"android":"levelo://app?vid=52c7c102-fd19-4f57-ab0a-37fe92c06012","ios":"levelo://app?vid=52c7c102-fd19-4f57-ab0a-37fe92c06012"},"vehicle_type_id":"4","last_reported":1747667500,"current_range_meters":19600,"station_id":"ce4bhg92rcd13ifvqf90","pricing_plan_id":"cebpf4jnsgd1na2vs0mg"},{"bike_id":"4d67428c-c570-4efc-a43f-324f9413d06b","system_id":"levelo_inurba_marseille","lat":43.2603,"lon":5.37554,"is_reserved":false,"is_disabled":false,"rental_uris":{"android":"levelo://app?vid=4d67428c-c570-4efc-a43f-324f9413d06b","ios":"levelo://app?vid=4d67428c-c570-4efc-a43f-324f9413d06b"},"vehicle_type_id":"4","last_reported":1747667500,"current_range_meters":19600,"station_id":"ce4bhgh2rcd13ifvqfa0","pricing_plan_id":"cebpf4jnsgd1na2vs0mg"},{"bike_id":"662bfade-54b9-4667-9c14-7dbef383df33","system_id":"levelo_inurba_marseille","lat":43.323275,"lon":5.406481,"is_reserved":false,"is_disabled":false,"rental_uris":{"android":"levelo://app?vid=662bfade-54b9-4667-9c14-7dbef383df33","ios":"levelo://app?vid=662bfade-54b9-4667-9c14-7dbef383df33"},"vehicle_type_id":"4","last_reported":1747667500,"current_range_meters":19600,"station_id":"ce4bhq92rcd13ifvqhjg","pricing_plan_id":"cebpf4jnsgd1na2vs0mg"},{"bike_id":"3a4d4d5c-85a5-447c-a965-2c9423f6fd09","system_id":"levelo_inurba_marseille","lat":43.21752,"lon":5.34628,"is_reserved":false,"is_disabled":false,"rental_uris":{"android":"levelo://app?vid=3a4d4d5c-85a5-447c-a965-2c9423f6fd09","ios":"levelo://app?vid=3a4d4d5c-85a5-447c-a965-2c9423f6fd09"},"vehicle_type_id":"4","last_reported":1747667500,"current_range_meters":19600,"station_id":"st_cvj6r9ubvosntc0bgbag","pricing_plan_id":"cebpf4jnsgd1na2vs0mg"},{"bike_id":"97a86dc9-cdbb-4884-892e-ffc3c535da38","system_id":"levelo_inurba_marseille","lat":43.2406,"lon":5.38076,"is_reserved":false,"is_disabled":false,"rental_uris":{"android":"levelo://app?vid=97a86dc9-cdbb-4884-892e-ffc3c535da38","ios":"levelo://app?vid=97a86dc9-cdbb-4884-892e-ffc3c535da38"},"vehicle_type_id":"4","last_reported":1747667500,"current_range_meters":20000,"station_id":"","pricing_plan_id":"cebpf4jnsgd1na2vs0mg"},{"bike_id":"5802d8bf-d8f5-4361-b796-ce1fc2391b89","system_id":"levelo_inurba_marseille","lat":43.30944,"lon":5.36824,"is_reserved":false,"is_disabled":false,"rental_uris":{"android":"levelo://app?vid=5802d8bf-d8f5-4361-b796-ce1fc2391b89","ios":"levelo://app?vid=5802d8bf-d8f5-4361-b796-ce1fc2391b89"},"vehicle_type_id":"4","last_reported":1747667500,"current_range_meters":20000,"station_id":"ce4bgn92rcd13ifvqbvg","pricing_plan_id":"cebpf4jnsgd1na2vs0mg"},{"bike_id":"f22af044-e186-4e34-9760-782a1ac59c46","system_id":"levelo_inurba_marseille","lat":43.29259,"lon":5.38476,"is_reserved":false,"is_disabled":false,"rental_uris":{"android":"levelo://app?vid=f22af044-e186-4e34-9760-782a1ac59c46","ios":"levelo://app?vid=f22af044-e186-4e34-9760-782a1ac59c46"},"vehicle_type_id":"4","last_reported":1747667500,"current_range_meters":20000,"station_id":"ce4bh692rcd13ifvqea0","pricing_plan_id":"cebpf4jnsgd1na2vs0mg"},{"bike_id":"9207ee61-4a76-4d86-9816-9c9579f8958a","system_id":"levelo_inurba_marseille","lat":43.27919,"lon":5.39579,"is_reserved":false,"is_disabled":false,"rental_uris":{"android":"levelo://app?vid=9207ee61-4a76-4d86-9816-9c9579f8958a","ios":"levelo://app?vid=9207ee61-4a76-4d86-9816-9c9579f8958a"},"vehicle_type_id":"4","last_reported":1747667500,"current_range_meters":20000,"station_id":"ce4bhf92rcd13ifvqf40","pricing_plan_id":"cebpf4jnsgd1na2vs0mg"},{"bike_id":"79703b61-4f59-4128-9bcd-e1def9c49c3a","system_id":"levelo_inurba_marseille","lat":43.2816,"lon":5.42655,"is_reserved":false,"is_disabled":false,"rental_uris":{"android":"levelo://app?vid=79703b61-4f59-4128-9bcd-e1def9c49c3a","ios":"levelo://app?vid=79703b61-4f59-4128-9bcd-e1def9c49c3a"},"vehicle_type_id":"4","last_reported":1747667500,"current_range_meters":20000,"station_id":"ce4bhnh2rcd13ifvqgug","pricing_plan_id":"cebpf4jnsgd1na2vs0mg"},{"bike_id":"c7fa045b-8abd-4bd8-ac58-69864d07dca7","system_id":"levelo_inurba_marseille","lat":43.32108,"lon":5.36799,"is_reserved":false,"is_disabled":false,"rental_uris":{"android":"levelo://app?vid=c7fa045b-8abd-4bd8-ac58-69864d07dca7","ios":"levelo://app?vid=c7fa045b-8abd-4bd8-ac58-69864d07dca7"},"vehicle_type_id":"4","last_reported":1747667500,"current_range_meters":20000,"station_id":"ce4bhrh2rcd13ifvqhug","pricing_plan_id":"cebpf4jnsgd1na2vs0mg"},{"bike_id":"95571b4c-8895-4b92-b2c3-90f8e0d19a2c","system_id":"levelo_inurba_marseille","lat":43.268094,"lon":5.402667,"is_reserved":false,"is_disabled":false,"rental_uris":{"android":"levelo://app?vid=95571b4c-8895-4b92-b2c3-90f8e0d19a2c","ios":"levelo://app?vid=95571b4c-8895-4b92-b2c3-90f8e0d19a2c"},"vehicle_type_id":"4","last_reported":1747667500,"current_range_meters":20000,"station_id":"ce501612rcd8frsf0b60","pricing_plan_id":"cebpf4jnsgd1na2vs0mg"},{"bike_id":"8b705388-235a-4e73-90a9-c588fc29e8fb","system_id":"levelo_inurba_marseille","lat":43.30142,"lon":5.37422,"is_reserved":false,"is_disabled":false,"rental_uris":{"android":"levelo://app?vid=8b705388-235a-4e73-90a9-c588fc29e8fb","ios":"levelo://app?vid=8b705388-235a-4e73-90a9-c588fc29e8fb"},"vehicle_type_id":"4","last_reported":1747667500,"current_range_meters":20400,"station_id":"ce4bgs92rcd13ifvqcc0","pricing_plan_id":"cebpf4jnsgd1na2vs0mg"},{"bike_id":"c1f6cca4-1d65-4130-8c29-0b1fe3352f4d","system_id":"levelo_inurba_marseille","lat":43.24806,"lon":5.37454,"is_reserved":false,"is_disabled":false,"rental_uris":{"android":"levelo://app?vid=c1f6cca4-1d65-4130-8c29-0b1fe3352f4d","ios":"levelo://app?vid=c1f6cca4-1d65-4130-8c29-0b1fe3352f4d"},"vehicle_type_id":"4","last_reported":1747667500,"current_range_meters":20400,"station_id":"ce4bhgh2rcd13ifvqfb0","pricing_plan_id":"cebpf4jnsgd1na2vs0mg"},{"bike_id":"43ffdf67-4a7d-48c6-a8f2-e37eeb818ee7","system_id":"levelo_inurba_marseille","lat":43.23182,"lon":5.39998,"is_reserved":false,"is_disabled":false,"rental_uris":{"android":"levelo://app?vid=43ffdf67-4a7d-48c6-a8f2-e37eeb818ee7","ios":"levelo://app?vid=43ffdf67-4a7d-48c6-a8f2-e37eeb818ee7"},"vehicle_type_id":"4","last_reported":1747667500,"current_range_meters":20400,"station_id":"ce4bhn12rcd13ifvqgqg","pricing_plan_id":"cebpf4jnsgd1na2vs0mg"},{"bike_id":"5765434c-77b5-41b5-8b14-b978e4d6dd10","system_id":"levelo_inurba_marseille","lat":43.21211,"lon":5.3509,"is_reserved":false,"is_disabled":false,"rental_uris":{"android":"levelo://app?vid=5765434c-77b5-41b5-8b14-b978e4d6dd10","ios":"levelo://app?vid=5765434c-77b5-41b5-8b14-b978e4d6dd10"},"vehicle_type_id":"4","last_reported":1747667500,"current_range_meters":20400,"station_id":"st_cvj6sg6p6f1abm77japg","pricing_plan_id":"cebpf4jnsgd1na2vs0mg"},{"bike_id":"d33ff261-bb93-4e54-a563-fd4eb50abe78","system_id":"levelo_inurba_marseille","lat":43.3378,"lon":5.37451,"is_reserved":false,"is_disabled":false,"rental_uris":{"android":"levelo://app?vid=d33ff261-bb93-4e54-a563-fd4eb50abe78","ios":"levelo://app?vid=d33ff261-bb93-4e54-a563-fd4eb50abe78"},"vehicle_type_id":"4","last_reported":1747667500,"current_range_meters":20800,"station_id":"","pricing_plan_id":"cebpf4jnsgd1na2vs0mg"},{"bike_id":"046d764d-db1a-4479-9e60-d4508f6cd8ec","system_id":"levelo_inurba_marseille","lat":43.29792,"lon":5.38098,"is_reserved":false,"is_disabled":false,"rental_uris":{"android":"levelo://app?vid=046d764d-db1a-4479-9e60-d4508f6cd8ec","ios":"levelo://app?vid=046d764d-db1a-4479-9e60-d4508f6cd8ec"},"vehicle_type_id":"4","last_reported":1747667500,"current_range_meters":20800,"station_id":"ce4bgip2rcd13ifvqbb0","pricing_plan_id":"cebpf4jnsgd1na2vs0mg"},{"bike_id":"ed24548a-5275-44f4-8781-61a350e5d855","system_id":"levelo_inurba_marseille","lat":43.29367,"lon":5.37851,"is_reserved":false,"is_disabled":false,"rental_uris":{"android":"levelo://app?vid=ed24548a-5275-44f4-8781-61a350e5d855","ios":"levelo://app?vid=ed24548a-5275-44f4-8781-61a350e5d855"},"vehicle_type_id":"4","last_reported":1747667500,"current_range_meters":20800,"station_id":"ce4bgjh2rcd13ifvqbf0","pricing_plan_id":"cebpf4jnsgd1na2vs0mg"},{"bike_id":"ecc076e6-f7fc-4891-9347-a8f5606af383","system_id":"levelo_inurba_marseille","lat":43.29236,"lon":5.36083,"is_reserved":false,"is_disabled":false,"rental_uris":{"android":"levelo://app?vid=ecc076e6-f7fc-4891-9347-a8f5606af383","ios":"levelo://app?vid=ecc076e6-f7fc-4891-9347-a8f5606af383"},"vehicle_type_id":"4","last_reported":1747667500,"current_range_meters":20800,"station_id":"ce4bhbh2rcd13ifvqeqg","pricing_plan_id":"cebpf4jnsgd1na2vs0mg"},{"bike_id":"0209f970-ab1e-41ca-9573-c19149c3f4c4","system_id":"levelo_inurba_marseille","lat":43.2791,"lon":5.39577,"is_reserved":false,"is_disabled":false,"rental_uris":{"android":"levelo://app?vid=0209f970-ab1e-41ca-9573-c19149c3f4c4","ios":"levelo://app?vid=0209f970-ab1e-41ca-9573-c19149c3f4c4"},"vehicle_type_id":"4","last_reported":1747667500,"current_range_meters":20800,"station_id":"ce4bhf92rcd13ifvqf40","pricing_plan_id":"cebpf4jnsgd1na2vs0mg"},{"bike_id":"127d2b3d-86d4-440a-9313-d75b00e95fd3","system_id":"levelo_inurba_marseille","lat":43.271788,"lon":5.410137,"is_reserved":false,"is_disabled":false,"rental_uris":{"android":"levelo://app?vid=127d2b3d-86d4-440a-9313-d75b00e95fd3","ios":"levelo://app?vid=127d2b3d-86d4-440a-9313-d75b00e95fd3"},"vehicle_type_id":"4","last_reported":1747667500,"current_range_meters":20800,"station_id":"ce4bhl12rcd13ifvqgf0","pricing_plan_id":"cebpf4jnsgd1na2vs0mg"},{"bike_id":"0adde67b-5db7-431f-b969-66ea2319d890","system_id":"levelo_inurba_marseille","lat":43.27172,"lon":5.40994,"is_reserved":false,"is_disabled":false,"rental_uris":{"android":"levelo://app?vid=0adde67b-5db7-431f-b969-66ea2319d890","ios":"levelo://app?vid=0adde67b-5db7-431f-b969-66ea2319d890"},"vehicle_type_id":"4","last_reported":1747667500,"current_range_meters":20800,"station_id":"ce4bhl12rcd13ifvqgf0","pricing_plan_id":"cebpf4jnsgd1na2vs0mg"},{"bike_id":"24dc12dd-e0a1-4ccc-b473-486d35ddca69","system_id":"levelo_inurba_marseille","lat":43.317176,"lon":5.437015,"is_reserved":false,"is_disabled":false,"rental_uris":{"android":"levelo://app?vid=24dc12dd-e0a1-4ccc-b473-486d35ddca69","ios":"levelo://app?vid=24dc12dd-e0a1-4ccc-b473-486d35ddca69"},"vehicle_type_id":"4","last_reported":1747667500,"current_range_meters":20800,"station_id":"ce4bhp92rcd13ifvqhcg","pricing_plan_id":"cebpf4jnsgd1na2vs0mg"},{"bike_id":"0fea50f6-4b78-493d-a955-ea2408628603","system_id":"levelo_inurba_marseille","lat":43.212,"lon":5.35075,"is_reserved":false,"is_disabled":false,"rental_uris":{"android":"levelo://app?vid=0fea50f6-4b78-493d-a955-ea2408628603","ios":"levelo://app?vid=0fea50f6-4b78-493d-a955-ea2408628603"},"vehicle_type_id":"4","last_reported":1747667500,"current_range_meters":20800,"station_id":"st_cvj6sg6p6f1abm77japg","pricing_plan_id":"cebpf4jnsgd1na2vs0mg"},{"bike_id":"2ede6d2b-a3ca-4342-9985-f8c043420ffe","system_id":"levelo_inurba_marseille","lat":43.297037,"lon":5.376959,"is_reserved":false,"is_disabled":false,"rental_uris":{"android":"levelo://app?vid=2ede6d2b-a3ca-4342-9985-f8c043420ffe","ios":"levelo://app?vid=2ede6d2b-a3ca-4342-9985-f8c043420ffe"},"vehicle_type_id":"4","last_reported":1747667500,"current_range_meters":21600,"station_id":"ce4bgkh2rcd13ifvqbl0","pricing_plan_id":"cebpf4jnsgd1na2vs0mg"},{"bike_id":"916142cf-a701-41ca-ad3e-1f64af2488d1","system_id":"levelo_inurba_marseille","lat":43.24662,"lon":5.38168,"is_reserved":false,"is_disabled":false,"rental_uris":{"android":"levelo://app?vid=916142cf-a701-41ca-ad3e-1f64af2488d1","ios":"levelo://app?vid=916142cf-a701-41ca-ad3e-1f64af2488d1"},"vehicle_type_id":"4","last_reported":1747667500,"current_range_meters":21600,"station_id":"ce4bhih2rcd13ifvqfr0","pricing_plan_id":"cebpf4jnsgd1na2vs0mg"},{"bike_id":"dce03856-0c26-4753-bb2b-5578a870d602","system_id":"levelo_inurba_marseille","lat":43.28665,"lon":5.38682,"is_reserved":false,"is_disabled":false,"rental_uris":{"android":"levelo://app?vid=dce03856-0c26-4753-bb2b-5578a870d602","ios":"levelo://app?vid=dce03856-0c26-4753-bb2b-5578a870d602"},"vehicle_type_id":"4","last_reported":1747667500,"current_range_meters":22000,"station_id":"ce4bh492rcd13ifvqdug","pricing_plan_id":"cebpf4jnsgd1na2vs0mg"},{"bike_id":"739411c4-0bbc-4741-be16-b528acdcbd6a","system_id":"levelo_inurba_marseille","lat":43.26575,"lon":5.39013,"is_reserved":false,"is_disabled":false,"rental_uris":{"android":"levelo://app?vid=739411c4-0bbc-4741-be16-b528acdcbd6a","ios":"levelo://app?vid=739411c4-0bbc-4741-be16-b528acdcbd6a"},"vehicle_type_id":"4","last_reported":1747667500,"current_range_meters":22000,"station_id":"ce4bhe12rcd13ifvqf30","pricing_plan_id":"cebpf4jnsgd1na2vs0mg"},