{"last_updated":1727125716,"ttl":30,"version":"2.2","data":{"bikes":[{"bike_id":"1bbd2c9d-0111-4ab6-9880-8a8cf885073f","system_id":"levelo_inurba_marseille","lat":43.22927,"lon":5.35375,"is_reserved":false,"is_disabled":false,"rental_uris":{"android":"levelo://app?vid=1bbd2c9d-0111-4ab6-9880-8a8cf885073f","ios":"levelo://app?vid=1bbd2c9d-0111-4ab6-9880-8a8cf885073f"},"vehicle_type_id":"4","last_reported":1727125717,"current_range_meters":38800,"station_id":"cpo3532slgdg3j2ikp40","pricing_plan_id":"cebpf4jnsgd1na2vs0mg"},{"bike_id":"34e49e59-195f-4e3e-907c-4e46993b2f20","system_id":"levelo_inurba_marseille","lat":43.25079,"lon":5.3952,"is_reserved":false,"is_disabled":false,"rental_uris":{"android":"levelo://app?vid=34e49e59-195f-4e3e-907c-4e46993b2f20","ios":"levelo://app?vid=34e49e59-195f-4e3e-907c-4e46993b2f20"},"vehicle_type_id":"4","last_reported":1727125717,"current_range_meters":38800,"station_id":"ce4bhm12rcd13ifvqgkg","pricing_plan_id":"cebpf4jnsgd1na2vs0mg"},{"bike_id":"a9c042b5-aa44-41e6-ae6f-d6edb7b9da97","system_id":"levelo_inurba_marseille","lat":43.29766,"lon":5.39369,"is_reserved":false,"is_disabled":false,"rental_uris":{"android":"levelo://app?vid=a9c042b5-aa44-41e6-ae6f-d6edb7b9da97","ios":"levelo://app?vid=a9c042b5-aa44-41e6-ae6f-d6edb7b9da97"},"vehicle_type_id":"4","last_reported":1727125717,"current_range_meters":22400,"station_id":"chh1huq6cuj3fo74tm60","pricing_plan_id":"cebpf4jnsgd1na2vs0mg"},{"bike_id":"9218faa6-bed0-49a5-93f8-e77c777d8c04","system_id":"levelo_inurba_marseille","lat":43.32545,"lon":5.4144,"is_reserved":false,"is_disabled":false,"rental_uris":{"android":"levelo://app?vid=9218faa6-bed0-49a5-93f8-e77c777d8c04","ios":"levelo://app?vid=9218faa6-bed0-49a5-93f8-e77c777d8c04"},"vehicle_type_id":"4","last_reported":1727125717,"current_range_meters":31200,"station_id":"ce4bhq12rcd13ifvqhhg","pricing_plan_id":"cebpf4jnsgd1na2vs0mg"},{"bike_id":"8bb2518f-55dd-4c1a-87b9-a20806215020","system_id":"levelo_inurba_marseille","lat":43.32661,"lon":5.40987,"is_reserved":false,"is_disabled":false,"rental_uris":{"android":"levelo://app?vid=8bb2518f-55dd-4c1a-87b9-a20806215020","ios":"levelo://app?vid=8bb2518f-55dd-4c1a-87b9-a20806215020"},"vehicle_type_id":"4","last_reported":1727125717,"current_range_meters":38800,"station_id":"ce4bhpp2rcd13ifvqhgg","pricing_plan_id":"cebpf4jnsgd1na2vs0mg"},{"bike_id":"0b867cf0-0a3a-446c-b669-b298f9278571","system_id":"levelo_inurba_marseille","lat":43.26549,"lon":5.37296,"is_reserved":false,"is_disabled":false,"rental_uris":{"android":"levelo://app?vid=0b867cf0-0a3a-446c-b669-b298f9278571","ios":"levelo://app?vid=0b867cf0-0a3a-446c-b669-b298f9278571"},"vehicle_type_id":"4","last_reported":1727125717,"current_range_meters":38800,"station_id":"ce4bhg12rcd13ifvqf70","pricing_plan_id":"cebpf4jnsgd1na2vs0mg"},{"bike_id":"5f0b1244-d634-4717-ab1d-dd6db718fb6d","system_id":"levelo_inurba_marseille","lat":43.30793,"lon":5.43557,"is_reserved":false,"is_disabled":false,"rental_uris":{"android":"levelo://app?vid=5f0b1244-d634-4717-ab1d-dd6db718fb6d","ios":"levelo://app?vid=5f0b1244-d634-4717-ab1d-dd6db718fb6d"},"vehicle_type_id":"4","last_reported":1727125717,"current_range_meters":39200,"station_id":"ce4bhph2rcd13ifvqheg","pricing_plan_id":"cebpf4jnsgd1na2vs0mg"},{"bike_id":"195f0389-8525-419d-b9b7-07f958b4f1d0","system_id":"levelo_inurba_marseille","lat":43.30887,"lon":5.39637,"is_reserved":false,"is_disabled":false,"rental_uris":{"android":"levelo://app?vid=195f0389-8525-419d-b9b7-07f958b4f1d0","ios":"levelo://app?vid=195f0389-8525-419d-b9b7-07f958b4f1d0"},"vehicle_type_id":"4","last_reported":1727125717,"current_range_meters":27600,"station_id":"ce4bh012rcd13ifvqcv0","pricing_plan_id":"cebpf4jnsgd1na2vs0mg"},{"bike_id":"499c0ced-b967-420d-8de7-21ec3fc392a9","system_id":"levelo_inurba_marseille","lat":43.31323,"lon":5.39714,"is_reserved":false,"is_disabled":false,"rental_uris":{"android":"levelo://app?vid=499c0ced-b967-420d-8de7-21ec3fc392a9","ios":"levelo://app?vid=499c0ced-b967-420d-8de7-21ec3fc392a9"},"vehicle_type_id":"4","last_reported":1727125717,"current_range_meters":38800,"station_id":"ce4bgvp2rcd13ifvqcu0","pricing_plan_id":"cebpf4jnsgd1na2vs0mg"},{"bike_id":"c8640b59-7eca-4e49-a736-4505b92487e7","system_id":"levelo_inurba_marseille","lat":43.2803,"lon":5.36954,"is_reserved":false,"is_disabled":false,"rental_uris":{"android":"levelo://app?vid=c8640b59-7eca-4e49-a736-4505b92487e7","ios":"levelo://app?vid=c8640b59-7eca-4e49-a736-4505b92487e7"},"vehicle_type_id":"4","last_reported":1727125717,"current_range_meters":37600,"station_id":"ce4bha12rcd13ifvqef0","pricing_plan_id":"cebpf4jnsgd1na2vs0mg"},{"bike_id":"8a36b205-5d39-425b-9431-3cbfd0b04638","system_id":"levelo_inurba_marseille","lat":43.31708,"lon":5.43709,"is_reserved":false,"is_disabled":false,"rental_uris":{"android":"levelo://app?vid=8a36b205-5d39-425b-9431-3cbfd0b04638","ios":"levelo://app?vid=8a36b205-5d39-425b-9431-3cbfd0b04638"},"vehicle_type_id":"4","last_reported":1727125717,"current_range_meters":12400,"station_id":"ce4bhp92rcd13ifvqhcg","pricing_plan_id":"cebpf4jnsgd1na2vs0mg"},{"bike_id":"6fe862fe-6846-4362-a714-f7750c1170d8","system_id":"levelo_inurba_marseille","lat":43.30648,"lon":5.401,"is_reserved":false,"is_disabled":false,"rental_uris":{"android":"levelo://app?vid=6fe862fe-6846-4362-a714-f7750c1170d8","ios":"levelo://app?vid=6fe862fe-6846-4362-a714-f7750c1170d8"},"vehicle_type_id":"4","last_reported":1727125717,"current_range_meters":18000,"station_id":"ce4bh112rcd13ifvqda0","pricing_plan_id":"cebpf4jnsgd1na2vs0mg"},{"bike_id":"82b4f618-ff25-4c77-81ca-3c00951eaa58","system_id":"levelo_inurba_marseille","lat":43.30804,"lon":5.38155,"is_reserved":false,"is_disabled":false,"rental_uris":{"android":"levelo://app?vid=82b4f618-ff25-4c77-81ca-3c00951eaa58","ios":"levelo://app?vid=82b4f618-ff25-4c77-81ca-3c00951eaa58"},"vehicle_type_id":"4","last_reported":1727125717,"current_range_meters":3200,"station_id":"ce4bgt12rcd13ifvqce0","pricing_plan_id":"cebpf4jnsgd1na2vs0mg"},{"bike_id":"c44a2d1f-0e1f-4194-afa0-989e14768908","system_id":"levelo_inurba_marseille","lat":43.31716,"lon":5.37754,"is_reserved":false,"is_disabled":false,"rental_uris":{"android":"levelo://app?vid=c44a2d1f-0e1f-4194-afa0-989e14768908","ios":"levelo://app?vid=c44a2d1f-0e1f-4194-afa0-989e14768908"},"vehicle_type_id":"4","last_reported":1727125717,"current_range_meters":37600,"station_id":"ce4bgth2rcd13ifvqch0","pricing_plan_id":"cebpf4jnsgd1na2vs0mg"},{"bike_id":"107c306b-c550-43fe-bd56-3f7464a6de7d","system_id":"levelo_inurba_marseille","lat":43.30419,"lon":5.39764,"is_reserved":false,"is_disabled":false,"rental_uris":{"android":"levelo://app?vid=107c306b-c550-43fe-bd56-3f7464a6de7d","ios":"levelo://app?vid=107c306b-c550-43fe-bd56-3f7464a6de7d"},"vehicle_type_id":"4","last_reported":1727125717,"current_range_meters":24400,"station_id":"ce4bh092rcd13ifvqd20","pricing_plan_id":"cebpf4jnsgd1na2vs0mg"},{"bike_id":"20a042f1-81aa-4cde-8548-4f002e395336","system_id":"levelo_inurba_marseille","lat":43.31069,"lon":5.40102,"is_reserved":false,"is_disabled":false,"rental_uris":{"android":"levelo://app?vid=20a042f1-81aa-4cde-8548-4f002e395336","ios":"levelo://app?vid=20a042f1-81aa-4cde-8548-4f002e395336"},"vehicle_type_id":"4","last_reported":1727125717,"current_range_meters":27600,"station_id":"ce4bgvp2rcd13ifvqct0","pricing_plan_id":"cebpf4jnsgd1na2vs0mg"},{"bike_id":"955a45ce-ee6e-43bd-b0f8-b99118776f58","system_id":"levelo_inurba_marseille","lat":43.31761,"lon":5.39009,"is_reserved":false,"is_disabled":false,"rental_uris":{"android":"levelo://app?vid=955a45ce-ee6e-43bd-b0f8-b99118776f58","ios":"levelo://app?vid=955a45ce-ee6e-43bd-b0f8-b99118776f58"},"vehicle_type_id":"4","last_reported":1727125717,"current_range_meters":10000,"station_id":"ce4bhqp2rcd13ifvqhng","pricing_plan_id":"cebpf4jnsgd1na2vs0mg"},{"bike_id":"0155a995-db13-4df1-a076-dc5ac787861a","system_id":"levelo_inurba_marseille","lat":43.2903,"lon":5.38645,"is_reserved":false,"is_disabled":false,"rental_uris":{"android":"levelo://app?vid=0155a995-db13-4df1-a076-dc5ac787861a","ios":"levelo://app?vid=0155a995-db13-4df1-a076-dc5ac787861a"},"vehicle_type_id":"4","last_reported":1727125717,"current_range_meters":38000,"station_id":"ce4bh4p2rcd13ifvqe0g","pricing_plan_id":"cebpf4jnsgd1na2vs0mg"},{"bike_id":"8422990e-8823-4d96-af43-839cc39d19a0","system_id":"levelo_inurba_marseille","lat":43.27074,"lon":5.42285,"is_reserved":false,"is_disabled":false,"rental_uris":{"android":"levelo://app?vid=8422990e-8823-4d96-af43-839cc39d19a0","ios":"levelo://app?vid=8422990e-8823-4d96-af43-839cc39d19a0"},"vehicle_type_id":"4","last_reported":1727125717,"current_range_meters":38800,"station_id":"ce4bhk92rcd13ifvqgb0","pricing_plan_id":"cebpf4jnsgd1na2vs0mg"},{"bike_id":"af2d724c-ab4c-44e5-8455-2fb06117fdc5","system_id":"levelo_inurba_marseille","lat":43.303811,"lon":5.366833,"is_reserved":false,"is_disabled":false,"rental_uris":{"android":"levelo://app?vid=af2d724c-ab4c-44e5-8455-2fb06117fdc5","ios":"levelo://app?vid=af2d724c-ab4c-44e5-8455-2fb06117fdc5"},"vehicle_type_id":"4","last_reported":1727125717,"current_range_meters":17600,"station_id":"","pricing_plan_id":"cebpf4jnsgd1na2vs0mg"},{"bike_id":"2da6bb34-e6b8-4740-b6ca-62eda5452aec","system_id":"levelo_inurba_marseille","lat":43.25576,"lon":5.38243,"is_reserved":false,"is_disabled":false,"rental_uris":{"android":"levelo://app?vid=2da6bb34-e6b8-4740-b6ca-62eda5452aec","ios":"levelo://app?vid=2da6bb34-e6b8-4740-b6ca-62eda5452aec"},"vehicle_type_id":"4","last_reported":1727125717,"current_range_meters":38800,"station_id":"ce4bhih2rcd13ifvqfs0","pricing_plan_id":"cebpf4jnsgd1na2vs0mg"},{"bike_id":"8ea06fdf-0829-4de0-ad97-8a4d58343f95","system_id":"levelo_inurba_marseille","lat":43.2952,"lon":5.39413,"is_reserved":false,"is_disabled":false,"rental_uris":{"android":"levelo://app?vid=8ea06fdf-0829-4de0-ad97-8a4d58343f95","ios":"levelo://app?vid=8ea06fdf-0829-4de0-ad97-8a4d58343f95"},"vehicle_type_id":"4","last_reported":1727125717,"current_range_meters":25200,"station_id":"ce4bh292rcd13ifvqdf0","pricing_plan_id":"cebpf4jnsgd1na2vs0mg"},{"bike_id":"edd9f561-5010-424f-b5df-12ce2bb400d0","system_id":"levelo_inurba_marseille","lat":43.245361,"lon":5.395248,"is_reserved":false,"is_disabled":false,"rental_uris":{"android":"levelo://app?vid=edd9f561-5010-424f-b5df-12ce2bb400d0","ios":"levelo://app?vid=edd9f561-5010-424f-b5df-12ce2bb400d0"},"vehicle_type_id":"4","last_reported":1727125717,"current_range_meters":3200,"station_id":"ce4bhlp2rcd13ifvqgjg","pricing_plan_id":"cebpf4jnsgd1na2vs0mg"},{"bike_id":"ba398423-104c-4d17-851a-2a8001635d21","system_id":"levelo_inurba_marseille","lat":43.31171,"lon":5.38721,"is_reserved":false,"is_disabled":false,"rental_uris":{"android":"levelo://app?vid=ba398423-104c-4d17-851a-2a8001635d21","ios":"levelo://app?vid=ba398423-104c-4d17-851a-2a8001635d21"},"vehicle_type_id":"4","last_reported":1727125717,"current_range_meters":38800,"station_id":"ce4bgv12rcd13ifvqcp0","pricing_plan_id":"cebpf4jnsgd1na2vs0mg"},{"bike_id":"ff089e92-e1d8-46cc-9121-c5b0576ff68e","system_id":"levelo_inurba_marseille","lat":43.29191,"lon":5.39334,"is_reserved":false,"is_disabled":false,"rental_uris":{"android":"levelo://app?vid=ff089e92-e1d8-46cc-9121-c5b0576ff68e","ios":"levelo://app?vid=ff089e92-e1d8-46cc-9121-c5b0576ff68e"},"vehicle_type_id":"4","last_reported":1727125717,"current_range_meters":28800,"station_id":"ce4bh192rcd13ifvqdd0","pricing_plan_id":"cebpf4jnsgd1na2vs0mg"},{"bike_id":"4117225d-fbf7-489f-a9f9-a7903758f15d","system_id":"levelo_inurba_marseille","lat":43.337444,"lon":5.374475,"is_reserved":false,"is_disabled":false,"rental_uris":{"android":"levelo://app?vid=4117225d-fbf7-489f-a9f9-a7903758f15d","ios":"levelo://app?vid=4117225d-fbf7-489f-a9f9-a7903758f15d"},"vehicle_type_id":"4","last_reported":1727125717,"current_range_meters":24800,"station_id":"","pricing_plan_id":"cebpf4jnsgd1na2vs0mg"},{"bike_id":"d0ec4f7a-ac0d-44fa-83b4-aeda2498d0bb","system_id":"levelo_inurba_marseille","lat":43.27918,"lon":5.39581,"is_reserved":false,"is_disabled":false,"rental_uris":{"android":"levelo://app?vid=d0ec4f7a-ac0d-44fa-83b4-aeda2498d0bb","ios":"levelo://app?vid=d0ec4f7a-ac0d-44fa-83b4-aeda2498d0bb"},"vehicle_type_id":"4","last_reported":1727125717,"current_range_meters":36800,"station_id":"ce4bhf92rcd13ifvqf40","pricing_plan_id":"cebpf4jnsgd1na2vs0mg"},{"bike_id":"d3d95288-22a3-477a-8b82-3d450f6a1bbc","system_id":"levelo_inurba_marseille","lat":43.28716,"lon":5.36105,"is_reserved":false,"is_disabled":false,"rental_uris":{"android":"levelo://app?vid=d3d95288-22a3-477a-8b82-3d450f6a1bbc","ios":"levelo://app?vid=d3d95288-22a3-477a-8b82-3d450f6a1bbc"},"vehicle_type_id":"4","last_reported":1727125717,"current_range_meters":6800,"station_id":"cki0cbj6b192h4jlfktg","pricing_plan_id":"cebpf4jnsgd1na2vs0mg"},{"bike_id":"a1e6c73d-635c-4d18-aa26-00d9d8e42282","system_id":"levelo_inurba_marseille","lat":43.31208,"lon":5.36865,"is_reserved":false,"is_disabled":false,"rental_uris":{"android":"levelo://app?vid=a1e6c73d-635c-4d18-aa26-00d9d8e42282","ios":"levelo://app?vid=a1e6c73d-635c-4d18-aa26-00d9d8e42282"},"vehicle_type_id":"4","last_reported":1727125717,"current_range_meters":30400,"station_id":"ce4bgl92rcd13ifvqbq0","pricing_plan_id":"cebpf4jnsgd1na2vs0mg"},{"bike_id":"8034a22f-53a1-499f-851e-d3ef519a24b0","system_id":"levelo_inurba_marseille","lat":43.30643,"lon":5.40094,"is_reserved":false,"is_disabled":false,"rental_uris":{"android":"levelo://app?vid=8034a22f-53a1-499f-851e-d3ef519a24b0","ios":"levelo://app?vid=8034a22f-53a1-499f-851e-d3ef519a24b0"},"vehicle_type_id":"4","last_reported":1727125717,"current_range_meters":16800,"station_id":"ce4bh112rcd13ifvqda0","pricing_plan_id":"cebpf4jnsgd1na2vs0mg"},{"bike_id":"a697c666-c7db-4dd0-93e0-cd3cdc25783c","system_id":"levelo_inurba_marseille","lat":43.32655,"lon":5.40999,"is_reserved":false,"is_disabled":false,"rental_uris":{"android":"levelo://app?vid=a697c666-c7db-4dd0-93e0-cd3cdc25783c","ios":"levelo://app?vid=a697c666-c7db-4dd0-93e0-cd3cdc25783c"},"vehicle_type_id":"4","last_reported":1727125717,"current_range_meters":38800,"station_id":"ce4bhpp2rcd13ifvqhgg","pricing_plan_id":"cebpf4jnsgd1na2vs0mg"},{"bike_id":"8cf8eddb-e442-47b0-9c45-6088c76a1438","system_id":"levelo_inurba_marseille","lat":43.31758,"lon":5.39006,"is_reserved":false,"is_disabled":false,"rental_uris":{"android":"levelo://app?vid=8cf8eddb-e442-47b0-9c45-6088c76a1438","ios":"levelo://app?vid=8cf8eddb-e442-47b0-9c45-6088c76a1438"},"vehicle_type_id":"4","last_reported":1727125717,"current_range_meters":38400,"station_id":"ce4bhqp2rcd13ifvqhng","pricing_plan_id":"cebpf4jnsgd1na2vs0mg"},{"bike_id":"96a83bfe-c6b5-4256-89b6-ec36bdfaf970","system_id":"levelo_inurba_marseille","lat":43.26939,"lon":5.40262,"is_reserved":false,"is_disabled":false,"rental_uris":{"android":"levelo://app?vid=96a83bfe-c6b5-4256-89b6-ec36bdfaf970","ios":"levelo://app?vid=96a83bfe-c6b5-4256-89b6-ec36bdfaf970"},"vehicle_type_id":"4","last_reported":1727125717,"current_range_meters":25600,"station_id":"cjm6bp8fraef2m0cb0m0","pricing_plan_id":"cebpf4jnsgd1na2vs0mg"},{"bike_id":"fa9370f8-6949-4504-ae96-c94007ebf570","system_id":"levelo_inurba_marseille","lat":43.23972,"lon":5.36628,"is_reserved":false,"is_disabled":false,"rental_uris":{"android":"levelo://app?vid=fa9370f8-6949-4504-ae96-c94007ebf570","ios":"levelo://app?vid=fa9370f8-6949-4504-ae96-c94007ebf570"},"vehicle_type_id":"4","last_reported":1727125717,"current_range_meters":38800,"station_id":"ce4bhi12rcd13ifvqfp0","pricing_plan_id":"cebpf4jnsgd1na2vs0mg"},{"bike_id":"8468b284-e894-48a8-aff7-8e3fc3e578b4","system_id":"levelo_inurba_marseille","lat":43.29029,"lon":5.38656,"is_reserved":false,"is_disabled":false,"rental_uris":{"android":"levelo://app?vid=8468b284-e894-48a8-aff7-8e3fc3e578b4","ios":"levelo://app?vid=8468b284-e894-48a8-aff7-8e3fc3e578b4"},"vehicle_type_id":"4","last_reported":1727125717,"current_range_meters":16400,"station_id":"ce4bh4p2rcd13ifvqe0g","pricing_plan_id":"cebpf4jnsgd1na2vs0mg"},{"bike_id":"766f3b4d-74d7-4b4a-b44b-7c4ce308308f","system_id":"levelo_inurba_marseille","lat":43.28877,"lon":5.35977,"is_reserved":false,"is_disabled":false,"rental_uris":{"android":"levelo://app?vid=766f3b4d-74d7-4b4a-b44b-7c4ce308308f","ios":"levelo://app?vid=766f3b4d-74d7-4b4a-b44b-7c4ce308308f"},"vehicle_type_id":"4","last_reported":1727125717,"current_range_meters":25600,"station_id":"","pricing_plan_id":"cebpf4jnsgd1na2vs0mg"},{"bike_id":"67f25e71-d398-4629-b141-dc877cec4c4c","system_id":"levelo_inurba_marseille","lat":43.26017,"lon":5.37588,"is_reserved":false,"is_disabled":false,"rental_uris":{"android":"levelo://app?vid=67f25e71-d398-4629-b141-dc877cec4c4c","ios":"levelo://app?vid=67f25e71-d398-4629-b141-dc877cec4c4c"},"vehicle_type_id":"4","last_reported":1727125717,"current_range_meters":6800,"station_id":"ce4bhgh2rcd13ifvqfa0","pricing_plan_id":"cebpf4jnsgd1na2vs0mg"},{"bike_id":"9f6c6812-05fc-41b5-8f41-e80c597dd715","system_id":"levelo_inurba_marseille","lat":43.25575,"lon":5.38238,"is_reserved":false,"is_disabled":false,"rental_uris":{"android":"levelo://app?vid=9f6c6812-05fc-41b5-8f41-e80c597dd715","ios":"levelo://app?vid=9f6c6812-05fc-41b5-8f41-e80c597dd715"},"vehicle_type_id":"4","last_reported":1727125717,"current_range_meters":37600,"station_id":"ce4bhih2rcd13ifvqfs0","pricing_plan_id":"cebpf4jnsgd1na2vs0mg"},{"bike_id":"a41f78ca-c56e-4015-a153-aa8c5ee44fd7","system_id":"levelo_inurba_marseille","lat":43.31072,"lon":5.38348,"is_reserved":false,"is_disabled":false,"rental_uris":{"android":"levelo://app?vid=a41f78ca-c56e-4015-a153-aa8c5ee44fd7","ios":"levelo://app?vid=a41f78ca-c56e-4015-a153-aa8c5ee44fd7"},"vehicle_type_id":"4","last_reported":1727125717,"current_range_meters":38800,"station_id":"ce4bgv92rcd13ifvqcr0","pricing_plan_id":"cebpf4jnsgd1na2vs0mg"},{"bike_id":"d171a2b3-6372-4af1-8a11-5061d298d43a","system_id":"levelo_inurba_marseille","lat":43.31119,"lon":5.37766,"is_reserved":false,"is_disabled":false,"rental_uris":{"android":"levelo://app?vid=d171a2b3-6372-4af1-8a11-5061d298d43a","ios":"levelo://app?vid=d171a2b3-6372-4af1-8a11-5061d298d43a"},"vehicle_type_id":"4","last_reported":1727125717,"current_range_meters":38800,"station_id":"ce4bgt92rcd13ifvqcg0","pricing_plan_id":"cebpf4jnsgd1na2vs0mg"},{"bike_id":"5a1521a8-5072-4ef0-818c-b1a7c293acca","system_id":"levelo_inurba_marseille","lat":43.26549,"lon":5.37287,"is_reserved":false,"is_disabled":false,"rental_uris":{"android":"levelo://app?vid=5a1521a8-5072-4ef0-818c-b1a7c293acca","ios":"levelo://app?vid=5a1521a8-5072-4ef0-818c-b1a7c293acca"},"vehicle_type_id":"4","last_reported":1727125717,"current_range_meters":38800,"station_id":"ce4bhg12rcd13ifvqf70","pricing_plan_id":"cebpf4jnsgd1na2vs0mg"},{"bike_id":"1a108c67-bfd6-4ec1-bbd7-f904000be4ea","system_id":"levelo_inurba_marseille","lat":43.28722,"lon":5.36084,"is_reserved":false,"is_disabled":false,"rental_uris":{"android":"levelo://app?vid=1a108c67-bfd6-4ec1-bbd7-f904000be4ea","ios":"levelo://app?vid=1a108c67-bfd6-4ec1-bbd7-f904000be4ea"},"vehicle_type_id":"4","last_reported":1727125717,"current_range_meters":18800,"station_id":"cki0cbj6b192h4jlfktg","pricing_plan_id":"cebpf4jnsgd1na2vs0mg"},{"bike_id":"2d47d9ef-ddfa-41da-88c1-6cc4349377d1","system_id":"levelo_inurba_marseille","lat":43.33025,"lon":5.39046,"is_reserved":false,"is_disabled":false,"rental_uris":{"android":"levelo://app?vid=2d47d9ef-ddfa-41da-88c1-6cc4349377d1","ios":"levelo://app?vid=2d47d9ef-ddfa-41da-88c1-6cc4349377d1"},"vehicle_type_id":"4","last_reported":1727125717,"current_range_meters":22800,"station_id":"ce4bhr92rcd13ifvqhrg","pricing_plan_id":"cebpf4jnsgd1na2vs0mg"},{"bike_id":"3ebaaaec-15d2-494c-ab9e-13e8bcbe1874","system_id":"levelo_inurba_marseille","lat":43.29276,"lon":5.3686,"is_reserved":false,"is_disabled":false,"rental_uris":{"android":"levelo://app?vid=3ebaaaec-15d2-494c-ab9e-13e8bcbe1874","ios":"levelo://app?vid=3ebaaaec-15d2-494c-ab9e-13e8bcbe1874"},"vehicle_type_id":"4","last_reported":1727125717,"current_range_meters":28800,"station_id":"ce4bhbp2rcd13ifvqesg","pricing_plan_id":"cebpf4jnsgd1na2vs0mg"},{"bike_id":"0acb8fda-8c8b-45d6-a605-e76d40778e66","system_id":"levelo_inurba_marseille","lat":43.28457,"lon":5.35888,"is_reserved":false,"is_disabled":false,"rental_uris":{"android":"levelo://app?vid=0acb8fda-8c8b-45d6-a605-e76d40778e66","ios":"levelo://app?vid=0acb8fda-8c8b-45d6-a605-e76d40778e66"},"vehicle_type_id":"4","last_reported":1727125717,"current_range_meters":35600,"station_id":"ce4bhah2rcd13ifvqei0","pricing_plan_id":"cebpf4jnsgd1na2vs0mg"},{"bike_id":"84bfa327-5931-4fe5-98dd-b4cee613801e","system_id":"levelo_inurba_marseille","lat":43.28668,"lon":5.38664,"is_reserved":false,"is_disabled":false,"rental_uris":{"android":"levelo://app?vid=84bfa327-5931-4fe5-98dd-b4cee613801e","ios":"levelo://app?vid=84bfa327-5931-4fe5-98dd-b4cee613801e"},"vehicle_type_id":"4","last_reported":1727125717,"current_range_meters":38800,"station_id":"ce4bh492rcd13ifvqdug","pricing_plan_id":"cebpf4jnsgd1na2vs0mg"},{"bike_id":"57be9e58-b1b2-43d9-9f58-d16597d1070b","system_id":"levelo_inurba_marseille","lat":43.28712,"lon":5.37385,"is_reserved":false,"is_disabled":false,"rental_uris":{"android":"levelo://app?vid=57be9e58-b1b2-43d9-9f58-d16597d1070b","ios":"levelo://app?vid=57be9e58-b1b2-43d9-9f58-d16597d1070b"},"vehicle_type_id":"4","last_reported":1727125717,"current_range_meters":36800,"station_id":"ce4bh3p2rcd13ifvqdq0","pricing_plan_id":"cebpf4jnsgd1na2vs0mg"},{"bike_id":"243acbb2-b7c1-4cd9-af3a-99bdf9b601de","system_id":"levelo_inurba_marseille","lat":43.3064,"lon":5.40073,"is_reserved":false,"is_disabled":false,"rental_uris":{"android":"levelo://app?vid=243acbb2-b7c1-4cd9-af3a-99bdf9b601de","ios":"levelo://app?vid=243acbb2-b7c1-4cd9-af3a-99bdf9b601de"},"vehicle_type_id":"4","last_reported":1727125717,"current_range_meters":11200,"station_id":"ce4bh112rcd13ifvqda0","pricing_plan_id":"cebpf4jnsgd1na2vs0mg"},{"bike_id":"61bd236a-fb12-4a4b-98e9-490ae0b82a81","system_id":"levelo_inurba_marseille","lat":43.27911,"lon":5.39585,"is_reserved":false,"is_disabled":false,"rental_uris":{"android":"levelo://app?vid=61bd236a-fb12-4a4b-98e9-490ae0b82a81","ios":"levelo://app?vid=61bd236a-fb12-4a4b-98e9-490ae0b82a81"},"vehicle_type_id":"4","last_reported":1727125717,"current_range_meters":24400,"station_id":"ce4bhf92rcd13ifvqf40","pricing_plan_id":"cebpf4jnsgd1na2vs0mg"},{"bike_id":"81ea2171-f6ad-45eb-a199-d58fb107d910","system_id":"levelo_inurba_marseille","lat":43.2844,"lon":5.39193,"is_reserved":false,"is_disabled":false,"rental_uris":{"android":"levelo://app?vid=81ea2171-f6ad-45eb-a199-d58fb107d910","ios":"levelo://app?vid=81ea2171-f6ad-45eb-a199-d58fb107d910"},"vehicle_type_id":"4","last_reported":1727125717,"current_range_meters":16800,"station_id":"ce4bhoh2rcd13ifvqh5g","pricing_plan_id":"cebpf4jnsgd1na2vs0mg"},{"bike_id":"31033a15-9c41-4294-b19b-2a24d1488d0b","system_id":"levelo_inurba_marseille","lat":43.28715,"lon":5.37941,"is_reserved":false,"is_disabled":false,"rental_uris":{"android":"levelo://app?vid=31033a15-9c41-4294-b19b-2a24d1488d0b","ios":"levelo://app?vid=31033a15-9c41-4294-b19b-2a24d1488d0b"},"vehicle_type_id":"4","last_reported":1727125717,"current_range_meters":38800,"station_id":"ce4bh9p2rcd13ifvqec0","pricing_plan_id":"cebpf4jnsgd1na2vs0mg"},{"bike_id":"666624a4-1ff9-40c1-90cd-a2413de224c1","system_id":"levelo_inurba_marseille","lat":43.27922,"lon":5.39575,"is_reserved":false,"is_disabled":false,"rental_uris":{"android":"levelo://app?vid=666624a4-1ff9-40c1-90cd-a2413de224c1","ios":"levelo://app?vid=666624a4-1ff9-40c1-90cd-a2413de224c1"},"vehicle_type_id":"4","last_reported":1727125717,"current_range_meters":8000,"station_id":"ce4bhf92rcd13ifvqf40","pricing_plan_id":"cebpf4jnsgd1na2vs0mg"},{"bike_id":"cd5c5922-cbcb-4dea-bad7-5c835bfd2ef2","system_id":"levelo_inurba_marseille","lat":43.31687,"lon":5.40479,"is_reserved":false,"is_disabled":false,"rental_uris":{"android":"levelo://app?vid=cd5c5922-cbcb-4dea-bad7-5c835bfd2ef2","ios":"levelo://app?vid=cd5c5922-cbcb-4dea-bad7-5c835bfd2ef2"},"vehicle_type_id":"4","last_reported":1727125717,"current_range_meters":35600,"station_id":"ce4bh012rcd13ifvqd00","pricing_plan_id":"cebpf4jnsgd1na2vs0mg"},{"bike_id":"054ef9cf-d7d1-47a0-ba54-693d59fb6ca0","system_id":"levelo_inurba_marseille","lat":43.284332,"lon":5.349758,"is_reserved":false,"is_disabled":false,"rental_uris":{"android":"levelo://app?vid=054ef9cf-d7d1-47a0-ba54-693d59fb6ca0","ios":"levelo://app?vid=054ef9cf-d7d1-47a0-ba54-693d59fb6ca0"},"vehicle_type_id":"4","last_reported":1727125717,"current_range_meters":9600,"station_id":"ce4bhbp2rcd13ifvqerg","pricing_plan_id":"cebpf4jnsgd1na2vs0mg"},{"bike_id":"695aad5b-d024-4f0e-ae46-a715fe638d1f","system_id":"levelo_inurba_marseille","lat":43.30884,"lon":5.3963,"is_reserved":false,"is_disabled":false,"rental_uris":{"android":"levelo://app?vid=695aad5b-d024-4f0e-ae46-a715fe638d1f","ios":"levelo://app?vid=695aad5b-d024-4f0e-ae46-a715fe638d1f"},"vehicle_type_id":"4","last_reported":1727125717,"current_range_meters":30000,"station_id":"ce4bh012rcd13ifvqcv0","pricing_plan_id":"cebpf4jnsgd1na2vs0mg"},{"bike_id":"36c416da-9158-44af-aa3a-06b103bea7bf","system_id":"levelo_inurba_marseille","lat":43.337444,"lon":5.374475,"is_reserved":false,"is_disabled":false,"rental_uris":{"android":"levelo://app?vid=36c416da-9158-44af-aa3a-06b103bea7bf","ios":"levelo://app?vid=36c416da-9158-44af-aa3a-06b103bea7bf"},"vehicle_type_id":"4","last_reported":1727125717,"current_range_meters":22000,"station_id":"","pricing_plan_id":"cebpf4jnsgd1na2vs0mg"},{"bike_id":"68febfdd-1c39-499a-9a15-645963772bb9","system_id":"levelo_inurba_marseille","lat":43.29781,"lon":5.37296,"is_reserved":false,"is_disabled":false,"rental_uris":{"android":"levelo://app?vid=68febfdd-1c39-499a-9a15-645963772bb9","ios":"levelo://app?vid=68febfdd-1c39-499a-9a15-645963772bb9"},"vehicle_type_id":"4","last_reported":1727125717,"current_range_meters":16800,"station_id":"","pricing_plan_id":"cebpf4jnsgd1na2vs0mg"},{"bike_id":"705754a9-8db5-4905-a726-ce16bab725f2","system_id":"levelo_inurba_marseille","lat":43.28728,"lon":5.3608,"is_reserved":false,"is_disabled":false,"rental_uris":{"android":"levelo://app?vid=705754a9-8db5-4905-a726-ce16bab725f2","ios":"levelo://app?vid=705754a9-8db5-4905-a726-ce16bab725f2"},"vehicle_type_id":"4","last_reported":1727125717,"current_range_meters":4000,"station_id":"cki0cbj6b192h4jlfktg","pricing_plan_id":"cebpf4jnsgd1na2vs0mg"},{"bike_id":"518d06cf-dc29-4699-9d32-9d3b18d804a9","system_id":"levelo_inurba_marseille","lat":43.28269,"lon":5.3506,"is_reserved":false,"is_disabled":false,"rental_uris":{"android":"levelo://app?vid=518d06cf-dc29-4699-9d32-9d3b18d804a9","ios":"levelo://app?vid=518d06cf-dc29-4699-9d32-9d3b18d804a9"},"vehicle_type_id":"4","last_reported":1727125717,"current_range_meters":36800,"station_id":"ce4bhbp2rcd13ifvqerg","pricing_plan_id":"cebpf4jnsgd1na2vs0mg"},{"bike_id":"8b71f704-7b9a-430f-bacd-8e6c45ee02b1","system_id":"levelo_inurba_marseille","lat":43.29898,"lon":5.43679,"is_reserved":false,"is_disabled":false,"rental_uris":{"android":"levelo://app?vid=8b71f704-7b9a-430f-bacd-8e6c45ee02b1","ios":"levelo://app?vid=8b71f704-7b9a-430f-bacd-8e6c45ee02b1"},"vehicle_type_id":"4","last_reported":1727125717,"current_range_meters":28400,"station_id":"ce4bhpp2rcd13ifvqhfg","pricing_plan_id":"cebpf4jnsgd1na2vs0mg"},{"bike_id":"ae2cb518-dc3d-4204-839c-ebf3a10a9627","system_id":"levelo_inurba_marseille","lat":43.299,"lon":5.43689,"is_reserved":false,"is_disabled":false,"rental_uris":{"android":"levelo://app?vid=ae2cb518-dc3d-4204-839c-ebf3a10a9627","ios":"levelo://app?vid=ae2cb518-dc3d-4204-839c-ebf3a10a9627"},"vehicle_type_id":"4","last_reported":1727125717,"current_range_meters":8400,"station_id":"ce4bhpp2rcd13ifvqhfg","pricing_plan_id":"cebpf4jnsgd1na2vs0mg"},{"bike_id":"149b26ed-a813-4c7b-873e-974f4887237c","system_id":"levelo_inurba_marseille","lat":43.2866,"lon":5.36363,"is_reserved":false,"is_disabled":false,"rental_uris":{"android":"levelo://app?vid=149b26ed-a813-4c7b-873e-974f4887237c","ios":"levelo://app?vid=149b26ed-a813-4c7b-873e-974f4887237c"},"vehicle_type_id":"4","last_reported":1727125717,"current_range_meters":30000,"station_id":"ce4bhah2rcd13ifvqej0","pricing_plan_id":"cebpf4jnsgd1na2vs0mg"},{"bike_id":"d5f5db2f-2c3d-4046-a044-391b3f72b76d","system_id":"levelo_inurba_marseille","lat":43.32358,"lon":5.38885,"is_reserved":false,"is_disabled":false,"rental_uris":{"android":"levelo://app?vid=d5f5db2f-2c3d-4046-a044-391b3f72b76d","ios":"levelo://app?vid=d5f5db2f-2c3d-4046-a044-391b3f72b76d"},"vehicle_type_id":"4","last_reported":1727125717,"current_range_meters":20000,"station_id":"ce4bhqp2rcd13ifvqhog","pricing_plan_id":"cebpf4jnsgd1na2vs0mg"},{"bike_id":"94576bef-1880-4696-97ad-1a3c62b80871","system_id":"levelo_inurba_marseille","lat":43.31273,"lon":5.40175,"is_reserved":false,"is_disabled":false,"rental_uris":{"android":"levelo://app?vid=94576bef-1880-4696-97ad-1a3c62b80871","ios":"levelo://app?vid=94576bef-1880-4696-97ad-1a3c62b80871"},"vehicle_type_id":"4","last_reported":1727125717,"current_range_meters":22400,"station_id":"ce4bh092rcd13ifvqd30","pricing_plan_id":"cebpf4jnsgd1na2vs0mg"},{"bike_id":"5abf3738-3056-45d0-ad36-b5f63eb6c7bd","system_id":"levelo_inurba_marseille","lat":43.31712,"lon":5.43707,"is_reserved":false,"is_disabled":false,"rental_uris":{"android":"levelo://app?vid=5abf3738-3056-45d0-ad36-b5f63eb6c7bd","ios":"levelo://app?vid=5abf3738-3056-45d0-ad36-b5f63eb6c7bd"},"vehicle_type_id":"4","last_reported":1727125717,"current_range_meters":19200,"station_id":"ce4bhp92rcd13ifvqhcg","pricing_plan_id":"cebpf4jnsgd1na2vs0mg"},{"bike_id":"6e942756-6f8b-4979-89fc-ce9bf3b8c787","system_id":"levelo_inurba_marseille","lat":43.28152,"lon":5.42642,"is_reserved":false,"is_disabled":false,"rental_uris":{"android":"levelo://app?vid=6e942756-6f8b-4979-89fc-ce9bf3b8c787","ios":"levelo://app?vid=6e942756-6f8b-4979-89fc-ce9bf3b8c787"},"vehicle_type_id":"4","last_reported":1727125717,"current_range_meters":8400,"station_id":"ce4bhnh2rcd13ifvqgug","pricing_plan_id":"cebpf4jnsgd1na2vs0mg"},{"bike_id":"13e5798c-54fe-493c-b8e9-efaf9c6baa3e","system_id":"levelo_inurba_marseille","lat":43.28352,"lon":5.38111,"is_reserved":false,"is_disabled":false,"rental_uris":{"android":"levelo://app?vid=13e5798c-54fe-493c-b8e9-efaf9c6baa3e","ios":"levelo://app?vid=13e5798c-54fe-493c-b8e9-efaf9c6baa3e"},"vehicle_type_id":"4","last_reported":1727125717,"current_range_meters":39200,"station_id":"ce4bh412rcd13ifvqdr0","pricing_plan_id":"cebpf4jnsgd1na2vs0mg"},{"bike_id":"ad6dcd37-dd45-4aed-b7e0-83a69504887f","system_id":"levelo_inurba_marseille","lat":43.31111,"lon":5.37769,"is_reserved":false,"is_disabled":false,"rental_uris":{"android":"levelo://app?vid=ad6dcd37-dd45-4aed-b7e0-83a69504887f","ios":"levelo://app?vid=ad6dcd37-dd45-4aed-b7e0-83a69504887f"},"vehicle_type_id":"4","last_reported":1727125717,"current_range_meters":38400,"station_id":"ce4bgt92rcd13ifvqcg0","pricing_plan_id":"cebpf4jnsgd1na2vs0mg"},{"bike_id":"14e2b4d7-15c7-44a0-b5cd-f0d7c3aeb754","system_id":"levelo_inurba_marseille","lat":43.2306,"lon":5.35496,"is_reserved":false,"is_disabled":false,"rental_uris":{"android":"levelo://app?vid=14e2b4d7-15c7-44a0-b5cd-f0d7c3aeb754","ios":"levelo://app?vid=14e2b4d7-15c7-44a0-b5cd-f0d7c3aeb754"},"vehicle_type_id":"4","last_reported":1727125717,"current_range_meters":38800,"station_id":"cpo3342slgdg3j2ifvpg","pricing_plan_id":"cebpf4jnsgd1na2vs0mg"},{"bike_id":"db1de5a4-3e82-4159-b084-9011fd5c09b6","system_id":"levelo_inurba_marseille","lat":43.31222,"lon":5.36869,"is_reserved":false,"is_disabled":false,"rental_uris":{"android":"levelo://app?vid=db1de5a4-3e82-4159-b084-9011fd5c09b6","ios":"levelo://app?vid=db1de5a4-3e82-4159-b084-9011fd5c09b6"},"vehicle_type_id":"4","last_reported":1727125717,"current_range_meters":22800,"station_id":"ce4bgl92rcd13ifvqbq0","pricing_plan_id":"cebpf4jnsgd1na2vs0mg"},{"bike_id":"0fad02ce-2585-4d78-8501-540d0478fd69","system_id":"levelo_inurba_marseille","lat":43.31485,"lon":5.37309,"is_reserved":false,"is_disabled":false,"rental_uris":{"android":"levelo://app?vid=0fad02ce-2585-4d78-8501-540d0478fd69","ios":"levelo://app?vid=0fad02ce-2585-4d78-8501-540d0478fd69"},"vehicle_type_id":"4","last_reported":1727125717,"current_range_meters":17600,"station_id":"ce4bgt12rcd13ifvqcd0","pricing_plan_id":"cebpf4jnsgd1na2vs0mg"},{"bike_id":"2df36696-7216-40f5-b66e-cbe4ccac6e06","system_id":"levelo_inurba_marseille","lat":43.31326,"lon":5.39691,"is_reserved":false,"is_disabled":false,"rental_uris":{"android":"levelo://app?vid=2df36696-7216-40f5-b66e-cbe4ccac6e06","ios":"levelo://app?vid=2df36696-7216-40f5-b66e-cbe4ccac6e06"},"vehicle_type_id":"4","last_reported":1727125717,"current_range_meters":8000,"station_id":"ce4bgvp2rcd13ifvqcu0","pricing_plan_id":"cebpf4jnsgd1na2vs0mg"},{"bike_id":"bc7057cf-d45d-4fdb-8cda-4aabcd98acd7","system_id":"levelo_inurba_marseille","lat":43.30884,"lon":5.39655,"is_reserved":false,"is_disabled":false,"rental_uris":{"android":"levelo://app?vid=bc7057cf-d45d-4fdb-8cda-4aabcd98acd7","ios":"levelo://app?vid=bc7057cf-d45d-4fdb-8cda-4aabcd98acd7"},"vehicle_type_id":"4","last_reported":1727125717,"current_range_meters":25200,"station_id":"ce4bh012rcd13ifvqcv0","pricing_plan_id":"cebpf4jnsgd1na2vs0mg"},{"bike_id":"b07123d7-1377-4433-ad21-459392a56837","system_id":"levelo_inurba_marseille","lat":43.29197,"lon":5.3933,"is_reserved":false,"is_disabled":false,"rental_uris":{"android":"levelo://app?vid=b07123d7-1377-4433-ad21-459392a56837","ios":"levelo://app?vid=b07123d7-1377-4433-ad21-459392a56837"},"vehicle_type_id":"4","last_reported":1727125717,"current_range_meters":32000,"station_id":"ce4bh192rcd13ifvqdd0","pricing_plan_id":"cebpf4jnsgd1na2vs0mg"},{"bike_id":"08567dec-3780-4e86-b270-87786a078387","system_id":"levelo_inurba_marseille","lat":43.23962,"lon":5.36631,"is_reserved":false,"is_disabled":false,"rental_uris":{"android":"levelo://app?vid=08567dec-3780-4e86-b270-87786a078387","ios":"levelo://app?vid=08567dec-3780-4e86-b270-87786a078387"},"vehicle_type_id":"4","last_reported":1727125717,"current_range_meters":38800,"station_id":"ce4bhi12rcd13ifvqfp0","pricing_plan_id":"cebpf4jnsgd1na2vs0mg"},{"bike_id":"97b7a43b-cedc-4ed1-903e-6243f72dea61","system_id":"levelo_inurba_marseille","lat":43.28456,"lon":5.35889,"is_reserved":false,"is_disabled":false,"rental_uris":{"android":"levelo://app?vid=97b7a43b-cedc-4ed1-903e-6243f72dea61","ios":"levelo://app?vid=97b7a43b-cedc-4ed1-903e-6243f72dea61"},"vehicle_type_id":"4","last_reported":1727125717,"current_range_meters":11600,"station_id":"ce4bhah2rcd13ifvqei0","pricing_plan_id":"cebpf4jnsgd1na2vs0mg"},{"bike_id":"4311ad07-fe17-44e4-8154-398daa141b11","system_id":"levelo_inurba_marseille","lat":43.31169,"lon":5.38712,"is_reserved":false,"is_disabled":false,"rental_uris":{"android":"levelo://app?vid=4311ad07-fe17-44e4-8154-398daa141b11","ios":"levelo://app?vid=4311ad07-fe17-44e4-8154-398daa141b11"},"vehicle_type_id":"4","last_reported":1727125717,"current_range_meters":24000,"station_id":"ce4bgv12rcd13ifvqcp0","pricing_plan_id":"cebpf4jnsgd1na2vs0mg"},{"bike_id":"c7923aaa-b6ba-4fdb-b087-5e25a988d85a","system_id":"levelo_inurba_marseille","lat":43.3229,"lon":5.38268,"is_reserved":false,"is_disabled":false,"rental_uris":{"android":"levelo://app?vid=c7923aaa-b6ba-4fdb-b087-5e25a988d85a","ios":"levelo://app?vid=c7923aaa-b6ba-4fdb-b087-5e25a988d85a"},"vehicle_type_id":"4","last_reported":1727125717,"current_range_meters":22800,"station_id":"ce4bhr12rcd13ifvqhqg","pricing_plan_id":"cebpf4jnsgd1na2vs0mg"},{"bike_id":"23fd9155-91d9-4f08-95f6-679c5e2492e4","system_id":"levelo_inurba_marseille","lat":43.2797,"lon":5.38748,"is_reserved":false,"is_disabled":false,"rental_uris":{"android":"levelo://app?vid=23fd9155-91d9-4f08-95f6-679c5e2492e4","ios":"levelo://app?vid=23fd9155-91d9-4f08-95f6-679c5e2492e4"},"vehicle_type_id":"4","last_reported":1727125717,"current_range_meters":24000,"station_id":"ce4bhg12rcd13ifvqf80","pricing_plan_id":"cebpf4jnsgd1na2vs0mg"},{"bike_id":"8de257a6-527f-4f56-9966-7ef317a791a4","system_id":"levelo_inurba_marseille","lat":43.23197,"lon":5.35553,"is_reserved":false,"is_disabled":false,"rental_uris":{"android":"levelo://app?vid=8de257a6-527f-4f56-9966-7ef317a791a4","ios":"levelo://app?vid=8de257a6-527f-4f56-9966-7ef317a791a4"},"vehicle_type_id":"4","last_reported":1727125717,"current_range_meters":20800,"station_id":"ce4bhu92rcd13ifvqi70","pricing_plan_id":"cebpf4jnsgd1na2vs0mg"},{"bike_id":"39b0113d-7075-417f-be9c-135964556a2b","system_id":"levelo_inurba_marseille","lat":43.30167,"lon":5.36609,"is_reserved":false,"is_disabled":false,"rental_uris":{"android":"levelo://app?vid=39b0113d-7075-417f-be9c-135964556a2b","ios":"levelo://app?vid=39b0113d-7075-417f-be9c-135964556a2b"},"vehicle_type_id":"4","last_reported":1727125717,"current_range_meters":16800,"station_id":"ce4bgrh2rcd13ifvqc8g","pricing_plan_id":"cebpf4jnsgd1na2vs0mg"},{"bike_id":"efcaff67-56aa-47b6-b6e3-2862345f0a7f","system_id":"levelo_inurba_marseille","lat":43.29452,"lon":5.39753,"is_reserved":false,"is_disabled":false,"rental_uris":{"android":"levelo://app?vid=efcaff67-56aa-47b6-b6e3-2862345f0a7f","ios":"levelo://app?vid=efcaff67-56aa-47b6-b6e3-2862345f0a7f"},"vehicle_type_id":"4","last_reported":1727125717,"current_range_meters":22400,"station_id":"ce4bh3h2rcd13ifvqdo0","pricing_plan_id":"cebpf4jnsgd1na2vs0mg"},{"bike_id":"28efdab4-31dc-4c73-8a65-e85f74881d43","system_id":"levelo_inurba_marseille","lat":43.29516,"lon":5.37501,"is_reserved":false,"is_disabled":false,"rental_uris":{"android":"levelo://app?vid=28efdab4-31dc-4c73-8a65-e85f74881d43","ios":"levelo://app?vid=28efdab4-31dc-4c73-8a65-e85f74881d43"},"vehicle_type_id":"4","last_reported":1727125717,"current_range_meters":37600,"station_id":"ce4bgkp2rcd13ifvqbmg","pricing_plan_id":"cebpf4jnsgd1na2vs0mg"},{"bike_id":"118c6c57-3f6b-4df6-a589-d569a7829f38","system_id":"levelo_inurba_marseille","lat":43.32543,"lon":5.4144,"is_reserved":false,"is_disabled":false,"rental_uris":{"android":"levelo://app?vid=118c6c57-3f6b-4df6-a589-d569a7829f38","ios":"levelo://app?vid=118c6c57-3f6b-4df6-a589-d569a7829f38"},"vehicle_type_id":"4","last_reported":1727125717,"current_range_meters":22800,"station_id":"ce4bhq12rcd13ifvqhhg","pricing_plan_id":"cebpf4jnsgd1na2vs0mg"},{"bike_id":"80e593fc-7480-466c-a9ef-6d5ddec9f9c5","system_id":"levelo_inurba_marseille","lat":43.30589,"lon":5.37451,"is_reserved":false,"is_disabled":false,"rental_uris":{"android":"levelo://app?vid=80e593fc-7480-466c-a9ef-6d5ddec9f9c5","ios":"levelo://app?vid=80e593fc-7480-466c-a9ef-6d5ddec9f9c5"},"vehicle_type_id":"4","last_reported":1727125717,"current_range_meters":10000,"station_id":"","pricing_plan_id":"cebpf4jnsgd1na2vs0mg"},{"bike_id":"148e3ed6-025c-48fc-82b6-91ff6dd9a576","system_id":"levelo_inurba_marseille","lat":43.23961,"lon":5.36633,"is_reserved":false,"is_disabled":false,"rental_uris":{"android":"levelo://app?vid=148e3ed6-025c-48fc-82b6-91ff6dd9a576","ios":"levelo://app?vid=148e3ed6-025c-48fc-82b6-91ff6dd9a576"},"vehicle_type_id":"4","last_reported":1727125717,"current_range_meters":38800,"station_id":"ce4bhi12rcd13ifvqfp0","pricing_plan_id":"cebpf4jnsgd1na2vs0mg"},{"bike_id":"cb727063-4ad7-4998-ab85-6258b1be7c68","system_id":"levelo_inurba_marseille","lat":43.29844,"lon":5.36268,"is_reserved":false,"is_disabled":false,"rental_uris":{"android":"levelo://app?vid=cb727063-4ad7-4998-ab85-6258b1be7c68","ios":"levelo://app?vid=cb727063-4ad7-4998-ab85-6258b1be7c68"},"vehicle_type_id":"4","last_reported":1727125717,"current_range_meters":8800,"station_id":"ce4bgpp2rcd13ifvqc3g","pricing_plan_id":"cebpf4jnsgd1na2vs0mg"},{"bike_id":"e5746f04-9596-403b-aec0-62ed7fd19d68","system_id":"levelo_inurba_marseille","lat":43.30946,"lon":5.39044,"is_reserved":false,"is_disabled":false,"rental_uris":{"android":"levelo://app?vid=e5746f04-9596-403b-aec0-62ed7fd19d68","ios":"levelo://app?vid=e5746f04-9596-403b-aec0-62ed7fd19d68"},"vehicle_type_id":"4","last_reported":1727125717,"current_range_meters":8400,"station_id":"ce4bgup2rcd13ifvqco0","pricing_plan_id":"cebpf4jnsgd1na2vs0mg"},{"bike_id":"0d7668b2-eb7e-4d71-9f70-62a7c1a58164","system_id":"levelo_inurba_marseille","lat":43.22923,"lon":5.35377,"is_reserved":false,"is_disabled":false,"rental_uris":{"android":"levelo://app?vid=0d7668b2-eb7e-4d71-9f70-62a7c1a58164","ios":"levelo://app?vid=0d7668b2-eb7e-4d71-9f70-62a7c1a58164"},"vehicle_type_id":"4","last_reported":1727125717,"current_range_meters":38800,"station_id":"cpo3532slgdg3j2ikp40","pricing_plan_id":"cebpf4jnsgd1na2vs0mg"},{"bike_id":"5233d860-f58e-4e7f-9139-8faba3081bec","system_id":"levelo_inurba_marseille","lat":43.2605,"lon":5.38698,"is_reserved":false,"is_disabled":false,"rental_uris":{"android":"levelo://app?vid=5233d860-f58e-4e7f-9139-8faba3081bec","ios":"levelo://app?vid=5233d860-f58e-4e7f-9139-8faba3081bec"},"vehicle_type_id":"4","last_reported":1727125717,"current_range_meters":8800,"station_id":"","pricing_plan_id":"cebpf4jnsgd1na2vs0mg"},{"bike_id":"58303e57-93a3-4fdc-991c-679ff5c0befe","system_id":"levelo_inurba_marseille","lat":43.28036,"lon":5.36955,"is_reserved":false,"is_disabled":false,"rental_uris":{"android":"levelo://app?vid=58303e57-93a3-4fdc-991c-679ff5c0befe","ios":"levelo://app?vid=58303e57-93a3-4fdc-991c-679ff5c0befe"},"vehicle_type_id":"4","last_reported":1727125717,"current_range_meters":30000,"station_id":"ce4bha12rcd13ifvqef0","pricing_plan_id":"cebpf4jnsgd1na2vs0mg"},{"bike_id":"2ece3bb3-5776-42d8-a3ec-7c3c120df5c0","system_id":"levelo_inurba_marseille","lat":43.29507,"lon":5.39411,"is_reserved":false,"is_disabled":false,"rental_uris":{"android":"levelo://app?vid=2ece3bb3-5776-42d8-a3ec-7c3c120df5c0","ios":"levelo://app?vid=2ece3bb3-5776-42d8-a3ec-7c3c120df5c0"},"vehicle_type_id":"4","last_reported":1727125717,"current_range_meters":38800,"station_id":"ce4bh292rcd13ifvqdf0","pricing_plan_id":"cebpf4jnsgd1na2vs0mg"},{"bike_id":"067f5b38-74ee-487f-a7b6-c018e31dd548","system_id":"levelo_inurba_marseille","lat":43.31319,"lon":5.39698,"is_reserved":false,"is_disabled":false,"rental_uris":{"android":"levelo://app?vid=067f5b38-74ee-487f-a7b6-c018e31dd548","ios":"levelo://app?vid=067f5b38-74ee-487f-a7b6-c018e31dd548"},"vehicle_type_id":"4","last_reported":1727125717,"current_range_meters":23200,"station_id":"ce4bgvp2rcd13ifvqcu0","pricing_plan_id":"cebpf4jnsgd1na2vs0mg"},{"bike_id":"c0bf08f8-39b8-43bf-8302-ac2a4dd5ad58","system_id":"levelo_inurba_marseille","lat":43.29554,"lon":5.42287,"is_reserved":false,"is_disabled":false,"rental_uris":{"android":"levelo://app?vid=c0bf08f8-39b8-43bf-8302-ac2a4dd5ad58","ios":"levelo://app?vid=c0bf08f8-39b8-43bf-8302-ac2a4dd5ad58"},"vehicle_type_id":"4","last_reported":1727125717,"current_range_meters":26000,"station_id":"ce4bhph2rcd13ifvqhdg","pricing_plan_id":"cebpf4jnsgd1na2vs0mg"},{"bike_id":"ae0da4f4-9468-47e1-b7f3-a229c5724675","system_id":"levelo_inurba_marseille","lat":43.29714,"lon":5.36618,"is_reserved":false,"is_disabled":false,"rental_uris":{"android":"levelo://app?vid=ae0da4f4-9468-47e1-b7f3-a229c5724675","ios":"levelo://app?vid=ae0da4f4-9468-47e1-b7f3-a229c5724675"},"vehicle_type_id":"4","last_reported":1727125717,"current_range_meters":18000,"station_id":"ce4bgn12rcd13ifvqbt0","pricing_plan_id":"cebpf4jnsgd1na2vs0mg"},{"bike_id":"60db3ab6-942f-4a97-8d9f-476471a5fa0c","system_id":"levelo_inurba_marseille","lat":43.2693,"lon":5.38921,"is_reserved":false,"is_disabled":false,"rental_uris":{"android":"levelo://app?vid=60db3ab6-942f-4a97-8d9f-476471a5fa0c","ios":"levelo://app?vid=60db3ab6-942f-4a97-8d9f-476471a5fa0c"},"vehicle_type_id":"4","last_reported":1727125717,"current_range_meters":14000,"station_id":"ce4bhhh2rcd13ifvqfl0","pricing_plan_id":"cebpf4jnsgd1na2vs0mg"},{"bike_id":"0bbd42ca-5d6a-4f37-905e-48992a9cd523","system_id":"levelo_inurba_marseille","lat":43.26946,"lon":5.38632,"is_reserved":false,"is_disabled":false,"rental_uris":{"android":"levelo://app?vid=0bbd42ca-5d6a-4f37-905e-48992a9cd523","ios":"levelo://app?vid=0bbd42ca-5d6a-4f37-905e-48992a9cd523"},"vehicle_type_id":"4","last_reported":1727125717,"current_range_meters":38800,"station_id":"ce4bhh92rcd13ifvqfh0","pricing_plan_id":"cebpf4jnsgd1na2vs0mg"},{"bike_id":"a263889c-8095-4eb6-8022-728868db3ba6","system_id":"levelo_inurba_marseille","lat":43.24543,"lon":5.39527,"is_reserved":false,"is_disabled":false,"rental_uris":{"android":"levelo://app?vid=a263889c-8095-4eb6-8022-728868db3ba6","ios":"levelo://app?vid=a263889c-8095-4eb6-8022-728868db3ba6"},"vehicle_type_id":"4","last_reported":1727125717,"current_range_meters":13600,"station_id":"ce4bhlp2rcd13ifvqgjg","pricing_plan_id":"cebpf4jnsgd1na2vs0mg"},{"bike_id":"72feed7b-288e-40f2-9fff-cde7ec50870e","system_id":"levelo_inurba_marseille","lat":43.30149,"lon":5.37405,"is_reserved":false,"is_disabled":false,"rental_uris":{"android":"levelo://app?vid=72feed7b-288e-40f2-9fff-cde7ec50870e","ios":"levelo://app?vid=72feed7b-288e-40f2-9fff-cde7ec50870e"},"vehicle_type_id":"4","last_reported":1727125717,"current_range_meters":8400,"station_id":"ce4bgs92rcd13ifvqcc0","pricing_plan_id":"cebpf4jnsgd1na2vs0mg"},{"bike_id":"07c14650-ae6a-4e16-ab1f-44817d12d49f","system_id":"levelo_inurba_marseille","lat":43.33021,"lon":5.39041,"is_reserved":false,"is_disabled":false,"rental_uris":{"android":"levelo://app?vid=07c14650-ae6a-4e16-ab1f-44817d12d49f","ios":"levelo://app?vid=07c14650-ae6a-4e16-ab1f-44817d12d49f"},"vehicle_type_id":"4","last_reported":1727125717,"current_range_meters":38800,"station_id":"ce4bhr92rcd13ifvqhrg","pricing_plan_id":"cebpf4jnsgd1na2vs0mg"},{"bike_id":"31b21eee-9ced-4000-91b2-ae4ed366066c","system_id":"levelo_inurba_marseille","lat":43.31328,"lon":5.39687,"is_reserved":false,"is_disabled":false,"rental_uris":{"android":"levelo://app?vid=31b21eee-9ced-4000-91b2-ae4ed366066c","ios":"levelo://app?vid=31b21eee-9ced-4000-91b2-ae4ed366066c"},"vehicle_type_id":"4","last_reported":1727125717,"current_range_meters":28800,"station_id":"ce4bgvp2rcd13ifvqcu0","pricing_plan_id":"cebpf4jnsgd1na2vs0mg"},{"bike_id":"905cbc60-a60c-4721-9845-1765bd2211c4","system_id":"levelo_inurba_marseille","lat":43.28703,"lon":5.37399,"is_reserved":false,"is_disabled":false,"rental_uris":{"android":"levelo://app?vid=905cbc60-a60c-4721-9845-1765bd2211c4","ios":"levelo://app?vid=905cbc60-a60c-4721-9845-1765bd2211c4"},"vehicle_type_id":"4","last_reported":1727125717,"current_range_meters":39200,"station_id":"ce4bh3p2rcd13ifvqdq0","pricing_plan_id":"cebpf4jnsgd1na2vs0mg"},{"bike_id":"141e6558-2c69-4aa6-af94-57835dd362e9","system_id":"levelo_inurba_marseille","lat":43.301833,"lon":5.366327,"is_reserved":false,"is_disabled":false,"rental_uris":{"android":"levelo://app?vid=141e6558-2c69-4aa6-af94-57835dd362e9","ios":"levelo://app?vid=141e6558-2c69-4aa6-af94-57835dd362e9"},"vehicle_type_id":"4","last_reported":1727125717,"current_range_meters":20000,"station_id":"ce4bgrh2rcd13ifvqc8g","pricing_plan_id":"cebpf4jnsgd1na2vs0mg"},{"bike_id":"800c26a6-e02c-463c-b3a6-d11e44aae34d","system_id":"levelo_inurba_marseille","lat":43.29065,"lon":5.3717,"is_reserved":false,"is_disabled":false,"rental_uris":{"android":"levelo://app?vid=800c26a6-e02c-463c-b3a6-d11e44aae34d","ios":"levelo://app?vid=800c26a6-e02c-463c-b3a6-d11e44aae34d"},"vehicle_type_id":"4","last_reported":1727125717,"current_range_meters":14000,"station_id":"ce4bh5p2rcd13ifvqe4g","pricing_plan_id":"cebpf4jnsgd1na2vs0mg"},{"bike_id":"729a7eee-bcf8-4897-b93a-b2ea3ca3b6d1","system_id":"levelo_inurba_marseille","lat":43.23959,"lon":5.36637,"is_reserved":false,"is_disabled":false,"rental_uris":{"android":"levelo://app?vid=729a7eee-bcf8-4897-b93a-b2ea3ca3b6d1","ios":"levelo://app?vid=729a7eee-bcf8-4897-b93a-b2ea3ca3b6d1"},"vehicle_type_id":"4","last_reported":1727125717,"current_range_meters":38400,"station_id":"ce4bhi12rcd13ifvqfp0","pricing_plan_id":"cebpf4jnsgd1na2vs0mg"},{"bike_id":"0321d152-1b94-4ebe-82e4-20d78bff89ff","system_id":"levelo_inurba_marseille","lat":43.29882,"lon":5.38908,"is_reserved":false,"is_disabled":false,"rental_uris":{"android":"levelo://app?vid=0321d152-1b94-4ebe-82e4-20d78bff89ff","ios":"levelo://app?vid=0321d152-1b94-4ebe-82e4-20d78bff89ff"},"vehicle_type_id":"4","last_reported":1727125717,"current_range_meters":35600,"station_id":"ce4bh392rcd13ifvqdl0","pricing_plan_id":"cebpf4jnsgd1na2vs0mg"},{"bike_id":"652c9ca2-ae64-4fe9-b2ab-74dbee41dfd0","system_id":"levelo_inurba_marseille","lat":43.29788,"lon":5.39351,"is_reserved":false,"is_disabled":false,"rental_uris":{"android":"levelo://app?vid=652c9ca2-ae64-4fe9-b2ab-74dbee41dfd0","ios":"levelo://app?vid=652c9ca2-ae64-4fe9-b2ab-74dbee41dfd0"},"vehicle_type_id":"4","last_reported":1727125717,"current_range_meters":17600,"station_id":"chh1huq6cuj3fo74tm60","pricing_plan_id":"cebpf4jnsgd1na2vs0mg"},{"bike_id":"f746166f-78db-4a12-82d0-ede18a412051","system_id":"levelo_inurba_marseille","lat":43.2656,"lon":5.3901,"is_reserved":false,"is_disabled":false,"rental_uris":{"android":"levelo://app?vid=f746166f-78db-4a12-82d0-ede18a412051","ios":"levelo://app?vid=f746166f-78db-4a12-82d0-ede18a412051"},"vehicle_type_id":"4","last_reported":1727125717,"current_range_meters":38800,"station_id":"ce4bhe12rcd13ifvqf30","pricing_plan_id":"cebpf4jnsgd1na2vs0mg"},{"bike_id":"ac0a21bc-81f6-4774-9a26-ec490f05aaeb","system_id":"levelo_inurba_marseille","lat":43.29547,"lon":5.42274,"is_reserved":false,"is_disabled":false,"rental_uris":{"android":"levelo://app?vid=ac0a21bc-81f6-4774-9a26-ec490f05aaeb","ios":"levelo://app?vid=ac0a21bc-81f6-4774-9a26-ec490f05aaeb"},"vehicle_type_id":"4","last_reported":1727125717,"current_range_meters":0,"station_id":"ce4bhph2rcd13ifvqhdg","pricing_plan_id":"cebpf4jnsgd1na2vs0mg"},{"bike_id":"02507c8a-f7ec-4e88-86d6-987f221b2f49","system_id":"levelo_inurba_marseille","lat":43.28708,"lon":5.37387,"is_reserved":false,"is_disabled":false,"rental_uris":{"android":"levelo://app?vid=02507c8a-f7ec-4e88-86d6-987f221b2f49","ios":"levelo://app?vid=02507c8a-f7ec-4e88-86d6-987f221b2f49"},"vehicle_type_id":"4","last_reported":1727125717,"current_range_meters":7200,"station_id":"ce4bh3p2rcd13ifvqdq0","pricing_plan_id":"cebpf4jnsgd1na2vs0mg"},{"bike_id":"6572dbda-96ab-4bb9-b9ab-197b62214cc8","system_id":"levelo_inurba_marseille","lat":43.28706,"lon":5.39976,"is_reserved":false,"is_disabled":false,"rental_uris":{"android":"levelo://app?vid=6572dbda-96ab-4bb9-b9ab-197b62214cc8","ios":"levelo://app?vid=6572dbda-96ab-4bb9-b9ab-197b62214cc8"},"vehicle_type_id":"4","last_reported":1727125717,"current_range_meters":38800,"station_id":"ce4bho92rcd13ifvqh3g","pricing_plan_id":"cebpf4jnsgd1na2vs0mg"},{"bike_id":"715c4804-6a86-4398-98ec-b57358573177","system_id":"levelo_inurba_marseille","lat":43.22929,"lon":5.35374,"is_reserved":false,"is_disabled":false,"rental_uris":{"android":"levelo://app?vid=715c4804-6a86-4398-98ec-b57358573177","ios":"levelo://app?vid=715c4804-6a86-4398-98ec-b57358573177"},"vehicle_type_id":"4","last_reported":1727125717,"current_range_meters":34000,"station_id":"cpo3532slgdg3j2ikp40","pricing_plan_id":"cebpf4jnsgd1na2vs0mg"},{"bike_id":"7ee68eb0-c4b3-4c61-8c9e-5a9ce1d7ca82","system_id":"levelo_inurba_marseille","lat":43.2944,"lon":5.39765,"is_reserved":false,"is_disabled":false,"rental_uris":{"android":"levelo://app?vid=7ee68eb0-c4b3-4c61-8c9e-5a9ce1d7ca82","ios":"levelo://app?vid=7ee68eb0-c4b3-4c61-8c9e-5a9ce1d7ca82"},"vehicle_type_id":"4","last_reported":1727125717,"current_range_meters":36800,"station_id":"ce4bh3h2rcd13ifvqdo0","pricing_plan_id":"cebpf4jnsgd1na2vs0mg"},{"bike_id":"ba2542eb-4a30-47aa-b57a-68ac954d789a","system_id":"levelo_inurba_marseille","lat":43.23185,"lon":5.3556,"is_reserved":false,"is_disabled":false,"rental_uris":{"android":"levelo://app?vid=ba2542eb-4a30-47aa-b57a-68ac954d789a","ios":"levelo://app?vid=ba2542eb-4a30-47aa-b57a-68ac954d789a"},"vehicle_type_id":"4","last_reported":1727125717,"current_range_meters":16400,"station_id":"ce4bhu92rcd13ifvqi70","pricing_plan_id":"cebpf4jnsgd1na2vs0mg"},{"bike_id":"676bd465-bccb-4cc4-8468-261d5151ca65","system_id":"levelo_inurba_marseille","lat":43.29632,"lon":5.40597,"is_reserved":false,"is_disabled":false,"rental_uris":{"android":"levelo://app?vid=676bd465-bccb-4cc4-8468-261d5151ca65","ios":"levelo://app?vid=676bd465-bccb-4cc4-8468-261d5151ca65"},"vehicle_type_id":"4","last_reported":1727125717,"current_range_meters":38400,"station_id":"ce4bh0h2rcd13ifvqd60","pricing_plan_id":"cebpf4jnsgd1na2vs0mg"},{"bike_id":"659b91b7-6dd8-4ec1-9f23-c9ffa2a71178","system_id":"levelo_inurba_marseille","lat":43.31493,"lon":5.37315,"is_reserved":false,"is_disabled":false,"rental_uris":{"android":"levelo://app?vid=659b91b7-6dd8-4ec1-9f23-c9ffa2a71178","ios":"levelo://app?vid=659b91b7-6dd8-4ec1-9f23-c9ffa2a71178"},"vehicle_type_id":"4","last_reported":1727125717,"current_range_meters":38800,"station_id":"ce4bgt12rcd13ifvqcd0","pricing_plan_id":"cebpf4jnsgd1na2vs0mg"},{"bike_id":"8212986c-093b-4785-923c-58dc38d91294","system_id":"levelo_inurba_marseille","lat":43.2872,"lon":5.37936,"is_reserved":false,"is_disabled":false,"rental_uris":{"android":"levelo://app?vid=8212986c-093b-4785-923c-58dc38d91294","ios":"levelo://app?vid=8212986c-093b-4785-923c-58dc38d91294"},"vehicle_type_id":"4","last_reported":1727125717,"current_range_meters":38800,"station_id":"ce4bh9p2rcd13ifvqec0","pricing_plan_id":"cebpf4jnsgd1na2vs0mg"},{"bike_id":"76bab56a-8a47-4c2c-a864-d6bb2a624ab4","system_id":"levelo_inurba_marseille","lat":43.31273,"lon":5.40169,"is_reserved":false,"is_disabled":false,"rental_uris":{"android":"levelo://app?vid=76bab56a-8a47-4c2c-a864-d6bb2a624ab4","ios":"levelo://app?vid=76bab56a-8a47-4c2c-a864-d6bb2a624ab4"},"vehicle_type_id":"4","last_reported":1727125717,"current_range_meters":9600,"station_id":"ce4bh092rcd13ifvqd30","pricing_plan_id":"cebpf4jnsgd1na2vs0mg"},{"bike_id":"2c5228b9-8b0f-4a80-9c17-02dbe75bf871","system_id":"levelo_inurba_marseille","lat":43.30416,"lon":5.41286,"is_reserved":false,"is_disabled":false,"rental_uris":{"android":"levelo://app?vid=2c5228b9-8b0f-4a80-9c17-02dbe75bf871","ios":"levelo://app?vid=2c5228b9-8b0f-4a80-9c17-02dbe75bf871"},"vehicle_type_id":"4","last_reported":1727125717,"current_range_meters":11600,"station_id":"ce4bhop2rcd13ifvqh8g","pricing_plan_id":"cebpf4jnsgd1na2vs0mg"},{"bike_id":"be6c4616-e944-4b48-9daa-86552f75a132","system_id":"levelo_inurba_marseille","lat":43.30307,"lon":5.368941,"is_reserved":false,"is_disabled":false,"rental_uris":{"android":"levelo://app?vid=be6c4616-e944-4b48-9daa-86552f75a132","ios":"levelo://app?vid=be6c4616-e944-4b48-9daa-86552f75a132"},"vehicle_type_id":"4","last_reported":1727125717,"current_range_meters":38400,"station_id":"ce4bgqh2rcd13ifvqc5g","pricing_plan_id":"cebpf4jnsgd1na2vs0mg"},{"bike_id":"ce6f0a87-58bc-46fb-a2f5-ad99b1e8dcf3","system_id":"levelo_inurba_marseille","lat":43.28938,"lon":5.36639,"is_reserved":false,"is_disabled":false,"rental_uris":{"android":"levelo://app?vid=ce6f0a87-58bc-46fb-a2f5-ad99b1e8dcf3","ios":"levelo://app?vid=ce6f0a87-58bc-46fb-a2f5-ad99b1e8dcf3"},"vehicle_type_id":"4","last_reported":1727125717,"current_range_meters":36400,"station_id":"ce4bhap2rcd13ifvqek0","pricing_plan_id":"cebpf4jnsgd1na2vs0mg"},{"bike_id":"3e696652-37cd-47da-93b7-589f45c1a332","system_id":"levelo_inurba_marseille","lat":43.314902,"lon":5.373081,"is_reserved":false,"is_disabled":false,"rental_uris":{"android":"levelo://app?vid=3e696652-37cd-47da-93b7-589f45c1a332","ios":"levelo://app?vid=3e696652-37cd-47da-93b7-589f45c1a332"},"vehicle_type_id":"4","last_reported":1727125717,"current_range_meters":26800,"station_id":"ce4bgvp2rcd13ifvqct0","pricing_plan_id":"cebpf4jnsgd1na2vs0mg"},{"bike_id":"98913b7e-c49f-44af-aecd-0f4ee8a6bf7e","system_id":"levelo_inurba_marseille","lat":43.24807,"lon":5.37463,"is_reserved":false,"is_disabled":false,"rental_uris":{"android":"levelo://app?vid=98913b7e-c49f-44af-aecd-0f4ee8a6bf7e","ios":"levelo://app?vid=98913b7e-c49f-44af-aecd-0f4ee8a6bf7e"},"vehicle_type_id":"4","last_reported":1727125717,"current_range_meters":28800,"station_id":"ce4bhgh2rcd13ifvqfb0","pricing_plan_id":"cebpf4jnsgd1na2vs0mg"},{"bike_id":"b510ad97-af80-4516-b624-2399b846f5f5","system_id":"levelo_inurba_marseille","lat":43.28442,"lon":5.39206,"is_reserved":false,"is_disabled":false,"rental_uris":{"android":"levelo://app?vid=b510ad97-af80-4516-b624-2399b846f5f5","ios":"levelo://app?vid=b510ad97-af80-4516-b624-2399b846f5f5"},"vehicle_type_id":"4","last_reported":1727125717,"current_range_meters":15200,"station_id":"ce4bhoh2rcd13ifvqh5g","pricing_plan_id":"cebpf4jnsgd1na2vs0mg"},{"bike_id":"5fb540ac-8f91-4336-a127-da844b6c90f9","system_id":"levelo_inurba_marseille","lat":43.23191,"lon":5.35556,"is_reserved":false,"is_disabled":false,"rental_uris":{"android":"levelo://app?vid=5fb540ac-8f91-4336-a127-da844b6c90f9","ios":"levelo://app?vid=5fb540ac-8f91-4336-a127-da844b6c90f9"},"vehicle_type_id":"4","last_reported":1727125717,"current_range_meters":24000,"station_id":"ce4bhu92rcd13ifvqi70","pricing_plan_id":"cebpf4jnsgd1na2vs0mg"},{"bike_id":"145cbcd5-fc67-4b82-b57e-a55874aa762d","system_id":"levelo_inurba_marseille","lat":43.23193,"lon":5.39975,"is_reserved":false,"is_disabled":false,"rental_uris":{"android":"levelo://app?vid=145cbcd5-fc67-4b82-b57e-a55874aa762d","ios":"levelo://app?vid=145cbcd5-fc67-4b82-b57e-a55874aa762d"},"vehicle_type_id":"4","last_reported":1727125717,"current_range_meters":12800,"station_id":"ce4bhn12rcd13ifvqgqg","pricing_plan_id":"cebpf4jnsgd1na2vs0mg"},{"bike_id":"418284f0-1251-43b9-98ed-a1c50997f234","system_id":"levelo_inurba_marseille","lat":43.28847,"lon":5.39321,"is_reserved":false,"is_disabled":false,"rental_uris":{"android":"levelo://app?vid=418284f0-1251-43b9-98ed-a1c50997f234","ios":"levelo://app?vid=418284f0-1251-43b9-98ed-a1c50997f234"},"vehicle_type_id":"4","last_reported":1727125717,"current_range_meters":35200,"station_id":"ce4bh2p2rcd13ifvqdi0","pricing_plan_id":"cebpf4jnsgd1na2vs0mg"},{"bike_id":"17730596-b00e-4f0e-b46a-cc1e0080d9c2","system_id":"levelo_inurba_marseille","lat":43.2319,"lon":5.35561,"is_reserved":false,"is_disabled":false,"rental_uris":{"android":"levelo://app?vid=17730596-b00e-4f0e-b46a-cc1e0080d9c2","ios":"levelo://app?vid=17730596-b00e-4f0e-b46a-cc1e0080d9c2"},"vehicle_type_id":"4","last_reported":1727125717,"current_range_meters":38800,"station_id":"ce4bhu92rcd13ifvqi70","pricing_plan_id":"cebpf4jnsgd1na2vs0mg"},{"bike_id":"1ec9d979-31c8-444b-aabe-92b02e1cfc1d","system_id":"levelo_inurba_marseille","lat":43.34147,"lon":5.40907,"is_reserved":false,"is_disabled":false,"rental_uris":{"android":"levelo://app?vid=1ec9d979-31c8-444b-aabe-92b02e1cfc1d","ios":"levelo://app?vid=1ec9d979-31c8-444b-aabe-92b02e1cfc1d"},"vehicle_type_id":"4","last_reported":1727125717,"current_range_meters":38800,"station_id":"ce4bhqh2rcd13ifvqhlg","pricing_plan_id":"cebpf4jnsgd1na2vs0mg"},{"bike_id":"b778ab85-5f86-495e-88e3-9d7d80f03689","system_id":"levelo_inurba_marseille","lat":43.29806,"lon":5.40408,"is_reserved":false,"is_disabled":false,"rental_uris":{"android":"levelo://app?vid=b778ab85-5f86-495e-88e3-9d7d80f03689","ios":"levelo://app?vid=b778ab85-5f86-495e-88e3-9d7d80f03689"},"vehicle_type_id":"4","last_reported":1727125717,"current_range_meters":30000,"station_id":"ce4bh112rcd13ifvqd90","pricing_plan_id":"cebpf4jnsgd1na2vs0mg"},{"bike_id":"dc176719-f62d-4e09-8c86-94f014388a44","system_id":"levelo_inurba_marseille","lat":43.28368,"lon":5.38633,"is_reserved":false,"is_disabled":false,"rental_uris":{"android":"levelo://app?vid=dc176719-f62d-4e09-8c86-94f014388a44","ios":"levelo://app?vid=dc176719-f62d-4e09-8c86-94f014388a44"},"vehicle_type_id":"4","last_reported":1727125717,"current_range_meters":38800,"station_id":"ce4bh492rcd13ifvqdvg","pricing_plan_id":"cebpf4jnsgd1na2vs0mg"},{"bike_id":"952ef04a-8db9-4927-a99b-652ded863c36","system_id":"levelo_inurba_marseille","lat":43.33586,"lon":5.41032,"is_reserved":false,"is_disabled":false,"rental_uris":{"android":"levelo://app?vid=952ef04a-8db9-4927-a99b-652ded863c36","ios":"levelo://app?vid=952ef04a-8db9-4927-a99b-652ded863c36"},"vehicle_type_id":"4","last_reported":1727125717,"current_range_meters":36800,"station_id":"ce4bhqh2rcd13ifvqhmg","pricing_plan_id":"cebpf4jnsgd1na2vs0mg"},{"bike_id":"b0cc51f5-ea81-4b3f-89c4-2c1e965788ac","system_id":"levelo_inurba_marseille","lat":43.30639,"lon":5.40081,"is_reserved":false,"is_disabled":false,"rental_uris":{"android":"levelo://app?vid=b0cc51f5-ea81-4b3f-89c4-2c1e965788ac","ios":"levelo://app?vid=b0cc51f5-ea81-4b3f-89c4-2c1e965788ac"},"vehicle_type_id":"4","last_reported":1727125717,"current_range_meters":28800,"station_id":"ce4bh112rcd13ifvqda0","pricing_plan_id":"cebpf4jnsgd1na2vs0mg"},{"bike_id":"9a2086ab-9ac9-463b-9a35-dc32842e3d31","system_id":"levelo_inurba_marseille","lat":43.30961,"lon":5.39037,"is_reserved":false,"is_disabled":false,"rental_uris":{"android":"levelo://app?vid=9a2086ab-9ac9-463b-9a35-dc32842e3d31","ios":"levelo://app?vid=9a2086ab-9ac9-463b-9a35-dc32842e3d31"},"vehicle_type_id":"4","last_reported":1727125717,"current_range_meters":38800,"station_id":"ce4bgup2rcd13ifvqco0","pricing_plan_id":"cebpf4jnsgd1na2vs0mg"},{"bike_id":"804b6157-1679-4b6f-b7f0-c0d1584dac0c","system_id":"levelo_inurba_marseille","lat":43.30801,"lon":5.38149,"is_reserved":false,"is_disabled":false,"rental_uris":{"android":"levelo://app?vid=804b6157-1679-4b6f-b7f0-c0d1584dac0c","ios":"levelo://app?vid=804b6157-1679-4b6f-b7f0-c0d1584dac0c"},"vehicle_type_id":"4","last_reported":1727125717,"current_range_meters":29600,"station_id":"ce4bgt12rcd13ifvqce0","pricing_plan_id":"cebpf4jnsgd1na2vs0mg"},{"bike_id":"d57284ff-6c76-4ec6-af75-46933dc94b7e","system_id":"levelo_inurba_marseille","lat":43.31284,"lon":5.40171,"is_reserved":false,"is_disabled":false,"rental_uris":{"android":"levelo://app?vid=d57284ff-6c76-4ec6-af75-46933dc94b7e","ios":"levelo://app?vid=d57284ff-6c76-4ec6-af75-46933dc94b7e"},"vehicle_type_id":"4","last_reported":1727125717,"current_range_meters":38800,"station_id":"ce4bh092rcd13ifvqd30","pricing_plan_id":"cebpf4jnsgd1na2vs0mg"},{"bike_id":"a3dbee8b-6b63-494c-96ee-8da50f3e08c9","system_id":"levelo_inurba_marseille","lat":43.28716,"lon":5.36093,"is_reserved":false,"is_disabled":false,"rental_uris":{"android":"levelo://app?vid=a3dbee8b-6b63-494c-96ee-8da50f3e08c9","ios":"levelo://app?vid=a3dbee8b-6b63-494c-96ee-8da50f3e08c9"},"vehicle_type_id":"4","last_reported":1727125717,"current_range_meters":6400,"station_id":"cki0cbj6b192h4jlfktg","pricing_plan_id":"cebpf4jnsgd1na2vs0mg"},{"bike_id":"3985d11c-af0a-4e76-820b-ef3ed63957fe","system_id":"levelo_inurba_marseille","lat":43.32364,"lon":5.38888,"is_reserved":false,"is_disabled":false,"rental_uris":{"android":"levelo://app?vid=3985d11c-af0a-4e76-820b-ef3ed63957fe","ios":"levelo://app?vid=3985d11c-af0a-4e76-820b-ef3ed63957fe"},"vehicle_type_id":"4","last_reported":1727125717,"current_range_meters":27600,"station_id":"ce4bhqp2rcd13ifvqhog","pricing_plan_id":"cebpf4jnsgd1na2vs0mg"},{"bike_id":"f0cce526-e2de-4da6-b09d-68979bda1c97","system_id":"levelo_inurba_marseille","lat":43.28704,"lon":5.37391,"is_reserved":false,"is_disabled":false,"rental_uris":{"android":"levelo://app?vid=f0cce526-e2de-4da6-b09d-68979bda1c97","ios":"levelo://app?vid=f0cce526-e2de-4da6-b09d-68979bda1c97"},"vehicle_type_id":"4","last_reported":1727125717,"current_range_meters":9600,"station_id":"ce4bh3p2rcd13ifvqdq0","pricing_plan_id":"cebpf4jnsgd1na2vs0mg"},{"bike_id":"a82e4976-1e63-477f-bd6f-e3c5c04888d6","system_id":"levelo_inurba_marseille","lat":43.29436,"lon":5.39752,"is_reserved":false,"is_disabled":false,"rental_uris":{"android":"levelo://app?vid=a82e4976-1e63-477f-bd6f-e3c5c04888d6","ios":"levelo://app?vid=a82e4976-1e63-477f-bd6f-e3c5c04888d6"},"vehicle_type_id":"4","last_reported":1727125717,"current_range_meters":36800,"station_id":"ce4bh3h2rcd13ifvqdo0","pricing_plan_id":"cebpf4jnsgd1na2vs0mg"},{"bike_id":"37f37a11-85dc-438a-ada9-be88b71deb6a","system_id":"levelo_inurba_marseille","lat":43.29899,"lon":5.43671,"is_reserved":false,"is_disabled":false,"rental_uris":{"android":"levelo://app?vid=37f37a11-85dc-438a-ada9-be88b71deb6a","ios":"levelo://app?vid=37f37a11-85dc-438a-ada9-be88b71deb6a"},"vehicle_type_id":"4","last_reported":1727125717,"current_range_meters":5600,"station_id":"ce4bhpp2rcd13ifvqhfg","pricing_plan_id":"cebpf4jnsgd1na2vs0mg"},{"bike_id":"1a6dc438-b378-4226-a2cf-11e3018ca659","system_id":"levelo_inurba_marseille","lat":43.31359,"lon":5.38494,"is_reserved":false,"is_disabled":false,"rental_uris":{"android":"levelo://app?vid=1a6dc438-b378-4226-a2cf-11e3018ca659","ios":"levelo://app?vid=1a6dc438-b378-4226-a2cf-11e3018ca659"},"vehicle_type_id":"4","last_reported":1727125717,"current_range_meters":18800,"station_id":"ce4bgt92rcd13ifvqcf0","pricing_plan_id":"cebpf4jnsgd1na2vs0mg"},{"bike_id":"25e9c30c-c11f-4a6f-9e50-c840466fbc5a","system_id":"levelo_inurba_marseille","lat":43.29266,"lon":5.38445,"is_reserved":false,"is_disabled":false,"rental_uris":{"android":"levelo://app?vid=25e9c30c-c11f-4a6f-9e50-c840466fbc5a","ios":"levelo://app?vid=25e9c30c-c11f-4a6f-9e50-c840466fbc5a"},"vehicle_type_id":"4","last_reported":1727125717,"current_range_meters":38400,"station_id":"ce4bh692rcd13ifvqea0","pricing_plan_id":"cebpf4jnsgd1na2vs0mg"},{"bike_id":"3cda9349-2e12-4344-aa0d-37eb925476b4","system_id":"levelo_inurba_marseille","lat":43.30416,"lon":5.41297,"is_reserved":false,"is_disabled":false,"rental_uris":{"android":"levelo://app?vid=3cda9349-2e12-4344-aa0d-37eb925476b4","ios":"levelo://app?vid=3cda9349-2e12-4344-aa0d-37eb925476b4"},"vehicle_type_id":"4","last_reported":1727125717,"current_range_meters":20400,"station_id":"ce4bhop2rcd13ifvqh8g","pricing_plan_id":"cebpf4jnsgd1na2vs0mg"},{"bike_id":"c32c9f99-2785-472b-a64b-1235b0b8e4b2","system_id":"levelo_inurba_marseille","lat":43.23962,"lon":5.36638,"is_reserved":false,"is_disabled":false,"rental_uris":{"android":"levelo://app?vid=c32c9f99-2785-472b-a64b-1235b0b8e4b2","ios":"levelo://app?vid=c32c9f99-2785-472b-a64b-1235b0b8e4b2"},"vehicle_type_id":"4","last_reported":1727125717,"current_range_meters":37600,"station_id":"ce4bhi12rcd13ifvqfp0","pricing_plan_id":"cebpf4jnsgd1na2vs0mg"},{"bike_id":"bd77a9c8-eafb-42c7-8280-250ccfa9c948","system_id":"levelo_inurba_marseille","lat":43.31172,"lon":5.38711,"is_reserved":false,"is_disabled":false,"rental_uris":{"android":"levelo://app?vid=bd77a9c8-eafb-42c7-8280-250ccfa9c948","ios":"levelo://app?vid=bd77a9c8-eafb-42c7-8280-250ccfa9c948"},"vehicle_type_id":"4","last_reported":1727125717,"current_range_meters":35200,"station_id":"ce4bgv12rcd13ifvqcp0","pricing_plan_id":"cebpf4jnsgd1na2vs0mg"},{"bike_id":"7e4c7599-5af1-41ab-83d0-48c77f2e12ad","system_id":"levelo_inurba_marseille","lat":43.29794,"lon":5.40407,"is_reserved":false,"is_disabled":false,"rental_uris":{"android":"levelo://app?vid=7e4c7599-5af1-41ab-83d0-48c77f2e12ad","ios":"levelo://app?vid=7e4c7599-5af1-41ab-83d0-48c77f2e12ad"},"vehicle_type_id":"4","last_reported":1727125717,"current_range_meters":8400,"station_id":"ce4bh112rcd13ifvqd90","pricing_plan_id":"cebpf4jnsgd1na2vs0mg"},{"bike_id":"0521b879-2f32-4fbe-bcf0-f35aa1202c38","system_id":"levelo_inurba_marseille","lat":43.293152,"lon":5.385813,"is_reserved":false,"is_disabled":false,"rental_uris":{"android":"levelo://app?vid=0521b879-2f32-4fbe-bcf0-f35aa1202c38","ios":"levelo://app?vid=0521b879-2f32-4fbe-bcf0-f35aa1202c38"},"vehicle_type_id":"4","last_reported":1727125717,"current_range_meters":30000,"station_id":"ce4bh2h2rcd13ifvqdh0","pricing_plan_id":"cebpf4jnsgd1na2vs0mg"},{"bike_id":"ab63bd3a-f93b-4370-9200-d22b0dc4222c","system_id":"levelo_inurba_marseille","lat":43.30634,"lon":5.40079,"is_reserved":false,"is_disabled":false,"rental_uris":{"android":"levelo://app?vid=ab63bd3a-f93b-4370-9200-d22b0dc4222c","ios":"levelo://app?vid=ab63bd3a-f93b-4370-9200-d22b0dc4222c"},"vehicle_type_id":"4","last_reported":1727125717,"current_range_meters":36000,"station_id":"ce4bh112rcd13ifvqda0","pricing_plan_id":"cebpf4jnsgd1na2vs0mg"},{"bike_id":"73621f33-2cd2-4afb-bb74-9d52dc5217f2","system_id":"levelo_inurba_marseille","lat":43.3065,"lon":5.40097,"is_reserved":false,"is_disabled":false,"rental_uris":{"android":"levelo://app?vid=73621f33-2cd2-4afb-bb74-9d52dc5217f2","ios":"levelo://app?vid=73621f33-2cd2-4afb-bb74-9d52dc5217f2"},"vehicle_type_id":"4","last_reported":1727125717,"current_range_meters":28800,"station_id":"ce4bh112rcd13ifvqda0","pricing_plan_id":"cebpf4jnsgd1na2vs0mg"},{"bike_id":"eb495c6d-567d-475e-b5fc-f703d58aea9e","system_id":"levelo_inurba_marseille","lat":43.33609,"lon":5.41039,"is_reserved":false,"is_disabled":false,"rental_uris":{"android":"levelo://app?vid=eb495c6d-567d-475e-b5fc-f703d58aea9e","ios":"levelo://app?vid=eb495c6d-567d-475e-b5fc-f703d58aea9e"},"vehicle_type_id":"4","last_reported":1727125717,"current_range_meters":32000,"station_id":"ce4bhqh2rcd13ifvqhmg","pricing_plan_id":"cebpf4jnsgd1na2vs0mg"},{"bike_id":"59afa99a-9613-423a-98aa-0ce13ab3d187","system_id":"levelo_inurba_marseille","lat":43.29163,"lon":5.37157,"is_reserved":false,"is_disabled":false,"rental_uris":{"android":"levelo://app?vid=59afa99a-9613-423a-98aa-0ce13ab3d187","ios":"levelo://app?vid=59afa99a-9613-423a-98aa-0ce13ab3d187"},"vehicle_type_id":"4","last_reported":1727125717,"current_range_meters":36400,"station_id":"ce4bha92rcd13ifvqeh0","pricing_plan_id":"cebpf4jnsgd1na2vs0mg"},{"bike_id":"ff758b27-3f6a-4a37-b90c-e54d6269c8a1","system_id":"levelo_inurba_marseille","lat":43.23958,"lon":5.36641,"is_reserved":false,"is_disabled":false,"rental_uris":{"android":"levelo://app?vid=ff758b27-3f6a-4a37-b90c-e54d6269c8a1","ios":"levelo://app?vid=ff758b27-3f6a-4a37-b90c-e54d6269c8a1"},"vehicle_type_id":"4","last_reported":1727125717,"current_range_meters":38000,"station_id":"ce4bhi12rcd13ifvqfp0","pricing_plan_id":"cebpf4jnsgd1na2vs0mg"},{"bike_id":"574f3f4c-6625-416f-b3b2-df1671bff5c4","system_id":"levelo_inurba_marseille","lat":43.30926,"lon":5.40144,"is_reserved":false,"is_disabled":false,"rental_uris":{"android":"levelo://app?vid=574f3f4c-6625-416f-b3b2-df1671bff5c4","ios":"levelo://app?vid=574f3f4c-6625-416f-b3b2-df1671bff5c4"},"vehicle_type_id":"4","last_reported":1727125717,"current_range_meters":38800,"station_id":"ce4bgvp2rcd13ifvqct0","pricing_plan_id":"cebpf4jnsgd1na2vs0mg"},{"bike_id":"dc2f7424-087b-4383-89a1-634cf32e2922","system_id":"levelo_inurba_marseille","lat":43.22935,"lon":5.35384,"is_reserved":false,"is_disabled":false,"rental_uris":{"android":"levelo://app?vid=dc2f7424-087b-4383-89a1-634cf32e2922","ios":"levelo://app?vid=dc2f7424-087b-4383-89a1-634cf32e2922"},"vehicle_type_id":"4","last_reported":1727125717,"current_range_meters":38800,"station_id":"cpo3532slgdg3j2ikp40","pricing_plan_id":"cebpf4jnsgd1na2vs0mg"},{"bike_id":"0daec849-d7a2-47a9-875c-b8a3b14a933f","system_id":"levelo_inurba_marseille","lat":43.29027,"lon":5.38641,"is_reserved":false,"is_disabled":false,"rental_uris":{"android":"levelo://app?vid=0daec849-d7a2-47a9-875c-b8a3b14a933f","ios":"levelo://app?vid=0daec849-d7a2-47a9-875c-b8a3b14a933f"},"vehicle_type_id":"4","last_reported":1727125717,"current_range_meters":38800,"station_id":"ce4bh4p2rcd13ifvqe0g","pricing_plan_id":"cebpf4jnsgd1na2vs0mg"},{"bike_id":"ad989f92-c3cb-4e26-8b59-0f3881799abe","system_id":"levelo_inurba_marseille","lat":43.32335,"lon":5.40623,"is_reserved":false,"is_disabled":false,"rental_uris":{"android":"levelo://app?vid=ad989f92-c3cb-4e26-8b59-0f3881799abe","ios":"levelo://app?vid=ad989f92-c3cb-4e26-8b59-0f3881799abe"},"vehicle_type_id":"4","last_reported":1727125717,"current_range_meters":4000,"station_id":"ce4bhq92rcd13ifvqhjg","pricing_plan_id":"cebpf4jnsgd1na2vs0mg"},{"bike_id":"c33ac870-cb94-44c7-8f5e-5243712930b4","system_id":"levelo_inurba_marseille","lat":43.31177,"lon":5.38721,"is_reserved":false,"is_disabled":false,"rental_uris":{"android":"levelo://app?vid=c33ac870-cb94-44c7-8f5e-5243712930b4","ios":"levelo://app?vid=c33ac870-cb94-44c7-8f5e-5243712930b4"},"vehicle_type_id":"4","last_reported":1727125717,"current_range_meters":38800,"station_id":"ce4bgv12rcd13ifvqcp0","pricing_plan_id":"cebpf4jnsgd1na2vs0mg"},{"bike_id":"b3ef226b-861e-4947-ab48-3fa957ccf049","system_id":"levelo_inurba_marseille","lat":43.30535,"lon":5.36712,"is_reserved":false,"is_disabled":false,"rental_uris":{"android":"levelo://app?vid=b3ef226b-861e-4947-ab48-3fa957ccf049","ios":"levelo://app?vid=b3ef226b-861e-4947-ab48-3fa957ccf049"},"vehicle_type_id":"4","last_reported":1727125717,"current_range_meters":16400,"station_id":"ce4bgrp2rcd13ifvqc9g","pricing_plan_id":"cebpf4jnsgd1na2vs0mg"},{"bike_id":"c959ca8d-ba53-4b69-b028-aa3156c88619","system_id":"levelo_inurba_marseille","lat":43.28384,"lon":5.38626,"is_reserved":false,"is_disabled":false,"rental_uris":{"android":"levelo://app?vid=c959ca8d-ba53-4b69-b028-aa3156c88619","ios":"levelo://app?vid=c959ca8d-ba53-4b69-b028-aa3156c88619"},"vehicle_type_id":"4","last_reported":1727125717,"current_range_meters":34000,"station_id":"","pricing_plan_id":"cebpf4jnsgd1na2vs0mg"},{"bike_id":"b2b960b2-1096-4df0-90ec-e8e8d3ec1b45","system_id":"levelo_inurba_marseille","lat":43.29191,"lon":5.39328,"is_reserved":false,"is_disabled":false,"rental_uris":{"android":"levelo://app?vid=b2b960b2-1096-4df0-90ec-e8e8d3ec1b45","ios":"levelo://app?vid=b2b960b2-1096-4df0-90ec-e8e8d3ec1b45"},"vehicle_type_id":"4","last_reported":1727125717,"current_range_meters":38400,"station_id":"ce4bh192rcd13ifvqdd0","pricing_plan_id":"cebpf4jnsgd1na2vs0mg"},{"bike_id":"99b23c29-19c3-45f6-a684-fed021e776d5","system_id":"levelo_inurba_marseille","lat":43.31768,"lon":5.39016,"is_reserved":false,"is_disabled":false,"rental_uris":{"android":"levelo://app?vid=99b23c29-19c3-45f6-a684-fed021e776d5","ios":"levelo://app?vid=99b23c29-19c3-45f6-a684-fed021e776d5"},"vehicle_type_id":"4","last_reported":1727125717,"current_range_meters":22800,"station_id":"ce4bhqp2rcd13ifvqhng","pricing_plan_id":"cebpf4jnsgd1na2vs0mg"},{"bike_id":"b2df7e59-7731-4655-9dc2-8249cfa600cf","system_id":"levelo_inurba_marseille","lat":43.27902,"lon":5.38011,"is_reserved":false,"is_disabled":false,"rental_uris":{"android":"levelo://app?vid=b2df7e59-7731-4655-9dc2-8249cfa600cf","ios":"levelo://app?vid=b2df7e59-7731-4655-9dc2-8249cfa600cf"},"vehicle_type_id":"4","last_reported":1727125717,"current_range_meters":38800,"station_id":"ce4bhf92rcd13ifvqf50","pricing_plan_id":"cebpf4jnsgd1na2vs0mg"},{"bike_id":"3785dde0-2c0e-4db7-9928-e64d1a6fa5f8","system_id":"levelo_inurba_marseille","lat":43.31067,"lon":5.38356,"is_reserved":false,"is_disabled":false,"rental_uris":{"android":"levelo://app?vid=3785dde0-2c0e-4db7-9928-e64d1a6fa5f8","ios":"levelo://app?vid=3785dde0-2c0e-4db7-9928-e64d1a6fa5f8"},"vehicle_type_id":"4","last_reported":1727125717,"current_range_meters":38800,"station_id":"ce4bgv92rcd13ifvqcr0","pricing_plan_id":"cebpf4jnsgd1na2vs0mg"},{"bike_id":"a2c8ed06-94c0-4417-862a-16507ef42481","system_id":"levelo_inurba_marseille","lat":43.33725,"lon":5.39187,"is_reserved":false,"is_disabled":false,"rental_uris":{"android":"levelo://app?vid=a2c8ed06-94c0-4417-862a-16507ef42481","ios":"levelo://app?vid=a2c8ed06-94c0-4417-862a-16507ef42481"},"vehicle_type_id":"4","last_reported":1727125717,"current_range_meters":38000,"station_id":"ce4bhr92rcd13ifvqhsg","pricing_plan_id":"cebpf4jnsgd1na2vs0mg"},{"bike_id":"b77e35ca-9f06-48eb-90c5-57eebec9837a","system_id":"levelo_inurba_marseille","lat":43.25721,"lon":5.41115,"is_reserved":false,"is_disabled":false,"rental_uris":{"android":"levelo://app?vid=b77e35ca-9f06-48eb-90c5-57eebec9837a","ios":"levelo://app?vid=b77e35ca-9f06-48eb-90c5-57eebec9837a"},"vehicle_type_id":"4","last_reported":1727125717,"current_range_meters":37600,"station_id":"ce4bhkp2rcd13ifvqgd0","pricing_plan_id":"cebpf4jnsgd1na2vs0mg"},{"bike_id":"71e3eaf6-911a-4212-97d8-c6c24063f9ba","system_id":"levelo_inurba_marseille","lat":43.2509,"lon":5.39514,"is_reserved":false,"is_disabled":false,"rental_uris":{"android":"levelo://app?vid=71e3eaf6-911a-4212-97d8-c6c24063f9ba","ios":"levelo://app?vid=71e3eaf6-911a-4212-97d8-c6c24063f9ba"},"vehicle_type_id":"4","last_reported":1727125717,"current_range_meters":10800,"station_id":"ce4bhm12rcd13ifvqgkg","pricing_plan_id":"cebpf4jnsgd1na2vs0mg"},{"bike_id":"888486cd-995d-4552-a726-cc7f3e1081c1","system_id":"levelo_inurba_marseille","lat":43.31243,"lon":5.3688,"is_reserved":false,"is_disabled":false,"rental_uris":{"android":"levelo://app?vid=888486cd-995d-4552-a726-cc7f3e1081c1","ios":"levelo://app?vid=888486cd-995d-4552-a726-cc7f3e1081c1"},"vehicle_type_id":"4","last_reported":1727125717,"current_range_meters":26800,"station_id":"ce4bgl92rcd13ifvqbq0","pricing_plan_id":"cebpf4jnsgd1na2vs0mg"},{"bike_id":"fa690805-233a-4a70-a9f3-33f1b67cdb1f","system_id":"levelo_inurba_marseille","lat":43.3229,"lon":5.38254,"is_reserved":false,"is_disabled":false,"rental_uris":{"android":"levelo://app?vid=fa690805-233a-4a70-a9f3-33f1b67cdb1f","ios":"levelo://app?vid=fa690805-233a-4a70-a9f3-33f1b67cdb1f"},"vehicle_type_id":"4","last_reported":1727125717,"current_range_meters":36800,"station_id":"ce4bhr12rcd13ifvqhqg","pricing_plan_id":"cebpf4jnsgd1na2vs0mg"},{"bike_id":"3c33410a-08d2-4408-bcfa-fa218f26da5f","system_id":"levelo_inurba_marseille","lat":43.30794,"lon":5.37656,"is_reserved":false,"is_disabled":false,"rental_uris":{"android":"levelo://app?vid=3c33410a-08d2-4408-bcfa-fa218f26da5f","ios":"levelo://app?vid=3c33410a-08d2-4408-bcfa-fa218f26da5f"},"vehicle_type_id":"4","last_reported":1727125717,"current_range_meters":38800,"station_id":"ce4bgv92rcd13ifvqcq0","pricing_plan_id":"cebpf4jnsgd1na2vs0mg"},{"bike_id":"e86bb56b-8257-4a34-a96d-205fd2a4397b","system_id":"levelo_inurba_marseille","lat":43.27493,"lon":5.42451,"is_reserved":false,"is_disabled":false,"rental_uris":{"android":"levelo://app?vid=e86bb56b-8257-4a34-a96d-205fd2a4397b","ios":"levelo://app?vid=e86bb56b-8257-4a34-a96d-205fd2a4397b"},"vehicle_type_id":"4","last_reported":1727125717,"current_range_meters":39200,"station_id":"ce4bhn92rcd13ifvqgrg","pricing_plan_id":"cebpf4jnsgd1na2vs0mg"},{"bike_id":"a9b8bd2e-0211-4ab7-8e43-9b1810cd1d96","system_id":"levelo_inurba_marseille","lat":43.26559,"lon":5.37286,"is_reserved":false,"is_disabled":false,"rental_uris":{"android":"levelo://app?vid=a9b8bd2e-0211-4ab7-8e43-9b1810cd1d96","ios":"levelo://app?vid=a9b8bd2e-0211-4ab7-8e43-9b1810cd1d96"},"vehicle_type_id":"4","last_reported":1727125717,"current_range_meters":8400,"station_id":"ce4bhg12rcd13ifvqf70","pricing_plan_id":"cebpf4jnsgd1na2vs0mg"},{"bike_id":"f811878b-9953-4368-9f07-3aceb071006e","system_id":"levelo_inurba_marseille","lat":43.29784,"lon":5.39356,"is_reserved":false,"is_disabled":false,"rental_uris":{"android":"levelo://app?vid=f811878b-9953-4368-9f07-3aceb071006e","ios":"levelo://app?vid=f811878b-9953-4368-9f07-3aceb071006e"},"vehicle_type_id":"4","last_reported":1727125717,"current_range_meters":25200,"station_id":"chh1huq6cuj3fo74tm60","pricing_plan_id":"cebpf4jnsgd1na2vs0mg"},{"bike_id":"282ba42d-f489-4888-914e-9756f4e46c85","system_id":"levelo_inurba_marseille","lat":43.32483,"lon":5.36567,"is_reserved":false,"is_disabled":false,"rental_uris":{"android":"levelo://app?vid=282ba42d-f489-4888-914e-9756f4e46c85","ios":"levelo://app?vid=282ba42d-f489-4888-914e-9756f4e46c85"},"vehicle_type_id":"4","last_reported":1727125717,"current_range_meters":14800,"station_id":"ce4bhs12rcd13ifvqhvg","pricing_plan_id":"cebpf4jnsgd1na2vs0mg"},{"bike_id":"7eacd0ae-7015-4504-8187-36e3b5fe6fb0","system_id":"levelo_inurba_marseille","lat":43.27069,"lon":5.42284,"is_reserved":false,"is_disabled":false,"rental_uris":{"android":"levelo://app?vid=7eacd0ae-7015-4504-8187-36e3b5fe6fb0","ios":"levelo://app?vid=7eacd0ae-7015-4504-8187-36e3b5fe6fb0"},"vehicle_type_id":"4","last_reported":1727125717,"current_range_meters":27200,"station_id":"ce4bhk92rcd13ifvqgb0","pricing_plan_id":"cebpf4jnsgd1na2vs0mg"},{"bike_id":"a1d9c813-9514-4d86-bb92-d9058caad6a5","system_id":"levelo_inurba_marseille","lat":43.29525,"lon":5.39411,"is_reserved":false,"is_disabled":false,"rental_uris":{"android":"levelo://app?vid=a1d9c813-9514-4d86-bb92-d9058caad6a5","ios":"levelo://app?vid=a1d9c813-9514-4d86-bb92-d9058caad6a5"},"vehicle_type_id":"4","last_reported":1727125717,"current_range_meters":5600,"station_id":"ce4bh292rcd13ifvqdf0","pricing_plan_id":"cebpf4jnsgd1na2vs0mg"},{"bike_id":"9baed0ec-f8bc-46c0-9362-e81d135afcae","system_id":"levelo_inurba_marseille","lat":43.29193,"lon":5.39317,"is_reserved":false,"is_disabled":false,"rental_uris":{"android":"levelo://app?vid=9baed0ec-f8bc-46c0-9362-e81d135afcae","ios":"levelo://app?vid=9baed0ec-f8bc-46c0-9362-e81d135afcae"},"vehicle_type_id":"4","last_reported":1727125717,"current_range_meters":6800,"station_id":"ce4bh192rcd13ifvqdd0","pricing_plan_id":"cebpf4jnsgd1na2vs0mg"},{"bike_id":"b8547ac2-7dc8-4a2d-bbf7-748f0c45aaad","system_id":"levelo_inurba_marseille","lat":43.31357,"lon":5.38506,"is_reserved":false,"is_disabled":false,"rental_uris":{"android":"levelo://app?vid=b8547ac2-7dc8-4a2d-bbf7-748f0c45aaad","ios":"levelo://app?vid=b8547ac2-7dc8-4a2d-bbf7-748f0c45aaad"},"vehicle_type_id":"4","last_reported":1727125717,"current_range_meters":38800,"station_id":"ce4bgt92rcd13ifvqcf0","pricing_plan_id":"cebpf4jnsgd1na2vs0mg"},{"bike_id":"8f292934-62db-4e45-8525-d903798075c3","system_id":"levelo_inurba_marseille","lat":43.32648,"lon":5.40996,"is_reserved":false,"is_disabled":false,"rental_uris":{"android":"levelo://app?vid=8f292934-62db-4e45-8525-d903798075c3","ios":"levelo://app?vid=8f292934-62db-4e45-8525-d903798075c3"},"vehicle_type_id":"4","last_reported":1727125717,"current_range_meters":38800,"station_id":"ce4bhpp2rcd13ifvqhgg","pricing_plan_id":"cebpf4jnsgd1na2vs0mg"},{"bike_id":"92538727-8770-4a78-adcf-165b4009e758","system_id":"levelo_inurba_marseille","lat":43.28697,"lon":5.37387,"is_reserved":false,"is_disabled":false,"rental_uris":{"android":"levelo://app?vid=92538727-8770-4a78-adcf-165b4009e758","ios":"levelo://app?vid=92538727-8770-4a78-adcf-165b4009e758"},"vehicle_type_id":"4","last_reported":1727125717,"current_range_meters":37600,"station_id":"ce4bh3p2rcd13ifvqdq0","pricing_plan_id":"cebpf4jnsgd1na2vs0mg"},{"bike_id":"fc2877fe-6b6a-4d27-921a-68d4f2b8e619","system_id":"levelo_inurba_marseille","lat":43.27497,"lon":5.42449,"is_reserved":false,"is_disabled":false,"rental_uris":{"android":"levelo://app?vid=fc2877fe-6b6a-4d27-921a-68d4f2b8e619","ios":"levelo://app?vid=fc2877fe-6b6a-4d27-921a-68d4f2b8e619"},"vehicle_type_id":"4","last_reported":1727125717,"current_range_meters":22000,"station_id":"ce4bhn92rcd13ifvqgrg","pricing_plan_id":"cebpf4jnsgd1na2vs0mg"},{"bike_id":"40ec77eb-6257-4910-b338-910ef8290bad","system_id":"levelo_inurba_marseille","lat":43.28122,"lon":5.40641,"is_reserved":false,"is_disabled":false,"rental_uris":{"android":"levelo://app?vid=40ec77eb-6257-4910-b338-910ef8290bad","ios":"levelo://app?vid=40ec77eb-6257-4910-b338-910ef8290bad"},"vehicle_type_id":"4","last_reported":1727125717,"current_range_meters":8400,"station_id":"","pricing_plan_id":"cebpf4jnsgd1na2vs0mg"},{"bike_id":"7f33ee24-6dc8-4f6a-8d61-d524e9cb4107","system_id":"levelo_inurba_marseille","lat":43.30643,"lon":5.4009,"is_reserved":false,"is_disabled":false,"rental_uris":{"android":"levelo://app?vid=7f33ee24-6dc8-4f6a-8d61-d524e9cb4107","ios":"levelo://app?vid=7f33ee24-6dc8-4f6a-8d61-d524e9cb4107"},"vehicle_type_id":"4","last_reported":1727125717,"current_range_meters":32000,"station_id":"ce4bh112rcd13ifvqda0","pricing_plan_id":"cebpf4jnsgd1na2vs0mg"},{"bike_id":"b0f4d08d-9574-447c-9f76-6a11e8a82ce4","system_id":"levelo_inurba_marseille","lat":43.31326,"lon":5.39701,"is_reserved":false,"is_disabled":false,"rental_uris":{"android":"levelo://app?vid=b0f4d08d-9574-447c-9f76-6a11e8a82ce4","ios":"levelo://app?vid=b0f4d08d-9574-447c-9f76-6a11e8a82ce4"},"vehicle_type_id":"4","last_reported":1727125717,"current_range_meters":38800,"station_id":"ce4bgvp2rcd13ifvqcu0","pricing_plan_id":"cebpf4jnsgd1na2vs0mg"},{"bike_id":"ed1f0c4b-c2ec-4633-9b10-9782357e4a7c","system_id":"levelo_inurba_marseille","lat":43.30797,"lon":5.43519,"is_reserved":false,"is_disabled":false,"rental_uris":{"android":"levelo://app?vid=ed1f0c4b-c2ec-4633-9b10-9782357e4a7c","ios":"levelo://app?vid=ed1f0c4b-c2ec-4633-9b10-9782357e4a7c"},"vehicle_type_id":"4","last_reported":1727125717,"current_range_meters":11600,"station_id":"ce4bhph2rcd13ifvqheg","pricing_plan_id":"cebpf4jnsgd1na2vs0mg"},{"bike_id":"0074696f-e649-4639-9210-689b92842bdc","system_id":"levelo_inurba_marseille","lat":43.30791,"lon":5.43514,"is_reserved":false,"is_disabled":false,"rental_uris":{"android":"levelo://app?vid=0074696f-e649-4639-9210-689b92842bdc","ios":"levelo://app?vid=0074696f-e649-4639-9210-689b92842bdc"},"vehicle_type_id":"4","last_reported":1727125717,"current_range_meters":39200,"station_id":"ce4bhph2rcd13ifvqheg","pricing_plan_id":"cebpf4jnsgd1na2vs0mg"},{"bike_id":"d4a64a2f-f675-4739-a735-4b14cd055077","system_id":"levelo_inurba_marseille","lat":43.29022,"lon":5.38649,"is_reserved":false,"is_disabled":false,"rental_uris":{"android":"levelo://app?vid=d4a64a2f-f675-4739-a735-4b14cd055077","ios":"levelo://app?vid=d4a64a2f-f675-4739-a735-4b14cd055077"},"vehicle_type_id":"4","last_reported":1727125717,"current_range_meters":19600,"station_id":"ce4bgi12rcd13ifvqb70","pricing_plan_id":"cebpf4jnsgd1na2vs0mg"},{"bike_id":"877753fc-658d-4c7a-bbb8-46de59f59494","system_id":"levelo_inurba_marseille","lat":43.33024,"lon":5.39057,"is_reserved":false,"is_disabled":false,"rental_uris":{"android":"levelo://app?vid=877753fc-658d-4c7a-bbb8-46de59f59494","ios":"levelo://app?vid=877753fc-658d-4c7a-bbb8-46de59f59494"},"vehicle_type_id":"4","last_reported":1727125717,"current_range_meters":38800,"station_id":"ce4bhr92rcd13ifvqhrg","pricing_plan_id":"cebpf4jnsgd1na2vs0mg"},{"bike_id":"bdc81b1d-71a7-4466-89af-891658648cdc","system_id":"levelo_inurba_marseille","lat":43.29853,"lon":5.36283,"is_reserved":false,"is_disabled":false,"rental_uris":{"android":"levelo://app?vid=bdc81b1d-71a7-4466-89af-891658648cdc","ios":"levelo://app?vid=bdc81b1d-71a7-4466-89af-891658648cdc"},"vehicle_type_id":"4","last_reported":1727125717,"current_range_meters":38800,"station_id":"ce4bgpp2rcd13ifvqc3g","pricing_plan_id":"cebpf4jnsgd1na2vs0mg"},{"bike_id":"9aed3560-36f9-4715-b999-ab2a44522ead","system_id":"levelo_inurba_marseille","lat":43.30885,"lon":5.39639,"is_reserved":false,"is_disabled":false,"rental_uris":{"android":"levelo://app?vid=9aed3560-36f9-4715-b999-ab2a44522ead","ios":"levelo://app?vid=9aed3560-36f9-4715-b999-ab2a44522ead"},"vehicle_type_id":"4","last_reported":1727125717,"current_range_meters":11200,"station_id":"ce4bh012rcd13ifvqcv0","pricing_plan_id":"cebpf4jnsgd1na2vs0mg"},{"bike_id":"9ec786ab-8e05-4b56-b47b-5ee4fff1d442","system_id":"levelo_inurba_marseille","lat":43.30797,"lon":5.38145,"is_reserved":false,"is_disabled":false,"rental_uris":{"android":"levelo://app?vid=9ec786ab-8e05-4b56-b47b-5ee4fff1d442","ios":"levelo://app?vid=9ec786ab-8e05-4b56-b47b-5ee4fff1d442"},"vehicle_type_id":"4","last_reported":1727125717,"current_range_meters":6400,"station_id":"ce4bgt12rcd13ifvqce0","pricing_plan_id":"cebpf4jnsgd1na2vs0mg"},{"bike_id":"90020ad7-a584-434b-917f-7adcb3dcf8aa","system_id":"levelo_inurba_marseille","lat":43.23961,"lon":5.36632,"is_reserved":false,"is_disabled":false,"rental_uris":{"android":"levelo://app?vid=90020ad7-a584-434b-917f-7adcb3dcf8aa","ios":"levelo://app?vid=90020ad7-a584-434b-917f-7adcb3dcf8aa"},"vehicle_type_id":"4","last_reported":1727125717,"current_range_meters":38800,"station_id":"ce4bhi12rcd13ifvqfp0","pricing_plan_id":"cebpf4jnsgd1na2vs0mg"},{"bike_id":"d6204cf5-d44d-4d8f-9e53-0236e2b8c25d","system_id":"levelo_inurba_marseille","lat":43.28717,"lon":5.37934,"is_reserved":false,"is_disabled":false,"rental_uris":{"android":"levelo://app?vid=d6204cf5-d44d-4d8f-9e53-0236e2b8c25d","ios":"levelo://app?vid=d6204cf5-d44d-4d8f-9e53-0236e2b8c25d"},"vehicle_type_id":"4","last_reported":1727125717,"current_range_meters":38800,"station_id":"ce4bh9p2rcd13ifvqec0","pricing_plan_id":"cebpf4jnsgd1na2vs0mg"},{"bike_id":"1e48560b-f7a2-48ef-8f8e-ad365234c3a2","system_id":"levelo_inurba_marseille","lat":43.30792,"lon":5.38158,"is_reserved":false,"is_disabled":false,"rental_uris":{"android":"levelo://app?vid=1e48560b-f7a2-48ef-8f8e-ad365234c3a2","ios":"levelo://app?vid=1e48560b-f7a2-48ef-8f8e-ad365234c3a2"},"vehicle_type_id":"4","last_reported":1727125717,"current_range_meters":16800,"station_id":"ce4bgt12rcd13ifvqce0","pricing_plan_id":"cebpf4jnsgd1na2vs0mg"},{"bike_id":"d46cb383-a530-43a6-8682-34e5b62f70cd","system_id":"levelo_inurba_marseille","lat":43.27501,"lon":5.42449,"is_reserved":false,"is_disabled":false,"rental_uris":{"android":"levelo://app?vid=d46cb383-a530-43a6-8682-34e5b62f70cd","ios":"levelo://app?vid=d46cb383-a530-43a6-8682-34e5b62f70cd"},"vehicle_type_id":"4","last_reported":1727125717,"current_range_meters":27600,"station_id":"ce4bhn92rcd13ifvqgrg","pricing_plan_id":"cebpf4jnsgd1na2vs0mg"},{"bike_id":"1d651bbb-ef4f-4fb3-a149-4f3df095ed4d","system_id":"levelo_inurba_marseille","lat":43.3234,"lon":5.40621,"is_reserved":false,"is_disabled":false,"rental_uris":{"android":"levelo://app?vid=1d651bbb-ef4f-4fb3-a149-4f3df095ed4d","ios":"levelo://app?vid=1d651bbb-ef4f-4fb3-a149-4f3df095ed4d"},"vehicle_type_id":"4","last_reported":1727125717,"current_range_meters":19200,"station_id":"ce4bhq92rcd13ifvqhjg","pricing_plan_id":"cebpf4jnsgd1na2vs0mg"},{"bike_id":"fa389a28-fbc0-443d-ae17-61deeb7eddc4","system_id":"levelo_inurba_marseille","lat":43.29792,"lon":5.39355,"is_reserved":false,"is_disabled":false,"rental_uris":{"android":"levelo://app?vid=fa389a28-fbc0-443d-ae17-61deeb7eddc4","ios":"levelo://app?vid=fa389a28-fbc0-443d-ae17-61deeb7eddc4"},"vehicle_type_id":"4","last_reported":1727125717,"current_range_meters":35600,"station_id":"chh1huq6cuj3fo74tm60","pricing_plan_id":"cebpf4jnsgd1na2vs0mg"},{"bike_id":"d1a98891-14a0-4c1e-b564-b0d7508e5f2b","system_id":"levelo_inurba_marseille","lat":43.31189,"lon":5.38716,"is_reserved":false,"is_disabled":false,"rental_uris":{"android":"levelo://app?vid=d1a98891-14a0-4c1e-b564-b0d7508e5f2b","ios":"levelo://app?vid=d1a98891-14a0-4c1e-b564-b0d7508e5f2b"},"vehicle_type_id":"4","last_reported":1727125717,"current_range_meters":38800,"station_id":"ce4bgv12rcd13ifvqcp0","pricing_plan_id":"cebpf4jnsgd1na2vs0mg"},{"bike_id":"69c20e57-c96b-4712-b3c4-c22934ffa276","system_id":"levelo_inurba_marseille","lat":43.3088,"lon":5.39641,"is_reserved":false,"is_disabled":false,"rental_uris":{"android":"levelo://app?vid=69c20e57-c96b-4712-b3c4-c22934ffa276","ios":"levelo://app?vid=69c20e57-c96b-4712-b3c4-c22934ffa276"},"vehicle_type_id":"4","last_reported":1727125717,"current_range_meters":14400,"station_id":"ce4bh012rcd13ifvqcv0","pricing_plan_id":"cebpf4jnsgd1na2vs0mg"},{"bike_id":"c40e829a-7fc0-4f32-9222-7edbf9d51fc2","system_id":"levelo_inurba_marseille","lat":43.28411,"lon":5.37514,"is_reserved":false,"is_disabled":false,"rental_uris":{"android":"levelo://app?vid=c40e829a-7fc0-4f32-9222-7edbf9d51fc2","ios":"levelo://app?vid=c40e829a-7fc0-4f32-9222-7edbf9d51fc2"},"vehicle_type_id":"4","last_reported":1727125717,"current_range_meters":38800,"station_id":"ce4bh412rcd13ifvqds0","pricing_plan_id":"cebpf4jnsgd1na2vs0mg"},{"bike_id":"d1b89f89-61e8-4970-818c-3ad4ea50b7dc","system_id":"levelo_inurba_marseille","lat":43.31272,"lon":5.40174,"is_reserved":false,"is_disabled":false,"rental_uris":{"android":"levelo://app?vid=d1b89f89-61e8-4970-818c-3ad4ea50b7dc","ios":"levelo://app?vid=d1b89f89-61e8-4970-818c-3ad4ea50b7dc"},"vehicle_type_id":"4","last_reported":1727125717,"current_range_meters":39200,"station_id":"ce4bh092rcd13ifvqd30","pricing_plan_id":"cebpf4jnsgd1na2vs0mg"},{"bike_id":"c1d01610-a197-4c4e-949d-0fb0577fa190","system_id":"levelo_inurba_marseille","lat":43.23193,"lon":5.35557,"is_reserved":false,"is_disabled":false,"rental_uris":{"android":"levelo://app?vid=c1d01610-a197-4c4e-949d-0fb0577fa190","ios":"levelo://app?vid=c1d01610-a197-4c4e-949d-0fb0577fa190"},"vehicle_type_id":"4","last_reported":1727125717,"current_range_meters":11600,"station_id":"ce4bhu92rcd13ifvqi70","pricing_plan_id":"cebpf4jnsgd1na2vs0mg"},{"bike_id":"437b2009-cf5a-4a29-a62e-844fd6ef5fa7","system_id":"levelo_inurba_marseille","lat":43.29792,"lon":5.39341,"is_reserved":false,"is_disabled":false,"rental_uris":{"android":"levelo://app?vid=437b2009-cf5a-4a29-a62e-844fd6ef5fa7","ios":"levelo://app?vid=437b2009-cf5a-4a29-a62e-844fd6ef5fa7"},"vehicle_type_id":"4","last_reported":1727125717,"current_range_meters":29600,"station_id":"chh1huq6cuj3fo74tm60","pricing_plan_id":"cebpf4jnsgd1na2vs0mg"},{"bike_id":"33859afa-2cab-462c-956e-3d5fbd0bd538","system_id":"levelo_inurba_marseille","lat":43.24068,"lon":5.37768,"is_reserved":false,"is_disabled":false,"rental_uris":{"android":"levelo://app?vid=33859afa-2cab-462c-956e-3d5fbd0bd538","ios":"levelo://app?vid=33859afa-2cab-462c-956e-3d5fbd0bd538"},"vehicle_type_id":"4","last_reported":1727125717,"current_range_meters":33600,"station_id":"ce4bhnp2rcd13ifvqgvg","pricing_plan_id":"cebpf4jnsgd1na2vs0mg"},{"bike_id":"fd64636e-6519-403b-b38a-9f92a15a4696","system_id":"levelo_inurba_marseille","lat":43.29274,"lon":5.36846,"is_reserved":false,"is_disabled":false,"rental_uris":{"android":"levelo://app?vid=fd64636e-6519-403b-b38a-9f92a15a4696","ios":"levelo://app?vid=fd64636e-6519-403b-b38a-9f92a15a4696"},"vehicle_type_id":"4","last_reported":1727125717,"current_range_meters":38800,"station_id":"ce4bhbp2rcd13ifvqesg","pricing_plan_id":"cebpf4jnsgd1na2vs0mg"},{"bike_id":"6feeb383-8094-46db-9214-c9449d8d58c7","system_id":"levelo_inurba_marseille","lat":43.2919,"lon":5.39315,"is_reserved":false,"is_disabled":false,"rental_uris":{"android":"levelo://app?vid=6feeb383-8094-46db-9214-c9449d8d58c7","ios":"levelo://app?vid=6feeb383-8094-46db-9214-c9449d8d58c7"},"vehicle_type_id":"4","last_reported":1727125717,"current_range_meters":9600,"station_id":"ce4bh192rcd13ifvqdd0","pricing_plan_id":"cebpf4jnsgd1na2vs0mg"},{"bike_id":"8ad4c4ed-ff72-47b0-9d07-b1aca2c4911d","system_id":"levelo_inurba_marseille","lat":43.283398,"lon":5.381086,"is_reserved":false,"is_disabled":false,"rental_uris":{"android":"levelo://app?vid=8ad4c4ed-ff72-47b0-9d07-b1aca2c4911d","ios":"levelo://app?vid=8ad4c4ed-ff72-47b0-9d07-b1aca2c4911d"},"vehicle_type_id":"4","last_reported":1727125717,"current_range_meters":24400,"station_id":"ce4bh412rcd13ifvqdr0","pricing_plan_id":"cebpf4jnsgd1na2vs0mg"},{"bike_id":"a307801f-ba6b-44dc-ba8c-118c051b9362","system_id":"levelo_inurba_marseille","lat":43.22928,"lon":5.35388,"is_reserved":false,"is_disabled":false,"rental_uris":{"android":"levelo://app?vid=a307801f-ba6b-44dc-ba8c-118c051b9362","ios":"levelo://app?vid=a307801f-ba6b-44dc-ba8c-118c051b9362"},"vehicle_type_id":"4","last_reported":1727125717,"current_range_meters":38800,"station_id":"cpo3532slgdg3j2ikp40","pricing_plan_id":"cebpf4jnsgd1na2vs0mg"},{"bike_id":"9293bf76-669c-44b1-ab3c-e5210753b52f","system_id":"levelo_inurba_marseille","lat":43.30415,"lon":5.41288,"is_reserved":false,"is_disabled":false,"rental_uris":{"android":"levelo://app?vid=9293bf76-669c-44b1-ab3c-e5210753b52f","ios":"levelo://app?vid=9293bf76-669c-44b1-ab3c-e5210753b52f"},"vehicle_type_id":"4","last_reported":1727125717,"current_range_meters":19200,"station_id":"ce4bhop2rcd13ifvqh8g","pricing_plan_id":"cebpf4jnsgd1na2vs0mg"},{"bike_id":"73bef093-054b-4215-9134-78ac28337827","system_id":"levelo_inurba_marseille","lat":43.24548,"lon":5.39526,"is_reserved":false,"is_disabled":false,"rental_uris":{"android":"levelo://app?vid=73bef093-054b-4215-9134-78ac28337827","ios":"levelo://app?vid=73bef093-054b-4215-9134-78ac28337827"},"vehicle_type_id":"4","last_reported":1727125717,"current_range_meters":24400,"station_id":"ce4bhlp2rcd13ifvqgjg","pricing_plan_id":"cebpf4jnsgd1na2vs0mg"},{"bike_id":"7e3920a9-97d9-483d-b7ba-9d14c34ba84c","system_id":"levelo_inurba_marseille","lat":43.28454,"lon":5.35885,"is_reserved":false,"is_disabled":false,"rental_uris":{"android":"levelo://app?vid=7e3920a9-97d9-483d-b7ba-9d14c34ba84c","ios":"levelo://app?vid=7e3920a9-97d9-483d-b7ba-9d14c34ba84c"},"vehicle_type_id":"4","last_reported":1727125717,"current_range_meters":38000,"station_id":"ce4bhah2rcd13ifvqei0","pricing_plan_id":"cebpf4jnsgd1na2vs0mg"},{"bike_id":"ee8a5fb1-b149-4dcf-97dc-917649395c3e","system_id":"levelo_inurba_marseille","lat":43.24809,"lon":5.37462,"is_reserved":false,"is_disabled":false,"rental_uris":{"android":"levelo://app?vid=ee8a5fb1-b149-4dcf-97dc-917649395c3e","ios":"levelo://app?vid=ee8a5fb1-b149-4dcf-97dc-917649395c3e"},"vehicle_type_id":"4","last_reported":1727125717,"current_range_meters":28000,"station_id":"ce4bhgh2rcd13ifvqfb0","pricing_plan_id":"cebpf4jnsgd1na2vs0mg"},{"bike_id":"9337a9bc-bbc8-485e-99e9-300685e07206","system_id":"levelo_inurba_marseille","lat":43.29028,"lon":5.38639,"is_reserved":false,"is_disabled":false,"rental_uris":{"android":"levelo://app?vid=9337a9bc-bbc8-485e-99e9-300685e07206","ios":"levelo://app?vid=9337a9bc-bbc8-485e-99e9-300685e07206"},"vehicle_type_id":"4","last_reported":1727125717,"current_range_meters":38400,"station_id":"ce4bh4p2rcd13ifvqe0g","pricing_plan_id":"cebpf4jnsgd1na2vs0mg"},{"bike_id":"16ae6180-f6e5-47e0-8f4b-70a0144490cf","system_id":"levelo_inurba_marseille","lat":43.30408,"lon":5.41283,"is_reserved":false,"is_disabled":false,"rental_uris":{"android":"levelo://app?vid=16ae6180-f6e5-47e0-8f4b-70a0144490cf","ios":"levelo://app?vid=16ae6180-f6e5-47e0-8f4b-70a0144490cf"},"vehicle_type_id":"4","last_reported":1727125717,"current_range_meters":24400,"station_id":"ce4bhop2rcd13ifvqh8g","pricing_plan_id":"cebpf4jnsgd1na2vs0mg"},{"bike_id":"c63d074d-cfd7-4f7d-8dd9-8137e6ce9a40","system_id":"levelo_inurba_marseille","lat":43.26202,"lon":5.37931,"is_reserved":false,"is_disabled":false,"rental_uris":{"android":"levelo://app?vid=c63d074d-cfd7-4f7d-8dd9-8137e6ce9a40","ios":"levelo://app?vid=c63d074d-cfd7-4f7d-8dd9-8137e6ce9a40"},"vehicle_type_id":"4","last_reported":1727125717,"current_range_meters":8000,"station_id":"ce4bhjp2rcd13ifvqg90","pricing_plan_id":"cebpf4jnsgd1na2vs0mg"},{"bike_id":"976a202f-d043-4c69-ab97-9ebd76bcde73","system_id":"levelo_inurba_marseille","lat":43.30642,"lon":5.40084,"is_reserved":false,"is_disabled":false,"rental_uris":{"android":"levelo://app?vid=976a202f-d043-4c69-ab97-9ebd76bcde73","ios":"levelo://app?vid=976a202f-d043-4c69-ab97-9ebd76bcde73"},"vehicle_type_id":"4","last_reported":1727125717,"current_range_meters":33200,"station_id":"ce4bh112rcd13ifvqda0","pricing_plan_id":"cebpf4jnsgd1na2vs0mg"},{"bike_id":"7f1e68b1-f683-43fc-83c0-5314c303d575","system_id":"levelo_inurba_marseille","lat":43.29691,"lon":5.37287,"is_reserved":false,"is_disabled":false,"rental_uris":{"android":"levelo://app?vid=7f1e68b1-f683-43fc-83c0-5314c303d575","ios":"levelo://app?vid=7f1e68b1-f683-43fc-83c0-5314c303d575"},"vehicle_type_id":"4","last_reported":1727125717,"current_range_meters":33600,"station_id":"ce4bgk12rcd13ifvqbj0","pricing_plan_id":"cebpf4jnsgd1na2vs0mg"},{"bike_id":"6e78d59c-5154-4d11-b194-a0bd97a6c225","system_id":"levelo_inurba_marseille","lat":43.2619,"lon":5.37453,"is_reserved":false,"is_disabled":false,"rental_uris":{"android":"levelo://app?vid=6e78d59c-5154-4d11-b194-a0bd97a6c225","ios":"levelo://app?vid=6e78d59c-5154-4d11-b194-a0bd97a6c225"},"vehicle_type_id":"4","last_reported":1727125717,"current_range_meters":38800,"station_id":"ce4bhgp2rcd13ifvqfc0","pricing_plan_id":"cebpf4jnsgd1na2vs0mg"},{"bike_id":"186fe351-17ec-4756-ba9b-b36fbfc3b663","system_id":"levelo_inurba_marseille","lat":43.29571,"lon":5.39975,"is_reserved":false,"is_disabled":false,"rental_uris":{"android":"levelo://app?vid=186fe351-17ec-4756-ba9b-b36fbfc3b663","ios":"levelo://app?vid=186fe351-17ec-4756-ba9b-b36fbfc3b663"},"vehicle_type_id":"4","last_reported":1727125717,"current_range_meters":38800,"station_id":"ce4bh312rcd13ifvqdj0","pricing_plan_id":"cebpf4jnsgd1na2vs0mg"},