{"last_updated":1686852503,"ttl":30,"version":"2.2","data":{"bikes":[{"bike_id":"a142fcc1-dd44-4e45-a4d3-f750f9811ffe","system_id":"levelo_inurba_marseille","lat":43.31221,"lon":5.36808,"is_reserved":false,"is_disabled":false,"rental_uris":{"android":"levelo://app?vid=a142fcc1-dd44-4e45-a4d3-f750f9811ffe","ios":"levelo://app?vid=a142fcc1-dd44-4e45-a4d3-f750f9811ffe"},"vehicle_type_id":"4","last_reported":1686852504,"current_range_meters":2000,"station_id":"","pricing_plan_id":"free"},{"bike_id":"39021e7c-c736-47ff-93f2-4694e323d2e3","system_id":"levelo_inurba_marseille","lat":43.30537,"lon":5.367345,"is_reserved":false,"is_disabled":false,"rental_uris":{"android":"levelo://app?vid=39021e7c-c736-47ff-93f2-4694e323d2e3","ios":"levelo://app?vid=39021e7c-c736-47ff-93f2-4694e323d2e3"},"vehicle_type_id":"4","last_reported":1686852504,"current_range_meters":0,"station_id":"ce4bgrp2rcd13ifvqc9g","pricing_plan_id":"free"},{"bike_id":"d36554be-856c-4ca7-8b1f-69197cc6ee3c","system_id":"levelo_inurba_marseille","lat":43.305989,"lon":5.37225,"is_reserved":false,"is_disabled":false,"rental_uris":{"android":"levelo://app?vid=d36554be-856c-4ca7-8b1f-69197cc6ee3c","ios":"levelo://app?vid=d36554be-856c-4ca7-8b1f-69197cc6ee3c"},"vehicle_type_id":"4","last_reported":1686852504,"current_range_meters":1200,"station_id":"ce4bgqh2rcd13ifvqc4g","pricing_plan_id":"free"},{"bike_id":"b9923a33-1251-4b72-a5cc-a501b1fa9573","system_id":"levelo_inurba_marseille","lat":43.305989,"lon":5.37225,"is_reserved":false,"is_disabled":false,"rental_uris":{"android":"levelo://app?vid=b9923a33-1251-4b72-a5cc-a501b1fa9573","ios":"levelo://app?vid=b9923a33-1251-4b72-a5cc-a501b1fa9573"},"vehicle_type_id":"4","last_reported":1686852504,"current_range_meters":16800,"station_id":"ce4bgqh2rcd13ifvqc4g","pricing_plan_id":"free"},{"bike_id":"4a754460-fadd-46aa-8025-e29151f697b6","system_id":"levelo_inurba_marseille","lat":43.31685,"lon":5.37615,"is_reserved":false,"is_disabled":false,"rental_uris":{"android":"levelo://app?vid=4a754460-fadd-46aa-8025-e29151f697b6","ios":"levelo://app?vid=4a754460-fadd-46aa-8025-e29151f697b6"},"vehicle_type_id":"4","last_reported":1686852504,"current_range_meters":30000,"station_id":"","pricing_plan_id":"free"},{"bike_id":"cb656d76-c01c-482f-884c-9994c1900d59","system_id":"levelo_inurba_marseille","lat":43.311125,"lon":5.377624,"is_reserved":false,"is_disabled":false,"rental_uris":{"android":"levelo://app?vid=cb656d76-c01c-482f-884c-9994c1900d59","ios":"levelo://app?vid=cb656d76-c01c-482f-884c-9994c1900d59"},"vehicle_type_id":"4","last_reported":1686852504,"current_range_meters":0,"station_id":"ce4bgt92rcd13ifvqcg0","pricing_plan_id":"free"},{"bike_id":"d56b9062-64cf-49a5-a51e-675078ee61ba","system_id":"levelo_inurba_marseille","lat":43.31706,"lon":5.37729,"is_reserved":false,"is_disabled":false,"rental_uris":{"android":"levelo://app?vid=d56b9062-64cf-49a5-a51e-675078ee61ba","ios":"levelo://app?vid=d56b9062-64cf-49a5-a51e-675078ee61ba"},"vehicle_type_id":"4","last_reported":1686852504,"current_range_meters":19600,"station_id":"ce4bgth2rcd13ifvqch0","pricing_plan_id":"free"},{"bike_id":"2424216c-0462-4ad0-b127-d0366c91b61c","system_id":"levelo_inurba_marseille","lat":43.317075,"lon":5.377367,"is_reserved":false,"is_disabled":false,"rental_uris":{"android":"levelo://app?vid=2424216c-0462-4ad0-b127-d0366c91b61c","ios":"levelo://app?vid=2424216c-0462-4ad0-b127-d0366c91b61c"},"vehicle_type_id":"4","last_reported":1686852504,"current_range_meters":31200,"station_id":"ce4bgth2rcd13ifvqch0","pricing_plan_id":"free"},{"bike_id":"cc3632ad-007f-4cd6-ac32-a6dadbf0fdca","system_id":"levelo_inurba_marseille","lat":43.315347,"lon":5.380324,"is_reserved":false,"is_disabled":false,"rental_uris":{"android":"levelo://app?vid=cc3632ad-007f-4cd6-ac32-a6dadbf0fdca","ios":"levelo://app?vid=cc3632ad-007f-4cd6-ac32-a6dadbf0fdca"},"vehicle_type_id":"4","last_reported":1686852504,"current_range_meters":31200,"station_id":"","pricing_plan_id":"free"},{"bike_id":"cd8b6958-c31a-4a9d-8c48-cf838953f3b1","system_id":"levelo_inurba_marseille","lat":43.315335,"lon":5.380336,"is_reserved":false,"is_disabled":false,"rental_uris":{"android":"levelo://app?vid=cd8b6958-c31a-4a9d-8c48-cf838953f3b1","ios":"levelo://app?vid=cd8b6958-c31a-4a9d-8c48-cf838953f3b1"},"vehicle_type_id":"4","last_reported":1686852504,"current_range_meters":30800,"station_id":"","pricing_plan_id":"free"},{"bike_id":"ca7e176e-0e10-4ea8-a08e-9f2c940e5696","system_id":"levelo_inurba_marseille","lat":43.315337,"lon":5.380345,"is_reserved":false,"is_disabled":false,"rental_uris":{"android":"levelo://app?vid=ca7e176e-0e10-4ea8-a08e-9f2c940e5696","ios":"levelo://app?vid=ca7e176e-0e10-4ea8-a08e-9f2c940e5696"},"vehicle_type_id":"4","last_reported":1686852504,"current_range_meters":18800,"station_id":"","pricing_plan_id":"free"},{"bike_id":"d615bec8-d16a-4c36-8850-371d4102df2f","system_id":"levelo_inurba_marseille","lat":43.315289,"lon":5.380349,"is_reserved":false,"is_disabled":false,"rental_uris":{"android":"levelo://app?vid=d615bec8-d16a-4c36-8850-371d4102df2f","ios":"levelo://app?vid=d615bec8-d16a-4c36-8850-371d4102df2f"},"vehicle_type_id":"4","last_reported":1686852504,"current_range_meters":31200,"station_id":"ce4bhsp2rcd13ifvqi50","pricing_plan_id":"free"},{"bike_id":"28457e2b-eb0e-4233-93af-fa4a65be50af","system_id":"levelo_inurba_marseille","lat":43.315337,"lon":5.380351,"is_reserved":false,"is_disabled":false,"rental_uris":{"android":"levelo://app?vid=28457e2b-eb0e-4233-93af-fa4a65be50af","ios":"levelo://app?vid=28457e2b-eb0e-4233-93af-fa4a65be50af"},"vehicle_type_id":"4","last_reported":1686852504,"current_range_meters":27600,"station_id":"","pricing_plan_id":"free"},{"bike_id":"1eb52fea-2009-4bfb-8531-2ab1e6a8ac72","system_id":"levelo_inurba_marseille","lat":43.315317,"lon":5.380416,"is_reserved":false,"is_disabled":false,"rental_uris":{"android":"levelo://app?vid=1eb52fea-2009-4bfb-8531-2ab1e6a8ac72","ios":"levelo://app?vid=1eb52fea-2009-4bfb-8531-2ab1e6a8ac72"},"vehicle_type_id":"4","last_reported":1686852504,"current_range_meters":30400,"station_id":"","pricing_plan_id":"free"},{"bike_id":"59bbb2a5-7253-4740-8cf7-9ea05abbf84f","system_id":"levelo_inurba_marseille","lat":43.30837,"lon":5.38119,"is_reserved":false,"is_disabled":false,"rental_uris":{"android":"levelo://app?vid=59bbb2a5-7253-4740-8cf7-9ea05abbf84f","ios":"levelo://app?vid=59bbb2a5-7253-4740-8cf7-9ea05abbf84f"},"vehicle_type_id":"4","last_reported":1686852504,"current_range_meters":24800,"station_id":"","pricing_plan_id":"free"},{"bike_id":"ae33307b-fcd5-479b-9ae1-9002ed226c6e","system_id":"levelo_inurba_marseille","lat":43.308012,"lon":5.381511,"is_reserved":false,"is_disabled":false,"rental_uris":{"android":"levelo://app?vid=ae33307b-fcd5-479b-9ae1-9002ed226c6e","ios":"levelo://app?vid=ae33307b-fcd5-479b-9ae1-9002ed226c6e"},"vehicle_type_id":"4","last_reported":1686852504,"current_range_meters":18800,"station_id":"ce4bgt12rcd13ifvqce0","pricing_plan_id":"free"},{"bike_id":"fc4a69da-5dee-4c68-8631-20ee11bc487b","system_id":"levelo_inurba_marseille","lat":43.304606,"lon":5.379026,"is_reserved":false,"is_disabled":false,"rental_uris":{"android":"levelo://app?vid=fc4a69da-5dee-4c68-8631-20ee11bc487b","ios":"levelo://app?vid=fc4a69da-5dee-4c68-8631-20ee11bc487b"},"vehicle_type_id":"4","last_reported":1686852504,"current_range_meters":28000,"station_id":"ce4bgup2rcd13ifvqcn0","pricing_plan_id":"free"},{"bike_id":"32827146-2d6b-4fb1-b00e-6b2f535ca544","system_id":"levelo_inurba_marseille","lat":43.304606,"lon":5.379026,"is_reserved":false,"is_disabled":false,"rental_uris":{"android":"levelo://app?vid=32827146-2d6b-4fb1-b00e-6b2f535ca544","ios":"levelo://app?vid=32827146-2d6b-4fb1-b00e-6b2f535ca544"},"vehicle_type_id":"4","last_reported":1686852504,"current_range_meters":31200,"station_id":"ce4bgup2rcd13ifvqcn0","pricing_plan_id":"free"},{"bike_id":"c2251ff7-11fc-4c40-ab79-6b2f21751fa0","system_id":"levelo_inurba_marseille","lat":43.30143,"lon":5.37413,"is_reserved":false,"is_disabled":false,"rental_uris":{"android":"levelo://app?vid=c2251ff7-11fc-4c40-ab79-6b2f21751fa0","ios":"levelo://app?vid=c2251ff7-11fc-4c40-ab79-6b2f21751fa0"},"vehicle_type_id":"4","last_reported":1686852504,"current_range_meters":0,"station_id":"ce4bgs92rcd13ifvqcc0","pricing_plan_id":"free"},{"bike_id":"973279cd-48b3-4da5-b019-6bde256ffa58","system_id":"levelo_inurba_marseille","lat":43.31999,"lon":5.38143,"is_reserved":false,"is_disabled":false,"rental_uris":{"android":"levelo://app?vid=973279cd-48b3-4da5-b019-6bde256ffa58","ios":"levelo://app?vid=973279cd-48b3-4da5-b019-6bde256ffa58"},"vehicle_type_id":"4","last_reported":1686852504,"current_range_meters":8800,"station_id":"ce4bhr12rcd13ifvqhpg","pricing_plan_id":"free"},{"bike_id":"14a08899-349d-4c49-bd20-7204a0b2cd69","system_id":"levelo_inurba_marseille","lat":43.31993,"lon":5.38159,"is_reserved":false,"is_disabled":false,"rental_uris":{"android":"levelo://app?vid=14a08899-349d-4c49-bd20-7204a0b2cd69","ios":"levelo://app?vid=14a08899-349d-4c49-bd20-7204a0b2cd69"},"vehicle_type_id":"4","last_reported":1686852504,"current_range_meters":8400,"station_id":"ce4bhr12rcd13ifvqhpg","pricing_plan_id":"free"},{"bike_id":"9f66c586-36b8-410b-a384-4314decc6f7e","system_id":"levelo_inurba_marseille","lat":43.32002,"lon":5.38151,"is_reserved":false,"is_disabled":false,"rental_uris":{"android":"levelo://app?vid=9f66c586-36b8-410b-a384-4314decc6f7e","ios":"levelo://app?vid=9f66c586-36b8-410b-a384-4314decc6f7e"},"vehicle_type_id":"4","last_reported":1686852504,"current_range_meters":400,"station_id":"ce4bhr12rcd13ifvqhpg","pricing_plan_id":"free"},{"bike_id":"770eb224-dbd3-41ff-9635-c3cab7dcf9cc","system_id":"levelo_inurba_marseille","lat":43.305368,"lon":5.367343,"is_reserved":false,"is_disabled":false,"rental_uris":{"android":"levelo://app?vid=770eb224-dbd3-41ff-9635-c3cab7dcf9cc","ios":"levelo://app?vid=770eb224-dbd3-41ff-9635-c3cab7dcf9cc"},"vehicle_type_id":"4","last_reported":1686852504,"current_range_meters":0,"station_id":"ce4bgrp2rcd13ifvqc9g","pricing_plan_id":"free"},{"bike_id":"f45e7591-0537-4939-a6e2-f64893ddb0b6","system_id":"levelo_inurba_marseille","lat":43.30151,"lon":5.37686,"is_reserved":false,"is_disabled":false,"rental_uris":{"android":"levelo://app?vid=f45e7591-0537-4939-a6e2-f64893ddb0b6","ios":"levelo://app?vid=f45e7591-0537-4939-a6e2-f64893ddb0b6"},"vehicle_type_id":"4","last_reported":1686852504,"current_range_meters":8000,"station_id":"","pricing_plan_id":"free"},{"bike_id":"42f01252-4ea2-46c2-90c7-85872572535d","system_id":"levelo_inurba_marseille","lat":43.299222,"lon":5.365554,"is_reserved":false,"is_disabled":false,"rental_uris":{"android":"levelo://app?vid=42f01252-4ea2-46c2-90c7-85872572535d","ios":"levelo://app?vid=42f01252-4ea2-46c2-90c7-85872572535d"},"vehicle_type_id":"4","last_reported":1686852504,"current_range_meters":0,"station_id":"ce4bgm92rcd13ifvqbr0","pricing_plan_id":"free"},{"bike_id":"eb5789b2-955b-4fe2-9d7d-91e8225338b3","system_id":"levelo_inurba_marseille","lat":43.298433,"lon":5.362774,"is_reserved":false,"is_disabled":false,"rental_uris":{"android":"levelo://app?vid=eb5789b2-955b-4fe2-9d7d-91e8225338b3","ios":"levelo://app?vid=eb5789b2-955b-4fe2-9d7d-91e8225338b3"},"vehicle_type_id":"4","last_reported":1686852504,"current_range_meters":0,"station_id":"ce4bgpp2rcd13ifvqc3g","pricing_plan_id":"free"},{"bike_id":"c69c4380-f3b1-4562-a855-1c982080dd7c","system_id":"levelo_inurba_marseille","lat":43.298433,"lon":5.362774,"is_reserved":false,"is_disabled":false,"rental_uris":{"android":"levelo://app?vid=c69c4380-f3b1-4562-a855-1c982080dd7c","ios":"levelo://app?vid=c69c4380-f3b1-4562-a855-1c982080dd7c"},"vehicle_type_id":"4","last_reported":1686852504,"current_range_meters":800,"station_id":"ce4bgpp2rcd13ifvqc3g","pricing_plan_id":"free"},{"bike_id":"f816757b-5549-43d4-b107-417ba0c801d0","system_id":"levelo_inurba_marseille","lat":43.298433,"lon":5.362774,"is_reserved":false,"is_disabled":false,"rental_uris":{"android":"levelo://app?vid=f816757b-5549-43d4-b107-417ba0c801d0","ios":"levelo://app?vid=f816757b-5549-43d4-b107-417ba0c801d0"},"vehicle_type_id":"4","last_reported":1686852504,"current_range_meters":24800,"station_id":"ce4bgpp2rcd13ifvqc3g","pricing_plan_id":"free"},{"bike_id":"09a90c13-8ae4-49dc-a6ce-13108966c238","system_id":"levelo_inurba_marseille","lat":43.305319,"lon":5.384241,"is_reserved":false,"is_disabled":false,"rental_uris":{"android":"levelo://app?vid=09a90c13-8ae4-49dc-a6ce-13108966c238","ios":"levelo://app?vid=09a90c13-8ae4-49dc-a6ce-13108966c238"},"vehicle_type_id":"4","last_reported":1686852504,"current_range_meters":2800,"station_id":"ce4bgg92rcd13ifvqb30","pricing_plan_id":"free"},{"bike_id":"5191e970-8148-477f-85c1-bee9a4edee60","system_id":"levelo_inurba_marseille","lat":43.298433,"lon":5.362774,"is_reserved":false,"is_disabled":false,"rental_uris":{"android":"levelo://app?vid=5191e970-8148-477f-85c1-bee9a4edee60","ios":"levelo://app?vid=5191e970-8148-477f-85c1-bee9a4edee60"},"vehicle_type_id":"4","last_reported":1686852504,"current_range_meters":3200,"station_id":"ce4bgpp2rcd13ifvqc3g","pricing_plan_id":"free"},{"bike_id":"6c1f71b1-d60f-416d-8eed-23d4293620f0","system_id":"levelo_inurba_marseille","lat":43.298433,"lon":5.362774,"is_reserved":false,"is_disabled":false,"rental_uris":{"android":"levelo://app?vid=6c1f71b1-d60f-416d-8eed-23d4293620f0","ios":"levelo://app?vid=6c1f71b1-d60f-416d-8eed-23d4293620f0"},"vehicle_type_id":"4","last_reported":1686852504,"current_range_meters":0,"station_id":"ce4bgpp2rcd13ifvqc3g","pricing_plan_id":"free"},{"bike_id":"e0b7be04-d724-4618-ba21-27b2bff85bc8","system_id":"levelo_inurba_marseille","lat":43.30524,"lon":5.38432,"is_reserved":false,"is_disabled":false,"rental_uris":{"android":"levelo://app?vid=e0b7be04-d724-4618-ba21-27b2bff85bc8","ios":"levelo://app?vid=e0b7be04-d724-4618-ba21-27b2bff85bc8"},"vehicle_type_id":"4","last_reported":1686852504,"current_range_meters":31200,"station_id":"ce4bgg92rcd13ifvqb30","pricing_plan_id":"free"},{"bike_id":"3c77942e-7ee6-4e67-a261-4117979c0f3a","system_id":"levelo_inurba_marseille","lat":43.299243,"lon":5.37481,"is_reserved":false,"is_disabled":false,"rental_uris":{"android":"levelo://app?vid=3c77942e-7ee6-4e67-a261-4117979c0f3a","ios":"levelo://app?vid=3c77942e-7ee6-4e67-a261-4117979c0f3a"},"vehicle_type_id":"4","last_reported":1686852504,"current_range_meters":1600,"station_id":"ce4bgjh2rcd13ifvqbg0","pricing_plan_id":"free"},{"bike_id":"eb225c57-93cb-4116-96ab-34f368ab76ca","system_id":"levelo_inurba_marseille","lat":43.31162,"lon":5.38726,"is_reserved":false,"is_disabled":false,"rental_uris":{"android":"levelo://app?vid=eb225c57-93cb-4116-96ab-34f368ab76ca","ios":"levelo://app?vid=eb225c57-93cb-4116-96ab-34f368ab76ca"},"vehicle_type_id":"4","last_reported":1686852504,"current_range_meters":26400,"station_id":"ce4bgv12rcd13ifvqcp0","pricing_plan_id":"free"},{"bike_id":"ba285b57-b20c-4a04-8262-c9b4ab998cb7","system_id":"levelo_inurba_marseille","lat":43.31539,"lon":5.38703,"is_reserved":false,"is_disabled":false,"rental_uris":{"android":"levelo://app?vid=ba285b57-b20c-4a04-8262-c9b4ab998cb7","ios":"levelo://app?vid=ba285b57-b20c-4a04-8262-c9b4ab998cb7"},"vehicle_type_id":"4","last_reported":1686852504,"current_range_meters":0,"station_id":"","pricing_plan_id":"free"},{"bike_id":"6938353d-b323-4b5d-9339-e3d5397a084a","system_id":"levelo_inurba_marseille","lat":43.32804,"lon":5.36687,"is_reserved":false,"is_disabled":false,"rental_uris":{"android":"levelo://app?vid=6938353d-b323-4b5d-9339-e3d5397a084a","ios":"levelo://app?vid=6938353d-b323-4b5d-9339-e3d5397a084a"},"vehicle_type_id":"4","last_reported":1686852504,"current_range_meters":25600,"station_id":"","pricing_plan_id":"free"},{"bike_id":"feb0bbb3-fc30-4bbd-8216-f6e812a1b52f","system_id":"levelo_inurba_marseille","lat":43.29771,"lon":5.37118,"is_reserved":false,"is_disabled":false,"rental_uris":{"android":"levelo://app?vid=feb0bbb3-fc30-4bbd-8216-f6e812a1b52f","ios":"levelo://app?vid=feb0bbb3-fc30-4bbd-8216-f6e812a1b52f"},"vehicle_type_id":"4","last_reported":1686852504,"current_range_meters":0,"station_id":"ce4bgop2rcd13ifvqc1g","pricing_plan_id":"free"},{"bike_id":"88d0330c-5bb0-4a19-9b65-d4683b42e015","system_id":"levelo_inurba_marseille","lat":43.29683,"lon":5.36046,"is_reserved":false,"is_disabled":false,"rental_uris":{"android":"levelo://app?vid=88d0330c-5bb0-4a19-9b65-d4683b42e015","ios":"levelo://app?vid=88d0330c-5bb0-4a19-9b65-d4683b42e015"},"vehicle_type_id":"4","last_reported":1686852504,"current_range_meters":13200,"station_id":"ce4bgpp2rcd13ifvqc3g","pricing_plan_id":"free"},{"bike_id":"05294798-6ab0-4449-b137-36e581acdca4","system_id":"levelo_inurba_marseille","lat":43.29577,"lon":5.36744,"is_reserved":false,"is_disabled":false,"rental_uris":{"android":"levelo://app?vid=05294798-6ab0-4449-b137-36e581acdca4","ios":"levelo://app?vid=05294798-6ab0-4449-b137-36e581acdca4"},"vehicle_type_id":"4","last_reported":1686852504,"current_range_meters":14000,"station_id":"ce4bgph2rcd13ifvqc2g","pricing_plan_id":"free"},{"bike_id":"c17f28d3-ec6b-4ad9-b689-481e4054a9a4","system_id":"levelo_inurba_marseille","lat":43.309589,"lon":5.390258,"is_reserved":false,"is_disabled":false,"rental_uris":{"android":"levelo://app?vid=c17f28d3-ec6b-4ad9-b689-481e4054a9a4","ios":"levelo://app?vid=c17f28d3-ec6b-4ad9-b689-481e4054a9a4"},"vehicle_type_id":"4","last_reported":1686852504,"current_range_meters":1200,"station_id":"ce4bgup2rcd13ifvqco0","pricing_plan_id":"free"},{"bike_id":"ec876f69-1540-416b-a2e6-f46201a187cc","system_id":"levelo_inurba_marseille","lat":43.309589,"lon":5.390258,"is_reserved":false,"is_disabled":false,"rental_uris":{"android":"levelo://app?vid=ec876f69-1540-416b-a2e6-f46201a187cc","ios":"levelo://app?vid=ec876f69-1540-416b-a2e6-f46201a187cc"},"vehicle_type_id":"4","last_reported":1686852504,"current_range_meters":17200,"station_id":"ce4bgup2rcd13ifvqco0","pricing_plan_id":"free"},{"bike_id":"6904b00b-5693-4ccb-a171-ea9144ed6fa1","system_id":"levelo_inurba_marseille","lat":43.309589,"lon":5.390258,"is_reserved":false,"is_disabled":false,"rental_uris":{"android":"levelo://app?vid=6904b00b-5693-4ccb-a171-ea9144ed6fa1","ios":"levelo://app?vid=6904b00b-5693-4ccb-a171-ea9144ed6fa1"},"vehicle_type_id":"4","last_reported":1686852504,"current_range_meters":13600,"station_id":"ce4bgup2rcd13ifvqco0","pricing_plan_id":"free"},{"bike_id":"0a3d0c56-ff0b-447e-a0fd-083b5b5a5f2b","system_id":"levelo_inurba_marseille","lat":43.309589,"lon":5.390258,"is_reserved":false,"is_disabled":false,"rental_uris":{"android":"levelo://app?vid=0a3d0c56-ff0b-447e-a0fd-083b5b5a5f2b","ios":"levelo://app?vid=0a3d0c56-ff0b-447e-a0fd-083b5b5a5f2b"},"vehicle_type_id":"4","last_reported":1686852504,"current_range_meters":1200,"station_id":"ce4bgup2rcd13ifvqco0","pricing_plan_id":"free"},{"bike_id":"2c3a6fe4-1fd2-431c-8511-68a9cbfb76bd","system_id":"levelo_inurba_marseille","lat":43.309589,"lon":5.390258,"is_reserved":false,"is_disabled":false,"rental_uris":{"android":"levelo://app?vid=2c3a6fe4-1fd2-431c-8511-68a9cbfb76bd","ios":"levelo://app?vid=2c3a6fe4-1fd2-431c-8511-68a9cbfb76bd"},"vehicle_type_id":"4","last_reported":1686852504,"current_range_meters":19600,"station_id":"ce4bgup2rcd13ifvqco0","pricing_plan_id":"free"},{"bike_id":"7e7b3ce9-16fb-4e20-84ef-31068a357bfd","system_id":"levelo_inurba_marseille","lat":43.29953,"lon":5.38274,"is_reserved":false,"is_disabled":false,"rental_uris":{"android":"levelo://app?vid=7e7b3ce9-16fb-4e20-84ef-31068a357bfd","ios":"levelo://app?vid=7e7b3ce9-16fb-4e20-84ef-31068a357bfd"},"vehicle_type_id":"4","last_reported":1686852504,"current_range_meters":7200,"station_id":"","pricing_plan_id":"free"},{"bike_id":"113d8f7e-ffd1-4394-aaba-49ba04306712","system_id":"levelo_inurba_marseille","lat":43.317557,"lon":5.390173,"is_reserved":false,"is_disabled":false,"rental_uris":{"android":"levelo://app?vid=113d8f7e-ffd1-4394-aaba-49ba04306712","ios":"levelo://app?vid=113d8f7e-ffd1-4394-aaba-49ba04306712"},"vehicle_type_id":"4","last_reported":1686852504,"current_range_meters":15200,"station_id":"ce4bhqp2rcd13ifvqhng","pricing_plan_id":"free"},{"bike_id":"b7206f6b-b1a4-465b-9191-462769f48baa","system_id":"levelo_inurba_marseille","lat":43.317557,"lon":5.390173,"is_reserved":false,"is_disabled":false,"rental_uris":{"android":"levelo://app?vid=b7206f6b-b1a4-465b-9191-462769f48baa","ios":"levelo://app?vid=b7206f6b-b1a4-465b-9191-462769f48baa"},"vehicle_type_id":"4","last_reported":1686852504,"current_range_meters":0,"station_id":"ce4bhqp2rcd13ifvqhng","pricing_plan_id":"free"},{"bike_id":"34066ff6-ffea-4045-9b28-b58c7a771b75","system_id":"levelo_inurba_marseille","lat":43.299707,"lon":5.384859,"is_reserved":false,"is_disabled":false,"rental_uris":{"android":"levelo://app?vid=34066ff6-ffea-4045-9b28-b58c7a771b75","ios":"levelo://app?vid=34066ff6-ffea-4045-9b28-b58c7a771b75"},"vehicle_type_id":"4","last_reported":1686852504,"current_range_meters":0,"station_id":"ce4bgj92rcd13ifvqbd0","pricing_plan_id":"free"},{"bike_id":"ef8035e9-0bf3-43ba-a3ef-46c15a6f62d3","system_id":"levelo_inurba_marseille","lat":43.299717,"lon":5.384845,"is_reserved":false,"is_disabled":false,"rental_uris":{"android":"levelo://app?vid=ef8035e9-0bf3-43ba-a3ef-46c15a6f62d3","ios":"levelo://app?vid=ef8035e9-0bf3-43ba-a3ef-46c15a6f62d3"},"vehicle_type_id":"4","last_reported":1686852504,"current_range_meters":0,"station_id":"ce4bgj92rcd13ifvqbd0","pricing_plan_id":"free"},{"bike_id":"2c9ad911-25e0-4222-8751-d809dfadd582","system_id":"levelo_inurba_marseille","lat":43.32364,"lon":5.38877,"is_reserved":false,"is_disabled":false,"rental_uris":{"android":"levelo://app?vid=2c9ad911-25e0-4222-8751-d809dfadd582","ios":"levelo://app?vid=2c9ad911-25e0-4222-8751-d809dfadd582"},"vehicle_type_id":"4","last_reported":1686852504,"current_range_meters":10000,"station_id":"ce4bhqp2rcd13ifvqhog","pricing_plan_id":"free"},{"bike_id":"b6db1c05-7fa7-477c-a09e-f834fe9289d2","system_id":"levelo_inurba_marseille","lat":43.32368,"lon":5.38886,"is_reserved":false,"is_disabled":false,"rental_uris":{"android":"levelo://app?vid=b6db1c05-7fa7-477c-a09e-f834fe9289d2","ios":"levelo://app?vid=b6db1c05-7fa7-477c-a09e-f834fe9289d2"},"vehicle_type_id":"4","last_reported":1686852504,"current_range_meters":11600,"station_id":"ce4bhqp2rcd13ifvqhog","pricing_plan_id":"free"},{"bike_id":"a6face53-929a-4ba3-b91b-36138d12515a","system_id":"levelo_inurba_marseille","lat":43.293249,"lon":5.371578,"is_reserved":false,"is_disabled":false,"rental_uris":{"android":"levelo://app?vid=a6face53-929a-4ba3-b91b-36138d12515a","ios":"levelo://app?vid=a6face53-929a-4ba3-b91b-36138d12515a"},"vehicle_type_id":"4","last_reported":1686852504,"current_range_meters":14800,"station_id":"ce4bgh92rcd13ifvqb40","pricing_plan_id":"free"},{"bike_id":"974af135-beeb-454f-ab1b-a04a524d228e","system_id":"levelo_inurba_marseille","lat":43.29305,"lon":5.37165,"is_reserved":false,"is_disabled":false,"rental_uris":{"android":"levelo://app?vid=974af135-beeb-454f-ab1b-a04a524d228e","ios":"levelo://app?vid=974af135-beeb-454f-ab1b-a04a524d228e"},"vehicle_type_id":"4","last_reported":1686852504,"current_range_meters":0,"station_id":"ce4bgh92rcd13ifvqb40","pricing_plan_id":"free"},{"bike_id":"f7fe7112-6950-4aa0-84e8-de2d5ce6a878","system_id":"levelo_inurba_marseille","lat":43.29306,"lon":5.3719,"is_reserved":false,"is_disabled":false,"rental_uris":{"android":"levelo://app?vid=f7fe7112-6950-4aa0-84e8-de2d5ce6a878","ios":"levelo://app?vid=f7fe7112-6950-4aa0-84e8-de2d5ce6a878"},"vehicle_type_id":"4","last_reported":1686852504,"current_range_meters":0,"station_id":"ce4bgh92rcd13ifvqb40","pricing_plan_id":"free"},{"bike_id":"7c44d2a9-9eb0-4c37-85e1-d98feaba39a2","system_id":"levelo_inurba_marseille","lat":43.292749,"lon":5.368398,"is_reserved":false,"is_disabled":false,"rental_uris":{"android":"levelo://app?vid=7c44d2a9-9eb0-4c37-85e1-d98feaba39a2","ios":"levelo://app?vid=7c44d2a9-9eb0-4c37-85e1-d98feaba39a2"},"vehicle_type_id":"4","last_reported":1686852504,"current_range_meters":0,"station_id":"ce4bhbp2rcd13ifvqesg","pricing_plan_id":"free"},{"bike_id":"ca0df4e1-ddf4-43f8-a934-e91e424a21c4","system_id":"levelo_inurba_marseille","lat":43.292749,"lon":5.368402,"is_reserved":false,"is_disabled":false,"rental_uris":{"android":"levelo://app?vid=ca0df4e1-ddf4-43f8-a934-e91e424a21c4","ios":"levelo://app?vid=ca0df4e1-ddf4-43f8-a934-e91e424a21c4"},"vehicle_type_id":"4","last_reported":1686852504,"current_range_meters":3600,"station_id":"ce4bhbp2rcd13ifvqesg","pricing_plan_id":"free"},{"bike_id":"e6f3f996-e640-4ac6-8ee7-70705789a290","system_id":"levelo_inurba_marseille","lat":43.293009,"lon":5.374584,"is_reserved":false,"is_disabled":false,"rental_uris":{"android":"levelo://app?vid=e6f3f996-e640-4ac6-8ee7-70705789a290","ios":"levelo://app?vid=e6f3f996-e640-4ac6-8ee7-70705789a290"},"vehicle_type_id":"4","last_reported":1686852504,"current_range_meters":2400,"station_id":"ce4bgi12rcd13ifvqb70","pricing_plan_id":"free"},{"bike_id":"eeb39b8e-96d6-483f-bc1a-7da01f812199","system_id":"levelo_inurba_marseille","lat":43.30142,"lon":5.39072,"is_reserved":false,"is_disabled":false,"rental_uris":{"android":"levelo://app?vid=eeb39b8e-96d6-483f-bc1a-7da01f812199","ios":"levelo://app?vid=eeb39b8e-96d6-483f-bc1a-7da01f812199"},"vehicle_type_id":"4","last_reported":1686852504,"current_range_meters":28000,"station_id":"","pricing_plan_id":"free"},{"bike_id":"c917e917-5f31-4030-9a8f-1afd977ee6e6","system_id":"levelo_inurba_marseille","lat":43.302992,"lon":5.392136,"is_reserved":false,"is_disabled":false,"rental_uris":{"android":"levelo://app?vid=c917e917-5f31-4030-9a8f-1afd977ee6e6","ios":"levelo://app?vid=c917e917-5f31-4030-9a8f-1afd977ee6e6"},"vehicle_type_id":"4","last_reported":1686852504,"current_range_meters":3200,"station_id":"ce4bgkh2rcd13ifvqbk0","pricing_plan_id":"free"},{"bike_id":"d3e5ec50-cdd2-4dda-b3aa-56eb536bbb12","system_id":"levelo_inurba_marseille","lat":43.29263,"lon":5.35979,"is_reserved":false,"is_disabled":false,"rental_uris":{"android":"levelo://app?vid=d3e5ec50-cdd2-4dda-b3aa-56eb536bbb12","ios":"levelo://app?vid=d3e5ec50-cdd2-4dda-b3aa-56eb536bbb12"},"vehicle_type_id":"4","last_reported":1686852504,"current_range_meters":29200,"station_id":"","pricing_plan_id":"free"},{"bike_id":"4821e5b8-e113-48d0-94bb-5f190bdc8a19","system_id":"levelo_inurba_marseille","lat":43.302992,"lon":5.392136,"is_reserved":false,"is_disabled":false,"rental_uris":{"android":"levelo://app?vid=4821e5b8-e113-48d0-94bb-5f190bdc8a19","ios":"levelo://app?vid=4821e5b8-e113-48d0-94bb-5f190bdc8a19"},"vehicle_type_id":"4","last_reported":1686852504,"current_range_meters":23200,"station_id":"ce4bgkh2rcd13ifvqbk0","pricing_plan_id":"free"},{"bike_id":"362d39b8-7d9f-46a2-ae74-f874d296d342","system_id":"levelo_inurba_marseille","lat":43.2936,"lon":5.37835,"is_reserved":false,"is_disabled":false,"rental_uris":{"android":"levelo://app?vid=362d39b8-7d9f-46a2-ae74-f874d296d342","ios":"levelo://app?vid=362d39b8-7d9f-46a2-ae74-f874d296d342"},"vehicle_type_id":"4","last_reported":1686852504,"current_range_meters":6400,"station_id":"ce4bgjh2rcd13ifvqbf0","pricing_plan_id":"free"},{"bike_id":"b7303c90-2b0c-400e-a508-ca950ad0d4a4","system_id":"levelo_inurba_marseille","lat":43.300852,"lon":5.390859,"is_reserved":false,"is_disabled":false,"rental_uris":{"android":"levelo://app?vid=b7303c90-2b0c-400e-a508-ca950ad0d4a4","ios":"levelo://app?vid=b7303c90-2b0c-400e-a508-ca950ad0d4a4"},"vehicle_type_id":"4","last_reported":1686852504,"current_range_meters":8800,"station_id":"ce4bh192rcd13ifvqdb0","pricing_plan_id":"free"},{"bike_id":"32facf92-4fd8-4f97-9b05-d57aa01b6afc","system_id":"levelo_inurba_marseille","lat":43.29216,"lon":5.36038,"is_reserved":false,"is_disabled":false,"rental_uris":{"android":"levelo://app?vid=32facf92-4fd8-4f97-9b05-d57aa01b6afc","ios":"levelo://app?vid=32facf92-4fd8-4f97-9b05-d57aa01b6afc"},"vehicle_type_id":"4","last_reported":1686852504,"current_range_meters":20400,"station_id":"","pricing_plan_id":"free"},{"bike_id":"d3ce4db6-9870-42b6-b1b2-bcbf6552c640","system_id":"levelo_inurba_marseille","lat":43.29212,"lon":5.36044,"is_reserved":false,"is_disabled":false,"rental_uris":{"android":"levelo://app?vid=d3ce4db6-9870-42b6-b1b2-bcbf6552c640","ios":"levelo://app?vid=d3ce4db6-9870-42b6-b1b2-bcbf6552c640"},"vehicle_type_id":"4","last_reported":1686852504,"current_range_meters":31200,"station_id":"ce4bhbh2rcd13ifvqeqg","pricing_plan_id":"free"},{"bike_id":"c7e84924-0918-40a6-ab3d-487f974419d3","system_id":"levelo_inurba_marseille","lat":43.291675,"lon":5.371583,"is_reserved":false,"is_disabled":false,"rental_uris":{"android":"levelo://app?vid=c7e84924-0918-40a6-ab3d-487f974419d3","ios":"levelo://app?vid=c7e84924-0918-40a6-ab3d-487f974419d3"},"vehicle_type_id":"4","last_reported":1686852504,"current_range_meters":0,"station_id":"ce4bha92rcd13ifvqeh0","pricing_plan_id":"free"},{"bike_id":"04942584-1904-45a4-b80e-9d8c282bf4c8","system_id":"levelo_inurba_marseille","lat":43.291671,"lon":5.371575,"is_reserved":false,"is_disabled":false,"rental_uris":{"android":"levelo://app?vid=04942584-1904-45a4-b80e-9d8c282bf4c8","ios":"levelo://app?vid=04942584-1904-45a4-b80e-9d8c282bf4c8"},"vehicle_type_id":"4","last_reported":1686852504,"current_range_meters":25600,"station_id":"ce4bha92rcd13ifvqeh0","pricing_plan_id":"free"},{"bike_id":"af3e9b45-4610-4871-9805-260b242f587e","system_id":"levelo_inurba_marseille","lat":43.291671,"lon":5.371575,"is_reserved":false,"is_disabled":false,"rental_uris":{"android":"levelo://app?vid=af3e9b45-4610-4871-9805-260b242f587e","ios":"levelo://app?vid=af3e9b45-4610-4871-9805-260b242f587e"},"vehicle_type_id":"4","last_reported":1686852504,"current_range_meters":1200,"station_id":"ce4bha92rcd13ifvqeh0","pricing_plan_id":"free"},{"bike_id":"1dffd19f-657c-4698-ade6-cc757c7618a5","system_id":"levelo_inurba_marseille","lat":43.291994,"lon":5.357886,"is_reserved":false,"is_disabled":false,"rental_uris":{"android":"levelo://app?vid=1dffd19f-657c-4698-ade6-cc757c7618a5","ios":"levelo://app?vid=1dffd19f-657c-4698-ade6-cc757c7618a5"},"vehicle_type_id":"4","last_reported":1686852504,"current_range_meters":0,"station_id":"ce4bhb12rcd13ifvqel0","pricing_plan_id":"free"},{"bike_id":"b2785abe-5eba-4a79-973c-db3ce0951e1a","system_id":"levelo_inurba_marseille","lat":43.313291,"lon":5.396838,"is_reserved":false,"is_disabled":false,"rental_uris":{"android":"levelo://app?vid=b2785abe-5eba-4a79-973c-db3ce0951e1a","ios":"levelo://app?vid=b2785abe-5eba-4a79-973c-db3ce0951e1a"},"vehicle_type_id":"4","last_reported":1686852504,"current_range_meters":23200,"station_id":"ce4bgvp2rcd13ifvqcu0","pricing_plan_id":"free"},{"bike_id":"e7b39df3-0953-4e98-9c24-3812b1667cf9","system_id":"levelo_inurba_marseille","lat":43.291994,"lon":5.357886,"is_reserved":false,"is_disabled":false,"rental_uris":{"android":"levelo://app?vid=e7b39df3-0953-4e98-9c24-3812b1667cf9","ios":"levelo://app?vid=e7b39df3-0953-4e98-9c24-3812b1667cf9"},"vehicle_type_id":"4","last_reported":1686852504,"current_range_meters":6800,"station_id":"ce4bhb12rcd13ifvqel0","pricing_plan_id":"free"},{"bike_id":"370fe574-a3db-4eab-8e4e-cea6c01288e4","system_id":"levelo_inurba_marseille","lat":43.3133,"lon":5.39697,"is_reserved":false,"is_disabled":false,"rental_uris":{"android":"levelo://app?vid=370fe574-a3db-4eab-8e4e-cea6c01288e4","ios":"levelo://app?vid=370fe574-a3db-4eab-8e4e-cea6c01288e4"},"vehicle_type_id":"4","last_reported":1686852504,"current_range_meters":8400,"station_id":"ce4bgvp2rcd13ifvqcu0","pricing_plan_id":"free"},{"bike_id":"c8040753-3793-4bf4-9af9-d991fc62e187","system_id":"levelo_inurba_marseille","lat":43.313291,"lon":5.396838,"is_reserved":false,"is_disabled":false,"rental_uris":{"android":"levelo://app?vid=c8040753-3793-4bf4-9af9-d991fc62e187","ios":"levelo://app?vid=c8040753-3793-4bf4-9af9-d991fc62e187"},"vehicle_type_id":"4","last_reported":1686852504,"current_range_meters":5200,"station_id":"ce4bgvp2rcd13ifvqcu0","pricing_plan_id":"free"},{"bike_id":"757e824c-9e8c-477b-a32d-d6aaa82a7f05","system_id":"levelo_inurba_marseille","lat":43.302008,"lon":5.394694,"is_reserved":false,"is_disabled":false,"rental_uris":{"android":"levelo://app?vid=757e824c-9e8c-477b-a32d-d6aaa82a7f05","ios":"levelo://app?vid=757e824c-9e8c-477b-a32d-d6aaa82a7f05"},"vehicle_type_id":"4","last_reported":1686852504,"current_range_meters":15600,"station_id":"ce4bh0p2rcd13ifvqd70","pricing_plan_id":"free"},{"bike_id":"08284797-6912-406c-9616-f7a14970d393","system_id":"levelo_inurba_marseille","lat":43.302008,"lon":5.394694,"is_reserved":false,"is_disabled":false,"rental_uris":{"android":"levelo://app?vid=08284797-6912-406c-9616-f7a14970d393","ios":"levelo://app?vid=08284797-6912-406c-9616-f7a14970d393"},"vehicle_type_id":"4","last_reported":1686852504,"current_range_meters":8000,"station_id":"ce4bh0p2rcd13ifvqd70","pricing_plan_id":"free"},{"bike_id":"61471777-9b90-4fe8-867b-e1d907ec6acf","system_id":"levelo_inurba_marseille","lat":43.302008,"lon":5.394694,"is_reserved":false,"is_disabled":false,"rental_uris":{"android":"levelo://app?vid=61471777-9b90-4fe8-867b-e1d907ec6acf","ios":"levelo://app?vid=61471777-9b90-4fe8-867b-e1d907ec6acf"},"vehicle_type_id":"4","last_reported":1686852504,"current_range_meters":0,"station_id":"ce4bh0p2rcd13ifvqd70","pricing_plan_id":"free"},{"bike_id":"f0cf2002-bb79-45da-857c-3a2297f4c74f","system_id":"levelo_inurba_marseille","lat":43.302008,"lon":5.394694,"is_reserved":false,"is_disabled":false,"rental_uris":{"android":"levelo://app?vid=f0cf2002-bb79-45da-857c-3a2297f4c74f","ios":"levelo://app?vid=f0cf2002-bb79-45da-857c-3a2297f4c74f"},"vehicle_type_id":"4","last_reported":1686852504,"current_range_meters":29200,"station_id":"ce4bh0p2rcd13ifvqd70","pricing_plan_id":"free"},{"bike_id":"d931e964-0efa-4c17-b887-31dd5ba1dc76","system_id":"levelo_inurba_marseille","lat":43.302008,"lon":5.394694,"is_reserved":false,"is_disabled":false,"rental_uris":{"android":"levelo://app?vid=d931e964-0efa-4c17-b887-31dd5ba1dc76","ios":"levelo://app?vid=d931e964-0efa-4c17-b887-31dd5ba1dc76"},"vehicle_type_id":"4","last_reported":1686852504,"current_range_meters":2000,"station_id":"ce4bh0p2rcd13ifvqd70","pricing_plan_id":"free"},{"bike_id":"acd38d26-bf97-4ccc-ab4e-02da6526893c","system_id":"levelo_inurba_marseille","lat":43.294153,"lon":5.386305,"is_reserved":false,"is_disabled":false,"rental_uris":{"android":"levelo://app?vid=acd38d26-bf97-4ccc-ab4e-02da6526893c","ios":"levelo://app?vid=acd38d26-bf97-4ccc-ab4e-02da6526893c"},"vehicle_type_id":"4","last_reported":1686852504,"current_range_meters":8000,"station_id":"ce4bh2h2rcd13ifvqdh0","pricing_plan_id":"free"},{"bike_id":"280ffb21-f46e-4fe5-bfc5-943e3f9beddc","system_id":"levelo_inurba_marseille","lat":43.294153,"lon":5.386305,"is_reserved":false,"is_disabled":false,"rental_uris":{"android":"levelo://app?vid=280ffb21-f46e-4fe5-bfc5-943e3f9beddc","ios":"levelo://app?vid=280ffb21-f46e-4fe5-bfc5-943e3f9beddc"},"vehicle_type_id":"4","last_reported":1686852504,"current_range_meters":0,"station_id":"ce4bh2h2rcd13ifvqdh0","pricing_plan_id":"free"},{"bike_id":"6c6bca64-ce2f-4274-98ec-549bc34153f8","system_id":"levelo_inurba_marseille","lat":43.290327,"lon":5.375711,"is_reserved":false,"is_disabled":false,"rental_uris":{"android":"levelo://app?vid=6c6bca64-ce2f-4274-98ec-549bc34153f8","ios":"levelo://app?vid=6c6bca64-ce2f-4274-98ec-549bc34153f8"},"vehicle_type_id":"4","last_reported":1686852504,"current_range_meters":21600,"station_id":"ce4bh692rcd13ifvqe90","pricing_plan_id":"free"},{"bike_id":"c37c3e53-ac48-4677-b87b-36a9b535bbbf","system_id":"levelo_inurba_marseille","lat":43.28928,"lon":5.36644,"is_reserved":false,"is_disabled":false,"rental_uris":{"android":"levelo://app?vid=c37c3e53-ac48-4677-b87b-36a9b535bbbf","ios":"levelo://app?vid=c37c3e53-ac48-4677-b87b-36a9b535bbbf"},"vehicle_type_id":"4","last_reported":1686852504,"current_range_meters":2400,"station_id":"ce4bhap2rcd13ifvqek0","pricing_plan_id":"free"},{"bike_id":"c52c263a-6f8f-4fe4-84ee-e78d22a9c1da","system_id":"levelo_inurba_marseille","lat":43.295169,"lon":5.390426,"is_reserved":false,"is_disabled":false,"rental_uris":{"android":"levelo://app?vid=c52c263a-6f8f-4fe4-84ee-e78d22a9c1da","ios":"levelo://app?vid=c52c263a-6f8f-4fe4-84ee-e78d22a9c1da"},"vehicle_type_id":"4","last_reported":1686852504,"current_range_meters":4400,"station_id":"ce4bh3p2rcd13ifvqdp0","pricing_plan_id":"free"},{"bike_id":"11e55bd7-37f1-48df-8f02-13e414e4cc84","system_id":"levelo_inurba_marseille","lat":43.292642,"lon":5.384254,"is_reserved":false,"is_disabled":false,"rental_uris":{"android":"levelo://app?vid=11e55bd7-37f1-48df-8f02-13e414e4cc84","ios":"levelo://app?vid=11e55bd7-37f1-48df-8f02-13e414e4cc84"},"vehicle_type_id":"4","last_reported":1686852504,"current_range_meters":7600,"station_id":"ce4bh692rcd13ifvqea0","pricing_plan_id":"free"},{"bike_id":"4828fe20-4ccb-48a7-91cd-ef88cd86a8a1","system_id":"levelo_inurba_marseille","lat":43.330462,"lon":5.38915,"is_reserved":false,"is_disabled":false,"rental_uris":{"android":"levelo://app?vid=4828fe20-4ccb-48a7-91cd-ef88cd86a8a1","ios":"levelo://app?vid=4828fe20-4ccb-48a7-91cd-ef88cd86a8a1"},"vehicle_type_id":"4","last_reported":1686852504,"current_range_meters":25200,"station_id":"","pricing_plan_id":"free"},{"bike_id":"df180994-3432-4d7a-a168-b5afdbd114f2","system_id":"levelo_inurba_marseille","lat":43.290104,"lon":5.356111,"is_reserved":false,"is_disabled":false,"rental_uris":{"android":"levelo://app?vid=df180994-3432-4d7a-a168-b5afdbd114f2","ios":"levelo://app?vid=df180994-3432-4d7a-a168-b5afdbd114f2"},"vehicle_type_id":"4","last_reported":1686852504,"current_range_meters":0,"station_id":"ce4bhb92rcd13ifvqen0","pricing_plan_id":"free"},{"bike_id":"a39dda89-2359-4d20-b292-81d344eb46d2","system_id":"levelo_inurba_marseille","lat":43.29529,"lon":5.385581,"is_reserved":false,"is_disabled":false,"rental_uris":{"android":"levelo://app?vid=a39dda89-2359-4d20-b292-81d344eb46d2","ios":"levelo://app?vid=a39dda89-2359-4d20-b292-81d344eb46d2"},"vehicle_type_id":"4","last_reported":1686852504,"current_range_meters":12400,"station_id":"ce4bgih2rcd13ifvqba0","pricing_plan_id":"free"},{"bike_id":"02291665-18a5-4f2a-9d77-40ed271abbc4","system_id":"levelo_inurba_marseille","lat":43.29171,"lon":5.38473,"is_reserved":false,"is_disabled":false,"rental_uris":{"android":"levelo://app?vid=02291665-18a5-4f2a-9d77-40ed271abbc4","ios":"levelo://app?vid=02291665-18a5-4f2a-9d77-40ed271abbc4"},"vehicle_type_id":"4","last_reported":1686852504,"current_range_meters":19600,"station_id":"","pricing_plan_id":"free"},{"bike_id":"14b30181-d8c6-445c-b174-5b586e091a91","system_id":"levelo_inurba_marseille","lat":43.28856,"lon":5.358371,"is_reserved":false,"is_disabled":false,"rental_uris":{"android":"levelo://app?vid=14b30181-d8c6-445c-b174-5b586e091a91","ios":"levelo://app?vid=14b30181-d8c6-445c-b174-5b586e091a91"},"vehicle_type_id":"4","last_reported":1686852504,"current_range_meters":20000,"station_id":"ce4bhb12rcd13ifvqem0","pricing_plan_id":"free"},{"bike_id":"c0fb8083-e02d-4dec-b1b9-fa095e6c5b75","system_id":"levelo_inurba_marseille","lat":43.337396,"lon":5.374526,"is_reserved":false,"is_disabled":false,"rental_uris":{"android":"levelo://app?vid=c0fb8083-e02d-4dec-b1b9-fa095e6c5b75","ios":"levelo://app?vid=c0fb8083-e02d-4dec-b1b9-fa095e6c5b75"},"vehicle_type_id":"4","last_reported":1686852504,"current_range_meters":4400,"station_id":"ce4bhp92rcd13ifvqhag","pricing_plan_id":"free"},{"bike_id":"43475d41-a7ed-41d0-853d-d18285be2107","system_id":"levelo_inurba_marseille","lat":43.301117,"lon":5.398795,"is_reserved":false,"is_disabled":false,"rental_uris":{"android":"levelo://app?vid=43475d41-a7ed-41d0-853d-d18285be2107","ios":"levelo://app?vid=43475d41-a7ed-41d0-853d-d18285be2107"},"vehicle_type_id":"4","last_reported":1686852504,"current_range_meters":12400,"station_id":"ce4bh0h2rcd13ifvqd40","pricing_plan_id":"free"},{"bike_id":"e6500b31-e996-4207-b245-b62b662478f1","system_id":"levelo_inurba_marseille","lat":43.286591,"lon":5.363346,"is_reserved":false,"is_disabled":false,"rental_uris":{"android":"levelo://app?vid=e6500b31-e996-4207-b245-b62b662478f1","ios":"levelo://app?vid=e6500b31-e996-4207-b245-b62b662478f1"},"vehicle_type_id":"4","last_reported":1686852504,"current_range_meters":14000,"station_id":"ce4bhah2rcd13ifvqej0","pricing_plan_id":"free"},{"bike_id":"e67177d4-af6f-4076-b590-69f7f3f90a0e","system_id":"levelo_inurba_marseille","lat":43.295196,"lon":5.39397,"is_reserved":false,"is_disabled":false,"rental_uris":{"android":"levelo://app?vid=e67177d4-af6f-4076-b590-69f7f3f90a0e","ios":"levelo://app?vid=e67177d4-af6f-4076-b590-69f7f3f90a0e"},"vehicle_type_id":"4","last_reported":1686852504,"current_range_meters":18000,"station_id":"ce4bh292rcd13ifvqdf0","pricing_plan_id":"free"},{"bike_id":"e33b62d1-f0ed-43c0-98cd-5855aed1e513","system_id":"levelo_inurba_marseille","lat":43.28694,"lon":5.37403,"is_reserved":false,"is_disabled":false,"rental_uris":{"android":"levelo://app?vid=e33b62d1-f0ed-43c0-98cd-5855aed1e513","ios":"levelo://app?vid=e33b62d1-f0ed-43c0-98cd-5855aed1e513"},"vehicle_type_id":"4","last_reported":1686852504,"current_range_meters":16800,"station_id":"","pricing_plan_id":"free"},{"bike_id":"37fdf92b-8be1-4100-b694-eb6dd0e0b8aa","system_id":"levelo_inurba_marseille","lat":43.302759,"lon":5.400793,"is_reserved":false,"is_disabled":false,"rental_uris":{"android":"levelo://app?vid=37fdf92b-8be1-4100-b694-eb6dd0e0b8aa","ios":"levelo://app?vid=37fdf92b-8be1-4100-b694-eb6dd0e0b8aa"},"vehicle_type_id":"4","last_reported":1686852504,"current_range_meters":3200,"station_id":"ce4bgvh2rcd13ifvqcs0","pricing_plan_id":"free"},{"bike_id":"bb6c5239-78fd-44c8-bfbc-4c374dc8e7a3","system_id":"levelo_inurba_marseille","lat":43.302759,"lon":5.400793,"is_reserved":false,"is_disabled":false,"rental_uris":{"android":"levelo://app?vid=bb6c5239-78fd-44c8-bfbc-4c374dc8e7a3","ios":"levelo://app?vid=bb6c5239-78fd-44c8-bfbc-4c374dc8e7a3"},"vehicle_type_id":"4","last_reported":1686852504,"current_range_meters":6800,"station_id":"ce4bgvh2rcd13ifvqcs0","pricing_plan_id":"free"},{"bike_id":"cca0c102-a5e9-4b13-8a4f-6c099904af50","system_id":"levelo_inurba_marseille","lat":43.290336,"lon":5.386425,"is_reserved":false,"is_disabled":false,"rental_uris":{"android":"levelo://app?vid=cca0c102-a5e9-4b13-8a4f-6c099904af50","ios":"levelo://app?vid=cca0c102-a5e9-4b13-8a4f-6c099904af50"},"vehicle_type_id":"4","last_reported":1686852504,"current_range_meters":0,"station_id":"ce4bh4p2rcd13ifvqe0g","pricing_plan_id":"free"},{"bike_id":"3a4cc26a-05c7-4de9-bd02-e6eb4e14b750","system_id":"levelo_inurba_marseille","lat":43.286039,"lon":5.370679,"is_reserved":false,"is_disabled":false,"rental_uris":{"android":"levelo://app?vid=3a4cc26a-05c7-4de9-bd02-e6eb4e14b750","ios":"levelo://app?vid=3a4cc26a-05c7-4de9-bd02-e6eb4e14b750"},"vehicle_type_id":"4","last_reported":1686852504,"current_range_meters":25600,"station_id":"ce4bht12rcd13ifvqi60","pricing_plan_id":"free"},{"bike_id":"d0625d96-717b-4bb6-87a9-747b66fec5c9","system_id":"levelo_inurba_marseille","lat":43.302759,"lon":5.400793,"is_reserved":false,"is_disabled":false,"rental_uris":{"android":"levelo://app?vid=d0625d96-717b-4bb6-87a9-747b66fec5c9","ios":"levelo://app?vid=d0625d96-717b-4bb6-87a9-747b66fec5c9"},"vehicle_type_id":"4","last_reported":1686852504,"current_range_meters":19600,"station_id":"ce4bgvh2rcd13ifvqcs0","pricing_plan_id":"free"},{"bike_id":"ac893429-2e48-48af-81e4-87baf0fc2916","system_id":"levelo_inurba_marseille","lat":43.31646,"lon":5.40436,"is_reserved":false,"is_disabled":false,"rental_uris":{"android":"levelo://app?vid=ac893429-2e48-48af-81e4-87baf0fc2916","ios":"levelo://app?vid=ac893429-2e48-48af-81e4-87baf0fc2916"},"vehicle_type_id":"4","last_reported":1686852504,"current_range_meters":28800,"station_id":"ce4bh012rcd13ifvqd00","pricing_plan_id":"free"},{"bike_id":"8ecb6a11-9a2c-4269-bb45-7bbf10379601","system_id":"levelo_inurba_marseille","lat":43.284534,"lon":5.358662,"is_reserved":false,"is_disabled":false,"rental_uris":{"android":"levelo://app?vid=8ecb6a11-9a2c-4269-bb45-7bbf10379601","ios":"levelo://app?vid=8ecb6a11-9a2c-4269-bb45-7bbf10379601"},"vehicle_type_id":"4","last_reported":1686852504,"current_range_meters":26400,"station_id":"ce4bhah2rcd13ifvqei0","pricing_plan_id":"free"},{"bike_id":"da16bd22-118a-46e2-90df-2132e6eab448","system_id":"levelo_inurba_marseille","lat":43.31767,"lon":5.40601,"is_reserved":false,"is_disabled":false,"rental_uris":{"android":"levelo://app?vid=da16bd22-118a-46e2-90df-2132e6eab448","ios":"levelo://app?vid=da16bd22-118a-46e2-90df-2132e6eab448"},"vehicle_type_id":"4","last_reported":1686852504,"current_range_meters":9600,"station_id":"","pricing_plan_id":"free"},{"bike_id":"d14ad478-dd54-4ad1-ad10-e40ae23b6e19","system_id":"levelo_inurba_marseille","lat":43.2862,"lon":5.35102,"is_reserved":false,"is_disabled":false,"rental_uris":{"android":"levelo://app?vid=d14ad478-dd54-4ad1-ad10-e40ae23b6e19","ios":"levelo://app?vid=d14ad478-dd54-4ad1-ad10-e40ae23b6e19"},"vehicle_type_id":"4","last_reported":1686852504,"current_range_meters":26400,"station_id":"","pricing_plan_id":"free"},{"bike_id":"4682e828-cc5b-4b2d-aa58-9672938f345f","system_id":"levelo_inurba_marseille","lat":43.28616,"lon":5.35098,"is_reserved":false,"is_disabled":false,"rental_uris":{"android":"levelo://app?vid=4682e828-cc5b-4b2d-aa58-9672938f345f","ios":"levelo://app?vid=4682e828-cc5b-4b2d-aa58-9672938f345f"},"vehicle_type_id":"4","last_reported":1686852504,"current_range_meters":31200,"station_id":"","pricing_plan_id":"free"},{"bike_id":"bcbcc3ed-74bb-4392-af72-f39bdf2fde7b","system_id":"levelo_inurba_marseille","lat":43.295713,"lon":5.399639,"is_reserved":false,"is_disabled":false,"rental_uris":{"android":"levelo://app?vid=bcbcc3ed-74bb-4392-af72-f39bdf2fde7b","ios":"levelo://app?vid=bcbcc3ed-74bb-4392-af72-f39bdf2fde7b"},"vehicle_type_id":"4","last_reported":1686852504,"current_range_meters":18400,"station_id":"ce4bh312rcd13ifvqdj0","pricing_plan_id":"free"},{"bike_id":"aa4f46b6-3e12-4074-ac11-765de91dd301","system_id":"levelo_inurba_marseille","lat":43.286595,"lon":5.386795,"is_reserved":false,"is_disabled":false,"rental_uris":{"android":"levelo://app?vid=aa4f46b6-3e12-4074-ac11-765de91dd301","ios":"levelo://app?vid=aa4f46b6-3e12-4074-ac11-765de91dd301"},"vehicle_type_id":"4","last_reported":1686852504,"current_range_meters":0,"station_id":"ce4bh492rcd13ifvqdug","pricing_plan_id":"free"},{"bike_id":"16e5fedd-6e86-436a-a0a2-72c7cd60a6ea","system_id":"levelo_inurba_marseille","lat":43.323464,"lon":5.406297,"is_reserved":false,"is_disabled":false,"rental_uris":{"android":"levelo://app?vid=16e5fedd-6e86-436a-a0a2-72c7cd60a6ea","ios":"levelo://app?vid=16e5fedd-6e86-436a-a0a2-72c7cd60a6ea"},"vehicle_type_id":"4","last_reported":1686852504,"current_range_meters":31200,"station_id":"ce4bhq92rcd13ifvqhjg","pricing_plan_id":"free"},{"bike_id":"448513fa-ee2d-4038-9a02-57c46de48c20","system_id":"levelo_inurba_marseille","lat":43.323464,"lon":5.406297,"is_reserved":false,"is_disabled":false,"rental_uris":{"android":"levelo://app?vid=448513fa-ee2d-4038-9a02-57c46de48c20","ios":"levelo://app?vid=448513fa-ee2d-4038-9a02-57c46de48c20"},"vehicle_type_id":"4","last_reported":1686852504,"current_range_meters":12400,"station_id":"ce4bhq92rcd13ifvqhjg","pricing_plan_id":"free"},{"bike_id":"a6839177-fb6b-47f6-b52c-9d048f98fd35","system_id":"levelo_inurba_marseille","lat":43.323464,"lon":5.406297,"is_reserved":false,"is_disabled":false,"rental_uris":{"android":"levelo://app?vid=a6839177-fb6b-47f6-b52c-9d048f98fd35","ios":"levelo://app?vid=a6839177-fb6b-47f6-b52c-9d048f98fd35"},"vehicle_type_id":"4","last_reported":1686852504,"current_range_meters":12000,"station_id":"ce4bhq92rcd13ifvqhjg","pricing_plan_id":"free"},{"bike_id":"26c128b2-24ff-4735-8883-1c86ed16010f","system_id":"levelo_inurba_marseille","lat":43.33724,"lon":5.39194,"is_reserved":false,"is_disabled":false,"rental_uris":{"android":"levelo://app?vid=26c128b2-24ff-4735-8883-1c86ed16010f","ios":"levelo://app?vid=26c128b2-24ff-4735-8883-1c86ed16010f"},"vehicle_type_id":"4","last_reported":1686852504,"current_range_meters":4800,"station_id":"","pricing_plan_id":"free"},{"bike_id":"a813f824-52cf-4353-adcb-dedc31b31ef7","system_id":"levelo_inurba_marseille","lat":43.284787,"lon":5.384116,"is_reserved":false,"is_disabled":false,"rental_uris":{"android":"levelo://app?vid=a813f824-52cf-4353-adcb-dedc31b31ef7","ios":"levelo://app?vid=a813f824-52cf-4353-adcb-dedc31b31ef7"},"vehicle_type_id":"4","last_reported":1686852504,"current_range_meters":17600,"station_id":"ce4bh512rcd13ifvqe3g","pricing_plan_id":"free"},{"bike_id":"00b4d942-d645-4a17-a320-9c02b5ecca68","system_id":"levelo_inurba_marseille","lat":43.288497,"lon":5.393089,"is_reserved":false,"is_disabled":false,"rental_uris":{"android":"levelo://app?vid=00b4d942-d645-4a17-a320-9c02b5ecca68","ios":"levelo://app?vid=00b4d942-d645-4a17-a320-9c02b5ecca68"},"vehicle_type_id":"4","last_reported":1686852504,"current_range_meters":20800,"station_id":"ce4bh2p2rcd13ifvqdi0","pricing_plan_id":"free"},{"bike_id":"fc3e58b4-849b-43f4-b54f-a344961bee94","system_id":"levelo_inurba_marseille","lat":43.284787,"lon":5.384116,"is_reserved":false,"is_disabled":false,"rental_uris":{"android":"levelo://app?vid=fc3e58b4-849b-43f4-b54f-a344961bee94","ios":"levelo://app?vid=fc3e58b4-849b-43f4-b54f-a344961bee94"},"vehicle_type_id":"4","last_reported":1686852504,"current_range_meters":22000,"station_id":"ce4bh512rcd13ifvqe3g","pricing_plan_id":"free"},{"bike_id":"a8c78526-6f19-47e0-bb6d-f31055280dde","system_id":"levelo_inurba_marseille","lat":43.28417,"lon":5.34995,"is_reserved":false,"is_disabled":false,"rental_uris":{"android":"levelo://app?vid=a8c78526-6f19-47e0-bb6d-f31055280dde","ios":"levelo://app?vid=a8c78526-6f19-47e0-bb6d-f31055280dde"},"vehicle_type_id":"4","last_reported":1686852504,"current_range_meters":31200,"station_id":"ce4bhbh2rcd13ifvqepg","pricing_plan_id":"free"},{"bike_id":"7a39ed81-d63f-481c-9955-d670e9e8dfac","system_id":"levelo_inurba_marseille","lat":43.28417,"lon":5.34986,"is_reserved":false,"is_disabled":false,"rental_uris":{"android":"levelo://app?vid=7a39ed81-d63f-481c-9955-d670e9e8dfac","ios":"levelo://app?vid=7a39ed81-d63f-481c-9955-d670e9e8dfac"},"vehicle_type_id":"4","last_reported":1686852504,"current_range_meters":30400,"station_id":"ce4bhbh2rcd13ifvqepg","pricing_plan_id":"free"},{"bike_id":"cfc8b66e-e63a-4895-8535-f2fb54e5330d","system_id":"levelo_inurba_marseille","lat":43.289363,"lon":5.396322,"is_reserved":false,"is_disabled":false,"rental_uris":{"android":"levelo://app?vid=cfc8b66e-e63a-4895-8535-f2fb54e5330d","ios":"levelo://app?vid=cfc8b66e-e63a-4895-8535-f2fb54e5330d"},"vehicle_type_id":"4","last_reported":1686852504,"current_range_meters":8400,"station_id":"ce4bh3h2rcd13ifvqdn0","pricing_plan_id":"free"},{"bike_id":"8b187a32-19ff-4519-91ae-338957de6bd5","system_id":"levelo_inurba_marseille","lat":43.292724,"lon":5.401131,"is_reserved":false,"is_disabled":false,"rental_uris":{"android":"levelo://app?vid=8b187a32-19ff-4519-91ae-338957de6bd5","ios":"levelo://app?vid=8b187a32-19ff-4519-91ae-338957de6bd5"},"vehicle_type_id":"4","last_reported":1686852504,"current_range_meters":5600,"station_id":"ce4bh312rcd13ifvqdk0","pricing_plan_id":"free"},{"bike_id":"cfdcc4dd-2aa4-426e-a209-82aa6f34486a","system_id":"levelo_inurba_marseille","lat":43.2827,"lon":5.3508,"is_reserved":false,"is_disabled":false,"rental_uris":{"android":"levelo://app?vid=cfdcc4dd-2aa4-426e-a209-82aa6f34486a","ios":"levelo://app?vid=cfdcc4dd-2aa4-426e-a209-82aa6f34486a"},"vehicle_type_id":"4","last_reported":1686852504,"current_range_meters":0,"station_id":"ce4bhbp2rcd13ifvqerg","pricing_plan_id":"free"},{"bike_id":"b7f1004b-7f37-4c8e-b615-351cbb4ec1c4","system_id":"levelo_inurba_marseille","lat":43.282725,"lon":5.350566,"is_reserved":false,"is_disabled":false,"rental_uris":{"android":"levelo://app?vid=b7f1004b-7f37-4c8e-b615-351cbb4ec1c4","ios":"levelo://app?vid=b7f1004b-7f37-4c8e-b615-351cbb4ec1c4"},"vehicle_type_id":"4","last_reported":1686852504,"current_range_meters":31200,"station_id":"ce4bhbp2rcd13ifvqerg","pricing_plan_id":"free"},{"bike_id":"257a973c-011d-4098-8f0a-1fe721ef90c5","system_id":"levelo_inurba_marseille","lat":43.296263,"lon":5.40601,"is_reserved":false,"is_disabled":false,"rental_uris":{"android":"levelo://app?vid=257a973c-011d-4098-8f0a-1fe721ef90c5","ios":"levelo://app?vid=257a973c-011d-4098-8f0a-1fe721ef90c5"},"vehicle_type_id":"4","last_reported":1686852504,"current_range_meters":1200,"station_id":"ce4bh0h2rcd13ifvqd60","pricing_plan_id":"free"},{"bike_id":"a8cf2ae2-9e5a-4da0-bba6-3cbc193dc6d3","system_id":"levelo_inurba_marseille","lat":43.304188,"lon":5.412904,"is_reserved":false,"is_disabled":false,"rental_uris":{"android":"levelo://app?vid=a8cf2ae2-9e5a-4da0-bba6-3cbc193dc6d3","ios":"levelo://app?vid=a8cf2ae2-9e5a-4da0-bba6-3cbc193dc6d3"},"vehicle_type_id":"4","last_reported":1686852504,"current_range_meters":2000,"station_id":"ce4bhop2rcd13ifvqh8g","pricing_plan_id":"free"},{"bike_id":"ac65b73e-2465-468c-8289-45bb06f465f6","system_id":"levelo_inurba_marseille","lat":43.32653,"lon":5.40997,"is_reserved":false,"is_disabled":false,"rental_uris":{"android":"levelo://app?vid=ac65b73e-2465-468c-8289-45bb06f465f6","ios":"levelo://app?vid=ac65b73e-2465-468c-8289-45bb06f465f6"},"vehicle_type_id":"4","last_reported":1686852504,"current_range_meters":25600,"station_id":"ce4bhpp2rcd13ifvqhgg","pricing_plan_id":"free"},{"bike_id":"53398520-fc69-4a58-bd3d-81cd8a9088a2","system_id":"levelo_inurba_marseille","lat":43.320045,"lon":5.415046,"is_reserved":false,"is_disabled":false,"rental_uris":{"android":"levelo://app?vid=53398520-fc69-4a58-bd3d-81cd8a9088a2","ios":"levelo://app?vid=53398520-fc69-4a58-bd3d-81cd8a9088a2"},"vehicle_type_id":"4","last_reported":1686852504,"current_range_meters":28400,"station_id":"ce4bhq92rcd13ifvqhkg","pricing_plan_id":"free"},{"bike_id":"3a99ede3-5a5e-4336-95ee-f50b04e49afe","system_id":"levelo_inurba_marseille","lat":43.320045,"lon":5.415048,"is_reserved":false,"is_disabled":false,"rental_uris":{"android":"levelo://app?vid=3a99ede3-5a5e-4336-95ee-f50b04e49afe","ios":"levelo://app?vid=3a99ede3-5a5e-4336-95ee-f50b04e49afe"},"vehicle_type_id":"4","last_reported":1686852504,"current_range_meters":31200,"station_id":"ce4bhq92rcd13ifvqhkg","pricing_plan_id":"free"},{"bike_id":"4c690297-2995-44ba-9c9b-859f25452df9","system_id":"levelo_inurba_marseille","lat":43.320045,"lon":5.415048,"is_reserved":false,"is_disabled":false,"rental_uris":{"android":"levelo://app?vid=4c690297-2995-44ba-9c9b-859f25452df9","ios":"levelo://app?vid=4c690297-2995-44ba-9c9b-859f25452df9"},"vehicle_type_id":"4","last_reported":1686852504,"current_range_meters":28800,"station_id":"ce4bhq92rcd13ifvqhkg","pricing_plan_id":"free"},{"bike_id":"d1816290-ceb3-480c-914c-8cd16fa9657e","system_id":"levelo_inurba_marseille","lat":43.320045,"lon":5.415046,"is_reserved":false,"is_disabled":false,"rental_uris":{"android":"levelo://app?vid=d1816290-ceb3-480c-914c-8cd16fa9657e","ios":"levelo://app?vid=d1816290-ceb3-480c-914c-8cd16fa9657e"},"vehicle_type_id":"4","last_reported":1686852504,"current_range_meters":22000,"station_id":"ce4bhq92rcd13ifvqhkg","pricing_plan_id":"free"},{"bike_id":"eaba4ee4-bd93-4f9d-bc34-2302e3e0d806","system_id":"levelo_inurba_marseille","lat":43.320045,"lon":5.415046,"is_reserved":false,"is_disabled":false,"rental_uris":{"android":"levelo://app?vid=eaba4ee4-bd93-4f9d-bc34-2302e3e0d806","ios":"levelo://app?vid=eaba4ee4-bd93-4f9d-bc34-2302e3e0d806"},"vehicle_type_id":"4","last_reported":1686852504,"current_range_meters":31200,"station_id":"ce4bhq92rcd13ifvqhkg","pricing_plan_id":"free"},{"bike_id":"f5b6cfb6-e823-427a-af0d-908c8604fbc6","system_id":"levelo_inurba_marseille","lat":43.320502,"lon":5.415423,"is_reserved":false,"is_disabled":false,"rental_uris":{"android":"levelo://app?vid=f5b6cfb6-e823-427a-af0d-908c8604fbc6","ios":"levelo://app?vid=f5b6cfb6-e823-427a-af0d-908c8604fbc6"},"vehicle_type_id":"4","last_reported":1686852504,"current_range_meters":27200,"station_id":"","pricing_plan_id":"free"},{"bike_id":"b3016403-edd8-4ffd-a2b9-1b615850a062","system_id":"levelo_inurba_marseille","lat":43.320045,"lon":5.415046,"is_reserved":false,"is_disabled":false,"rental_uris":{"android":"levelo://app?vid=b3016403-edd8-4ffd-a2b9-1b615850a062","ios":"levelo://app?vid=b3016403-edd8-4ffd-a2b9-1b615850a062"},"vehicle_type_id":"4","last_reported":1686852504,"current_range_meters":31200,"station_id":"ce4bhq92rcd13ifvqhkg","pricing_plan_id":"free"},{"bike_id":"47024854-e41a-4509-b8a3-7b540be5e122","system_id":"levelo_inurba_marseille","lat":43.320045,"lon":5.415048,"is_reserved":false,"is_disabled":false,"rental_uris":{"android":"levelo://app?vid=47024854-e41a-4509-b8a3-7b540be5e122","ios":"levelo://app?vid=47024854-e41a-4509-b8a3-7b540be5e122"},"vehicle_type_id":"4","last_reported":1686852504,"current_range_meters":31200,"station_id":"ce4bhq92rcd13ifvqhkg","pricing_plan_id":"free"},{"bike_id":"65bac0c1-56c6-4bdb-a45a-2ed4d311ea2f","system_id":"levelo_inurba_marseille","lat":43.320045,"lon":5.415046,"is_reserved":false,"is_disabled":false,"rental_uris":{"android":"levelo://app?vid=65bac0c1-56c6-4bdb-a45a-2ed4d311ea2f","ios":"levelo://app?vid=65bac0c1-56c6-4bdb-a45a-2ed4d311ea2f"},"vehicle_type_id":"4","last_reported":1686852504,"current_range_meters":30000,"station_id":"ce4bhq92rcd13ifvqhkg","pricing_plan_id":"free"},{"bike_id":"4cc7a971-177b-4721-8565-f98e8dd35720","system_id":"levelo_inurba_marseille","lat":43.320045,"lon":5.415046,"is_reserved":false,"is_disabled":false,"rental_uris":{"android":"levelo://app?vid=4cc7a971-177b-4721-8565-f98e8dd35720","ios":"levelo://app?vid=4cc7a971-177b-4721-8565-f98e8dd35720"},"vehicle_type_id":"4","last_reported":1686852504,"current_range_meters":24000,"station_id":"ce4bhq92rcd13ifvqhkg","pricing_plan_id":"free"},{"bike_id":"c8970d33-f24c-409f-89c9-5003908bc516","system_id":"levelo_inurba_marseille","lat":43.320477,"lon":5.415457,"is_reserved":false,"is_disabled":false,"rental_uris":{"android":"levelo://app?vid=c8970d33-f24c-409f-89c9-5003908bc516","ios":"levelo://app?vid=c8970d33-f24c-409f-89c9-5003908bc516"},"vehicle_type_id":"4","last_reported":1686852504,"current_range_meters":24400,"station_id":"ce4bhq92rcd13ifvqhkg","pricing_plan_id":"free"},{"bike_id":"f46be74f-08d7-4278-b9ee-581883843b0e","system_id":"levelo_inurba_marseille","lat":43.3205,"lon":5.41546,"is_reserved":false,"is_disabled":false,"rental_uris":{"android":"levelo://app?vid=f46be74f-08d7-4278-b9ee-581883843b0e","ios":"levelo://app?vid=f46be74f-08d7-4278-b9ee-581883843b0e"},"vehicle_type_id":"4","last_reported":1686852504,"current_range_meters":22800,"station_id":"ce4bhq92rcd13ifvqhkg","pricing_plan_id":"free"},{"bike_id":"a39ec750-1e0c-4e6e-860b-1932ca108867","system_id":"levelo_inurba_marseille","lat":43.320045,"lon":5.415046,"is_reserved":false,"is_disabled":false,"rental_uris":{"android":"levelo://app?vid=a39ec750-1e0c-4e6e-860b-1932ca108867","ios":"levelo://app?vid=a39ec750-1e0c-4e6e-860b-1932ca108867"},"vehicle_type_id":"4","last_reported":1686852504,"current_range_meters":31200,"station_id":"ce4bhq92rcd13ifvqhkg","pricing_plan_id":"free"},{"bike_id":"12ed0950-6565-4559-bae1-3fbf302b0519","system_id":"levelo_inurba_marseille","lat":43.320045,"lon":5.415046,"is_reserved":false,"is_disabled":false,"rental_uris":{"android":"levelo://app?vid=12ed0950-6565-4559-bae1-3fbf302b0519","ios":"levelo://app?vid=12ed0950-6565-4559-bae1-3fbf302b0519"},"vehicle_type_id":"4","last_reported":1686852504,"current_range_meters":24000,"station_id":"ce4bhq92rcd13ifvqhkg","pricing_plan_id":"free"},{"bike_id":"aaa08283-b9de-4916-8a2b-1936aa2d28de","system_id":"levelo_inurba_marseille","lat":43.320045,"lon":5.415048,"is_reserved":false,"is_disabled":false,"rental_uris":{"android":"levelo://app?vid=aaa08283-b9de-4916-8a2b-1936aa2d28de","ios":"levelo://app?vid=aaa08283-b9de-4916-8a2b-1936aa2d28de"},"vehicle_type_id":"4","last_reported":1686852504,"current_range_meters":31200,"station_id":"ce4bhq92rcd13ifvqhkg","pricing_plan_id":"free"},{"bike_id":"ddebc0d7-5718-429d-9d30-ce3e94a2f248","system_id":"levelo_inurba_marseille","lat":43.320045,"lon":5.415046,"is_reserved":false,"is_disabled":false,"rental_uris":{"android":"levelo://app?vid=ddebc0d7-5718-429d-9d30-ce3e94a2f248","ios":"levelo://app?vid=ddebc0d7-5718-429d-9d30-ce3e94a2f248"},"vehicle_type_id":"4","last_reported":1686852504,"current_range_meters":28000,"station_id":"ce4bhq92rcd13ifvqhkg","pricing_plan_id":"free"},{"bike_id":"5bfbbe42-99fb-412b-ba1c-bbe7f34a2d31","system_id":"levelo_inurba_marseille","lat":43.320482,"lon":5.41553,"is_reserved":false,"is_disabled":false,"rental_uris":{"android":"levelo://app?vid=5bfbbe42-99fb-412b-ba1c-bbe7f34a2d31","ios":"levelo://app?vid=5bfbbe42-99fb-412b-ba1c-bbe7f34a2d31"},"vehicle_type_id":"4","last_reported":1686852504,"current_range_meters":26400,"station_id":"","pricing_plan_id":"free"},{"bike_id":"c6c00542-8f3d-41ea-9304-dcbe0c4b4ce6","system_id":"levelo_inurba_marseille","lat":43.320045,"lon":5.415048,"is_reserved":false,"is_disabled":false,"rental_uris":{"android":"levelo://app?vid=c6c00542-8f3d-41ea-9304-dcbe0c4b4ce6","ios":"levelo://app?vid=c6c00542-8f3d-41ea-9304-dcbe0c4b4ce6"},"vehicle_type_id":"4","last_reported":1686852504,"current_range_meters":30400,"station_id":"ce4bhq92rcd13ifvqhkg","pricing_plan_id":"free"},{"bike_id":"0d766cb6-769f-4932-8e7a-6e11f8395820","system_id":"levelo_inurba_marseille","lat":43.320045,"lon":5.415046,"is_reserved":false,"is_disabled":false,"rental_uris":{"android":"levelo://app?vid=0d766cb6-769f-4932-8e7a-6e11f8395820","ios":"levelo://app?vid=0d766cb6-769f-4932-8e7a-6e11f8395820"},"vehicle_type_id":"4","last_reported":1686852504,"current_range_meters":28000,"station_id":"ce4bhq92rcd13ifvqhkg","pricing_plan_id":"free"},{"bike_id":"c2f55d59-a8a1-46fa-a569-7a734176255f","system_id":"levelo_inurba_marseille","lat":43.320045,"lon":5.415046,"is_reserved":false,"is_disabled":false,"rental_uris":{"android":"levelo://app?vid=c2f55d59-a8a1-46fa-a569-7a734176255f","ios":"levelo://app?vid=c2f55d59-a8a1-46fa-a569-7a734176255f"},"vehicle_type_id":"4","last_reported":1686852504,"current_range_meters":26800,"station_id":"ce4bhq92rcd13ifvqhkg","pricing_plan_id":"free"},{"bike_id":"a42964da-cd13-4285-8895-c619ca90c7ee","system_id":"levelo_inurba_marseille","lat":43.325233,"lon":5.414318,"is_reserved":false,"is_disabled":false,"rental_uris":{"android":"levelo://app?vid=a42964da-cd13-4285-8895-c619ca90c7ee","ios":"levelo://app?vid=a42964da-cd13-4285-8895-c619ca90c7ee"},"vehicle_type_id":"4","last_reported":1686852504,"current_range_meters":12400,"station_id":"ce4bhq12rcd13ifvqhhg","pricing_plan_id":"free"},{"bike_id":"808a7b2e-b853-410d-a028-60d905433bc1","system_id":"levelo_inurba_marseille","lat":43.325233,"lon":5.414318,"is_reserved":false,"is_disabled":false,"rental_uris":{"android":"levelo://app?vid=808a7b2e-b853-410d-a028-60d905433bc1","ios":"levelo://app?vid=808a7b2e-b853-410d-a028-60d905433bc1"},"vehicle_type_id":"4","last_reported":1686852504,"current_range_meters":15200,"station_id":"ce4bhq12rcd13ifvqhhg","pricing_plan_id":"free"},{"bike_id":"2c69a53a-1a91-41d2-83e4-121f7e6b2b17","system_id":"levelo_inurba_marseille","lat":43.280784,"lon":5.396622,"is_reserved":false,"is_disabled":false,"rental_uris":{"android":"levelo://app?vid=2c69a53a-1a91-41d2-83e4-121f7e6b2b17","ios":"levelo://app?vid=2c69a53a-1a91-41d2-83e4-121f7e6b2b17"},"vehicle_type_id":"4","last_reported":1686852504,"current_range_meters":0,"station_id":"ce4bho12rcd13ifvqh2g","pricing_plan_id":"free"},{"bike_id":"23663e60-311e-4181-88b3-c743d0ba1e7f","system_id":"levelo_inurba_marseille","lat":43.273613,"lon":5.362705,"is_reserved":false,"is_disabled":false,"rental_uris":{"android":"levelo://app?vid=23663e60-311e-4181-88b3-c743d0ba1e7f","ios":"levelo://app?vid=23663e60-311e-4181-88b3-c743d0ba1e7f"},"vehicle_type_id":"4","last_reported":1686852504,"current_range_meters":0,"station_id":"ce4bhbh2rcd13ifvqeo0","pricing_plan_id":"free"},{"bike_id":"cc7ace37-6a64-420c-8f91-a6f033a141c2","system_id":"levelo_inurba_marseille","lat":43.278399,"lon":5.392139,"is_reserved":false,"is_disabled":false,"rental_uris":{"android":"levelo://app?vid=cc7ace37-6a64-420c-8f91-a6f033a141c2","ios":"levelo://app?vid=cc7ace37-6a64-420c-8f91-a6f033a141c2"},"vehicle_type_id":"4","last_reported":1686852504,"current_range_meters":5200,"station_id":"ce4bhjp2rcd13ifvqga0","pricing_plan_id":"free"},{"bike_id":"3c88d91b-fdfd-4015-a72d-74659c1d1937","system_id":"levelo_inurba_marseille","lat":43.273613,"lon":5.362705,"is_reserved":false,"is_disabled":false,"rental_uris":{"android":"levelo://app?vid=3c88d91b-fdfd-4015-a72d-74659c1d1937","ios":"levelo://app?vid=3c88d91b-fdfd-4015-a72d-74659c1d1937"},"vehicle_type_id":"4","last_reported":1686852504,"current_range_meters":13600,"station_id":"ce4bhbh2rcd13ifvqeo0","pricing_plan_id":"free"},{"bike_id":"e8c99334-4905-48e2-b3d8-07d40351b41d","system_id":"levelo_inurba_marseille","lat":43.273613,"lon":5.362705,"is_reserved":false,"is_disabled":false,"rental_uris":{"android":"levelo://app?vid=e8c99334-4905-48e2-b3d8-07d40351b41d","ios":"levelo://app?vid=e8c99334-4905-48e2-b3d8-07d40351b41d"},"vehicle_type_id":"4","last_reported":1686852504,"current_range_meters":29200,"station_id":"ce4bhbh2rcd13ifvqeo0","pricing_plan_id":"free"},{"bike_id":"2563e8c7-5565-4674-ba56-d539965182bb","system_id":"levelo_inurba_marseille","lat":43.273613,"lon":5.362705,"is_reserved":false,"is_disabled":false,"rental_uris":{"android":"levelo://app?vid=2563e8c7-5565-4674-ba56-d539965182bb","ios":"levelo://app?vid=2563e8c7-5565-4674-ba56-d539965182bb"},"vehicle_type_id":"4","last_reported":1686852504,"current_range_meters":28400,"station_id":"ce4bhbh2rcd13ifvqeo0","pricing_plan_id":"free"},{"bike_id":"fc783805-8cb1-4e67-ab15-28bb6de08597","system_id":"levelo_inurba_marseille","lat":43.273609,"lon":5.362708,"is_reserved":false,"is_disabled":false,"rental_uris":{"android":"levelo://app?vid=fc783805-8cb1-4e67-ab15-28bb6de08597","ios":"levelo://app?vid=fc783805-8cb1-4e67-ab15-28bb6de08597"},"vehicle_type_id":"4","last_reported":1686852504,"current_range_meters":11200,"station_id":"ce4bhbh2rcd13ifvqeo0","pricing_plan_id":"free"},{"bike_id":"5a55ad39-48c0-4ff6-aa50-97f07e868295","system_id":"levelo_inurba_marseille","lat":43.273609,"lon":5.362708,"is_reserved":false,"is_disabled":false,"rental_uris":{"android":"levelo://app?vid=5a55ad39-48c0-4ff6-aa50-97f07e868295","ios":"levelo://app?vid=5a55ad39-48c0-4ff6-aa50-97f07e868295"},"vehicle_type_id":"4","last_reported":1686852504,"current_range_meters":2800,"station_id":"ce4bhbh2rcd13ifvqeo0","pricing_plan_id":"free"},{"bike_id":"6a98262e-c626-4fba-94ad-c11e6057f74f","system_id":"levelo_inurba_marseille","lat":43.273609,"lon":5.362708,"is_reserved":false,"is_disabled":false,"rental_uris":{"android":"levelo://app?vid=6a98262e-c626-4fba-94ad-c11e6057f74f","ios":"levelo://app?vid=6a98262e-c626-4fba-94ad-c11e6057f74f"},"vehicle_type_id":"4","last_reported":1686852504,"current_range_meters":0,"station_id":"ce4bhbh2rcd13ifvqeo0","pricing_plan_id":"free"},{"bike_id":"58f1bed6-589e-4f4a-8f65-887e4e3d2a73","system_id":"levelo_inurba_marseille","lat":43.2737,"lon":5.36258,"is_reserved":false,"is_disabled":false,"rental_uris":{"android":"levelo://app?vid=58f1bed6-589e-4f4a-8f65-887e4e3d2a73","ios":"levelo://app?vid=58f1bed6-589e-4f4a-8f65-887e4e3d2a73"},"vehicle_type_id":"4","last_reported":1686852504,"current_range_meters":2800,"station_id":"ce4bhbh2rcd13ifvqeo0","pricing_plan_id":"free"},{"bike_id":"27ebafb5-559c-41ab-8c42-509e30cee1a7","system_id":"levelo_inurba_marseille","lat":43.2737,"lon":5.36254,"is_reserved":false,"is_disabled":false,"rental_uris":{"android":"levelo://app?vid=27ebafb5-559c-41ab-8c42-509e30cee1a7","ios":"levelo://app?vid=27ebafb5-559c-41ab-8c42-509e30cee1a7"},"vehicle_type_id":"4","last_reported":1686852504,"current_range_meters":25600,"station_id":"ce4bhbh2rcd13ifvqeo0","pricing_plan_id":"free"},{"bike_id":"7750236f-ba31-469e-84b0-a523eba4751d","system_id":"levelo_inurba_marseille","lat":43.273613,"lon":5.362705,"is_reserved":false,"is_disabled":false,"rental_uris":{"android":"levelo://app?vid=7750236f-ba31-469e-84b0-a523eba4751d","ios":"levelo://app?vid=7750236f-ba31-469e-84b0-a523eba4751d"},"vehicle_type_id":"4","last_reported":1686852504,"current_range_meters":800,"station_id":"ce4bhbh2rcd13ifvqeo0","pricing_plan_id":"free"},{"bike_id":"9188f7d2-a3be-48d6-b88e-f18b24f9e2d1","system_id":"levelo_inurba_marseille","lat":43.273613,"lon":5.362705,"is_reserved":false,"is_disabled":false,"rental_uris":{"android":"levelo://app?vid=9188f7d2-a3be-48d6-b88e-f18b24f9e2d1","ios":"levelo://app?vid=9188f7d2-a3be-48d6-b88e-f18b24f9e2d1"},"vehicle_type_id":"4","last_reported":1686852504,"current_range_meters":0,"station_id":"ce4bhbh2rcd13ifvqeo0","pricing_plan_id":"free"},{"bike_id":"653ca10f-ed33-4816-bc01-94e42d8f5781","system_id":"levelo_inurba_marseille","lat":43.273609,"lon":5.362708,"is_reserved":false,"is_disabled":false,"rental_uris":{"android":"levelo://app?vid=653ca10f-ed33-4816-bc01-94e42d8f5781","ios":"levelo://app?vid=653ca10f-ed33-4816-bc01-94e42d8f5781"},"vehicle_type_id":"4","last_reported":1686852504,"current_range_meters":0,"station_id":"ce4bhbh2rcd13ifvqeo0","pricing_plan_id":"free"},{"bike_id":"512f307a-c943-4a10-83e5-63201791026e","system_id":"levelo_inurba_marseille","lat":43.273609,"lon":5.362708,"is_reserved":false,"is_disabled":false,"rental_uris":{"android":"levelo://app?vid=512f307a-c943-4a10-83e5-63201791026e","ios":"levelo://app?vid=512f307a-c943-4a10-83e5-63201791026e"},"vehicle_type_id":"4","last_reported":1686852504,"current_range_meters":0,"station_id":"ce4bhbh2rcd13ifvqeo0","pricing_plan_id":"free"},{"bike_id":"bf2a35ef-ffd5-4ef1-bdee-2bee394fa6e0","system_id":"levelo_inurba_marseille","lat":43.276769,"lon":5.388787,"is_reserved":false,"is_disabled":false,"rental_uris":{"android":"levelo://app?vid=bf2a35ef-ffd5-4ef1-bdee-2bee394fa6e0","ios":"levelo://app?vid=bf2a35ef-ffd5-4ef1-bdee-2bee394fa6e0"},"vehicle_type_id":"4","last_reported":1686852504,"current_range_meters":4400,"station_id":"ce4bhi12rcd13ifvqfo0","pricing_plan_id":"free"},{"bike_id":"a2432d6b-b747-4329-accd-e1ebc172e5b2","system_id":"levelo_inurba_marseille","lat":43.276769,"lon":5.388787,"is_reserved":false,"is_disabled":false,"rental_uris":{"android":"levelo://app?vid=a2432d6b-b747-4329-accd-e1ebc172e5b2","ios":"levelo://app?vid=a2432d6b-b747-4329-accd-e1ebc172e5b2"},"vehicle_type_id":"4","last_reported":1686852504,"current_range_meters":1200,"station_id":"ce4bhi12rcd13ifvqfo0","pricing_plan_id":"free"},{"bike_id":"600faf5b-70ec-448a-8461-46a7f7677e12","system_id":"levelo_inurba_marseille","lat":43.276771,"lon":5.388799,"is_reserved":false,"is_disabled":false,"rental_uris":{"android":"levelo://app?vid=600faf5b-70ec-448a-8461-46a7f7677e12","ios":"levelo://app?vid=600faf5b-70ec-448a-8461-46a7f7677e12"},"vehicle_type_id":"4","last_reported":1686852504,"current_range_meters":800,"station_id":"ce4bhi12rcd13ifvqfo0","pricing_plan_id":"free"},{"bike_id":"21a8772a-6841-452c-a8e2-35db219cae29","system_id":"levelo_inurba_marseille","lat":43.276769,"lon":5.388787,"is_reserved":false,"is_disabled":false,"rental_uris":{"android":"levelo://app?vid=21a8772a-6841-452c-a8e2-35db219cae29","ios":"levelo://app?vid=21a8772a-6841-452c-a8e2-35db219cae29"},"vehicle_type_id":"4","last_reported":1686852504,"current_range_meters":0,"station_id":"ce4bhi12rcd13ifvqfo0","pricing_plan_id":"free"},{"bike_id":"e02287b1-056f-4bc4-9646-47090fe04fbf","system_id":"levelo_inurba_marseille","lat":43.317121,"lon":5.423936,"is_reserved":false,"is_disabled":false,"rental_uris":{"android":"levelo://app?vid=e02287b1-056f-4bc4-9646-47090fe04fbf","ios":"levelo://app?vid=e02287b1-056f-4bc4-9646-47090fe04fbf"},"vehicle_type_id":"4","last_reported":1686852504,"current_range_meters":18800,"station_id":"ce4bhp92rcd13ifvqhbg","pricing_plan_id":"free"},{"bike_id":"6e287b09-82a7-4413-a7d6-d182f3d19a55","system_id":"levelo_inurba_marseille","lat":43.27429,"lon":5.39403,"is_reserved":false,"is_disabled":false,"rental_uris":{"android":"levelo://app?vid=6e287b09-82a7-4413-a7d6-d182f3d19a55","ios":"levelo://app?vid=6e287b09-82a7-4413-a7d6-d182f3d19a55"},"vehicle_type_id":"4","last_reported":1686852504,"current_range_meters":31200,"station_id":"ce4bhdp2rcd13ifvqf20","pricing_plan_id":"free"},{"bike_id":"326b453c-f42e-4f99-97cc-3c8ecf046add","system_id":"levelo_inurba_marseille","lat":43.27425,"lon":5.39405,"is_reserved":false,"is_disabled":false,"rental_uris":{"android":"levelo://app?vid=326b453c-f42e-4f99-97cc-3c8ecf046add","ios":"levelo://app?vid=326b453c-f42e-4f99-97cc-3c8ecf046add"},"vehicle_type_id":"4","last_reported":1686852504,"current_range_meters":31200,"station_id":"ce4bhdp2rcd13ifvqf20","pricing_plan_id":"free"},{"bike_id":"f82c4e0b-ce86-4de4-962b-f266d6ba506e","system_id":"levelo_inurba_marseille","lat":43.273125,"lon":5.390731,"is_reserved":false,"is_disabled":false,"rental_uris":{"android":"levelo://app?vid=f82c4e0b-ce86-4de4-962b-f266d6ba506e","ios":"levelo://app?vid=f82c4e0b-ce86-4de4-962b-f266d6ba506e"},"vehicle_type_id":"4","last_reported":1686852504,"current_range_meters":16400,"station_id":"ce4bhgp2rcd13ifvqfe0","pricing_plan_id":"free"},{"bike_id":"53b810fc-e0a6-46ed-bf3c-21d580efe7a1","system_id":"levelo_inurba_marseille","lat":43.30411,"lon":5.42551,"is_reserved":false,"is_disabled":false,"rental_uris":{"android":"levelo://app?vid=53b810fc-e0a6-46ed-bf3c-21d580efe7a1","ios":"levelo://app?vid=53b810fc-e0a6-46ed-bf3c-21d580efe7a1"},"vehicle_type_id":"4","last_reported":1686852504,"current_range_meters":5200,"station_id":"ce4bhoh2rcd13ifvqh6g","pricing_plan_id":"free"},{"bike_id":"b6ae69e0-7c94-485c-91e3-c97468913591","system_id":"levelo_inurba_marseille","lat":43.295523,"lon":5.422926,"is_reserved":false,"is_disabled":false,"rental_uris":{"android":"levelo://app?vid=b6ae69e0-7c94-485c-91e3-c97468913591","ios":"levelo://app?vid=b6ae69e0-7c94-485c-91e3-c97468913591"},"vehicle_type_id":"4","last_reported":1686852504,"current_range_meters":800,"station_id":"ce4bhph2rcd13ifvqhdg","pricing_plan_id":"free"},{"bike_id":"6fad018c-6cbc-46e7-a1cd-85c45bd5e28f","system_id":"levelo_inurba_marseille","lat":43.295532,"lon":5.422937,"is_reserved":false,"is_disabled":false,"rental_uris":{"android":"levelo://app?vid=6fad018c-6cbc-46e7-a1cd-85c45bd5e28f","ios":"levelo://app?vid=6fad018c-6cbc-46e7-a1cd-85c45bd5e28f"},"vehicle_type_id":"4","last_reported":1686852504,"current_range_meters":8800,"station_id":"ce4bgkp2rcd13ifvqbmg","pricing_plan_id":"free"},{"bike_id":"0dcaa250-9669-40e0-acc1-985f17c7c1ed","system_id":"levelo_inurba_marseille","lat":43.295511,"lon":5.422926,"is_reserved":false,"is_disabled":false,"rental_uris":{"android":"levelo://app?vid=0dcaa250-9669-40e0-acc1-985f17c7c1ed","ios":"levelo://app?vid=0dcaa250-9669-40e0-acc1-985f17c7c1ed"},"vehicle_type_id":"4","last_reported":1686852504,"current_range_meters":400,"station_id":"ce4bhph2rcd13ifvqhdg","pricing_plan_id":"free"},{"bike_id":"27acbb9f-724b-46f4-a35b-d5c836a72109","system_id":"levelo_inurba_marseille","lat":43.272118,"lon":5.391758,"is_reserved":false,"is_disabled":false,"rental_uris":{"android":"levelo://app?vid=27acbb9f-724b-46f4-a35b-d5c836a72109","ios":"levelo://app?vid=27acbb9f-724b-46f4-a35b-d5c836a72109"},"vehicle_type_id":"4","last_reported":1686852504,"current_range_meters":12800,"station_id":"ce4bhhp2rcd13ifvqfm0","pricing_plan_id":"free"},{"bike_id":"ce34956f-b311-4381-a0c6-833cb8714776","system_id":"levelo_inurba_marseille","lat":43.278128,"lon":5.407195,"is_reserved":false,"is_disabled":false,"rental_uris":{"android":"levelo://app?vid=ce34956f-b311-4381-a0c6-833cb8714776","ios":"levelo://app?vid=ce34956f-b311-4381-a0c6-833cb8714776"},"vehicle_type_id":"4","last_reported":1686852504,"current_range_meters":19200,"station_id":"ce4bhnh2rcd13ifvqgtg","pricing_plan_id":"free"},{"bike_id":"abdfc28b-4e02-4fad-a75f-d859ff37955e","system_id":"levelo_inurba_marseille","lat":43.269319,"lon":5.389397,"is_reserved":false,"is_disabled":false,"rental_uris":{"android":"levelo://app?vid=abdfc28b-4e02-4fad-a75f-d859ff37955e","ios":"levelo://app?vid=abdfc28b-4e02-4fad-a75f-d859ff37955e"},"vehicle_type_id":"4","last_reported":1686852504,"current_range_meters":0,"station_id":"ce4bhhh2rcd13ifvqfl0","pricing_plan_id":"free"},{"bike_id":"6275aaca-a354-407f-be44-df40f2969d44","system_id":"levelo_inurba_marseille","lat":43.26681,"lon":5.382694,"is_reserved":false,"is_disabled":false,"rental_uris":{"android":"levelo://app?vid=6275aaca-a354-407f-be44-df40f2969d44","ios":"levelo://app?vid=6275aaca-a354-407f-be44-df40f2969d44"},"vehicle_type_id":"4","last_reported":1686852504,"current_range_meters":31200,"station_id":"ce4bhg92rcd13ifvqf90","pricing_plan_id":"free"},{"bike_id":"cfba2fbe-9ed5-423f-b411-8d6c38451715","system_id":"levelo_inurba_marseille","lat":43.26681,"lon":5.382694,"is_reserved":false,"is_disabled":false,"rental_uris":{"android":"levelo://app?vid=cfba2fbe-9ed5-423f-b411-8d6c38451715","ios":"levelo://app?vid=cfba2fbe-9ed5-423f-b411-8d6c38451715"},"vehicle_type_id":"4","last_reported":1686852504,"current_range_meters":31200,"station_id":"ce4bhg92rcd13ifvqf90","pricing_plan_id":"free"},{"bike_id":"8f12b3e4-d904-4681-a504-f4abd09d4d5b","system_id":"levelo_inurba_marseille","lat":43.26424,"lon":5.37239,"is_reserved":false,"is_disabled":false,"rental_uris":{"android":"levelo://app?vid=8f12b3e4-d904-4681-a504-f4abd09d4d5b","ios":"levelo://app?vid=8f12b3e4-d904-4681-a504-f4abd09d4d5b"},"vehicle_type_id":"4","last_reported":1686852504,"current_range_meters":18000,"station_id":"","pricing_plan_id":"free"},{"bike_id":"1a99213b-7835-43f9-9650-2e4f75d6fbd1","system_id":"levelo_inurba_marseille","lat":43.27996,"lon":5.416624,"is_reserved":false,"is_disabled":false,"rental_uris":{"android":"levelo://app?vid=1a99213b-7835-43f9-9650-2e4f75d6fbd1","ios":"levelo://app?vid=1a99213b-7835-43f9-9650-2e4f75d6fbd1"},"vehicle_type_id":"4","last_reported":1686852504,"current_range_meters":13200,"station_id":"ce4bho12rcd13ifvqh1g","pricing_plan_id":"free"},{"bike_id":"3987290e-fd4b-4f2b-81c0-57fca98f9cde","system_id":"levelo_inurba_marseille","lat":43.26783,"lon":5.39419,"is_reserved":false,"is_disabled":false,"rental_uris":{"android":"levelo://app?vid=3987290e-fd4b-4f2b-81c0-57fca98f9cde","ios":"levelo://app?vid=3987290e-fd4b-4f2b-81c0-57fca98f9cde"},"vehicle_type_id":"4","last_reported":1686852504,"current_range_meters":30400,"station_id":"ce4bhh12rcd13ifvqfg0","pricing_plan_id":"free"},{"bike_id":"9be000a7-c6b6-4f12-98bc-f187ad54e568","system_id":"levelo_inurba_marseille","lat":43.308,"lon":5.43521,"is_reserved":false,"is_disabled":false,"rental_uris":{"android":"levelo://app?vid=9be000a7-c6b6-4f12-98bc-f187ad54e568","ios":"levelo://app?vid=9be000a7-c6b6-4f12-98bc-f187ad54e568"},"vehicle_type_id":"4","last_reported":1686852504,"current_range_meters":18800,"station_id":"","pricing_plan_id":"free"},{"bike_id":"78e97d53-9c5c-46cb-b7c7-4d7a3e7a8100","system_id":"levelo_inurba_marseille","lat":43.308,"lon":5.43528,"is_reserved":false,"is_disabled":false,"rental_uris":{"android":"levelo://app?vid=78e97d53-9c5c-46cb-b7c7-4d7a3e7a8100","ios":"levelo://app?vid=78e97d53-9c5c-46cb-b7c7-4d7a3e7a8100"},"vehicle_type_id":"4","last_reported":1686852504,"current_range_meters":19600,"station_id":"","pricing_plan_id":"free"},{"bike_id":"7266c859-2df7-4073-9544-a397bbf9acaa","system_id":"levelo_inurba_marseille","lat":43.26189,"lon":5.3744,"is_reserved":false,"is_disabled":false,"rental_uris":{"android":"levelo://app?vid=7266c859-2df7-4073-9544-a397bbf9acaa","ios":"levelo://app?vid=7266c859-2df7-4073-9544-a397bbf9acaa"},"vehicle_type_id":"4","last_reported":1686852504,"current_range_meters":0,"station_id":"ce4bhgp2rcd13ifvqfc0","pricing_plan_id":"free"},{"bike_id":"0c43f19f-d521-4e70-9b80-e507d3c4467d","system_id":"levelo_inurba_marseille","lat":43.261782,"lon":5.374515,"is_reserved":false,"is_disabled":false,"rental_uris":{"android":"levelo://app?vid=0c43f19f-d521-4e70-9b80-e507d3c4467d","ios":"levelo://app?vid=0c43f19f-d521-4e70-9b80-e507d3c4467d"},"vehicle_type_id":"4","last_reported":1686852504,"current_range_meters":2000,"station_id":"ce4bhgp2rcd13ifvqfc0","pricing_plan_id":"free"},{"bike_id":"f9938518-c63f-4d80-bc36-ea3dddc8779f","system_id":"levelo_inurba_marseille","lat":43.317104,"lon":5.436818,"is_reserved":false,"is_disabled":false,"rental_uris":{"android":"levelo://app?vid=f9938518-c63f-4d80-bc36-ea3dddc8779f","ios":"levelo://app?vid=f9938518-c63f-4d80-bc36-ea3dddc8779f"},"vehicle_type_id":"4","last_reported":1686852504,"current_range_meters":30000,"station_id":"ce4bhp92rcd13ifvqhcg","pricing_plan_id":"free"},{"bike_id":"14d950e8-0be6-4d17-887e-2aa52ba454bf","system_id":"levelo_inurba_marseille","lat":43.27184,"lon":5.40991,"is_reserved":false,"is_disabled":false,"rental_uris":{"android":"levelo://app?vid=14d950e8-0be6-4d17-887e-2aa52ba454bf","ios":"levelo://app?vid=14d950e8-0be6-4d17-887e-2aa52ba454bf"},"vehicle_type_id":"4","last_reported":1686852504,"current_range_meters":21200,"station_id":"","pricing_plan_id":"free"},{"bike_id":"8cef4df0-69b8-4c21-a763-577c04b1e207","system_id":"levelo_inurba_marseille","lat":43.271849,"lon":5.40994,"is_reserved":false,"is_disabled":false,"rental_uris":{"android":"levelo://app?vid=8cef4df0-69b8-4c21-a763-577c04b1e207","ios":"levelo://app?vid=8cef4df0-69b8-4c21-a763-577c04b1e207"},"vehicle_type_id":"4","last_reported":1686852504,"current_range_meters":25200,"station_id":"","pricing_plan_id":"free"},{"bike_id":"78bfd6e1-405b-4aa6-abf0-061f070712e1","system_id":"levelo_inurba_marseille","lat":43.27179,"lon":5.40986,"is_reserved":false,"is_disabled":false,"rental_uris":{"android":"levelo://app?vid=78bfd6e1-405b-4aa6-abf0-061f070712e1","ios":"levelo://app?vid=78bfd6e1-405b-4aa6-abf0-061f070712e1"},"vehicle_type_id":"4","last_reported":1686852504,"current_range_meters":28400,"station_id":"","pricing_plan_id":"free"},{"bike_id":"5137a758-9a33-4c6f-8ca9-7bcf26cfab19","system_id":"levelo_inurba_marseille","lat":43.27176,"lon":5.40992,"is_reserved":false,"is_disabled":false,"rental_uris":{"android":"levelo://app?vid=5137a758-9a33-4c6f-8ca9-7bcf26cfab19","ios":"levelo://app?vid=5137a758-9a33-4c6f-8ca9-7bcf26cfab19"},"vehicle_type_id":"4","last_reported":1686852504,"current_range_meters":24000,"station_id":"","pricing_plan_id":"free"},{"bike_id":"105d388f-6463-4aeb-a083-d8b8ce680623","system_id":"levelo_inurba_marseille","lat":43.27173,"lon":5.40988,"is_reserved":false,"is_disabled":false,"rental_uris":{"android":"levelo://app?vid=105d388f-6463-4aeb-a083-d8b8ce680623","ios":"levelo://app?vid=105d388f-6463-4aeb-a083-d8b8ce680623"},"vehicle_type_id":"4","last_reported":1686852504,"current_range_meters":8800,"station_id":"","pricing_plan_id":"free"},{"bike_id":"f2b356cf-4ca2-4bbb-b96a-f3c626f2f2f8","system_id":"levelo_inurba_marseille","lat":43.267959,"lon":5.402685,"is_reserved":false,"is_disabled":false,"rental_uris":{"android":"levelo://app?vid=f2b356cf-4ca2-4bbb-b96a-f3c626f2f2f8","ios":"levelo://app?vid=f2b356cf-4ca2-4bbb-b96a-f3c626f2f2f8"},"vehicle_type_id":"4","last_reported":1686852504,"current_range_meters":2800,"station_id":"ce501612rcd8frsf0b60","pricing_plan_id":"free"},{"bike_id":"fc26cee5-3347-4b89-ab7f-2b76c82d72f5","system_id":"levelo_inurba_marseille","lat":43.260225,"lon":5.375455,"is_reserved":false,"is_disabled":false,"rental_uris":{"android":"levelo://app?vid=fc26cee5-3347-4b89-ab7f-2b76c82d72f5","ios":"levelo://app?vid=fc26cee5-3347-4b89-ab7f-2b76c82d72f5"},"vehicle_type_id":"4","last_reported":1686852504,"current_range_meters":4000,"station_id":"ce4bhgh2rcd13ifvqfa0","pricing_plan_id":"free"},{"bike_id":"ca95a94f-2924-4cf3-a6c9-8b90c9314eda","system_id":"levelo_inurba_marseille","lat":43.2607,"lon":5.393983,"is_reserved":false,"is_disabled":false,"rental_uris":{"android":"levelo://app?vid=ca95a94f-2924-4cf3-a6c9-8b90c9314eda","ios":"levelo://app?vid=ca95a94f-2924-4cf3-a6c9-8b90c9314eda"},"vehicle_type_id":"4","last_reported":1686852504,"current_range_meters":7200,"station_id":"ce4bhh92rcd13ifvqfj0","pricing_plan_id":"free"},{"bike_id":"d7ff504d-beb5-4f65-9fa6-eedf51fa45f1","system_id":"levelo_inurba_marseille","lat":43.26318,"lon":5.40249,"is_reserved":false,"is_disabled":false,"rental_uris":{"android":"levelo://app?vid=d7ff504d-beb5-4f65-9fa6-eedf51fa45f1","ios":"levelo://app?vid=d7ff504d-beb5-4f65-9fa6-eedf51fa45f1"},"vehicle_type_id":"4","last_reported":1686852504,"current_range_meters":14400,"station_id":"","pricing_plan_id":"free"},{"bike_id":"ec5a6dc1-2cea-487e-b2e9-516f7d8cc376","system_id":"levelo_inurba_marseille","lat":43.275028,"lon":5.424534,"is_reserved":false,"is_disabled":false,"rental_uris":{"android":"levelo://app?vid=ec5a6dc1-2cea-487e-b2e9-516f7d8cc376","ios":"levelo://app?vid=ec5a6dc1-2cea-487e-b2e9-516f7d8cc376"},"vehicle_type_id":"4","last_reported":1686852504,"current_range_meters":17200,"station_id":"ce4bhn92rcd13ifvqgrg","pricing_plan_id":"free"},{"bike_id":"38125c88-2893-494e-9ab9-11fd1091cdc2","system_id":"levelo_inurba_marseille","lat":43.255756,"lon":5.382303,"is_reserved":false,"is_disabled":false,"rental_uris":{"android":"levelo://app?vid=38125c88-2893-494e-9ab9-11fd1091cdc2","ios":"levelo://app?vid=38125c88-2893-494e-9ab9-11fd1091cdc2"},"vehicle_type_id":"4","last_reported":1686852504,"current_range_meters":10000,"station_id":"ce4bhih2rcd13ifvqfs0","pricing_plan_id":"free"},{"bike_id":"08ba9cfa-38af-45b9-82dc-3d764f54f037","system_id":"levelo_inurba_marseille","lat":43.255756,"lon":5.382303,"is_reserved":false,"is_disabled":false,"rental_uris":{"android":"levelo://app?vid=08ba9cfa-38af-45b9-82dc-3d764f54f037","ios":"levelo://app?vid=08ba9cfa-38af-45b9-82dc-3d764f54f037"},"vehicle_type_id":"4","last_reported":1686852504,"current_range_meters":2800,"station_id":"ce4bhih2rcd13ifvqfs0","pricing_plan_id":"free"},{"bike_id":"25c81a27-50ce-4cb5-8475-28b31a434f0f","system_id":"levelo_inurba_marseille","lat":43.255756,"lon":5.382303,"is_reserved":false,"is_disabled":false,"rental_uris":{"android":"levelo://app?vid=25c81a27-50ce-4cb5-8475-28b31a434f0f","ios":"levelo://app?vid=25c81a27-50ce-4cb5-8475-28b31a434f0f"},"vehicle_type_id":"4","last_reported":1686852504,"current_range_meters":16000,"station_id":"ce4bhih2rcd13ifvqfs0","pricing_plan_id":"free"},{"bike_id":"28aef544-6904-4117-984c-599e46b1cf87","system_id":"levelo_inurba_marseille","lat":43.25576,"lon":5.38232,"is_reserved":false,"is_disabled":false,"rental_uris":{"android":"levelo://app?vid=28aef544-6904-4117-984c-599e46b1cf87","ios":"levelo://app?vid=28aef544-6904-4117-984c-599e46b1cf87"},"vehicle_type_id":"4","last_reported":1686852504,"current_range_meters":16400,"station_id":"ce4bhih2rcd13ifvqfs0","pricing_plan_id":"free"},{"bike_id":"e65f65e3-9943-40a2-bbb6-86436c72e49d","system_id":"levelo_inurba_marseille","lat":43.254947,"lon":5.376454,"is_reserved":false,"is_disabled":false,"rental_uris":{"android":"levelo://app?vid=e65f65e3-9943-40a2-bbb6-86436c72e49d","ios":"levelo://app?vid=e65f65e3-9943-40a2-bbb6-86436c72e49d"},"vehicle_type_id":"4","last_reported":1686852504,"current_range_meters":15600,"station_id":"ce4bhh12rcd13ifvqff0","pricing_plan_id":"free"},{"bike_id":"8b87d227-a144-45fd-95b3-d749e734571e","system_id":"levelo_inurba_marseille","lat":43.254947,"lon":5.376454,"is_reserved":false,"is_disabled":false,"rental_uris":{"android":"levelo://app?vid=8b87d227-a144-45fd-95b3-d749e734571e","ios":"levelo://app?vid=8b87d227-a144-45fd-95b3-d749e734571e"},"vehicle_type_id":"4","last_reported":1686852504,"current_range_meters":18800,"station_id":"ce4bhh12rcd13ifvqff0","pricing_plan_id":"free"},{"bike_id":"efe92ee7-e55b-4637-82b3-0d6271e4b75a","system_id":"levelo_inurba_marseille","lat":43.254947,"lon":5.376454,"is_reserved":false,"is_disabled":false,"rental_uris":{"android":"levelo://app?vid=efe92ee7-e55b-4637-82b3-0d6271e4b75a","ios":"levelo://app?vid=efe92ee7-e55b-4637-82b3-0d6271e4b75a"},"vehicle_type_id":"4","last_reported":1686852504,"current_range_meters":31200,"station_id":"ce4bhh12rcd13ifvqff0","pricing_plan_id":"free"},{"bike_id":"163495de-6832-427d-8964-bbc4240dcb0e","system_id":"levelo_inurba_marseille","lat":43.270721,"lon":5.422764,"is_reserved":false,"is_disabled":false,"rental_uris":{"android":"levelo://app?vid=163495de-6832-427d-8964-bbc4240dcb0e","ios":"levelo://app?vid=163495de-6832-427d-8964-bbc4240dcb0e"},"vehicle_type_id":"4","last_reported":1686852504,"current_range_meters":20000,"station_id":"ce4bhk92rcd13ifvqgb0","pricing_plan_id":"free"},{"bike_id":"fcd51637-dc5f-4022-b88d-a41dc12d5d28","system_id":"levelo_inurba_marseille","lat":43.27075,"lon":5.42279,"is_reserved":false,"is_disabled":false,"rental_uris":{"android":"levelo://app?vid=fcd51637-dc5f-4022-b88d-a41dc12d5d28","ios":"levelo://app?vid=fcd51637-dc5f-4022-b88d-a41dc12d5d28"},"vehicle_type_id":"4","last_reported":1686852504,"current_range_meters":12400,"station_id":"ce4bhk92rcd13ifvqgb0","pricing_plan_id":"free"},{"bike_id":"b8e22036-e2f3-40de-a574-a294ebc5d735","system_id":"levelo_inurba_marseille","lat":43.270721,"lon":5.422764,"is_reserved":false,"is_disabled":false,"rental_uris":{"android":"levelo://app?vid=b8e22036-e2f3-40de-a574-a294ebc5d735","ios":"levelo://app?vid=b8e22036-e2f3-40de-a574-a294ebc5d735"},"vehicle_type_id":"4","last_reported":1686852504,"current_range_meters":25200,"station_id":"ce4bhk92rcd13ifvqgb0","pricing_plan_id":"free"},{"bike_id":"31f3b8d9-413b-41d3-a70b-506db8a491b4","system_id":"levelo_inurba_marseille","lat":43.27071,"lon":5.42281,"is_reserved":false,"is_disabled":false,"rental_uris":{"android":"levelo://app?vid=31f3b8d9-413b-41d3-a70b-506db8a491b4","ios":"levelo://app?vid=31f3b8d9-413b-41d3-a70b-506db8a491b4"},"vehicle_type_id":"4","last_reported":1686852504,"current_range_meters":800,"station_id":"ce4bhk92rcd13ifvqgb0","pricing_plan_id":"free"},{"bike_id":"f206191a-d696-46b1-95a3-638567ac560c","system_id":"levelo_inurba_marseille","lat":43.258658,"lon":5.398935,"is_reserved":false,"is_disabled":false,"rental_uris":{"android":"levelo://app?vid=f206191a-d696-46b1-95a3-638567ac560c","ios":"levelo://app?vid=f206191a-d696-46b1-95a3-638567ac560c"},"vehicle_type_id":"4","last_reported":1686852504,"current_range_meters":14400,"station_id":"ce4bhl92rcd13ifvqghg","pricing_plan_id":"free"},{"bike_id":"1bb27aa6-3259-4c75-adb8-ee8501ee9312","system_id":"levelo_inurba_marseille","lat":43.259009,"lon":5.40929,"is_reserved":false,"is_disabled":false,"rental_uris":{"android":"levelo://app?vid=1bb27aa6-3259-4c75-adb8-ee8501ee9312","ios":"levelo://app?vid=1bb27aa6-3259-4c75-adb8-ee8501ee9312"},"vehicle_type_id":"4","last_reported":1686852504,"current_range_meters":19600,"station_id":"ce4bhm92rcd13ifvqglg","pricing_plan_id":"free"},{"bike_id":"c928f532-c867-4b3a-bd21-61866b1d867e","system_id":"levelo_inurba_marseille","lat":43.259009,"lon":5.40929,"is_reserved":false,"is_disabled":false,"rental_uris":{"android":"levelo://app?vid=c928f532-c867-4b3a-bd21-61866b1d867e","ios":"levelo://app?vid=c928f532-c867-4b3a-bd21-61866b1d867e"},"vehicle_type_id":"4","last_reported":1686852504,"current_range_meters":18000,"station_id":"ce4bhm92rcd13ifvqglg","pricing_plan_id":"free"},{"bike_id":"8615e44e-9dfd-4d27-ab68-4d122e868ab2","system_id":"levelo_inurba_marseille","lat":43.259009,"lon":5.40929,"is_reserved":false,"is_disabled":false,"rental_uris":{"android":"levelo://app?vid=8615e44e-9dfd-4d27-ab68-4d122e868ab2","ios":"levelo://app?vid=8615e44e-9dfd-4d27-ab68-4d122e868ab2"},"vehicle_type_id":"4","last_reported":1686852504,"current_range_meters":8000,"station_id":"ce4bhm92rcd13ifvqglg","pricing_plan_id":"free"},{"bike_id":"7f12f6b3-4952-4c07-9efa-e3a4726889da","system_id":"levelo_inurba_marseille","lat":43.259009,"lon":5.40929,"is_reserved":false,"is_disabled":false,"rental_uris":{"android":"levelo://app?vid=7f12f6b3-4952-4c07-9efa-e3a4726889da","ios":"levelo://app?vid=7f12f6b3-4952-4c07-9efa-e3a4726889da"},"vehicle_type_id":"4","last_reported":1686852504,"current_range_meters":0,"station_id":"ce4bhm92rcd13ifvqglg","pricing_plan_id":"free"},{"bike_id":"41a6831a-4c95-4d61-b7cb-57dbea61831a","system_id":"levelo_inurba_marseille","lat":43.259013,"lon":5.409301,"is_reserved":false,"is_disabled":false,"rental_uris":{"android":"levelo://app?vid=41a6831a-4c95-4d61-b7cb-57dbea61831a","ios":"levelo://app?vid=41a6831a-4c95-4d61-b7cb-57dbea61831a"},"vehicle_type_id":"4","last_reported":1686852504,"current_range_meters":8000,"station_id":"ce4bhm92rcd13ifvqglg","pricing_plan_id":"free"},{"bike_id":"5b79e1f3-7480-464c-83fe-5aa257076f74","system_id":"levelo_inurba_marseille","lat":43.2509,"lon":5.37553,"is_reserved":false,"is_disabled":false,"rental_uris":{"android":"levelo://app?vid=5b79e1f3-7480-464c-83fe-5aa257076f74","ios":"levelo://app?vid=5b79e1f3-7480-464c-83fe-5aa257076f74"},"vehicle_type_id":"4","last_reported":1686852504,"current_range_meters":4800,"station_id":"","pricing_plan_id":"free"},{"bike_id":"91cf31e4-4d13-471d-ae43-f046ffddc651","system_id":"levelo_inurba_marseille","lat":43.25142,"lon":5.39481,"is_reserved":false,"is_disabled":false,"rental_uris":{"android":"levelo://app?vid=91cf31e4-4d13-471d-ae43-f046ffddc651","ios":"levelo://app?vid=91cf31e4-4d13-471d-ae43-f046ffddc651"},"vehicle_type_id":"4","last_reported":1686852504,"current_range_meters":2000,"station_id":"ce4bhm12rcd13ifvqgkg","pricing_plan_id":"free"},{"bike_id":"2745653a-01f3-48b8-963c-272a3a8f8a34","system_id":"levelo_inurba_marseille","lat":43.2479,"lon":5.374457,"is_reserved":false,"is_disabled":false,"rental_uris":{"android":"levelo://app?vid=2745653a-01f3-48b8-963c-272a3a8f8a34","ios":"levelo://app?vid=2745653a-01f3-48b8-963c-272a3a8f8a34"},"vehicle_type_id":"4","last_reported":1686852504,"current_range_meters":29600,"station_id":"ce4bhgh2rcd13ifvqfb0","pricing_plan_id":"free"},{"bike_id":"0c03a51f-d8b1-496c-9888-1aedede4676a","system_id":"levelo_inurba_marseille","lat":43.2479,"lon":5.374457,"is_reserved":false,"is_disabled":false,"rental_uris":{"android":"levelo://app?vid=0c03a51f-d8b1-496c-9888-1aedede4676a","ios":"levelo://app?vid=0c03a51f-d8b1-496c-9888-1aedede4676a"},"vehicle_type_id":"4","last_reported":1686852504,"current_range_meters":21200,"station_id":"ce4bhgh2rcd13ifvqfb0","pricing_plan_id":"free"},{"bike_id":"de9f4ce7-b160-4da6-a43b-3b2eba0171ef","system_id":"levelo_inurba_marseille","lat":43.2479,"lon":5.374457,"is_reserved":false,"is_disabled":false,"rental_uris":{"android":"levelo://app?vid=de9f4ce7-b160-4da6-a43b-3b2eba0171ef","ios":"levelo://app?vid=de9f4ce7-b160-4da6-a43b-3b2eba0171ef"},"vehicle_type_id":"4","last_reported":1686852504,"current_range_meters":1600,"station_id":"ce4bhgh2rcd13ifvqfb0","pricing_plan_id":"free"},{"bike_id":"bbfd3b47-a120-412d-84d0-2dc8210a2fc7","system_id":"levelo_inurba_marseille","lat":43.2481,"lon":5.37461,"is_reserved":false,"is_disabled":false,"rental_uris":{"android":"levelo://app?vid=bbfd3b47-a120-412d-84d0-2dc8210a2fc7","ios":"levelo://app?vid=bbfd3b47-a120-412d-84d0-2dc8210a2fc7"},"vehicle_type_id":"4","last_reported":1686852504,"current_range_meters":17200,"station_id":"ce4bhgh2rcd13ifvqfb0","pricing_plan_id":"free"},{"bike_id":"68bd878b-3bbb-4a86-90f2-a7e39b9a73cb","system_id":"levelo_inurba_marseille","lat":43.2479,"lon":5.374457,"is_reserved":false,"is_disabled":false,"rental_uris":{"android":"levelo://app?vid=68bd878b-3bbb-4a86-90f2-a7e39b9a73cb","ios":"levelo://app?vid=68bd878b-3bbb-4a86-90f2-a7e39b9a73cb"},"vehicle_type_id":"4","last_reported":1686852504,"current_range_meters":2800,"station_id":"ce4bhgh2rcd13ifvqfb0","pricing_plan_id":"free"},{"bike_id":"01cf1017-1598-4053-87df-1d6e51941071","system_id":"levelo_inurba_marseille","lat":43.2479,"lon":5.374457,"is_reserved":false,"is_disabled":false,"rental_uris":{"android":"levelo://app?vid=01cf1017-1598-4053-87df-1d6e51941071","ios":"levelo://app?vid=01cf1017-1598-4053-87df-1d6e51941071"},"vehicle_type_id":"4","last_reported":1686852504,"current_range_meters":10800,"station_id":"ce4bhgh2rcd13ifvqfb0","pricing_plan_id":"free"},{"bike_id":"578748fe-1ff0-4a00-8a86-810e1524c22e","system_id":"levelo_inurba_marseille","lat":43.2479,"lon":5.374457,"is_reserved":false,"is_disabled":false,"rental_uris":{"android":"levelo://app?vid=578748fe-1ff0-4a00-8a86-810e1524c22e","ios":"levelo://app?vid=578748fe-1ff0-4a00-8a86-810e1524c22e"},"vehicle_type_id":"4","last_reported":1686852504,"current_range_meters":800,"station_id":"ce4bhgh2rcd13ifvqfb0","pricing_plan_id":"free"},{"bike_id":"49919447-4b60-46de-bf12-c91dd61509ef","system_id":"levelo_inurba_marseille","lat":43.24806,"lon":5.3746,"is_reserved":false,"is_disabled":false,"rental_uris":{"android":"levelo://app?vid=49919447-4b60-46de-bf12-c91dd61509ef","ios":"levelo://app?vid=49919447-4b60-46de-bf12-c91dd61509ef"},"vehicle_type_id":"4","last_reported":1686852504,"current_range_meters":0,"station_id":"ce4bhgh2rcd13ifvqfb0","pricing_plan_id":"free"},{"bike_id":"6a029a90-83b0-44bb-b102-e9042451eff2","system_id":"levelo_inurba_marseille","lat":43.2479,"lon":5.374457,"is_reserved":false,"is_disabled":false,"rental_uris":{"android":"levelo://app?vid=6a029a90-83b0-44bb-b102-e9042451eff2","ios":"levelo://app?vid=6a029a90-83b0-44bb-b102-e9042451eff2"},"vehicle_type_id":"4","last_reported":1686852504,"current_range_meters":0,"station_id":"ce4bhgh2rcd13ifvqfb0","pricing_plan_id":"free"},{"bike_id":"6cbab3c1-34ad-47bb-934f-c95ebef2cbd4","system_id":"levelo_inurba_marseille","lat":43.2479,"lon":5.374457,"is_reserved":false,"is_disabled":false,"rental_uris":{"android":"levelo://app?vid=6cbab3c1-34ad-47bb-934f-c95ebef2cbd4","ios":"levelo://app?vid=6cbab3c1-34ad-47bb-934f-c95ebef2cbd4"},"vehicle_type_id":"4","last_reported":1686852504,"current_range_meters":26800,"station_id":"ce4bhgh2rcd13ifvqfb0","pricing_plan_id":"free"},{"bike_id":"c1885476-39fc-4050-99a0-ec12499d1e77","system_id":"levelo_inurba_marseille","lat":43.2479,"lon":5.374457,"is_reserved":false,"is_disabled":false,"rental_uris":{"android":"levelo://app?vid=c1885476-39fc-4050-99a0-ec12499d1e77","ios":"levelo://app?vid=c1885476-39fc-4050-99a0-ec12499d1e77"},"vehicle_type_id":"4","last_reported":1686852504,"current_range_meters":10400,"station_id":"ce4bhgh2rcd13ifvqfb0","pricing_plan_id":"free"},{"bike_id":"49b85be5-1ad3-4bdf-bb01-d0712f02bebd","system_id":"levelo_inurba_marseille","lat":43.24804,"lon":5.37456,"is_reserved":false,"is_disabled":false,"rental_uris":{"android":"levelo://app?vid=49b85be5-1ad3-4bdf-bb01-d0712f02bebd","ios":"levelo://app?vid=49b85be5-1ad3-4bdf-bb01-d0712f02bebd"},"vehicle_type_id":"4","last_reported":1686852504,"current_range_meters":3200,"station_id":"ce4bhgh2rcd13ifvqfb0","pricing_plan_id":"free"},{"bike_id":"ac23e2a8-6be6-4c21-a24b-e1b7a2198ef1","system_id":"levelo_inurba_marseille","lat":43.2479,"lon":5.374457,"is_reserved":false,"is_disabled":false,"rental_uris":{"android":"levelo://app?vid=ac23e2a8-6be6-4c21-a24b-e1b7a2198ef1","ios":"levelo://app?vid=ac23e2a8-6be6-4c21-a24b-e1b7a2198ef1"},"vehicle_type_id":"4","last_reported":1686852504,"current_range_meters":4400,"station_id":"ce4bhgh2rcd13ifvqfb0","pricing_plan_id":"free"},{"bike_id":"2989ebd0-3b35-497f-bba3-9d13ed40cf22","system_id":"levelo_inurba_marseille","lat":43.250966,"lon":5.395186,"is_reserved":false,"is_disabled":false,"rental_uris":{"android":"levelo://app?vid=2989ebd0-3b35-497f-bba3-9d13ed40cf22","ios":"levelo://app?vid=2989ebd0-3b35-497f-bba3-9d13ed40cf22"},"vehicle_type_id":"4","last_reported":1686852504,"current_range_meters":31200,"station_id":"ce4bhm12rcd13ifvqgkg","pricing_plan_id":"free"},{"bike_id":"b75e935d-e9d6-44d4-94b4-ea31ba33bcb0","system_id":"levelo_inurba_marseille","lat":43.24693,"lon":5.382096,"is_reserved":false,"is_disabled":false,"rental_uris":{"android":"levelo://app?vid=b75e935d-e9d6-44d4-94b4-ea31ba33bcb0","ios":"levelo://app?vid=b75e935d-e9d6-44d4-94b4-ea31ba33bcb0"},"vehicle_type_id":"4","last_reported":1686852504,"current_range_meters":22400,"station_id":"ce4bhih2rcd13ifvqfr0","pricing_plan_id":"free"},