{"last_updated":1731244360,"ttl":60,"version":"2.2","data":{"bikes":[{"bike_id":"dcd8b508-2c18-4839-ab68-7b52cc2d3fb7","system_id":"levelo_inurba_marseille","lat":43.27065,"lon":5.42284,"is_reserved":false,"is_disabled":false,"rental_uris":{"android":"levelo://app?vid=dcd8b508-2c18-4839-ab68-7b52cc2d3fb7","ios":"levelo://app?vid=dcd8b508-2c18-4839-ab68-7b52cc2d3fb7"},"vehicle_type_id":"4","last_reported":1731244360,"current_range_meters":30400,"station_id":"ce4bhk92rcd13ifvqgb0","pricing_plan_id":"cebpf4jnsgd1na2vs0mg"},{"bike_id":"417b1b24-9d8f-4872-a930-ff009e47f1ed","system_id":"levelo_inurba_marseille","lat":43.33743,"lon":5.39184,"is_reserved":false,"is_disabled":false,"rental_uris":{"android":"levelo://app?vid=417b1b24-9d8f-4872-a930-ff009e47f1ed","ios":"levelo://app?vid=417b1b24-9d8f-4872-a930-ff009e47f1ed"},"vehicle_type_id":"4","last_reported":1731244360,"current_range_meters":19200,"station_id":"ce4bhr92rcd13ifvqhsg","pricing_plan_id":"cebpf4jnsgd1na2vs0mg"},{"bike_id":"3f98d5bc-8cba-45da-9b18-d2bbd2d31032","system_id":"levelo_inurba_marseille","lat":43.29012,"lon":5.35613,"is_reserved":false,"is_disabled":false,"rental_uris":{"android":"levelo://app?vid=3f98d5bc-8cba-45da-9b18-d2bbd2d31032","ios":"levelo://app?vid=3f98d5bc-8cba-45da-9b18-d2bbd2d31032"},"vehicle_type_id":"4","last_reported":1731244360,"current_range_meters":13600,"station_id":"ce4bhb92rcd13ifvqen0","pricing_plan_id":"cebpf4jnsgd1na2vs0mg"},{"bike_id":"4d807e1d-e928-4f4e-a3d6-537ea1b965f5","system_id":"levelo_inurba_marseille","lat":43.27376,"lon":5.36264,"is_reserved":false,"is_disabled":false,"rental_uris":{"android":"levelo://app?vid=4d807e1d-e928-4f4e-a3d6-537ea1b965f5","ios":"levelo://app?vid=4d807e1d-e928-4f4e-a3d6-537ea1b965f5"},"vehicle_type_id":"4","last_reported":1731244360,"current_range_meters":38800,"station_id":"ce4bhbh2rcd13ifvqeo0","pricing_plan_id":"cebpf4jnsgd1na2vs0mg"},{"bike_id":"68bb9078-c705-4e4c-81de-7ae7c7d86c43","system_id":"levelo_inurba_marseille","lat":43.31685,"lon":5.37753,"is_reserved":false,"is_disabled":false,"rental_uris":{"android":"levelo://app?vid=68bb9078-c705-4e4c-81de-7ae7c7d86c43","ios":"levelo://app?vid=68bb9078-c705-4e4c-81de-7ae7c7d86c43"},"vehicle_type_id":"4","last_reported":1731244360,"current_range_meters":24400,"station_id":"ce4bgth2rcd13ifvqch0","pricing_plan_id":"cebpf4jnsgd1na2vs0mg"},{"bike_id":"d5da6427-3d33-4f38-9667-457fa5f33942","system_id":"levelo_inurba_marseille","lat":43.292982,"lon":5.374494,"is_reserved":false,"is_disabled":false,"rental_uris":{"android":"levelo://app?vid=d5da6427-3d33-4f38-9667-457fa5f33942","ios":"levelo://app?vid=d5da6427-3d33-4f38-9667-457fa5f33942"},"vehicle_type_id":"4","last_reported":1731244360,"current_range_meters":36400,"station_id":"ce4bgi12rcd13ifvqb70","pricing_plan_id":"cebpf4jnsgd1na2vs0mg"},{"bike_id":"5daf7e81-adca-4c69-ac49-7439dac41928","system_id":"levelo_inurba_marseille","lat":43.29572,"lon":5.42296,"is_reserved":false,"is_disabled":false,"rental_uris":{"android":"levelo://app?vid=5daf7e81-adca-4c69-ac49-7439dac41928","ios":"levelo://app?vid=5daf7e81-adca-4c69-ac49-7439dac41928"},"vehicle_type_id":"4","last_reported":1731244360,"current_range_meters":38800,"station_id":"ce4bhph2rcd13ifvqhdg","pricing_plan_id":"cebpf4jnsgd1na2vs0mg"},{"bike_id":"bab7e8bf-3dd9-4ba8-ae9e-1d78dcf614a2","system_id":"levelo_inurba_marseille","lat":43.25102,"lon":5.3951,"is_reserved":false,"is_disabled":false,"rental_uris":{"android":"levelo://app?vid=bab7e8bf-3dd9-4ba8-ae9e-1d78dcf614a2","ios":"levelo://app?vid=bab7e8bf-3dd9-4ba8-ae9e-1d78dcf614a2"},"vehicle_type_id":"4","last_reported":1731244360,"current_range_meters":35200,"station_id":"ce4bhm12rcd13ifvqgkg","pricing_plan_id":"cebpf4jnsgd1na2vs0mg"},{"bike_id":"39d45009-c847-43d6-b7cb-7399cdf413c3","system_id":"levelo_inurba_marseille","lat":43.23192,"lon":5.39989,"is_reserved":false,"is_disabled":false,"rental_uris":{"android":"levelo://app?vid=39d45009-c847-43d6-b7cb-7399cdf413c3","ios":"levelo://app?vid=39d45009-c847-43d6-b7cb-7399cdf413c3"},"vehicle_type_id":"4","last_reported":1731244360,"current_range_meters":10800,"station_id":"ce4bhn12rcd13ifvqgqg","pricing_plan_id":"cebpf4jnsgd1na2vs0mg"},{"bike_id":"fc7a04b3-3bcc-43cd-ac1f-db69c333388d","system_id":"levelo_inurba_marseille","lat":43.28617,"lon":5.35104,"is_reserved":false,"is_disabled":false,"rental_uris":{"android":"levelo://app?vid=fc7a04b3-3bcc-43cd-ac1f-db69c333388d","ios":"levelo://app?vid=fc7a04b3-3bcc-43cd-ac1f-db69c333388d"},"vehicle_type_id":"4","last_reported":1731244360,"current_range_meters":19600,"station_id":"ce4bhch2rcd13ifvqeug","pricing_plan_id":"cebpf4jnsgd1na2vs0mg"},{"bike_id":"28fee574-5897-4c28-9cda-8bf087b0e3a5","system_id":"levelo_inurba_marseille","lat":43.22878,"lon":5.36503,"is_reserved":false,"is_disabled":false,"rental_uris":{"android":"levelo://app?vid=28fee574-5897-4c28-9cda-8bf087b0e3a5","ios":"levelo://app?vid=28fee574-5897-4c28-9cda-8bf087b0e3a5"},"vehicle_type_id":"4","last_reported":1731244360,"current_range_meters":9200,"station_id":"","pricing_plan_id":"cebpf4jnsgd1na2vs0mg"},{"bike_id":"4a54ee2b-70c3-48fc-a993-d567e0317c43","system_id":"levelo_inurba_marseille","lat":43.28431,"lon":5.34986,"is_reserved":false,"is_disabled":false,"rental_uris":{"android":"levelo://app?vid=4a54ee2b-70c3-48fc-a993-d567e0317c43","ios":"levelo://app?vid=4a54ee2b-70c3-48fc-a993-d567e0317c43"},"vehicle_type_id":"4","last_reported":1731244360,"current_range_meters":27600,"station_id":"ce4bhbh2rcd13ifvqepg","pricing_plan_id":"cebpf4jnsgd1na2vs0mg"},{"bike_id":"605308ae-e328-49e6-83af-5dad5f553481","system_id":"levelo_inurba_marseille","lat":43.23962,"lon":5.36637,"is_reserved":false,"is_disabled":false,"rental_uris":{"android":"levelo://app?vid=605308ae-e328-49e6-83af-5dad5f553481","ios":"levelo://app?vid=605308ae-e328-49e6-83af-5dad5f553481"},"vehicle_type_id":"4","last_reported":1731244360,"current_range_meters":30000,"station_id":"ce4bhi12rcd13ifvqfp0","pricing_plan_id":"cebpf4jnsgd1na2vs0mg"},{"bike_id":"7729ec2e-7833-4a39-802f-174fa1b6e3b3","system_id":"levelo_inurba_marseille","lat":43.271993,"lon":5.391732,"is_reserved":false,"is_disabled":false,"rental_uris":{"android":"levelo://app?vid=7729ec2e-7833-4a39-802f-174fa1b6e3b3","ios":"levelo://app?vid=7729ec2e-7833-4a39-802f-174fa1b6e3b3"},"vehicle_type_id":"4","last_reported":1731244360,"current_range_meters":2000,"station_id":"ce4bhhp2rcd13ifvqfm0","pricing_plan_id":"cebpf4jnsgd1na2vs0mg"},{"bike_id":"30037827-8659-4cce-803b-88835fb3f6b5","system_id":"levelo_inurba_marseille","lat":43.25497,"lon":5.37647,"is_reserved":false,"is_disabled":false,"rental_uris":{"android":"levelo://app?vid=30037827-8659-4cce-803b-88835fb3f6b5","ios":"levelo://app?vid=30037827-8659-4cce-803b-88835fb3f6b5"},"vehicle_type_id":"4","last_reported":1731244360,"current_range_meters":39200,"station_id":"ce4bhh12rcd13ifvqff0","pricing_plan_id":"cebpf4jnsgd1na2vs0mg"},{"bike_id":"5812d5f1-a60f-473b-aee7-979906885a65","system_id":"levelo_inurba_marseille","lat":43.23061,"lon":5.35488,"is_reserved":false,"is_disabled":false,"rental_uris":{"android":"levelo://app?vid=5812d5f1-a60f-473b-aee7-979906885a65","ios":"levelo://app?vid=5812d5f1-a60f-473b-aee7-979906885a65"},"vehicle_type_id":"4","last_reported":1731244360,"current_range_meters":16400,"station_id":"cpo3342slgdg3j2ifvpg","pricing_plan_id":"cebpf4jnsgd1na2vs0mg"},{"bike_id":"eb280453-261a-4450-a2fd-1da204e75092","system_id":"levelo_inurba_marseille","lat":43.23152,"lon":5.43719,"is_reserved":false,"is_disabled":false,"rental_uris":{"android":"levelo://app?vid=eb280453-261a-4450-a2fd-1da204e75092","ios":"levelo://app?vid=eb280453-261a-4450-a2fd-1da204e75092"},"vehicle_type_id":"4","last_reported":1731244360,"current_range_meters":25600,"station_id":"ce4bhmp2rcd13ifvqgog","pricing_plan_id":"cebpf4jnsgd1na2vs0mg"},{"bike_id":"336c91c8-b504-402a-ba88-25473e7c3c8a","system_id":"levelo_inurba_marseille","lat":43.24392,"lon":5.37063,"is_reserved":false,"is_disabled":false,"rental_uris":{"android":"levelo://app?vid=336c91c8-b504-402a-ba88-25473e7c3c8a","ios":"levelo://app?vid=336c91c8-b504-402a-ba88-25473e7c3c8a"},"vehicle_type_id":"4","last_reported":1731244360,"current_range_meters":37600,"station_id":"ce4bhhh2rcd13ifvqfk0","pricing_plan_id":"cebpf4jnsgd1na2vs0mg"},{"bike_id":"b9059161-bc2a-4853-8231-de961bd5f1e7","system_id":"levelo_inurba_marseille","lat":43.33713,"lon":5.39185,"is_reserved":false,"is_disabled":false,"rental_uris":{"android":"levelo://app?vid=b9059161-bc2a-4853-8231-de961bd5f1e7","ios":"levelo://app?vid=b9059161-bc2a-4853-8231-de961bd5f1e7"},"vehicle_type_id":"4","last_reported":1731244360,"current_range_meters":17200,"station_id":"ce4bhr92rcd13ifvqhsg","pricing_plan_id":"cebpf4jnsgd1na2vs0mg"},{"bike_id":"9e00ae8d-b3a9-4d4b-a691-62debbf0e14c","system_id":"levelo_inurba_marseille","lat":43.23189,"lon":5.39989,"is_reserved":false,"is_disabled":false,"rental_uris":{"android":"levelo://app?vid=9e00ae8d-b3a9-4d4b-a691-62debbf0e14c","ios":"levelo://app?vid=9e00ae8d-b3a9-4d4b-a691-62debbf0e14c"},"vehicle_type_id":"4","last_reported":1731244360,"current_range_meters":36800,"station_id":"ce4bhn12rcd13ifvqgqg","pricing_plan_id":"cebpf4jnsgd1na2vs0mg"},{"bike_id":"6027106f-a998-41e8-b0e8-ca119a0cc741","system_id":"levelo_inurba_marseille","lat":43.29556,"lon":5.42283,"is_reserved":false,"is_disabled":false,"rental_uris":{"android":"levelo://app?vid=6027106f-a998-41e8-b0e8-ca119a0cc741","ios":"levelo://app?vid=6027106f-a998-41e8-b0e8-ca119a0cc741"},"vehicle_type_id":"4","last_reported":1731244360,"current_range_meters":38800,"station_id":"ce4bhph2rcd13ifvqhdg","pricing_plan_id":"cebpf4jnsgd1na2vs0mg"},{"bike_id":"662b60df-1c79-4b9e-be92-361dcc77ed86","system_id":"levelo_inurba_marseille","lat":43.24388,"lon":5.37061,"is_reserved":false,"is_disabled":false,"rental_uris":{"android":"levelo://app?vid=662b60df-1c79-4b9e-be92-361dcc77ed86","ios":"levelo://app?vid=662b60df-1c79-4b9e-be92-361dcc77ed86"},"vehicle_type_id":"4","last_reported":1731244360,"current_range_meters":4000,"station_id":"ce4bhhh2rcd13ifvqfk0","pricing_plan_id":"cebpf4jnsgd1na2vs0mg"},{"bike_id":"c7c7882f-f4d1-462f-9860-e573d1886a14","system_id":"levelo_inurba_marseille","lat":43.24388,"lon":5.37069,"is_reserved":false,"is_disabled":false,"rental_uris":{"android":"levelo://app?vid=c7c7882f-f4d1-462f-9860-e573d1886a14","ios":"levelo://app?vid=c7c7882f-f4d1-462f-9860-e573d1886a14"},"vehicle_type_id":"4","last_reported":1731244360,"current_range_meters":20400,"station_id":"ce4bhhh2rcd13ifvqfk0","pricing_plan_id":"cebpf4jnsgd1na2vs0mg"},{"bike_id":"0f7ef8f2-c091-420e-be1a-8c1e2421ea9d","system_id":"levelo_inurba_marseille","lat":43.23057,"lon":5.35498,"is_reserved":false,"is_disabled":false,"rental_uris":{"android":"levelo://app?vid=0f7ef8f2-c091-420e-be1a-8c1e2421ea9d","ios":"levelo://app?vid=0f7ef8f2-c091-420e-be1a-8c1e2421ea9d"},"vehicle_type_id":"4","last_reported":1731244360,"current_range_meters":10000,"station_id":"cpo3342slgdg3j2ifvpg","pricing_plan_id":"cebpf4jnsgd1na2vs0mg"},{"bike_id":"4d8a39f0-cf9b-4574-b4b3-d359660c3302","system_id":"levelo_inurba_marseille","lat":43.2439,"lon":5.37065,"is_reserved":false,"is_disabled":false,"rental_uris":{"android":"levelo://app?vid=4d8a39f0-cf9b-4574-b4b3-d359660c3302","ios":"levelo://app?vid=4d8a39f0-cf9b-4574-b4b3-d359660c3302"},"vehicle_type_id":"4","last_reported":1731244360,"current_range_meters":38400,"station_id":"ce4bhhh2rcd13ifvqfk0","pricing_plan_id":"cebpf4jnsgd1na2vs0mg"},{"bike_id":"26e55983-f261-40b1-b1a0-30eef97145b0","system_id":"levelo_inurba_marseille","lat":43.25505,"lon":5.3765,"is_reserved":false,"is_disabled":false,"rental_uris":{"android":"levelo://app?vid=26e55983-f261-40b1-b1a0-30eef97145b0","ios":"levelo://app?vid=26e55983-f261-40b1-b1a0-30eef97145b0"},"vehicle_type_id":"4","last_reported":1731244360,"current_range_meters":28400,"station_id":"ce4bhh12rcd13ifvqff0","pricing_plan_id":"cebpf4jnsgd1na2vs0mg"},{"bike_id":"32c29b50-e3b2-494a-8417-18400536c1ea","system_id":"levelo_inurba_marseille","lat":43.2306,"lon":5.35501,"is_reserved":false,"is_disabled":false,"rental_uris":{"android":"levelo://app?vid=32c29b50-e3b2-494a-8417-18400536c1ea","ios":"levelo://app?vid=32c29b50-e3b2-494a-8417-18400536c1ea"},"vehicle_type_id":"4","last_reported":1731244360,"current_range_meters":38800,"station_id":"cpo3342slgdg3j2ifvpg","pricing_plan_id":"cebpf4jnsgd1na2vs0mg"},{"bike_id":"018cdcf7-93ec-4e24-8e3e-3f9d0d08d718","system_id":"levelo_inurba_marseille","lat":43.23969,"lon":5.36628,"is_reserved":false,"is_disabled":false,"rental_uris":{"android":"levelo://app?vid=018cdcf7-93ec-4e24-8e3e-3f9d0d08d718","ios":"levelo://app?vid=018cdcf7-93ec-4e24-8e3e-3f9d0d08d718"},"vehicle_type_id":"4","last_reported":1731244360,"current_range_meters":38800,"station_id":"ce4bhi12rcd13ifvqfp0","pricing_plan_id":"cebpf4jnsgd1na2vs0mg"},{"bike_id":"5474522c-ab23-48ff-8d4f-608ca8b7c65a","system_id":"levelo_inurba_marseille","lat":43.28272,"lon":5.350719,"is_reserved":false,"is_disabled":false,"rental_uris":{"android":"levelo://app?vid=5474522c-ab23-48ff-8d4f-608ca8b7c65a","ios":"levelo://app?vid=5474522c-ab23-48ff-8d4f-608ca8b7c65a"},"vehicle_type_id":"4","last_reported":1731244360,"current_range_meters":35600,"station_id":"ce4bhbp2rcd13ifvqerg","pricing_plan_id":"cebpf4jnsgd1na2vs0mg"},{"bike_id":"2d0a890a-414c-4ce8-9fcd-5ae2fa3ca79c","system_id":"levelo_inurba_marseille","lat":43.22934,"lon":5.35378,"is_reserved":false,"is_disabled":false,"rental_uris":{"android":"levelo://app?vid=2d0a890a-414c-4ce8-9fcd-5ae2fa3ca79c","ios":"levelo://app?vid=2d0a890a-414c-4ce8-9fcd-5ae2fa3ca79c"},"vehicle_type_id":"4","last_reported":1731244360,"current_range_meters":38800,"station_id":"cpo3532slgdg3j2ikp40","pricing_plan_id":"cebpf4jnsgd1na2vs0mg"},{"bike_id":"7e715a8b-7066-4e16-903f-42925ddc662b","system_id":"levelo_inurba_marseille","lat":43.29296,"lon":5.37469,"is_reserved":false,"is_disabled":false,"rental_uris":{"android":"levelo://app?vid=7e715a8b-7066-4e16-903f-42925ddc662b","ios":"levelo://app?vid=7e715a8b-7066-4e16-903f-42925ddc662b"},"vehicle_type_id":"4","last_reported":1731244360,"current_range_meters":8400,"station_id":"ce4bgi12rcd13ifvqb70","pricing_plan_id":"cebpf4jnsgd1na2vs0mg"},{"bike_id":"b763d2be-a202-4cc9-b8d3-db094c478dbe","system_id":"levelo_inurba_marseille","lat":43.29583,"lon":5.36738,"is_reserved":false,"is_disabled":false,"rental_uris":{"android":"levelo://app?vid=b763d2be-a202-4cc9-b8d3-db094c478dbe","ios":"levelo://app?vid=b763d2be-a202-4cc9-b8d3-db094c478dbe"},"vehicle_type_id":"4","last_reported":1731244360,"current_range_meters":39200,"station_id":"ce4bgph2rcd13ifvqc2g","pricing_plan_id":"cebpf4jnsgd1na2vs0mg"},{"bike_id":"4bb9a85a-0d0c-4d55-8773-a9f717071e71","system_id":"levelo_inurba_marseille","lat":43.31686,"lon":5.37749,"is_reserved":false,"is_disabled":false,"rental_uris":{"android":"levelo://app?vid=4bb9a85a-0d0c-4d55-8773-a9f717071e71","ios":"levelo://app?vid=4bb9a85a-0d0c-4d55-8773-a9f717071e71"},"vehicle_type_id":"4","last_reported":1731244360,"current_range_meters":38800,"station_id":"ce4bgth2rcd13ifvqch0","pricing_plan_id":"cebpf4jnsgd1na2vs0mg"},{"bike_id":"efbfd49e-590d-4cd9-af99-72a85309b119","system_id":"levelo_inurba_marseille","lat":43.27905,"lon":5.38007,"is_reserved":false,"is_disabled":false,"rental_uris":{"android":"levelo://app?vid=efbfd49e-590d-4cd9-af99-72a85309b119","ios":"levelo://app?vid=efbfd49e-590d-4cd9-af99-72a85309b119"},"vehicle_type_id":"4","last_reported":1731244360,"current_range_meters":6000,"station_id":"ce4bhf92rcd13ifvqf50","pricing_plan_id":"cebpf4jnsgd1na2vs0mg"},{"bike_id":"c221efe7-efcb-49b8-a1b0-1dd8d171a453","system_id":"levelo_inurba_marseille","lat":43.33729,"lon":5.39181,"is_reserved":false,"is_disabled":false,"rental_uris":{"android":"levelo://app?vid=c221efe7-efcb-49b8-a1b0-1dd8d171a453","ios":"levelo://app?vid=c221efe7-efcb-49b8-a1b0-1dd8d171a453"},"vehicle_type_id":"4","last_reported":1731244360,"current_range_meters":39200,"station_id":"ce4bhr92rcd13ifvqhsg","pricing_plan_id":"cebpf4jnsgd1na2vs0mg"},{"bike_id":"b8fdd341-0697-41ca-82c9-e4253415f4e6","system_id":"levelo_inurba_marseille","lat":43.23055,"lon":5.3549,"is_reserved":false,"is_disabled":false,"rental_uris":{"android":"levelo://app?vid=b8fdd341-0697-41ca-82c9-e4253415f4e6","ios":"levelo://app?vid=b8fdd341-0697-41ca-82c9-e4253415f4e6"},"vehicle_type_id":"4","last_reported":1731244360,"current_range_meters":27600,"station_id":"cpo3342slgdg3j2ifvpg","pricing_plan_id":"cebpf4jnsgd1na2vs0mg"},{"bike_id":"cf9daf46-3bd1-47e7-80ac-0de06577c598","system_id":"levelo_inurba_marseille","lat":43.24389,"lon":5.37049,"is_reserved":false,"is_disabled":false,"rental_uris":{"android":"levelo://app?vid=cf9daf46-3bd1-47e7-80ac-0de06577c598","ios":"levelo://app?vid=cf9daf46-3bd1-47e7-80ac-0de06577c598"},"vehicle_type_id":"4","last_reported":1731244360,"current_range_meters":38800,"station_id":"ce4bhhh2rcd13ifvqfk0","pricing_plan_id":"cebpf4jnsgd1na2vs0mg"},{"bike_id":"99b67b51-e8c2-49d8-b88a-b0934f2a23ae","system_id":"levelo_inurba_marseille","lat":43.24022,"lon":5.3976,"is_reserved":false,"is_disabled":false,"rental_uris":{"android":"levelo://app?vid=99b67b51-e8c2-49d8-b88a-b0934f2a23ae","ios":"levelo://app?vid=99b67b51-e8c2-49d8-b88a-b0934f2a23ae"},"vehicle_type_id":"4","last_reported":1731244360,"current_range_meters":38800,"station_id":"ce4bhn12rcd13ifvqgpg","pricing_plan_id":"cebpf4jnsgd1na2vs0mg"},{"bike_id":"f758e1e4-60ee-4677-94aa-373c602458d9","system_id":"levelo_inurba_marseille","lat":43.27071,"lon":5.4228,"is_reserved":false,"is_disabled":false,"rental_uris":{"android":"levelo://app?vid=f758e1e4-60ee-4677-94aa-373c602458d9","ios":"levelo://app?vid=f758e1e4-60ee-4677-94aa-373c602458d9"},"vehicle_type_id":"4","last_reported":1731244360,"current_range_meters":19600,"station_id":"ce4bhk92rcd13ifvqgb0","pricing_plan_id":"cebpf4jnsgd1na2vs0mg"},{"bike_id":"4e72c028-8eb6-45c9-948f-592264d3d6d7","system_id":"levelo_inurba_marseille","lat":43.23059,"lon":5.35495,"is_reserved":false,"is_disabled":false,"rental_uris":{"android":"levelo://app?vid=4e72c028-8eb6-45c9-948f-592264d3d6d7","ios":"levelo://app?vid=4e72c028-8eb6-45c9-948f-592264d3d6d7"},"vehicle_type_id":"4","last_reported":1731244360,"current_range_meters":36000,"station_id":"cpo3342slgdg3j2ifvpg","pricing_plan_id":"cebpf4jnsgd1na2vs0mg"},{"bike_id":"899cbe69-cb54-47be-9730-849b29c5d509","system_id":"levelo_inurba_marseille","lat":43.30895,"lon":5.37187,"is_reserved":false,"is_disabled":false,"rental_uris":{"android":"levelo://app?vid=899cbe69-cb54-47be-9730-849b29c5d509","ios":"levelo://app?vid=899cbe69-cb54-47be-9730-849b29c5d509"},"vehicle_type_id":"4","last_reported":1731244360,"current_range_meters":24000,"station_id":"ce4bguh2rcd13ifvqckg","pricing_plan_id":"cebpf4jnsgd1na2vs0mg"},{"bike_id":"1082c28a-9fb3-4143-8bad-756c7ce3d600","system_id":"levelo_inurba_marseille","lat":43.29195,"lon":5.35799,"is_reserved":false,"is_disabled":false,"rental_uris":{"android":"levelo://app?vid=1082c28a-9fb3-4143-8bad-756c7ce3d600","ios":"levelo://app?vid=1082c28a-9fb3-4143-8bad-756c7ce3d600"},"vehicle_type_id":"4","last_reported":1731244360,"current_range_meters":30000,"station_id":"ce4bhb12rcd13ifvqel0","pricing_plan_id":"cebpf4jnsgd1na2vs0mg"},{"bike_id":"45da62df-7f80-44a3-ba8e-1acd781a5f69","system_id":"levelo_inurba_marseille","lat":43.29554,"lon":5.42291,"is_reserved":false,"is_disabled":false,"rental_uris":{"android":"levelo://app?vid=45da62df-7f80-44a3-ba8e-1acd781a5f69","ios":"levelo://app?vid=45da62df-7f80-44a3-ba8e-1acd781a5f69"},"vehicle_type_id":"4","last_reported":1731244360,"current_range_meters":25200,"station_id":"ce4bhph2rcd13ifvqhdg","pricing_plan_id":"cebpf4jnsgd1na2vs0mg"},{"bike_id":"a2c94e1a-3858-41e6-aa7e-97346fb4829e","system_id":"levelo_inurba_marseille","lat":43.23061,"lon":5.355,"is_reserved":false,"is_disabled":false,"rental_uris":{"android":"levelo://app?vid=a2c94e1a-3858-41e6-aa7e-97346fb4829e","ios":"levelo://app?vid=a2c94e1a-3858-41e6-aa7e-97346fb4829e"},"vehicle_type_id":"4","last_reported":1731244360,"current_range_meters":19200,"station_id":"cpo3342slgdg3j2ifvpg","pricing_plan_id":"cebpf4jnsgd1na2vs0mg"},{"bike_id":"2972f759-c98e-4fe7-9758-85d215895273","system_id":"levelo_inurba_marseille","lat":43.23961,"lon":5.36621,"is_reserved":false,"is_disabled":false,"rental_uris":{"android":"levelo://app?vid=2972f759-c98e-4fe7-9758-85d215895273","ios":"levelo://app?vid=2972f759-c98e-4fe7-9758-85d215895273"},"vehicle_type_id":"4","last_reported":1731244360,"current_range_meters":36400,"station_id":"ce4bhi12rcd13ifvqfp0","pricing_plan_id":"cebpf4jnsgd1na2vs0mg"},{"bike_id":"010d3bc6-1da9-4e2e-9558-6436a5780c21","system_id":"levelo_inurba_marseille","lat":43.23196,"lon":5.35548,"is_reserved":false,"is_disabled":false,"rental_uris":{"android":"levelo://app?vid=010d3bc6-1da9-4e2e-9558-6436a5780c21","ios":"levelo://app?vid=010d3bc6-1da9-4e2e-9558-6436a5780c21"},"vehicle_type_id":"4","last_reported":1731244360,"current_range_meters":38800,"station_id":"ce4bhu92rcd13ifvqi70","pricing_plan_id":"cebpf4jnsgd1na2vs0mg"},{"bike_id":"662385fc-63f9-4a4f-87db-2e58a1f015e0","system_id":"levelo_inurba_marseille","lat":43.23963,"lon":5.36638,"is_reserved":false,"is_disabled":false,"rental_uris":{"android":"levelo://app?vid=662385fc-63f9-4a4f-87db-2e58a1f015e0","ios":"levelo://app?vid=662385fc-63f9-4a4f-87db-2e58a1f015e0"},"vehicle_type_id":"4","last_reported":1731244360,"current_range_meters":32800,"station_id":"ce4bhi12rcd13ifvqfp0","pricing_plan_id":"cebpf4jnsgd1na2vs0mg"},{"bike_id":"1a366d13-87fa-4c79-be4c-283f2bc932cd","system_id":"levelo_inurba_marseille","lat":43.28266,"lon":5.35068,"is_reserved":false,"is_disabled":false,"rental_uris":{"android":"levelo://app?vid=1a366d13-87fa-4c79-be4c-283f2bc932cd","ios":"levelo://app?vid=1a366d13-87fa-4c79-be4c-283f2bc932cd"},"vehicle_type_id":"4","last_reported":1731244360,"current_range_meters":17200,"station_id":"ce4bhbp2rcd13ifvqerg","pricing_plan_id":"cebpf4jnsgd1na2vs0mg"},{"bike_id":"1f48fd30-031b-44f9-bc2c-40db8808d813","system_id":"levelo_inurba_marseille","lat":43.29571,"lon":5.39988,"is_reserved":false,"is_disabled":false,"rental_uris":{"android":"levelo://app?vid=1f48fd30-031b-44f9-bc2c-40db8808d813","ios":"levelo://app?vid=1f48fd30-031b-44f9-bc2c-40db8808d813"},"vehicle_type_id":"4","last_reported":1731244360,"current_range_meters":38000,"station_id":"ce4bh312rcd13ifvqdj0","pricing_plan_id":"cebpf4jnsgd1na2vs0mg"},{"bike_id":"3f4a9a8a-9ac5-4ec8-95a8-cf6aded0056e","system_id":"levelo_inurba_marseille","lat":43.25937,"lon":5.40908,"is_reserved":false,"is_disabled":false,"rental_uris":{"android":"levelo://app?vid=3f4a9a8a-9ac5-4ec8-95a8-cf6aded0056e","ios":"levelo://app?vid=3f4a9a8a-9ac5-4ec8-95a8-cf6aded0056e"},"vehicle_type_id":"4","last_reported":1731244360,"current_range_meters":24800,"station_id":"ce4bhm92rcd13ifvqglg","pricing_plan_id":"cebpf4jnsgd1na2vs0mg"},{"bike_id":"d41fb0f1-e480-4160-8e49-a6b72f7db271","system_id":"levelo_inurba_marseille","lat":43.27945,"lon":5.41043,"is_reserved":false,"is_disabled":false,"rental_uris":{"android":"levelo://app?vid=d41fb0f1-e480-4160-8e49-a6b72f7db271","ios":"levelo://app?vid=d41fb0f1-e480-4160-8e49-a6b72f7db271"},"vehicle_type_id":"4","last_reported":1731244360,"current_range_meters":25200,"station_id":"ce4bhnp2rcd13ifvqh0g","pricing_plan_id":"cebpf4jnsgd1na2vs0mg"},{"bike_id":"40a09dcf-0077-4f19-9165-c8f6f145f211","system_id":"levelo_inurba_marseille","lat":43.29192,"lon":5.35803,"is_reserved":false,"is_disabled":false,"rental_uris":{"android":"levelo://app?vid=40a09dcf-0077-4f19-9165-c8f6f145f211","ios":"levelo://app?vid=40a09dcf-0077-4f19-9165-c8f6f145f211"},"vehicle_type_id":"4","last_reported":1731244360,"current_range_meters":39200,"station_id":"ce4bhb12rcd13ifvqel0","pricing_plan_id":"cebpf4jnsgd1na2vs0mg"},{"bike_id":"16dbe417-7350-47fc-abbf-e70142a42ad1","system_id":"levelo_inurba_marseille","lat":43.29009,"lon":5.35609,"is_reserved":false,"is_disabled":false,"rental_uris":{"android":"levelo://app?vid=16dbe417-7350-47fc-abbf-e70142a42ad1","ios":"levelo://app?vid=16dbe417-7350-47fc-abbf-e70142a42ad1"},"vehicle_type_id":"4","last_reported":1731244360,"current_range_meters":38800,"station_id":"ce4bhb92rcd13ifvqen0","pricing_plan_id":"cebpf4jnsgd1na2vs0mg"},{"bike_id":"4641afaf-1606-4463-a12f-a15f5148a47d","system_id":"levelo_inurba_marseille","lat":43.23083,"lon":5.35502,"is_reserved":false,"is_disabled":false,"rental_uris":{"android":"levelo://app?vid=4641afaf-1606-4463-a12f-a15f5148a47d","ios":"levelo://app?vid=4641afaf-1606-4463-a12f-a15f5148a47d"},"vehicle_type_id":"4","last_reported":1731244360,"current_range_meters":13600,"station_id":"ce4bhm12rcd13ifvqgkg","pricing_plan_id":"cebpf4jnsgd1na2vs0mg"},{"bike_id":"b9478b1d-79e3-44c9-ae60-496dd5151f62","system_id":"levelo_inurba_marseille","lat":43.29166,"lon":5.37153,"is_reserved":false,"is_disabled":false,"rental_uris":{"android":"levelo://app?vid=b9478b1d-79e3-44c9-ae60-496dd5151f62","ios":"levelo://app?vid=b9478b1d-79e3-44c9-ae60-496dd5151f62"},"vehicle_type_id":"4","last_reported":1731244360,"current_range_meters":31200,"station_id":"ce4bha92rcd13ifvqeh0","pricing_plan_id":"cebpf4jnsgd1na2vs0mg"},{"bike_id":"a6662f96-7914-4568-9644-1c4ba1cb159a","system_id":"levelo_inurba_marseille","lat":43.28425,"lon":5.34992,"is_reserved":false,"is_disabled":false,"rental_uris":{"android":"levelo://app?vid=a6662f96-7914-4568-9644-1c4ba1cb159a","ios":"levelo://app?vid=a6662f96-7914-4568-9644-1c4ba1cb159a"},"vehicle_type_id":"4","last_reported":1731244360,"current_range_meters":36400,"station_id":"ce4bhbh2rcd13ifvqepg","pricing_plan_id":"cebpf4jnsgd1na2vs0mg"},{"bike_id":"4204c697-9142-4d6f-a64b-20f319f8c9a7","system_id":"levelo_inurba_marseille","lat":43.2708,"lon":5.42283,"is_reserved":false,"is_disabled":false,"rental_uris":{"android":"levelo://app?vid=4204c697-9142-4d6f-a64b-20f319f8c9a7","ios":"levelo://app?vid=4204c697-9142-4d6f-a64b-20f319f8c9a7"},"vehicle_type_id":"4","last_reported":1731244360,"current_range_meters":38800,"station_id":"ce4bhk92rcd13ifvqgb0","pricing_plan_id":"cebpf4jnsgd1na2vs0mg"},{"bike_id":"bbdbe748-0538-490a-aace-9255033a933e","system_id":"levelo_inurba_marseille","lat":43.24997,"lon":5.38936,"is_reserved":false,"is_disabled":false,"rental_uris":{"android":"levelo://app?vid=bbdbe748-0538-490a-aace-9255033a933e","ios":"levelo://app?vid=bbdbe748-0538-490a-aace-9255033a933e"},"vehicle_type_id":"4","last_reported":1731244360,"current_range_meters":9600,"station_id":"ce4bhgp2rcd13ifvqfd0","pricing_plan_id":"cebpf4jnsgd1na2vs0mg"},{"bike_id":"be24835d-0225-40fd-a74f-9d14a911f0fc","system_id":"levelo_inurba_marseille","lat":43.2293,"lon":5.35372,"is_reserved":false,"is_disabled":false,"rental_uris":{"android":"levelo://app?vid=be24835d-0225-40fd-a74f-9d14a911f0fc","ios":"levelo://app?vid=be24835d-0225-40fd-a74f-9d14a911f0fc"},"vehicle_type_id":"4","last_reported":1731244360,"current_range_meters":20000,"station_id":"cpo3532slgdg3j2ikp40","pricing_plan_id":"cebpf4jnsgd1na2vs0mg"},{"bike_id":"11310b70-819c-4cf2-879e-a4a27e3f7b9f","system_id":"levelo_inurba_marseille","lat":43.2986,"lon":5.39755,"is_reserved":false,"is_disabled":false,"rental_uris":{"android":"levelo://app?vid=11310b70-819c-4cf2-879e-a4a27e3f7b9f","ios":"levelo://app?vid=11310b70-819c-4cf2-879e-a4a27e3f7b9f"},"vehicle_type_id":"4","last_reported":1731244360,"current_range_meters":6800,"station_id":"ce4bh0h2rcd13ifvqd50","pricing_plan_id":"cebpf4jnsgd1na2vs0mg"},{"bike_id":"ccd83c92-b34b-43f7-bdf1-3932d2179c99","system_id":"levelo_inurba_marseille","lat":43.271698,"lon":5.409961,"is_reserved":false,"is_disabled":false,"rental_uris":{"android":"levelo://app?vid=ccd83c92-b34b-43f7-bdf1-3932d2179c99","ios":"levelo://app?vid=ccd83c92-b34b-43f7-bdf1-3932d2179c99"},"vehicle_type_id":"4","last_reported":1731244360,"current_range_meters":8800,"station_id":"ce4bhl12rcd13ifvqgf0","pricing_plan_id":"cebpf4jnsgd1na2vs0mg"},{"bike_id":"5b1ecbe0-a0fe-45b3-b0ea-f76e5b19652b","system_id":"levelo_inurba_marseille","lat":43.23197,"lon":5.35543,"is_reserved":false,"is_disabled":false,"rental_uris":{"android":"levelo://app?vid=5b1ecbe0-a0fe-45b3-b0ea-f76e5b19652b","ios":"levelo://app?vid=5b1ecbe0-a0fe-45b3-b0ea-f76e5b19652b"},"vehicle_type_id":"4","last_reported":1731244360,"current_range_meters":7200,"station_id":"ce4bhu92rcd13ifvqi70","pricing_plan_id":"cebpf4jnsgd1na2vs0mg"},{"bike_id":"e6dc57cf-44da-4102-9d69-7c7b35161e11","system_id":"levelo_inurba_marseille","lat":43.24174,"lon":5.3641,"is_reserved":false,"is_disabled":false,"rental_uris":{"android":"levelo://app?vid=e6dc57cf-44da-4102-9d69-7c7b35161e11","ios":"levelo://app?vid=e6dc57cf-44da-4102-9d69-7c7b35161e11"},"vehicle_type_id":"4","last_reported":1731244360,"current_range_meters":36400,"station_id":"cpo36qri1sfpv3e86is0","pricing_plan_id":"cebpf4jnsgd1na2vs0mg"},{"bike_id":"eea89b14-e5f3-4242-9fbf-52d861894071","system_id":"levelo_inurba_marseille","lat":43.23193,"lon":5.35551,"is_reserved":false,"is_disabled":false,"rental_uris":{"android":"levelo://app?vid=eea89b14-e5f3-4242-9fbf-52d861894071","ios":"levelo://app?vid=eea89b14-e5f3-4242-9fbf-52d861894071"},"vehicle_type_id":"4","last_reported":1731244360,"current_range_meters":28000,"station_id":"ce4bhu92rcd13ifvqi70","pricing_plan_id":"cebpf4jnsgd1na2vs0mg"},{"bike_id":"42d6f295-5350-44da-8761-a50375c709f2","system_id":"levelo_inurba_marseille","lat":43.24391,"lon":5.37066,"is_reserved":false,"is_disabled":false,"rental_uris":{"android":"levelo://app?vid=42d6f295-5350-44da-8761-a50375c709f2","ios":"levelo://app?vid=42d6f295-5350-44da-8761-a50375c709f2"},"vehicle_type_id":"4","last_reported":1731244360,"current_range_meters":18800,"station_id":"ce4bhhh2rcd13ifvqfk0","pricing_plan_id":"cebpf4jnsgd1na2vs0mg"},{"bike_id":"2b50d61b-8d51-4491-8e4d-cd635e575b03","system_id":"levelo_inurba_marseille","lat":43.26795,"lon":5.39418,"is_reserved":false,"is_disabled":false,"rental_uris":{"android":"levelo://app?vid=2b50d61b-8d51-4491-8e4d-cd635e575b03","ios":"levelo://app?vid=2b50d61b-8d51-4491-8e4d-cd635e575b03"},"vehicle_type_id":"4","last_reported":1731244360,"current_range_meters":38800,"station_id":"ce4bhh12rcd13ifvqfg0","pricing_plan_id":"cebpf4jnsgd1na2vs0mg"},{"bike_id":"19008cd2-6d2b-4b7d-ac46-e89cb37ab51a","system_id":"levelo_inurba_marseille","lat":43.23146,"lon":5.4372,"is_reserved":false,"is_disabled":false,"rental_uris":{"android":"levelo://app?vid=19008cd2-6d2b-4b7d-ac46-e89cb37ab51a","ios":"levelo://app?vid=19008cd2-6d2b-4b7d-ac46-e89cb37ab51a"},"vehicle_type_id":"4","last_reported":1731244360,"current_range_meters":8400,"station_id":"ce4bhmp2rcd13ifvqgog","pricing_plan_id":"cebpf4jnsgd1na2vs0mg"},{"bike_id":"79c4c7ed-edb4-4187-9601-02610951ee28","system_id":"levelo_inurba_marseille","lat":43.2304,"lon":5.35509,"is_reserved":false,"is_disabled":false,"rental_uris":{"android":"levelo://app?vid=79c4c7ed-edb4-4187-9601-02610951ee28","ios":"levelo://app?vid=79c4c7ed-edb4-4187-9601-02610951ee28"},"vehicle_type_id":"4","last_reported":1731244360,"current_range_meters":32000,"station_id":"cpo3342slgdg3j2ifvpg","pricing_plan_id":"cebpf4jnsgd1na2vs0mg"},{"bike_id":"cec3b3da-0bb6-4b40-8154-bdc4439dc1bf","system_id":"levelo_inurba_marseille","lat":43.31085,"lon":5.4243,"is_reserved":false,"is_disabled":false,"rental_uris":{"android":"levelo://app?vid=cec3b3da-0bb6-4b40-8154-bdc4439dc1bf","ios":"levelo://app?vid=cec3b3da-0bb6-4b40-8154-bdc4439dc1bf"},"vehicle_type_id":"4","last_reported":1731244360,"current_range_meters":11200,"station_id":"ce4bhp92rcd13ifvqhag","pricing_plan_id":"cebpf4jnsgd1na2vs0mg"},{"bike_id":"05819f3e-9845-420d-81a3-a92604f3c8ca","system_id":"levelo_inurba_marseille","lat":43.24165,"lon":5.36389,"is_reserved":false,"is_disabled":false,"rental_uris":{"android":"levelo://app?vid=05819f3e-9845-420d-81a3-a92604f3c8ca","ios":"levelo://app?vid=05819f3e-9845-420d-81a3-a92604f3c8ca"},"vehicle_type_id":"4","last_reported":1731244360,"current_range_meters":36800,"station_id":"cpo36qri1sfpv3e86is0","pricing_plan_id":"cebpf4jnsgd1na2vs0mg"},{"bike_id":"faebc32a-f239-4265-91dd-92bf3f19b1d8","system_id":"levelo_inurba_marseille","lat":43.28261,"lon":5.35068,"is_reserved":false,"is_disabled":false,"rental_uris":{"android":"levelo://app?vid=faebc32a-f239-4265-91dd-92bf3f19b1d8","ios":"levelo://app?vid=faebc32a-f239-4265-91dd-92bf3f19b1d8"},"vehicle_type_id":"4","last_reported":1731244360,"current_range_meters":38800,"station_id":"ce4bhbp2rcd13ifvqerg","pricing_plan_id":"cebpf4jnsgd1na2vs0mg"},{"bike_id":"28a9cd2a-381f-4ffa-b5db-59614eccd773","system_id":"levelo_inurba_marseille","lat":43.29009,"lon":5.35615,"is_reserved":false,"is_disabled":false,"rental_uris":{"android":"levelo://app?vid=28a9cd2a-381f-4ffa-b5db-59614eccd773","ios":"levelo://app?vid=28a9cd2a-381f-4ffa-b5db-59614eccd773"},"vehicle_type_id":"4","last_reported":1731244360,"current_range_meters":22800,"station_id":"ce4bhb92rcd13ifvqen0","pricing_plan_id":"cebpf4jnsgd1na2vs0mg"},{"bike_id":"d2a974a2-88bc-4638-8d41-7f094635c91a","system_id":"levelo_inurba_marseille","lat":43.27101,"lon":5.38188,"is_reserved":false,"is_disabled":false,"rental_uris":{"android":"levelo://app?vid=d2a974a2-88bc-4638-8d41-7f094635c91a","ios":"levelo://app?vid=d2a974a2-88bc-4638-8d41-7f094635c91a"},"vehicle_type_id":"4","last_reported":1731244360,"current_range_meters":6400,"station_id":"","pricing_plan_id":"cebpf4jnsgd1na2vs0mg"},{"bike_id":"f0730e13-11c4-4020-956a-ca204d2dd6c0","system_id":"levelo_inurba_marseille","lat":43.29563,"lon":5.4229,"is_reserved":false,"is_disabled":false,"rental_uris":{"android":"levelo://app?vid=f0730e13-11c4-4020-956a-ca204d2dd6c0","ios":"levelo://app?vid=f0730e13-11c4-4020-956a-ca204d2dd6c0"},"vehicle_type_id":"4","last_reported":1731244360,"current_range_meters":39200,"station_id":"ce4bhph2rcd13ifvqhdg","pricing_plan_id":"cebpf4jnsgd1na2vs0mg"},{"bike_id":"71832a18-fe68-4443-9e8a-01f60b4f649a","system_id":"levelo_inurba_marseille","lat":43.27497,"lon":5.42452,"is_reserved":false,"is_disabled":false,"rental_uris":{"android":"levelo://app?vid=71832a18-fe68-4443-9e8a-01f60b4f649a","ios":"levelo://app?vid=71832a18-fe68-4443-9e8a-01f60b4f649a"},"vehicle_type_id":"4","last_reported":1731244360,"current_range_meters":6400,"station_id":"ce4bhn92rcd13ifvqgrg","pricing_plan_id":"cebpf4jnsgd1na2vs0mg"},{"bike_id":"a150e7df-669e-49ff-ae4e-04195257bfe1","system_id":"levelo_inurba_marseille","lat":43.33025,"lon":5.39043,"is_reserved":false,"is_disabled":false,"rental_uris":{"android":"levelo://app?vid=a150e7df-669e-49ff-ae4e-04195257bfe1","ios":"levelo://app?vid=a150e7df-669e-49ff-ae4e-04195257bfe1"},"vehicle_type_id":"4","last_reported":1731244360,"current_range_meters":38800,"station_id":"ce4bhr92rcd13ifvqhrg","pricing_plan_id":"cebpf4jnsgd1na2vs0mg"},{"bike_id":"d8b069df-29e1-4273-99b0-c9104446d9c3","system_id":"levelo_inurba_marseille","lat":43.23199,"lon":5.35557,"is_reserved":false,"is_disabled":false,"rental_uris":{"android":"levelo://app?vid=d8b069df-29e1-4273-99b0-c9104446d9c3","ios":"levelo://app?vid=d8b069df-29e1-4273-99b0-c9104446d9c3"},"vehicle_type_id":"4","last_reported":1731244360,"current_range_meters":38800,"station_id":"ce4bhu92rcd13ifvqi70","pricing_plan_id":"cebpf4jnsgd1na2vs0mg"},{"bike_id":"8af58d40-8ff2-4c96-8a2d-8761a7efc416","system_id":"levelo_inurba_marseille","lat":43.28974,"lon":5.37836,"is_reserved":false,"is_disabled":false,"rental_uris":{"android":"levelo://app?vid=8af58d40-8ff2-4c96-8a2d-8761a7efc416","ios":"levelo://app?vid=8af58d40-8ff2-4c96-8a2d-8761a7efc416"},"vehicle_type_id":"4","last_reported":1731244360,"current_range_meters":24000,"station_id":"ce4bh9p2rcd13ifvqed0","pricing_plan_id":"cebpf4jnsgd1na2vs0mg"},{"bike_id":"0df0aee9-60eb-40de-987d-051cd1a103c4","system_id":"levelo_inurba_marseille","lat":43.2549,"lon":5.37652,"is_reserved":false,"is_disabled":false,"rental_uris":{"android":"levelo://app?vid=0df0aee9-60eb-40de-987d-051cd1a103c4","ios":"levelo://app?vid=0df0aee9-60eb-40de-987d-051cd1a103c4"},"vehicle_type_id":"4","last_reported":1731244360,"current_range_meters":8000,"station_id":"ce4bhh12rcd13ifvqff0","pricing_plan_id":"cebpf4jnsgd1na2vs0mg"},{"bike_id":"33cfdaf5-1149-4e00-a91b-cac110204c39","system_id":"levelo_inurba_marseille","lat":43.25502,"lon":5.37651,"is_reserved":false,"is_disabled":false,"rental_uris":{"android":"levelo://app?vid=33cfdaf5-1149-4e00-a91b-cac110204c39","ios":"levelo://app?vid=33cfdaf5-1149-4e00-a91b-cac110204c39"},"vehicle_type_id":"4","last_reported":1731244360,"current_range_meters":18000,"station_id":"ce4bhh12rcd13ifvqff0","pricing_plan_id":"cebpf4jnsgd1na2vs0mg"},{"bike_id":"4b72668e-c38b-4a2f-a70f-fdd3fa1c2b2b","system_id":"levelo_inurba_marseille","lat":43.29168,"lon":5.3716,"is_reserved":false,"is_disabled":false,"rental_uris":{"android":"levelo://app?vid=4b72668e-c38b-4a2f-a70f-fdd3fa1c2b2b","ios":"levelo://app?vid=4b72668e-c38b-4a2f-a70f-fdd3fa1c2b2b"},"vehicle_type_id":"4","last_reported":1731244360,"current_range_meters":38000,"station_id":"ce4bha92rcd13ifvqeh0","pricing_plan_id":"cebpf4jnsgd1na2vs0mg"},{"bike_id":"f9aeacdd-bf01-432f-bf4e-03e65cef4bbd","system_id":"levelo_inurba_marseille","lat":43.29554,"lon":5.42289,"is_reserved":false,"is_disabled":false,"rental_uris":{"android":"levelo://app?vid=f9aeacdd-bf01-432f-bf4e-03e65cef4bbd","ios":"levelo://app?vid=f9aeacdd-bf01-432f-bf4e-03e65cef4bbd"},"vehicle_type_id":"4","last_reported":1731244360,"current_range_meters":38800,"station_id":"ce4bhph2rcd13ifvqhdg","pricing_plan_id":"cebpf4jnsgd1na2vs0mg"},{"bike_id":"79971e53-eced-4c30-8901-0d97c8f514a7","system_id":"levelo_inurba_marseille","lat":43.31998,"lon":5.38159,"is_reserved":false,"is_disabled":false,"rental_uris":{"android":"levelo://app?vid=79971e53-eced-4c30-8901-0d97c8f514a7","ios":"levelo://app?vid=79971e53-eced-4c30-8901-0d97c8f514a7"},"vehicle_type_id":"4","last_reported":1731244360,"current_range_meters":38800,"station_id":"ce4bhr12rcd13ifvqhpg","pricing_plan_id":"cebpf4jnsgd1na2vs0mg"},{"bike_id":"b99b3e0c-e591-4458-8000-a4892716a4aa","system_id":"levelo_inurba_marseille","lat":43.25494,"lon":5.37653,"is_reserved":false,"is_disabled":false,"rental_uris":{"android":"levelo://app?vid=b99b3e0c-e591-4458-8000-a4892716a4aa","ios":"levelo://app?vid=b99b3e0c-e591-4458-8000-a4892716a4aa"},"vehicle_type_id":"4","last_reported":1731244360,"current_range_meters":18000,"station_id":"ce4bhh12rcd13ifvqff0","pricing_plan_id":"cebpf4jnsgd1na2vs0mg"},{"bike_id":"21b698aa-c273-467d-8ee8-9ca0763fcd67","system_id":"levelo_inurba_marseille","lat":43.30803,"lon":5.43525,"is_reserved":false,"is_disabled":false,"rental_uris":{"android":"levelo://app?vid=21b698aa-c273-467d-8ee8-9ca0763fcd67","ios":"levelo://app?vid=21b698aa-c273-467d-8ee8-9ca0763fcd67"},"vehicle_type_id":"4","last_reported":1731244360,"current_range_meters":34000,"station_id":"ce4bhph2rcd13ifvqheg","pricing_plan_id":"cebpf4jnsgd1na2vs0mg"},{"bike_id":"ece6c1ac-b0f6-41b1-a4ea-cdc77068020d","system_id":"levelo_inurba_marseille","lat":43.29009,"lon":5.35612,"is_reserved":false,"is_disabled":false,"rental_uris":{"android":"levelo://app?vid=ece6c1ac-b0f6-41b1-a4ea-cdc77068020d","ios":"levelo://app?vid=ece6c1ac-b0f6-41b1-a4ea-cdc77068020d"},"vehicle_type_id":"4","last_reported":1731244360,"current_range_meters":25600,"station_id":"ce4bhb92rcd13ifvqen0","pricing_plan_id":"cebpf4jnsgd1na2vs0mg"},{"bike_id":"0875a661-2661-4de0-abf5-1c8fad65de69","system_id":"levelo_inurba_marseille","lat":43.25816,"lon":5.3944,"is_reserved":false,"is_disabled":false,"rental_uris":{"android":"levelo://app?vid=0875a661-2661-4de0-abf5-1c8fad65de69","ios":"levelo://app?vid=0875a661-2661-4de0-abf5-1c8fad65de69"},"vehicle_type_id":"4","last_reported":1731244360,"current_range_meters":10000,"station_id":"ce4bhip2rcd13ifvqft0","pricing_plan_id":"cebpf4jnsgd1na2vs0mg"},{"bike_id":"da80bb4a-a7dd-4156-a8a9-a41fd37b3eb9","system_id":"levelo_inurba_marseille","lat":43.28267,"lon":5.35055,"is_reserved":false,"is_disabled":false,"rental_uris":{"android":"levelo://app?vid=da80bb4a-a7dd-4156-a8a9-a41fd37b3eb9","ios":"levelo://app?vid=da80bb4a-a7dd-4156-a8a9-a41fd37b3eb9"},"vehicle_type_id":"4","last_reported":1731244360,"current_range_meters":5600,"station_id":"ce4bha12rcd13ifvqee0","pricing_plan_id":"cebpf4jnsgd1na2vs0mg"},{"bike_id":"d35cf187-e5aa-4291-b675-bfe340d77196","system_id":"levelo_inurba_marseille","lat":43.232,"lon":5.35552,"is_reserved":false,"is_disabled":false,"rental_uris":{"android":"levelo://app?vid=d35cf187-e5aa-4291-b675-bfe340d77196","ios":"levelo://app?vid=d35cf187-e5aa-4291-b675-bfe340d77196"},"vehicle_type_id":"4","last_reported":1731244360,"current_range_meters":10000,"station_id":"ce4bhu92rcd13ifvqi70","pricing_plan_id":"cebpf4jnsgd1na2vs0mg"},{"bike_id":"3cd036b1-82b2-4728-9c4f-a57fb25f0cb6","system_id":"levelo_inurba_marseille","lat":43.24079,"lon":5.37754,"is_reserved":false,"is_disabled":false,"rental_uris":{"android":"levelo://app?vid=3cd036b1-82b2-4728-9c4f-a57fb25f0cb6","ios":"levelo://app?vid=3cd036b1-82b2-4728-9c4f-a57fb25f0cb6"},"vehicle_type_id":"4","last_reported":1731244360,"current_range_meters":28400,"station_id":"ce4bhnp2rcd13ifvqgvg","pricing_plan_id":"cebpf4jnsgd1na2vs0mg"},{"bike_id":"91159c09-9195-4483-a6be-99230f9de272","system_id":"levelo_inurba_marseille","lat":43.34151,"lon":5.40906,"is_reserved":false,"is_disabled":false,"rental_uris":{"android":"levelo://app?vid=91159c09-9195-4483-a6be-99230f9de272","ios":"levelo://app?vid=91159c09-9195-4483-a6be-99230f9de272"},"vehicle_type_id":"4","last_reported":1731244360,"current_range_meters":38400,"station_id":"ce4bhqh2rcd13ifvqhlg","pricing_plan_id":"cebpf4jnsgd1na2vs0mg"},{"bike_id":"cb73dff5-a4b4-48b5-bac7-00b9c28e9b2c","system_id":"levelo_inurba_marseille","lat":43.28449,"lon":5.38566,"is_reserved":false,"is_disabled":false,"rental_uris":{"android":"levelo://app?vid=cb73dff5-a4b4-48b5-bac7-00b9c28e9b2c","ios":"levelo://app?vid=cb73dff5-a4b4-48b5-bac7-00b9c28e9b2c"},"vehicle_type_id":"4","last_reported":1731244360,"current_range_meters":10800,"station_id":"ce4bh8p2rcd13ifvqeb0","pricing_plan_id":"cebpf4jnsgd1na2vs0mg"},{"bike_id":"6b0d607d-0185-4002-a754-0afbf84879cd","system_id":"levelo_inurba_marseille","lat":43.28262,"lon":5.35074,"is_reserved":false,"is_disabled":false,"rental_uris":{"android":"levelo://app?vid=6b0d607d-0185-4002-a754-0afbf84879cd","ios":"levelo://app?vid=6b0d607d-0185-4002-a754-0afbf84879cd"},"vehicle_type_id":"4","last_reported":1731244360,"current_range_meters":32000,"station_id":"ce4bhbp2rcd13ifvqerg","pricing_plan_id":"cebpf4jnsgd1na2vs0mg"},{"bike_id":"6c68e9db-4784-439f-b33c-45a552b97ff7","system_id":"levelo_inurba_marseille","lat":43.2408,"lon":5.37758,"is_reserved":false,"is_disabled":false,"rental_uris":{"android":"levelo://app?vid=6c68e9db-4784-439f-b33c-45a552b97ff7","ios":"levelo://app?vid=6c68e9db-4784-439f-b33c-45a552b97ff7"},"vehicle_type_id":"4","last_reported":1731244360,"current_range_meters":7200,"station_id":"ce4bhnp2rcd13ifvqgvg","pricing_plan_id":"cebpf4jnsgd1na2vs0mg"},{"bike_id":"7c346e59-378c-4be3-bf66-9618fe8a9e2b","system_id":"levelo_inurba_marseille","lat":43.27071,"lon":5.42282,"is_reserved":false,"is_disabled":false,"rental_uris":{"android":"levelo://app?vid=7c346e59-378c-4be3-bf66-9618fe8a9e2b","ios":"levelo://app?vid=7c346e59-378c-4be3-bf66-9618fe8a9e2b"},"vehicle_type_id":"4","last_reported":1731244360,"current_range_meters":14800,"station_id":"ce4bhk92rcd13ifvqgb0","pricing_plan_id":"cebpf4jnsgd1na2vs0mg"},{"bike_id":"55700614-4820-43a5-871e-d1005d570930","system_id":"levelo_inurba_marseille","lat":43.24076,"lon":5.37748,"is_reserved":false,"is_disabled":false,"rental_uris":{"android":"levelo://app?vid=55700614-4820-43a5-871e-d1005d570930","ios":"levelo://app?vid=55700614-4820-43a5-871e-d1005d570930"},"vehicle_type_id":"4","last_reported":1731244360,"current_range_meters":39200,"station_id":"ce4bhnp2rcd13ifvqgvg","pricing_plan_id":"cebpf4jnsgd1na2vs0mg"},{"bike_id":"5b2e1757-142d-4b8e-83de-1ffd730c42be","system_id":"levelo_inurba_marseille","lat":43.28264,"lon":5.35069,"is_reserved":false,"is_disabled":false,"rental_uris":{"android":"levelo://app?vid=5b2e1757-142d-4b8e-83de-1ffd730c42be","ios":"levelo://app?vid=5b2e1757-142d-4b8e-83de-1ffd730c42be"},"vehicle_type_id":"4","last_reported":1731244360,"current_range_meters":30000,"station_id":"ce4bhbp2rcd13ifvqerg","pricing_plan_id":"cebpf4jnsgd1na2vs0mg"},{"bike_id":"0a64ed50-8cfc-463a-acb6-61f6f9203091","system_id":"levelo_inurba_marseille","lat":43.29897,"lon":5.43666,"is_reserved":false,"is_disabled":false,"rental_uris":{"android":"levelo://app?vid=0a64ed50-8cfc-463a-acb6-61f6f9203091","ios":"levelo://app?vid=0a64ed50-8cfc-463a-acb6-61f6f9203091"},"vehicle_type_id":"4","last_reported":1731244360,"current_range_meters":38800,"station_id":"ce4bhpp2rcd13ifvqhfg","pricing_plan_id":"cebpf4jnsgd1na2vs0mg"},{"bike_id":"96aef8c1-f007-442e-b872-036e6f6c58ad","system_id":"levelo_inurba_marseille","lat":43.31757,"lon":5.3902,"is_reserved":false,"is_disabled":false,"rental_uris":{"android":"levelo://app?vid=96aef8c1-f007-442e-b872-036e6f6c58ad","ios":"levelo://app?vid=96aef8c1-f007-442e-b872-036e6f6c58ad"},"vehicle_type_id":"4","last_reported":1731244360,"current_range_meters":38800,"station_id":"ce4bhqp2rcd13ifvqhng","pricing_plan_id":"cebpf4jnsgd1na2vs0mg"},{"bike_id":"14a3f804-fec0-41a4-8cfa-f421996dae9e","system_id":"levelo_inurba_marseille","lat":43.273163,"lon":5.390757,"is_reserved":false,"is_disabled":false,"rental_uris":{"android":"levelo://app?vid=14a3f804-fec0-41a4-8cfa-f421996dae9e","ios":"levelo://app?vid=14a3f804-fec0-41a4-8cfa-f421996dae9e"},"vehicle_type_id":"4","last_reported":1731244360,"current_range_meters":16400,"station_id":"ce4bhgp2rcd13ifvqfe0","pricing_plan_id":"cebpf4jnsgd1na2vs0mg"},{"bike_id":"134ce1ce-579d-4d82-bde6-b146c0c11c11","system_id":"levelo_inurba_marseille","lat":43.29895,"lon":5.43677,"is_reserved":false,"is_disabled":false,"rental_uris":{"android":"levelo://app?vid=134ce1ce-579d-4d82-bde6-b146c0c11c11","ios":"levelo://app?vid=134ce1ce-579d-4d82-bde6-b146c0c11c11"},"vehicle_type_id":"4","last_reported":1731244360,"current_range_meters":36800,"station_id":"ce4bhpp2rcd13ifvqhfg","pricing_plan_id":"cebpf4jnsgd1na2vs0mg"},{"bike_id":"3ccbd1e7-530f-410d-9379-a956116f0b7e","system_id":"levelo_inurba_marseille","lat":43.26057,"lon":5.39402,"is_reserved":false,"is_disabled":false,"rental_uris":{"android":"levelo://app?vid=3ccbd1e7-530f-410d-9379-a956116f0b7e","ios":"levelo://app?vid=3ccbd1e7-530f-410d-9379-a956116f0b7e"},"vehicle_type_id":"4","last_reported":1731244360,"current_range_meters":36000,"station_id":"ce4bhh92rcd13ifvqfj0","pricing_plan_id":"cebpf4jnsgd1na2vs0mg"},{"bike_id":"80f00989-b8e8-40a6-a6e2-883c115e45b3","system_id":"levelo_inurba_marseille","lat":43.27996,"lon":5.4002,"is_reserved":false,"is_disabled":false,"rental_uris":{"android":"levelo://app?vid=80f00989-b8e8-40a6-a6e2-883c115e45b3","ios":"levelo://app?vid=80f00989-b8e8-40a6-a6e2-883c115e45b3"},"vehicle_type_id":"4","last_reported":1731244360,"current_range_meters":13600,"station_id":"ce4bho92rcd13ifvqh4g","pricing_plan_id":"cebpf4jnsgd1na2vs0mg"},{"bike_id":"181fa628-fd06-4339-88f4-5d411c857699","system_id":"levelo_inurba_marseille","lat":43.27074,"lon":5.42282,"is_reserved":false,"is_disabled":false,"rental_uris":{"android":"levelo://app?vid=181fa628-fd06-4339-88f4-5d411c857699","ios":"levelo://app?vid=181fa628-fd06-4339-88f4-5d411c857699"},"vehicle_type_id":"4","last_reported":1731244360,"current_range_meters":8800,"station_id":"ce4bhk92rcd13ifvqgb0","pricing_plan_id":"cebpf4jnsgd1na2vs0mg"},{"bike_id":"a49b5c62-4f4f-460b-89e2-d814335a19f8","system_id":"levelo_inurba_marseille","lat":43.28617,"lon":5.35109,"is_reserved":false,"is_disabled":false,"rental_uris":{"android":"levelo://app?vid=a49b5c62-4f4f-460b-89e2-d814335a19f8","ios":"levelo://app?vid=a49b5c62-4f4f-460b-89e2-d814335a19f8"},"vehicle_type_id":"4","last_reported":1731244360,"current_range_meters":28800,"station_id":"ce4bhch2rcd13ifvqeug","pricing_plan_id":"cebpf4jnsgd1na2vs0mg"},{"bike_id":"64f1e304-55fc-4bb7-bb27-4faaf7cf65c1","system_id":"levelo_inurba_marseille","lat":43.27545,"lon":5.40914,"is_reserved":false,"is_disabled":false,"rental_uris":{"android":"levelo://app?vid=64f1e304-55fc-4bb7-bb27-4faaf7cf65c1","ios":"levelo://app?vid=64f1e304-55fc-4bb7-bb27-4faaf7cf65c1"},"vehicle_type_id":"4","last_reported":1731244360,"current_range_meters":6800,"station_id":"","pricing_plan_id":"cebpf4jnsgd1na2vs0mg"},{"bike_id":"9a5eb101-92a2-4eeb-93bd-8d070d90c1ea","system_id":"levelo_inurba_marseille","lat":43.30433,"lon":5.42528,"is_reserved":false,"is_disabled":false,"rental_uris":{"android":"levelo://app?vid=9a5eb101-92a2-4eeb-93bd-8d070d90c1ea","ios":"levelo://app?vid=9a5eb101-92a2-4eeb-93bd-8d070d90c1ea"},"vehicle_type_id":"4","last_reported":1731244360,"current_range_meters":11600,"station_id":"","pricing_plan_id":"cebpf4jnsgd1na2vs0mg"},{"bike_id":"86bd0aff-d74d-4268-a746-b0b7b9f0a83a","system_id":"levelo_inurba_marseille","lat":43.32654,"lon":5.40997,"is_reserved":false,"is_disabled":false,"rental_uris":{"android":"levelo://app?vid=86bd0aff-d74d-4268-a746-b0b7b9f0a83a","ios":"levelo://app?vid=86bd0aff-d74d-4268-a746-b0b7b9f0a83a"},"vehicle_type_id":"4","last_reported":1731244360,"current_range_meters":5600,"station_id":"ce4bhpp2rcd13ifvqhgg","pricing_plan_id":"cebpf4jnsgd1na2vs0mg"},{"bike_id":"e60eeb79-6c56-40c4-9bf2-a4525cd219f5","system_id":"levelo_inurba_marseille","lat":43.267822,"lon":5.394141,"is_reserved":false,"is_disabled":false,"rental_uris":{"android":"levelo://app?vid=e60eeb79-6c56-40c4-9bf2-a4525cd219f5","ios":"levelo://app?vid=e60eeb79-6c56-40c4-9bf2-a4525cd219f5"},"vehicle_type_id":"4","last_reported":1731244360,"current_range_meters":9200,"station_id":"ce4bhh12rcd13ifvqfg0","pricing_plan_id":"cebpf4jnsgd1na2vs0mg"},{"bike_id":"27e15419-d9b0-4647-890e-e21a7149b1cd","system_id":"levelo_inurba_marseille","lat":43.27067,"lon":5.42275,"is_reserved":false,"is_disabled":false,"rental_uris":{"android":"levelo://app?vid=27e15419-d9b0-4647-890e-e21a7149b1cd","ios":"levelo://app?vid=27e15419-d9b0-4647-890e-e21a7149b1cd"},"vehicle_type_id":"4","last_reported":1731244360,"current_range_meters":7200,"station_id":"ce4bhk92rcd13ifvqgb0","pricing_plan_id":"cebpf4jnsgd1na2vs0mg"},{"bike_id":"be66bdb0-f383-45ac-9b19-ef26788342e6","system_id":"levelo_inurba_marseille","lat":43.28721,"lon":5.36078,"is_reserved":false,"is_disabled":false,"rental_uris":{"android":"levelo://app?vid=be66bdb0-f383-45ac-9b19-ef26788342e6","ios":"levelo://app?vid=be66bdb0-f383-45ac-9b19-ef26788342e6"},"vehicle_type_id":"4","last_reported":1731244360,"current_range_meters":37600,"station_id":"cki0cbj6b192h4jlfktg","pricing_plan_id":"cebpf4jnsgd1na2vs0mg"},{"bike_id":"91a598a9-4284-4e88-ab7f-5e3a7e64ed8d","system_id":"levelo_inurba_marseille","lat":43.25486,"lon":5.37648,"is_reserved":false,"is_disabled":false,"rental_uris":{"android":"levelo://app?vid=91a598a9-4284-4e88-ab7f-5e3a7e64ed8d","ios":"levelo://app?vid=91a598a9-4284-4e88-ab7f-5e3a7e64ed8d"},"vehicle_type_id":"4","last_reported":1731244360,"current_range_meters":6800,"station_id":"ce4bhh12rcd13ifvqff0","pricing_plan_id":"cebpf4jnsgd1na2vs0mg"},{"bike_id":"0d93b31b-854a-4c31-b287-70df5cbe7d07","system_id":"levelo_inurba_marseille","lat":43.24083,"lon":5.37741,"is_reserved":false,"is_disabled":false,"rental_uris":{"android":"levelo://app?vid=0d93b31b-854a-4c31-b287-70df5cbe7d07","ios":"levelo://app?vid=0d93b31b-854a-4c31-b287-70df5cbe7d07"},"vehicle_type_id":"4","last_reported":1731244360,"current_range_meters":10800,"station_id":"ce4bhnp2rcd13ifvqgvg","pricing_plan_id":"cebpf4jnsgd1na2vs0mg"},{"bike_id":"88064f05-2264-4852-b057-30e37fdabce1","system_id":"levelo_inurba_marseille","lat":43.2306,"lon":5.35493,"is_reserved":false,"is_disabled":false,"rental_uris":{"android":"levelo://app?vid=88064f05-2264-4852-b057-30e37fdabce1","ios":"levelo://app?vid=88064f05-2264-4852-b057-30e37fdabce1"},"vehicle_type_id":"4","last_reported":1731244360,"current_range_meters":38800,"station_id":"cpo3342slgdg3j2ifvpg","pricing_plan_id":"cebpf4jnsgd1na2vs0mg"},{"bike_id":"0e83ce01-6760-4f0a-b2cd-0dccbba565b3","system_id":"levelo_inurba_marseille","lat":43.28423,"lon":5.34987,"is_reserved":false,"is_disabled":false,"rental_uris":{"android":"levelo://app?vid=0e83ce01-6760-4f0a-b2cd-0dccbba565b3","ios":"levelo://app?vid=0e83ce01-6760-4f0a-b2cd-0dccbba565b3"},"vehicle_type_id":"4","last_reported":1731244360,"current_range_meters":18800,"station_id":"ce4bhbh2rcd13ifvqepg","pricing_plan_id":"cebpf4jnsgd1na2vs0mg"},{"bike_id":"4fb6af20-dec9-436c-9f32-24edbd37e126","system_id":"levelo_inurba_marseille","lat":43.28423,"lon":5.35007,"is_reserved":false,"is_disabled":false,"rental_uris":{"android":"levelo://app?vid=4fb6af20-dec9-436c-9f32-24edbd37e126","ios":"levelo://app?vid=4fb6af20-dec9-436c-9f32-24edbd37e126"},"vehicle_type_id":"4","last_reported":1731244360,"current_range_meters":14400,"station_id":"ce4bhbh2rcd13ifvqepg","pricing_plan_id":"cebpf4jnsgd1na2vs0mg"},{"bike_id":"c6ae65bf-8d5e-4ea9-a3a9-adc79d0ebafe","system_id":"levelo_inurba_marseille","lat":43.24392,"lon":5.37057,"is_reserved":false,"is_disabled":false,"rental_uris":{"android":"levelo://app?vid=c6ae65bf-8d5e-4ea9-a3a9-adc79d0ebafe","ios":"levelo://app?vid=c6ae65bf-8d5e-4ea9-a3a9-adc79d0ebafe"},"vehicle_type_id":"4","last_reported":1731244360,"current_range_meters":23200,"station_id":"ce4bhhh2rcd13ifvqfk0","pricing_plan_id":"cebpf4jnsgd1na2vs0mg"},{"bike_id":"1b641421-2e55-46f2-aa52-a5bd61345632","system_id":"levelo_inurba_marseille","lat":43.24168,"lon":5.36392,"is_reserved":false,"is_disabled":false,"rental_uris":{"android":"levelo://app?vid=1b641421-2e55-46f2-aa52-a5bd61345632","ios":"levelo://app?vid=1b641421-2e55-46f2-aa52-a5bd61345632"},"vehicle_type_id":"4","last_reported":1731244360,"current_range_meters":11200,"station_id":"cpo36qri1sfpv3e86is0","pricing_plan_id":"cebpf4jnsgd1na2vs0mg"},{"bike_id":"bd107d40-34a8-40f9-8610-97fdcd404745","system_id":"levelo_inurba_marseille","lat":43.25496,"lon":5.37655,"is_reserved":false,"is_disabled":false,"rental_uris":{"android":"levelo://app?vid=bd107d40-34a8-40f9-8610-97fdcd404745","ios":"levelo://app?vid=bd107d40-34a8-40f9-8610-97fdcd404745"},"vehicle_type_id":"4","last_reported":1731244360,"current_range_meters":38000,"station_id":"ce4bhh12rcd13ifvqff0","pricing_plan_id":"cebpf4jnsgd1na2vs0mg"},{"bike_id":"c17e5f54-84b8-422f-baea-3ec5c495f506","system_id":"levelo_inurba_marseille","lat":43.28934,"lon":5.36637,"is_reserved":false,"is_disabled":false,"rental_uris":{"android":"levelo://app?vid=c17e5f54-84b8-422f-baea-3ec5c495f506","ios":"levelo://app?vid=c17e5f54-84b8-422f-baea-3ec5c495f506"},"vehicle_type_id":"4","last_reported":1731244360,"current_range_meters":10000,"station_id":"ce4bhap2rcd13ifvqek0","pricing_plan_id":"cebpf4jnsgd1na2vs0mg"},{"bike_id":"f3295896-d0d5-4a97-af5d-b8272b913b95","system_id":"levelo_inurba_marseille","lat":43.28665,"lon":5.36346,"is_reserved":false,"is_disabled":false,"rental_uris":{"android":"levelo://app?vid=f3295896-d0d5-4a97-af5d-b8272b913b95","ios":"levelo://app?vid=f3295896-d0d5-4a97-af5d-b8272b913b95"},"vehicle_type_id":"4","last_reported":1731244360,"current_range_meters":19600,"station_id":"ce4bhah2rcd13ifvqej0","pricing_plan_id":"cebpf4jnsgd1na2vs0mg"},{"bike_id":"07704a86-dbed-425a-854d-11b1a4e3d84c","system_id":"levelo_inurba_marseille","lat":43.33755,"lon":5.37446,"is_reserved":false,"is_disabled":false,"rental_uris":{"android":"levelo://app?vid=07704a86-dbed-425a-854d-11b1a4e3d84c","ios":"levelo://app?vid=07704a86-dbed-425a-854d-11b1a4e3d84c"},"vehicle_type_id":"4","last_reported":1731244360,"current_range_meters":30400,"station_id":"","pricing_plan_id":"cebpf4jnsgd1na2vs0mg"},{"bike_id":"18530863-410a-4e71-b819-82da4d9643e7","system_id":"levelo_inurba_marseille","lat":43.29028,"lon":5.38638,"is_reserved":false,"is_disabled":false,"rental_uris":{"android":"levelo://app?vid=18530863-410a-4e71-b819-82da4d9643e7","ios":"levelo://app?vid=18530863-410a-4e71-b819-82da4d9643e7"},"vehicle_type_id":"4","last_reported":1731244360,"current_range_meters":29600,"station_id":"ce4bh4p2rcd13ifvqe0g","pricing_plan_id":"cebpf4jnsgd1na2vs0mg"},{"bike_id":"0b74ce83-e6b1-4485-8ca6-3897f29a426e","system_id":"levelo_inurba_marseille","lat":43.23957,"lon":5.36625,"is_reserved":false,"is_disabled":false,"rental_uris":{"android":"levelo://app?vid=0b74ce83-e6b1-4485-8ca6-3897f29a426e","ios":"levelo://app?vid=0b74ce83-e6b1-4485-8ca6-3897f29a426e"},"vehicle_type_id":"4","last_reported":1731244360,"current_range_meters":8800,"station_id":"ce4bhi12rcd13ifvqfp0","pricing_plan_id":"cebpf4jnsgd1na2vs0mg"},{"bike_id":"e740b1f1-3e44-47fc-852f-327d109d7b35","system_id":"levelo_inurba_marseille","lat":43.27996,"lon":5.41666,"is_reserved":false,"is_disabled":false,"rental_uris":{"android":"levelo://app?vid=e740b1f1-3e44-47fc-852f-327d109d7b35","ios":"levelo://app?vid=e740b1f1-3e44-47fc-852f-327d109d7b35"},"vehicle_type_id":"4","last_reported":1731244360,"current_range_meters":24400,"station_id":"ce4bho12rcd13ifvqh1g","pricing_plan_id":"cebpf4jnsgd1na2vs0mg"},{"bike_id":"061a491d-3753-4b5e-97aa-5e0b7f236f05","system_id":"levelo_inurba_marseille","lat":43.24391,"lon":5.37069,"is_reserved":false,"is_disabled":false,"rental_uris":{"android":"levelo://app?vid=061a491d-3753-4b5e-97aa-5e0b7f236f05","ios":"levelo://app?vid=061a491d-3753-4b5e-97aa-5e0b7f236f05"},"vehicle_type_id":"4","last_reported":1731244360,"current_range_meters":36800,"station_id":"ce4bhhh2rcd13ifvqfk0","pricing_plan_id":"cebpf4jnsgd1na2vs0mg"},{"bike_id":"6c667f5f-b7e9-4c69-8c31-28fbbcdde478","system_id":"levelo_inurba_marseille","lat":43.23189,"lon":5.35564,"is_reserved":false,"is_disabled":false,"rental_uris":{"android":"levelo://app?vid=6c667f5f-b7e9-4c69-8c31-28fbbcdde478","ios":"levelo://app?vid=6c667f5f-b7e9-4c69-8c31-28fbbcdde478"},"vehicle_type_id":"4","last_reported":1731244360,"current_range_meters":8400,"station_id":"ce4bhu92rcd13ifvqi70","pricing_plan_id":"cebpf4jnsgd1na2vs0mg"},{"bike_id":"dd5c66da-66e0-4aaf-b059-d981779d6dd8","system_id":"levelo_inurba_marseille","lat":43.22933,"lon":5.35378,"is_reserved":false,"is_disabled":false,"rental_uris":{"android":"levelo://app?vid=dd5c66da-66e0-4aaf-b059-d981779d6dd8","ios":"levelo://app?vid=dd5c66da-66e0-4aaf-b059-d981779d6dd8"},"vehicle_type_id":"4","last_reported":1731244360,"current_range_meters":17600,"station_id":"cpo3532slgdg3j2ikp40","pricing_plan_id":"cebpf4jnsgd1na2vs0mg"},{"bike_id":"1bc42c89-6add-4f12-91a8-df4a8034b2db","system_id":"levelo_inurba_marseille","lat":43.23064,"lon":5.35491,"is_reserved":false,"is_disabled":false,"rental_uris":{"android":"levelo://app?vid=1bc42c89-6add-4f12-91a8-df4a8034b2db","ios":"levelo://app?vid=1bc42c89-6add-4f12-91a8-df4a8034b2db"},"vehicle_type_id":"4","last_reported":1731244360,"current_range_meters":7200,"station_id":"cpo3342slgdg3j2ifvpg","pricing_plan_id":"cebpf4jnsgd1na2vs0mg"},{"bike_id":"0645cdf7-43ab-4151-872b-ff6801b531f9","system_id":"levelo_inurba_marseille","lat":43.34137,"lon":5.40911,"is_reserved":false,"is_disabled":false,"rental_uris":{"android":"levelo://app?vid=0645cdf7-43ab-4151-872b-ff6801b531f9","ios":"levelo://app?vid=0645cdf7-43ab-4151-872b-ff6801b531f9"},"vehicle_type_id":"4","last_reported":1731244360,"current_range_meters":38000,"station_id":"ce4bhqh2rcd13ifvqhlg","pricing_plan_id":"cebpf4jnsgd1na2vs0mg"},{"bike_id":"83c894fe-14ff-4c71-8685-9717a74922f0","system_id":"levelo_inurba_marseille","lat":43.23065,"lon":5.355,"is_reserved":false,"is_disabled":false,"rental_uris":{"android":"levelo://app?vid=83c894fe-14ff-4c71-8685-9717a74922f0","ios":"levelo://app?vid=83c894fe-14ff-4c71-8685-9717a74922f0"},"vehicle_type_id":"4","last_reported":1731244360,"current_range_meters":32400,"station_id":"cpo3342slgdg3j2ifvpg","pricing_plan_id":"cebpf4jnsgd1na2vs0mg"},{"bike_id":"eecb002f-ad23-4ea0-b2e0-33b3a1f5891d","system_id":"levelo_inurba_marseille","lat":43.29222,"lon":5.36061,"is_reserved":false,"is_disabled":false,"rental_uris":{"android":"levelo://app?vid=eecb002f-ad23-4ea0-b2e0-33b3a1f5891d","ios":"levelo://app?vid=eecb002f-ad23-4ea0-b2e0-33b3a1f5891d"},"vehicle_type_id":"4","last_reported":1731244360,"current_range_meters":24800,"station_id":"ce4bhbh2rcd13ifvqeqg","pricing_plan_id":"cebpf4jnsgd1na2vs0mg"},{"bike_id":"36c5ff9c-46cc-4c47-bdd2-03ca7a0be1ae","system_id":"levelo_inurba_marseille","lat":43.23965,"lon":5.3663,"is_reserved":false,"is_disabled":false,"rental_uris":{"android":"levelo://app?vid=36c5ff9c-46cc-4c47-bdd2-03ca7a0be1ae","ios":"levelo://app?vid=36c5ff9c-46cc-4c47-bdd2-03ca7a0be1ae"},"vehicle_type_id":"4","last_reported":1731244360,"current_range_meters":29600,"station_id":"ce4bhi12rcd13ifvqfp0","pricing_plan_id":"cebpf4jnsgd1na2vs0mg"},{"bike_id":"baac3be3-010c-4ab7-b814-2af962c842f8","system_id":"levelo_inurba_marseille","lat":43.28361,"lon":5.37523,"is_reserved":false,"is_disabled":false,"rental_uris":{"android":"levelo://app?vid=baac3be3-010c-4ab7-b814-2af962c842f8","ios":"levelo://app?vid=baac3be3-010c-4ab7-b814-2af962c842f8"},"vehicle_type_id":"4","last_reported":1731244360,"current_range_meters":26800,"station_id":"ce4bh412rcd13ifvqds0","pricing_plan_id":"cebpf4jnsgd1na2vs0mg"},{"bike_id":"5c77d099-c36f-4233-ac10-77882e5aac53","system_id":"levelo_inurba_marseille","lat":43.2926,"lon":5.40909,"is_reserved":false,"is_disabled":false,"rental_uris":{"android":"levelo://app?vid=5c77d099-c36f-4233-ac10-77882e5aac53","ios":"levelo://app?vid=5c77d099-c36f-4233-ac10-77882e5aac53"},"vehicle_type_id":"4","last_reported":1731244360,"current_range_meters":33200,"station_id":"ce4bh192rcd13ifvqdc0","pricing_plan_id":"cebpf4jnsgd1na2vs0mg"},{"bike_id":"d17d14b6-bd39-4f6f-860c-b6baae4afc33","system_id":"levelo_inurba_marseille","lat":43.2606,"lon":5.39396,"is_reserved":false,"is_disabled":false,"rental_uris":{"android":"levelo://app?vid=d17d14b6-bd39-4f6f-860c-b6baae4afc33","ios":"levelo://app?vid=d17d14b6-bd39-4f6f-860c-b6baae4afc33"},"vehicle_type_id":"4","last_reported":1731244360,"current_range_meters":14400,"station_id":"ce4bhh92rcd13ifvqfj0","pricing_plan_id":"cebpf4jnsgd1na2vs0mg"},{"bike_id":"190788a4-ed95-4db8-8e98-51990b51dcf0","system_id":"levelo_inurba_marseille","lat":43.25499,"lon":5.37653,"is_reserved":false,"is_disabled":false,"rental_uris":{"android":"levelo://app?vid=190788a4-ed95-4db8-8e98-51990b51dcf0","ios":"levelo://app?vid=190788a4-ed95-4db8-8e98-51990b51dcf0"},"vehicle_type_id":"4","last_reported":1731244360,"current_range_meters":38800,"station_id":"ce4bhh12rcd13ifvqff0","pricing_plan_id":"cebpf4jnsgd1na2vs0mg"},{"bike_id":"11ac6ec8-27ad-46fb-8ebd-29892c774b1f","system_id":"levelo_inurba_marseille","lat":43.27492,"lon":5.42453,"is_reserved":false,"is_disabled":false,"rental_uris":{"android":"levelo://app?vid=11ac6ec8-27ad-46fb-8ebd-29892c774b1f","ios":"levelo://app?vid=11ac6ec8-27ad-46fb-8ebd-29892c774b1f"},"vehicle_type_id":"4","last_reported":1731244360,"current_range_meters":3600,"station_id":"ce4bhn92rcd13ifvqgrg","pricing_plan_id":"cebpf4jnsgd1na2vs0mg"},{"bike_id":"b2a03e11-44f6-4667-a661-533cd9347402","system_id":"levelo_inurba_marseille","lat":43.274292,"lon":5.394139,"is_reserved":false,"is_disabled":false,"rental_uris":{"android":"levelo://app?vid=b2a03e11-44f6-4667-a661-533cd9347402","ios":"levelo://app?vid=b2a03e11-44f6-4667-a661-533cd9347402"},"vehicle_type_id":"4","last_reported":1731244360,"current_range_meters":15200,"station_id":"ce4bhdp2rcd13ifvqf20","pricing_plan_id":"cebpf4jnsgd1na2vs0mg"},{"bike_id":"f2d9c873-62e7-462b-984d-4e82d765f23f","system_id":"levelo_inurba_marseille","lat":43.24546,"lon":5.39524,"is_reserved":false,"is_disabled":false,"rental_uris":{"android":"levelo://app?vid=f2d9c873-62e7-462b-984d-4e82d765f23f","ios":"levelo://app?vid=f2d9c873-62e7-462b-984d-4e82d765f23f"},"vehicle_type_id":"4","last_reported":1731244360,"current_range_meters":34000,"station_id":"ce4bhlp2rcd13ifvqgjg","pricing_plan_id":"cebpf4jnsgd1na2vs0mg"},{"bike_id":"74978fdb-6ca2-4d8b-9174-9b622ddf0e88","system_id":"levelo_inurba_marseille","lat":43.22879,"lon":5.36504,"is_reserved":false,"is_disabled":false,"rental_uris":{"android":"levelo://app?vid=74978fdb-6ca2-4d8b-9174-9b622ddf0e88","ios":"levelo://app?vid=74978fdb-6ca2-4d8b-9174-9b622ddf0e88"},"vehicle_type_id":"4","last_reported":1731244360,"current_range_meters":37600,"station_id":"","pricing_plan_id":"cebpf4jnsgd1na2vs0mg"},{"bike_id":"6fabbb8c-a56d-4a53-9f01-1bc3642318a0","system_id":"levelo_inurba_marseille","lat":43.23959,"lon":5.36633,"is_reserved":false,"is_disabled":false,"rental_uris":{"android":"levelo://app?vid=6fabbb8c-a56d-4a53-9f01-1bc3642318a0","ios":"levelo://app?vid=6fabbb8c-a56d-4a53-9f01-1bc3642318a0"},"vehicle_type_id":"4","last_reported":1731244360,"current_range_meters":16000,"station_id":"ce4bhi12rcd13ifvqfp0","pricing_plan_id":"cebpf4jnsgd1na2vs0mg"},{"bike_id":"b4eb30bc-dd09-4cbf-8ece-3b8ada662aaf","system_id":"levelo_inurba_marseille","lat":43.25008,"lon":5.3891,"is_reserved":false,"is_disabled":false,"rental_uris":{"android":"levelo://app?vid=b4eb30bc-dd09-4cbf-8ece-3b8ada662aaf","ios":"levelo://app?vid=b4eb30bc-dd09-4cbf-8ece-3b8ada662aaf"},"vehicle_type_id":"4","last_reported":1731244360,"current_range_meters":13600,"station_id":"ce4bhgp2rcd13ifvqfd0","pricing_plan_id":"cebpf4jnsgd1na2vs0mg"},{"bike_id":"5352e423-21a5-4583-9798-f11e7302218b","system_id":"levelo_inurba_marseille","lat":43.28937,"lon":5.39642,"is_reserved":false,"is_disabled":false,"rental_uris":{"android":"levelo://app?vid=5352e423-21a5-4583-9798-f11e7302218b","ios":"levelo://app?vid=5352e423-21a5-4583-9798-f11e7302218b"},"vehicle_type_id":"4","last_reported":1731244360,"current_range_meters":38000,"station_id":"ce4bh3h2rcd13ifvqdn0","pricing_plan_id":"cebpf4jnsgd1na2vs0mg"},{"bike_id":"35c9866e-9095-49c5-ba06-72a672a0ce24","system_id":"levelo_inurba_marseille","lat":43.22932,"lon":5.35373,"is_reserved":false,"is_disabled":false,"rental_uris":{"android":"levelo://app?vid=35c9866e-9095-49c5-ba06-72a672a0ce24","ios":"levelo://app?vid=35c9866e-9095-49c5-ba06-72a672a0ce24"},"vehicle_type_id":"4","last_reported":1731244360,"current_range_meters":24400,"station_id":"cpo3532slgdg3j2ikp40","pricing_plan_id":"cebpf4jnsgd1na2vs0mg"},{"bike_id":"c931e854-f671-4eae-be17-c754dc3c9917","system_id":"levelo_inurba_marseille","lat":43.29559,"lon":5.42288,"is_reserved":false,"is_disabled":false,"rental_uris":{"android":"levelo://app?vid=c931e854-f671-4eae-be17-c754dc3c9917","ios":"levelo://app?vid=c931e854-f671-4eae-be17-c754dc3c9917"},"vehicle_type_id":"4","last_reported":1731244360,"current_range_meters":8400,"station_id":"ce4bhph2rcd13ifvqhdg","pricing_plan_id":"cebpf4jnsgd1na2vs0mg"},{"bike_id":"110cf750-d933-48ee-868c-94a0d2c3f544","system_id":"levelo_inurba_marseille","lat":43.22932,"lon":5.35377,"is_reserved":false,"is_disabled":false,"rental_uris":{"android":"levelo://app?vid=110cf750-d933-48ee-868c-94a0d2c3f544","ios":"levelo://app?vid=110cf750-d933-48ee-868c-94a0d2c3f544"},"vehicle_type_id":"4","last_reported":1731244360,"current_range_meters":40000,"station_id":"cpo3532slgdg3j2ikp40","pricing_plan_id":"cebpf4jnsgd1na2vs0mg"},{"bike_id":"f9536705-6469-40fe-8b90-ba5d77388fb4","system_id":"levelo_inurba_marseille","lat":43.25492,"lon":5.37656,"is_reserved":false,"is_disabled":false,"rental_uris":{"android":"levelo://app?vid=f9536705-6469-40fe-8b90-ba5d77388fb4","ios":"levelo://app?vid=f9536705-6469-40fe-8b90-ba5d77388fb4"},"vehicle_type_id":"4","last_reported":1731244360,"current_range_meters":19600,"station_id":"ce4bhh12rcd13ifvqff0","pricing_plan_id":"cebpf4jnsgd1na2vs0mg"},{"bike_id":"adad61fd-1b61-454d-b025-839895875edc","system_id":"levelo_inurba_marseille","lat":43.29894,"lon":5.43672,"is_reserved":false,"is_disabled":false,"rental_uris":{"android":"levelo://app?vid=adad61fd-1b61-454d-b025-839895875edc","ios":"levelo://app?vid=adad61fd-1b61-454d-b025-839895875edc"},"vehicle_type_id":"4","last_reported":1731244360,"current_range_meters":14400,"station_id":"ce4bhpp2rcd13ifvqhfg","pricing_plan_id":"cebpf4jnsgd1na2vs0mg"},{"bike_id":"30a8226d-5154-470d-b6cf-cdf7983716c6","system_id":"levelo_inurba_marseille","lat":43.34141,"lon":5.40902,"is_reserved":false,"is_disabled":false,"rental_uris":{"android":"levelo://app?vid=30a8226d-5154-470d-b6cf-cdf7983716c6","ios":"levelo://app?vid=30a8226d-5154-470d-b6cf-cdf7983716c6"},"vehicle_type_id":"4","last_reported":1731244360,"current_range_meters":32400,"station_id":"ce4bhqh2rcd13ifvqhlg","pricing_plan_id":"cebpf4jnsgd1na2vs0mg"},{"bike_id":"34b046ac-5776-4eae-ad1d-7287cb7dcbe9","system_id":"levelo_inurba_marseille","lat":43.23961,"lon":5.36629,"is_reserved":false,"is_disabled":false,"rental_uris":{"android":"levelo://app?vid=34b046ac-5776-4eae-ad1d-7287cb7dcbe9","ios":"levelo://app?vid=34b046ac-5776-4eae-ad1d-7287cb7dcbe9"},"vehicle_type_id":"4","last_reported":1731244360,"current_range_meters":20000,"station_id":"ce4bhi12rcd13ifvqfp0","pricing_plan_id":"cebpf4jnsgd1na2vs0mg"},{"bike_id":"6b1015de-41e3-4669-bcf9-43f25a7b07ed","system_id":"levelo_inurba_marseille","lat":43.2315,"lon":5.43718,"is_reserved":false,"is_disabled":false,"rental_uris":{"android":"levelo://app?vid=6b1015de-41e3-4669-bcf9-43f25a7b07ed","ios":"levelo://app?vid=6b1015de-41e3-4669-bcf9-43f25a7b07ed"},"vehicle_type_id":"4","last_reported":1731244360,"current_range_meters":34800,"station_id":"ce4bhmp2rcd13ifvqgog","pricing_plan_id":"cebpf4jnsgd1na2vs0mg"},{"bike_id":"c43bfbe6-2bf2-47fb-80a7-057f382a90aa","system_id":"levelo_inurba_marseille","lat":43.23201,"lon":5.35551,"is_reserved":false,"is_disabled":false,"rental_uris":{"android":"levelo://app?vid=c43bfbe6-2bf2-47fb-80a7-057f382a90aa","ios":"levelo://app?vid=c43bfbe6-2bf2-47fb-80a7-057f382a90aa"},"vehicle_type_id":"4","last_reported":1731244360,"current_range_meters":24800,"station_id":"ce4bhu92rcd13ifvqi70","pricing_plan_id":"cebpf4jnsgd1na2vs0mg"},{"bike_id":"d604bdcf-1c29-4955-a92a-983bad3f66b9","system_id":"levelo_inurba_marseille","lat":43.28422,"lon":5.34987,"is_reserved":false,"is_disabled":false,"rental_uris":{"android":"levelo://app?vid=d604bdcf-1c29-4955-a92a-983bad3f66b9","ios":"levelo://app?vid=d604bdcf-1c29-4955-a92a-983bad3f66b9"},"vehicle_type_id":"4","last_reported":1731244360,"current_range_meters":30800,"station_id":"ce4bhbh2rcd13ifvqepg","pricing_plan_id":"cebpf4jnsgd1na2vs0mg"},{"bike_id":"8279b086-92a2-4597-99d1-bb1506ddd6d2","system_id":"levelo_inurba_marseille","lat":43.22924,"lon":5.35377,"is_reserved":false,"is_disabled":false,"rental_uris":{"android":"levelo://app?vid=8279b086-92a2-4597-99d1-bb1506ddd6d2","ios":"levelo://app?vid=8279b086-92a2-4597-99d1-bb1506ddd6d2"},"vehicle_type_id":"4","last_reported":1731244360,"current_range_meters":16800,"station_id":"cpo3532slgdg3j2ikp40","pricing_plan_id":"cebpf4jnsgd1na2vs0mg"},{"bike_id":"e61e0940-c088-4879-95f6-2eeeebf20835","system_id":"levelo_inurba_marseille","lat":43.3169,"lon":5.37753,"is_reserved":false,"is_disabled":false,"rental_uris":{"android":"levelo://app?vid=e61e0940-c088-4879-95f6-2eeeebf20835","ios":"levelo://app?vid=e61e0940-c088-4879-95f6-2eeeebf20835"},"vehicle_type_id":"4","last_reported":1731244360,"current_range_meters":14400,"station_id":"ce4bgth2rcd13ifvqch0","pricing_plan_id":"cebpf4jnsgd1na2vs0mg"},{"bike_id":"e1871985-0fe4-4afb-99d5-0dd851faec4f","system_id":"levelo_inurba_marseille","lat":43.25486,"lon":5.37638,"is_reserved":false,"is_disabled":false,"rental_uris":{"android":"levelo://app?vid=e1871985-0fe4-4afb-99d5-0dd851faec4f","ios":"levelo://app?vid=e1871985-0fe4-4afb-99d5-0dd851faec4f"},"vehicle_type_id":"4","last_reported":1731244360,"current_range_meters":38800,"station_id":"ce4bhh12rcd13ifvqff0","pricing_plan_id":"cebpf4jnsgd1na2vs0mg"},{"bike_id":"daed64dd-02f6-4c40-9325-b28b46a59db3","system_id":"levelo_inurba_marseille","lat":43.23061,"lon":5.35488,"is_reserved":false,"is_disabled":false,"rental_uris":{"android":"levelo://app?vid=daed64dd-02f6-4c40-9325-b28b46a59db3","ios":"levelo://app?vid=daed64dd-02f6-4c40-9325-b28b46a59db3"},"vehicle_type_id":"4","last_reported":1731244360,"current_range_meters":25200,"station_id":"cpo3342slgdg3j2ifvpg","pricing_plan_id":"cebpf4jnsgd1na2vs0mg"},{"bike_id":"d79c102e-8f86-45e1-9a59-6fb5718bcd33","system_id":"levelo_inurba_marseille","lat":43.33024,"lon":5.39045,"is_reserved":false,"is_disabled":false,"rental_uris":{"android":"levelo://app?vid=d79c102e-8f86-45e1-9a59-6fb5718bcd33","ios":"levelo://app?vid=d79c102e-8f86-45e1-9a59-6fb5718bcd33"},"vehicle_type_id":"4","last_reported":1731244360,"current_range_meters":38800,"station_id":"ce4bhr92rcd13ifvqhrg","pricing_plan_id":"cebpf4jnsgd1na2vs0mg"},{"bike_id":"564fd272-2d71-4f7d-8fff-3934c585bfc6","system_id":"levelo_inurba_marseille","lat":43.29263,"lon":5.409,"is_reserved":false,"is_disabled":false,"rental_uris":{"android":"levelo://app?vid=564fd272-2d71-4f7d-8fff-3934c585bfc6","ios":"levelo://app?vid=564fd272-2d71-4f7d-8fff-3934c585bfc6"},"vehicle_type_id":"4","last_reported":1731244360,"current_range_meters":37600,"station_id":"ce4bh192rcd13ifvqdc0","pricing_plan_id":"cebpf4jnsgd1na2vs0mg"},{"bike_id":"2ba681b1-c2b3-4287-8c1d-b6b7d820cb6c","system_id":"levelo_inurba_marseille","lat":43.24815,"lon":5.37463,"is_reserved":false,"is_disabled":false,"rental_uris":{"android":"levelo://app?vid=2ba681b1-c2b3-4287-8c1d-b6b7d820cb6c","ios":"levelo://app?vid=2ba681b1-c2b3-4287-8c1d-b6b7d820cb6c"},"vehicle_type_id":"4","last_reported":1731244360,"current_range_meters":14000,"station_id":"ce4bhgh2rcd13ifvqfb0","pricing_plan_id":"cebpf4jnsgd1na2vs0mg"},{"bike_id":"f433c29a-a1ae-40c7-9d75-984aa3b469af","system_id":"levelo_inurba_marseille","lat":43.28612,"lon":5.35111,"is_reserved":false,"is_disabled":false,"rental_uris":{"android":"levelo://app?vid=f433c29a-a1ae-40c7-9d75-984aa3b469af","ios":"levelo://app?vid=f433c29a-a1ae-40c7-9d75-984aa3b469af"},"vehicle_type_id":"4","last_reported":1731244360,"current_range_meters":10000,"station_id":"ce4bhch2rcd13ifvqeug","pricing_plan_id":"cebpf4jnsgd1na2vs0mg"},{"bike_id":"7e7be88e-2387-4ac1-8672-4e3f2accb589","system_id":"levelo_inurba_marseille","lat":43.23192,"lon":5.35553,"is_reserved":false,"is_disabled":false,"rental_uris":{"android":"levelo://app?vid=7e7be88e-2387-4ac1-8672-4e3f2accb589","ios":"levelo://app?vid=7e7be88e-2387-4ac1-8672-4e3f2accb589"},"vehicle_type_id":"4","last_reported":1731244360,"current_range_meters":10000,"station_id":"ce4bhu92rcd13ifvqi70","pricing_plan_id":"cebpf4jnsgd1na2vs0mg"},{"bike_id":"e2f539b2-1c9a-4c53-8dc2-a41bd1a14b91","system_id":"levelo_inurba_marseille","lat":43.28272,"lon":5.35075,"is_reserved":false,"is_disabled":false,"rental_uris":{"android":"levelo://app?vid=e2f539b2-1c9a-4c53-8dc2-a41bd1a14b91","ios":"levelo://app?vid=e2f539b2-1c9a-4c53-8dc2-a41bd1a14b91"},"vehicle_type_id":"4","last_reported":1731244360,"current_range_meters":30000,"station_id":"ce4bhbp2rcd13ifvqerg","pricing_plan_id":"cebpf4jnsgd1na2vs0mg"},{"bike_id":"8f176852-51d8-4ea9-943f-c539a472ae88","system_id":"levelo_inurba_marseille","lat":43.28271,"lon":5.35077,"is_reserved":false,"is_disabled":false,"rental_uris":{"android":"levelo://app?vid=8f176852-51d8-4ea9-943f-c539a472ae88","ios":"levelo://app?vid=8f176852-51d8-4ea9-943f-c539a472ae88"},"vehicle_type_id":"4","last_reported":1731244360,"current_range_meters":18000,"station_id":"ce4bhbp2rcd13ifvqerg","pricing_plan_id":"cebpf4jnsgd1na2vs0mg"},{"bike_id":"ee611595-17c7-4586-8347-d742b3c58587","system_id":"levelo_inurba_marseille","lat":43.25003,"lon":5.38926,"is_reserved":false,"is_disabled":false,"rental_uris":{"android":"levelo://app?vid=ee611595-17c7-4586-8347-d742b3c58587","ios":"levelo://app?vid=ee611595-17c7-4586-8347-d742b3c58587"},"vehicle_type_id":"4","last_reported":1731244360,"current_range_meters":8000,"station_id":"ce4bhgp2rcd13ifvqfd0","pricing_plan_id":"cebpf4jnsgd1na2vs0mg"},{"bike_id":"c2bf881a-f020-4e0e-819d-ec6a7c5dac04","system_id":"levelo_inurba_marseille","lat":43.317,"lon":5.37741,"is_reserved":false,"is_disabled":false,"rental_uris":{"android":"levelo://app?vid=c2bf881a-f020-4e0e-819d-ec6a7c5dac04","ios":"levelo://app?vid=c2bf881a-f020-4e0e-819d-ec6a7c5dac04"},"vehicle_type_id":"4","last_reported":1731244360,"current_range_meters":18000,"station_id":"ce4bgth2rcd13ifvqch0","pricing_plan_id":"cebpf4jnsgd1na2vs0mg"},{"bike_id":"6fa19e17-bdec-4054-9042-0b23d398250d","system_id":"levelo_inurba_marseille","lat":43.29225,"lon":5.36033,"is_reserved":false,"is_disabled":false,"rental_uris":{"android":"levelo://app?vid=6fa19e17-bdec-4054-9042-0b23d398250d","ios":"levelo://app?vid=6fa19e17-bdec-4054-9042-0b23d398250d"},"vehicle_type_id":"4","last_reported":1731244360,"current_range_meters":32000,"station_id":"ce4bhbh2rcd13ifvqeqg","pricing_plan_id":"cebpf4jnsgd1na2vs0mg"},{"bike_id":"6a382b3e-46a5-47d8-8f2a-79f38274ae1c","system_id":"levelo_inurba_marseille","lat":43.23966,"lon":5.36635,"is_reserved":false,"is_disabled":false,"rental_uris":{"android":"levelo://app?vid=6a382b3e-46a5-47d8-8f2a-79f38274ae1c","ios":"levelo://app?vid=6a382b3e-46a5-47d8-8f2a-79f38274ae1c"},"vehicle_type_id":"4","last_reported":1731244360,"current_range_meters":32800,"station_id":"ce4bhi12rcd13ifvqfp0","pricing_plan_id":"cebpf4jnsgd1na2vs0mg"},{"bike_id":"849f8cd6-baff-43a1-8d8d-0e54b63979f8","system_id":"levelo_inurba_marseille","lat":43.24803,"lon":5.37458,"is_reserved":false,"is_disabled":false,"rental_uris":{"android":"levelo://app?vid=849f8cd6-baff-43a1-8d8d-0e54b63979f8","ios":"levelo://app?vid=849f8cd6-baff-43a1-8d8d-0e54b63979f8"},"vehicle_type_id":"4","last_reported":1731244360,"current_range_meters":27600,"station_id":"ce4bhgh2rcd13ifvqfb0","pricing_plan_id":"cebpf4jnsgd1na2vs0mg"},{"bike_id":"7f06eac9-c7ff-4b81-9aff-b6630aa0e1d4","system_id":"levelo_inurba_marseille","lat":43.28419,"lon":5.34982,"is_reserved":false,"is_disabled":false,"rental_uris":{"android":"levelo://app?vid=7f06eac9-c7ff-4b81-9aff-b6630aa0e1d4","ios":"levelo://app?vid=7f06eac9-c7ff-4b81-9aff-b6630aa0e1d4"},"vehicle_type_id":"4","last_reported":1731244360,"current_range_meters":34000,"station_id":"ce4bhbh2rcd13ifvqepg","pricing_plan_id":"cebpf4jnsgd1na2vs0mg"},{"bike_id":"e6970ce9-b289-47fa-8459-924af2fe66a3","system_id":"levelo_inurba_marseille","lat":43.23154,"lon":5.43703,"is_reserved":false,"is_disabled":false,"rental_uris":{"android":"levelo://app?vid=e6970ce9-b289-47fa-8459-924af2fe66a3","ios":"levelo://app?vid=e6970ce9-b289-47fa-8459-924af2fe66a3"},"vehicle_type_id":"4","last_reported":1731244360,"current_range_meters":39200,"station_id":"ce4bhmp2rcd13ifvqgog","pricing_plan_id":"cebpf4jnsgd1na2vs0mg"},{"bike_id":"c984bab7-28bc-453f-b561-b43ad2a1e352","system_id":"levelo_inurba_marseille","lat":43.32367,"lon":5.38884,"is_reserved":false,"is_disabled":false,"rental_uris":{"android":"levelo://app?vid=c984bab7-28bc-453f-b561-b43ad2a1e352","ios":"levelo://app?vid=c984bab7-28bc-453f-b561-b43ad2a1e352"},"vehicle_type_id":"4","last_reported":1731244360,"current_range_meters":33600,"station_id":"ce4bhqp2rcd13ifvqhog","pricing_plan_id":"cebpf4jnsgd1na2vs0mg"},{"bike_id":"b42c0d0c-e899-48c3-bc4e-0ea09d4bc70a","system_id":"levelo_inurba_marseille","lat":43.23186,"lon":5.4,"is_reserved":false,"is_disabled":false,"rental_uris":{"android":"levelo://app?vid=b42c0d0c-e899-48c3-bc4e-0ea09d4bc70a","ios":"levelo://app?vid=b42c0d0c-e899-48c3-bc4e-0ea09d4bc70a"},"vehicle_type_id":"4","last_reported":1731244360,"current_range_meters":19200,"station_id":"ce4bhn12rcd13ifvqgqg","pricing_plan_id":"cebpf4jnsgd1na2vs0mg"},{"bike_id":"6c55c68c-8072-4a7a-8968-0f76e76b364b","system_id":"levelo_inurba_marseille","lat":43.284183,"lon":5.349831,"is_reserved":false,"is_disabled":false,"rental_uris":{"android":"levelo://app?vid=6c55c68c-8072-4a7a-8968-0f76e76b364b","ios":"levelo://app?vid=6c55c68c-8072-4a7a-8968-0f76e76b364b"},"vehicle_type_id":"4","last_reported":1731244360,"current_range_meters":36800,"station_id":"ce4bhbh2rcd13ifvqepg","pricing_plan_id":"cebpf4jnsgd1na2vs0mg"},{"bike_id":"3ec3550b-0b0a-423a-846d-c6e23f763e6c","system_id":"levelo_inurba_marseille","lat":43.23061,"lon":5.35488,"is_reserved":false,"is_disabled":false,"rental_uris":{"android":"levelo://app?vid=3ec3550b-0b0a-423a-846d-c6e23f763e6c","ios":"levelo://app?vid=3ec3550b-0b0a-423a-846d-c6e23f763e6c"},"vehicle_type_id":"4","last_reported":1731244360,"current_range_meters":38800,"station_id":"cpo3342slgdg3j2ifvpg","pricing_plan_id":"cebpf4jnsgd1na2vs0mg"},{"bike_id":"8606dd30-fd6e-4b79-9c73-acace12c2d0d","system_id":"levelo_inurba_marseille","lat":43.30447,"lon":5.36729,"is_reserved":false,"is_disabled":false,"rental_uris":{"android":"levelo://app?vid=8606dd30-fd6e-4b79-9c73-acace12c2d0d","ios":"levelo://app?vid=8606dd30-fd6e-4b79-9c73-acace12c2d0d"},"vehicle_type_id":"4","last_reported":1731244360,"current_range_meters":34000,"station_id":"","pricing_plan_id":"cebpf4jnsgd1na2vs0mg"},{"bike_id":"b0ca4af2-a5d4-4df3-bbff-48880d0c5875","system_id":"levelo_inurba_marseille","lat":43.23065,"lon":5.35487,"is_reserved":false,"is_disabled":false,"rental_uris":{"android":"levelo://app?vid=b0ca4af2-a5d4-4df3-bbff-48880d0c5875","ios":"levelo://app?vid=b0ca4af2-a5d4-4df3-bbff-48880d0c5875"},"vehicle_type_id":"4","last_reported":1731244360,"current_range_meters":34000,"station_id":"cpo3342slgdg3j2ifvpg","pricing_plan_id":"cebpf4jnsgd1na2vs0mg"},{"bike_id":"8c69f012-300b-4821-a16c-983df7d1abef","system_id":"levelo_inurba_marseille","lat":43.23967,"lon":5.3662,"is_reserved":false,"is_disabled":false,"rental_uris":{"android":"levelo://app?vid=8c69f012-300b-4821-a16c-983df7d1abef","ios":"levelo://app?vid=8c69f012-300b-4821-a16c-983df7d1abef"},"vehicle_type_id":"4","last_reported":1731244360,"current_range_meters":8800,"station_id":"ce4bhi12rcd13ifvqfp0","pricing_plan_id":"cebpf4jnsgd1na2vs0mg"},{"bike_id":"02bcfd7c-6a8e-42d7-be69-fea230859e5c","system_id":"levelo_inurba_marseille","lat":43.23148,"lon":5.43709,"is_reserved":false,"is_disabled":false,"rental_uris":{"android":"levelo://app?vid=02bcfd7c-6a8e-42d7-be69-fea230859e5c","ios":"levelo://app?vid=02bcfd7c-6a8e-42d7-be69-fea230859e5c"},"vehicle_type_id":"4","last_reported":1731244360,"current_range_meters":10000,"station_id":"ce4bhmp2rcd13ifvqgog","pricing_plan_id":"cebpf4jnsgd1na2vs0mg"},{"bike_id":"26563081-f5dd-4613-b100-48c7e8867ffd","system_id":"levelo_inurba_marseille","lat":43.24391,"lon":5.37052,"is_reserved":false,"is_disabled":false,"rental_uris":{"android":"levelo://app?vid=26563081-f5dd-4613-b100-48c7e8867ffd","ios":"levelo://app?vid=26563081-f5dd-4613-b100-48c7e8867ffd"},"vehicle_type_id":"4","last_reported":1731244360,"current_range_meters":38800,"station_id":"ce4bhhh2rcd13ifvqfk0","pricing_plan_id":"cebpf4jnsgd1na2vs0mg"},{"bike_id":"16edd5e5-0497-4831-bb6b-d18eb7e92293","system_id":"levelo_inurba_marseille","lat":43.24812,"lon":5.37457,"is_reserved":false,"is_disabled":false,"rental_uris":{"android":"levelo://app?vid=16edd5e5-0497-4831-bb6b-d18eb7e92293","ios":"levelo://app?vid=16edd5e5-0497-4831-bb6b-d18eb7e92293"},"vehicle_type_id":"4","last_reported":1731244360,"current_range_meters":30000,"station_id":"ce4bhgh2rcd13ifvqfb0","pricing_plan_id":"cebpf4jnsgd1na2vs0mg"},{"bike_id":"8afdf3b2-e384-4e5f-a07a-780d258ab5b6","system_id":"levelo_inurba_marseille","lat":43.29226,"lon":5.36059,"is_reserved":false,"is_disabled":false,"rental_uris":{"android":"levelo://app?vid=8afdf3b2-e384-4e5f-a07a-780d258ab5b6","ios":"levelo://app?vid=8afdf3b2-e384-4e5f-a07a-780d258ab5b6"},"vehicle_type_id":"4","last_reported":1731244360,"current_range_meters":38800,"station_id":"ce4bhbh2rcd13ifvqeqg","pricing_plan_id":"cebpf4jnsgd1na2vs0mg"},{"bike_id":"3137f504-c340-4026-9855-d8abfc716841","system_id":"levelo_inurba_marseille","lat":43.23056,"lon":5.35502,"is_reserved":false,"is_disabled":false,"rental_uris":{"android":"levelo://app?vid=3137f504-c340-4026-9855-d8abfc716841","ios":"levelo://app?vid=3137f504-c340-4026-9855-d8abfc716841"},"vehicle_type_id":"4","last_reported":1731244360,"current_range_meters":38800,"station_id":"cpo3342slgdg3j2ifvpg","pricing_plan_id":"cebpf4jnsgd1na2vs0mg"},{"bike_id":"7b41cb72-e5a7-4522-afc0-478f7da18d1a","system_id":"levelo_inurba_marseille","lat":43.23965,"lon":5.36631,"is_reserved":false,"is_disabled":false,"rental_uris":{"android":"levelo://app?vid=7b41cb72-e5a7-4522-afc0-478f7da18d1a","ios":"levelo://app?vid=7b41cb72-e5a7-4522-afc0-478f7da18d1a"},"vehicle_type_id":"4","last_reported":1731244360,"current_range_meters":33200,"station_id":"ce4bhi12rcd13ifvqfp0","pricing_plan_id":"cebpf4jnsgd1na2vs0mg"},{"bike_id":"07601670-eb7f-4f0e-b9f6-627fce47aada","system_id":"levelo_inurba_marseille","lat":43.23187,"lon":5.39995,"is_reserved":false,"is_disabled":false,"rental_uris":{"android":"levelo://app?vid=07601670-eb7f-4f0e-b9f6-627fce47aada","ios":"levelo://app?vid=07601670-eb7f-4f0e-b9f6-627fce47aada"},"vehicle_type_id":"4","last_reported":1731244360,"current_range_meters":36400,"station_id":"ce4bhn12rcd13ifvqgqg","pricing_plan_id":"cebpf4jnsgd1na2vs0mg"},{"bike_id":"1cb9b11b-ab7a-4ec7-aaf3-27cc692ef09b","system_id":"levelo_inurba_marseille","lat":43.27371,"lon":5.36262,"is_reserved":false,"is_disabled":false,"rental_uris":{"android":"levelo://app?vid=1cb9b11b-ab7a-4ec7-aaf3-27cc692ef09b","ios":"levelo://app?vid=1cb9b11b-ab7a-4ec7-aaf3-27cc692ef09b"},"vehicle_type_id":"4","last_reported":1731244360,"current_range_meters":19200,"station_id":"ce4bhbh2rcd13ifvqeo0","pricing_plan_id":"cebpf4jnsgd1na2vs0mg"},{"bike_id":"e9802a84-405e-4ad3-8d22-dbd83363f66a","system_id":"levelo_inurba_marseille","lat":43.2306,"lon":5.35496,"is_reserved":false,"is_disabled":false,"rental_uris":{"android":"levelo://app?vid=e9802a84-405e-4ad3-8d22-dbd83363f66a","ios":"levelo://app?vid=e9802a84-405e-4ad3-8d22-dbd83363f66a"},"vehicle_type_id":"4","last_reported":1731244360,"current_range_meters":14400,"station_id":"cpo3342slgdg3j2ifvpg","pricing_plan_id":"cebpf4jnsgd1na2vs0mg"},{"bike_id":"3afe71be-4f71-4789-be9e-12150afa4010","system_id":"levelo_inurba_marseille","lat":43.2293,"lon":5.35381,"is_reserved":false,"is_disabled":false,"rental_uris":{"android":"levelo://app?vid=3afe71be-4f71-4789-be9e-12150afa4010","ios":"levelo://app?vid=3afe71be-4f71-4789-be9e-12150afa4010"},"vehicle_type_id":"4","last_reported":1731244360,"current_range_meters":39200,"station_id":"cpo3532slgdg3j2ikp40","pricing_plan_id":"cebpf4jnsgd1na2vs0mg"},{"bike_id":"003fab02-0c72-403e-a7f1-a058ff5f9ffd","system_id":"levelo_inurba_marseille","lat":43.26785,"lon":5.39414,"is_reserved":false,"is_disabled":false,"rental_uris":{"android":"levelo://app?vid=003fab02-0c72-403e-a7f1-a058ff5f9ffd","ios":"levelo://app?vid=003fab02-0c72-403e-a7f1-a058ff5f9ffd"},"vehicle_type_id":"4","last_reported":1731244360,"current_range_meters":31200,"station_id":"ce4bhh12rcd13ifvqfg0","pricing_plan_id":"cebpf4jnsgd1na2vs0mg"},{"bike_id":"a672c2ef-c813-4e06-b21a-38d83e20314d","system_id":"levelo_inurba_marseille","lat":43.28415,"lon":5.34992,"is_reserved":false,"is_disabled":false,"rental_uris":{"android":"levelo://app?vid=a672c2ef-c813-4e06-b21a-38d83e20314d","ios":"levelo://app?vid=a672c2ef-c813-4e06-b21a-38d83e20314d"},"vehicle_type_id":"4","last_reported":1731244360,"current_range_meters":21600,"station_id":"ce4bhbh2rcd13ifvqepg","pricing_plan_id":"cebpf4jnsgd1na2vs0mg"},{"bike_id":"78188c58-680a-4bb4-917a-afe39a18c51f","system_id":"levelo_inurba_marseille","lat":43.22928,"lon":5.35374,"is_reserved":false,"is_disabled":false,"rental_uris":{"android":"levelo://app?vid=78188c58-680a-4bb4-917a-afe39a18c51f","ios":"levelo://app?vid=78188c58-680a-4bb4-917a-afe39a18c51f"},"vehicle_type_id":"4","last_reported":1731244360,"current_range_meters":12000,"station_id":"cpo3532slgdg3j2ikp40","pricing_plan_id":"cebpf4jnsgd1na2vs0mg"},{"bike_id":"e6878fc2-0be2-48f6-a0c2-a9de9bef592a","system_id":"levelo_inurba_marseille","lat":43.27812,"lon":5.40703,"is_reserved":false,"is_disabled":false,"rental_uris":{"android":"levelo://app?vid=e6878fc2-0be2-48f6-a0c2-a9de9bef592a","ios":"levelo://app?vid=e6878fc2-0be2-48f6-a0c2-a9de9bef592a"},"vehicle_type_id":"4","last_reported":1731244360,"current_range_meters":38800,"station_id":"ce4bhnh2rcd13ifvqgtg","pricing_plan_id":"cebpf4jnsgd1na2vs0mg"},{"bike_id":"0f034e7e-0ef1-4a96-a627-9da43bb57f60","system_id":"levelo_inurba_marseille","lat":43.2439,"lon":5.37061,"is_reserved":false,"is_disabled":false,"rental_uris":{"android":"levelo://app?vid=0f034e7e-0ef1-4a96-a627-9da43bb57f60","ios":"levelo://app?vid=0f034e7e-0ef1-4a96-a627-9da43bb57f60"},"vehicle_type_id":"4","last_reported":1731244360,"current_range_meters":6800,"station_id":"ce4bhhh2rcd13ifvqfk0","pricing_plan_id":"cebpf4jnsgd1na2vs0mg"},{"bike_id":"ef017b49-3349-4197-a933-35d5ad85fdf2","system_id":"levelo_inurba_marseille","lat":43.255,"lon":5.37651,"is_reserved":false,"is_disabled":false,"rental_uris":{"android":"levelo://app?vid=ef017b49-3349-4197-a933-35d5ad85fdf2","ios":"levelo://app?vid=ef017b49-3349-4197-a933-35d5ad85fdf2"},"vehicle_type_id":"4","last_reported":1731244360,"current_range_meters":22000,"station_id":"ce4bhh12rcd13ifvqff0","pricing_plan_id":"cebpf4jnsgd1na2vs0mg"},{"bike_id":"310af67a-8a19-49ce-bbd1-3212d81f204f","system_id":"levelo_inurba_marseille","lat":43.29601,"lon":5.38099,"is_reserved":false,"is_disabled":false,"rental_uris":{"android":"levelo://app?vid=310af67a-8a19-49ce-bbd1-3212d81f204f","ios":"levelo://app?vid=310af67a-8a19-49ce-bbd1-3212d81f204f"},"vehicle_type_id":"4","last_reported":1731244360,"current_range_meters":36800,"station_id":"ce4bgl12rcd13ifvqbo0","pricing_plan_id":"cebpf4jnsgd1na2vs0mg"},{"bike_id":"92d10030-6bbf-4b13-8747-6eaf1d5803ed","system_id":"levelo_inurba_marseille","lat":43.24083,"lon":5.37741,"is_reserved":false,"is_disabled":false,"rental_uris":{"android":"levelo://app?vid=92d10030-6bbf-4b13-8747-6eaf1d5803ed","ios":"levelo://app?vid=92d10030-6bbf-4b13-8747-6eaf1d5803ed"},"vehicle_type_id":"4","last_reported":1731244360,"current_range_meters":19600,"station_id":"ce4bhnp2rcd13ifvqgvg","pricing_plan_id":"cebpf4jnsgd1na2vs0mg"},{"bike_id":"67bc6164-34ba-463e-a901-f2f8e7e86fc8","system_id":"levelo_inurba_marseille","lat":43.29226,"lon":5.36062,"is_reserved":false,"is_disabled":false,"rental_uris":{"android":"levelo://app?vid=67bc6164-34ba-463e-a901-f2f8e7e86fc8","ios":"levelo://app?vid=67bc6164-34ba-463e-a901-f2f8e7e86fc8"},"vehicle_type_id":"4","last_reported":1731244360,"current_range_meters":22400,"station_id":"ce4bhbh2rcd13ifvqeqg","pricing_plan_id":"cebpf4jnsgd1na2vs0mg"},{"bike_id":"855f6be4-5d15-487d-9123-ca8bc0bd6473","system_id":"levelo_inurba_marseille","lat":43.33725,"lon":5.39182,"is_reserved":false,"is_disabled":false,"rental_uris":{"android":"levelo://app?vid=855f6be4-5d15-487d-9123-ca8bc0bd6473","ios":"levelo://app?vid=855f6be4-5d15-487d-9123-ca8bc0bd6473"},"vehicle_type_id":"4","last_reported":1731244360,"current_range_meters":38400,"station_id":"ce4bhr92rcd13ifvqhsg","pricing_plan_id":"cebpf4jnsgd1na2vs0mg"},{"bike_id":"3a3f08bf-3e3f-40d5-9b70-d559cb01f4a3","system_id":"levelo_inurba_marseille","lat":43.33605,"lon":5.41037,"is_reserved":false,"is_disabled":false,"rental_uris":{"android":"levelo://app?vid=3a3f08bf-3e3f-40d5-9b70-d559cb01f4a3","ios":"levelo://app?vid=3a3f08bf-3e3f-40d5-9b70-d559cb01f4a3"},"vehicle_type_id":"4","last_reported":1731244360,"current_range_meters":20400,"station_id":"ce4bhqh2rcd13ifvqhmg","pricing_plan_id":"cebpf4jnsgd1na2vs0mg"},{"bike_id":"884af005-1c9c-438b-b950-9e7eb819ba2a","system_id":"levelo_inurba_marseille","lat":43.24177,"lon":5.36406,"is_reserved":false,"is_disabled":false,"rental_uris":{"android":"levelo://app?vid=884af005-1c9c-438b-b950-9e7eb819ba2a","ios":"levelo://app?vid=884af005-1c9c-438b-b950-9e7eb819ba2a"},"vehicle_type_id":"4","last_reported":1731244360,"current_range_meters":17200,"station_id":"cpo36qri1sfpv3e86is0","pricing_plan_id":"cebpf4jnsgd1na2vs0mg"},{"bike_id":"40bbd6cf-6cee-4ee3-a676-06496ea11c61","system_id":"levelo_inurba_marseille","lat":43.23056,"lon":5.35492,"is_reserved":false,"is_disabled":false,"rental_uris":{"android":"levelo://app?vid=40bbd6cf-6cee-4ee3-a676-06496ea11c61","ios":"levelo://app?vid=40bbd6cf-6cee-4ee3-a676-06496ea11c61"},"vehicle_type_id":"4","last_reported":1731244360,"current_range_meters":14800,"station_id":"cpo3342slgdg3j2ifvpg","pricing_plan_id":"cebpf4jnsgd1na2vs0mg"},{"bike_id":"1dde6a50-7d5e-48a3-b151-347a437be479","system_id":"levelo_inurba_marseille","lat":43.28617,"lon":5.35111,"is_reserved":false,"is_disabled":false,"rental_uris":{"android":"levelo://app?vid=1dde6a50-7d5e-48a3-b151-347a437be479","ios":"levelo://app?vid=1dde6a50-7d5e-48a3-b151-347a437be479"},"vehicle_type_id":"4","last_reported":1731244360,"current_range_meters":38800,"station_id":"ce4bhch2rcd13ifvqeug","pricing_plan_id":"cebpf4jnsgd1na2vs0mg"},{"bike_id":"b066a3ba-8b24-40cf-b799-ebebf0c629b0","system_id":"levelo_inurba_marseille","lat":43.32338,"lon":5.40624,"is_reserved":false,"is_disabled":false,"rental_uris":{"android":"levelo://app?vid=b066a3ba-8b24-40cf-b799-ebebf0c629b0","ios":"levelo://app?vid=b066a3ba-8b24-40cf-b799-ebebf0c629b0"},"vehicle_type_id":"4","last_reported":1731244360,"current_range_meters":37600,"station_id":"ce4bhq92rcd13ifvqhjg","pricing_plan_id":"cebpf4jnsgd1na2vs0mg"},{"bike_id":"8a8655c3-0446-49f4-b251-2961912bcbfb","system_id":"levelo_inurba_marseille","lat":43.22935,"lon":5.35379,"is_reserved":false,"is_disabled":false,"rental_uris":{"android":"levelo://app?vid=8a8655c3-0446-49f4-b251-2961912bcbfb","ios":"levelo://app?vid=8a8655c3-0446-49f4-b251-2961912bcbfb"},"vehicle_type_id":"4","last_reported":1731244360,"current_range_meters":38800,"station_id":"cpo3532slgdg3j2ikp40","pricing_plan_id":"cebpf4jnsgd1na2vs0mg"},{"bike_id":"9eef85da-07fa-4b97-823a-a71425c3f9f0","system_id":"levelo_inurba_marseille","lat":43.27951,"lon":5.41041,"is_reserved":false,"is_disabled":false,"rental_uris":{"android":"levelo://app?vid=9eef85da-07fa-4b97-823a-a71425c3f9f0","ios":"levelo://app?vid=9eef85da-07fa-4b97-823a-a71425c3f9f0"},"vehicle_type_id":"4","last_reported":1731244360,"current_range_meters":12800,"station_id":"ce4bhnp2rcd13ifvqh0g","pricing_plan_id":"cebpf4jnsgd1na2vs0mg"},{"bike_id":"6e8e2a29-f28b-4d99-8b71-88f5f9d46bc7","system_id":"levelo_inurba_marseille","lat":43.22929,"lon":5.35381,"is_reserved":false,"is_disabled":false,"rental_uris":{"android":"levelo://app?vid=6e8e2a29-f28b-4d99-8b71-88f5f9d46bc7","ios":"levelo://app?vid=6e8e2a29-f28b-4d99-8b71-88f5f9d46bc7"},"vehicle_type_id":"4","last_reported":1731244360,"current_range_meters":16000,"station_id":"cpo3532slgdg3j2ikp40","pricing_plan_id":"cebpf4jnsgd1na2vs0mg"},{"bike_id":"8a8210ae-bae4-430d-84a0-17f30fc9692b","system_id":"levelo_inurba_marseille","lat":43.27067,"lon":5.42283,"is_reserved":false,"is_disabled":false,"rental_uris":{"android":"levelo://app?vid=8a8210ae-bae4-430d-84a0-17f30fc9692b","ios":"levelo://app?vid=8a8210ae-bae4-430d-84a0-17f30fc9692b"},"vehicle_type_id":"4","last_reported":1731244360,"current_range_meters":11200,"station_id":"ce4bhk92rcd13ifvqgb0","pricing_plan_id":"cebpf4jnsgd1na2vs0mg"},{"bike_id":"1b07045b-6491-4401-8fa3-b476803fba64","system_id":"levelo_inurba_marseille","lat":43.27944,"lon":5.41055,"is_reserved":false,"is_disabled":false,"rental_uris":{"android":"levelo://app?vid=1b07045b-6491-4401-8fa3-b476803fba64","ios":"levelo://app?vid=1b07045b-6491-4401-8fa3-b476803fba64"},"vehicle_type_id":"4","last_reported":1731244360,"current_range_meters":35600,"station_id":"ce4bhnp2rcd13ifvqh0g","pricing_plan_id":"cebpf4jnsgd1na2vs0mg"},{"bike_id":"59884328-fc45-41b4-8c61-c618d8280d6b","system_id":"levelo_inurba_marseille","lat":43.24167,"lon":5.36397,"is_reserved":false,"is_disabled":false,"rental_uris":{"android":"levelo://app?vid=59884328-fc45-41b4-8c61-c618d8280d6b","ios":"levelo://app?vid=59884328-fc45-41b4-8c61-c618d8280d6b"},"vehicle_type_id":"4","last_reported":1731244360,"current_range_meters":38000,"station_id":"cpo36qri1sfpv3e86is0","pricing_plan_id":"cebpf4jnsgd1na2vs0mg"},{"bike_id":"739f406a-1133-4ca4-9a25-e084554f4c8d","system_id":"levelo_inurba_marseille","lat":43.28001,"lon":5.41668,"is_reserved":false,"is_disabled":false,"rental_uris":{"android":"levelo://app?vid=739f406a-1133-4ca4-9a25-e084554f4c8d","ios":"levelo://app?vid=739f406a-1133-4ca4-9a25-e084554f4c8d"},"vehicle_type_id":"4","last_reported":1731244360,"current_range_meters":18000,"station_id":"ce4bho12rcd13ifvqh1g","pricing_plan_id":"cebpf4jnsgd1na2vs0mg"},{"bike_id":"6087fa32-d329-4442-bb50-af0b5062e027","system_id":"levelo_inurba_marseille","lat":43.27496,"lon":5.42449,"is_reserved":false,"is_disabled":false,"rental_uris":{"android":"levelo://app?vid=6087fa32-d329-4442-bb50-af0b5062e027","ios":"levelo://app?vid=6087fa32-d329-4442-bb50-af0b5062e027"},"vehicle_type_id":"4","last_reported":1731244360,"current_range_meters":33600,"station_id":"ce4bhn92rcd13ifvqgrg","pricing_plan_id":"cebpf4jnsgd1na2vs0mg"},{"bike_id":"a347c9be-d588-4eb0-b9e9-73e02db827dd","system_id":"levelo_inurba_marseille","lat":43.28959,"lon":5.3647,"is_reserved":false,"is_disabled":false,"rental_uris":{"android":"levelo://app?vid=a347c9be-d588-4eb0-b9e9-73e02db827dd","ios":"levelo://app?vid=a347c9be-d588-4eb0-b9e9-73e02db827dd"},"vehicle_type_id":"4","last_reported":1731244360,"current_range_meters":34000,"station_id":"","pricing_plan_id":"cebpf4jnsgd1na2vs0mg"},{"bike_id":"01cd76cd-4b80-460b-98e7-5176fb02cd43","system_id":"levelo_inurba_marseille","lat":43.25497,"lon":5.37654,"is_reserved":false,"is_disabled":false,"rental_uris":{"android":"levelo://app?vid=01cd76cd-4b80-460b-98e7-5176fb02cd43","ios":"levelo://app?vid=01cd76cd-4b80-460b-98e7-5176fb02cd43"},"vehicle_type_id":"4","last_reported":1731244360,"current_range_meters":16400,"station_id":"ce4bhh12rcd13ifvqff0","pricing_plan_id":"cebpf4jnsgd1na2vs0mg"},{"bike_id":"13e15854-fe64-4ee2-a13d-d32677539577","system_id":"levelo_inurba_marseille","lat":43.29559,"lon":5.4228,"is_reserved":false,"is_disabled":false,"rental_uris":{"android":"levelo://app?vid=13e15854-fe64-4ee2-a13d-d32677539577","ios":"levelo://app?vid=13e15854-fe64-4ee2-a13d-d32677539577"},"vehicle_type_id":"4","last_reported":1731244360,"current_range_meters":38000,"station_id":"ce4bhph2rcd13ifvqhdg","pricing_plan_id":"cebpf4jnsgd1na2vs0mg"},{"bike_id":"e89fbc67-7a82-4552-a533-a5d8d1ae3c23","system_id":"levelo_inurba_marseille","lat":43.30838,"lon":5.396361,"is_reserved":false,"is_disabled":false,"rental_uris":{"android":"levelo://app?vid=e89fbc67-7a82-4552-a533-a5d8d1ae3c23","ios":"levelo://app?vid=e89fbc67-7a82-4552-a533-a5d8d1ae3c23"},"vehicle_type_id":"4","last_reported":1731244360,"current_range_meters":9600,"station_id":"ce4bh092rcd13ifvqd20","pricing_plan_id":"cebpf4jnsgd1na2vs0mg"},{"bike_id":"7e514a83-c0dd-47db-9deb-0c35bed0ce43","system_id":"levelo_inurba_marseille","lat":43.246395,"lon":5.388827,"is_reserved":false,"is_disabled":false,"rental_uris":{"android":"levelo://app?vid=7e514a83-c0dd-47db-9deb-0c35bed0ce43","ios":"levelo://app?vid=7e514a83-c0dd-47db-9deb-0c35bed0ce43"},"vehicle_type_id":"4","last_reported":1731244360,"current_range_meters":11600,"station_id":"","pricing_plan_id":"cebpf4jnsgd1na2vs0mg"},{"bike_id":"bd8c90e1-842d-4b29-aa20-5d027002179b","system_id":"levelo_inurba_marseille","lat":43.25502,"lon":5.37651,"is_reserved":false,"is_disabled":false,"rental_uris":{"android":"levelo://app?vid=bd8c90e1-842d-4b29-aa20-5d027002179b","ios":"levelo://app?vid=bd8c90e1-842d-4b29-aa20-5d027002179b"},"vehicle_type_id":"4","last_reported":1731244360,"current_range_meters":39200,"station_id":"ce4bhh12rcd13ifvqff0","pricing_plan_id":"cebpf4jnsgd1na2vs0mg"},{"bike_id":"4ac4541c-628f-4ac7-9f02-7e8d55df31bf","system_id":"levelo_inurba_marseille","lat":43.2737,"lon":5.36261,"is_reserved":false,"is_disabled":false,"rental_uris":{"android":"levelo://app?vid=4ac4541c-628f-4ac7-9f02-7e8d55df31bf","ios":"levelo://app?vid=4ac4541c-628f-4ac7-9f02-7e8d55df31bf"},"vehicle_type_id":"4","last_reported":1731244360,"current_range_meters":12400,"station_id":"ce4bhbh2rcd13ifvqeo0","pricing_plan_id":"cebpf4jnsgd1na2vs0mg"},