{"last_updated":1702224476,"ttl":30,"version":"2.2","data":{"bikes":[{"bike_id":"7b43bb06-df89-44cd-a9f3-8a223583036b","system_id":"levelo_inurba_marseille","lat":43.312239,"lon":5.368562,"is_reserved":false,"is_disabled":false,"rental_uris":{"android":"levelo://app?vid=7b43bb06-df89-44cd-a9f3-8a223583036b","ios":"levelo://app?vid=7b43bb06-df89-44cd-a9f3-8a223583036b"},"vehicle_type_id":"4","last_reported":1702224476,"current_range_meters":12000,"station_id":"ce4bgl92rcd13ifvqbq0","pricing_plan_id":"free"},{"bike_id":"aac649a0-91f1-475e-8cd2-585225824fac","system_id":"levelo_inurba_marseille","lat":43.31676,"lon":5.374986,"is_reserved":false,"is_disabled":false,"rental_uris":{"android":"levelo://app?vid=aac649a0-91f1-475e-8cd2-585225824fac","ios":"levelo://app?vid=aac649a0-91f1-475e-8cd2-585225824fac"},"vehicle_type_id":"4","last_reported":1702224476,"current_range_meters":2400,"station_id":"","pricing_plan_id":"free"},{"bike_id":"719d6ff6-0a24-426f-a238-3c5a9a4d15ba","system_id":"levelo_inurba_marseille","lat":43.311125,"lon":5.377624,"is_reserved":false,"is_disabled":false,"rental_uris":{"android":"levelo://app?vid=719d6ff6-0a24-426f-a238-3c5a9a4d15ba","ios":"levelo://app?vid=719d6ff6-0a24-426f-a238-3c5a9a4d15ba"},"vehicle_type_id":"4","last_reported":1702224476,"current_range_meters":27600,"station_id":"ce4bgt92rcd13ifvqcg0","pricing_plan_id":"free"},{"bike_id":"21e97b71-2276-4c6d-b40e-57a212ce0698","system_id":"levelo_inurba_marseille","lat":43.307945,"lon":5.376487,"is_reserved":false,"is_disabled":false,"rental_uris":{"android":"levelo://app?vid=21e97b71-2276-4c6d-b40e-57a212ce0698","ios":"levelo://app?vid=21e97b71-2276-4c6d-b40e-57a212ce0698"},"vehicle_type_id":"4","last_reported":1702224476,"current_range_meters":24400,"station_id":"ce4bgv92rcd13ifvqcq0","pricing_plan_id":"free"},{"bike_id":"a91fd7fa-1f50-43fd-8644-8221eab26d89","system_id":"levelo_inurba_marseille","lat":43.311722,"lon":5.387247,"is_reserved":false,"is_disabled":false,"rental_uris":{"android":"levelo://app?vid=a91fd7fa-1f50-43fd-8644-8221eab26d89","ios":"levelo://app?vid=a91fd7fa-1f50-43fd-8644-8221eab26d89"},"vehicle_type_id":"4","last_reported":1702224476,"current_range_meters":3600,"station_id":"ce4bgv12rcd13ifvqcp0","pricing_plan_id":"free"},{"bike_id":"ebb28cd0-7cd9-4305-9bde-baf1bad605f5","system_id":"levelo_inurba_marseille","lat":43.324771,"lon":5.36557,"is_reserved":false,"is_disabled":false,"rental_uris":{"android":"levelo://app?vid=ebb28cd0-7cd9-4305-9bde-baf1bad605f5","ios":"levelo://app?vid=ebb28cd0-7cd9-4305-9bde-baf1bad605f5"},"vehicle_type_id":"4","last_reported":1702224476,"current_range_meters":8800,"station_id":"ce4bhs12rcd13ifvqhvg","pricing_plan_id":"free"},{"bike_id":"d8be298e-f4c0-4479-a66b-e307c680d7cc","system_id":"levelo_inurba_marseille","lat":43.31356,"lon":5.38493,"is_reserved":false,"is_disabled":false,"rental_uris":{"android":"levelo://app?vid=d8be298e-f4c0-4479-a66b-e307c680d7cc","ios":"levelo://app?vid=d8be298e-f4c0-4479-a66b-e307c680d7cc"},"vehicle_type_id":"4","last_reported":1702224476,"current_range_meters":19600,"station_id":"ce4bgt92rcd13ifvqcf0","pricing_plan_id":"free"},{"bike_id":"976f2eb1-a25b-455d-ba1e-12ada02aa133","system_id":"levelo_inurba_marseille","lat":43.305403,"lon":5.384263,"is_reserved":false,"is_disabled":false,"rental_uris":{"android":"levelo://app?vid=976f2eb1-a25b-455d-ba1e-12ada02aa133","ios":"levelo://app?vid=976f2eb1-a25b-455d-ba1e-12ada02aa133"},"vehicle_type_id":"4","last_reported":1702224476,"current_range_meters":4400,"station_id":"ce4bgg92rcd13ifvqb30","pricing_plan_id":"free"},{"bike_id":"a6865669-33dc-4661-bbc8-90b0b0402d60","system_id":"levelo_inurba_marseille","lat":43.305364,"lon":5.384119,"is_reserved":false,"is_disabled":false,"rental_uris":{"android":"levelo://app?vid=a6865669-33dc-4661-bbc8-90b0b0402d60","ios":"levelo://app?vid=a6865669-33dc-4661-bbc8-90b0b0402d60"},"vehicle_type_id":"4","last_reported":1702224476,"current_range_meters":0,"station_id":"ce4bgg92rcd13ifvqb30","pricing_plan_id":"free"},{"bike_id":"92d48b8f-405d-45d1-8670-7c9bcd94ba8b","system_id":"levelo_inurba_marseille","lat":43.297774,"lon":5.370875,"is_reserved":false,"is_disabled":false,"rental_uris":{"android":"levelo://app?vid=92d48b8f-405d-45d1-8670-7c9bcd94ba8b","ios":"levelo://app?vid=92d48b8f-405d-45d1-8670-7c9bcd94ba8b"},"vehicle_type_id":"4","last_reported":1702224476,"current_range_meters":22000,"station_id":"ce4bgop2rcd13ifvqc1g","pricing_plan_id":"free"},{"bike_id":"ccd4fbf7-a0c2-498b-8ecc-15a67004cff0","system_id":"levelo_inurba_marseille","lat":43.322872,"lon":5.382756,"is_reserved":false,"is_disabled":false,"rental_uris":{"android":"levelo://app?vid=ccd4fbf7-a0c2-498b-8ecc-15a67004cff0","ios":"levelo://app?vid=ccd4fbf7-a0c2-498b-8ecc-15a67004cff0"},"vehicle_type_id":"4","last_reported":1702224476,"current_range_meters":28000,"station_id":"ce4bhr12rcd13ifvqhqg","pricing_plan_id":"free"},{"bike_id":"6ac675f1-e0be-498c-ad2f-b742a949d4b0","system_id":"levelo_inurba_marseille","lat":43.298218,"lon":5.374416,"is_reserved":false,"is_disabled":false,"rental_uris":{"android":"levelo://app?vid=6ac675f1-e0be-498c-ad2f-b742a949d4b0","ios":"levelo://app?vid=6ac675f1-e0be-498c-ad2f-b742a949d4b0"},"vehicle_type_id":"4","last_reported":1702224476,"current_range_meters":0,"station_id":"","pricing_plan_id":"free"},{"bike_id":"9a75aac0-2e54-4ffe-8b56-07e48315b873","system_id":"levelo_inurba_marseille","lat":43.328253,"lon":5.366811,"is_reserved":false,"is_disabled":false,"rental_uris":{"android":"levelo://app?vid=9a75aac0-2e54-4ffe-8b56-07e48315b873","ios":"levelo://app?vid=9a75aac0-2e54-4ffe-8b56-07e48315b873"},"vehicle_type_id":"4","last_reported":1702224476,"current_range_meters":23200,"station_id":"ce4bhs92rcd13ifvqi0g","pricing_plan_id":"free"},{"bike_id":"bd92cd13-369b-4791-af49-73578135ae81","system_id":"levelo_inurba_marseille","lat":43.297,"lon":5.36604,"is_reserved":false,"is_disabled":false,"rental_uris":{"android":"levelo://app?vid=bd92cd13-369b-4791-af49-73578135ae81","ios":"levelo://app?vid=bd92cd13-369b-4791-af49-73578135ae81"},"vehicle_type_id":"4","last_reported":1702224476,"current_range_meters":0,"station_id":"ce4bgn12rcd13ifvqbt0","pricing_plan_id":"free"},{"bike_id":"2cc40eb5-5d5e-475a-8c82-9353fe6f24c8","system_id":"levelo_inurba_marseille","lat":43.2968,"lon":5.37291,"is_reserved":false,"is_disabled":false,"rental_uris":{"android":"levelo://app?vid=2cc40eb5-5d5e-475a-8c82-9353fe6f24c8","ios":"levelo://app?vid=2cc40eb5-5d5e-475a-8c82-9353fe6f24c8"},"vehicle_type_id":"4","last_reported":1702224476,"current_range_meters":24400,"station_id":"ce4bgk12rcd13ifvqbj0","pricing_plan_id":"free"},{"bike_id":"92dc65d6-6823-4de3-93d4-056f738f090c","system_id":"levelo_inurba_marseille","lat":43.316538,"lon":5.38954,"is_reserved":false,"is_disabled":false,"rental_uris":{"android":"levelo://app?vid=92dc65d6-6823-4de3-93d4-056f738f090c","ios":"levelo://app?vid=92dc65d6-6823-4de3-93d4-056f738f090c"},"vehicle_type_id":"4","last_reported":1702224476,"current_range_meters":0,"station_id":"","pricing_plan_id":"free"},{"bike_id":"5a947d45-26cf-4b86-8ecc-7b1bce033085","system_id":"levelo_inurba_marseille","lat":43.29573,"lon":5.367355,"is_reserved":false,"is_disabled":false,"rental_uris":{"android":"levelo://app?vid=5a947d45-26cf-4b86-8ecc-7b1bce033085","ios":"levelo://app?vid=5a947d45-26cf-4b86-8ecc-7b1bce033085"},"vehicle_type_id":"4","last_reported":1702224476,"current_range_meters":14800,"station_id":"ce4bgph2rcd13ifvqc2g","pricing_plan_id":"free"},{"bike_id":"944f993e-454a-4bc3-be8c-c96b0d7f08d7","system_id":"levelo_inurba_marseille","lat":43.29969,"lon":5.38489,"is_reserved":false,"is_disabled":false,"rental_uris":{"android":"levelo://app?vid=944f993e-454a-4bc3-be8c-c96b0d7f08d7","ios":"levelo://app?vid=944f993e-454a-4bc3-be8c-c96b0d7f08d7"},"vehicle_type_id":"4","last_reported":1702224476,"current_range_meters":0,"station_id":"ce4bgj92rcd13ifvqbd0","pricing_plan_id":"free"},{"bike_id":"aa6eeaff-f0ab-4722-91df-5deaaea9be9e","system_id":"levelo_inurba_marseille","lat":43.32365,"lon":5.38887,"is_reserved":false,"is_disabled":false,"rental_uris":{"android":"levelo://app?vid=aa6eeaff-f0ab-4722-91df-5deaaea9be9e","ios":"levelo://app?vid=aa6eeaff-f0ab-4722-91df-5deaaea9be9e"},"vehicle_type_id":"4","last_reported":1702224476,"current_range_meters":8400,"station_id":"ce4bhqp2rcd13ifvqhog","pricing_plan_id":"free"},{"bike_id":"97f3d39d-23a5-4a21-b4ce-ac0f9a62963d","system_id":"levelo_inurba_marseille","lat":43.302992,"lon":5.392136,"is_reserved":false,"is_disabled":false,"rental_uris":{"android":"levelo://app?vid=97f3d39d-23a5-4a21-b4ce-ac0f9a62963d","ios":"levelo://app?vid=97f3d39d-23a5-4a21-b4ce-ac0f9a62963d"},"vehicle_type_id":"4","last_reported":1702224476,"current_range_meters":0,"station_id":"ce4bgkh2rcd13ifvqbk0","pricing_plan_id":"free"},{"bike_id":"7ceee372-5b1b-46de-9ea3-949f05ed854d","system_id":"levelo_inurba_marseille","lat":43.291671,"lon":5.371575,"is_reserved":false,"is_disabled":false,"rental_uris":{"android":"levelo://app?vid=7ceee372-5b1b-46de-9ea3-949f05ed854d","ios":"levelo://app?vid=7ceee372-5b1b-46de-9ea3-949f05ed854d"},"vehicle_type_id":"4","last_reported":1702224476,"current_range_meters":2000,"station_id":"ce4bha92rcd13ifvqeh0","pricing_plan_id":"free"},{"bike_id":"e993c6be-b4ef-43b0-92c7-4249ffcb6566","system_id":"levelo_inurba_marseille","lat":43.290779,"lon":5.371482,"is_reserved":false,"is_disabled":false,"rental_uris":{"android":"levelo://app?vid=e993c6be-b4ef-43b0-92c7-4249ffcb6566","ios":"levelo://app?vid=e993c6be-b4ef-43b0-92c7-4249ffcb6566"},"vehicle_type_id":"4","last_reported":1702224476,"current_range_meters":15200,"station_id":"ce4bh5p2rcd13ifvqe4g","pricing_plan_id":"free"},{"bike_id":"97e7941c-cbe6-4bad-be50-bc21f8533532","system_id":"levelo_inurba_marseille","lat":43.290779,"lon":5.371482,"is_reserved":false,"is_disabled":false,"rental_uris":{"android":"levelo://app?vid=97e7941c-cbe6-4bad-be50-bc21f8533532","ios":"levelo://app?vid=97e7941c-cbe6-4bad-be50-bc21f8533532"},"vehicle_type_id":"4","last_reported":1702224476,"current_range_meters":24000,"station_id":"ce4bh5p2rcd13ifvqe4g","pricing_plan_id":"free"},{"bike_id":"2cbf1a2f-d796-4ee5-a4a8-51f28ba25bf1","system_id":"levelo_inurba_marseille","lat":43.290779,"lon":5.371482,"is_reserved":false,"is_disabled":false,"rental_uris":{"android":"levelo://app?vid=2cbf1a2f-d796-4ee5-a4a8-51f28ba25bf1","ios":"levelo://app?vid=2cbf1a2f-d796-4ee5-a4a8-51f28ba25bf1"},"vehicle_type_id":"4","last_reported":1702224476,"current_range_meters":9200,"station_id":"ce4bh5p2rcd13ifvqe4g","pricing_plan_id":"free"},{"bike_id":"0d55287e-6324-4a21-96f1-2aa124f5d1a5","system_id":"levelo_inurba_marseille","lat":43.290161,"lon":5.375651,"is_reserved":false,"is_disabled":false,"rental_uris":{"android":"levelo://app?vid=0d55287e-6324-4a21-96f1-2aa124f5d1a5","ios":"levelo://app?vid=0d55287e-6324-4a21-96f1-2aa124f5d1a5"},"vehicle_type_id":"4","last_reported":1702224476,"current_range_meters":9200,"station_id":"","pricing_plan_id":"free"},{"bike_id":"a02a1b20-1fb1-4951-988a-77389649024d","system_id":"levelo_inurba_marseille","lat":43.289259,"lon":5.366364,"is_reserved":false,"is_disabled":false,"rental_uris":{"android":"levelo://app?vid=a02a1b20-1fb1-4951-988a-77389649024d","ios":"levelo://app?vid=a02a1b20-1fb1-4951-988a-77389649024d"},"vehicle_type_id":"4","last_reported":1702224476,"current_range_meters":7600,"station_id":"","pricing_plan_id":"free"},{"bike_id":"7720ac5e-33de-4cea-897b-22176402e4d9","system_id":"levelo_inurba_marseille","lat":43.292644,"lon":5.384257,"is_reserved":false,"is_disabled":false,"rental_uris":{"android":"levelo://app?vid=7720ac5e-33de-4cea-897b-22176402e4d9","ios":"levelo://app?vid=7720ac5e-33de-4cea-897b-22176402e4d9"},"vehicle_type_id":"4","last_reported":1702224476,"current_range_meters":2400,"station_id":"ce4bh692rcd13ifvqea0","pricing_plan_id":"free"},{"bike_id":"08b3e7a9-1ca6-4ae9-90c0-79135746c10d","system_id":"levelo_inurba_marseille","lat":43.290104,"lon":5.356111,"is_reserved":false,"is_disabled":false,"rental_uris":{"android":"levelo://app?vid=08b3e7a9-1ca6-4ae9-90c0-79135746c10d","ios":"levelo://app?vid=08b3e7a9-1ca6-4ae9-90c0-79135746c10d"},"vehicle_type_id":"4","last_reported":1702224476,"current_range_meters":19200,"station_id":"ce4bhb92rcd13ifvqen0","pricing_plan_id":"free"},{"bike_id":"503532b6-da81-4262-9a8c-962454fd9e26","system_id":"levelo_inurba_marseille","lat":43.289741,"lon":5.378306,"is_reserved":false,"is_disabled":false,"rental_uris":{"android":"levelo://app?vid=503532b6-da81-4262-9a8c-962454fd9e26","ios":"levelo://app?vid=503532b6-da81-4262-9a8c-962454fd9e26"},"vehicle_type_id":"4","last_reported":1702224476,"current_range_meters":24400,"station_id":"ce4bh9p2rcd13ifvqed0","pricing_plan_id":"free"},{"bike_id":"77a6c46d-d898-4e4f-8846-efa91689c7f0","system_id":"levelo_inurba_marseille","lat":43.33029,"lon":5.39021,"is_reserved":false,"is_disabled":false,"rental_uris":{"android":"levelo://app?vid=77a6c46d-d898-4e4f-8846-efa91689c7f0","ios":"levelo://app?vid=77a6c46d-d898-4e4f-8846-efa91689c7f0"},"vehicle_type_id":"4","last_reported":1702224476,"current_range_meters":0,"station_id":"","pricing_plan_id":"free"},{"bike_id":"f1b60843-2f83-47b9-b018-f8bbfa441d09","system_id":"levelo_inurba_marseille","lat":43.29519,"lon":5.390345,"is_reserved":false,"is_disabled":false,"rental_uris":{"android":"levelo://app?vid=f1b60843-2f83-47b9-b018-f8bbfa441d09","ios":"levelo://app?vid=f1b60843-2f83-47b9-b018-f8bbfa441d09"},"vehicle_type_id":"4","last_reported":1702224476,"current_range_meters":0,"station_id":"ce4bh3p2rcd13ifvqdp0","pricing_plan_id":"free"},{"bike_id":"1f9f1a5b-a682-4316-a837-a4bf6439e80e","system_id":"levelo_inurba_marseille","lat":43.290104,"lon":5.356111,"is_reserved":false,"is_disabled":false,"rental_uris":{"android":"levelo://app?vid=1f9f1a5b-a682-4316-a837-a4bf6439e80e","ios":"levelo://app?vid=1f9f1a5b-a682-4316-a837-a4bf6439e80e"},"vehicle_type_id":"4","last_reported":1702224476,"current_range_meters":26400,"station_id":"ce4bhb92rcd13ifvqen0","pricing_plan_id":"free"},{"bike_id":"6183e2d0-2853-4c4f-a4eb-2c59ae1bc5c7","system_id":"levelo_inurba_marseille","lat":43.286593,"lon":5.363346,"is_reserved":false,"is_disabled":false,"rental_uris":{"android":"levelo://app?vid=6183e2d0-2853-4c4f-a4eb-2c59ae1bc5c7","ios":"levelo://app?vid=6183e2d0-2853-4c4f-a4eb-2c59ae1bc5c7"},"vehicle_type_id":"4","last_reported":1702224476,"current_range_meters":12000,"station_id":"ce4bhah2rcd13ifvqej0","pricing_plan_id":"free"},{"bike_id":"926c87f0-61d2-4f3c-aea1-b639fb2d4e91","system_id":"levelo_inurba_marseille","lat":43.298681,"lon":5.397225,"is_reserved":false,"is_disabled":false,"rental_uris":{"android":"levelo://app?vid=926c87f0-61d2-4f3c-aea1-b639fb2d4e91","ios":"levelo://app?vid=926c87f0-61d2-4f3c-aea1-b639fb2d4e91"},"vehicle_type_id":"4","last_reported":1702224476,"current_range_meters":0,"station_id":"ce4bh0h2rcd13ifvqd50","pricing_plan_id":"free"},{"bike_id":"750e762c-97d0-4063-9aad-9196c69149ca","system_id":"levelo_inurba_marseille","lat":43.286961,"lon":5.373785,"is_reserved":false,"is_disabled":false,"rental_uris":{"android":"levelo://app?vid=750e762c-97d0-4063-9aad-9196c69149ca","ios":"levelo://app?vid=750e762c-97d0-4063-9aad-9196c69149ca"},"vehicle_type_id":"4","last_reported":1702224476,"current_range_meters":14000,"station_id":"ce4bh3p2rcd13ifvqdq0","pricing_plan_id":"free"},{"bike_id":"633cd8b8-71f4-40ff-8a2f-0d8dba52aefb","system_id":"levelo_inurba_marseille","lat":43.286961,"lon":5.373785,"is_reserved":false,"is_disabled":false,"rental_uris":{"android":"levelo://app?vid=633cd8b8-71f4-40ff-8a2f-0d8dba52aefb","ios":"levelo://app?vid=633cd8b8-71f4-40ff-8a2f-0d8dba52aefb"},"vehicle_type_id":"4","last_reported":1702224476,"current_range_meters":12000,"station_id":"ce4bh3p2rcd13ifvqdq0","pricing_plan_id":"free"},{"bike_id":"69ef650e-2898-4c95-b924-e48cc3a0c24f","system_id":"levelo_inurba_marseille","lat":43.286039,"lon":5.370679,"is_reserved":false,"is_disabled":false,"rental_uris":{"android":"levelo://app?vid=69ef650e-2898-4c95-b924-e48cc3a0c24f","ios":"levelo://app?vid=69ef650e-2898-4c95-b924-e48cc3a0c24f"},"vehicle_type_id":"4","last_reported":1702224476,"current_range_meters":5600,"station_id":"ce4bht12rcd13ifvqi60","pricing_plan_id":"free"},{"bike_id":"da907fd7-fc95-4df1-a4d2-174ece66b179","system_id":"levelo_inurba_marseille","lat":43.286039,"lon":5.370679,"is_reserved":false,"is_disabled":false,"rental_uris":{"android":"levelo://app?vid=da907fd7-fc95-4df1-a4d2-174ece66b179","ios":"levelo://app?vid=da907fd7-fc95-4df1-a4d2-174ece66b179"},"vehicle_type_id":"4","last_reported":1702224476,"current_range_meters":13600,"station_id":"ce4bht12rcd13ifvqi60","pricing_plan_id":"free"},{"bike_id":"740aa878-fb5f-47e0-8bf1-403b30f81b57","system_id":"levelo_inurba_marseille","lat":43.287184,"lon":5.37937,"is_reserved":false,"is_disabled":false,"rental_uris":{"android":"levelo://app?vid=740aa878-fb5f-47e0-8bf1-403b30f81b57","ios":"levelo://app?vid=740aa878-fb5f-47e0-8bf1-403b30f81b57"},"vehicle_type_id":"4","last_reported":1702224476,"current_range_meters":14400,"station_id":"ce4bh9p2rcd13ifvqec0","pricing_plan_id":"free"},{"bike_id":"80b37920-65cb-4ec0-adcc-e2fd72b880aa","system_id":"levelo_inurba_marseille","lat":43.287184,"lon":5.37937,"is_reserved":false,"is_disabled":false,"rental_uris":{"android":"levelo://app?vid=80b37920-65cb-4ec0-adcc-e2fd72b880aa","ios":"levelo://app?vid=80b37920-65cb-4ec0-adcc-e2fd72b880aa"},"vehicle_type_id":"4","last_reported":1702224476,"current_range_meters":21200,"station_id":"ce4bh9p2rcd13ifvqec0","pricing_plan_id":"free"},{"bike_id":"4c1703b7-6cd7-4deb-a41f-23a6c6b37150","system_id":"levelo_inurba_marseille","lat":43.291994,"lon":5.392907,"is_reserved":false,"is_disabled":false,"rental_uris":{"android":"levelo://app?vid=4c1703b7-6cd7-4deb-a41f-23a6c6b37150","ios":"levelo://app?vid=4c1703b7-6cd7-4deb-a41f-23a6c6b37150"},"vehicle_type_id":"4","last_reported":1702224476,"current_range_meters":8800,"station_id":"ce4bh192rcd13ifvqdd0","pricing_plan_id":"free"},{"bike_id":"4404ece1-098d-4ec7-92bb-d74300852334","system_id":"levelo_inurba_marseille","lat":43.285848,"lon":5.350787,"is_reserved":false,"is_disabled":false,"rental_uris":{"android":"levelo://app?vid=4404ece1-098d-4ec7-92bb-d74300852334","ios":"levelo://app?vid=4404ece1-098d-4ec7-92bb-d74300852334"},"vehicle_type_id":"4","last_reported":1702224476,"current_range_meters":12000,"station_id":"ce4bhch2rcd13ifvqeug","pricing_plan_id":"free"},{"bike_id":"f1b5cdb2-7df3-4e18-9ce9-10081cd786b8","system_id":"levelo_inurba_marseille","lat":43.28431,"lon":5.37587,"is_reserved":false,"is_disabled":false,"rental_uris":{"android":"levelo://app?vid=f1b5cdb2-7df3-4e18-9ce9-10081cd786b8","ios":"levelo://app?vid=f1b5cdb2-7df3-4e18-9ce9-10081cd786b8"},"vehicle_type_id":"4","last_reported":1702224476,"current_range_meters":0,"station_id":"","pricing_plan_id":"free"},{"bike_id":"de04b6d8-9e28-4505-a70e-677d7af0f600","system_id":"levelo_inurba_marseille","lat":43.286595,"lon":5.386795,"is_reserved":false,"is_disabled":false,"rental_uris":{"android":"levelo://app?vid=de04b6d8-9e28-4505-a70e-677d7af0f600","ios":"levelo://app?vid=de04b6d8-9e28-4505-a70e-677d7af0f600"},"vehicle_type_id":"4","last_reported":1702224476,"current_range_meters":400,"station_id":"ce4bh492rcd13ifvqdug","pricing_plan_id":"free"},{"bike_id":"0a675db9-5b44-4c9b-879a-3c672eb082f9","system_id":"levelo_inurba_marseille","lat":43.323464,"lon":5.406297,"is_reserved":false,"is_disabled":false,"rental_uris":{"android":"levelo://app?vid=0a675db9-5b44-4c9b-879a-3c672eb082f9","ios":"levelo://app?vid=0a675db9-5b44-4c9b-879a-3c672eb082f9"},"vehicle_type_id":"4","last_reported":1702224476,"current_range_meters":5600,"station_id":"ce4bhq92rcd13ifvqhjg","pricing_plan_id":"free"},{"bike_id":"c1ae07a1-ac3b-43de-a1f5-47b517b928cc","system_id":"levelo_inurba_marseille","lat":43.289363,"lon":5.396322,"is_reserved":false,"is_disabled":false,"rental_uris":{"android":"levelo://app?vid=c1ae07a1-ac3b-43de-a1f5-47b517b928cc","ios":"levelo://app?vid=c1ae07a1-ac3b-43de-a1f5-47b517b928cc"},"vehicle_type_id":"4","last_reported":1702224476,"current_range_meters":15200,"station_id":"ce4bh3h2rcd13ifvqdn0","pricing_plan_id":"free"},{"bike_id":"7dcd9c40-426a-4fbe-8f01-7e9afc18b652","system_id":"levelo_inurba_marseille","lat":43.289363,"lon":5.396322,"is_reserved":false,"is_disabled":false,"rental_uris":{"android":"levelo://app?vid=7dcd9c40-426a-4fbe-8f01-7e9afc18b652","ios":"levelo://app?vid=7dcd9c40-426a-4fbe-8f01-7e9afc18b652"},"vehicle_type_id":"4","last_reported":1702224476,"current_range_meters":2400,"station_id":"ce4bh3h2rcd13ifvqdn0","pricing_plan_id":"free"},{"bike_id":"ce4befe7-ef8f-44d1-bb48-0f3ff222d974","system_id":"levelo_inurba_marseille","lat":43.28273,"lon":5.35068,"is_reserved":false,"is_disabled":false,"rental_uris":{"android":"levelo://app?vid=ce4befe7-ef8f-44d1-bb48-0f3ff222d974","ios":"levelo://app?vid=ce4befe7-ef8f-44d1-bb48-0f3ff222d974"},"vehicle_type_id":"4","last_reported":1702224476,"current_range_meters":0,"station_id":"ce4bhbp2rcd13ifvqerg","pricing_plan_id":"free"},{"bike_id":"541b9d32-5cc3-4c7c-bfe9-b34144053945","system_id":"levelo_inurba_marseille","lat":43.282744,"lon":5.350533,"is_reserved":false,"is_disabled":false,"rental_uris":{"android":"levelo://app?vid=541b9d32-5cc3-4c7c-bfe9-b34144053945","ios":"levelo://app?vid=541b9d32-5cc3-4c7c-bfe9-b34144053945"},"vehicle_type_id":"4","last_reported":1702224476,"current_range_meters":23600,"station_id":"ce4bhbp2rcd13ifvqerg","pricing_plan_id":"free"},{"bike_id":"35639ec6-36c6-4e5e-b289-042a802fa221","system_id":"levelo_inurba_marseille","lat":43.281044,"lon":5.378308,"is_reserved":false,"is_disabled":false,"rental_uris":{"android":"levelo://app?vid=35639ec6-36c6-4e5e-b289-042a802fa221","ios":"levelo://app?vid=35639ec6-36c6-4e5e-b289-042a802fa221"},"vehicle_type_id":"4","last_reported":1702224476,"current_range_meters":19600,"station_id":"ce4bha12rcd13ifvqee0","pricing_plan_id":"free"},{"bike_id":"88c04577-7298-45d9-b203-ca6795a9aa96","system_id":"levelo_inurba_marseille","lat":43.284462,"lon":5.392121,"is_reserved":false,"is_disabled":false,"rental_uris":{"android":"levelo://app?vid=88c04577-7298-45d9-b203-ca6795a9aa96","ios":"levelo://app?vid=88c04577-7298-45d9-b203-ca6795a9aa96"},"vehicle_type_id":"4","last_reported":1702224476,"current_range_meters":400,"station_id":"ce4bhoh2rcd13ifvqh5g","pricing_plan_id":"free"},{"bike_id":"65f33d3b-25dd-458f-88d2-2b971809c8e0","system_id":"levelo_inurba_marseille","lat":43.279087,"lon":5.380114,"is_reserved":false,"is_disabled":false,"rental_uris":{"android":"levelo://app?vid=65f33d3b-25dd-458f-88d2-2b971809c8e0","ios":"levelo://app?vid=65f33d3b-25dd-458f-88d2-2b971809c8e0"},"vehicle_type_id":"4","last_reported":1702224476,"current_range_meters":19600,"station_id":"ce4bhf92rcd13ifvqf50","pricing_plan_id":"free"},{"bike_id":"53ef3bd1-c0ff-49ac-8027-73dde89c840d","system_id":"levelo_inurba_marseille","lat":43.279087,"lon":5.380114,"is_reserved":false,"is_disabled":false,"rental_uris":{"android":"levelo://app?vid=53ef3bd1-c0ff-49ac-8027-73dde89c840d","ios":"levelo://app?vid=53ef3bd1-c0ff-49ac-8027-73dde89c840d"},"vehicle_type_id":"4","last_reported":1702224476,"current_range_meters":26000,"station_id":"ce4bhf92rcd13ifvqf50","pricing_plan_id":"free"},{"bike_id":"fbcbf167-fe9b-41bd-9c58-ef224abc0c71","system_id":"levelo_inurba_marseille","lat":43.320045,"lon":5.415046,"is_reserved":false,"is_disabled":false,"rental_uris":{"android":"levelo://app?vid=fbcbf167-fe9b-41bd-9c58-ef224abc0c71","ios":"levelo://app?vid=fbcbf167-fe9b-41bd-9c58-ef224abc0c71"},"vehicle_type_id":"4","last_reported":1702224476,"current_range_meters":11600,"station_id":"ce4bhq92rcd13ifvqhkg","pricing_plan_id":"free"},{"bike_id":"5bd6b1b7-ca86-4413-862a-6aefe955be0b","system_id":"levelo_inurba_marseille","lat":43.279742,"lon":5.38744,"is_reserved":false,"is_disabled":false,"rental_uris":{"android":"levelo://app?vid=5bd6b1b7-ca86-4413-862a-6aefe955be0b","ios":"levelo://app?vid=5bd6b1b7-ca86-4413-862a-6aefe955be0b"},"vehicle_type_id":"4","last_reported":1702224476,"current_range_meters":13600,"station_id":"ce4bhg12rcd13ifvqf80","pricing_plan_id":"free"},{"bike_id":"99405e2d-86d2-46d8-bdaa-9595c7aed3c4","system_id":"levelo_inurba_marseille","lat":43.29251,"lon":5.40909,"is_reserved":false,"is_disabled":false,"rental_uris":{"android":"levelo://app?vid=99405e2d-86d2-46d8-bdaa-9595c7aed3c4","ios":"levelo://app?vid=99405e2d-86d2-46d8-bdaa-9595c7aed3c4"},"vehicle_type_id":"4","last_reported":1702224476,"current_range_meters":0,"station_id":"ce4bh192rcd13ifvqdc0","pricing_plan_id":"free"},{"bike_id":"76a1ecfb-f967-47df-97b0-71b8e710bcca","system_id":"levelo_inurba_marseille","lat":43.276769,"lon":5.388787,"is_reserved":false,"is_disabled":false,"rental_uris":{"android":"levelo://app?vid=76a1ecfb-f967-47df-97b0-71b8e710bcca","ios":"levelo://app?vid=76a1ecfb-f967-47df-97b0-71b8e710bcca"},"vehicle_type_id":"4","last_reported":1702224476,"current_range_meters":21200,"station_id":"ce4bhi12rcd13ifvqfo0","pricing_plan_id":"free"},{"bike_id":"35ee71c0-aea1-44b0-af68-6b35ebef52ca","system_id":"levelo_inurba_marseille","lat":43.276769,"lon":5.388787,"is_reserved":false,"is_disabled":false,"rental_uris":{"android":"levelo://app?vid=35ee71c0-aea1-44b0-af68-6b35ebef52ca","ios":"levelo://app?vid=35ee71c0-aea1-44b0-af68-6b35ebef52ca"},"vehicle_type_id":"4","last_reported":1702224476,"current_range_meters":25600,"station_id":"ce4bhi12rcd13ifvqfo0","pricing_plan_id":"free"},{"bike_id":"e244f760-9b83-478a-9756-627edcfae872","system_id":"levelo_inurba_marseille","lat":43.317121,"lon":5.423936,"is_reserved":false,"is_disabled":false,"rental_uris":{"android":"levelo://app?vid=e244f760-9b83-478a-9756-627edcfae872","ios":"levelo://app?vid=e244f760-9b83-478a-9756-627edcfae872"},"vehicle_type_id":"4","last_reported":1702224476,"current_range_meters":6000,"station_id":"ce4bhp92rcd13ifvqhbg","pricing_plan_id":"free"},{"bike_id":"88e59060-d458-48a8-8abe-8a1913097d92","system_id":"levelo_inurba_marseille","lat":43.31714,"lon":5.42401,"is_reserved":false,"is_disabled":false,"rental_uris":{"android":"levelo://app?vid=88e59060-d458-48a8-8abe-8a1913097d92","ios":"levelo://app?vid=88e59060-d458-48a8-8abe-8a1913097d92"},"vehicle_type_id":"4","last_reported":1702224476,"current_range_meters":19200,"station_id":"ce4bhp92rcd13ifvqhbg","pricing_plan_id":"free"},{"bike_id":"63133364-316e-458e-b234-bbd4926c63fc","system_id":"levelo_inurba_marseille","lat":43.27583,"lon":5.39474,"is_reserved":false,"is_disabled":false,"rental_uris":{"android":"levelo://app?vid=63133364-316e-458e-b234-bbd4926c63fc","ios":"levelo://app?vid=63133364-316e-458e-b234-bbd4926c63fc"},"vehicle_type_id":"4","last_reported":1702224476,"current_range_meters":3200,"station_id":"","pricing_plan_id":"free"},{"bike_id":"14215e1e-c09e-42e1-ad0c-2e8044571075","system_id":"levelo_inurba_marseille","lat":43.295511,"lon":5.422926,"is_reserved":false,"is_disabled":false,"rental_uris":{"android":"levelo://app?vid=14215e1e-c09e-42e1-ad0c-2e8044571075","ios":"levelo://app?vid=14215e1e-c09e-42e1-ad0c-2e8044571075"},"vehicle_type_id":"4","last_reported":1702224476,"current_range_meters":16800,"station_id":"ce4bhph2rcd13ifvqhdg","pricing_plan_id":"free"},{"bike_id":"8d7773eb-8cfa-4695-aadd-d81486eca834","system_id":"levelo_inurba_marseille","lat":43.295523,"lon":5.422926,"is_reserved":false,"is_disabled":false,"rental_uris":{"android":"levelo://app?vid=8d7773eb-8cfa-4695-aadd-d81486eca834","ios":"levelo://app?vid=8d7773eb-8cfa-4695-aadd-d81486eca834"},"vehicle_type_id":"4","last_reported":1702224476,"current_range_meters":23200,"station_id":"ce4bhph2rcd13ifvqhdg","pricing_plan_id":"free"},{"bike_id":"73be8de9-0dde-4ef6-815b-5a26699c3c87","system_id":"levelo_inurba_marseille","lat":43.295511,"lon":5.422926,"is_reserved":false,"is_disabled":false,"rental_uris":{"android":"levelo://app?vid=73be8de9-0dde-4ef6-815b-5a26699c3c87","ios":"levelo://app?vid=73be8de9-0dde-4ef6-815b-5a26699c3c87"},"vehicle_type_id":"4","last_reported":1702224476,"current_range_meters":16400,"station_id":"ce4bhph2rcd13ifvqhdg","pricing_plan_id":"free"},{"bike_id":"73095ebf-63f5-4240-b9a5-e2c871633160","system_id":"levelo_inurba_marseille","lat":43.272116,"lon":5.391763,"is_reserved":false,"is_disabled":false,"rental_uris":{"android":"levelo://app?vid=73095ebf-63f5-4240-b9a5-e2c871633160","ios":"levelo://app?vid=73095ebf-63f5-4240-b9a5-e2c871633160"},"vehicle_type_id":"4","last_reported":1702224476,"current_range_meters":0,"station_id":"ce4bhhp2rcd13ifvqfm0","pricing_plan_id":"free"},{"bike_id":"1ec302c9-94bb-4ef2-acc3-60e6c40aa7ed","system_id":"levelo_inurba_marseille","lat":43.272116,"lon":5.391763,"is_reserved":false,"is_disabled":false,"rental_uris":{"android":"levelo://app?vid=1ec302c9-94bb-4ef2-acc3-60e6c40aa7ed","ios":"levelo://app?vid=1ec302c9-94bb-4ef2-acc3-60e6c40aa7ed"},"vehicle_type_id":"4","last_reported":1702224476,"current_range_meters":25600,"station_id":"ce4bhhp2rcd13ifvqfm0","pricing_plan_id":"free"},{"bike_id":"0cdd9024-ac4c-41da-809e-a310822509fd","system_id":"levelo_inurba_marseille","lat":43.272118,"lon":5.391758,"is_reserved":false,"is_disabled":false,"rental_uris":{"android":"levelo://app?vid=0cdd9024-ac4c-41da-809e-a310822509fd","ios":"levelo://app?vid=0cdd9024-ac4c-41da-809e-a310822509fd"},"vehicle_type_id":"4","last_reported":1702224476,"current_range_meters":22800,"station_id":"ce4bhhp2rcd13ifvqfm0","pricing_plan_id":"free"},{"bike_id":"0acbd96d-46fb-4309-8599-bb3f1cbe7195","system_id":"levelo_inurba_marseille","lat":43.278128,"lon":5.407195,"is_reserved":false,"is_disabled":false,"rental_uris":{"android":"levelo://app?vid=0acbd96d-46fb-4309-8599-bb3f1cbe7195","ios":"levelo://app?vid=0acbd96d-46fb-4309-8599-bb3f1cbe7195"},"vehicle_type_id":"4","last_reported":1702224476,"current_range_meters":23200,"station_id":"ce4bhnh2rcd13ifvqgtg","pricing_plan_id":"free"},{"bike_id":"b97b56e0-6c5f-4636-9523-78734a8d3e3e","system_id":"levelo_inurba_marseille","lat":43.278128,"lon":5.407195,"is_reserved":false,"is_disabled":false,"rental_uris":{"android":"levelo://app?vid=b97b56e0-6c5f-4636-9523-78734a8d3e3e","ios":"levelo://app?vid=b97b56e0-6c5f-4636-9523-78734a8d3e3e"},"vehicle_type_id":"4","last_reported":1702224476,"current_range_meters":20000,"station_id":"ce4bhnh2rcd13ifvqgtg","pricing_plan_id":"free"},{"bike_id":"f51b613f-7ce5-4e08-ba1d-ffef19e04286","system_id":"levelo_inurba_marseille","lat":43.269319,"lon":5.389397,"is_reserved":false,"is_disabled":false,"rental_uris":{"android":"levelo://app?vid=f51b613f-7ce5-4e08-ba1d-ffef19e04286","ios":"levelo://app?vid=f51b613f-7ce5-4e08-ba1d-ffef19e04286"},"vehicle_type_id":"4","last_reported":1702224476,"current_range_meters":28000,"station_id":"ce4bhhh2rcd13ifvqfl0","pricing_plan_id":"free"},{"bike_id":"b49195d1-5252-4b63-9ddd-c39017071e00","system_id":"levelo_inurba_marseille","lat":43.2766,"lon":5.40884,"is_reserved":false,"is_disabled":false,"rental_uris":{"android":"levelo://app?vid=b49195d1-5252-4b63-9ddd-c39017071e00","ios":"levelo://app?vid=b49195d1-5252-4b63-9ddd-c39017071e00"},"vehicle_type_id":"4","last_reported":1702224476,"current_range_meters":20000,"station_id":"","pricing_plan_id":"free"},{"bike_id":"335e8eda-a136-4c90-91da-aaf65abab7e2","system_id":"levelo_inurba_marseille","lat":43.265537,"lon":5.372898,"is_reserved":false,"is_disabled":false,"rental_uris":{"android":"levelo://app?vid=335e8eda-a136-4c90-91da-aaf65abab7e2","ios":"levelo://app?vid=335e8eda-a136-4c90-91da-aaf65abab7e2"},"vehicle_type_id":"4","last_reported":1702224476,"current_range_meters":30400,"station_id":"ce4bhg12rcd13ifvqf70","pricing_plan_id":"free"},{"bike_id":"3ad35266-5b78-499b-91ae-96e333a66dc8","system_id":"levelo_inurba_marseille","lat":43.265714,"lon":5.372891,"is_reserved":false,"is_disabled":false,"rental_uris":{"android":"levelo://app?vid=3ad35266-5b78-499b-91ae-96e333a66dc8","ios":"levelo://app?vid=3ad35266-5b78-499b-91ae-96e333a66dc8"},"vehicle_type_id":"4","last_reported":1702224476,"current_range_meters":400,"station_id":"ce4bhg12rcd13ifvqf70","pricing_plan_id":"free"},{"bike_id":"35885000-8d7e-4831-b140-16690400d5b8","system_id":"levelo_inurba_marseille","lat":43.265714,"lon":5.372891,"is_reserved":false,"is_disabled":false,"rental_uris":{"android":"levelo://app?vid=35885000-8d7e-4831-b140-16690400d5b8","ios":"levelo://app?vid=35885000-8d7e-4831-b140-16690400d5b8"},"vehicle_type_id":"4","last_reported":1702224476,"current_range_meters":8800,"station_id":"ce4bhg12rcd13ifvqf70","pricing_plan_id":"free"},{"bike_id":"6aaf000f-3d55-4c04-b344-3fcd1287de8a","system_id":"levelo_inurba_marseille","lat":43.267966,"lon":5.393976,"is_reserved":false,"is_disabled":false,"rental_uris":{"android":"levelo://app?vid=6aaf000f-3d55-4c04-b344-3fcd1287de8a","ios":"levelo://app?vid=6aaf000f-3d55-4c04-b344-3fcd1287de8a"},"vehicle_type_id":"4","last_reported":1702224476,"current_range_meters":27200,"station_id":"ce4bhh12rcd13ifvqfg0","pricing_plan_id":"free"},{"bike_id":"de4a75e4-b071-4eb8-a9a8-50a667197ba2","system_id":"levelo_inurba_marseille","lat":43.26784,"lon":5.39414,"is_reserved":false,"is_disabled":false,"rental_uris":{"android":"levelo://app?vid=de4a75e4-b071-4eb8-a9a8-50a667197ba2","ios":"levelo://app?vid=de4a75e4-b071-4eb8-a9a8-50a667197ba2"},"vehicle_type_id":"4","last_reported":1702224476,"current_range_meters":400,"station_id":"ce4bhh12rcd13ifvqfg0","pricing_plan_id":"free"},{"bike_id":"e2631985-b51d-4f03-8d77-a7a5778610e9","system_id":"levelo_inurba_marseille","lat":43.267966,"lon":5.393976,"is_reserved":false,"is_disabled":false,"rental_uris":{"android":"levelo://app?vid=e2631985-b51d-4f03-8d77-a7a5778610e9","ios":"levelo://app?vid=e2631985-b51d-4f03-8d77-a7a5778610e9"},"vehicle_type_id":"4","last_reported":1702224476,"current_range_meters":31200,"station_id":"ce4bhh12rcd13ifvqfg0","pricing_plan_id":"free"},{"bike_id":"d9905fd9-fc0a-4c9f-85fa-8aca947c9d38","system_id":"levelo_inurba_marseille","lat":43.30797,"lon":5.43515,"is_reserved":false,"is_disabled":false,"rental_uris":{"android":"levelo://app?vid=d9905fd9-fc0a-4c9f-85fa-8aca947c9d38","ios":"levelo://app?vid=d9905fd9-fc0a-4c9f-85fa-8aca947c9d38"},"vehicle_type_id":"4","last_reported":1702224476,"current_range_meters":25200,"station_id":"ce4bhph2rcd13ifvqheg","pricing_plan_id":"free"},{"bike_id":"ddad548d-7a91-4e09-b70e-31be106bf589","system_id":"levelo_inurba_marseille","lat":43.30819,"lon":5.435218,"is_reserved":false,"is_disabled":false,"rental_uris":{"android":"levelo://app?vid=ddad548d-7a91-4e09-b70e-31be106bf589","ios":"levelo://app?vid=ddad548d-7a91-4e09-b70e-31be106bf589"},"vehicle_type_id":"4","last_reported":1702224476,"current_range_meters":10800,"station_id":"ce4bhph2rcd13ifvqheg","pricing_plan_id":"free"},{"bike_id":"f3cec747-d3c8-44b7-8511-d55b874cc759","system_id":"levelo_inurba_marseille","lat":43.30797,"lon":5.43521,"is_reserved":false,"is_disabled":false,"rental_uris":{"android":"levelo://app?vid=f3cec747-d3c8-44b7-8511-d55b874cc759","ios":"levelo://app?vid=f3cec747-d3c8-44b7-8511-d55b874cc759"},"vehicle_type_id":"4","last_reported":1702224476,"current_range_meters":5200,"station_id":"ce4bhph2rcd13ifvqheg","pricing_plan_id":"free"},{"bike_id":"1594ab0c-8aba-4a4a-83ff-da41c83152d6","system_id":"levelo_inurba_marseille","lat":43.30798,"lon":5.43525,"is_reserved":false,"is_disabled":false,"rental_uris":{"android":"levelo://app?vid=1594ab0c-8aba-4a4a-83ff-da41c83152d6","ios":"levelo://app?vid=1594ab0c-8aba-4a4a-83ff-da41c83152d6"},"vehicle_type_id":"4","last_reported":1702224476,"current_range_meters":25200,"station_id":"ce4bhph2rcd13ifvqheg","pricing_plan_id":"free"},{"bike_id":"860ed94e-3556-4148-b532-45c3cf013322","system_id":"levelo_inurba_marseille","lat":43.26949,"lon":5.40262,"is_reserved":false,"is_disabled":false,"rental_uris":{"android":"levelo://app?vid=860ed94e-3556-4148-b532-45c3cf013322","ios":"levelo://app?vid=860ed94e-3556-4148-b532-45c3cf013322"},"vehicle_type_id":"4","last_reported":1702224476,"current_range_meters":2400,"station_id":"cjm6bp8fraef2m0cb0m0","pricing_plan_id":"free"},{"bike_id":"5230e88d-a704-488b-b0d4-ddd0207f24c0","system_id":"levelo_inurba_marseille","lat":43.26185,"lon":5.37445,"is_reserved":false,"is_disabled":false,"rental_uris":{"android":"levelo://app?vid=5230e88d-a704-488b-b0d4-ddd0207f24c0","ios":"levelo://app?vid=5230e88d-a704-488b-b0d4-ddd0207f24c0"},"vehicle_type_id":"4","last_reported":1702224476,"current_range_meters":20000,"station_id":"ce4bhgp2rcd13ifvqfc0","pricing_plan_id":"free"},{"bike_id":"287e9254-f263-4a4d-afd9-500f2b256a68","system_id":"levelo_inurba_marseille","lat":43.2616,"lon":5.37423,"is_reserved":false,"is_disabled":false,"rental_uris":{"android":"levelo://app?vid=287e9254-f263-4a4d-afd9-500f2b256a68","ios":"levelo://app?vid=287e9254-f263-4a4d-afd9-500f2b256a68"},"vehicle_type_id":"4","last_reported":1702224476,"current_range_meters":27200,"station_id":"ce4bhgp2rcd13ifvqfc0","pricing_plan_id":"free"},{"bike_id":"cdf271ea-e8d2-43ae-b3e1-e939dd5bf0b5","system_id":"levelo_inurba_marseille","lat":43.271368,"lon":5.40928,"is_reserved":false,"is_disabled":false,"rental_uris":{"android":"levelo://app?vid=cdf271ea-e8d2-43ae-b3e1-e939dd5bf0b5","ios":"levelo://app?vid=cdf271ea-e8d2-43ae-b3e1-e939dd5bf0b5"},"vehicle_type_id":"4","last_reported":1702224476,"current_range_meters":25200,"station_id":"ce4bhl12rcd13ifvqgf0","pricing_plan_id":"free"},{"bike_id":"7bdf0cbe-19de-443a-8495-d109a1213387","system_id":"levelo_inurba_marseille","lat":43.267959,"lon":5.402687,"is_reserved":false,"is_disabled":false,"rental_uris":{"android":"levelo://app?vid=7bdf0cbe-19de-443a-8495-d109a1213387","ios":"levelo://app?vid=7bdf0cbe-19de-443a-8495-d109a1213387"},"vehicle_type_id":"4","last_reported":1702224476,"current_range_meters":2000,"station_id":"ce501612rcd8frsf0b60","pricing_plan_id":"free"},{"bike_id":"3de0a6a1-4453-486c-a1ba-fc284c4c0e2c","system_id":"levelo_inurba_marseille","lat":43.298768,"lon":5.43643,"is_reserved":false,"is_disabled":false,"rental_uris":{"android":"levelo://app?vid=3de0a6a1-4453-486c-a1ba-fc284c4c0e2c","ios":"levelo://app?vid=3de0a6a1-4453-486c-a1ba-fc284c4c0e2c"},"vehicle_type_id":"4","last_reported":1702224476,"current_range_meters":11600,"station_id":"ce4bhpp2rcd13ifvqhfg","pricing_plan_id":"free"},{"bike_id":"bba8858e-2565-4fb8-b7f5-1043d9f538d1","system_id":"levelo_inurba_marseille","lat":43.298768,"lon":5.43643,"is_reserved":false,"is_disabled":false,"rental_uris":{"android":"levelo://app?vid=bba8858e-2565-4fb8-b7f5-1043d9f538d1","ios":"levelo://app?vid=bba8858e-2565-4fb8-b7f5-1043d9f538d1"},"vehicle_type_id":"4","last_reported":1702224476,"current_range_meters":19600,"station_id":"ce4bhpp2rcd13ifvqhfg","pricing_plan_id":"free"},{"bike_id":"0e4feb14-dd49-4feb-bdd2-a3f4fce9c7e1","system_id":"levelo_inurba_marseille","lat":43.260225,"lon":5.375455,"is_reserved":false,"is_disabled":false,"rental_uris":{"android":"levelo://app?vid=0e4feb14-dd49-4feb-bdd2-a3f4fce9c7e1","ios":"levelo://app?vid=0e4feb14-dd49-4feb-bdd2-a3f4fce9c7e1"},"vehicle_type_id":"4","last_reported":1702224476,"current_range_meters":26400,"station_id":"ce4bhgh2rcd13ifvqfa0","pricing_plan_id":"free"},{"bike_id":"b14495a2-5456-46b3-b9f0-7d55ca9ecfdb","system_id":"levelo_inurba_marseille","lat":43.260219,"lon":5.37546,"is_reserved":false,"is_disabled":false,"rental_uris":{"android":"levelo://app?vid=b14495a2-5456-46b3-b9f0-7d55ca9ecfdb","ios":"levelo://app?vid=b14495a2-5456-46b3-b9f0-7d55ca9ecfdb"},"vehicle_type_id":"4","last_reported":1702224476,"current_range_meters":29200,"station_id":"ce4bhgh2rcd13ifvqfa0","pricing_plan_id":"free"},{"bike_id":"061164b7-641f-495b-a38c-b585028018a0","system_id":"levelo_inurba_marseille","lat":43.260219,"lon":5.37546,"is_reserved":false,"is_disabled":false,"rental_uris":{"android":"levelo://app?vid=061164b7-641f-495b-a38c-b585028018a0","ios":"levelo://app?vid=061164b7-641f-495b-a38c-b585028018a0"},"vehicle_type_id":"4","last_reported":1702224476,"current_range_meters":20000,"station_id":"ce4bhgh2rcd13ifvqfa0","pricing_plan_id":"free"},{"bike_id":"7e223e96-c374-4cef-a3ba-44389560c651","system_id":"levelo_inurba_marseille","lat":43.25582,"lon":5.38232,"is_reserved":false,"is_disabled":false,"rental_uris":{"android":"levelo://app?vid=7e223e96-c374-4cef-a3ba-44389560c651","ios":"levelo://app?vid=7e223e96-c374-4cef-a3ba-44389560c651"},"vehicle_type_id":"4","last_reported":1702224476,"current_range_meters":28800,"station_id":"ce4bhih2rcd13ifvqfs0","pricing_plan_id":"free"},{"bike_id":"365cc8ec-410e-46b7-9d6c-5ca449540751","system_id":"levelo_inurba_marseille","lat":43.25583,"lon":5.38239,"is_reserved":false,"is_disabled":false,"rental_uris":{"android":"levelo://app?vid=365cc8ec-410e-46b7-9d6c-5ca449540751","ios":"levelo://app?vid=365cc8ec-410e-46b7-9d6c-5ca449540751"},"vehicle_type_id":"4","last_reported":1702224476,"current_range_meters":31200,"station_id":"ce4bhih2rcd13ifvqfs0","pricing_plan_id":"free"},{"bike_id":"20475175-60ee-4dc2-8048-0399eb061f8a","system_id":"levelo_inurba_marseille","lat":43.258224,"lon":5.394369,"is_reserved":false,"is_disabled":false,"rental_uris":{"android":"levelo://app?vid=20475175-60ee-4dc2-8048-0399eb061f8a","ios":"levelo://app?vid=20475175-60ee-4dc2-8048-0399eb061f8a"},"vehicle_type_id":"4","last_reported":1702224476,"current_range_meters":2000,"station_id":"ce4bhip2rcd13ifvqft0","pricing_plan_id":"free"},{"bike_id":"1e2aa039-02b4-44c7-afcd-27c83847a729","system_id":"levelo_inurba_marseille","lat":43.257079,"lon":5.411051,"is_reserved":false,"is_disabled":false,"rental_uris":{"android":"levelo://app?vid=1e2aa039-02b4-44c7-afcd-27c83847a729","ios":"levelo://app?vid=1e2aa039-02b4-44c7-afcd-27c83847a729"},"vehicle_type_id":"4","last_reported":1702224476,"current_range_meters":21200,"station_id":"ce4bhkp2rcd13ifvqgd0","pricing_plan_id":"free"},{"bike_id":"c56a97e7-d0a8-40bc-9cc3-b3ae396026be","system_id":"levelo_inurba_marseille","lat":43.2479,"lon":5.374457,"is_reserved":false,"is_disabled":false,"rental_uris":{"android":"levelo://app?vid=c56a97e7-d0a8-40bc-9cc3-b3ae396026be","ios":"levelo://app?vid=c56a97e7-d0a8-40bc-9cc3-b3ae396026be"},"vehicle_type_id":"4","last_reported":1702224476,"current_range_meters":1600,"station_id":"ce4bhgh2rcd13ifvqfb0","pricing_plan_id":"free"},{"bike_id":"f973388b-1c77-41d1-af01-ab0a05d15f74","system_id":"levelo_inurba_marseille","lat":43.24693,"lon":5.382096,"is_reserved":false,"is_disabled":false,"rental_uris":{"android":"levelo://app?vid=f973388b-1c77-41d1-af01-ab0a05d15f74","ios":"levelo://app?vid=f973388b-1c77-41d1-af01-ab0a05d15f74"},"vehicle_type_id":"4","last_reported":1702224476,"current_range_meters":24000,"station_id":"ce4bhih2rcd13ifvqfr0","pricing_plan_id":"free"},{"bike_id":"2b7b85f4-b570-4ed1-8a9f-9aa8763e8242","system_id":"levelo_inurba_marseille","lat":43.24693,"lon":5.382096,"is_reserved":false,"is_disabled":false,"rental_uris":{"android":"levelo://app?vid=2b7b85f4-b570-4ed1-8a9f-9aa8763e8242","ios":"levelo://app?vid=2b7b85f4-b570-4ed1-8a9f-9aa8763e8242"},"vehicle_type_id":"4","last_reported":1702224476,"current_range_meters":17600,"station_id":"ce4bhih2rcd13ifvqfr0","pricing_plan_id":"free"},{"bike_id":"53332c5e-6abf-4439-97e9-241ddc99bba9","system_id":"levelo_inurba_marseille","lat":43.24662,"lon":5.38164,"is_reserved":false,"is_disabled":false,"rental_uris":{"android":"levelo://app?vid=53332c5e-6abf-4439-97e9-241ddc99bba9","ios":"levelo://app?vid=53332c5e-6abf-4439-97e9-241ddc99bba9"},"vehicle_type_id":"4","last_reported":1702224476,"current_range_meters":25200,"station_id":"ce4bhih2rcd13ifvqfr0","pricing_plan_id":"free"},{"bike_id":"10bf211b-0495-4312-acde-ef058564271b","system_id":"levelo_inurba_marseille","lat":43.25102,"lon":5.403214,"is_reserved":false,"is_disabled":false,"rental_uris":{"android":"levelo://app?vid=10bf211b-0495-4312-acde-ef058564271b","ios":"levelo://app?vid=10bf211b-0495-4312-acde-ef058564271b"},"vehicle_type_id":"4","last_reported":1702224476,"current_range_meters":21200,"station_id":"ce4bhlh2rcd13ifvqgig","pricing_plan_id":"free"},{"bike_id":"345d6906-4d25-44aa-bb3f-c1f0b6d8fc1b","system_id":"levelo_inurba_marseille","lat":43.25113,"lon":5.40325,"is_reserved":false,"is_disabled":false,"rental_uris":{"android":"levelo://app?vid=345d6906-4d25-44aa-bb3f-c1f0b6d8fc1b","ios":"levelo://app?vid=345d6906-4d25-44aa-bb3f-c1f0b6d8fc1b"},"vehicle_type_id":"4","last_reported":1702224476,"current_range_meters":12800,"station_id":"ce4bhlh2rcd13ifvqgig","pricing_plan_id":"free"},{"bike_id":"99062b79-8f54-4826-a788-a84b43145b2a","system_id":"levelo_inurba_marseille","lat":43.25102,"lon":5.403214,"is_reserved":false,"is_disabled":false,"rental_uris":{"android":"levelo://app?vid=99062b79-8f54-4826-a788-a84b43145b2a","ios":"levelo://app?vid=99062b79-8f54-4826-a788-a84b43145b2a"},"vehicle_type_id":"4","last_reported":1702224476,"current_range_meters":10800,"station_id":"ce4bhlh2rcd13ifvqgig","pricing_plan_id":"free"},{"bike_id":"08e5b42c-4daa-4735-ae16-082b4d252e13","system_id":"levelo_inurba_marseille","lat":43.25102,"lon":5.403214,"is_reserved":false,"is_disabled":false,"rental_uris":{"android":"levelo://app?vid=08e5b42c-4daa-4735-ae16-082b4d252e13","ios":"levelo://app?vid=08e5b42c-4daa-4735-ae16-082b4d252e13"},"vehicle_type_id":"4","last_reported":1702224476,"current_range_meters":16800,"station_id":"ce4bhlh2rcd13ifvqgig","pricing_plan_id":"free"},{"bike_id":"8ca1893b-b9b6-4405-be8d-4cf3f631a3b2","system_id":"levelo_inurba_marseille","lat":43.25102,"lon":5.403214,"is_reserved":false,"is_disabled":false,"rental_uris":{"android":"levelo://app?vid=8ca1893b-b9b6-4405-be8d-4cf3f631a3b2","ios":"levelo://app?vid=8ca1893b-b9b6-4405-be8d-4cf3f631a3b2"},"vehicle_type_id":"4","last_reported":1702224476,"current_range_meters":14400,"station_id":"ce4bhlh2rcd13ifvqgig","pricing_plan_id":"free"},{"bike_id":"b30286b9-e413-4d4f-884f-416804912d2f","system_id":"levelo_inurba_marseille","lat":43.243884,"lon":5.370736,"is_reserved":false,"is_disabled":false,"rental_uris":{"android":"levelo://app?vid=b30286b9-e413-4d4f-884f-416804912d2f","ios":"levelo://app?vid=b30286b9-e413-4d4f-884f-416804912d2f"},"vehicle_type_id":"4","last_reported":1702224476,"current_range_meters":4400,"station_id":"ce4bhhh2rcd13ifvqfk0","pricing_plan_id":"free"},{"bike_id":"d65965c1-e0fd-4ba9-9ea1-c5168d1a44d9","system_id":"levelo_inurba_marseille","lat":43.23966,"lon":5.36635,"is_reserved":false,"is_disabled":false,"rental_uris":{"android":"levelo://app?vid=d65965c1-e0fd-4ba9-9ea1-c5168d1a44d9","ios":"levelo://app?vid=d65965c1-e0fd-4ba9-9ea1-c5168d1a44d9"},"vehicle_type_id":"4","last_reported":1702224476,"current_range_meters":6400,"station_id":"","pricing_plan_id":"free"},{"bike_id":"b6a776ce-13b2-4208-b2f0-5e3aa91df954","system_id":"levelo_inurba_marseille","lat":43.241782,"lon":5.397261,"is_reserved":false,"is_disabled":false,"rental_uris":{"android":"levelo://app?vid=b6a776ce-13b2-4208-b2f0-5e3aa91df954","ios":"levelo://app?vid=b6a776ce-13b2-4208-b2f0-5e3aa91df954"},"vehicle_type_id":"4","last_reported":1702224476,"current_range_meters":12400,"station_id":"ce4bhn12rcd13ifvqgpg","pricing_plan_id":"free"},{"bike_id":"cfc4a276-4a67-412c-8f70-0b8c1f09f05d","system_id":"levelo_inurba_marseille","lat":43.23197,"lon":5.35545,"is_reserved":false,"is_disabled":false,"rental_uris":{"android":"levelo://app?vid=cfc4a276-4a67-412c-8f70-0b8c1f09f05d","ios":"levelo://app?vid=cfc4a276-4a67-412c-8f70-0b8c1f09f05d"},"vehicle_type_id":"4","last_reported":1702224476,"current_range_meters":29600,"station_id":"ce4bhu92rcd13ifvqi70","pricing_plan_id":"free"},{"bike_id":"70de4b94-f8e9-4e69-8eac-9f8975eede73","system_id":"levelo_inurba_marseille","lat":43.231919,"lon":5.355532,"is_reserved":false,"is_disabled":false,"rental_uris":{"android":"levelo://app?vid=70de4b94-f8e9-4e69-8eac-9f8975eede73","ios":"levelo://app?vid=70de4b94-f8e9-4e69-8eac-9f8975eede73"},"vehicle_type_id":"4","last_reported":1702224476,"current_range_meters":800,"station_id":"ce4bhu92rcd13ifvqi70","pricing_plan_id":"free"},{"bike_id":"02f7724a-f80f-4c24-b8ee-a8d20f805013","system_id":"levelo_inurba_marseille","lat":43.231919,"lon":5.355532,"is_reserved":false,"is_disabled":false,"rental_uris":{"android":"levelo://app?vid=02f7724a-f80f-4c24-b8ee-a8d20f805013","ios":"levelo://app?vid=02f7724a-f80f-4c24-b8ee-a8d20f805013"},"vehicle_type_id":"4","last_reported":1702224476,"current_range_meters":13600,"station_id":"ce4bhu92rcd13ifvqi70","pricing_plan_id":"free"},{"bike_id":"94024ee9-217d-460e-beb9-dedc4d158d29","system_id":"levelo_inurba_marseille","lat":43.231919,"lon":5.355532,"is_reserved":false,"is_disabled":false,"rental_uris":{"android":"levelo://app?vid=94024ee9-217d-460e-beb9-dedc4d158d29","ios":"levelo://app?vid=94024ee9-217d-460e-beb9-dedc4d158d29"},"vehicle_type_id":"4","last_reported":1702224476,"current_range_meters":28400,"station_id":"ce4bhu92rcd13ifvqi70","pricing_plan_id":"free"}]}}