{"last_updated":1682532507,"ttl":30,"version":"2.2","data":{"bikes":[{"bike_id":"5fe8d3ee-ba77-46eb-b5d3-8b2587c3e910","system_id":"levelo_inurba_marseille","lat":43.312239,"lon":5.368562,"is_reserved":false,"is_disabled":false,"rental_uris":{"android":"levelo://app?vid=5fe8d3ee-ba77-46eb-b5d3-8b2587c3e910","ios":"levelo://app?vid=5fe8d3ee-ba77-46eb-b5d3-8b2587c3e910"},"vehicle_type_id":"4","last_reported":1682532508,"current_range_meters":7600,"station_id":"ce4bgl92rcd13ifvqbq0","pricing_plan_id":"free"},{"bike_id":"e4245077-3ad9-416f-80b3-9e1fd0271ac5","system_id":"levelo_inurba_marseille","lat":43.312239,"lon":5.368562,"is_reserved":false,"is_disabled":false,"rental_uris":{"android":"levelo://app?vid=e4245077-3ad9-416f-80b3-9e1fd0271ac5","ios":"levelo://app?vid=e4245077-3ad9-416f-80b3-9e1fd0271ac5"},"vehicle_type_id":"4","last_reported":1682532508,"current_range_meters":7600,"station_id":"ce4bgl92rcd13ifvqbq0","pricing_plan_id":"free"},{"bike_id":"32546074-198d-4090-9f6b-f550b441b2f2","system_id":"levelo_inurba_marseille","lat":43.314811,"lon":5.373103,"is_reserved":false,"is_disabled":false,"rental_uris":{"android":"levelo://app?vid=32546074-198d-4090-9f6b-f550b441b2f2","ios":"levelo://app?vid=32546074-198d-4090-9f6b-f550b441b2f2"},"vehicle_type_id":"4","last_reported":1682532508,"current_range_meters":24000,"station_id":"ce4bgt12rcd13ifvqcd0","pricing_plan_id":"free"},{"bike_id":"c300e8ac-af6a-495c-92a2-34e9e6e1b775","system_id":"levelo_inurba_marseille","lat":43.314811,"lon":5.373103,"is_reserved":false,"is_disabled":false,"rental_uris":{"android":"levelo://app?vid=c300e8ac-af6a-495c-92a2-34e9e6e1b775","ios":"levelo://app?vid=c300e8ac-af6a-495c-92a2-34e9e6e1b775"},"vehicle_type_id":"4","last_reported":1682532508,"current_range_meters":4000,"station_id":"ce4bgt12rcd13ifvqcd0","pricing_plan_id":"free"},{"bike_id":"a5b49646-4c5c-44a7-bb38-ae769e69cf1b","system_id":"levelo_inurba_marseille","lat":43.314811,"lon":5.373104,"is_reserved":false,"is_disabled":false,"rental_uris":{"android":"levelo://app?vid=a5b49646-4c5c-44a7-bb38-ae769e69cf1b","ios":"levelo://app?vid=a5b49646-4c5c-44a7-bb38-ae769e69cf1b"},"vehicle_type_id":"4","last_reported":1682532508,"current_range_meters":28000,"station_id":"ce4bgt12rcd13ifvqcd0","pricing_plan_id":"free"},{"bike_id":"0ee27f8f-c48f-40cd-ae0a-8f818cfee92f","system_id":"levelo_inurba_marseille","lat":43.30897,"lon":5.37189,"is_reserved":false,"is_disabled":false,"rental_uris":{"android":"levelo://app?vid=0ee27f8f-c48f-40cd-ae0a-8f818cfee92f","ios":"levelo://app?vid=0ee27f8f-c48f-40cd-ae0a-8f818cfee92f"},"vehicle_type_id":"4","last_reported":1682532508,"current_range_meters":12800,"station_id":"","pricing_plan_id":"free"},{"bike_id":"1a9f351a-749a-41de-abc7-4235437e9832","system_id":"levelo_inurba_marseille","lat":43.30884,"lon":5.37194,"is_reserved":false,"is_disabled":false,"rental_uris":{"android":"levelo://app?vid=1a9f351a-749a-41de-abc7-4235437e9832","ios":"levelo://app?vid=1a9f351a-749a-41de-abc7-4235437e9832"},"vehicle_type_id":"4","last_reported":1682532508,"current_range_meters":13200,"station_id":"","pricing_plan_id":"free"},{"bike_id":"824da3e7-6bdf-42a9-84e6-4abb639b678c","system_id":"levelo_inurba_marseille","lat":43.305368,"lon":5.367343,"is_reserved":false,"is_disabled":false,"rental_uris":{"android":"levelo://app?vid=824da3e7-6bdf-42a9-84e6-4abb639b678c","ios":"levelo://app?vid=824da3e7-6bdf-42a9-84e6-4abb639b678c"},"vehicle_type_id":"4","last_reported":1682532508,"current_range_meters":28000,"station_id":"ce4bgrp2rcd13ifvqc9g","pricing_plan_id":"free"},{"bike_id":"074ceb80-1b56-4997-b500-40df6a204e4f","system_id":"levelo_inurba_marseille","lat":43.311131,"lon":5.377651,"is_reserved":false,"is_disabled":false,"rental_uris":{"android":"levelo://app?vid=074ceb80-1b56-4997-b500-40df6a204e4f","ios":"levelo://app?vid=074ceb80-1b56-4997-b500-40df6a204e4f"},"vehicle_type_id":"4","last_reported":1682532508,"current_range_meters":20400,"station_id":"ce4bgt92rcd13ifvqcg0","pricing_plan_id":"free"},{"bike_id":"4fc65e7a-e159-42d7-b02f-e296d2a3624d","system_id":"levelo_inurba_marseille","lat":43.311131,"lon":5.377651,"is_reserved":false,"is_disabled":false,"rental_uris":{"android":"levelo://app?vid=4fc65e7a-e159-42d7-b02f-e296d2a3624d","ios":"levelo://app?vid=4fc65e7a-e159-42d7-b02f-e296d2a3624d"},"vehicle_type_id":"4","last_reported":1682532508,"current_range_meters":25200,"station_id":"ce4bgt92rcd13ifvqcg0","pricing_plan_id":"free"},{"bike_id":"fb39bcae-b78a-473e-85cb-89d639aab8c3","system_id":"levelo_inurba_marseille","lat":43.311131,"lon":5.377651,"is_reserved":false,"is_disabled":false,"rental_uris":{"android":"levelo://app?vid=fb39bcae-b78a-473e-85cb-89d639aab8c3","ios":"levelo://app?vid=fb39bcae-b78a-473e-85cb-89d639aab8c3"},"vehicle_type_id":"4","last_reported":1682532508,"current_range_meters":10400,"station_id":"ce4bgt92rcd13ifvqcg0","pricing_plan_id":"free"},{"bike_id":"8e3f8ba3-f9aa-4d16-a320-d8529559cdae","system_id":"levelo_inurba_marseille","lat":43.31702,"lon":5.37755,"is_reserved":false,"is_disabled":false,"rental_uris":{"android":"levelo://app?vid=8e3f8ba3-f9aa-4d16-a320-d8529559cdae","ios":"levelo://app?vid=8e3f8ba3-f9aa-4d16-a320-d8529559cdae"},"vehicle_type_id":"4","last_reported":1682532508,"current_range_meters":6000,"station_id":"ce4bgth2rcd13ifvqch0","pricing_plan_id":"free"},{"bike_id":"576c5878-4eb6-4160-850d-176eef759703","system_id":"levelo_inurba_marseille","lat":43.317075,"lon":5.377367,"is_reserved":false,"is_disabled":false,"rental_uris":{"android":"levelo://app?vid=576c5878-4eb6-4160-850d-176eef759703","ios":"levelo://app?vid=576c5878-4eb6-4160-850d-176eef759703"},"vehicle_type_id":"4","last_reported":1682532508,"current_range_meters":19200,"station_id":"ce4bgth2rcd13ifvqch0","pricing_plan_id":"free"},{"bike_id":"46a5d66b-aa77-4c8e-b1d2-66b4986465d3","system_id":"levelo_inurba_marseille","lat":43.317075,"lon":5.377367,"is_reserved":false,"is_disabled":false,"rental_uris":{"android":"levelo://app?vid=46a5d66b-aa77-4c8e-b1d2-66b4986465d3","ios":"levelo://app?vid=46a5d66b-aa77-4c8e-b1d2-66b4986465d3"},"vehicle_type_id":"4","last_reported":1682532508,"current_range_meters":31200,"station_id":"ce4bgth2rcd13ifvqch0","pricing_plan_id":"free"},{"bike_id":"3c4e6c8c-df65-4deb-8995-f8befa733260","system_id":"levelo_inurba_marseille","lat":43.31534,"lon":5.37884,"is_reserved":false,"is_disabled":false,"rental_uris":{"android":"levelo://app?vid=3c4e6c8c-df65-4deb-8995-f8befa733260","ios":"levelo://app?vid=3c4e6c8c-df65-4deb-8995-f8befa733260"},"vehicle_type_id":"4","last_reported":1682532508,"current_range_meters":0,"station_id":"","pricing_plan_id":"free"},{"bike_id":"7d359ab5-b540-4dc3-9eaa-5366ce0eb505","system_id":"levelo_inurba_marseille","lat":43.30319,"lon":5.36885,"is_reserved":false,"is_disabled":false,"rental_uris":{"android":"levelo://app?vid=7d359ab5-b540-4dc3-9eaa-5366ce0eb505","ios":"levelo://app?vid=7d359ab5-b540-4dc3-9eaa-5366ce0eb505"},"vehicle_type_id":"4","last_reported":1682532508,"current_range_meters":26000,"station_id":"ce4bgqh2rcd13ifvqc5g","pricing_plan_id":"free"},{"bike_id":"879c9de2-92ef-4f64-b179-afb92e6c403f","system_id":"levelo_inurba_marseille","lat":43.30306,"lon":5.36903,"is_reserved":false,"is_disabled":false,"rental_uris":{"android":"levelo://app?vid=879c9de2-92ef-4f64-b179-afb92e6c403f","ios":"levelo://app?vid=879c9de2-92ef-4f64-b179-afb92e6c403f"},"vehicle_type_id":"4","last_reported":1682532508,"current_range_meters":4800,"station_id":"ce4bgqh2rcd13ifvqc5g","pricing_plan_id":"free"},{"bike_id":"03032757-504c-4ebd-bf26-6d76c5ac40db","system_id":"levelo_inurba_marseille","lat":43.31533,"lon":5.38031,"is_reserved":false,"is_disabled":false,"rental_uris":{"android":"levelo://app?vid=03032757-504c-4ebd-bf26-6d76c5ac40db","ios":"levelo://app?vid=03032757-504c-4ebd-bf26-6d76c5ac40db"},"vehicle_type_id":"4","last_reported":1682532508,"current_range_meters":29600,"station_id":"ce4bhsp2rcd13ifvqi50","pricing_plan_id":"free"},{"bike_id":"4b7f622a-9d3b-4809-9372-3f0e187bc8a6","system_id":"levelo_inurba_marseille","lat":43.301939,"lon":5.366286,"is_reserved":false,"is_disabled":false,"rental_uris":{"android":"levelo://app?vid=4b7f622a-9d3b-4809-9372-3f0e187bc8a6","ios":"levelo://app?vid=4b7f622a-9d3b-4809-9372-3f0e187bc8a6"},"vehicle_type_id":"4","last_reported":1682532508,"current_range_meters":0,"station_id":"ce4bgrh2rcd13ifvqc8g","pricing_plan_id":"free"},{"bike_id":"31c6a4e2-8441-4d7e-b64c-0312f0adfee2","system_id":"levelo_inurba_marseille","lat":43.30197,"lon":5.36606,"is_reserved":false,"is_disabled":false,"rental_uris":{"android":"levelo://app?vid=31c6a4e2-8441-4d7e-b64c-0312f0adfee2","ios":"levelo://app?vid=31c6a4e2-8441-4d7e-b64c-0312f0adfee2"},"vehicle_type_id":"4","last_reported":1682532508,"current_range_meters":10400,"station_id":"ce4bgrh2rcd13ifvqc8g","pricing_plan_id":"free"},{"bike_id":"3bbcd917-2bfa-40ab-b4b9-b8699d877f18","system_id":"levelo_inurba_marseille","lat":43.308012,"lon":5.381511,"is_reserved":false,"is_disabled":false,"rental_uris":{"android":"levelo://app?vid=3bbcd917-2bfa-40ab-b4b9-b8699d877f18","ios":"levelo://app?vid=3bbcd917-2bfa-40ab-b4b9-b8699d877f18"},"vehicle_type_id":"4","last_reported":1682532508,"current_range_meters":1200,"station_id":"ce4bgt12rcd13ifvqce0","pricing_plan_id":"free"},{"bike_id":"fa237cf5-5a56-400c-83f0-45a226e46de4","system_id":"levelo_inurba_marseille","lat":43.30264,"lon":5.3748,"is_reserved":false,"is_disabled":false,"rental_uris":{"android":"levelo://app?vid=fa237cf5-5a56-400c-83f0-45a226e46de4","ios":"levelo://app?vid=fa237cf5-5a56-400c-83f0-45a226e46de4"},"vehicle_type_id":"4","last_reported":1682532508,"current_range_meters":15200,"station_id":"","pricing_plan_id":"free"},{"bike_id":"4664304f-ec34-4258-9a59-5ea46255db92","system_id":"levelo_inurba_marseille","lat":43.304606,"lon":5.379026,"is_reserved":false,"is_disabled":false,"rental_uris":{"android":"levelo://app?vid=4664304f-ec34-4258-9a59-5ea46255db92","ios":"levelo://app?vid=4664304f-ec34-4258-9a59-5ea46255db92"},"vehicle_type_id":"4","last_reported":1682532508,"current_range_meters":30000,"station_id":"ce4bgup2rcd13ifvqcn0","pricing_plan_id":"free"},{"bike_id":"e798be9e-5e91-4bad-9bdd-b291f4d225c3","system_id":"levelo_inurba_marseille","lat":43.304606,"lon":5.379026,"is_reserved":false,"is_disabled":false,"rental_uris":{"android":"levelo://app?vid=e798be9e-5e91-4bad-9bdd-b291f4d225c3","ios":"levelo://app?vid=e798be9e-5e91-4bad-9bdd-b291f4d225c3"},"vehicle_type_id":"4","last_reported":1682532508,"current_range_meters":30000,"station_id":"ce4bgup2rcd13ifvqcn0","pricing_plan_id":"free"},{"bike_id":"59a9f55b-db9a-444b-86c7-88e29649bae3","system_id":"levelo_inurba_marseille","lat":43.304606,"lon":5.379026,"is_reserved":false,"is_disabled":false,"rental_uris":{"android":"levelo://app?vid=59a9f55b-db9a-444b-86c7-88e29649bae3","ios":"levelo://app?vid=59a9f55b-db9a-444b-86c7-88e29649bae3"},"vehicle_type_id":"4","last_reported":1682532508,"current_range_meters":28400,"station_id":"ce4bgup2rcd13ifvqcn0","pricing_plan_id":"free"},{"bike_id":"ced3ee66-3ef0-4881-bc96-dd59d2f8ad3d","system_id":"levelo_inurba_marseille","lat":43.308012,"lon":5.381511,"is_reserved":false,"is_disabled":false,"rental_uris":{"android":"levelo://app?vid=ced3ee66-3ef0-4881-bc96-dd59d2f8ad3d","ios":"levelo://app?vid=ced3ee66-3ef0-4881-bc96-dd59d2f8ad3d"},"vehicle_type_id":"4","last_reported":1682532508,"current_range_meters":5200,"station_id":"ce4bgt12rcd13ifvqce0","pricing_plan_id":"free"},{"bike_id":"cd4f3b76-a7aa-4901-bb30-f36c67a8a93a","system_id":"levelo_inurba_marseille","lat":43.304606,"lon":5.379026,"is_reserved":false,"is_disabled":false,"rental_uris":{"android":"levelo://app?vid=cd4f3b76-a7aa-4901-bb30-f36c67a8a93a","ios":"levelo://app?vid=cd4f3b76-a7aa-4901-bb30-f36c67a8a93a"},"vehicle_type_id":"4","last_reported":1682532508,"current_range_meters":30400,"station_id":"ce4bgup2rcd13ifvqcn0","pricing_plan_id":"free"},{"bike_id":"7c792ecd-143d-48c5-9a33-f9e6e80bf771","system_id":"levelo_inurba_marseille","lat":43.304606,"lon":5.379026,"is_reserved":false,"is_disabled":false,"rental_uris":{"android":"levelo://app?vid=7c792ecd-143d-48c5-9a33-f9e6e80bf771","ios":"levelo://app?vid=7c792ecd-143d-48c5-9a33-f9e6e80bf771"},"vehicle_type_id":"4","last_reported":1682532508,"current_range_meters":20800,"station_id":"ce4bgup2rcd13ifvqcn0","pricing_plan_id":"free"},{"bike_id":"7030b101-5e76-4a42-a4bc-d3e9d1d8b342","system_id":"levelo_inurba_marseille","lat":43.304606,"lon":5.379026,"is_reserved":false,"is_disabled":false,"rental_uris":{"android":"levelo://app?vid=7030b101-5e76-4a42-a4bc-d3e9d1d8b342","ios":"levelo://app?vid=7030b101-5e76-4a42-a4bc-d3e9d1d8b342"},"vehicle_type_id":"4","last_reported":1682532508,"current_range_meters":8400,"station_id":"ce4bgup2rcd13ifvqcn0","pricing_plan_id":"free"},{"bike_id":"eebf2585-e554-480d-a68b-fd0eaf1c8ac1","system_id":"levelo_inurba_marseille","lat":43.304606,"lon":5.379026,"is_reserved":false,"is_disabled":false,"rental_uris":{"android":"levelo://app?vid=eebf2585-e554-480d-a68b-fd0eaf1c8ac1","ios":"levelo://app?vid=eebf2585-e554-480d-a68b-fd0eaf1c8ac1"},"vehicle_type_id":"4","last_reported":1682532508,"current_range_meters":24400,"station_id":"ce4bgup2rcd13ifvqcn0","pricing_plan_id":"free"},{"bike_id":"151524a5-3559-4bb0-b3fe-c395f489b821","system_id":"levelo_inurba_marseille","lat":43.304606,"lon":5.379026,"is_reserved":false,"is_disabled":false,"rental_uris":{"android":"levelo://app?vid=151524a5-3559-4bb0-b3fe-c395f489b821","ios":"levelo://app?vid=151524a5-3559-4bb0-b3fe-c395f489b821"},"vehicle_type_id":"4","last_reported":1682532508,"current_range_meters":29200,"station_id":"ce4bgup2rcd13ifvqcn0","pricing_plan_id":"free"},{"bike_id":"53d0877a-8181-425a-9259-c66eeb353f3d","system_id":"levelo_inurba_marseille","lat":43.31434,"lon":5.38362,"is_reserved":false,"is_disabled":false,"rental_uris":{"android":"levelo://app?vid=53d0877a-8181-425a-9259-c66eeb353f3d","ios":"levelo://app?vid=53d0877a-8181-425a-9259-c66eeb353f3d"},"vehicle_type_id":"4","last_reported":1682532508,"current_range_meters":17600,"station_id":"","pricing_plan_id":"free"},{"bike_id":"a75ca7b0-1c7e-4046-b6a3-a674e1c8761e","system_id":"levelo_inurba_marseille","lat":43.30143,"lon":5.37413,"is_reserved":false,"is_disabled":false,"rental_uris":{"android":"levelo://app?vid=a75ca7b0-1c7e-4046-b6a3-a674e1c8761e","ios":"levelo://app?vid=a75ca7b0-1c7e-4046-b6a3-a674e1c8761e"},"vehicle_type_id":"4","last_reported":1682532508,"current_range_meters":11200,"station_id":"ce4bgs92rcd13ifvqcc0","pricing_plan_id":"free"},{"bike_id":"fb9eb740-cbbe-4d65-b631-3698d9af4b72","system_id":"levelo_inurba_marseille","lat":43.313571,"lon":5.384829,"is_reserved":false,"is_disabled":false,"rental_uris":{"android":"levelo://app?vid=fb9eb740-cbbe-4d65-b631-3698d9af4b72","ios":"levelo://app?vid=fb9eb740-cbbe-4d65-b631-3698d9af4b72"},"vehicle_type_id":"4","last_reported":1682532508,"current_range_meters":28000,"station_id":"ce4bgt92rcd13ifvqcf0","pricing_plan_id":"free"},{"bike_id":"db74adca-46e8-4153-8813-fce25e1a2796","system_id":"levelo_inurba_marseille","lat":43.299222,"lon":5.365554,"is_reserved":false,"is_disabled":false,"rental_uris":{"android":"levelo://app?vid=db74adca-46e8-4153-8813-fce25e1a2796","ios":"levelo://app?vid=db74adca-46e8-4153-8813-fce25e1a2796"},"vehicle_type_id":"4","last_reported":1682532508,"current_range_meters":5600,"station_id":"ce4bgm92rcd13ifvqbr0","pricing_plan_id":"free"},{"bike_id":"801b3c97-e84e-489c-9215-e28f2659c2cd","system_id":"levelo_inurba_marseille","lat":43.299222,"lon":5.365554,"is_reserved":false,"is_disabled":false,"rental_uris":{"android":"levelo://app?vid=801b3c97-e84e-489c-9215-e28f2659c2cd","ios":"levelo://app?vid=801b3c97-e84e-489c-9215-e28f2659c2cd"},"vehicle_type_id":"4","last_reported":1682532508,"current_range_meters":24400,"station_id":"ce4bgm92rcd13ifvqbr0","pricing_plan_id":"free"},{"bike_id":"93c83ded-5707-4d07-affe-863a9e321997","system_id":"levelo_inurba_marseille","lat":43.299222,"lon":5.365554,"is_reserved":false,"is_disabled":false,"rental_uris":{"android":"levelo://app?vid=93c83ded-5707-4d07-affe-863a9e321997","ios":"levelo://app?vid=93c83ded-5707-4d07-affe-863a9e321997"},"vehicle_type_id":"4","last_reported":1682532508,"current_range_meters":28400,"station_id":"ce4bgm92rcd13ifvqbr0","pricing_plan_id":"free"},{"bike_id":"4537427c-df05-41b4-bcc1-79ce479b837a","system_id":"levelo_inurba_marseille","lat":43.299222,"lon":5.365554,"is_reserved":false,"is_disabled":false,"rental_uris":{"android":"levelo://app?vid=4537427c-df05-41b4-bcc1-79ce479b837a","ios":"levelo://app?vid=4537427c-df05-41b4-bcc1-79ce479b837a"},"vehicle_type_id":"4","last_reported":1682532508,"current_range_meters":26000,"station_id":"ce4bgm92rcd13ifvqbr0","pricing_plan_id":"free"},{"bike_id":"2766f96d-d3ae-4bae-bb3d-06fdc087ea86","system_id":"levelo_inurba_marseille","lat":43.299222,"lon":5.365554,"is_reserved":false,"is_disabled":false,"rental_uris":{"android":"levelo://app?vid=2766f96d-d3ae-4bae-bb3d-06fdc087ea86","ios":"levelo://app?vid=2766f96d-d3ae-4bae-bb3d-06fdc087ea86"},"vehicle_type_id":"4","last_reported":1682532508,"current_range_meters":18400,"station_id":"ce4bgm92rcd13ifvqbr0","pricing_plan_id":"free"},{"bike_id":"aed05689-5b9d-4dae-ae54-1069c9d6e5cf","system_id":"levelo_inurba_marseille","lat":43.299222,"lon":5.365554,"is_reserved":false,"is_disabled":false,"rental_uris":{"android":"levelo://app?vid=aed05689-5b9d-4dae-ae54-1069c9d6e5cf","ios":"levelo://app?vid=aed05689-5b9d-4dae-ae54-1069c9d6e5cf"},"vehicle_type_id":"4","last_reported":1682532508,"current_range_meters":24400,"station_id":"ce4bgm92rcd13ifvqbr0","pricing_plan_id":"free"},{"bike_id":"f26805ab-4c28-4a9b-9ebc-b98e33e104b5","system_id":"levelo_inurba_marseille","lat":43.299222,"lon":5.365554,"is_reserved":false,"is_disabled":false,"rental_uris":{"android":"levelo://app?vid=f26805ab-4c28-4a9b-9ebc-b98e33e104b5","ios":"levelo://app?vid=f26805ab-4c28-4a9b-9ebc-b98e33e104b5"},"vehicle_type_id":"4","last_reported":1682532508,"current_range_meters":19200,"station_id":"ce4bgm92rcd13ifvqbr0","pricing_plan_id":"free"},{"bike_id":"db2c9f36-dedf-4185-8c2e-f362837f4e7b","system_id":"levelo_inurba_marseille","lat":43.299222,"lon":5.365554,"is_reserved":false,"is_disabled":false,"rental_uris":{"android":"levelo://app?vid=db2c9f36-dedf-4185-8c2e-f362837f4e7b","ios":"levelo://app?vid=db2c9f36-dedf-4185-8c2e-f362837f4e7b"},"vehicle_type_id":"4","last_reported":1682532508,"current_range_meters":24800,"station_id":"ce4bgm92rcd13ifvqbr0","pricing_plan_id":"free"},{"bike_id":"00f8efff-04ce-474f-9f19-a7c82661626c","system_id":"levelo_inurba_marseille","lat":43.299222,"lon":5.365554,"is_reserved":false,"is_disabled":false,"rental_uris":{"android":"levelo://app?vid=00f8efff-04ce-474f-9f19-a7c82661626c","ios":"levelo://app?vid=00f8efff-04ce-474f-9f19-a7c82661626c"},"vehicle_type_id":"4","last_reported":1682532508,"current_range_meters":1200,"station_id":"ce4bgm92rcd13ifvqbr0","pricing_plan_id":"free"},{"bike_id":"c5057f6f-8471-4de9-a621-864f102976ee","system_id":"levelo_inurba_marseille","lat":43.299318,"lon":5.365511,"is_reserved":false,"is_disabled":false,"rental_uris":{"android":"levelo://app?vid=c5057f6f-8471-4de9-a621-864f102976ee","ios":"levelo://app?vid=c5057f6f-8471-4de9-a621-864f102976ee"},"vehicle_type_id":"4","last_reported":1682532508,"current_range_meters":3200,"station_id":"ce4bgm92rcd13ifvqbr0","pricing_plan_id":"free"},{"bike_id":"d988b5dd-dedf-438c-bc8b-51950382c34d","system_id":"levelo_inurba_marseille","lat":43.299222,"lon":5.365554,"is_reserved":false,"is_disabled":false,"rental_uris":{"android":"levelo://app?vid=d988b5dd-dedf-438c-bc8b-51950382c34d","ios":"levelo://app?vid=d988b5dd-dedf-438c-bc8b-51950382c34d"},"vehicle_type_id":"4","last_reported":1682532508,"current_range_meters":4400,"station_id":"ce4bgm92rcd13ifvqbr0","pricing_plan_id":"free"},{"bike_id":"1303219a-6289-4fc4-9519-f62ae9e611a0","system_id":"levelo_inurba_marseille","lat":43.299222,"lon":5.365554,"is_reserved":false,"is_disabled":false,"rental_uris":{"android":"levelo://app?vid=1303219a-6289-4fc4-9519-f62ae9e611a0","ios":"levelo://app?vid=1303219a-6289-4fc4-9519-f62ae9e611a0"},"vehicle_type_id":"4","last_reported":1682532508,"current_range_meters":2800,"station_id":"ce4bgm92rcd13ifvqbr0","pricing_plan_id":"free"},{"bike_id":"ab6d8543-709e-4c27-acc0-713e2d23bd26","system_id":"levelo_inurba_marseille","lat":43.29855,"lon":5.36291,"is_reserved":false,"is_disabled":false,"rental_uris":{"android":"levelo://app?vid=ab6d8543-709e-4c27-acc0-713e2d23bd26","ios":"levelo://app?vid=ab6d8543-709e-4c27-acc0-713e2d23bd26"},"vehicle_type_id":"4","last_reported":1682532508,"current_range_meters":3200,"station_id":"ce4bgpp2rcd13ifvqc3g","pricing_plan_id":"free"},{"bike_id":"612f454c-1243-4a82-966d-a32e0829adc2","system_id":"levelo_inurba_marseille","lat":43.29854,"lon":5.36286,"is_reserved":false,"is_disabled":false,"rental_uris":{"android":"levelo://app?vid=612f454c-1243-4a82-966d-a32e0829adc2","ios":"levelo://app?vid=612f454c-1243-4a82-966d-a32e0829adc2"},"vehicle_type_id":"4","last_reported":1682532508,"current_range_meters":19200,"station_id":"ce4bgpp2rcd13ifvqc3g","pricing_plan_id":"free"},{"bike_id":"0c3324e6-3051-442b-aa68-5f4192a5c286","system_id":"levelo_inurba_marseille","lat":43.298433,"lon":5.362774,"is_reserved":false,"is_disabled":false,"rental_uris":{"android":"levelo://app?vid=0c3324e6-3051-442b-aa68-5f4192a5c286","ios":"levelo://app?vid=0c3324e6-3051-442b-aa68-5f4192a5c286"},"vehicle_type_id":"4","last_reported":1682532508,"current_range_meters":31200,"station_id":"ce4bgpp2rcd13ifvqc3g","pricing_plan_id":"free"},{"bike_id":"1f267c1a-e466-4eee-9e42-67237860370c","system_id":"levelo_inurba_marseille","lat":43.29853,"lon":5.36284,"is_reserved":false,"is_disabled":false,"rental_uris":{"android":"levelo://app?vid=1f267c1a-e466-4eee-9e42-67237860370c","ios":"levelo://app?vid=1f267c1a-e466-4eee-9e42-67237860370c"},"vehicle_type_id":"4","last_reported":1682532508,"current_range_meters":31200,"station_id":"ce4bgpp2rcd13ifvqc3g","pricing_plan_id":"free"},{"bike_id":"6db889ae-3e91-472a-993c-20a664618433","system_id":"levelo_inurba_marseille","lat":43.298433,"lon":5.362774,"is_reserved":false,"is_disabled":false,"rental_uris":{"android":"levelo://app?vid=6db889ae-3e91-472a-993c-20a664618433","ios":"levelo://app?vid=6db889ae-3e91-472a-993c-20a664618433"},"vehicle_type_id":"4","last_reported":1682532508,"current_range_meters":31200,"station_id":"ce4bgpp2rcd13ifvqc3g","pricing_plan_id":"free"},{"bike_id":"2de390bc-094a-40ef-9b7c-a3a3ac86c866","system_id":"levelo_inurba_marseille","lat":43.29852,"lon":5.36286,"is_reserved":false,"is_disabled":false,"rental_uris":{"android":"levelo://app?vid=2de390bc-094a-40ef-9b7c-a3a3ac86c866","ios":"levelo://app?vid=2de390bc-094a-40ef-9b7c-a3a3ac86c866"},"vehicle_type_id":"4","last_reported":1682532508,"current_range_meters":2800,"station_id":"ce4bgpp2rcd13ifvqc3g","pricing_plan_id":"free"},{"bike_id":"5de51c49-731f-4ac7-b7a4-ec3e73f4fdbe","system_id":"levelo_inurba_marseille","lat":43.305364,"lon":5.384119,"is_reserved":false,"is_disabled":false,"rental_uris":{"android":"levelo://app?vid=5de51c49-731f-4ac7-b7a4-ec3e73f4fdbe","ios":"levelo://app?vid=5de51c49-731f-4ac7-b7a4-ec3e73f4fdbe"},"vehicle_type_id":"4","last_reported":1682532508,"current_range_meters":22800,"station_id":"ce4bgg92rcd13ifvqb30","pricing_plan_id":"free"},{"bike_id":"57027eda-7ff5-4424-99be-759cb0b00d17","system_id":"levelo_inurba_marseille","lat":43.298433,"lon":5.362774,"is_reserved":false,"is_disabled":false,"rental_uris":{"android":"levelo://app?vid=57027eda-7ff5-4424-99be-759cb0b00d17","ios":"levelo://app?vid=57027eda-7ff5-4424-99be-759cb0b00d17"},"vehicle_type_id":"4","last_reported":1682532508,"current_range_meters":31200,"station_id":"ce4bgpp2rcd13ifvqc3g","pricing_plan_id":"free"},{"bike_id":"a156fc89-a7d4-4012-a6d2-e752ffe0a6cb","system_id":"levelo_inurba_marseille","lat":43.298433,"lon":5.362774,"is_reserved":false,"is_disabled":false,"rental_uris":{"android":"levelo://app?vid=a156fc89-a7d4-4012-a6d2-e752ffe0a6cb","ios":"levelo://app?vid=a156fc89-a7d4-4012-a6d2-e752ffe0a6cb"},"vehicle_type_id":"4","last_reported":1682532508,"current_range_meters":31200,"station_id":"ce4bgpp2rcd13ifvqc3g","pricing_plan_id":"free"},{"bike_id":"467ebec5-d049-401d-8d3e-66d9ea09690e","system_id":"levelo_inurba_marseille","lat":43.298433,"lon":5.362774,"is_reserved":false,"is_disabled":false,"rental_uris":{"android":"levelo://app?vid=467ebec5-d049-401d-8d3e-66d9ea09690e","ios":"levelo://app?vid=467ebec5-d049-401d-8d3e-66d9ea09690e"},"vehicle_type_id":"4","last_reported":1682532508,"current_range_meters":31200,"station_id":"ce4bgpp2rcd13ifvqc3g","pricing_plan_id":"free"},{"bike_id":"aa33121d-41a6-4b33-8fda-fa4fbf7653a6","system_id":"levelo_inurba_marseille","lat":43.298433,"lon":5.362774,"is_reserved":false,"is_disabled":false,"rental_uris":{"android":"levelo://app?vid=aa33121d-41a6-4b33-8fda-fa4fbf7653a6","ios":"levelo://app?vid=aa33121d-41a6-4b33-8fda-fa4fbf7653a6"},"vehicle_type_id":"4","last_reported":1682532508,"current_range_meters":22000,"station_id":"ce4bgpp2rcd13ifvqc3g","pricing_plan_id":"free"},{"bike_id":"54f77e47-b920-4352-9c58-d64a75c4fbfd","system_id":"levelo_inurba_marseille","lat":43.298433,"lon":5.362774,"is_reserved":false,"is_disabled":false,"rental_uris":{"android":"levelo://app?vid=54f77e47-b920-4352-9c58-d64a75c4fbfd","ios":"levelo://app?vid=54f77e47-b920-4352-9c58-d64a75c4fbfd"},"vehicle_type_id":"4","last_reported":1682532508,"current_range_meters":31200,"station_id":"ce4bgpp2rcd13ifvqc3g","pricing_plan_id":"free"},{"bike_id":"ba7d5993-5f1a-4705-9d79-dd8741076d99","system_id":"levelo_inurba_marseille","lat":43.29848,"lon":5.36269,"is_reserved":false,"is_disabled":false,"rental_uris":{"android":"levelo://app?vid=ba7d5993-5f1a-4705-9d79-dd8741076d99","ios":"levelo://app?vid=ba7d5993-5f1a-4705-9d79-dd8741076d99"},"vehicle_type_id":"4","last_reported":1682532508,"current_range_meters":31200,"station_id":"ce4bgpp2rcd13ifvqc3g","pricing_plan_id":"free"},{"bike_id":"b0eeeab1-625a-49e8-9159-7d34760cc666","system_id":"levelo_inurba_marseille","lat":43.29846,"lon":5.36269,"is_reserved":false,"is_disabled":false,"rental_uris":{"android":"levelo://app?vid=b0eeeab1-625a-49e8-9159-7d34760cc666","ios":"levelo://app?vid=b0eeeab1-625a-49e8-9159-7d34760cc666"},"vehicle_type_id":"4","last_reported":1682532508,"current_range_meters":15200,"station_id":"ce4bgpp2rcd13ifvqc3g","pricing_plan_id":"free"},{"bike_id":"e0517098-4270-4237-8de4-566d202c74e4","system_id":"levelo_inurba_marseille","lat":43.298433,"lon":5.362774,"is_reserved":false,"is_disabled":false,"rental_uris":{"android":"levelo://app?vid=e0517098-4270-4237-8de4-566d202c74e4","ios":"levelo://app?vid=e0517098-4270-4237-8de4-566d202c74e4"},"vehicle_type_id":"4","last_reported":1682532508,"current_range_meters":7200,"station_id":"ce4bgpp2rcd13ifvqc3g","pricing_plan_id":"free"},{"bike_id":"2628c25f-c1e4-4125-8773-0a716600d547","system_id":"levelo_inurba_marseille","lat":43.298433,"lon":5.362774,"is_reserved":false,"is_disabled":false,"rental_uris":{"android":"levelo://app?vid=2628c25f-c1e4-4125-8773-0a716600d547","ios":"levelo://app?vid=2628c25f-c1e4-4125-8773-0a716600d547"},"vehicle_type_id":"4","last_reported":1682532508,"current_range_meters":20000,"station_id":"ce4bgpp2rcd13ifvqc3g","pricing_plan_id":"free"},{"bike_id":"eb6fed4c-ae88-4dda-91ad-a6615c9233d2","system_id":"levelo_inurba_marseille","lat":43.298433,"lon":5.362774,"is_reserved":false,"is_disabled":false,"rental_uris":{"android":"levelo://app?vid=eb6fed4c-ae88-4dda-91ad-a6615c9233d2","ios":"levelo://app?vid=eb6fed4c-ae88-4dda-91ad-a6615c9233d2"},"vehicle_type_id":"4","last_reported":1682532508,"current_range_meters":31600,"station_id":"ce4bgpp2rcd13ifvqc3g","pricing_plan_id":"free"},{"bike_id":"dc84be03-2bf6-45f5-aac7-fe711718fb04","system_id":"levelo_inurba_marseille","lat":43.298433,"lon":5.362774,"is_reserved":false,"is_disabled":false,"rental_uris":{"android":"levelo://app?vid=dc84be03-2bf6-45f5-aac7-fe711718fb04","ios":"levelo://app?vid=dc84be03-2bf6-45f5-aac7-fe711718fb04"},"vehicle_type_id":"4","last_reported":1682532508,"current_range_meters":31200,"station_id":"ce4bgpp2rcd13ifvqc3g","pricing_plan_id":"free"},{"bike_id":"f4e0ea6a-42f2-473f-a1d3-1e4aeee20173","system_id":"levelo_inurba_marseille","lat":43.299243,"lon":5.37481,"is_reserved":false,"is_disabled":false,"rental_uris":{"android":"levelo://app?vid=f4e0ea6a-42f2-473f-a1d3-1e4aeee20173","ios":"levelo://app?vid=f4e0ea6a-42f2-473f-a1d3-1e4aeee20173"},"vehicle_type_id":"4","last_reported":1682532508,"current_range_meters":5600,"station_id":"ce4bgjh2rcd13ifvqbg0","pricing_plan_id":"free"},{"bike_id":"fb43f880-c25e-4cc5-b1d9-79a03c376264","system_id":"levelo_inurba_marseille","lat":43.311722,"lon":5.387247,"is_reserved":false,"is_disabled":false,"rental_uris":{"android":"levelo://app?vid=fb43f880-c25e-4cc5-b1d9-79a03c376264","ios":"levelo://app?vid=fb43f880-c25e-4cc5-b1d9-79a03c376264"},"vehicle_type_id":"4","last_reported":1682532508,"current_range_meters":30400,"station_id":"ce4bgv12rcd13ifvqcp0","pricing_plan_id":"free"},{"bike_id":"38e5c9d3-0841-441d-af24-2387a9874281","system_id":"levelo_inurba_marseille","lat":43.311722,"lon":5.387247,"is_reserved":false,"is_disabled":false,"rental_uris":{"android":"levelo://app?vid=38e5c9d3-0841-441d-af24-2387a9874281","ios":"levelo://app?vid=38e5c9d3-0841-441d-af24-2387a9874281"},"vehicle_type_id":"4","last_reported":1682532508,"current_range_meters":14000,"station_id":"ce4bgv12rcd13ifvqcp0","pricing_plan_id":"free"},{"bike_id":"f3c295e8-bae1-409d-bf6e-d964eb8927c3","system_id":"levelo_inurba_marseille","lat":43.32749,"lon":5.36704,"is_reserved":false,"is_disabled":false,"rental_uris":{"android":"levelo://app?vid=f3c295e8-bae1-409d-bf6e-d964eb8927c3","ios":"levelo://app?vid=f3c295e8-bae1-409d-bf6e-d964eb8927c3"},"vehicle_type_id":"4","last_reported":1682532508,"current_range_meters":16400,"station_id":"","pricing_plan_id":"free"},{"bike_id":"35c62913-6d6b-4c4a-83fd-fbcfe34dd554","system_id":"levelo_inurba_marseille","lat":43.311722,"lon":5.387247,"is_reserved":false,"is_disabled":false,"rental_uris":{"android":"levelo://app?vid=35c62913-6d6b-4c4a-83fd-fbcfe34dd554","ios":"levelo://app?vid=35c62913-6d6b-4c4a-83fd-fbcfe34dd554"},"vehicle_type_id":"4","last_reported":1682532508,"current_range_meters":31200,"station_id":"ce4bgv12rcd13ifvqcp0","pricing_plan_id":"free"},{"bike_id":"59b6feec-7939-4f15-a67d-9d231965a9e4","system_id":"levelo_inurba_marseille","lat":43.299243,"lon":5.374807,"is_reserved":false,"is_disabled":false,"rental_uris":{"android":"levelo://app?vid=59b6feec-7939-4f15-a67d-9d231965a9e4","ios":"levelo://app?vid=59b6feec-7939-4f15-a67d-9d231965a9e4"},"vehicle_type_id":"4","last_reported":1682532508,"current_range_meters":18400,"station_id":"ce4bgjh2rcd13ifvqbg0","pricing_plan_id":"free"},{"bike_id":"d53940ca-4c3e-4a4b-bc60-23ac3467bf8f","system_id":"levelo_inurba_marseille","lat":43.297794,"lon":5.370888,"is_reserved":false,"is_disabled":false,"rental_uris":{"android":"levelo://app?vid=d53940ca-4c3e-4a4b-bc60-23ac3467bf8f","ios":"levelo://app?vid=d53940ca-4c3e-4a4b-bc60-23ac3467bf8f"},"vehicle_type_id":"4","last_reported":1682532508,"current_range_meters":24800,"station_id":"ce4bgop2rcd13ifvqc1g","pricing_plan_id":"free"},{"bike_id":"f47e9305-1388-4838-94e3-4dd46bb086c2","system_id":"levelo_inurba_marseille","lat":43.32826,"lon":5.36686,"is_reserved":false,"is_disabled":false,"rental_uris":{"android":"levelo://app?vid=f47e9305-1388-4838-94e3-4dd46bb086c2","ios":"levelo://app?vid=f47e9305-1388-4838-94e3-4dd46bb086c2"},"vehicle_type_id":"4","last_reported":1682532508,"current_range_meters":14400,"station_id":"ce4bhs92rcd13ifvqi0g","pricing_plan_id":"free"},{"bike_id":"a07b6f04-6ed4-41f2-b90a-863cc4ca5121","system_id":"levelo_inurba_marseille","lat":43.3283,"lon":5.36683,"is_reserved":false,"is_disabled":false,"rental_uris":{"android":"levelo://app?vid=a07b6f04-6ed4-41f2-b90a-863cc4ca5121","ios":"levelo://app?vid=a07b6f04-6ed4-41f2-b90a-863cc4ca5121"},"vehicle_type_id":"4","last_reported":1682532508,"current_range_meters":15200,"station_id":"ce4bhs92rcd13ifvqi0g","pricing_plan_id":"free"},{"bike_id":"04ea76ac-c581-4b8b-9be6-f04ea62fd801","system_id":"levelo_inurba_marseille","lat":43.32831,"lon":5.36689,"is_reserved":false,"is_disabled":false,"rental_uris":{"android":"levelo://app?vid=04ea76ac-c581-4b8b-9be6-f04ea62fd801","ios":"levelo://app?vid=04ea76ac-c581-4b8b-9be6-f04ea62fd801"},"vehicle_type_id":"4","last_reported":1682532508,"current_range_meters":25200,"station_id":"ce4bhs92rcd13ifvqi0g","pricing_plan_id":"free"},{"bike_id":"98f06e54-70f0-4b6a-8611-f39b45bed021","system_id":"levelo_inurba_marseille","lat":43.32831,"lon":5.36682,"is_reserved":false,"is_disabled":false,"rental_uris":{"android":"levelo://app?vid=98f06e54-70f0-4b6a-8611-f39b45bed021","ios":"levelo://app?vid=98f06e54-70f0-4b6a-8611-f39b45bed021"},"vehicle_type_id":"4","last_reported":1682532508,"current_range_meters":21200,"station_id":"ce4bhs92rcd13ifvqi0g","pricing_plan_id":"free"},{"bike_id":"6eaef6cc-1e34-406a-a675-cdb32bb320c1","system_id":"levelo_inurba_marseille","lat":43.328371,"lon":5.366912,"is_reserved":false,"is_disabled":false,"rental_uris":{"android":"levelo://app?vid=6eaef6cc-1e34-406a-a675-cdb32bb320c1","ios":"levelo://app?vid=6eaef6cc-1e34-406a-a675-cdb32bb320c1"},"vehicle_type_id":"4","last_reported":1682532508,"current_range_meters":20000,"station_id":"ce4bhs92rcd13ifvqi0g","pricing_plan_id":"free"},{"bike_id":"3465bd78-9cf1-4302-9b2d-da15145258cd","system_id":"levelo_inurba_marseille","lat":43.328371,"lon":5.366912,"is_reserved":false,"is_disabled":false,"rental_uris":{"android":"levelo://app?vid=3465bd78-9cf1-4302-9b2d-da15145258cd","ios":"levelo://app?vid=3465bd78-9cf1-4302-9b2d-da15145258cd"},"vehicle_type_id":"4","last_reported":1682532508,"current_range_meters":8000,"station_id":"ce4bhs92rcd13ifvqi0g","pricing_plan_id":"free"},{"bike_id":"20a10097-224b-4875-a224-7e2e7ba26c0f","system_id":"levelo_inurba_marseille","lat":43.328371,"lon":5.366912,"is_reserved":false,"is_disabled":false,"rental_uris":{"android":"levelo://app?vid=20a10097-224b-4875-a224-7e2e7ba26c0f","ios":"levelo://app?vid=20a10097-224b-4875-a224-7e2e7ba26c0f"},"vehicle_type_id":"4","last_reported":1682532508,"current_range_meters":27600,"station_id":"ce4bhs92rcd13ifvqi0g","pricing_plan_id":"free"},{"bike_id":"40e120c1-341c-4eb9-af16-4922003687fa","system_id":"levelo_inurba_marseille","lat":43.328371,"lon":5.366912,"is_reserved":false,"is_disabled":false,"rental_uris":{"android":"levelo://app?vid=40e120c1-341c-4eb9-af16-4922003687fa","ios":"levelo://app?vid=40e120c1-341c-4eb9-af16-4922003687fa"},"vehicle_type_id":"4","last_reported":1682532508,"current_range_meters":24800,"station_id":"ce4bhs92rcd13ifvqi0g","pricing_plan_id":"free"},{"bike_id":"2d8e2b35-bd7d-4b83-b94d-43a333a4a09a","system_id":"levelo_inurba_marseille","lat":43.32837,"lon":5.36687,"is_reserved":false,"is_disabled":false,"rental_uris":{"android":"levelo://app?vid=2d8e2b35-bd7d-4b83-b94d-43a333a4a09a","ios":"levelo://app?vid=2d8e2b35-bd7d-4b83-b94d-43a333a4a09a"},"vehicle_type_id":"4","last_reported":1682532508,"current_range_meters":3600,"station_id":"ce4bhs92rcd13ifvqi0g","pricing_plan_id":"free"},{"bike_id":"f5330e98-3000-4a99-b839-c61fb48a0b7d","system_id":"levelo_inurba_marseille","lat":43.328371,"lon":5.366912,"is_reserved":false,"is_disabled":false,"rental_uris":{"android":"levelo://app?vid=f5330e98-3000-4a99-b839-c61fb48a0b7d","ios":"levelo://app?vid=f5330e98-3000-4a99-b839-c61fb48a0b7d"},"vehicle_type_id":"4","last_reported":1682532508,"current_range_meters":24000,"station_id":"ce4bhs92rcd13ifvqi0g","pricing_plan_id":"free"},{"bike_id":"4204096c-20dc-40f7-852f-a8aca1e95a2a","system_id":"levelo_inurba_marseille","lat":43.2968,"lon":5.37291,"is_reserved":false,"is_disabled":false,"rental_uris":{"android":"levelo://app?vid=4204096c-20dc-40f7-852f-a8aca1e95a2a","ios":"levelo://app?vid=4204096c-20dc-40f7-852f-a8aca1e95a2a"},"vehicle_type_id":"4","last_reported":1682532508,"current_range_meters":28400,"station_id":"ce4bgk12rcd13ifvqbj0","pricing_plan_id":"free"},{"bike_id":"7574f22d-0464-4344-8053-38e15ec54b2b","system_id":"levelo_inurba_marseille","lat":43.296129,"lon":5.370777,"is_reserved":false,"is_disabled":false,"rental_uris":{"android":"levelo://app?vid=7574f22d-0464-4344-8053-38e15ec54b2b","ios":"levelo://app?vid=7574f22d-0464-4344-8053-38e15ec54b2b"},"vehicle_type_id":"4","last_reported":1682532508,"current_range_meters":31200,"station_id":"ce4bgnh2rcd13ifvqc0g","pricing_plan_id":"free"},{"bike_id":"2c4fadec-975a-4b5d-bdee-47a835127bcc","system_id":"levelo_inurba_marseille","lat":43.296131,"lon":5.370791,"is_reserved":false,"is_disabled":false,"rental_uris":{"android":"levelo://app?vid=2c4fadec-975a-4b5d-bdee-47a835127bcc","ios":"levelo://app?vid=2c4fadec-975a-4b5d-bdee-47a835127bcc"},"vehicle_type_id":"4","last_reported":1682532508,"current_range_meters":31200,"station_id":"ce4bgnh2rcd13ifvqc0g","pricing_plan_id":"free"},{"bike_id":"f12d2c6c-8c23-49a3-b14e-de669eace127","system_id":"levelo_inurba_marseille","lat":43.29573,"lon":5.367355,"is_reserved":false,"is_disabled":false,"rental_uris":{"android":"levelo://app?vid=f12d2c6c-8c23-49a3-b14e-de669eace127","ios":"levelo://app?vid=f12d2c6c-8c23-49a3-b14e-de669eace127"},"vehicle_type_id":"4","last_reported":1682532508,"current_range_meters":28800,"station_id":"ce4bgph2rcd13ifvqc2g","pricing_plan_id":"free"},{"bike_id":"10333cc2-f1d1-40c6-a3b9-453cb2b06c51","system_id":"levelo_inurba_marseille","lat":43.29573,"lon":5.367355,"is_reserved":false,"is_disabled":false,"rental_uris":{"android":"levelo://app?vid=10333cc2-f1d1-40c6-a3b9-453cb2b06c51","ios":"levelo://app?vid=10333cc2-f1d1-40c6-a3b9-453cb2b06c51"},"vehicle_type_id":"4","last_reported":1682532508,"current_range_meters":15600,"station_id":"ce4bgph2rcd13ifvqc2g","pricing_plan_id":"free"},{"bike_id":"615027b5-f6a9-4adf-8d45-61309a085d61","system_id":"levelo_inurba_marseille","lat":43.29622,"lon":5.37164,"is_reserved":false,"is_disabled":false,"rental_uris":{"android":"levelo://app?vid=615027b5-f6a9-4adf-8d45-61309a085d61","ios":"levelo://app?vid=615027b5-f6a9-4adf-8d45-61309a085d61"},"vehicle_type_id":"4","last_reported":1682532508,"current_range_meters":25600,"station_id":"","pricing_plan_id":"free"},{"bike_id":"4c318088-5d3f-4419-992f-d3d21cee67d2","system_id":"levelo_inurba_marseille","lat":43.296131,"lon":5.370773,"is_reserved":false,"is_disabled":false,"rental_uris":{"android":"levelo://app?vid=4c318088-5d3f-4419-992f-d3d21cee67d2","ios":"levelo://app?vid=4c318088-5d3f-4419-992f-d3d21cee67d2"},"vehicle_type_id":"4","last_reported":1682532508,"current_range_meters":6000,"station_id":"ce4bgnh2rcd13ifvqc0g","pricing_plan_id":"free"},{"bike_id":"c2cf5a41-06b7-42e5-9eb4-a630b0556380","system_id":"levelo_inurba_marseille","lat":43.29573,"lon":5.367355,"is_reserved":false,"is_disabled":false,"rental_uris":{"android":"levelo://app?vid=c2cf5a41-06b7-42e5-9eb4-a630b0556380","ios":"levelo://app?vid=c2cf5a41-06b7-42e5-9eb4-a630b0556380"},"vehicle_type_id":"4","last_reported":1682532508,"current_range_meters":16000,"station_id":"ce4bgph2rcd13ifvqc2g","pricing_plan_id":"free"},{"bike_id":"c1007e75-1941-4357-a1bf-4c30b1d5bffe","system_id":"levelo_inurba_marseille","lat":43.29573,"lon":5.367355,"is_reserved":false,"is_disabled":false,"rental_uris":{"android":"levelo://app?vid=c1007e75-1941-4357-a1bf-4c30b1d5bffe","ios":"levelo://app?vid=c1007e75-1941-4357-a1bf-4c30b1d5bffe"},"vehicle_type_id":"4","last_reported":1682532508,"current_range_meters":2800,"station_id":"ce4bgph2rcd13ifvqc2g","pricing_plan_id":"free"},{"bike_id":"953624bf-6b67-4081-a3bb-54a57751d1ef","system_id":"levelo_inurba_marseille","lat":43.309589,"lon":5.390258,"is_reserved":false,"is_disabled":false,"rental_uris":{"android":"levelo://app?vid=953624bf-6b67-4081-a3bb-54a57751d1ef","ios":"levelo://app?vid=953624bf-6b67-4081-a3bb-54a57751d1ef"},"vehicle_type_id":"4","last_reported":1682532508,"current_range_meters":20800,"station_id":"ce4bgup2rcd13ifvqco0","pricing_plan_id":"free"},{"bike_id":"fc989361-095a-4bcd-b0d6-affb11d016de","system_id":"levelo_inurba_marseille","lat":43.309589,"lon":5.390258,"is_reserved":false,"is_disabled":false,"rental_uris":{"android":"levelo://app?vid=fc989361-095a-4bcd-b0d6-affb11d016de","ios":"levelo://app?vid=fc989361-095a-4bcd-b0d6-affb11d016de"},"vehicle_type_id":"4","last_reported":1682532508,"current_range_meters":24400,"station_id":"ce4bgup2rcd13ifvqco0","pricing_plan_id":"free"},{"bike_id":"154678bb-6ba3-496d-9c94-7177947dd8ec","system_id":"levelo_inurba_marseille","lat":43.309589,"lon":5.390258,"is_reserved":false,"is_disabled":false,"rental_uris":{"android":"levelo://app?vid=154678bb-6ba3-496d-9c94-7177947dd8ec","ios":"levelo://app?vid=154678bb-6ba3-496d-9c94-7177947dd8ec"},"vehicle_type_id":"4","last_reported":1682532508,"current_range_meters":25600,"station_id":"ce4bgup2rcd13ifvqco0","pricing_plan_id":"free"},{"bike_id":"f847c1bf-4d92-4e9b-89c4-da83a13de3b3","system_id":"levelo_inurba_marseille","lat":43.317557,"lon":5.390173,"is_reserved":false,"is_disabled":false,"rental_uris":{"android":"levelo://app?vid=f847c1bf-4d92-4e9b-89c4-da83a13de3b3","ios":"levelo://app?vid=f847c1bf-4d92-4e9b-89c4-da83a13de3b3"},"vehicle_type_id":"4","last_reported":1682532508,"current_range_meters":13200,"station_id":"ce4bhqp2rcd13ifvqhng","pricing_plan_id":"free"},{"bike_id":"0f0068e9-669e-48da-8f57-a1fb94cf8e7e","system_id":"levelo_inurba_marseille","lat":43.304278,"lon":5.388868,"is_reserved":false,"is_disabled":false,"rental_uris":{"android":"levelo://app?vid=0f0068e9-669e-48da-8f57-a1fb94cf8e7e","ios":"levelo://app?vid=0f0068e9-669e-48da-8f57-a1fb94cf8e7e"},"vehicle_type_id":"4","last_reported":1682532508,"current_range_meters":14400,"station_id":"ce4bgk12rcd13ifvqbi0","pricing_plan_id":"free"},{"bike_id":"65f02be4-1dab-4b1e-8407-93668f1f340d","system_id":"levelo_inurba_marseille","lat":43.304274,"lon":5.388873,"is_reserved":false,"is_disabled":false,"rental_uris":{"android":"levelo://app?vid=65f02be4-1dab-4b1e-8407-93668f1f340d","ios":"levelo://app?vid=65f02be4-1dab-4b1e-8407-93668f1f340d"},"vehicle_type_id":"4","last_reported":1682532508,"current_range_meters":15600,"station_id":"ce4bgk12rcd13ifvqbi0","pricing_plan_id":"free"},{"bike_id":"a691678d-382e-4148-88c2-435c9b67b8b3","system_id":"levelo_inurba_marseille","lat":43.29796,"lon":5.38099,"is_reserved":false,"is_disabled":false,"rental_uris":{"android":"levelo://app?vid=a691678d-382e-4148-88c2-435c9b67b8b3","ios":"levelo://app?vid=a691678d-382e-4148-88c2-435c9b67b8b3"},"vehicle_type_id":"4","last_reported":1682532508,"current_range_meters":17600,"station_id":"ce4bgip2rcd13ifvqbb0","pricing_plan_id":"free"},{"bike_id":"aeaaf3f1-44b1-454a-a134-b4c114f33e08","system_id":"levelo_inurba_marseille","lat":43.304274,"lon":5.388873,"is_reserved":false,"is_disabled":false,"rental_uris":{"android":"levelo://app?vid=aeaaf3f1-44b1-454a-a134-b4c114f33e08","ios":"levelo://app?vid=aeaaf3f1-44b1-454a-a134-b4c114f33e08"},"vehicle_type_id":"4","last_reported":1682532508,"current_range_meters":23600,"station_id":"ce4bgk12rcd13ifvqbi0","pricing_plan_id":"free"},{"bike_id":"a5f90781-6790-4845-89da-d4355c64f982","system_id":"levelo_inurba_marseille","lat":43.304278,"lon":5.388868,"is_reserved":false,"is_disabled":false,"rental_uris":{"android":"levelo://app?vid=a5f90781-6790-4845-89da-d4355c64f982","ios":"levelo://app?vid=a5f90781-6790-4845-89da-d4355c64f982"},"vehicle_type_id":"4","last_reported":1682532508,"current_range_meters":16000,"station_id":"ce4bgk12rcd13ifvqbi0","pricing_plan_id":"free"},{"bike_id":"4d6934c7-7e91-402a-b3f1-ec2e37d7d94c","system_id":"levelo_inurba_marseille","lat":43.304278,"lon":5.388868,"is_reserved":false,"is_disabled":false,"rental_uris":{"android":"levelo://app?vid=4d6934c7-7e91-402a-b3f1-ec2e37d7d94c","ios":"levelo://app?vid=4d6934c7-7e91-402a-b3f1-ec2e37d7d94c"},"vehicle_type_id":"4","last_reported":1682532508,"current_range_meters":7200,"station_id":"ce4bgk12rcd13ifvqbi0","pricing_plan_id":"free"},{"bike_id":"8e217675-7dca-4fa5-8e01-21fc3afe14e3","system_id":"levelo_inurba_marseille","lat":43.295715,"lon":5.375316,"is_reserved":false,"is_disabled":false,"rental_uris":{"android":"levelo://app?vid=8e217675-7dca-4fa5-8e01-21fc3afe14e3","ios":"levelo://app?vid=8e217675-7dca-4fa5-8e01-21fc3afe14e3"},"vehicle_type_id":"4","last_reported":1682532508,"current_range_meters":26800,"station_id":"ce4bhah2rcd13ifvqei0","pricing_plan_id":"free"},{"bike_id":"243c556f-ab3f-429f-8fe2-8d06ae41c70f","system_id":"levelo_inurba_marseille","lat":43.29551,"lon":5.37464,"is_reserved":false,"is_disabled":false,"rental_uris":{"android":"levelo://app?vid=243c556f-ab3f-429f-8fe2-8d06ae41c70f","ios":"levelo://app?vid=243c556f-ab3f-429f-8fe2-8d06ae41c70f"},"vehicle_type_id":"4","last_reported":1682532508,"current_range_meters":11600,"station_id":"ce4bgqh2rcd13ifvqc5g","pricing_plan_id":"free"},{"bike_id":"9069ae6f-14b3-4338-b8f9-939e5d8c5ce6","system_id":"levelo_inurba_marseille","lat":43.295279,"lon":5.375048,"is_reserved":false,"is_disabled":false,"rental_uris":{"android":"levelo://app?vid=9069ae6f-14b3-4338-b8f9-939e5d8c5ce6","ios":"levelo://app?vid=9069ae6f-14b3-4338-b8f9-939e5d8c5ce6"},"vehicle_type_id":"4","last_reported":1682532508,"current_range_meters":0,"station_id":"ce4bgkp2rcd13ifvqbmg","pricing_plan_id":"free"},{"bike_id":"2ea4fd76-10be-46d0-a792-0b8b02dd26ff","system_id":"levelo_inurba_marseille","lat":43.295279,"lon":5.375048,"is_reserved":false,"is_disabled":false,"rental_uris":{"android":"levelo://app?vid=2ea4fd76-10be-46d0-a792-0b8b02dd26ff","ios":"levelo://app?vid=2ea4fd76-10be-46d0-a792-0b8b02dd26ff"},"vehicle_type_id":"4","last_reported":1682532508,"current_range_meters":11200,"station_id":"ce4bgkp2rcd13ifvqbmg","pricing_plan_id":"free"},{"bike_id":"d5661d89-b610-46ab-a5e3-d65ee6e277ad","system_id":"levelo_inurba_marseille","lat":43.31444,"lon":5.39289,"is_reserved":false,"is_disabled":false,"rental_uris":{"android":"levelo://app?vid=d5661d89-b610-46ab-a5e3-d65ee6e277ad","ios":"levelo://app?vid=d5661d89-b610-46ab-a5e3-d65ee6e277ad"},"vehicle_type_id":"4","last_reported":1682532508,"current_range_meters":3200,"station_id":"","pricing_plan_id":"free"},{"bike_id":"70d494b8-16d2-4c6c-b20c-9df06b21b412","system_id":"levelo_inurba_marseille","lat":43.3237,"lon":5.38889,"is_reserved":false,"is_disabled":false,"rental_uris":{"android":"levelo://app?vid=70d494b8-16d2-4c6c-b20c-9df06b21b412","ios":"levelo://app?vid=70d494b8-16d2-4c6c-b20c-9df06b21b412"},"vehicle_type_id":"4","last_reported":1682532508,"current_range_meters":20400,"station_id":"ce4bhqp2rcd13ifvqhog","pricing_plan_id":"free"},{"bike_id":"8d3c2085-a267-4535-ae55-d281442b365d","system_id":"levelo_inurba_marseille","lat":43.32376,"lon":5.38892,"is_reserved":false,"is_disabled":false,"rental_uris":{"android":"levelo://app?vid=8d3c2085-a267-4535-ae55-d281442b365d","ios":"levelo://app?vid=8d3c2085-a267-4535-ae55-d281442b365d"},"vehicle_type_id":"4","last_reported":1682532508,"current_range_meters":26000,"station_id":"ce4bhqp2rcd13ifvqhog","pricing_plan_id":"free"},{"bike_id":"2e259dbf-2ed9-45b9-9881-7756a30431ba","system_id":"levelo_inurba_marseille","lat":43.29601,"lon":5.381084,"is_reserved":false,"is_disabled":false,"rental_uris":{"android":"levelo://app?vid=2e259dbf-2ed9-45b9-9881-7756a30431ba","ios":"levelo://app?vid=2e259dbf-2ed9-45b9-9881-7756a30431ba"},"vehicle_type_id":"4","last_reported":1682532508,"current_range_meters":24400,"station_id":"ce4bgl12rcd13ifvqbo0","pricing_plan_id":"free"},{"bike_id":"ece900fb-9ae8-41c7-82e2-8400795384ea","system_id":"levelo_inurba_marseille","lat":43.29315,"lon":5.37175,"is_reserved":false,"is_disabled":false,"rental_uris":{"android":"levelo://app?vid=ece900fb-9ae8-41c7-82e2-8400795384ea","ios":"levelo://app?vid=ece900fb-9ae8-41c7-82e2-8400795384ea"},"vehicle_type_id":"4","last_reported":1682532508,"current_range_meters":15200,"station_id":"ce4bgh92rcd13ifvqb40","pricing_plan_id":"free"},{"bike_id":"c90c1af6-e0ff-4994-83a3-0831464fbe7c","system_id":"levelo_inurba_marseille","lat":43.29313,"lon":5.37166,"is_reserved":false,"is_disabled":false,"rental_uris":{"android":"levelo://app?vid=c90c1af6-e0ff-4994-83a3-0831464fbe7c","ios":"levelo://app?vid=c90c1af6-e0ff-4994-83a3-0831464fbe7c"},"vehicle_type_id":"4","last_reported":1682532508,"current_range_meters":1600,"station_id":"ce4bgh92rcd13ifvqb40","pricing_plan_id":"free"},{"bike_id":"785d729e-1839-4050-8f1b-ff249fc8a189","system_id":"levelo_inurba_marseille","lat":43.29313,"lon":5.37167,"is_reserved":false,"is_disabled":false,"rental_uris":{"android":"levelo://app?vid=785d729e-1839-4050-8f1b-ff249fc8a189","ios":"levelo://app?vid=785d729e-1839-4050-8f1b-ff249fc8a189"},"vehicle_type_id":"4","last_reported":1682532508,"current_range_meters":21200,"station_id":"ce4bgh92rcd13ifvqb40","pricing_plan_id":"free"},{"bike_id":"207013a8-aac4-4d10-ad51-ef97b843956e","system_id":"levelo_inurba_marseille","lat":43.29308,"lon":5.37162,"is_reserved":false,"is_disabled":false,"rental_uris":{"android":"levelo://app?vid=207013a8-aac4-4d10-ad51-ef97b843956e","ios":"levelo://app?vid=207013a8-aac4-4d10-ad51-ef97b843956e"},"vehicle_type_id":"4","last_reported":1682532508,"current_range_meters":22800,"station_id":"ce4bgh92rcd13ifvqb40","pricing_plan_id":"free"},{"bike_id":"c42afac9-7c03-4046-9d50-0d9da6a8f4d7","system_id":"levelo_inurba_marseille","lat":43.29306,"lon":5.37168,"is_reserved":false,"is_disabled":false,"rental_uris":{"android":"levelo://app?vid=c42afac9-7c03-4046-9d50-0d9da6a8f4d7","ios":"levelo://app?vid=c42afac9-7c03-4046-9d50-0d9da6a8f4d7"},"vehicle_type_id":"4","last_reported":1682532508,"current_range_meters":800,"station_id":"ce4bgh92rcd13ifvqb40","pricing_plan_id":"free"},{"bike_id":"1f391271-36a1-49c6-a931-cad8eb61a9b6","system_id":"levelo_inurba_marseille","lat":43.29306,"lon":5.37169,"is_reserved":false,"is_disabled":false,"rental_uris":{"android":"levelo://app?vid=1f391271-36a1-49c6-a931-cad8eb61a9b6","ios":"levelo://app?vid=1f391271-36a1-49c6-a931-cad8eb61a9b6"},"vehicle_type_id":"4","last_reported":1682532508,"current_range_meters":26000,"station_id":"ce4bgh92rcd13ifvqb40","pricing_plan_id":"free"},{"bike_id":"64d84120-4720-408d-b1f5-3d710c7aeb31","system_id":"levelo_inurba_marseille","lat":43.29302,"lon":5.3717,"is_reserved":false,"is_disabled":false,"rental_uris":{"android":"levelo://app?vid=64d84120-4720-408d-b1f5-3d710c7aeb31","ios":"levelo://app?vid=64d84120-4720-408d-b1f5-3d710c7aeb31"},"vehicle_type_id":"4","last_reported":1682532508,"current_range_meters":26400,"station_id":"ce4bgh92rcd13ifvqb40","pricing_plan_id":"free"},{"bike_id":"d8784a3b-f681-4e26-8b45-b4fc32075dcb","system_id":"levelo_inurba_marseille","lat":43.29264,"lon":5.36853,"is_reserved":false,"is_disabled":false,"rental_uris":{"android":"levelo://app?vid=d8784a3b-f681-4e26-8b45-b4fc32075dcb","ios":"levelo://app?vid=d8784a3b-f681-4e26-8b45-b4fc32075dcb"},"vehicle_type_id":"4","last_reported":1682532508,"current_range_meters":11600,"station_id":"","pricing_plan_id":"free"},{"bike_id":"19ee3232-b118-46e2-9af9-6c57c60681c1","system_id":"levelo_inurba_marseille","lat":43.293009,"lon":5.374584,"is_reserved":false,"is_disabled":false,"rental_uris":{"android":"levelo://app?vid=19ee3232-b118-46e2-9af9-6c57c60681c1","ios":"levelo://app?vid=19ee3232-b118-46e2-9af9-6c57c60681c1"},"vehicle_type_id":"4","last_reported":1682532508,"current_range_meters":24400,"station_id":"ce4bgi12rcd13ifvqb70","pricing_plan_id":"free"},{"bike_id":"eb4a7f24-ae8f-416c-9785-88ec5c678d1d","system_id":"levelo_inurba_marseille","lat":43.293009,"lon":5.374584,"is_reserved":false,"is_disabled":false,"rental_uris":{"android":"levelo://app?vid=eb4a7f24-ae8f-416c-9785-88ec5c678d1d","ios":"levelo://app?vid=eb4a7f24-ae8f-416c-9785-88ec5c678d1d"},"vehicle_type_id":"4","last_reported":1682532508,"current_range_meters":12000,"station_id":"ce4bgi12rcd13ifvqb70","pricing_plan_id":"free"},{"bike_id":"1ff94492-f186-4353-b268-d06b4e56b797","system_id":"levelo_inurba_marseille","lat":43.305994,"lon":5.393687,"is_reserved":false,"is_disabled":false,"rental_uris":{"android":"levelo://app?vid=1ff94492-f186-4353-b268-d06b4e56b797","ios":"levelo://app?vid=1ff94492-f186-4353-b268-d06b4e56b797"},"vehicle_type_id":"4","last_reported":1682532508,"current_range_meters":27200,"station_id":"ce4bh0p2rcd13ifvqd80","pricing_plan_id":"free"},{"bike_id":"02a892f9-17bb-4d73-b5b3-45382cf49aae","system_id":"levelo_inurba_marseille","lat":43.305994,"lon":5.393687,"is_reserved":false,"is_disabled":false,"rental_uris":{"android":"levelo://app?vid=02a892f9-17bb-4d73-b5b3-45382cf49aae","ios":"levelo://app?vid=02a892f9-17bb-4d73-b5b3-45382cf49aae"},"vehicle_type_id":"4","last_reported":1682532508,"current_range_meters":25200,"station_id":"ce4bh0p2rcd13ifvqd80","pricing_plan_id":"free"},{"bike_id":"1907da5a-a2a0-4826-a2de-f7ca6d68e600","system_id":"levelo_inurba_marseille","lat":43.305994,"lon":5.393687,"is_reserved":false,"is_disabled":false,"rental_uris":{"android":"levelo://app?vid=1907da5a-a2a0-4826-a2de-f7ca6d68e600","ios":"levelo://app?vid=1907da5a-a2a0-4826-a2de-f7ca6d68e600"},"vehicle_type_id":"4","last_reported":1682532508,"current_range_meters":2000,"station_id":"ce4bh0p2rcd13ifvqd80","pricing_plan_id":"free"},{"bike_id":"c36f632f-3ced-4a02-bf4f-4c544598dc0c","system_id":"levelo_inurba_marseille","lat":43.29263,"lon":5.35971,"is_reserved":false,"is_disabled":false,"rental_uris":{"android":"levelo://app?vid=c36f632f-3ced-4a02-bf4f-4c544598dc0c","ios":"levelo://app?vid=c36f632f-3ced-4a02-bf4f-4c544598dc0c"},"vehicle_type_id":"4","last_reported":1682532508,"current_range_meters":21200,"station_id":"","pricing_plan_id":"free"},{"bike_id":"97f9e247-9ce2-4f64-9541-c1608cc7b6df","system_id":"levelo_inurba_marseille","lat":43.2936,"lon":5.37835,"is_reserved":false,"is_disabled":false,"rental_uris":{"android":"levelo://app?vid=97f9e247-9ce2-4f64-9541-c1608cc7b6df","ios":"levelo://app?vid=97f9e247-9ce2-4f64-9541-c1608cc7b6df"},"vehicle_type_id":"4","last_reported":1682532508,"current_range_meters":28400,"station_id":"ce4bgjh2rcd13ifvqbf0","pricing_plan_id":"free"},{"bike_id":"2100e24e-ed20-4bb1-ad3e-8715fe3097ec","system_id":"levelo_inurba_marseille","lat":43.292449,"lon":5.360365,"is_reserved":false,"is_disabled":false,"rental_uris":{"android":"levelo://app?vid=2100e24e-ed20-4bb1-ad3e-8715fe3097ec","ios":"levelo://app?vid=2100e24e-ed20-4bb1-ad3e-8715fe3097ec"},"vehicle_type_id":"4","last_reported":1682532508,"current_range_meters":4400,"station_id":"ce4bhbh2rcd13ifvqeqg","pricing_plan_id":"free"},{"bike_id":"97174ddb-26bd-4c20-a0ba-b487ad7e7f57","system_id":"levelo_inurba_marseille","lat":43.293009,"lon":5.374584,"is_reserved":false,"is_disabled":false,"rental_uris":{"android":"levelo://app?vid=97174ddb-26bd-4c20-a0ba-b487ad7e7f57","ios":"levelo://app?vid=97174ddb-26bd-4c20-a0ba-b487ad7e7f57"},"vehicle_type_id":"4","last_reported":1682532508,"current_range_meters":15600,"station_id":"ce4bgi12rcd13ifvqb70","pricing_plan_id":"free"},{"bike_id":"3f7c27fe-2c11-4438-aa8a-3d09ff3b7739","system_id":"levelo_inurba_marseille","lat":43.300852,"lon":5.390859,"is_reserved":false,"is_disabled":false,"rental_uris":{"android":"levelo://app?vid=3f7c27fe-2c11-4438-aa8a-3d09ff3b7739","ios":"levelo://app?vid=3f7c27fe-2c11-4438-aa8a-3d09ff3b7739"},"vehicle_type_id":"4","last_reported":1682532508,"current_range_meters":22800,"station_id":"ce4bh192rcd13ifvqdb0","pricing_plan_id":"free"},{"bike_id":"319bfbe2-0f79-438b-a4f8-957957accb6c","system_id":"levelo_inurba_marseille","lat":43.300852,"lon":5.390859,"is_reserved":false,"is_disabled":false,"rental_uris":{"android":"levelo://app?vid=319bfbe2-0f79-438b-a4f8-957957accb6c","ios":"levelo://app?vid=319bfbe2-0f79-438b-a4f8-957957accb6c"},"vehicle_type_id":"4","last_reported":1682532508,"current_range_meters":12400,"station_id":"ce4bh192rcd13ifvqdb0","pricing_plan_id":"free"},{"bike_id":"14a67791-64b6-4fd4-bd0c-d6c56e8f511f","system_id":"levelo_inurba_marseille","lat":43.29225,"lon":5.36079,"is_reserved":false,"is_disabled":false,"rental_uris":{"android":"levelo://app?vid=14a67791-64b6-4fd4-bd0c-d6c56e8f511f","ios":"levelo://app?vid=14a67791-64b6-4fd4-bd0c-d6c56e8f511f"},"vehicle_type_id":"4","last_reported":1682532508,"current_range_meters":20000,"station_id":"ce4bhbh2rcd13ifvqeqg","pricing_plan_id":"free"},{"bike_id":"01656848-3875-44d6-a71b-d921d1f35220","system_id":"levelo_inurba_marseille","lat":43.30085,"lon":5.390856,"is_reserved":false,"is_disabled":false,"rental_uris":{"android":"levelo://app?vid=01656848-3875-44d6-a71b-d921d1f35220","ios":"levelo://app?vid=01656848-3875-44d6-a71b-d921d1f35220"},"vehicle_type_id":"4","last_reported":1682532508,"current_range_meters":19600,"station_id":"ce4bh192rcd13ifvqdb0","pricing_plan_id":"free"},{"bike_id":"de653cfa-37e9-44fe-86f0-c22cf0eb1136","system_id":"levelo_inurba_marseille","lat":43.30085,"lon":5.390856,"is_reserved":false,"is_disabled":false,"rental_uris":{"android":"levelo://app?vid=de653cfa-37e9-44fe-86f0-c22cf0eb1136","ios":"levelo://app?vid=de653cfa-37e9-44fe-86f0-c22cf0eb1136"},"vehicle_type_id":"4","last_reported":1682532508,"current_range_meters":26800,"station_id":"ce4bh192rcd13ifvqdb0","pricing_plan_id":"free"},{"bike_id":"71b5c155-7bae-4213-8151-e125eeab549f","system_id":"levelo_inurba_marseille","lat":43.298764,"lon":5.388973,"is_reserved":false,"is_disabled":false,"rental_uris":{"android":"levelo://app?vid=71b5c155-7bae-4213-8151-e125eeab549f","ios":"levelo://app?vid=71b5c155-7bae-4213-8151-e125eeab549f"},"vehicle_type_id":"4","last_reported":1682532508,"current_range_meters":0,"station_id":"ce4bh392rcd13ifvqdl0","pricing_plan_id":"free"},{"bike_id":"97f97381-8d73-4e6c-830b-f272dea5dccd","system_id":"levelo_inurba_marseille","lat":43.30357,"lon":5.39315,"is_reserved":false,"is_disabled":false,"rental_uris":{"android":"levelo://app?vid=97f97381-8d73-4e6c-830b-f272dea5dccd","ios":"levelo://app?vid=97f97381-8d73-4e6c-830b-f272dea5dccd"},"vehicle_type_id":"4","last_reported":1682532508,"current_range_meters":25200,"station_id":"","pricing_plan_id":"free"},{"bike_id":"be219a66-acec-40fd-a86e-4de0c79f697f","system_id":"levelo_inurba_marseille","lat":43.298764,"lon":5.388973,"is_reserved":false,"is_disabled":false,"rental_uris":{"android":"levelo://app?vid=be219a66-acec-40fd-a86e-4de0c79f697f","ios":"levelo://app?vid=be219a66-acec-40fd-a86e-4de0c79f697f"},"vehicle_type_id":"4","last_reported":1682532508,"current_range_meters":24800,"station_id":"ce4bh392rcd13ifvqdl0","pricing_plan_id":"free"},{"bike_id":"ad90f3f3-01a0-4087-92b1-4d6577201615","system_id":"levelo_inurba_marseille","lat":43.298764,"lon":5.388973,"is_reserved":false,"is_disabled":false,"rental_uris":{"android":"levelo://app?vid=ad90f3f3-01a0-4087-92b1-4d6577201615","ios":"levelo://app?vid=ad90f3f3-01a0-4087-92b1-4d6577201615"},"vehicle_type_id":"4","last_reported":1682532508,"current_range_meters":20800,"station_id":"ce4bh392rcd13ifvqdl0","pricing_plan_id":"free"},{"bike_id":"8663a311-3be1-434f-951e-172dd09b031d","system_id":"levelo_inurba_marseille","lat":43.309038,"lon":5.396546,"is_reserved":false,"is_disabled":false,"rental_uris":{"android":"levelo://app?vid=8663a311-3be1-434f-951e-172dd09b031d","ios":"levelo://app?vid=8663a311-3be1-434f-951e-172dd09b031d"},"vehicle_type_id":"4","last_reported":1682532508,"current_range_meters":26800,"station_id":"ce4bh012rcd13ifvqcv0","pricing_plan_id":"free"},{"bike_id":"875b4ad8-2f2a-4bfc-afb7-241f2242b343","system_id":"levelo_inurba_marseille","lat":43.309038,"lon":5.396546,"is_reserved":false,"is_disabled":false,"rental_uris":{"android":"levelo://app?vid=875b4ad8-2f2a-4bfc-afb7-241f2242b343","ios":"levelo://app?vid=875b4ad8-2f2a-4bfc-afb7-241f2242b343"},"vehicle_type_id":"4","last_reported":1682532508,"current_range_meters":6000,"station_id":"ce4bh012rcd13ifvqcv0","pricing_plan_id":"free"},{"bike_id":"bada5d9b-ff45-42a5-aead-8875e0308977","system_id":"levelo_inurba_marseille","lat":43.309038,"lon":5.396546,"is_reserved":false,"is_disabled":false,"rental_uris":{"android":"levelo://app?vid=bada5d9b-ff45-42a5-aead-8875e0308977","ios":"levelo://app?vid=bada5d9b-ff45-42a5-aead-8875e0308977"},"vehicle_type_id":"4","last_reported":1682532508,"current_range_meters":12000,"station_id":"ce4bh012rcd13ifvqcv0","pricing_plan_id":"free"},{"bike_id":"8ffd3127-4e78-4c94-926a-094978e69973","system_id":"levelo_inurba_marseille","lat":43.309038,"lon":5.396546,"is_reserved":false,"is_disabled":false,"rental_uris":{"android":"levelo://app?vid=8ffd3127-4e78-4c94-926a-094978e69973","ios":"levelo://app?vid=8ffd3127-4e78-4c94-926a-094978e69973"},"vehicle_type_id":"4","last_reported":1682532508,"current_range_meters":3200,"station_id":"ce4bh012rcd13ifvqcv0","pricing_plan_id":"free"},{"bike_id":"b2b689c1-ef71-4722-87fc-bd2a5657a19c","system_id":"levelo_inurba_marseille","lat":43.309038,"lon":5.396546,"is_reserved":false,"is_disabled":false,"rental_uris":{"android":"levelo://app?vid=b2b689c1-ef71-4722-87fc-bd2a5657a19c","ios":"levelo://app?vid=b2b689c1-ef71-4722-87fc-bd2a5657a19c"},"vehicle_type_id":"4","last_reported":1682532508,"current_range_meters":26800,"station_id":"ce4bh012rcd13ifvqcv0","pricing_plan_id":"free"},{"bike_id":"c3b89f14-4cdb-4300-b67a-2bfd669d5965","system_id":"levelo_inurba_marseille","lat":43.309038,"lon":5.396546,"is_reserved":false,"is_disabled":false,"rental_uris":{"android":"levelo://app?vid=c3b89f14-4cdb-4300-b67a-2bfd669d5965","ios":"levelo://app?vid=c3b89f14-4cdb-4300-b67a-2bfd669d5965"},"vehicle_type_id":"4","last_reported":1682532508,"current_range_meters":18800,"station_id":"ce4bh012rcd13ifvqcv0","pricing_plan_id":"free"},{"bike_id":"50e25664-b56b-4ff4-8629-cb4496f0d09e","system_id":"levelo_inurba_marseille","lat":43.313291,"lon":5.396838,"is_reserved":false,"is_disabled":false,"rental_uris":{"android":"levelo://app?vid=50e25664-b56b-4ff4-8629-cb4496f0d09e","ios":"levelo://app?vid=50e25664-b56b-4ff4-8629-cb4496f0d09e"},"vehicle_type_id":"4","last_reported":1682532508,"current_range_meters":25600,"station_id":"ce4bgvp2rcd13ifvqcu0","pricing_plan_id":"free"},{"bike_id":"cc3bf5ab-f258-4f23-b9e8-1126d0a868d7","system_id":"levelo_inurba_marseille","lat":43.313291,"lon":5.396838,"is_reserved":false,"is_disabled":false,"rental_uris":{"android":"levelo://app?vid=cc3bf5ab-f258-4f23-b9e8-1126d0a868d7","ios":"levelo://app?vid=cc3bf5ab-f258-4f23-b9e8-1126d0a868d7"},"vehicle_type_id":"4","last_reported":1682532508,"current_range_meters":29600,"station_id":"ce4bgvp2rcd13ifvqcu0","pricing_plan_id":"free"},{"bike_id":"c18dbfd7-2e1b-4621-91a1-5e56d4ef34c6","system_id":"levelo_inurba_marseille","lat":43.313291,"lon":5.396838,"is_reserved":false,"is_disabled":false,"rental_uris":{"android":"levelo://app?vid=c18dbfd7-2e1b-4621-91a1-5e56d4ef34c6","ios":"levelo://app?vid=c18dbfd7-2e1b-4621-91a1-5e56d4ef34c6"},"vehicle_type_id":"4","last_reported":1682532508,"current_range_meters":5200,"station_id":"ce4bgvp2rcd13ifvqcu0","pricing_plan_id":"free"},{"bike_id":"64943294-d309-4c45-9e2d-35649d563944","system_id":"levelo_inurba_marseille","lat":43.309038,"lon":5.396546,"is_reserved":false,"is_disabled":false,"rental_uris":{"android":"levelo://app?vid=64943294-d309-4c45-9e2d-35649d563944","ios":"levelo://app?vid=64943294-d309-4c45-9e2d-35649d563944"},"vehicle_type_id":"4","last_reported":1682532508,"current_range_meters":17200,"station_id":"ce4bh012rcd13ifvqcv0","pricing_plan_id":"free"},{"bike_id":"3dd9c57f-13e8-46a6-938b-a5a27c62a172","system_id":"levelo_inurba_marseille","lat":43.313291,"lon":5.396838,"is_reserved":false,"is_disabled":false,"rental_uris":{"android":"levelo://app?vid=3dd9c57f-13e8-46a6-938b-a5a27c62a172","ios":"levelo://app?vid=3dd9c57f-13e8-46a6-938b-a5a27c62a172"},"vehicle_type_id":"4","last_reported":1682532508,"current_range_meters":17200,"station_id":"ce4bgvp2rcd13ifvqcu0","pricing_plan_id":"free"},{"bike_id":"a2241a61-1b91-4eb8-80f9-4da40ff17068","system_id":"levelo_inurba_marseille","lat":43.313291,"lon":5.396838,"is_reserved":false,"is_disabled":false,"rental_uris":{"android":"levelo://app?vid=a2241a61-1b91-4eb8-80f9-4da40ff17068","ios":"levelo://app?vid=a2241a61-1b91-4eb8-80f9-4da40ff17068"},"vehicle_type_id":"4","last_reported":1682532508,"current_range_meters":26000,"station_id":"ce4bgvp2rcd13ifvqcu0","pricing_plan_id":"free"},{"bike_id":"99e651cc-69b0-4208-aad1-5fdcdef03ab7","system_id":"levelo_inurba_marseille","lat":43.313291,"lon":5.396838,"is_reserved":false,"is_disabled":false,"rental_uris":{"android":"levelo://app?vid=99e651cc-69b0-4208-aad1-5fdcdef03ab7","ios":"levelo://app?vid=99e651cc-69b0-4208-aad1-5fdcdef03ab7"},"vehicle_type_id":"4","last_reported":1682532508,"current_range_meters":12400,"station_id":"ce4bgvp2rcd13ifvqcu0","pricing_plan_id":"free"},{"bike_id":"5be6860f-1618-409c-8dfb-d6059b11bbb2","system_id":"levelo_inurba_marseille","lat":43.313291,"lon":5.396838,"is_reserved":false,"is_disabled":false,"rental_uris":{"android":"levelo://app?vid=5be6860f-1618-409c-8dfb-d6059b11bbb2","ios":"levelo://app?vid=5be6860f-1618-409c-8dfb-d6059b11bbb2"},"vehicle_type_id":"4","last_reported":1682532508,"current_range_meters":11600,"station_id":"ce4bgvp2rcd13ifvqcu0","pricing_plan_id":"free"},{"bike_id":"e5f0226a-068d-4e0f-8872-515a4e145af4","system_id":"levelo_inurba_marseille","lat":43.30214,"lon":5.39324,"is_reserved":false,"is_disabled":false,"rental_uris":{"android":"levelo://app?vid=e5f0226a-068d-4e0f-8872-515a4e145af4","ios":"levelo://app?vid=e5f0226a-068d-4e0f-8872-515a4e145af4"},"vehicle_type_id":"4","last_reported":1682532508,"current_range_meters":18400,"station_id":"","pricing_plan_id":"free"},{"bike_id":"46916d8d-a951-4443-a96f-8a5392f2acb1","system_id":"levelo_inurba_marseille","lat":43.309038,"lon":5.396546,"is_reserved":false,"is_disabled":false,"rental_uris":{"android":"levelo://app?vid=46916d8d-a951-4443-a96f-8a5392f2acb1","ios":"levelo://app?vid=46916d8d-a951-4443-a96f-8a5392f2acb1"},"vehicle_type_id":"4","last_reported":1682532508,"current_range_meters":0,"station_id":"ce4bh012rcd13ifvqcv0","pricing_plan_id":"free"},{"bike_id":"905f0708-bebf-4f3e-8965-b3a4ed41506a","system_id":"levelo_inurba_marseille","lat":43.309038,"lon":5.396546,"is_reserved":false,"is_disabled":false,"rental_uris":{"android":"levelo://app?vid=905f0708-bebf-4f3e-8965-b3a4ed41506a","ios":"levelo://app?vid=905f0708-bebf-4f3e-8965-b3a4ed41506a"},"vehicle_type_id":"4","last_reported":1682532508,"current_range_meters":20400,"station_id":"ce4bh012rcd13ifvqcv0","pricing_plan_id":"free"},{"bike_id":"6082121c-28a7-4ce3-8a3e-0bceea92c78f","system_id":"levelo_inurba_marseille","lat":43.29529,"lon":5.385581,"is_reserved":false,"is_disabled":false,"rental_uris":{"android":"levelo://app?vid=6082121c-28a7-4ce3-8a3e-0bceea92c78f","ios":"levelo://app?vid=6082121c-28a7-4ce3-8a3e-0bceea92c78f"},"vehicle_type_id":"4","last_reported":1682532508,"current_range_meters":5600,"station_id":"ce4bgih2rcd13ifvqba0","pricing_plan_id":"free"},{"bike_id":"a6084a11-e676-492c-9fe4-7f4397b76854","system_id":"levelo_inurba_marseille","lat":43.31572,"lon":5.39716,"is_reserved":false,"is_disabled":false,"rental_uris":{"android":"levelo://app?vid=a6084a11-e676-492c-9fe4-7f4397b76854","ios":"levelo://app?vid=a6084a11-e676-492c-9fe4-7f4397b76854"},"vehicle_type_id":"4","last_reported":1682532508,"current_range_meters":15600,"station_id":"","pricing_plan_id":"free"},{"bike_id":"d9a9076a-bcd2-4820-ad39-895c5056c9db","system_id":"levelo_inurba_marseille","lat":43.302008,"lon":5.394694,"is_reserved":false,"is_disabled":false,"rental_uris":{"android":"levelo://app?vid=d9a9076a-bcd2-4820-ad39-895c5056c9db","ios":"levelo://app?vid=d9a9076a-bcd2-4820-ad39-895c5056c9db"},"vehicle_type_id":"4","last_reported":1682532508,"current_range_meters":11200,"station_id":"ce4bh0p2rcd13ifvqd70","pricing_plan_id":"free"},{"bike_id":"58e7e798-167a-4045-a551-2c2319d803d7","system_id":"levelo_inurba_marseille","lat":43.302008,"lon":5.394694,"is_reserved":false,"is_disabled":false,"rental_uris":{"android":"levelo://app?vid=58e7e798-167a-4045-a551-2c2319d803d7","ios":"levelo://app?vid=58e7e798-167a-4045-a551-2c2319d803d7"},"vehicle_type_id":"4","last_reported":1682532508,"current_range_meters":29200,"station_id":"ce4bh0p2rcd13ifvqd70","pricing_plan_id":"free"},{"bike_id":"9e6a00d4-7661-428f-aa43-20e401bf0a09","system_id":"levelo_inurba_marseille","lat":43.302008,"lon":5.394694,"is_reserved":false,"is_disabled":false,"rental_uris":{"android":"levelo://app?vid=9e6a00d4-7661-428f-aa43-20e401bf0a09","ios":"levelo://app?vid=9e6a00d4-7661-428f-aa43-20e401bf0a09"},"vehicle_type_id":"4","last_reported":1682532508,"current_range_meters":31200,"station_id":"ce4bh0p2rcd13ifvqd70","pricing_plan_id":"free"},{"bike_id":"a8676eca-e697-4f65-9e66-adc0bf7f9566","system_id":"levelo_inurba_marseille","lat":43.30215,"lon":5.39477,"is_reserved":false,"is_disabled":false,"rental_uris":{"android":"levelo://app?vid=a8676eca-e697-4f65-9e66-adc0bf7f9566","ios":"levelo://app?vid=a8676eca-e697-4f65-9e66-adc0bf7f9566"},"vehicle_type_id":"4","last_reported":1682532508,"current_range_meters":31200,"station_id":"ce4bh0p2rcd13ifvqd70","pricing_plan_id":"free"},{"bike_id":"212b1c26-fb81-486b-befc-6452b236505d","system_id":"levelo_inurba_marseille","lat":43.29446,"lon":5.386458,"is_reserved":false,"is_disabled":false,"rental_uris":{"android":"levelo://app?vid=212b1c26-fb81-486b-befc-6452b236505d","ios":"levelo://app?vid=212b1c26-fb81-486b-befc-6452b236505d"},"vehicle_type_id":"4","last_reported":1682532508,"current_range_meters":25600,"station_id":"ce4bh2h2rcd13ifvqdh0","pricing_plan_id":"free"},{"bike_id":"76d1a5d2-ad93-48ec-b6ca-958017326259","system_id":"levelo_inurba_marseille","lat":43.294153,"lon":5.386305,"is_reserved":false,"is_disabled":false,"rental_uris":{"android":"levelo://app?vid=76d1a5d2-ad93-48ec-b6ca-958017326259","ios":"levelo://app?vid=76d1a5d2-ad93-48ec-b6ca-958017326259"},"vehicle_type_id":"4","last_reported":1682532508,"current_range_meters":16400,"station_id":"ce4bh2h2rcd13ifvqdh0","pricing_plan_id":"free"},{"bike_id":"b07ee995-9206-4124-8d85-2570a37f9faa","system_id":"levelo_inurba_marseille","lat":43.294153,"lon":5.386305,"is_reserved":false,"is_disabled":false,"rental_uris":{"android":"levelo://app?vid=b07ee995-9206-4124-8d85-2570a37f9faa","ios":"levelo://app?vid=b07ee995-9206-4124-8d85-2570a37f9faa"},"vehicle_type_id":"4","last_reported":1682532508,"current_range_meters":12000,"station_id":"ce4bh2h2rcd13ifvqdh0","pricing_plan_id":"free"},{"bike_id":"e8b8d697-55ef-4109-80bb-6f018d2d869d","system_id":"levelo_inurba_marseille","lat":43.294153,"lon":5.386305,"is_reserved":false,"is_disabled":false,"rental_uris":{"android":"levelo://app?vid=e8b8d697-55ef-4109-80bb-6f018d2d869d","ios":"levelo://app?vid=e8b8d697-55ef-4109-80bb-6f018d2d869d"},"vehicle_type_id":"4","last_reported":1682532508,"current_range_meters":20000,"station_id":"ce4bh2h2rcd13ifvqdh0","pricing_plan_id":"free"},{"bike_id":"10831490-d2eb-4faf-985a-8996161634c1","system_id":"levelo_inurba_marseille","lat":43.294153,"lon":5.386305,"is_reserved":false,"is_disabled":false,"rental_uris":{"android":"levelo://app?vid=10831490-d2eb-4faf-985a-8996161634c1","ios":"levelo://app?vid=10831490-d2eb-4faf-985a-8996161634c1"},"vehicle_type_id":"4","last_reported":1682532508,"current_range_meters":0,"station_id":"ce4bh2h2rcd13ifvqdh0","pricing_plan_id":"free"},{"bike_id":"d4f371cd-c8ad-40dd-aa26-fe1fd452ed1e","system_id":"levelo_inurba_marseille","lat":43.294153,"lon":5.386305,"is_reserved":false,"is_disabled":false,"rental_uris":{"android":"levelo://app?vid=d4f371cd-c8ad-40dd-aa26-fe1fd452ed1e","ios":"levelo://app?vid=d4f371cd-c8ad-40dd-aa26-fe1fd452ed1e"},"vehicle_type_id":"4","last_reported":1682532508,"current_range_meters":18400,"station_id":"ce4bh2h2rcd13ifvqdh0","pricing_plan_id":"free"},{"bike_id":"8596fad6-6ad4-44b7-9399-5fae9b09aaf9","system_id":"levelo_inurba_marseille","lat":43.2942,"lon":5.38621,"is_reserved":false,"is_disabled":false,"rental_uris":{"android":"levelo://app?vid=8596fad6-6ad4-44b7-9399-5fae9b09aaf9","ios":"levelo://app?vid=8596fad6-6ad4-44b7-9399-5fae9b09aaf9"},"vehicle_type_id":"4","last_reported":1682532508,"current_range_meters":25200,"station_id":"ce4bh2h2rcd13ifvqdh0","pricing_plan_id":"free"},{"bike_id":"4cd2d035-b13b-4bc6-9db9-ef32e5073848","system_id":"levelo_inurba_marseille","lat":43.294162,"lon":5.386292,"is_reserved":false,"is_disabled":false,"rental_uris":{"android":"levelo://app?vid=4cd2d035-b13b-4bc6-9db9-ef32e5073848","ios":"levelo://app?vid=4cd2d035-b13b-4bc6-9db9-ef32e5073848"},"vehicle_type_id":"4","last_reported":1682532508,"current_range_meters":29200,"station_id":"ce4bh2h2rcd13ifvqdh0","pricing_plan_id":"free"},{"bike_id":"c4ad0af1-8829-405c-ae20-362ca96bd8c6","system_id":"levelo_inurba_marseille","lat":43.294153,"lon":5.386305,"is_reserved":false,"is_disabled":false,"rental_uris":{"android":"levelo://app?vid=c4ad0af1-8829-405c-ae20-362ca96bd8c6","ios":"levelo://app?vid=c4ad0af1-8829-405c-ae20-362ca96bd8c6"},"vehicle_type_id":"4","last_reported":1682532508,"current_range_meters":7200,"station_id":"ce4bh2h2rcd13ifvqdh0","pricing_plan_id":"free"},{"bike_id":"6aa8df46-11eb-4e3a-a124-76be190d7102","system_id":"levelo_inurba_marseille","lat":43.294153,"lon":5.386305,"is_reserved":false,"is_disabled":false,"rental_uris":{"android":"levelo://app?vid=6aa8df46-11eb-4e3a-a124-76be190d7102","ios":"levelo://app?vid=6aa8df46-11eb-4e3a-a124-76be190d7102"},"vehicle_type_id":"4","last_reported":1682532508,"current_range_meters":5600,"station_id":"ce4bh2h2rcd13ifvqdh0","pricing_plan_id":"free"},{"bike_id":"549e6513-c204-4f8d-8bea-aa1a8b227f3e","system_id":"levelo_inurba_marseille","lat":43.29421,"lon":5.38631,"is_reserved":false,"is_disabled":false,"rental_uris":{"android":"levelo://app?vid=549e6513-c204-4f8d-8bea-aa1a8b227f3e","ios":"levelo://app?vid=549e6513-c204-4f8d-8bea-aa1a8b227f3e"},"vehicle_type_id":"4","last_reported":1682532508,"current_range_meters":10800,"station_id":"ce4bh2h2rcd13ifvqdh0","pricing_plan_id":"free"},{"bike_id":"4bf7ea01-3e08-4f94-bea7-d56990fb142d","system_id":"levelo_inurba_marseille","lat":43.29417,"lon":5.38624,"is_reserved":false,"is_disabled":false,"rental_uris":{"android":"levelo://app?vid=4bf7ea01-3e08-4f94-bea7-d56990fb142d","ios":"levelo://app?vid=4bf7ea01-3e08-4f94-bea7-d56990fb142d"},"vehicle_type_id":"4","last_reported":1682532508,"current_range_meters":24800,"station_id":"ce4bh2h2rcd13ifvqdh0","pricing_plan_id":"free"},{"bike_id":"955c19f5-a18f-48b9-aa21-efee9ab0117e","system_id":"levelo_inurba_marseille","lat":43.29418,"lon":5.38626,"is_reserved":false,"is_disabled":false,"rental_uris":{"android":"levelo://app?vid=955c19f5-a18f-48b9-aa21-efee9ab0117e","ios":"levelo://app?vid=955c19f5-a18f-48b9-aa21-efee9ab0117e"},"vehicle_type_id":"4","last_reported":1682532508,"current_range_meters":4000,"station_id":"ce4bh2h2rcd13ifvqdh0","pricing_plan_id":"free"},{"bike_id":"efc081d6-688e-4ff2-ab1c-d49c40ced951","system_id":"levelo_inurba_marseille","lat":43.29416,"lon":5.38623,"is_reserved":false,"is_disabled":false,"rental_uris":{"android":"levelo://app?vid=efc081d6-688e-4ff2-ab1c-d49c40ced951","ios":"levelo://app?vid=efc081d6-688e-4ff2-ab1c-d49c40ced951"},"vehicle_type_id":"4","last_reported":1682532508,"current_range_meters":27600,"station_id":"ce4bh2h2rcd13ifvqdh0","pricing_plan_id":"free"},{"bike_id":"19885c5a-8cf0-414a-8ed7-151cd3878a0e","system_id":"levelo_inurba_marseille","lat":43.289184,"lon":5.366408,"is_reserved":false,"is_disabled":false,"rental_uris":{"android":"levelo://app?vid=19885c5a-8cf0-414a-8ed7-151cd3878a0e","ios":"levelo://app?vid=19885c5a-8cf0-414a-8ed7-151cd3878a0e"},"vehicle_type_id":"4","last_reported":1682532508,"current_range_meters":12400,"station_id":"ce4bhap2rcd13ifvqek0","pricing_plan_id":"free"},{"bike_id":"6bd1b838-2bf2-40a9-bca0-0f4a51de3652","system_id":"levelo_inurba_marseille","lat":43.294153,"lon":5.386305,"is_reserved":false,"is_disabled":false,"rental_uris":{"android":"levelo://app?vid=6bd1b838-2bf2-40a9-bca0-0f4a51de3652","ios":"levelo://app?vid=6bd1b838-2bf2-40a9-bca0-0f4a51de3652"},"vehicle_type_id":"4","last_reported":1682532508,"current_range_meters":31200,"station_id":"ce4bh2h2rcd13ifvqdh0","pricing_plan_id":"free"},{"bike_id":"bba668d8-3d06-4c64-9742-0135b4bcf3c0","system_id":"levelo_inurba_marseille","lat":43.2942,"lon":5.38632,"is_reserved":false,"is_disabled":false,"rental_uris":{"android":"levelo://app?vid=bba668d8-3d06-4c64-9742-0135b4bcf3c0","ios":"levelo://app?vid=bba668d8-3d06-4c64-9742-0135b4bcf3c0"},"vehicle_type_id":"4","last_reported":1682532508,"current_range_meters":2400,"station_id":"ce4bh2h2rcd13ifvqdh0","pricing_plan_id":"free"},{"bike_id":"73c03c36-5ee0-4eed-985a-9a1b84f218ce","system_id":"levelo_inurba_marseille","lat":43.289184,"lon":5.366408,"is_reserved":false,"is_disabled":false,"rental_uris":{"android":"levelo://app?vid=73c03c36-5ee0-4eed-985a-9a1b84f218ce","ios":"levelo://app?vid=73c03c36-5ee0-4eed-985a-9a1b84f218ce"},"vehicle_type_id":"4","last_reported":1682532508,"current_range_meters":22400,"station_id":"ce4bhap2rcd13ifvqek0","pricing_plan_id":"free"},{"bike_id":"b215ec00-21d9-48c2-9c14-a1f3a52e73d7","system_id":"levelo_inurba_marseille","lat":43.29419,"lon":5.38631,"is_reserved":false,"is_disabled":false,"rental_uris":{"android":"levelo://app?vid=b215ec00-21d9-48c2-9c14-a1f3a52e73d7","ios":"levelo://app?vid=b215ec00-21d9-48c2-9c14-a1f3a52e73d7"},"vehicle_type_id":"4","last_reported":1682532508,"current_range_meters":14000,"station_id":"ce4bh2h2rcd13ifvqdh0","pricing_plan_id":"free"},{"bike_id":"de468449-f44d-4a23-ab91-2a040de91343","system_id":"levelo_inurba_marseille","lat":43.294153,"lon":5.386305,"is_reserved":false,"is_disabled":false,"rental_uris":{"android":"levelo://app?vid=de468449-f44d-4a23-ab91-2a040de91343","ios":"levelo://app?vid=de468449-f44d-4a23-ab91-2a040de91343"},"vehicle_type_id":"4","last_reported":1682532508,"current_range_meters":14000,"station_id":"ce4bh2h2rcd13ifvqdh0","pricing_plan_id":"free"},{"bike_id":"03bca85a-90cb-476d-ae3d-8819911fd41f","system_id":"levelo_inurba_marseille","lat":43.28943,"lon":5.36637,"is_reserved":false,"is_disabled":false,"rental_uris":{"android":"levelo://app?vid=03bca85a-90cb-476d-ae3d-8819911fd41f","ios":"levelo://app?vid=03bca85a-90cb-476d-ae3d-8819911fd41f"},"vehicle_type_id":"4","last_reported":1682532508,"current_range_meters":10400,"station_id":"","pricing_plan_id":"free"},{"bike_id":"67b88941-e883-49aa-9cb1-a574a30a01d9","system_id":"levelo_inurba_marseille","lat":43.29411,"lon":5.38623,"is_reserved":false,"is_disabled":false,"rental_uris":{"android":"levelo://app?vid=67b88941-e883-49aa-9cb1-a574a30a01d9","ios":"levelo://app?vid=67b88941-e883-49aa-9cb1-a574a30a01d9"},"vehicle_type_id":"4","last_reported":1682532508,"current_range_meters":11600,"station_id":"ce4bh2h2rcd13ifvqdh0","pricing_plan_id":"free"},{"bike_id":"12c4bafd-60fb-46c2-acae-345a8ceb1a03","system_id":"levelo_inurba_marseille","lat":43.289184,"lon":5.366408,"is_reserved":false,"is_disabled":false,"rental_uris":{"android":"levelo://app?vid=12c4bafd-60fb-46c2-acae-345a8ceb1a03","ios":"levelo://app?vid=12c4bafd-60fb-46c2-acae-345a8ceb1a03"},"vehicle_type_id":"4","last_reported":1682532508,"current_range_meters":10800,"station_id":"ce4bhap2rcd13ifvqek0","pricing_plan_id":"free"},{"bike_id":"dd16068f-5535-4c40-8a5b-adea2a9e734f","system_id":"levelo_inurba_marseille","lat":43.289184,"lon":5.366408,"is_reserved":false,"is_disabled":false,"rental_uris":{"android":"levelo://app?vid=dd16068f-5535-4c40-8a5b-adea2a9e734f","ios":"levelo://app?vid=dd16068f-5535-4c40-8a5b-adea2a9e734f"},"vehicle_type_id":"4","last_reported":1682532508,"current_range_meters":4800,"station_id":"ce4bhap2rcd13ifvqek0","pricing_plan_id":"free"},{"bike_id":"700bd328-f26e-485f-95ee-1b38eb29d069","system_id":"levelo_inurba_marseille","lat":43.30574,"lon":5.39753,"is_reserved":false,"is_disabled":false,"rental_uris":{"android":"levelo://app?vid=700bd328-f26e-485f-95ee-1b38eb29d069","ios":"levelo://app?vid=700bd328-f26e-485f-95ee-1b38eb29d069"},"vehicle_type_id":"4","last_reported":1682532508,"current_range_meters":29600,"station_id":"ce4bh092rcd13ifvqd20","pricing_plan_id":"free"},{"bike_id":"928917ea-7bd6-4680-b8c5-fc5f527208d8","system_id":"levelo_inurba_marseille","lat":43.289184,"lon":5.366408,"is_reserved":false,"is_disabled":false,"rental_uris":{"android":"levelo://app?vid=928917ea-7bd6-4680-b8c5-fc5f527208d8","ios":"levelo://app?vid=928917ea-7bd6-4680-b8c5-fc5f527208d8"},"vehicle_type_id":"4","last_reported":1682532508,"current_range_meters":23200,"station_id":"ce4bhap2rcd13ifvqek0","pricing_plan_id":"free"},{"bike_id":"bbdba4a5-710e-43fb-8796-d30d924fb92e","system_id":"levelo_inurba_marseille","lat":43.289184,"lon":5.366408,"is_reserved":false,"is_disabled":false,"rental_uris":{"android":"levelo://app?vid=bbdba4a5-710e-43fb-8796-d30d924fb92e","ios":"levelo://app?vid=bbdba4a5-710e-43fb-8796-d30d924fb92e"},"vehicle_type_id":"4","last_reported":1682532508,"current_range_meters":26000,"station_id":"ce4bhap2rcd13ifvqek0","pricing_plan_id":"free"},{"bike_id":"07b914c3-2fa8-49a2-8705-59da5389b941","system_id":"levelo_inurba_marseille","lat":43.29415,"lon":5.38637,"is_reserved":false,"is_disabled":false,"rental_uris":{"android":"levelo://app?vid=07b914c3-2fa8-49a2-8705-59da5389b941","ios":"levelo://app?vid=07b914c3-2fa8-49a2-8705-59da5389b941"},"vehicle_type_id":"4","last_reported":1682532508,"current_range_meters":27600,"station_id":"ce4bh2h2rcd13ifvqdh0","pricing_plan_id":"free"},{"bike_id":"2419ea84-3daa-46a4-a253-ae62953555fb","system_id":"levelo_inurba_marseille","lat":43.289184,"lon":5.366408,"is_reserved":false,"is_disabled":false,"rental_uris":{"android":"levelo://app?vid=2419ea84-3daa-46a4-a253-ae62953555fb","ios":"levelo://app?vid=2419ea84-3daa-46a4-a253-ae62953555fb"},"vehicle_type_id":"4","last_reported":1682532508,"current_range_meters":10800,"station_id":"ce4bhap2rcd13ifvqek0","pricing_plan_id":"free"},{"bike_id":"753330cb-5665-4793-888c-0b50d1b16bd0","system_id":"levelo_inurba_marseille","lat":43.289184,"lon":5.366408,"is_reserved":false,"is_disabled":false,"rental_uris":{"android":"levelo://app?vid=753330cb-5665-4793-888c-0b50d1b16bd0","ios":"levelo://app?vid=753330cb-5665-4793-888c-0b50d1b16bd0"},"vehicle_type_id":"4","last_reported":1682532508,"current_range_meters":10800,"station_id":"ce4bhap2rcd13ifvqek0","pricing_plan_id":"free"},{"bike_id":"0d73296d-8de0-4dcd-b000-9f00554c8640","system_id":"levelo_inurba_marseille","lat":43.289184,"lon":5.366408,"is_reserved":false,"is_disabled":false,"rental_uris":{"android":"levelo://app?vid=0d73296d-8de0-4dcd-b000-9f00554c8640","ios":"levelo://app?vid=0d73296d-8de0-4dcd-b000-9f00554c8640"},"vehicle_type_id":"4","last_reported":1682532508,"current_range_meters":13200,"station_id":"ce4bhap2rcd13ifvqek0","pricing_plan_id":"free"},{"bike_id":"e478b4d4-320a-4bcd-894a-dc75de1aa5c6","system_id":"levelo_inurba_marseille","lat":43.289184,"lon":5.366408,"is_reserved":false,"is_disabled":false,"rental_uris":{"android":"levelo://app?vid=e478b4d4-320a-4bcd-894a-dc75de1aa5c6","ios":"levelo://app?vid=e478b4d4-320a-4bcd-894a-dc75de1aa5c6"},"vehicle_type_id":"4","last_reported":1682532508,"current_range_meters":7200,"station_id":"ce4bhap2rcd13ifvqek0","pricing_plan_id":"free"},{"bike_id":"4f9146cb-c0ca-4d83-9847-157ea68b845b","system_id":"levelo_inurba_marseille","lat":43.289184,"lon":5.366408,"is_reserved":false,"is_disabled":false,"rental_uris":{"android":"levelo://app?vid=4f9146cb-c0ca-4d83-9847-157ea68b845b","ios":"levelo://app?vid=4f9146cb-c0ca-4d83-9847-157ea68b845b"},"vehicle_type_id":"4","last_reported":1682532508,"current_range_meters":11200,"station_id":"ce4bhap2rcd13ifvqek0","pricing_plan_id":"free"},{"bike_id":"bef118a1-9a29-4a68-b426-e2169cc85662","system_id":"levelo_inurba_marseille","lat":43.294153,"lon":5.386305,"is_reserved":false,"is_disabled":false,"rental_uris":{"android":"levelo://app?vid=bef118a1-9a29-4a68-b426-e2169cc85662","ios":"levelo://app?vid=bef118a1-9a29-4a68-b426-e2169cc85662"},"vehicle_type_id":"4","last_reported":1682532508,"current_range_meters":26000,"station_id":"ce4bh2h2rcd13ifvqdh0","pricing_plan_id":"free"},{"bike_id":"6ee99c8b-197d-4497-813d-3e3e0d80fa9c","system_id":"levelo_inurba_marseille","lat":43.289468,"lon":5.363719,"is_reserved":false,"is_disabled":false,"rental_uris":{"android":"levelo://app?vid=6ee99c8b-197d-4497-813d-3e3e0d80fa9c","ios":"levelo://app?vid=6ee99c8b-197d-4497-813d-3e3e0d80fa9c"},"vehicle_type_id":"4","last_reported":1682532508,"current_range_meters":15200,"station_id":"ce4bhc92rcd13ifvqetg","pricing_plan_id":"free"},{"bike_id":"00104459-8b70-46fa-a44c-cf2dba021b49","system_id":"levelo_inurba_marseille","lat":43.289468,"lon":5.363719,"is_reserved":false,"is_disabled":false,"rental_uris":{"android":"levelo://app?vid=00104459-8b70-46fa-a44c-cf2dba021b49","ios":"levelo://app?vid=00104459-8b70-46fa-a44c-cf2dba021b49"},"vehicle_type_id":"4","last_reported":1682532508,"current_range_meters":20400,"station_id":"ce4bhc92rcd13ifvqetg","pricing_plan_id":"free"},{"bike_id":"92460fac-49e0-497b-a2c0-40fa9da043ef","system_id":"levelo_inurba_marseille","lat":43.289468,"lon":5.363719,"is_reserved":false,"is_disabled":false,"rental_uris":{"android":"levelo://app?vid=92460fac-49e0-497b-a2c0-40fa9da043ef","ios":"levelo://app?vid=92460fac-49e0-497b-a2c0-40fa9da043ef"},"vehicle_type_id":"4","last_reported":1682532508,"current_range_meters":31200,"station_id":"ce4bhc92rcd13ifvqetg","pricing_plan_id":"free"},{"bike_id":"490007b0-c9ce-4975-ae2a-00eaeb43aadd","system_id":"levelo_inurba_marseille","lat":43.289468,"lon":5.363719,"is_reserved":false,"is_disabled":false,"rental_uris":{"android":"levelo://app?vid=490007b0-c9ce-4975-ae2a-00eaeb43aadd","ios":"levelo://app?vid=490007b0-c9ce-4975-ae2a-00eaeb43aadd"},"vehicle_type_id":"4","last_reported":1682532508,"current_range_meters":28000,"station_id":"ce4bhc92rcd13ifvqetg","pricing_plan_id":"free"},{"bike_id":"697c62eb-2afd-4bf7-bedb-1e0259087bfa","system_id":"levelo_inurba_marseille","lat":43.289468,"lon":5.363719,"is_reserved":false,"is_disabled":false,"rental_uris":{"android":"levelo://app?vid=697c62eb-2afd-4bf7-bedb-1e0259087bfa","ios":"levelo://app?vid=697c62eb-2afd-4bf7-bedb-1e0259087bfa"},"vehicle_type_id":"4","last_reported":1682532508,"current_range_meters":25600,"station_id":"ce4bhc92rcd13ifvqetg","pricing_plan_id":"free"},{"bike_id":"d3e3445e-e5b8-4cca-9b9a-d1c0fa1744d8","system_id":"levelo_inurba_marseille","lat":43.2927,"lon":5.38421,"is_reserved":false,"is_disabled":false,"rental_uris":{"android":"levelo://app?vid=d3e3445e-e5b8-4cca-9b9a-d1c0fa1744d8","ios":"levelo://app?vid=d3e3445e-e5b8-4cca-9b9a-d1c0fa1744d8"},"vehicle_type_id":"4","last_reported":1682532508,"current_range_meters":21600,"station_id":"ce4bh692rcd13ifvqea0","pricing_plan_id":"free"},{"bike_id":"dc3cd564-f815-418e-8cb8-8904592ad6b2","system_id":"levelo_inurba_marseille","lat":43.29273,"lon":5.3843,"is_reserved":false,"is_disabled":false,"rental_uris":{"android":"levelo://app?vid=dc3cd564-f815-418e-8cb8-8904592ad6b2","ios":"levelo://app?vid=dc3cd564-f815-418e-8cb8-8904592ad6b2"},"vehicle_type_id":"4","last_reported":1682532508,"current_range_meters":10000,"station_id":"ce4bh692rcd13ifvqea0","pricing_plan_id":"free"},{"bike_id":"d39d7dfb-3bba-44fd-9b50-54123350c880","system_id":"levelo_inurba_marseille","lat":43.292644,"lon":5.384257,"is_reserved":false,"is_disabled":false,"rental_uris":{"android":"levelo://app?vid=d39d7dfb-3bba-44fd-9b50-54123350c880","ios":"levelo://app?vid=d39d7dfb-3bba-44fd-9b50-54123350c880"},"vehicle_type_id":"4","last_reported":1682532508,"current_range_meters":26400,"station_id":"ce4bh692rcd13ifvqea0","pricing_plan_id":"free"},{"bike_id":"c3e8894e-24fe-49f6-91df-d86e6ef06824","system_id":"levelo_inurba_marseille","lat":43.2927,"lon":5.38427,"is_reserved":false,"is_disabled":false,"rental_uris":{"android":"levelo://app?vid=c3e8894e-24fe-49f6-91df-d86e6ef06824","ios":"levelo://app?vid=c3e8894e-24fe-49f6-91df-d86e6ef06824"},"vehicle_type_id":"4","last_reported":1682532508,"current_range_meters":29200,"station_id":"ce4bh692rcd13ifvqea0","pricing_plan_id":"free"},{"bike_id":"14526782-7db5-434d-b771-6eb05496cddb","system_id":"levelo_inurba_marseille","lat":43.29272,"lon":5.38435,"is_reserved":false,"is_disabled":false,"rental_uris":{"android":"levelo://app?vid=14526782-7db5-434d-b771-6eb05496cddb","ios":"levelo://app?vid=14526782-7db5-434d-b771-6eb05496cddb"},"vehicle_type_id":"4","last_reported":1682532508,"current_range_meters":16800,"station_id":"ce4bh692rcd13ifvqea0","pricing_plan_id":"free"},{"bike_id":"e20ff9c4-3adc-40eb-9326-03cfa7cbbf3e","system_id":"levelo_inurba_marseille","lat":43.29269,"lon":5.38437,"is_reserved":false,"is_disabled":false,"rental_uris":{"android":"levelo://app?vid=e20ff9c4-3adc-40eb-9326-03cfa7cbbf3e","ios":"levelo://app?vid=e20ff9c4-3adc-40eb-9326-03cfa7cbbf3e"},"vehicle_type_id":"4","last_reported":1682532508,"current_range_meters":28000,"station_id":"ce4bh692rcd13ifvqea0","pricing_plan_id":"free"},{"bike_id":"09d7c28f-dacc-486f-b35a-31162cac4e95","system_id":"levelo_inurba_marseille","lat":43.29266,"lon":5.38435,"is_reserved":false,"is_disabled":false,"rental_uris":{"android":"levelo://app?vid=09d7c28f-dacc-486f-b35a-31162cac4e95","ios":"levelo://app?vid=09d7c28f-dacc-486f-b35a-31162cac4e95"},"vehicle_type_id":"4","last_reported":1682532508,"current_range_meters":22800,"station_id":"ce4bh692rcd13ifvqea0","pricing_plan_id":"free"},{"bike_id":"224cf8ca-696b-48d1-977a-f0d774b22273","system_id":"levelo_inurba_marseille","lat":43.292644,"lon":5.384257,"is_reserved":false,"is_disabled":false,"rental_uris":{"android":"levelo://app?vid=224cf8ca-696b-48d1-977a-f0d774b22273","ios":"levelo://app?vid=224cf8ca-696b-48d1-977a-f0d774b22273"},"vehicle_type_id":"4","last_reported":1682532508,"current_range_meters":31200,"station_id":"ce4bh692rcd13ifvqea0","pricing_plan_id":"free"},{"bike_id":"543c29a8-ec1b-4330-84da-b5b9a26160fe","system_id":"levelo_inurba_marseille","lat":43.29263,"lon":5.38429,"is_reserved":false,"is_disabled":false,"rental_uris":{"android":"levelo://app?vid=543c29a8-ec1b-4330-84da-b5b9a26160fe","ios":"levelo://app?vid=543c29a8-ec1b-4330-84da-b5b9a26160fe"},"vehicle_type_id":"4","last_reported":1682532508,"current_range_meters":22800,"station_id":"ce4bh692rcd13ifvqea0","pricing_plan_id":"free"},{"bike_id":"90224571-05ae-4ecc-b496-367b52f242da","system_id":"levelo_inurba_marseille","lat":43.29266,"lon":5.38436,"is_reserved":false,"is_disabled":false,"rental_uris":{"android":"levelo://app?vid=90224571-05ae-4ecc-b496-367b52f242da","ios":"levelo://app?vid=90224571-05ae-4ecc-b496-367b52f242da"},"vehicle_type_id":"4","last_reported":1682532508,"current_range_meters":9600,"station_id":"ce4bh692rcd13ifvqea0","pricing_plan_id":"free"},{"bike_id":"74afacc4-02cf-4e8c-a61f-26b95441b1d2","system_id":"levelo_inurba_marseille","lat":43.29267,"lon":5.38439,"is_reserved":false,"is_disabled":false,"rental_uris":{"android":"levelo://app?vid=74afacc4-02cf-4e8c-a61f-26b95441b1d2","ios":"levelo://app?vid=74afacc4-02cf-4e8c-a61f-26b95441b1d2"},"vehicle_type_id":"4","last_reported":1682532508,"current_range_meters":21600,"station_id":"ce4bh692rcd13ifvqea0","pricing_plan_id":"free"},{"bike_id":"62f3e7a6-927a-4734-8f88-9d9f193f266a","system_id":"levelo_inurba_marseille","lat":43.29267,"lon":5.38439,"is_reserved":false,"is_disabled":false,"rental_uris":{"android":"levelo://app?vid=62f3e7a6-927a-4734-8f88-9d9f193f266a","ios":"levelo://app?vid=62f3e7a6-927a-4734-8f88-9d9f193f266a"},"vehicle_type_id":"4","last_reported":1682532508,"current_range_meters":26400,"station_id":"ce4bh692rcd13ifvqea0","pricing_plan_id":"free"},{"bike_id":"a98f7553-bf68-46fc-80e9-fb3983ebf2c1","system_id":"levelo_inurba_marseille","lat":43.304296,"lon":5.397513,"is_reserved":false,"is_disabled":false,"rental_uris":{"android":"levelo://app?vid=a98f7553-bf68-46fc-80e9-fb3983ebf2c1","ios":"levelo://app?vid=a98f7553-bf68-46fc-80e9-fb3983ebf2c1"},"vehicle_type_id":"4","last_reported":1682532508,"current_range_meters":24400,"station_id":"ce4bh092rcd13ifvqd20","pricing_plan_id":"free"},{"bike_id":"c939342f-4dc8-45af-8c5d-f3408c1ffe62","system_id":"levelo_inurba_marseille","lat":43.29265,"lon":5.38437,"is_reserved":false,"is_disabled":false,"rental_uris":{"android":"levelo://app?vid=c939342f-4dc8-45af-8c5d-f3408c1ffe62","ios":"levelo://app?vid=c939342f-4dc8-45af-8c5d-f3408c1ffe62"},"vehicle_type_id":"4","last_reported":1682532508,"current_range_meters":18000,"station_id":"ce4bh692rcd13ifvqea0","pricing_plan_id":"free"},{"bike_id":"10e5d687-16fc-44c7-9190-cce0463c5a96","system_id":"levelo_inurba_marseille","lat":43.29268,"lon":5.38444,"is_reserved":false,"is_disabled":false,"rental_uris":{"android":"levelo://app?vid=10e5d687-16fc-44c7-9190-cce0463c5a96","ios":"levelo://app?vid=10e5d687-16fc-44c7-9190-cce0463c5a96"},"vehicle_type_id":"4","last_reported":1682532508,"current_range_meters":18800,"station_id":"ce4bh692rcd13ifvqea0","pricing_plan_id":"free"},{"bike_id":"2c13f0b4-d32a-4bfb-92e9-5e1e57de3b09","system_id":"levelo_inurba_marseille","lat":43.29267,"lon":5.38443,"is_reserved":false,"is_disabled":false,"rental_uris":{"android":"levelo://app?vid=2c13f0b4-d32a-4bfb-92e9-5e1e57de3b09","ios":"levelo://app?vid=2c13f0b4-d32a-4bfb-92e9-5e1e57de3b09"},"vehicle_type_id":"4","last_reported":1682532508,"current_range_meters":28800,"station_id":"ce4bh692rcd13ifvqea0","pricing_plan_id":"free"},{"bike_id":"c127602b-b5b9-4de5-a381-a4e3a16beece","system_id":"levelo_inurba_marseille","lat":43.2926,"lon":5.38432,"is_reserved":false,"is_disabled":false,"rental_uris":{"android":"levelo://app?vid=c127602b-b5b9-4de5-a381-a4e3a16beece","ios":"levelo://app?vid=c127602b-b5b9-4de5-a381-a4e3a16beece"},"vehicle_type_id":"4","last_reported":1682532508,"current_range_meters":11200,"station_id":"ce4bh692rcd13ifvqea0","pricing_plan_id":"free"},{"bike_id":"f282bbb0-6165-4eeb-a228-c92058fa1ba8","system_id":"levelo_inurba_marseille","lat":43.29257,"lon":5.38426,"is_reserved":false,"is_disabled":false,"rental_uris":{"android":"levelo://app?vid=f282bbb0-6165-4eeb-a228-c92058fa1ba8","ios":"levelo://app?vid=f282bbb0-6165-4eeb-a228-c92058fa1ba8"},"vehicle_type_id":"4","last_reported":1682532508,"current_range_meters":22000,"station_id":"ce4bh692rcd13ifvqea0","pricing_plan_id":"free"},{"bike_id":"f18949b7-8d02-4a59-9a0a-781df601efbc","system_id":"levelo_inurba_marseille","lat":43.29261,"lon":5.3844,"is_reserved":false,"is_disabled":false,"rental_uris":{"android":"levelo://app?vid=f18949b7-8d02-4a59-9a0a-781df601efbc","ios":"levelo://app?vid=f18949b7-8d02-4a59-9a0a-781df601efbc"},"vehicle_type_id":"4","last_reported":1682532508,"current_range_meters":23600,"station_id":"ce4bh692rcd13ifvqea0","pricing_plan_id":"free"},{"bike_id":"d6f32a29-a2ce-498c-8520-9b84e2983204","system_id":"levelo_inurba_marseille","lat":43.29261,"lon":5.38441,"is_reserved":false,"is_disabled":false,"rental_uris":{"android":"levelo://app?vid=d6f32a29-a2ce-498c-8520-9b84e2983204","ios":"levelo://app?vid=d6f32a29-a2ce-498c-8520-9b84e2983204"},"vehicle_type_id":"4","last_reported":1682532508,"current_range_meters":23600,"station_id":"ce4bh692rcd13ifvqea0","pricing_plan_id":"free"},{"bike_id":"cde9aa97-26b4-42ce-b140-de04242420fe","system_id":"levelo_inurba_marseille","lat":43.29258,"lon":5.38442,"is_reserved":false,"is_disabled":false,"rental_uris":{"android":"levelo://app?vid=cde9aa97-26b4-42ce-b140-de04242420fe","ios":"levelo://app?vid=cde9aa97-26b4-42ce-b140-de04242420fe"},"vehicle_type_id":"4","last_reported":1682532508,"current_range_meters":8000,"station_id":"ce4bh692rcd13ifvqea0","pricing_plan_id":"free"},{"bike_id":"60da44f6-b524-4cd4-a776-e4dbb38248f8","system_id":"levelo_inurba_marseille","lat":43.33039,"lon":5.38921,"is_reserved":false,"is_disabled":false,"rental_uris":{"android":"levelo://app?vid=60da44f6-b524-4cd4-a776-e4dbb38248f8","ios":"levelo://app?vid=60da44f6-b524-4cd4-a776-e4dbb38248f8"},"vehicle_type_id":"4","last_reported":1682532508,"current_range_meters":24800,"station_id":"ce4bhr92rcd13ifvqhrg","pricing_plan_id":"free"},{"bike_id":"2d8c197d-265d-4f9c-b61b-41cab9f6576e","system_id":"levelo_inurba_marseille","lat":43.290103,"lon":5.356114,"is_reserved":false,"is_disabled":false,"rental_uris":{"android":"levelo://app?vid=2d8c197d-265d-4f9c-b61b-41cab9f6576e","ios":"levelo://app?vid=2d8c197d-265d-4f9c-b61b-41cab9f6576e"},"vehicle_type_id":"4","last_reported":1682532508,"current_range_meters":23600,"station_id":"ce4bhb92rcd13ifvqen0","pricing_plan_id":"free"},{"bike_id":"12930ea9-f1d4-40f8-ad03-a9c587ad21c6","system_id":"levelo_inurba_marseille","lat":43.33042,"lon":5.38918,"is_reserved":false,"is_disabled":false,"rental_uris":{"android":"levelo://app?vid=12930ea9-f1d4-40f8-ad03-a9c587ad21c6","ios":"levelo://app?vid=12930ea9-f1d4-40f8-ad03-a9c587ad21c6"},"vehicle_type_id":"4","last_reported":1682532508,"current_range_meters":29600,"station_id":"ce4bhr92rcd13ifvqhrg","pricing_plan_id":"free"},{"bike_id":"1a672e7e-a3c8-417e-a5d7-b7d4ec3b8841","system_id":"levelo_inurba_marseille","lat":43.2901,"lon":5.35609,"is_reserved":false,"is_disabled":false,"rental_uris":{"android":"levelo://app?vid=1a672e7e-a3c8-417e-a5d7-b7d4ec3b8841","ios":"levelo://app?vid=1a672e7e-a3c8-417e-a5d7-b7d4ec3b8841"},"vehicle_type_id":"4","last_reported":1682532508,"current_range_meters":24000,"station_id":"ce4bhb92rcd13ifvqen0","pricing_plan_id":"free"},{"bike_id":"2c442e2d-bfa2-4d8f-bcc4-65fe1ae4cdd6","system_id":"levelo_inurba_marseille","lat":43.290104,"lon":5.356111,"is_reserved":false,"is_disabled":false,"rental_uris":{"android":"levelo://app?vid=2c442e2d-bfa2-4d8f-bcc4-65fe1ae4cdd6","ios":"levelo://app?vid=2c442e2d-bfa2-4d8f-bcc4-65fe1ae4cdd6"},"vehicle_type_id":"4","last_reported":1682532508,"current_range_meters":31200,"station_id":"ce4bhb92rcd13ifvqen0","pricing_plan_id":"free"},{"bike_id":"cb745f70-639e-4ede-9e9f-b60d191c3063","system_id":"levelo_inurba_marseille","lat":43.33043,"lon":5.38918,"is_reserved":false,"is_disabled":false,"rental_uris":{"android":"levelo://app?vid=cb745f70-639e-4ede-9e9f-b60d191c3063","ios":"levelo://app?vid=cb745f70-639e-4ede-9e9f-b60d191c3063"},"vehicle_type_id":"4","last_reported":1682532508,"current_range_meters":28800,"station_id":"ce4bhr92rcd13ifvqhrg","pricing_plan_id":"free"},{"bike_id":"16bbb398-f43a-4785-b05c-4b72235d2480","system_id":"levelo_inurba_marseille","lat":43.33042,"lon":5.38921,"is_reserved":false,"is_disabled":false,"rental_uris":{"android":"levelo://app?vid=16bbb398-f43a-4785-b05c-4b72235d2480","ios":"levelo://app?vid=16bbb398-f43a-4785-b05c-4b72235d2480"},"vehicle_type_id":"4","last_reported":1682532508,"current_range_meters":17600,"station_id":"ce4bhr92rcd13ifvqhrg","pricing_plan_id":"free"},{"bike_id":"2b7a779b-b31d-49cf-860a-3c18201b0fef","system_id":"levelo_inurba_marseille","lat":43.33045,"lon":5.38917,"is_reserved":false,"is_disabled":false,"rental_uris":{"android":"levelo://app?vid=2b7a779b-b31d-49cf-860a-3c18201b0fef","ios":"levelo://app?vid=2b7a779b-b31d-49cf-860a-3c18201b0fef"},"vehicle_type_id":"4","last_reported":1682532508,"current_range_meters":21600,"station_id":"ce4bhr92rcd13ifvqhrg","pricing_plan_id":"free"},{"bike_id":"b9dd53e6-320a-4dd3-90ed-cf4e306d8e9d","system_id":"levelo_inurba_marseille","lat":43.33044,"lon":5.38919,"is_reserved":false,"is_disabled":false,"rental_uris":{"android":"levelo://app?vid=b9dd53e6-320a-4dd3-90ed-cf4e306d8e9d","ios":"levelo://app?vid=b9dd53e6-320a-4dd3-90ed-cf4e306d8e9d"},"vehicle_type_id":"4","last_reported":1682532508,"current_range_meters":0,"station_id":"ce4bhr92rcd13ifvqhrg","pricing_plan_id":"free"},{"bike_id":"26e24dae-1658-4ef2-b17e-71020b8cddbe","system_id":"levelo_inurba_marseille","lat":43.33045,"lon":5.38918,"is_reserved":false,"is_disabled":false,"rental_uris":{"android":"levelo://app?vid=26e24dae-1658-4ef2-b17e-71020b8cddbe","ios":"levelo://app?vid=26e24dae-1658-4ef2-b17e-71020b8cddbe"},