{"last_updated":1713507034,"ttl":30,"version":"2.2","data":{"bikes":[{"bike_id":"584c87cb-6937-44d8-9517-69300f018ff7","system_id":"levelo_inurba_marseille","lat":43.31341,"lon":5.367098,"is_reserved":false,"is_disabled":false,"rental_uris":{"android":"levelo://app?vid=584c87cb-6937-44d8-9517-69300f018ff7","ios":"levelo://app?vid=584c87cb-6937-44d8-9517-69300f018ff7"},"vehicle_type_id":"4","last_reported":1713507035,"current_range_meters":23200,"station_id":"ce4bgr92rcd13ifvqc6g","pricing_plan_id":"cebpf4jnsgd1na2vs0mg"},{"bike_id":"d3e9e261-dc7f-43c8-9c93-01c88829168f","system_id":"levelo_inurba_marseille","lat":43.313391,"lon":5.36706,"is_reserved":false,"is_disabled":false,"rental_uris":{"android":"levelo://app?vid=d3e9e261-dc7f-43c8-9c93-01c88829168f","ios":"levelo://app?vid=d3e9e261-dc7f-43c8-9c93-01c88829168f"},"vehicle_type_id":"4","last_reported":1713507035,"current_range_meters":24000,"station_id":"ce4bgr92rcd13ifvqc6g","pricing_plan_id":"cebpf4jnsgd1na2vs0mg"},{"bike_id":"b1318036-54a4-42cb-af8f-81c344a3568a","system_id":"levelo_inurba_marseille","lat":43.31341,"lon":5.367098,"is_reserved":false,"is_disabled":false,"rental_uris":{"android":"levelo://app?vid=b1318036-54a4-42cb-af8f-81c344a3568a","ios":"levelo://app?vid=b1318036-54a4-42cb-af8f-81c344a3568a"},"vehicle_type_id":"4","last_reported":1713507035,"current_range_meters":18800,"station_id":"ce4bgr92rcd13ifvqc6g","pricing_plan_id":"cebpf4jnsgd1na2vs0mg"},{"bike_id":"10c45a1c-b06e-407e-b9b4-fae79a0606c4","system_id":"levelo_inurba_marseille","lat":43.31341,"lon":5.367098,"is_reserved":false,"is_disabled":false,"rental_uris":{"android":"levelo://app?vid=10c45a1c-b06e-407e-b9b4-fae79a0606c4","ios":"levelo://app?vid=10c45a1c-b06e-407e-b9b4-fae79a0606c4"},"vehicle_type_id":"4","last_reported":1713507035,"current_range_meters":24800,"station_id":"ce4bgr92rcd13ifvqc6g","pricing_plan_id":"cebpf4jnsgd1na2vs0mg"},{"bike_id":"1e362e2e-b494-4507-bace-5f64afbc16a8","system_id":"levelo_inurba_marseille","lat":43.31341,"lon":5.367098,"is_reserved":false,"is_disabled":false,"rental_uris":{"android":"levelo://app?vid=1e362e2e-b494-4507-bace-5f64afbc16a8","ios":"levelo://app?vid=1e362e2e-b494-4507-bace-5f64afbc16a8"},"vehicle_type_id":"4","last_reported":1713507035,"current_range_meters":31600,"station_id":"ce4bgr92rcd13ifvqc6g","pricing_plan_id":"cebpf4jnsgd1na2vs0mg"},{"bike_id":"eb317e62-63f6-440f-a8be-fb4a5a7ce4f5","system_id":"levelo_inurba_marseille","lat":43.31341,"lon":5.367098,"is_reserved":false,"is_disabled":false,"rental_uris":{"android":"levelo://app?vid=eb317e62-63f6-440f-a8be-fb4a5a7ce4f5","ios":"levelo://app?vid=eb317e62-63f6-440f-a8be-fb4a5a7ce4f5"},"vehicle_type_id":"4","last_reported":1713507035,"current_range_meters":16800,"station_id":"ce4bgr92rcd13ifvqc6g","pricing_plan_id":"cebpf4jnsgd1na2vs0mg"},{"bike_id":"f8665d24-98ba-403d-9b33-272f5f2d629d","system_id":"levelo_inurba_marseille","lat":43.31341,"lon":5.367098,"is_reserved":false,"is_disabled":false,"rental_uris":{"android":"levelo://app?vid=f8665d24-98ba-403d-9b33-272f5f2d629d","ios":"levelo://app?vid=f8665d24-98ba-403d-9b33-272f5f2d629d"},"vehicle_type_id":"4","last_reported":1713507035,"current_range_meters":23600,"station_id":"ce4bgr92rcd13ifvqc6g","pricing_plan_id":"cebpf4jnsgd1na2vs0mg"},{"bike_id":"70ccafe4-4210-4fab-b89e-7099eb28b9c0","system_id":"levelo_inurba_marseille","lat":43.312239,"lon":5.368562,"is_reserved":false,"is_disabled":false,"rental_uris":{"android":"levelo://app?vid=70ccafe4-4210-4fab-b89e-7099eb28b9c0","ios":"levelo://app?vid=70ccafe4-4210-4fab-b89e-7099eb28b9c0"},"vehicle_type_id":"4","last_reported":1713507035,"current_range_meters":22400,"station_id":"ce4bgl92rcd13ifvqbq0","pricing_plan_id":"cebpf4jnsgd1na2vs0mg"},{"bike_id":"a3b84c99-7367-4071-a6b6-4b0f24f41008","system_id":"levelo_inurba_marseille","lat":43.312239,"lon":5.368562,"is_reserved":false,"is_disabled":false,"rental_uris":{"android":"levelo://app?vid=a3b84c99-7367-4071-a6b6-4b0f24f41008","ios":"levelo://app?vid=a3b84c99-7367-4071-a6b6-4b0f24f41008"},"vehicle_type_id":"4","last_reported":1713507035,"current_range_meters":24800,"station_id":"ce4bgl92rcd13ifvqbq0","pricing_plan_id":"cebpf4jnsgd1na2vs0mg"},{"bike_id":"d9954ad2-d95c-4385-81d4-30d0a4bacf46","system_id":"levelo_inurba_marseille","lat":43.312239,"lon":5.368562,"is_reserved":false,"is_disabled":false,"rental_uris":{"android":"levelo://app?vid=d9954ad2-d95c-4385-81d4-30d0a4bacf46","ios":"levelo://app?vid=d9954ad2-d95c-4385-81d4-30d0a4bacf46"},"vehicle_type_id":"4","last_reported":1713507035,"current_range_meters":18400,"station_id":"ce4bgl92rcd13ifvqbq0","pricing_plan_id":"cebpf4jnsgd1na2vs0mg"},{"bike_id":"8bc8a6f6-e0e0-4068-92e5-74b4df4d2a64","system_id":"levelo_inurba_marseille","lat":43.312239,"lon":5.368562,"is_reserved":false,"is_disabled":false,"rental_uris":{"android":"levelo://app?vid=8bc8a6f6-e0e0-4068-92e5-74b4df4d2a64","ios":"levelo://app?vid=8bc8a6f6-e0e0-4068-92e5-74b4df4d2a64"},"vehicle_type_id":"4","last_reported":1713507035,"current_range_meters":27200,"station_id":"ce4bgl92rcd13ifvqbq0","pricing_plan_id":"cebpf4jnsgd1na2vs0mg"},{"bike_id":"b60c8264-87f9-4ff7-b9e6-171bbfc071ea","system_id":"levelo_inurba_marseille","lat":43.312239,"lon":5.368562,"is_reserved":false,"is_disabled":false,"rental_uris":{"android":"levelo://app?vid=b60c8264-87f9-4ff7-b9e6-171bbfc071ea","ios":"levelo://app?vid=b60c8264-87f9-4ff7-b9e6-171bbfc071ea"},"vehicle_type_id":"4","last_reported":1713507035,"current_range_meters":31600,"station_id":"ce4bgl92rcd13ifvqbq0","pricing_plan_id":"cebpf4jnsgd1na2vs0mg"},{"bike_id":"acb0a99d-31cd-413d-a159-de8ee4bd7bb3","system_id":"levelo_inurba_marseille","lat":43.287184,"lon":5.37937,"is_reserved":false,"is_disabled":false,"rental_uris":{"android":"levelo://app?vid=acb0a99d-31cd-413d-a159-de8ee4bd7bb3","ios":"levelo://app?vid=acb0a99d-31cd-413d-a159-de8ee4bd7bb3"},"vehicle_type_id":"4","last_reported":1713507035,"current_range_meters":6000,"station_id":"ce4bh9p2rcd13ifvqec0","pricing_plan_id":"cebpf4jnsgd1na2vs0mg"},{"bike_id":"247d7c96-209a-4cae-b34a-a837c2392daa","system_id":"levelo_inurba_marseille","lat":43.309076,"lon":5.368465,"is_reserved":false,"is_disabled":false,"rental_uris":{"android":"levelo://app?vid=247d7c96-209a-4cae-b34a-a837c2392daa","ios":"levelo://app?vid=247d7c96-209a-4cae-b34a-a837c2392daa"},"vehicle_type_id":"4","last_reported":1713507035,"current_range_meters":28800,"station_id":"ce4bgn92rcd13ifvqbvg","pricing_plan_id":"cebpf4jnsgd1na2vs0mg"},{"bike_id":"dcc769d9-735e-4971-9e6c-1c1de02cfab9","system_id":"levelo_inurba_marseille","lat":43.309076,"lon":5.368465,"is_reserved":false,"is_disabled":false,"rental_uris":{"android":"levelo://app?vid=dcc769d9-735e-4971-9e6c-1c1de02cfab9","ios":"levelo://app?vid=dcc769d9-735e-4971-9e6c-1c1de02cfab9"},"vehicle_type_id":"4","last_reported":1713507035,"current_range_meters":14000,"station_id":"ce4bgn92rcd13ifvqbvg","pricing_plan_id":"cebpf4jnsgd1na2vs0mg"},{"bike_id":"beddb27c-8150-40cf-bbb6-5fe39079a399","system_id":"levelo_inurba_marseille","lat":43.309076,"lon":5.368465,"is_reserved":false,"is_disabled":false,"rental_uris":{"android":"levelo://app?vid=beddb27c-8150-40cf-bbb6-5fe39079a399","ios":"levelo://app?vid=beddb27c-8150-40cf-bbb6-5fe39079a399"},"vehicle_type_id":"4","last_reported":1713507035,"current_range_meters":0,"station_id":"ce4bgn92rcd13ifvqbvg","pricing_plan_id":"cebpf4jnsgd1na2vs0mg"},{"bike_id":"1a2aee64-7124-4da7-aeee-810322c409df","system_id":"levelo_inurba_marseille","lat":43.309076,"lon":5.368465,"is_reserved":false,"is_disabled":false,"rental_uris":{"android":"levelo://app?vid=1a2aee64-7124-4da7-aeee-810322c409df","ios":"levelo://app?vid=1a2aee64-7124-4da7-aeee-810322c409df"},"vehicle_type_id":"4","last_reported":1713507035,"current_range_meters":19200,"station_id":"ce4bgn92rcd13ifvqbvg","pricing_plan_id":"cebpf4jnsgd1na2vs0mg"},{"bike_id":"7a76ac97-9ab4-48ee-a466-9be8d7b9f7b6","system_id":"levelo_inurba_marseille","lat":43.313156,"lon":5.372624,"is_reserved":false,"is_disabled":false,"rental_uris":{"android":"levelo://app?vid=7a76ac97-9ab4-48ee-a466-9be8d7b9f7b6","ios":"levelo://app?vid=7a76ac97-9ab4-48ee-a466-9be8d7b9f7b6"},"vehicle_type_id":"4","last_reported":1713507035,"current_range_meters":6800,"station_id":"","pricing_plan_id":"cebpf4jnsgd1na2vs0mg"},{"bike_id":"f60ed17c-a277-4183-9c04-cac214fa5e4d","system_id":"levelo_inurba_marseille","lat":43.314811,"lon":5.373103,"is_reserved":false,"is_disabled":false,"rental_uris":{"android":"levelo://app?vid=f60ed17c-a277-4183-9c04-cac214fa5e4d","ios":"levelo://app?vid=f60ed17c-a277-4183-9c04-cac214fa5e4d"},"vehicle_type_id":"4","last_reported":1713507035,"current_range_meters":21600,"station_id":"ce4bgt12rcd13ifvqcd0","pricing_plan_id":"cebpf4jnsgd1na2vs0mg"},{"bike_id":"50bc1573-c3d7-41ae-9527-3b95c57f1bcb","system_id":"levelo_inurba_marseille","lat":43.314811,"lon":5.373103,"is_reserved":false,"is_disabled":false,"rental_uris":{"android":"levelo://app?vid=50bc1573-c3d7-41ae-9527-3b95c57f1bcb","ios":"levelo://app?vid=50bc1573-c3d7-41ae-9527-3b95c57f1bcb"},"vehicle_type_id":"4","last_reported":1713507035,"current_range_meters":27600,"station_id":"ce4bgt12rcd13ifvqcd0","pricing_plan_id":"cebpf4jnsgd1na2vs0mg"},{"bike_id":"ab01e725-c809-44f5-8620-80b44381848f","system_id":"levelo_inurba_marseille","lat":43.314811,"lon":5.373103,"is_reserved":false,"is_disabled":false,"rental_uris":{"android":"levelo://app?vid=ab01e725-c809-44f5-8620-80b44381848f","ios":"levelo://app?vid=ab01e725-c809-44f5-8620-80b44381848f"},"vehicle_type_id":"4","last_reported":1713507035,"current_range_meters":31200,"station_id":"ce4bgt12rcd13ifvqcd0","pricing_plan_id":"cebpf4jnsgd1na2vs0mg"},{"bike_id":"63c0b3ed-2189-4fea-aae3-bf4c358b07c2","system_id":"levelo_inurba_marseille","lat":43.309034,"lon":5.371783,"is_reserved":false,"is_disabled":false,"rental_uris":{"android":"levelo://app?vid=63c0b3ed-2189-4fea-aae3-bf4c358b07c2","ios":"levelo://app?vid=63c0b3ed-2189-4fea-aae3-bf4c358b07c2"},"vehicle_type_id":"4","last_reported":1713507035,"current_range_meters":11600,"station_id":"ce4bguh2rcd13ifvqckg","pricing_plan_id":"cebpf4jnsgd1na2vs0mg"},{"bike_id":"44992b0b-b45b-454c-9c97-bb1f9199a9ef","system_id":"levelo_inurba_marseille","lat":43.309039,"lon":5.371797,"is_reserved":false,"is_disabled":false,"rental_uris":{"android":"levelo://app?vid=44992b0b-b45b-454c-9c97-bb1f9199a9ef","ios":"levelo://app?vid=44992b0b-b45b-454c-9c97-bb1f9199a9ef"},"vehicle_type_id":"4","last_reported":1713507035,"current_range_meters":26800,"station_id":"ce4bguh2rcd13ifvqckg","pricing_plan_id":"cebpf4jnsgd1na2vs0mg"},{"bike_id":"aa7f926a-ba5e-4ca3-aa76-16d1b81bf51d","system_id":"levelo_inurba_marseille","lat":43.30537,"lon":5.367345,"is_reserved":false,"is_disabled":false,"rental_uris":{"android":"levelo://app?vid=aa7f926a-ba5e-4ca3-aa76-16d1b81bf51d","ios":"levelo://app?vid=aa7f926a-ba5e-4ca3-aa76-16d1b81bf51d"},"vehicle_type_id":"4","last_reported":1713507035,"current_range_meters":22800,"station_id":"ce4bgrp2rcd13ifvqc9g","pricing_plan_id":"cebpf4jnsgd1na2vs0mg"},{"bike_id":"52f22b5a-486d-4c62-a4ac-137bfb2f235e","system_id":"levelo_inurba_marseille","lat":43.30554,"lon":5.36534,"is_reserved":false,"is_disabled":false,"rental_uris":{"android":"levelo://app?vid=52f22b5a-486d-4c62-a4ac-137bfb2f235e","ios":"levelo://app?vid=52f22b5a-486d-4c62-a4ac-137bfb2f235e"},"vehicle_type_id":"4","last_reported":1713507035,"current_range_meters":26800,"station_id":"","pricing_plan_id":"cebpf4jnsgd1na2vs0mg"},{"bike_id":"0ba9ae79-8121-4d01-91a0-77f1eb62a725","system_id":"levelo_inurba_marseille","lat":43.30537,"lon":5.367345,"is_reserved":false,"is_disabled":false,"rental_uris":{"android":"levelo://app?vid=0ba9ae79-8121-4d01-91a0-77f1eb62a725","ios":"levelo://app?vid=0ba9ae79-8121-4d01-91a0-77f1eb62a725"},"vehicle_type_id":"4","last_reported":1713507035,"current_range_meters":22800,"station_id":"ce4bgrp2rcd13ifvqc9g","pricing_plan_id":"cebpf4jnsgd1na2vs0mg"},{"bike_id":"800fa11c-7be7-414d-9c48-5c65ccd5b240","system_id":"levelo_inurba_marseille","lat":43.305487,"lon":5.365393,"is_reserved":false,"is_disabled":false,"rental_uris":{"android":"levelo://app?vid=800fa11c-7be7-414d-9c48-5c65ccd5b240","ios":"levelo://app?vid=800fa11c-7be7-414d-9c48-5c65ccd5b240"},"vehicle_type_id":"4","last_reported":1713507035,"current_range_meters":10800,"station_id":"ce4bgs12rcd13ifvqcag","pricing_plan_id":"cebpf4jnsgd1na2vs0mg"},{"bike_id":"62e4f6d4-86e3-4208-9469-693ea46317c1","system_id":"levelo_inurba_marseille","lat":43.30537,"lon":5.367345,"is_reserved":false,"is_disabled":false,"rental_uris":{"android":"levelo://app?vid=62e4f6d4-86e3-4208-9469-693ea46317c1","ios":"levelo://app?vid=62e4f6d4-86e3-4208-9469-693ea46317c1"},"vehicle_type_id":"4","last_reported":1713507035,"current_range_meters":18000,"station_id":"ce4bgrp2rcd13ifvqc9g","pricing_plan_id":"cebpf4jnsgd1na2vs0mg"},{"bike_id":"2a68a8f2-a0f9-4956-bd23-3cebce551ce1","system_id":"levelo_inurba_marseille","lat":43.305706,"lon":5.365654,"is_reserved":false,"is_disabled":false,"rental_uris":{"android":"levelo://app?vid=2a68a8f2-a0f9-4956-bd23-3cebce551ce1","ios":"levelo://app?vid=2a68a8f2-a0f9-4956-bd23-3cebce551ce1"},"vehicle_type_id":"4","last_reported":1713507035,"current_range_meters":17200,"station_id":"ce4bgs12rcd13ifvqcag","pricing_plan_id":"cebpf4jnsgd1na2vs0mg"},{"bike_id":"7b43d7b5-a31c-41c5-9b32-ad7fe9408d1b","system_id":"levelo_inurba_marseille","lat":43.305706,"lon":5.365654,"is_reserved":false,"is_disabled":false,"rental_uris":{"android":"levelo://app?vid=7b43d7b5-a31c-41c5-9b32-ad7fe9408d1b","ios":"levelo://app?vid=7b43d7b5-a31c-41c5-9b32-ad7fe9408d1b"},"vehicle_type_id":"4","last_reported":1713507035,"current_range_meters":26400,"station_id":"ce4bgs12rcd13ifvqcag","pricing_plan_id":"cebpf4jnsgd1na2vs0mg"},{"bike_id":"23cc50e1-ee79-42a2-9944-0143565dfa89","system_id":"levelo_inurba_marseille","lat":43.305368,"lon":5.367343,"is_reserved":false,"is_disabled":false,"rental_uris":{"android":"levelo://app?vid=23cc50e1-ee79-42a2-9944-0143565dfa89","ios":"levelo://app?vid=23cc50e1-ee79-42a2-9944-0143565dfa89"},"vehicle_type_id":"4","last_reported":1713507035,"current_range_meters":8400,"station_id":"ce4bgrp2rcd13ifvqc9g","pricing_plan_id":"cebpf4jnsgd1na2vs0mg"},{"bike_id":"5b759b3e-d204-4b49-822d-ac1bd87ffe51","system_id":"levelo_inurba_marseille","lat":43.311125,"lon":5.377624,"is_reserved":false,"is_disabled":false,"rental_uris":{"android":"levelo://app?vid=5b759b3e-d204-4b49-822d-ac1bd87ffe51","ios":"levelo://app?vid=5b759b3e-d204-4b49-822d-ac1bd87ffe51"},"vehicle_type_id":"4","last_reported":1713507035,"current_range_meters":18400,"station_id":"ce4bgt92rcd13ifvqcg0","pricing_plan_id":"cebpf4jnsgd1na2vs0mg"},{"bike_id":"fde41e4e-620e-4acf-9427-80dfa6cf75d9","system_id":"levelo_inurba_marseille","lat":43.311125,"lon":5.377624,"is_reserved":false,"is_disabled":false,"rental_uris":{"android":"levelo://app?vid=fde41e4e-620e-4acf-9427-80dfa6cf75d9","ios":"levelo://app?vid=fde41e4e-620e-4acf-9427-80dfa6cf75d9"},"vehicle_type_id":"4","last_reported":1713507035,"current_range_meters":17200,"station_id":"ce4bgt92rcd13ifvqcg0","pricing_plan_id":"cebpf4jnsgd1na2vs0mg"},{"bike_id":"8be27e18-859d-44be-97e4-95e71dc53203","system_id":"levelo_inurba_marseille","lat":43.311125,"lon":5.377624,"is_reserved":false,"is_disabled":false,"rental_uris":{"android":"levelo://app?vid=8be27e18-859d-44be-97e4-95e71dc53203","ios":"levelo://app?vid=8be27e18-859d-44be-97e4-95e71dc53203"},"vehicle_type_id":"4","last_reported":1713507035,"current_range_meters":25200,"station_id":"ce4bgt92rcd13ifvqcg0","pricing_plan_id":"cebpf4jnsgd1na2vs0mg"},{"bike_id":"305946af-844d-4a9e-9773-e4ba67e718b6","system_id":"levelo_inurba_marseille","lat":43.311125,"lon":5.377624,"is_reserved":false,"is_disabled":false,"rental_uris":{"android":"levelo://app?vid=305946af-844d-4a9e-9773-e4ba67e718b6","ios":"levelo://app?vid=305946af-844d-4a9e-9773-e4ba67e718b6"},"vehicle_type_id":"4","last_reported":1713507035,"current_range_meters":31600,"station_id":"ce4bgt92rcd13ifvqcg0","pricing_plan_id":"cebpf4jnsgd1na2vs0mg"},{"bike_id":"cf9b0453-d898-428a-b164-f4d75f1c8c29","system_id":"levelo_inurba_marseille","lat":43.311125,"lon":5.377624,"is_reserved":false,"is_disabled":false,"rental_uris":{"android":"levelo://app?vid=cf9b0453-d898-428a-b164-f4d75f1c8c29","ios":"levelo://app?vid=cf9b0453-d898-428a-b164-f4d75f1c8c29"},"vehicle_type_id":"4","last_reported":1713507035,"current_range_meters":4800,"station_id":"ce4bgt92rcd13ifvqcg0","pricing_plan_id":"cebpf4jnsgd1na2vs0mg"},{"bike_id":"7db68d2f-874e-4880-b00b-ad159a1dd4ba","system_id":"levelo_inurba_marseille","lat":43.311125,"lon":5.377624,"is_reserved":false,"is_disabled":false,"rental_uris":{"android":"levelo://app?vid=7db68d2f-874e-4880-b00b-ad159a1dd4ba","ios":"levelo://app?vid=7db68d2f-874e-4880-b00b-ad159a1dd4ba"},"vehicle_type_id":"4","last_reported":1713507035,"current_range_meters":7200,"station_id":"ce4bgt92rcd13ifvqcg0","pricing_plan_id":"cebpf4jnsgd1na2vs0mg"},{"bike_id":"aa25f722-b4f5-4d39-927b-93021b89886f","system_id":"levelo_inurba_marseille","lat":43.311125,"lon":5.377624,"is_reserved":false,"is_disabled":false,"rental_uris":{"android":"levelo://app?vid=aa25f722-b4f5-4d39-927b-93021b89886f","ios":"levelo://app?vid=aa25f722-b4f5-4d39-927b-93021b89886f"},"vehicle_type_id":"4","last_reported":1713507035,"current_range_meters":28000,"station_id":"ce4bgt92rcd13ifvqcg0","pricing_plan_id":"cebpf4jnsgd1na2vs0mg"},{"bike_id":"21e5c002-e5b8-4846-85f2-5cc096d161ee","system_id":"levelo_inurba_marseille","lat":43.311125,"lon":5.377624,"is_reserved":false,"is_disabled":false,"rental_uris":{"android":"levelo://app?vid=21e5c002-e5b8-4846-85f2-5cc096d161ee","ios":"levelo://app?vid=21e5c002-e5b8-4846-85f2-5cc096d161ee"},"vehicle_type_id":"4","last_reported":1713507035,"current_range_meters":22400,"station_id":"ce4bgt92rcd13ifvqcg0","pricing_plan_id":"cebpf4jnsgd1na2vs0mg"},{"bike_id":"efd20f2b-bae6-45ea-b2b7-9a87fc680fcb","system_id":"levelo_inurba_marseille","lat":43.311125,"lon":5.377624,"is_reserved":false,"is_disabled":false,"rental_uris":{"android":"levelo://app?vid=efd20f2b-bae6-45ea-b2b7-9a87fc680fcb","ios":"levelo://app?vid=efd20f2b-bae6-45ea-b2b7-9a87fc680fcb"},"vehicle_type_id":"4","last_reported":1713507035,"current_range_meters":21600,"station_id":"ce4bgt92rcd13ifvqcg0","pricing_plan_id":"cebpf4jnsgd1na2vs0mg"},{"bike_id":"f391454f-238d-4f53-9421-b28b9773a544","system_id":"levelo_inurba_marseille","lat":43.307945,"lon":5.376487,"is_reserved":false,"is_disabled":false,"rental_uris":{"android":"levelo://app?vid=f391454f-238d-4f53-9421-b28b9773a544","ios":"levelo://app?vid=f391454f-238d-4f53-9421-b28b9773a544"},"vehicle_type_id":"4","last_reported":1713507035,"current_range_meters":18000,"station_id":"ce4bgv92rcd13ifvqcq0","pricing_plan_id":"cebpf4jnsgd1na2vs0mg"},{"bike_id":"a1e652f1-cf41-4a9a-97cf-9447fcb73fbf","system_id":"levelo_inurba_marseille","lat":43.307945,"lon":5.376487,"is_reserved":false,"is_disabled":false,"rental_uris":{"android":"levelo://app?vid=a1e652f1-cf41-4a9a-97cf-9447fcb73fbf","ios":"levelo://app?vid=a1e652f1-cf41-4a9a-97cf-9447fcb73fbf"},"vehicle_type_id":"4","last_reported":1713507035,"current_range_meters":31600,"station_id":"ce4bgv92rcd13ifvqcq0","pricing_plan_id":"cebpf4jnsgd1na2vs0mg"},{"bike_id":"80332089-e2a4-4cfb-b33d-1b1baf9f8a82","system_id":"levelo_inurba_marseille","lat":43.307945,"lon":5.376487,"is_reserved":false,"is_disabled":false,"rental_uris":{"android":"levelo://app?vid=80332089-e2a4-4cfb-b33d-1b1baf9f8a82","ios":"levelo://app?vid=80332089-e2a4-4cfb-b33d-1b1baf9f8a82"},"vehicle_type_id":"4","last_reported":1713507035,"current_range_meters":4400,"station_id":"ce4bgv92rcd13ifvqcq0","pricing_plan_id":"cebpf4jnsgd1na2vs0mg"},{"bike_id":"01ecf71d-bcf2-487e-94ec-6b1555bc0309","system_id":"levelo_inurba_marseille","lat":43.307945,"lon":5.376487,"is_reserved":false,"is_disabled":false,"rental_uris":{"android":"levelo://app?vid=01ecf71d-bcf2-487e-94ec-6b1555bc0309","ios":"levelo://app?vid=01ecf71d-bcf2-487e-94ec-6b1555bc0309"},"vehicle_type_id":"4","last_reported":1713507035,"current_range_meters":30400,"station_id":"ce4bgv92rcd13ifvqcq0","pricing_plan_id":"cebpf4jnsgd1na2vs0mg"},{"bike_id":"c4baf763-d655-4aa5-ac73-429ad62f6f25","system_id":"levelo_inurba_marseille","lat":43.307945,"lon":5.376487,"is_reserved":false,"is_disabled":false,"rental_uris":{"android":"levelo://app?vid=c4baf763-d655-4aa5-ac73-429ad62f6f25","ios":"levelo://app?vid=c4baf763-d655-4aa5-ac73-429ad62f6f25"},"vehicle_type_id":"4","last_reported":1713507035,"current_range_meters":31600,"station_id":"ce4bgv92rcd13ifvqcq0","pricing_plan_id":"cebpf4jnsgd1na2vs0mg"},{"bike_id":"34ecc14e-9ec6-4d8a-a7cb-203733287578","system_id":"levelo_inurba_marseille","lat":43.307945,"lon":5.376487,"is_reserved":false,"is_disabled":false,"rental_uris":{"android":"levelo://app?vid=34ecc14e-9ec6-4d8a-a7cb-203733287578","ios":"levelo://app?vid=34ecc14e-9ec6-4d8a-a7cb-203733287578"},"vehicle_type_id":"4","last_reported":1713507035,"current_range_meters":16400,"station_id":"ce4bgv92rcd13ifvqcq0","pricing_plan_id":"cebpf4jnsgd1na2vs0mg"},{"bike_id":"ace213ca-51ed-48eb-96a9-acc08ce3b2c7","system_id":"levelo_inurba_marseille","lat":43.317075,"lon":5.377367,"is_reserved":false,"is_disabled":false,"rental_uris":{"android":"levelo://app?vid=ace213ca-51ed-48eb-96a9-acc08ce3b2c7","ios":"levelo://app?vid=ace213ca-51ed-48eb-96a9-acc08ce3b2c7"},"vehicle_type_id":"4","last_reported":1713507035,"current_range_meters":29600,"station_id":"ce4bgth2rcd13ifvqch0","pricing_plan_id":"cebpf4jnsgd1na2vs0mg"},{"bike_id":"c1c835ec-835f-4436-bd0f-65dd0f887688","system_id":"levelo_inurba_marseille","lat":43.317012,"lon":5.377584,"is_reserved":false,"is_disabled":false,"rental_uris":{"android":"levelo://app?vid=c1c835ec-835f-4436-bd0f-65dd0f887688","ios":"levelo://app?vid=c1c835ec-835f-4436-bd0f-65dd0f887688"},"vehicle_type_id":"4","last_reported":1713507035,"current_range_meters":17200,"station_id":"ce4bgth2rcd13ifvqch0","pricing_plan_id":"cebpf4jnsgd1na2vs0mg"},{"bike_id":"a7a821df-9106-4876-bcbb-9fdb00920793","system_id":"levelo_inurba_marseille","lat":43.317075,"lon":5.377367,"is_reserved":false,"is_disabled":false,"rental_uris":{"android":"levelo://app?vid=a7a821df-9106-4876-bcbb-9fdb00920793","ios":"levelo://app?vid=a7a821df-9106-4876-bcbb-9fdb00920793"},"vehicle_type_id":"4","last_reported":1713507035,"current_range_meters":31600,"station_id":"ce4bgth2rcd13ifvqch0","pricing_plan_id":"cebpf4jnsgd1na2vs0mg"},{"bike_id":"e7eb5880-b139-49d5-9e82-7928b6788e29","system_id":"levelo_inurba_marseille","lat":43.30304,"lon":5.368987,"is_reserved":false,"is_disabled":false,"rental_uris":{"android":"levelo://app?vid=e7eb5880-b139-49d5-9e82-7928b6788e29","ios":"levelo://app?vid=e7eb5880-b139-49d5-9e82-7928b6788e29"},"vehicle_type_id":"4","last_reported":1713507035,"current_range_meters":16000,"station_id":"ce4bgqh2rcd13ifvqc5g","pricing_plan_id":"cebpf4jnsgd1na2vs0mg"},{"bike_id":"f7ddbde5-7caf-4ad0-a60c-6c0b8346edb9","system_id":"levelo_inurba_marseille","lat":43.287184,"lon":5.37937,"is_reserved":false,"is_disabled":false,"rental_uris":{"android":"levelo://app?vid=f7ddbde5-7caf-4ad0-a60c-6c0b8346edb9","ios":"levelo://app?vid=f7ddbde5-7caf-4ad0-a60c-6c0b8346edb9"},"vehicle_type_id":"4","last_reported":1713507035,"current_range_meters":18400,"station_id":"ce4bh9p2rcd13ifvqec0","pricing_plan_id":"cebpf4jnsgd1na2vs0mg"},{"bike_id":"8b5aab36-b533-4693-843a-71d98a93457f","system_id":"levelo_inurba_marseille","lat":43.315228,"lon":5.380305,"is_reserved":false,"is_disabled":false,"rental_uris":{"android":"levelo://app?vid=8b5aab36-b533-4693-843a-71d98a93457f","ios":"levelo://app?vid=8b5aab36-b533-4693-843a-71d98a93457f"},"vehicle_type_id":"4","last_reported":1713507035,"current_range_meters":0,"station_id":"ce4bhsp2rcd13ifvqi50","pricing_plan_id":"cebpf4jnsgd1na2vs0mg"},{"bike_id":"3d743d26-ad6d-4d02-ad14-895cf3854343","system_id":"levelo_inurba_marseille","lat":43.315289,"lon":5.380349,"is_reserved":false,"is_disabled":false,"rental_uris":{"android":"levelo://app?vid=3d743d26-ad6d-4d02-ad14-895cf3854343","ios":"levelo://app?vid=3d743d26-ad6d-4d02-ad14-895cf3854343"},"vehicle_type_id":"4","last_reported":1713507035,"current_range_meters":31600,"station_id":"ce4bhsp2rcd13ifvqi50","pricing_plan_id":"cebpf4jnsgd1na2vs0mg"},{"bike_id":"279c3d39-cb66-48ef-b55a-31463e33a991","system_id":"levelo_inurba_marseille","lat":43.315293,"lon":5.380349,"is_reserved":false,"is_disabled":false,"rental_uris":{"android":"levelo://app?vid=279c3d39-cb66-48ef-b55a-31463e33a991","ios":"levelo://app?vid=279c3d39-cb66-48ef-b55a-31463e33a991"},"vehicle_type_id":"4","last_reported":1713507035,"current_range_meters":28000,"station_id":"ce4bhsp2rcd13ifvqi50","pricing_plan_id":"cebpf4jnsgd1na2vs0mg"},{"bike_id":"70957b53-9317-4a5e-bc4c-bfa7612e45f9","system_id":"levelo_inurba_marseille","lat":43.308012,"lon":5.381511,"is_reserved":false,"is_disabled":false,"rental_uris":{"android":"levelo://app?vid=70957b53-9317-4a5e-bc4c-bfa7612e45f9","ios":"levelo://app?vid=70957b53-9317-4a5e-bc4c-bfa7612e45f9"},"vehicle_type_id":"4","last_reported":1713507035,"current_range_meters":28800,"station_id":"ce4bgt12rcd13ifvqce0","pricing_plan_id":"cebpf4jnsgd1na2vs0mg"},{"bike_id":"21da0e92-7366-4013-bef7-375e0b943768","system_id":"levelo_inurba_marseille","lat":43.308012,"lon":5.381511,"is_reserved":false,"is_disabled":false,"rental_uris":{"android":"levelo://app?vid=21da0e92-7366-4013-bef7-375e0b943768","ios":"levelo://app?vid=21da0e92-7366-4013-bef7-375e0b943768"},"vehicle_type_id":"4","last_reported":1713507035,"current_range_meters":29600,"station_id":"ce4bgt12rcd13ifvqce0","pricing_plan_id":"cebpf4jnsgd1na2vs0mg"},{"bike_id":"2f343ec0-a258-4419-a0fe-f93367730417","system_id":"levelo_inurba_marseille","lat":43.308012,"lon":5.381511,"is_reserved":false,"is_disabled":false,"rental_uris":{"android":"levelo://app?vid=2f343ec0-a258-4419-a0fe-f93367730417","ios":"levelo://app?vid=2f343ec0-a258-4419-a0fe-f93367730417"},"vehicle_type_id":"4","last_reported":1713507035,"current_range_meters":16800,"station_id":"ce4bgt12rcd13ifvqce0","pricing_plan_id":"cebpf4jnsgd1na2vs0mg"},{"bike_id":"61df002b-9dde-449d-b589-6b551754c32a","system_id":"levelo_inurba_marseille","lat":43.308012,"lon":5.381511,"is_reserved":false,"is_disabled":false,"rental_uris":{"android":"levelo://app?vid=61df002b-9dde-449d-b589-6b551754c32a","ios":"levelo://app?vid=61df002b-9dde-449d-b589-6b551754c32a"},"vehicle_type_id":"4","last_reported":1713507035,"current_range_meters":30000,"station_id":"ce4bgt12rcd13ifvqce0","pricing_plan_id":"cebpf4jnsgd1na2vs0mg"},{"bike_id":"6e29440b-a031-4cfa-a7d3-059f7b67cabd","system_id":"levelo_inurba_marseille","lat":43.308012,"lon":5.381511,"is_reserved":false,"is_disabled":false,"rental_uris":{"android":"levelo://app?vid=6e29440b-a031-4cfa-a7d3-059f7b67cabd","ios":"levelo://app?vid=6e29440b-a031-4cfa-a7d3-059f7b67cabd"},"vehicle_type_id":"4","last_reported":1713507035,"current_range_meters":30800,"station_id":"ce4bgt12rcd13ifvqce0","pricing_plan_id":"cebpf4jnsgd1na2vs0mg"},{"bike_id":"295b6c77-6911-4846-aac6-a88f9f5c3b5f","system_id":"levelo_inurba_marseille","lat":43.308012,"lon":5.381511,"is_reserved":false,"is_disabled":false,"rental_uris":{"android":"levelo://app?vid=295b6c77-6911-4846-aac6-a88f9f5c3b5f","ios":"levelo://app?vid=295b6c77-6911-4846-aac6-a88f9f5c3b5f"},"vehicle_type_id":"4","last_reported":1713507035,"current_range_meters":7200,"station_id":"ce4bgt12rcd13ifvqce0","pricing_plan_id":"cebpf4jnsgd1na2vs0mg"},{"bike_id":"5e95843c-6eda-46a1-a905-a8cb3ef9f37c","system_id":"levelo_inurba_marseille","lat":43.308012,"lon":5.381511,"is_reserved":false,"is_disabled":false,"rental_uris":{"android":"levelo://app?vid=5e95843c-6eda-46a1-a905-a8cb3ef9f37c","ios":"levelo://app?vid=5e95843c-6eda-46a1-a905-a8cb3ef9f37c"},"vehicle_type_id":"4","last_reported":1713507035,"current_range_meters":17200,"station_id":"ce4bgt12rcd13ifvqce0","pricing_plan_id":"cebpf4jnsgd1na2vs0mg"},{"bike_id":"d75eb838-deb9-4215-b1db-b843cdefd2ac","system_id":"levelo_inurba_marseille","lat":43.304606,"lon":5.379026,"is_reserved":false,"is_disabled":false,"rental_uris":{"android":"levelo://app?vid=d75eb838-deb9-4215-b1db-b843cdefd2ac","ios":"levelo://app?vid=d75eb838-deb9-4215-b1db-b843cdefd2ac"},"vehicle_type_id":"4","last_reported":1713507035,"current_range_meters":31600,"station_id":"ce4bgup2rcd13ifvqcn0","pricing_plan_id":"cebpf4jnsgd1na2vs0mg"},{"bike_id":"06f74364-d7f9-41e8-ab59-71792a2d5163","system_id":"levelo_inurba_marseille","lat":43.30434,"lon":5.378502,"is_reserved":false,"is_disabled":false,"rental_uris":{"android":"levelo://app?vid=06f74364-d7f9-41e8-ab59-71792a2d5163","ios":"levelo://app?vid=06f74364-d7f9-41e8-ab59-71792a2d5163"},"vehicle_type_id":"4","last_reported":1713507035,"current_range_meters":6000,"station_id":"ce4bgup2rcd13ifvqcn0","pricing_plan_id":"cebpf4jnsgd1na2vs0mg"},{"bike_id":"5cc9358a-7d6c-48a3-b1c5-b6fd16c7ec97","system_id":"levelo_inurba_marseille","lat":43.304606,"lon":5.379026,"is_reserved":false,"is_disabled":false,"rental_uris":{"android":"levelo://app?vid=5cc9358a-7d6c-48a3-b1c5-b6fd16c7ec97","ios":"levelo://app?vid=5cc9358a-7d6c-48a3-b1c5-b6fd16c7ec97"},"vehicle_type_id":"4","last_reported":1713507035,"current_range_meters":19200,"station_id":"ce4bgup2rcd13ifvqcn0","pricing_plan_id":"cebpf4jnsgd1na2vs0mg"},{"bike_id":"3f787415-8c0b-4e66-96b6-da0dc68dd85d","system_id":"levelo_inurba_marseille","lat":43.304606,"lon":5.379026,"is_reserved":false,"is_disabled":false,"rental_uris":{"android":"levelo://app?vid=3f787415-8c0b-4e66-96b6-da0dc68dd85d","ios":"levelo://app?vid=3f787415-8c0b-4e66-96b6-da0dc68dd85d"},"vehicle_type_id":"4","last_reported":1713507035,"current_range_meters":25600,"station_id":"ce4bgup2rcd13ifvqcn0","pricing_plan_id":"cebpf4jnsgd1na2vs0mg"},{"bike_id":"66022dcc-a33b-4809-938d-46bb4a7f8f0c","system_id":"levelo_inurba_marseille","lat":43.28856,"lon":5.358371,"is_reserved":false,"is_disabled":false,"rental_uris":{"android":"levelo://app?vid=66022dcc-a33b-4809-938d-46bb4a7f8f0c","ios":"levelo://app?vid=66022dcc-a33b-4809-938d-46bb4a7f8f0c"},"vehicle_type_id":"4","last_reported":1713507035,"current_range_meters":23600,"station_id":"ce4bhb12rcd13ifvqem0","pricing_plan_id":"cebpf4jnsgd1na2vs0mg"},{"bike_id":"cd0765e7-4de4-4959-89b9-c715fbfb3592","system_id":"levelo_inurba_marseille","lat":43.304606,"lon":5.379026,"is_reserved":false,"is_disabled":false,"rental_uris":{"android":"levelo://app?vid=cd0765e7-4de4-4959-89b9-c715fbfb3592","ios":"levelo://app?vid=cd0765e7-4de4-4959-89b9-c715fbfb3592"},"vehicle_type_id":"4","last_reported":1713507035,"current_range_meters":27600,"station_id":"ce4bgup2rcd13ifvqcn0","pricing_plan_id":"cebpf4jnsgd1na2vs0mg"},{"bike_id":"0cb505d3-04d5-4387-9021-af04c0cdc6e5","system_id":"levelo_inurba_marseille","lat":43.30464,"lon":5.37905,"is_reserved":false,"is_disabled":false,"rental_uris":{"android":"levelo://app?vid=0cb505d3-04d5-4387-9021-af04c0cdc6e5","ios":"levelo://app?vid=0cb505d3-04d5-4387-9021-af04c0cdc6e5"},"vehicle_type_id":"4","last_reported":1713507035,"current_range_meters":16800,"station_id":"ce4bgup2rcd13ifvqcn0","pricing_plan_id":"cebpf4jnsgd1na2vs0mg"},{"bike_id":"83f3dc95-778e-4f00-b429-5ca7b98c927e","system_id":"levelo_inurba_marseille","lat":43.304655,"lon":5.37907,"is_reserved":false,"is_disabled":false,"rental_uris":{"android":"levelo://app?vid=83f3dc95-778e-4f00-b429-5ca7b98c927e","ios":"levelo://app?vid=83f3dc95-778e-4f00-b429-5ca7b98c927e"},"vehicle_type_id":"4","last_reported":1713507035,"current_range_meters":24800,"station_id":"ce4bgup2rcd13ifvqcn0","pricing_plan_id":"cebpf4jnsgd1na2vs0mg"},{"bike_id":"17a6db20-1ce3-49a7-ad16-7cb6cc82e134","system_id":"levelo_inurba_marseille","lat":43.304606,"lon":5.379026,"is_reserved":false,"is_disabled":false,"rental_uris":{"android":"levelo://app?vid=17a6db20-1ce3-49a7-ad16-7cb6cc82e134","ios":"levelo://app?vid=17a6db20-1ce3-49a7-ad16-7cb6cc82e134"},"vehicle_type_id":"4","last_reported":1713507035,"current_range_meters":21200,"station_id":"ce4bgup2rcd13ifvqcn0","pricing_plan_id":"cebpf4jnsgd1na2vs0mg"},{"bike_id":"6a9568eb-e27d-4552-88ff-4281d5cd2666","system_id":"levelo_inurba_marseille","lat":43.304606,"lon":5.379026,"is_reserved":false,"is_disabled":false,"rental_uris":{"android":"levelo://app?vid=6a9568eb-e27d-4552-88ff-4281d5cd2666","ios":"levelo://app?vid=6a9568eb-e27d-4552-88ff-4281d5cd2666"},"vehicle_type_id":"4","last_reported":1713507035,"current_range_meters":27600,"station_id":"ce4bgup2rcd13ifvqcn0","pricing_plan_id":"cebpf4jnsgd1na2vs0mg"},{"bike_id":"868b5013-379a-4506-9715-2ae585307737","system_id":"levelo_inurba_marseille","lat":43.304606,"lon":5.379026,"is_reserved":false,"is_disabled":false,"rental_uris":{"android":"levelo://app?vid=868b5013-379a-4506-9715-2ae585307737","ios":"levelo://app?vid=868b5013-379a-4506-9715-2ae585307737"},"vehicle_type_id":"4","last_reported":1713507035,"current_range_meters":24000,"station_id":"ce4bgup2rcd13ifvqcn0","pricing_plan_id":"cebpf4jnsgd1na2vs0mg"},{"bike_id":"880217e3-850f-47fe-a9e8-28cc004689d3","system_id":"levelo_inurba_marseille","lat":43.304606,"lon":5.379026,"is_reserved":false,"is_disabled":false,"rental_uris":{"android":"levelo://app?vid=880217e3-850f-47fe-a9e8-28cc004689d3","ios":"levelo://app?vid=880217e3-850f-47fe-a9e8-28cc004689d3"},"vehicle_type_id":"4","last_reported":1713507035,"current_range_meters":23600,"station_id":"ce4bgup2rcd13ifvqcn0","pricing_plan_id":"cebpf4jnsgd1na2vs0mg"},{"bike_id":"423628b5-e02a-4165-a8d4-4fa8cbb10ecb","system_id":"levelo_inurba_marseille","lat":43.304606,"lon":5.379026,"is_reserved":false,"is_disabled":false,"rental_uris":{"android":"levelo://app?vid=423628b5-e02a-4165-a8d4-4fa8cbb10ecb","ios":"levelo://app?vid=423628b5-e02a-4165-a8d4-4fa8cbb10ecb"},"vehicle_type_id":"4","last_reported":1713507035,"current_range_meters":28400,"station_id":"ce4bgup2rcd13ifvqcn0","pricing_plan_id":"cebpf4jnsgd1na2vs0mg"},{"bike_id":"b2f3593f-3abf-4207-a32c-caecdee2fb98","system_id":"levelo_inurba_marseille","lat":43.304606,"lon":5.379026,"is_reserved":false,"is_disabled":false,"rental_uris":{"android":"levelo://app?vid=b2f3593f-3abf-4207-a32c-caecdee2fb98","ios":"levelo://app?vid=b2f3593f-3abf-4207-a32c-caecdee2fb98"},"vehicle_type_id":"4","last_reported":1713507035,"current_range_meters":22800,"station_id":"ce4bgup2rcd13ifvqcn0","pricing_plan_id":"cebpf4jnsgd1na2vs0mg"},{"bike_id":"6e7a37f7-496a-4f36-8986-66adc8e47240","system_id":"levelo_inurba_marseille","lat":43.304606,"lon":5.379026,"is_reserved":false,"is_disabled":false,"rental_uris":{"android":"levelo://app?vid=6e7a37f7-496a-4f36-8986-66adc8e47240","ios":"levelo://app?vid=6e7a37f7-496a-4f36-8986-66adc8e47240"},"vehicle_type_id":"4","last_reported":1713507035,"current_range_meters":26000,"station_id":"ce4bgup2rcd13ifvqcn0","pricing_plan_id":"cebpf4jnsgd1na2vs0mg"},{"bike_id":"733d86a6-40b9-45a4-aca1-c4854b0c496d","system_id":"levelo_inurba_marseille","lat":43.3046,"lon":5.37902,"is_reserved":false,"is_disabled":false,"rental_uris":{"android":"levelo://app?vid=733d86a6-40b9-45a4-aca1-c4854b0c496d","ios":"levelo://app?vid=733d86a6-40b9-45a4-aca1-c4854b0c496d"},"vehicle_type_id":"4","last_reported":1713507035,"current_range_meters":29200,"station_id":"ce4bgup2rcd13ifvqcn0","pricing_plan_id":"cebpf4jnsgd1na2vs0mg"},{"bike_id":"ce5522ae-ea04-4b3e-bd5b-5c6632ec968e","system_id":"levelo_inurba_marseille","lat":43.304606,"lon":5.379026,"is_reserved":false,"is_disabled":false,"rental_uris":{"android":"levelo://app?vid=ce5522ae-ea04-4b3e-bd5b-5c6632ec968e","ios":"levelo://app?vid=ce5522ae-ea04-4b3e-bd5b-5c6632ec968e"},"vehicle_type_id":"4","last_reported":1713507035,"current_range_meters":11600,"station_id":"ce4bgup2rcd13ifvqcn0","pricing_plan_id":"cebpf4jnsgd1na2vs0mg"},{"bike_id":"3415174d-0917-4b35-9e36-4502164b1faa","system_id":"levelo_inurba_marseille","lat":43.304606,"lon":5.379026,"is_reserved":false,"is_disabled":false,"rental_uris":{"android":"levelo://app?vid=3415174d-0917-4b35-9e36-4502164b1faa","ios":"levelo://app?vid=3415174d-0917-4b35-9e36-4502164b1faa"},"vehicle_type_id":"4","last_reported":1713507035,"current_range_meters":31600,"station_id":"ce4bgup2rcd13ifvqcn0","pricing_plan_id":"cebpf4jnsgd1na2vs0mg"},{"bike_id":"ded9b263-7672-4989-8d5d-f57e189ea9a1","system_id":"levelo_inurba_marseille","lat":43.30461,"lon":5.37905,"is_reserved":false,"is_disabled":false,"rental_uris":{"android":"levelo://app?vid=ded9b263-7672-4989-8d5d-f57e189ea9a1","ios":"levelo://app?vid=ded9b263-7672-4989-8d5d-f57e189ea9a1"},"vehicle_type_id":"4","last_reported":1713507035,"current_range_meters":26000,"station_id":"ce4bgup2rcd13ifvqcn0","pricing_plan_id":"cebpf4jnsgd1na2vs0mg"},{"bike_id":"087286af-344e-4ee2-a158-6a82e28b1711","system_id":"levelo_inurba_marseille","lat":43.30466,"lon":5.37912,"is_reserved":false,"is_disabled":false,"rental_uris":{"android":"levelo://app?vid=087286af-344e-4ee2-a158-6a82e28b1711","ios":"levelo://app?vid=087286af-344e-4ee2-a158-6a82e28b1711"},"vehicle_type_id":"4","last_reported":1713507035,"current_range_meters":6000,"station_id":"ce4bgup2rcd13ifvqcn0","pricing_plan_id":"cebpf4jnsgd1na2vs0mg"},{"bike_id":"4dc99752-e3b7-430b-92d2-6049b0ee4ddf","system_id":"levelo_inurba_marseille","lat":43.30462,"lon":5.379072,"is_reserved":false,"is_disabled":false,"rental_uris":{"android":"levelo://app?vid=4dc99752-e3b7-430b-92d2-6049b0ee4ddf","ios":"levelo://app?vid=4dc99752-e3b7-430b-92d2-6049b0ee4ddf"},"vehicle_type_id":"4","last_reported":1713507035,"current_range_meters":22800,"station_id":"ce4bgup2rcd13ifvqcn0","pricing_plan_id":"cebpf4jnsgd1na2vs0mg"},{"bike_id":"b8a14c55-8545-4c81-9f2b-6a09c31b957b","system_id":"levelo_inurba_marseille","lat":43.3046,"lon":5.37905,"is_reserved":false,"is_disabled":false,"rental_uris":{"android":"levelo://app?vid=b8a14c55-8545-4c81-9f2b-6a09c31b957b","ios":"levelo://app?vid=b8a14c55-8545-4c81-9f2b-6a09c31b957b"},"vehicle_type_id":"4","last_reported":1713507035,"current_range_meters":14800,"station_id":"ce4bgup2rcd13ifvqcn0","pricing_plan_id":"cebpf4jnsgd1na2vs0mg"},{"bike_id":"eaa94833-86b4-4241-b0f9-e63a20c267de","system_id":"levelo_inurba_marseille","lat":43.3046,"lon":5.37906,"is_reserved":false,"is_disabled":false,"rental_uris":{"android":"levelo://app?vid=eaa94833-86b4-4241-b0f9-e63a20c267de","ios":"levelo://app?vid=eaa94833-86b4-4241-b0f9-e63a20c267de"},"vehicle_type_id":"4","last_reported":1713507035,"current_range_meters":17200,"station_id":"ce4bgup2rcd13ifvqcn0","pricing_plan_id":"cebpf4jnsgd1na2vs0mg"},{"bike_id":"5c5b9408-b942-48c6-b74f-e3595b59ef53","system_id":"levelo_inurba_marseille","lat":43.304606,"lon":5.379026,"is_reserved":false,"is_disabled":false,"rental_uris":{"android":"levelo://app?vid=5c5b9408-b942-48c6-b74f-e3595b59ef53","ios":"levelo://app?vid=5c5b9408-b942-48c6-b74f-e3595b59ef53"},"vehicle_type_id":"4","last_reported":1713507035,"current_range_meters":27600,"station_id":"ce4bgup2rcd13ifvqcn0","pricing_plan_id":"cebpf4jnsgd1na2vs0mg"},{"bike_id":"e093a43f-bc93-4ae6-a670-c587e974eda7","system_id":"levelo_inurba_marseille","lat":43.304606,"lon":5.379026,"is_reserved":false,"is_disabled":false,"rental_uris":{"android":"levelo://app?vid=e093a43f-bc93-4ae6-a670-c587e974eda7","ios":"levelo://app?vid=e093a43f-bc93-4ae6-a670-c587e974eda7"},"vehicle_type_id":"4","last_reported":1713507035,"current_range_meters":26000,"station_id":"ce4bgup2rcd13ifvqcn0","pricing_plan_id":"cebpf4jnsgd1na2vs0mg"},{"bike_id":"b2ef0f57-0b82-4ac9-ae0f-e76041a03596","system_id":"levelo_inurba_marseille","lat":43.3046,"lon":5.37907,"is_reserved":false,"is_disabled":false,"rental_uris":{"android":"levelo://app?vid=b2ef0f57-0b82-4ac9-ae0f-e76041a03596","ios":"levelo://app?vid=b2ef0f57-0b82-4ac9-ae0f-e76041a03596"},"vehicle_type_id":"4","last_reported":1713507035,"current_range_meters":30800,"station_id":"ce4bgup2rcd13ifvqcn0","pricing_plan_id":"cebpf4jnsgd1na2vs0mg"},{"bike_id":"b253a619-c043-4e4a-82be-e2f0063c4159","system_id":"levelo_inurba_marseille","lat":43.304606,"lon":5.379026,"is_reserved":false,"is_disabled":false,"rental_uris":{"android":"levelo://app?vid=b253a619-c043-4e4a-82be-e2f0063c4159","ios":"levelo://app?vid=b253a619-c043-4e4a-82be-e2f0063c4159"},"vehicle_type_id":"4","last_reported":1713507035,"current_range_meters":8000,"station_id":"ce4bgup2rcd13ifvqcn0","pricing_plan_id":"cebpf4jnsgd1na2vs0mg"},{"bike_id":"3366de78-07a6-49c2-bcbd-a40a885526c5","system_id":"levelo_inurba_marseille","lat":43.304606,"lon":5.379026,"is_reserved":false,"is_disabled":false,"rental_uris":{"android":"levelo://app?vid=3366de78-07a6-49c2-bcbd-a40a885526c5","ios":"levelo://app?vid=3366de78-07a6-49c2-bcbd-a40a885526c5"},"vehicle_type_id":"4","last_reported":1713507035,"current_range_meters":31600,"station_id":"ce4bgup2rcd13ifvqcn0","pricing_plan_id":"cebpf4jnsgd1na2vs0mg"},{"bike_id":"8f1b69b2-c482-4620-851b-a19df98ab4c1","system_id":"levelo_inurba_marseille","lat":43.304606,"lon":5.379026,"is_reserved":false,"is_disabled":false,"rental_uris":{"android":"levelo://app?vid=8f1b69b2-c482-4620-851b-a19df98ab4c1","ios":"levelo://app?vid=8f1b69b2-c482-4620-851b-a19df98ab4c1"},"vehicle_type_id":"4","last_reported":1713507035,"current_range_meters":25200,"station_id":"ce4bgup2rcd13ifvqcn0","pricing_plan_id":"cebpf4jnsgd1na2vs0mg"},{"bike_id":"32368f3b-ef02-4216-8fd7-ef3d4d7a04ad","system_id":"levelo_inurba_marseille","lat":43.304606,"lon":5.379026,"is_reserved":false,"is_disabled":false,"rental_uris":{"android":"levelo://app?vid=32368f3b-ef02-4216-8fd7-ef3d4d7a04ad","ios":"levelo://app?vid=32368f3b-ef02-4216-8fd7-ef3d4d7a04ad"},"vehicle_type_id":"4","last_reported":1713507035,"current_range_meters":18800,"station_id":"ce4bgup2rcd13ifvqcn0","pricing_plan_id":"cebpf4jnsgd1na2vs0mg"},{"bike_id":"ad1099c2-7e2c-4014-8c7c-1cb151936d4d","system_id":"levelo_inurba_marseille","lat":43.304606,"lon":5.379026,"is_reserved":false,"is_disabled":false,"rental_uris":{"android":"levelo://app?vid=ad1099c2-7e2c-4014-8c7c-1cb151936d4d","ios":"levelo://app?vid=ad1099c2-7e2c-4014-8c7c-1cb151936d4d"},"vehicle_type_id":"4","last_reported":1713507035,"current_range_meters":22800,"station_id":"ce4bgup2rcd13ifvqcn0","pricing_plan_id":"cebpf4jnsgd1na2vs0mg"},{"bike_id":"71cf26d6-2800-48dd-ae6e-8eda1eae26de","system_id":"levelo_inurba_marseille","lat":43.304606,"lon":5.379026,"is_reserved":false,"is_disabled":false,"rental_uris":{"android":"levelo://app?vid=71cf26d6-2800-48dd-ae6e-8eda1eae26de","ios":"levelo://app?vid=71cf26d6-2800-48dd-ae6e-8eda1eae26de"},"vehicle_type_id":"4","last_reported":1713507035,"current_range_meters":24400,"station_id":"ce4bgup2rcd13ifvqcn0","pricing_plan_id":"cebpf4jnsgd1na2vs0mg"},{"bike_id":"7722fa81-2325-405e-a83a-487d2ed3e0ce","system_id":"levelo_inurba_marseille","lat":43.304606,"lon":5.379026,"is_reserved":false,"is_disabled":false,"rental_uris":{"android":"levelo://app?vid=7722fa81-2325-405e-a83a-487d2ed3e0ce","ios":"levelo://app?vid=7722fa81-2325-405e-a83a-487d2ed3e0ce"},"vehicle_type_id":"4","last_reported":1713507035,"current_range_meters":19200,"station_id":"ce4bgup2rcd13ifvqcn0","pricing_plan_id":"cebpf4jnsgd1na2vs0mg"},{"bike_id":"38f7fab5-daa5-452b-9ef3-060723e06641","system_id":"levelo_inurba_marseille","lat":43.30459,"lon":5.37909,"is_reserved":false,"is_disabled":false,"rental_uris":{"android":"levelo://app?vid=38f7fab5-daa5-452b-9ef3-060723e06641","ios":"levelo://app?vid=38f7fab5-daa5-452b-9ef3-060723e06641"},"vehicle_type_id":"4","last_reported":1713507035,"current_range_meters":16800,"station_id":"ce4bgup2rcd13ifvqcn0","pricing_plan_id":"cebpf4jnsgd1na2vs0mg"},{"bike_id":"63fad5b3-b31e-4707-af1f-0b90ea2fc191","system_id":"levelo_inurba_marseille","lat":43.304606,"lon":5.379026,"is_reserved":false,"is_disabled":false,"rental_uris":{"android":"levelo://app?vid=63fad5b3-b31e-4707-af1f-0b90ea2fc191","ios":"levelo://app?vid=63fad5b3-b31e-4707-af1f-0b90ea2fc191"},"vehicle_type_id":"4","last_reported":1713507035,"current_range_meters":26000,"station_id":"ce4bgup2rcd13ifvqcn0","pricing_plan_id":"cebpf4jnsgd1na2vs0mg"},{"bike_id":"6aa763a3-3398-4850-b5c7-bfa9d66f33ed","system_id":"levelo_inurba_marseille","lat":43.304603,"lon":5.379121,"is_reserved":false,"is_disabled":false,"rental_uris":{"android":"levelo://app?vid=6aa763a3-3398-4850-b5c7-bfa9d66f33ed","ios":"levelo://app?vid=6aa763a3-3398-4850-b5c7-bfa9d66f33ed"},"vehicle_type_id":"4","last_reported":1713507035,"current_range_meters":30400,"station_id":"ce4bgup2rcd13ifvqcn0","pricing_plan_id":"cebpf4jnsgd1na2vs0mg"},{"bike_id":"0622d623-4581-4365-9070-d19953fa863f","system_id":"levelo_inurba_marseille","lat":43.30456,"lon":5.37909,"is_reserved":false,"is_disabled":false,"rental_uris":{"android":"levelo://app?vid=0622d623-4581-4365-9070-d19953fa863f","ios":"levelo://app?vid=0622d623-4581-4365-9070-d19953fa863f"},"vehicle_type_id":"4","last_reported":1713507035,"current_range_meters":20400,"station_id":"ce4bgup2rcd13ifvqcn0","pricing_plan_id":"cebpf4jnsgd1na2vs0mg"},{"bike_id":"10994514-44e7-4def-a173-fe990f70f9b8","system_id":"levelo_inurba_marseille","lat":43.30458,"lon":5.37913,"is_reserved":false,"is_disabled":false,"rental_uris":{"android":"levelo://app?vid=10994514-44e7-4def-a173-fe990f70f9b8","ios":"levelo://app?vid=10994514-44e7-4def-a173-fe990f70f9b8"},"vehicle_type_id":"4","last_reported":1713507035,"current_range_meters":15200,"station_id":"ce4bgup2rcd13ifvqcn0","pricing_plan_id":"cebpf4jnsgd1na2vs0mg"},{"bike_id":"2c99e6de-5cf1-4a63-8e72-9281b8de33d5","system_id":"levelo_inurba_marseille","lat":43.304606,"lon":5.379026,"is_reserved":false,"is_disabled":false,"rental_uris":{"android":"levelo://app?vid=2c99e6de-5cf1-4a63-8e72-9281b8de33d5","ios":"levelo://app?vid=2c99e6de-5cf1-4a63-8e72-9281b8de33d5"},"vehicle_type_id":"4","last_reported":1713507035,"current_range_meters":17200,"station_id":"ce4bgup2rcd13ifvqcn0","pricing_plan_id":"cebpf4jnsgd1na2vs0mg"},{"bike_id":"59293647-f51b-4d3e-b83f-ba3d48abe4d6","system_id":"levelo_inurba_marseille","lat":43.324771,"lon":5.36557,"is_reserved":false,"is_disabled":false,"rental_uris":{"android":"levelo://app?vid=59293647-f51b-4d3e-b83f-ba3d48abe4d6","ios":"levelo://app?vid=59293647-f51b-4d3e-b83f-ba3d48abe4d6"},"vehicle_type_id":"4","last_reported":1713507035,"current_range_meters":12400,"station_id":"ce4bhs12rcd13ifvqhvg","pricing_plan_id":"cebpf4jnsgd1na2vs0mg"},{"bike_id":"84f2640f-2957-4c3d-b54e-fd12c3d625ca","system_id":"levelo_inurba_marseille","lat":43.324771,"lon":5.36557,"is_reserved":false,"is_disabled":false,"rental_uris":{"android":"levelo://app?vid=84f2640f-2957-4c3d-b54e-fd12c3d625ca","ios":"levelo://app?vid=84f2640f-2957-4c3d-b54e-fd12c3d625ca"},"vehicle_type_id":"4","last_reported":1713507035,"current_range_meters":28800,"station_id":"ce4bhs12rcd13ifvqhvg","pricing_plan_id":"cebpf4jnsgd1na2vs0mg"},{"bike_id":"9d6a29a5-a182-46f5-abb3-98c548b9a12e","system_id":"levelo_inurba_marseille","lat":43.30455,"lon":5.37914,"is_reserved":false,"is_disabled":false,"rental_uris":{"android":"levelo://app?vid=9d6a29a5-a182-46f5-abb3-98c548b9a12e","ios":"levelo://app?vid=9d6a29a5-a182-46f5-abb3-98c548b9a12e"},"vehicle_type_id":"4","last_reported":1713507035,"current_range_meters":30400,"station_id":"ce4bgup2rcd13ifvqcn0","pricing_plan_id":"cebpf4jnsgd1na2vs0mg"},{"bike_id":"fb15bcce-8d6a-4393-aea5-7ac50a5ac346","system_id":"levelo_inurba_marseille","lat":43.304606,"lon":5.379026,"is_reserved":false,"is_disabled":false,"rental_uris":{"android":"levelo://app?vid=fb15bcce-8d6a-4393-aea5-7ac50a5ac346","ios":"levelo://app?vid=fb15bcce-8d6a-4393-aea5-7ac50a5ac346"},"vehicle_type_id":"4","last_reported":1713507035,"current_range_meters":18400,"station_id":"ce4bgup2rcd13ifvqcn0","pricing_plan_id":"cebpf4jnsgd1na2vs0mg"},{"bike_id":"f4b3c6e3-9b97-41f8-8346-3c9f94d29c01","system_id":"levelo_inurba_marseille","lat":43.304606,"lon":5.379026,"is_reserved":false,"is_disabled":false,"rental_uris":{"android":"levelo://app?vid=f4b3c6e3-9b97-41f8-8346-3c9f94d29c01","ios":"levelo://app?vid=f4b3c6e3-9b97-41f8-8346-3c9f94d29c01"},"vehicle_type_id":"4","last_reported":1713507035,"current_range_meters":26000,"station_id":"ce4bgup2rcd13ifvqcn0","pricing_plan_id":"cebpf4jnsgd1na2vs0mg"},{"bike_id":"67c0a679-4ba4-4dec-921c-29a7b8ee08a9","system_id":"levelo_inurba_marseille","lat":43.324771,"lon":5.36557,"is_reserved":false,"is_disabled":false,"rental_uris":{"android":"levelo://app?vid=67c0a679-4ba4-4dec-921c-29a7b8ee08a9","ios":"levelo://app?vid=67c0a679-4ba4-4dec-921c-29a7b8ee08a9"},"vehicle_type_id":"4","last_reported":1713507035,"current_range_meters":31200,"station_id":"ce4bhs12rcd13ifvqhvg","pricing_plan_id":"cebpf4jnsgd1na2vs0mg"},{"bike_id":"d31d5980-1498-4383-95c8-c81e579a199b","system_id":"levelo_inurba_marseille","lat":43.31069,"lon":5.38346,"is_reserved":false,"is_disabled":false,"rental_uris":{"android":"levelo://app?vid=d31d5980-1498-4383-95c8-c81e579a199b","ios":"levelo://app?vid=d31d5980-1498-4383-95c8-c81e579a199b"},"vehicle_type_id":"4","last_reported":1713507035,"current_range_meters":0,"station_id":"","pricing_plan_id":"cebpf4jnsgd1na2vs0mg"},{"bike_id":"f341dd44-cc3d-43b1-9ecb-fb92649de668","system_id":"levelo_inurba_marseille","lat":43.310804,"lon":5.38359,"is_reserved":false,"is_disabled":false,"rental_uris":{"android":"levelo://app?vid=f341dd44-cc3d-43b1-9ecb-fb92649de668","ios":"levelo://app?vid=f341dd44-cc3d-43b1-9ecb-fb92649de668"},"vehicle_type_id":"4","last_reported":1713507035,"current_range_meters":22800,"station_id":"ce4bgv92rcd13ifvqcr0","pricing_plan_id":"cebpf4jnsgd1na2vs0mg"},{"bike_id":"d1a459cd-9002-40f1-a251-bf1ea1a3955c","system_id":"levelo_inurba_marseille","lat":43.31059,"lon":5.38348,"is_reserved":false,"is_disabled":false,"rental_uris":{"android":"levelo://app?vid=d1a459cd-9002-40f1-a251-bf1ea1a3955c","ios":"levelo://app?vid=d1a459cd-9002-40f1-a251-bf1ea1a3955c"},"vehicle_type_id":"4","last_reported":1713507035,"current_range_meters":19200,"station_id":"ce4bgv92rcd13ifvqcr0","pricing_plan_id":"cebpf4jnsgd1na2vs0mg"},{"bike_id":"0187298c-1cd3-4e38-8eb2-c8130f4b8355","system_id":"levelo_inurba_marseille","lat":43.310721,"lon":5.383516,"is_reserved":false,"is_disabled":false,"rental_uris":{"android":"levelo://app?vid=0187298c-1cd3-4e38-8eb2-c8130f4b8355","ios":"levelo://app?vid=0187298c-1cd3-4e38-8eb2-c8130f4b8355"},"vehicle_type_id":"4","last_reported":1713507035,"current_range_meters":31200,"station_id":"ce4bgv92rcd13ifvqcr0","pricing_plan_id":"cebpf4jnsgd1na2vs0mg"},{"bike_id":"b8fad952-ebe5-42fc-beb6-fe150cadee67","system_id":"levelo_inurba_marseille","lat":43.309034,"lon":5.371783,"is_reserved":false,"is_disabled":false,"rental_uris":{"android":"levelo://app?vid=b8fad952-ebe5-42fc-beb6-fe150cadee67","ios":"levelo://app?vid=b8fad952-ebe5-42fc-beb6-fe150cadee67"},"vehicle_type_id":"4","last_reported":1713507035,"current_range_meters":29200,"station_id":"ce4bguh2rcd13ifvqckg","pricing_plan_id":"cebpf4jnsgd1na2vs0mg"},{"bike_id":"4042be98-d823-4315-a140-7fce380accfb","system_id":"levelo_inurba_marseille","lat":43.31068,"lon":5.38353,"is_reserved":false,"is_disabled":false,"rental_uris":{"android":"levelo://app?vid=4042be98-d823-4315-a140-7fce380accfb","ios":"levelo://app?vid=4042be98-d823-4315-a140-7fce380accfb"},"vehicle_type_id":"4","last_reported":1713507035,"current_range_meters":14000,"station_id":"ce4bgv92rcd13ifvqcr0","pricing_plan_id":"cebpf4jnsgd1na2vs0mg"},{"bike_id":"6ec3f472-c1fd-4674-9a20-cd6875aeae3d","system_id":"levelo_inurba_marseille","lat":43.310692,"lon":5.383559,"is_reserved":false,"is_disabled":false,"rental_uris":{"android":"levelo://app?vid=6ec3f472-c1fd-4674-9a20-cd6875aeae3d","ios":"levelo://app?vid=6ec3f472-c1fd-4674-9a20-cd6875aeae3d"},"vehicle_type_id":"4","last_reported":1713507035,"current_range_meters":31200,"station_id":"ce4bgv92rcd13ifvqcr0","pricing_plan_id":"cebpf4jnsgd1na2vs0mg"},{"bike_id":"ecde23b1-c532-4cc6-92f0-9f51ee652885","system_id":"levelo_inurba_marseille","lat":43.310652,"lon":5.383566,"is_reserved":false,"is_disabled":false,"rental_uris":{"android":"levelo://app?vid=ecde23b1-c532-4cc6-92f0-9f51ee652885","ios":"levelo://app?vid=ecde23b1-c532-4cc6-92f0-9f51ee652885"},"vehicle_type_id":"4","last_reported":1713507035,"current_range_meters":8000,"station_id":"ce4bgv92rcd13ifvqcr0","pricing_plan_id":"cebpf4jnsgd1na2vs0mg"},{"bike_id":"6611d3d9-2205-4633-901d-2d5e45146a20","system_id":"levelo_inurba_marseille","lat":43.30458,"lon":5.37959,"is_reserved":false,"is_disabled":false,"rental_uris":{"android":"levelo://app?vid=6611d3d9-2205-4633-901d-2d5e45146a20","ios":"levelo://app?vid=6611d3d9-2205-4633-901d-2d5e45146a20"},"vehicle_type_id":"4","last_reported":1713507035,"current_range_meters":5600,"station_id":"ce4bgup2rcd13ifvqcn0","pricing_plan_id":"cebpf4jnsgd1na2vs0mg"},{"bike_id":"4f336a3d-c768-4a3a-952e-ecbf2fea283c","system_id":"levelo_inurba_marseille","lat":43.302784,"lon":5.377158,"is_reserved":false,"is_disabled":false,"rental_uris":{"android":"levelo://app?vid=4f336a3d-c768-4a3a-952e-ecbf2fea283c","ios":"levelo://app?vid=4f336a3d-c768-4a3a-952e-ecbf2fea283c"},"vehicle_type_id":"4","last_reported":1713507035,"current_range_meters":29600,"station_id":"ce4bguh2rcd13ifvqcj0","pricing_plan_id":"cebpf4jnsgd1na2vs0mg"},{"bike_id":"535e6cbd-f930-4b71-b5b4-d1520acfa633","system_id":"levelo_inurba_marseille","lat":43.30143,"lon":5.37413,"is_reserved":false,"is_disabled":false,"rental_uris":{"android":"levelo://app?vid=535e6cbd-f930-4b71-b5b4-d1520acfa633","ios":"levelo://app?vid=535e6cbd-f930-4b71-b5b4-d1520acfa633"},"vehicle_type_id":"4","last_reported":1713507035,"current_range_meters":0,"station_id":"ce4bgs92rcd13ifvqcc0","pricing_plan_id":"cebpf4jnsgd1na2vs0mg"},{"bike_id":"5e0422c4-4db2-4cd5-8ec6-f1a5f73617e2","system_id":"levelo_inurba_marseille","lat":43.305519,"lon":5.380919,"is_reserved":false,"is_disabled":false,"rental_uris":{"android":"levelo://app?vid=5e0422c4-4db2-4cd5-8ec6-f1a5f73617e2","ios":"levelo://app?vid=5e0422c4-4db2-4cd5-8ec6-f1a5f73617e2"},"vehicle_type_id":"4","last_reported":1713507035,"current_range_meters":11600,"station_id":"","pricing_plan_id":"cebpf4jnsgd1na2vs0mg"},{"bike_id":"c8314aa5-2bfc-497c-9e65-a49fee24427f","system_id":"levelo_inurba_marseille","lat":43.294314,"lon":5.397498,"is_reserved":false,"is_disabled":false,"rental_uris":{"android":"levelo://app?vid=c8314aa5-2bfc-497c-9e65-a49fee24427f","ios":"levelo://app?vid=c8314aa5-2bfc-497c-9e65-a49fee24427f"},"vehicle_type_id":"4","last_reported":1713507035,"current_range_meters":25200,"station_id":"ce4bh3h2rcd13ifvqdo0","pricing_plan_id":"cebpf4jnsgd1na2vs0mg"},{"bike_id":"fbd75efb-e5eb-47a3-842a-b0c7a0b9a537","system_id":"levelo_inurba_marseille","lat":43.30143,"lon":5.37413,"is_reserved":false,"is_disabled":false,"rental_uris":{"android":"levelo://app?vid=fbd75efb-e5eb-47a3-842a-b0c7a0b9a537","ios":"levelo://app?vid=fbd75efb-e5eb-47a3-842a-b0c7a0b9a537"},"vehicle_type_id":"4","last_reported":1713507035,"current_range_meters":21200,"station_id":"ce4bgs92rcd13ifvqcc0","pricing_plan_id":"cebpf4jnsgd1na2vs0mg"},{"bike_id":"eac46fad-8bdd-487e-8ddb-ae6c9463b0d9","system_id":"levelo_inurba_marseille","lat":43.301429,"lon":5.37413,"is_reserved":false,"is_disabled":false,"rental_uris":{"android":"levelo://app?vid=eac46fad-8bdd-487e-8ddb-ae6c9463b0d9","ios":"levelo://app?vid=eac46fad-8bdd-487e-8ddb-ae6c9463b0d9"},"vehicle_type_id":"4","last_reported":1713507035,"current_range_meters":22400,"station_id":"ce4bgs92rcd13ifvqcc0","pricing_plan_id":"cebpf4jnsgd1na2vs0mg"},{"bike_id":"317cfddd-64dc-45bb-b8a5-a01d11ccb762","system_id":"levelo_inurba_marseille","lat":43.305566,"lon":5.381411,"is_reserved":false,"is_disabled":false,"rental_uris":{"android":"levelo://app?vid=317cfddd-64dc-45bb-b8a5-a01d11ccb762","ios":"levelo://app?vid=317cfddd-64dc-45bb-b8a5-a01d11ccb762"},"vehicle_type_id":"4","last_reported":1713507035,"current_range_meters":3200,"station_id":"","pricing_plan_id":"cebpf4jnsgd1na2vs0mg"},{"bike_id":"d212c281-3522-420a-b06f-b80966290c73","system_id":"levelo_inurba_marseille","lat":43.319935,"lon":5.381699,"is_reserved":false,"is_disabled":false,"rental_uris":{"android":"levelo://app?vid=d212c281-3522-420a-b06f-b80966290c73","ios":"levelo://app?vid=d212c281-3522-420a-b06f-b80966290c73"},"vehicle_type_id":"4","last_reported":1713507035,"current_range_meters":17200,"station_id":"ce4bhr12rcd13ifvqhpg","pricing_plan_id":"cebpf4jnsgd1na2vs0mg"},{"bike_id":"fa414f19-e308-4902-9f3d-06e115d6ed6c","system_id":"levelo_inurba_marseille","lat":43.319935,"lon":5.381699,"is_reserved":false,"is_disabled":false,"rental_uris":{"android":"levelo://app?vid=fa414f19-e308-4902-9f3d-06e115d6ed6c","ios":"levelo://app?vid=fa414f19-e308-4902-9f3d-06e115d6ed6c"},"vehicle_type_id":"4","last_reported":1713507035,"current_range_meters":26000,"station_id":"ce4bhr12rcd13ifvqhpg","pricing_plan_id":"cebpf4jnsgd1na2vs0mg"},{"bike_id":"334e3407-4f9b-4b57-a5ef-39033f25d948","system_id":"levelo_inurba_marseille","lat":43.319935,"lon":5.381699,"is_reserved":false,"is_disabled":false,"rental_uris":{"android":"levelo://app?vid=334e3407-4f9b-4b57-a5ef-39033f25d948","ios":"levelo://app?vid=334e3407-4f9b-4b57-a5ef-39033f25d948"},"vehicle_type_id":"4","last_reported":1713507035,"current_range_meters":13600,"station_id":"ce4bhr12rcd13ifvqhpg","pricing_plan_id":"cebpf4jnsgd1na2vs0mg"},{"bike_id":"30d617ff-4f74-4992-b3e5-455e6c9e9129","system_id":"levelo_inurba_marseille","lat":43.319935,"lon":5.381699,"is_reserved":false,"is_disabled":false,"rental_uris":{"android":"levelo://app?vid=30d617ff-4f74-4992-b3e5-455e6c9e9129","ios":"levelo://app?vid=30d617ff-4f74-4992-b3e5-455e6c9e9129"},"vehicle_type_id":"4","last_reported":1713507035,"current_range_meters":27600,"station_id":"ce4bhr12rcd13ifvqhpg","pricing_plan_id":"cebpf4jnsgd1na2vs0mg"},{"bike_id":"de921362-b395-4619-ba3b-315c464bd095","system_id":"levelo_inurba_marseille","lat":43.319976,"lon":5.381475,"is_reserved":false,"is_disabled":false,"rental_uris":{"android":"levelo://app?vid=de921362-b395-4619-ba3b-315c464bd095","ios":"levelo://app?vid=de921362-b395-4619-ba3b-315c464bd095"},"vehicle_type_id":"4","last_reported":1713507035,"current_range_meters":29200,"station_id":"ce4bhr12rcd13ifvqhpg","pricing_plan_id":"cebpf4jnsgd1na2vs0mg"},{"bike_id":"5cc8ed36-14a8-4dd0-8b42-33b8e937edf9","system_id":"levelo_inurba_marseille","lat":43.319935,"lon":5.381699,"is_reserved":false,"is_disabled":false,"rental_uris":{"android":"levelo://app?vid=5cc8ed36-14a8-4dd0-8b42-33b8e937edf9","ios":"levelo://app?vid=5cc8ed36-14a8-4dd0-8b42-33b8e937edf9"},"vehicle_type_id":"4","last_reported":1713507035,"current_range_meters":30000,"station_id":"ce4bhr12rcd13ifvqhpg","pricing_plan_id":"cebpf4jnsgd1na2vs0mg"},{"bike_id":"b81b1e3e-2172-4dfd-8720-aafb0057bf12","system_id":"levelo_inurba_marseille","lat":43.319935,"lon":5.381699,"is_reserved":false,"is_disabled":false,"rental_uris":{"android":"levelo://app?vid=b81b1e3e-2172-4dfd-8720-aafb0057bf12","ios":"levelo://app?vid=b81b1e3e-2172-4dfd-8720-aafb0057bf12"},"vehicle_type_id":"4","last_reported":1713507035,"current_range_meters":24800,"station_id":"ce4bhr12rcd13ifvqhpg","pricing_plan_id":"cebpf4jnsgd1na2vs0mg"},{"bike_id":"a09eff6d-07cf-4f0b-9418-9e501dec380f","system_id":"levelo_inurba_marseille","lat":43.30342,"lon":5.37914,"is_reserved":false,"is_disabled":false,"rental_uris":{"android":"levelo://app?vid=a09eff6d-07cf-4f0b-9418-9e501dec380f","ios":"levelo://app?vid=a09eff6d-07cf-4f0b-9418-9e501dec380f"},"vehicle_type_id":"4","last_reported":1713507035,"current_range_meters":15200,"station_id":"","pricing_plan_id":"cebpf4jnsgd1na2vs0mg"},{"bike_id":"f21714ec-9551-43f9-a56c-82220eebf5eb","system_id":"levelo_inurba_marseille","lat":43.313704,"lon":5.384913,"is_reserved":false,"is_disabled":false,"rental_uris":{"android":"levelo://app?vid=f21714ec-9551-43f9-a56c-82220eebf5eb","ios":"levelo://app?vid=f21714ec-9551-43f9-a56c-82220eebf5eb"},"vehicle_type_id":"4","last_reported":1713507035,"current_range_meters":13600,"station_id":"ce4bgt92rcd13ifvqcf0","pricing_plan_id":"cebpf4jnsgd1na2vs0mg"},{"bike_id":"cee7b1f5-e694-47b3-b0d4-b7bbd1de2a85","system_id":"levelo_inurba_marseille","lat":43.313685,"lon":5.384934,"is_reserved":false,"is_disabled":false,"rental_uris":{"android":"levelo://app?vid=cee7b1f5-e694-47b3-b0d4-b7bbd1de2a85","ios":"levelo://app?vid=cee7b1f5-e694-47b3-b0d4-b7bbd1de2a85"},"vehicle_type_id":"4","last_reported":1713507035,"current_range_meters":31200,"station_id":"ce4bgt92rcd13ifvqcf0","pricing_plan_id":"cebpf4jnsgd1na2vs0mg"},{"bike_id":"0f0a4db7-209f-4ee1-9fab-b924caa68490","system_id":"levelo_inurba_marseille","lat":43.313588,"lon":5.384967,"is_reserved":false,"is_disabled":false,"rental_uris":{"android":"levelo://app?vid=0f0a4db7-209f-4ee1-9fab-b924caa68490","ios":"levelo://app?vid=0f0a4db7-209f-4ee1-9fab-b924caa68490"},"vehicle_type_id":"4","last_reported":1713507035,"current_range_meters":31200,"station_id":"ce4bgt92rcd13ifvqcf0","pricing_plan_id":"cebpf4jnsgd1na2vs0mg"},{"bike_id":"611be1fe-d626-4c7a-b38d-a5dec47787b7","system_id":"levelo_inurba_marseille","lat":43.3136,"lon":5.38497,"is_reserved":false,"is_disabled":false,"rental_uris":{"android":"levelo://app?vid=611be1fe-d626-4c7a-b38d-a5dec47787b7","ios":"levelo://app?vid=611be1fe-d626-4c7a-b38d-a5dec47787b7"},"vehicle_type_id":"4","last_reported":1713507035,"current_range_meters":31200,"station_id":"ce4bgt92rcd13ifvqcf0","pricing_plan_id":"cebpf4jnsgd1na2vs0mg"},{"bike_id":"d18b76bc-2ce2-43f8-9d06-041f3b4e6943","system_id":"levelo_inurba_marseille","lat":43.31367,"lon":5.384979,"is_reserved":false,"is_disabled":false,"rental_uris":{"android":"levelo://app?vid=d18b76bc-2ce2-43f8-9d06-041f3b4e6943","ios":"levelo://app?vid=d18b76bc-2ce2-43f8-9d06-041f3b4e6943"},"vehicle_type_id":"4","last_reported":1713507035,"current_range_meters":800,"station_id":"ce4bgt92rcd13ifvqcf0","pricing_plan_id":"cebpf4jnsgd1na2vs0mg"},{"bike_id":"2a374bd2-ea5d-4136-bd52-85da232e0dea","system_id":"levelo_inurba_marseille","lat":43.31365,"lon":5.38499,"is_reserved":false,"is_disabled":false,"rental_uris":{"android":"levelo://app?vid=2a374bd2-ea5d-4136-bd52-85da232e0dea","ios":"levelo://app?vid=2a374bd2-ea5d-4136-bd52-85da232e0dea"},"vehicle_type_id":"4","last_reported":1713507035,"current_range_meters":11600,"station_id":"ce4bgt92rcd13ifvqcf0","pricing_plan_id":"cebpf4jnsgd1na2vs0mg"},{"bike_id":"79b1484c-7ca2-4a8d-b15b-2987062d3cb2","system_id":"levelo_inurba_marseille","lat":43.300139,"lon":5.376573,"is_reserved":false,"is_disabled":false,"rental_uris":{"android":"levelo://app?vid=79b1484c-7ca2-4a8d-b15b-2987062d3cb2","ios":"levelo://app?vid=79b1484c-7ca2-4a8d-b15b-2987062d3cb2"},"vehicle_type_id":"4","last_reported":1713507035,"current_range_meters":17600,"station_id":"","pricing_plan_id":"cebpf4jnsgd1na2vs0mg"},{"bike_id":"b0bccd7c-a342-467e-9aeb-5d0a933252d7","system_id":"levelo_inurba_marseille","lat":43.298433,"lon":5.362774,"is_reserved":false,"is_disabled":false,"rental_uris":{"android":"levelo://app?vid=b0bccd7c-a342-467e-9aeb-5d0a933252d7","ios":"levelo://app?vid=b0bccd7c-a342-467e-9aeb-5d0a933252d7"},"vehicle_type_id":"4","last_reported":1713507035,"current_range_meters":26400,"station_id":"ce4bgpp2rcd13ifvqc3g","pricing_plan_id":"cebpf4jnsgd1na2vs0mg"},{"bike_id":"388215b5-a00c-4615-8ee3-3fba536651a5","system_id":"levelo_inurba_marseille","lat":43.298433,"lon":5.362774,"is_reserved":false,"is_disabled":false,"rental_uris":{"android":"levelo://app?vid=388215b5-a00c-4615-8ee3-3fba536651a5","ios":"levelo://app?vid=388215b5-a00c-4615-8ee3-3fba536651a5"},"vehicle_type_id":"4","last_reported":1713507035,"current_range_meters":25600,"station_id":"ce4bgpp2rcd13ifvqc3g","pricing_plan_id":"cebpf4jnsgd1na2vs0mg"},{"bike_id":"c11c6dc1-ef7b-4cc6-b57d-612a8802bdd4","system_id":"levelo_inurba_marseille","lat":43.311722,"lon":5.387247,"is_reserved":false,"is_disabled":false,"rental_uris":{"android":"levelo://app?vid=c11c6dc1-ef7b-4cc6-b57d-612a8802bdd4","ios":"levelo://app?vid=c11c6dc1-ef7b-4cc6-b57d-612a8802bdd4"},"vehicle_type_id":"4","last_reported":1713507035,"current_range_meters":18400,"station_id":"ce4bgv12rcd13ifvqcp0","pricing_plan_id":"cebpf4jnsgd1na2vs0mg"},{"bike_id":"f39389e3-be65-44ad-8b29-29dee79c9018","system_id":"levelo_inurba_marseille","lat":43.311722,"lon":5.387247,"is_reserved":false,"is_disabled":false,"rental_uris":{"android":"levelo://app?vid=f39389e3-be65-44ad-8b29-29dee79c9018","ios":"levelo://app?vid=f39389e3-be65-44ad-8b29-29dee79c9018"},"vehicle_type_id":"4","last_reported":1713507035,"current_range_meters":29600,"station_id":"ce4bgv12rcd13ifvqcp0","pricing_plan_id":"cebpf4jnsgd1na2vs0mg"},{"bike_id":"bb882010-1faa-43b7-ab54-91907fde9fb5","system_id":"levelo_inurba_marseille","lat":43.297794,"lon":5.370888,"is_reserved":false,"is_disabled":false,"rental_uris":{"android":"levelo://app?vid=bb882010-1faa-43b7-ab54-91907fde9fb5","ios":"levelo://app?vid=bb882010-1faa-43b7-ab54-91907fde9fb5"},"vehicle_type_id":"4","last_reported":1713507035,"current_range_meters":11600,"station_id":"ce4bgop2rcd13ifvqc1g","pricing_plan_id":"cebpf4jnsgd1na2vs0mg"},{"bike_id":"a4e8794d-a4ce-44df-b769-84666303d758","system_id":"levelo_inurba_marseille","lat":43.297774,"lon":5.370875,"is_reserved":false,"is_disabled":false,"rental_uris":{"android":"levelo://app?vid=a4e8794d-a4ce-44df-b769-84666303d758","ios":"levelo://app?vid=a4e8794d-a4ce-44df-b769-84666303d758"},"vehicle_type_id":"4","last_reported":1713507035,"current_range_meters":26400,"station_id":"ce4bgop2rcd13ifvqc1g","pricing_plan_id":"cebpf4jnsgd1na2vs0mg"},{"bike_id":"e13cc59f-b7fa-42d0-a738-246a6f18da90","system_id":"levelo_inurba_marseille","lat":43.297774,"lon":5.370875,"is_reserved":false,"is_disabled":false,"rental_uris":{"android":"levelo://app?vid=e13cc59f-b7fa-42d0-a738-246a6f18da90","ios":"levelo://app?vid=e13cc59f-b7fa-42d0-a738-246a6f18da90"},"vehicle_type_id":"4","last_reported":1713507035,"current_range_meters":27200,"station_id":"ce4bgop2rcd13ifvqc1g","pricing_plan_id":"cebpf4jnsgd1na2vs0mg"},{"bike_id":"59c296c1-c1af-4a71-9e20-fa9c7f8757f9","system_id":"levelo_inurba_marseille","lat":43.322872,"lon":5.382756,"is_reserved":false,"is_disabled":false,"rental_uris":{"android":"levelo://app?vid=59c296c1-c1af-4a71-9e20-fa9c7f8757f9","ios":"levelo://app?vid=59c296c1-c1af-4a71-9e20-fa9c7f8757f9"},"vehicle_type_id":"4","last_reported":1713507035,"current_range_meters":31600,"station_id":"ce4bhr12rcd13ifvqhqg","pricing_plan_id":"cebpf4jnsgd1na2vs0mg"},{"bike_id":"7a784be2-ed58-4804-9a29-205d13f5a83e","system_id":"levelo_inurba_marseille","lat":43.322872,"lon":5.382756,"is_reserved":false,"is_disabled":false,"rental_uris":{"android":"levelo://app?vid=7a784be2-ed58-4804-9a29-205d13f5a83e","ios":"levelo://app?vid=7a784be2-ed58-4804-9a29-205d13f5a83e"},"vehicle_type_id":"4","last_reported":1713507035,"current_range_meters":31200,"station_id":"ce4bhr12rcd13ifvqhqg","pricing_plan_id":"cebpf4jnsgd1na2vs0mg"},{"bike_id":"c7781376-2aa0-4941-aab6-d191d5a8fcb8","system_id":"levelo_inurba_marseille","lat":43.322872,"lon":5.382756,"is_reserved":false,"is_disabled":false,"rental_uris":{"android":"levelo://app?vid=c7781376-2aa0-4941-aab6-d191d5a8fcb8","ios":"levelo://app?vid=c7781376-2aa0-4941-aab6-d191d5a8fcb8"},"vehicle_type_id":"4","last_reported":1713507035,"current_range_meters":15600,"station_id":"ce4bhr12rcd13ifvqhqg","pricing_plan_id":"cebpf4jnsgd1na2vs0mg"},{"bike_id":"aa38acc2-91cb-407c-ac8c-05b08cc96e3e","system_id":"levelo_inurba_marseille","lat":43.322872,"lon":5.382756,"is_reserved":false,"is_disabled":false,"rental_uris":{"android":"levelo://app?vid=aa38acc2-91cb-407c-ac8c-05b08cc96e3e","ios":"levelo://app?vid=aa38acc2-91cb-407c-ac8c-05b08cc96e3e"},"vehicle_type_id":"4","last_reported":1713507035,"current_range_meters":31200,"station_id":"ce4bhr12rcd13ifvqhqg","pricing_plan_id":"cebpf4jnsgd1na2vs0mg"},{"bike_id":"6a9bcf40-c5f9-44a4-a58e-664576d7b299","system_id":"levelo_inurba_marseille","lat":43.322872,"lon":5.382756,"is_reserved":false,"is_disabled":false,"rental_uris":{"android":"levelo://app?vid=6a9bcf40-c5f9-44a4-a58e-664576d7b299","ios":"levelo://app?vid=6a9bcf40-c5f9-44a4-a58e-664576d7b299"},"vehicle_type_id":"4","last_reported":1713507035,"current_range_meters":22800,"station_id":"ce4bhr12rcd13ifvqhqg","pricing_plan_id":"cebpf4jnsgd1na2vs0mg"},{"bike_id":"c1c913df-b844-406e-83f7-dff5f43f7dc5","system_id":"levelo_inurba_marseille","lat":43.322872,"lon":5.382756,"is_reserved":false,"is_disabled":false,"rental_uris":{"android":"levelo://app?vid=c1c913df-b844-406e-83f7-dff5f43f7dc5","ios":"levelo://app?vid=c1c913df-b844-406e-83f7-dff5f43f7dc5"},"vehicle_type_id":"4","last_reported":1713507035,"current_range_meters":31600,"station_id":"ce4bhr12rcd13ifvqhqg","pricing_plan_id":"cebpf4jnsgd1na2vs0mg"},{"bike_id":"3a777aae-0d2a-4638-8c09-6f1de81534e0","system_id":"levelo_inurba_marseille","lat":43.322872,"lon":5.382756,"is_reserved":false,"is_disabled":false,"rental_uris":{"android":"levelo://app?vid=3a777aae-0d2a-4638-8c09-6f1de81534e0","ios":"levelo://app?vid=3a777aae-0d2a-4638-8c09-6f1de81534e0"},"vehicle_type_id":"4","last_reported":1713507035,"current_range_meters":28400,"station_id":"ce4bhr12rcd13ifvqhqg","pricing_plan_id":"cebpf4jnsgd1na2vs0mg"},{"bike_id":"e5df68f6-b1ff-4d0a-b7e9-c02ca9b8210e","system_id":"levelo_inurba_marseille","lat":43.322872,"lon":5.382756,"is_reserved":false,"is_disabled":false,"rental_uris":{"android":"levelo://app?vid=e5df68f6-b1ff-4d0a-b7e9-c02ca9b8210e","ios":"levelo://app?vid=e5df68f6-b1ff-4d0a-b7e9-c02ca9b8210e"},"vehicle_type_id":"4","last_reported":1713507035,"current_range_meters":31600,"station_id":"ce4bhr12rcd13ifvqhqg","pricing_plan_id":"cebpf4jnsgd1na2vs0mg"},{"bike_id":"ae8bdbc1-9772-448d-bad5-5bb87de0da5c","system_id":"levelo_inurba_marseille","lat":43.31515,"lon":5.38912,"is_reserved":false,"is_disabled":false,"rental_uris":{"android":"levelo://app?vid=ae8bdbc1-9772-448d-bad5-5bb87de0da5c","ios":"levelo://app?vid=ae8bdbc1-9772-448d-bad5-5bb87de0da5c"},"vehicle_type_id":"4","last_reported":1713507035,"current_range_meters":30800,"station_id":"","pricing_plan_id":"cebpf4jnsgd1na2vs0mg"},{"bike_id":"44607009-b4bb-4591-aa24-2c318a795da8","system_id":"levelo_inurba_marseille","lat":43.29694,"lon":5.37312,"is_reserved":false,"is_disabled":false,"rental_uris":{"android":"levelo://app?vid=44607009-b4bb-4591-aa24-2c318a795da8","ios":"levelo://app?vid=44607009-b4bb-4591-aa24-2c318a795da8"},"vehicle_type_id":"4","last_reported":1713507035,"current_range_meters":0,"station_id":"","pricing_plan_id":"cebpf4jnsgd1na2vs0mg"},{"bike_id":"9ae2a437-2094-4a78-bda3-646e1adfac95","system_id":"levelo_inurba_marseille","lat":43.2968,"lon":5.37291,"is_reserved":false,"is_disabled":false,"rental_uris":{"android":"levelo://app?vid=9ae2a437-2094-4a78-bda3-646e1adfac95","ios":"levelo://app?vid=9ae2a437-2094-4a78-bda3-646e1adfac95"},"vehicle_type_id":"4","last_reported":1713507035,"current_range_meters":28400,"station_id":"ce4bgk12rcd13ifvqbj0","pricing_plan_id":"cebpf4jnsgd1na2vs0mg"},{"bike_id":"a53078a7-2144-4fdb-a75f-8e59b1148255","system_id":"levelo_inurba_marseille","lat":43.2968,"lon":5.37291,"is_reserved":false,"is_disabled":false,"rental_uris":{"android":"levelo://app?vid=a53078a7-2144-4fdb-a75f-8e59b1148255","ios":"levelo://app?vid=a53078a7-2144-4fdb-a75f-8e59b1148255"},"vehicle_type_id":"4","last_reported":1713507035,"current_range_meters":27600,"station_id":"ce4bgk12rcd13ifvqbj0","pricing_plan_id":"cebpf4jnsgd1na2vs0mg"},{"bike_id":"08e52bd5-0cd1-4fc5-a1ea-58c4a68be27f","system_id":"levelo_inurba_marseille","lat":43.296131,"lon":5.370791,"is_reserved":false,"is_disabled":false,"rental_uris":{"android":"levelo://app?vid=08e52bd5-0cd1-4fc5-a1ea-58c4a68be27f","ios":"levelo://app?vid=08e52bd5-0cd1-4fc5-a1ea-58c4a68be27f"},"vehicle_type_id":"4","last_reported":1713507035,"current_range_meters":17200,"station_id":"ce4bgnh2rcd13ifvqc0g","pricing_plan_id":"cebpf4jnsgd1na2vs0mg"},{"bike_id":"23339d0b-e292-4912-a6c7-37833f5a61cb","system_id":"levelo_inurba_marseille","lat":43.296129,"lon":5.370777,"is_reserved":false,"is_disabled":false,"rental_uris":{"android":"levelo://app?vid=23339d0b-e292-4912-a6c7-37833f5a61cb","ios":"levelo://app?vid=23339d0b-e292-4912-a6c7-37833f5a61cb"},"vehicle_type_id":"4","last_reported":1713507035,"current_range_meters":23600,"station_id":"ce4bgnh2rcd13ifvqc0g","pricing_plan_id":"cebpf4jnsgd1na2vs0mg"},{"bike_id":"974425f9-98e7-4602-a9ed-a64db7a300ee","system_id":"levelo_inurba_marseille","lat":43.29573,"lon":5.367355,"is_reserved":false,"is_disabled":false,"rental_uris":{"android":"levelo://app?vid=974425f9-98e7-4602-a9ed-a64db7a300ee","ios":"levelo://app?vid=974425f9-98e7-4602-a9ed-a64db7a300ee"},"vehicle_type_id":"4","last_reported":1713507035,"current_range_meters":26400,"station_id":"ce4bgph2rcd13ifvqc2g","pricing_plan_id":"cebpf4jnsgd1na2vs0mg"},{"bike_id":"9d48d399-d548-4b0e-adb0-d5092a194597","system_id":"levelo_inurba_marseille","lat":43.296131,"lon":5.370791,"is_reserved":false,"is_disabled":false,"rental_uris":{"android":"levelo://app?vid=9d48d399-d548-4b0e-adb0-d5092a194597","ios":"levelo://app?vid=9d48d399-d548-4b0e-adb0-d5092a194597"},"vehicle_type_id":"4","last_reported":1713507035,"current_range_meters":21200,"station_id":"ce4bgnh2rcd13ifvqc0g","pricing_plan_id":"cebpf4jnsgd1na2vs0mg"},{"bike_id":"5d86784e-71de-4d63-9fcc-2950144b6281","system_id":"levelo_inurba_marseille","lat":43.296131,"lon":5.370791,"is_reserved":false,"is_disabled":false,"rental_uris":{"android":"levelo://app?vid=5d86784e-71de-4d63-9fcc-2950144b6281","ios":"levelo://app?vid=5d86784e-71de-4d63-9fcc-2950144b6281"},"vehicle_type_id":"4","last_reported":1713507035,"current_range_meters":26000,"station_id":"ce4bgnh2rcd13ifvqc0g","pricing_plan_id":"cebpf4jnsgd1na2vs0mg"},{"bike_id":"0806a03c-d213-4f3f-a1bd-710a174c6538","system_id":"levelo_inurba_marseille","lat":43.29573,"lon":5.367355,"is_reserved":false,"is_disabled":false,"rental_uris":{"android":"levelo://app?vid=0806a03c-d213-4f3f-a1bd-710a174c6538","ios":"levelo://app?vid=0806a03c-d213-4f3f-a1bd-710a174c6538"},"vehicle_type_id":"4","last_reported":1713507035,"current_range_meters":30400,"station_id":"ce4bgph2rcd13ifvqc2g","pricing_plan_id":"cebpf4jnsgd1na2vs0mg"},{"bike_id":"76507264-740c-4420-98f4-f3fa27c2b7ad","system_id":"levelo_inurba_marseille","lat":43.296921,"lon":5.376579,"is_reserved":false,"is_disabled":false,"rental_uris":{"android":"levelo://app?vid=76507264-740c-4420-98f4-f3fa27c2b7ad","ios":"levelo://app?vid=76507264-740c-4420-98f4-f3fa27c2b7ad"},"vehicle_type_id":"4","last_reported":1713507035,"current_range_meters":28400,"station_id":"ce4bgkh2rcd13ifvqbl0","pricing_plan_id":"cebpf4jnsgd1na2vs0mg"},{"bike_id":"acdbbb7a-b6b3-4f7e-baeb-fae44f25d0d0","system_id":"levelo_inurba_marseille","lat":43.296921,"lon":5.376579,"is_reserved":false,"is_disabled":false,"rental_uris":{"android":"levelo://app?vid=acdbbb7a-b6b3-4f7e-baeb-fae44f25d0d0","ios":"levelo://app?vid=acdbbb7a-b6b3-4f7e-baeb-fae44f25d0d0"},"vehicle_type_id":"4","last_reported":1713507035,"current_range_meters":23200,"station_id":"ce4bgkh2rcd13ifvqbl0","pricing_plan_id":"cebpf4jnsgd1na2vs0mg"},{"bike_id":"34655ae9-f3eb-4b18-a01c-ee51496a94a7","system_id":"levelo_inurba_marseille","lat":43.309589,"lon":5.390258,"is_reserved":false,"is_disabled":false,"rental_uris":{"android":"levelo://app?vid=34655ae9-f3eb-4b18-a01c-ee51496a94a7","ios":"levelo://app?vid=34655ae9-f3eb-4b18-a01c-ee51496a94a7"},"vehicle_type_id":"4","last_reported":1713507035,"current_range_meters":30400,"station_id":"ce4bgup2rcd13ifvqco0","pricing_plan_id":"cebpf4jnsgd1na2vs0mg"},{"bike_id":"13fe56a4-981e-4509-9c9c-94f0b81bbd24","system_id":"levelo_inurba_marseille","lat":43.297085,"lon":5.37697,"is_reserved":false,"is_disabled":false,"rental_uris":{"android":"levelo://app?vid=13fe56a4-981e-4509-9c9c-94f0b81bbd24","ios":"levelo://app?vid=13fe56a4-981e-4509-9c9c-94f0b81bbd24"},"vehicle_type_id":"4","last_reported":1713507035,"current_range_meters":20400,"station_id":"ce4bgkh2rcd13ifvqbl0","pricing_plan_id":"cebpf4jnsgd1na2vs0mg"},{"bike_id":"d39d7e31-a64c-4748-affe-acae15ce0b08","system_id":"levelo_inurba_marseille","lat":43.309589,"lon":5.390258,"is_reserved":false,"is_disabled":false,"rental_uris":{"android":"levelo://app?vid=d39d7e31-a64c-4748-affe-acae15ce0b08","ios":"levelo://app?vid=d39d7e31-a64c-4748-affe-acae15ce0b08"},"vehicle_type_id":"4","last_reported":1713507035,"current_range_meters":29200,"station_id":"ce4bgup2rcd13ifvqco0","pricing_plan_id":"cebpf4jnsgd1na2vs0mg"},{"bike_id":"7427ca9b-c6cd-4d4d-87b8-bc00cbe7476c","system_id":"levelo_inurba_marseille","lat":43.309589,"lon":5.390258,"is_reserved":false,"is_disabled":false,"rental_uris":{"android":"levelo://app?vid=7427ca9b-c6cd-4d4d-87b8-bc00cbe7476c","ios":"levelo://app?vid=7427ca9b-c6cd-4d4d-87b8-bc00cbe7476c"},"vehicle_type_id":"4","last_reported":1713507035,"current_range_meters":29600,"station_id":"ce4bgup2rcd13ifvqco0","pricing_plan_id":"cebpf4jnsgd1na2vs0mg"},{"bike_id":"5574eee5-6ede-4238-a54f-eff95309bafd","system_id":"levelo_inurba_marseille","lat":43.296935,"lon":5.376544,"is_reserved":false,"is_disabled":false,"rental_uris":{"android":"levelo://app?vid=5574eee5-6ede-4238-a54f-eff95309bafd","ios":"levelo://app?vid=5574eee5-6ede-4238-a54f-eff95309bafd"},"vehicle_type_id":"4","last_reported":1713507035,"current_range_meters":19200,"station_id":"ce4bgkh2rcd13ifvqbl0","pricing_plan_id":"cebpf4jnsgd1na2vs0mg"},{"bike_id":"fac7894d-215e-44b0-a929-4ef5dcb40f68","system_id":"levelo_inurba_marseille","lat":43.304606,"lon":5.379026,"is_reserved":false,"is_disabled":false,"rental_uris":{"android":"levelo://app?vid=fac7894d-215e-44b0-a929-4ef5dcb40f68","ios":"levelo://app?vid=fac7894d-215e-44b0-a929-4ef5dcb40f68"},"vehicle_type_id":"4","last_reported":1713507035,"current_range_meters":20400,"station_id":"ce4bgup2rcd13ifvqcn0","pricing_plan_id":"cebpf4jnsgd1na2vs0mg"},{"bike_id":"e44c6f50-9e49-406e-a69c-2105219b8a69","system_id":"levelo_inurba_marseille","lat":43.309549,"lon":5.390434,"is_reserved":false,"is_disabled":false,"rental_uris":{"android":"levelo://app?vid=e44c6f50-9e49-406e-a69c-2105219b8a69","ios":"levelo://app?vid=e44c6f50-9e49-406e-a69c-2105219b8a69"},"vehicle_type_id":"4","last_reported":1713507035,"current_range_meters":31200,"station_id":"ce4bgup2rcd13ifvqco0","pricing_plan_id":"cebpf4jnsgd1na2vs0mg"},{"bike_id":"7bd66363-1a97-4246-99be-e0517b7b0cee","system_id":"levelo_inurba_marseille","lat":43.317557,"lon":5.390173,"is_reserved":false,"is_disabled":false,"rental_uris":{"android":"levelo://app?vid=7bd66363-1a97-4246-99be-e0517b7b0cee","ios":"levelo://app?vid=7bd66363-1a97-4246-99be-e0517b7b0cee"},"vehicle_type_id":"4","last_reported":1713507035,"current_range_meters":28000,"station_id":"ce4bhqp2rcd13ifvqhng","pricing_plan_id":"cebpf4jnsgd1na2vs0mg"},{"bike_id":"c0fef991-4e0e-48ca-ba53-012e93a4cc9a","system_id":"levelo_inurba_marseille","lat":43.317557,"lon":5.390173,"is_reserved":false,"is_disabled":false,"rental_uris":{"android":"levelo://app?vid=c0fef991-4e0e-48ca-ba53-012e93a4cc9a","ios":"levelo://app?vid=c0fef991-4e0e-48ca-ba53-012e93a4cc9a"},"vehicle_type_id":"4","last_reported":1713507035,"current_range_meters":18000,"station_id":"ce4bhqp2rcd13ifvqhng","pricing_plan_id":"cebpf4jnsgd1na2vs0mg"},{"bike_id":"a54bf4a5-77b6-464e-a2ee-bc1f3277316c","system_id":"levelo_inurba_marseille","lat":43.317557,"lon":5.390173,"is_reserved":false,"is_disabled":false,"rental_uris":{"android":"levelo://app?vid=a54bf4a5-77b6-464e-a2ee-bc1f3277316c","ios":"levelo://app?vid=a54bf4a5-77b6-464e-a2ee-bc1f3277316c"},"vehicle_type_id":"4","last_reported":1713507035,"current_range_meters":27200,"station_id":"ce4bhqp2rcd13ifvqhng","pricing_plan_id":"cebpf4jnsgd1na2vs0mg"},{"bike_id":"f0b5764c-1366-49ff-a8b0-db506e028453","system_id":"levelo_inurba_marseille","lat":43.31748,"lon":5.3903,"is_reserved":false,"is_disabled":false,"rental_uris":{"android":"levelo://app?vid=f0b5764c-1366-49ff-a8b0-db506e028453","ios":"levelo://app?vid=f0b5764c-1366-49ff-a8b0-db506e028453"},"vehicle_type_id":"4","last_reported":1713507035,"current_range_meters":2000,"station_id":"ce4bhqp2rcd13ifvqhng","pricing_plan_id":"cebpf4jnsgd1na2vs0mg"},{"bike_id":"2bb8c0d7-0e1d-4ccd-9587-e96c51ecba5b","system_id":"levelo_inurba_marseille","lat":43.298037,"lon":5.381066,"is_reserved":false,"is_disabled":false,"rental_uris":{"android":"levelo://app?vid=2bb8c0d7-0e1d-4ccd-9587-e96c51ecba5b","ios":"levelo://app?vid=2bb8c0d7-0e1d-4ccd-9587-e96c51ecba5b"},"vehicle_type_id":"4","last_reported":1713507035,"current_range_meters":7600,"station_id":"ce4bgip2rcd13ifvqbb0","pricing_plan_id":"cebpf4jnsgd1na2vs0mg"},{"bike_id":"4e61995a-72d9-4d67-b619-6ab31bf0bac8","system_id":"levelo_inurba_marseille","lat":43.298037,"lon":5.381066,"is_reserved":false,"is_disabled":false,"rental_uris":{"android":"levelo://app?vid=4e61995a-72d9-4d67-b619-6ab31bf0bac8","ios":"levelo://app?vid=4e61995a-72d9-4d67-b619-6ab31bf0bac8"},"vehicle_type_id":"4","last_reported":1713507035,"current_range_meters":27600,"station_id":"ce4bgip2rcd13ifvqbb0","pricing_plan_id":"cebpf4jnsgd1na2vs0mg"},{"bike_id":"3bd72c26-ade9-4bc7-9903-df693ae38b2b","system_id":"levelo_inurba_marseille","lat":43.298037,"lon":5.381066,"is_reserved":false,"is_disabled":false,"rental_uris":{"android":"levelo://app?vid=3bd72c26-ade9-4bc7-9903-df693ae38b2b","ios":"levelo://app?vid=3bd72c26-ade9-4bc7-9903-df693ae38b2b"},"vehicle_type_id":"4","last_reported":1713507035,"current_range_meters":16400,"station_id":"ce4bgip2rcd13ifvqbb0","pricing_plan_id":"cebpf4jnsgd1na2vs0mg"},{"bike_id":"ab4a4cad-4752-4155-a82e-2a7989bf5929","system_id":"levelo_inurba_marseille","lat":43.298037,"lon":5.381066,"is_reserved":false,"is_disabled":false,"rental_uris":{"android":"levelo://app?vid=ab4a4cad-4752-4155-a82e-2a7989bf5929","ios":"levelo://app?vid=ab4a4cad-4752-4155-a82e-2a7989bf5929"},"vehicle_type_id":"4","last_reported":1713507035,"current_range_meters":30400,"station_id":"ce4bgip2rcd13ifvqbb0","pricing_plan_id":"cebpf4jnsgd1na2vs0mg"},{"bike_id":"1975f2aa-5cab-48c3-ab95-6be4c1267276","system_id":"levelo_inurba_marseille","lat":43.298037,"lon":5.381066,"is_reserved":false,"is_disabled":false,"rental_uris":{"android":"levelo://app?vid=1975f2aa-5cab-48c3-ab95-6be4c1267276","ios":"levelo://app?vid=1975f2aa-5cab-48c3-ab95-6be4c1267276"},"vehicle_type_id":"4","last_reported":1713507035,"current_range_meters":30400,"station_id":"ce4bgip2rcd13ifvqbb0","pricing_plan_id":"cebpf4jnsgd1na2vs0mg"},{"bike_id":"93708b98-c48e-4604-99a5-b5b45f996120","system_id":"levelo_inurba_marseille","lat":43.304278,"lon":5.388868,"is_reserved":false,"is_disabled":false,"rental_uris":{"android":"levelo://app?vid=93708b98-c48e-4604-99a5-b5b45f996120","ios":"levelo://app?vid=93708b98-c48e-4604-99a5-b5b45f996120"},"vehicle_type_id":"4","last_reported":1713507035,"current_range_meters":27600,"station_id":"ce4bgk12rcd13ifvqbi0","pricing_plan_id":"cebpf4jnsgd1na2vs0mg"},{"bike_id":"fafc2dfa-e90f-4b7b-a689-0a30ebaa7a9d","system_id":"levelo_inurba_marseille","lat":43.304274,"lon":5.388873,"is_reserved":false,"is_disabled":false,"rental_uris":{"android":"levelo://app?vid=fafc2dfa-e90f-4b7b-a689-0a30ebaa7a9d","ios":"levelo://app?vid=fafc2dfa-e90f-4b7b-a689-0a30ebaa7a9d"},"vehicle_type_id":"4","last_reported":1713507035,"current_range_meters":31200,"station_id":"ce4bgk12rcd13ifvqbi0","pricing_plan_id":"cebpf4jnsgd1na2vs0mg"},{"bike_id":"ca2111f8-19a6-498a-b766-481470c3e2bd","system_id":"levelo_inurba_marseille","lat":43.296277,"lon":5.377108,"is_reserved":false,"is_disabled":false,"rental_uris":{"android":"levelo://app?vid=ca2111f8-19a6-498a-b766-481470c3e2bd","ios":"levelo://app?vid=ca2111f8-19a6-498a-b766-481470c3e2bd"},"vehicle_type_id":"4","last_reported":1713507035,"current_range_meters":16000,"station_id":"ce4bgi92rcd13ifvqb90","pricing_plan_id":"cebpf4jnsgd1na2vs0mg"},{"bike_id":"f08bc3d8-6f22-40b0-9c5e-c4633f4bf886","system_id":"levelo_inurba_marseille","lat":43.29529,"lon":5.37512,"is_reserved":false,"is_disabled":false,"rental_uris":{"android":"levelo://app?vid=f08bc3d8-6f22-40b0-9c5e-c4633f4bf886","ios":"levelo://app?vid=f08bc3d8-6f22-40b0-9c5e-c4633f4bf886"},"vehicle_type_id":"4","last_reported":1713507035,"current_range_meters":27200,"station_id":"ce4bgkp2rcd13ifvqbmg","pricing_plan_id":"cebpf4jnsgd1na2vs0mg"},{"bike_id":"981383f8-2b35-41fa-81b6-4435b218b654","system_id":"levelo_inurba_marseille","lat":43.298995,"lon":5.384888,"is_reserved":false,"is_disabled":false,"rental_uris":{"android":"levelo://app?vid=981383f8-2b35-41fa-81b6-4435b218b654","ios":"levelo://app?vid=981383f8-2b35-41fa-81b6-4435b218b654"},"vehicle_type_id":"4","last_reported":1713507035,"current_range_meters":15200,"station_id":"","pricing_plan_id":"cebpf4jnsgd1na2vs0mg"},{"bike_id":"3f377b9c-a9f7-4f4d-9b4e-da4f66a10541","system_id":"levelo_inurba_marseille","lat":43.305994,"lon":5.393687,"is_reserved":false,"is_disabled":false,"rental_uris":{"android":"levelo://app?vid=3f377b9c-a9f7-4f4d-9b4e-da4f66a10541","ios":"levelo://app?vid=3f377b9c-a9f7-4f4d-9b4e-da4f66a10541"},"vehicle_type_id":"4","last_reported":1713507035,"current_range_meters":6400,"station_id":"ce4bh0p2rcd13ifvqd80","pricing_plan_id":"cebpf4jnsgd1na2vs0mg"},{"bike_id":"62664093-5621-4a64-8035-912e8aa6d650","system_id":"levelo_inurba_marseille","lat":43.323591,"lon":5.388819,"is_reserved":false,"is_disabled":false,"rental_uris":{"android":"levelo://app?vid=62664093-5621-4a64-8035-912e8aa6d650","ios":"levelo://app?vid=62664093-5621-4a64-8035-912e8aa6d650"},"vehicle_type_id":"4","last_reported":1713507035,"current_range_meters":13600,"station_id":"ce4bhqp2rcd13ifvqhog","pricing_plan_id":"cebpf4jnsgd1na2vs0mg"},{"bike_id":"18932b7c-40de-4059-87ad-d2ba24c06a76","system_id":"levelo_inurba_marseille","lat":43.3236,"lon":5.38883,"is_reserved":false,"is_disabled":false,"rental_uris":{"android":"levelo://app?vid=18932b7c-40de-4059-87ad-d2ba24c06a76","ios":"levelo://app?vid=18932b7c-40de-4059-87ad-d2ba24c06a76"},"vehicle_type_id":"4","last_reported":1713507035,"current_range_meters":10000,"station_id":"ce4bhqp2rcd13ifvqhog","pricing_plan_id":"cebpf4jnsgd1na2vs0mg"},{"bike_id":"144fef58-d10f-45bb-aa6f-e051c1c7686f","system_id":"levelo_inurba_marseille","lat":43.323661,"lon":5.388775,"is_reserved":false,"is_disabled":false,"rental_uris":{"android":"levelo://app?vid=144fef58-d10f-45bb-aa6f-e051c1c7686f","ios":"levelo://app?vid=144fef58-d10f-45bb-aa6f-e051c1c7686f"},"vehicle_type_id":"4","last_reported":1713507035,"current_range_meters":17600,"station_id":"ce4bhqp2rcd13ifvqhog","pricing_plan_id":"cebpf4jnsgd1na2vs0mg"},{"bike_id":"0a1db4f6-8f65-4e89-abc0-7e2a1d6bc918","system_id":"levelo_inurba_marseille","lat":43.32364,"lon":5.38882,"is_reserved":false,"is_disabled":false,"rental_uris":{"android":"levelo://app?vid=0a1db4f6-8f65-4e89-abc0-7e2a1d6bc918","ios":"levelo://app?vid=0a1db4f6-8f65-4e89-abc0-7e2a1d6bc918"},"vehicle_type_id":"4","last_reported":1713507035,"current_range_meters":14800,"station_id":"ce4bhqp2rcd13ifvqhog","pricing_plan_id":"cebpf4jnsgd1na2vs0mg"},{"bike_id":"1262b9bf-a996-4483-9df9-ccca2ea9aeaa","system_id":"levelo_inurba_marseille","lat":43.32367,"lon":5.388836,"is_reserved":false,"is_disabled":false,"rental_uris":{"android":"levelo://app?vid=1262b9bf-a996-4483-9df9-ccca2ea9aeaa","ios":"levelo://app?vid=1262b9bf-a996-4483-9df9-ccca2ea9aeaa"},"vehicle_type_id":"4","last_reported":1713507035,"current_range_meters":31200,"station_id":"ce4bhqp2rcd13ifvqhog","pricing_plan_id":"cebpf4jnsgd1na2vs0mg"},{"bike_id":"6bfaab4d-6e3a-4340-8b03-7fd6dfe3ed56","system_id":"levelo_inurba_marseille","lat":43.32367,"lon":5.388836,"is_reserved":false,"is_disabled":false,"rental_uris":{"android":"levelo://app?vid=6bfaab4d-6e3a-4340-8b03-7fd6dfe3ed56","ios":"levelo://app?vid=6bfaab4d-6e3a-4340-8b03-7fd6dfe3ed56"},"vehicle_type_id":"4","last_reported":1713507035,"current_range_meters":30000,"station_id":"ce4bhqp2rcd13ifvqhog","pricing_plan_id":"cebpf4jnsgd1na2vs0mg"},{"bike_id":"9e682dcd-9073-4ad9-b9c9-6406e7f00e51","system_id":"levelo_inurba_marseille","lat":43.32367,"lon":5.388836,"is_reserved":false,"is_disabled":false,"rental_uris":{"android":"levelo://app?vid=9e682dcd-9073-4ad9-b9c9-6406e7f00e51","ios":"levelo://app?vid=9e682dcd-9073-4ad9-b9c9-6406e7f00e51"},"vehicle_type_id":"4","last_reported":1713507035,"current_range_meters":16400,"station_id":"ce4bhqp2rcd13ifvqhog","pricing_plan_id":"cebpf4jnsgd1na2vs0mg"},{"bike_id":"0e83587b-cb8e-49ab-8d6c-529220ef3352","system_id":"levelo_inurba_marseille","lat":43.32367,"lon":5.388836,"is_reserved":false,"is_disabled":false,"rental_uris":{"android":"levelo://app?vid=0e83587b-cb8e-49ab-8d6c-529220ef3352","ios":"levelo://app?vid=0e83587b-cb8e-49ab-8d6c-529220ef3352"},"vehicle_type_id":"4","last_reported":1713507035,"current_range_meters":17600,"station_id":"ce4bhqp2rcd13ifvqhog","pricing_plan_id":"cebpf4jnsgd1na2vs0mg"},{"bike_id":"e12e816d-876d-4b5c-8978-1c8160de6ac5","system_id":"levelo_inurba_marseille","lat":43.323656,"lon":5.388865,"is_reserved":false,"is_disabled":false,"rental_uris":{"android":"levelo://app?vid=e12e816d-876d-4b5c-8978-1c8160de6ac5","ios":"levelo://app?vid=e12e816d-876d-4b5c-8978-1c8160de6ac5"},"vehicle_type_id":"4","last_reported":1713507035,"current_range_meters":23600,"station_id":"ce4bhqp2rcd13ifvqhog","pricing_plan_id":"cebpf4jnsgd1na2vs0mg"},{"bike_id":"01d6876f-6b02-4639-8681-12458429f3f4","system_id":"levelo_inurba_marseille","lat":43.32367,"lon":5.388836,"is_reserved":false,"is_disabled":false,"rental_uris":{"android":"levelo://app?vid=01d6876f-6b02-4639-8681-12458429f3f4","ios":"levelo://app?vid=01d6876f-6b02-4639-8681-12458429f3f4"},"vehicle_type_id":"4","last_reported":1713507035,"current_range_meters":22000,"station_id":"ce4bhqp2rcd13ifvqhog","pricing_plan_id":"cebpf4jnsgd1na2vs0mg"},{"bike_id":"b443da70-4d2f-4194-a575-3da5161e0f5b","system_id":"levelo_inurba_marseille","lat":43.32367,"lon":5.388836,"is_reserved":false,"is_disabled":false,"rental_uris":{"android":"levelo://app?vid=b443da70-4d2f-4194-a575-3da5161e0f5b","ios":"levelo://app?vid=b443da70-4d2f-4194-a575-3da5161e0f5b"},"vehicle_type_id":"4","last_reported":1713507035,"current_range_meters":22400,"station_id":"ce4bhqp2rcd13ifvqhog","pricing_plan_id":"cebpf4jnsgd1na2vs0mg"},{"bike_id":"ec3b84dd-a863-4f78-aeb0-dee9498f4259","system_id":"levelo_inurba_marseille","lat":43.32367,"lon":5.388836,"is_reserved":false,"is_disabled":false,"rental_uris":{"android":"levelo://app?vid=ec3b84dd-a863-4f78-aeb0-dee9498f4259","ios":"levelo://app?vid=ec3b84dd-a863-4f78-aeb0-dee9498f4259"},"vehicle_type_id":"4","last_reported":1713507035,"current_range_meters":18800,"station_id":"ce4bhqp2rcd13ifvqhog","pricing_plan_id":"cebpf4jnsgd1na2vs0mg"},{"bike_id":"d5e2c2be-0e81-4de5-a72b-de510e6c7980","system_id":"levelo_inurba_marseille","lat":43.32363,"lon":5.38892,"is_reserved":false,"is_disabled":false,"rental_uris":{"android":"levelo://app?vid=d5e2c2be-0e81-4de5-a72b-de510e6c7980","ios":"levelo://app?vid=d5e2c2be-0e81-4de5-a72b-de510e6c7980"},"vehicle_type_id":"4","last_reported":1713507035,"current_range_meters":12000,"station_id":"ce4bhqp2rcd13ifvqhog","pricing_plan_id":"cebpf4jnsgd1na2vs0mg"},{"bike_id":"fcf153d0-15d0-4299-8440-72a986e69167","system_id":"levelo_inurba_marseille","lat":43.32367,"lon":5.388836,"is_reserved":false,"is_disabled":false,"rental_uris":{"android":"levelo://app?vid=fcf153d0-15d0-4299-8440-72a986e69167","ios":"levelo://app?vid=fcf153d0-15d0-4299-8440-72a986e69167"},"vehicle_type_id":"4","last_reported":1713507035,"current_range_meters":31200,"station_id":"ce4bhqp2rcd13ifvqhog","pricing_plan_id":"cebpf4jnsgd1na2vs0mg"},{"bike_id":"18f2c715-d7bc-4296-8661-ce638f29dfbf","system_id":"levelo_inurba_marseille","lat":43.296107,"lon":5.380947,"is_reserved":false,"is_disabled":false,"rental_uris":{"android":"levelo://app?vid=18f2c715-d7bc-4296-8661-ce638f29dfbf","ios":"levelo://app?vid=18f2c715-d7bc-4296-8661-ce638f29dfbf"},"vehicle_type_id":"4","last_reported":1713507035,"current_range_meters":22400,"station_id":"ce4bgl12rcd13ifvqbo0","pricing_plan_id":"cebpf4jnsgd1na2vs0mg"},{"bike_id":"f586eb38-01b0-4b7f-a891-ec06bd8fe575","system_id":"levelo_inurba_marseille","lat":43.29602,"lon":5.381084,"is_reserved":false,"is_disabled":false,"rental_uris":{"android":"levelo://app?vid=f586eb38-01b0-4b7f-a891-ec06bd8fe575","ios":"levelo://app?vid=f586eb38-01b0-4b7f-a891-ec06bd8fe575"},"vehicle_type_id":"4","last_reported":1713507035,"current_range_meters":6000,"station_id":"ce4bgl12rcd13ifvqbo0","pricing_plan_id":"cebpf4jnsgd1na2vs0mg"},{"bike_id":"802b4e35-07bc-450e-99a9-0a3bd5c598ed","system_id":"levelo_inurba_marseille","lat":43.29601,"lon":5.381084,"is_reserved":false,"is_disabled":false,"rental_uris":{"android":"levelo://app?vid=802b4e35-07bc-450e-99a9-0a3bd5c598ed","ios":"levelo://app?vid=802b4e35-07bc-450e-99a9-0a3bd5c598ed"},"vehicle_type_id":"4","last_reported":1713507035,"current_range_meters":23600,"station_id":"ce4bgl12rcd13ifvqbo0","pricing_plan_id":"cebpf4jnsgd1na2vs0mg"},{"bike_id":"0453ada7-02b3-4083-b15b-b757527ff5f8","system_id":"levelo_inurba_marseille","lat":43.32394,"lon":5.38939,"is_reserved":false,"is_disabled":false,"rental_uris":{"android":"levelo://app?vid=0453ada7-02b3-4083-b15b-b757527ff5f8","ios":"levelo://app?vid=0453ada7-02b3-4083-b15b-b757527ff5f8"},"vehicle_type_id":"4","last_reported":1713507035,"current_range_meters":12400,"station_id":"","pricing_plan_id":"cebpf4jnsgd1na2vs0mg"},{"bike_id":"39d0d823-42e1-4ab4-829a-e3882b230d0c","system_id":"levelo_inurba_marseille","lat":43.292749,"lon":5.368402,"is_reserved":false,"is_disabled":false,"rental_uris":{"android":"levelo://app?vid=39d0d823-42e1-4ab4-829a-e3882b230d0c","ios":"levelo://app?vid=39d0d823-42e1-4ab4-829a-e3882b230d0c"},"vehicle_type_id":"4","last_reported":1713507035,"current_range_meters":26800,"station_id":"ce4bhbp2rcd13ifvqesg","pricing_plan_id":"cebpf4jnsgd1na2vs0mg"},{"bike_id":"1af9b4a9-3329-4b2f-a3db-92d3caa0a392","system_id":"levelo_inurba_marseille","lat":43.292749,"lon":5.368402,"is_reserved":false,"is_disabled":false,"rental_uris":{"android":"levelo://app?vid=1af9b4a9-3329-4b2f-a3db-92d3caa0a392","ios":"levelo://app?vid=1af9b4a9-3329-4b2f-a3db-92d3caa0a392"},"vehicle_type_id":"4","last_reported":1713507035,"current_range_meters":3600,"station_id":"ce4bhbp2rcd13ifvqesg","pricing_plan_id":"cebpf4jnsgd1na2vs0mg"},{"bike_id":"4b9997c5-6f88-4ca3-ad6f-469b12e393b9","system_id":"levelo_inurba_marseille","lat":43.330403,"lon":5.381112,"is_reserved":false,"is_disabled":false,"rental_uris":{"android":"levelo://app?vid=4b9997c5-6f88-4ca3-ad6f-469b12e393b9","ios":"levelo://app?vid=4b9997c5-6f88-4ca3-ad6f-469b12e393b9"},"vehicle_type_id":"4","last_reported":1713507035,"current_range_meters":28400,"station_id":"","pricing_plan_id":"cebpf4jnsgd1na2vs0mg"},{"bike_id":"63fe9a25-5642-4623-8e03-ec0b468e4dce","system_id":"levelo_inurba_marseille","lat":43.30599,"lon":5.39354,"is_reserved":false,"is_disabled":false,"rental_uris":{"android":"levelo://app?vid=63fe9a25-5642-4623-8e03-ec0b468e4dce","ios":"levelo://app?vid=63fe9a25-5642-4623-8e03-ec0b468e4dce"},"vehicle_type_id":"4","last_reported":1713507035,"current_range_meters":20800,"station_id":"ce4bh0p2rcd13ifvqd80","pricing_plan_id":"cebpf4jnsgd1na2vs0mg"},{"bike_id":"4e43119c-c9e5-49be-a247-c90e98fada1a","system_id":"levelo_inurba_marseille","lat":43.305994,"lon":5.393687,"is_reserved":false,"is_disabled":false,"rental_uris":{"android":"levelo://app?vid=4e43119c-c9e5-49be-a247-c90e98fada1a","ios":"levelo://app?vid=4e43119c-c9e5-49be-a247-c90e98fada1a"},"vehicle_type_id":"4","last_reported":1713507035,"current_range_meters":22800,"station_id":"ce4bh0p2rcd13ifvqd80","pricing_plan_id":"cebpf4jnsgd1na2vs0mg"},{"bike_id":"6965dd51-10f8-4637-805b-e642df6cc377","system_id":"levelo_inurba_marseille","lat":43.30606,"lon":5.3936,"is_reserved":false,"is_disabled":false,"rental_uris":{"android":"levelo://app?vid=6965dd51-10f8-4637-805b-e642df6cc377","ios":"levelo://app?vid=6965dd51-10f8-4637-805b-e642df6cc377"},"vehicle_type_id":"4","last_reported":1713507035,"current_range_meters":14000,"station_id":"ce4bh0p2rcd13ifvqd80","pricing_plan_id":"cebpf4jnsgd1na2vs0mg"},{"bike_id":"848041a0-ad26-41fb-934a-dadb3103f701","system_id":"levelo_inurba_marseille","lat":43.30599,"lon":5.39357,"is_reserved":false,"is_disabled":false,"rental_uris":{"android":"levelo://app?vid=848041a0-ad26-41fb-934a-dadb3103f701","ios":"levelo://app?vid=848041a0-ad26-41fb-934a-dadb3103f701"},"vehicle_type_id":"4","last_reported":1713507035,"current_range_meters":28400,"station_id":"ce4bh0p2rcd13ifvqd80","pricing_plan_id":"cebpf4jnsgd1na2vs0mg"},{"bike_id":"e9e7e372-7de9-4d12-b57c-8b07bf56456f","system_id":"levelo_inurba_marseille","lat":43.3059,"lon":5.39354,"is_reserved":false,"is_disabled":false,"rental_uris":{"android":"levelo://app?vid=e9e7e372-7de9-4d12-b57c-8b07bf56456f","ios":"levelo://app?vid=e9e7e372-7de9-4d12-b57c-8b07bf56456f"},"vehicle_type_id":"4","last_reported":1713507035,"current_range_meters":6000,"station_id":"ce4bh0p2rcd13ifvqd80","pricing_plan_id":"cebpf4jnsgd1na2vs0mg"},{"bike_id":"eaed1999-9776-4ffa-8ab1-a5de6226910e","system_id":"levelo_inurba_marseille","lat":43.305994,"lon":5.393687,"is_reserved":false,"is_disabled":false,"rental_uris":{"android":"levelo://app?vid=eaed1999-9776-4ffa-8ab1-a5de6226910e","ios":"levelo://app?vid=eaed1999-9776-4ffa-8ab1-a5de6226910e"},"vehicle_type_id":"4","last_reported":1713507035,"current_range_meters":22400,"station_id":"ce4bh0p2rcd13ifvqd80","pricing_plan_id":"cebpf4jnsgd1na2vs0mg"},{"bike_id":"74a23831-0d6d-4ba2-99be-f70eb04dc4ee","system_id":"levelo_inurba_marseille","lat":43.305994,"lon":5.393687,"is_reserved":false,"is_disabled":false,"rental_uris":{"android":"levelo://app?vid=74a23831-0d6d-4ba2-99be-f70eb04dc4ee","ios":"levelo://app?vid=74a23831-0d6d-4ba2-99be-f70eb04dc4ee"},"vehicle_type_id":"4","last_reported":1713507035,"current_range_meters":20800,"station_id":"ce4bh0p2rcd13ifvqd80","pricing_plan_id":"cebpf4jnsgd1na2vs0mg"},{"bike_id":"ad7a327a-2257-4175-b3f9-abe514dd5721","system_id":"levelo_inurba_marseille","lat":43.305994,"lon":5.393687,"is_reserved":false,"is_disabled":false,"rental_uris":{"android":"levelo://app?vid=ad7a327a-2257-4175-b3f9-abe514dd5721","ios":"levelo://app?vid=ad7a327a-2257-4175-b3f9-abe514dd5721"},"vehicle_type_id":"4","last_reported":1713507035,"current_range_meters":7600,"station_id":"ce4bh0p2rcd13ifvqd80","pricing_plan_id":"cebpf4jnsgd1na2vs0mg"},{"bike_id":"efaceea8-499b-4413-9007-b12dbfe61114","system_id":"levelo_inurba_marseille","lat":43.30592,"lon":5.39359,"is_reserved":false,"is_disabled":false,"rental_uris":{"android":"levelo://app?vid=efaceea8-499b-4413-9007-b12dbfe61114","ios":"levelo://app?vid=efaceea8-499b-4413-9007-b12dbfe61114"},"vehicle_type_id":"4","last_reported":1713507035,"current_range_meters":30000,"station_id":"ce4bh0p2rcd13ifvqd80","pricing_plan_id":"cebpf4jnsgd1na2vs0mg"},{"bike_id":"6c8cedd8-f115-447d-a81a-5510e0d40bdb","system_id":"levelo_inurba_marseille","lat":43.305994,"lon":5.393687,"is_reserved":false,"is_disabled":false,"rental_uris":{"android":"levelo://app?vid=6c8cedd8-f115-447d-a81a-5510e0d40bdb","ios":"levelo://app?vid=6c8cedd8-f115-447d-a81a-5510e0d40bdb"},"vehicle_type_id":"4","last_reported":1713507035,"current_range_meters":29600,"station_id":"ce4bh0p2rcd13ifvqd80","pricing_plan_id":"cebpf4jnsgd1na2vs0mg"},{"bike_id":"689f108e-4453-4cbe-a60c-20be1f78c75a","system_id":"levelo_inurba_marseille","lat":43.30595,"lon":5.39361,"is_reserved":false,"is_disabled":false,"rental_uris":{"android":"levelo://app?vid=689f108e-4453-4cbe-a60c-20be1f78c75a","ios":"levelo://app?vid=689f108e-4453-4cbe-a60c-20be1f78c75a"},"vehicle_type_id":"4","last_reported":1713507035,"current_range_meters":18000,"station_id":"ce4bh0p2rcd13ifvqd80","pricing_plan_id":"cebpf4jnsgd1na2vs0mg"},