{"last_updated":1738764496,"ttl":60,"version":"2.2","data":{"bikes":[{"bike_id":"279b7917-7b75-4f3a-bba4-ec0128ff442b","system_id":"levelo_inurba_marseille","lat":43.30569,"lon":5.36714,"is_reserved":false,"is_disabled":false,"rental_uris":{"android":"levelo://app?vid=279b7917-7b75-4f3a-bba4-ec0128ff442b","ios":"levelo://app?vid=279b7917-7b75-4f3a-bba4-ec0128ff442b"},"vehicle_type_id":"4","last_reported":1738764496,"current_range_meters":36400,"station_id":"ce4bgrp2rcd13ifvqc9g","pricing_plan_id":"cebpf4jnsgd1na2vs0mg"},{"bike_id":"a5f7c4f5-34ee-4436-8ad6-ab0e42629126","system_id":"levelo_inurba_marseille","lat":43.31336,"lon":5.39696,"is_reserved":false,"is_disabled":false,"rental_uris":{"android":"levelo://app?vid=a5f7c4f5-34ee-4436-8ad6-ab0e42629126","ios":"levelo://app?vid=a5f7c4f5-34ee-4436-8ad6-ab0e42629126"},"vehicle_type_id":"4","last_reported":1738764496,"current_range_meters":26800,"station_id":"ce4bgvp2rcd13ifvqcu0","pricing_plan_id":"cebpf4jnsgd1na2vs0mg"},{"bike_id":"419c8c22-86a4-4ef5-91f4-a06b4c2e4bba","system_id":"levelo_inurba_marseille","lat":43.22934,"lon":5.35376,"is_reserved":false,"is_disabled":false,"rental_uris":{"android":"levelo://app?vid=419c8c22-86a4-4ef5-91f4-a06b4c2e4bba","ios":"levelo://app?vid=419c8c22-86a4-4ef5-91f4-a06b4c2e4bba"},"vehicle_type_id":"4","last_reported":1738764496,"current_range_meters":26800,"station_id":"cpo3532slgdg3j2ikp40","pricing_plan_id":"cebpf4jnsgd1na2vs0mg"},{"bike_id":"a101b531-de49-4cf0-a412-2872fa10f083","system_id":"levelo_inurba_marseille","lat":43.25918,"lon":5.40897,"is_reserved":false,"is_disabled":false,"rental_uris":{"android":"levelo://app?vid=a101b531-de49-4cf0-a412-2872fa10f083","ios":"levelo://app?vid=a101b531-de49-4cf0-a412-2872fa10f083"},"vehicle_type_id":"4","last_reported":1738764496,"current_range_meters":16400,"station_id":"ce4bhm92rcd13ifvqglg","pricing_plan_id":"cebpf4jnsgd1na2vs0mg"},{"bike_id":"ba05dbef-cf19-40fa-8248-bd31b49bcc49","system_id":"levelo_inurba_marseille","lat":43.25917,"lon":5.40876,"is_reserved":false,"is_disabled":false,"rental_uris":{"android":"levelo://app?vid=ba05dbef-cf19-40fa-8248-bd31b49bcc49","ios":"levelo://app?vid=ba05dbef-cf19-40fa-8248-bd31b49bcc49"},"vehicle_type_id":"4","last_reported":1738764496,"current_range_meters":38400,"station_id":"ce4bhm92rcd13ifvqglg","pricing_plan_id":"cebpf4jnsgd1na2vs0mg"},{"bike_id":"2f0a2b2d-8a8a-4142-bb85-2511658eac70","system_id":"levelo_inurba_marseille","lat":43.28932,"lon":5.36644,"is_reserved":false,"is_disabled":false,"rental_uris":{"android":"levelo://app?vid=2f0a2b2d-8a8a-4142-bb85-2511658eac70","ios":"levelo://app?vid=2f0a2b2d-8a8a-4142-bb85-2511658eac70"},"vehicle_type_id":"4","last_reported":1738764496,"current_range_meters":37600,"station_id":"ce4bhap2rcd13ifvqek0","pricing_plan_id":"cebpf4jnsgd1na2vs0mg"},{"bike_id":"2829e2fd-0ce4-4803-850b-9423a32ae372","system_id":"levelo_inurba_marseille","lat":43.2942,"lon":5.38624,"is_reserved":false,"is_disabled":false,"rental_uris":{"android":"levelo://app?vid=2829e2fd-0ce4-4803-850b-9423a32ae372","ios":"levelo://app?vid=2829e2fd-0ce4-4803-850b-9423a32ae372"},"vehicle_type_id":"4","last_reported":1738764496,"current_range_meters":33200,"station_id":"ce4bh2h2rcd13ifvqdh0","pricing_plan_id":"cebpf4jnsgd1na2vs0mg"},{"bike_id":"45c9d53e-4e75-4e16-815d-65bff4110250","system_id":"levelo_inurba_marseille","lat":43.24999,"lon":5.38935,"is_reserved":false,"is_disabled":false,"rental_uris":{"android":"levelo://app?vid=45c9d53e-4e75-4e16-815d-65bff4110250","ios":"levelo://app?vid=45c9d53e-4e75-4e16-815d-65bff4110250"},"vehicle_type_id":"4","last_reported":1738764496,"current_range_meters":6400,"station_id":"ce4bhgp2rcd13ifvqfd0","pricing_plan_id":"cebpf4jnsgd1na2vs0mg"},{"bike_id":"e75ebe8c-155b-4e3e-bf1e-08f099a6b19d","system_id":"levelo_inurba_marseille","lat":43.27173,"lon":5.40995,"is_reserved":false,"is_disabled":false,"rental_uris":{"android":"levelo://app?vid=e75ebe8c-155b-4e3e-bf1e-08f099a6b19d","ios":"levelo://app?vid=e75ebe8c-155b-4e3e-bf1e-08f099a6b19d"},"vehicle_type_id":"4","last_reported":1738764496,"current_range_meters":6800,"station_id":"ce4bhl12rcd13ifvqgf0","pricing_plan_id":"cebpf4jnsgd1na2vs0mg"},{"bike_id":"47aff644-5979-478a-a0fd-f3a56ebe8580","system_id":"levelo_inurba_marseille","lat":43.30952,"lon":5.39033,"is_reserved":false,"is_disabled":false,"rental_uris":{"android":"levelo://app?vid=47aff644-5979-478a-a0fd-f3a56ebe8580","ios":"levelo://app?vid=47aff644-5979-478a-a0fd-f3a56ebe8580"},"vehicle_type_id":"4","last_reported":1738764496,"current_range_meters":38800,"station_id":"ce4bgup2rcd13ifvqco0","pricing_plan_id":"cebpf4jnsgd1na2vs0mg"},{"bike_id":"7e19e353-1331-446b-aa47-ecd228ac2406","system_id":"levelo_inurba_marseille","lat":43.30484,"lon":5.37914,"is_reserved":false,"is_disabled":false,"rental_uris":{"android":"levelo://app?vid=7e19e353-1331-446b-aa47-ecd228ac2406","ios":"levelo://app?vid=7e19e353-1331-446b-aa47-ecd228ac2406"},"vehicle_type_id":"4","last_reported":1738764496,"current_range_meters":36800,"station_id":"ce4bgup2rcd13ifvqcn0","pricing_plan_id":"cebpf4jnsgd1na2vs0mg"},{"bike_id":"3b3750dc-9cdb-41a8-a721-f3277ba575c5","system_id":"levelo_inurba_marseille","lat":43.29683,"lon":5.37302,"is_reserved":false,"is_disabled":false,"rental_uris":{"android":"levelo://app?vid=3b3750dc-9cdb-41a8-a721-f3277ba575c5","ios":"levelo://app?vid=3b3750dc-9cdb-41a8-a721-f3277ba575c5"},"vehicle_type_id":"4","last_reported":1738764496,"current_range_meters":24000,"station_id":"ce4bgk12rcd13ifvqbj0","pricing_plan_id":"cebpf4jnsgd1na2vs0mg"},{"bike_id":"2f4f9800-0592-4307-ad73-c2f528c7ea3d","system_id":"levelo_inurba_marseille","lat":43.3046,"lon":5.37902,"is_reserved":false,"is_disabled":false,"rental_uris":{"android":"levelo://app?vid=2f4f9800-0592-4307-ad73-c2f528c7ea3d","ios":"levelo://app?vid=2f4f9800-0592-4307-ad73-c2f528c7ea3d"},"vehicle_type_id":"4","last_reported":1738764496,"current_range_meters":38800,"station_id":"ce4bgup2rcd13ifvqcn0","pricing_plan_id":"cebpf4jnsgd1na2vs0mg"},{"bike_id":"27788668-d35d-4e3b-b85e-35c52733c3a9","system_id":"levelo_inurba_marseille","lat":43.2436,"lon":5.3706,"is_reserved":false,"is_disabled":false,"rental_uris":{"android":"levelo://app?vid=27788668-d35d-4e3b-b85e-35c52733c3a9","ios":"levelo://app?vid=27788668-d35d-4e3b-b85e-35c52733c3a9"},"vehicle_type_id":"4","last_reported":1738764496,"current_range_meters":6400,"station_id":"ce4bhhh2rcd13ifvqfk0","pricing_plan_id":"cebpf4jnsgd1na2vs0mg"},{"bike_id":"5c13e3bc-4172-4b93-87af-28f28a372974","system_id":"levelo_inurba_marseille","lat":43.26222,"lon":5.40451,"is_reserved":false,"is_disabled":false,"rental_uris":{"android":"levelo://app?vid=5c13e3bc-4172-4b93-87af-28f28a372974","ios":"levelo://app?vid=5c13e3bc-4172-4b93-87af-28f28a372974"},"vehicle_type_id":"4","last_reported":1738764496,"current_range_meters":38400,"station_id":"ce4bhmh2rcd13ifvqgmg","pricing_plan_id":"cebpf4jnsgd1na2vs0mg"},{"bike_id":"f48ff12f-d1cf-4ba4-a631-e7f7d1e33048","system_id":"levelo_inurba_marseille","lat":43.29864,"lon":5.39726,"is_reserved":false,"is_disabled":false,"rental_uris":{"android":"levelo://app?vid=f48ff12f-d1cf-4ba4-a631-e7f7d1e33048","ios":"levelo://app?vid=f48ff12f-d1cf-4ba4-a631-e7f7d1e33048"},"vehicle_type_id":"4","last_reported":1738764496,"current_range_meters":22000,"station_id":"ce4bh0h2rcd13ifvqd50","pricing_plan_id":"cebpf4jnsgd1na2vs0mg"},{"bike_id":"3fb9625f-2d88-4ae7-8cac-2d0c798bde27","system_id":"levelo_inurba_marseille","lat":43.2871,"lon":5.37928,"is_reserved":false,"is_disabled":true,"rental_uris":{"android":"levelo://app?vid=3fb9625f-2d88-4ae7-8cac-2d0c798bde27","ios":"levelo://app?vid=3fb9625f-2d88-4ae7-8cac-2d0c798bde27"},"vehicle_type_id":"4","last_reported":1738764496,"current_range_meters":38000,"station_id":"ce4bh9p2rcd13ifvqec0","pricing_plan_id":"cebpf4jnsgd1na2vs0mg"},{"bike_id":"d72f401d-7e85-4e85-abe3-8fc4222030a1","system_id":"levelo_inurba_marseille","lat":43.29976,"lon":5.37768,"is_reserved":false,"is_disabled":false,"rental_uris":{"android":"levelo://app?vid=d72f401d-7e85-4e85-abe3-8fc4222030a1","ios":"levelo://app?vid=d72f401d-7e85-4e85-abe3-8fc4222030a1"},"vehicle_type_id":"4","last_reported":1738764496,"current_range_meters":25600,"station_id":"","pricing_plan_id":"cebpf4jnsgd1na2vs0mg"},{"bike_id":"6bbb9b24-06a9-44fb-9519-8e2a49cdc899","system_id":"levelo_inurba_marseille","lat":43.290971,"lon":5.381282,"is_reserved":false,"is_disabled":false,"rental_uris":{"android":"levelo://app?vid=6bbb9b24-06a9-44fb-9519-8e2a49cdc899","ios":"levelo://app?vid=6bbb9b24-06a9-44fb-9519-8e2a49cdc899"},"vehicle_type_id":"4","last_reported":1738764496,"current_range_meters":7200,"station_id":"ce4bh512rcd13ifvqe2g","pricing_plan_id":"cebpf4jnsgd1na2vs0mg"},{"bike_id":"acbf73b8-8717-48ff-aeae-fa4aee8fbccd","system_id":"levelo_inurba_marseille","lat":43.28939,"lon":5.36632,"is_reserved":false,"is_disabled":false,"rental_uris":{"android":"levelo://app?vid=acbf73b8-8717-48ff-aeae-fa4aee8fbccd","ios":"levelo://app?vid=acbf73b8-8717-48ff-aeae-fa4aee8fbccd"},"vehicle_type_id":"4","last_reported":1738764496,"current_range_meters":29600,"station_id":"ce4bhap2rcd13ifvqek0","pricing_plan_id":"cebpf4jnsgd1na2vs0mg"},{"bike_id":"3ecfff58-66b5-4deb-a2e9-7a1f1471e9fb","system_id":"levelo_inurba_marseille","lat":43.32705,"lon":5.39014,"is_reserved":false,"is_disabled":false,"rental_uris":{"android":"levelo://app?vid=3ecfff58-66b5-4deb-a2e9-7a1f1471e9fb","ios":"levelo://app?vid=3ecfff58-66b5-4deb-a2e9-7a1f1471e9fb"},"vehicle_type_id":"4","last_reported":1738764496,"current_range_meters":24800,"station_id":"","pricing_plan_id":"cebpf4jnsgd1na2vs0mg"},{"bike_id":"2bb38bb1-170f-49ef-9ff8-866f5c648002","system_id":"levelo_inurba_marseille","lat":43.29915,"lon":5.38139,"is_reserved":false,"is_disabled":false,"rental_uris":{"android":"levelo://app?vid=2bb38bb1-170f-49ef-9ff8-866f5c648002","ios":"levelo://app?vid=2bb38bb1-170f-49ef-9ff8-866f5c648002"},"vehicle_type_id":"4","last_reported":1738764496,"current_range_meters":14000,"station_id":"ce4bgj12rcd13ifvqbc0","pricing_plan_id":"cebpf4jnsgd1na2vs0mg"},{"bike_id":"7eaacd34-10f9-4246-8aa1-4a22e07a7c06","system_id":"levelo_inurba_marseille","lat":43.31645,"lon":5.37399,"is_reserved":false,"is_disabled":false,"rental_uris":{"android":"levelo://app?vid=7eaacd34-10f9-4246-8aa1-4a22e07a7c06","ios":"levelo://app?vid=7eaacd34-10f9-4246-8aa1-4a22e07a7c06"},"vehicle_type_id":"4","last_reported":1738764496,"current_range_meters":26800,"station_id":"","pricing_plan_id":"cebpf4jnsgd1na2vs0mg"},{"bike_id":"ba363e6f-ae75-4e7f-b9bd-bff2cb4b7b42","system_id":"levelo_inurba_marseille","lat":43.2594,"lon":5.40911,"is_reserved":false,"is_disabled":false,"rental_uris":{"android":"levelo://app?vid=ba363e6f-ae75-4e7f-b9bd-bff2cb4b7b42","ios":"levelo://app?vid=ba363e6f-ae75-4e7f-b9bd-bff2cb4b7b42"},"vehicle_type_id":"4","last_reported":1738764496,"current_range_meters":19200,"station_id":"ce4bhm92rcd13ifvqglg","pricing_plan_id":"cebpf4jnsgd1na2vs0mg"},{"bike_id":"9febad4e-f695-49ed-82b0-71edd70b75df","system_id":"levelo_inurba_marseille","lat":43.32558,"lon":5.41457,"is_reserved":false,"is_disabled":false,"rental_uris":{"android":"levelo://app?vid=9febad4e-f695-49ed-82b0-71edd70b75df","ios":"levelo://app?vid=9febad4e-f695-49ed-82b0-71edd70b75df"},"vehicle_type_id":"4","last_reported":1738764496,"current_range_meters":38800,"station_id":"ce4bhq12rcd13ifvqhhg","pricing_plan_id":"cebpf4jnsgd1na2vs0mg"},{"bike_id":"9d0de974-8143-4260-8c90-8e26cc33d946","system_id":"levelo_inurba_marseille","lat":43.26051,"lon":5.37537,"is_reserved":false,"is_disabled":false,"rental_uris":{"android":"levelo://app?vid=9d0de974-8143-4260-8c90-8e26cc33d946","ios":"levelo://app?vid=9d0de974-8143-4260-8c90-8e26cc33d946"},"vehicle_type_id":"4","last_reported":1738764496,"current_range_meters":39200,"station_id":"ce4bhgh2rcd13ifvqfa0","pricing_plan_id":"cebpf4jnsgd1na2vs0mg"},{"bike_id":"bd42563d-6ded-4a27-8446-f13fff32889d","system_id":"levelo_inurba_marseille","lat":43.31755,"lon":5.39014,"is_reserved":false,"is_disabled":false,"rental_uris":{"android":"levelo://app?vid=bd42563d-6ded-4a27-8446-f13fff32889d","ios":"levelo://app?vid=bd42563d-6ded-4a27-8446-f13fff32889d"},"vehicle_type_id":"4","last_reported":1738764496,"current_range_meters":38000,"station_id":"ce4bhqp2rcd13ifvqhng","pricing_plan_id":"cebpf4jnsgd1na2vs0mg"},{"bike_id":"f49db839-cde4-4b48-8e5e-2b64dac550bb","system_id":"levelo_inurba_marseille","lat":43.24166,"lon":5.3973,"is_reserved":false,"is_disabled":false,"rental_uris":{"android":"levelo://app?vid=f49db839-cde4-4b48-8e5e-2b64dac550bb","ios":"levelo://app?vid=f49db839-cde4-4b48-8e5e-2b64dac550bb"},"vehicle_type_id":"4","last_reported":1738764496,"current_range_meters":12000,"station_id":"ce4bhn12rcd13ifvqgpg","pricing_plan_id":"cebpf4jnsgd1na2vs0mg"},{"bike_id":"beb48caf-e86e-4cc8-9dd8-67cbadd09bf9","system_id":"levelo_inurba_marseille","lat":43.30893,"lon":5.39642,"is_reserved":false,"is_disabled":false,"rental_uris":{"android":"levelo://app?vid=beb48caf-e86e-4cc8-9dd8-67cbadd09bf9","ios":"levelo://app?vid=beb48caf-e86e-4cc8-9dd8-67cbadd09bf9"},"vehicle_type_id":"4","last_reported":1738764496,"current_range_meters":24000,"station_id":"ce4bh012rcd13ifvqcv0","pricing_plan_id":"cebpf4jnsgd1na2vs0mg"},{"bike_id":"a31da492-d404-42a4-a173-3e8c75aeef5d","system_id":"levelo_inurba_marseille","lat":43.24392,"lon":5.37039,"is_reserved":false,"is_disabled":false,"rental_uris":{"android":"levelo://app?vid=a31da492-d404-42a4-a173-3e8c75aeef5d","ios":"levelo://app?vid=a31da492-d404-42a4-a173-3e8c75aeef5d"},"vehicle_type_id":"4","last_reported":1738764496,"current_range_meters":39200,"station_id":"ce4bhhh2rcd13ifvqfk0","pricing_plan_id":"cebpf4jnsgd1na2vs0mg"},{"bike_id":"a1a7079b-68b5-45ca-9af8-b6bc9f7cd559","system_id":"levelo_inurba_marseille","lat":43.22931,"lon":5.35388,"is_reserved":false,"is_disabled":false,"rental_uris":{"android":"levelo://app?vid=a1a7079b-68b5-45ca-9af8-b6bc9f7cd559","ios":"levelo://app?vid=a1a7079b-68b5-45ca-9af8-b6bc9f7cd559"},"vehicle_type_id":"4","last_reported":1738764496,"current_range_meters":38800,"station_id":"cpo3532slgdg3j2ikp40","pricing_plan_id":"cebpf4jnsgd1na2vs0mg"},{"bike_id":"29805978-3f90-4e1f-a2f8-4f8391d994c3","system_id":"levelo_inurba_marseille","lat":43.24175,"lon":5.39713,"is_reserved":false,"is_disabled":false,"rental_uris":{"android":"levelo://app?vid=29805978-3f90-4e1f-a2f8-4f8391d994c3","ios":"levelo://app?vid=29805978-3f90-4e1f-a2f8-4f8391d994c3"},"vehicle_type_id":"4","last_reported":1738764496,"current_range_meters":17600,"station_id":"ce4bhn12rcd13ifvqgpg","pricing_plan_id":"cebpf4jnsgd1na2vs0mg"},{"bike_id":"2efef3e2-3fc4-4615-a0f1-93f67d13a522","system_id":"levelo_inurba_marseille","lat":43.29187,"lon":5.37163,"is_reserved":false,"is_disabled":false,"rental_uris":{"android":"levelo://app?vid=2efef3e2-3fc4-4615-a0f1-93f67d13a522","ios":"levelo://app?vid=2efef3e2-3fc4-4615-a0f1-93f67d13a522"},"vehicle_type_id":"4","last_reported":1738764496,"current_range_meters":37600,"station_id":"ce4bha92rcd13ifvqeh0","pricing_plan_id":"cebpf4jnsgd1na2vs0mg"},{"bike_id":"429cf0b8-b89a-4aaa-a81b-b9e637978f08","system_id":"levelo_inurba_marseille","lat":43.2669,"lon":5.38262,"is_reserved":false,"is_disabled":false,"rental_uris":{"android":"levelo://app?vid=429cf0b8-b89a-4aaa-a81b-b9e637978f08","ios":"levelo://app?vid=429cf0b8-b89a-4aaa-a81b-b9e637978f08"},"vehicle_type_id":"4","last_reported":1738764496,"current_range_meters":36800,"station_id":"ce4bhg92rcd13ifvqf90","pricing_plan_id":"cebpf4jnsgd1na2vs0mg"},{"bike_id":"f423adf0-93aa-4c47-9d8a-b1e2e7e85005","system_id":"levelo_inurba_marseille","lat":43.28422,"lon":5.34978,"is_reserved":false,"is_disabled":true,"rental_uris":{"android":"levelo://app?vid=f423adf0-93aa-4c47-9d8a-b1e2e7e85005","ios":"levelo://app?vid=f423adf0-93aa-4c47-9d8a-b1e2e7e85005"},"vehicle_type_id":"4","last_reported":1738764496,"current_range_meters":10800,"station_id":"ce4bhbh2rcd13ifvqepg","pricing_plan_id":"cebpf4jnsgd1na2vs0mg"},{"bike_id":"101a3db2-bd4e-4e61-bcd9-4cd3d1af1d3a","system_id":"levelo_inurba_marseille","lat":43.25934,"lon":5.40875,"is_reserved":false,"is_disabled":false,"rental_uris":{"android":"levelo://app?vid=101a3db2-bd4e-4e61-bcd9-4cd3d1af1d3a","ios":"levelo://app?vid=101a3db2-bd4e-4e61-bcd9-4cd3d1af1d3a"},"vehicle_type_id":"4","last_reported":1738764496,"current_range_meters":24800,"station_id":"ce4bhm92rcd13ifvqglg","pricing_plan_id":"cebpf4jnsgd1na2vs0mg"},{"bike_id":"0ce3f862-3d94-4e06-9d96-a363fe08f8e8","system_id":"levelo_inurba_marseille","lat":43.295966,"lon":5.380952,"is_reserved":false,"is_disabled":true,"rental_uris":{"android":"levelo://app?vid=0ce3f862-3d94-4e06-9d96-a363fe08f8e8","ios":"levelo://app?vid=0ce3f862-3d94-4e06-9d96-a363fe08f8e8"},"vehicle_type_id":"4","last_reported":1738764496,"current_range_meters":0,"station_id":"ce4bgl12rcd13ifvqbo0","pricing_plan_id":"cebpf4jnsgd1na2vs0mg"},{"bike_id":"efeedd80-0c81-42fa-8a36-3e98e49e5526","system_id":"levelo_inurba_marseille","lat":43.30271,"lon":5.37693,"is_reserved":false,"is_disabled":false,"rental_uris":{"android":"levelo://app?vid=efeedd80-0c81-42fa-8a36-3e98e49e5526","ios":"levelo://app?vid=efeedd80-0c81-42fa-8a36-3e98e49e5526"},"vehicle_type_id":"4","last_reported":1738764496,"current_range_meters":39200,"station_id":"ce4bguh2rcd13ifvqcj0","pricing_plan_id":"cebpf4jnsgd1na2vs0mg"},{"bike_id":"89fa1e8f-009f-426f-a4ee-1cf8f065564c","system_id":"levelo_inurba_marseille","lat":43.29606,"lon":5.37723,"is_reserved":false,"is_disabled":false,"rental_uris":{"android":"levelo://app?vid=89fa1e8f-009f-426f-a4ee-1cf8f065564c","ios":"levelo://app?vid=89fa1e8f-009f-426f-a4ee-1cf8f065564c"},"vehicle_type_id":"4","last_reported":1738764496,"current_range_meters":12400,"station_id":"ce4bgi92rcd13ifvqb90","pricing_plan_id":"cebpf4jnsgd1na2vs0mg"},{"bike_id":"272335b6-dc24-496f-b8c5-36817206bf50","system_id":"levelo_inurba_marseille","lat":43.29901,"lon":5.43695,"is_reserved":false,"is_disabled":false,"rental_uris":{"android":"levelo://app?vid=272335b6-dc24-496f-b8c5-36817206bf50","ios":"levelo://app?vid=272335b6-dc24-496f-b8c5-36817206bf50"},"vehicle_type_id":"4","last_reported":1738764496,"current_range_meters":38000,"station_id":"ce4bhpp2rcd13ifvqhfg","pricing_plan_id":"cebpf4jnsgd1na2vs0mg"},{"bike_id":"262677f6-d1c9-4288-a539-377acad8522f","system_id":"levelo_inurba_marseille","lat":43.3009,"lon":5.39078,"is_reserved":false,"is_disabled":false,"rental_uris":{"android":"levelo://app?vid=262677f6-d1c9-4288-a539-377acad8522f","ios":"levelo://app?vid=262677f6-d1c9-4288-a539-377acad8522f"},"vehicle_type_id":"4","last_reported":1738764496,"current_range_meters":38800,"station_id":"ce4bh192rcd13ifvqdb0","pricing_plan_id":"cebpf4jnsgd1na2vs0mg"},{"bike_id":"7ddaab06-d516-44b8-9139-5a374efac97b","system_id":"levelo_inurba_marseille","lat":43.30281,"lon":5.37695,"is_reserved":false,"is_disabled":false,"rental_uris":{"android":"levelo://app?vid=7ddaab06-d516-44b8-9139-5a374efac97b","ios":"levelo://app?vid=7ddaab06-d516-44b8-9139-5a374efac97b"},"vehicle_type_id":"4","last_reported":1738764496,"current_range_meters":39200,"station_id":"ce4bguh2rcd13ifvqcj0","pricing_plan_id":"cebpf4jnsgd1na2vs0mg"},{"bike_id":"6bba36c7-75a6-4b1b-96cb-c03d219a6faa","system_id":"levelo_inurba_marseille","lat":43.33024,"lon":5.39029,"is_reserved":false,"is_disabled":false,"rental_uris":{"android":"levelo://app?vid=6bba36c7-75a6-4b1b-96cb-c03d219a6faa","ios":"levelo://app?vid=6bba36c7-75a6-4b1b-96cb-c03d219a6faa"},"vehicle_type_id":"4","last_reported":1738764496,"current_range_meters":37600,"station_id":"ce4bhr92rcd13ifvqhrg","pricing_plan_id":"cebpf4jnsgd1na2vs0mg"},{"bike_id":"f307f8ea-df8b-425d-97d7-c4f570c0ee32","system_id":"levelo_inurba_marseille","lat":43.23976,"lon":5.36644,"is_reserved":false,"is_disabled":false,"rental_uris":{"android":"levelo://app?vid=f307f8ea-df8b-425d-97d7-c4f570c0ee32","ios":"levelo://app?vid=f307f8ea-df8b-425d-97d7-c4f570c0ee32"},"vehicle_type_id":"4","last_reported":1738764496,"current_range_meters":21600,"station_id":"ce4bhi12rcd13ifvqfp0","pricing_plan_id":"cebpf4jnsgd1na2vs0mg"},{"bike_id":"7a87dee5-d36c-42e8-a03c-4badbb443213","system_id":"levelo_inurba_marseille","lat":43.26788,"lon":5.39411,"is_reserved":false,"is_disabled":false,"rental_uris":{"android":"levelo://app?vid=7a87dee5-d36c-42e8-a03c-4badbb443213","ios":"levelo://app?vid=7a87dee5-d36c-42e8-a03c-4badbb443213"},"vehicle_type_id":"4","last_reported":1738764496,"current_range_meters":38000,"station_id":"ce4bhh12rcd13ifvqfg0","pricing_plan_id":"cebpf4jnsgd1na2vs0mg"},{"bike_id":"5f7ae70a-4e7a-4e79-8939-b8d27351c8a0","system_id":"levelo_inurba_marseille","lat":43.2962,"lon":5.3717,"is_reserved":false,"is_disabled":false,"rental_uris":{"android":"levelo://app?vid=5f7ae70a-4e7a-4e79-8939-b8d27351c8a0","ios":"levelo://app?vid=5f7ae70a-4e7a-4e79-8939-b8d27351c8a0"},"vehicle_type_id":"4","last_reported":1738764496,"current_range_meters":37600,"station_id":"ce4bgnh2rcd13ifvqc0g","pricing_plan_id":"cebpf4jnsgd1na2vs0mg"},{"bike_id":"3a5aa9c9-bc8f-448e-aeb5-c9e98d56970c","system_id":"levelo_inurba_marseille","lat":43.33601,"lon":5.41018,"is_reserved":false,"is_disabled":false,"rental_uris":{"android":"levelo://app?vid=3a5aa9c9-bc8f-448e-aeb5-c9e98d56970c","ios":"levelo://app?vid=3a5aa9c9-bc8f-448e-aeb5-c9e98d56970c"},"vehicle_type_id":"4","last_reported":1738764496,"current_range_meters":38800,"station_id":"ce4bhqh2rcd13ifvqhmg","pricing_plan_id":"cebpf4jnsgd1na2vs0mg"},{"bike_id":"865da38e-7662-4cd0-8259-ddab14436918","system_id":"levelo_inurba_marseille","lat":43.28439,"lon":5.39189,"is_reserved":false,"is_disabled":false,"rental_uris":{"android":"levelo://app?vid=865da38e-7662-4cd0-8259-ddab14436918","ios":"levelo://app?vid=865da38e-7662-4cd0-8259-ddab14436918"},"vehicle_type_id":"4","last_reported":1738764496,"current_range_meters":38800,"station_id":"ce4bhoh2rcd13ifvqh5g","pricing_plan_id":"cebpf4jnsgd1na2vs0mg"},{"bike_id":"ca3721f7-080c-44bf-8f62-de54b11f91f0","system_id":"levelo_inurba_marseille","lat":43.34149,"lon":5.40916,"is_reserved":false,"is_disabled":false,"rental_uris":{"android":"levelo://app?vid=ca3721f7-080c-44bf-8f62-de54b11f91f0","ios":"levelo://app?vid=ca3721f7-080c-44bf-8f62-de54b11f91f0"},"vehicle_type_id":"4","last_reported":1738764496,"current_range_meters":38000,"station_id":"ce4bhqh2rcd13ifvqhlg","pricing_plan_id":"cebpf4jnsgd1na2vs0mg"},{"bike_id":"a1816039-17b7-4d08-a04f-409e83b880d6","system_id":"levelo_inurba_marseille","lat":43.26582,"lon":5.39012,"is_reserved":false,"is_disabled":false,"rental_uris":{"android":"levelo://app?vid=a1816039-17b7-4d08-a04f-409e83b880d6","ios":"levelo://app?vid=a1816039-17b7-4d08-a04f-409e83b880d6"},"vehicle_type_id":"4","last_reported":1738764496,"current_range_meters":26000,"station_id":"ce4bhe12rcd13ifvqf30","pricing_plan_id":"cebpf4jnsgd1na2vs0mg"},{"bike_id":"ab38d378-8554-48cb-94b9-ffce81b3475a","system_id":"levelo_inurba_marseille","lat":43.31172,"lon":5.38713,"is_reserved":false,"is_disabled":false,"rental_uris":{"android":"levelo://app?vid=ab38d378-8554-48cb-94b9-ffce81b3475a","ios":"levelo://app?vid=ab38d378-8554-48cb-94b9-ffce81b3475a"},"vehicle_type_id":"4","last_reported":1738764496,"current_range_meters":36400,"station_id":"ce4bgv12rcd13ifvqcp0","pricing_plan_id":"cebpf4jnsgd1na2vs0mg"},{"bike_id":"1cfe4841-b9b4-4128-aa40-2c8c01da734e","system_id":"levelo_inurba_marseille","lat":43.29522,"lon":5.37516,"is_reserved":false,"is_disabled":false,"rental_uris":{"android":"levelo://app?vid=1cfe4841-b9b4-4128-aa40-2c8c01da734e","ios":"levelo://app?vid=1cfe4841-b9b4-4128-aa40-2c8c01da734e"},"vehicle_type_id":"4","last_reported":1738764496,"current_range_meters":33600,"station_id":"ce4bgkp2rcd13ifvqbmg","pricing_plan_id":"cebpf4jnsgd1na2vs0mg"},{"bike_id":"2cd60774-c2f8-4e8f-9236-a6b0c03a1062","system_id":"levelo_inurba_marseille","lat":43.28079,"lon":5.39651,"is_reserved":false,"is_disabled":false,"rental_uris":{"android":"levelo://app?vid=2cd60774-c2f8-4e8f-9236-a6b0c03a1062","ios":"levelo://app?vid=2cd60774-c2f8-4e8f-9236-a6b0c03a1062"},"vehicle_type_id":"4","last_reported":1738764496,"current_range_meters":14000,"station_id":"ce4bho12rcd13ifvqh2g","pricing_plan_id":"cebpf4jnsgd1na2vs0mg"},{"bike_id":"3b62a1d1-371b-463d-86ca-c84c4531f3cd","system_id":"levelo_inurba_marseille","lat":43.28622,"lon":5.35105,"is_reserved":false,"is_disabled":false,"rental_uris":{"android":"levelo://app?vid=3b62a1d1-371b-463d-86ca-c84c4531f3cd","ios":"levelo://app?vid=3b62a1d1-371b-463d-86ca-c84c4531f3cd"},"vehicle_type_id":"4","last_reported":1738764496,"current_range_meters":30000,"station_id":"ce4bhch2rcd13ifvqeug","pricing_plan_id":"cebpf4jnsgd1na2vs0mg"},{"bike_id":"e040da88-b421-4173-9ede-61ba1a6ca5b4","system_id":"levelo_inurba_marseille","lat":43.24174,"lon":5.39723,"is_reserved":false,"is_disabled":false,"rental_uris":{"android":"levelo://app?vid=e040da88-b421-4173-9ede-61ba1a6ca5b4","ios":"levelo://app?vid=e040da88-b421-4173-9ede-61ba1a6ca5b4"},"vehicle_type_id":"4","last_reported":1738764496,"current_range_meters":17600,"station_id":"ce4bhn12rcd13ifvqgpg","pricing_plan_id":"cebpf4jnsgd1na2vs0mg"},{"bike_id":"6712f04b-f35d-4e3a-a70d-c89aec85d9b2","system_id":"levelo_inurba_marseille","lat":43.22935,"lon":5.35388,"is_reserved":false,"is_disabled":false,"rental_uris":{"android":"levelo://app?vid=6712f04b-f35d-4e3a-a70d-c89aec85d9b2","ios":"levelo://app?vid=6712f04b-f35d-4e3a-a70d-c89aec85d9b2"},"vehicle_type_id":"4","last_reported":1738764496,"current_range_meters":39200,"station_id":"cpo3532slgdg3j2ikp40","pricing_plan_id":"cebpf4jnsgd1na2vs0mg"},{"bike_id":"8fa213f0-3123-45bb-a5fc-a8a52cb74a47","system_id":"levelo_inurba_marseille","lat":43.30791,"lon":5.38156,"is_reserved":false,"is_disabled":false,"rental_uris":{"android":"levelo://app?vid=8fa213f0-3123-45bb-a5fc-a8a52cb74a47","ios":"levelo://app?vid=8fa213f0-3123-45bb-a5fc-a8a52cb74a47"},"vehicle_type_id":"4","last_reported":1738764496,"current_range_meters":10800,"station_id":"ce4bgt12rcd13ifvqce0","pricing_plan_id":"cebpf4jnsgd1na2vs0mg"},{"bike_id":"458f9300-b1d8-4121-b945-b574ec2cb7a5","system_id":"levelo_inurba_marseille","lat":43.29524,"lon":5.38567,"is_reserved":false,"is_disabled":false,"rental_uris":{"android":"levelo://app?vid=458f9300-b1d8-4121-b945-b574ec2cb7a5","ios":"levelo://app?vid=458f9300-b1d8-4121-b945-b574ec2cb7a5"},"vehicle_type_id":"4","last_reported":1738764496,"current_range_meters":36400,"station_id":"ce4bgih2rcd13ifvqba0","pricing_plan_id":"cebpf4jnsgd1na2vs0mg"},{"bike_id":"e253cf15-30f9-4a6a-bfa9-78e3149695a9","system_id":"levelo_inurba_marseille","lat":43.28255,"lon":5.35072,"is_reserved":false,"is_disabled":false,"rental_uris":{"android":"levelo://app?vid=e253cf15-30f9-4a6a-bfa9-78e3149695a9","ios":"levelo://app?vid=e253cf15-30f9-4a6a-bfa9-78e3149695a9"},"vehicle_type_id":"4","last_reported":1738764496,"current_range_meters":32400,"station_id":"ce4bhbp2rcd13ifvqerg","pricing_plan_id":"cebpf4jnsgd1na2vs0mg"},{"bike_id":"ac64863f-1fd1-4543-be71-a6d295aedceb","system_id":"levelo_inurba_marseille","lat":43.26685,"lon":5.38277,"is_reserved":false,"is_disabled":false,"rental_uris":{"android":"levelo://app?vid=ac64863f-1fd1-4543-be71-a6d295aedceb","ios":"levelo://app?vid=ac64863f-1fd1-4543-be71-a6d295aedceb"},"vehicle_type_id":"4","last_reported":1738764496,"current_range_meters":14400,"station_id":"ce4bhg92rcd13ifvqf90","pricing_plan_id":"cebpf4jnsgd1na2vs0mg"},{"bike_id":"fa4b5534-0553-40ba-be0a-02556ee91ee9","system_id":"levelo_inurba_marseille","lat":43.30159,"lon":5.37435,"is_reserved":false,"is_disabled":false,"rental_uris":{"android":"levelo://app?vid=fa4b5534-0553-40ba-be0a-02556ee91ee9","ios":"levelo://app?vid=fa4b5534-0553-40ba-be0a-02556ee91ee9"},"vehicle_type_id":"4","last_reported":1738764496,"current_range_meters":25200,"station_id":"ce4bgs92rcd13ifvqcc0","pricing_plan_id":"cebpf4jnsgd1na2vs0mg"},{"bike_id":"d044d032-8863-41d8-9a88-2dbf40dcd03f","system_id":"levelo_inurba_marseille","lat":43.30131,"lon":5.37388,"is_reserved":false,"is_disabled":false,"rental_uris":{"android":"levelo://app?vid=d044d032-8863-41d8-9a88-2dbf40dcd03f","ios":"levelo://app?vid=d044d032-8863-41d8-9a88-2dbf40dcd03f"},"vehicle_type_id":"4","last_reported":1738764496,"current_range_meters":23200,"station_id":"ce4bgs92rcd13ifvqcc0","pricing_plan_id":"cebpf4jnsgd1na2vs0mg"},{"bike_id":"0a340a50-c9b3-4c87-88da-a62208ff40c7","system_id":"levelo_inurba_marseille","lat":43.30546,"lon":5.3669,"is_reserved":false,"is_disabled":false,"rental_uris":{"android":"levelo://app?vid=0a340a50-c9b3-4c87-88da-a62208ff40c7","ios":"levelo://app?vid=0a340a50-c9b3-4c87-88da-a62208ff40c7"},"vehicle_type_id":"4","last_reported":1738764496,"current_range_meters":38000,"station_id":"ce4bgrp2rcd13ifvqc9g","pricing_plan_id":"cebpf4jnsgd1na2vs0mg"},{"bike_id":"e60c42e2-8e1a-4c9a-b7f9-d1eb056cfd79","system_id":"levelo_inurba_marseille","lat":43.2862,"lon":5.3511,"is_reserved":false,"is_disabled":false,"rental_uris":{"android":"levelo://app?vid=e60c42e2-8e1a-4c9a-b7f9-d1eb056cfd79","ios":"levelo://app?vid=e60c42e2-8e1a-4c9a-b7f9-d1eb056cfd79"},"vehicle_type_id":"4","last_reported":1738764496,"current_range_meters":14000,"station_id":"ce4bhch2rcd13ifvqeug","pricing_plan_id":"cebpf4jnsgd1na2vs0mg"},{"bike_id":"f7eb74d1-69ec-49b4-a879-1e069eeb30a3","system_id":"levelo_inurba_marseille","lat":43.28857,"lon":5.35853,"is_reserved":false,"is_disabled":false,"rental_uris":{"android":"levelo://app?vid=f7eb74d1-69ec-49b4-a879-1e069eeb30a3","ios":"levelo://app?vid=f7eb74d1-69ec-49b4-a879-1e069eeb30a3"},"vehicle_type_id":"4","last_reported":1738764496,"current_range_meters":14800,"station_id":"ce4bhb12rcd13ifvqem0","pricing_plan_id":"cebpf4jnsgd1na2vs0mg"},{"bike_id":"7fc66809-5b0c-452d-9d7f-4ea16e1ec23b","system_id":"levelo_inurba_marseille","lat":43.29583,"lon":5.38114,"is_reserved":false,"is_disabled":false,"rental_uris":{"android":"levelo://app?vid=7fc66809-5b0c-452d-9d7f-4ea16e1ec23b","ios":"levelo://app?vid=7fc66809-5b0c-452d-9d7f-4ea16e1ec23b"},"vehicle_type_id":"4","last_reported":1738764496,"current_range_meters":38400,"station_id":"ce4bgl12rcd13ifvqbo0","pricing_plan_id":"cebpf4jnsgd1na2vs0mg"},{"bike_id":"ea6a0107-0e7d-4623-b11a-745cc879d3a0","system_id":"levelo_inurba_marseille","lat":43.26679,"lon":5.38258,"is_reserved":false,"is_disabled":false,"rental_uris":{"android":"levelo://app?vid=ea6a0107-0e7d-4623-b11a-745cc879d3a0","ios":"levelo://app?vid=ea6a0107-0e7d-4623-b11a-745cc879d3a0"},"vehicle_type_id":"4","last_reported":1738764496,"current_range_meters":20000,"station_id":"ce4bhg92rcd13ifvqf90","pricing_plan_id":"cebpf4jnsgd1na2vs0mg"},{"bike_id":"bdf70224-63a9-4409-8dea-7caf726ef405","system_id":"levelo_inurba_marseille","lat":43.29707,"lon":5.36098,"is_reserved":false,"is_disabled":false,"rental_uris":{"android":"levelo://app?vid=bdf70224-63a9-4409-8dea-7caf726ef405","ios":"levelo://app?vid=bdf70224-63a9-4409-8dea-7caf726ef405"},"vehicle_type_id":"4","last_reported":1738764496,"current_range_meters":27600,"station_id":"","pricing_plan_id":"cebpf4jnsgd1na2vs0mg"},{"bike_id":"4fd31637-8fe5-444b-b107-457bfa1f9930","system_id":"levelo_inurba_marseille","lat":43.294197,"lon":5.386167,"is_reserved":false,"is_disabled":false,"rental_uris":{"android":"levelo://app?vid=4fd31637-8fe5-444b-b107-457bfa1f9930","ios":"levelo://app?vid=4fd31637-8fe5-444b-b107-457bfa1f9930"},"vehicle_type_id":"4","last_reported":1738764496,"current_range_meters":22000,"station_id":"ce4bh2h2rcd13ifvqdh0","pricing_plan_id":"cebpf4jnsgd1na2vs0mg"},{"bike_id":"115122a7-d4ee-4c1d-8389-04b88a1f8be5","system_id":"levelo_inurba_marseille","lat":43.25721,"lon":5.41107,"is_reserved":false,"is_disabled":false,"rental_uris":{"android":"levelo://app?vid=115122a7-d4ee-4c1d-8389-04b88a1f8be5","ios":"levelo://app?vid=115122a7-d4ee-4c1d-8389-04b88a1f8be5"},"vehicle_type_id":"4","last_reported":1738764496,"current_range_meters":38800,"station_id":"ce4bhkp2rcd13ifvqgd0","pricing_plan_id":"cebpf4jnsgd1na2vs0mg"},{"bike_id":"9fa6de76-e609-4c72-8e60-948046040770","system_id":"levelo_inurba_marseille","lat":43.26695,"lon":5.38272,"is_reserved":false,"is_disabled":false,"rental_uris":{"android":"levelo://app?vid=9fa6de76-e609-4c72-8e60-948046040770","ios":"levelo://app?vid=9fa6de76-e609-4c72-8e60-948046040770"},"vehicle_type_id":"4","last_reported":1738764496,"current_range_meters":38800,"station_id":"ce4bhg92rcd13ifvqf90","pricing_plan_id":"cebpf4jnsgd1na2vs0mg"},{"bike_id":"a6b2428a-7d23-4892-a3bf-86cc25978b7a","system_id":"levelo_inurba_marseille","lat":43.2549,"lon":5.37642,"is_reserved":false,"is_disabled":true,"rental_uris":{"android":"levelo://app?vid=a6b2428a-7d23-4892-a3bf-86cc25978b7a","ios":"levelo://app?vid=a6b2428a-7d23-4892-a3bf-86cc25978b7a"},"vehicle_type_id":"4","last_reported":1738764496,"current_range_meters":26800,"station_id":"ce4bhh12rcd13ifvqff0","pricing_plan_id":"cebpf4jnsgd1na2vs0mg"},{"bike_id":"3ab0ceb6-cd89-477f-8038-1be761eb4bda","system_id":"levelo_inurba_marseille","lat":43.2951,"lon":5.37477,"is_reserved":false,"is_disabled":true,"rental_uris":{"android":"levelo://app?vid=3ab0ceb6-cd89-477f-8038-1be761eb4bda","ios":"levelo://app?vid=3ab0ceb6-cd89-477f-8038-1be761eb4bda"},"vehicle_type_id":"4","last_reported":1738764496,"current_range_meters":38800,"station_id":"ce4bgkp2rcd13ifvqbmg","pricing_plan_id":"cebpf4jnsgd1na2vs0mg"},{"bike_id":"496310f9-20d4-472f-8dcd-1fcbf1a417a3","system_id":"levelo_inurba_marseille","lat":43.24402,"lon":5.37066,"is_reserved":false,"is_disabled":false,"rental_uris":{"android":"levelo://app?vid=496310f9-20d4-472f-8dcd-1fcbf1a417a3","ios":"levelo://app?vid=496310f9-20d4-472f-8dcd-1fcbf1a417a3"},"vehicle_type_id":"4","last_reported":1738764496,"current_range_meters":39200,"station_id":"ce4bhhh2rcd13ifvqfk0","pricing_plan_id":"cebpf4jnsgd1na2vs0mg"},{"bike_id":"74428db9-8b35-4d93-bd8a-dfbe302fe6c7","system_id":"levelo_inurba_marseille","lat":43.26955,"lon":5.40264,"is_reserved":false,"is_disabled":false,"rental_uris":{"android":"levelo://app?vid=74428db9-8b35-4d93-bd8a-dfbe302fe6c7","ios":"levelo://app?vid=74428db9-8b35-4d93-bd8a-dfbe302fe6c7"},"vehicle_type_id":"4","last_reported":1738764496,"current_range_meters":27200,"station_id":"cjm6bp8fraef2m0cb0m0","pricing_plan_id":"cebpf4jnsgd1na2vs0mg"},{"bike_id":"c85a26e1-f53e-4ec1-b1ea-8b32d23f1f4d","system_id":"levelo_inurba_marseille","lat":43.230541,"lon":5.355034,"is_reserved":false,"is_disabled":false,"rental_uris":{"android":"levelo://app?vid=c85a26e1-f53e-4ec1-b1ea-8b32d23f1f4d","ios":"levelo://app?vid=c85a26e1-f53e-4ec1-b1ea-8b32d23f1f4d"},"vehicle_type_id":"4","last_reported":1738764496,"current_range_meters":22400,"station_id":"cpo3342slgdg3j2ifvpg","pricing_plan_id":"cebpf4jnsgd1na2vs0mg"},{"bike_id":"9cc9ebf6-7f15-4d4c-b608-9a0e2f586105","system_id":"levelo_inurba_marseille","lat":43.2315,"lon":5.43708,"is_reserved":false,"is_disabled":false,"rental_uris":{"android":"levelo://app?vid=9cc9ebf6-7f15-4d4c-b608-9a0e2f586105","ios":"levelo://app?vid=9cc9ebf6-7f15-4d4c-b608-9a0e2f586105"},"vehicle_type_id":"4","last_reported":1738764496,"current_range_meters":21600,"station_id":"ce4bhmp2rcd13ifvqgog","pricing_plan_id":"cebpf4jnsgd1na2vs0mg"},{"bike_id":"512a3a23-b079-4568-bc04-d9235c65b5d3","system_id":"levelo_inurba_marseille","lat":43.2396,"lon":5.366353,"is_reserved":false,"is_disabled":false,"rental_uris":{"android":"levelo://app?vid=512a3a23-b079-4568-bc04-d9235c65b5d3","ios":"levelo://app?vid=512a3a23-b079-4568-bc04-d9235c65b5d3"},"vehicle_type_id":"4","last_reported":1738764496,"current_range_meters":38800,"station_id":"ce4bhi12rcd13ifvqfp0","pricing_plan_id":"cebpf4jnsgd1na2vs0mg"},{"bike_id":"bd2c8631-5885-47e9-a4c3-f8cf7762eef5","system_id":"levelo_inurba_marseille","lat":43.24172,"lon":5.39732,"is_reserved":false,"is_disabled":false,"rental_uris":{"android":"levelo://app?vid=bd2c8631-5885-47e9-a4c3-f8cf7762eef5","ios":"levelo://app?vid=bd2c8631-5885-47e9-a4c3-f8cf7762eef5"},"vehicle_type_id":"4","last_reported":1738764496,"current_range_meters":38800,"station_id":"ce4bhn12rcd13ifvqgpg","pricing_plan_id":"cebpf4jnsgd1na2vs0mg"},{"bike_id":"6f2194f9-c62b-49ef-b482-bb8bf46b3b28","system_id":"levelo_inurba_marseille","lat":43.30549,"lon":5.36703,"is_reserved":false,"is_disabled":false,"rental_uris":{"android":"levelo://app?vid=6f2194f9-c62b-49ef-b482-bb8bf46b3b28","ios":"levelo://app?vid=6f2194f9-c62b-49ef-b482-bb8bf46b3b28"},"vehicle_type_id":"4","last_reported":1738764496,"current_range_meters":16800,"station_id":"ce4bgrp2rcd13ifvqc9g","pricing_plan_id":"cebpf4jnsgd1na2vs0mg"},{"bike_id":"9c207c45-ddb2-4217-8d34-079a5658cd14","system_id":"levelo_inurba_marseille","lat":43.32283,"lon":5.38269,"is_reserved":false,"is_disabled":false,"rental_uris":{"android":"levelo://app?vid=9c207c45-ddb2-4217-8d34-079a5658cd14","ios":"levelo://app?vid=9c207c45-ddb2-4217-8d34-079a5658cd14"},"vehicle_type_id":"4","last_reported":1738764496,"current_range_meters":34800,"station_id":"ce4bhr12rcd13ifvqhqg","pricing_plan_id":"cebpf4jnsgd1na2vs0mg"},{"bike_id":"9fd0f277-be6f-4868-9652-076efed8e25c","system_id":"levelo_inurba_marseille","lat":43.31295,"lon":5.36621,"is_reserved":false,"is_disabled":true,"rental_uris":{"android":"levelo://app?vid=9fd0f277-be6f-4868-9652-076efed8e25c","ios":"levelo://app?vid=9fd0f277-be6f-4868-9652-076efed8e25c"},"vehicle_type_id":"4","last_reported":1738764496,"current_range_meters":1200,"station_id":"ce4bgr92rcd13ifvqc6g","pricing_plan_id":"cebpf4jnsgd1na2vs0mg"},{"bike_id":"ac6397b4-fe7f-4dff-8ea0-c20c825e33e0","system_id":"levelo_inurba_marseille","lat":43.29367,"lon":5.37855,"is_reserved":false,"is_disabled":true,"rental_uris":{"android":"levelo://app?vid=ac6397b4-fe7f-4dff-8ea0-c20c825e33e0","ios":"levelo://app?vid=ac6397b4-fe7f-4dff-8ea0-c20c825e33e0"},"vehicle_type_id":"4","last_reported":1738764496,"current_range_meters":38800,"station_id":"ce4bgjh2rcd13ifvqbf0","pricing_plan_id":"cebpf4jnsgd1na2vs0mg"},{"bike_id":"7bf1dd2a-42c4-4b8e-ad09-ace0d60f7028","system_id":"levelo_inurba_marseille","lat":43.30548,"lon":5.36531,"is_reserved":false,"is_disabled":false,"rental_uris":{"android":"levelo://app?vid=7bf1dd2a-42c4-4b8e-ad09-ace0d60f7028","ios":"levelo://app?vid=7bf1dd2a-42c4-4b8e-ad09-ace0d60f7028"},"vehicle_type_id":"4","last_reported":1738764496,"current_range_meters":38000,"station_id":"ce4bgs12rcd13ifvqcag","pricing_plan_id":"cebpf4jnsgd1na2vs0mg"},{"bike_id":"7db34339-27f8-4a72-9d1d-12bdd3074cfe","system_id":"levelo_inurba_marseille","lat":43.28573,"lon":5.39489,"is_reserved":false,"is_disabled":false,"rental_uris":{"android":"levelo://app?vid=7db34339-27f8-4a72-9d1d-12bdd3074cfe","ios":"levelo://app?vid=7db34339-27f8-4a72-9d1d-12bdd3074cfe"},"vehicle_type_id":"4","last_reported":1738764496,"current_range_meters":30000,"station_id":"ce4bh292rcd13ifvqdg0","pricing_plan_id":"cebpf4jnsgd1na2vs0mg"},{"bike_id":"a4767557-bbe9-4986-8f1f-6cd7d82d2de9","system_id":"levelo_inurba_marseille","lat":43.23965,"lon":5.36631,"is_reserved":false,"is_disabled":false,"rental_uris":{"android":"levelo://app?vid=a4767557-bbe9-4986-8f1f-6cd7d82d2de9","ios":"levelo://app?vid=a4767557-bbe9-4986-8f1f-6cd7d82d2de9"},"vehicle_type_id":"4","last_reported":1738764496,"current_range_meters":24800,"station_id":"ce4bhi12rcd13ifvqfp0","pricing_plan_id":"cebpf4jnsgd1na2vs0mg"},{"bike_id":"ba64ce5e-acd7-44a9-b1cc-d0945d62634f","system_id":"levelo_inurba_marseille","lat":43.25721,"lon":5.4111,"is_reserved":false,"is_disabled":false,"rental_uris":{"android":"levelo://app?vid=ba64ce5e-acd7-44a9-b1cc-d0945d62634f","ios":"levelo://app?vid=ba64ce5e-acd7-44a9-b1cc-d0945d62634f"},"vehicle_type_id":"4","last_reported":1738764496,"current_range_meters":16400,"station_id":"ce4bhkp2rcd13ifvqgd0","pricing_plan_id":"cebpf4jnsgd1na2vs0mg"},{"bike_id":"ffbb5d75-afc6-4de1-8c3a-587f16ea6169","system_id":"levelo_inurba_marseille","lat":43.28677,"lon":5.3867,"is_reserved":false,"is_disabled":true,"rental_uris":{"android":"levelo://app?vid=ffbb5d75-afc6-4de1-8c3a-587f16ea6169","ios":"levelo://app?vid=ffbb5d75-afc6-4de1-8c3a-587f16ea6169"},"vehicle_type_id":"4","last_reported":1738764496,"current_range_meters":0,"station_id":"ce4bh492rcd13ifvqdug","pricing_plan_id":"cebpf4jnsgd1na2vs0mg"},{"bike_id":"589a0d6a-3f59-4c10-b4aa-574eabb1c9aa","system_id":"levelo_inurba_marseille","lat":43.30473,"lon":5.37904,"is_reserved":false,"is_disabled":false,"rental_uris":{"android":"levelo://app?vid=589a0d6a-3f59-4c10-b4aa-574eabb1c9aa","ios":"levelo://app?vid=589a0d6a-3f59-4c10-b4aa-574eabb1c9aa"},"vehicle_type_id":"4","last_reported":1738764496,"current_range_meters":9600,"station_id":"ce4bgup2rcd13ifvqcn0","pricing_plan_id":"cebpf4jnsgd1na2vs0mg"},{"bike_id":"b36332f7-f00e-4afa-89bf-f93090b6d3c8","system_id":"levelo_inurba_marseille","lat":43.29864,"lon":5.39732,"is_reserved":false,"is_disabled":false,"rental_uris":{"android":"levelo://app?vid=b36332f7-f00e-4afa-89bf-f93090b6d3c8","ios":"levelo://app?vid=b36332f7-f00e-4afa-89bf-f93090b6d3c8"},"vehicle_type_id":"4","last_reported":1738764496,"current_range_meters":34000,"station_id":"ce4bh0h2rcd13ifvqd50","pricing_plan_id":"cebpf4jnsgd1na2vs0mg"},{"bike_id":"d2b2e907-7a69-440c-88ca-229f2450e34a","system_id":"levelo_inurba_marseille","lat":43.25872,"lon":5.39906,"is_reserved":false,"is_disabled":false,"rental_uris":{"android":"levelo://app?vid=d2b2e907-7a69-440c-88ca-229f2450e34a","ios":"levelo://app?vid=d2b2e907-7a69-440c-88ca-229f2450e34a"},"vehicle_type_id":"4","last_reported":1738764496,"current_range_meters":38800,"station_id":"ce4bhl92rcd13ifvqghg","pricing_plan_id":"cebpf4jnsgd1na2vs0mg"},{"bike_id":"d3d54a69-4ed1-4984-a07b-f7aa3813a468","system_id":"levelo_inurba_marseille","lat":43.28677,"lon":5.38688,"is_reserved":false,"is_disabled":false,"rental_uris":{"android":"levelo://app?vid=d3d54a69-4ed1-4984-a07b-f7aa3813a468","ios":"levelo://app?vid=d3d54a69-4ed1-4984-a07b-f7aa3813a468"},"vehicle_type_id":"4","last_reported":1738764496,"current_range_meters":17600,"station_id":"ce4bh492rcd13ifvqdug","pricing_plan_id":"cebpf4jnsgd1na2vs0mg"},{"bike_id":"35b0fbe6-22db-46fb-a54a-76af362a8729","system_id":"levelo_inurba_marseille","lat":43.29981,"lon":5.4132,"is_reserved":false,"is_disabled":false,"rental_uris":{"android":"levelo://app?vid=35b0fbe6-22db-46fb-a54a-76af362a8729","ios":"levelo://app?vid=35b0fbe6-22db-46fb-a54a-76af362a8729"},"vehicle_type_id":"4","last_reported":1738764496,"current_range_meters":37600,"station_id":"ce4bhp12rcd13ifvqh9g","pricing_plan_id":"cebpf4jnsgd1na2vs0mg"},{"bike_id":"e0f7f9ed-22a0-47a7-b08f-334aecb96c7a","system_id":"levelo_inurba_marseille","lat":43.30319,"lon":5.36913,"is_reserved":false,"is_disabled":false,"rental_uris":{"android":"levelo://app?vid=e0f7f9ed-22a0-47a7-b08f-334aecb96c7a","ios":"levelo://app?vid=e0f7f9ed-22a0-47a7-b08f-334aecb96c7a"},"vehicle_type_id":"4","last_reported":1738764496,"current_range_meters":10000,"station_id":"ce4bgqh2rcd13ifvqc5g","pricing_plan_id":"cebpf4jnsgd1na2vs0mg"},{"bike_id":"860d7f56-a19c-4d48-8260-b550897259c7","system_id":"levelo_inurba_marseille","lat":43.27306,"lon":5.3907,"is_reserved":false,"is_disabled":false,"rental_uris":{"android":"levelo://app?vid=860d7f56-a19c-4d48-8260-b550897259c7","ios":"levelo://app?vid=860d7f56-a19c-4d48-8260-b550897259c7"},"vehicle_type_id":"4","last_reported":1738764496,"current_range_meters":38800,"station_id":"ce4bhgp2rcd13ifvqfe0","pricing_plan_id":"cebpf4jnsgd1na2vs0mg"},{"bike_id":"539cf024-90b6-438c-9ab2-4ae5cb063ed9","system_id":"levelo_inurba_marseille","lat":43.28479,"lon":5.38417,"is_reserved":false,"is_disabled":false,"rental_uris":{"android":"levelo://app?vid=539cf024-90b6-438c-9ab2-4ae5cb063ed9","ios":"levelo://app?vid=539cf024-90b6-438c-9ab2-4ae5cb063ed9"},"vehicle_type_id":"4","last_reported":1738764496,"current_range_meters":26000,"station_id":"ce4bh512rcd13ifvqe3g","pricing_plan_id":"cebpf4jnsgd1na2vs0mg"},{"bike_id":"2f9a6647-bfb0-4c5f-b2d5-6b23d0794b76","system_id":"levelo_inurba_marseille","lat":43.25574,"lon":5.38229,"is_reserved":false,"is_disabled":true,"rental_uris":{"android":"levelo://app?vid=2f9a6647-bfb0-4c5f-b2d5-6b23d0794b76","ios":"levelo://app?vid=2f9a6647-bfb0-4c5f-b2d5-6b23d0794b76"},"vehicle_type_id":"4","last_reported":1738764496,"current_range_meters":38000,"station_id":"ce4bhih2rcd13ifvqfs0","pricing_plan_id":"cebpf4jnsgd1na2vs0mg"},{"bike_id":"87a42b20-b9b7-4afe-93f6-18333a00c070","system_id":"levelo_inurba_marseille","lat":43.25087,"lon":5.39526,"is_reserved":false,"is_disabled":false,"rental_uris":{"android":"levelo://app?vid=87a42b20-b9b7-4afe-93f6-18333a00c070","ios":"levelo://app?vid=87a42b20-b9b7-4afe-93f6-18333a00c070"},"vehicle_type_id":"4","last_reported":1738764496,"current_range_meters":27200,"station_id":"ce4bhm12rcd13ifvqgkg","pricing_plan_id":"cebpf4jnsgd1na2vs0mg"},{"bike_id":"ee90a424-5c1b-46e2-9c67-be1a83a02de7","system_id":"levelo_inurba_marseille","lat":43.28161,"lon":5.42646,"is_reserved":false,"is_disabled":false,"rental_uris":{"android":"levelo://app?vid=ee90a424-5c1b-46e2-9c67-be1a83a02de7","ios":"levelo://app?vid=ee90a424-5c1b-46e2-9c67-be1a83a02de7"},"vehicle_type_id":"4","last_reported":1738764496,"current_range_meters":32400,"station_id":"ce4bhnh2rcd13ifvqgug","pricing_plan_id":"cebpf4jnsgd1na2vs0mg"},{"bike_id":"dbf75587-eb99-4dde-8c10-102a9cfad15d","system_id":"levelo_inurba_marseille","lat":43.23963,"lon":5.36631,"is_reserved":false,"is_disabled":true,"rental_uris":{"android":"levelo://app?vid=dbf75587-eb99-4dde-8c10-102a9cfad15d","ios":"levelo://app?vid=dbf75587-eb99-4dde-8c10-102a9cfad15d"},"vehicle_type_id":"4","last_reported":1738764496,"current_range_meters":800,"station_id":"ce4bhi12rcd13ifvqfp0","pricing_plan_id":"cebpf4jnsgd1na2vs0mg"},{"bike_id":"918cd003-67b8-472e-a6c6-83ef5c6b9293","system_id":"levelo_inurba_marseille","lat":43.29216,"lon":5.35816,"is_reserved":false,"is_disabled":false,"rental_uris":{"android":"levelo://app?vid=918cd003-67b8-472e-a6c6-83ef5c6b9293","ios":"levelo://app?vid=918cd003-67b8-472e-a6c6-83ef5c6b9293"},"vehicle_type_id":"4","last_reported":1738764496,"current_range_meters":38400,"station_id":"ce4bhb12rcd13ifvqel0","pricing_plan_id":"cebpf4jnsgd1na2vs0mg"},{"bike_id":"50b15991-9296-4df6-b1a6-725aba7e366c","system_id":"levelo_inurba_marseille","lat":43.25863,"lon":5.39903,"is_reserved":false,"is_disabled":true,"rental_uris":{"android":"levelo://app?vid=50b15991-9296-4df6-b1a6-725aba7e366c","ios":"levelo://app?vid=50b15991-9296-4df6-b1a6-725aba7e366c"},"vehicle_type_id":"4","last_reported":1738764496,"current_range_meters":1600,"station_id":"ce4bhl92rcd13ifvqghg","pricing_plan_id":"cebpf4jnsgd1na2vs0mg"},{"bike_id":"da4184ae-45e5-4997-8a3f-d0a7996a0181","system_id":"levelo_inurba_marseille","lat":43.30549,"lon":5.36639,"is_reserved":false,"is_disabled":false,"rental_uris":{"android":"levelo://app?vid=da4184ae-45e5-4997-8a3f-d0a7996a0181","ios":"levelo://app?vid=da4184ae-45e5-4997-8a3f-d0a7996a0181"},"vehicle_type_id":"4","last_reported":1738764496,"current_range_meters":28800,"station_id":"","pricing_plan_id":"cebpf4jnsgd1na2vs0mg"},{"bike_id":"ebb6e997-80cb-4899-a3f2-23186dc1fe48","system_id":"levelo_inurba_marseille","lat":43.2666,"lon":5.38229,"is_reserved":false,"is_disabled":false,"rental_uris":{"android":"levelo://app?vid=ebb6e997-80cb-4899-a3f2-23186dc1fe48","ios":"levelo://app?vid=ebb6e997-80cb-4899-a3f2-23186dc1fe48"},"vehicle_type_id":"4","last_reported":1738764496,"current_range_meters":26000,"station_id":"","pricing_plan_id":"cebpf4jnsgd1na2vs0mg"},{"bike_id":"3ef2cc05-eed6-44ca-a621-1d2f2883a426","system_id":"levelo_inurba_marseille","lat":43.25873,"lon":5.39894,"is_reserved":false,"is_disabled":false,"rental_uris":{"android":"levelo://app?vid=3ef2cc05-eed6-44ca-a621-1d2f2883a426","ios":"levelo://app?vid=3ef2cc05-eed6-44ca-a621-1d2f2883a426"},"vehicle_type_id":"4","last_reported":1738764496,"current_range_meters":36000,"station_id":"ce4bhl92rcd13ifvqghg","pricing_plan_id":"cebpf4jnsgd1na2vs0mg"},{"bike_id":"50a0a7b0-9683-40e1-bdf6-ca56f781ec9e","system_id":"levelo_inurba_marseille","lat":43.27944,"lon":5.41054,"is_reserved":false,"is_disabled":false,"rental_uris":{"android":"levelo://app?vid=50a0a7b0-9683-40e1-bdf6-ca56f781ec9e","ios":"levelo://app?vid=50a0a7b0-9683-40e1-bdf6-ca56f781ec9e"},"vehicle_type_id":"4","last_reported":1738764496,"current_range_meters":8800,"station_id":"ce4bhnp2rcd13ifvqh0g","pricing_plan_id":"cebpf4jnsgd1na2vs0mg"},{"bike_id":"7d5a071b-33d0-4a99-a7a2-905e423e155c","system_id":"levelo_inurba_marseille","lat":43.23966,"lon":5.36649,"is_reserved":false,"is_disabled":false,"rental_uris":{"android":"levelo://app?vid=7d5a071b-33d0-4a99-a7a2-905e423e155c","ios":"levelo://app?vid=7d5a071b-33d0-4a99-a7a2-905e423e155c"},"vehicle_type_id":"4","last_reported":1738764496,"current_range_meters":36400,"station_id":"ce4bhi12rcd13ifvqfp0","pricing_plan_id":"cebpf4jnsgd1na2vs0mg"},{"bike_id":"910440fc-86f8-42ae-a348-3e85719c7674","system_id":"levelo_inurba_marseille","lat":43.30285,"lon":5.37706,"is_reserved":false,"is_disabled":false,"rental_uris":{"android":"levelo://app?vid=910440fc-86f8-42ae-a348-3e85719c7674","ios":"levelo://app?vid=910440fc-86f8-42ae-a348-3e85719c7674"},"vehicle_type_id":"4","last_reported":1738764496,"current_range_meters":35600,"station_id":"ce4bguh2rcd13ifvqcj0","pricing_plan_id":"cebpf4jnsgd1na2vs0mg"},{"bike_id":"f4ed3389-eae3-4306-b33e-f71f85f988b7","system_id":"levelo_inurba_marseille","lat":43.30474,"lon":5.37906,"is_reserved":false,"is_disabled":false,"rental_uris":{"android":"levelo://app?vid=f4ed3389-eae3-4306-b33e-f71f85f988b7","ios":"levelo://app?vid=f4ed3389-eae3-4306-b33e-f71f85f988b7"},"vehicle_type_id":"4","last_reported":1738764496,"current_range_meters":38800,"station_id":"ce4bgup2rcd13ifvqcn0","pricing_plan_id":"cebpf4jnsgd1na2vs0mg"},{"bike_id":"931c3b97-cce1-4ebe-a291-6c50a6f2810e","system_id":"levelo_inurba_marseille","lat":43.317878,"lon":5.374394,"is_reserved":false,"is_disabled":false,"rental_uris":{"android":"levelo://app?vid=931c3b97-cce1-4ebe-a291-6c50a6f2810e","ios":"levelo://app?vid=931c3b97-cce1-4ebe-a291-6c50a6f2810e"},"vehicle_type_id":"4","last_reported":1738764496,"current_range_meters":6400,"station_id":"","pricing_plan_id":"cebpf4jnsgd1na2vs0mg"},{"bike_id":"46705146-77e5-4cf5-b27b-1e2ae3609ead","system_id":"levelo_inurba_marseille","lat":43.29004,"lon":5.35619,"is_reserved":false,"is_disabled":false,"rental_uris":{"android":"levelo://app?vid=46705146-77e5-4cf5-b27b-1e2ae3609ead","ios":"levelo://app?vid=46705146-77e5-4cf5-b27b-1e2ae3609ead"},"vehicle_type_id":"4","last_reported":1738764496,"current_range_meters":36000,"station_id":"ce4bhb92rcd13ifvqen0","pricing_plan_id":"cebpf4jnsgd1na2vs0mg"},{"bike_id":"d1d51ec2-e1ab-4b92-9a4b-f935b04ef436","system_id":"levelo_inurba_marseille","lat":43.25035,"lon":5.3892,"is_reserved":false,"is_disabled":false,"rental_uris":{"android":"levelo://app?vid=d1d51ec2-e1ab-4b92-9a4b-f935b04ef436","ios":"levelo://app?vid=d1d51ec2-e1ab-4b92-9a4b-f935b04ef436"},"vehicle_type_id":"4","last_reported":1738764496,"current_range_meters":18800,"station_id":"ce4bhgp2rcd13ifvqfd0","pricing_plan_id":"cebpf4jnsgd1na2vs0mg"},{"bike_id":"45a809db-94d1-4d10-ba4a-791caf193ba6","system_id":"levelo_inurba_marseille","lat":43.27946,"lon":5.41044,"is_reserved":false,"is_disabled":false,"rental_uris":{"android":"levelo://app?vid=45a809db-94d1-4d10-ba4a-791caf193ba6","ios":"levelo://app?vid=45a809db-94d1-4d10-ba4a-791caf193ba6"},"vehicle_type_id":"4","last_reported":1738764496,"current_range_meters":30800,"station_id":"ce4bhnp2rcd13ifvqh0g","pricing_plan_id":"cebpf4jnsgd1na2vs0mg"},{"bike_id":"7a2080c9-d44a-471c-9acd-526428e8e5dc","system_id":"levelo_inurba_marseille","lat":43.22938,"lon":5.35387,"is_reserved":false,"is_disabled":false,"rental_uris":{"android":"levelo://app?vid=7a2080c9-d44a-471c-9acd-526428e8e5dc","ios":"levelo://app?vid=7a2080c9-d44a-471c-9acd-526428e8e5dc"},"vehicle_type_id":"4","last_reported":1738764496,"current_range_meters":38800,"station_id":"cpo3532slgdg3j2ikp40","pricing_plan_id":"cebpf4jnsgd1na2vs0mg"},{"bike_id":"5e7872bf-6d44-4209-9e94-a728a908b09f","system_id":"levelo_inurba_marseille","lat":43.31345,"lon":5.39702,"is_reserved":false,"is_disabled":false,"rental_uris":{"android":"levelo://app?vid=5e7872bf-6d44-4209-9e94-a728a908b09f","ios":"levelo://app?vid=5e7872bf-6d44-4209-9e94-a728a908b09f"},"vehicle_type_id":"4","last_reported":1738764496,"current_range_meters":18000,"station_id":"ce4bgvp2rcd13ifvqcu0","pricing_plan_id":"cebpf4jnsgd1na2vs0mg"},{"bike_id":"3cffe561-5575-4d5f-9a3c-4ee740a5b122","system_id":"levelo_inurba_marseille","lat":43.27961,"lon":5.41044,"is_reserved":false,"is_disabled":false,"rental_uris":{"android":"levelo://app?vid=3cffe561-5575-4d5f-9a3c-4ee740a5b122","ios":"levelo://app?vid=3cffe561-5575-4d5f-9a3c-4ee740a5b122"},"vehicle_type_id":"4","last_reported":1738764496,"current_range_meters":24400,"station_id":"ce4bhnp2rcd13ifvqh0g","pricing_plan_id":"cebpf4jnsgd1na2vs0mg"},{"bike_id":"6100990f-c4b7-4419-ab12-3d9c2a9f7c81","system_id":"levelo_inurba_marseille","lat":43.28275,"lon":5.3509,"is_reserved":false,"is_disabled":false,"rental_uris":{"android":"levelo://app?vid=6100990f-c4b7-4419-ab12-3d9c2a9f7c81","ios":"levelo://app?vid=6100990f-c4b7-4419-ab12-3d9c2a9f7c81"},"vehicle_type_id":"4","last_reported":1738764496,"current_range_meters":38000,"station_id":"ce4bhbp2rcd13ifvqerg","pricing_plan_id":"cebpf4jnsgd1na2vs0mg"},{"bike_id":"f307dfc9-492f-427c-886b-0aebd0c4a217","system_id":"levelo_inurba_marseille","lat":43.241676,"lon":5.363996,"is_reserved":false,"is_disabled":false,"rental_uris":{"android":"levelo://app?vid=f307dfc9-492f-427c-886b-0aebd0c4a217","ios":"levelo://app?vid=f307dfc9-492f-427c-886b-0aebd0c4a217"},"vehicle_type_id":"4","last_reported":1738764496,"current_range_meters":38800,"station_id":"cpo36qri1sfpv3e86is0","pricing_plan_id":"cebpf4jnsgd1na2vs0mg"},{"bike_id":"a1307f64-2d8a-467f-a328-aba6ef5e9f0e","system_id":"levelo_inurba_marseille","lat":43.28698,"lon":5.3998,"is_reserved":false,"is_disabled":false,"rental_uris":{"android":"levelo://app?vid=a1307f64-2d8a-467f-a328-aba6ef5e9f0e","ios":"levelo://app?vid=a1307f64-2d8a-467f-a328-aba6ef5e9f0e"},"vehicle_type_id":"4","last_reported":1738764496,"current_range_meters":38800,"station_id":"ce4bho92rcd13ifvqh3g","pricing_plan_id":"cebpf4jnsgd1na2vs0mg"},{"bike_id":"fbe78aa4-02b6-4450-96f9-7c1fbee5b8b1","system_id":"levelo_inurba_marseille","lat":43.26565,"lon":5.39005,"is_reserved":false,"is_disabled":false,"rental_uris":{"android":"levelo://app?vid=fbe78aa4-02b6-4450-96f9-7c1fbee5b8b1","ios":"levelo://app?vid=fbe78aa4-02b6-4450-96f9-7c1fbee5b8b1"},"vehicle_type_id":"4","last_reported":1738764496,"current_range_meters":25200,"station_id":"ce4bhe12rcd13ifvqf30","pricing_plan_id":"cebpf4jnsgd1na2vs0mg"},{"bike_id":"36d2a280-1a4a-4b18-8e89-577bb16b65d1","system_id":"levelo_inurba_marseille","lat":43.29005,"lon":5.35607,"is_reserved":false,"is_disabled":false,"rental_uris":{"android":"levelo://app?vid=36d2a280-1a4a-4b18-8e89-577bb16b65d1","ios":"levelo://app?vid=36d2a280-1a4a-4b18-8e89-577bb16b65d1"},"vehicle_type_id":"4","last_reported":1738764496,"current_range_meters":38400,"station_id":"ce4bhb92rcd13ifvqen0","pricing_plan_id":"cebpf4jnsgd1na2vs0mg"},{"bike_id":"4474def6-45ac-40e3-b9b5-6505df2c0234","system_id":"levelo_inurba_marseille","lat":43.30139,"lon":5.37427,"is_reserved":false,"is_disabled":false,"rental_uris":{"android":"levelo://app?vid=4474def6-45ac-40e3-b9b5-6505df2c0234","ios":"levelo://app?vid=4474def6-45ac-40e3-b9b5-6505df2c0234"},"vehicle_type_id":"4","last_reported":1738764496,"current_range_meters":28000,"station_id":"ce4bgs92rcd13ifvqcc0","pricing_plan_id":"cebpf4jnsgd1na2vs0mg"},{"bike_id":"4f0b7b6e-45cc-4446-9f58-9fbdef60aa9f","system_id":"levelo_inurba_marseille","lat":43.29305,"lon":5.37177,"is_reserved":false,"is_disabled":false,"rental_uris":{"android":"levelo://app?vid=4f0b7b6e-45cc-4446-9f58-9fbdef60aa9f","ios":"levelo://app?vid=4f0b7b6e-45cc-4446-9f58-9fbdef60aa9f"},"vehicle_type_id":"4","last_reported":1738764496,"current_range_meters":27600,"station_id":"ce4bgh92rcd13ifvqb40","pricing_plan_id":"cebpf4jnsgd1na2vs0mg"},{"bike_id":"448a689e-af6c-4f92-9f89-b02f7ed2ec01","system_id":"levelo_inurba_marseille","lat":43.28103,"lon":5.37837,"is_reserved":false,"is_disabled":true,"rental_uris":{"android":"levelo://app?vid=448a689e-af6c-4f92-9f89-b02f7ed2ec01","ios":"levelo://app?vid=448a689e-af6c-4f92-9f89-b02f7ed2ec01"},"vehicle_type_id":"4","last_reported":1738764496,"current_range_meters":11600,"station_id":"ce4bha12rcd13ifvqee0","pricing_plan_id":"cebpf4jnsgd1na2vs0mg"},{"bike_id":"231e4208-9f17-4c2d-af87-9c14978dda33","system_id":"levelo_inurba_marseille","lat":43.26788,"lon":5.39416,"is_reserved":false,"is_disabled":false,"rental_uris":{"android":"levelo://app?vid=231e4208-9f17-4c2d-af87-9c14978dda33","ios":"levelo://app?vid=231e4208-9f17-4c2d-af87-9c14978dda33"},"vehicle_type_id":"4","last_reported":1738764496,"current_range_meters":38800,"station_id":"ce4bhh12rcd13ifvqfg0","pricing_plan_id":"cebpf4jnsgd1na2vs0mg"},{"bike_id":"abd07a97-530b-4fc0-93db-ff4b041bb8b9","system_id":"levelo_inurba_marseille","lat":43.301938,"lon":5.366344,"is_reserved":false,"is_disabled":false,"rental_uris":{"android":"levelo://app?vid=abd07a97-530b-4fc0-93db-ff4b041bb8b9","ios":"levelo://app?vid=abd07a97-530b-4fc0-93db-ff4b041bb8b9"},"vehicle_type_id":"4","last_reported":1738764496,"current_range_meters":30400,"station_id":"ce4bgrh2rcd13ifvqc8g","pricing_plan_id":"cebpf4jnsgd1na2vs0mg"},{"bike_id":"b27075e0-25ab-4dc9-8b9f-6b759c4a3b6e","system_id":"levelo_inurba_marseille","lat":43.30893,"lon":5.39645,"is_reserved":false,"is_disabled":false,"rental_uris":{"android":"levelo://app?vid=b27075e0-25ab-4dc9-8b9f-6b759c4a3b6e","ios":"levelo://app?vid=b27075e0-25ab-4dc9-8b9f-6b759c4a3b6e"},"vehicle_type_id":"4","last_reported":1738764496,"current_range_meters":22800,"station_id":"ce4bh012rcd13ifvqcv0","pricing_plan_id":"cebpf4jnsgd1na2vs0mg"},{"bike_id":"3ed2f346-3cdc-4051-b18a-2a05168e6e32","system_id":"levelo_inurba_marseille","lat":43.3108,"lon":5.40096,"is_reserved":false,"is_disabled":false,"rental_uris":{"android":"levelo://app?vid=3ed2f346-3cdc-4051-b18a-2a05168e6e32","ios":"levelo://app?vid=3ed2f346-3cdc-4051-b18a-2a05168e6e32"},"vehicle_type_id":"4","last_reported":1738764496,"current_range_meters":32800,"station_id":"","pricing_plan_id":"cebpf4jnsgd1na2vs0mg"},{"bike_id":"dd5e94be-393a-4f1d-80d0-a0e49418a3e4","system_id":"levelo_inurba_marseille","lat":43.28946,"lon":5.36631,"is_reserved":false,"is_disabled":false,"rental_uris":{"android":"levelo://app?vid=dd5e94be-393a-4f1d-80d0-a0e49418a3e4","ios":"levelo://app?vid=dd5e94be-393a-4f1d-80d0-a0e49418a3e4"},"vehicle_type_id":"4","last_reported":1738764496,"current_range_meters":25600,"station_id":"ce4bhap2rcd13ifvqek0","pricing_plan_id":"cebpf4jnsgd1na2vs0mg"},{"bike_id":"bc4186b3-1073-492b-ab95-0326a7b12d0e","system_id":"levelo_inurba_marseille","lat":43.28429,"lon":5.34993,"is_reserved":false,"is_disabled":false,"rental_uris":{"android":"levelo://app?vid=bc4186b3-1073-492b-ab95-0326a7b12d0e","ios":"levelo://app?vid=bc4186b3-1073-492b-ab95-0326a7b12d0e"},"vehicle_type_id":"4","last_reported":1738764496,"current_range_meters":36400,"station_id":"ce4bhbh2rcd13ifvqepg","pricing_plan_id":"cebpf4jnsgd1na2vs0mg"},{"bike_id":"250c053a-2ed4-4f30-a613-a41a8404b3b5","system_id":"levelo_inurba_marseille","lat":43.270583,"lon":5.402607,"is_reserved":false,"is_disabled":false,"rental_uris":{"android":"levelo://app?vid=250c053a-2ed4-4f30-a613-a41a8404b3b5","ios":"levelo://app?vid=250c053a-2ed4-4f30-a613-a41a8404b3b5"},"vehicle_type_id":"4","last_reported":1738764496,"current_range_meters":9600,"station_id":"ce4bhk92rcd13ifvqgc0","pricing_plan_id":"cebpf4jnsgd1na2vs0mg"},{"bike_id":"c4833bfc-538d-493b-94d2-ac9ac9cac0a4","system_id":"levelo_inurba_marseille","lat":43.2762,"lon":5.36103,"is_reserved":false,"is_disabled":false,"rental_uris":{"android":"levelo://app?vid=c4833bfc-538d-493b-94d2-ac9ac9cac0a4","ios":"levelo://app?vid=c4833bfc-538d-493b-94d2-ac9ac9cac0a4"},"vehicle_type_id":"4","last_reported":1738764496,"current_range_meters":20800,"station_id":"ce4bgj92rcd13ifvqbe0","pricing_plan_id":"cebpf4jnsgd1na2vs0mg"},{"bike_id":"ca548841-038a-498c-a964-8af9b79f0f47","system_id":"levelo_inurba_marseille","lat":43.28026,"lon":5.36958,"is_reserved":false,"is_disabled":false,"rental_uris":{"android":"levelo://app?vid=ca548841-038a-498c-a964-8af9b79f0f47","ios":"levelo://app?vid=ca548841-038a-498c-a964-8af9b79f0f47"},"vehicle_type_id":"4","last_reported":1738764496,"current_range_meters":38800,"station_id":"ce4bha12rcd13ifvqef0","pricing_plan_id":"cebpf4jnsgd1na2vs0mg"},{"bike_id":"0389b0e3-bb7d-4743-89c2-0175efe92f67","system_id":"levelo_inurba_marseille","lat":43.32482,"lon":5.36569,"is_reserved":false,"is_disabled":false,"rental_uris":{"android":"levelo://app?vid=0389b0e3-bb7d-4743-89c2-0175efe92f67","ios":"levelo://app?vid=0389b0e3-bb7d-4743-89c2-0175efe92f67"},"vehicle_type_id":"4","last_reported":1738764496,"current_range_meters":26800,"station_id":"ce4bhs12rcd13ifvqhvg","pricing_plan_id":"cebpf4jnsgd1na2vs0mg"},{"bike_id":"bf31342a-c121-4400-be6d-fa08e60dd05a","system_id":"levelo_inurba_marseille","lat":43.29849,"lon":5.36288,"is_reserved":false,"is_disabled":false,"rental_uris":{"android":"levelo://app?vid=bf31342a-c121-4400-be6d-fa08e60dd05a","ios":"levelo://app?vid=bf31342a-c121-4400-be6d-fa08e60dd05a"},"vehicle_type_id":"4","last_reported":1738764496,"current_range_meters":34800,"station_id":"ce4bgpp2rcd13ifvqc3g","pricing_plan_id":"cebpf4jnsgd1na2vs0mg"},{"bike_id":"0a287503-4bf2-4506-8970-2887ee5ee9b1","system_id":"levelo_inurba_marseille","lat":43.2792,"lon":5.39577,"is_reserved":false,"is_disabled":true,"rental_uris":{"android":"levelo://app?vid=0a287503-4bf2-4506-8970-2887ee5ee9b1","ios":"levelo://app?vid=0a287503-4bf2-4506-8970-2887ee5ee9b1"},"vehicle_type_id":"4","last_reported":1738764496,"current_range_meters":1200,"station_id":"ce4bhf92rcd13ifvqf40","pricing_plan_id":"cebpf4jnsgd1na2vs0mg"},{"bike_id":"2b52254f-933d-4903-ac07-21eb27a1e798","system_id":"levelo_inurba_marseille","lat":43.27179,"lon":5.41002,"is_reserved":false,"is_disabled":false,"rental_uris":{"android":"levelo://app?vid=2b52254f-933d-4903-ac07-21eb27a1e798","ios":"levelo://app?vid=2b52254f-933d-4903-ac07-21eb27a1e798"},"vehicle_type_id":"4","last_reported":1738764496,"current_range_meters":6000,"station_id":"ce4bhl12rcd13ifvqgf0","pricing_plan_id":"cebpf4jnsgd1na2vs0mg"},{"bike_id":"aba808c0-6bf8-41e9-b669-cc20c5796ce0","system_id":"levelo_inurba_marseille","lat":43.30952,"lon":5.3904,"is_reserved":false,"is_disabled":false,"rental_uris":{"android":"levelo://app?vid=aba808c0-6bf8-41e9-b669-cc20c5796ce0","ios":"levelo://app?vid=aba808c0-6bf8-41e9-b669-cc20c5796ce0"},"vehicle_type_id":"4","last_reported":1738764496,"current_range_meters":3600,"station_id":"ce4bgup2rcd13ifvqco0","pricing_plan_id":"cebpf4jnsgd1na2vs0mg"},{"bike_id":"5446a734-e212-4c3d-97c0-7e16b7a456b9","system_id":"levelo_inurba_marseille","lat":43.23162,"lon":5.43716,"is_reserved":false,"is_disabled":false,"rental_uris":{"android":"levelo://app?vid=5446a734-e212-4c3d-97c0-7e16b7a456b9","ios":"levelo://app?vid=5446a734-e212-4c3d-97c0-7e16b7a456b9"},"vehicle_type_id":"4","last_reported":1738764496,"current_range_meters":22800,"station_id":"ce4bhmp2rcd13ifvqgog","pricing_plan_id":"cebpf4jnsgd1na2vs0mg"},{"bike_id":"d9c9c7a1-08d0-4528-8bf3-54e33152b52c","system_id":"levelo_inurba_marseille","lat":43.32111,"lon":5.3676,"is_reserved":false,"is_disabled":false,"rental_uris":{"android":"levelo://app?vid=d9c9c7a1-08d0-4528-8bf3-54e33152b52c","ios":"levelo://app?vid=d9c9c7a1-08d0-4528-8bf3-54e33152b52c"},"vehicle_type_id":"4","last_reported":1738764496,"current_range_meters":20800,"station_id":"ce4bhrh2rcd13ifvqhug","pricing_plan_id":"cebpf4jnsgd1na2vs0mg"},{"bike_id":"6b0456b4-197e-4b8e-8799-49a6f7895516","system_id":"levelo_inurba_marseille","lat":43.26784,"lon":5.39417,"is_reserved":false,"is_disabled":false,"rental_uris":{"android":"levelo://app?vid=6b0456b4-197e-4b8e-8799-49a6f7895516","ios":"levelo://app?vid=6b0456b4-197e-4b8e-8799-49a6f7895516"},"vehicle_type_id":"4","last_reported":1738764496,"current_range_meters":38000,"station_id":"ce4bhh12rcd13ifvqfg0","pricing_plan_id":"cebpf4jnsgd1na2vs0mg"},{"bike_id":"2551b22b-c2b7-4ff0-a854-ef42bd591a2f","system_id":"levelo_inurba_marseille","lat":43.2315,"lon":5.43713,"is_reserved":false,"is_disabled":true,"rental_uris":{"android":"levelo://app?vid=2551b22b-c2b7-4ff0-a854-ef42bd591a2f","ios":"levelo://app?vid=2551b22b-c2b7-4ff0-a854-ef42bd591a2f"},"vehicle_type_id":"4","last_reported":1738764496,"current_range_meters":400,"station_id":"ce4bhmp2rcd13ifvqgog","pricing_plan_id":"cebpf4jnsgd1na2vs0mg"},{"bike_id":"16b3977d-999c-46bd-b3a6-d77a60254c13","system_id":"levelo_inurba_marseille","lat":43.30136,"lon":5.3743,"is_reserved":false,"is_disabled":false,"rental_uris":{"android":"levelo://app?vid=16b3977d-999c-46bd-b3a6-d77a60254c13","ios":"levelo://app?vid=16b3977d-999c-46bd-b3a6-d77a60254c13"},"vehicle_type_id":"4","last_reported":1738764496,"current_range_meters":27200,"station_id":"ce4bgs92rcd13ifvqcc0","pricing_plan_id":"cebpf4jnsgd1na2vs0mg"},{"bike_id":"e56f7173-ecda-4202-ba3f-0634ea7af8a9","system_id":"levelo_inurba_marseille","lat":43.25591,"lon":5.38252,"is_reserved":false,"is_disabled":false,"rental_uris":{"android":"levelo://app?vid=e56f7173-ecda-4202-ba3f-0634ea7af8a9","ios":"levelo://app?vid=e56f7173-ecda-4202-ba3f-0634ea7af8a9"},"vehicle_type_id":"4","last_reported":1738764496,"current_range_meters":27600,"station_id":"ce4bhih2rcd13ifvqfs0","pricing_plan_id":"cebpf4jnsgd1na2vs0mg"},{"bike_id":"dd5e6c94-baf1-4cd1-b3c4-b8bd5d6df014","system_id":"levelo_inurba_marseille","lat":43.31172,"lon":5.3871,"is_reserved":false,"is_disabled":false,"rental_uris":{"android":"levelo://app?vid=dd5e6c94-baf1-4cd1-b3c4-b8bd5d6df014","ios":"levelo://app?vid=dd5e6c94-baf1-4cd1-b3c4-b8bd5d6df014"},"vehicle_type_id":"4","last_reported":1738764496,"current_range_meters":24000,"station_id":"ce4bgv12rcd13ifvqcp0","pricing_plan_id":"cebpf4jnsgd1na2vs0mg"},{"bike_id":"cbc65456-707b-4ddd-b341-f003b676778a","system_id":"levelo_inurba_marseille","lat":43.27808,"lon":5.40715,"is_reserved":false,"is_disabled":false,"rental_uris":{"android":"levelo://app?vid=cbc65456-707b-4ddd-b341-f003b676778a","ios":"levelo://app?vid=cbc65456-707b-4ddd-b341-f003b676778a"},"vehicle_type_id":"4","last_reported":1738764496,"current_range_meters":30000,"station_id":"ce4bhnh2rcd13ifvqgtg","pricing_plan_id":"cebpf4jnsgd1na2vs0mg"},{"bike_id":"d3f2b122-81e7-42cc-8556-e43c3df0ec46","system_id":"levelo_inurba_marseille","lat":43.299443,"lon":5.379098,"is_reserved":false,"is_disabled":false,"rental_uris":{"android":"levelo://app?vid=d3f2b122-81e7-42cc-8556-e43c3df0ec46","ios":"levelo://app?vid=d3f2b122-81e7-42cc-8556-e43c3df0ec46"},"vehicle_type_id":"4","last_reported":1738764496,"current_range_meters":8000,"station_id":"ce4bgjh2rcd13ifvqbg0","pricing_plan_id":"cebpf4jnsgd1na2vs0mg"},{"bike_id":"afb24665-29eb-4b84-b727-dcf974a337f4","system_id":"levelo_inurba_marseille","lat":43.29232,"lon":5.360577,"is_reserved":false,"is_disabled":false,"rental_uris":{"android":"levelo://app?vid=afb24665-29eb-4b84-b727-dcf974a337f4","ios":"levelo://app?vid=afb24665-29eb-4b84-b727-dcf974a337f4"},"vehicle_type_id":"4","last_reported":1738764496,"current_range_meters":38800,"station_id":"ce4bhbh2rcd13ifvqeqg","pricing_plan_id":"cebpf4jnsgd1na2vs0mg"},{"bike_id":"a6f18090-f8be-4205-85e2-675209b0cbe3","system_id":"levelo_inurba_marseille","lat":43.26201,"lon":5.37455,"is_reserved":false,"is_disabled":false,"rental_uris":{"android":"levelo://app?vid=a6f18090-f8be-4205-85e2-675209b0cbe3","ios":"levelo://app?vid=a6f18090-f8be-4205-85e2-675209b0cbe3"},"vehicle_type_id":"4","last_reported":1738764496,"current_range_meters":14400,"station_id":"ce4bhgp2rcd13ifvqfc0","pricing_plan_id":"cebpf4jnsgd1na2vs0mg"},{"bike_id":"5040f4fa-1b4f-42ab-b661-0aa874634229","system_id":"levelo_inurba_marseille","lat":43.31558,"lon":5.37315,"is_reserved":false,"is_disabled":false,"rental_uris":{"android":"levelo://app?vid=5040f4fa-1b4f-42ab-b661-0aa874634229","ios":"levelo://app?vid=5040f4fa-1b4f-42ab-b661-0aa874634229"},"vehicle_type_id":"4","last_reported":1738764496,"current_range_meters":37600,"station_id":"","pricing_plan_id":"cebpf4jnsgd1na2vs0mg"},{"bike_id":"8dcb5648-f815-40ee-a1ef-63cb7b60c563","system_id":"levelo_inurba_marseille","lat":43.31999,"lon":5.38138,"is_reserved":false,"is_disabled":false,"rental_uris":{"android":"levelo://app?vid=8dcb5648-f815-40ee-a1ef-63cb7b60c563","ios":"levelo://app?vid=8dcb5648-f815-40ee-a1ef-63cb7b60c563"},"vehicle_type_id":"4","last_reported":1738764496,"current_range_meters":32800,"station_id":"ce4bhr12rcd13ifvqhpg","pricing_plan_id":"cebpf4jnsgd1na2vs0mg"},{"bike_id":"cc3a1022-8022-4e81-8805-01eec82b155f","system_id":"levelo_inurba_marseille","lat":43.30596,"lon":5.39362,"is_reserved":false,"is_disabled":false,"rental_uris":{"android":"levelo://app?vid=cc3a1022-8022-4e81-8805-01eec82b155f","ios":"levelo://app?vid=cc3a1022-8022-4e81-8805-01eec82b155f"},"vehicle_type_id":"4","last_reported":1738764496,"current_range_meters":30400,"station_id":"ce4bh0p2rcd13ifvqd80","pricing_plan_id":"cebpf4jnsgd1na2vs0mg"},{"bike_id":"a9ee38d0-21e8-4d99-8e3f-cc643e32473e","system_id":"levelo_inurba_marseille","lat":43.27818,"lon":5.40724,"is_reserved":false,"is_disabled":false,"rental_uris":{"android":"levelo://app?vid=a9ee38d0-21e8-4d99-8e3f-cc643e32473e","ios":"levelo://app?vid=a9ee38d0-21e8-4d99-8e3f-cc643e32473e"},"vehicle_type_id":"4","last_reported":1738764496,"current_range_meters":38000,"station_id":"ce4bhnh2rcd13ifvqgtg","pricing_plan_id":"cebpf4jnsgd1na2vs0mg"},{"bike_id":"434bfbd5-da5e-4244-9828-ea3ac5f3e3d5","system_id":"levelo_inurba_marseille","lat":43.27823,"lon":5.40711,"is_reserved":false,"is_disabled":false,"rental_uris":{"android":"levelo://app?vid=434bfbd5-da5e-4244-9828-ea3ac5f3e3d5","ios":"levelo://app?vid=434bfbd5-da5e-4244-9828-ea3ac5f3e3d5"},"vehicle_type_id":"4","last_reported":1738764496,"current_range_meters":33600,"station_id":"ce4bhnh2rcd13ifvqgtg","pricing_plan_id":"cebpf4jnsgd1na2vs0mg"},{"bike_id":"630dd466-e4dd-4ada-8a39-01e92abf0818","system_id":"levelo_inurba_marseille","lat":43.26204,"lon":5.37448,"is_reserved":false,"is_disabled":false,"rental_uris":{"android":"levelo://app?vid=630dd466-e4dd-4ada-8a39-01e92abf0818","ios":"levelo://app?vid=630dd466-e4dd-4ada-8a39-01e92abf0818"},"vehicle_type_id":"4","last_reported":1738764496,"current_range_meters":28800,"station_id":"ce4bhgp2rcd13ifvqfc0","pricing_plan_id":"cebpf4jnsgd1na2vs0mg"},{"bike_id":"e37e1af4-63f1-41cb-b98b-7f3af69a9d46","system_id":"levelo_inurba_marseille","lat":43.27371,"lon":5.36258,"is_reserved":false,"is_disabled":false,"rental_uris":{"android":"levelo://app?vid=e37e1af4-63f1-41cb-b98b-7f3af69a9d46","ios":"levelo://app?vid=e37e1af4-63f1-41cb-b98b-7f3af69a9d46"},"vehicle_type_id":"4","last_reported":1738764496,"current_range_meters":36400,"station_id":"ce4bhbh2rcd13ifvqeo0","pricing_plan_id":"cebpf4jnsgd1na2vs0mg"},{"bike_id":"0e303f97-1b42-446e-890b-0e7e51fdb449","system_id":"levelo_inurba_marseille","lat":43.29006,"lon":5.35604,"is_reserved":false,"is_disabled":false,"rental_uris":{"android":"levelo://app?vid=0e303f97-1b42-446e-890b-0e7e51fdb449","ios":"levelo://app?vid=0e303f97-1b42-446e-890b-0e7e51fdb449"},"vehicle_type_id":"4","last_reported":1738764496,"current_range_meters":10800,"station_id":"ce4bhb92rcd13ifvqen0","pricing_plan_id":"cebpf4jnsgd1na2vs0mg"},{"bike_id":"3d1d38d7-e37e-41a9-9885-0f5e96cdb53e","system_id":"levelo_inurba_marseille","lat":43.28455,"lon":5.35887,"is_reserved":false,"is_disabled":false,"rental_uris":{"android":"levelo://app?vid=3d1d38d7-e37e-41a9-9885-0f5e96cdb53e","ios":"levelo://app?vid=3d1d38d7-e37e-41a9-9885-0f5e96cdb53e"},"vehicle_type_id":"4","last_reported":1738764496,"current_range_meters":16400,"station_id":"ce4bhah2rcd13ifvqei0","pricing_plan_id":"cebpf4jnsgd1na2vs0mg"},{"bike_id":"41ad3d36-51d8-4204-ae3d-d7c8884b6fab","system_id":"levelo_inurba_marseille","lat":43.255818,"lon":5.382259,"is_reserved":false,"is_disabled":false,"rental_uris":{"android":"levelo://app?vid=41ad3d36-51d8-4204-ae3d-d7c8884b6fab","ios":"levelo://app?vid=41ad3d36-51d8-4204-ae3d-d7c8884b6fab"},"vehicle_type_id":"4","last_reported":1738764496,"current_range_meters":36400,"station_id":"ce4bhih2rcd13ifvqfs0","pricing_plan_id":"cebpf4jnsgd1na2vs0mg"},{"bike_id":"56bee80f-0f0b-4680-a20c-0e004b2a101c","system_id":"levelo_inurba_marseille","lat":43.30427,"lon":5.39745,"is_reserved":false,"is_disabled":false,"rental_uris":{"android":"levelo://app?vid=56bee80f-0f0b-4680-a20c-0e004b2a101c","ios":"levelo://app?vid=56bee80f-0f0b-4680-a20c-0e004b2a101c"},"vehicle_type_id":"4","last_reported":1738764496,"current_range_meters":30000,"station_id":"ce4bh092rcd13ifvqd20","pricing_plan_id":"cebpf4jnsgd1na2vs0mg"},{"bike_id":"a2ba7768-e6f8-4ccb-9b3a-ceb62a2b692a","system_id":"levelo_inurba_marseille","lat":43.286127,"lon":5.35081,"is_reserved":false,"is_disabled":false,"rental_uris":{"android":"levelo://app?vid=a2ba7768-e6f8-4ccb-9b3a-ceb62a2b692a","ios":"levelo://app?vid=a2ba7768-e6f8-4ccb-9b3a-ceb62a2b692a"},"vehicle_type_id":"4","last_reported":1738764496,"current_range_meters":38400,"station_id":"ce4bhch2rcd13ifvqeug","pricing_plan_id":"cebpf4jnsgd1na2vs0mg"},{"bike_id":"f5f7de4f-8ec1-4848-8148-ce4622da738f","system_id":"levelo_inurba_marseille","lat":43.28885,"lon":5.39825,"is_reserved":false,"is_disabled":true,"rental_uris":{"android":"levelo://app?vid=f5f7de4f-8ec1-4848-8148-ce4622da738f","ios":"levelo://app?vid=f5f7de4f-8ec1-4848-8148-ce4622da738f"},"vehicle_type_id":"4","last_reported":1738764496,"current_range_meters":0,"station_id":"","pricing_plan_id":"cebpf4jnsgd1na2vs0mg"},{"bike_id":"9a8590c5-e934-4c10-a796-7e187c1e4a7c","system_id":"levelo_inurba_marseille","lat":43.32047,"lon":5.41557,"is_reserved":false,"is_disabled":false,"rental_uris":{"android":"levelo://app?vid=9a8590c5-e934-4c10-a796-7e187c1e4a7c","ios":"levelo://app?vid=9a8590c5-e934-4c10-a796-7e187c1e4a7c"},"vehicle_type_id":"4","last_reported":1738764496,"current_range_meters":32000,"station_id":"ce4bhq92rcd13ifvqhkg","pricing_plan_id":"cebpf4jnsgd1na2vs0mg"},{"bike_id":"d9a60c91-dff2-440d-8b10-c7b78047f228","system_id":"levelo_inurba_marseille","lat":43.27309,"lon":5.39089,"is_reserved":false,"is_disabled":false,"rental_uris":{"android":"levelo://app?vid=d9a60c91-dff2-440d-8b10-c7b78047f228","ios":"levelo://app?vid=d9a60c91-dff2-440d-8b10-c7b78047f228"},"vehicle_type_id":"4","last_reported":1738764496,"current_range_meters":38800,"station_id":"ce4bhgp2rcd13ifvqfe0","pricing_plan_id":"cebpf4jnsgd1na2vs0mg"},{"bike_id":"e7d31327-323a-443c-bb67-39186722e63f","system_id":"levelo_inurba_marseille","lat":43.3376,"lon":5.37442,"is_reserved":false,"is_disabled":false,"rental_uris":{"android":"levelo://app?vid=e7d31327-323a-443c-bb67-39186722e63f","ios":"levelo://app?vid=e7d31327-323a-443c-bb67-39186722e63f"},"vehicle_type_id":"4","last_reported":1738764496,"current_range_meters":18800,"station_id":"","pricing_plan_id":"cebpf4jnsgd1na2vs0mg"},{"bike_id":"313356ad-de6e-424e-b541-6d7ee5f5ff12","system_id":"levelo_inurba_marseille","lat":43.29613,"lon":5.37719,"is_reserved":false,"is_disabled":false,"rental_uris":{"android":"levelo://app?vid=313356ad-de6e-424e-b541-6d7ee5f5ff12","ios":"levelo://app?vid=313356ad-de6e-424e-b541-6d7ee5f5ff12"},"vehicle_type_id":"4","last_reported":1738764496,"current_range_meters":13600,"station_id":"ce4bgi92rcd13ifvqb90","pricing_plan_id":"cebpf4jnsgd1na2vs0mg"},{"bike_id":"0d5d035d-696f-4112-ac1d-0a4ce8008f7d","system_id":"levelo_inurba_marseille","lat":43.29517,"lon":5.37507,"is_reserved":false,"is_disabled":false,"rental_uris":{"android":"levelo://app?vid=0d5d035d-696f-4112-ac1d-0a4ce8008f7d","ios":"levelo://app?vid=0d5d035d-696f-4112-ac1d-0a4ce8008f7d"},"vehicle_type_id":"4","last_reported":1738764496,"current_range_meters":8000,"station_id":"ce4bgkp2rcd13ifvqbmg","pricing_plan_id":"cebpf4jnsgd1na2vs0mg"},{"bike_id":"c41649a5-d0ff-487b-89a2-264c796df170","system_id":"levelo_inurba_marseille","lat":43.27944,"lon":5.41049,"is_reserved":false,"is_disabled":false,"rental_uris":{"android":"levelo://app?vid=c41649a5-d0ff-487b-89a2-264c796df170","ios":"levelo://app?vid=c41649a5-d0ff-487b-89a2-264c796df170"},"vehicle_type_id":"4","last_reported":1738764496,"current_range_meters":8400,"station_id":"ce4bhnp2rcd13ifvqh0g","pricing_plan_id":"cebpf4jnsgd1na2vs0mg"},{"bike_id":"47c749f4-b66c-4b74-a135-d243c7a5b89d","system_id":"levelo_inurba_marseille","lat":43.25715,"lon":5.41111,"is_reserved":false,"is_disabled":false,"rental_uris":{"android":"levelo://app?vid=47c749f4-b66c-4b74-a135-d243c7a5b89d","ios":"levelo://app?vid=47c749f4-b66c-4b74-a135-d243c7a5b89d"},"vehicle_type_id":"4","last_reported":1738764496,"current_range_meters":28000,"station_id":"ce4bhkp2rcd13ifvqgd0","pricing_plan_id":"cebpf4jnsgd1na2vs0mg"},{"bike_id":"ee69606c-4c97-488d-8e98-0dc265462512","system_id":"levelo_inurba_marseille","lat":43.28671,"lon":5.38664,"is_reserved":false,"is_disabled":false,"rental_uris":{"android":"levelo://app?vid=ee69606c-4c97-488d-8e98-0dc265462512","ios":"levelo://app?vid=ee69606c-4c97-488d-8e98-0dc265462512"},"vehicle_type_id":"4","last_reported":1738764496,"current_range_meters":39200,"station_id":"ce4bh492rcd13ifvqdug","pricing_plan_id":"cebpf4jnsgd1na2vs0mg"},{"bike_id":"3efe8277-1036-4dc9-b4bd-8f3709d85170","system_id":"levelo_inurba_marseille","lat":43.28934,"lon":5.3962,"is_reserved":false,"is_disabled":false,"rental_uris":{"android":"levelo://app?vid=3efe8277-1036-4dc9-b4bd-8f3709d85170","ios":"levelo://app?vid=3efe8277-1036-4dc9-b4bd-8f3709d85170"},"vehicle_type_id":"4","last_reported":1738764496,"current_range_meters":24400,"station_id":"ce4bh3h2rcd13ifvqdn0","pricing_plan_id":"cebpf4jnsgd1na2vs0mg"},{"bike_id":"cd07e062-2af1-406e-bcb9-5f1ec4730937","system_id":"levelo_inurba_marseille","lat":43.23067,"lon":5.35491,"is_reserved":false,"is_disabled":false,"rental_uris":{"android":"levelo://app?vid=cd07e062-2af1-406e-bcb9-5f1ec4730937","ios":"levelo://app?vid=cd07e062-2af1-406e-bcb9-5f1ec4730937"},"vehicle_type_id":"4","last_reported":1738764496,"current_range_meters":38800,"station_id":"cpo3342slgdg3j2ifvpg","pricing_plan_id":"cebpf4jnsgd1na2vs0mg"},{"bike_id":"c3644d12-8427-4602-9945-9ef42c46feca","system_id":"levelo_inurba_marseille","lat":43.24159,"lon":5.36422,"is_reserved":false,"is_disabled":false,"rental_uris":{"android":"levelo://app?vid=c3644d12-8427-4602-9945-9ef42c46feca","ios":"levelo://app?vid=c3644d12-8427-4602-9945-9ef42c46feca"},"vehicle_type_id":"4","last_reported":1738764496,"current_range_meters":38800,"station_id":"cpo36qri1sfpv3e86is0","pricing_plan_id":"cebpf4jnsgd1na2vs0mg"},{"bike_id":"6b38d43d-337c-4149-9167-ccfdd61c33a4","system_id":"levelo_inurba_marseille","lat":43.29246,"lon":5.36073,"is_reserved":false,"is_disabled":false,"rental_uris":{"android":"levelo://app?vid=6b38d43d-337c-4149-9167-ccfdd61c33a4","ios":"levelo://app?vid=6b38d43d-337c-4149-9167-ccfdd61c33a4"},"vehicle_type_id":"4","last_reported":1738764496,"current_range_meters":36400,"station_id":"ce4bhbh2rcd13ifvqeqg","pricing_plan_id":"cebpf4jnsgd1na2vs0mg"},{"bike_id":"904411af-cfae-4f02-b747-7f5d0fd09ff6","system_id":"levelo_inurba_marseille","lat":43.28397,"lon":5.37499,"is_reserved":false,"is_disabled":false,"rental_uris":{"android":"levelo://app?vid=904411af-cfae-4f02-b747-7f5d0fd09ff6","ios":"levelo://app?vid=904411af-cfae-4f02-b747-7f5d0fd09ff6"},"vehicle_type_id":"4","last_reported":1738764496,"current_range_meters":38800,"station_id":"ce4bh412rcd13ifvqds0","pricing_plan_id":"cebpf4jnsgd1na2vs0mg"},{"bike_id":"1e7bde43-ab8f-4755-b59a-acd0a53ae759","system_id":"levelo_inurba_marseille","lat":43.3172,"lon":5.42393,"is_reserved":false,"is_disabled":true,"rental_uris":{"android":"levelo://app?vid=1e7bde43-ab8f-4755-b59a-acd0a53ae759","ios":"levelo://app?vid=1e7bde43-ab8f-4755-b59a-acd0a53ae759"},"vehicle_type_id":"4","last_reported":1738764496,"current_range_meters":0,"station_id":"ce4bhp92rcd13ifvqhbg","pricing_plan_id":"cebpf4jnsgd1na2vs0mg"},{"bike_id":"86b83a1c-0276-4b3c-96f7-2f2f04cecaf3","system_id":"levelo_inurba_marseille","lat":43.33021,"lon":5.39035,"is_reserved":false,"is_disabled":false,"rental_uris":{"android":"levelo://app?vid=86b83a1c-0276-4b3c-96f7-2f2f04cecaf3","ios":"levelo://app?vid=86b83a1c-0276-4b3c-96f7-2f2f04cecaf3"},"vehicle_type_id":"4","last_reported":1738764496,"current_range_meters":38000,"station_id":"ce4bhr92rcd13ifvqhrg","pricing_plan_id":"cebpf4jnsgd1na2vs0mg"},{"bike_id":"f4c0a85d-47a3-45b1-988e-e3c4d19c1b5a","system_id":"levelo_inurba_marseille","lat":43.30907,"lon":5.36859,"is_reserved":false,"is_disabled":false,"rental_uris":{"android":"levelo://app?vid=f4c0a85d-47a3-45b1-988e-e3c4d19c1b5a","ios":"levelo://app?vid=f4c0a85d-47a3-45b1-988e-e3c4d19c1b5a"},"vehicle_type_id":"4","last_reported":1738764496,"current_range_meters":38800,"station_id":"ce4bgn92rcd13ifvqbvg","pricing_plan_id":"cebpf4jnsgd1na2vs0mg"},{"bike_id":"7f4fffa5-6d52-4079-b98c-45dc4e6df6c0","system_id":"levelo_inurba_marseille","lat":43.297,"lon":5.36592,"is_reserved":false,"is_disabled":true,"rental_uris":{"android":"levelo://app?vid=7f4fffa5-6d52-4079-b98c-45dc4e6df6c0","ios":"levelo://app?vid=7f4fffa5-6d52-4079-b98c-45dc4e6df6c0"},"vehicle_type_id":"4","last_reported":1738764496,"current_range_meters":1600,"station_id":"ce4bgn12rcd13ifvqbt0","pricing_plan_id":"cebpf4jnsgd1na2vs0mg"},{"bike_id":"9bb6799c-49cb-49e9-8796-96f8a5d985e4","system_id":"levelo_inurba_marseille","lat":43.30903,"lon":5.36846,"is_reserved":false,"is_disabled":false,"rental_uris":{"android":"levelo://app?vid=9bb6799c-49cb-49e9-8796-96f8a5d985e4","ios":"levelo://app?vid=9bb6799c-49cb-49e9-8796-96f8a5d985e4"},"vehicle_type_id":"4","last_reported":1738764496,"current_range_meters":16800,"station_id":"ce4bgn92rcd13ifvqbvg","pricing_plan_id":"cebpf4jnsgd1na2vs0mg"},{"bike_id":"366699a6-df06-42ed-baf0-fee0b43104f1","system_id":"levelo_inurba_marseille","lat":43.24807,"lon":5.3746,"is_reserved":false,"is_disabled":false,"rental_uris":{"android":"levelo://app?vid=366699a6-df06-42ed-baf0-fee0b43104f1","ios":"levelo://app?vid=366699a6-df06-42ed-baf0-fee0b43104f1"},"vehicle_type_id":"4","last_reported":1738764496,"current_range_meters":34800,"station_id":"ce4bhgh2rcd13ifvqfb0","pricing_plan_id":"cebpf4jnsgd1na2vs0mg"},{"bike_id":"2b3e0b2f-1ad9-4d26-8bd5-829194d966a0","system_id":"levelo_inurba_marseille","lat":43.28419,"lon":5.34978,"is_reserved":false,"is_disabled":false,"rental_uris":{"android":"levelo://app?vid=2b3e0b2f-1ad9-4d26-8bd5-829194d966a0","ios":"levelo://app?vid=2b3e0b2f-1ad9-4d26-8bd5-829194d966a0"},"vehicle_type_id":"4","last_reported":1738764496,"current_range_meters":16400,"station_id":"ce4bhbh2rcd13ifvqepg","pricing_plan_id":"cebpf4jnsgd1na2vs0mg"},{"bike_id":"45a7daa2-2a2e-4454-90c3-1009aaecc5bd","system_id":"levelo_inurba_marseille","lat":43.23208,"lon":5.35547,"is_reserved":false,"is_disabled":true,"rental_uris":{"android":"levelo://app?vid=45a7daa2-2a2e-4454-90c3-1009aaecc5bd","ios":"levelo://app?vid=45a7daa2-2a2e-4454-90c3-1009aaecc5bd"},"vehicle_type_id":"4","last_reported":1738764496,"current_range_meters":2000,"station_id":"ce4bhu92rcd13ifvqi70","pricing_plan_id":"cebpf4jnsgd1na2vs0mg"},{"bike_id":"c1ce2ab3-4cdf-4410-9996-9243b9f5cbbe","system_id":"levelo_inurba_marseille","lat":43.28403,"lon":5.37507,"is_reserved":false,"is_disabled":false,"rental_uris":{"android":"levelo://app?vid=c1ce2ab3-4cdf-4410-9996-9243b9f5cbbe","ios":"levelo://app?vid=c1ce2ab3-4cdf-4410-9996-9243b9f5cbbe"},"vehicle_type_id":"4","last_reported":1738764496,"current_range_meters":38800,"station_id":"ce4bh412rcd13ifvqds0","pricing_plan_id":"cebpf4jnsgd1na2vs0mg"},{"bike_id":"aece1634-918f-4f68-8bc7-9a7b7abafc1f","system_id":"levelo_inurba_marseille","lat":43.28157,"lon":5.42634,"is_reserved":false,"is_disabled":true,"rental_uris":{"android":"levelo://app?vid=aece1634-918f-4f68-8bc7-9a7b7abafc1f","ios":"levelo://app?vid=aece1634-918f-4f68-8bc7-9a7b7abafc1f"},"vehicle_type_id":"4","last_reported":1738764496,"current_range_meters":30000,"station_id":"ce4bhnh2rcd13ifvqgug","pricing_plan_id":"cebpf4jnsgd1na2vs0mg"},{"bike_id":"c06f99e6-43d4-44a7-8951-7c8d2c47ddf8","system_id":"levelo_inurba_marseille","lat":43.30742,"lon":5.37182,"is_reserved":false,"is_disabled":false,"rental_uris":{"android":"levelo://app?vid=c06f99e6-43d4-44a7-8951-7c8d2c47ddf8","ios":"levelo://app?vid=c06f99e6-43d4-44a7-8951-7c8d2c47ddf8"},"vehicle_type_id":"4","last_reported":1738764496,"current_range_meters":30000,"station_id":"","pricing_plan_id":"cebpf4jnsgd1na2vs0mg"},{"bike_id":"f8a541f0-e4a8-4639-8d63-84a9a76b70b4","system_id":"levelo_inurba_marseille","lat":43.30298,"lon":5.37697,"is_reserved":false,"is_disabled":false,"rental_uris":{"android":"levelo://app?vid=f8a541f0-e4a8-4639-8d63-84a9a76b70b4","ios":"levelo://app?vid=f8a541f0-e4a8-4639-8d63-84a9a76b70b4"},"vehicle_type_id":"4","last_reported":1738764496,"current_range_meters":37600,"station_id":"ce4bguh2rcd13ifvqcj0","pricing_plan_id":"cebpf4jnsgd1na2vs0mg"},{"bike_id":"3b1d5f28-8e2f-4cd2-84ee-32e60c8bc1d4","system_id":"levelo_inurba_marseille","lat":43.27929,"lon":5.38684,"is_reserved":false,"is_disabled":true,"rental_uris":{"android":"levelo://app?vid=3b1d5f28-8e2f-4cd2-84ee-32e60c8bc1d4","ios":"levelo://app?vid=3b1d5f28-8e2f-4cd2-84ee-32e60c8bc1d4"},"vehicle_type_id":"4","last_reported":1738764496,"current_range_meters":0,"station_id":"","pricing_plan_id":"cebpf4jnsgd1na2vs0mg"},{"bike_id":"a21453e1-7dd1-439a-9411-5be2637f52a4","system_id":"levelo_inurba_marseille","lat":43.29779,"lon":5.38108,"is_reserved":false,"is_disabled":true,"rental_uris":{"android":"levelo://app?vid=a21453e1-7dd1-439a-9411-5be2637f52a4","ios":"levelo://app?vid=a21453e1-7dd1-439a-9411-5be2637f52a4"},"vehicle_type_id":"4","last_reported":1738764496,"current_range_meters":0,"station_id":"ce4bgip2rcd13ifvqbb0","pricing_plan_id":"cebpf4jnsgd1na2vs0mg"},{"bike_id":"34d19285-9f44-44ca-8e9d-5437fff98456","system_id":"levelo_inurba_marseille","lat":43.30901,"lon":5.36849,"is_reserved":false,"is_disabled":false,"rental_uris":{"android":"levelo://app?vid=34d19285-9f44-44ca-8e9d-5437fff98456","ios":"levelo://app?vid=34d19285-9f44-44ca-8e9d-5437fff98456"},"vehicle_type_id":"4","last_reported":1738764496,"current_range_meters":27600,"station_id":"ce4bgn92rcd13ifvqbvg","pricing_plan_id":"cebpf4jnsgd1na2vs0mg"},{"bike_id":"7941e5b7-52aa-44cc-811c-2c9582906bd0","system_id":"levelo_inurba_marseille","lat":43.31089,"lon":5.42426,"is_reserved":false,"is_disabled":false,"rental_uris":{"android":"levelo://app?vid=7941e5b7-52aa-44cc-811c-2c9582906bd0","ios":"levelo://app?vid=7941e5b7-52aa-44cc-811c-2c9582906bd0"},"vehicle_type_id":"4","last_reported":1738764496,"current_range_meters":14000,"station_id":"ce4bhp92rcd13ifvqhag","pricing_plan_id":"cebpf4jnsgd1na2vs0mg"},{"bike_id":"9d71d304-2002-4ef9-bd23-de48bc17ac77","system_id":"levelo_inurba_marseille","lat":43.2408,"lon":5.37753,"is_reserved":false,"is_disabled":true,"rental_uris":{"android":"levelo://app?vid=9d71d304-2002-4ef9-bd23-de48bc17ac77","ios":"levelo://app?vid=9d71d304-2002-4ef9-bd23-de48bc17ac77"},"vehicle_type_id":"4","last_reported":1738764496,"current_range_meters":1600,"station_id":"ce4bhnp2rcd13ifvqgvg","pricing_plan_id":"cebpf4jnsgd1na2vs0mg"},{"bike_id":"deff4ff7-d65e-4e68-a115-5bf348678bd9","system_id":"levelo_inurba_marseille","lat":43.30264,"lon":5.40081,"is_reserved":false,"is_disabled":false,"rental_uris":{"android":"levelo://app?vid=deff4ff7-d65e-4e68-a115-5bf348678bd9","ios":"levelo://app?vid=deff4ff7-d65e-4e68-a115-5bf348678bd9"},"vehicle_type_id":"4","last_reported":1738764496,"current_range_meters":9600,"station_id":"ce4bgvh2rcd13ifvqcs0","pricing_plan_id":"cebpf4jnsgd1na2vs0mg"},{"bike_id":"e5605f29-13de-4f75-9540-ab1bc679e547","system_id":"levelo_inurba_marseille","lat":43.29579,"lon":5.36736,"is_reserved":false,"is_disabled":false,"rental_uris":{"android":"levelo://app?vid=e5605f29-13de-4f75-9540-ab1bc679e547","ios":"levelo://app?vid=e5605f29-13de-4f75-9540-ab1bc679e547"},"vehicle_type_id":"4","last_reported":1738764496,"current_range_meters":22400,"station_id":"ce4bgph2rcd13ifvqc2g","pricing_plan_id":"cebpf4jnsgd1na2vs0mg"},{"bike_id":"85d197af-7492-45d8-a8f0-3b3d28b89974","system_id":"levelo_inurba_marseille","lat":43.29201,"lon":5.35816,"is_reserved":false,"is_disabled":false,"rental_uris":{"android":"levelo://app?vid=85d197af-7492-45d8-a8f0-3b3d28b89974","ios":"levelo://app?vid=85d197af-7492-45d8-a8f0-3b3d28b89974"},"vehicle_type_id":"4","last_reported":1738764496,"current_range_meters":22400,"station_id":"ce4bhb12rcd13ifvqel0","pricing_plan_id":"cebpf4jnsgd1na2vs0mg"},{"bike_id":"8dbe8a6e-72e2-42be-91e2-483b6f8206f0","system_id":"levelo_inurba_marseille","lat":43.25915,"lon":5.40854,"is_reserved":false,"is_disabled":false,"rental_uris":{"android":"levelo://app?vid=8dbe8a6e-72e2-42be-91e2-483b6f8206f0","ios":"levelo://app?vid=8dbe8a6e-72e2-42be-91e2-483b6f8206f0"},"vehicle_type_id":"4","last_reported":1738764496,"current_range_meters":25200,"station_id":"ce4bhm92rcd13ifvqglg","pricing_plan_id":"cebpf4jnsgd1na2vs0mg"},{"bike_id":"e7bcffbf-9bc5-436f-a200-37ad1492bc3d","system_id":"levelo_inurba_marseille","lat":43.31117,"lon":5.37753,"is_reserved":false,"is_disabled":false,"rental_uris":{"android":"levelo://app?vid=e7bcffbf-9bc5-436f-a200-37ad1492bc3d","ios":"levelo://app?vid=e7bcffbf-9bc5-436f-a200-37ad1492bc3d"},"vehicle_type_id":"4","last_reported":1738764496,"current_range_meters":17200,"station_id":"ce4bgt92rcd13ifvqcg0","pricing_plan_id":"cebpf4jnsgd1na2vs0mg"},{"bike_id":"853c5528-321f-4078-9263-1a387120e184","system_id":"levelo_inurba_marseille","lat":43.28609,"lon":5.37053,"is_reserved":false,"is_disabled":false,"rental_uris":{"android":"levelo://app?vid=853c5528-321f-4078-9263-1a387120e184","ios":"levelo://app?vid=853c5528-321f-4078-9263-1a387120e184"},"vehicle_type_id":"4","last_reported":1738764496,"current_range_meters":37600,"station_id":"ce4bht12rcd13ifvqi60","pricing_plan_id":"cebpf4jnsgd1na2vs0mg"},{"bike_id":"fb128a81-f202-4efc-b63b-ec8421c89af0","system_id":"levelo_inurba_marseille","lat":43.32069,"lon":5.41559,"is_reserved":false,"is_disabled":false,"rental_uris":{"android":"levelo://app?vid=fb128a81-f202-4efc-b63b-ec8421c89af0","ios":"levelo://app?vid=fb128a81-f202-4efc-b63b-ec8421c89af0"},"vehicle_type_id":"4","last_reported":1738764496,"current_range_meters":21600,"station_id":"ce4bhq92rcd13ifvqhkg","pricing_plan_id":"cebpf4jnsgd1na2vs0mg"},{"bike_id":"2118c82d-0143-415d-aaf1-22408e5c55b9","system_id":"levelo_inurba_marseille","lat":43.28433,"lon":5.39193,"is_reserved":false,"is_disabled":false,"rental_uris":{"android":"levelo://app?vid=2118c82d-0143-415d-aaf1-22408e5c55b9","ios":"levelo://app?vid=2118c82d-0143-415d-aaf1-22408e5c55b9"},"vehicle_type_id":"4","last_reported":1738764496,"current_range_meters":38000,"station_id":"ce4bhoh2rcd13ifvqh5g","pricing_plan_id":"cebpf4jnsgd1na2vs0mg"},{"bike_id":"0a1d80a5-8567-473e-862c-e2d2e710157a","system_id":"levelo_inurba_marseille","lat":43.28432,"lon":5.34992,"is_reserved":false,"is_disabled":false,"rental_uris":{"android":"levelo://app?vid=0a1d80a5-8567-473e-862c-e2d2e710157a","ios":"levelo://app?vid=0a1d80a5-8567-473e-862c-e2d2e710157a"},"vehicle_type_id":"4","last_reported":1738764496,"current_range_meters":34000,"station_id":"ce4bhbh2rcd13ifvqepg","pricing_plan_id":"cebpf4jnsgd1na2vs0mg"},{"bike_id":"543d3164-3dee-4498-aa39-94d39e5fa300","system_id":"levelo_inurba_marseille","lat":43.29293,"lon":5.40117,"is_reserved":false,"is_disabled":false,"rental_uris":{"android":"levelo://app?vid=543d3164-3dee-4498-aa39-94d39e5fa300","ios":"levelo://app?vid=543d3164-3dee-4498-aa39-94d39e5fa300"},"vehicle_type_id":"4","last_reported":1738764496,"current_range_meters":32800,"station_id":"ce4bh312rcd13ifvqdk0","pricing_plan_id":"cebpf4jnsgd1na2vs0mg"},{"bike_id":"5d5edabb-2a30-49bd-af83-a8b14161fe2e","system_id":"levelo_inurba_marseille","lat":43.29932,"lon":5.36553,"is_reserved":false,"is_disabled":false,"rental_uris":{"android":"levelo://app?vid=5d5edabb-2a30-49bd-af83-a8b14161fe2e","ios":"levelo://app?vid=5d5edabb-2a30-49bd-af83-a8b14161fe2e"},"vehicle_type_id":"4","last_reported":1738764496,"current_range_meters":7200,"station_id":"ce4bgm92rcd13ifvqbr0","pricing_plan_id":"cebpf4jnsgd1na2vs0mg"},{"bike_id":"3ce9be42-ab76-43a9-bf8b-31b97f0d14a1","system_id":"levelo_inurba_marseille","lat":43.28461,"lon":5.35891,"is_reserved":false,"is_disabled":false,"rental_uris":{"android":"levelo://app?vid=3ce9be42-ab76-43a9-bf8b-31b97f0d14a1","ios":"levelo://app?vid=3ce9be42-ab76-43a9-bf8b-31b97f0d14a1"},"vehicle_type_id":"4","last_reported":1738764496,"current_range_meters":30400,"station_id":"ce4bhah2rcd13ifvqei0","pricing_plan_id":"cebpf4jnsgd1na2vs0mg"},{"bike_id":"25d556ce-3f32-408f-bbd6-29b976ef448a","system_id":"levelo_inurba_marseille","lat":43.23169,"lon":5.39996,"is_reserved":false,"is_disabled":false,"rental_uris":{"android":"levelo://app?vid=25d556ce-3f32-408f-bbd6-29b976ef448a","ios":"levelo://app?vid=25d556ce-3f32-408f-bbd6-29b976ef448a"},"vehicle_type_id":"4","last_reported":1738764496,"current_range_meters":12800,"station_id":"ce4bhn12rcd13ifvqgqg","pricing_plan_id":"cebpf4jnsgd1na2vs0mg"},{"bike_id":"e038d85e-0e42-49c2-8403-bd6375a72a08","system_id":"levelo_inurba_marseille","lat":43.29035,"lon":5.39949,"is_reserved":false,"is_disabled":false,"rental_uris":{"android":"levelo://app?vid=e038d85e-0e42-49c2-8403-bd6375a72a08","ios":"levelo://app?vid=e038d85e-0e42-49c2-8403-bd6375a72a08"},"vehicle_type_id":"4","last_reported":1738764496,"current_range_meters":38000,"station_id":"ce4bh392rcd13ifvqdm0","pricing_plan_id":"cebpf4jnsgd1na2vs0mg"},{"bike_id":"3aa3cf6f-411c-4c4c-99a0-26ff142ada33","system_id":"levelo_inurba_marseille","lat":43.28075,"lon":5.3966,"is_reserved":false,"is_disabled":false,"rental_uris":{"android":"levelo://app?vid=3aa3cf6f-411c-4c4c-99a0-26ff142ada33","ios":"levelo://app?vid=3aa3cf6f-411c-4c4c-99a0-26ff142ada33"},"vehicle_type_id":"4","last_reported":1738764496,"current_range_meters":10000,"station_id":"ce4bho12rcd13ifvqh2g","pricing_plan_id":"cebpf4jnsgd1na2vs0mg"},{"bike_id":"173ff06f-3df5-45ca-a52e-40f63873eead","system_id":"levelo_inurba_marseille","lat":43.27177,"lon":5.40991,"is_reserved":false,"is_disabled":false,"rental_uris":{"android":"levelo://app?vid=173ff06f-3df5-45ca-a52e-40f63873eead","ios":"levelo://app?vid=173ff06f-3df5-45ca-a52e-40f63873eead"},"vehicle_type_id":"4","last_reported":1738764496,"current_range_meters":37600,"station_id":"ce4bhl12rcd13ifvqgf0","pricing_plan_id":"cebpf4jnsgd1na2vs0mg"},{"bike_id":"a2f6c3ee-cde6-4fde-b78f-92cfd29c1bfd","system_id":"levelo_inurba_marseille","lat":43.25488,"lon":5.37644,"is_reserved":false,"is_disabled":false,"rental_uris":{"android":"levelo://app?vid=a2f6c3ee-cde6-4fde-b78f-92cfd29c1bfd","ios":"levelo://app?vid=a2f6c3ee-cde6-4fde-b78f-92cfd29c1bfd"},"vehicle_type_id":"4","last_reported":1738764496,"current_range_meters":38800,"station_id":"ce4bhh12rcd13ifvqff0","pricing_plan_id":"cebpf4jnsgd1na2vs0mg"},{"bike_id":"5efca5f2-64a5-4259-a7b6-3379d60b248a","system_id":"levelo_inurba_marseille","lat":43.2613,"lon":5.41701,"is_reserved":false,"is_disabled":false,"rental_uris":{"android":"levelo://app?vid=5efca5f2-64a5-4259-a7b6-3379d60b248a","ios":"levelo://app?vid=5efca5f2-64a5-4259-a7b6-3379d60b248a"},"vehicle_type_id":"4","last_reported":1738764496,"current_range_meters":28400,"station_id":"","pricing_plan_id":"cebpf4jnsgd1na2vs0mg"},{"bike_id":"1fb8f6bd-b62d-4511-96dd-a147d6b5e2ae","system_id":"levelo_inurba_marseille","lat":43.28076,"lon":5.39648,"is_reserved":false,"is_disabled":false,"rental_uris":{"android":"levelo://app?vid=1fb8f6bd-b62d-4511-96dd-a147d6b5e2ae","ios":"levelo://app?vid=1fb8f6bd-b62d-4511-96dd-a147d6b5e2ae"},"vehicle_type_id":"4","last_reported":1738764496,"current_range_meters":24000,"station_id":"ce4bho12rcd13ifvqh2g","pricing_plan_id":"cebpf4jnsgd1na2vs0mg"},{"bike_id":"eac8e106-76e0-4f1b-81af-4eaefecd2501","system_id":"levelo_inurba_marseille","lat":43.25019,"lon":5.38924,"is_reserved":false,"is_disabled":false,"rental_uris":{"android":"levelo://app?vid=eac8e106-76e0-4f1b-81af-4eaefecd2501","ios":"levelo://app?vid=eac8e106-76e0-4f1b-81af-4eaefecd2501"},"vehicle_type_id":"4","last_reported":1738764496,"current_range_meters":11200,"station_id":"ce4bhgp2rcd13ifvqfd0","pricing_plan_id":"cebpf4jnsgd1na2vs0mg"},{"bike_id":"0bbb9a2e-65d2-4ce4-afaf-6a55b7cd812d","system_id":"levelo_inurba_marseille","lat":43.3127,"lon":5.36893,"is_reserved":false,"is_disabled":true,"rental_uris":{"android":"levelo://app?vid=0bbb9a2e-65d2-4ce4-afaf-6a55b7cd812d","ios":"levelo://app?vid=0bbb9a2e-65d2-4ce4-afaf-6a55b7cd812d"},"vehicle_type_id":"4","last_reported":1738764496,"current_range_meters":32400,"station_id":"ce4bgl92rcd13ifvqbq0","pricing_plan_id":"cebpf4jnsgd1na2vs0mg"},{"bike_id":"3e06e735-9c4d-48d7-82e1-4b743711b119","system_id":"levelo_inurba_marseille","lat":43.29572,"lon":5.37497,"is_reserved":false,"is_disabled":true,"rental_uris":{"android":"levelo://app?vid=3e06e735-9c4d-48d7-82e1-4b743711b119","ios":"levelo://app?vid=3e06e735-9c4d-48d7-82e1-4b743711b119"},"vehicle_type_id":"4","last_reported":1738764496,"current_range_meters":34000,"station_id":"ce4bgh92rcd13ifvqb50","pricing_plan_id":"cebpf4jnsgd1na2vs0mg"},{"bike_id":"d0bb0f44-789d-4871-8f3c-f77a722b8358","system_id":"levelo_inurba_marseille","lat":43.26225,"lon":5.40449,"is_reserved":false,"is_disabled":false,"rental_uris":{"android":"levelo://app?vid=d0bb0f44-789d-4871-8f3c-f77a722b8358","ios":"levelo://app?vid=d0bb0f44-789d-4871-8f3c-f77a722b8358"},"vehicle_type_id":"4","last_reported":1738764496,"current_range_meters":18800,"station_id":"ce4bhmh2rcd13ifvqgmg","pricing_plan_id":"cebpf4jnsgd1na2vs0mg"},{"bike_id":"61ceb31b-03f6-4213-9b34-0374ee45b479","system_id":"levelo_inurba_marseille","lat":43.32113,"lon":5.36792,"is_reserved":false,"is_disabled":false,"rental_uris":{"android":"levelo://app?vid=61ceb31b-03f6-4213-9b34-0374ee45b479","ios":"levelo://app?vid=61ceb31b-03f6-4213-9b34-0374ee45b479"},"vehicle_type_id":"4","last_reported":1738764496,"current_range_meters":20800,"station_id":"ce4bhrh2rcd13ifvqhug","pricing_plan_id":"cebpf4jnsgd1na2vs0mg"},{"bike_id":"1489c8c8-a04b-479f-95b4-a81e60a2c685","system_id":"levelo_inurba_marseille","lat":43.31179,"lon":5.3871,"is_reserved":false,"is_disabled":false,"rental_uris":{"android":"levelo://app?vid=1489c8c8-a04b-479f-95b4-a81e60a2c685","ios":"levelo://app?vid=1489c8c8-a04b-479f-95b4-a81e60a2c685"},"vehicle_type_id":"4","last_reported":1738764496,"current_range_meters":37600,"station_id":"ce4bgv12rcd13ifvqcp0","pricing_plan_id":"cebpf4jnsgd1na2vs0mg"},{"bike_id":"0d4caa0a-81a3-4df3-86e8-ac02dd1f2038","system_id":"levelo_inurba_marseille","lat":43.29193,"lon":5.358,"is_reserved":false,"is_disabled":false,"rental_uris":{"android":"levelo://app?vid=0d4caa0a-81a3-4df3-86e8-ac02dd1f2038","ios":"levelo://app?vid=0d4caa0a-81a3-4df3-86e8-ac02dd1f2038"},"vehicle_type_id":"4","last_reported":1738764496,"current_range_meters":21600,"station_id":"ce4bhb12rcd13ifvqel0","pricing_plan_id":"cebpf4jnsgd1na2vs0mg"},{"bike_id":"ead1e1dd-fb6f-42f7-972a-a1739be00fe1","system_id":"levelo_inurba_marseille","lat":43.30109,"lon":5.39068,"is_reserved":false,"is_disabled":true,"rental_uris":{"android":"levelo://app?vid=ead1e1dd-fb6f-42f7-972a-a1739be00fe1","ios":"levelo://app?vid=ead1e1dd-fb6f-42f7-972a-a1739be00fe1"},"vehicle_type_id":"4","last_reported":1738764496,"current_range_meters":0,"station_id":"ce4bh192rcd13ifvqdb0","pricing_plan_id":"cebpf4jnsgd1na2vs0mg"},