{"last_updated":1752886648,"ttl":60,"version":"2.2","data":{"bikes":[{"bike_id":"53b742a7-31ae-4272-9bba-7740339e2a2f","system_id":"levelo_inurba_marseille","lat":43.33747,"lon":5.37463,"is_reserved":false,"is_disabled":false,"rental_uris":{"android":"levelo://app?vid=53b742a7-31ae-4272-9bba-7740339e2a2f","ios":"levelo://app?vid=53b742a7-31ae-4272-9bba-7740339e2a2f"},"vehicle_type_id":"1","last_reported":1752886648,"current_range_meters":17600,"station_id":"","pricing_plan_id":"cebpf4jnsgd1na2vs0mg"},{"bike_id":"00ecada3-8577-4c51-98e2-f760bc2bb718","system_id":"levelo_inurba_marseille","lat":43.29431,"lon":5.4324,"is_reserved":false,"is_disabled":false,"rental_uris":{"android":"levelo://app?vid=00ecada3-8577-4c51-98e2-f760bc2bb718","ios":"levelo://app?vid=00ecada3-8577-4c51-98e2-f760bc2bb718"},"vehicle_type_id":"4","last_reported":1752886648,"current_range_meters":2800,"station_id":"","pricing_plan_id":"cebpf4jnsgd1na2vs0mg"},{"bike_id":"5b5bbc1f-5c1b-45f5-9a8a-896dbffa270d","system_id":"levelo_inurba_marseille","lat":43.28458,"lon":5.39176,"is_reserved":false,"is_disabled":false,"rental_uris":{"android":"levelo://app?vid=5b5bbc1f-5c1b-45f5-9a8a-896dbffa270d","ios":"levelo://app?vid=5b5bbc1f-5c1b-45f5-9a8a-896dbffa270d"},"vehicle_type_id":"4","last_reported":1752886648,"current_range_meters":3200,"station_id":"ce4bhoh2rcd13ifvqh5g","pricing_plan_id":"cebpf4jnsgd1na2vs0mg"},{"bike_id":"cf161601-953e-48d6-b1b0-6c14bf6d4c60","system_id":"levelo_inurba_marseille","lat":43.28172,"lon":5.38647,"is_reserved":false,"is_disabled":false,"rental_uris":{"android":"levelo://app?vid=cf161601-953e-48d6-b1b0-6c14bf6d4c60","ios":"levelo://app?vid=cf161601-953e-48d6-b1b0-6c14bf6d4c60"},"vehicle_type_id":"4","last_reported":1752886648,"current_range_meters":3200,"station_id":"","pricing_plan_id":"cebpf4jnsgd1na2vs0mg"},{"bike_id":"69b123e2-b08e-42c8-a6cb-9c8f892b03ef","system_id":"levelo_inurba_marseille","lat":43.28935,"lon":5.36641,"is_reserved":false,"is_disabled":false,"rental_uris":{"android":"levelo://app?vid=69b123e2-b08e-42c8-a6cb-9c8f892b03ef","ios":"levelo://app?vid=69b123e2-b08e-42c8-a6cb-9c8f892b03ef"},"vehicle_type_id":"4","last_reported":1752886648,"current_range_meters":3200,"station_id":"ce4bhap2rcd13ifvqek0","pricing_plan_id":"cebpf4jnsgd1na2vs0mg"},{"bike_id":"20e1cc30-ccbe-478e-bcb7-dc20e13576d1","system_id":"levelo_inurba_marseille","lat":43.28416,"lon":5.34997,"is_reserved":false,"is_disabled":true,"rental_uris":{"android":"levelo://app?vid=20e1cc30-ccbe-478e-bcb7-dc20e13576d1","ios":"levelo://app?vid=20e1cc30-ccbe-478e-bcb7-dc20e13576d1"},"vehicle_type_id":"4","last_reported":1752886648,"current_range_meters":3600,"station_id":"ce4bhbh2rcd13ifvqepg","pricing_plan_id":"cebpf4jnsgd1na2vs0mg"},{"bike_id":"6f493831-25b5-4bdf-9954-217f87346829","system_id":"levelo_inurba_marseille","lat":43.30906,"lon":5.37188,"is_reserved":false,"is_disabled":false,"rental_uris":{"android":"levelo://app?vid=6f493831-25b5-4bdf-9954-217f87346829","ios":"levelo://app?vid=6f493831-25b5-4bdf-9954-217f87346829"},"vehicle_type_id":"4","last_reported":1752886648,"current_range_meters":2800,"station_id":"ce4bguh2rcd13ifvqckg","pricing_plan_id":"cebpf4jnsgd1na2vs0mg"},{"bike_id":"6d6c24f3-1aa8-42f5-8064-4e7c25e25148","system_id":"levelo_inurba_marseille","lat":43.28704,"lon":5.37395,"is_reserved":false,"is_disabled":false,"rental_uris":{"android":"levelo://app?vid=6d6c24f3-1aa8-42f5-8064-4e7c25e25148","ios":"levelo://app?vid=6d6c24f3-1aa8-42f5-8064-4e7c25e25148"},"vehicle_type_id":"4","last_reported":1752886648,"current_range_meters":3600,"station_id":"ce4bh3p2rcd13ifvqdq0","pricing_plan_id":"cebpf4jnsgd1na2vs0mg"},{"bike_id":"63f5790b-ff7d-4aba-8b70-6f9233c92bdd","system_id":"levelo_inurba_marseille","lat":43.28733,"lon":5.37933,"is_reserved":false,"is_disabled":false,"rental_uris":{"android":"levelo://app?vid=63f5790b-ff7d-4aba-8b70-6f9233c92bdd","ios":"levelo://app?vid=63f5790b-ff7d-4aba-8b70-6f9233c92bdd"},"vehicle_type_id":"4","last_reported":1752886648,"current_range_meters":4000,"station_id":"ce4bh9p2rcd13ifvqec0","pricing_plan_id":"cebpf4jnsgd1na2vs0mg"},{"bike_id":"f0ee4455-86d0-4743-9d12-d580c71baaca","system_id":"levelo_inurba_marseille","lat":43.29539,"lon":5.39403,"is_reserved":false,"is_disabled":false,"rental_uris":{"android":"levelo://app?vid=f0ee4455-86d0-4743-9d12-d580c71baaca","ios":"levelo://app?vid=f0ee4455-86d0-4743-9d12-d580c71baaca"},"vehicle_type_id":"4","last_reported":1752886648,"current_range_meters":4400,"station_id":"ce4bh292rcd13ifvqdf0","pricing_plan_id":"cebpf4jnsgd1na2vs0mg"},{"bike_id":"3cd025fc-6e03-4c65-b67f-ef1cd5639c9d","system_id":"levelo_inurba_marseille","lat":43.30376,"lon":5.42492,"is_reserved":false,"is_disabled":false,"rental_uris":{"android":"levelo://app?vid=3cd025fc-6e03-4c65-b67f-ef1cd5639c9d","ios":"levelo://app?vid=3cd025fc-6e03-4c65-b67f-ef1cd5639c9d"},"vehicle_type_id":"4","last_reported":1752886648,"current_range_meters":4800,"station_id":"ce4bhoh2rcd13ifvqh6g","pricing_plan_id":"cebpf4jnsgd1na2vs0mg"},{"bike_id":"e95b1477-33a1-48a7-a021-3878a6895222","system_id":"levelo_inurba_marseille","lat":43.21748,"lon":5.34612,"is_reserved":false,"is_disabled":false,"rental_uris":{"android":"levelo://app?vid=e95b1477-33a1-48a7-a021-3878a6895222","ios":"levelo://app?vid=e95b1477-33a1-48a7-a021-3878a6895222"},"vehicle_type_id":"4","last_reported":1752886648,"current_range_meters":4800,"station_id":"st_cvj6r9ubvosntc0bgbag","pricing_plan_id":"cebpf4jnsgd1na2vs0mg"},{"bike_id":"75a21491-57a5-4198-a34e-94a9e7346b3b","system_id":"levelo_inurba_marseille","lat":43.297062,"lon":5.366019,"is_reserved":false,"is_disabled":true,"rental_uris":{"android":"levelo://app?vid=75a21491-57a5-4198-a34e-94a9e7346b3b","ios":"levelo://app?vid=75a21491-57a5-4198-a34e-94a9e7346b3b"},"vehicle_type_id":"4","last_reported":1752886648,"current_range_meters":5600,"station_id":"ce4bhh12rcd13ifvqff0","pricing_plan_id":"cebpf4jnsgd1na2vs0mg"},{"bike_id":"8ba8b96b-42a3-4e9c-aa2a-906515c13495","system_id":"levelo_inurba_marseille","lat":43.29163,"lon":5.37166,"is_reserved":false,"is_disabled":false,"rental_uris":{"android":"levelo://app?vid=8ba8b96b-42a3-4e9c-aa2a-906515c13495","ios":"levelo://app?vid=8ba8b96b-42a3-4e9c-aa2a-906515c13495"},"vehicle_type_id":"4","last_reported":1752886648,"current_range_meters":4800,"station_id":"ce4bha92rcd13ifvqeh0","pricing_plan_id":"cebpf4jnsgd1na2vs0mg"},{"bike_id":"9c8adec5-3e78-4a7c-a3fc-09311a934347","system_id":"levelo_inurba_marseille","lat":43.2842,"lon":5.38517,"is_reserved":false,"is_disabled":false,"rental_uris":{"android":"levelo://app?vid=9c8adec5-3e78-4a7c-a3fc-09311a934347","ios":"levelo://app?vid=9c8adec5-3e78-4a7c-a3fc-09311a934347"},"vehicle_type_id":"4","last_reported":1752886648,"current_range_meters":5600,"station_id":"ce4bh8p2rcd13ifvqeb0","pricing_plan_id":"cebpf4jnsgd1na2vs0mg"},{"bike_id":"0552ea12-01c1-4fc3-9631-ab4df8c50dde","system_id":"levelo_inurba_marseille","lat":43.22506,"lon":5.34783,"is_reserved":false,"is_disabled":false,"rental_uris":{"android":"levelo://app?vid=0552ea12-01c1-4fc3-9631-ab4df8c50dde","ios":"levelo://app?vid=0552ea12-01c1-4fc3-9631-ab4df8c50dde"},"vehicle_type_id":"4","last_reported":1752886648,"current_range_meters":5600,"station_id":"st_cvj5dfep6f1abm77gieg","pricing_plan_id":"cebpf4jnsgd1na2vs0mg"},{"bike_id":"04d15a50-cb94-495c-969c-c09473f1fcda","system_id":"levelo_inurba_marseille","lat":43.296196,"lon":5.377039,"is_reserved":false,"is_disabled":true,"rental_uris":{"android":"levelo://app?vid=04d15a50-cb94-495c-969c-c09473f1fcda","ios":"levelo://app?vid=04d15a50-cb94-495c-969c-c09473f1fcda"},"vehicle_type_id":"4","last_reported":1752886648,"current_range_meters":6000,"station_id":"","pricing_plan_id":"cebpf4jnsgd1na2vs0mg"},{"bike_id":"2786f0da-3923-4b84-a366-56fa35372059","system_id":"levelo_inurba_marseille","lat":43.30261,"lon":5.40074,"is_reserved":false,"is_disabled":false,"rental_uris":{"android":"levelo://app?vid=2786f0da-3923-4b84-a366-56fa35372059","ios":"levelo://app?vid=2786f0da-3923-4b84-a366-56fa35372059"},"vehicle_type_id":"4","last_reported":1752886648,"current_range_meters":6000,"station_id":"ce4bgvh2rcd13ifvqcs0","pricing_plan_id":"cebpf4jnsgd1na2vs0mg"},{"bike_id":"fcb43646-13dd-4cea-b3e4-460cae3cbed7","system_id":"levelo_inurba_marseille","lat":43.22503,"lon":5.34801,"is_reserved":false,"is_disabled":false,"rental_uris":{"android":"levelo://app?vid=fcb43646-13dd-4cea-b3e4-460cae3cbed7","ios":"levelo://app?vid=fcb43646-13dd-4cea-b3e4-460cae3cbed7"},"vehicle_type_id":"4","last_reported":1752886648,"current_range_meters":6000,"station_id":"st_cvj5dfep6f1abm77gieg","pricing_plan_id":"cebpf4jnsgd1na2vs0mg"},{"bike_id":"37437322-8c8c-42de-b8fa-18f1317c54a8","system_id":"levelo_inurba_marseille","lat":43.23299,"lon":5.36817,"is_reserved":false,"is_disabled":false,"rental_uris":{"android":"levelo://app?vid=37437322-8c8c-42de-b8fa-18f1317c54a8","ios":"levelo://app?vid=37437322-8c8c-42de-b8fa-18f1317c54a8"},"vehicle_type_id":"4","last_reported":1752886648,"current_range_meters":6000,"station_id":"","pricing_plan_id":"cebpf4jnsgd1na2vs0mg"},{"bike_id":"3444bdc6-514a-4ba6-9650-f9073305e33d","system_id":"levelo_inurba_marseille","lat":43.29682,"lon":5.3698,"is_reserved":false,"is_disabled":false,"rental_uris":{"android":"levelo://app?vid=3444bdc6-514a-4ba6-9650-f9073305e33d","ios":"levelo://app?vid=3444bdc6-514a-4ba6-9650-f9073305e33d"},"vehicle_type_id":"4","last_reported":1752886648,"current_range_meters":6400,"station_id":"","pricing_plan_id":"cebpf4jnsgd1na2vs0mg"},{"bike_id":"555bc53e-5286-4fb6-9154-af42b3fd9792","system_id":"levelo_inurba_marseille","lat":43.300768,"lon":5.372826,"is_reserved":false,"is_disabled":false,"rental_uris":{"android":"levelo://app?vid=555bc53e-5286-4fb6-9154-af42b3fd9792","ios":"levelo://app?vid=555bc53e-5286-4fb6-9154-af42b3fd9792"},"vehicle_type_id":"4","last_reported":1752886648,"current_range_meters":6400,"station_id":"","pricing_plan_id":"cebpf4jnsgd1na2vs0mg"},{"bike_id":"bebccfd8-4397-4bdb-81bd-d9099fc93729","system_id":"levelo_inurba_marseille","lat":43.269267,"lon":5.389105,"is_reserved":false,"is_disabled":false,"rental_uris":{"android":"levelo://app?vid=bebccfd8-4397-4bdb-81bd-d9099fc93729","ios":"levelo://app?vid=bebccfd8-4397-4bdb-81bd-d9099fc93729"},"vehicle_type_id":"4","last_reported":1752886648,"current_range_meters":6400,"station_id":"ce4bhhh2rcd13ifvqfl0","pricing_plan_id":"cebpf4jnsgd1na2vs0mg"},{"bike_id":"4298709f-d90a-45df-8a57-9ba59538e3fc","system_id":"levelo_inurba_marseille","lat":43.281705,"lon":5.40733,"is_reserved":false,"is_disabled":false,"rental_uris":{"android":"levelo://app?vid=4298709f-d90a-45df-8a57-9ba59538e3fc","ios":"levelo://app?vid=4298709f-d90a-45df-8a57-9ba59538e3fc"},"vehicle_type_id":"4","last_reported":1752886648,"current_range_meters":6800,"station_id":"","pricing_plan_id":"cebpf4jnsgd1na2vs0mg"},{"bike_id":"d1b1ae6f-562f-42f0-a958-cbc912a1619d","system_id":"levelo_inurba_marseille","lat":43.27606,"lon":5.36119,"is_reserved":false,"is_disabled":true,"rental_uris":{"android":"levelo://app?vid=d1b1ae6f-562f-42f0-a958-cbc912a1619d","ios":"levelo://app?vid=d1b1ae6f-562f-42f0-a958-cbc912a1619d"},"vehicle_type_id":"4","last_reported":1752886648,"current_range_meters":6800,"station_id":"ce4bgj92rcd13ifvqbe0","pricing_plan_id":"cebpf4jnsgd1na2vs0mg"},{"bike_id":"28d27c17-e6ca-4cec-aec9-f1f6696b8a12","system_id":"levelo_inurba_marseille","lat":43.2987,"lon":5.4363,"is_reserved":false,"is_disabled":true,"rental_uris":{"android":"levelo://app?vid=28d27c17-e6ca-4cec-aec9-f1f6696b8a12","ios":"levelo://app?vid=28d27c17-e6ca-4cec-aec9-f1f6696b8a12"},"vehicle_type_id":"4","last_reported":1752886648,"current_range_meters":6800,"station_id":"ce4bhpp2rcd13ifvqhfg","pricing_plan_id":"cebpf4jnsgd1na2vs0mg"},{"bike_id":"832283b9-e7f5-485f-aafb-ac5f1b535b01","system_id":"levelo_inurba_marseille","lat":43.253547,"lon":5.394642,"is_reserved":false,"is_disabled":false,"rental_uris":{"android":"levelo://app?vid=832283b9-e7f5-485f-aafb-ac5f1b535b01","ios":"levelo://app?vid=832283b9-e7f5-485f-aafb-ac5f1b535b01"},"vehicle_type_id":"4","last_reported":1752886648,"current_range_meters":7200,"station_id":"ce4bhip2rcd13ifvqft0","pricing_plan_id":"cebpf4jnsgd1na2vs0mg"},{"bike_id":"56d35fb4-c3fa-422a-a14b-9ed987a4f56f","system_id":"levelo_inurba_marseille","lat":43.24808,"lon":5.37456,"is_reserved":false,"is_disabled":true,"rental_uris":{"android":"levelo://app?vid=56d35fb4-c3fa-422a-a14b-9ed987a4f56f","ios":"levelo://app?vid=56d35fb4-c3fa-422a-a14b-9ed987a4f56f"},"vehicle_type_id":"4","last_reported":1752886648,"current_range_meters":8000,"station_id":"ce4bhgh2rcd13ifvqfb0","pricing_plan_id":"cebpf4jnsgd1na2vs0mg"},{"bike_id":"c27e27c1-46a1-4897-babc-4d201062abd5","system_id":"levelo_inurba_marseille","lat":43.23184,"lon":5.399864,"is_reserved":false,"is_disabled":false,"rental_uris":{"android":"levelo://app?vid=c27e27c1-46a1-4897-babc-4d201062abd5","ios":"levelo://app?vid=c27e27c1-46a1-4897-babc-4d201062abd5"},"vehicle_type_id":"4","last_reported":1752886648,"current_range_meters":16000,"station_id":"ce4bhn12rcd13ifvqgqg","pricing_plan_id":"cebpf4jnsgd1na2vs0mg"},{"bike_id":"603995bf-5ba4-4bb5-b239-cd14a6a17b41","system_id":"levelo_inurba_marseille","lat":43.289413,"lon":5.396236,"is_reserved":false,"is_disabled":false,"rental_uris":{"android":"levelo://app?vid=603995bf-5ba4-4bb5-b239-cd14a6a17b41","ios":"levelo://app?vid=603995bf-5ba4-4bb5-b239-cd14a6a17b41"},"vehicle_type_id":"4","last_reported":1752886648,"current_range_meters":10800,"station_id":"ce4bh3h2rcd13ifvqdn0","pricing_plan_id":"cebpf4jnsgd1na2vs0mg"},{"bike_id":"b29b4439-b50e-4dd9-8839-d0b59179f1e7","system_id":"levelo_inurba_marseille","lat":43.26961,"lon":5.38611,"is_reserved":false,"is_disabled":true,"rental_uris":{"android":"levelo://app?vid=b29b4439-b50e-4dd9-8839-d0b59179f1e7","ios":"levelo://app?vid=b29b4439-b50e-4dd9-8839-d0b59179f1e7"},"vehicle_type_id":"4","last_reported":1752886648,"current_range_meters":8400,"station_id":"ce4bhh92rcd13ifvqfh0","pricing_plan_id":"cebpf4jnsgd1na2vs0mg"},{"bike_id":"79e00cba-979b-4370-b320-7e4857db9893","system_id":"levelo_inurba_marseille","lat":43.33783,"lon":5.37439,"is_reserved":false,"is_disabled":false,"rental_uris":{"android":"levelo://app?vid=79e00cba-979b-4370-b320-7e4857db9893","ios":"levelo://app?vid=79e00cba-979b-4370-b320-7e4857db9893"},"vehicle_type_id":"4","last_reported":1752886648,"current_range_meters":8400,"station_id":"","pricing_plan_id":"cebpf4jnsgd1na2vs0mg"},{"bike_id":"b0446967-385d-4ee0-a1c0-29696490e4fe","system_id":"levelo_inurba_marseille","lat":43.27665,"lon":5.38929,"is_reserved":false,"is_disabled":false,"rental_uris":{"android":"levelo://app?vid=b0446967-385d-4ee0-a1c0-29696490e4fe","ios":"levelo://app?vid=b0446967-385d-4ee0-a1c0-29696490e4fe"},"vehicle_type_id":"4","last_reported":1752886648,"current_range_meters":8400,"station_id":"ce4bhi12rcd13ifvqfo0","pricing_plan_id":"cebpf4jnsgd1na2vs0mg"},{"bike_id":"8a66b07f-1eed-424c-95bb-32b33b24cdca","system_id":"levelo_inurba_marseille","lat":43.28502,"lon":5.38428,"is_reserved":false,"is_disabled":false,"rental_uris":{"android":"levelo://app?vid=8a66b07f-1eed-424c-95bb-32b33b24cdca","ios":"levelo://app?vid=8a66b07f-1eed-424c-95bb-32b33b24cdca"},"vehicle_type_id":"4","last_reported":1752886648,"current_range_meters":8400,"station_id":"ce4bh512rcd13ifvqe3g","pricing_plan_id":"cebpf4jnsgd1na2vs0mg"},{"bike_id":"2e966484-7e8d-4034-b47c-cca316cada37","system_id":"levelo_inurba_marseille","lat":43.29005,"lon":5.35611,"is_reserved":false,"is_disabled":false,"rental_uris":{"android":"levelo://app?vid=2e966484-7e8d-4034-b47c-cca316cada37","ios":"levelo://app?vid=2e966484-7e8d-4034-b47c-cca316cada37"},"vehicle_type_id":"4","last_reported":1752886648,"current_range_meters":8000,"station_id":"ce4bhb92rcd13ifvqen0","pricing_plan_id":"cebpf4jnsgd1na2vs0mg"},{"bike_id":"2ac93549-5c94-4228-8eea-782a21384d10","system_id":"levelo_inurba_marseille","lat":43.29634,"lon":5.37793,"is_reserved":false,"is_disabled":false,"rental_uris":{"android":"levelo://app?vid=2ac93549-5c94-4228-8eea-782a21384d10","ios":"levelo://app?vid=2ac93549-5c94-4228-8eea-782a21384d10"},"vehicle_type_id":"4","last_reported":1752886648,"current_range_meters":8400,"station_id":"","pricing_plan_id":"cebpf4jnsgd1na2vs0mg"},{"bike_id":"a8319aff-6485-4fd1-94a9-a438594b5b32","system_id":"levelo_inurba_marseille","lat":43.28714,"lon":5.37917,"is_reserved":false,"is_disabled":false,"rental_uris":{"android":"levelo://app?vid=a8319aff-6485-4fd1-94a9-a438594b5b32","ios":"levelo://app?vid=a8319aff-6485-4fd1-94a9-a438594b5b32"},"vehicle_type_id":"4","last_reported":1752886648,"current_range_meters":8400,"station_id":"ce4bh9p2rcd13ifvqec0","pricing_plan_id":"cebpf4jnsgd1na2vs0mg"},{"bike_id":"aa22e9cf-8cef-43ef-b069-b73bbd99720a","system_id":"levelo_inurba_marseille","lat":43.30374,"lon":5.42482,"is_reserved":false,"is_disabled":false,"rental_uris":{"android":"levelo://app?vid=aa22e9cf-8cef-43ef-b069-b73bbd99720a","ios":"levelo://app?vid=aa22e9cf-8cef-43ef-b069-b73bbd99720a"},"vehicle_type_id":"4","last_reported":1752886648,"current_range_meters":8800,"station_id":"ce4bhoh2rcd13ifvqh6g","pricing_plan_id":"cebpf4jnsgd1na2vs0mg"},{"bike_id":"da891840-0cec-4ccc-961c-48903736c6fa","system_id":"levelo_inurba_marseille","lat":43.31139,"lon":5.37692,"is_reserved":false,"is_disabled":false,"rental_uris":{"android":"levelo://app?vid=da891840-0cec-4ccc-961c-48903736c6fa","ios":"levelo://app?vid=da891840-0cec-4ccc-961c-48903736c6fa"},"vehicle_type_id":"4","last_reported":1752886648,"current_range_meters":9200,"station_id":"","pricing_plan_id":"cebpf4jnsgd1na2vs0mg"},{"bike_id":"5c512656-cb55-4e17-89ea-c883f7f63553","system_id":"levelo_inurba_marseille","lat":43.21746,"lon":5.34605,"is_reserved":false,"is_disabled":true,"rental_uris":{"android":"levelo://app?vid=5c512656-cb55-4e17-89ea-c883f7f63553","ios":"levelo://app?vid=5c512656-cb55-4e17-89ea-c883f7f63553"},"vehicle_type_id":"4","last_reported":1752886648,"current_range_meters":8800,"station_id":"st_cvj6r9ubvosntc0bgbag","pricing_plan_id":"cebpf4jnsgd1na2vs0mg"},{"bike_id":"e555b545-304c-4dce-8496-1643c0f2600e","system_id":"levelo_inurba_marseille","lat":43.337444,"lon":5.374475,"is_reserved":false,"is_disabled":false,"rental_uris":{"android":"levelo://app?vid=e555b545-304c-4dce-8496-1643c0f2600e","ios":"levelo://app?vid=e555b545-304c-4dce-8496-1643c0f2600e"},"vehicle_type_id":"4","last_reported":1752886648,"current_range_meters":8800,"station_id":"","pricing_plan_id":"cebpf4jnsgd1na2vs0mg"},{"bike_id":"537df271-1e3d-4ffc-ad70-ada379266803","system_id":"levelo_inurba_marseille","lat":43.21758,"lon":5.34616,"is_reserved":false,"is_disabled":false,"rental_uris":{"android":"levelo://app?vid=537df271-1e3d-4ffc-ad70-ada379266803","ios":"levelo://app?vid=537df271-1e3d-4ffc-ad70-ada379266803"},"vehicle_type_id":"4","last_reported":1752886648,"current_range_meters":9600,"station_id":"st_cvj6r9ubvosntc0bgbag","pricing_plan_id":"cebpf4jnsgd1na2vs0mg"},{"bike_id":"a198bfec-3db2-402f-a311-e1361c0d3e2b","system_id":"levelo_inurba_marseille","lat":43.28101,"lon":5.378529,"is_reserved":false,"is_disabled":false,"rental_uris":{"android":"levelo://app?vid=a198bfec-3db2-402f-a311-e1361c0d3e2b","ios":"levelo://app?vid=a198bfec-3db2-402f-a311-e1361c0d3e2b"},"vehicle_type_id":"4","last_reported":1752886648,"current_range_meters":9600,"station_id":"ce4bha12rcd13ifvqee0","pricing_plan_id":"cebpf4jnsgd1na2vs0mg"},{"bike_id":"2222eb08-b2df-4b92-a831-bd4af73d9ef9","system_id":"levelo_inurba_marseille","lat":43.26806,"lon":5.40269,"is_reserved":false,"is_disabled":false,"rental_uris":{"android":"levelo://app?vid=2222eb08-b2df-4b92-a831-bd4af73d9ef9","ios":"levelo://app?vid=2222eb08-b2df-4b92-a831-bd4af73d9ef9"},"vehicle_type_id":"4","last_reported":1752886648,"current_range_meters":9600,"station_id":"ce501612rcd8frsf0b60","pricing_plan_id":"cebpf4jnsgd1na2vs0mg"},{"bike_id":"b18457b6-b744-4542-873e-ebb7266cf94f","system_id":"levelo_inurba_marseille","lat":43.28606,"lon":5.37076,"is_reserved":false,"is_disabled":false,"rental_uris":{"android":"levelo://app?vid=b18457b6-b744-4542-873e-ebb7266cf94f","ios":"levelo://app?vid=b18457b6-b744-4542-873e-ebb7266cf94f"},"vehicle_type_id":"4","last_reported":1752886648,"current_range_meters":9600,"station_id":"ce4bht12rcd13ifvqi60","pricing_plan_id":"cebpf4jnsgd1na2vs0mg"},{"bike_id":"c35c3650-8980-4ec3-8bc0-7670f7c6c970","system_id":"levelo_inurba_marseille","lat":43.24671,"lon":5.38156,"is_reserved":false,"is_disabled":false,"rental_uris":{"android":"levelo://app?vid=c35c3650-8980-4ec3-8bc0-7670f7c6c970","ios":"levelo://app?vid=c35c3650-8980-4ec3-8bc0-7670f7c6c970"},"vehicle_type_id":"4","last_reported":1752886648,"current_range_meters":9600,"station_id":"ce4bhih2rcd13ifvqfr0","pricing_plan_id":"cebpf4jnsgd1na2vs0mg"},{"bike_id":"35c5e64a-45e1-45dc-95df-b5b79c8c9e7a","system_id":"levelo_inurba_marseille","lat":43.29603,"lon":5.38097,"is_reserved":false,"is_disabled":false,"rental_uris":{"android":"levelo://app?vid=35c5e64a-45e1-45dc-95df-b5b79c8c9e7a","ios":"levelo://app?vid=35c5e64a-45e1-45dc-95df-b5b79c8c9e7a"},"vehicle_type_id":"4","last_reported":1752886648,"current_range_meters":9600,"station_id":"ce4bgl12rcd13ifvqbo0","pricing_plan_id":"cebpf4jnsgd1na2vs0mg"},{"bike_id":"44bf74f9-0a90-4bf5-bc27-21dada9d010a","system_id":"levelo_inurba_marseille","lat":43.29193,"lon":5.39323,"is_reserved":false,"is_disabled":false,"rental_uris":{"android":"levelo://app?vid=44bf74f9-0a90-4bf5-bc27-21dada9d010a","ios":"levelo://app?vid=44bf74f9-0a90-4bf5-bc27-21dada9d010a"},"vehicle_type_id":"4","last_reported":1752886648,"current_range_meters":10000,"station_id":"ce4bh192rcd13ifvqdd0","pricing_plan_id":"cebpf4jnsgd1na2vs0mg"},{"bike_id":"2d95b47d-d06f-40a4-bb6e-c13e954e3c8f","system_id":"levelo_inurba_marseille","lat":43.277223,"lon":5.414145,"is_reserved":false,"is_disabled":false,"rental_uris":{"android":"levelo://app?vid=2d95b47d-d06f-40a4-bb6e-c13e954e3c8f","ios":"levelo://app?vid=2d95b47d-d06f-40a4-bb6e-c13e954e3c8f"},"vehicle_type_id":"4","last_reported":1752886648,"current_range_meters":10000,"station_id":"","pricing_plan_id":"cebpf4jnsgd1na2vs0mg"},{"bike_id":"ade6b85c-6a6c-4230-abc0-6dc967d7d481","system_id":"levelo_inurba_marseille","lat":43.29266,"lon":5.40166,"is_reserved":false,"is_disabled":false,"rental_uris":{"android":"levelo://app?vid=ade6b85c-6a6c-4230-abc0-6dc967d7d481","ios":"levelo://app?vid=ade6b85c-6a6c-4230-abc0-6dc967d7d481"},"vehicle_type_id":"4","last_reported":1752886648,"current_range_meters":10000,"station_id":"ce4bh312rcd13ifvqdk0","pricing_plan_id":"cebpf4jnsgd1na2vs0mg"},{"bike_id":"792c6d19-d2aa-43d0-ba46-67942c12daaa","system_id":"levelo_inurba_marseille","lat":43.28586,"lon":5.37081,"is_reserved":false,"is_disabled":false,"rental_uris":{"android":"levelo://app?vid=792c6d19-d2aa-43d0-ba46-67942c12daaa","ios":"levelo://app?vid=792c6d19-d2aa-43d0-ba46-67942c12daaa"},"vehicle_type_id":"4","last_reported":1752886648,"current_range_meters":10000,"station_id":"ce4bht12rcd13ifvqi60","pricing_plan_id":"cebpf4jnsgd1na2vs0mg"},{"bike_id":"b5591d44-a974-4e3b-bd8f-35fc2dec9c24","system_id":"levelo_inurba_marseille","lat":43.29968,"lon":5.37163,"is_reserved":false,"is_disabled":false,"rental_uris":{"android":"levelo://app?vid=b5591d44-a974-4e3b-bd8f-35fc2dec9c24","ios":"levelo://app?vid=b5591d44-a974-4e3b-bd8f-35fc2dec9c24"},"vehicle_type_id":"4","last_reported":1752886648,"current_range_meters":9600,"station_id":"ce4bgr92rcd13ifvqc7g","pricing_plan_id":"cebpf4jnsgd1na2vs0mg"},{"bike_id":"b004baab-db70-453e-84a5-9312df4bd1d6","system_id":"levelo_inurba_marseille","lat":43.22508,"lon":5.34777,"is_reserved":false,"is_disabled":false,"rental_uris":{"android":"levelo://app?vid=b004baab-db70-453e-84a5-9312df4bd1d6","ios":"levelo://app?vid=b004baab-db70-453e-84a5-9312df4bd1d6"},"vehicle_type_id":"4","last_reported":1752886648,"current_range_meters":10800,"station_id":"st_cvj5dfep6f1abm77gieg","pricing_plan_id":"cebpf4jnsgd1na2vs0mg"},{"bike_id":"1b9b3b50-de92-4b2e-a432-56a3ae52efcd","system_id":"levelo_inurba_marseille","lat":43.28943,"lon":5.39628,"is_reserved":false,"is_disabled":false,"rental_uris":{"android":"levelo://app?vid=1b9b3b50-de92-4b2e-a432-56a3ae52efcd","ios":"levelo://app?vid=1b9b3b50-de92-4b2e-a432-56a3ae52efcd"},"vehicle_type_id":"4","last_reported":1752886648,"current_range_meters":10800,"station_id":"ce4bh3h2rcd13ifvqdn0","pricing_plan_id":"cebpf4jnsgd1na2vs0mg"},{"bike_id":"29c44405-5852-4d48-a871-a9bc5e60ce4b","system_id":"levelo_inurba_marseille","lat":43.28648,"lon":5.38675,"is_reserved":false,"is_disabled":true,"rental_uris":{"android":"levelo://app?vid=29c44405-5852-4d48-a871-a9bc5e60ce4b","ios":"levelo://app?vid=29c44405-5852-4d48-a871-a9bc5e60ce4b"},"vehicle_type_id":"4","last_reported":1752886648,"current_range_meters":10800,"station_id":"ce4bh492rcd13ifvqdug","pricing_plan_id":"cebpf4jnsgd1na2vs0mg"},{"bike_id":"4bd0493b-7cd1-4100-a33a-f7df4788da11","system_id":"levelo_inurba_marseille","lat":43.27964,"lon":5.38713,"is_reserved":false,"is_disabled":false,"rental_uris":{"android":"levelo://app?vid=4bd0493b-7cd1-4100-a33a-f7df4788da11","ios":"levelo://app?vid=4bd0493b-7cd1-4100-a33a-f7df4788da11"},"vehicle_type_id":"4","last_reported":1752886648,"current_range_meters":10800,"station_id":"ce4bhg12rcd13ifvqf80","pricing_plan_id":"cebpf4jnsgd1na2vs0mg"},{"bike_id":"d2d2016d-4dcc-4d79-a96f-162002d57e1b","system_id":"levelo_inurba_marseille","lat":43.29626,"lon":5.406,"is_reserved":false,"is_disabled":false,"rental_uris":{"android":"levelo://app?vid=d2d2016d-4dcc-4d79-a96f-162002d57e1b","ios":"levelo://app?vid=d2d2016d-4dcc-4d79-a96f-162002d57e1b"},"vehicle_type_id":"4","last_reported":1752886648,"current_range_meters":10800,"station_id":"ce4bh0h2rcd13ifvqd60","pricing_plan_id":"cebpf4jnsgd1na2vs0mg"},{"bike_id":"ce7bd25b-5213-4881-a28b-f582e6a1d712","system_id":"levelo_inurba_marseille","lat":43.31353,"lon":5.3673,"is_reserved":false,"is_disabled":true,"rental_uris":{"android":"levelo://app?vid=ce7bd25b-5213-4881-a28b-f582e6a1d712","ios":"levelo://app?vid=ce7bd25b-5213-4881-a28b-f582e6a1d712"},"vehicle_type_id":"4","last_reported":1752886648,"current_range_meters":10800,"station_id":"ce4bgr92rcd13ifvqc6g","pricing_plan_id":"cebpf4jnsgd1na2vs0mg"},{"bike_id":"fa739358-6956-4f72-97a9-e0a4eae333f3","system_id":"levelo_inurba_marseille","lat":43.30306,"lon":5.368907,"is_reserved":false,"is_disabled":false,"rental_uris":{"android":"levelo://app?vid=fa739358-6956-4f72-97a9-e0a4eae333f3","ios":"levelo://app?vid=fa739358-6956-4f72-97a9-e0a4eae333f3"},"vehicle_type_id":"4","last_reported":1752886648,"current_range_meters":10800,"station_id":"ce4bgqh2rcd13ifvqc5g","pricing_plan_id":"cebpf4jnsgd1na2vs0mg"},{"bike_id":"359e971e-1151-4f67-a918-dc23695980eb","system_id":"levelo_inurba_marseille","lat":43.3061,"lon":5.37235,"is_reserved":false,"is_disabled":false,"rental_uris":{"android":"levelo://app?vid=359e971e-1151-4f67-a918-dc23695980eb","ios":"levelo://app?vid=359e971e-1151-4f67-a918-dc23695980eb"},"vehicle_type_id":"4","last_reported":1752886648,"current_range_meters":10800,"station_id":"ce4bgqh2rcd13ifvqc4g","pricing_plan_id":"cebpf4jnsgd1na2vs0mg"},{"bike_id":"4dd02715-0aa1-486a-a4d8-01f96f8c7a72","system_id":"levelo_inurba_marseille","lat":43.2816,"lon":5.42627,"is_reserved":false,"is_disabled":false,"rental_uris":{"android":"levelo://app?vid=4dd02715-0aa1-486a-a4d8-01f96f8c7a72","ios":"levelo://app?vid=4dd02715-0aa1-486a-a4d8-01f96f8c7a72"},"vehicle_type_id":"4","last_reported":1752886648,"current_range_meters":11200,"station_id":"ce4bhnh2rcd13ifvqgug","pricing_plan_id":"cebpf4jnsgd1na2vs0mg"},{"bike_id":"90f0ed75-ae52-4d06-9fc4-ba57bb16e37f","system_id":"levelo_inurba_marseille","lat":43.30245,"lon":5.40071,"is_reserved":false,"is_disabled":true,"rental_uris":{"android":"levelo://app?vid=90f0ed75-ae52-4d06-9fc4-ba57bb16e37f","ios":"levelo://app?vid=90f0ed75-ae52-4d06-9fc4-ba57bb16e37f"},"vehicle_type_id":"4","last_reported":1752886648,"current_range_meters":11200,"station_id":"ce4bgvh2rcd13ifvqcs0","pricing_plan_id":"cebpf4jnsgd1na2vs0mg"},{"bike_id":"5ac93e7c-286a-4c1e-b6c0-4e9963e5a9f8","system_id":"levelo_inurba_marseille","lat":43.211898,"lon":5.350728,"is_reserved":false,"is_disabled":false,"rental_uris":{"android":"levelo://app?vid=5ac93e7c-286a-4c1e-b6c0-4e9963e5a9f8","ios":"levelo://app?vid=5ac93e7c-286a-4c1e-b6c0-4e9963e5a9f8"},"vehicle_type_id":"4","last_reported":1752886648,"current_range_meters":11200,"station_id":"st_cvj6sg6p6f1abm77japg","pricing_plan_id":"cebpf4jnsgd1na2vs0mg"},{"bike_id":"c6db0f6a-96fe-4e1d-8ded-c2ef38c9bab4","system_id":"levelo_inurba_marseille","lat":43.305688,"lon":5.418387,"is_reserved":false,"is_disabled":true,"rental_uris":{"android":"levelo://app?vid=c6db0f6a-96fe-4e1d-8ded-c2ef38c9bab4","ios":"levelo://app?vid=c6db0f6a-96fe-4e1d-8ded-c2ef38c9bab4"},"vehicle_type_id":"4","last_reported":1752886648,"current_range_meters":11600,"station_id":"ce4bht12rcd13ifvqi60","pricing_plan_id":"cebpf4jnsgd1na2vs0mg"},{"bike_id":"436db807-5cc4-41ed-be34-f329b8d9bbd5","system_id":"levelo_inurba_marseille","lat":43.28855,"lon":5.39323,"is_reserved":false,"is_disabled":false,"rental_uris":{"android":"levelo://app?vid=436db807-5cc4-41ed-be34-f329b8d9bbd5","ios":"levelo://app?vid=436db807-5cc4-41ed-be34-f329b8d9bbd5"},"vehicle_type_id":"4","last_reported":1752886648,"current_range_meters":11600,"station_id":"ce4bh2p2rcd13ifvqdi0","pricing_plan_id":"cebpf4jnsgd1na2vs0mg"},{"bike_id":"c9880868-4ce3-4721-877a-3d469f3d0dd6","system_id":"levelo_inurba_marseille","lat":43.33021,"lon":5.39046,"is_reserved":false,"is_disabled":false,"rental_uris":{"android":"levelo://app?vid=c9880868-4ce3-4721-877a-3d469f3d0dd6","ios":"levelo://app?vid=c9880868-4ce3-4721-877a-3d469f3d0dd6"},"vehicle_type_id":"4","last_reported":1752886648,"current_range_meters":11200,"station_id":"ce4bhr92rcd13ifvqhrg","pricing_plan_id":"cebpf4jnsgd1na2vs0mg"},{"bike_id":"fd5491f9-40f8-453d-a9e7-e7f270eeba7a","system_id":"levelo_inurba_marseille","lat":43.248,"lon":5.37457,"is_reserved":false,"is_disabled":true,"rental_uris":{"android":"levelo://app?vid=fd5491f9-40f8-453d-a9e7-e7f270eeba7a","ios":"levelo://app?vid=fd5491f9-40f8-453d-a9e7-e7f270eeba7a"},"vehicle_type_id":"4","last_reported":1752886648,"current_range_meters":11600,"station_id":"ce4bhgh2rcd13ifvqfb0","pricing_plan_id":"cebpf4jnsgd1na2vs0mg"},{"bike_id":"4607398c-5481-406b-ba58-548c4b76f331","system_id":"levelo_inurba_marseille","lat":43.271854,"lon":5.362776,"is_reserved":false,"is_disabled":false,"rental_uris":{"android":"levelo://app?vid=4607398c-5481-406b-ba58-548c4b76f331","ios":"levelo://app?vid=4607398c-5481-406b-ba58-548c4b76f331"},"vehicle_type_id":"4","last_reported":1752886648,"current_range_meters":11600,"station_id":"","pricing_plan_id":"cebpf4jnsgd1na2vs0mg"},{"bike_id":"35965273-4af4-457c-87a3-4f7523a4ce80","system_id":"levelo_inurba_marseille","lat":43.29008,"lon":5.35614,"is_reserved":false,"is_disabled":true,"rental_uris":{"android":"levelo://app?vid=35965273-4af4-457c-87a3-4f7523a4ce80","ios":"levelo://app?vid=35965273-4af4-457c-87a3-4f7523a4ce80"},"vehicle_type_id":"4","last_reported":1752886648,"current_range_meters":11600,"station_id":"ce4bhb92rcd13ifvqen0","pricing_plan_id":"cebpf4jnsgd1na2vs0mg"},{"bike_id":"be60c88c-1453-4626-be80-200258f79626","system_id":"levelo_inurba_marseille","lat":43.23196,"lon":5.3555,"is_reserved":false,"is_disabled":false,"rental_uris":{"android":"levelo://app?vid=be60c88c-1453-4626-be80-200258f79626","ios":"levelo://app?vid=be60c88c-1453-4626-be80-200258f79626"},"vehicle_type_id":"4","last_reported":1752886648,"current_range_meters":12000,"station_id":"ce4bhu92rcd13ifvqi70","pricing_plan_id":"cebpf4jnsgd1na2vs0mg"},{"bike_id":"287e0ac8-da97-4c85-b9ee-064398354cd7","system_id":"levelo_inurba_marseille","lat":43.31128,"lon":5.37774,"is_reserved":false,"is_disabled":false,"rental_uris":{"android":"levelo://app?vid=287e0ac8-da97-4c85-b9ee-064398354cd7","ios":"levelo://app?vid=287e0ac8-da97-4c85-b9ee-064398354cd7"},"vehicle_type_id":"4","last_reported":1752886648,"current_range_meters":11600,"station_id":"ce4bgt92rcd13ifvqcg0","pricing_plan_id":"cebpf4jnsgd1na2vs0mg"},{"bike_id":"25d3b560-6a49-4668-805e-cd625849b9f4","system_id":"levelo_inurba_marseille","lat":43.32344,"lon":5.40619,"is_reserved":false,"is_disabled":false,"rental_uris":{"android":"levelo://app?vid=25d3b560-6a49-4668-805e-cd625849b9f4","ios":"levelo://app?vid=25d3b560-6a49-4668-805e-cd625849b9f4"},"vehicle_type_id":"4","last_reported":1752886648,"current_range_meters":12000,"station_id":"ce4bhq92rcd13ifvqhjg","pricing_plan_id":"cebpf4jnsgd1na2vs0mg"},{"bike_id":"183a2501-80ca-421a-b6b9-a857bb3ea2fb","system_id":"levelo_inurba_marseille","lat":43.28701,"lon":5.39984,"is_reserved":false,"is_disabled":false,"rental_uris":{"android":"levelo://app?vid=183a2501-80ca-421a-b6b9-a857bb3ea2fb","ios":"levelo://app?vid=183a2501-80ca-421a-b6b9-a857bb3ea2fb"},"vehicle_type_id":"4","last_reported":1752886648,"current_range_meters":12000,"station_id":"ce4bho92rcd13ifvqh3g","pricing_plan_id":"cebpf4jnsgd1na2vs0mg"},{"bike_id":"cfb52d04-9134-4c86-8269-771716b20f27","system_id":"levelo_inurba_marseille","lat":43.21199,"lon":5.35082,"is_reserved":false,"is_disabled":false,"rental_uris":{"android":"levelo://app?vid=cfb52d04-9134-4c86-8269-771716b20f27","ios":"levelo://app?vid=cfb52d04-9134-4c86-8269-771716b20f27"},"vehicle_type_id":"4","last_reported":1752886648,"current_range_meters":12000,"station_id":"st_cvj6sg6p6f1abm77japg","pricing_plan_id":"cebpf4jnsgd1na2vs0mg"},{"bike_id":"df021a0c-2fdb-4371-b571-c01231c3d323","system_id":"levelo_inurba_marseille","lat":43.33024,"lon":5.39041,"is_reserved":false,"is_disabled":false,"rental_uris":{"android":"levelo://app?vid=df021a0c-2fdb-4371-b571-c01231c3d323","ios":"levelo://app?vid=df021a0c-2fdb-4371-b571-c01231c3d323"},"vehicle_type_id":"4","last_reported":1752886648,"current_range_meters":11600,"station_id":"ce4bhr92rcd13ifvqhrg","pricing_plan_id":"cebpf4jnsgd1na2vs0mg"},{"bike_id":"41bef549-9b18-4f81-b5e5-e5dfb8c818df","system_id":"levelo_inurba_marseille","lat":43.30248,"lon":5.40026,"is_reserved":false,"is_disabled":false,"rental_uris":{"android":"levelo://app?vid=41bef549-9b18-4f81-b5e5-e5dfb8c818df","ios":"levelo://app?vid=41bef549-9b18-4f81-b5e5-e5dfb8c818df"},"vehicle_type_id":"4","last_reported":1752886648,"current_range_meters":12400,"station_id":"ce4bgvh2rcd13ifvqcs0","pricing_plan_id":"cebpf4jnsgd1na2vs0mg"},{"bike_id":"54f98d0a-07b0-454f-bf7b-7d3f51016d1d","system_id":"levelo_inurba_marseille","lat":43.28576,"lon":5.39489,"is_reserved":false,"is_disabled":false,"rental_uris":{"android":"levelo://app?vid=54f98d0a-07b0-454f-bf7b-7d3f51016d1d","ios":"levelo://app?vid=54f98d0a-07b0-454f-bf7b-7d3f51016d1d"},"vehicle_type_id":"4","last_reported":1752886648,"current_range_meters":12400,"station_id":"ce4bh292rcd13ifvqdg0","pricing_plan_id":"cebpf4jnsgd1na2vs0mg"},{"bike_id":"c3ac509c-e93b-452a-bc2a-82079aaa6a85","system_id":"levelo_inurba_marseille","lat":43.30574,"lon":5.4045,"is_reserved":false,"is_disabled":false,"rental_uris":{"android":"levelo://app?vid=c3ac509c-e93b-452a-bc2a-82079aaa6a85","ios":"levelo://app?vid=c3ac509c-e93b-452a-bc2a-82079aaa6a85"},"vehicle_type_id":"4","last_reported":1752886648,"current_range_meters":12400,"station_id":"","pricing_plan_id":"cebpf4jnsgd1na2vs0mg"},{"bike_id":"0b250332-c99a-4726-ac2a-74deb04ffed3","system_id":"levelo_inurba_marseille","lat":43.27938,"lon":5.39585,"is_reserved":false,"is_disabled":true,"rental_uris":{"android":"levelo://app?vid=0b250332-c99a-4726-ac2a-74deb04ffed3","ios":"levelo://app?vid=0b250332-c99a-4726-ac2a-74deb04ffed3"},"vehicle_type_id":"4","last_reported":1752886648,"current_range_meters":12400,"station_id":"ce4bhf92rcd13ifvqf40","pricing_plan_id":"cebpf4jnsgd1na2vs0mg"},{"bike_id":"57a30f0b-84eb-4b98-8989-8d3c02b43bf0","system_id":"levelo_inurba_marseille","lat":43.28605,"lon":5.37071,"is_reserved":false,"is_disabled":false,"rental_uris":{"android":"levelo://app?vid=57a30f0b-84eb-4b98-8989-8d3c02b43bf0","ios":"levelo://app?vid=57a30f0b-84eb-4b98-8989-8d3c02b43bf0"},"vehicle_type_id":"4","last_reported":1752886648,"current_range_meters":12400,"station_id":"ce4bht12rcd13ifvqi60","pricing_plan_id":"cebpf4jnsgd1na2vs0mg"},{"bike_id":"b7fe52dd-f025-4212-9e78-19e7f6f09593","system_id":"levelo_inurba_marseille","lat":43.21189,"lon":5.35064,"is_reserved":false,"is_disabled":false,"rental_uris":{"android":"levelo://app?vid=b7fe52dd-f025-4212-9e78-19e7f6f09593","ios":"levelo://app?vid=b7fe52dd-f025-4212-9e78-19e7f6f09593"},"vehicle_type_id":"4","last_reported":1752886648,"current_range_meters":12400,"station_id":"st_cvj6sg6p6f1abm77japg","pricing_plan_id":"cebpf4jnsgd1na2vs0mg"},{"bike_id":"70a3940c-c40a-4ef4-8e48-8b68d4968bc7","system_id":"levelo_inurba_marseille","lat":43.23954,"lon":5.3664,"is_reserved":false,"is_disabled":true,"rental_uris":{"android":"levelo://app?vid=70a3940c-c40a-4ef4-8e48-8b68d4968bc7","ios":"levelo://app?vid=70a3940c-c40a-4ef4-8e48-8b68d4968bc7"},"vehicle_type_id":"4","last_reported":1752886648,"current_range_meters":12800,"station_id":"ce4bhi12rcd13ifvqfp0","pricing_plan_id":"cebpf4jnsgd1na2vs0mg"},{"bike_id":"9d26a0e8-52a9-4afd-8a23-859b3c0d8c1a","system_id":"levelo_inurba_marseille","lat":43.28722,"lon":5.39993,"is_reserved":false,"is_disabled":false,"rental_uris":{"android":"levelo://app?vid=9d26a0e8-52a9-4afd-8a23-859b3c0d8c1a","ios":"levelo://app?vid=9d26a0e8-52a9-4afd-8a23-859b3c0d8c1a"},"vehicle_type_id":"4","last_reported":1752886648,"current_range_meters":12800,"station_id":"ce4bho92rcd13ifvqh3g","pricing_plan_id":"cebpf4jnsgd1na2vs0mg"},{"bike_id":"a67156ae-789e-45f5-ab3f-ed7d95b24540","system_id":"levelo_inurba_marseille","lat":43.21193,"lon":5.35076,"is_reserved":false,"is_disabled":false,"rental_uris":{"android":"levelo://app?vid=a67156ae-789e-45f5-ab3f-ed7d95b24540","ios":"levelo://app?vid=a67156ae-789e-45f5-ab3f-ed7d95b24540"},"vehicle_type_id":"4","last_reported":1752886648,"current_range_meters":12800,"station_id":"st_cvj6sg6p6f1abm77japg","pricing_plan_id":"cebpf4jnsgd1na2vs0mg"},{"bike_id":"69d3f137-4dd7-4a32-bc5c-571e1585d8bc","system_id":"levelo_inurba_marseille","lat":43.31711,"lon":5.37771,"is_reserved":false,"is_disabled":false,"rental_uris":{"android":"levelo://app?vid=69d3f137-4dd7-4a32-bc5c-571e1585d8bc","ios":"levelo://app?vid=69d3f137-4dd7-4a32-bc5c-571e1585d8bc"},"vehicle_type_id":"4","last_reported":1752886648,"current_range_meters":12800,"station_id":"ce4bgth2rcd13ifvqch0","pricing_plan_id":"cebpf4jnsgd1na2vs0mg"},{"bike_id":"5ed7e33c-75eb-4f80-9ced-f5eee5190af4","system_id":"levelo_inurba_marseille","lat":43.29567,"lon":5.42287,"is_reserved":false,"is_disabled":false,"rental_uris":{"android":"levelo://app?vid=5ed7e33c-75eb-4f80-9ced-f5eee5190af4","ios":"levelo://app?vid=5ed7e33c-75eb-4f80-9ced-f5eee5190af4"},"vehicle_type_id":"4","last_reported":1752886648,"current_range_meters":13600,"station_id":"ce4bhph2rcd13ifvqhdg","pricing_plan_id":"cebpf4jnsgd1na2vs0mg"},{"bike_id":"3814635e-c316-4110-8601-0b3bc41ad6bc","system_id":"levelo_inurba_marseille","lat":43.31104,"lon":5.3778,"is_reserved":false,"is_disabled":false,"rental_uris":{"android":"levelo://app?vid=3814635e-c316-4110-8601-0b3bc41ad6bc","ios":"levelo://app?vid=3814635e-c316-4110-8601-0b3bc41ad6bc"},"vehicle_type_id":"4","last_reported":1752886648,"current_range_meters":13600,"station_id":"ce4bgt92rcd13ifvqcg0","pricing_plan_id":"cebpf4jnsgd1na2vs0mg"},{"bike_id":"0dae2f6b-f1bd-438b-8bb0-cdbd38ad2295","system_id":"levelo_inurba_marseille","lat":43.317649,"lon":5.426208,"is_reserved":false,"is_disabled":false,"rental_uris":{"android":"levelo://app?vid=0dae2f6b-f1bd-438b-8bb0-cdbd38ad2295","ios":"levelo://app?vid=0dae2f6b-f1bd-438b-8bb0-cdbd38ad2295"},"vehicle_type_id":"4","last_reported":1752886648,"current_range_meters":13600,"station_id":"ce4bhp92rcd13ifvqhbg","pricing_plan_id":"cebpf4jnsgd1na2vs0mg"},{"bike_id":"9255257a-71eb-4bd2-be0b-e984b8ace01d","system_id":"levelo_inurba_marseille","lat":43.28454,"lon":5.38421,"is_reserved":false,"is_disabled":false,"rental_uris":{"android":"levelo://app?vid=9255257a-71eb-4bd2-be0b-e984b8ace01d","ios":"levelo://app?vid=9255257a-71eb-4bd2-be0b-e984b8ace01d"},"vehicle_type_id":"4","last_reported":1752886648,"current_range_meters":12800,"station_id":"ce4bh512rcd13ifvqe3g","pricing_plan_id":"cebpf4jnsgd1na2vs0mg"},{"bike_id":"ec2b2fdf-c717-4d0d-a5a1-388d9260ccf0","system_id":"levelo_inurba_marseille","lat":43.28159,"lon":5.42649,"is_reserved":false,"is_disabled":false,"rental_uris":{"android":"levelo://app?vid=ec2b2fdf-c717-4d0d-a5a1-388d9260ccf0","ios":"levelo://app?vid=ec2b2fdf-c717-4d0d-a5a1-388d9260ccf0"},"vehicle_type_id":"4","last_reported":1752886648,"current_range_meters":14000,"station_id":"ce4bhnh2rcd13ifvqgug","pricing_plan_id":"cebpf4jnsgd1na2vs0mg"},{"bike_id":"0ffec689-ea73-4886-a8a8-e9075fc0366f","system_id":"levelo_inurba_marseille","lat":43.30745,"lon":5.42467,"is_reserved":false,"is_disabled":true,"rental_uris":{"android":"levelo://app?vid=0ffec689-ea73-4886-a8a8-e9075fc0366f","ios":"levelo://app?vid=0ffec689-ea73-4886-a8a8-e9075fc0366f"},"vehicle_type_id":"4","last_reported":1752886648,"current_range_meters":14000,"station_id":"st_cvj6ca6bvosntc0bfgr0","pricing_plan_id":"cebpf4jnsgd1na2vs0mg"},{"bike_id":"ac0ed4be-466c-4caa-b855-3c6bbe5a11b5","system_id":"levelo_inurba_marseille","lat":43.26783,"lon":5.3718,"is_reserved":false,"is_disabled":false,"rental_uris":{"android":"levelo://app?vid=ac0ed4be-466c-4caa-b855-3c6bbe5a11b5","ios":"levelo://app?vid=ac0ed4be-466c-4caa-b855-3c6bbe5a11b5"},"vehicle_type_id":"4","last_reported":1752886648,"current_range_meters":14000,"station_id":"","pricing_plan_id":"cebpf4jnsgd1na2vs0mg"},{"bike_id":"e571b882-1b31-481a-9f98-8ab8eeeef29c","system_id":"levelo_inurba_marseille","lat":43.28698,"lon":5.37406,"is_reserved":false,"is_disabled":false,"rental_uris":{"android":"levelo://app?vid=e571b882-1b31-481a-9f98-8ab8eeeef29c","ios":"levelo://app?vid=e571b882-1b31-481a-9f98-8ab8eeeef29c"},"vehicle_type_id":"4","last_reported":1752886648,"current_range_meters":14000,"station_id":"ce4bh3p2rcd13ifvqdq0","pricing_plan_id":"cebpf4jnsgd1na2vs0mg"},{"bike_id":"8e79a85b-71cd-44e2-9769-4ad285ff7c49","system_id":"levelo_inurba_marseille","lat":43.21748,"lon":5.34613,"is_reserved":false,"is_disabled":false,"rental_uris":{"android":"levelo://app?vid=8e79a85b-71cd-44e2-9769-4ad285ff7c49","ios":"levelo://app?vid=8e79a85b-71cd-44e2-9769-4ad285ff7c49"},"vehicle_type_id":"4","last_reported":1752886648,"current_range_meters":14000,"station_id":"st_cvj6r9ubvosntc0bgbag","pricing_plan_id":"cebpf4jnsgd1na2vs0mg"},{"bike_id":"1a6ea3f6-f773-43b2-bc6e-f7d2c0a75b60","system_id":"levelo_inurba_marseille","lat":43.30118,"lon":5.39858,"is_reserved":false,"is_disabled":false,"rental_uris":{"android":"levelo://app?vid=1a6ea3f6-f773-43b2-bc6e-f7d2c0a75b60","ios":"levelo://app?vid=1a6ea3f6-f773-43b2-bc6e-f7d2c0a75b60"},"vehicle_type_id":"4","last_reported":1752886648,"current_range_meters":14000,"station_id":"ce4bh0h2rcd13ifvqd40","pricing_plan_id":"cebpf4jnsgd1na2vs0mg"},{"bike_id":"52c89ba3-24fd-4f63-9660-f947b4cece79","system_id":"levelo_inurba_marseille","lat":43.31115,"lon":5.37765,"is_reserved":false,"is_disabled":false,"rental_uris":{"android":"levelo://app?vid=52c89ba3-24fd-4f63-9660-f947b4cece79","ios":"levelo://app?vid=52c89ba3-24fd-4f63-9660-f947b4cece79"},"vehicle_type_id":"4","last_reported":1752886648,"current_range_meters":14000,"station_id":"ce4bgt92rcd13ifvqcg0","pricing_plan_id":"cebpf4jnsgd1na2vs0mg"},{"bike_id":"2fd3d782-24a7-42a3-b248-8e69e5a88f8a","system_id":"levelo_inurba_marseille","lat":43.31685,"lon":5.40402,"is_reserved":false,"is_disabled":false,"rental_uris":{"android":"levelo://app?vid=2fd3d782-24a7-42a3-b248-8e69e5a88f8a","ios":"levelo://app?vid=2fd3d782-24a7-42a3-b248-8e69e5a88f8a"},"vehicle_type_id":"4","last_reported":1752886648,"current_range_meters":14000,"station_id":"","pricing_plan_id":"cebpf4jnsgd1na2vs0mg"},{"bike_id":"edd0079d-996b-4ae3-9a31-d781f3a059ec","system_id":"levelo_inurba_marseille","lat":43.33786,"lon":5.37426,"is_reserved":false,"is_disabled":false,"rental_uris":{"android":"levelo://app?vid=edd0079d-996b-4ae3-9a31-d781f3a059ec","ios":"levelo://app?vid=edd0079d-996b-4ae3-9a31-d781f3a059ec"},"vehicle_type_id":"4","last_reported":1752886648,"current_range_meters":14000,"station_id":"","pricing_plan_id":"cebpf4jnsgd1na2vs0mg"},{"bike_id":"8226c187-38c4-49ab-9b7d-44ff1a11cba1","system_id":"levelo_inurba_marseille","lat":43.31116,"lon":5.37764,"is_reserved":false,"is_disabled":false,"rental_uris":{"android":"levelo://app?vid=8226c187-38c4-49ab-9b7d-44ff1a11cba1","ios":"levelo://app?vid=8226c187-38c4-49ab-9b7d-44ff1a11cba1"},"vehicle_type_id":"4","last_reported":1752886648,"current_range_meters":14000,"station_id":"ce4bgt92rcd13ifvqcg0","pricing_plan_id":"cebpf4jnsgd1na2vs0mg"},{"bike_id":"6f18ab1b-0c74-47b1-bed8-837677176207","system_id":"levelo_inurba_marseille","lat":43.32064,"lon":5.40944,"is_reserved":false,"is_disabled":false,"rental_uris":{"android":"levelo://app?vid=6f18ab1b-0c74-47b1-bed8-837677176207","ios":"levelo://app?vid=6f18ab1b-0c74-47b1-bed8-837677176207"},"vehicle_type_id":"4","last_reported":1752886648,"current_range_meters":14000,"station_id":"","pricing_plan_id":"cebpf4jnsgd1na2vs0mg"},{"bike_id":"227109b7-4063-4114-8546-c20e3f2bd6c8","system_id":"levelo_inurba_marseille","lat":43.30263,"lon":5.40054,"is_reserved":false,"is_disabled":false,"rental_uris":{"android":"levelo://app?vid=227109b7-4063-4114-8546-c20e3f2bd6c8","ios":"levelo://app?vid=227109b7-4063-4114-8546-c20e3f2bd6c8"},"vehicle_type_id":"4","last_reported":1752886648,"current_range_meters":14400,"station_id":"ce4bgvh2rcd13ifvqcs0","pricing_plan_id":"cebpf4jnsgd1na2vs0mg"},{"bike_id":"08a94e68-7279-4c26-9ca7-7cd2e2f2fe4c","system_id":"levelo_inurba_marseille","lat":43.24153,"lon":5.36422,"is_reserved":false,"is_disabled":true,"rental_uris":{"android":"levelo://app?vid=08a94e68-7279-4c26-9ca7-7cd2e2f2fe4c","ios":"levelo://app?vid=08a94e68-7279-4c26-9ca7-7cd2e2f2fe4c"},"vehicle_type_id":"4","last_reported":1752886648,"current_range_meters":14400,"station_id":"cpo36qri1sfpv3e86is0","pricing_plan_id":"cebpf4jnsgd1na2vs0mg"},{"bike_id":"a2d76383-0d2d-400c-ba35-35dd456ac496","system_id":"levelo_inurba_marseille","lat":43.26485,"lon":5.39552,"is_reserved":false,"is_disabled":false,"rental_uris":{"android":"levelo://app?vid=a2d76383-0d2d-400c-ba35-35dd456ac496","ios":"levelo://app?vid=a2d76383-0d2d-400c-ba35-35dd456ac496"},"vehicle_type_id":"4","last_reported":1752886648,"current_range_meters":14400,"station_id":"ce4bhi12rcd13ifvqfq0","pricing_plan_id":"cebpf4jnsgd1na2vs0mg"},{"bike_id":"074caeb7-04d4-47c5-949e-6a5d40365db1","system_id":"levelo_inurba_marseille","lat":43.288514,"lon":5.393166,"is_reserved":false,"is_disabled":false,"rental_uris":{"android":"levelo://app?vid=074caeb7-04d4-47c5-949e-6a5d40365db1","ios":"levelo://app?vid=074caeb7-04d4-47c5-949e-6a5d40365db1"},"vehicle_type_id":"4","last_reported":1752886648,"current_range_meters":14000,"station_id":"ce4bh2p2rcd13ifvqdi0","pricing_plan_id":"cebpf4jnsgd1na2vs0mg"},{"bike_id":"782021d6-37ef-4fe1-8e48-2f487b2e357c","system_id":"levelo_inurba_marseille","lat":43.26557,"lon":5.39053,"is_reserved":false,"is_disabled":false,"rental_uris":{"android":"levelo://app?vid=782021d6-37ef-4fe1-8e48-2f487b2e357c","ios":"levelo://app?vid=782021d6-37ef-4fe1-8e48-2f487b2e357c"},"vehicle_type_id":"4","last_reported":1752886648,"current_range_meters":14400,"station_id":"ce4bhe12rcd13ifvqf30","pricing_plan_id":"cebpf4jnsgd1na2vs0mg"},{"bike_id":"3dbe5912-b178-4d6a-b0a5-780c833ee7fa","system_id":"levelo_inurba_marseille","lat":43.290541,"lon":5.355976,"is_reserved":false,"is_disabled":false,"rental_uris":{"android":"levelo://app?vid=3dbe5912-b178-4d6a-b0a5-780c833ee7fa","ios":"levelo://app?vid=3dbe5912-b178-4d6a-b0a5-780c833ee7fa"},"vehicle_type_id":"4","last_reported":1752886648,"current_range_meters":14800,"station_id":"ce4bhb92rcd13ifvqen0","pricing_plan_id":"cebpf4jnsgd1na2vs0mg"},{"bike_id":"acf2a4f4-aa40-4513-b592-4913784384d3","system_id":"levelo_inurba_marseille","lat":43.29434,"lon":5.39761,"is_reserved":false,"is_disabled":false,"rental_uris":{"android":"levelo://app?vid=acf2a4f4-aa40-4513-b592-4913784384d3","ios":"levelo://app?vid=acf2a4f4-aa40-4513-b592-4913784384d3"},"vehicle_type_id":"4","last_reported":1752886648,"current_range_meters":14400,"station_id":"ce4bh3h2rcd13ifvqdo0","pricing_plan_id":"cebpf4jnsgd1na2vs0mg"},{"bike_id":"262bba80-9a85-4074-97aa-225c3aedc3b7","system_id":"levelo_inurba_marseille","lat":43.30644,"lon":5.40108,"is_reserved":false,"is_disabled":true,"rental_uris":{"android":"levelo://app?vid=262bba80-9a85-4074-97aa-225c3aedc3b7","ios":"levelo://app?vid=262bba80-9a85-4074-97aa-225c3aedc3b7"},"vehicle_type_id":"4","last_reported":1752886648,"current_range_meters":14800,"station_id":"ce4bh112rcd13ifvqda0","pricing_plan_id":"cebpf4jnsgd1na2vs0mg"},{"bike_id":"1a794689-0399-4bd8-871c-778f85fe0438","system_id":"levelo_inurba_marseille","lat":43.27495,"lon":5.42485,"is_reserved":false,"is_disabled":false,"rental_uris":{"android":"levelo://app?vid=1a794689-0399-4bd8-871c-778f85fe0438","ios":"levelo://app?vid=1a794689-0399-4bd8-871c-778f85fe0438"},"vehicle_type_id":"4","last_reported":1752886648,"current_range_meters":14800,"station_id":"ce4bhn92rcd13ifvqgrg","pricing_plan_id":"cebpf4jnsgd1na2vs0mg"},{"bike_id":"380d9762-7aa7-482d-9fc2-515ae61b009c","system_id":"levelo_inurba_marseille","lat":43.24073,"lon":5.37762,"is_reserved":false,"is_disabled":false,"rental_uris":{"android":"levelo://app?vid=380d9762-7aa7-482d-9fc2-515ae61b009c","ios":"levelo://app?vid=380d9762-7aa7-482d-9fc2-515ae61b009c"},"vehicle_type_id":"4","last_reported":1752886648,"current_range_meters":15200,"station_id":"ce4bhnp2rcd13ifvqgvg","pricing_plan_id":"cebpf4jnsgd1na2vs0mg"},{"bike_id":"e6ed5a81-2a33-4c37-a36e-2bb390f1a720","system_id":"levelo_inurba_marseille","lat":43.27608,"lon":5.36118,"is_reserved":false,"is_disabled":false,"rental_uris":{"android":"levelo://app?vid=e6ed5a81-2a33-4c37-a36e-2bb390f1a720","ios":"levelo://app?vid=e6ed5a81-2a33-4c37-a36e-2bb390f1a720"},"vehicle_type_id":"4","last_reported":1752886648,"current_range_meters":15200,"station_id":"ce4bgj92rcd13ifvqbe0","pricing_plan_id":"cebpf4jnsgd1na2vs0mg"},{"bike_id":"0e3e9a19-a32e-45e2-bce2-fa6c5fad95bf","system_id":"levelo_inurba_marseille","lat":43.31047,"lon":5.38351,"is_reserved":false,"is_disabled":false,"rental_uris":{"android":"levelo://app?vid=0e3e9a19-a32e-45e2-bce2-fa6c5fad95bf","ios":"levelo://app?vid=0e3e9a19-a32e-45e2-bce2-fa6c5fad95bf"},"vehicle_type_id":"4","last_reported":1752886648,"current_range_meters":15200,"station_id":"ce4bgv92rcd13ifvqcr0","pricing_plan_id":"cebpf4jnsgd1na2vs0mg"},{"bike_id":"1deaf019-0122-4d37-9d7e-dea88ca7111f","system_id":"levelo_inurba_marseille","lat":43.283571,"lon":5.381132,"is_reserved":false,"is_disabled":false,"rental_uris":{"android":"levelo://app?vid=1deaf019-0122-4d37-9d7e-dea88ca7111f","ios":"levelo://app?vid=1deaf019-0122-4d37-9d7e-dea88ca7111f"},"vehicle_type_id":"4","last_reported":1752886648,"current_range_meters":15200,"station_id":"ce4bh412rcd13ifvqdr0","pricing_plan_id":"cebpf4jnsgd1na2vs0mg"},{"bike_id":"0916292f-c60f-4ec2-a3c5-bb862cec8507","system_id":"levelo_inurba_marseille","lat":43.23179,"lon":5.35577,"is_reserved":false,"is_disabled":false,"rental_uris":{"android":"levelo://app?vid=0916292f-c60f-4ec2-a3c5-bb862cec8507","ios":"levelo://app?vid=0916292f-c60f-4ec2-a3c5-bb862cec8507"},"vehicle_type_id":"4","last_reported":1752886648,"current_range_meters":15200,"station_id":"ce4bhu92rcd13ifvqi70","pricing_plan_id":"cebpf4jnsgd1na2vs0mg"},{"bike_id":"0de05b34-904d-47c0-8357-10e20dcf4a73","system_id":"levelo_inurba_marseille","lat":43.30644,"lon":5.40078,"is_reserved":false,"is_disabled":false,"rental_uris":{"android":"levelo://app?vid=0de05b34-904d-47c0-8357-10e20dcf4a73","ios":"levelo://app?vid=0de05b34-904d-47c0-8357-10e20dcf4a73"},"vehicle_type_id":"4","last_reported":1752886648,"current_range_meters":16000,"station_id":"ce4bh112rcd13ifvqda0","pricing_plan_id":"cebpf4jnsgd1na2vs0mg"},{"bike_id":"7f02cd16-abf2-40a4-97c2-19dc0dd97d66","system_id":"levelo_inurba_marseille","lat":43.262232,"lon":5.404505,"is_reserved":false,"is_disabled":false,"rental_uris":{"android":"levelo://app?vid=7f02cd16-abf2-40a4-97c2-19dc0dd97d66","ios":"levelo://app?vid=7f02cd16-abf2-40a4-97c2-19dc0dd97d66"},"vehicle_type_id":"4","last_reported":1752886648,"current_range_meters":16000,"station_id":"ce4bhmh2rcd13ifvqgmg","pricing_plan_id":"cebpf4jnsgd1na2vs0mg"},{"bike_id":"afc91c81-7042-4270-a28e-07e325ae83c9","system_id":"levelo_inurba_marseille","lat":43.21205,"lon":5.35079,"is_reserved":false,"is_disabled":false,"rental_uris":{"android":"levelo://app?vid=afc91c81-7042-4270-a28e-07e325ae83c9","ios":"levelo://app?vid=afc91c81-7042-4270-a28e-07e325ae83c9"},"vehicle_type_id":"4","last_reported":1752886648,"current_range_meters":16000,"station_id":"st_cvj6sg6p6f1abm77japg","pricing_plan_id":"cebpf4jnsgd1na2vs0mg"},{"bike_id":"223cebf6-a660-41bf-b041-5bddcc036514","system_id":"levelo_inurba_marseille","lat":43.26942,"lon":5.40251,"is_reserved":false,"is_disabled":false,"rental_uris":{"android":"levelo://app?vid=223cebf6-a660-41bf-b041-5bddcc036514","ios":"levelo://app?vid=223cebf6-a660-41bf-b041-5bddcc036514"},"vehicle_type_id":"4","last_reported":1752886648,"current_range_meters":16000,"station_id":"cjm6bp8fraef2m0cb0m0","pricing_plan_id":"cebpf4jnsgd1na2vs0mg"},{"bike_id":"56be4ab9-5e92-449c-8994-c42709f936d2","system_id":"levelo_inurba_marseille","lat":43.27057,"lon":5.40259,"is_reserved":false,"is_disabled":false,"rental_uris":{"android":"levelo://app?vid=56be4ab9-5e92-449c-8994-c42709f936d2","ios":"levelo://app?vid=56be4ab9-5e92-449c-8994-c42709f936d2"},"vehicle_type_id":"4","last_reported":1752886648,"current_range_meters":16000,"station_id":"ce4bhk92rcd13ifvqgc0","pricing_plan_id":"cebpf4jnsgd1na2vs0mg"},{"bike_id":"90f1924f-336d-4405-b5b1-03dcfd5afe7c","system_id":"levelo_inurba_marseille","lat":43.2783,"lon":5.38508,"is_reserved":false,"is_disabled":false,"rental_uris":{"android":"levelo://app?vid=90f1924f-336d-4405-b5b1-03dcfd5afe7c","ios":"levelo://app?vid=90f1924f-336d-4405-b5b1-03dcfd5afe7c"},"vehicle_type_id":"4","last_reported":1752886648,"current_range_meters":16000,"station_id":"","pricing_plan_id":"cebpf4jnsgd1na2vs0mg"},{"bike_id":"e906804e-0ddf-4b2b-9bc1-07df096c1772","system_id":"levelo_inurba_marseille","lat":43.30256,"lon":5.40072,"is_reserved":false,"is_disabled":false,"rental_uris":{"android":"levelo://app?vid=e906804e-0ddf-4b2b-9bc1-07df096c1772","ios":"levelo://app?vid=e906804e-0ddf-4b2b-9bc1-07df096c1772"},"vehicle_type_id":"4","last_reported":1752886648,"current_range_meters":15200,"station_id":"ce4bgvh2rcd13ifvqcs0","pricing_plan_id":"cebpf4jnsgd1na2vs0mg"},{"bike_id":"edfe02ed-e3fd-4ae5-87b6-c6b344bbc6d4","system_id":"levelo_inurba_marseille","lat":43.30312,"lon":5.36892,"is_reserved":false,"is_disabled":false,"rental_uris":{"android":"levelo://app?vid=edfe02ed-e3fd-4ae5-87b6-c6b344bbc6d4","ios":"levelo://app?vid=edfe02ed-e3fd-4ae5-87b6-c6b344bbc6d4"},"vehicle_type_id":"4","last_reported":1752886648,"current_range_meters":16000,"station_id":"ce4bgqh2rcd13ifvqc5g","pricing_plan_id":"cebpf4jnsgd1na2vs0mg"},{"bike_id":"31ce5e9c-04fe-46ac-8221-cc9c8885ab79","system_id":"levelo_inurba_marseille","lat":43.32304,"lon":5.40639,"is_reserved":false,"is_disabled":false,"rental_uris":{"android":"levelo://app?vid=31ce5e9c-04fe-46ac-8221-cc9c8885ab79","ios":"levelo://app?vid=31ce5e9c-04fe-46ac-8221-cc9c8885ab79"},"vehicle_type_id":"4","last_reported":1752886648,"current_range_meters":16000,"station_id":"ce4bhq92rcd13ifvqhjg","pricing_plan_id":"cebpf4jnsgd1na2vs0mg"},{"bike_id":"552f10ae-ebe9-4a43-9161-2070e2842bf6","system_id":"levelo_inurba_marseille","lat":43.323334,"lon":5.406256,"is_reserved":false,"is_disabled":false,"rental_uris":{"android":"levelo://app?vid=552f10ae-ebe9-4a43-9161-2070e2842bf6","ios":"levelo://app?vid=552f10ae-ebe9-4a43-9161-2070e2842bf6"},"vehicle_type_id":"4","last_reported":1752886648,"current_range_meters":16000,"station_id":"ce4bhq92rcd13ifvqhjg","pricing_plan_id":"cebpf4jnsgd1na2vs0mg"},{"bike_id":"94c07cb2-0943-4d24-99f2-97bdab47aa3f","system_id":"levelo_inurba_marseille","lat":43.337444,"lon":5.374475,"is_reserved":false,"is_disabled":false,"rental_uris":{"android":"levelo://app?vid=94c07cb2-0943-4d24-99f2-97bdab47aa3f","ios":"levelo://app?vid=94c07cb2-0943-4d24-99f2-97bdab47aa3f"},"vehicle_type_id":"4","last_reported":1752886648,"current_range_meters":16000,"station_id":"","pricing_plan_id":"cebpf4jnsgd1na2vs0mg"},{"bike_id":"d5cf0ddb-4301-4e01-9253-a4393d968d0a","system_id":"levelo_inurba_marseille","lat":43.22513,"lon":5.34789,"is_reserved":false,"is_disabled":false,"rental_uris":{"android":"levelo://app?vid=d5cf0ddb-4301-4e01-9253-a4393d968d0a","ios":"levelo://app?vid=d5cf0ddb-4301-4e01-9253-a4393d968d0a"},"vehicle_type_id":"4","last_reported":1752886648,"current_range_meters":16400,"station_id":"st_cvj5dfep6f1abm77gieg","pricing_plan_id":"cebpf4jnsgd1na2vs0mg"},{"bike_id":"11a10c3e-2518-452e-9534-fe8c7d8faf7f","system_id":"levelo_inurba_marseille","lat":43.2478,"lon":5.4118,"is_reserved":false,"is_disabled":false,"rental_uris":{"android":"levelo://app?vid=11a10c3e-2518-452e-9534-fe8c7d8faf7f","ios":"levelo://app?vid=11a10c3e-2518-452e-9534-fe8c7d8faf7f"},"vehicle_type_id":"4","last_reported":1752886648,"current_range_meters":16400,"station_id":"","pricing_plan_id":"cebpf4jnsgd1na2vs0mg"},{"bike_id":"221a8f03-67cb-485b-8573-9abcf816d5d5","system_id":"levelo_inurba_marseille","lat":43.29868,"lon":5.39734,"is_reserved":false,"is_disabled":false,"rental_uris":{"android":"levelo://app?vid=221a8f03-67cb-485b-8573-9abcf816d5d5","ios":"levelo://app?vid=221a8f03-67cb-485b-8573-9abcf816d5d5"},"vehicle_type_id":"4","last_reported":1752886648,"current_range_meters":16400,"station_id":"","pricing_plan_id":"cebpf4jnsgd1na2vs0mg"},{"bike_id":"927d9c78-a913-4067-8454-681b71da8e36","system_id":"levelo_inurba_marseille","lat":43.30817,"lon":5.38154,"is_reserved":false,"is_disabled":false,"rental_uris":{"android":"levelo://app?vid=927d9c78-a913-4067-8454-681b71da8e36","ios":"levelo://app?vid=927d9c78-a913-4067-8454-681b71da8e36"},"vehicle_type_id":"4","last_reported":1752886648,"current_range_meters":16400,"station_id":"ce4bgt12rcd13ifvqce0","pricing_plan_id":"cebpf4jnsgd1na2vs0mg"},{"bike_id":"9e944c0d-2dd7-4c1a-b131-d5121e0f348e","system_id":"levelo_inurba_marseille","lat":43.3106,"lon":5.38348,"is_reserved":false,"is_disabled":false,"rental_uris":{"android":"levelo://app?vid=9e944c0d-2dd7-4c1a-b131-d5121e0f348e","ios":"levelo://app?vid=9e944c0d-2dd7-4c1a-b131-d5121e0f348e"},"vehicle_type_id":"4","last_reported":1752886648,"current_range_meters":16400,"station_id":"ce4bgv92rcd13ifvqcr0","pricing_plan_id":"cebpf4jnsgd1na2vs0mg"},{"bike_id":"ab6c1c2d-c3a8-4a50-8537-c191d4400e5e","system_id":"levelo_inurba_marseille","lat":43.23151,"lon":5.43723,"is_reserved":false,"is_disabled":false,"rental_uris":{"android":"levelo://app?vid=ab6c1c2d-c3a8-4a50-8537-c191d4400e5e","ios":"levelo://app?vid=ab6c1c2d-c3a8-4a50-8537-c191d4400e5e"},"vehicle_type_id":"4","last_reported":1752886648,"current_range_meters":16400,"station_id":"ce4bhmp2rcd13ifvqgog","pricing_plan_id":"cebpf4jnsgd1na2vs0mg"},{"bike_id":"e7184304-2571-4324-a17d-f339f53cb33e","system_id":"levelo_inurba_marseille","lat":43.27933,"lon":5.41046,"is_reserved":false,"is_disabled":true,"rental_uris":{"android":"levelo://app?vid=e7184304-2571-4324-a17d-f339f53cb33e","ios":"levelo://app?vid=e7184304-2571-4324-a17d-f339f53cb33e"},"vehicle_type_id":"4","last_reported":1752886648,"current_range_meters":16400,"station_id":"ce4bhnp2rcd13ifvqh0g","pricing_plan_id":"cebpf4jnsgd1na2vs0mg"},{"bike_id":"f71fce16-02a2-4e2f-a40e-2c8cc5b9c84a","system_id":"levelo_inurba_marseille","lat":43.33716,"lon":5.39188,"is_reserved":false,"is_disabled":false,"rental_uris":{"android":"levelo://app?vid=f71fce16-02a2-4e2f-a40e-2c8cc5b9c84a","ios":"levelo://app?vid=f71fce16-02a2-4e2f-a40e-2c8cc5b9c84a"},"vehicle_type_id":"4","last_reported":1752886648,"current_range_meters":16000,"station_id":"ce4bhr92rcd13ifvqhsg","pricing_plan_id":"cebpf4jnsgd1na2vs0mg"},{"bike_id":"b970126c-c1c3-439a-8880-44ad88bd90cf","system_id":"levelo_inurba_marseille","lat":43.321099,"lon":5.367743,"is_reserved":false,"is_disabled":false,"rental_uris":{"android":"levelo://app?vid=b970126c-c1c3-439a-8880-44ad88bd90cf","ios":"levelo://app?vid=b970126c-c1c3-439a-8880-44ad88bd90cf"},"vehicle_type_id":"4","last_reported":1752886648,"current_range_meters":16400,"station_id":"ce4bhrh2rcd13ifvqhug","pricing_plan_id":"cebpf4jnsgd1na2vs0mg"},{"bike_id":"cd5a9591-6e46-4776-8003-ff3824872e9f","system_id":"levelo_inurba_marseille","lat":43.29,"lon":5.35622,"is_reserved":false,"is_disabled":true,"rental_uris":{"android":"levelo://app?vid=cd5a9591-6e46-4776-8003-ff3824872e9f","ios":"levelo://app?vid=cd5a9591-6e46-4776-8003-ff3824872e9f"},"vehicle_type_id":"4","last_reported":1752886648,"current_range_meters":16400,"station_id":"ce4bhb92rcd13ifvqen0","pricing_plan_id":"cebpf4jnsgd1na2vs0mg"},{"bike_id":"7360b2c1-827d-4a45-ba07-948ef7d2fc35","system_id":"levelo_inurba_marseille","lat":43.229295,"lon":5.353761,"is_reserved":false,"is_disabled":false,"rental_uris":{"android":"levelo://app?vid=7360b2c1-827d-4a45-ba07-948ef7d2fc35","ios":"levelo://app?vid=7360b2c1-827d-4a45-ba07-948ef7d2fc35"},"vehicle_type_id":"4","last_reported":1752886648,"current_range_meters":16400,"station_id":"","pricing_plan_id":"cebpf4jnsgd1na2vs0mg"},{"bike_id":"96579d04-b9e9-484c-9b9a-af500e5e8552","system_id":"levelo_inurba_marseille","lat":43.326802,"lon":5.363979,"is_reserved":false,"is_disabled":false,"rental_uris":{"android":"levelo://app?vid=96579d04-b9e9-484c-9b9a-af500e5e8552","ios":"levelo://app?vid=96579d04-b9e9-484c-9b9a-af500e5e8552"},"vehicle_type_id":"4","last_reported":1752886648,"current_range_meters":16400,"station_id":"","pricing_plan_id":"cebpf4jnsgd1na2vs0mg"},{"bike_id":"b7f96c45-a300-4f35-b4a9-3c09c88cf0cd","system_id":"levelo_inurba_marseille","lat":43.29519,"lon":5.3905,"is_reserved":false,"is_disabled":false,"rental_uris":{"android":"levelo://app?vid=b7f96c45-a300-4f35-b4a9-3c09c88cf0cd","ios":"levelo://app?vid=b7f96c45-a300-4f35-b4a9-3c09c88cf0cd"},"vehicle_type_id":"4","last_reported":1752886648,"current_range_meters":16400,"station_id":"ce4bh3p2rcd13ifvqdp0","pricing_plan_id":"cebpf4jnsgd1na2vs0mg"},{"bike_id":"859628bb-a028-4272-a625-b9ebc6757b53","system_id":"levelo_inurba_marseille","lat":43.287007,"lon":5.373918,"is_reserved":false,"is_disabled":false,"rental_uris":{"android":"levelo://app?vid=859628bb-a028-4272-a625-b9ebc6757b53","ios":"levelo://app?vid=859628bb-a028-4272-a625-b9ebc6757b53"},"vehicle_type_id":"4","last_reported":1752886648,"current_range_meters":16800,"station_id":"ce4bh3p2rcd13ifvqdq0","pricing_plan_id":"cebpf4jnsgd1na2vs0mg"},{"bike_id":"58d6c207-a20a-4ba1-b2e5-5a25118f1861","system_id":"levelo_inurba_marseille","lat":43.2956,"lon":5.37525,"is_reserved":false,"is_disabled":true,"rental_uris":{"android":"levelo://app?vid=58d6c207-a20a-4ba1-b2e5-5a25118f1861","ios":"levelo://app?vid=58d6c207-a20a-4ba1-b2e5-5a25118f1861"},"vehicle_type_id":"4","last_reported":1752886648,"current_range_meters":16800,"station_id":"ce4bgh92rcd13ifvqb50","pricing_plan_id":"cebpf4jnsgd1na2vs0mg"},{"bike_id":"468b083c-3762-4d9d-9df7-37fee0d08873","system_id":"levelo_inurba_marseille","lat":43.3136,"lon":5.38508,"is_reserved":false,"is_disabled":false,"rental_uris":{"android":"levelo://app?vid=468b083c-3762-4d9d-9df7-37fee0d08873","ios":"levelo://app?vid=468b083c-3762-4d9d-9df7-37fee0d08873"},"vehicle_type_id":"4","last_reported":1752886648,"current_range_meters":16800,"station_id":"ce4bgt92rcd13ifvqcf0","pricing_plan_id":"cebpf4jnsgd1na2vs0mg"},{"bike_id":"cb7b541b-4aa0-476b-ac1b-c83b6acaa65d","system_id":"levelo_inurba_marseille","lat":43.24156,"lon":5.36408,"is_reserved":false,"is_disabled":false,"rental_uris":{"android":"levelo://app?vid=cb7b541b-4aa0-476b-ac1b-c83b6acaa65d","ios":"levelo://app?vid=cb7b541b-4aa0-476b-ac1b-c83b6acaa65d"},"vehicle_type_id":"4","last_reported":1752886648,"current_range_meters":16800,"station_id":"cpo36qri1sfpv3e86is0","pricing_plan_id":"cebpf4jnsgd1na2vs0mg"},{"bike_id":"2e73ca94-9293-404b-9207-03d0f48ea2b6","system_id":"levelo_inurba_marseille","lat":43.298728,"lon":5.397463,"is_reserved":false,"is_disabled":false,"rental_uris":{"android":"levelo://app?vid=2e73ca94-9293-404b-9207-03d0f48ea2b6","ios":"levelo://app?vid=2e73ca94-9293-404b-9207-03d0f48ea2b6"},"vehicle_type_id":"4","last_reported":1752886648,"current_range_meters":16800,"station_id":"ce4bh0h2rcd13ifvqd50","pricing_plan_id":"cebpf4jnsgd1na2vs0mg"},{"bike_id":"909ff96a-76aa-4e1c-b682-b3361ada4793","system_id":"levelo_inurba_marseille","lat":43.24075,"lon":5.37751,"is_reserved":false,"is_disabled":false,"rental_uris":{"android":"levelo://app?vid=909ff96a-76aa-4e1c-b682-b3361ada4793","ios":"levelo://app?vid=909ff96a-76aa-4e1c-b682-b3361ada4793"},"vehicle_type_id":"4","last_reported":1752886648,"current_range_meters":16800,"station_id":"ce4bhnp2rcd13ifvqgvg","pricing_plan_id":"cebpf4jnsgd1na2vs0mg"},{"bike_id":"94384395-6746-44d0-8207-c06965f79dc0","system_id":"levelo_inurba_marseille","lat":43.33605,"lon":5.41035,"is_reserved":false,"is_disabled":false,"rental_uris":{"android":"levelo://app?vid=94384395-6746-44d0-8207-c06965f79dc0","ios":"levelo://app?vid=94384395-6746-44d0-8207-c06965f79dc0"},"vehicle_type_id":"4","last_reported":1752886648,"current_range_meters":16800,"station_id":"ce4bhqh2rcd13ifvqhmg","pricing_plan_id":"cebpf4jnsgd1na2vs0mg"},{"bike_id":"2a775f81-ff6c-42a1-9643-a465efb72360","system_id":"levelo_inurba_marseille","lat":43.30802,"lon":5.38192,"is_reserved":false,"is_disabled":false,"rental_uris":{"android":"levelo://app?vid=2a775f81-ff6c-42a1-9643-a465efb72360","ios":"levelo://app?vid=2a775f81-ff6c-42a1-9643-a465efb72360"},"vehicle_type_id":"4","last_reported":1752886648,"current_range_meters":16800,"station_id":"ce4bgt12rcd13ifvqce0","pricing_plan_id":"cebpf4jnsgd1na2vs0mg"},{"bike_id":"9eee562f-c74b-4c1a-8fa0-1792764207de","system_id":"levelo_inurba_marseille","lat":43.25484,"lon":5.37646,"is_reserved":false,"is_disabled":true,"rental_uris":{"android":"levelo://app?vid=9eee562f-c74b-4c1a-8fa0-1792764207de","ios":"levelo://app?vid=9eee562f-c74b-4c1a-8fa0-1792764207de"},"vehicle_type_id":"4","last_reported":1752886648,"current_range_meters":17200,"station_id":"ce4bhh12rcd13ifvqff0","pricing_plan_id":"cebpf4jnsgd1na2vs0mg"},{"bike_id":"f9f7ee83-39ae-4757-8ebe-f558eef3800a","system_id":"levelo_inurba_marseille","lat":43.28464,"lon":5.35895,"is_reserved":false,"is_disabled":false,"rental_uris":{"android":"levelo://app?vid=f9f7ee83-39ae-4757-8ebe-f558eef3800a","ios":"levelo://app?vid=f9f7ee83-39ae-4757-8ebe-f558eef3800a"},"vehicle_type_id":"4","last_reported":1752886648,"current_range_meters":17200,"station_id":"ce4bhah2rcd13ifvqei0","pricing_plan_id":"cebpf4jnsgd1na2vs0mg"},{"bike_id":"6a157030-de0e-43bf-b121-1c326a6250da","system_id":"levelo_inurba_marseille","lat":43.3032,"lon":5.4043,"is_reserved":false,"is_disabled":false,"rental_uris":{"android":"levelo://app?vid=6a157030-de0e-43bf-b121-1c326a6250da","ios":"levelo://app?vid=6a157030-de0e-43bf-b121-1c326a6250da"},"vehicle_type_id":"4","last_reported":1752886648,"current_range_meters":17200,"station_id":"ce4bh012rcd13ifvqd10","pricing_plan_id":"cebpf4jnsgd1na2vs0mg"},{"bike_id":"18d3b0c1-124b-42ee-8e3b-c61a80a919e9","system_id":"levelo_inurba_marseille","lat":43.28709,"lon":5.39981,"is_reserved":false,"is_disabled":false,"rental_uris":{"android":"levelo://app?vid=18d3b0c1-124b-42ee-8e3b-c61a80a919e9","ios":"levelo://app?vid=18d3b0c1-124b-42ee-8e3b-c61a80a919e9"},"vehicle_type_id":"4","last_reported":1752886648,"current_range_meters":17200,"station_id":"ce4bho92rcd13ifvqh3g","pricing_plan_id":"cebpf4jnsgd1na2vs0mg"},{"bike_id":"f4d50b9f-67c5-4a4e-82cd-5fb34bc9ddef","system_id":"levelo_inurba_marseille","lat":43.25478,"lon":5.38215,"is_reserved":false,"is_disabled":false,"rental_uris":{"android":"levelo://app?vid=f4d50b9f-67c5-4a4e-82cd-5fb34bc9ddef","ios":"levelo://app?vid=f4d50b9f-67c5-4a4e-82cd-5fb34bc9ddef"},"vehicle_type_id":"4","last_reported":1752886648,"current_range_meters":17200,"station_id":"","pricing_plan_id":"cebpf4jnsgd1na2vs0mg"},{"bike_id":"63544c20-a54b-4b9a-8d7a-43dd4c48cc49","system_id":"levelo_inurba_marseille","lat":43.28107,"lon":5.37876,"is_reserved":false,"is_disabled":false,"rental_uris":{"android":"levelo://app?vid=63544c20-a54b-4b9a-8d7a-43dd4c48cc49","ios":"levelo://app?vid=63544c20-a54b-4b9a-8d7a-43dd4c48cc49"},"vehicle_type_id":"4","last_reported":1752886648,"current_range_meters":17200,"station_id":"ce4bha12rcd13ifvqee0","pricing_plan_id":"cebpf4jnsgd1na2vs0mg"},{"bike_id":"d1e9c72e-7489-4052-b944-813b64bc55b4","system_id":"levelo_inurba_marseille","lat":43.31602,"lon":5.38997,"is_reserved":false,"is_disabled":false,"rental_uris":{"android":"levelo://app?vid=d1e9c72e-7489-4052-b944-813b64bc55b4","ios":"levelo://app?vid=d1e9c72e-7489-4052-b944-813b64bc55b4"},"vehicle_type_id":"4","last_reported":1752886648,"current_range_meters":17200,"station_id":"","pricing_plan_id":"cebpf4jnsgd1na2vs0mg"},{"bike_id":"23561095-810d-462a-a7bb-431dd1a549be","system_id":"levelo_inurba_marseille","lat":43.28507,"lon":5.38555,"is_reserved":false,"is_disabled":false,"rental_uris":{"android":"levelo://app?vid=23561095-810d-462a-a7bb-431dd1a549be","ios":"levelo://app?vid=23561095-810d-462a-a7bb-431dd1a549be"},"vehicle_type_id":"4","last_reported":1752886648,"current_range_meters":3600,"station_id":"ce4bh8p2rcd13ifvqeb0","pricing_plan_id":"cebpf4jnsgd1na2vs0mg"},{"bike_id":"13c59fb4-ea95-467a-906a-b576b22bf095","system_id":"levelo_inurba_marseille","lat":43.30886,"lon":5.3965,"is_reserved":false,"is_disabled":false,"rental_uris":{"android":"levelo://app?vid=13c59fb4-ea95-467a-906a-b576b22bf095","ios":"levelo://app?vid=13c59fb4-ea95-467a-906a-b576b22bf095"},"vehicle_type_id":"4","last_reported":1752886648,"current_range_meters":17200,"station_id":"ce4bh012rcd13ifvqcv0","pricing_plan_id":"cebpf4jnsgd1na2vs0mg"},{"bike_id":"c8170338-f20f-4c1f-b443-5ba13545a858","system_id":"levelo_inurba_marseille","lat":43.30922,"lon":5.40156,"is_reserved":false,"is_disabled":false,"rental_uris":{"android":"levelo://app?vid=c8170338-f20f-4c1f-b443-5ba13545a858","ios":"levelo://app?vid=c8170338-f20f-4c1f-b443-5ba13545a858"},"vehicle_type_id":"4","last_reported":1752886648,"current_range_meters":17200,"station_id":"ce4bgvp2rcd13ifvqct0","pricing_plan_id":"cebpf4jnsgd1na2vs0mg"},{"bike_id":"6b0369e0-1a9c-45ab-b6d2-a03906c62531","system_id":"levelo_inurba_marseille","lat":43.25119,"lon":5.40334,"is_reserved":false,"is_disabled":false,"rental_uris":{"android":"levelo://app?vid=6b0369e0-1a9c-45ab-b6d2-a03906c62531","ios":"levelo://app?vid=6b0369e0-1a9c-45ab-b6d2-a03906c62531"},"vehicle_type_id":"4","last_reported":1752886648,"current_range_meters":17600,"station_id":"ce4bhlh2rcd13ifvqgig","pricing_plan_id":"cebpf4jnsgd1na2vs0mg"},{"bike_id":"fdbeb289-adb3-4e25-b0dd-c635efbe92b2","system_id":"levelo_inurba_marseille","lat":43.31693,"lon":5.40455,"is_reserved":false,"is_disabled":false,"rental_uris":{"android":"levelo://app?vid=fdbeb289-adb3-4e25-b0dd-c635efbe92b2","ios":"levelo://app?vid=fdbeb289-adb3-4e25-b0dd-c635efbe92b2"},"vehicle_type_id":"4","last_reported":1752886648,"current_range_meters":17600,"station_id":"ce4bh012rcd13ifvqd00","pricing_plan_id":"cebpf4jnsgd1na2vs0mg"},{"bike_id":"5de510b7-74a7-44d9-b827-3f81b08075ae","system_id":"levelo_inurba_marseille","lat":43.296273,"lon":5.405984,"is_reserved":false,"is_disabled":false,"rental_uris":{"android":"levelo://app?vid=5de510b7-74a7-44d9-b827-3f81b08075ae","ios":"levelo://app?vid=5de510b7-74a7-44d9-b827-3f81b08075ae"},"vehicle_type_id":"4","last_reported":1752886648,"current_range_meters":17600,"station_id":"","pricing_plan_id":"cebpf4jnsgd1na2vs0mg"},{"bike_id":"9eb19af1-3ac3-436d-805d-794abdcba832","system_id":"levelo_inurba_marseille","lat":43.23205,"lon":5.35525,"is_reserved":false,"is_disabled":false,"rental_uris":{"android":"levelo://app?vid=9eb19af1-3ac3-436d-805d-794abdcba832","ios":"levelo://app?vid=9eb19af1-3ac3-436d-805d-794abdcba832"},"vehicle_type_id":"4","last_reported":1752886648,"current_range_meters":18000,"station_id":"ce4bhu92rcd13ifvqi70","pricing_plan_id":"cebpf4jnsgd1na2vs0mg"},{"bike_id":"8d159fb7-68ce-439b-86a9-b312d95fed84","system_id":"levelo_inurba_marseille","lat":43.28457,"lon":5.35892,"is_reserved":false,"is_disabled":false,"rental_uris":{"android":"levelo://app?vid=8d159fb7-68ce-439b-86a9-b312d95fed84","ios":"levelo://app?vid=8d159fb7-68ce-439b-86a9-b312d95fed84"},"vehicle_type_id":"4","last_reported":1752886648,"current_range_meters":17600,"station_id":"ce4bhah2rcd13ifvqei0","pricing_plan_id":"cebpf4jnsgd1na2vs0mg"},{"bike_id":"45dea0eb-918d-49f1-8341-001e35c226f0","system_id":"levelo_inurba_marseille","lat":43.21188,"lon":5.35079,"is_reserved":false,"is_disabled":false,"rental_uris":{"android":"levelo://app?vid=45dea0eb-918d-49f1-8341-001e35c226f0","ios":"levelo://app?vid=45dea0eb-918d-49f1-8341-001e35c226f0"},"vehicle_type_id":"4","last_reported":1752886648,"current_range_meters":18000,"station_id":"st_cvj6sg6p6f1abm77japg","pricing_plan_id":"cebpf4jnsgd1na2vs0mg"},{"bike_id":"bde5442b-2fd8-41b7-bd46-e8f10eead3f0","system_id":"levelo_inurba_marseille","lat":43.32339,"lon":5.4063,"is_reserved":false,"is_disabled":false,"rental_uris":{"android":"levelo://app?vid=bde5442b-2fd8-41b7-bd46-e8f10eead3f0","ios":"levelo://app?vid=bde5442b-2fd8-41b7-bd46-e8f10eead3f0"},"vehicle_type_id":"4","last_reported":1752886648,"current_range_meters":18000,"station_id":"ce4bhq92rcd13ifvqhjg","pricing_plan_id":"cebpf4jnsgd1na2vs0mg"},{"bike_id":"dfa94b84-ac88-4a7a-be31-a75037d5303f","system_id":"levelo_inurba_marseille","lat":43.28694,"lon":5.39999,"is_reserved":false,"is_disabled":false,"rental_uris":{"android":"levelo://app?vid=dfa94b84-ac88-4a7a-be31-a75037d5303f","ios":"levelo://app?vid=dfa94b84-ac88-4a7a-be31-a75037d5303f"},"vehicle_type_id":"4","last_reported":1752886648,"current_range_meters":18000,"station_id":"ce4bho92rcd13ifvqh3g","pricing_plan_id":"cebpf4jnsgd1na2vs0mg"},{"bike_id":"ae514fe1-85ea-4b12-b065-9e5a24663928","system_id":"levelo_inurba_marseille","lat":43.21185,"lon":5.35081,"is_reserved":false,"is_disabled":false,"rental_uris":{"android":"levelo://app?vid=ae514fe1-85ea-4b12-b065-9e5a24663928","ios":"levelo://app?vid=ae514fe1-85ea-4b12-b065-9e5a24663928"},"vehicle_type_id":"4","last_reported":1752886648,"current_range_meters":18000,"station_id":"st_cvj6sg6p6f1abm77japg","pricing_plan_id":"cebpf4jnsgd1na2vs0mg"},{"bike_id":"8d6768fd-ed17-4e83-9c06-74de21ae745e","system_id":"levelo_inurba_marseille","lat":43.30649,"lon":5.40096,"is_reserved":false,"is_disabled":false,"rental_uris":{"android":"levelo://app?vid=8d6768fd-ed17-4e83-9c06-74de21ae745e","ios":"levelo://app?vid=8d6768fd-ed17-4e83-9c06-74de21ae745e"},"vehicle_type_id":"4","last_reported":1752886648,"current_range_meters":18000,"station_id":"ce4bh112rcd13ifvqda0","pricing_plan_id":"cebpf4jnsgd1na2vs0mg"},{"bike_id":"a0e6de25-53a6-4e2c-ba56-d0c89144a59d","system_id":"levelo_inurba_marseille","lat":43.31103,"lon":5.37772,"is_reserved":false,"is_disabled":false,"rental_uris":{"android":"levelo://app?vid=a0e6de25-53a6-4e2c-ba56-d0c89144a59d","ios":"levelo://app?vid=a0e6de25-53a6-4e2c-ba56-d0c89144a59d"},"vehicle_type_id":"4","last_reported":1752886648,"current_range_meters":18000,"station_id":"ce4bgt92rcd13ifvqcg0","pricing_plan_id":"cebpf4jnsgd1na2vs0mg"},{"bike_id":"44e89ad7-16a2-4910-805f-061f2aee5ab7","system_id":"levelo_inurba_marseille","lat":43.231867,"lon":5.355618,"is_reserved":false,"is_disabled":false,"rental_uris":{"android":"levelo://app?vid=44e89ad7-16a2-4910-805f-061f2aee5ab7","ios":"levelo://app?vid=44e89ad7-16a2-4910-805f-061f2aee5ab7"},"vehicle_type_id":"4","last_reported":1752886648,"current_range_meters":18000,"station_id":"ce4bhu92rcd13ifvqi70","pricing_plan_id":"cebpf4jnsgd1na2vs0mg"},{"bike_id":"b22b912d-c2aa-4638-b821-9588263e410c","system_id":"levelo_inurba_marseille","lat":43.32352,"lon":5.38901,"is_reserved":false,"is_disabled":false,"rental_uris":{"android":"levelo://app?vid=b22b912d-c2aa-4638-b821-9588263e410c","ios":"levelo://app?vid=b22b912d-c2aa-4638-b821-9588263e410c"},"vehicle_type_id":"4","last_reported":1752886648,"current_range_meters":18000,"station_id":"ce4bhqp2rcd13ifvqhog","pricing_plan_id":"cebpf4jnsgd1na2vs0mg"},{"bike_id":"8130e191-5f97-49a8-95a4-4888d168e99e","system_id":"levelo_inurba_marseille","lat":43.30373,"lon":5.4248,"is_reserved":false,"is_disabled":false,"rental_uris":{"android":"levelo://app?vid=8130e191-5f97-49a8-95a4-4888d168e99e","ios":"levelo://app?vid=8130e191-5f97-49a8-95a4-4888d168e99e"},"vehicle_type_id":"4","last_reported":1752886648,"current_range_meters":18000,"station_id":"ce4bhoh2rcd13ifvqh6g","pricing_plan_id":"cebpf4jnsgd1na2vs0mg"},{"bike_id":"c563397a-8e95-43de-9482-c447bf9c775e","system_id":"levelo_inurba_marseille","lat":43.2933,"lon":5.41187,"is_reserved":false,"is_disabled":false,"rental_uris":{"android":"levelo://app?vid=c563397a-8e95-43de-9482-c447bf9c775e","ios":"levelo://app?vid=c563397a-8e95-43de-9482-c447bf9c775e"},"vehicle_type_id":"4","last_reported":1752886648,"current_range_meters":18000,"station_id":"","pricing_plan_id":"cebpf4jnsgd1na2vs0mg"},{"bike_id":"af1c5932-e60b-48c4-88c1-fd21684f9ee6","system_id":"levelo_inurba_marseille","lat":43.30256,"lon":5.40067,"is_reserved":false,"is_disabled":false,"rental_uris":{"android":"levelo://app?vid=af1c5932-e60b-48c4-88c1-fd21684f9ee6","ios":"levelo://app?vid=af1c5932-e60b-48c4-88c1-fd21684f9ee6"},"vehicle_type_id":"4","last_reported":1752886648,"current_range_meters":18000,"station_id":"ce4bgvh2rcd13ifvqcs0","pricing_plan_id":"cebpf4jnsgd1na2vs0mg"},{"bike_id":"3b8fa8a7-26fc-4aab-bee1-b8a56cdc1d43","system_id":"levelo_inurba_marseille","lat":43.28694,"lon":5.39984,"is_reserved":false,"is_disabled":true,"rental_uris":{"android":"levelo://app?vid=3b8fa8a7-26fc-4aab-bee1-b8a56cdc1d43","ios":"levelo://app?vid=3b8fa8a7-26fc-4aab-bee1-b8a56cdc1d43"},"vehicle_type_id":"4","last_reported":1752886648,"current_range_meters":18000,"station_id":"ce4bho92rcd13ifvqh3g","pricing_plan_id":"cebpf4jnsgd1na2vs0mg"},{"bike_id":"4a2af6fb-f040-4dff-9ff5-d70c4f952e83","system_id":"levelo_inurba_marseille","lat":43.315041,"lon":5.373098,"is_reserved":false,"is_disabled":true,"rental_uris":{"android":"levelo://app?vid=4a2af6fb-f040-4dff-9ff5-d70c4f952e83","ios":"levelo://app?vid=4a2af6fb-f040-4dff-9ff5-d70c4f952e83"},"vehicle_type_id":"4","last_reported":1752886648,"current_range_meters":18800,"station_id":"ce4bgt12rcd13ifvqcd0","pricing_plan_id":"cebpf4jnsgd1na2vs0mg"},{"bike_id":"863ff14f-99c4-4119-81c8-9db5c196840c","system_id":"levelo_inurba_marseille","lat":43.280857,"lon":5.396801,"is_reserved":false,"is_disabled":false,"rental_uris":{"android":"levelo://app?vid=863ff14f-99c4-4119-81c8-9db5c196840c","ios":"levelo://app?vid=863ff14f-99c4-4119-81c8-9db5c196840c"},"vehicle_type_id":"4","last_reported":1752886648,"current_range_meters":18800,"station_id":"ce4bho12rcd13ifvqh2g","pricing_plan_id":"cebpf4jnsgd1na2vs0mg"},{"bike_id":"19294ff6-3995-4603-9d99-733afb04fb97","system_id":"levelo_inurba_marseille","lat":43.24398,"lon":5.37064,"is_reserved":false,"is_disabled":false,"rental_uris":{"android":"levelo://app?vid=19294ff6-3995-4603-9d99-733afb04fb97","ios":"levelo://app?vid=19294ff6-3995-4603-9d99-733afb04fb97"},"vehicle_type_id":"4","last_reported":1752886648,"current_range_meters":18800,"station_id":"ce4bhhh2rcd13ifvqfk0","pricing_plan_id":"cebpf4jnsgd1na2vs0mg"},{"bike_id":"ceaa1660-7197-433a-aa1d-d435f83e5876","system_id":"levelo_inurba_marseille","lat":43.31116,"lon":5.37766,"is_reserved":false,"is_disabled":false,"rental_uris":{"android":"levelo://app?vid=ceaa1660-7197-433a-aa1d-d435f83e5876","ios":"levelo://app?vid=ceaa1660-7197-433a-aa1d-d435f83e5876"},"vehicle_type_id":"4","last_reported":1752886648,"current_range_meters":18800,"station_id":"ce4bgt92rcd13ifvqcg0","pricing_plan_id":"cebpf4jnsgd1na2vs0mg"},{"bike_id":"a168d389-ea1d-4756-ad9b-cf73a31ab442","system_id":"levelo_inurba_marseille","lat":43.288747,"lon":5.400098,"is_reserved":false,"is_disabled":false,"rental_uris":{"android":"levelo://app?vid=a168d389-ea1d-4756-ad9b-cf73a31ab442","ios":"levelo://app?vid=a168d389-ea1d-4756-ad9b-cf73a31ab442"},"vehicle_type_id":"4","last_reported":1752886648,"current_range_meters":18800,"station_id":"","pricing_plan_id":"cebpf4jnsgd1na2vs0mg"},{"bike_id":"783cc84a-a041-4bdd-8002-c343b62c1731","system_id":"levelo_inurba_marseille","lat":43.29222,"lon":5.36056,"is_reserved":false,"is_disabled":true,"rental_uris":{"android":"levelo://app?vid=783cc84a-a041-4bdd-8002-c343b62c1731","ios":"levelo://app?vid=783cc84a-a041-4bdd-8002-c343b62c1731"},"vehicle_type_id":"4","last_reported":1752886648,"current_range_meters":18800,"station_id":"ce4bhbh2rcd13ifvqeqg","pricing_plan_id":"cebpf4jnsgd1na2vs0mg"},{"bike_id":"476b9d68-b82a-49d6-b328-73fe9b3366ca","system_id":"levelo_inurba_marseille","lat":43.262314,"lon":5.40454,"is_reserved":false,"is_disabled":false,"rental_uris":{"android":"levelo://app?vid=476b9d68-b82a-49d6-b328-73fe9b3366ca","ios":"levelo://app?vid=476b9d68-b82a-49d6-b328-73fe9b3366ca"},"vehicle_type_id":"4","last_reported":1752886648,"current_range_meters":18800,"station_id":"ce4bhmh2rcd13ifvqgmg","pricing_plan_id":"cebpf4jnsgd1na2vs0mg"},{"bike_id":"5a570911-22d0-41b1-a776-0fe138c4bdc4","system_id":"levelo_inurba_marseille","lat":43.21181,"lon":5.35066,"is_reserved":false,"is_disabled":false,"rental_uris":{"android":"levelo://app?vid=5a570911-22d0-41b1-a776-0fe138c4bdc4","ios":"levelo://app?vid=5a570911-22d0-41b1-a776-0fe138c4bdc4"},"vehicle_type_id":"4","last_reported":1752886648,"current_range_meters":19200,"station_id":"st_cvj6sg6p6f1abm77japg","pricing_plan_id":"cebpf4jnsgd1na2vs0mg"},{"bike_id":"7592d3b0-727d-4107-ba81-a2966cdc2b34","system_id":"levelo_inurba_marseille","lat":43.26208,"lon":5.40435,"is_reserved":false,"is_disabled":false,"rental_uris":{"android":"levelo://app?vid=7592d3b0-727d-4107-ba81-a2966cdc2b34","ios":"levelo://app?vid=7592d3b0-727d-4107-ba81-a2966cdc2b34"},"vehicle_type_id":"4","last_reported":1752886648,"current_range_meters":18800,"station_id":"ce4bhmh2rcd13ifvqgmg","pricing_plan_id":"cebpf4jnsgd1na2vs0mg"},{"bike_id":"f64d4495-c6c3-4047-b421-2e9c29951567","system_id":"levelo_inurba_marseille","lat":43.225366,"lon":5.347766,"is_reserved":false,"is_disabled":false,"rental_uris":{"android":"levelo://app?vid=f64d4495-c6c3-4047-b421-2e9c29951567","ios":"levelo://app?vid=f64d4495-c6c3-4047-b421-2e9c29951567"},"vehicle_type_id":"4","last_reported":1752886648,"current_range_meters":19200,"station_id":"st_cvj5dfep6f1abm77gieg","pricing_plan_id":"cebpf4jnsgd1na2vs0mg"},{"bike_id":"9f00b516-2e6c-49ff-b45a-2a85d3e69abf","system_id":"levelo_inurba_marseille","lat":43.292658,"lon":5.391508,"is_reserved":false,"is_disabled":false,"rental_uris":{"android":"levelo://app?vid=9f00b516-2e6c-49ff-b45a-2a85d3e69abf","ios":"levelo://app?vid=9f00b516-2e6c-49ff-b45a-2a85d3e69abf"},"vehicle_type_id":"4","last_reported":1752886648,"current_range_meters":19200,"station_id":"","pricing_plan_id":"cebpf4jnsgd1na2vs0mg"},{"bike_id":"bd0703fa-751e-4a7e-9464-5afafee5432a","system_id":"levelo_inurba_marseille","lat":43.23182,"lon":5.39983,"is_reserved":false,"is_disabled":false,"rental_uris":{"android":"levelo://app?vid=bd0703fa-751e-4a7e-9464-5afafee5432a","ios":"levelo://app?vid=bd0703fa-751e-4a7e-9464-5afafee5432a"},"vehicle_type_id":"4","last_reported":1752886648,"current_range_meters":19200,"station_id":"ce4bhn12rcd13ifvqgqg","pricing_plan_id":"cebpf4jnsgd1na2vs0mg"},{"bike_id":"ed8fbac9-e5c7-4f6f-8094-8714434b7733","system_id":"levelo_inurba_marseille","lat":43.311177,"lon":5.377659,"is_reserved":false,"is_disabled":false,"rental_uris":{"android":"levelo://app?vid=ed8fbac9-e5c7-4f6f-8094-8714434b7733","ios":"levelo://app?vid=ed8fbac9-e5c7-4f6f-8094-8714434b7733"},"vehicle_type_id":"4","last_reported":1752886648,"current_range_meters":19200,"station_id":"ce4bgt92rcd13ifvqcg0","pricing_plan_id":"cebpf4jnsgd1na2vs0mg"},{"bike_id":"ce2d33c7-f5ba-4c86-93e2-74fe4592b5f8","system_id":"levelo_inurba_marseille","lat":43.26922,"lon":5.40274,"is_reserved":false,"is_disabled":false,"rental_uris":{"android":"levelo://app?vid=ce2d33c7-f5ba-4c86-93e2-74fe4592b5f8","ios":"levelo://app?vid=ce2d33c7-f5ba-4c86-93e2-74fe4592b5f8"},"vehicle_type_id":"4","last_reported":1752886648,"current_range_meters":19200,"station_id":"cjm6bp8fraef2m0cb0m0","pricing_plan_id":"cebpf4jnsgd1na2vs0mg"},{"bike_id":"25c61d91-92f9-47bc-ba2a-34ec5d0a2e05","system_id":"levelo_inurba_marseille","lat":43.22951,"lon":5.35346,"is_reserved":false,"is_disabled":false,"rental_uris":{"android":"levelo://app?vid=25c61d91-92f9-47bc-ba2a-34ec5d0a2e05","ios":"levelo://app?vid=25c61d91-92f9-47bc-ba2a-34ec5d0a2e05"},"vehicle_type_id":"4","last_reported":1752886648,"current_range_meters":19200,"station_id":"cpo3532slgdg3j2ikp40","pricing_plan_id":"cebpf4jnsgd1na2vs0mg"},{"bike_id":"0ac9b427-819d-4139-8162-77866abdf07d","system_id":"levelo_inurba_marseille","lat":43.24654,"lon":5.38904,"is_reserved":false,"is_disabled":false,"rental_uris":{"android":"levelo://app?vid=0ac9b427-819d-4139-8162-77866abdf07d","ios":"levelo://app?vid=0ac9b427-819d-4139-8162-77866abdf07d"},"vehicle_type_id":"4","last_reported":1752886648,"current_range_meters":19200,"station_id":"ce4bhg12rcd13ifvqf60","pricing_plan_id":"cebpf4jnsgd1na2vs0mg"},{"bike_id":"aa003621-a064-429b-a0a6-d415c04aca4d","system_id":"levelo_inurba_marseille","lat":43.30255,"lon":5.40081,"is_reserved":false,"is_disabled":false,"rental_uris":{"android":"levelo://app?vid=aa003621-a064-429b-a0a6-d415c04aca4d","ios":"levelo://app?vid=aa003621-a064-429b-a0a6-d415c04aca4d"},"vehicle_type_id":"4","last_reported":1752886648,"current_range_meters":18800,"station_id":"ce4bgvh2rcd13ifvqcs0","pricing_plan_id":"cebpf4jnsgd1na2vs0mg"},{"bike_id":"514a2618-38ad-417b-9509-3bafb6563917","system_id":"levelo_inurba_marseille","lat":43.28366,"lon":5.3862,"is_reserved":false,"is_disabled":false,"rental_uris":{"android":"levelo://app?vid=514a2618-38ad-417b-9509-3bafb6563917","ios":"levelo://app?vid=514a2618-38ad-417b-9509-3bafb6563917"},"vehicle_type_id":"4","last_reported":1752886648,"current_range_meters":19200,"station_id":"ce4bh492rcd13ifvqdvg","pricing_plan_id":"cebpf4jnsgd1na2vs0mg"},{"bike_id":"6ce013e4-9666-492d-a25c-bf4863da39dd","system_id":"levelo_inurba_marseille","lat":43.31361,"lon":5.3851,"is_reserved":false,"is_disabled":false,"rental_uris":{"android":"levelo://app?vid=6ce013e4-9666-492d-a25c-bf4863da39dd","ios":"levelo://app?vid=6ce013e4-9666-492d-a25c-bf4863da39dd"},"vehicle_type_id":"4","last_reported":1752886648,"current_range_meters":19200,"station_id":"ce4bgt92rcd13ifvqcf0","pricing_plan_id":"cebpf4jnsgd1na2vs0mg"},{"bike_id":"733c402f-6bbd-4ff7-9cc1-681ba0e2f489","system_id":"levelo_inurba_marseille","lat":43.33025,"lon":5.39031,"is_reserved":false,"is_disabled":false,"rental_uris":{"android":"levelo://app?vid=733c402f-6bbd-4ff7-9cc1-681ba0e2f489","ios":"levelo://app?vid=733c402f-6bbd-4ff7-9cc1-681ba0e2f489"},"vehicle_type_id":"4","last_reported":1752886648,"current_range_meters":19200,"station_id":"ce4bhr92rcd13ifvqhrg","pricing_plan_id":"cebpf4jnsgd1na2vs0mg"},{"bike_id":"b2d8de19-5228-47c5-a04d-d8664c46de68","system_id":"levelo_inurba_marseille","lat":43.22906,"lon":5.35398,"is_reserved":false,"is_disabled":false,"rental_uris":{"android":"levelo://app?vid=b2d8de19-5228-47c5-a04d-d8664c46de68","ios":"levelo://app?vid=b2d8de19-5228-47c5-a04d-d8664c46de68"},"vehicle_type_id":"4","last_reported":1752886648,"current_range_meters":19200,"station_id":"cpo3532slgdg3j2ikp40","pricing_plan_id":"cebpf4jnsgd1na2vs0mg"},{"bike_id":"2c77e1be-20d4-428a-b875-bc5d532780db","system_id":"levelo_inurba_marseille","lat":43.29021,"lon":5.35615,"is_reserved":false,"is_disabled":true,"rental_uris":{"android":"levelo://app?vid=2c77e1be-20d4-428a-b875-bc5d532780db","ios":"levelo://app?vid=2c77e1be-20d4-428a-b875-bc5d532780db"},"vehicle_type_id":"4","last_reported":1752886648,"current_range_meters":19200,"station_id":"ce4bhb92rcd13ifvqen0","pricing_plan_id":"cebpf4jnsgd1na2vs0mg"},{"bike_id":"b64a74d8-c901-4c70-9629-1c3555dc112c","system_id":"levelo_inurba_marseille","lat":43.30114,"lon":5.39874,"is_reserved":false,"is_disabled":false,"rental_uris":{"android":"levelo://app?vid=b64a74d8-c901-4c70-9629-1c3555dc112c","ios":"levelo://app?vid=b64a74d8-c901-4c70-9629-1c3555dc112c"},"vehicle_type_id":"4","last_reported":1752886648,"current_range_meters":19200,"station_id":"ce4bh0h2rcd13ifvqd40","pricing_plan_id":"cebpf4jnsgd1na2vs0mg"},{"bike_id":"ea37c249-bc61-4eea-862b-e2e11472cda2","system_id":"levelo_inurba_marseille","lat":43.292678,"lon":5.368464,"is_reserved":false,"is_disabled":true,"rental_uris":{"android":"levelo://app?vid=ea37c249-bc61-4eea-862b-e2e11472cda2","ios":"levelo://app?vid=ea37c249-bc61-4eea-862b-e2e11472cda2"},"vehicle_type_id":"4","last_reported":1752886648,"current_range_meters":19200,"station_id":"ce4bhbp2rcd13ifvqesg","pricing_plan_id":"cebpf4jnsgd1na2vs0mg"},{"bike_id":"c247a315-8f67-416e-aa26-98ff1bbcb2d5","system_id":"levelo_inurba_marseille","lat":43.28494,"lon":5.38437,"is_reserved":false,"is_disabled":false,"rental_uris":{"android":"levelo://app?vid=c247a315-8f67-416e-aa26-98ff1bbcb2d5","ios":"levelo://app?vid=c247a315-8f67-416e-aa26-98ff1bbcb2d5"},"vehicle_type_id":"4","last_reported":1752886648,"current_range_meters":19200,"station_id":"ce4bh512rcd13ifvqe3g","pricing_plan_id":"cebpf4jnsgd1na2vs0mg"},{"bike_id":"af001624-0106-479f-8721-10e760f2c741","system_id":"levelo_inurba_marseille","lat":43.3136,"lon":5.384925,"is_reserved":false,"is_disabled":false,"rental_uris":{"android":"levelo://app?vid=af001624-0106-479f-8721-10e760f2c741","ios":"levelo://app?vid=af001624-0106-479f-8721-10e760f2c741"},"vehicle_type_id":"4","last_reported":1752886648,"current_range_meters":19600,"station_id":"ce4bgt92rcd13ifvqcf0","pricing_plan_id":"cebpf4jnsgd1na2vs0mg"},{"bike_id":"81eb13de-7865-4c9c-8e88-d3f1494ca167","system_id":"levelo_inurba_marseille","lat":43.29191,"lon":5.39313,"is_reserved":false,"is_disabled":false,"rental_uris":{"android":"levelo://app?vid=81eb13de-7865-4c9c-8e88-d3f1494ca167","ios":"levelo://app?vid=81eb13de-7865-4c9c-8e88-d3f1494ca167"},"vehicle_type_id":"4","last_reported":1752886648,"current_range_meters":19600,"station_id":"ce4bh192rcd13ifvqdd0","pricing_plan_id":"cebpf4jnsgd1na2vs0mg"},{"bike_id":"1dc34a01-2678-4e18-a488-204011082480","system_id":"levelo_inurba_marseille","lat":43.33609,"lon":5.41036,"is_reserved":false,"is_disabled":false,"rental_uris":{"android":"levelo://app?vid=1dc34a01-2678-4e18-a488-204011082480","ios":"levelo://app?vid=1dc34a01-2678-4e18-a488-204011082480"},"vehicle_type_id":"4","last_reported":1752886648,"current_range_meters":19600,"station_id":"ce4bhqh2rcd13ifvqhmg","pricing_plan_id":"cebpf4jnsgd1na2vs0mg"},{"bike_id":"d8661d8c-a40a-4426-a2c8-bd5bab275bd7","system_id":"levelo_inurba_marseille","lat":43.28038,"lon":5.36945,"is_reserved":false,"is_disabled":false,"rental_uris":{"android":"levelo://app?vid=d8661d8c-a40a-4426-a2c8-bd5bab275bd7","ios":"levelo://app?vid=d8661d8c-a40a-4426-a2c8-bd5bab275bd7"},"vehicle_type_id":"4","last_reported":1752886648,"current_range_meters":19200,"station_id":"ce4bha12rcd13ifvqef0","pricing_plan_id":"cebpf4jnsgd1na2vs0mg"},{"bike_id":"2060869b-d87e-4c30-8864-6b1d75522919","system_id":"levelo_inurba_marseille","lat":43.29891,"lon":5.43676,"is_reserved":false,"is_disabled":false,"rental_uris":{"android":"levelo://app?vid=2060869b-d87e-4c30-8864-6b1d75522919","ios":"levelo://app?vid=2060869b-d87e-4c30-8864-6b1d75522919"},"vehicle_type_id":"4","last_reported":1752886648,"current_range_meters":19600,"station_id":"ce4bhpp2rcd13ifvqhfg","pricing_plan_id":"cebpf4jnsgd1na2vs0mg"},{"bike_id":"948cc778-4b52-43d4-bd05-9525cc0c3471","system_id":"levelo_inurba_marseille","lat":43.28097,"lon":5.3931,"is_reserved":false,"is_disabled":false,"rental_uris":{"android":"levelo://app?vid=948cc778-4b52-43d4-bd05-9525cc0c3471","ios":"levelo://app?vid=948cc778-4b52-43d4-bd05-9525cc0c3471"},"vehicle_type_id":"4","last_reported":1752886648,"current_range_meters":19600,"station_id":"","pricing_plan_id":"cebpf4jnsgd1na2vs0mg"},{"bike_id":"f734d1ab-e95f-49df-a640-db407264fdd1","system_id":"levelo_inurba_marseille","lat":43.295364,"lon":5.37496,"is_reserved":false,"is_disabled":true,"rental_uris":{"android":"levelo://app?vid=f734d1ab-e95f-49df-a640-db407264fdd1","ios":"levelo://app?vid=f734d1ab-e95f-49df-a640-db407264fdd1"},"vehicle_type_id":"4","last_reported":1752886648,"current_range_meters":19600,"station_id":"ce4bgkp2rcd13ifvqbmg","pricing_plan_id":"cebpf4jnsgd1na2vs0mg"},{"bike_id":"d58d49b4-8ced-486f-846e-66761d5d92c9","system_id":"levelo_inurba_marseille","lat":43.28678,"lon":5.38668,"is_reserved":false,"is_disabled":false,"rental_uris":{"android":"levelo://app?vid=d58d49b4-8ced-486f-846e-66761d5d92c9","ios":"levelo://app?vid=d58d49b4-8ced-486f-846e-66761d5d92c9"},"vehicle_type_id":"4","last_reported":1752886648,"current_range_meters":19600,"station_id":"ce4bh492rcd13ifvqdug","pricing_plan_id":"cebpf4jnsgd1na2vs0mg"},{"bike_id":"9dbe078c-7d2c-4e88-9f98-181a5e1d92fe","system_id":"levelo_inurba_marseille","lat":43.29561,"lon":5.39964,"is_reserved":false,"is_disabled":false,"rental_uris":{"android":"levelo://app?vid=9dbe078c-7d2c-4e88-9f98-181a5e1d92fe","ios":"levelo://app?vid=9dbe078c-7d2c-4e88-9f98-181a5e1d92fe"},"vehicle_type_id":"4","last_reported":1752886648,"current_range_meters":19600,"station_id":"ce4bh312rcd13ifvqdj0","pricing_plan_id":"cebpf4jnsgd1na2vs0mg"},{"bike_id":"636add70-8724-48bf-aad9-09ddc751df36","system_id":"levelo_inurba_marseille","lat":43.229267,"lon":5.353812,"is_reserved":false,"is_disabled":false,"rental_uris":{"android":"levelo://app?vid=636add70-8724-48bf-aad9-09ddc751df36","ios":"levelo://app?vid=636add70-8724-48bf-aad9-09ddc751df36"},"vehicle_type_id":"4","last_reported":1752886648,"current_range_meters":19600,"station_id":"cpo3532slgdg3j2ikp40","pricing_plan_id":"cebpf4jnsgd1na2vs0mg"},{"bike_id":"08da0d30-ab14-4c99-870a-907b7e4e9b04","system_id":"levelo_inurba_marseille","lat":43.28615,"lon":5.35121,"is_reserved":false,"is_disabled":false,"rental_uris":{"android":"levelo://app?vid=08da0d30-ab14-4c99-870a-907b7e4e9b04","ios":"levelo://app?vid=08da0d30-ab14-4c99-870a-907b7e4e9b04"},"vehicle_type_id":"4","last_reported":1752886648,"current_range_meters":19600,"station_id":"ce4bhch2rcd13ifvqeug","pricing_plan_id":"cebpf4jnsgd1na2vs0mg"},{"bike_id":"30bcf5a2-54ff-4a2c-8c02-bb341edfaa7c","system_id":"levelo_inurba_marseille","lat":43.25575,"lon":5.37633,"is_reserved":false,"is_disabled":true,"rental_uris":{"android":"levelo://app?vid=30bcf5a2-54ff-4a2c-8c02-bb341edfaa7c","ios":"levelo://app?vid=30bcf5a2-54ff-4a2c-8c02-bb341edfaa7c"},"vehicle_type_id":"4","last_reported":1752886648,"current_range_meters":19600,"station_id":"","pricing_plan_id":"cebpf4jnsgd1na2vs0mg"},{"bike_id":"7f138cca-1d39-4e69-92fc-ce0fd44d8f90","system_id":"levelo_inurba_marseille","lat":43.26217,"lon":5.37591,"is_reserved":false,"is_disabled":false,"rental_uris":{"android":"levelo://app?vid=7f138cca-1d39-4e69-92fc-ce0fd44d8f90","ios":"levelo://app?vid=7f138cca-1d39-4e69-92fc-ce0fd44d8f90"},"vehicle_type_id":"4","last_reported":1752886648,"current_range_meters":20000,"station_id":"","pricing_plan_id":"cebpf4jnsgd1na2vs0mg"},{"bike_id":"ea3d95ea-8a46-4756-8124-0ff791fd1160","system_id":"levelo_inurba_marseille","lat":43.30584,"lon":5.39347,"is_reserved":false,"is_disabled":false,"rental_uris":{"android":"levelo://app?vid=ea3d95ea-8a46-4756-8124-0ff791fd1160","ios":"levelo://app?vid=ea3d95ea-8a46-4756-8124-0ff791fd1160"},"vehicle_type_id":"4","last_reported":1752886648,"current_range_meters":20000,"station_id":"ce4bh0p2rcd13ifvqd80","pricing_plan_id":"cebpf4jnsgd1na2vs0mg"},{"bike_id":"4d8f737a-718a-40ee-a3df-e41185271bf3","system_id":"levelo_inurba_marseille","lat":43.3027,"lon":5.40067,"is_reserved":false,"is_disabled":false,"rental_uris":{"android":"levelo://app?vid=4d8f737a-718a-40ee-a3df-e41185271bf3","ios":"levelo://app?vid=4d8f737a-718a-40ee-a3df-e41185271bf3"},"vehicle_type_id":"4","last_reported":1752886648,"current_range_meters":20000,"station_id":"ce4bgvh2rcd13ifvqcs0","pricing_plan_id":"cebpf4jnsgd1na2vs0mg"},{"bike_id":"b4ff73bc-df06-424d-a37d-4be9da7c8d2b","system_id":"levelo_inurba_marseille","lat":43.31063,"lon":5.38357,"is_reserved":false,"is_disabled":false,"rental_uris":{"android":"levelo://app?vid=b4ff73bc-df06-424d-a37d-4be9da7c8d2b","ios":"levelo://app?vid=b4ff73bc-df06-424d-a37d-4be9da7c8d2b"},"vehicle_type_id":"4","last_reported":1752886648,"current_range_meters":20000,"station_id":"ce4bgv92rcd13ifvqcr0","pricing_plan_id":"cebpf4jnsgd1na2vs0mg"},{"bike_id":"23fbf447-5ce5-4454-b58d-69c932099f2c","system_id":"levelo_inurba_marseille","lat":43.270578,"lon":5.402691,"is_reserved":false,"is_disabled":true,"rental_uris":{"android":"levelo://app?vid=23fbf447-5ce5-4454-b58d-69c932099f2c","ios":"levelo://app?vid=23fbf447-5ce5-4454-b58d-69c932099f2c"},"vehicle_type_id":"4","last_reported":1752886648,"current_range_meters":20000,"station_id":"ce4bhk92rcd13ifvqgc0","pricing_plan_id":"cebpf4jnsgd1na2vs0mg"},{"bike_id":"b5fcc541-ec24-42be-b3fc-b9f250116949","system_id":"levelo_inurba_marseille","lat":43.28435,"lon":5.34992,"is_reserved":false,"is_disabled":true,"rental_uris":{"android":"levelo://app?vid=b5fcc541-ec24-42be-b3fc-b9f250116949","ios":"levelo://app?vid=b5fcc541-ec24-42be-b3fc-b9f250116949"},"vehicle_type_id":"4","last_reported":1752886648,"current_range_meters":20000,"station_id":"ce4bhbh2rcd13ifvqepg","pricing_plan_id":"cebpf4jnsgd1na2vs0mg"},{"bike_id":"4c6cd09c-9747-4601-bf8d-64f8c826fee8","system_id":"levelo_inurba_marseille","lat":43.31124,"lon":5.3776,"is_reserved":false,"is_disabled":false,"rental_uris":{"android":"levelo://app?vid=4c6cd09c-9747-4601-bf8d-64f8c826fee8","ios":"levelo://app?vid=4c6cd09c-9747-4601-bf8d-64f8c826fee8"},"vehicle_type_id":"4","last_reported":1752886648,"current_range_meters":20000,"station_id":"ce4bgt92rcd13ifvqcg0","pricing_plan_id":"cebpf4jnsgd1na2vs0mg"},{"bike_id":"694b7cd3-26a7-4904-ad7c-2bacf9c7282c","system_id":"levelo_inurba_marseille","lat":43.30525,"lon":5.40089,"is_reserved":false,"is_disabled":false,"rental_uris":{"android":"levelo://app?vid=694b7cd3-26a7-4904-ad7c-2bacf9c7282c","ios":"levelo://app?vid=694b7cd3-26a7-4904-ad7c-2bacf9c7282c"},"vehicle_type_id":"4","last_reported":1752886648,"current_range_meters":20000,"station_id":"","pricing_plan_id":"cebpf4jnsgd1na2vs0mg"},{"bike_id":"95b5bcfa-54af-48c0-bd18-8f73f959ce2b","system_id":"levelo_inurba_marseille","lat":43.31935,"lon":5.37313,"is_reserved":false,"is_disabled":false,"rental_uris":{"android":"levelo://app?vid=95b5bcfa-54af-48c0-bd18-8f73f959ce2b","ios":"levelo://app?vid=95b5bcfa-54af-48c0-bd18-8f73f959ce2b"},"vehicle_type_id":"4","last_reported":1752886648,"current_range_meters":20000,"station_id":"","pricing_plan_id":"cebpf4jnsgd1na2vs0mg"},{"bike_id":"b4a55f75-dfdd-41e1-96e1-43e7b52255da","system_id":"levelo_inurba_marseille","lat":43.25344,"lon":5.38101,"is_reserved":false,"is_disabled":false,"rental_uris":{"android":"levelo://app?vid=b4a55f75-dfdd-41e1-96e1-43e7b52255da","ios":"levelo://app?vid=b4a55f75-dfdd-41e1-96e1-43e7b52255da"},"vehicle_type_id":"4","last_reported":1752886648,"current_range_meters":20400,"station_id":"","pricing_plan_id":"cebpf4jnsgd1na2vs0mg"},