{"last_updated":1758146945,"ttl":60,"version":"2.2","data":{"bikes":[{"bike_id":"690b2ad9-2bc6-4024-95d1-95b998ee6573","system_id":"levelo_inurba_marseille","lat":43.31743,"lon":5.42392,"is_reserved":false,"is_disabled":false,"rental_uris":{"android":"levelo://app?vid=690b2ad9-2bc6-4024-95d1-95b998ee6573","ios":"levelo://app?vid=690b2ad9-2bc6-4024-95d1-95b998ee6573"},"vehicle_type_id":"4","last_reported":1758146945,"current_range_meters":2800,"station_id":"ce4bhp92rcd13ifvqhbg","pricing_plan_id":"cebpf4jnsgd1na2vs0mg"},{"bike_id":"c4e35617-9855-4c70-8d8e-0f14fdd7f639","system_id":"levelo_inurba_marseille","lat":43.31363,"lon":5.38305,"is_reserved":false,"is_disabled":false,"rental_uris":{"android":"levelo://app?vid=c4e35617-9855-4c70-8d8e-0f14fdd7f639","ios":"levelo://app?vid=c4e35617-9855-4c70-8d8e-0f14fdd7f639"},"vehicle_type_id":"4","last_reported":1758146945,"current_range_meters":2800,"station_id":"","pricing_plan_id":"cebpf4jnsgd1na2vs0mg"},{"bike_id":"9b80b0c7-e37e-4c08-8690-1d41bf6b12b7","system_id":"levelo_inurba_marseille","lat":43.29868,"lon":5.39733,"is_reserved":false,"is_disabled":false,"rental_uris":{"android":"levelo://app?vid=9b80b0c7-e37e-4c08-8690-1d41bf6b12b7","ios":"levelo://app?vid=9b80b0c7-e37e-4c08-8690-1d41bf6b12b7"},"vehicle_type_id":"4","last_reported":1758146945,"current_range_meters":3200,"station_id":"ce4bh0h2rcd13ifvqd50","pricing_plan_id":"cebpf4jnsgd1na2vs0mg"},{"bike_id":"24253c75-386b-472c-a07d-50961a4f0704","system_id":"levelo_inurba_marseille","lat":43.28861,"lon":5.35851,"is_reserved":false,"is_disabled":false,"rental_uris":{"android":"levelo://app?vid=24253c75-386b-472c-a07d-50961a4f0704","ios":"levelo://app?vid=24253c75-386b-472c-a07d-50961a4f0704"},"vehicle_type_id":"4","last_reported":1758146945,"current_range_meters":3200,"station_id":"ce4bhb12rcd13ifvqem0","pricing_plan_id":"cebpf4jnsgd1na2vs0mg"},{"bike_id":"c3ad4594-4e4a-42f9-93e2-c25c45a735b2","system_id":"levelo_inurba_marseille","lat":43.28862,"lon":5.42539,"is_reserved":false,"is_disabled":false,"rental_uris":{"android":"levelo://app?vid=c3ad4594-4e4a-42f9-93e2-c25c45a735b2","ios":"levelo://app?vid=c3ad4594-4e4a-42f9-93e2-c25c45a735b2"},"vehicle_type_id":"4","last_reported":1758146945,"current_range_meters":3200,"station_id":"","pricing_plan_id":"cebpf4jnsgd1na2vs0mg"},{"bike_id":"828cae52-75b8-4f2b-bc1d-764aff787ac5","system_id":"levelo_inurba_marseille","lat":43.24544,"lon":5.39518,"is_reserved":false,"is_disabled":false,"rental_uris":{"android":"levelo://app?vid=828cae52-75b8-4f2b-bc1d-764aff787ac5","ios":"levelo://app?vid=828cae52-75b8-4f2b-bc1d-764aff787ac5"},"vehicle_type_id":"4","last_reported":1758146945,"current_range_meters":3200,"station_id":"ce4bhlp2rcd13ifvqgjg","pricing_plan_id":"cebpf4jnsgd1na2vs0mg"},{"bike_id":"44d62bea-247a-4d20-b695-221ddbfa98a5","system_id":"levelo_inurba_marseille","lat":43.27997,"lon":5.4166,"is_reserved":false,"is_disabled":false,"rental_uris":{"android":"levelo://app?vid=44d62bea-247a-4d20-b695-221ddbfa98a5","ios":"levelo://app?vid=44d62bea-247a-4d20-b695-221ddbfa98a5"},"vehicle_type_id":"4","last_reported":1758146945,"current_range_meters":3200,"station_id":"ce4bho12rcd13ifvqh1g","pricing_plan_id":"cebpf4jnsgd1na2vs0mg"},{"bike_id":"d8743062-bb39-48ba-85c3-0ff17148df7f","system_id":"levelo_inurba_marseille","lat":43.27213,"lon":5.40978,"is_reserved":false,"is_disabled":false,"rental_uris":{"android":"levelo://app?vid=d8743062-bb39-48ba-85c3-0ff17148df7f","ios":"levelo://app?vid=d8743062-bb39-48ba-85c3-0ff17148df7f"},"vehicle_type_id":"4","last_reported":1758146945,"current_range_meters":3600,"station_id":"ce4bhl12rcd13ifvqgf0","pricing_plan_id":"cebpf4jnsgd1na2vs0mg"},{"bike_id":"c07e7a2d-d8a6-4efd-8723-e965be4d1a74","system_id":"levelo_inurba_marseille","lat":43.22533,"lon":5.348367,"is_reserved":false,"is_disabled":false,"rental_uris":{"android":"levelo://app?vid=c07e7a2d-d8a6-4efd-8723-e965be4d1a74","ios":"levelo://app?vid=c07e7a2d-d8a6-4efd-8723-e965be4d1a74"},"vehicle_type_id":"4","last_reported":1758146945,"current_range_meters":3600,"station_id":"","pricing_plan_id":"cebpf4jnsgd1na2vs0mg"},{"bike_id":"2362df67-f7db-49db-92b0-5d4328d4b407","system_id":"levelo_inurba_marseille","lat":43.25127,"lon":5.40357,"is_reserved":false,"is_disabled":true,"rental_uris":{"android":"levelo://app?vid=2362df67-f7db-49db-92b0-5d4328d4b407","ios":"levelo://app?vid=2362df67-f7db-49db-92b0-5d4328d4b407"},"vehicle_type_id":"4","last_reported":1758146945,"current_range_meters":4000,"station_id":"ce4bhlh2rcd13ifvqgig","pricing_plan_id":"cebpf4jnsgd1na2vs0mg"},{"bike_id":"939b5a4b-86b1-46cb-87b8-177bd29ba70d","system_id":"levelo_inurba_marseille","lat":43.31992,"lon":5.38145,"is_reserved":false,"is_disabled":true,"rental_uris":{"android":"levelo://app?vid=939b5a4b-86b1-46cb-87b8-177bd29ba70d","ios":"levelo://app?vid=939b5a4b-86b1-46cb-87b8-177bd29ba70d"},"vehicle_type_id":"4","last_reported":1758146945,"current_range_meters":4000,"station_id":"ce4bhr12rcd13ifvqhpg","pricing_plan_id":"cebpf4jnsgd1na2vs0mg"},{"bike_id":"174c2186-41a2-4f31-bb52-ea618397c227","system_id":"levelo_inurba_marseille","lat":43.28126,"lon":5.4391,"is_reserved":false,"is_disabled":false,"rental_uris":{"android":"levelo://app?vid=174c2186-41a2-4f31-bb52-ea618397c227","ios":"levelo://app?vid=174c2186-41a2-4f31-bb52-ea618397c227"},"vehicle_type_id":"4","last_reported":1758146945,"current_range_meters":4800,"station_id":"","pricing_plan_id":"cebpf4jnsgd1na2vs0mg"},{"bike_id":"6b6006f4-ef0f-475e-b953-311a319699c0","system_id":"levelo_inurba_marseille","lat":43.27942,"lon":5.41048,"is_reserved":false,"is_disabled":false,"rental_uris":{"android":"levelo://app?vid=6b6006f4-ef0f-475e-b953-311a319699c0","ios":"levelo://app?vid=6b6006f4-ef0f-475e-b953-311a319699c0"},"vehicle_type_id":"4","last_reported":1758146945,"current_range_meters":5600,"station_id":"ce4bhnp2rcd13ifvqh0g","pricing_plan_id":"cebpf4jnsgd1na2vs0mg"},{"bike_id":"2dc2d67a-28d0-4788-964c-b712f1121cfc","system_id":"levelo_inurba_marseille","lat":43.28423,"lon":5.37515,"is_reserved":false,"is_disabled":false,"rental_uris":{"android":"levelo://app?vid=2dc2d67a-28d0-4788-964c-b712f1121cfc","ios":"levelo://app?vid=2dc2d67a-28d0-4788-964c-b712f1121cfc"},"vehicle_type_id":"4","last_reported":1758146945,"current_range_meters":5600,"station_id":"ce4bh412rcd13ifvqds0","pricing_plan_id":"cebpf4jnsgd1na2vs0mg"},{"bike_id":"ce2fdb0e-d863-4a6a-9f64-c54693c591f9","system_id":"levelo_inurba_marseille","lat":43.25861,"lon":5.39897,"is_reserved":false,"is_disabled":false,"rental_uris":{"android":"levelo://app?vid=ce2fdb0e-d863-4a6a-9f64-c54693c591f9","ios":"levelo://app?vid=ce2fdb0e-d863-4a6a-9f64-c54693c591f9"},"vehicle_type_id":"4","last_reported":1758146945,"current_range_meters":4800,"station_id":"ce4bhl92rcd13ifvqghg","pricing_plan_id":"cebpf4jnsgd1na2vs0mg"},{"bike_id":"32ca9d94-8781-4edc-b80f-cdc9cf1fb9fc","system_id":"levelo_inurba_marseille","lat":43.21752,"lon":5.34599,"is_reserved":false,"is_disabled":true,"rental_uris":{"android":"levelo://app?vid=32ca9d94-8781-4edc-b80f-cdc9cf1fb9fc","ios":"levelo://app?vid=32ca9d94-8781-4edc-b80f-cdc9cf1fb9fc"},"vehicle_type_id":"4","last_reported":1758146945,"current_range_meters":5600,"station_id":"st_cvj6r9ubvosntc0bgbag","pricing_plan_id":"cebpf4jnsgd1na2vs0mg"},{"bike_id":"a285c5ca-8031-4794-8def-0f1702201082","system_id":"levelo_inurba_marseille","lat":43.2989,"lon":5.39748,"is_reserved":false,"is_disabled":true,"rental_uris":{"android":"levelo://app?vid=a285c5ca-8031-4794-8def-0f1702201082","ios":"levelo://app?vid=a285c5ca-8031-4794-8def-0f1702201082"},"vehicle_type_id":"4","last_reported":1758146945,"current_range_meters":6000,"station_id":"ce4bh0h2rcd13ifvqd50","pricing_plan_id":"cebpf4jnsgd1na2vs0mg"},{"bike_id":"13d4eea8-9844-42fe-8267-eaf155e127a2","system_id":"levelo_inurba_marseille","lat":43.29984,"lon":5.37151,"is_reserved":false,"is_disabled":true,"rental_uris":{"android":"levelo://app?vid=13d4eea8-9844-42fe-8267-eaf155e127a2","ios":"levelo://app?vid=13d4eea8-9844-42fe-8267-eaf155e127a2"},"vehicle_type_id":"4","last_reported":1758146945,"current_range_meters":6000,"station_id":"","pricing_plan_id":"cebpf4jnsgd1na2vs0mg"},{"bike_id":"6913de45-db33-4fdc-a360-327b9b3bf030","system_id":"levelo_inurba_marseille","lat":43.29441,"lon":5.39746,"is_reserved":false,"is_disabled":false,"rental_uris":{"android":"levelo://app?vid=6913de45-db33-4fdc-a360-327b9b3bf030","ios":"levelo://app?vid=6913de45-db33-4fdc-a360-327b9b3bf030"},"vehicle_type_id":"4","last_reported":1758146945,"current_range_meters":6400,"station_id":"ce4bh3h2rcd13ifvqdo0","pricing_plan_id":"cebpf4jnsgd1na2vs0mg"},{"bike_id":"4fc96286-00dc-4320-a39e-f9cc641f8404","system_id":"levelo_inurba_marseille","lat":43.26959,"lon":5.38624,"is_reserved":false,"is_disabled":false,"rental_uris":{"android":"levelo://app?vid=4fc96286-00dc-4320-a39e-f9cc641f8404","ios":"levelo://app?vid=4fc96286-00dc-4320-a39e-f9cc641f8404"},"vehicle_type_id":"4","last_reported":1758146945,"current_range_meters":6800,"station_id":"ce4bhh92rcd13ifvqfh0","pricing_plan_id":"cebpf4jnsgd1na2vs0mg"},{"bike_id":"f895eb90-d970-4448-b096-5a166a903f92","system_id":"levelo_inurba_marseille","lat":43.26573,"lon":5.37297,"is_reserved":false,"is_disabled":true,"rental_uris":{"android":"levelo://app?vid=f895eb90-d970-4448-b096-5a166a903f92","ios":"levelo://app?vid=f895eb90-d970-4448-b096-5a166a903f92"},"vehicle_type_id":"4","last_reported":1758146945,"current_range_meters":7200,"station_id":"ce4bhg12rcd13ifvqf70","pricing_plan_id":"cebpf4jnsgd1na2vs0mg"},{"bike_id":"3ee5a8b1-34ae-4047-9feb-8a7693cbc238","system_id":"levelo_inurba_marseille","lat":43.27947,"lon":5.41044,"is_reserved":false,"is_disabled":false,"rental_uris":{"android":"levelo://app?vid=3ee5a8b1-34ae-4047-9feb-8a7693cbc238","ios":"levelo://app?vid=3ee5a8b1-34ae-4047-9feb-8a7693cbc238"},"vehicle_type_id":"4","last_reported":1758146945,"current_range_meters":7200,"station_id":"ce4bhnp2rcd13ifvqh0g","pricing_plan_id":"cebpf4jnsgd1na2vs0mg"},{"bike_id":"199888cf-ce1a-497f-8b2b-90e8ed205e42","system_id":"levelo_inurba_marseille","lat":43.28709,"lon":5.37383,"is_reserved":false,"is_disabled":false,"rental_uris":{"android":"levelo://app?vid=199888cf-ce1a-497f-8b2b-90e8ed205e42","ios":"levelo://app?vid=199888cf-ce1a-497f-8b2b-90e8ed205e42"},"vehicle_type_id":"4","last_reported":1758146945,"current_range_meters":7200,"station_id":"ce4bh3p2rcd13ifvqdq0","pricing_plan_id":"cebpf4jnsgd1na2vs0mg"},{"bike_id":"3b26aa0d-3679-4b4c-9b55-1096f6d08a9d","system_id":"levelo_inurba_marseille","lat":43.31306,"lon":5.39435,"is_reserved":false,"is_disabled":false,"rental_uris":{"android":"levelo://app?vid=3b26aa0d-3679-4b4c-9b55-1096f6d08a9d","ios":"levelo://app?vid=3b26aa0d-3679-4b4c-9b55-1096f6d08a9d"},"vehicle_type_id":"4","last_reported":1758146945,"current_range_meters":7200,"station_id":"","pricing_plan_id":"cebpf4jnsgd1na2vs0mg"},{"bike_id":"9023d84f-8ef9-4749-9cb8-a2ef6b71e57a","system_id":"levelo_inurba_marseille","lat":43.27967,"lon":5.41081,"is_reserved":false,"is_disabled":true,"rental_uris":{"android":"levelo://app?vid=9023d84f-8ef9-4749-9cb8-a2ef6b71e57a","ios":"levelo://app?vid=9023d84f-8ef9-4749-9cb8-a2ef6b71e57a"},"vehicle_type_id":"4","last_reported":1758146945,"current_range_meters":7200,"station_id":"ce4bhnp2rcd13ifvqh0g","pricing_plan_id":"cebpf4jnsgd1na2vs0mg"},{"bike_id":"7ffc8ccb-8435-4796-adf1-e126c74d8349","system_id":"levelo_inurba_marseille","lat":43.30374,"lon":5.42485,"is_reserved":false,"is_disabled":false,"rental_uris":{"android":"levelo://app?vid=7ffc8ccb-8435-4796-adf1-e126c74d8349","ios":"levelo://app?vid=7ffc8ccb-8435-4796-adf1-e126c74d8349"},"vehicle_type_id":"4","last_reported":1758146945,"current_range_meters":7200,"station_id":"ce4bhoh2rcd13ifvqh6g","pricing_plan_id":"cebpf4jnsgd1na2vs0mg"},{"bike_id":"b878969e-0167-4bb0-b49f-f2c086c9b3d9","system_id":"levelo_inurba_marseille","lat":43.26864,"lon":5.40672,"is_reserved":false,"is_disabled":false,"rental_uris":{"android":"levelo://app?vid=b878969e-0167-4bb0-b49f-f2c086c9b3d9","ios":"levelo://app?vid=b878969e-0167-4bb0-b49f-f2c086c9b3d9"},"vehicle_type_id":"4","last_reported":1758146945,"current_range_meters":8000,"station_id":"","pricing_plan_id":"cebpf4jnsgd1na2vs0mg"},{"bike_id":"0ede21be-37d9-4495-b672-80274a6292be","system_id":"levelo_inurba_marseille","lat":43.35061,"lon":5.34092,"is_reserved":false,"is_disabled":false,"rental_uris":{"android":"levelo://app?vid=0ede21be-37d9-4495-b672-80274a6292be","ios":"levelo://app?vid=0ede21be-37d9-4495-b672-80274a6292be"},"vehicle_type_id":"4","last_reported":1758146945,"current_range_meters":8000,"station_id":"","pricing_plan_id":"cebpf4jnsgd1na2vs0mg"},{"bike_id":"33230291-31ce-440d-8708-4f36a87b8bf8","system_id":"levelo_inurba_marseille","lat":43.2791,"lon":5.39574,"is_reserved":false,"is_disabled":false,"rental_uris":{"android":"levelo://app?vid=33230291-31ce-440d-8708-4f36a87b8bf8","ios":"levelo://app?vid=33230291-31ce-440d-8708-4f36a87b8bf8"},"vehicle_type_id":"4","last_reported":1758146945,"current_range_meters":8000,"station_id":"ce4bhf92rcd13ifvqf40","pricing_plan_id":"cebpf4jnsgd1na2vs0mg"},{"bike_id":"ad22d8b4-d2ba-4c51-ab41-144859f2318a","system_id":"levelo_inurba_marseille","lat":43.30731,"lon":5.4245,"is_reserved":false,"is_disabled":false,"rental_uris":{"android":"levelo://app?vid=ad22d8b4-d2ba-4c51-ab41-144859f2318a","ios":"levelo://app?vid=ad22d8b4-d2ba-4c51-ab41-144859f2318a"},"vehicle_type_id":"4","last_reported":1758146945,"current_range_meters":8400,"station_id":"st_cvj6ca6bvosntc0bfgr0","pricing_plan_id":"cebpf4jnsgd1na2vs0mg"},{"bike_id":"0bbfba88-00cd-4cea-b464-0acb4dd1dc13","system_id":"levelo_inurba_marseille","lat":43.30254,"lon":5.40043,"is_reserved":false,"is_disabled":false,"rental_uris":{"android":"levelo://app?vid=0bbfba88-00cd-4cea-b464-0acb4dd1dc13","ios":"levelo://app?vid=0bbfba88-00cd-4cea-b464-0acb4dd1dc13"},"vehicle_type_id":"4","last_reported":1758146945,"current_range_meters":8400,"station_id":"ce4bgvh2rcd13ifvqcs0","pricing_plan_id":"cebpf4jnsgd1na2vs0mg"},{"bike_id":"2967e295-bc8b-416d-8580-ece5a72a3065","system_id":"levelo_inurba_marseille","lat":43.2859,"lon":5.39499,"is_reserved":false,"is_disabled":false,"rental_uris":{"android":"levelo://app?vid=2967e295-bc8b-416d-8580-ece5a72a3065","ios":"levelo://app?vid=2967e295-bc8b-416d-8580-ece5a72a3065"},"vehicle_type_id":"4","last_reported":1758146945,"current_range_meters":8000,"station_id":"ce4bh292rcd13ifvqdg0","pricing_plan_id":"cebpf4jnsgd1na2vs0mg"},{"bike_id":"62ff2e55-6065-4393-bd84-a6df40a5069a","system_id":"levelo_inurba_marseille","lat":43.28447,"lon":5.39187,"is_reserved":false,"is_disabled":false,"rental_uris":{"android":"levelo://app?vid=62ff2e55-6065-4393-bd84-a6df40a5069a","ios":"levelo://app?vid=62ff2e55-6065-4393-bd84-a6df40a5069a"},"vehicle_type_id":"4","last_reported":1758146945,"current_range_meters":8400,"station_id":"ce4bhoh2rcd13ifvqh5g","pricing_plan_id":"cebpf4jnsgd1na2vs0mg"},{"bike_id":"775af279-8ac9-4585-9121-809be9b13265","system_id":"levelo_inurba_marseille","lat":43.33796,"lon":5.37403,"is_reserved":false,"is_disabled":false,"rental_uris":{"android":"levelo://app?vid=775af279-8ac9-4585-9121-809be9b13265","ios":"levelo://app?vid=775af279-8ac9-4585-9121-809be9b13265"},"vehicle_type_id":"4","last_reported":1758146945,"current_range_meters":8800,"station_id":"","pricing_plan_id":"cebpf4jnsgd1na2vs0mg"},{"bike_id":"50df05c5-9e78-4a32-8c15-ea1e068d3278","system_id":"levelo_inurba_marseille","lat":43.26944,"lon":5.38649,"is_reserved":false,"is_disabled":true,"rental_uris":{"android":"levelo://app?vid=50df05c5-9e78-4a32-8c15-ea1e068d3278","ios":"levelo://app?vid=50df05c5-9e78-4a32-8c15-ea1e068d3278"},"vehicle_type_id":"4","last_reported":1758146945,"current_range_meters":8800,"station_id":"ce4bhh92rcd13ifvqfh0","pricing_plan_id":"cebpf4jnsgd1na2vs0mg"},{"bike_id":"e0e70180-af83-4432-afd0-56fb04af2748","system_id":"levelo_inurba_marseille","lat":43.27572,"lon":5.38418,"is_reserved":false,"is_disabled":false,"rental_uris":{"android":"levelo://app?vid=e0e70180-af83-4432-afd0-56fb04af2748","ios":"levelo://app?vid=e0e70180-af83-4432-afd0-56fb04af2748"},"vehicle_type_id":"4","last_reported":1758146945,"current_range_meters":8800,"station_id":"ce4bhh92rcd13ifvqfi0","pricing_plan_id":"cebpf4jnsgd1na2vs0mg"},{"bike_id":"336c74d9-d9c9-46d7-a94b-134b36ad023a","system_id":"levelo_inurba_marseille","lat":43.298518,"lon":5.378351,"is_reserved":false,"is_disabled":false,"rental_uris":{"android":"levelo://app?vid=336c74d9-d9c9-46d7-a94b-134b36ad023a","ios":"levelo://app?vid=336c74d9-d9c9-46d7-a94b-134b36ad023a"},"vehicle_type_id":"4","last_reported":1758146945,"current_range_meters":8800,"station_id":"","pricing_plan_id":"cebpf4jnsgd1na2vs0mg"},{"bike_id":"e1ee086b-4c8d-4d4b-bb39-8d804cf0b034","system_id":"levelo_inurba_marseille","lat":43.27062,"lon":5.40271,"is_reserved":false,"is_disabled":false,"rental_uris":{"android":"levelo://app?vid=e1ee086b-4c8d-4d4b-bb39-8d804cf0b034","ios":"levelo://app?vid=e1ee086b-4c8d-4d4b-bb39-8d804cf0b034"},"vehicle_type_id":"4","last_reported":1758146945,"current_range_meters":8800,"station_id":"ce4bhk92rcd13ifvqgc0","pricing_plan_id":"cebpf4jnsgd1na2vs0mg"},{"bike_id":"f8dbdfcc-8fd8-4df9-a8b5-722c1e2dfb63","system_id":"levelo_inurba_marseille","lat":43.30739,"lon":5.42438,"is_reserved":false,"is_disabled":false,"rental_uris":{"android":"levelo://app?vid=f8dbdfcc-8fd8-4df9-a8b5-722c1e2dfb63","ios":"levelo://app?vid=f8dbdfcc-8fd8-4df9-a8b5-722c1e2dfb63"},"vehicle_type_id":"4","last_reported":1758146945,"current_range_meters":8800,"station_id":"st_cvj6ca6bvosntc0bfgr0","pricing_plan_id":"cebpf4jnsgd1na2vs0mg"},{"bike_id":"003515e8-8117-44bb-979d-5f47e8d50fda","system_id":"levelo_inurba_marseille","lat":43.30622,"lon":5.37567,"is_reserved":false,"is_disabled":false,"rental_uris":{"android":"levelo://app?vid=003515e8-8117-44bb-979d-5f47e8d50fda","ios":"levelo://app?vid=003515e8-8117-44bb-979d-5f47e8d50fda"},"vehicle_type_id":"4","last_reported":1758146945,"current_range_meters":9200,"station_id":"","pricing_plan_id":"cebpf4jnsgd1na2vs0mg"},{"bike_id":"b8ff3a2d-3aaa-4430-b2d1-0c87a6780eed","system_id":"levelo_inurba_marseille","lat":43.30305,"lon":5.37693,"is_reserved":false,"is_disabled":false,"rental_uris":{"android":"levelo://app?vid=b8ff3a2d-3aaa-4430-b2d1-0c87a6780eed","ios":"levelo://app?vid=b8ff3a2d-3aaa-4430-b2d1-0c87a6780eed"},"vehicle_type_id":"4","last_reported":1758146945,"current_range_meters":8800,"station_id":"ce4bguh2rcd13ifvqcj0","pricing_plan_id":"cebpf4jnsgd1na2vs0mg"},{"bike_id":"43e119fe-40e1-485e-98bd-7f3ee4aed503","system_id":"levelo_inurba_marseille","lat":43.28728,"lon":5.36078,"is_reserved":false,"is_disabled":false,"rental_uris":{"android":"levelo://app?vid=43e119fe-40e1-485e-98bd-7f3ee4aed503","ios":"levelo://app?vid=43e119fe-40e1-485e-98bd-7f3ee4aed503"},"vehicle_type_id":"4","last_reported":1758146945,"current_range_meters":8800,"station_id":"cki0cbj6b192h4jlfktg","pricing_plan_id":"cebpf4jnsgd1na2vs0mg"},{"bike_id":"94fda26d-47e3-4d9d-97a5-a4f6ce7a1b30","system_id":"levelo_inurba_marseille","lat":43.29914,"lon":5.37486,"is_reserved":false,"is_disabled":false,"rental_uris":{"android":"levelo://app?vid=94fda26d-47e3-4d9d-97a5-a4f6ce7a1b30","ios":"levelo://app?vid=94fda26d-47e3-4d9d-97a5-a4f6ce7a1b30"},"vehicle_type_id":"4","last_reported":1758146945,"current_range_meters":9200,"station_id":"ce4bgjh2rcd13ifvqbg0","pricing_plan_id":"cebpf4jnsgd1na2vs0mg"},{"bike_id":"1819bd9c-dee0-4fba-be3f-f9d8f9408ce3","system_id":"levelo_inurba_marseille","lat":43.24401,"lon":5.3705,"is_reserved":false,"is_disabled":false,"rental_uris":{"android":"levelo://app?vid=1819bd9c-dee0-4fba-be3f-f9d8f9408ce3","ios":"levelo://app?vid=1819bd9c-dee0-4fba-be3f-f9d8f9408ce3"},"vehicle_type_id":"4","last_reported":1758146945,"current_range_meters":9600,"station_id":"ce4bhhh2rcd13ifvqfk0","pricing_plan_id":"cebpf4jnsgd1na2vs0mg"},{"bike_id":"05eeda8d-199a-458b-89bc-f4007da7d881","system_id":"levelo_inurba_marseille","lat":43.29359,"lon":5.37176,"is_reserved":false,"is_disabled":false,"rental_uris":{"android":"levelo://app?vid=05eeda8d-199a-458b-89bc-f4007da7d881","ios":"levelo://app?vid=05eeda8d-199a-458b-89bc-f4007da7d881"},"vehicle_type_id":"4","last_reported":1758146945,"current_range_meters":9600,"station_id":"ce4bgh92rcd13ifvqb40","pricing_plan_id":"cebpf4jnsgd1na2vs0mg"},{"bike_id":"0ecafac7-7b23-4cd7-a131-5d9ef9442afe","system_id":"levelo_inurba_marseille","lat":43.30427,"lon":5.39742,"is_reserved":false,"is_disabled":false,"rental_uris":{"android":"levelo://app?vid=0ecafac7-7b23-4cd7-a131-5d9ef9442afe","ios":"levelo://app?vid=0ecafac7-7b23-4cd7-a131-5d9ef9442afe"},"vehicle_type_id":"4","last_reported":1758146945,"current_range_meters":9200,"station_id":"ce4bh092rcd13ifvqd20","pricing_plan_id":"cebpf4jnsgd1na2vs0mg"},{"bike_id":"5cebaa99-7be9-4a3f-9cc0-5cdfdaef03f0","system_id":"levelo_inurba_marseille","lat":43.225319,"lon":5.348348,"is_reserved":false,"is_disabled":false,"rental_uris":{"android":"levelo://app?vid=5cebaa99-7be9-4a3f-9cc0-5cdfdaef03f0","ios":"levelo://app?vid=5cebaa99-7be9-4a3f-9cc0-5cdfdaef03f0"},"vehicle_type_id":"4","last_reported":1758146945,"current_range_meters":9600,"station_id":"","pricing_plan_id":"cebpf4jnsgd1na2vs0mg"},{"bike_id":"dc056a5f-dd0c-437c-bb54-187cc2a010ce","system_id":"levelo_inurba_marseille","lat":43.29793,"lon":5.39358,"is_reserved":false,"is_disabled":true,"rental_uris":{"android":"levelo://app?vid=dc056a5f-dd0c-437c-bb54-187cc2a010ce","ios":"levelo://app?vid=dc056a5f-dd0c-437c-bb54-187cc2a010ce"},"vehicle_type_id":"4","last_reported":1758146945,"current_range_meters":9600,"station_id":"chh1huq6cuj3fo74tm60","pricing_plan_id":"cebpf4jnsgd1na2vs0mg"},{"bike_id":"71a2ca06-43e0-422b-a0b6-9580a40eb8e5","system_id":"levelo_inurba_marseille","lat":43.2792,"lon":5.39579,"is_reserved":false,"is_disabled":false,"rental_uris":{"android":"levelo://app?vid=71a2ca06-43e0-422b-a0b6-9580a40eb8e5","ios":"levelo://app?vid=71a2ca06-43e0-422b-a0b6-9580a40eb8e5"},"vehicle_type_id":"4","last_reported":1758146945,"current_range_meters":9600,"station_id":"ce4bhf92rcd13ifvqf40","pricing_plan_id":"cebpf4jnsgd1na2vs0mg"},{"bike_id":"c8a623f7-e024-4645-b389-73707f65a951","system_id":"levelo_inurba_marseille","lat":43.29971,"lon":5.38504,"is_reserved":false,"is_disabled":false,"rental_uris":{"android":"levelo://app?vid=c8a623f7-e024-4645-b389-73707f65a951","ios":"levelo://app?vid=c8a623f7-e024-4645-b389-73707f65a951"},"vehicle_type_id":"4","last_reported":1758146945,"current_range_meters":10800,"station_id":"ce4bgj92rcd13ifvqbd0","pricing_plan_id":"cebpf4jnsgd1na2vs0mg"},{"bike_id":"97fac187-45a1-4e8f-be9b-a5c24559a733","system_id":"levelo_inurba_marseille","lat":43.21745,"lon":5.34604,"is_reserved":false,"is_disabled":false,"rental_uris":{"android":"levelo://app?vid=97fac187-45a1-4e8f-be9b-a5c24559a733","ios":"levelo://app?vid=97fac187-45a1-4e8f-be9b-a5c24559a733"},"vehicle_type_id":"4","last_reported":1758146945,"current_range_meters":10800,"station_id":"st_cvj6r9ubvosntc0bgbag","pricing_plan_id":"cebpf4jnsgd1na2vs0mg"},{"bike_id":"ca5a1340-d41e-49f3-95f8-599734e0a36c","system_id":"levelo_inurba_marseille","lat":43.225336,"lon":5.348339,"is_reserved":false,"is_disabled":false,"rental_uris":{"android":"levelo://app?vid=ca5a1340-d41e-49f3-95f8-599734e0a36c","ios":"levelo://app?vid=ca5a1340-d41e-49f3-95f8-599734e0a36c"},"vehicle_type_id":"4","last_reported":1758146945,"current_range_meters":10800,"station_id":"","pricing_plan_id":"cebpf4jnsgd1na2vs0mg"},{"bike_id":"d2d21405-7d84-46d6-9542-57aa659023fa","system_id":"levelo_inurba_marseille","lat":43.33113,"lon":5.37877,"is_reserved":false,"is_disabled":false,"rental_uris":{"android":"levelo://app?vid=d2d21405-7d84-46d6-9542-57aa659023fa","ios":"levelo://app?vid=d2d21405-7d84-46d6-9542-57aa659023fa"},"vehicle_type_id":"4","last_reported":1758146945,"current_range_meters":10800,"station_id":"","pricing_plan_id":"cebpf4jnsgd1na2vs0mg"},{"bike_id":"668135b0-471e-4eaf-8c69-ab958b390821","system_id":"levelo_inurba_marseille","lat":43.25718,"lon":5.41114,"is_reserved":false,"is_disabled":false,"rental_uris":{"android":"levelo://app?vid=668135b0-471e-4eaf-8c69-ab958b390821","ios":"levelo://app?vid=668135b0-471e-4eaf-8c69-ab958b390821"},"vehicle_type_id":"4","last_reported":1758146945,"current_range_meters":10800,"station_id":"ce4bhkp2rcd13ifvqgd0","pricing_plan_id":"cebpf4jnsgd1na2vs0mg"},{"bike_id":"ea2b8cb5-3aaa-4102-9089-ab6f9d168c5a","system_id":"levelo_inurba_marseille","lat":43.2903,"lon":5.37551,"is_reserved":false,"is_disabled":false,"rental_uris":{"android":"levelo://app?vid=ea2b8cb5-3aaa-4102-9089-ab6f9d168c5a","ios":"levelo://app?vid=ea2b8cb5-3aaa-4102-9089-ab6f9d168c5a"},"vehicle_type_id":"4","last_reported":1758146945,"current_range_meters":11200,"station_id":"ce4bh692rcd13ifvqe90","pricing_plan_id":"cebpf4jnsgd1na2vs0mg"},{"bike_id":"2a5e641a-ca90-4f3a-9350-63bb94d9cebf","system_id":"levelo_inurba_marseille","lat":43.25565,"lon":5.39146,"is_reserved":false,"is_disabled":false,"rental_uris":{"android":"levelo://app?vid=2a5e641a-ca90-4f3a-9350-63bb94d9cebf","ios":"levelo://app?vid=2a5e641a-ca90-4f3a-9350-63bb94d9cebf"},"vehicle_type_id":"4","last_reported":1758146945,"current_range_meters":11200,"station_id":"","pricing_plan_id":"cebpf4jnsgd1na2vs0mg"},{"bike_id":"0a2e2756-8bf6-4279-a120-8478c237834b","system_id":"levelo_inurba_marseille","lat":43.26484,"lon":5.39563,"is_reserved":false,"is_disabled":true,"rental_uris":{"android":"levelo://app?vid=0a2e2756-8bf6-4279-a120-8478c237834b","ios":"levelo://app?vid=0a2e2756-8bf6-4279-a120-8478c237834b"},"vehicle_type_id":"4","last_reported":1758146945,"current_range_meters":11200,"station_id":"ce4bhi12rcd13ifvqfq0","pricing_plan_id":"cebpf4jnsgd1na2vs0mg"},{"bike_id":"f147ac6b-7a2a-4389-b5ef-5b0c997213b7","system_id":"levelo_inurba_marseille","lat":43.23151,"lon":5.43722,"is_reserved":false,"is_disabled":false,"rental_uris":{"android":"levelo://app?vid=f147ac6b-7a2a-4389-b5ef-5b0c997213b7","ios":"levelo://app?vid=f147ac6b-7a2a-4389-b5ef-5b0c997213b7"},"vehicle_type_id":"4","last_reported":1758146945,"current_range_meters":10800,"station_id":"ce4bhmp2rcd13ifvqgog","pricing_plan_id":"cebpf4jnsgd1na2vs0mg"},{"bike_id":"09734f56-1274-4913-8cd9-7e86f641ab44","system_id":"levelo_inurba_marseille","lat":43.29549,"lon":5.38548,"is_reserved":false,"is_disabled":true,"rental_uris":{"android":"levelo://app?vid=09734f56-1274-4913-8cd9-7e86f641ab44","ios":"levelo://app?vid=09734f56-1274-4913-8cd9-7e86f641ab44"},"vehicle_type_id":"4","last_reported":1758146945,"current_range_meters":11600,"station_id":"ce4bgih2rcd13ifvqba0","pricing_plan_id":"cebpf4jnsgd1na2vs0mg"},{"bike_id":"62ad0034-2f00-484d-b4a7-d0313ae59052","system_id":"levelo_inurba_marseille","lat":43.2819,"lon":5.42648,"is_reserved":false,"is_disabled":false,"rental_uris":{"android":"levelo://app?vid=62ad0034-2f00-484d-b4a7-d0313ae59052","ios":"levelo://app?vid=62ad0034-2f00-484d-b4a7-d0313ae59052"},"vehicle_type_id":"4","last_reported":1758146945,"current_range_meters":11600,"station_id":"ce4bhnh2rcd13ifvqgug","pricing_plan_id":"cebpf4jnsgd1na2vs0mg"},{"bike_id":"be7e6a52-5f32-4f5d-ab19-09bbc34d35a2","system_id":"levelo_inurba_marseille","lat":43.21194,"lon":5.35086,"is_reserved":false,"is_disabled":false,"rental_uris":{"android":"levelo://app?vid=be7e6a52-5f32-4f5d-ab19-09bbc34d35a2","ios":"levelo://app?vid=be7e6a52-5f32-4f5d-ab19-09bbc34d35a2"},"vehicle_type_id":"4","last_reported":1758146945,"current_range_meters":11600,"station_id":"st_cvj6sg6p6f1abm77japg","pricing_plan_id":"cebpf4jnsgd1na2vs0mg"},{"bike_id":"4fdf4a85-b2dd-47fa-9d42-052fd838e8f8","system_id":"levelo_inurba_marseille","lat":43.31367,"lon":5.38497,"is_reserved":false,"is_disabled":false,"rental_uris":{"android":"levelo://app?vid=4fdf4a85-b2dd-47fa-9d42-052fd838e8f8","ios":"levelo://app?vid=4fdf4a85-b2dd-47fa-9d42-052fd838e8f8"},"vehicle_type_id":"4","last_reported":1758146945,"current_range_meters":11600,"station_id":"ce4bgt92rcd13ifvqcf0","pricing_plan_id":"cebpf4jnsgd1na2vs0mg"},{"bike_id":"972c9d09-e247-4d5e-8163-65099c4bda35","system_id":"levelo_inurba_marseille","lat":43.30887,"lon":5.37195,"is_reserved":false,"is_disabled":false,"rental_uris":{"android":"levelo://app?vid=972c9d09-e247-4d5e-8163-65099c4bda35","ios":"levelo://app?vid=972c9d09-e247-4d5e-8163-65099c4bda35"},"vehicle_type_id":"4","last_reported":1758146945,"current_range_meters":11600,"station_id":"ce4bguh2rcd13ifvqckg","pricing_plan_id":"cebpf4jnsgd1na2vs0mg"},{"bike_id":"43a21b63-0c50-4291-a8c9-aa4d0d4e2150","system_id":"levelo_inurba_marseille","lat":43.28712,"lon":5.37387,"is_reserved":false,"is_disabled":false,"rental_uris":{"android":"levelo://app?vid=43a21b63-0c50-4291-a8c9-aa4d0d4e2150","ios":"levelo://app?vid=43a21b63-0c50-4291-a8c9-aa4d0d4e2150"},"vehicle_type_id":"4","last_reported":1758146945,"current_range_meters":12000,"station_id":"ce4bh3p2rcd13ifvqdq0","pricing_plan_id":"cebpf4jnsgd1na2vs0mg"},{"bike_id":"a2cc1c2f-1d11-48db-982e-b4e7fb30e192","system_id":"levelo_inurba_marseille","lat":43.32507,"lon":5.3656,"is_reserved":false,"is_disabled":false,"rental_uris":{"android":"levelo://app?vid=a2cc1c2f-1d11-48db-982e-b4e7fb30e192","ios":"levelo://app?vid=a2cc1c2f-1d11-48db-982e-b4e7fb30e192"},"vehicle_type_id":"4","last_reported":1758146945,"current_range_meters":12000,"station_id":"ce4bhs12rcd13ifvqhvg","pricing_plan_id":"cebpf4jnsgd1na2vs0mg"},{"bike_id":"12b9e703-561e-4ddc-9f62-18e7a69ec9cb","system_id":"levelo_inurba_marseille","lat":43.316904,"lon":5.404668,"is_reserved":false,"is_disabled":false,"rental_uris":{"android":"levelo://app?vid=12b9e703-561e-4ddc-9f62-18e7a69ec9cb","ios":"levelo://app?vid=12b9e703-561e-4ddc-9f62-18e7a69ec9cb"},"vehicle_type_id":"4","last_reported":1758146945,"current_range_meters":12000,"station_id":"ce4bh012rcd13ifvqd00","pricing_plan_id":"cebpf4jnsgd1na2vs0mg"},{"bike_id":"5701fe9c-3e98-4b9f-a910-5eb395d4e5d3","system_id":"levelo_inurba_marseille","lat":43.305389,"lon":5.384223,"is_reserved":false,"is_disabled":false,"rental_uris":{"android":"levelo://app?vid=5701fe9c-3e98-4b9f-a910-5eb395d4e5d3","ios":"levelo://app?vid=5701fe9c-3e98-4b9f-a910-5eb395d4e5d3"},"vehicle_type_id":"4","last_reported":1758146945,"current_range_meters":12000,"station_id":"ce4bgg92rcd13ifvqb30","pricing_plan_id":"cebpf4jnsgd1na2vs0mg"},{"bike_id":"75e5398c-cc2b-4f0d-9a7c-9d80ed854551","system_id":"levelo_inurba_marseille","lat":43.2823,"lon":5.39065,"is_reserved":false,"is_disabled":false,"rental_uris":{"android":"levelo://app?vid=75e5398c-cc2b-4f0d-9a7c-9d80ed854551","ios":"levelo://app?vid=75e5398c-cc2b-4f0d-9a7c-9d80ed854551"},"vehicle_type_id":"4","last_reported":1758146945,"current_range_meters":12000,"station_id":"ce4bhn92rcd13ifvqgsg","pricing_plan_id":"cebpf4jnsgd1na2vs0mg"},{"bike_id":"d87a2287-81e9-47af-9ec2-cc0db426763b","system_id":"levelo_inurba_marseille","lat":43.30333,"lon":5.36908,"is_reserved":false,"is_disabled":false,"rental_uris":{"android":"levelo://app?vid=d87a2287-81e9-47af-9ec2-cc0db426763b","ios":"levelo://app?vid=d87a2287-81e9-47af-9ec2-cc0db426763b"},"vehicle_type_id":"4","last_reported":1758146945,"current_range_meters":12400,"station_id":"","pricing_plan_id":"cebpf4jnsgd1na2vs0mg"},{"bike_id":"e51d0a08-ed72-438f-87cb-8f9f8f6dcd31","system_id":"levelo_inurba_marseille","lat":43.25077,"lon":5.39458,"is_reserved":false,"is_disabled":false,"rental_uris":{"android":"levelo://app?vid=e51d0a08-ed72-438f-87cb-8f9f8f6dcd31","ios":"levelo://app?vid=e51d0a08-ed72-438f-87cb-8f9f8f6dcd31"},"vehicle_type_id":"4","last_reported":1758146945,"current_range_meters":12000,"station_id":"ce4bhm12rcd13ifvqgkg","pricing_plan_id":"cebpf4jnsgd1na2vs0mg"},{"bike_id":"65854fe7-484f-4538-8c9b-93eeb0063f0f","system_id":"levelo_inurba_marseille","lat":43.25348,"lon":5.42179,"is_reserved":false,"is_disabled":false,"rental_uris":{"android":"levelo://app?vid=65854fe7-484f-4538-8c9b-93eeb0063f0f","ios":"levelo://app?vid=65854fe7-484f-4538-8c9b-93eeb0063f0f"},"vehicle_type_id":"4","last_reported":1758146945,"current_range_meters":12400,"station_id":"st_d2m65c5bi1j21697t3ng","pricing_plan_id":"cebpf4jnsgd1na2vs0mg"},{"bike_id":"2cb40913-0575-47ae-a31e-5936e0178a59","system_id":"levelo_inurba_marseille","lat":43.29041,"lon":5.37579,"is_reserved":false,"is_disabled":false,"rental_uris":{"android":"levelo://app?vid=2cb40913-0575-47ae-a31e-5936e0178a59","ios":"levelo://app?vid=2cb40913-0575-47ae-a31e-5936e0178a59"},"vehicle_type_id":"4","last_reported":1758146945,"current_range_meters":12400,"station_id":"ce4bh692rcd13ifvqe90","pricing_plan_id":"cebpf4jnsgd1na2vs0mg"},{"bike_id":"046ba709-b940-4fa3-9690-1d81db536e4b","system_id":"levelo_inurba_marseille","lat":43.22577,"lon":5.41618,"is_reserved":false,"is_disabled":false,"rental_uris":{"android":"levelo://app?vid=046ba709-b940-4fa3-9690-1d81db536e4b","ios":"levelo://app?vid=046ba709-b940-4fa3-9690-1d81db536e4b"},"vehicle_type_id":"4","last_reported":1758146945,"current_range_meters":12400,"station_id":"st_d2o4gvlbi1j2169b742g","pricing_plan_id":"cebpf4jnsgd1na2vs0mg"},{"bike_id":"7c53e1e0-9efc-4c15-9c29-668d4dac4c59","system_id":"levelo_inurba_marseille","lat":43.22511,"lon":5.34848,"is_reserved":false,"is_disabled":false,"rental_uris":{"android":"levelo://app?vid=7c53e1e0-9efc-4c15-9c29-668d4dac4c59","ios":"levelo://app?vid=7c53e1e0-9efc-4c15-9c29-668d4dac4c59"},"vehicle_type_id":"4","last_reported":1758146945,"current_range_meters":12400,"station_id":"","pricing_plan_id":"cebpf4jnsgd1na2vs0mg"},{"bike_id":"23acee2f-08c3-4968-aec2-78bf163648fa","system_id":"levelo_inurba_marseille","lat":43.30551,"lon":5.38425,"is_reserved":false,"is_disabled":false,"rental_uris":{"android":"levelo://app?vid=23acee2f-08c3-4968-aec2-78bf163648fa","ios":"levelo://app?vid=23acee2f-08c3-4968-aec2-78bf163648fa"},"vehicle_type_id":"4","last_reported":1758146945,"current_range_meters":12400,"station_id":"ce4bgg92rcd13ifvqb30","pricing_plan_id":"cebpf4jnsgd1na2vs0mg"},{"bike_id":"0a714f01-7287-46f8-bbb6-81d9c8aaefe2","system_id":"levelo_inurba_marseille","lat":43.297,"lon":5.39165,"is_reserved":false,"is_disabled":false,"rental_uris":{"android":"levelo://app?vid=0a714f01-7287-46f8-bbb6-81d9c8aaefe2","ios":"levelo://app?vid=0a714f01-7287-46f8-bbb6-81d9c8aaefe2"},"vehicle_type_id":"4","last_reported":1758146945,"current_range_meters":12800,"station_id":"","pricing_plan_id":"cebpf4jnsgd1na2vs0mg"},{"bike_id":"e9f12a29-a87e-4abf-9c90-ccdd7b62cab5","system_id":"levelo_inurba_marseille","lat":43.30346,"lon":5.40428,"is_reserved":false,"is_disabled":false,"rental_uris":{"android":"levelo://app?vid=e9f12a29-a87e-4abf-9c90-ccdd7b62cab5","ios":"levelo://app?vid=e9f12a29-a87e-4abf-9c90-ccdd7b62cab5"},"vehicle_type_id":"4","last_reported":1758146945,"current_range_meters":12400,"station_id":"ce4bh012rcd13ifvqd10","pricing_plan_id":"cebpf4jnsgd1na2vs0mg"},{"bike_id":"99ea5b04-a1d4-49cf-ad67-e58228257d32","system_id":"levelo_inurba_marseille","lat":43.31709,"lon":5.43716,"is_reserved":false,"is_disabled":false,"rental_uris":{"android":"levelo://app?vid=99ea5b04-a1d4-49cf-ad67-e58228257d32","ios":"levelo://app?vid=99ea5b04-a1d4-49cf-ad67-e58228257d32"},"vehicle_type_id":"4","last_reported":1758146945,"current_range_meters":12800,"station_id":"ce4bhp92rcd13ifvqhcg","pricing_plan_id":"cebpf4jnsgd1na2vs0mg"},{"bike_id":"335f12e9-618b-4092-bce8-c94e434d846c","system_id":"levelo_inurba_marseille","lat":43.25334,"lon":5.4217,"is_reserved":false,"is_disabled":false,"rental_uris":{"android":"levelo://app?vid=335f12e9-618b-4092-bce8-c94e434d846c","ios":"levelo://app?vid=335f12e9-618b-4092-bce8-c94e434d846c"},"vehicle_type_id":"4","last_reported":1758146945,"current_range_meters":12800,"station_id":"st_d2m65c5bi1j21697t3ng","pricing_plan_id":"cebpf4jnsgd1na2vs0mg"},{"bike_id":"a226b02b-2c60-498a-be00-b8114c72fc49","system_id":"levelo_inurba_marseille","lat":43.27957,"lon":5.41054,"is_reserved":false,"is_disabled":false,"rental_uris":{"android":"levelo://app?vid=a226b02b-2c60-498a-be00-b8114c72fc49","ios":"levelo://app?vid=a226b02b-2c60-498a-be00-b8114c72fc49"},"vehicle_type_id":"4","last_reported":1758146945,"current_range_meters":12800,"station_id":"ce4bhnp2rcd13ifvqh0g","pricing_plan_id":"cebpf4jnsgd1na2vs0mg"},{"bike_id":"dc87237e-bb10-4f17-be98-ba5eae548f2e","system_id":"levelo_inurba_marseille","lat":43.32395,"lon":5.3888,"is_reserved":false,"is_disabled":false,"rental_uris":{"android":"levelo://app?vid=dc87237e-bb10-4f17-be98-ba5eae548f2e","ios":"levelo://app?vid=dc87237e-bb10-4f17-be98-ba5eae548f2e"},"vehicle_type_id":"4","last_reported":1758146945,"current_range_meters":12800,"station_id":"ce4bhqp2rcd13ifvqhog","pricing_plan_id":"cebpf4jnsgd1na2vs0mg"},{"bike_id":"f7254990-f51d-45fe-83e3-57aceffccbc4","system_id":"levelo_inurba_marseille","lat":43.22581,"lon":5.41624,"is_reserved":false,"is_disabled":false,"rental_uris":{"android":"levelo://app?vid=f7254990-f51d-45fe-83e3-57aceffccbc4","ios":"levelo://app?vid=f7254990-f51d-45fe-83e3-57aceffccbc4"},"vehicle_type_id":"4","last_reported":1758146945,"current_range_meters":13600,"station_id":"st_d2o4gvlbi1j2169b742g","pricing_plan_id":"cebpf4jnsgd1na2vs0mg"},{"bike_id":"768c558e-c3ca-4b3b-a13e-becab77f3308","system_id":"levelo_inurba_marseille","lat":43.25502,"lon":5.37649,"is_reserved":false,"is_disabled":false,"rental_uris":{"android":"levelo://app?vid=768c558e-c3ca-4b3b-a13e-becab77f3308","ios":"levelo://app?vid=768c558e-c3ca-4b3b-a13e-becab77f3308"},"vehicle_type_id":"4","last_reported":1758146945,"current_range_meters":13600,"station_id":"ce4bhh12rcd13ifvqff0","pricing_plan_id":"cebpf4jnsgd1na2vs0mg"},{"bike_id":"55dfb17a-dc13-4669-82ac-2c676d600c2d","system_id":"levelo_inurba_marseille","lat":43.31351,"lon":5.37936,"is_reserved":false,"is_disabled":false,"rental_uris":{"android":"levelo://app?vid=55dfb17a-dc13-4669-82ac-2c676d600c2d","ios":"levelo://app?vid=55dfb17a-dc13-4669-82ac-2c676d600c2d"},"vehicle_type_id":"4","last_reported":1758146945,"current_range_meters":13600,"station_id":"","pricing_plan_id":"cebpf4jnsgd1na2vs0mg"},{"bike_id":"5bd30648-a701-40b1-a872-a3b64690a3d1","system_id":"levelo_inurba_marseille","lat":43.2959,"lon":5.37508,"is_reserved":false,"is_disabled":false,"rental_uris":{"android":"levelo://app?vid=5bd30648-a701-40b1-a872-a3b64690a3d1","ios":"levelo://app?vid=5bd30648-a701-40b1-a872-a3b64690a3d1"},"vehicle_type_id":"4","last_reported":1758146945,"current_range_meters":13600,"station_id":"","pricing_plan_id":"cebpf4jnsgd1na2vs0mg"},{"bike_id":"9319e673-c10f-48e8-9986-dafaa34238a1","system_id":"levelo_inurba_marseille","lat":43.2925,"lon":5.40905,"is_reserved":false,"is_disabled":false,"rental_uris":{"android":"levelo://app?vid=9319e673-c10f-48e8-9986-dafaa34238a1","ios":"levelo://app?vid=9319e673-c10f-48e8-9986-dafaa34238a1"},"vehicle_type_id":"4","last_reported":1758146945,"current_range_meters":13600,"station_id":"ce4bh192rcd13ifvqdc0","pricing_plan_id":"cebpf4jnsgd1na2vs0mg"},{"bike_id":"68840a36-617d-4159-ae65-169d53886d42","system_id":"levelo_inurba_marseille","lat":43.31497,"lon":5.37279,"is_reserved":false,"is_disabled":false,"rental_uris":{"android":"levelo://app?vid=68840a36-617d-4159-ae65-169d53886d42","ios":"levelo://app?vid=68840a36-617d-4159-ae65-169d53886d42"},"vehicle_type_id":"4","last_reported":1758146945,"current_range_meters":13600,"station_id":"ce4bgt12rcd13ifvqcd0","pricing_plan_id":"cebpf4jnsgd1na2vs0mg"},{"bike_id":"49230824-e0b0-4942-b254-aed72b06d282","system_id":"levelo_inurba_marseille","lat":43.26955,"lon":5.40514,"is_reserved":false,"is_disabled":false,"rental_uris":{"android":"levelo://app?vid=49230824-e0b0-4942-b254-aed72b06d282","ios":"levelo://app?vid=49230824-e0b0-4942-b254-aed72b06d282"},"vehicle_type_id":"4","last_reported":1758146945,"current_range_meters":14000,"station_id":"","pricing_plan_id":"cebpf4jnsgd1na2vs0mg"},{"bike_id":"2fcc52b3-83bc-4b17-ac5c-0695077c4514","system_id":"levelo_inurba_marseille","lat":43.29616,"lon":5.37706,"is_reserved":false,"is_disabled":false,"rental_uris":{"android":"levelo://app?vid=2fcc52b3-83bc-4b17-ac5c-0695077c4514","ios":"levelo://app?vid=2fcc52b3-83bc-4b17-ac5c-0695077c4514"},"vehicle_type_id":"4","last_reported":1758146945,"current_range_meters":14000,"station_id":"","pricing_plan_id":"cebpf4jnsgd1na2vs0mg"},{"bike_id":"ce394031-e526-4504-97af-5dfb831e6b38","system_id":"levelo_inurba_marseille","lat":43.27945,"lon":5.41041,"is_reserved":false,"is_disabled":false,"rental_uris":{"android":"levelo://app?vid=ce394031-e526-4504-97af-5dfb831e6b38","ios":"levelo://app?vid=ce394031-e526-4504-97af-5dfb831e6b38"},"vehicle_type_id":"4","last_reported":1758146945,"current_range_meters":14000,"station_id":"ce4bhnp2rcd13ifvqh0g","pricing_plan_id":"cebpf4jnsgd1na2vs0mg"},{"bike_id":"963eafaf-b355-4d34-83c6-b1fe8d990f92","system_id":"levelo_inurba_marseille","lat":43.319304,"lon":5.408054,"is_reserved":false,"is_disabled":false,"rental_uris":{"android":"levelo://app?vid=963eafaf-b355-4d34-83c6-b1fe8d990f92","ios":"levelo://app?vid=963eafaf-b355-4d34-83c6-b1fe8d990f92"},"vehicle_type_id":"4","last_reported":1758146945,"current_range_meters":14000,"station_id":"ce4bhq12rcd13ifvqhig","pricing_plan_id":"cebpf4jnsgd1na2vs0mg"},{"bike_id":"4a9f1525-bb38-489e-be29-d6e9a5dc713e","system_id":"levelo_inurba_marseille","lat":43.27525,"lon":5.42474,"is_reserved":false,"is_disabled":false,"rental_uris":{"android":"levelo://app?vid=4a9f1525-bb38-489e-be29-d6e9a5dc713e","ios":"levelo://app?vid=4a9f1525-bb38-489e-be29-d6e9a5dc713e"},"vehicle_type_id":"4","last_reported":1758146945,"current_range_meters":14400,"station_id":"ce4bhn92rcd13ifvqgrg","pricing_plan_id":"cebpf4jnsgd1na2vs0mg"},{"bike_id":"f686b32f-0a3c-4732-a2f2-3df8c0c22d86","system_id":"levelo_inurba_marseille","lat":43.2469,"lon":5.38157,"is_reserved":false,"is_disabled":false,"rental_uris":{"android":"levelo://app?vid=f686b32f-0a3c-4732-a2f2-3df8c0c22d86","ios":"levelo://app?vid=f686b32f-0a3c-4732-a2f2-3df8c0c22d86"},"vehicle_type_id":"4","last_reported":1758146945,"current_range_meters":14400,"station_id":"ce4bhih2rcd13ifvqfr0","pricing_plan_id":"cebpf4jnsgd1na2vs0mg"},{"bike_id":"22f0687d-25d3-4094-9c4a-293a61e189a6","system_id":"levelo_inurba_marseille","lat":43.24711,"lon":5.3977,"is_reserved":false,"is_disabled":false,"rental_uris":{"android":"levelo://app?vid=22f0687d-25d3-4094-9c4a-293a61e189a6","ios":"levelo://app?vid=22f0687d-25d3-4094-9c4a-293a61e189a6"},"vehicle_type_id":"4","last_reported":1758146945,"current_range_meters":14400,"station_id":"","pricing_plan_id":"cebpf4jnsgd1na2vs0mg"},{"bike_id":"c03cdeec-e045-402a-82b8-9e3c576b7296","system_id":"levelo_inurba_marseille","lat":43.30421,"lon":5.41275,"is_reserved":false,"is_disabled":false,"rental_uris":{"android":"levelo://app?vid=c03cdeec-e045-402a-82b8-9e3c576b7296","ios":"levelo://app?vid=c03cdeec-e045-402a-82b8-9e3c576b7296"},"vehicle_type_id":"4","last_reported":1758146945,"current_range_meters":14400,"station_id":"ce4bhop2rcd13ifvqh8g","pricing_plan_id":"cebpf4jnsgd1na2vs0mg"},{"bike_id":"27af242f-7364-4930-b9e8-95fa3ef66c11","system_id":"levelo_inurba_marseille","lat":43.29879,"lon":5.39744,"is_reserved":false,"is_disabled":false,"rental_uris":{"android":"levelo://app?vid=27af242f-7364-4930-b9e8-95fa3ef66c11","ios":"levelo://app?vid=27af242f-7364-4930-b9e8-95fa3ef66c11"},"vehicle_type_id":"4","last_reported":1758146945,"current_range_meters":14400,"station_id":"ce4bh0h2rcd13ifvqd50","pricing_plan_id":"cebpf4jnsgd1na2vs0mg"},{"bike_id":"f95f1120-6a2f-488e-b640-fec750bc5eb5","system_id":"levelo_inurba_marseille","lat":43.28445,"lon":5.39197,"is_reserved":false,"is_disabled":false,"rental_uris":{"android":"levelo://app?vid=f95f1120-6a2f-488e-b640-fec750bc5eb5","ios":"levelo://app?vid=f95f1120-6a2f-488e-b640-fec750bc5eb5"},"vehicle_type_id":"4","last_reported":1758146945,"current_range_meters":14400,"station_id":"ce4bhoh2rcd13ifvqh5g","pricing_plan_id":"cebpf4jnsgd1na2vs0mg"},{"bike_id":"986b367f-3201-4013-91de-fc17d1e7cfd9","system_id":"levelo_inurba_marseille","lat":43.30827,"lon":5.38146,"is_reserved":false,"is_disabled":false,"rental_uris":{"android":"levelo://app?vid=986b367f-3201-4013-91de-fc17d1e7cfd9","ios":"levelo://app?vid=986b367f-3201-4013-91de-fc17d1e7cfd9"},"vehicle_type_id":"4","last_reported":1758146945,"current_range_meters":14000,"station_id":"ce4bgt12rcd13ifvqce0","pricing_plan_id":"cebpf4jnsgd1na2vs0mg"},{"bike_id":"8896123d-fa58-4a8c-8e0c-938af8d18587","system_id":"levelo_inurba_marseille","lat":43.2751,"lon":5.42489,"is_reserved":false,"is_disabled":false,"rental_uris":{"android":"levelo://app?vid=8896123d-fa58-4a8c-8e0c-938af8d18587","ios":"levelo://app?vid=8896123d-fa58-4a8c-8e0c-938af8d18587"},"vehicle_type_id":"4","last_reported":1758146945,"current_range_meters":14800,"station_id":"ce4bhn92rcd13ifvqgrg","pricing_plan_id":"cebpf4jnsgd1na2vs0mg"},{"bike_id":"2ed0296a-0b53-4da9-9ae7-01aa1e30049e","system_id":"levelo_inurba_marseille","lat":43.24676,"lon":5.38147,"is_reserved":false,"is_disabled":false,"rental_uris":{"android":"levelo://app?vid=2ed0296a-0b53-4da9-9ae7-01aa1e30049e","ios":"levelo://app?vid=2ed0296a-0b53-4da9-9ae7-01aa1e30049e"},"vehicle_type_id":"4","last_reported":1758146945,"current_range_meters":15200,"station_id":"ce4bhih2rcd13ifvqfr0","pricing_plan_id":"cebpf4jnsgd1na2vs0mg"},{"bike_id":"3d158815-0ba1-449f-90dd-2b69cf190d13","system_id":"levelo_inurba_marseille","lat":43.32982,"lon":5.3927,"is_reserved":false,"is_disabled":false,"rental_uris":{"android":"levelo://app?vid=3d158815-0ba1-449f-90dd-2b69cf190d13","ios":"levelo://app?vid=3d158815-0ba1-449f-90dd-2b69cf190d13"},"vehicle_type_id":"4","last_reported":1758146945,"current_range_meters":15200,"station_id":"","pricing_plan_id":"cebpf4jnsgd1na2vs0mg"},{"bike_id":"80332322-52bb-49f4-b738-0ea587c53538","system_id":"levelo_inurba_marseille","lat":43.225357,"lon":5.34837,"is_reserved":false,"is_disabled":false,"rental_uris":{"android":"levelo://app?vid=80332322-52bb-49f4-b738-0ea587c53538","ios":"levelo://app?vid=80332322-52bb-49f4-b738-0ea587c53538"},"vehicle_type_id":"4","last_reported":1758146945,"current_range_meters":15200,"station_id":"","pricing_plan_id":"cebpf4jnsgd1na2vs0mg"},{"bike_id":"9d181f5a-58ca-49a0-bbcc-8286d3ed3228","system_id":"levelo_inurba_marseille","lat":43.3136,"lon":5.38366,"is_reserved":false,"is_disabled":false,"rental_uris":{"android":"levelo://app?vid=9d181f5a-58ca-49a0-bbcc-8286d3ed3228","ios":"levelo://app?vid=9d181f5a-58ca-49a0-bbcc-8286d3ed3228"},"vehicle_type_id":"4","last_reported":1758146945,"current_range_meters":15200,"station_id":"","pricing_plan_id":"cebpf4jnsgd1na2vs0mg"},{"bike_id":"d1788760-0706-4b90-8999-db00a9e42210","system_id":"levelo_inurba_marseille","lat":43.32797,"lon":5.41011,"is_reserved":false,"is_disabled":false,"rental_uris":{"android":"levelo://app?vid=d1788760-0706-4b90-8999-db00a9e42210","ios":"levelo://app?vid=d1788760-0706-4b90-8999-db00a9e42210"},"vehicle_type_id":"4","last_reported":1758146945,"current_range_meters":15200,"station_id":"","pricing_plan_id":"cebpf4jnsgd1na2vs0mg"},{"bike_id":"c9511dd5-23dc-4034-aa77-3c8e0deb660c","system_id":"levelo_inurba_marseille","lat":43.30818,"lon":5.38128,"is_reserved":false,"is_disabled":false,"rental_uris":{"android":"levelo://app?vid=c9511dd5-23dc-4034-aa77-3c8e0deb660c","ios":"levelo://app?vid=c9511dd5-23dc-4034-aa77-3c8e0deb660c"},"vehicle_type_id":"4","last_reported":1758146945,"current_range_meters":15200,"station_id":"ce4bgt12rcd13ifvqce0","pricing_plan_id":"cebpf4jnsgd1na2vs0mg"},{"bike_id":"353b4c2e-21e9-4403-bfb9-0b066119608b","system_id":"levelo_inurba_marseille","lat":43.30423,"lon":5.41277,"is_reserved":false,"is_disabled":false,"rental_uris":{"android":"levelo://app?vid=353b4c2e-21e9-4403-bfb9-0b066119608b","ios":"levelo://app?vid=353b4c2e-21e9-4403-bfb9-0b066119608b"},"vehicle_type_id":"4","last_reported":1758146945,"current_range_meters":14800,"station_id":"ce4bhop2rcd13ifvqh8g","pricing_plan_id":"cebpf4jnsgd1na2vs0mg"},{"bike_id":"152b725d-6f61-44b0-bc66-f31437aa6fe9","system_id":"levelo_inurba_marseille","lat":43.22561,"lon":5.41621,"is_reserved":false,"is_disabled":false,"rental_uris":{"android":"levelo://app?vid=152b725d-6f61-44b0-bc66-f31437aa6fe9","ios":"levelo://app?vid=152b725d-6f61-44b0-bc66-f31437aa6fe9"},"vehicle_type_id":"4","last_reported":1758146945,"current_range_meters":16000,"station_id":"st_d2o4gvlbi1j2169b742g","pricing_plan_id":"cebpf4jnsgd1na2vs0mg"},{"bike_id":"387c8295-5c1a-4e62-91c6-560b703e4279","system_id":"levelo_inurba_marseille","lat":43.32456,"lon":5.42677,"is_reserved":false,"is_disabled":false,"rental_uris":{"android":"levelo://app?vid=387c8295-5c1a-4e62-91c6-560b703e4279","ios":"levelo://app?vid=387c8295-5c1a-4e62-91c6-560b703e4279"},"vehicle_type_id":"4","last_reported":1758146945,"current_range_meters":16000,"station_id":"","pricing_plan_id":"cebpf4jnsgd1na2vs0mg"},{"bike_id":"3a5880cd-3aaa-45e3-acd9-2ccd914d29dd","system_id":"levelo_inurba_marseille","lat":43.24055,"lon":5.37725,"is_reserved":false,"is_disabled":false,"rental_uris":{"android":"levelo://app?vid=3a5880cd-3aaa-45e3-acd9-2ccd914d29dd","ios":"levelo://app?vid=3a5880cd-3aaa-45e3-acd9-2ccd914d29dd"},"vehicle_type_id":"4","last_reported":1758146945,"current_range_meters":16000,"station_id":"ce4bhnp2rcd13ifvqgvg","pricing_plan_id":"cebpf4jnsgd1na2vs0mg"},{"bike_id":"dde2e91e-5084-4b39-b78f-82b1ce36a209","system_id":"levelo_inurba_marseille","lat":43.21193,"lon":5.35066,"is_reserved":false,"is_disabled":false,"rental_uris":{"android":"levelo://app?vid=dde2e91e-5084-4b39-b78f-82b1ce36a209","ios":"levelo://app?vid=dde2e91e-5084-4b39-b78f-82b1ce36a209"},"vehicle_type_id":"4","last_reported":1758146945,"current_range_meters":16000,"station_id":"","pricing_plan_id":"cebpf4jnsgd1na2vs0mg"},{"bike_id":"2dae5327-390a-481f-ba9f-5b26d663f259","system_id":"levelo_inurba_marseille","lat":43.27963,"lon":5.4106,"is_reserved":false,"is_disabled":false,"rental_uris":{"android":"levelo://app?vid=2dae5327-390a-481f-ba9f-5b26d663f259","ios":"levelo://app?vid=2dae5327-390a-481f-ba9f-5b26d663f259"},"vehicle_type_id":"4","last_reported":1758146945,"current_range_meters":16400,"station_id":"ce4bhnp2rcd13ifvqh0g","pricing_plan_id":"cebpf4jnsgd1na2vs0mg"},{"bike_id":"5a08afc6-e248-4f35-ab95-79a67e40c1d5","system_id":"levelo_inurba_marseille","lat":43.291885,"lon":5.393298,"is_reserved":false,"is_disabled":false,"rental_uris":{"android":"levelo://app?vid=5a08afc6-e248-4f35-ab95-79a67e40c1d5","ios":"levelo://app?vid=5a08afc6-e248-4f35-ab95-79a67e40c1d5"},"vehicle_type_id":"4","last_reported":1758146945,"current_range_meters":16400,"station_id":"ce4bh192rcd13ifvqdd0","pricing_plan_id":"cebpf4jnsgd1na2vs0mg"},{"bike_id":"162dbf71-41d9-4795-a794-84df6b34b338","system_id":"levelo_inurba_marseille","lat":43.308019,"lon":5.435213,"is_reserved":false,"is_disabled":false,"rental_uris":{"android":"levelo://app?vid=162dbf71-41d9-4795-a794-84df6b34b338","ios":"levelo://app?vid=162dbf71-41d9-4795-a794-84df6b34b338"},"vehicle_type_id":"4","last_reported":1758146945,"current_range_meters":16400,"station_id":"ce4bhph2rcd13ifvqheg","pricing_plan_id":"cebpf4jnsgd1na2vs0mg"},{"bike_id":"02047e15-f153-48d1-bf10-9df2ceb597e1","system_id":"levelo_inurba_marseille","lat":43.27823,"lon":5.39207,"is_reserved":false,"is_disabled":false,"rental_uris":{"android":"levelo://app?vid=02047e15-f153-48d1-bf10-9df2ceb597e1","ios":"levelo://app?vid=02047e15-f153-48d1-bf10-9df2ceb597e1"},"vehicle_type_id":"4","last_reported":1758146945,"current_range_meters":16400,"station_id":"ce4bhjp2rcd13ifvqga0","pricing_plan_id":"cebpf4jnsgd1na2vs0mg"},{"bike_id":"d9330b5d-34b3-4a04-9720-b86e38f03280","system_id":"levelo_inurba_marseille","lat":43.243065,"lon":5.375261,"is_reserved":false,"is_disabled":false,"rental_uris":{"android":"levelo://app?vid=d9330b5d-34b3-4a04-9720-b86e38f03280","ios":"levelo://app?vid=d9330b5d-34b3-4a04-9720-b86e38f03280"},"vehicle_type_id":"4","last_reported":1758146945,"current_range_meters":16400,"station_id":"","pricing_plan_id":"cebpf4jnsgd1na2vs0mg"},{"bike_id":"f1046331-4dc3-4254-933f-ae2617773092","system_id":"levelo_inurba_marseille","lat":43.24651,"lon":5.38896,"is_reserved":false,"is_disabled":false,"rental_uris":{"android":"levelo://app?vid=f1046331-4dc3-4254-933f-ae2617773092","ios":"levelo://app?vid=f1046331-4dc3-4254-933f-ae2617773092"},"vehicle_type_id":"4","last_reported":1758146945,"current_range_meters":16800,"station_id":"ce4bhg12rcd13ifvqf60","pricing_plan_id":"cebpf4jnsgd1na2vs0mg"},{"bike_id":"98ac0389-b780-4b17-aaed-d64af5383d15","system_id":"levelo_inurba_marseille","lat":43.25337,"lon":5.42171,"is_reserved":false,"is_disabled":false,"rental_uris":{"android":"levelo://app?vid=98ac0389-b780-4b17-aaed-d64af5383d15","ios":"levelo://app?vid=98ac0389-b780-4b17-aaed-d64af5383d15"},"vehicle_type_id":"4","last_reported":1758146945,"current_range_meters":16800,"station_id":"st_d2m65c5bi1j21697t3ng","pricing_plan_id":"cebpf4jnsgd1na2vs0mg"},{"bike_id":"e8458f23-b185-4564-80e4-42d73b931b8b","system_id":"levelo_inurba_marseille","lat":43.29659,"lon":5.38097,"is_reserved":false,"is_disabled":false,"rental_uris":{"android":"levelo://app?vid=e8458f23-b185-4564-80e4-42d73b931b8b","ios":"levelo://app?vid=e8458f23-b185-4564-80e4-42d73b931b8b"},"vehicle_type_id":"4","last_reported":1758146945,"current_range_meters":16800,"station_id":"","pricing_plan_id":"cebpf4jnsgd1na2vs0mg"},{"bike_id":"30365912-7779-4a70-9afc-f32986e831b1","system_id":"levelo_inurba_marseille","lat":43.31892,"lon":5.40727,"is_reserved":false,"is_disabled":false,"rental_uris":{"android":"levelo://app?vid=30365912-7779-4a70-9afc-f32986e831b1","ios":"levelo://app?vid=30365912-7779-4a70-9afc-f32986e831b1"},"vehicle_type_id":"4","last_reported":1758146945,"current_range_meters":16800,"station_id":"ce4bhq12rcd13ifvqhig","pricing_plan_id":"cebpf4jnsgd1na2vs0mg"},{"bike_id":"c42f08db-e7aa-4121-a86f-b02b1e613ae1","system_id":"levelo_inurba_marseille","lat":43.28543,"lon":5.40171,"is_reserved":false,"is_disabled":false,"rental_uris":{"android":"levelo://app?vid=c42f08db-e7aa-4121-a86f-b02b1e613ae1","ios":"levelo://app?vid=c42f08db-e7aa-4121-a86f-b02b1e613ae1"},"vehicle_type_id":"4","last_reported":1758146945,"current_range_meters":16800,"station_id":"","pricing_plan_id":"cebpf4jnsgd1na2vs0mg"},{"bike_id":"80a9a218-f77f-42ce-8136-b0dceb9fc366","system_id":"levelo_inurba_marseille","lat":43.267867,"lon":5.394102,"is_reserved":false,"is_disabled":true,"rental_uris":{"android":"levelo://app?vid=80a9a218-f77f-42ce-8136-b0dceb9fc366","ios":"levelo://app?vid=80a9a218-f77f-42ce-8136-b0dceb9fc366"},"vehicle_type_id":"4","last_reported":1758146945,"current_range_meters":17200,"station_id":"ce4bhh12rcd13ifvqfg0","pricing_plan_id":"cebpf4jnsgd1na2vs0mg"},{"bike_id":"7479f757-089d-48d5-ab30-c2d59311d4b4","system_id":"levelo_inurba_marseille","lat":43.30311,"lon":5.36896,"is_reserved":false,"is_disabled":true,"rental_uris":{"android":"levelo://app?vid=7479f757-089d-48d5-ab30-c2d59311d4b4","ios":"levelo://app?vid=7479f757-089d-48d5-ab30-c2d59311d4b4"},"vehicle_type_id":"4","last_reported":1758146945,"current_range_meters":17200,"station_id":"","pricing_plan_id":"cebpf4jnsgd1na2vs0mg"},{"bike_id":"8b911268-c055-48aa-a297-584fd3a9cf6e","system_id":"levelo_inurba_marseille","lat":43.28423,"lon":5.34988,"is_reserved":false,"is_disabled":true,"rental_uris":{"android":"levelo://app?vid=8b911268-c055-48aa-a297-584fd3a9cf6e","ios":"levelo://app?vid=8b911268-c055-48aa-a297-584fd3a9cf6e"},"vehicle_type_id":"4","last_reported":1758146945,"current_range_meters":17200,"station_id":"ce4bhbh2rcd13ifvqepg","pricing_plan_id":"cebpf4jnsgd1na2vs0mg"},{"bike_id":"a1143759-cff7-4b60-845a-0624c236e0e2","system_id":"levelo_inurba_marseille","lat":43.253359,"lon":5.421776,"is_reserved":false,"is_disabled":false,"rental_uris":{"android":"levelo://app?vid=a1143759-cff7-4b60-845a-0624c236e0e2","ios":"levelo://app?vid=a1143759-cff7-4b60-845a-0624c236e0e2"},"vehicle_type_id":"4","last_reported":1758146945,"current_range_meters":17200,"station_id":"st_d2m65c5bi1j21697t3ng","pricing_plan_id":"cebpf4jnsgd1na2vs0mg"},{"bike_id":"52e47e8c-6c98-49d8-92b2-31e9f8d759e1","system_id":"levelo_inurba_marseille","lat":43.30802,"lon":5.3816,"is_reserved":false,"is_disabled":false,"rental_uris":{"android":"levelo://app?vid=52e47e8c-6c98-49d8-92b2-31e9f8d759e1","ios":"levelo://app?vid=52e47e8c-6c98-49d8-92b2-31e9f8d759e1"},"vehicle_type_id":"4","last_reported":1758146945,"current_range_meters":17200,"station_id":"ce4bgt12rcd13ifvqce0","pricing_plan_id":"cebpf4jnsgd1na2vs0mg"},{"bike_id":"cf66592a-d8fa-4c6c-9927-5d7a9fef5026","system_id":"levelo_inurba_marseille","lat":43.26287,"lon":5.39822,"is_reserved":false,"is_disabled":false,"rental_uris":{"android":"levelo://app?vid=cf66592a-d8fa-4c6c-9927-5d7a9fef5026","ios":"levelo://app?vid=cf66592a-d8fa-4c6c-9927-5d7a9fef5026"},"vehicle_type_id":"4","last_reported":1758146945,"current_range_meters":17200,"station_id":"","pricing_plan_id":"cebpf4jnsgd1na2vs0mg"},{"bike_id":"42323a1a-489c-43cb-90ae-c675b27444d5","system_id":"levelo_inurba_marseille","lat":43.2165,"lon":5.3437,"is_reserved":false,"is_disabled":false,"rental_uris":{"android":"levelo://app?vid=42323a1a-489c-43cb-90ae-c675b27444d5","ios":"levelo://app?vid=42323a1a-489c-43cb-90ae-c675b27444d5"},"vehicle_type_id":"4","last_reported":1758146945,"current_range_meters":17200,"station_id":"","pricing_plan_id":"cebpf4jnsgd1na2vs0mg"},{"bike_id":"b2c799b6-987a-4afd-98ce-a4bfccab9b02","system_id":"levelo_inurba_marseille","lat":43.31885,"lon":5.40729,"is_reserved":false,"is_disabled":false,"rental_uris":{"android":"levelo://app?vid=b2c799b6-987a-4afd-98ce-a4bfccab9b02","ios":"levelo://app?vid=b2c799b6-987a-4afd-98ce-a4bfccab9b02"},"vehicle_type_id":"4","last_reported":1758146945,"current_range_meters":17200,"station_id":"ce4bhq12rcd13ifvqhig","pricing_plan_id":"cebpf4jnsgd1na2vs0mg"},{"bike_id":"40495e59-b743-486e-987c-cb0c3ab2f191","system_id":"levelo_inurba_marseille","lat":43.332,"lon":5.41075,"is_reserved":false,"is_disabled":false,"rental_uris":{"android":"levelo://app?vid=40495e59-b743-486e-987c-cb0c3ab2f191","ios":"levelo://app?vid=40495e59-b743-486e-987c-cb0c3ab2f191"},"vehicle_type_id":"4","last_reported":1758146945,"current_range_meters":17200,"station_id":"","pricing_plan_id":"cebpf4jnsgd1na2vs0mg"},{"bike_id":"88254472-5dcf-422a-bafd-1dd31a4f452f","system_id":"levelo_inurba_marseille","lat":43.24961,"lon":5.40489,"is_reserved":false,"is_disabled":false,"rental_uris":{"android":"levelo://app?vid=88254472-5dcf-422a-bafd-1dd31a4f452f","ios":"levelo://app?vid=88254472-5dcf-422a-bafd-1dd31a4f452f"},"vehicle_type_id":"4","last_reported":1758146945,"current_range_meters":17200,"station_id":"st_d2ngiaodas8pm72gd1h0","pricing_plan_id":"cebpf4jnsgd1na2vs0mg"},{"bike_id":"be9ee84b-9ec1-497c-800c-5907ad1418ae","system_id":"levelo_inurba_marseille","lat":43.22561,"lon":5.4163,"is_reserved":false,"is_disabled":false,"rental_uris":{"android":"levelo://app?vid=be9ee84b-9ec1-497c-800c-5907ad1418ae","ios":"levelo://app?vid=be9ee84b-9ec1-497c-800c-5907ad1418ae"},"vehicle_type_id":"4","last_reported":1758146945,"current_range_meters":17200,"station_id":"st_d2o4gvlbi1j2169b742g","pricing_plan_id":"cebpf4jnsgd1na2vs0mg"},{"bike_id":"ad262146-4f29-497b-82d9-62cc229b7221","system_id":"levelo_inurba_marseille","lat":43.29424,"lon":5.4328,"is_reserved":false,"is_disabled":false,"rental_uris":{"android":"levelo://app?vid=ad262146-4f29-497b-82d9-62cc229b7221","ios":"levelo://app?vid=ad262146-4f29-497b-82d9-62cc229b7221"},"vehicle_type_id":"4","last_reported":1758146945,"current_range_meters":17200,"station_id":"","pricing_plan_id":"cebpf4jnsgd1na2vs0mg"},{"bike_id":"adf19941-6925-49e3-b023-4f911ffc887f","system_id":"levelo_inurba_marseille","lat":43.32356,"lon":5.3674,"is_reserved":false,"is_disabled":true,"rental_uris":{"android":"levelo://app?vid=adf19941-6925-49e3-b023-4f911ffc887f","ios":"levelo://app?vid=adf19941-6925-49e3-b023-4f911ffc887f"},"vehicle_type_id":"4","last_reported":1758146945,"current_range_meters":17200,"station_id":"ce4bhsh2rcd13ifvqi2g","pricing_plan_id":"cebpf4jnsgd1na2vs0mg"},{"bike_id":"7b48fe56-d8f6-4bb4-babf-2c24152427a2","system_id":"levelo_inurba_marseille","lat":43.27991,"lon":5.4166,"is_reserved":false,"is_disabled":false,"rental_uris":{"android":"levelo://app?vid=7b48fe56-d8f6-4bb4-babf-2c24152427a2","ios":"levelo://app?vid=7b48fe56-d8f6-4bb4-babf-2c24152427a2"},"vehicle_type_id":"4","last_reported":1758146945,"current_range_meters":17200,"station_id":"ce4bho12rcd13ifvqh1g","pricing_plan_id":"cebpf4jnsgd1na2vs0mg"},{"bike_id":"a66b8944-6cea-4817-8024-8e532f57f1cc","system_id":"levelo_inurba_marseille","lat":43.279861,"lon":5.416651,"is_reserved":false,"is_disabled":false,"rental_uris":{"android":"levelo://app?vid=a66b8944-6cea-4817-8024-8e532f57f1cc","ios":"levelo://app?vid=a66b8944-6cea-4817-8024-8e532f57f1cc"},"vehicle_type_id":"4","last_reported":1758146945,"current_range_meters":17600,"station_id":"ce4bho12rcd13ifvqh1g","pricing_plan_id":"cebpf4jnsgd1na2vs0mg"},{"bike_id":"d93f6aec-282b-42a6-9be0-fe23bad38a2b","system_id":"levelo_inurba_marseille","lat":43.24632,"lon":5.43144,"is_reserved":false,"is_disabled":true,"rental_uris":{"android":"levelo://app?vid=d93f6aec-282b-42a6-9be0-fe23bad38a2b","ios":"levelo://app?vid=d93f6aec-282b-42a6-9be0-fe23bad38a2b"},"vehicle_type_id":"4","last_reported":1758146945,"current_range_meters":17600,"station_id":"st_d2m6c4gdas8pm72e190g","pricing_plan_id":"cebpf4jnsgd1na2vs0mg"},{"bike_id":"a4faa1fd-62ee-404a-aff8-b79ea6b6b5d2","system_id":"levelo_inurba_marseille","lat":43.32986,"lon":5.39245,"is_reserved":false,"is_disabled":false,"rental_uris":{"android":"levelo://app?vid=a4faa1fd-62ee-404a-aff8-b79ea6b6b5d2","ios":"levelo://app?vid=a4faa1fd-62ee-404a-aff8-b79ea6b6b5d2"},"vehicle_type_id":"4","last_reported":1758146945,"current_range_meters":17600,"station_id":"","pricing_plan_id":"cebpf4jnsgd1na2vs0mg"},{"bike_id":"ba58613a-9255-41ff-936d-c7269e6271b4","system_id":"levelo_inurba_marseille","lat":43.2799,"lon":5.4165,"is_reserved":false,"is_disabled":false,"rental_uris":{"android":"levelo://app?vid=ba58613a-9255-41ff-936d-c7269e6271b4","ios":"levelo://app?vid=ba58613a-9255-41ff-936d-c7269e6271b4"},"vehicle_type_id":"4","last_reported":1758146945,"current_range_meters":17600,"station_id":"ce4bho12rcd13ifvqh1g","pricing_plan_id":"cebpf4jnsgd1na2vs0mg"},{"bike_id":"d9f0ae84-d732-44f5-b420-064e325a0d60","system_id":"levelo_inurba_marseille","lat":43.320183,"lon":5.381343,"is_reserved":false,"is_disabled":false,"rental_uris":{"android":"levelo://app?vid=d9f0ae84-d732-44f5-b420-064e325a0d60","ios":"levelo://app?vid=d9f0ae84-d732-44f5-b420-064e325a0d60"},"vehicle_type_id":"4","last_reported":1758146945,"current_range_meters":17600,"station_id":"","pricing_plan_id":"cebpf4jnsgd1na2vs0mg"},{"bike_id":"821a9228-0849-4261-a011-0f758c81169c","system_id":"levelo_inurba_marseille","lat":43.31328,"lon":5.39695,"is_reserved":false,"is_disabled":false,"rental_uris":{"android":"levelo://app?vid=821a9228-0849-4261-a011-0f758c81169c","ios":"levelo://app?vid=821a9228-0849-4261-a011-0f758c81169c"},"vehicle_type_id":"4","last_reported":1758146945,"current_range_meters":17600,"station_id":"ce4bgvp2rcd13ifvqcu0","pricing_plan_id":"cebpf4jnsgd1na2vs0mg"},{"bike_id":"fa0847a4-8d8b-47a2-9c0d-c16fe7a48c9b","system_id":"levelo_inurba_marseille","lat":43.330285,"lon":5.390556,"is_reserved":false,"is_disabled":false,"rental_uris":{"android":"levelo://app?vid=fa0847a4-8d8b-47a2-9c0d-c16fe7a48c9b","ios":"levelo://app?vid=fa0847a4-8d8b-47a2-9c0d-c16fe7a48c9b"},"vehicle_type_id":"4","last_reported":1758146945,"current_range_meters":17600,"station_id":"","pricing_plan_id":"cebpf4jnsgd1na2vs0mg"},{"bike_id":"e1f51025-1404-4cca-96b7-273119670d5f","system_id":"levelo_inurba_marseille","lat":43.25167,"lon":5.42724,"is_reserved":false,"is_disabled":false,"rental_uris":{"android":"levelo://app?vid=e1f51025-1404-4cca-96b7-273119670d5f","ios":"levelo://app?vid=e1f51025-1404-4cca-96b7-273119670d5f"},"vehicle_type_id":"4","last_reported":1758146945,"current_range_meters":17600,"station_id":"","pricing_plan_id":"cebpf4jnsgd1na2vs0mg"},{"bike_id":"1da37b3a-d772-478a-a85c-fb719c8bc7a9","system_id":"levelo_inurba_marseille","lat":43.26585,"lon":5.39663,"is_reserved":false,"is_disabled":false,"rental_uris":{"android":"levelo://app?vid=1da37b3a-d772-478a-a85c-fb719c8bc7a9","ios":"levelo://app?vid=1da37b3a-d772-478a-a85c-fb719c8bc7a9"},"vehicle_type_id":"4","last_reported":1758146945,"current_range_meters":17600,"station_id":"","pricing_plan_id":"cebpf4jnsgd1na2vs0mg"},{"bike_id":"19fda6f7-46ea-4228-b38c-0fbcd98ef9c1","system_id":"levelo_inurba_marseille","lat":43.31137,"lon":5.3776,"is_reserved":false,"is_disabled":false,"rental_uris":{"android":"levelo://app?vid=19fda6f7-46ea-4228-b38c-0fbcd98ef9c1","ios":"levelo://app?vid=19fda6f7-46ea-4228-b38c-0fbcd98ef9c1"},"vehicle_type_id":"4","last_reported":1758146945,"current_range_meters":18000,"station_id":"ce4bgt92rcd13ifvqcg0","pricing_plan_id":"cebpf4jnsgd1na2vs0mg"},{"bike_id":"0a68362e-f5d3-40c2-8eb6-58b476c1e495","system_id":"levelo_inurba_marseille","lat":43.27769,"lon":5.41001,"is_reserved":false,"is_disabled":false,"rental_uris":{"android":"levelo://app?vid=0a68362e-f5d3-40c2-8eb6-58b476c1e495","ios":"levelo://app?vid=0a68362e-f5d3-40c2-8eb6-58b476c1e495"},"vehicle_type_id":"4","last_reported":1758146945,"current_range_meters":18000,"station_id":"","pricing_plan_id":"cebpf4jnsgd1na2vs0mg"},{"bike_id":"17e32bd2-1c59-42b3-819b-651708de8579","system_id":"levelo_inurba_marseille","lat":43.28336,"lon":5.38115,"is_reserved":false,"is_disabled":true,"rental_uris":{"android":"levelo://app?vid=17e32bd2-1c59-42b3-819b-651708de8579","ios":"levelo://app?vid=17e32bd2-1c59-42b3-819b-651708de8579"},"vehicle_type_id":"4","last_reported":1758146945,"current_range_meters":18000,"station_id":"ce4bh412rcd13ifvqdr0","pricing_plan_id":"cebpf4jnsgd1na2vs0mg"},{"bike_id":"07c94ea5-f5ab-4298-975f-81835dcea395","system_id":"levelo_inurba_marseille","lat":43.30807,"lon":5.38153,"is_reserved":false,"is_disabled":false,"rental_uris":{"android":"levelo://app?vid=07c94ea5-f5ab-4298-975f-81835dcea395","ios":"levelo://app?vid=07c94ea5-f5ab-4298-975f-81835dcea395"},"vehicle_type_id":"4","last_reported":1758146945,"current_range_meters":18000,"station_id":"ce4bgt12rcd13ifvqce0","pricing_plan_id":"cebpf4jnsgd1na2vs0mg"},{"bike_id":"2e2ae28d-dee5-4d7d-94ef-359eeb19688f","system_id":"levelo_inurba_marseille","lat":43.31994,"lon":5.38147,"is_reserved":false,"is_disabled":false,"rental_uris":{"android":"levelo://app?vid=2e2ae28d-dee5-4d7d-94ef-359eeb19688f","ios":"levelo://app?vid=2e2ae28d-dee5-4d7d-94ef-359eeb19688f"},"vehicle_type_id":"4","last_reported":1758146945,"current_range_meters":18000,"station_id":"ce4bhr12rcd13ifvqhpg","pricing_plan_id":"cebpf4jnsgd1na2vs0mg"},{"bike_id":"6499745b-7b8b-4d81-afa4-ba9c05652a7b","system_id":"levelo_inurba_marseille","lat":43.28565,"lon":5.37782,"is_reserved":false,"is_disabled":false,"rental_uris":{"android":"levelo://app?vid=6499745b-7b8b-4d81-afa4-ba9c05652a7b","ios":"levelo://app?vid=6499745b-7b8b-4d81-afa4-ba9c05652a7b"},"vehicle_type_id":"4","last_reported":1758146945,"current_range_meters":18000,"station_id":"","pricing_plan_id":"cebpf4jnsgd1na2vs0mg"},{"bike_id":"d2666df5-13e4-4345-8234-d4e407ba6112","system_id":"levelo_inurba_marseille","lat":43.28434,"lon":5.37512,"is_reserved":false,"is_disabled":false,"rental_uris":{"android":"levelo://app?vid=d2666df5-13e4-4345-8234-d4e407ba6112","ios":"levelo://app?vid=d2666df5-13e4-4345-8234-d4e407ba6112"},"vehicle_type_id":"4","last_reported":1758146945,"current_range_meters":18000,"station_id":"ce4bh412rcd13ifvqds0","pricing_plan_id":"cebpf4jnsgd1na2vs0mg"},{"bike_id":"08128352-d0a0-4f5f-a684-879e4974aa4c","system_id":"levelo_inurba_marseille","lat":43.22573,"lon":5.41634,"is_reserved":false,"is_disabled":false,"rental_uris":{"android":"levelo://app?vid=08128352-d0a0-4f5f-a684-879e4974aa4c","ios":"levelo://app?vid=08128352-d0a0-4f5f-a684-879e4974aa4c"},"vehicle_type_id":"4","last_reported":1758146945,"current_range_meters":18000,"station_id":"st_d2o4gvlbi1j2169b742g","pricing_plan_id":"cebpf4jnsgd1na2vs0mg"},{"bike_id":"de10f371-b3db-4292-95ee-ee7a53af5ea2","system_id":"levelo_inurba_marseille","lat":43.30953,"lon":5.39065,"is_reserved":false,"is_disabled":false,"rental_uris":{"android":"levelo://app?vid=de10f371-b3db-4292-95ee-ee7a53af5ea2","ios":"levelo://app?vid=de10f371-b3db-4292-95ee-ee7a53af5ea2"},"vehicle_type_id":"4","last_reported":1758146945,"current_range_meters":17600,"station_id":"ce4bgup2rcd13ifvqco0","pricing_plan_id":"cebpf4jnsgd1na2vs0mg"},{"bike_id":"b1b4dbf8-bafe-46fc-b240-b10cafbf33be","system_id":"levelo_inurba_marseille","lat":43.29635,"lon":5.40594,"is_reserved":false,"is_disabled":false,"rental_uris":{"android":"levelo://app?vid=b1b4dbf8-bafe-46fc-b240-b10cafbf33be","ios":"levelo://app?vid=b1b4dbf8-bafe-46fc-b240-b10cafbf33be"},"vehicle_type_id":"4","last_reported":1758146945,"current_range_meters":18000,"station_id":"ce4bh0h2rcd13ifvqd60","pricing_plan_id":"cebpf4jnsgd1na2vs0mg"},{"bike_id":"c84ad888-8c64-4248-9d9a-25362b16ec6a","system_id":"levelo_inurba_marseille","lat":43.30802,"lon":5.38139,"is_reserved":false,"is_disabled":false,"rental_uris":{"android":"levelo://app?vid=c84ad888-8c64-4248-9d9a-25362b16ec6a","ios":"levelo://app?vid=c84ad888-8c64-4248-9d9a-25362b16ec6a"},"vehicle_type_id":"4","last_reported":1758146945,"current_range_meters":17600,"station_id":"ce4bgt12rcd13ifvqce0","pricing_plan_id":"cebpf4jnsgd1na2vs0mg"},{"bike_id":"acfec73f-5435-48eb-a869-eeb3dc5252c8","system_id":"levelo_inurba_marseille","lat":43.31297,"lon":5.37867,"is_reserved":false,"is_disabled":false,"rental_uris":{"android":"levelo://app?vid=acfec73f-5435-48eb-a869-eeb3dc5252c8","ios":"levelo://app?vid=acfec73f-5435-48eb-a869-eeb3dc5252c8"},"vehicle_type_id":"4","last_reported":1758146945,"current_range_meters":18000,"station_id":"","pricing_plan_id":"cebpf4jnsgd1na2vs0mg"},{"bike_id":"9096bb6d-85a3-4b4f-8fa8-cf50ae9de436","system_id":"levelo_inurba_marseille","lat":43.29441,"lon":5.39747,"is_reserved":false,"is_disabled":false,"rental_uris":{"android":"levelo://app?vid=9096bb6d-85a3-4b4f-8fa8-cf50ae9de436","ios":"levelo://app?vid=9096bb6d-85a3-4b4f-8fa8-cf50ae9de436"},"vehicle_type_id":"4","last_reported":1758146945,"current_range_meters":18800,"station_id":"ce4bh3h2rcd13ifvqdo0","pricing_plan_id":"cebpf4jnsgd1na2vs0mg"},{"bike_id":"426ba9b8-e709-4394-a698-823d81921829","system_id":"levelo_inurba_marseille","lat":43.30927,"lon":5.40142,"is_reserved":false,"is_disabled":false,"rental_uris":{"android":"levelo://app?vid=426ba9b8-e709-4394-a698-823d81921829","ios":"levelo://app?vid=426ba9b8-e709-4394-a698-823d81921829"},"vehicle_type_id":"4","last_reported":1758146945,"current_range_meters":18800,"station_id":"ce4bgvp2rcd13ifvqct0","pricing_plan_id":"cebpf4jnsgd1na2vs0mg"},{"bike_id":"a836d837-954f-4036-aa47-6b49dd4271fb","system_id":"levelo_inurba_marseille","lat":43.30674,"lon":5.4008,"is_reserved":false,"is_disabled":false,"rental_uris":{"android":"levelo://app?vid=a836d837-954f-4036-aa47-6b49dd4271fb","ios":"levelo://app?vid=a836d837-954f-4036-aa47-6b49dd4271fb"},"vehicle_type_id":"4","last_reported":1758146945,"current_range_meters":18800,"station_id":"ce4bh112rcd13ifvqda0","pricing_plan_id":"cebpf4jnsgd1na2vs0mg"},{"bike_id":"49a0c1aa-985c-412b-bd51-ba0afa6b8c42","system_id":"levelo_inurba_marseille","lat":43.29939,"lon":5.36551,"is_reserved":false,"is_disabled":false,"rental_uris":{"android":"levelo://app?vid=49a0c1aa-985c-412b-bd51-ba0afa6b8c42","ios":"levelo://app?vid=49a0c1aa-985c-412b-bd51-ba0afa6b8c42"},"vehicle_type_id":"4","last_reported":1758146945,"current_range_meters":20000,"station_id":"ce4bgm92rcd13ifvqbr0","pricing_plan_id":"cebpf4jnsgd1na2vs0mg"},{"bike_id":"2629186d-091d-4262-b45e-1bc42bdd62e9","system_id":"levelo_inurba_marseille","lat":43.29107,"lon":5.38163,"is_reserved":false,"is_disabled":true,"rental_uris":{"android":"levelo://app?vid=2629186d-091d-4262-b45e-1bc42bdd62e9","ios":"levelo://app?vid=2629186d-091d-4262-b45e-1bc42bdd62e9"},"vehicle_type_id":"4","last_reported":1758146945,"current_range_meters":18800,"station_id":"ce4bh512rcd13ifvqe2g","pricing_plan_id":"cebpf4jnsgd1na2vs0mg"},{"bike_id":"bd185fbb-729f-4221-8aa9-562ca885c1f5","system_id":"levelo_inurba_marseille","lat":43.22569,"lon":5.41626,"is_reserved":false,"is_disabled":false,"rental_uris":{"android":"levelo://app?vid=bd185fbb-729f-4221-8aa9-562ca885c1f5","ios":"levelo://app?vid=bd185fbb-729f-4221-8aa9-562ca885c1f5"},"vehicle_type_id":"4","last_reported":1758146945,"current_range_meters":18800,"station_id":"st_d2o4gvlbi1j2169b742g","pricing_plan_id":"cebpf4jnsgd1na2vs0mg"},{"bike_id":"32f1088b-757c-48f6-a887-6cff11da4041","system_id":"levelo_inurba_marseille","lat":43.28463,"lon":5.35883,"is_reserved":false,"is_disabled":false,"rental_uris":{"android":"levelo://app?vid=32f1088b-757c-48f6-a887-6cff11da4041","ios":"levelo://app?vid=32f1088b-757c-48f6-a887-6cff11da4041"},"vehicle_type_id":"4","last_reported":1758146945,"current_range_meters":19200,"station_id":"ce4bhah2rcd13ifvqei0","pricing_plan_id":"cebpf4jnsgd1na2vs0mg"},{"bike_id":"cfb3cb91-9065-4ee3-8666-030817e3030b","system_id":"levelo_inurba_marseille","lat":43.27946,"lon":5.41047,"is_reserved":false,"is_disabled":false,"rental_uris":{"android":"levelo://app?vid=cfb3cb91-9065-4ee3-8666-030817e3030b","ios":"levelo://app?vid=cfb3cb91-9065-4ee3-8666-030817e3030b"},"vehicle_type_id":"4","last_reported":1758146945,"current_range_meters":19200,"station_id":"ce4bhnp2rcd13ifvqh0g","pricing_plan_id":"cebpf4jnsgd1na2vs0mg"},{"bike_id":"45f6ceba-3123-4bb2-a6a1-083f1e953c55","system_id":"levelo_inurba_marseille","lat":43.30802,"lon":5.43505,"is_reserved":false,"is_disabled":false,"rental_uris":{"android":"levelo://app?vid=45f6ceba-3123-4bb2-a6a1-083f1e953c55","ios":"levelo://app?vid=45f6ceba-3123-4bb2-a6a1-083f1e953c55"},"vehicle_type_id":"4","last_reported":1758146945,"current_range_meters":19200,"station_id":"ce4bhph2rcd13ifvqheg","pricing_plan_id":"cebpf4jnsgd1na2vs0mg"},{"bike_id":"fb78ea42-e26f-45b3-a617-d3474b811b72","system_id":"levelo_inurba_marseille","lat":43.29871,"lon":5.37939,"is_reserved":false,"is_disabled":false,"rental_uris":{"android":"levelo://app?vid=fb78ea42-e26f-45b3-a617-d3474b811b72","ios":"levelo://app?vid=fb78ea42-e26f-45b3-a617-d3474b811b72"},"vehicle_type_id":"4","last_reported":1758146945,"current_range_meters":19200,"station_id":"","pricing_plan_id":"cebpf4jnsgd1na2vs0mg"},{"bike_id":"e942f984-8fe7-48d1-8f04-3806656b9996","system_id":"levelo_inurba_marseille","lat":43.336,"lon":5.37922,"is_reserved":false,"is_disabled":false,"rental_uris":{"android":"levelo://app?vid=e942f984-8fe7-48d1-8f04-3806656b9996","ios":"levelo://app?vid=e942f984-8fe7-48d1-8f04-3806656b9996"},"vehicle_type_id":"4","last_reported":1758146945,"current_range_meters":19200,"station_id":"","pricing_plan_id":"cebpf4jnsgd1na2vs0mg"},{"bike_id":"7eed94c4-182d-4460-826b-78b4ef60c719","system_id":"levelo_inurba_marseille","lat":43.295859,"lon":5.375163,"is_reserved":false,"is_disabled":false,"rental_uris":{"android":"levelo://app?vid=7eed94c4-182d-4460-826b-78b4ef60c719","ios":"levelo://app?vid=7eed94c4-182d-4460-826b-78b4ef60c719"},"vehicle_type_id":"4","last_reported":1758146945,"current_range_meters":19200,"station_id":"","pricing_plan_id":"cebpf4jnsgd1na2vs0mg"},{"bike_id":"c5f67484-bb34-45a9-af44-433760a4ded7","system_id":"levelo_inurba_marseille","lat":43.3137,"lon":5.38498,"is_reserved":false,"is_disabled":false,"rental_uris":{"android":"levelo://app?vid=c5f67484-bb34-45a9-af44-433760a4ded7","ios":"levelo://app?vid=c5f67484-bb34-45a9-af44-433760a4ded7"},"vehicle_type_id":"4","last_reported":1758146945,"current_range_meters":19200,"station_id":"ce4bgt92rcd13ifvqcf0","pricing_plan_id":"cebpf4jnsgd1na2vs0mg"},{"bike_id":"8c28d726-40ee-44cb-871f-c030e17382ee","system_id":"levelo_inurba_marseille","lat":43.29315,"lon":5.37179,"is_reserved":false,"is_disabled":false,"rental_uris":{"android":"levelo://app?vid=8c28d726-40ee-44cb-871f-c030e17382ee","ios":"levelo://app?vid=8c28d726-40ee-44cb-871f-c030e17382ee"},"vehicle_type_id":"4","last_reported":1758146945,"current_range_meters":19200,"station_id":"ce4bgh92rcd13ifvqb40","pricing_plan_id":"cebpf4jnsgd1na2vs0mg"},{"bike_id":"73349c6e-9321-4d7c-b44a-4836d7c31beb","system_id":"levelo_inurba_marseille","lat":43.25088,"lon":5.39524,"is_reserved":false,"is_disabled":false,"rental_uris":{"android":"levelo://app?vid=73349c6e-9321-4d7c-b44a-4836d7c31beb","ios":"levelo://app?vid=73349c6e-9321-4d7c-b44a-4836d7c31beb"},"vehicle_type_id":"4","last_reported":1758146945,"current_range_meters":18800,"station_id":"ce4bhm12rcd13ifvqgkg","pricing_plan_id":"cebpf4jnsgd1na2vs0mg"},{"bike_id":"bb0d0efa-d3e1-4082-9cce-5548c09ec57c","system_id":"levelo_inurba_marseille","lat":43.27953,"lon":5.41043,"is_reserved":false,"is_disabled":false,"rental_uris":{"android":"levelo://app?vid=bb0d0efa-d3e1-4082-9cce-5548c09ec57c","ios":"levelo://app?vid=bb0d0efa-d3e1-4082-9cce-5548c09ec57c"},"vehicle_type_id":"4","last_reported":1758146945,"current_range_meters":19200,"station_id":"ce4bhnp2rcd13ifvqh0g","pricing_plan_id":"cebpf4jnsgd1na2vs0mg"},{"bike_id":"f9418cc9-c64d-43d9-9060-3aeedd69cdee","system_id":"levelo_inurba_marseille","lat":43.33086,"lon":5.37867,"is_reserved":false,"is_disabled":false,"rental_uris":{"android":"levelo://app?vid=f9418cc9-c64d-43d9-9060-3aeedd69cdee","ios":"levelo://app?vid=f9418cc9-c64d-43d9-9060-3aeedd69cdee"},"vehicle_type_id":"4","last_reported":1758146945,"current_range_meters":19200,"station_id":"","pricing_plan_id":"cebpf4jnsgd1na2vs0mg"},{"bike_id":"46ea44a3-16d5-484f-bb22-ccdade8c2fea","system_id":"levelo_inurba_marseille","lat":43.28413,"lon":5.37505,"is_reserved":false,"is_disabled":false,"rental_uris":{"android":"levelo://app?vid=46ea44a3-16d5-484f-bb22-ccdade8c2fea","ios":"levelo://app?vid=46ea44a3-16d5-484f-bb22-ccdade8c2fea"},"vehicle_type_id":"4","last_reported":1758146945,"current_range_meters":19600,"station_id":"ce4bh412rcd13ifvqds0","pricing_plan_id":"cebpf4jnsgd1na2vs0mg"},{"bike_id":"7e953d71-85a0-4660-a5cc-5b2c44a247b9","system_id":"levelo_inurba_marseille","lat":43.258198,"lon":5.39441,"is_reserved":false,"is_disabled":false,"rental_uris":{"android":"levelo://app?vid=7e953d71-85a0-4660-a5cc-5b2c44a247b9","ios":"levelo://app?vid=7e953d71-85a0-4660-a5cc-5b2c44a247b9"},"vehicle_type_id":"4","last_reported":1758146945,"current_range_meters":19600,"station_id":"","pricing_plan_id":"cebpf4jnsgd1na2vs0mg"},{"bike_id":"0c35213e-085b-4a6c-bbd2-9b4d694acff1","system_id":"levelo_inurba_marseille","lat":43.30154,"lon":5.38783,"is_reserved":false,"is_disabled":false,"rental_uris":{"android":"levelo://app?vid=0c35213e-085b-4a6c-bbd2-9b4d694acff1","ios":"levelo://app?vid=0c35213e-085b-4a6c-bbd2-9b4d694acff1"},"vehicle_type_id":"4","last_reported":1758146945,"current_range_meters":19200,"station_id":"ce4bghh2rcd13ifvqb60","pricing_plan_id":"cebpf4jnsgd1na2vs0mg"},{"bike_id":"9d8b4944-013e-4958-9415-40d7b5ee9701","system_id":"levelo_inurba_marseille","lat":43.31604,"lon":5.38192,"is_reserved":false,"is_disabled":false,"rental_uris":{"android":"levelo://app?vid=9d8b4944-013e-4958-9415-40d7b5ee9701","ios":"levelo://app?vid=9d8b4944-013e-4958-9415-40d7b5ee9701"},"vehicle_type_id":"4","last_reported":1758146945,"current_range_meters":19600,"station_id":"","pricing_plan_id":"cebpf4jnsgd1na2vs0mg"},{"bike_id":"b69333fb-c85e-41fc-b0d7-837153896f4b","system_id":"levelo_inurba_marseille","lat":43.239612,"lon":5.366193,"is_reserved":false,"is_disabled":false,"rental_uris":{"android":"levelo://app?vid=b69333fb-c85e-41fc-b0d7-837153896f4b","ios":"levelo://app?vid=b69333fb-c85e-41fc-b0d7-837153896f4b"},"vehicle_type_id":"4","last_reported":1758146945,"current_range_meters":19600,"station_id":"ce4bhi12rcd13ifvqfp0","pricing_plan_id":"cebpf4jnsgd1na2vs0mg"},{"bike_id":"8013f020-01df-4ee7-acf5-256897147513","system_id":"levelo_inurba_marseille","lat":43.29067,"lon":5.35895,"is_reserved":false,"is_disabled":false,"rental_uris":{"android":"levelo://app?vid=8013f020-01df-4ee7-acf5-256897147513","ios":"levelo://app?vid=8013f020-01df-4ee7-acf5-256897147513"},"vehicle_type_id":"4","last_reported":1758146945,"current_range_meters":19600,"station_id":"ce4bha92rcd13ifvqeg0","pricing_plan_id":"cebpf4jnsgd1na2vs0mg"},{"bike_id":"6b116da7-dc15-4b7b-92c7-5c84b524f72b","system_id":"levelo_inurba_marseille","lat":43.281052,"lon":5.37846,"is_reserved":false,"is_disabled":true,"rental_uris":{"android":"levelo://app?vid=6b116da7-dc15-4b7b-92c7-5c84b524f72b","ios":"levelo://app?vid=6b116da7-dc15-4b7b-92c7-5c84b524f72b"},"vehicle_type_id":"4","last_reported":1758146945,"current_range_meters":19600,"station_id":"ce4bha12rcd13ifvqee0","pricing_plan_id":"cebpf4jnsgd1na2vs0mg"},{"bike_id":"2c734c36-442f-468e-ab47-e34ad5183e32","system_id":"levelo_inurba_marseille","lat":43.27256,"lon":5.38008,"is_reserved":false,"is_disabled":false,"rental_uris":{"android":"levelo://app?vid=2c734c36-442f-468e-ab47-e34ad5183e32","ios":"levelo://app?vid=2c734c36-442f-468e-ab47-e34ad5183e32"},"vehicle_type_id":"4","last_reported":1758146945,"current_range_meters":20000,"station_id":"","pricing_plan_id":"cebpf4jnsgd1na2vs0mg"},{"bike_id":"03a31ce9-befb-4f08-aaa5-15f365488712","system_id":"levelo_inurba_marseille","lat":43.28431,"lon":5.375085,"is_reserved":false,"is_disabled":false,"rental_uris":{"android":"levelo://app?vid=03a31ce9-befb-4f08-aaa5-15f365488712","ios":"levelo://app?vid=03a31ce9-befb-4f08-aaa5-15f365488712"},"vehicle_type_id":"4","last_reported":1758146945,"current_range_meters":20000,"station_id":"ce4bh412rcd13ifvqds0","pricing_plan_id":"cebpf4jnsgd1na2vs0mg"},{"bike_id":"4b10e6df-b3a3-4aed-9a64-4df6f6c98a11","system_id":"levelo_inurba_marseille","lat":43.31186,"lon":5.38705,"is_reserved":false,"is_disabled":false,"rental_uris":{"android":"levelo://app?vid=4b10e6df-b3a3-4aed-9a64-4df6f6c98a11","ios":"levelo://app?vid=4b10e6df-b3a3-4aed-9a64-4df6f6c98a11"},"vehicle_type_id":"4","last_reported":1758146945,"current_range_meters":20000,"station_id":"ce4bgv12rcd13ifvqcp0","pricing_plan_id":"cebpf4jnsgd1na2vs0mg"},{"bike_id":"715a205c-87b7-476b-83f2-d72f04712cac","system_id":"levelo_inurba_marseille","lat":43.302595,"lon":5.400797,"is_reserved":false,"is_disabled":false,"rental_uris":{"android":"levelo://app?vid=715a205c-87b7-476b-83f2-d72f04712cac","ios":"levelo://app?vid=715a205c-87b7-476b-83f2-d72f04712cac"},"vehicle_type_id":"4","last_reported":1758146945,"current_range_meters":19600,"station_id":"ce4bgvh2rcd13ifvqcs0","pricing_plan_id":"cebpf4jnsgd1na2vs0mg"},{"bike_id":"a03e72c8-e2ea-44f1-a517-f3432b773d64","system_id":"levelo_inurba_marseille","lat":43.290995,"lon":5.381435,"is_reserved":false,"is_disabled":false,"rental_uris":{"android":"levelo://app?vid=a03e72c8-e2ea-44f1-a517-f3432b773d64","ios":"levelo://app?vid=a03e72c8-e2ea-44f1-a517-f3432b773d64"},"vehicle_type_id":"4","last_reported":1758146945,"current_range_meters":20000,"station_id":"","pricing_plan_id":"cebpf4jnsgd1na2vs0mg"},{"bike_id":"3d64e5b3-77ca-4595-a533-a7846cbe1d1e","system_id":"levelo_inurba_marseille","lat":43.29775,"lon":5.38119,"is_reserved":false,"is_disabled":false,"rental_uris":{"android":"levelo://app?vid=3d64e5b3-77ca-4595-a533-a7846cbe1d1e","ios":"levelo://app?vid=3d64e5b3-77ca-4595-a533-a7846cbe1d1e"},"vehicle_type_id":"4","last_reported":1758146945,"current_range_meters":20000,"station_id":"","pricing_plan_id":"cebpf4jnsgd1na2vs0mg"},{"bike_id":"c7abd732-30d1-42ba-8307-6e5823a14150","system_id":"levelo_inurba_marseille","lat":43.32112,"lon":5.36765,"is_reserved":false,"is_disabled":false,"rental_uris":{"android":"levelo://app?vid=c7abd732-30d1-42ba-8307-6e5823a14150","ios":"levelo://app?vid=c7abd732-30d1-42ba-8307-6e5823a14150"},"vehicle_type_id":"4","last_reported":1758146945,"current_range_meters":20000,"station_id":"ce4bhrh2rcd13ifvqhug","pricing_plan_id":"cebpf4jnsgd1na2vs0mg"},{"bike_id":"672c7880-b730-4690-a272-390d6b5fa3f8","system_id":"levelo_inurba_marseille","lat":43.29035,"lon":5.37559,"is_reserved":false,"is_disabled":true,"rental_uris":{"android":"levelo://app?vid=672c7880-b730-4690-a272-390d6b5fa3f8","ios":"levelo://app?vid=672c7880-b730-4690-a272-390d6b5fa3f8"},"vehicle_type_id":"4","last_reported":1758146945,"current_range_meters":20000,"station_id":"ce4bh692rcd13ifvqe90","pricing_plan_id":"cebpf4jnsgd1na2vs0mg"},{"bike_id":"553f8368-9fc7-4fab-ab6b-4ab64407d3bf","system_id":"levelo_inurba_marseille","lat":43.28859,"lon":5.42515,"is_reserved":false,"is_disabled":false,"rental_uris":{"android":"levelo://app?vid=553f8368-9fc7-4fab-ab6b-4ab64407d3bf","ios":"levelo://app?vid=553f8368-9fc7-4fab-ab6b-4ab64407d3bf"},"vehicle_type_id":"4","last_reported":1758146945,"current_range_meters":20000,"station_id":"ce4bhg12rcd13ifvqf80","pricing_plan_id":"cebpf4jnsgd1na2vs0mg"},{"bike_id":"fc407023-5868-46e8-85cf-edd69ce1aa39","system_id":"levelo_inurba_marseille","lat":43.27337,"lon":5.39076,"is_reserved":false,"is_disabled":true,"rental_uris":{"android":"levelo://app?vid=fc407023-5868-46e8-85cf-edd69ce1aa39","ios":"levelo://app?vid=fc407023-5868-46e8-85cf-edd69ce1aa39"},"vehicle_type_id":"4","last_reported":1758146945,"current_range_meters":20400,"station_id":"ce4bhgp2rcd13ifvqfe0","pricing_plan_id":"cebpf4jnsgd1na2vs0mg"},{"bike_id":"19272925-0643-4789-bebe-8d389d0f1d20","system_id":"levelo_inurba_marseille","lat":43.293082,"lon":5.371714,"is_reserved":false,"is_disabled":false,"rental_uris":{"android":"levelo://app?vid=19272925-0643-4789-bebe-8d389d0f1d20","ios":"levelo://app?vid=19272925-0643-4789-bebe-8d389d0f1d20"},"vehicle_type_id":"4","last_reported":1758146945,"current_range_meters":20400,"station_id":"","pricing_plan_id":"cebpf4jnsgd1na2vs0mg"},{"bike_id":"e6ff0239-164a-4f2e-b16a-b87ee77cdcce","system_id":"levelo_inurba_marseille","lat":43.280816,"lon":5.396675,"is_reserved":false,"is_disabled":false,"rental_uris":{"android":"levelo://app?vid=e6ff0239-164a-4f2e-b16a-b87ee77cdcce","ios":"levelo://app?vid=e6ff0239-164a-4f2e-b16a-b87ee77cdcce"},"vehicle_type_id":"4","last_reported":1758146945,"current_range_meters":20000,"station_id":"ce4bho12rcd13ifvqh2g","pricing_plan_id":"cebpf4jnsgd1na2vs0mg"},{"bike_id":"304c5a88-1568-4de5-9f46-397eec06f801","system_id":"levelo_inurba_marseille","lat":43.28672,"lon":5.36347,"is_reserved":false,"is_disabled":false,"rental_uris":{"android":"levelo://app?vid=304c5a88-1568-4de5-9f46-397eec06f801","ios":"levelo://app?vid=304c5a88-1568-4de5-9f46-397eec06f801"},"vehicle_type_id":"4","last_reported":1758146945,"current_range_meters":20400,"station_id":"ce4bhah2rcd13ifvqej0","pricing_plan_id":"cebpf4jnsgd1na2vs0mg"},{"bike_id":"7ba6b2a0-db7c-4bda-8408-4063f8f36870","system_id":"levelo_inurba_marseille","lat":43.27059,"lon":5.40256,"is_reserved":false,"is_disabled":false,"rental_uris":{"android":"levelo://app?vid=7ba6b2a0-db7c-4bda-8408-4063f8f36870","ios":"levelo://app?vid=7ba6b2a0-db7c-4bda-8408-4063f8f36870"},"vehicle_type_id":"4","last_reported":1758146945,"current_range_meters":20400,"station_id":"ce4bhk92rcd13ifvqgc0","pricing_plan_id":"cebpf4jnsgd1na2vs0mg"},{"bike_id":"03778afd-f9d6-46d3-b4b5-3a82ca073e7a","system_id":"levelo_inurba_marseille","lat":43.26263,"lon":5.40452,"is_reserved":false,"is_disabled":false,"rental_uris":{"android":"levelo://app?vid=03778afd-f9d6-46d3-b4b5-3a82ca073e7a","ios":"levelo://app?vid=03778afd-f9d6-46d3-b4b5-3a82ca073e7a"},"vehicle_type_id":"4","last_reported":1758146945,"current_range_meters":20400,"station_id":"ce4bhmh2rcd13ifvqgmg","pricing_plan_id":"cebpf4jnsgd1na2vs0mg"},{"bike_id":"916c23c9-d38f-4eb9-92ce-0f29d5d38e7b","system_id":"levelo_inurba_marseille","lat":43.28271,"lon":5.35054,"is_reserved":false,"is_disabled":false,"rental_uris":{"android":"levelo://app?vid=916c23c9-d38f-4eb9-92ce-0f29d5d38e7b","ios":"levelo://app?vid=916c23c9-d38f-4eb9-92ce-0f29d5d38e7b"},"vehicle_type_id":"4","last_reported":1758146945,"current_range_meters":20000,"station_id":"ce4bhbp2rcd13ifvqerg","pricing_plan_id":"cebpf4jnsgd1na2vs0mg"},{"bike_id":"bf6e6d27-c09e-4725-9fbc-20073fd5a515","system_id":"levelo_inurba_marseille","lat":43.289376,"lon":5.396214,"is_reserved":false,"is_disabled":false,"rental_uris":{"android":"levelo://app?vid=bf6e6d27-c09e-4725-9fbc-20073fd5a515","ios":"levelo://app?vid=bf6e6d27-c09e-4725-9fbc-20073fd5a515"},"vehicle_type_id":"4","last_reported":1758146945,"current_range_meters":20400,"station_id":"","pricing_plan_id":"cebpf4jnsgd1na2vs0mg"},{"bike_id":"5ae8198b-0701-40a4-9083-0a43c75d986b","system_id":"levelo_inurba_marseille","lat":43.29239,"lon":5.37632,"is_reserved":false,"is_disabled":true,"rental_uris":{"android":"levelo://app?vid=5ae8198b-0701-40a4-9083-0a43c75d986b","ios":"levelo://app?vid=5ae8198b-0701-40a4-9083-0a43c75d986b"},"vehicle_type_id":"4","last_reported":1758146945,"current_range_meters":20400,"station_id":"ce4bgi12rcd13ifvqb80","pricing_plan_id":"cebpf4jnsgd1na2vs0mg"},{"bike_id":"7fa658ad-f0b7-4387-9b66-298deb01d6f3","system_id":"levelo_inurba_marseille","lat":43.30436,"lon":5.38896,"is_reserved":false,"is_disabled":false,"rental_uris":{"android":"levelo://app?vid=7fa658ad-f0b7-4387-9b66-298deb01d6f3","ios":"levelo://app?vid=7fa658ad-f0b7-4387-9b66-298deb01d6f3"},"vehicle_type_id":"4","last_reported":1758146945,"current_range_meters":20000,"station_id":"ce4bgk12rcd13ifvqbi0","pricing_plan_id":"cebpf4jnsgd1na2vs0mg"},{"bike_id":"0960e3dd-c358-4474-bd10-8223758e1f6b","system_id":"levelo_inurba_marseille","lat":43.296996,"lon":5.376855,"is_reserved":false,"is_disabled":false,"rental_uris":{"android":"levelo://app?vid=0960e3dd-c358-4474-bd10-8223758e1f6b","ios":"levelo://app?vid=0960e3dd-c358-4474-bd10-8223758e1f6b"},"vehicle_type_id":"4","last_reported":1758146945,"current_range_meters":20400,"station_id":"","pricing_plan_id":"cebpf4jnsgd1na2vs0mg"},{"bike_id":"ef4e99f5-fce7-4d49-94ec-ebd34d105f9f","system_id":"levelo_inurba_marseille","lat":43.24947,"lon":5.4052,"is_reserved":false,"is_disabled":false,"rental_uris":{"android":"levelo://app?vid=ef4e99f5-fce7-4d49-94ec-ebd34d105f9f","ios":"levelo://app?vid=ef4e99f5-fce7-4d49-94ec-ebd34d105f9f"},"vehicle_type_id":"4","last_reported":1758146945,"current_range_meters":20400,"station_id":"st_d2ngiaodas8pm72gd1h0","pricing_plan_id":"cebpf4jnsgd1na2vs0mg"},{"bike_id":"4dc90b56-c825-4ba9-af7f-576295158065","system_id":"levelo_inurba_marseille","lat":43.28409,"lon":5.37495,"is_reserved":false,"is_disabled":false,"rental_uris":{"android":"levelo://app?vid=4dc90b56-c825-4ba9-af7f-576295158065","ios":"levelo://app?vid=4dc90b56-c825-4ba9-af7f-576295158065"},"vehicle_type_id":"4","last_reported":1758146945,"current_range_meters":20800,"station_id":"ce4bh412rcd13ifvqds0","pricing_plan_id":"cebpf4jnsgd1na2vs0mg"},{"bike_id":"b4f2813a-6476-4fd9-9a3f-aca59e154593","system_id":"levelo_inurba_marseille","lat":43.28274,"lon":5.35072,"is_reserved":false,"is_disabled":false,"rental_uris":{"android":"levelo://app?vid=b4f2813a-6476-4fd9-9a3f-aca59e154593","ios":"levelo://app?vid=b4f2813a-6476-4fd9-9a3f-aca59e154593"},"vehicle_type_id":"4","last_reported":1758146945,"current_range_meters":20400,"station_id":"ce4bhbp2rcd13ifvqerg","pricing_plan_id":"cebpf4jnsgd1na2vs0mg"},{"bike_id":"bbeb6114-09ad-4c37-abc2-a815aef2230e","system_id":"levelo_inurba_marseille","lat":43.28952,"lon":5.36398,"is_reserved":false,"is_disabled":false,"rental_uris":{"android":"levelo://app?vid=bbeb6114-09ad-4c37-abc2-a815aef2230e","ios":"levelo://app?vid=bbeb6114-09ad-4c37-abc2-a815aef2230e"},"vehicle_type_id":"4","last_reported":1758146945,"current_range_meters":20800,"station_id":"ce4bhc92rcd13ifvqetg","pricing_plan_id":"cebpf4jnsgd1na2vs0mg"},{"bike_id":"728e8b35-ed77-4d0b-b49d-2a4aa933d302","system_id":"levelo_inurba_marseille","lat":43.25117,"lon":5.40324,"is_reserved":false,"is_disabled":false,"rental_uris":{"android":"levelo://app?vid=728e8b35-ed77-4d0b-b49d-2a4aa933d302","ios":"levelo://app?vid=728e8b35-ed77-4d0b-b49d-2a4aa933d302"},"vehicle_type_id":"4","last_reported":1758146945,"current_range_meters":20800,"station_id":"ce4bhlh2rcd13ifvqgig","pricing_plan_id":"cebpf4jnsgd1na2vs0mg"},{"bike_id":"4cb6774a-f732-4788-b580-425b07f14d7e","system_id":"levelo_inurba_marseille","lat":43.292335,"lon":5.360615,"is_reserved":false,"is_disabled":false,"rental_uris":{"android":"levelo://app?vid=4cb6774a-f732-4788-b580-425b07f14d7e","ios":"levelo://app?vid=4cb6774a-f732-4788-b580-425b07f14d7e"},"vehicle_type_id":"4","last_reported":1758146945,"current_range_meters":20800,"station_id":"","pricing_plan_id":"cebpf4jnsgd1na2vs0mg"},{"bike_id":"32bad0a0-410f-4bd9-a9f8-4140049937bd","system_id":"levelo_inurba_marseille","lat":43.28144,"lon":5.43234,"is_reserved":false,"is_disabled":false,"rental_uris":{"android":"levelo://app?vid=32bad0a0-410f-4bd9-a9f8-4140049937bd","ios":"levelo://app?vid=32bad0a0-410f-4bd9-a9f8-4140049937bd"},"vehicle_type_id":"4","last_reported":1758146945,"current_range_meters":20800,"station_id":"","pricing_plan_id":"cebpf4jnsgd1na2vs0mg"},{"bike_id":"9b77757b-a8f2-4c93-a14e-e6083861628a","system_id":"levelo_inurba_marseille","lat":43.21762,"lon":5.34611,"is_reserved":false,"is_disabled":false,"rental_uris":{"android":"levelo://app?vid=9b77757b-a8f2-4c93-a14e-e6083861628a","ios":"levelo://app?vid=9b77757b-a8f2-4c93-a14e-e6083861628a"},"vehicle_type_id":"4","last_reported":1758146945,"current_range_meters":20800,"station_id":"st_cvj6r9ubvosntc0bgbag","pricing_plan_id":"cebpf4jnsgd1na2vs0mg"},{"bike_id":"6c041fd8-c79d-4610-ad95-c003c7c3f921","system_id":"levelo_inurba_marseille","lat":43.32977,"lon":5.39239,"is_reserved":false,"is_disabled":true,"rental_uris":{"android":"levelo://app?vid=6c041fd8-c79d-4610-ad95-c003c7c3f921","ios":"levelo://app?vid=6c041fd8-c79d-4610-ad95-c003c7c3f921"},"vehicle_type_id":"4","last_reported":1758146945,"current_range_meters":21600,"station_id":"","pricing_plan_id":"cebpf4jnsgd1na2vs0mg"},{"bike_id":"830b9b55-b582-49a9-8acf-457ace5fb670","system_id":"levelo_inurba_marseille","lat":43.22548,"lon":5.41627,"is_reserved":false,"is_disabled":false,"rental_uris":{"android":"levelo://app?vid=830b9b55-b582-49a9-8acf-457ace5fb670","ios":"levelo://app?vid=830b9b55-b582-49a9-8acf-457ace5fb670"},"vehicle_type_id":"4","last_reported":1758146945,"current_range_meters":21600,"station_id":"st_d2o4gvlbi1j2169b742g","pricing_plan_id":"cebpf4jnsgd1na2vs0mg"},{"bike_id":"435ff4e0-8d24-4c74-8dc1-b1d8f315f71c","system_id":"levelo_inurba_marseille","lat":43.27517,"lon":5.42482,"is_reserved":false,"is_disabled":true,"rental_uris":{"android":"levelo://app?vid=435ff4e0-8d24-4c74-8dc1-b1d8f315f71c","ios":"levelo://app?vid=435ff4e0-8d24-4c74-8dc1-b1d8f315f71c"},"vehicle_type_id":"4","last_reported":1758146945,"current_range_meters":21600,"station_id":"ce4bhn92rcd13ifvqgrg","pricing_plan_id":"cebpf4jnsgd1na2vs0mg"},{"bike_id":"4a22bc89-2966-4abc-8942-bd514bf49092","system_id":"levelo_inurba_marseille","lat":43.30799,"lon":5.38161,"is_reserved":false,"is_disabled":false,"rental_uris":{"android":"levelo://app?vid=4a22bc89-2966-4abc-8942-bd514bf49092","ios":"levelo://app?vid=4a22bc89-2966-4abc-8942-bd514bf49092"},"vehicle_type_id":"4","last_reported":1758146945,"current_range_meters":22000,"station_id":"ce4bgt12rcd13ifvqce0","pricing_plan_id":"cebpf4jnsgd1na2vs0mg"},{"bike_id":"80b14801-cd20-4aad-ae1e-aa49c0ef7803","system_id":"levelo_inurba_marseille","lat":43.32076,"lon":5.41547,"is_reserved":false,"is_disabled":false,"rental_uris":{"android":"levelo://app?vid=80b14801-cd20-4aad-ae1e-aa49c0ef7803","ios":"levelo://app?vid=80b14801-cd20-4aad-ae1e-aa49c0ef7803"},"vehicle_type_id":"4","last_reported":1758146945,"current_range_meters":22000,"station_id":"ce4bhq92rcd13ifvqhkg","pricing_plan_id":"cebpf4jnsgd1na2vs0mg"},{"bike_id":"9647f679-3c25-4a00-b307-f1c10f94eb96","system_id":"levelo_inurba_marseille","lat":43.2258,"lon":5.41629,"is_reserved":false,"is_disabled":false,"rental_uris":{"android":"levelo://app?vid=9647f679-3c25-4a00-b307-f1c10f94eb96","ios":"levelo://app?vid=9647f679-3c25-4a00-b307-f1c10f94eb96"},"vehicle_type_id":"4","last_reported":1758146945,"current_range_meters":22000,"station_id":"st_d2o4gvlbi1j2169b742g","pricing_plan_id":"cebpf4jnsgd1na2vs0mg"},{"bike_id":"0b786964-c1d0-4f7d-a9cc-9b8764bbf07f","system_id":"levelo_inurba_marseille","lat":43.33617,"lon":5.41033,"is_reserved":false,"is_disabled":false,"rental_uris":{"android":"levelo://app?vid=0b786964-c1d0-4f7d-a9cc-9b8764bbf07f","ios":"levelo://app?vid=0b786964-c1d0-4f7d-a9cc-9b8764bbf07f"},"vehicle_type_id":"4","last_reported":1758146945,"current_range_meters":21600,"station_id":"ce4bhqh2rcd13ifvqhmg","pricing_plan_id":"cebpf4jnsgd1na2vs0mg"},{"bike_id":"aa3ce522-a467-4a61-81fd-ed52663a5226","system_id":"levelo_inurba_marseille","lat":43.29894,"lon":5.38907,"is_reserved":false,"is_disabled":false,"rental_uris":{"android":"levelo://app?vid=aa3ce522-a467-4a61-81fd-ed52663a5226","ios":"levelo://app?vid=aa3ce522-a467-4a61-81fd-ed52663a5226"},"vehicle_type_id":"4","last_reported":1758146945,"current_range_meters":22000,"station_id":"ce4bh392rcd13ifvqdl0","pricing_plan_id":"cebpf4jnsgd1na2vs0mg"},{"bike_id":"dced6388-6791-445e-b282-faa5d629a5f9","system_id":"levelo_inurba_marseille","lat":43.287028,"lon":5.39984,"is_reserved":false,"is_disabled":false,"rental_uris":{"android":"levelo://app?vid=dced6388-6791-445e-b282-faa5d629a5f9","ios":"levelo://app?vid=dced6388-6791-445e-b282-faa5d629a5f9"},"vehicle_type_id":"4","last_reported":1758146945,"current_range_meters":21600,"station_id":"ce4bho92rcd13ifvqh3g","pricing_plan_id":"cebpf4jnsgd1na2vs0mg"},{"bike_id":"1d520d35-c185-44fc-9069-30101464d364","system_id":"levelo_inurba_marseille","lat":43.27949,"lon":5.41046,"is_reserved":false,"is_disabled":false,"rental_uris":{"android":"levelo://app?vid=1d520d35-c185-44fc-9069-30101464d364","ios":"levelo://app?vid=1d520d35-c185-44fc-9069-30101464d364"},"vehicle_type_id":"4","last_reported":1758146945,"current_range_meters":22000,"station_id":"ce4bhnp2rcd13ifvqh0g","pricing_plan_id":"cebpf4jnsgd1na2vs0mg"},{"bike_id":"32e6bba6-aa5f-4513-8c2e-b1eba1cd806a","system_id":"levelo_inurba_marseille","lat":43.231894,"lon":5.399921,"is_reserved":false,"is_disabled":false,"rental_uris":{"android":"levelo://app?vid=32e6bba6-aa5f-4513-8c2e-b1eba1cd806a","ios":"levelo://app?vid=32e6bba6-aa5f-4513-8c2e-b1eba1cd806a"},"vehicle_type_id":"4","last_reported":1758146945,"current_range_meters":22000,"station_id":"ce4bhn12rcd13ifvqgqg","pricing_plan_id":"cebpf4jnsgd1na2vs0mg"},{"bike_id":"b1a1c4fa-2423-4d9f-9d80-d2c17675f92b","system_id":"levelo_inurba_marseille","lat":43.31089,"lon":5.42435,"is_reserved":false,"is_disabled":false,"rental_uris":{"android":"levelo://app?vid=b1a1c4fa-2423-4d9f-9d80-d2c17675f92b","ios":"levelo://app?vid=b1a1c4fa-2423-4d9f-9d80-d2c17675f92b"},"vehicle_type_id":"4","last_reported":1758146945,"current_range_meters":22000,"station_id":"ce4bhp92rcd13ifvqhag","pricing_plan_id":"cebpf4jnsgd1na2vs0mg"},{"bike_id":"415f1da2-da0d-498a-9edc-1550913c98ee","system_id":"levelo_inurba_marseille","lat":43.28271,"lon":5.35057,"is_reserved":false,"is_disabled":true,"rental_uris":{"android":"levelo://app?vid=415f1da2-da0d-498a-9edc-1550913c98ee","ios":"levelo://app?vid=415f1da2-da0d-498a-9edc-1550913c98ee"},"vehicle_type_id":"4","last_reported":1758146945,"current_range_meters":22400,"station_id":"ce4bhbp2rcd13ifvqerg","pricing_plan_id":"cebpf4jnsgd1na2vs0mg"},{"bike_id":"3e647064-cae3-4625-b877-3b0bb353438f","system_id":"levelo_inurba_marseille","lat":43.31536,"lon":5.38035,"is_reserved":false,"is_disabled":false,"rental_uris":{"android":"levelo://app?vid=3e647064-cae3-4625-b877-3b0bb353438f","ios":"levelo://app?vid=3e647064-cae3-4625-b877-3b0bb353438f"},"vehicle_type_id":"4","last_reported":1758146945,"current_range_meters":22400,"station_id":"ce4bhsp2rcd13ifvqi50","pricing_plan_id":"cebpf4jnsgd1na2vs0mg"},