{"last_updated":1744463715,"ttl":60,"version":"2.2","data":{"bikes":[{"bike_id":"5965eba9-e738-4b9a-aed1-c9678e536e9f","system_id":"levelo_inurba_marseille","lat":43.272205,"lon":5.391819,"is_reserved":false,"is_disabled":false,"rental_uris":{"android":"levelo://app?vid=5965eba9-e738-4b9a-aed1-c9678e536e9f","ios":"levelo://app?vid=5965eba9-e738-4b9a-aed1-c9678e536e9f"},"vehicle_type_id":"4","last_reported":1744463715,"current_range_meters":2800,"station_id":"ce4bhhp2rcd13ifvqfm0","pricing_plan_id":"cebpf4jnsgd1na2vs0mg"},{"bike_id":"baa17e47-8954-4718-b8bd-244f236d4807","system_id":"levelo_inurba_marseille","lat":43.29113,"lon":5.368507,"is_reserved":false,"is_disabled":false,"rental_uris":{"android":"levelo://app?vid=baa17e47-8954-4718-b8bd-244f236d4807","ios":"levelo://app?vid=baa17e47-8954-4718-b8bd-244f236d4807"},"vehicle_type_id":"4","last_reported":1744463715,"current_range_meters":2000,"station_id":"ce4bhah2rcd13ifvqei0","pricing_plan_id":"cebpf4jnsgd1na2vs0mg"},{"bike_id":"c54c2e88-d73e-4254-94e6-f22a7bcff242","system_id":"levelo_inurba_marseille","lat":43.21746,"lon":5.34605,"is_reserved":false,"is_disabled":false,"rental_uris":{"android":"levelo://app?vid=c54c2e88-d73e-4254-94e6-f22a7bcff242","ios":"levelo://app?vid=c54c2e88-d73e-4254-94e6-f22a7bcff242"},"vehicle_type_id":"4","last_reported":1744463715,"current_range_meters":2800,"station_id":"st_cvj6r9ubvosntc0bgbag","pricing_plan_id":"cebpf4jnsgd1na2vs0mg"},{"bike_id":"6d738772-9861-41e6-92e1-ef8a554ecd49","system_id":"levelo_inurba_marseille","lat":43.276195,"lon":5.361062,"is_reserved":false,"is_disabled":false,"rental_uris":{"android":"levelo://app?vid=6d738772-9861-41e6-92e1-ef8a554ecd49","ios":"levelo://app?vid=6d738772-9861-41e6-92e1-ef8a554ecd49"},"vehicle_type_id":"4","last_reported":1744463715,"current_range_meters":2800,"station_id":"ce4bgj92rcd13ifvqbe0","pricing_plan_id":"cebpf4jnsgd1na2vs0mg"},{"bike_id":"4232d94c-3e22-47e0-91a1-13c06352ef19","system_id":"levelo_inurba_marseille","lat":43.26781,"lon":5.39413,"is_reserved":false,"is_disabled":false,"rental_uris":{"android":"levelo://app?vid=4232d94c-3e22-47e0-91a1-13c06352ef19","ios":"levelo://app?vid=4232d94c-3e22-47e0-91a1-13c06352ef19"},"vehicle_type_id":"4","last_reported":1744463715,"current_range_meters":2800,"station_id":"ce4bhh12rcd13ifvqfg0","pricing_plan_id":"cebpf4jnsgd1na2vs0mg"},{"bike_id":"31b4871c-795c-4e79-936e-2a185974e975","system_id":"levelo_inurba_marseille","lat":43.294128,"lon":5.386319,"is_reserved":false,"is_disabled":false,"rental_uris":{"android":"levelo://app?vid=31b4871c-795c-4e79-936e-2a185974e975","ios":"levelo://app?vid=31b4871c-795c-4e79-936e-2a185974e975"},"vehicle_type_id":"4","last_reported":1744463715,"current_range_meters":3200,"station_id":"ce4bh112rcd13ifvqda0","pricing_plan_id":"cebpf4jnsgd1na2vs0mg"},{"bike_id":"5312f039-eb1b-4468-a1df-2086b44ea833","system_id":"levelo_inurba_marseille","lat":43.26785,"lon":5.39412,"is_reserved":false,"is_disabled":false,"rental_uris":{"android":"levelo://app?vid=5312f039-eb1b-4468-a1df-2086b44ea833","ios":"levelo://app?vid=5312f039-eb1b-4468-a1df-2086b44ea833"},"vehicle_type_id":"4","last_reported":1744463715,"current_range_meters":2800,"station_id":"ce4bhh12rcd13ifvqfg0","pricing_plan_id":"cebpf4jnsgd1na2vs0mg"},{"bike_id":"7fbf5b22-7eaf-443f-b8cf-221fd9db0de3","system_id":"levelo_inurba_marseille","lat":43.27676,"lon":5.3889,"is_reserved":false,"is_disabled":false,"rental_uris":{"android":"levelo://app?vid=7fbf5b22-7eaf-443f-b8cf-221fd9db0de3","ios":"levelo://app?vid=7fbf5b22-7eaf-443f-b8cf-221fd9db0de3"},"vehicle_type_id":"4","last_reported":1744463715,"current_range_meters":3200,"station_id":"ce4bhi12rcd13ifvqfo0","pricing_plan_id":"cebpf4jnsgd1na2vs0mg"},{"bike_id":"bf89a6eb-eb3a-406a-90e0-8265c34ee8bc","system_id":"levelo_inurba_marseille","lat":43.21383,"lon":5.35046,"is_reserved":false,"is_disabled":false,"rental_uris":{"android":"levelo://app?vid=bf89a6eb-eb3a-406a-90e0-8265c34ee8bc","ios":"levelo://app?vid=bf89a6eb-eb3a-406a-90e0-8265c34ee8bc"},"vehicle_type_id":"4","last_reported":1744463715,"current_range_meters":3200,"station_id":"","pricing_plan_id":"cebpf4jnsgd1na2vs0mg"},{"bike_id":"fee4982d-7b80-45ff-9187-090fb44610e5","system_id":"levelo_inurba_marseille","lat":43.23967,"lon":5.36636,"is_reserved":false,"is_disabled":false,"rental_uris":{"android":"levelo://app?vid=fee4982d-7b80-45ff-9187-090fb44610e5","ios":"levelo://app?vid=fee4982d-7b80-45ff-9187-090fb44610e5"},"vehicle_type_id":"4","last_reported":1744463715,"current_range_meters":3600,"station_id":"ce4bhi12rcd13ifvqfp0","pricing_plan_id":"cebpf4jnsgd1na2vs0mg"},{"bike_id":"14573d36-5ecd-44d1-9d4d-2d345cc0c804","system_id":"levelo_inurba_marseille","lat":43.262146,"lon":5.374378,"is_reserved":false,"is_disabled":false,"rental_uris":{"android":"levelo://app?vid=14573d36-5ecd-44d1-9d4d-2d345cc0c804","ios":"levelo://app?vid=14573d36-5ecd-44d1-9d4d-2d345cc0c804"},"vehicle_type_id":"4","last_reported":1744463715,"current_range_meters":3600,"station_id":"ce4bh512rcd13ifvqe3g","pricing_plan_id":"cebpf4jnsgd1na2vs0mg"},{"bike_id":"ee025213-868c-4e7b-9deb-14825e90d70c","system_id":"levelo_inurba_marseille","lat":43.30887,"lon":5.37182,"is_reserved":false,"is_disabled":false,"rental_uris":{"android":"levelo://app?vid=ee025213-868c-4e7b-9deb-14825e90d70c","ios":"levelo://app?vid=ee025213-868c-4e7b-9deb-14825e90d70c"},"vehicle_type_id":"4","last_reported":1744463715,"current_range_meters":3600,"station_id":"ce4bguh2rcd13ifvqckg","pricing_plan_id":"cebpf4jnsgd1na2vs0mg"},{"bike_id":"97b58164-4ed7-4f21-b4b2-d2f77349b128","system_id":"levelo_inurba_marseille","lat":43.2989,"lon":5.38884,"is_reserved":false,"is_disabled":false,"rental_uris":{"android":"levelo://app?vid=97b58164-4ed7-4f21-b4b2-d2f77349b128","ios":"levelo://app?vid=97b58164-4ed7-4f21-b4b2-d2f77349b128"},"vehicle_type_id":"4","last_reported":1744463715,"current_range_meters":3200,"station_id":"ce4bh392rcd13ifvqdl0","pricing_plan_id":"cebpf4jnsgd1na2vs0mg"},{"bike_id":"61969dad-6fc6-4910-afeb-a0e2e965433c","system_id":"levelo_inurba_marseille","lat":43.26674,"lon":5.38265,"is_reserved":false,"is_disabled":false,"rental_uris":{"android":"levelo://app?vid=61969dad-6fc6-4910-afeb-a0e2e965433c","ios":"levelo://app?vid=61969dad-6fc6-4910-afeb-a0e2e965433c"},"vehicle_type_id":"4","last_reported":1744463715,"current_range_meters":3200,"station_id":"ce4bhg92rcd13ifvqf90","pricing_plan_id":"cebpf4jnsgd1na2vs0mg"},{"bike_id":"2de1322b-3ca0-457b-a8b4-5d1f68110625","system_id":"levelo_inurba_marseille","lat":43.30248,"lon":5.4006,"is_reserved":false,"is_disabled":false,"rental_uris":{"android":"levelo://app?vid=2de1322b-3ca0-457b-a8b4-5d1f68110625","ios":"levelo://app?vid=2de1322b-3ca0-457b-a8b4-5d1f68110625"},"vehicle_type_id":"4","last_reported":1744463715,"current_range_meters":4000,"station_id":"ce4bgvh2rcd13ifvqcs0","pricing_plan_id":"cebpf4jnsgd1na2vs0mg"},{"bike_id":"96fd7120-71d3-4b5c-aab1-93abf705fea5","system_id":"levelo_inurba_marseille","lat":43.27309,"lon":5.39071,"is_reserved":false,"is_disabled":false,"rental_uris":{"android":"levelo://app?vid=96fd7120-71d3-4b5c-aab1-93abf705fea5","ios":"levelo://app?vid=96fd7120-71d3-4b5c-aab1-93abf705fea5"},"vehicle_type_id":"4","last_reported":1744463715,"current_range_meters":3600,"station_id":"ce4bhgp2rcd13ifvqfe0","pricing_plan_id":"cebpf4jnsgd1na2vs0mg"},{"bike_id":"25021762-3ab5-4ced-9505-273f64f1e973","system_id":"levelo_inurba_marseille","lat":43.299347,"lon":5.383691,"is_reserved":false,"is_disabled":false,"rental_uris":{"android":"levelo://app?vid=25021762-3ab5-4ced-9505-273f64f1e973","ios":"levelo://app?vid=25021762-3ab5-4ced-9505-273f64f1e973"},"vehicle_type_id":"4","last_reported":1744463715,"current_range_meters":4000,"station_id":"ce4bgup2rcd13ifvqco0","pricing_plan_id":"cebpf4jnsgd1na2vs0mg"},{"bike_id":"c10aff79-e637-4abe-afb9-a468a59d3568","system_id":"levelo_inurba_marseille","lat":43.24072,"lon":5.37766,"is_reserved":false,"is_disabled":false,"rental_uris":{"android":"levelo://app?vid=c10aff79-e637-4abe-afb9-a468a59d3568","ios":"levelo://app?vid=c10aff79-e637-4abe-afb9-a468a59d3568"},"vehicle_type_id":"4","last_reported":1744463715,"current_range_meters":4000,"station_id":"ce4bhnp2rcd13ifvqgvg","pricing_plan_id":"cebpf4jnsgd1na2vs0mg"},{"bike_id":"984bb2aa-d82a-4281-90f1-1529bbc61000","system_id":"levelo_inurba_marseille","lat":43.29918,"lon":5.39272,"is_reserved":false,"is_disabled":false,"rental_uris":{"android":"levelo://app?vid=984bb2aa-d82a-4281-90f1-1529bbc61000","ios":"levelo://app?vid=984bb2aa-d82a-4281-90f1-1529bbc61000"},"vehicle_type_id":"4","last_reported":1744463715,"current_range_meters":4000,"station_id":"","pricing_plan_id":"cebpf4jnsgd1na2vs0mg"},{"bike_id":"60516f29-b503-4087-8bf4-0f0abfb30ca1","system_id":"levelo_inurba_marseille","lat":43.30545,"lon":5.36523,"is_reserved":false,"is_disabled":false,"rental_uris":{"android":"levelo://app?vid=60516f29-b503-4087-8bf4-0f0abfb30ca1","ios":"levelo://app?vid=60516f29-b503-4087-8bf4-0f0abfb30ca1"},"vehicle_type_id":"4","last_reported":1744463715,"current_range_meters":4000,"station_id":"ce4bgs12rcd13ifvqcag","pricing_plan_id":"cebpf4jnsgd1na2vs0mg"},{"bike_id":"3de0f689-4b45-42ee-9255-d68e1b724ca8","system_id":"levelo_inurba_marseille","lat":43.29929,"lon":5.36545,"is_reserved":false,"is_disabled":false,"rental_uris":{"android":"levelo://app?vid=3de0f689-4b45-42ee-9255-d68e1b724ca8","ios":"levelo://app?vid=3de0f689-4b45-42ee-9255-d68e1b724ca8"},"vehicle_type_id":"4","last_reported":1744463715,"current_range_meters":0,"station_id":"ce4bgm92rcd13ifvqbr0","pricing_plan_id":"cebpf4jnsgd1na2vs0mg"},{"bike_id":"10466d73-036a-4580-a449-45013bce52f1","system_id":"levelo_inurba_marseille","lat":43.24671,"lon":5.38147,"is_reserved":false,"is_disabled":false,"rental_uris":{"android":"levelo://app?vid=10466d73-036a-4580-a449-45013bce52f1","ios":"levelo://app?vid=10466d73-036a-4580-a449-45013bce52f1"},"vehicle_type_id":"4","last_reported":1744463715,"current_range_meters":4400,"station_id":"ce4bhih2rcd13ifvqfr0","pricing_plan_id":"cebpf4jnsgd1na2vs0mg"},{"bike_id":"a9f344a9-b5c4-4c6f-adc4-6177f6c8159a","system_id":"levelo_inurba_marseille","lat":43.32821,"lon":5.39768,"is_reserved":false,"is_disabled":false,"rental_uris":{"android":"levelo://app?vid=a9f344a9-b5c4-4c6f-adc4-6177f6c8159a","ios":"levelo://app?vid=a9f344a9-b5c4-4c6f-adc4-6177f6c8159a"},"vehicle_type_id":"4","last_reported":1744463715,"current_range_meters":4400,"station_id":"","pricing_plan_id":"cebpf4jnsgd1na2vs0mg"},{"bike_id":"eab6cbfa-cb8e-47d7-b0d6-226ab7facec7","system_id":"levelo_inurba_marseille","lat":43.3172,"lon":5.424,"is_reserved":false,"is_disabled":true,"rental_uris":{"android":"levelo://app?vid=eab6cbfa-cb8e-47d7-b0d6-226ab7facec7","ios":"levelo://app?vid=eab6cbfa-cb8e-47d7-b0d6-226ab7facec7"},"vehicle_type_id":"4","last_reported":1744463715,"current_range_meters":4400,"station_id":"ce4bhp92rcd13ifvqhbg","pricing_plan_id":"cebpf4jnsgd1na2vs0mg"},{"bike_id":"3d7d962c-257b-49b9-8fbf-7f44d31443a6","system_id":"levelo_inurba_marseille","lat":43.308929,"lon":5.39658,"is_reserved":false,"is_disabled":false,"rental_uris":{"android":"levelo://app?vid=3d7d962c-257b-49b9-8fbf-7f44d31443a6","ios":"levelo://app?vid=3d7d962c-257b-49b9-8fbf-7f44d31443a6"},"vehicle_type_id":"4","last_reported":1744463715,"current_range_meters":4400,"station_id":"ce4bhnp2rcd13ifvqgvg","pricing_plan_id":"cebpf4jnsgd1na2vs0mg"},{"bike_id":"ef955aca-6d10-4c55-abe6-b3068bcd4935","system_id":"levelo_inurba_marseille","lat":43.265635,"lon":5.39025,"is_reserved":false,"is_disabled":false,"rental_uris":{"android":"levelo://app?vid=ef955aca-6d10-4c55-abe6-b3068bcd4935","ios":"levelo://app?vid=ef955aca-6d10-4c55-abe6-b3068bcd4935"},"vehicle_type_id":"4","last_reported":1744463715,"current_range_meters":4800,"station_id":"ce4bhe12rcd13ifvqf30","pricing_plan_id":"cebpf4jnsgd1na2vs0mg"},{"bike_id":"bc8d79d3-86ab-41bb-8463-7bddd6ac5a25","system_id":"levelo_inurba_marseille","lat":43.29567,"lon":5.37506,"is_reserved":false,"is_disabled":false,"rental_uris":{"android":"levelo://app?vid=bc8d79d3-86ab-41bb-8463-7bddd6ac5a25","ios":"levelo://app?vid=bc8d79d3-86ab-41bb-8463-7bddd6ac5a25"},"vehicle_type_id":"4","last_reported":1744463715,"current_range_meters":4800,"station_id":"ce4bgh92rcd13ifvqb50","pricing_plan_id":"cebpf4jnsgd1na2vs0mg"},{"bike_id":"650075e3-5124-464c-a882-0ebfb3f08794","system_id":"levelo_inurba_marseille","lat":43.32347,"lon":5.40648,"is_reserved":false,"is_disabled":false,"rental_uris":{"android":"levelo://app?vid=650075e3-5124-464c-a882-0ebfb3f08794","ios":"levelo://app?vid=650075e3-5124-464c-a882-0ebfb3f08794"},"vehicle_type_id":"4","last_reported":1744463715,"current_range_meters":4800,"station_id":"ce4bhq92rcd13ifvqhjg","pricing_plan_id":"cebpf4jnsgd1na2vs0mg"},{"bike_id":"380c803b-aa74-44dc-8923-c0be27db3656","system_id":"levelo_inurba_marseille","lat":43.2175,"lon":5.34603,"is_reserved":false,"is_disabled":false,"rental_uris":{"android":"levelo://app?vid=380c803b-aa74-44dc-8923-c0be27db3656","ios":"levelo://app?vid=380c803b-aa74-44dc-8923-c0be27db3656"},"vehicle_type_id":"4","last_reported":1744463715,"current_range_meters":4800,"station_id":"st_cvj6r9ubvosntc0bgbag","pricing_plan_id":"cebpf4jnsgd1na2vs0mg"},{"bike_id":"face5c10-bfd0-4338-89e8-58734194f63e","system_id":"levelo_inurba_marseille","lat":43.25118,"lon":5.40322,"is_reserved":false,"is_disabled":false,"rental_uris":{"android":"levelo://app?vid=face5c10-bfd0-4338-89e8-58734194f63e","ios":"levelo://app?vid=face5c10-bfd0-4338-89e8-58734194f63e"},"vehicle_type_id":"4","last_reported":1744463715,"current_range_meters":4800,"station_id":"ce4bhlh2rcd13ifvqgig","pricing_plan_id":"cebpf4jnsgd1na2vs0mg"},{"bike_id":"926fb0a7-820c-4f62-bd23-584e294815aa","system_id":"levelo_inurba_marseille","lat":43.24172,"lon":5.39733,"is_reserved":false,"is_disabled":false,"rental_uris":{"android":"levelo://app?vid=926fb0a7-820c-4f62-bd23-584e294815aa","ios":"levelo://app?vid=926fb0a7-820c-4f62-bd23-584e294815aa"},"vehicle_type_id":"4","last_reported":1744463715,"current_range_meters":4800,"station_id":"ce4bhn12rcd13ifvqgpg","pricing_plan_id":"cebpf4jnsgd1na2vs0mg"},{"bike_id":"41bcebd2-5a26-4bb3-9167-38e5af937ff7","system_id":"levelo_inurba_marseille","lat":43.28424,"lon":5.34985,"is_reserved":false,"is_disabled":false,"rental_uris":{"android":"levelo://app?vid=41bcebd2-5a26-4bb3-9167-38e5af937ff7","ios":"levelo://app?vid=41bcebd2-5a26-4bb3-9167-38e5af937ff7"},"vehicle_type_id":"4","last_reported":1744463715,"current_range_meters":5600,"station_id":"ce4bhbh2rcd13ifvqepg","pricing_plan_id":"cebpf4jnsgd1na2vs0mg"},{"bike_id":"d24bef7e-5c94-4f4d-8555-09a26383b965","system_id":"levelo_inurba_marseille","lat":43.28663,"lon":5.36358,"is_reserved":false,"is_disabled":false,"rental_uris":{"android":"levelo://app?vid=d24bef7e-5c94-4f4d-8555-09a26383b965","ios":"levelo://app?vid=d24bef7e-5c94-4f4d-8555-09a26383b965"},"vehicle_type_id":"4","last_reported":1744463715,"current_range_meters":5600,"station_id":"ce4bhah2rcd13ifvqej0","pricing_plan_id":"cebpf4jnsgd1na2vs0mg"},{"bike_id":"4642dfd1-8fc8-4115-8fdb-d7cb446c651e","system_id":"levelo_inurba_marseille","lat":43.279124,"lon":5.395709,"is_reserved":false,"is_disabled":false,"rental_uris":{"android":"levelo://app?vid=4642dfd1-8fc8-4115-8fdb-d7cb446c651e","ios":"levelo://app?vid=4642dfd1-8fc8-4115-8fdb-d7cb446c651e"},"vehicle_type_id":"4","last_reported":1744463715,"current_range_meters":5600,"station_id":"ce4bhf92rcd13ifvqf40","pricing_plan_id":"cebpf4jnsgd1na2vs0mg"},{"bike_id":"0418e90a-ab53-494b-b9bd-17befeae360d","system_id":"levelo_inurba_marseille","lat":43.23073,"lon":5.35485,"is_reserved":false,"is_disabled":false,"rental_uris":{"android":"levelo://app?vid=0418e90a-ab53-494b-b9bd-17befeae360d","ios":"levelo://app?vid=0418e90a-ab53-494b-b9bd-17befeae360d"},"vehicle_type_id":"4","last_reported":1744463715,"current_range_meters":6000,"station_id":"cpo3342slgdg3j2ifvpg","pricing_plan_id":"cebpf4jnsgd1na2vs0mg"},{"bike_id":"81c0eacc-b3f8-432b-b4a0-6075a7c120eb","system_id":"levelo_inurba_marseille","lat":43.28411,"lon":5.34988,"is_reserved":false,"is_disabled":false,"rental_uris":{"android":"levelo://app?vid=81c0eacc-b3f8-432b-b4a0-6075a7c120eb","ios":"levelo://app?vid=81c0eacc-b3f8-432b-b4a0-6075a7c120eb"},"vehicle_type_id":"4","last_reported":1744463715,"current_range_meters":6000,"station_id":"ce4bhbh2rcd13ifvqepg","pricing_plan_id":"cebpf4jnsgd1na2vs0mg"},{"bike_id":"a2417265-aaaf-4846-a7cc-2faf5068e2d6","system_id":"levelo_inurba_marseille","lat":43.28155,"lon":5.42637,"is_reserved":false,"is_disabled":false,"rental_uris":{"android":"levelo://app?vid=a2417265-aaaf-4846-a7cc-2faf5068e2d6","ios":"levelo://app?vid=a2417265-aaaf-4846-a7cc-2faf5068e2d6"},"vehicle_type_id":"4","last_reported":1744463715,"current_range_meters":6000,"station_id":"ce4bhnh2rcd13ifvqgug","pricing_plan_id":"cebpf4jnsgd1na2vs0mg"},{"bike_id":"68235e9c-4d24-40d7-b962-f720db9860dd","system_id":"levelo_inurba_marseille","lat":43.27616,"lon":5.36109,"is_reserved":false,"is_disabled":false,"rental_uris":{"android":"levelo://app?vid=68235e9c-4d24-40d7-b962-f720db9860dd","ios":"levelo://app?vid=68235e9c-4d24-40d7-b962-f720db9860dd"},"vehicle_type_id":"4","last_reported":1744463715,"current_range_meters":5600,"station_id":"ce4bgj92rcd13ifvqbe0","pricing_plan_id":"cebpf4jnsgd1na2vs0mg"},{"bike_id":"a766ebde-4564-48d0-b351-4edc166144df","system_id":"levelo_inurba_marseille","lat":43.29274,"lon":5.36852,"is_reserved":false,"is_disabled":false,"rental_uris":{"android":"levelo://app?vid=a766ebde-4564-48d0-b351-4edc166144df","ios":"levelo://app?vid=a766ebde-4564-48d0-b351-4edc166144df"},"vehicle_type_id":"4","last_reported":1744463715,"current_range_meters":6400,"station_id":"ce4bhbp2rcd13ifvqesg","pricing_plan_id":"cebpf4jnsgd1na2vs0mg"},{"bike_id":"77524ce9-127e-47a4-9474-4c5ec9caa6c4","system_id":"levelo_inurba_marseille","lat":43.284149,"lon":5.349799,"is_reserved":false,"is_disabled":false,"rental_uris":{"android":"levelo://app?vid=77524ce9-127e-47a4-9474-4c5ec9caa6c4","ios":"levelo://app?vid=77524ce9-127e-47a4-9474-4c5ec9caa6c4"},"vehicle_type_id":"4","last_reported":1744463715,"current_range_meters":4000,"station_id":"ce4bhbh2rcd13ifvqepg","pricing_plan_id":"cebpf4jnsgd1na2vs0mg"},{"bike_id":"de895922-f369-4ca6-a006-d4f85ba3b4c7","system_id":"levelo_inurba_marseille","lat":43.30534,"lon":5.38425,"is_reserved":false,"is_disabled":false,"rental_uris":{"android":"levelo://app?vid=de895922-f369-4ca6-a006-d4f85ba3b4c7","ios":"levelo://app?vid=de895922-f369-4ca6-a006-d4f85ba3b4c7"},"vehicle_type_id":"4","last_reported":1744463715,"current_range_meters":6400,"station_id":"ce4bgg92rcd13ifvqb30","pricing_plan_id":"cebpf4jnsgd1na2vs0mg"},{"bike_id":"c594545f-3be2-44ee-84d4-d5c93c515c23","system_id":"levelo_inurba_marseille","lat":43.28266,"lon":5.3506,"is_reserved":false,"is_disabled":false,"rental_uris":{"android":"levelo://app?vid=c594545f-3be2-44ee-84d4-d5c93c515c23","ios":"levelo://app?vid=c594545f-3be2-44ee-84d4-d5c93c515c23"},"vehicle_type_id":"4","last_reported":1744463715,"current_range_meters":6000,"station_id":"ce4bhbp2rcd13ifvqerg","pricing_plan_id":"cebpf4jnsgd1na2vs0mg"},{"bike_id":"ca934f8c-8acc-48fb-a1cb-6331a497c1aa","system_id":"levelo_inurba_marseille","lat":43.21187,"lon":5.35088,"is_reserved":false,"is_disabled":false,"rental_uris":{"android":"levelo://app?vid=ca934f8c-8acc-48fb-a1cb-6331a497c1aa","ios":"levelo://app?vid=ca934f8c-8acc-48fb-a1cb-6331a497c1aa"},"vehicle_type_id":"4","last_reported":1744463715,"current_range_meters":6400,"station_id":"cpo3342slgdg3j2ifvpg","pricing_plan_id":"cebpf4jnsgd1na2vs0mg"},{"bike_id":"f2e24ccd-753e-4b81-84c2-ce7a721de12c","system_id":"levelo_inurba_marseille","lat":43.2176,"lon":5.34602,"is_reserved":false,"is_disabled":false,"rental_uris":{"android":"levelo://app?vid=f2e24ccd-753e-4b81-84c2-ce7a721de12c","ios":"levelo://app?vid=f2e24ccd-753e-4b81-84c2-ce7a721de12c"},"vehicle_type_id":"4","last_reported":1744463715,"current_range_meters":6800,"station_id":"st_cvj6r9ubvosntc0bgbag","pricing_plan_id":"cebpf4jnsgd1na2vs0mg"},{"bike_id":"7bd9729e-0f42-40fa-a285-562b5b6c898b","system_id":"levelo_inurba_marseille","lat":43.21193,"lon":5.35083,"is_reserved":false,"is_disabled":false,"rental_uris":{"android":"levelo://app?vid=7bd9729e-0f42-40fa-a285-562b5b6c898b","ios":"levelo://app?vid=7bd9729e-0f42-40fa-a285-562b5b6c898b"},"vehicle_type_id":"4","last_reported":1744463715,"current_range_meters":6800,"station_id":"st_cvj6sg6p6f1abm77japg","pricing_plan_id":"cebpf4jnsgd1na2vs0mg"},{"bike_id":"8fa87b4a-fc67-4a8f-be14-11b7676b7564","system_id":"levelo_inurba_marseille","lat":43.2293,"lon":5.3538,"is_reserved":false,"is_disabled":false,"rental_uris":{"android":"levelo://app?vid=8fa87b4a-fc67-4a8f-be14-11b7676b7564","ios":"levelo://app?vid=8fa87b4a-fc67-4a8f-be14-11b7676b7564"},"vehicle_type_id":"4","last_reported":1744463715,"current_range_meters":6800,"station_id":"cpo3532slgdg3j2ikp40","pricing_plan_id":"cebpf4jnsgd1na2vs0mg"},{"bike_id":"6d1f80b1-80e0-4012-99d1-3f8172cadb63","system_id":"levelo_inurba_marseille","lat":43.2417,"lon":5.36417,"is_reserved":false,"is_disabled":false,"rental_uris":{"android":"levelo://app?vid=6d1f80b1-80e0-4012-99d1-3f8172cadb63","ios":"levelo://app?vid=6d1f80b1-80e0-4012-99d1-3f8172cadb63"},"vehicle_type_id":"4","last_reported":1744463715,"current_range_meters":6800,"station_id":"cpo36qri1sfpv3e86is0","pricing_plan_id":"cebpf4jnsgd1na2vs0mg"},{"bike_id":"4dad4986-3d40-4220-a4f9-44ce923be063","system_id":"levelo_inurba_marseille","lat":43.2962,"lon":5.37155,"is_reserved":false,"is_disabled":false,"rental_uris":{"android":"levelo://app?vid=4dad4986-3d40-4220-a4f9-44ce923be063","ios":"levelo://app?vid=4dad4986-3d40-4220-a4f9-44ce923be063"},"vehicle_type_id":"4","last_reported":1744463715,"current_range_meters":6800,"station_id":"ce4bgnh2rcd13ifvqc0g","pricing_plan_id":"cebpf4jnsgd1na2vs0mg"},{"bike_id":"baf26e8d-6fc5-4206-89d2-2b559a6cdcbb","system_id":"levelo_inurba_marseille","lat":43.29626,"lon":5.37714,"is_reserved":false,"is_disabled":false,"rental_uris":{"android":"levelo://app?vid=baf26e8d-6fc5-4206-89d2-2b559a6cdcbb","ios":"levelo://app?vid=baf26e8d-6fc5-4206-89d2-2b559a6cdcbb"},"vehicle_type_id":"4","last_reported":1744463715,"current_range_meters":6800,"station_id":"ce4bgi92rcd13ifvqb90","pricing_plan_id":"cebpf4jnsgd1na2vs0mg"},{"bike_id":"8ee58055-72b1-4d18-93a4-2e01bf83fc60","system_id":"levelo_inurba_marseille","lat":43.2622,"lon":5.37445,"is_reserved":false,"is_disabled":false,"rental_uris":{"android":"levelo://app?vid=8ee58055-72b1-4d18-93a4-2e01bf83fc60","ios":"levelo://app?vid=8ee58055-72b1-4d18-93a4-2e01bf83fc60"},"vehicle_type_id":"4","last_reported":1744463715,"current_range_meters":7200,"station_id":"ce4bhgp2rcd13ifvqfc0","pricing_plan_id":"cebpf4jnsgd1na2vs0mg"},{"bike_id":"528bcf7c-dfdc-42f2-868e-fffc4b88d644","system_id":"levelo_inurba_marseille","lat":43.26565,"lon":5.39029,"is_reserved":false,"is_disabled":false,"rental_uris":{"android":"levelo://app?vid=528bcf7c-dfdc-42f2-868e-fffc4b88d644","ios":"levelo://app?vid=528bcf7c-dfdc-42f2-868e-fffc4b88d644"},"vehicle_type_id":"4","last_reported":1744463715,"current_range_meters":7200,"station_id":"ce4bhe12rcd13ifvqf30","pricing_plan_id":"cebpf4jnsgd1na2vs0mg"},{"bike_id":"4b7ac3ea-e61b-4aae-836c-651da9be33e4","system_id":"levelo_inurba_marseille","lat":43.22926,"lon":5.35379,"is_reserved":false,"is_disabled":false,"rental_uris":{"android":"levelo://app?vid=4b7ac3ea-e61b-4aae-836c-651da9be33e4","ios":"levelo://app?vid=4b7ac3ea-e61b-4aae-836c-651da9be33e4"},"vehicle_type_id":"4","last_reported":1744463715,"current_range_meters":7200,"station_id":"cpo3532slgdg3j2ikp40","pricing_plan_id":"cebpf4jnsgd1na2vs0mg"},{"bike_id":"c9b61263-a855-4d91-9c24-4dd0b0c770fa","system_id":"levelo_inurba_marseille","lat":43.28074,"lon":5.36671,"is_reserved":false,"is_disabled":false,"rental_uris":{"android":"levelo://app?vid=c9b61263-a855-4d91-9c24-4dd0b0c770fa","ios":"levelo://app?vid=c9b61263-a855-4d91-9c24-4dd0b0c770fa"},"vehicle_type_id":"4","last_reported":1744463715,"current_range_meters":5600,"station_id":"","pricing_plan_id":"cebpf4jnsgd1na2vs0mg"},{"bike_id":"ea628b22-b6a7-44f1-a072-501247a5d1a1","system_id":"levelo_inurba_marseille","lat":43.29895,"lon":5.43666,"is_reserved":false,"is_disabled":false,"rental_uris":{"android":"levelo://app?vid=ea628b22-b6a7-44f1-a072-501247a5d1a1","ios":"levelo://app?vid=ea628b22-b6a7-44f1-a072-501247a5d1a1"},"vehicle_type_id":"4","last_reported":1744463715,"current_range_meters":7200,"station_id":"ce4bhpp2rcd13ifvqhfg","pricing_plan_id":"cebpf4jnsgd1na2vs0mg"},{"bike_id":"70b79363-26ad-44f4-ae07-e85ad4456aba","system_id":"levelo_inurba_marseille","lat":43.27617,"lon":5.36109,"is_reserved":false,"is_disabled":false,"rental_uris":{"android":"levelo://app?vid=70b79363-26ad-44f4-ae07-e85ad4456aba","ios":"levelo://app?vid=70b79363-26ad-44f4-ae07-e85ad4456aba"},"vehicle_type_id":"4","last_reported":1744463715,"current_range_meters":7200,"station_id":"ce4bgj92rcd13ifvqbe0","pricing_plan_id":"cebpf4jnsgd1na2vs0mg"},{"bike_id":"94455896-0f19-4fae-bd72-9879f01fcd6e","system_id":"levelo_inurba_marseille","lat":43.29609,"lon":5.42243,"is_reserved":false,"is_disabled":true,"rental_uris":{"android":"levelo://app?vid=94455896-0f19-4fae-bd72-9879f01fcd6e","ios":"levelo://app?vid=94455896-0f19-4fae-bd72-9879f01fcd6e"},"vehicle_type_id":"4","last_reported":1744463715,"current_range_meters":7200,"station_id":"ce4bhph2rcd13ifvqhdg","pricing_plan_id":"cebpf4jnsgd1na2vs0mg"},{"bike_id":"d1477062-c90d-4293-a224-1728cd40957f","system_id":"levelo_inurba_marseille","lat":43.30418,"lon":5.4128,"is_reserved":false,"is_disabled":false,"rental_uris":{"android":"levelo://app?vid=d1477062-c90d-4293-a224-1728cd40957f","ios":"levelo://app?vid=d1477062-c90d-4293-a224-1728cd40957f"},"vehicle_type_id":"4","last_reported":1744463715,"current_range_meters":6800,"station_id":"ce4bhop2rcd13ifvqh8g","pricing_plan_id":"cebpf4jnsgd1na2vs0mg"},{"bike_id":"0f538c77-867d-4ba2-8a0f-91756089b8c6","system_id":"levelo_inurba_marseille","lat":43.2655,"lon":5.37281,"is_reserved":false,"is_disabled":false,"rental_uris":{"android":"levelo://app?vid=0f538c77-867d-4ba2-8a0f-91756089b8c6","ios":"levelo://app?vid=0f538c77-867d-4ba2-8a0f-91756089b8c6"},"vehicle_type_id":"4","last_reported":1744463715,"current_range_meters":8000,"station_id":"ce4bhg12rcd13ifvqf70","pricing_plan_id":"cebpf4jnsgd1na2vs0mg"},{"bike_id":"94a2d289-6a01-4914-95dd-c0bbac3ace54","system_id":"levelo_inurba_marseille","lat":43.2956,"lon":5.42292,"is_reserved":false,"is_disabled":false,"rental_uris":{"android":"levelo://app?vid=94a2d289-6a01-4914-95dd-c0bbac3ace54","ios":"levelo://app?vid=94a2d289-6a01-4914-95dd-c0bbac3ace54"},"vehicle_type_id":"4","last_reported":1744463715,"current_range_meters":8000,"station_id":"ce4bhph2rcd13ifvqhdg","pricing_plan_id":"cebpf4jnsgd1na2vs0mg"},{"bike_id":"3ac73e63-1619-4c1b-a7d0-7311424e94ef","system_id":"levelo_inurba_marseille","lat":43.29001,"lon":5.37625,"is_reserved":false,"is_disabled":false,"rental_uris":{"android":"levelo://app?vid=3ac73e63-1619-4c1b-a7d0-7311424e94ef","ios":"levelo://app?vid=3ac73e63-1619-4c1b-a7d0-7311424e94ef"},"vehicle_type_id":"4","last_reported":1744463715,"current_range_meters":8000,"station_id":"","pricing_plan_id":"cebpf4jnsgd1na2vs0mg"},{"bike_id":"61087c9c-58a2-45af-89fa-c020f9313355","system_id":"levelo_inurba_marseille","lat":43.21751,"lon":5.34614,"is_reserved":false,"is_disabled":true,"rental_uris":{"android":"levelo://app?vid=61087c9c-58a2-45af-89fa-c020f9313355","ios":"levelo://app?vid=61087c9c-58a2-45af-89fa-c020f9313355"},"vehicle_type_id":"4","last_reported":1744463715,"current_range_meters":8000,"station_id":"st_cvj6r9ubvosntc0bgbag","pricing_plan_id":"cebpf4jnsgd1na2vs0mg"},{"bike_id":"f647b245-8123-4130-9562-7df6f320cfb9","system_id":"levelo_inurba_marseille","lat":43.30139,"lon":5.37423,"is_reserved":false,"is_disabled":false,"rental_uris":{"android":"levelo://app?vid=f647b245-8123-4130-9562-7df6f320cfb9","ios":"levelo://app?vid=f647b245-8123-4130-9562-7df6f320cfb9"},"vehicle_type_id":"4","last_reported":1744463715,"current_range_meters":8000,"station_id":"ce4bgs92rcd13ifvqcc0","pricing_plan_id":"cebpf4jnsgd1na2vs0mg"},{"bike_id":"01902c2b-0a58-4bb6-b786-dafb823164f6","system_id":"levelo_inurba_marseille","lat":43.2827,"lon":5.35064,"is_reserved":false,"is_disabled":false,"rental_uris":{"android":"levelo://app?vid=01902c2b-0a58-4bb6-b786-dafb823164f6","ios":"levelo://app?vid=01902c2b-0a58-4bb6-b786-dafb823164f6"},"vehicle_type_id":"4","last_reported":1744463715,"current_range_meters":8000,"station_id":"ce4bhbp2rcd13ifvqerg","pricing_plan_id":"cebpf4jnsgd1na2vs0mg"},{"bike_id":"47ec0495-672a-4a00-a7ae-a3ffe18f6de5","system_id":"levelo_inurba_marseille","lat":43.26806,"lon":5.39433,"is_reserved":false,"is_disabled":false,"rental_uris":{"android":"levelo://app?vid=47ec0495-672a-4a00-a7ae-a3ffe18f6de5","ios":"levelo://app?vid=47ec0495-672a-4a00-a7ae-a3ffe18f6de5"},"vehicle_type_id":"4","last_reported":1744463715,"current_range_meters":8000,"station_id":"ce4bhh12rcd13ifvqfg0","pricing_plan_id":"cebpf4jnsgd1na2vs0mg"},{"bike_id":"3f08cc69-711e-4264-b923-68891203ffa4","system_id":"levelo_inurba_marseille","lat":43.32285,"lon":5.38243,"is_reserved":false,"is_disabled":false,"rental_uris":{"android":"levelo://app?vid=3f08cc69-711e-4264-b923-68891203ffa4","ios":"levelo://app?vid=3f08cc69-711e-4264-b923-68891203ffa4"},"vehicle_type_id":"4","last_reported":1744463715,"current_range_meters":8000,"station_id":"ce4bhr12rcd13ifvqhqg","pricing_plan_id":"cebpf4jnsgd1na2vs0mg"},{"bike_id":"68de7c8e-0a7c-4def-bc8f-72f753f07918","system_id":"levelo_inurba_marseille","lat":43.27377,"lon":5.36252,"is_reserved":false,"is_disabled":false,"rental_uris":{"android":"levelo://app?vid=68de7c8e-0a7c-4def-bc8f-72f753f07918","ios":"levelo://app?vid=68de7c8e-0a7c-4def-bc8f-72f753f07918"},"vehicle_type_id":"4","last_reported":1744463715,"current_range_meters":8400,"station_id":"ce4bhbh2rcd13ifvqeo0","pricing_plan_id":"cebpf4jnsgd1na2vs0mg"},{"bike_id":"1ac3f927-5374-4396-8386-4a891882fc63","system_id":"levelo_inurba_marseille","lat":43.23152,"lon":5.43715,"is_reserved":false,"is_disabled":false,"rental_uris":{"android":"levelo://app?vid=1ac3f927-5374-4396-8386-4a891882fc63","ios":"levelo://app?vid=1ac3f927-5374-4396-8386-4a891882fc63"},"vehicle_type_id":"4","last_reported":1744463715,"current_range_meters":8400,"station_id":"ce4bhmp2rcd13ifvqgog","pricing_plan_id":"cebpf4jnsgd1na2vs0mg"},{"bike_id":"cc83a7aa-57a1-4769-9137-8531613b4691","system_id":"levelo_inurba_marseille","lat":43.31249,"lon":5.37282,"is_reserved":false,"is_disabled":false,"rental_uris":{"android":"levelo://app?vid=cc83a7aa-57a1-4769-9137-8531613b4691","ios":"levelo://app?vid=cc83a7aa-57a1-4769-9137-8531613b4691"},"vehicle_type_id":"4","last_reported":1744463715,"current_range_meters":8400,"station_id":"","pricing_plan_id":"cebpf4jnsgd1na2vs0mg"},{"bike_id":"173bc9a4-de98-43a8-b692-4fbb90439da0","system_id":"levelo_inurba_marseille","lat":43.3199,"lon":5.38159,"is_reserved":false,"is_disabled":false,"rental_uris":{"android":"levelo://app?vid=173bc9a4-de98-43a8-b692-4fbb90439da0","ios":"levelo://app?vid=173bc9a4-de98-43a8-b692-4fbb90439da0"},"vehicle_type_id":"4","last_reported":1744463715,"current_range_meters":8400,"station_id":"ce4bhr12rcd13ifvqhpg","pricing_plan_id":"cebpf4jnsgd1na2vs0mg"},{"bike_id":"faf32c94-edb9-4d69-abd2-ba36c21f836f","system_id":"levelo_inurba_marseille","lat":43.21191,"lon":5.35082,"is_reserved":false,"is_disabled":false,"rental_uris":{"android":"levelo://app?vid=faf32c94-edb9-4d69-abd2-ba36c21f836f","ios":"levelo://app?vid=faf32c94-edb9-4d69-abd2-ba36c21f836f"},"vehicle_type_id":"4","last_reported":1744463715,"current_range_meters":8400,"station_id":"st_cvj6sg6p6f1abm77japg","pricing_plan_id":"cebpf4jnsgd1na2vs0mg"},{"bike_id":"92412088-1737-4639-80b7-44b07514caf3","system_id":"levelo_inurba_marseille","lat":43.25082,"lon":5.39507,"is_reserved":false,"is_disabled":false,"rental_uris":{"android":"levelo://app?vid=92412088-1737-4639-80b7-44b07514caf3","ios":"levelo://app?vid=92412088-1737-4639-80b7-44b07514caf3"},"vehicle_type_id":"4","last_reported":1744463715,"current_range_meters":8400,"station_id":"ce4bhm12rcd13ifvqgkg","pricing_plan_id":"cebpf4jnsgd1na2vs0mg"},{"bike_id":"e5dec651-0b97-4bf0-a17c-ab07385ed30c","system_id":"levelo_inurba_marseille","lat":43.21749,"lon":5.34602,"is_reserved":false,"is_disabled":false,"rental_uris":{"android":"levelo://app?vid=e5dec651-0b97-4bf0-a17c-ab07385ed30c","ios":"levelo://app?vid=e5dec651-0b97-4bf0-a17c-ab07385ed30c"},"vehicle_type_id":"4","last_reported":1744463715,"current_range_meters":8400,"station_id":"st_cvj6r9ubvosntc0bgbag","pricing_plan_id":"cebpf4jnsgd1na2vs0mg"},{"bike_id":"ddb17e98-85f7-4dab-a874-d6caef8ad74a","system_id":"levelo_inurba_marseille","lat":43.255745,"lon":5.382347,"is_reserved":false,"is_disabled":false,"rental_uris":{"android":"levelo://app?vid=ddb17e98-85f7-4dab-a874-d6caef8ad74a","ios":"levelo://app?vid=ddb17e98-85f7-4dab-a874-d6caef8ad74a"},"vehicle_type_id":"4","last_reported":1744463715,"current_range_meters":8400,"station_id":"ce4bhih2rcd13ifvqfs0","pricing_plan_id":"cebpf4jnsgd1na2vs0mg"},{"bike_id":"6613a1c7-ed22-489f-9f91-0629a9e3009b","system_id":"levelo_inurba_marseille","lat":43.28941,"lon":5.36373,"is_reserved":false,"is_disabled":false,"rental_uris":{"android":"levelo://app?vid=6613a1c7-ed22-489f-9f91-0629a9e3009b","ios":"levelo://app?vid=6613a1c7-ed22-489f-9f91-0629a9e3009b"},"vehicle_type_id":"4","last_reported":1744463715,"current_range_meters":8000,"station_id":"ce4bhc92rcd13ifvqetg","pricing_plan_id":"cebpf4jnsgd1na2vs0mg"},{"bike_id":"3cb71dd9-0e89-4cb1-9b6f-54849838ae67","system_id":"levelo_inurba_marseille","lat":43.24801,"lon":5.37452,"is_reserved":false,"is_disabled":false,"rental_uris":{"android":"levelo://app?vid=3cb71dd9-0e89-4cb1-9b6f-54849838ae67","ios":"levelo://app?vid=3cb71dd9-0e89-4cb1-9b6f-54849838ae67"},"vehicle_type_id":"4","last_reported":1744463715,"current_range_meters":8800,"station_id":"ce4bhgh2rcd13ifvqfb0","pricing_plan_id":"cebpf4jnsgd1na2vs0mg"},{"bike_id":"dfdf4609-50c4-4e36-b092-57332842dc46","system_id":"levelo_inurba_marseille","lat":43.24177,"lon":5.39747,"is_reserved":false,"is_disabled":false,"rental_uris":{"android":"levelo://app?vid=dfdf4609-50c4-4e36-b092-57332842dc46","ios":"levelo://app?vid=dfdf4609-50c4-4e36-b092-57332842dc46"},"vehicle_type_id":"4","last_reported":1744463715,"current_range_meters":8800,"station_id":"ce4bhn12rcd13ifvqgpg","pricing_plan_id":"cebpf4jnsgd1na2vs0mg"},{"bike_id":"49815a2a-260e-4cfc-8823-51f23577d634","system_id":"levelo_inurba_marseille","lat":43.21188,"lon":5.35078,"is_reserved":false,"is_disabled":false,"rental_uris":{"android":"levelo://app?vid=49815a2a-260e-4cfc-8823-51f23577d634","ios":"levelo://app?vid=49815a2a-260e-4cfc-8823-51f23577d634"},"vehicle_type_id":"4","last_reported":1744463715,"current_range_meters":8800,"station_id":"st_cvj6sg6p6f1abm77japg","pricing_plan_id":"cebpf4jnsgd1na2vs0mg"},{"bike_id":"b105010c-b749-48b7-8743-e65c5024e2fe","system_id":"levelo_inurba_marseille","lat":43.25137,"lon":5.40339,"is_reserved":false,"is_disabled":false,"rental_uris":{"android":"levelo://app?vid=b105010c-b749-48b7-8743-e65c5024e2fe","ios":"levelo://app?vid=b105010c-b749-48b7-8743-e65c5024e2fe"},"vehicle_type_id":"4","last_reported":1744463715,"current_range_meters":8800,"station_id":"ce4bhlh2rcd13ifvqgig","pricing_plan_id":"cebpf4jnsgd1na2vs0mg"},{"bike_id":"132258cd-6d24-48c7-acc2-7f8948b67212","system_id":"levelo_inurba_marseille","lat":43.2862,"lon":5.35104,"is_reserved":false,"is_disabled":false,"rental_uris":{"android":"levelo://app?vid=132258cd-6d24-48c7-acc2-7f8948b67212","ios":"levelo://app?vid=132258cd-6d24-48c7-acc2-7f8948b67212"},"vehicle_type_id":"4","last_reported":1744463715,"current_range_meters":8800,"station_id":"ce4bhch2rcd13ifvqeug","pricing_plan_id":"cebpf4jnsgd1na2vs0mg"},{"bike_id":"72adaa87-94dc-4774-aca0-5147bc57bd16","system_id":"levelo_inurba_marseille","lat":43.260241,"lon":5.4174,"is_reserved":false,"is_disabled":false,"rental_uris":{"android":"levelo://app?vid=72adaa87-94dc-4774-aca0-5147bc57bd16","ios":"levelo://app?vid=72adaa87-94dc-4774-aca0-5147bc57bd16"},"vehicle_type_id":"4","last_reported":1744463715,"current_range_meters":8800,"station_id":"","pricing_plan_id":"cebpf4jnsgd1na2vs0mg"},{"bike_id":"f229e4c0-5e5f-46b7-a2a4-15826ff3e22b","system_id":"levelo_inurba_marseille","lat":43.26945,"lon":5.40251,"is_reserved":false,"is_disabled":false,"rental_uris":{"android":"levelo://app?vid=f229e4c0-5e5f-46b7-a2a4-15826ff3e22b","ios":"levelo://app?vid=f229e4c0-5e5f-46b7-a2a4-15826ff3e22b"},"vehicle_type_id":"4","last_reported":1744463715,"current_range_meters":8400,"station_id":"cjm6bp8fraef2m0cb0m0","pricing_plan_id":"cebpf4jnsgd1na2vs0mg"},{"bike_id":"108c4240-0ccf-42f2-aa39-d5f1283ed72a","system_id":"levelo_inurba_marseille","lat":43.27371,"lon":5.36255,"is_reserved":false,"is_disabled":false,"rental_uris":{"android":"levelo://app?vid=108c4240-0ccf-42f2-aa39-d5f1283ed72a","ios":"levelo://app?vid=108c4240-0ccf-42f2-aa39-d5f1283ed72a"},"vehicle_type_id":"4","last_reported":1744463715,"current_range_meters":8800,"station_id":"ce4bhbh2rcd13ifvqeo0","pricing_plan_id":"cebpf4jnsgd1na2vs0mg"},{"bike_id":"6e18db9e-ae37-4970-94b7-9e8fa1b98771","system_id":"levelo_inurba_marseille","lat":43.29255,"lon":5.40916,"is_reserved":false,"is_disabled":false,"rental_uris":{"android":"levelo://app?vid=6e18db9e-ae37-4970-94b7-9e8fa1b98771","ios":"levelo://app?vid=6e18db9e-ae37-4970-94b7-9e8fa1b98771"},"vehicle_type_id":"4","last_reported":1744463715,"current_range_meters":8800,"station_id":"ce4bh192rcd13ifvqdc0","pricing_plan_id":"cebpf4jnsgd1na2vs0mg"},{"bike_id":"a1a997e6-124c-4eaf-91d4-86ddb78f82c6","system_id":"levelo_inurba_marseille","lat":43.28667,"lon":5.36367,"is_reserved":false,"is_disabled":false,"rental_uris":{"android":"levelo://app?vid=a1a997e6-124c-4eaf-91d4-86ddb78f82c6","ios":"levelo://app?vid=a1a997e6-124c-4eaf-91d4-86ddb78f82c6"},"vehicle_type_id":"4","last_reported":1744463715,"current_range_meters":8800,"station_id":"ce4bhah2rcd13ifvqej0","pricing_plan_id":"cebpf4jnsgd1na2vs0mg"},{"bike_id":"4be9da57-ab2d-4acb-be91-23a0d106814a","system_id":"levelo_inurba_marseille","lat":43.2656,"lon":5.3729,"is_reserved":false,"is_disabled":false,"rental_uris":{"android":"levelo://app?vid=4be9da57-ab2d-4acb-be91-23a0d106814a","ios":"levelo://app?vid=4be9da57-ab2d-4acb-be91-23a0d106814a"},"vehicle_type_id":"4","last_reported":1744463715,"current_range_meters":9200,"station_id":"ce4bhg12rcd13ifvqf70","pricing_plan_id":"cebpf4jnsgd1na2vs0mg"},{"bike_id":"063354c9-0dc7-4015-9c95-f23789f489ec","system_id":"levelo_inurba_marseille","lat":43.28608,"lon":5.37067,"is_reserved":false,"is_disabled":false,"rental_uris":{"android":"levelo://app?vid=063354c9-0dc7-4015-9c95-f23789f489ec","ios":"levelo://app?vid=063354c9-0dc7-4015-9c95-f23789f489ec"},"vehicle_type_id":"4","last_reported":1744463715,"current_range_meters":9200,"station_id":"ce4bht12rcd13ifvqi60","pricing_plan_id":"cebpf4jnsgd1na2vs0mg"},{"bike_id":"df2f4e72-af0b-4cbe-8f72-ec96436de341","system_id":"levelo_inurba_marseille","lat":43.30893,"lon":5.37193,"is_reserved":false,"is_disabled":false,"rental_uris":{"android":"levelo://app?vid=df2f4e72-af0b-4cbe-8f72-ec96436de341","ios":"levelo://app?vid=df2f4e72-af0b-4cbe-8f72-ec96436de341"},"vehicle_type_id":"4","last_reported":1744463715,"current_range_meters":8800,"station_id":"ce4bguh2rcd13ifvqckg","pricing_plan_id":"cebpf4jnsgd1na2vs0mg"},{"bike_id":"411f282c-b696-41a4-888f-752e1134c529","system_id":"levelo_inurba_marseille","lat":43.2621,"lon":5.37461,"is_reserved":false,"is_disabled":false,"rental_uris":{"android":"levelo://app?vid=411f282c-b696-41a4-888f-752e1134c529","ios":"levelo://app?vid=411f282c-b696-41a4-888f-752e1134c529"},"vehicle_type_id":"4","last_reported":1744463715,"current_range_meters":9200,"station_id":"ce4bhgp2rcd13ifvqfc0","pricing_plan_id":"cebpf4jnsgd1na2vs0mg"},{"bike_id":"42291b47-e74d-49ac-821f-fd98d3a0f080","system_id":"levelo_inurba_marseille","lat":43.29779,"lon":5.37103,"is_reserved":false,"is_disabled":false,"rental_uris":{"android":"levelo://app?vid=42291b47-e74d-49ac-821f-fd98d3a0f080","ios":"levelo://app?vid=42291b47-e74d-49ac-821f-fd98d3a0f080"},"vehicle_type_id":"4","last_reported":1744463715,"current_range_meters":9200,"station_id":"ce4bgop2rcd13ifvqc1g","pricing_plan_id":"cebpf4jnsgd1na2vs0mg"},{"bike_id":"3f4ed773-62a4-4e4d-a97c-a6f97685056e","system_id":"levelo_inurba_marseille","lat":43.29785,"lon":5.38109,"is_reserved":false,"is_disabled":false,"rental_uris":{"android":"levelo://app?vid=3f4ed773-62a4-4e4d-a97c-a6f97685056e","ios":"levelo://app?vid=3f4ed773-62a4-4e4d-a97c-a6f97685056e"},"vehicle_type_id":"4","last_reported":1744463715,"current_range_meters":9200,"station_id":"ce4bgip2rcd13ifvqbb0","pricing_plan_id":"cebpf4jnsgd1na2vs0mg"},{"bike_id":"8c58f2fa-99e1-41f8-bf90-9c1648b679b1","system_id":"levelo_inurba_marseille","lat":43.27315,"lon":5.41416,"is_reserved":false,"is_disabled":false,"rental_uris":{"android":"levelo://app?vid=8c58f2fa-99e1-41f8-bf90-9c1648b679b1","ios":"levelo://app?vid=8c58f2fa-99e1-41f8-bf90-9c1648b679b1"},"vehicle_type_id":"4","last_reported":1744463715,"current_range_meters":9200,"station_id":"","pricing_plan_id":"cebpf4jnsgd1na2vs0mg"},{"bike_id":"aacaacc5-4d2c-4295-9357-7ba333864398","system_id":"levelo_inurba_marseille","lat":43.25454,"lon":5.37675,"is_reserved":false,"is_disabled":false,"rental_uris":{"android":"levelo://app?vid=aacaacc5-4d2c-4295-9357-7ba333864398","ios":"levelo://app?vid=aacaacc5-4d2c-4295-9357-7ba333864398"},"vehicle_type_id":"4","last_reported":1744463715,"current_range_meters":9200,"station_id":"","pricing_plan_id":"cebpf4jnsgd1na2vs0mg"},{"bike_id":"37864421-51e4-4d5e-801c-7ac32e01e722","system_id":"levelo_inurba_marseille","lat":43.31276,"lon":5.37824,"is_reserved":false,"is_disabled":false,"rental_uris":{"android":"levelo://app?vid=37864421-51e4-4d5e-801c-7ac32e01e722","ios":"levelo://app?vid=37864421-51e4-4d5e-801c-7ac32e01e722"},"vehicle_type_id":"4","last_reported":1744463715,"current_range_meters":9200,"station_id":"","pricing_plan_id":"cebpf4jnsgd1na2vs0mg"},{"bike_id":"1113b899-8693-4790-92e3-a3a6f077f86b","system_id":"levelo_inurba_marseille","lat":43.2721,"lon":5.39178,"is_reserved":false,"is_disabled":false,"rental_uris":{"android":"levelo://app?vid=1113b899-8693-4790-92e3-a3a6f077f86b","ios":"levelo://app?vid=1113b899-8693-4790-92e3-a3a6f077f86b"},"vehicle_type_id":"4","last_reported":1744463715,"current_range_meters":9200,"station_id":"ce4bhhp2rcd13ifvqfm0","pricing_plan_id":"cebpf4jnsgd1na2vs0mg"},{"bike_id":"fba14dc4-f065-46f4-a67b-b47ee9a5123b","system_id":"levelo_inurba_marseille","lat":43.29303,"lon":5.3718,"is_reserved":false,"is_disabled":true,"rental_uris":{"android":"levelo://app?vid=fba14dc4-f065-46f4-a67b-b47ee9a5123b","ios":"levelo://app?vid=fba14dc4-f065-46f4-a67b-b47ee9a5123b"},"vehicle_type_id":"4","last_reported":1744463715,"current_range_meters":9600,"station_id":"ce4bgh92rcd13ifvqb40","pricing_plan_id":"cebpf4jnsgd1na2vs0mg"},{"bike_id":"4c893399-b4ed-40ed-a49f-713da320f269","system_id":"levelo_inurba_marseille","lat":43.29861,"lon":5.37841,"is_reserved":false,"is_disabled":false,"rental_uris":{"android":"levelo://app?vid=4c893399-b4ed-40ed-a49f-713da320f269","ios":"levelo://app?vid=4c893399-b4ed-40ed-a49f-713da320f269"},"vehicle_type_id":"4","last_reported":1744463715,"current_range_meters":9600,"station_id":"","pricing_plan_id":"cebpf4jnsgd1na2vs0mg"},{"bike_id":"3ee52caa-cdf2-4b4c-ad45-6ecafc43f828","system_id":"levelo_inurba_marseille","lat":43.30349,"lon":5.41881,"is_reserved":false,"is_disabled":false,"rental_uris":{"android":"levelo://app?vid=3ee52caa-cdf2-4b4c-ad45-6ecafc43f828","ios":"levelo://app?vid=3ee52caa-cdf2-4b4c-ad45-6ecafc43f828"},"vehicle_type_id":"4","last_reported":1744463715,"current_range_meters":9600,"station_id":"ce4bhop2rcd13ifvqh7g","pricing_plan_id":"cebpf4jnsgd1na2vs0mg"},{"bike_id":"78795bbd-5632-4c2d-92bb-33168facec8b","system_id":"levelo_inurba_marseille","lat":43.26202,"lon":5.37467,"is_reserved":false,"is_disabled":false,"rental_uris":{"android":"levelo://app?vid=78795bbd-5632-4c2d-92bb-33168facec8b","ios":"levelo://app?vid=78795bbd-5632-4c2d-92bb-33168facec8b"},"vehicle_type_id":"4","last_reported":1744463715,"current_range_meters":9600,"station_id":"ce4bhgp2rcd13ifvqfc0","pricing_plan_id":"cebpf4jnsgd1na2vs0mg"},{"bike_id":"8771d8e7-52e5-4861-a854-83c0340c9927","system_id":"levelo_inurba_marseille","lat":43.21186,"lon":5.35083,"is_reserved":false,"is_disabled":false,"rental_uris":{"android":"levelo://app?vid=8771d8e7-52e5-4861-a854-83c0340c9927","ios":"levelo://app?vid=8771d8e7-52e5-4861-a854-83c0340c9927"},"vehicle_type_id":"4","last_reported":1744463715,"current_range_meters":9600,"station_id":"","pricing_plan_id":"cebpf4jnsgd1na2vs0mg"},{"bike_id":"f68a1051-67d0-4a88-8953-29bf1876f0a5","system_id":"levelo_inurba_marseille","lat":43.212008,"lon":5.350612,"is_reserved":false,"is_disabled":false,"rental_uris":{"android":"levelo://app?vid=f68a1051-67d0-4a88-8953-29bf1876f0a5","ios":"levelo://app?vid=f68a1051-67d0-4a88-8953-29bf1876f0a5"},"vehicle_type_id":"4","last_reported":1744463715,"current_range_meters":9600,"station_id":"st_cvj6sg6p6f1abm77japg","pricing_plan_id":"cebpf4jnsgd1na2vs0mg"},{"bike_id":"38183908-6893-4dfa-95e8-c1565a94cb53","system_id":"levelo_inurba_marseille","lat":43.23206,"lon":5.35557,"is_reserved":false,"is_disabled":false,"rental_uris":{"android":"levelo://app?vid=38183908-6893-4dfa-95e8-c1565a94cb53","ios":"levelo://app?vid=38183908-6893-4dfa-95e8-c1565a94cb53"},"vehicle_type_id":"4","last_reported":1744463715,"current_range_meters":10000,"station_id":"ce4bhu92rcd13ifvqi70","pricing_plan_id":"cebpf4jnsgd1na2vs0mg"},{"bike_id":"106c06eb-4b6b-450a-89c2-3caa4259f80a","system_id":"levelo_inurba_marseille","lat":43.302457,"lon":5.400683,"is_reserved":false,"is_disabled":false,"rental_uris":{"android":"levelo://app?vid=106c06eb-4b6b-450a-89c2-3caa4259f80a","ios":"levelo://app?vid=106c06eb-4b6b-450a-89c2-3caa4259f80a"},"vehicle_type_id":"4","last_reported":1744463715,"current_range_meters":10000,"station_id":"ce4bgvh2rcd13ifvqcs0","pricing_plan_id":"cebpf4jnsgd1na2vs0mg"},{"bike_id":"60100d62-77c4-4b9e-91f5-5961660ccbff","system_id":"levelo_inurba_marseille","lat":43.24803,"lon":5.37458,"is_reserved":false,"is_disabled":false,"rental_uris":{"android":"levelo://app?vid=60100d62-77c4-4b9e-91f5-5961660ccbff","ios":"levelo://app?vid=60100d62-77c4-4b9e-91f5-5961660ccbff"},"vehicle_type_id":"4","last_reported":1744463715,"current_range_meters":10000,"station_id":"ce4bhgh2rcd13ifvqfb0","pricing_plan_id":"cebpf4jnsgd1na2vs0mg"},{"bike_id":"95c976f4-e7c2-48bb-9de9-643dff048f08","system_id":"levelo_inurba_marseille","lat":43.29619,"lon":5.37153,"is_reserved":false,"is_disabled":false,"rental_uris":{"android":"levelo://app?vid=95c976f4-e7c2-48bb-9de9-643dff048f08","ios":"levelo://app?vid=95c976f4-e7c2-48bb-9de9-643dff048f08"},"vehicle_type_id":"4","last_reported":1744463715,"current_range_meters":10000,"station_id":"ce4bgnh2rcd13ifvqc0g","pricing_plan_id":"cebpf4jnsgd1na2vs0mg"},{"bike_id":"7e823819-4210-4ecc-9c25-4165c90b55fd","system_id":"levelo_inurba_marseille","lat":43.2737,"lon":5.36257,"is_reserved":false,"is_disabled":false,"rental_uris":{"android":"levelo://app?vid=7e823819-4210-4ecc-9c25-4165c90b55fd","ios":"levelo://app?vid=7e823819-4210-4ecc-9c25-4165c90b55fd"},"vehicle_type_id":"4","last_reported":1744463715,"current_range_meters":10000,"station_id":"ce4bhbh2rcd13ifvqeo0","pricing_plan_id":"cebpf4jnsgd1na2vs0mg"},{"bike_id":"c29d50db-ecff-4dfd-b453-fb4f8c29a86e","system_id":"levelo_inurba_marseille","lat":43.29277,"lon":5.36844,"is_reserved":false,"is_disabled":false,"rental_uris":{"android":"levelo://app?vid=c29d50db-ecff-4dfd-b453-fb4f8c29a86e","ios":"levelo://app?vid=c29d50db-ecff-4dfd-b453-fb4f8c29a86e"},"vehicle_type_id":"4","last_reported":1744463715,"current_range_meters":10000,"station_id":"ce4bhbp2rcd13ifvqesg","pricing_plan_id":"cebpf4jnsgd1na2vs0mg"},{"bike_id":"096f78b5-fb6d-4b49-ab0f-8c9ff0fc667e","system_id":"levelo_inurba_marseille","lat":43.26789,"lon":5.39417,"is_reserved":false,"is_disabled":false,"rental_uris":{"android":"levelo://app?vid=096f78b5-fb6d-4b49-ab0f-8c9ff0fc667e","ios":"levelo://app?vid=096f78b5-fb6d-4b49-ab0f-8c9ff0fc667e"},"vehicle_type_id":"4","last_reported":1744463715,"current_range_meters":10000,"station_id":"ce4bhh12rcd13ifvqfg0","pricing_plan_id":"cebpf4jnsgd1na2vs0mg"},{"bike_id":"d453ec81-40ff-492e-a0e1-97de3196553c","system_id":"levelo_inurba_marseille","lat":43.2849,"lon":5.3842,"is_reserved":false,"is_disabled":false,"rental_uris":{"android":"levelo://app?vid=d453ec81-40ff-492e-a0e1-97de3196553c","ios":"levelo://app?vid=d453ec81-40ff-492e-a0e1-97de3196553c"},"vehicle_type_id":"4","last_reported":1744463715,"current_range_meters":10800,"station_id":"ce4bh512rcd13ifvqe3g","pricing_plan_id":"cebpf4jnsgd1na2vs0mg"},{"bike_id":"c013d600-5e08-48f0-830e-8c965978436b","system_id":"levelo_inurba_marseille","lat":43.30427,"lon":5.38889,"is_reserved":false,"is_disabled":true,"rental_uris":{"android":"levelo://app?vid=c013d600-5e08-48f0-830e-8c965978436b","ios":"levelo://app?vid=c013d600-5e08-48f0-830e-8c965978436b"},"vehicle_type_id":"4","last_reported":1744463715,"current_range_meters":10800,"station_id":"ce4bgk12rcd13ifvqbi0","pricing_plan_id":"cebpf4jnsgd1na2vs0mg"},{"bike_id":"47df54fa-9868-413c-a07b-a88614eb280e","system_id":"levelo_inurba_marseille","lat":43.27054,"lon":5.40271,"is_reserved":false,"is_disabled":false,"rental_uris":{"android":"levelo://app?vid=47df54fa-9868-413c-a07b-a88614eb280e","ios":"levelo://app?vid=47df54fa-9868-413c-a07b-a88614eb280e"},"vehicle_type_id":"4","last_reported":1744463715,"current_range_meters":10800,"station_id":"ce4bhk92rcd13ifvqgc0","pricing_plan_id":"cebpf4jnsgd1na2vs0mg"},{"bike_id":"4a0973b0-92a0-41e8-9b0d-a99e944bafe0","system_id":"levelo_inurba_marseille","lat":43.3449,"lon":5.41287,"is_reserved":false,"is_disabled":false,"rental_uris":{"android":"levelo://app?vid=4a0973b0-92a0-41e8-9b0d-a99e944bafe0","ios":"levelo://app?vid=4a0973b0-92a0-41e8-9b0d-a99e944bafe0"},"vehicle_type_id":"4","last_reported":1744463715,"current_range_meters":10800,"station_id":"","pricing_plan_id":"cebpf4jnsgd1na2vs0mg"},{"bike_id":"29fd9406-b872-4408-b90c-f1d9e5190468","system_id":"levelo_inurba_marseille","lat":43.23143,"lon":5.43718,"is_reserved":false,"is_disabled":false,"rental_uris":{"android":"levelo://app?vid=29fd9406-b872-4408-b90c-f1d9e5190468","ios":"levelo://app?vid=29fd9406-b872-4408-b90c-f1d9e5190468"},"vehicle_type_id":"4","last_reported":1744463715,"current_range_meters":10800,"station_id":"ce4bhmp2rcd13ifvqgog","pricing_plan_id":"cebpf4jnsgd1na2vs0mg"},{"bike_id":"eaf80d70-cddb-4554-a862-35d7332d502c","system_id":"levelo_inurba_marseille","lat":43.29259,"lon":5.38439,"is_reserved":false,"is_disabled":false,"rental_uris":{"android":"levelo://app?vid=eaf80d70-cddb-4554-a862-35d7332d502c","ios":"levelo://app?vid=eaf80d70-cddb-4554-a862-35d7332d502c"},"vehicle_type_id":"4","last_reported":1744463715,"current_range_meters":10800,"station_id":"ce4bh692rcd13ifvqea0","pricing_plan_id":"cebpf4jnsgd1na2vs0mg"},{"bike_id":"d53356ed-34e7-4ce0-8d94-e073954cdd85","system_id":"levelo_inurba_marseille","lat":43.27066,"lon":5.40252,"is_reserved":false,"is_disabled":true,"rental_uris":{"android":"levelo://app?vid=d53356ed-34e7-4ce0-8d94-e073954cdd85","ios":"levelo://app?vid=d53356ed-34e7-4ce0-8d94-e073954cdd85"},"vehicle_type_id":"4","last_reported":1744463715,"current_range_meters":11200,"station_id":"ce4bhk92rcd13ifvqgc0","pricing_plan_id":"cebpf4jnsgd1na2vs0mg"},{"bike_id":"29bb8342-1565-4f1d-bd02-b3dbb495aaaf","system_id":"levelo_inurba_marseille","lat":43.264926,"lon":5.395393,"is_reserved":false,"is_disabled":false,"rental_uris":{"android":"levelo://app?vid=29bb8342-1565-4f1d-bd02-b3dbb495aaaf","ios":"levelo://app?vid=29bb8342-1565-4f1d-bd02-b3dbb495aaaf"},"vehicle_type_id":"4","last_reported":1744463715,"current_range_meters":11200,"station_id":"ce4bhi12rcd13ifvqfq0","pricing_plan_id":"cebpf4jnsgd1na2vs0mg"},{"bike_id":"2c8e4d1b-a81a-4d0c-bb90-9fd3b9725700","system_id":"levelo_inurba_marseille","lat":43.27199,"lon":5.39192,"is_reserved":false,"is_disabled":false,"rental_uris":{"android":"levelo://app?vid=2c8e4d1b-a81a-4d0c-bb90-9fd3b9725700","ios":"levelo://app?vid=2c8e4d1b-a81a-4d0c-bb90-9fd3b9725700"},"vehicle_type_id":"4","last_reported":1744463715,"current_range_meters":11200,"station_id":"ce4bhhp2rcd13ifvqfm0","pricing_plan_id":"cebpf4jnsgd1na2vs0mg"},{"bike_id":"c34ec5c1-4c72-4ca4-a836-572c39395efb","system_id":"levelo_inurba_marseille","lat":43.26562,"lon":5.37285,"is_reserved":false,"is_disabled":false,"rental_uris":{"android":"levelo://app?vid=c34ec5c1-4c72-4ca4-a836-572c39395efb","ios":"levelo://app?vid=c34ec5c1-4c72-4ca4-a836-572c39395efb"},"vehicle_type_id":"4","last_reported":1744463715,"current_range_meters":11200,"station_id":"ce4bhg12rcd13ifvqf70","pricing_plan_id":"cebpf4jnsgd1na2vs0mg"},{"bike_id":"ca53d29e-e351-4aff-b804-ee9eb164e966","system_id":"levelo_inurba_marseille","lat":43.28154,"lon":5.42647,"is_reserved":false,"is_disabled":false,"rental_uris":{"android":"levelo://app?vid=ca53d29e-e351-4aff-b804-ee9eb164e966","ios":"levelo://app?vid=ca53d29e-e351-4aff-b804-ee9eb164e966"},"vehicle_type_id":"4","last_reported":1744463715,"current_range_meters":11200,"station_id":"ce4bhnh2rcd13ifvqgug","pricing_plan_id":"cebpf4jnsgd1na2vs0mg"},{"bike_id":"ef291804-1477-432e-b153-82ea15725418","system_id":"levelo_inurba_marseille","lat":43.33742,"lon":5.37454,"is_reserved":false,"is_disabled":false,"rental_uris":{"android":"levelo://app?vid=ef291804-1477-432e-b153-82ea15725418","ios":"levelo://app?vid=ef291804-1477-432e-b153-82ea15725418"},"vehicle_type_id":"4","last_reported":1744463715,"current_range_meters":11200,"station_id":"","pricing_plan_id":"cebpf4jnsgd1na2vs0mg"},{"bike_id":"927626f0-1990-4706-aa4d-35055d22281a","system_id":"levelo_inurba_marseille","lat":43.308268,"lon":5.372397,"is_reserved":false,"is_disabled":false,"rental_uris":{"android":"levelo://app?vid=927626f0-1990-4706-aa4d-35055d22281a","ios":"levelo://app?vid=927626f0-1990-4706-aa4d-35055d22281a"},"vehicle_type_id":"4","last_reported":1744463715,"current_range_meters":11600,"station_id":"","pricing_plan_id":"cebpf4jnsgd1na2vs0mg"},{"bike_id":"d02caab2-1de8-447d-ace6-c22c04559def","system_id":"levelo_inurba_marseille","lat":43.3025,"lon":5.4007,"is_reserved":false,"is_disabled":false,"rental_uris":{"android":"levelo://app?vid=d02caab2-1de8-447d-ace6-c22c04559def","ios":"levelo://app?vid=d02caab2-1de8-447d-ace6-c22c04559def"},"vehicle_type_id":"4","last_reported":1744463715,"current_range_meters":11600,"station_id":"ce4bgvh2rcd13ifvqcs0","pricing_plan_id":"cebpf4jnsgd1na2vs0mg"},{"bike_id":"344c8b65-50f6-4829-b1ed-44cd58120273","system_id":"levelo_inurba_marseille","lat":43.24803,"lon":5.37463,"is_reserved":false,"is_disabled":false,"rental_uris":{"android":"levelo://app?vid=344c8b65-50f6-4829-b1ed-44cd58120273","ios":"levelo://app?vid=344c8b65-50f6-4829-b1ed-44cd58120273"},"vehicle_type_id":"4","last_reported":1744463715,"current_range_meters":11600,"station_id":"ce4bhgh2rcd13ifvqfb0","pricing_plan_id":"cebpf4jnsgd1na2vs0mg"},{"bike_id":"96d46f61-c080-498c-8fef-6881b722d31e","system_id":"levelo_inurba_marseille","lat":43.31716,"lon":5.43706,"is_reserved":false,"is_disabled":false,"rental_uris":{"android":"levelo://app?vid=96d46f61-c080-498c-8fef-6881b722d31e","ios":"levelo://app?vid=96d46f61-c080-498c-8fef-6881b722d31e"},"vehicle_type_id":"4","last_reported":1744463715,"current_range_meters":12000,"station_id":"ce4bhp92rcd13ifvqhcg","pricing_plan_id":"cebpf4jnsgd1na2vs0mg"},{"bike_id":"d8f603cd-3b83-4148-bab8-3a185ad2a59f","system_id":"levelo_inurba_marseille","lat":43.32375,"lon":5.38885,"is_reserved":false,"is_disabled":false,"rental_uris":{"android":"levelo://app?vid=d8f603cd-3b83-4148-bab8-3a185ad2a59f","ios":"levelo://app?vid=d8f603cd-3b83-4148-bab8-3a185ad2a59f"},"vehicle_type_id":"4","last_reported":1744463715,"current_range_meters":12000,"station_id":"ce4bhqp2rcd13ifvqhog","pricing_plan_id":"cebpf4jnsgd1na2vs0mg"},{"bike_id":"f7d1eee0-1715-419d-beac-1b98ec9e62ed","system_id":"levelo_inurba_marseille","lat":43.30959,"lon":5.39037,"is_reserved":false,"is_disabled":true,"rental_uris":{"android":"levelo://app?vid=f7d1eee0-1715-419d-beac-1b98ec9e62ed","ios":"levelo://app?vid=f7d1eee0-1715-419d-beac-1b98ec9e62ed"},"vehicle_type_id":"4","last_reported":1744463715,"current_range_meters":12000,"station_id":"ce4bgup2rcd13ifvqco0","pricing_plan_id":"cebpf4jnsgd1na2vs0mg"},{"bike_id":"817f8d7f-6d20-49fe-9d47-a64e5e5e1a3b","system_id":"levelo_inurba_marseille","lat":43.261819,"lon":5.37451,"is_reserved":false,"is_disabled":false,"rental_uris":{"android":"levelo://app?vid=817f8d7f-6d20-49fe-9d47-a64e5e5e1a3b","ios":"levelo://app?vid=817f8d7f-6d20-49fe-9d47-a64e5e5e1a3b"},"vehicle_type_id":"4","last_reported":1744463715,"current_range_meters":12000,"station_id":"ce4bh512rcd13ifvqe3g","pricing_plan_id":"cebpf4jnsgd1na2vs0mg"},{"bike_id":"450de126-a945-4b15-b34f-6ffd5c99e1ff","system_id":"levelo_inurba_marseille","lat":43.27374,"lon":5.36259,"is_reserved":false,"is_disabled":false,"rental_uris":{"android":"levelo://app?vid=450de126-a945-4b15-b34f-6ffd5c99e1ff","ios":"levelo://app?vid=450de126-a945-4b15-b34f-6ffd5c99e1ff"},"vehicle_type_id":"4","last_reported":1744463715,"current_range_meters":12000,"station_id":"ce4bhbh2rcd13ifvqeo0","pricing_plan_id":"cebpf4jnsgd1na2vs0mg"},{"bike_id":"0e7bf4ae-5aed-4055-a1f8-96debbb9847e","system_id":"levelo_inurba_marseille","lat":43.24169,"lon":5.36403,"is_reserved":false,"is_disabled":false,"rental_uris":{"android":"levelo://app?vid=0e7bf4ae-5aed-4055-a1f8-96debbb9847e","ios":"levelo://app?vid=0e7bf4ae-5aed-4055-a1f8-96debbb9847e"},"vehicle_type_id":"4","last_reported":1744463715,"current_range_meters":12000,"station_id":"cpo36qri1sfpv3e86is0","pricing_plan_id":"cebpf4jnsgd1na2vs0mg"},{"bike_id":"8609ec5b-db31-4682-89f6-95794d251c5e","system_id":"levelo_inurba_marseille","lat":43.23154,"lon":5.43709,"is_reserved":false,"is_disabled":false,"rental_uris":{"android":"levelo://app?vid=8609ec5b-db31-4682-89f6-95794d251c5e","ios":"levelo://app?vid=8609ec5b-db31-4682-89f6-95794d251c5e"},"vehicle_type_id":"4","last_reported":1744463715,"current_range_meters":12000,"station_id":"ce4bhmp2rcd13ifvqgog","pricing_plan_id":"cebpf4jnsgd1na2vs0mg"},{"bike_id":"5b77a833-8185-45c2-9fe3-07eb40df54ca","system_id":"levelo_inurba_marseille","lat":43.33995,"lon":5.38057,"is_reserved":false,"is_disabled":false,"rental_uris":{"android":"levelo://app?vid=5b77a833-8185-45c2-9fe3-07eb40df54ca","ios":"levelo://app?vid=5b77a833-8185-45c2-9fe3-07eb40df54ca"},"vehicle_type_id":"4","last_reported":1744463715,"current_range_meters":12000,"station_id":"","pricing_plan_id":"cebpf4jnsgd1na2vs0mg"},{"bike_id":"85157d92-d3cd-4ab9-aef7-ff297fa13d42","system_id":"levelo_inurba_marseille","lat":43.27381,"lon":5.36257,"is_reserved":false,"is_disabled":false,"rental_uris":{"android":"levelo://app?vid=85157d92-d3cd-4ab9-aef7-ff297fa13d42","ios":"levelo://app?vid=85157d92-d3cd-4ab9-aef7-ff297fa13d42"},"vehicle_type_id":"4","last_reported":1744463715,"current_range_meters":12400,"station_id":"ce4bhbh2rcd13ifvqeo0","pricing_plan_id":"cebpf4jnsgd1na2vs0mg"},{"bike_id":"9a297965-1603-4e0d-af70-c225fa4f1b04","system_id":"levelo_inurba_marseille","lat":43.28407,"lon":5.3499,"is_reserved":false,"is_disabled":false,"rental_uris":{"android":"levelo://app?vid=9a297965-1603-4e0d-af70-c225fa4f1b04","ios":"levelo://app?vid=9a297965-1603-4e0d-af70-c225fa4f1b04"},"vehicle_type_id":"4","last_reported":1744463715,"current_range_meters":12400,"station_id":"ce4bhbh2rcd13ifvqepg","pricing_plan_id":"cebpf4jnsgd1na2vs0mg"},{"bike_id":"7f3ec7ca-6690-4388-9636-6e6346a87449","system_id":"levelo_inurba_marseille","lat":43.28852,"lon":5.39311,"is_reserved":false,"is_disabled":false,"rental_uris":{"android":"levelo://app?vid=7f3ec7ca-6690-4388-9636-6e6346a87449","ios":"levelo://app?vid=7f3ec7ca-6690-4388-9636-6e6346a87449"},"vehicle_type_id":"4","last_reported":1744463715,"current_range_meters":12400,"station_id":"ce4bh2p2rcd13ifvqdi0","pricing_plan_id":"cebpf4jnsgd1na2vs0mg"},{"bike_id":"ab802cde-5f33-4b33-8070-bb3b8826ee4c","system_id":"levelo_inurba_marseille","lat":43.297202,"lon":5.366083,"is_reserved":false,"is_disabled":false,"rental_uris":{"android":"levelo://app?vid=ab802cde-5f33-4b33-8070-bb3b8826ee4c","ios":"levelo://app?vid=ab802cde-5f33-4b33-8070-bb3b8826ee4c"},"vehicle_type_id":"4","last_reported":1744463715,"current_range_meters":12400,"station_id":"ce4bgn12rcd13ifvqbt0","pricing_plan_id":"cebpf4jnsgd1na2vs0mg"},{"bike_id":"330ee463-8abc-418f-8ac5-acb1e30fac66","system_id":"levelo_inurba_marseille","lat":43.25583,"lon":5.38247,"is_reserved":false,"is_disabled":false,"rental_uris":{"android":"levelo://app?vid=330ee463-8abc-418f-8ac5-acb1e30fac66","ios":"levelo://app?vid=330ee463-8abc-418f-8ac5-acb1e30fac66"},"vehicle_type_id":"4","last_reported":1744463715,"current_range_meters":12800,"station_id":"ce4bhih2rcd13ifvqfs0","pricing_plan_id":"cebpf4jnsgd1na2vs0mg"},{"bike_id":"51dc8199-144f-4a94-ad4f-7d876bf3a49d","system_id":"levelo_inurba_marseille","lat":43.297821,"lon":5.370914,"is_reserved":false,"is_disabled":false,"rental_uris":{"android":"levelo://app?vid=51dc8199-144f-4a94-ad4f-7d876bf3a49d","ios":"levelo://app?vid=51dc8199-144f-4a94-ad4f-7d876bf3a49d"},"vehicle_type_id":"4","last_reported":1744463715,"current_range_meters":12800,"station_id":"ce4bgop2rcd13ifvqc1g","pricing_plan_id":"cebpf4jnsgd1na2vs0mg"},{"bike_id":"493cde9e-7859-4c26-a2e6-f744ee5d8553","system_id":"levelo_inurba_marseille","lat":43.31768,"lon":5.36779,"is_reserved":false,"is_disabled":false,"rental_uris":{"android":"levelo://app?vid=493cde9e-7859-4c26-a2e6-f744ee5d8553","ios":"levelo://app?vid=493cde9e-7859-4c26-a2e6-f744ee5d8553"},"vehicle_type_id":"4","last_reported":1744463715,"current_range_meters":12800,"station_id":"","pricing_plan_id":"cebpf4jnsgd1na2vs0mg"},{"bike_id":"0989f817-3bcd-45e8-a29f-e0df1e0b89af","system_id":"levelo_inurba_marseille","lat":43.29041,"lon":5.39967,"is_reserved":false,"is_disabled":false,"rental_uris":{"android":"levelo://app?vid=0989f817-3bcd-45e8-a29f-e0df1e0b89af","ios":"levelo://app?vid=0989f817-3bcd-45e8-a29f-e0df1e0b89af"},"vehicle_type_id":"4","last_reported":1744463715,"current_range_meters":12800,"station_id":"ce4bh392rcd13ifvqdm0","pricing_plan_id":"cebpf4jnsgd1na2vs0mg"},{"bike_id":"c047401e-911f-47c5-88c3-12ac03cbf1ed","system_id":"levelo_inurba_marseille","lat":43.21189,"lon":5.3507,"is_reserved":false,"is_disabled":false,"rental_uris":{"android":"levelo://app?vid=c047401e-911f-47c5-88c3-12ac03cbf1ed","ios":"levelo://app?vid=c047401e-911f-47c5-88c3-12ac03cbf1ed"},"vehicle_type_id":"4","last_reported":1744463715,"current_range_meters":12800,"station_id":"st_cvj6sg6p6f1abm77japg","pricing_plan_id":"cebpf4jnsgd1na2vs0mg"},{"bike_id":"55692b1b-3359-4acd-b03e-bf8bbb02861e","system_id":"levelo_inurba_marseille","lat":43.289978,"lon":5.356165,"is_reserved":false,"is_disabled":false,"rental_uris":{"android":"levelo://app?vid=55692b1b-3359-4acd-b03e-bf8bbb02861e","ios":"levelo://app?vid=55692b1b-3359-4acd-b03e-bf8bbb02861e"},"vehicle_type_id":"4","last_reported":1744463715,"current_range_meters":12800,"station_id":"ce4bhb92rcd13ifvqen0","pricing_plan_id":"cebpf4jnsgd1na2vs0mg"},{"bike_id":"8621e295-3526-4464-be82-74c49f48a833","system_id":"levelo_inurba_marseille","lat":43.21742,"lon":5.34605,"is_reserved":false,"is_disabled":false,"rental_uris":{"android":"levelo://app?vid=8621e295-3526-4464-be82-74c49f48a833","ios":"levelo://app?vid=8621e295-3526-4464-be82-74c49f48a833"},"vehicle_type_id":"4","last_reported":1744463715,"current_range_meters":13600,"station_id":"","pricing_plan_id":"cebpf4jnsgd1na2vs0mg"},{"bike_id":"2f5bc015-0a98-4a0d-a50f-f7181e1d6abe","system_id":"levelo_inurba_marseille","lat":43.234,"lon":5.4124,"is_reserved":false,"is_disabled":false,"rental_uris":{"android":"levelo://app?vid=2f5bc015-0a98-4a0d-a50f-f7181e1d6abe","ios":"levelo://app?vid=2f5bc015-0a98-4a0d-a50f-f7181e1d6abe"},"vehicle_type_id":"4","last_reported":1744463715,"current_range_meters":13600,"station_id":"","pricing_plan_id":"cebpf4jnsgd1na2vs0mg"},{"bike_id":"44bf08b5-c88f-4c1e-ac4e-9da02e3ddbd3","system_id":"levelo_inurba_marseille","lat":43.29873,"lon":5.3974,"is_reserved":false,"is_disabled":false,"rental_uris":{"android":"levelo://app?vid=44bf08b5-c88f-4c1e-ac4e-9da02e3ddbd3","ios":"levelo://app?vid=44bf08b5-c88f-4c1e-ac4e-9da02e3ddbd3"},"vehicle_type_id":"4","last_reported":1744463715,"current_range_meters":13600,"station_id":"ce4bh0h2rcd13ifvqd50","pricing_plan_id":"cebpf4jnsgd1na2vs0mg"},{"bike_id":"cd42ef9f-5a27-4d37-b4b1-37a92d3b9145","system_id":"levelo_inurba_marseille","lat":43.23967,"lon":5.36638,"is_reserved":false,"is_disabled":false,"rental_uris":{"android":"levelo://app?vid=cd42ef9f-5a27-4d37-b4b1-37a92d3b9145","ios":"levelo://app?vid=cd42ef9f-5a27-4d37-b4b1-37a92d3b9145"},"vehicle_type_id":"4","last_reported":1744463715,"current_range_meters":13600,"station_id":"ce4bhi12rcd13ifvqfp0","pricing_plan_id":"cebpf4jnsgd1na2vs0mg"},{"bike_id":"90cddebc-2506-42ee-9df1-36a6154dff75","system_id":"levelo_inurba_marseille","lat":43.241633,"lon":5.363888,"is_reserved":false,"is_disabled":false,"rental_uris":{"android":"levelo://app?vid=90cddebc-2506-42ee-9df1-36a6154dff75","ios":"levelo://app?vid=90cddebc-2506-42ee-9df1-36a6154dff75"},"vehicle_type_id":"4","last_reported":1744463715,"current_range_meters":13600,"station_id":"cpo36qri1sfpv3e86is0","pricing_plan_id":"cebpf4jnsgd1na2vs0mg"},{"bike_id":"0434c72c-1b0e-409b-baf5-3fa178efb6c3","system_id":"levelo_inurba_marseille","lat":43.21192,"lon":5.35073,"is_reserved":false,"is_disabled":false,"rental_uris":{"android":"levelo://app?vid=0434c72c-1b0e-409b-baf5-3fa178efb6c3","ios":"levelo://app?vid=0434c72c-1b0e-409b-baf5-3fa178efb6c3"},"vehicle_type_id":"4","last_reported":1744463715,"current_range_meters":14000,"station_id":"st_cvj6sg6p6f1abm77japg","pricing_plan_id":"cebpf4jnsgd1na2vs0mg"},{"bike_id":"6d15af86-98c4-428d-92bc-53013be61e03","system_id":"levelo_inurba_marseille","lat":43.21194,"lon":5.35077,"is_reserved":false,"is_disabled":false,"rental_uris":{"android":"levelo://app?vid=6d15af86-98c4-428d-92bc-53013be61e03","ios":"levelo://app?vid=6d15af86-98c4-428d-92bc-53013be61e03"},"vehicle_type_id":"4","last_reported":1744463715,"current_range_meters":14000,"station_id":"ce4bgkp2rcd13ifvqbmg","pricing_plan_id":"cebpf4jnsgd1na2vs0mg"},{"bike_id":"81243840-d644-43e1-a0ea-b2022c7a5d6b","system_id":"levelo_inurba_marseille","lat":43.30141,"lon":5.3878,"is_reserved":false,"is_disabled":false,"rental_uris":{"android":"levelo://app?vid=81243840-d644-43e1-a0ea-b2022c7a5d6b","ios":"levelo://app?vid=81243840-d644-43e1-a0ea-b2022c7a5d6b"},"vehicle_type_id":"4","last_reported":1744463715,"current_range_meters":13600,"station_id":"ce4bghh2rcd13ifvqb60","pricing_plan_id":"cebpf4jnsgd1na2vs0mg"},{"bike_id":"61bc6256-8380-4638-bd27-1e2c56ecc87d","system_id":"levelo_inurba_marseille","lat":43.29715,"lon":5.37671,"is_reserved":false,"is_disabled":false,"rental_uris":{"android":"levelo://app?vid=61bc6256-8380-4638-bd27-1e2c56ecc87d","ios":"levelo://app?vid=61bc6256-8380-4638-bd27-1e2c56ecc87d"},"vehicle_type_id":"4","last_reported":1744463715,"current_range_meters":14000,"station_id":"ce4bgkh2rcd13ifvqbl0","pricing_plan_id":"cebpf4jnsgd1na2vs0mg"},{"bike_id":"8736fead-7da5-4200-bfce-c0b822d5f7c4","system_id":"levelo_inurba_marseille","lat":43.267874,"lon":5.394147,"is_reserved":false,"is_disabled":false,"rental_uris":{"android":"levelo://app?vid=8736fead-7da5-4200-bfce-c0b822d5f7c4","ios":"levelo://app?vid=8736fead-7da5-4200-bfce-c0b822d5f7c4"},"vehicle_type_id":"4","last_reported":1744463715,"current_range_meters":14400,"station_id":"ce4bhh12rcd13ifvqfg0","pricing_plan_id":"cebpf4jnsgd1na2vs0mg"},{"bike_id":"f7843f46-58aa-4cf6-a1d0-1b94b16f71c2","system_id":"levelo_inurba_marseille","lat":43.29844,"lon":5.396625,"is_reserved":false,"is_disabled":false,"rental_uris":{"android":"levelo://app?vid=f7843f46-58aa-4cf6-a1d0-1b94b16f71c2","ios":"levelo://app?vid=f7843f46-58aa-4cf6-a1d0-1b94b16f71c2"},"vehicle_type_id":"4","last_reported":1744463715,"current_range_meters":14400,"station_id":"","pricing_plan_id":"cebpf4jnsgd1na2vs0mg"},{"bike_id":"4425a792-ca9a-4257-84b0-8230c1e53350","system_id":"levelo_inurba_marseille","lat":43.26209,"lon":5.37439,"is_reserved":false,"is_disabled":false,"rental_uris":{"android":"levelo://app?vid=4425a792-ca9a-4257-84b0-8230c1e53350","ios":"levelo://app?vid=4425a792-ca9a-4257-84b0-8230c1e53350"},"vehicle_type_id":"4","last_reported":1744463715,"current_range_meters":14400,"station_id":"ce4bhgp2rcd13ifvqfc0","pricing_plan_id":"cebpf4jnsgd1na2vs0mg"},{"bike_id":"84d4fb8b-dae5-4e33-8e6d-fa93e22f48c3","system_id":"levelo_inurba_marseille","lat":43.211944,"lon":5.350733,"is_reserved":false,"is_disabled":false,"rental_uris":{"android":"levelo://app?vid=84d4fb8b-dae5-4e33-8e6d-fa93e22f48c3","ios":"levelo://app?vid=84d4fb8b-dae5-4e33-8e6d-fa93e22f48c3"},"vehicle_type_id":"4","last_reported":1744463715,"current_range_meters":14400,"station_id":"st_cvj6sg6p6f1abm77japg","pricing_plan_id":"cebpf4jnsgd1na2vs0mg"},{"bike_id":"49663c53-364c-4097-8c69-489e53add191","system_id":"levelo_inurba_marseille","lat":43.29609,"lon":5.37718,"is_reserved":false,"is_disabled":false,"rental_uris":{"android":"levelo://app?vid=49663c53-364c-4097-8c69-489e53add191","ios":"levelo://app?vid=49663c53-364c-4097-8c69-489e53add191"},"vehicle_type_id":"4","last_reported":1744463715,"current_range_meters":14400,"station_id":"ce4bgi92rcd13ifvqb90","pricing_plan_id":"cebpf4jnsgd1na2vs0mg"},{"bike_id":"eae70ce3-1639-4da5-90d4-12b2a2731aa3","system_id":"levelo_inurba_marseille","lat":43.25716,"lon":5.41114,"is_reserved":false,"is_disabled":false,"rental_uris":{"android":"levelo://app?vid=eae70ce3-1639-4da5-90d4-12b2a2731aa3","ios":"levelo://app?vid=eae70ce3-1639-4da5-90d4-12b2a2731aa3"},"vehicle_type_id":"4","last_reported":1744463715,"current_range_meters":14400,"station_id":"ce4bhkp2rcd13ifvqgd0","pricing_plan_id":"cebpf4jnsgd1na2vs0mg"},{"bike_id":"492cb023-9e48-4fa4-a9ec-7f82f6a1f482","system_id":"levelo_inurba_marseille","lat":43.28273,"lon":5.35074,"is_reserved":false,"is_disabled":false,"rental_uris":{"android":"levelo://app?vid=492cb023-9e48-4fa4-a9ec-7f82f6a1f482","ios":"levelo://app?vid=492cb023-9e48-4fa4-a9ec-7f82f6a1f482"},"vehicle_type_id":"4","last_reported":1744463715,"current_range_meters":14000,"station_id":"ce4bhbp2rcd13ifvqerg","pricing_plan_id":"cebpf4jnsgd1na2vs0mg"},{"bike_id":"4f053de6-8b3b-41e8-810b-ae9506fd80c8","system_id":"levelo_inurba_marseille","lat":43.30547,"lon":5.36542,"is_reserved":false,"is_disabled":false,"rental_uris":{"android":"levelo://app?vid=4f053de6-8b3b-41e8-810b-ae9506fd80c8","ios":"levelo://app?vid=4f053de6-8b3b-41e8-810b-ae9506fd80c8"},"vehicle_type_id":"4","last_reported":1744463715,"current_range_meters":14400,"station_id":"ce4bgs12rcd13ifvqcag","pricing_plan_id":"cebpf4jnsgd1na2vs0mg"},{"bike_id":"856b5c7d-f029-4c12-b7be-71279018b265","system_id":"levelo_inurba_marseille","lat":43.241686,"lon":5.36398,"is_reserved":false,"is_disabled":false,"rental_uris":{"android":"levelo://app?vid=856b5c7d-f029-4c12-b7be-71279018b265","ios":"levelo://app?vid=856b5c7d-f029-4c12-b7be-71279018b265"},"vehicle_type_id":"4","last_reported":1744463715,"current_range_meters":14800,"station_id":"cpo36qri1sfpv3e86is0","pricing_plan_id":"cebpf4jnsgd1na2vs0mg"},{"bike_id":"04e0beb1-4dff-4123-b43e-e1b4fc2309c4","system_id":"levelo_inurba_marseille","lat":43.31221,"lon":5.36873,"is_reserved":false,"is_disabled":false,"rental_uris":{"android":"levelo://app?vid=04e0beb1-4dff-4123-b43e-e1b4fc2309c4","ios":"levelo://app?vid=04e0beb1-4dff-4123-b43e-e1b4fc2309c4"},"vehicle_type_id":"4","last_reported":1744463715,"current_range_meters":14800,"station_id":"ce4bgl92rcd13ifvqbq0","pricing_plan_id":"cebpf4jnsgd1na2vs0mg"},{"bike_id":"f2d822d9-9460-4e9f-885f-a6d7e0bbd58a","system_id":"levelo_inurba_marseille","lat":43.296854,"lon":5.377606,"is_reserved":false,"is_disabled":false,"rental_uris":{"android":"levelo://app?vid=f2d822d9-9460-4e9f-885f-a6d7e0bbd58a","ios":"levelo://app?vid=f2d822d9-9460-4e9f-885f-a6d7e0bbd58a"},"vehicle_type_id":"4","last_reported":1744463715,"current_range_meters":14800,"station_id":"ce4bhoh2rcd13ifvqh5g","pricing_plan_id":"cebpf4jnsgd1na2vs0mg"},{"bike_id":"99941cc7-5163-4c4d-a1d2-debcdde82514","system_id":"levelo_inurba_marseille","lat":43.21204,"lon":5.35071,"is_reserved":false,"is_disabled":false,"rental_uris":{"android":"levelo://app?vid=99941cc7-5163-4c4d-a1d2-debcdde82514","ios":"levelo://app?vid=99941cc7-5163-4c4d-a1d2-debcdde82514"},"vehicle_type_id":"4","last_reported":1744463715,"current_range_meters":14800,"station_id":"st_cvj6sg6p6f1abm77japg","pricing_plan_id":"cebpf4jnsgd1na2vs0mg"},{"bike_id":"8879aeb9-0e0e-4c8c-a0c9-3cfbaa6ce69c","system_id":"levelo_inurba_marseille","lat":43.29789,"lon":5.37092,"is_reserved":false,"is_disabled":false,"rental_uris":{"android":"levelo://app?vid=8879aeb9-0e0e-4c8c-a0c9-3cfbaa6ce69c","ios":"levelo://app?vid=8879aeb9-0e0e-4c8c-a0c9-3cfbaa6ce69c"},"vehicle_type_id":"4","last_reported":1744463715,"current_range_meters":14400,"station_id":"ce4bgop2rcd13ifvqc1g","pricing_plan_id":"cebpf4jnsgd1na2vs0mg"},{"bike_id":"09641453-8c56-445d-b9fe-7f7ad9f26a9d","system_id":"levelo_inurba_marseille","lat":43.26554,"lon":5.37293,"is_reserved":false,"is_disabled":false,"rental_uris":{"android":"levelo://app?vid=09641453-8c56-445d-b9fe-7f7ad9f26a9d","ios":"levelo://app?vid=09641453-8c56-445d-b9fe-7f7ad9f26a9d"},"vehicle_type_id":"4","last_reported":1744463715,"current_range_meters":14800,"station_id":"ce4bhg12rcd13ifvqf70","pricing_plan_id":"cebpf4jnsgd1na2vs0mg"},{"bike_id":"88b06436-3e67-4fa7-8bff-2e7f08ea585f","system_id":"levelo_inurba_marseille","lat":43.29617,"lon":5.37724,"is_reserved":false,"is_disabled":false,"rental_uris":{"android":"levelo://app?vid=88b06436-3e67-4fa7-8bff-2e7f08ea585f","ios":"levelo://app?vid=88b06436-3e67-4fa7-8bff-2e7f08ea585f"},"vehicle_type_id":"4","last_reported":1744463715,"current_range_meters":14800,"station_id":"ce4bgi92rcd13ifvqb90","pricing_plan_id":"cebpf4jnsgd1na2vs0mg"},{"bike_id":"fbc4e3e5-402a-4c52-a1b2-c506da551e6a","system_id":"levelo_inurba_marseille","lat":43.29422,"lon":5.38624,"is_reserved":false,"is_disabled":false,"rental_uris":{"android":"levelo://app?vid=fbc4e3e5-402a-4c52-a1b2-c506da551e6a","ios":"levelo://app?vid=fbc4e3e5-402a-4c52-a1b2-c506da551e6a"},"vehicle_type_id":"4","last_reported":1744463715,"current_range_meters":14400,"station_id":"ce4bh2h2rcd13ifvqdh0","pricing_plan_id":"cebpf4jnsgd1na2vs0mg"},{"bike_id":"806345ab-81e5-43f9-ae8c-4b06cd69b180","system_id":"levelo_inurba_marseille","lat":43.27999,"lon":5.41664,"is_reserved":false,"is_disabled":false,"rental_uris":{"android":"levelo://app?vid=806345ab-81e5-43f9-ae8c-4b06cd69b180","ios":"levelo://app?vid=806345ab-81e5-43f9-ae8c-4b06cd69b180"},"vehicle_type_id":"4","last_reported":1744463715,"current_range_meters":14400,"station_id":"ce4bho12rcd13ifvqh1g","pricing_plan_id":"cebpf4jnsgd1na2vs0mg"},{"bike_id":"72c6aab6-3a44-430e-a84d-843d2a93e616","system_id":"levelo_inurba_marseille","lat":43.21185,"lon":5.35074,"is_reserved":false,"is_disabled":true,"rental_uris":{"android":"levelo://app?vid=72c6aab6-3a44-430e-a84d-843d2a93e616","ios":"levelo://app?vid=72c6aab6-3a44-430e-a84d-843d2a93e616"},"vehicle_type_id":"4","last_reported":1744463715,"current_range_meters":15200,"station_id":"st_cvj6sg6p6f1abm77japg","pricing_plan_id":"cebpf4jnsgd1na2vs0mg"},{"bike_id":"1efbc875-f991-4cb9-8cf7-709d6f2e27b2","system_id":"levelo_inurba_marseille","lat":43.26556,"lon":5.37291,"is_reserved":false,"is_disabled":false,"rental_uris":{"android":"levelo://app?vid=1efbc875-f991-4cb9-8cf7-709d6f2e27b2","ios":"levelo://app?vid=1efbc875-f991-4cb9-8cf7-709d6f2e27b2"},"vehicle_type_id":"4","last_reported":1744463715,"current_range_meters":15200,"station_id":"ce4bhg12rcd13ifvqf70","pricing_plan_id":"cebpf4jnsgd1na2vs0mg"},{"bike_id":"d51a8c93-4a62-49ae-82cb-4bd383d80bde","system_id":"levelo_inurba_marseille","lat":43.28147,"lon":5.42642,"is_reserved":false,"is_disabled":false,"rental_uris":{"android":"levelo://app?vid=d51a8c93-4a62-49ae-82cb-4bd383d80bde","ios":"levelo://app?vid=d51a8c93-4a62-49ae-82cb-4bd383d80bde"},"vehicle_type_id":"4","last_reported":1744463715,"current_range_meters":15200,"station_id":"ce4bhnh2rcd13ifvqgug","pricing_plan_id":"cebpf4jnsgd1na2vs0mg"},{"bike_id":"14448897-b76d-4b17-a46d-f9aacb5319f1","system_id":"levelo_inurba_marseille","lat":43.21196,"lon":5.35077,"is_reserved":false,"is_disabled":false,"rental_uris":{"android":"levelo://app?vid=14448897-b76d-4b17-a46d-f9aacb5319f1","ios":"levelo://app?vid=14448897-b76d-4b17-a46d-f9aacb5319f1"},"vehicle_type_id":"4","last_reported":1744463715,"current_range_meters":15200,"station_id":"st_cvj6sg6p6f1abm77japg","pricing_plan_id":"cebpf4jnsgd1na2vs0mg"},{"bike_id":"51ae49fe-93e7-484b-b925-a3fee3cec470","system_id":"levelo_inurba_marseille","lat":43.23074,"lon":5.35484,"is_reserved":false,"is_disabled":false,"rental_uris":{"android":"levelo://app?vid=51ae49fe-93e7-484b-b925-a3fee3cec470","ios":"levelo://app?vid=51ae49fe-93e7-484b-b925-a3fee3cec470"},"vehicle_type_id":"4","last_reported":1744463715,"current_range_meters":15200,"station_id":"cpo3342slgdg3j2ifvpg","pricing_plan_id":"cebpf4jnsgd1na2vs0mg"},{"bike_id":"8043ed93-c0e0-4b20-a22a-1ce703744524","system_id":"levelo_inurba_marseille","lat":43.28935,"lon":5.36633,"is_reserved":false,"is_disabled":true,"rental_uris":{"android":"levelo://app?vid=8043ed93-c0e0-4b20-a22a-1ce703744524","ios":"levelo://app?vid=8043ed93-c0e0-4b20-a22a-1ce703744524"},"vehicle_type_id":"4","last_reported":1744463715,"current_range_meters":15200,"station_id":"ce4bhap2rcd13ifvqek0","pricing_plan_id":"cebpf4jnsgd1na2vs0mg"},{"bike_id":"4804896e-e3cd-4b68-af18-89d12415af88","system_id":"levelo_inurba_marseille","lat":43.2315,"lon":5.43725,"is_reserved":false,"is_disabled":false,"rental_uris":{"android":"levelo://app?vid=4804896e-e3cd-4b68-af18-89d12415af88","ios":"levelo://app?vid=4804896e-e3cd-4b68-af18-89d12415af88"},"vehicle_type_id":"4","last_reported":1744463715,"current_range_meters":16000,"station_id":"ce4bhmp2rcd13ifvqgog","pricing_plan_id":"cebpf4jnsgd1na2vs0mg"},{"bike_id":"35cd3ebc-5e09-4282-8487-a79c27413b32","system_id":"levelo_inurba_marseille","lat":43.29611,"lon":5.37717,"is_reserved":false,"is_disabled":false,"rental_uris":{"android":"levelo://app?vid=35cd3ebc-5e09-4282-8487-a79c27413b32","ios":"levelo://app?vid=35cd3ebc-5e09-4282-8487-a79c27413b32"},"vehicle_type_id":"4","last_reported":1744463715,"current_range_meters":16000,"station_id":"ce4bgi92rcd13ifvqb90","pricing_plan_id":"cebpf4jnsgd1na2vs0mg"},{"bike_id":"1f902e70-8424-4368-8d14-f667dae49164","system_id":"levelo_inurba_marseille","lat":43.29036,"lon":5.35922,"is_reserved":false,"is_disabled":false,"rental_uris":{"android":"levelo://app?vid=1f902e70-8424-4368-8d14-f667dae49164","ios":"levelo://app?vid=1f902e70-8424-4368-8d14-f667dae49164"},"vehicle_type_id":"4","last_reported":1744463715,"current_range_meters":16000,"station_id":"ce4bha92rcd13ifvqeg0","pricing_plan_id":"cebpf4jnsgd1na2vs0mg"},{"bike_id":"77cd7614-5005-4f54-bc84-a42dac3c108e","system_id":"levelo_inurba_marseille","lat":43.26207,"lon":5.37443,"is_reserved":false,"is_disabled":false,"rental_uris":{"android":"levelo://app?vid=77cd7614-5005-4f54-bc84-a42dac3c108e","ios":"levelo://app?vid=77cd7614-5005-4f54-bc84-a42dac3c108e"},"vehicle_type_id":"4","last_reported":1744463715,"current_range_meters":16000,"station_id":"ce4bhgp2rcd13ifvqfc0","pricing_plan_id":"cebpf4jnsgd1na2vs0mg"},{"bike_id":"e0d14e9f-9dd9-4b88-aa07-d42519c27697","system_id":"levelo_inurba_marseille","lat":43.26556,"lon":5.39027,"is_reserved":false,"is_disabled":false,"rental_uris":{"android":"levelo://app?vid=e0d14e9f-9dd9-4b88-aa07-d42519c27697","ios":"levelo://app?vid=e0d14e9f-9dd9-4b88-aa07-d42519c27697"},"vehicle_type_id":"4","last_reported":1744463715,"current_range_meters":16000,"station_id":"ce4bhe12rcd13ifvqf30","pricing_plan_id":"cebpf4jnsgd1na2vs0mg"},{"bike_id":"60cbbbe7-f799-439f-8421-fed515b5e527","system_id":"levelo_inurba_marseille","lat":43.24814,"lon":5.37446,"is_reserved":false,"is_disabled":false,"rental_uris":{"android":"levelo://app?vid=60cbbbe7-f799-439f-8421-fed515b5e527","ios":"levelo://app?vid=60cbbbe7-f799-439f-8421-fed515b5e527"},"vehicle_type_id":"4","last_reported":1744463715,"current_range_meters":16000,"station_id":"ce4bhgh2rcd13ifvqfb0","pricing_plan_id":"cebpf4jnsgd1na2vs0mg"},{"bike_id":"6b898d4d-b8e7-4916-8c0c-961d23b4dcd3","system_id":"levelo_inurba_marseille","lat":43.2649,"lon":5.39538,"is_reserved":false,"is_disabled":false,"rental_uris":{"android":"levelo://app?vid=6b898d4d-b8e7-4916-8c0c-961d23b4dcd3","ios":"levelo://app?vid=6b898d4d-b8e7-4916-8c0c-961d23b4dcd3"},"vehicle_type_id":"4","last_reported":1744463715,"current_range_meters":15200,"station_id":"ce4bhi12rcd13ifvqfq0","pricing_plan_id":"cebpf4jnsgd1na2vs0mg"},{"bike_id":"37a17253-3d16-4b72-9b0b-4b36f84289f9","system_id":"levelo_inurba_marseille","lat":43.25486,"lon":5.37671,"is_reserved":false,"is_disabled":false,"rental_uris":{"android":"levelo://app?vid=37a17253-3d16-4b72-9b0b-4b36f84289f9","ios":"levelo://app?vid=37a17253-3d16-4b72-9b0b-4b36f84289f9"},"vehicle_type_id":"4","last_reported":1744463715,"current_range_meters":16000,"station_id":"ce4bhh12rcd13ifvqff0","pricing_plan_id":"cebpf4jnsgd1na2vs0mg"},{"bike_id":"1364d118-8104-4b6e-a5aa-a4ed22312199","system_id":"levelo_inurba_marseille","lat":43.2963,"lon":5.37711,"is_reserved":false,"is_disabled":false,"rental_uris":{"android":"levelo://app?vid=1364d118-8104-4b6e-a5aa-a4ed22312199","ios":"levelo://app?vid=1364d118-8104-4b6e-a5aa-a4ed22312199"},"vehicle_type_id":"4","last_reported":1744463715,"current_range_meters":16000,"station_id":"ce4bgi92rcd13ifvqb90","pricing_plan_id":"cebpf4jnsgd1na2vs0mg"},{"bike_id":"1c6cc693-7d8a-497d-8b6b-668939fbd7ee","system_id":"levelo_inurba_marseille","lat":43.28611,"lon":5.37058,"is_reserved":false,"is_disabled":false,"rental_uris":{"android":"levelo://app?vid=1c6cc693-7d8a-497d-8b6b-668939fbd7ee","ios":"levelo://app?vid=1c6cc693-7d8a-497d-8b6b-668939fbd7ee"},"vehicle_type_id":"4","last_reported":1744463715,"current_range_meters":16000,"station_id":"ce4bht12rcd13ifvqi60","pricing_plan_id":"cebpf4jnsgd1na2vs0mg"},{"bike_id":"4bbe6e48-9bfa-4dec-aab0-5597477f7da1","system_id":"levelo_inurba_marseille","lat":43.323977,"lon":5.39004,"is_reserved":false,"is_disabled":false,"rental_uris":{"android":"levelo://app?vid=4bbe6e48-9bfa-4dec-aab0-5597477f7da1","ios":"levelo://app?vid=4bbe6e48-9bfa-4dec-aab0-5597477f7da1"},"vehicle_type_id":"4","last_reported":1744463715,"current_range_meters":16000,"station_id":"","pricing_plan_id":"cebpf4jnsgd1na2vs0mg"},{"bike_id":"19bf3e27-660b-4965-be27-a801bd817663","system_id":"levelo_inurba_marseille","lat":43.25493,"lon":5.37651,"is_reserved":false,"is_disabled":false,"rental_uris":{"android":"levelo://app?vid=19bf3e27-660b-4965-be27-a801bd817663","ios":"levelo://app?vid=19bf3e27-660b-4965-be27-a801bd817663"},"vehicle_type_id":"4","last_reported":1744463715,"current_range_meters":16400,"station_id":"ce4bhh12rcd13ifvqff0","pricing_plan_id":"cebpf4jnsgd1na2vs0mg"},{"bike_id":"dc0fc37b-245c-4040-8686-f32b8a543409","system_id":"levelo_inurba_marseille","lat":43.24378,"lon":5.37108,"is_reserved":false,"is_disabled":false,"rental_uris":{"android":"levelo://app?vid=dc0fc37b-245c-4040-8686-f32b8a543409","ios":"levelo://app?vid=dc0fc37b-245c-4040-8686-f32b8a543409"},"vehicle_type_id":"4","last_reported":1744463715,"current_range_meters":16400,"station_id":"ce4bhhh2rcd13ifvqfk0","pricing_plan_id":"cebpf4jnsgd1na2vs0mg"},{"bike_id":"cd639cc0-8827-4202-af19-97466b544f6c","system_id":"levelo_inurba_marseille","lat":43.29805,"lon":5.38109,"is_reserved":false,"is_disabled":false,"rental_uris":{"android":"levelo://app?vid=cd639cc0-8827-4202-af19-97466b544f6c","ios":"levelo://app?vid=cd639cc0-8827-4202-af19-97466b544f6c"},"vehicle_type_id":"4","last_reported":1744463715,"current_range_meters":16400,"station_id":"ce4bgip2rcd13ifvqbb0","pricing_plan_id":"cebpf4jnsgd1na2vs0mg"},{"bike_id":"61a3d5d1-9d16-4507-a934-21de523ba06e","system_id":"levelo_inurba_marseille","lat":43.29667,"lon":5.36721,"is_reserved":false,"is_disabled":false,"rental_uris":{"android":"levelo://app?vid=61a3d5d1-9d16-4507-a934-21de523ba06e","ios":"levelo://app?vid=61a3d5d1-9d16-4507-a934-21de523ba06e"},"vehicle_type_id":"4","last_reported":1744463715,"current_range_meters":16400,"station_id":"","pricing_plan_id":"cebpf4jnsgd1na2vs0mg"},{"bike_id":"0663e361-5ecb-4ca0-bfaa-c01a2f66fe21","system_id":"levelo_inurba_marseille","lat":43.319997,"lon":5.381344,"is_reserved":false,"is_disabled":false,"rental_uris":{"android":"levelo://app?vid=0663e361-5ecb-4ca0-bfaa-c01a2f66fe21","ios":"levelo://app?vid=0663e361-5ecb-4ca0-bfaa-c01a2f66fe21"},"vehicle_type_id":"4","last_reported":1744463715,"current_range_meters":16400,"station_id":"ce4bhr12rcd13ifvqhpg","pricing_plan_id":"cebpf4jnsgd1na2vs0mg"},{"bike_id":"020e9999-d552-48d0-ae5f-b725af0dbea2","system_id":"levelo_inurba_marseille","lat":43.29911,"lon":5.43764,"is_reserved":false,"is_disabled":false,"rental_uris":{"android":"levelo://app?vid=020e9999-d552-48d0-ae5f-b725af0dbea2","ios":"levelo://app?vid=020e9999-d552-48d0-ae5f-b725af0dbea2"},"vehicle_type_id":"4","last_reported":1744463715,"current_range_meters":16400,"station_id":"","pricing_plan_id":"cebpf4jnsgd1na2vs0mg"},{"bike_id":"82d38bd3-c046-4f55-aec8-4eb686f05e29","system_id":"levelo_inurba_marseille","lat":43.22933,"lon":5.35378,"is_reserved":false,"is_disabled":true,"rental_uris":{"android":"levelo://app?vid=82d38bd3-c046-4f55-aec8-4eb686f05e29","ios":"levelo://app?vid=82d38bd3-c046-4f55-aec8-4eb686f05e29"},"vehicle_type_id":"4","last_reported":1744463715,"current_range_meters":16400,"station_id":"cpo3532slgdg3j2ikp40","pricing_plan_id":"cebpf4jnsgd1na2vs0mg"},{"bike_id":"878ba1ab-7144-4829-9554-84fed32372ce","system_id":"levelo_inurba_marseille","lat":43.29916,"lon":5.37462,"is_reserved":false,"is_disabled":false,"rental_uris":{"android":"levelo://app?vid=878ba1ab-7144-4829-9554-84fed32372ce","ios":"levelo://app?vid=878ba1ab-7144-4829-9554-84fed32372ce"},"vehicle_type_id":"4","last_reported":1744463715,"current_range_meters":16400,"station_id":"ce4bgjh2rcd13ifvqbg0","pricing_plan_id":"cebpf4jnsgd1na2vs0mg"},{"bike_id":"49ed25ea-d09d-47e0-aafe-72c0bd9ad234","system_id":"levelo_inurba_marseille","lat":43.29029,"lon":5.37545,"is_reserved":false,"is_disabled":false,"rental_uris":{"android":"levelo://app?vid=49ed25ea-d09d-47e0-aafe-72c0bd9ad234","ios":"levelo://app?vid=49ed25ea-d09d-47e0-aafe-72c0bd9ad234"},"vehicle_type_id":"4","last_reported":1744463715,"current_range_meters":16400,"station_id":"ce4bh692rcd13ifvqe90","pricing_plan_id":"cebpf4jnsgd1na2vs0mg"},{"bike_id":"0b7df8b7-ebf5-4f9b-acc8-83bc2d730df9","system_id":"levelo_inurba_marseille","lat":43.24809,"lon":5.37451,"is_reserved":false,"is_disabled":false,"rental_uris":{"android":"levelo://app?vid=0b7df8b7-ebf5-4f9b-acc8-83bc2d730df9","ios":"levelo://app?vid=0b7df8b7-ebf5-4f9b-acc8-83bc2d730df9"},"vehicle_type_id":"4","last_reported":1744463715,"current_range_meters":16400,"station_id":"ce4bhgh2rcd13ifvqfb0","pricing_plan_id":"cebpf4jnsgd1na2vs0mg"},{"bike_id":"f0cbfaae-d00c-4b35-bd62-1efcb15b5651","system_id":"levelo_inurba_marseille","lat":43.23201,"lon":5.35552,"is_reserved":false,"is_disabled":false,"rental_uris":{"android":"levelo://app?vid=f0cbfaae-d00c-4b35-bd62-1efcb15b5651","ios":"levelo://app?vid=f0cbfaae-d00c-4b35-bd62-1efcb15b5651"},"vehicle_type_id":"4","last_reported":1744463715,"current_range_meters":16400,"station_id":"ce4bhu92rcd13ifvqi70","pricing_plan_id":"cebpf4jnsgd1na2vs0mg"},{"bike_id":"025fcab5-e444-4bc3-9503-2eac21dc58f8","system_id":"levelo_inurba_marseille","lat":43.2731,"lon":5.39084,"is_reserved":false,"is_disabled":false,"rental_uris":{"android":"levelo://app?vid=025fcab5-e444-4bc3-9503-2eac21dc58f8","ios":"levelo://app?vid=025fcab5-e444-4bc3-9503-2eac21dc58f8"},"vehicle_type_id":"4","last_reported":1744463715,"current_range_meters":16800,"station_id":"ce4bhgp2rcd13ifvqfe0","pricing_plan_id":"cebpf4jnsgd1na2vs0mg"},{"bike_id":"647942a2-5d58-4456-b07a-6e86f34523f1","system_id":"levelo_inurba_marseille","lat":43.290389,"lon":5.368849,"is_reserved":false,"is_disabled":false,"rental_uris":{"android":"levelo://app?vid=647942a2-5d58-4456-b07a-6e86f34523f1","ios":"levelo://app?vid=647942a2-5d58-4456-b07a-6e86f34523f1"},"vehicle_type_id":"4","last_reported":1744463715,"current_range_meters":16800,"station_id":"ce4bgpp2rcd13ifvqc3g","pricing_plan_id":"cebpf4jnsgd1na2vs0mg"},{"bike_id":"db9cdcec-b5ee-409b-adf3-2fb9b83088c4","system_id":"levelo_inurba_marseille","lat":43.30938,"lon":5.3742,"is_reserved":false,"is_disabled":false,"rental_uris":{"android":"levelo://app?vid=db9cdcec-b5ee-409b-adf3-2fb9b83088c4","ios":"levelo://app?vid=db9cdcec-b5ee-409b-adf3-2fb9b83088c4"},"vehicle_type_id":"4","last_reported":1744463715,"current_range_meters":16800,"station_id":"","pricing_plan_id":"cebpf4jnsgd1na2vs0mg"},{"bike_id":"7c247df2-d2da-47ed-9159-5a94cd708fe1","system_id":"levelo_inurba_marseille","lat":43.30138,"lon":5.37425,"is_reserved":false,"is_disabled":false,"rental_uris":{"android":"levelo://app?vid=7c247df2-d2da-47ed-9159-5a94cd708fe1","ios":"levelo://app?vid=7c247df2-d2da-47ed-9159-5a94cd708fe1"},"vehicle_type_id":"4","last_reported":1744463715,"current_range_meters":16800,"station_id":"ce4bgs92rcd13ifvqcc0","pricing_plan_id":"cebpf4jnsgd1na2vs0mg"},{"bike_id":"908a7fa9-0935-479e-b0a4-18a8997fd942","system_id":"levelo_inurba_marseille","lat":43.28,"lon":5.4166,"is_reserved":false,"is_disabled":false,"rental_uris":{"android":"levelo://app?vid=908a7fa9-0935-479e-b0a4-18a8997fd942","ios":"levelo://app?vid=908a7fa9-0935-479e-b0a4-18a8997fd942"},"vehicle_type_id":"4","last_reported":1744463715,"current_range_meters":16400,"station_id":"ce4bho12rcd13ifvqh1g","pricing_plan_id":"cebpf4jnsgd1na2vs0mg"},{"bike_id":"0eceb99a-0069-41ae-adf2-70785bb6a0d7","system_id":"levelo_inurba_marseille","lat":43.2656,"lon":5.37285,"is_reserved":false,"is_disabled":false,"rental_uris":{"android":"levelo://app?vid=0eceb99a-0069-41ae-adf2-70785bb6a0d7","ios":"levelo://app?vid=0eceb99a-0069-41ae-adf2-70785bb6a0d7"},"vehicle_type_id":"4","last_reported":1744463715,"current_range_meters":16800,"station_id":"ce4bhg12rcd13ifvqf70","pricing_plan_id":"cebpf4jnsgd1na2vs0mg"},{"bike_id":"469d7df9-253b-4e92-aa13-40bf8ef53df8","system_id":"levelo_inurba_marseille","lat":43.23961,"lon":5.36636,"is_reserved":false,"is_disabled":false,"rental_uris":{"android":"levelo://app?vid=469d7df9-253b-4e92-aa13-40bf8ef53df8","ios":"levelo://app?vid=469d7df9-253b-4e92-aa13-40bf8ef53df8"},"vehicle_type_id":"4","last_reported":1744463715,"current_range_meters":16800,"station_id":"ce4bhi12rcd13ifvqfp0","pricing_plan_id":"cebpf4jnsgd1na2vs0mg"},{"bike_id":"4a0f8eea-529b-465d-8966-94bd4557b10c","system_id":"levelo_inurba_marseille","lat":43.21189,"lon":5.35084,"is_reserved":false,"is_disabled":false,"rental_uris":{"android":"levelo://app?vid=4a0f8eea-529b-465d-8966-94bd4557b10c","ios":"levelo://app?vid=4a0f8eea-529b-465d-8966-94bd4557b10c"},"vehicle_type_id":"4","last_reported":1744463715,"current_range_meters":16800,"station_id":"ce4bgkp2rcd13ifvqbmg","pricing_plan_id":"cebpf4jnsgd1na2vs0mg"},{"bike_id":"73a81525-79dd-40a2-86b0-fb40c9b2799a","system_id":"levelo_inurba_marseille","lat":43.225011,"lon":5.347709,"is_reserved":false,"is_disabled":false,"rental_uris":{"android":"levelo://app?vid=73a81525-79dd-40a2-86b0-fb40c9b2799a","ios":"levelo://app?vid=73a81525-79dd-40a2-86b0-fb40c9b2799a"},"vehicle_type_id":"4","last_reported":1744463715,"current_range_meters":16800,"station_id":"","pricing_plan_id":"cebpf4jnsgd1na2vs0mg"},{"bike_id":"8a8a48df-1fae-40dc-817a-265d8491cc57","system_id":"levelo_inurba_marseille","lat":43.30141,"lon":5.37422,"is_reserved":false,"is_disabled":false,"rental_uris":{"android":"levelo://app?vid=8a8a48df-1fae-40dc-817a-265d8491cc57","ios":"levelo://app?vid=8a8a48df-1fae-40dc-817a-265d8491cc57"},"vehicle_type_id":"4","last_reported":1744463715,"current_range_meters":16800,"station_id":"ce4bgs92rcd13ifvqcc0","pricing_plan_id":"cebpf4jnsgd1na2vs0mg"},{"bike_id":"83d0260c-0802-4910-8803-40e8fc992b82","system_id":"levelo_inurba_marseille","lat":43.21747,"lon":5.34608,"is_reserved":false,"is_disabled":false,"rental_uris":{"android":"levelo://app?vid=83d0260c-0802-4910-8803-40e8fc992b82","ios":"levelo://app?vid=83d0260c-0802-4910-8803-40e8fc992b82"},"vehicle_type_id":"4","last_reported":1744463715,"current_range_meters":17200,"station_id":"st_cvj6r9ubvosntc0bgbag","pricing_plan_id":"cebpf4jnsgd1na2vs0mg"},{"bike_id":"22e93936-5cf7-4275-a1ad-ec69aaa3ceaa","system_id":"levelo_inurba_marseille","lat":43.29167,"lon":5.37158,"is_reserved":false,"is_disabled":false,"rental_uris":{"android":"levelo://app?vid=22e93936-5cf7-4275-a1ad-ec69aaa3ceaa","ios":"levelo://app?vid=22e93936-5cf7-4275-a1ad-ec69aaa3ceaa"},"vehicle_type_id":"4","last_reported":1744463715,"current_range_meters":16800,"station_id":"ce4bha92rcd13ifvqeh0","pricing_plan_id":"cebpf4jnsgd1na2vs0mg"},{"bike_id":"b55dd5e7-54b2-4035-b945-7b626dd7afc7","system_id":"levelo_inurba_marseille","lat":43.27535,"lon":5.40932,"is_reserved":false,"is_disabled":false,"rental_uris":{"android":"levelo://app?vid=b55dd5e7-54b2-4035-b945-7b626dd7afc7","ios":"levelo://app?vid=b55dd5e7-54b2-4035-b945-7b626dd7afc7"},"vehicle_type_id":"4","last_reported":1744463715,"current_range_meters":17200,"station_id":"","pricing_plan_id":"cebpf4jnsgd1na2vs0mg"},{"bike_id":"982bb1bc-457f-43d7-ae21-85035c856353","system_id":"levelo_inurba_marseille","lat":43.22491,"lon":5.34779,"is_reserved":false,"is_disabled":false,"rental_uris":{"android":"levelo://app?vid=982bb1bc-457f-43d7-ae21-85035c856353","ios":"levelo://app?vid=982bb1bc-457f-43d7-ae21-85035c856353"},"vehicle_type_id":"4","last_reported":1744463715,"current_range_meters":17200,"station_id":"st_cvj5dfep6f1abm77gieg","pricing_plan_id":"cebpf4jnsgd1na2vs0mg"},{"bike_id":"bdb29c13-fc38-479c-a13c-4a5c2bedffb4","system_id":"levelo_inurba_marseille","lat":43.29766,"lon":5.37102,"is_reserved":false,"is_disabled":false,"rental_uris":{"android":"levelo://app?vid=bdb29c13-fc38-479c-a13c-4a5c2bedffb4","ios":"levelo://app?vid=bdb29c13-fc38-479c-a13c-4a5c2bedffb4"},"vehicle_type_id":"4","last_reported":1744463715,"current_range_meters":17200,"station_id":"ce4bgop2rcd13ifvqc1g","pricing_plan_id":"cebpf4jnsgd1na2vs0mg"},{"bike_id":"e27cca32-81ca-4e58-b6a9-2a96e597c157","system_id":"levelo_inurba_marseille","lat":43.26209,"lon":5.37444,"is_reserved":false,"is_disabled":false,"rental_uris":{"android":"levelo://app?vid=e27cca32-81ca-4e58-b6a9-2a96e597c157","ios":"levelo://app?vid=e27cca32-81ca-4e58-b6a9-2a96e597c157"},"vehicle_type_id":"4","last_reported":1744463715,"current_range_meters":17200,"station_id":"ce4bhgp2rcd13ifvqfc0","pricing_plan_id":"cebpf4jnsgd1na2vs0mg"},{"bike_id":"d8b9884b-4022-4710-9f87-50e0dbfd421d","system_id":"levelo_inurba_marseille","lat":43.241733,"lon":5.363872,"is_reserved":false,"is_disabled":false,"rental_uris":{"android":"levelo://app?vid=d8b9884b-4022-4710-9f87-50e0dbfd421d","ios":"levelo://app?vid=d8b9884b-4022-4710-9f87-50e0dbfd421d"},"vehicle_type_id":"4","last_reported":1744463715,"current_range_meters":17200,"station_id":"cpo36qri1sfpv3e86is0","pricing_plan_id":"cebpf4jnsgd1na2vs0mg"},{"bike_id":"e9f4dfae-3802-4063-aa9a-0b47a8837374","system_id":"levelo_inurba_marseille","lat":43.21191,"lon":5.3507,"is_reserved":false,"is_disabled":false,"rental_uris":{"android":"levelo://app?vid=e9f4dfae-3802-4063-aa9a-0b47a8837374","ios":"levelo://app?vid=e9f4dfae-3802-4063-aa9a-0b47a8837374"},"vehicle_type_id":"4","last_reported":1744463715,"current_range_meters":17200,"station_id":"st_cvj6sg6p6f1abm77japg","pricing_plan_id":"cebpf4jnsgd1na2vs0mg"},{"bike_id":"a056d7a4-97ce-4bd4-9204-3c02244e3600","system_id":"levelo_inurba_marseille","lat":43.23196,"lon":5.35563,"is_reserved":false,"is_disabled":false,"rental_uris":{"android":"levelo://app?vid=a056d7a4-97ce-4bd4-9204-3c02244e3600","ios":"levelo://app?vid=a056d7a4-97ce-4bd4-9204-3c02244e3600"},"vehicle_type_id":"4","last_reported":1744463715,"current_range_meters":17200,"station_id":"ce4bhu92rcd13ifvqi70","pricing_plan_id":"cebpf4jnsgd1na2vs0mg"},{"bike_id":"ca13a7d9-b1fa-482c-a294-c63018ad7159","system_id":"levelo_inurba_marseille","lat":43.30886,"lon":5.39657,"is_reserved":false,"is_disabled":false,"rental_uris":{"android":"levelo://app?vid=ca13a7d9-b1fa-482c-a294-c63018ad7159","ios":"levelo://app?vid=ca13a7d9-b1fa-482c-a294-c63018ad7159"},"vehicle_type_id":"4","last_reported":1744463715,"current_range_meters":17200,"station_id":"ce4bh012rcd13ifvqcv0","pricing_plan_id":"cebpf4jnsgd1na2vs0mg"},{"bike_id":"95e59f1f-4d59-4266-8b3f-582f63a06ec8","system_id":"levelo_inurba_marseille","lat":43.261274,"lon":5.414813,"is_reserved":false,"is_disabled":false,"rental_uris":{"android":"levelo://app?vid=95e59f1f-4d59-4266-8b3f-582f63a06ec8","ios":"levelo://app?vid=95e59f1f-4d59-4266-8b3f-582f63a06ec8"},"vehicle_type_id":"4","last_reported":1744463715,"current_range_meters":17600,"station_id":"","pricing_plan_id":"cebpf4jnsgd1na2vs0mg"},{"bike_id":"714f5fb0-bb1b-4677-bfaa-2a77f1c16b08","system_id":"levelo_inurba_marseille","lat":43.292044,"lon":5.393252,"is_reserved":false,"is_disabled":false,"rental_uris":{"android":"levelo://app?vid=714f5fb0-bb1b-4677-bfaa-2a77f1c16b08","ios":"levelo://app?vid=714f5fb0-bb1b-4677-bfaa-2a77f1c16b08"},"vehicle_type_id":"4","last_reported":1744463715,"current_range_meters":17600,"station_id":"ce4bh192rcd13ifvqdd0","pricing_plan_id":"cebpf4jnsgd1na2vs0mg"},{"bike_id":"084cb094-aeb4-46db-9aa3-f4a308173234","system_id":"levelo_inurba_marseille","lat":43.3057,"lon":5.36498,"is_reserved":false,"is_disabled":false,"rental_uris":{"android":"levelo://app?vid=084cb094-aeb4-46db-9aa3-f4a308173234","ios":"levelo://app?vid=084cb094-aeb4-46db-9aa3-f4a308173234"},"vehicle_type_id":"4","last_reported":1744463715,"current_range_meters":17600,"station_id":"","pricing_plan_id":"cebpf4jnsgd1na2vs0mg"},{"bike_id":"8094dbe0-fcf2-49a7-9f7e-e19a917cbcfa","system_id":"levelo_inurba_marseille","lat":43.21188,"lon":5.35078,"is_reserved":false,"is_disabled":false,"rental_uris":{"android":"levelo://app?vid=8094dbe0-fcf2-49a7-9f7e-e19a917cbcfa","ios":"levelo://app?vid=8094dbe0-fcf2-49a7-9f7e-e19a917cbcfa"},"vehicle_type_id":"4","last_reported":1744463715,"current_range_meters":17600,"station_id":"cpo3342slgdg3j2ifvpg","pricing_plan_id":"cebpf4jnsgd1na2vs0mg"},{"bike_id":"661c3bca-81a3-4c0a-8a25-786cb8d71ae7","system_id":"levelo_inurba_marseille","lat":43.23066,"lon":5.35494,"is_reserved":false,"is_disabled":false,"rental_uris":{"android":"levelo://app?vid=661c3bca-81a3-4c0a-8a25-786cb8d71ae7","ios":"levelo://app?vid=661c3bca-81a3-4c0a-8a25-786cb8d71ae7"},"vehicle_type_id":"4","last_reported":1744463715,"current_range_meters":17600,"station_id":"cpo3342slgdg3j2ifvpg","pricing_plan_id":"cebpf4jnsgd1na2vs0mg"},{"bike_id":"9f6bd15f-87bd-43d3-b7f1-e8d01a47c011","system_id":"levelo_inurba_marseille","lat":43.29004,"lon":5.35615,"is_reserved":false,"is_disabled":false,"rental_uris":{"android":"levelo://app?vid=9f6bd15f-87bd-43d3-b7f1-e8d01a47c011","ios":"levelo://app?vid=9f6bd15f-87bd-43d3-b7f1-e8d01a47c011"},"vehicle_type_id":"4","last_reported":1744463715,"current_range_meters":17600,"station_id":"ce4bhb92rcd13ifvqen0","pricing_plan_id":"cebpf4jnsgd1na2vs0mg"},