{"last_updated":1701468395,"ttl":30,"version":"2.2","data":{"bikes":[{"bike_id":"3002ea0f-8d03-4cdc-8e4e-c36209494bba","system_id":"levelo_inurba_marseille","lat":43.312239,"lon":5.368562,"is_reserved":false,"is_disabled":false,"rental_uris":{"android":"levelo://app?vid=3002ea0f-8d03-4cdc-8e4e-c36209494bba","ios":"levelo://app?vid=3002ea0f-8d03-4cdc-8e4e-c36209494bba"},"vehicle_type_id":"4","last_reported":1701468395,"current_range_meters":0,"station_id":"ce4bgl92rcd13ifvqbq0","pricing_plan_id":"free"},{"bike_id":"94338694-50ff-4440-ab85-f03a049c4dbe","system_id":"levelo_inurba_marseille","lat":43.309076,"lon":5.368465,"is_reserved":false,"is_disabled":false,"rental_uris":{"android":"levelo://app?vid=94338694-50ff-4440-ab85-f03a049c4dbe","ios":"levelo://app?vid=94338694-50ff-4440-ab85-f03a049c4dbe"},"vehicle_type_id":"4","last_reported":1701468395,"current_range_meters":10000,"station_id":"ce4bgn92rcd13ifvqbvg","pricing_plan_id":"free"},{"bike_id":"9922fc93-9052-478b-b9cc-b0ee0efe8af3","system_id":"levelo_inurba_marseille","lat":43.30887,"lon":5.37185,"is_reserved":false,"is_disabled":false,"rental_uris":{"android":"levelo://app?vid=9922fc93-9052-478b-b9cc-b0ee0efe8af3","ios":"levelo://app?vid=9922fc93-9052-478b-b9cc-b0ee0efe8af3"},"vehicle_type_id":"4","last_reported":1701468395,"current_range_meters":19600,"station_id":"ce4bguh2rcd13ifvqckg","pricing_plan_id":"free"},{"bike_id":"69fbcc51-fc4f-4eab-a13a-6e69098befda","system_id":"levelo_inurba_marseille","lat":43.308866,"lon":5.371948,"is_reserved":false,"is_disabled":false,"rental_uris":{"android":"levelo://app?vid=69fbcc51-fc4f-4eab-a13a-6e69098befda","ios":"levelo://app?vid=69fbcc51-fc4f-4eab-a13a-6e69098befda"},"vehicle_type_id":"4","last_reported":1701468395,"current_range_meters":24400,"station_id":"ce4bguh2rcd13ifvqckg","pricing_plan_id":"free"},{"bike_id":"834089f7-8dad-4cdf-8c51-41430a4e46ec","system_id":"levelo_inurba_marseille","lat":43.305989,"lon":5.37225,"is_reserved":false,"is_disabled":false,"rental_uris":{"android":"levelo://app?vid=834089f7-8dad-4cdf-8c51-41430a4e46ec","ios":"levelo://app?vid=834089f7-8dad-4cdf-8c51-41430a4e46ec"},"vehicle_type_id":"4","last_reported":1701468395,"current_range_meters":4800,"station_id":"ce4bgqh2rcd13ifvqc4g","pricing_plan_id":"free"},{"bike_id":"7bdbcfe9-924e-49e5-849f-fb7276f261aa","system_id":"levelo_inurba_marseille","lat":43.310559,"lon":5.37748,"is_reserved":false,"is_disabled":false,"rental_uris":{"android":"levelo://app?vid=7bdbcfe9-924e-49e5-849f-fb7276f261aa","ios":"levelo://app?vid=7bdbcfe9-924e-49e5-849f-fb7276f261aa"},"vehicle_type_id":"4","last_reported":1701468395,"current_range_meters":9200,"station_id":"","pricing_plan_id":"free"},{"bike_id":"7801f171-c433-43b9-99f3-4e35c94bc7ba","system_id":"levelo_inurba_marseille","lat":43.30439,"lon":5.36753,"is_reserved":false,"is_disabled":false,"rental_uris":{"android":"levelo://app?vid=7801f171-c433-43b9-99f3-4e35c94bc7ba","ios":"levelo://app?vid=7801f171-c433-43b9-99f3-4e35c94bc7ba"},"vehicle_type_id":"4","last_reported":1701468395,"current_range_meters":26800,"station_id":"","pricing_plan_id":"free"},{"bike_id":"cfd3bb51-5657-4943-be4a-4ca2f802bb01","system_id":"levelo_inurba_marseille","lat":43.308142,"lon":5.376572,"is_reserved":false,"is_disabled":false,"rental_uris":{"android":"levelo://app?vid=cfd3bb51-5657-4943-be4a-4ca2f802bb01","ios":"levelo://app?vid=cfd3bb51-5657-4943-be4a-4ca2f802bb01"},"vehicle_type_id":"4","last_reported":1701468395,"current_range_meters":13600,"station_id":"ce4bgv92rcd13ifvqcq0","pricing_plan_id":"free"},{"bike_id":"f427a2c3-6e4a-446b-ae2f-9be8aa7f4122","system_id":"levelo_inurba_marseille","lat":43.31719,"lon":5.376813,"is_reserved":false,"is_disabled":false,"rental_uris":{"android":"levelo://app?vid=f427a2c3-6e4a-446b-ae2f-9be8aa7f4122","ios":"levelo://app?vid=f427a2c3-6e4a-446b-ae2f-9be8aa7f4122"},"vehicle_type_id":"4","last_reported":1701468395,"current_range_meters":400,"station_id":"","pricing_plan_id":"free"},{"bike_id":"e913f328-1e31-4c22-bd87-f809ea246de4","system_id":"levelo_inurba_marseille","lat":43.317168,"lon":5.376883,"is_reserved":false,"is_disabled":false,"rental_uris":{"android":"levelo://app?vid=e913f328-1e31-4c22-bd87-f809ea246de4","ios":"levelo://app?vid=e913f328-1e31-4c22-bd87-f809ea246de4"},"vehicle_type_id":"4","last_reported":1701468395,"current_range_meters":2800,"station_id":"","pricing_plan_id":"free"},{"bike_id":"fb6fd937-527b-4585-9058-0dfdc6436ac8","system_id":"levelo_inurba_marseille","lat":43.31351,"lon":5.37909,"is_reserved":false,"is_disabled":false,"rental_uris":{"android":"levelo://app?vid=fb6fd937-527b-4585-9058-0dfdc6436ac8","ios":"levelo://app?vid=fb6fd937-527b-4585-9058-0dfdc6436ac8"},"vehicle_type_id":"4","last_reported":1701468395,"current_range_meters":24000,"station_id":"","pricing_plan_id":"free"},{"bike_id":"593babd9-c3d2-4b6a-af9f-be560bf08fbf","system_id":"levelo_inurba_marseille","lat":43.308513,"lon":5.37881,"is_reserved":false,"is_disabled":false,"rental_uris":{"android":"levelo://app?vid=593babd9-c3d2-4b6a-af9f-be560bf08fbf","ios":"levelo://app?vid=593babd9-c3d2-4b6a-af9f-be560bf08fbf"},"vehicle_type_id":"4","last_reported":1701468395,"current_range_meters":4800,"station_id":"","pricing_plan_id":"free"},{"bike_id":"e56c4c03-d6ac-416d-8380-bbaf7fb49559","system_id":"levelo_inurba_marseille","lat":43.324771,"lon":5.36557,"is_reserved":false,"is_disabled":false,"rental_uris":{"android":"levelo://app?vid=e56c4c03-d6ac-416d-8380-bbaf7fb49559","ios":"levelo://app?vid=e56c4c03-d6ac-416d-8380-bbaf7fb49559"},"vehicle_type_id":"4","last_reported":1701468395,"current_range_meters":3200,"station_id":"ce4bhs12rcd13ifvqhvg","pricing_plan_id":"free"},{"bike_id":"a6475a8a-11b3-4af0-85f3-fd2cabbfdd22","system_id":"levelo_inurba_marseille","lat":43.324771,"lon":5.36557,"is_reserved":false,"is_disabled":false,"rental_uris":{"android":"levelo://app?vid=a6475a8a-11b3-4af0-85f3-fd2cabbfdd22","ios":"levelo://app?vid=a6475a8a-11b3-4af0-85f3-fd2cabbfdd22"},"vehicle_type_id":"4","last_reported":1701468395,"current_range_meters":20800,"station_id":"ce4bhs12rcd13ifvqhvg","pricing_plan_id":"free"},{"bike_id":"19dcde97-826d-4c77-b8cf-d90ba7f775b0","system_id":"levelo_inurba_marseille","lat":43.324868,"lon":5.365588,"is_reserved":false,"is_disabled":false,"rental_uris":{"android":"levelo://app?vid=19dcde97-826d-4c77-b8cf-d90ba7f775b0","ios":"levelo://app?vid=19dcde97-826d-4c77-b8cf-d90ba7f775b0"},"vehicle_type_id":"4","last_reported":1701468395,"current_range_meters":16800,"station_id":"ce4bhs12rcd13ifvqhvg","pricing_plan_id":"free"},{"bike_id":"91ca68e3-c765-4044-872e-5d59456fcaee","system_id":"levelo_inurba_marseille","lat":43.30143,"lon":5.37413,"is_reserved":false,"is_disabled":false,"rental_uris":{"android":"levelo://app?vid=91ca68e3-c765-4044-872e-5d59456fcaee","ios":"levelo://app?vid=91ca68e3-c765-4044-872e-5d59456fcaee"},"vehicle_type_id":"4","last_reported":1701468395,"current_range_meters":12800,"station_id":"ce4bgs92rcd13ifvqcc0","pricing_plan_id":"free"},{"bike_id":"2275aca5-3158-4c2c-8022-ca5d2714bc86","system_id":"levelo_inurba_marseille","lat":43.319997,"lon":5.381594,"is_reserved":false,"is_disabled":false,"rental_uris":{"android":"levelo://app?vid=2275aca5-3158-4c2c-8022-ca5d2714bc86","ios":"levelo://app?vid=2275aca5-3158-4c2c-8022-ca5d2714bc86"},"vehicle_type_id":"4","last_reported":1701468395,"current_range_meters":17600,"station_id":"ce4bhr12rcd13ifvqhpg","pricing_plan_id":"free"},{"bike_id":"79bb6607-cc78-4995-9caf-aebfa08ae6a3","system_id":"levelo_inurba_marseille","lat":43.313571,"lon":5.384829,"is_reserved":false,"is_disabled":false,"rental_uris":{"android":"levelo://app?vid=79bb6607-cc78-4995-9caf-aebfa08ae6a3","ios":"levelo://app?vid=79bb6607-cc78-4995-9caf-aebfa08ae6a3"},"vehicle_type_id":"4","last_reported":1701468395,"current_range_meters":24800,"station_id":"ce4bgt92rcd13ifvqcf0","pricing_plan_id":"free"},{"bike_id":"9fdb7f97-586d-42d2-befd-15216ba2e422","system_id":"levelo_inurba_marseille","lat":43.31183,"lon":5.38523,"is_reserved":false,"is_disabled":false,"rental_uris":{"android":"levelo://app?vid=9fdb7f97-586d-42d2-befd-15216ba2e422","ios":"levelo://app?vid=9fdb7f97-586d-42d2-befd-15216ba2e422"},"vehicle_type_id":"4","last_reported":1701468395,"current_range_meters":4000,"station_id":"","pricing_plan_id":"free"},{"bike_id":"748d12ab-8e09-4ecd-b2d2-cbe0ea9624f6","system_id":"levelo_inurba_marseille","lat":43.298555,"lon":5.367589,"is_reserved":false,"is_disabled":false,"rental_uris":{"android":"levelo://app?vid=748d12ab-8e09-4ecd-b2d2-cbe0ea9624f6","ios":"levelo://app?vid=748d12ab-8e09-4ecd-b2d2-cbe0ea9624f6"},"vehicle_type_id":"4","last_reported":1701468395,"current_range_meters":9200,"station_id":"","pricing_plan_id":"free"},{"bike_id":"4a4eb50c-75bb-4e6b-9faa-8e5527e44948","system_id":"levelo_inurba_marseille","lat":43.311596,"lon":5.386762,"is_reserved":false,"is_disabled":false,"rental_uris":{"android":"levelo://app?vid=4a4eb50c-75bb-4e6b-9faa-8e5527e44948","ios":"levelo://app?vid=4a4eb50c-75bb-4e6b-9faa-8e5527e44948"},"vehicle_type_id":"4","last_reported":1701468395,"current_range_meters":7200,"station_id":"ce4bgv12rcd13ifvqcp0","pricing_plan_id":"free"},{"bike_id":"36f99218-add6-4423-8c26-152d98dbb5c8","system_id":"levelo_inurba_marseille","lat":43.299243,"lon":5.37481,"is_reserved":false,"is_disabled":false,"rental_uris":{"android":"levelo://app?vid=36f99218-add6-4423-8c26-152d98dbb5c8","ios":"levelo://app?vid=36f99218-add6-4423-8c26-152d98dbb5c8"},"vehicle_type_id":"4","last_reported":1701468395,"current_range_meters":19600,"station_id":"ce4bgjh2rcd13ifvqbg0","pricing_plan_id":"free"},{"bike_id":"6b3cef23-f6cc-4417-a4d5-7ded495b6fa2","system_id":"levelo_inurba_marseille","lat":43.305364,"lon":5.384119,"is_reserved":false,"is_disabled":false,"rental_uris":{"android":"levelo://app?vid=6b3cef23-f6cc-4417-a4d5-7ded495b6fa2","ios":"levelo://app?vid=6b3cef23-f6cc-4417-a4d5-7ded495b6fa2"},"vehicle_type_id":"4","last_reported":1701468395,"current_range_meters":24400,"station_id":"ce4bgg92rcd13ifvqb30","pricing_plan_id":"free"},{"bike_id":"a18499e0-14f9-4059-b6a9-5fe4a92d7c00","system_id":"levelo_inurba_marseille","lat":43.30535,"lon":5.38425,"is_reserved":false,"is_disabled":false,"rental_uris":{"android":"levelo://app?vid=a18499e0-14f9-4059-b6a9-5fe4a92d7c00","ios":"levelo://app?vid=a18499e0-14f9-4059-b6a9-5fe4a92d7c00"},"vehicle_type_id":"4","last_reported":1701468395,"current_range_meters":24000,"station_id":"ce4bgg92rcd13ifvqb30","pricing_plan_id":"free"},{"bike_id":"5f44763d-dc73-4ab0-bef5-a3ad7b7cbef5","system_id":"levelo_inurba_marseille","lat":43.299193,"lon":5.37478,"is_reserved":false,"is_disabled":false,"rental_uris":{"android":"levelo://app?vid=5f44763d-dc73-4ab0-bef5-a3ad7b7cbef5","ios":"levelo://app?vid=5f44763d-dc73-4ab0-bef5-a3ad7b7cbef5"},"vehicle_type_id":"4","last_reported":1701468395,"current_range_meters":27600,"station_id":"ce4bgjh2rcd13ifvqbg0","pricing_plan_id":"free"},{"bike_id":"cf758772-2103-4c5d-9248-cfc6a1d99cd2","system_id":"levelo_inurba_marseille","lat":43.322872,"lon":5.382756,"is_reserved":false,"is_disabled":false,"rental_uris":{"android":"levelo://app?vid=cf758772-2103-4c5d-9248-cfc6a1d99cd2","ios":"levelo://app?vid=cf758772-2103-4c5d-9248-cfc6a1d99cd2"},"vehicle_type_id":"4","last_reported":1701468395,"current_range_meters":29600,"station_id":"ce4bhr12rcd13ifvqhqg","pricing_plan_id":"free"},{"bike_id":"e9c2a1db-09ba-458a-8020-96222a840fa4","system_id":"levelo_inurba_marseille","lat":43.322872,"lon":5.382756,"is_reserved":false,"is_disabled":false,"rental_uris":{"android":"levelo://app?vid=e9c2a1db-09ba-458a-8020-96222a840fa4","ios":"levelo://app?vid=e9c2a1db-09ba-458a-8020-96222a840fa4"},"vehicle_type_id":"4","last_reported":1701468395,"current_range_meters":26800,"station_id":"ce4bhr12rcd13ifvqhqg","pricing_plan_id":"free"},{"bike_id":"65073be3-64d5-4947-9113-fd11101b78dd","system_id":"levelo_inurba_marseille","lat":43.322872,"lon":5.382756,"is_reserved":false,"is_disabled":false,"rental_uris":{"android":"levelo://app?vid=65073be3-64d5-4947-9113-fd11101b78dd","ios":"levelo://app?vid=65073be3-64d5-4947-9113-fd11101b78dd"},"vehicle_type_id":"4","last_reported":1701468395,"current_range_meters":11200,"station_id":"ce4bhr12rcd13ifvqhqg","pricing_plan_id":"free"},{"bike_id":"c0284961-478e-4ccd-b43e-321d6e4c5580","system_id":"levelo_inurba_marseille","lat":43.32826,"lon":5.36689,"is_reserved":false,"is_disabled":false,"rental_uris":{"android":"levelo://app?vid=c0284961-478e-4ccd-b43e-321d6e4c5580","ios":"levelo://app?vid=c0284961-478e-4ccd-b43e-321d6e4c5580"},"vehicle_type_id":"4","last_reported":1701468395,"current_range_meters":5200,"station_id":"ce4bhs92rcd13ifvqi0g","pricing_plan_id":"free"},{"bike_id":"38b36a3d-7fa0-425f-884d-37f0109ceebf","system_id":"levelo_inurba_marseille","lat":43.3283,"lon":5.36691,"is_reserved":false,"is_disabled":false,"rental_uris":{"android":"levelo://app?vid=38b36a3d-7fa0-425f-884d-37f0109ceebf","ios":"levelo://app?vid=38b36a3d-7fa0-425f-884d-37f0109ceebf"},"vehicle_type_id":"4","last_reported":1701468395,"current_range_meters":15600,"station_id":"ce4bhs92rcd13ifvqi0g","pricing_plan_id":"free"},{"bike_id":"e196cafb-d37f-4b76-93ee-2d2565c7ad83","system_id":"levelo_inurba_marseille","lat":43.297034,"lon":5.365982,"is_reserved":false,"is_disabled":false,"rental_uris":{"android":"levelo://app?vid=e196cafb-d37f-4b76-93ee-2d2565c7ad83","ios":"levelo://app?vid=e196cafb-d37f-4b76-93ee-2d2565c7ad83"},"vehicle_type_id":"4","last_reported":1701468395,"current_range_meters":0,"station_id":"ce4bgn12rcd13ifvqbt0","pricing_plan_id":"free"},{"bike_id":"5983625d-69f5-485f-a399-daec2999c965","system_id":"levelo_inurba_marseille","lat":43.321503,"lon":5.385258,"is_reserved":false,"is_disabled":false,"rental_uris":{"android":"levelo://app?vid=5983625d-69f5-485f-a399-daec2999c965","ios":"levelo://app?vid=5983625d-69f5-485f-a399-daec2999c965"},"vehicle_type_id":"4","last_reported":1701468395,"current_range_meters":4800,"station_id":"","pricing_plan_id":"free"},{"bike_id":"04be5876-5a7d-432c-811b-034f26de80d2","system_id":"levelo_inurba_marseille","lat":43.2968,"lon":5.37291,"is_reserved":false,"is_disabled":false,"rental_uris":{"android":"levelo://app?vid=04be5876-5a7d-432c-811b-034f26de80d2","ios":"levelo://app?vid=04be5876-5a7d-432c-811b-034f26de80d2"},"vehicle_type_id":"4","last_reported":1701468395,"current_range_meters":25200,"station_id":"ce4bgk12rcd13ifvqbj0","pricing_plan_id":"free"},{"bike_id":"d1b54edb-4179-477c-bd05-036dd4f393fe","system_id":"levelo_inurba_marseille","lat":43.295977,"lon":5.368207,"is_reserved":false,"is_disabled":false,"rental_uris":{"android":"levelo://app?vid=d1b54edb-4179-477c-bd05-036dd4f393fe","ios":"levelo://app?vid=d1b54edb-4179-477c-bd05-036dd4f393fe"},"vehicle_type_id":"4","last_reported":1701468395,"current_range_meters":5200,"station_id":"","pricing_plan_id":"free"},{"bike_id":"34cfd328-740a-4d1f-966d-2337fcedfb53","system_id":"levelo_inurba_marseille","lat":43.299028,"lon":5.381509,"is_reserved":false,"is_disabled":false,"rental_uris":{"android":"levelo://app?vid=34cfd328-740a-4d1f-966d-2337fcedfb53","ios":"levelo://app?vid=34cfd328-740a-4d1f-966d-2337fcedfb53"},"vehicle_type_id":"4","last_reported":1701468395,"current_range_meters":27200,"station_id":"ce4bgj12rcd13ifvqbc0","pricing_plan_id":"free"},{"bike_id":"081d548b-c7c8-42e0-bf59-51b377596c46","system_id":"levelo_inurba_marseille","lat":43.309589,"lon":5.390258,"is_reserved":false,"is_disabled":false,"rental_uris":{"android":"levelo://app?vid=081d548b-c7c8-42e0-bf59-51b377596c46","ios":"levelo://app?vid=081d548b-c7c8-42e0-bf59-51b377596c46"},"vehicle_type_id":"4","last_reported":1701468395,"current_range_meters":24400,"station_id":"ce4bgup2rcd13ifvqco0","pricing_plan_id":"free"},{"bike_id":"c9a793b6-383f-4ac4-bb57-1a38a504f0fb","system_id":"levelo_inurba_marseille","lat":43.317557,"lon":5.390173,"is_reserved":false,"is_disabled":false,"rental_uris":{"android":"levelo://app?vid=c9a793b6-383f-4ac4-bb57-1a38a504f0fb","ios":"levelo://app?vid=c9a793b6-383f-4ac4-bb57-1a38a504f0fb"},"vehicle_type_id":"4","last_reported":1701468395,"current_range_meters":27600,"station_id":"ce4bhqp2rcd13ifvqhng","pricing_plan_id":"free"},{"bike_id":"99263d35-6055-4dd7-9f57-42166970aeba","system_id":"levelo_inurba_marseille","lat":43.317548,"lon":5.390166,"is_reserved":false,"is_disabled":false,"rental_uris":{"android":"levelo://app?vid=99263d35-6055-4dd7-9f57-42166970aeba","ios":"levelo://app?vid=99263d35-6055-4dd7-9f57-42166970aeba"},"vehicle_type_id":"4","last_reported":1701468395,"current_range_meters":31200,"station_id":"ce4bhqp2rcd13ifvqhng","pricing_plan_id":"free"},{"bike_id":"13ca97e5-82b5-4e06-8d78-e9793b7e594e","system_id":"levelo_inurba_marseille","lat":43.297142,"lon":5.379705,"is_reserved":false,"is_disabled":false,"rental_uris":{"android":"levelo://app?vid=13ca97e5-82b5-4e06-8d78-e9793b7e594e","ios":"levelo://app?vid=13ca97e5-82b5-4e06-8d78-e9793b7e594e"},"vehicle_type_id":"4","last_reported":1701468395,"current_range_meters":21600,"station_id":"","pricing_plan_id":"free"},{"bike_id":"299671a8-7730-4744-afbd-8669c80c9d2a","system_id":"levelo_inurba_marseille","lat":43.299717,"lon":5.384845,"is_reserved":false,"is_disabled":false,"rental_uris":{"android":"levelo://app?vid=299671a8-7730-4744-afbd-8669c80c9d2a","ios":"levelo://app?vid=299671a8-7730-4744-afbd-8669c80c9d2a"},"vehicle_type_id":"4","last_reported":1701468395,"current_range_meters":10000,"station_id":"ce4bgj92rcd13ifvqbd0","pricing_plan_id":"free"},{"bike_id":"81c81765-686e-4ef8-8ba0-60d7276501a3","system_id":"levelo_inurba_marseille","lat":43.32369,"lon":5.38769,"is_reserved":false,"is_disabled":false,"rental_uris":{"android":"levelo://app?vid=81c81765-686e-4ef8-8ba0-60d7276501a3","ios":"levelo://app?vid=81c81765-686e-4ef8-8ba0-60d7276501a3"},"vehicle_type_id":"4","last_reported":1701468395,"current_range_meters":24800,"station_id":"","pricing_plan_id":"free"},{"bike_id":"b9808852-2d0e-4bb8-83af-007553137dc5","system_id":"levelo_inurba_marseille","lat":43.32367,"lon":5.388836,"is_reserved":false,"is_disabled":false,"rental_uris":{"android":"levelo://app?vid=b9808852-2d0e-4bb8-83af-007553137dc5","ios":"levelo://app?vid=b9808852-2d0e-4bb8-83af-007553137dc5"},"vehicle_type_id":"4","last_reported":1701468395,"current_range_meters":10000,"station_id":"ce4bhqp2rcd13ifvqhog","pricing_plan_id":"free"},{"bike_id":"55bd94a9-5e69-4187-a7b0-b05780c2a781","system_id":"levelo_inurba_marseille","lat":43.32367,"lon":5.388836,"is_reserved":false,"is_disabled":false,"rental_uris":{"android":"levelo://app?vid=55bd94a9-5e69-4187-a7b0-b05780c2a781","ios":"levelo://app?vid=55bd94a9-5e69-4187-a7b0-b05780c2a781"},"vehicle_type_id":"4","last_reported":1701468395,"current_range_meters":20800,"station_id":"ce4bhqp2rcd13ifvqhog","pricing_plan_id":"free"},{"bike_id":"eaa0e7e7-2390-47fa-909b-7b240952cbef","system_id":"levelo_inurba_marseille","lat":43.319586,"lon":5.392011,"is_reserved":false,"is_disabled":false,"rental_uris":{"android":"levelo://app?vid=eaa0e7e7-2390-47fa-909b-7b240952cbef","ios":"levelo://app?vid=eaa0e7e7-2390-47fa-909b-7b240952cbef"},"vehicle_type_id":"4","last_reported":1701468395,"current_range_meters":17600,"station_id":"","pricing_plan_id":"free"},{"bike_id":"965b1ee5-a5fd-49af-94ae-9986707d5dd0","system_id":"levelo_inurba_marseille","lat":43.29601,"lon":5.381084,"is_reserved":false,"is_disabled":false,"rental_uris":{"android":"levelo://app?vid=965b1ee5-a5fd-49af-94ae-9986707d5dd0","ios":"levelo://app?vid=965b1ee5-a5fd-49af-94ae-9986707d5dd0"},"vehicle_type_id":"4","last_reported":1701468395,"current_range_meters":28400,"station_id":"ce4bgl12rcd13ifvqbo0","pricing_plan_id":"free"},{"bike_id":"1832e37a-f75f-46f6-bc73-30b88138ca5e","system_id":"levelo_inurba_marseille","lat":43.29273,"lon":5.3684,"is_reserved":false,"is_disabled":false,"rental_uris":{"android":"levelo://app?vid=1832e37a-f75f-46f6-bc73-30b88138ca5e","ios":"levelo://app?vid=1832e37a-f75f-46f6-bc73-30b88138ca5e"},"vehicle_type_id":"4","last_reported":1701468395,"current_range_meters":24000,"station_id":"ce4bhbp2rcd13ifvqesg","pricing_plan_id":"free"},{"bike_id":"54bbbf93-5e84-4d6b-b381-edb7ec3a796d","system_id":"levelo_inurba_marseille","lat":43.29306,"lon":5.37465,"is_reserved":false,"is_disabled":false,"rental_uris":{"android":"levelo://app?vid=54bbbf93-5e84-4d6b-b381-edb7ec3a796d","ios":"levelo://app?vid=54bbbf93-5e84-4d6b-b381-edb7ec3a796d"},"vehicle_type_id":"4","last_reported":1701468395,"current_range_meters":22400,"station_id":"ce4bgi12rcd13ifvqb70","pricing_plan_id":"free"},{"bike_id":"8bbc05a7-c6dd-45f3-98e0-4324207d4cc0","system_id":"levelo_inurba_marseille","lat":43.305994,"lon":5.393687,"is_reserved":false,"is_disabled":false,"rental_uris":{"android":"levelo://app?vid=8bbc05a7-c6dd-45f3-98e0-4324207d4cc0","ios":"levelo://app?vid=8bbc05a7-c6dd-45f3-98e0-4324207d4cc0"},"vehicle_type_id":"4","last_reported":1701468395,"current_range_meters":13600,"station_id":"ce4bh0p2rcd13ifvqd80","pricing_plan_id":"free"},{"bike_id":"d9feba5d-2b26-4949-be32-6d5c68a084df","system_id":"levelo_inurba_marseille","lat":43.303002,"lon":5.392142,"is_reserved":false,"is_disabled":false,"rental_uris":{"android":"levelo://app?vid=d9feba5d-2b26-4949-be32-6d5c68a084df","ios":"levelo://app?vid=d9feba5d-2b26-4949-be32-6d5c68a084df"},"vehicle_type_id":"4","last_reported":1701468395,"current_range_meters":3600,"station_id":"ce4bgkh2rcd13ifvqbk0","pricing_plan_id":"free"},{"bike_id":"712a62fb-7ed8-47ca-8d35-5884dd2dec91","system_id":"levelo_inurba_marseille","lat":43.2936,"lon":5.37835,"is_reserved":false,"is_disabled":false,"rental_uris":{"android":"levelo://app?vid=712a62fb-7ed8-47ca-8d35-5884dd2dec91","ios":"levelo://app?vid=712a62fb-7ed8-47ca-8d35-5884dd2dec91"},"vehicle_type_id":"4","last_reported":1701468395,"current_range_meters":14000,"station_id":"ce4bgjh2rcd13ifvqbf0","pricing_plan_id":"free"},{"bike_id":"a39082c2-fb65-48da-a486-ac78d4400277","system_id":"levelo_inurba_marseille","lat":43.293653,"lon":5.37864,"is_reserved":false,"is_disabled":false,"rental_uris":{"android":"levelo://app?vid=a39082c2-fb65-48da-a486-ac78d4400277","ios":"levelo://app?vid=a39082c2-fb65-48da-a486-ac78d4400277"},"vehicle_type_id":"4","last_reported":1701468395,"current_range_meters":18000,"station_id":"ce4bgjh2rcd13ifvqbf0","pricing_plan_id":"free"},{"bike_id":"148b42de-77a9-4477-b24e-da4bc2ce985c","system_id":"levelo_inurba_marseille","lat":43.30108,"lon":5.39081,"is_reserved":false,"is_disabled":false,"rental_uris":{"android":"levelo://app?vid=148b42de-77a9-4477-b24e-da4bc2ce985c","ios":"levelo://app?vid=148b42de-77a9-4477-b24e-da4bc2ce985c"},"vehicle_type_id":"4","last_reported":1701468395,"current_range_meters":26800,"station_id":"ce4bh192rcd13ifvqdb0","pricing_plan_id":"free"},{"bike_id":"cee6ab8b-8616-4121-982c-2c2f2e7f444b","system_id":"levelo_inurba_marseille","lat":43.30085,"lon":5.390856,"is_reserved":false,"is_disabled":false,"rental_uris":{"android":"levelo://app?vid=cee6ab8b-8616-4121-982c-2c2f2e7f444b","ios":"levelo://app?vid=cee6ab8b-8616-4121-982c-2c2f2e7f444b"},"vehicle_type_id":"4","last_reported":1701468395,"current_range_meters":16800,"station_id":"ce4bh192rcd13ifvqdb0","pricing_plan_id":"free"},{"bike_id":"2c9333a9-f303-4528-a874-91f7d904521d","system_id":"levelo_inurba_marseille","lat":43.309047,"lon":5.396551,"is_reserved":false,"is_disabled":false,"rental_uris":{"android":"levelo://app?vid=2c9333a9-f303-4528-a874-91f7d904521d","ios":"levelo://app?vid=2c9333a9-f303-4528-a874-91f7d904521d"},"vehicle_type_id":"4","last_reported":1701468395,"current_range_meters":24400,"station_id":"ce4bh012rcd13ifvqcv0","pricing_plan_id":"free"},{"bike_id":"52391c10-12e8-476c-b36d-42eec3feee02","system_id":"levelo_inurba_marseille","lat":43.309038,"lon":5.396546,"is_reserved":false,"is_disabled":false,"rental_uris":{"android":"levelo://app?vid=52391c10-12e8-476c-b36d-42eec3feee02","ios":"levelo://app?vid=52391c10-12e8-476c-b36d-42eec3feee02"},"vehicle_type_id":"4","last_reported":1701468395,"current_range_meters":6400,"station_id":"ce4bh012rcd13ifvqcv0","pricing_plan_id":"free"},{"bike_id":"2bc01fd6-93a9-4684-991e-967318a4c5ec","system_id":"levelo_inurba_marseille","lat":43.29536,"lon":5.38551,"is_reserved":false,"is_disabled":false,"rental_uris":{"android":"levelo://app?vid=2bc01fd6-93a9-4684-991e-967318a4c5ec","ios":"levelo://app?vid=2bc01fd6-93a9-4684-991e-967318a4c5ec"},"vehicle_type_id":"4","last_reported":1701468395,"current_range_meters":0,"station_id":"ce4bgih2rcd13ifvqba0","pricing_plan_id":"free"},{"bike_id":"71ba5b0c-0814-4406-8799-787bb2c613e7","system_id":"levelo_inurba_marseille","lat":43.29529,"lon":5.385581,"is_reserved":false,"is_disabled":false,"rental_uris":{"android":"levelo://app?vid=71ba5b0c-0814-4406-8799-787bb2c613e7","ios":"levelo://app?vid=71ba5b0c-0814-4406-8799-787bb2c613e7"},"vehicle_type_id":"4","last_reported":1701468395,"current_range_meters":14400,"station_id":"ce4bgih2rcd13ifvqba0","pricing_plan_id":"free"},{"bike_id":"418aaca3-c7a1-46bd-b88c-d3e1197213f5","system_id":"levelo_inurba_marseille","lat":43.290779,"lon":5.371482,"is_reserved":false,"is_disabled":false,"rental_uris":{"android":"levelo://app?vid=418aaca3-c7a1-46bd-b88c-d3e1197213f5","ios":"levelo://app?vid=418aaca3-c7a1-46bd-b88c-d3e1197213f5"},"vehicle_type_id":"4","last_reported":1701468395,"current_range_meters":9200,"station_id":"ce4bh5p2rcd13ifvqe4g","pricing_plan_id":"free"},{"bike_id":"aecc830e-2160-4a70-bb6b-a1774ece6d6c","system_id":"levelo_inurba_marseille","lat":43.302008,"lon":5.394694,"is_reserved":false,"is_disabled":false,"rental_uris":{"android":"levelo://app?vid=aecc830e-2160-4a70-bb6b-a1774ece6d6c","ios":"levelo://app?vid=aecc830e-2160-4a70-bb6b-a1774ece6d6c"},"vehicle_type_id":"4","last_reported":1701468395,"current_range_meters":27200,"station_id":"ce4bh0p2rcd13ifvqd70","pricing_plan_id":"free"},{"bike_id":"a22f1bc1-69fc-4e9b-9d71-284d49d6a028","system_id":"levelo_inurba_marseille","lat":43.290631,"lon":5.359244,"is_reserved":false,"is_disabled":false,"rental_uris":{"android":"levelo://app?vid=a22f1bc1-69fc-4e9b-9d71-284d49d6a028","ios":"levelo://app?vid=a22f1bc1-69fc-4e9b-9d71-284d49d6a028"},"vehicle_type_id":"4","last_reported":1701468395,"current_range_meters":2400,"station_id":"ce4bha92rcd13ifvqeg0","pricing_plan_id":"free"},{"bike_id":"228f9240-710a-4a66-b694-8deea97ffbf5","system_id":"levelo_inurba_marseille","lat":43.294153,"lon":5.386305,"is_reserved":false,"is_disabled":false,"rental_uris":{"android":"levelo://app?vid=228f9240-710a-4a66-b694-8deea97ffbf5","ios":"levelo://app?vid=228f9240-710a-4a66-b694-8deea97ffbf5"},"vehicle_type_id":"4","last_reported":1701468395,"current_range_meters":10400,"station_id":"ce4bh2h2rcd13ifvqdh0","pricing_plan_id":"free"},{"bike_id":"3e4e7550-873b-499e-bcd9-ac9ed6557aa2","system_id":"levelo_inurba_marseille","lat":43.29414,"lon":5.38625,"is_reserved":false,"is_disabled":false,"rental_uris":{"android":"levelo://app?vid=3e4e7550-873b-499e-bcd9-ac9ed6557aa2","ios":"levelo://app?vid=3e4e7550-873b-499e-bcd9-ac9ed6557aa2"},"vehicle_type_id":"4","last_reported":1701468395,"current_range_meters":22000,"station_id":"ce4bh2h2rcd13ifvqdh0","pricing_plan_id":"free"},{"bike_id":"6cf17bbe-2819-481a-948e-5cef0378798f","system_id":"levelo_inurba_marseille","lat":43.294153,"lon":5.386305,"is_reserved":false,"is_disabled":false,"rental_uris":{"android":"levelo://app?vid=6cf17bbe-2819-481a-948e-5cef0378798f","ios":"levelo://app?vid=6cf17bbe-2819-481a-948e-5cef0378798f"},"vehicle_type_id":"4","last_reported":1701468395,"current_range_meters":6800,"station_id":"ce4bh2h2rcd13ifvqdh0","pricing_plan_id":"free"},{"bike_id":"c58b39fe-f050-44d5-bbe7-4abcb7249795","system_id":"levelo_inurba_marseille","lat":43.291541,"lon":5.380542,"is_reserved":false,"is_disabled":false,"rental_uris":{"android":"levelo://app?vid=c58b39fe-f050-44d5-bbe7-4abcb7249795","ios":"levelo://app?vid=c58b39fe-f050-44d5-bbe7-4abcb7249795"},"vehicle_type_id":"4","last_reported":1701468395,"current_range_meters":17200,"station_id":"ce4bhn92rcd13ifvqgrg","pricing_plan_id":"free"},{"bike_id":"1ae43b1c-8034-4daa-9ab5-c52a642da9b3","system_id":"levelo_inurba_marseille","lat":43.29255,"lon":5.384447,"is_reserved":false,"is_disabled":false,"rental_uris":{"android":"levelo://app?vid=1ae43b1c-8034-4daa-9ab5-c52a642da9b3","ios":"levelo://app?vid=1ae43b1c-8034-4daa-9ab5-c52a642da9b3"},"vehicle_type_id":"4","last_reported":1701468395,"current_range_meters":0,"station_id":"ce4bh692rcd13ifvqea0","pricing_plan_id":"free"},{"bike_id":"a4545213-d123-4cd8-a273-4f3822b1f07e","system_id":"levelo_inurba_marseille","lat":43.290103,"lon":5.356114,"is_reserved":false,"is_disabled":false,"rental_uris":{"android":"levelo://app?vid=a4545213-d123-4cd8-a273-4f3822b1f07e","ios":"levelo://app?vid=a4545213-d123-4cd8-a273-4f3822b1f07e"},"vehicle_type_id":"4","last_reported":1701468395,"current_range_meters":0,"station_id":"ce4bhb92rcd13ifvqen0","pricing_plan_id":"free"},{"bike_id":"c4af7b6b-ba69-4724-9d0f-3d747c2f17c3","system_id":"levelo_inurba_marseille","lat":43.290104,"lon":5.356111,"is_reserved":false,"is_disabled":false,"rental_uris":{"android":"levelo://app?vid=c4af7b6b-ba69-4724-9d0f-3d747c2f17c3","ios":"levelo://app?vid=c4af7b6b-ba69-4724-9d0f-3d747c2f17c3"},"vehicle_type_id":"4","last_reported":1701468395,"current_range_meters":0,"station_id":"ce4bhb92rcd13ifvqen0","pricing_plan_id":"free"},{"bike_id":"9465dd10-b10d-40c6-93db-89b51c107c0a","system_id":"levelo_inurba_marseille","lat":43.289938,"lon":5.35607,"is_reserved":false,"is_disabled":false,"rental_uris":{"android":"levelo://app?vid=9465dd10-b10d-40c6-93db-89b51c107c0a","ios":"levelo://app?vid=9465dd10-b10d-40c6-93db-89b51c107c0a"},"vehicle_type_id":"4","last_reported":1701468395,"current_range_meters":26000,"station_id":"ce4bhb92rcd13ifvqen0","pricing_plan_id":"free"},{"bike_id":"4927c2d8-cc28-4a2c-92af-2e0fc6ce2e96","system_id":"levelo_inurba_marseille","lat":43.290995,"lon":5.381361,"is_reserved":false,"is_disabled":false,"rental_uris":{"android":"levelo://app?vid=4927c2d8-cc28-4a2c-92af-2e0fc6ce2e96","ios":"levelo://app?vid=4927c2d8-cc28-4a2c-92af-2e0fc6ce2e96"},"vehicle_type_id":"4","last_reported":1701468395,"current_range_meters":12400,"station_id":"ce4bh512rcd13ifvqe2g","pricing_plan_id":"free"},{"bike_id":"13c50093-69ce-4c3c-8b13-66eb880dc39c","system_id":"levelo_inurba_marseille","lat":43.290995,"lon":5.381361,"is_reserved":false,"is_disabled":false,"rental_uris":{"android":"levelo://app?vid=13c50093-69ce-4c3c-8b13-66eb880dc39c","ios":"levelo://app?vid=13c50093-69ce-4c3c-8b13-66eb880dc39c"},"vehicle_type_id":"4","last_reported":1701468395,"current_range_meters":18400,"station_id":"ce4bh512rcd13ifvqe2g","pricing_plan_id":"free"},{"bike_id":"fdc2fc9e-2f29-4c49-bcea-7a560d4446be","system_id":"levelo_inurba_marseille","lat":43.33052,"lon":5.390614,"is_reserved":false,"is_disabled":false,"rental_uris":{"android":"levelo://app?vid=fdc2fc9e-2f29-4c49-bcea-7a560d4446be","ios":"levelo://app?vid=fdc2fc9e-2f29-4c49-bcea-7a560d4446be"},"vehicle_type_id":"4","last_reported":1701468395,"current_range_meters":11200,"station_id":"","pricing_plan_id":"free"},{"bike_id":"f71bec80-1512-44cd-95d2-3d7fdee5df30","system_id":"levelo_inurba_marseille","lat":43.330538,"lon":5.390622,"is_reserved":false,"is_disabled":false,"rental_uris":{"android":"levelo://app?vid=f71bec80-1512-44cd-95d2-3d7fdee5df30","ios":"levelo://app?vid=f71bec80-1512-44cd-95d2-3d7fdee5df30"},"vehicle_type_id":"4","last_reported":1701468395,"current_range_meters":14400,"station_id":"","pricing_plan_id":"free"},{"bike_id":"0c387442-74c6-4cc2-9c28-3a2584222f9f","system_id":"levelo_inurba_marseille","lat":43.290094,"lon":5.381264,"is_reserved":false,"is_disabled":false,"rental_uris":{"android":"levelo://app?vid=0c387442-74c6-4cc2-9c28-3a2584222f9f","ios":"levelo://app?vid=0c387442-74c6-4cc2-9c28-3a2584222f9f"},"vehicle_type_id":"4","last_reported":1701468395,"current_range_meters":26000,"station_id":"ce4bh4p2rcd13ifvqe1g","pricing_plan_id":"free"},{"bike_id":"1631238b-5f22-4d43-85c8-d77088ce1407","system_id":"levelo_inurba_marseille","lat":43.28856,"lon":5.358371,"is_reserved":false,"is_disabled":false,"rental_uris":{"android":"levelo://app?vid=1631238b-5f22-4d43-85c8-d77088ce1407","ios":"levelo://app?vid=1631238b-5f22-4d43-85c8-d77088ce1407"},"vehicle_type_id":"4","last_reported":1701468395,"current_range_meters":22400,"station_id":"ce4bhb12rcd13ifvqem0","pricing_plan_id":"free"},{"bike_id":"5d2d3e4a-87cc-4a81-b409-386ca894a9e7","system_id":"levelo_inurba_marseille","lat":43.309371,"lon":5.401449,"is_reserved":false,"is_disabled":false,"rental_uris":{"android":"levelo://app?vid=5d2d3e4a-87cc-4a81-b409-386ca894a9e7","ios":"levelo://app?vid=5d2d3e4a-87cc-4a81-b409-386ca894a9e7"},"vehicle_type_id":"4","last_reported":1701468395,"current_range_meters":0,"station_id":"ce4bgvp2rcd13ifvqct0","pricing_plan_id":"free"},{"bike_id":"920728c3-d140-4eb7-9410-cfa127aa414b","system_id":"levelo_inurba_marseille","lat":43.33748,"lon":5.37451,"is_reserved":false,"is_disabled":false,"rental_uris":{"android":"levelo://app?vid=920728c3-d140-4eb7-9410-cfa127aa414b","ios":"levelo://app?vid=920728c3-d140-4eb7-9410-cfa127aa414b"},"vehicle_type_id":"4","last_reported":1701468395,"current_range_meters":28000,"station_id":"","pricing_plan_id":"free"},{"bike_id":"1cb3288c-2360-4421-bee9-817939cff32b","system_id":"levelo_inurba_marseille","lat":43.3377,"lon":5.3745,"is_reserved":false,"is_disabled":false,"rental_uris":{"android":"levelo://app?vid=1cb3288c-2360-4421-bee9-817939cff32b","ios":"levelo://app?vid=1cb3288c-2360-4421-bee9-817939cff32b"},"vehicle_type_id":"4","last_reported":1701468395,"current_range_meters":31200,"station_id":"","pricing_plan_id":"free"},{"bike_id":"3d556dae-7947-49fd-a8aa-d4cfa297cc42","system_id":"levelo_inurba_marseille","lat":43.306412,"lon":5.401035,"is_reserved":false,"is_disabled":false,"rental_uris":{"android":"levelo://app?vid=3d556dae-7947-49fd-a8aa-d4cfa297cc42","ios":"levelo://app?vid=3d556dae-7947-49fd-a8aa-d4cfa297cc42"},"vehicle_type_id":"4","last_reported":1701468395,"current_range_meters":25600,"station_id":"ce4bh112rcd13ifvqda0","pricing_plan_id":"free"},{"bike_id":"ecd35b54-70ca-40a4-95a6-2ffe2d32d5e3","system_id":"levelo_inurba_marseille","lat":43.28727,"lon":5.36078,"is_reserved":false,"is_disabled":false,"rental_uris":{"android":"levelo://app?vid=ecd35b54-70ca-40a4-95a6-2ffe2d32d5e3","ios":"levelo://app?vid=ecd35b54-70ca-40a4-95a6-2ffe2d32d5e3"},"vehicle_type_id":"4","last_reported":1701468395,"current_range_meters":21200,"station_id":"cki0cbj6b192h4jlfktg","pricing_plan_id":"free"},{"bike_id":"9ec423a8-0b7c-4a94-b63e-dae1cffff06e","system_id":"levelo_inurba_marseille","lat":43.286591,"lon":5.363346,"is_reserved":false,"is_disabled":false,"rental_uris":{"android":"levelo://app?vid=9ec423a8-0b7c-4a94-b63e-dae1cffff06e","ios":"levelo://app?vid=9ec423a8-0b7c-4a94-b63e-dae1cffff06e"},"vehicle_type_id":"4","last_reported":1701468395,"current_range_meters":400,"station_id":"ce4bhah2rcd13ifvqej0","pricing_plan_id":"free"},{"bike_id":"d27a50e8-78f6-40af-ba67-5e866b035351","system_id":"levelo_inurba_marseille","lat":43.286961,"lon":5.373785,"is_reserved":false,"is_disabled":false,"rental_uris":{"android":"levelo://app?vid=d27a50e8-78f6-40af-ba67-5e866b035351","ios":"levelo://app?vid=d27a50e8-78f6-40af-ba67-5e866b035351"},"vehicle_type_id":"4","last_reported":1701468395,"current_range_meters":26800,"station_id":"ce4bh3p2rcd13ifvqdq0","pricing_plan_id":"free"},{"bike_id":"29308607-8792-49e1-9b09-bcb4e4821a86","system_id":"levelo_inurba_marseille","lat":43.286591,"lon":5.363346,"is_reserved":false,"is_disabled":false,"rental_uris":{"android":"levelo://app?vid=29308607-8792-49e1-9b09-bcb4e4821a86","ios":"levelo://app?vid=29308607-8792-49e1-9b09-bcb4e4821a86"},"vehicle_type_id":"4","last_reported":1701468395,"current_range_meters":13200,"station_id":"ce4bhah2rcd13ifvqej0","pricing_plan_id":"free"},{"bike_id":"3fe3ba5a-becf-4dc4-a08f-40617e4bd9ae","system_id":"levelo_inurba_marseille","lat":43.286591,"lon":5.363346,"is_reserved":false,"is_disabled":false,"rental_uris":{"android":"levelo://app?vid=3fe3ba5a-becf-4dc4-a08f-40617e4bd9ae","ios":"levelo://app?vid=3fe3ba5a-becf-4dc4-a08f-40617e4bd9ae"},"vehicle_type_id":"4","last_reported":1701468395,"current_range_meters":14000,"station_id":"ce4bhah2rcd13ifvqej0","pricing_plan_id":"free"},{"bike_id":"523cf0b1-fce4-4718-90ab-e9be7f30f6b6","system_id":"levelo_inurba_marseille","lat":43.290345,"lon":5.38646,"is_reserved":false,"is_disabled":false,"rental_uris":{"android":"levelo://app?vid=523cf0b1-fce4-4718-90ab-e9be7f30f6b6","ios":"levelo://app?vid=523cf0b1-fce4-4718-90ab-e9be7f30f6b6"},"vehicle_type_id":"4","last_reported":1701468395,"current_range_meters":18800,"station_id":"ce4bh4p2rcd13ifvqe0g","pricing_plan_id":"free"},{"bike_id":"618ac35e-c658-40f4-8382-2a843b1e3b51","system_id":"levelo_inurba_marseille","lat":43.289307,"lon":5.38406,"is_reserved":false,"is_disabled":false,"rental_uris":{"android":"levelo://app?vid=618ac35e-c658-40f4-8382-2a843b1e3b51","ios":"levelo://app?vid=618ac35e-c658-40f4-8382-2a843b1e3b51"},"vehicle_type_id":"4","last_reported":1701468395,"current_range_meters":24400,"station_id":"ce4bh612rcd13ifvqe6g","pricing_plan_id":"free"},{"bike_id":"0267a47a-e54d-4bc6-a718-ee4ee48005fc","system_id":"levelo_inurba_marseille","lat":43.290345,"lon":5.38646,"is_reserved":false,"is_disabled":false,"rental_uris":{"android":"levelo://app?vid=0267a47a-e54d-4bc6-a718-ee4ee48005fc","ios":"levelo://app?vid=0267a47a-e54d-4bc6-a718-ee4ee48005fc"},"vehicle_type_id":"4","last_reported":1701468395,"current_range_meters":25600,"station_id":"ce4bh4p2rcd13ifvqe0g","pricing_plan_id":"free"},{"bike_id":"43fec921-74cb-4ef9-b65c-4146f4f11bee","system_id":"levelo_inurba_marseille","lat":43.290345,"lon":5.38646,"is_reserved":false,"is_disabled":false,"rental_uris":{"android":"levelo://app?vid=43fec921-74cb-4ef9-b65c-4146f4f11bee","ios":"levelo://app?vid=43fec921-74cb-4ef9-b65c-4146f4f11bee"},"vehicle_type_id":"4","last_reported":1701468395,"current_range_meters":11200,"station_id":"ce4bh4p2rcd13ifvqe0g","pricing_plan_id":"free"},{"bike_id":"e5b1b739-e1f6-4839-b650-65aa8b347ef7","system_id":"levelo_inurba_marseille","lat":43.302759,"lon":5.400793,"is_reserved":false,"is_disabled":false,"rental_uris":{"android":"levelo://app?vid=e5b1b739-e1f6-4839-b650-65aa8b347ef7","ios":"levelo://app?vid=e5b1b739-e1f6-4839-b650-65aa8b347ef7"},"vehicle_type_id":"4","last_reported":1701468395,"current_range_meters":5200,"station_id":"ce4bgvh2rcd13ifvqcs0","pricing_plan_id":"free"},{"bike_id":"d9aed37e-cd32-484f-9bac-c8c380d36d6b","system_id":"levelo_inurba_marseille","lat":43.29024,"lon":5.38653,"is_reserved":false,"is_disabled":false,"rental_uris":{"android":"levelo://app?vid=d9aed37e-cd32-484f-9bac-c8c380d36d6b","ios":"levelo://app?vid=d9aed37e-cd32-484f-9bac-c8c380d36d6b"},"vehicle_type_id":"4","last_reported":1701468395,"current_range_meters":24000,"station_id":"ce4bh4p2rcd13ifvqe0g","pricing_plan_id":"free"},{"bike_id":"b5ea89e6-ec54-40c4-9105-79e0c9865427","system_id":"levelo_inurba_marseille","lat":43.30242,"lon":5.4007,"is_reserved":false,"is_disabled":false,"rental_uris":{"android":"levelo://app?vid=b5ea89e6-ec54-40c4-9105-79e0c9865427","ios":"levelo://app?vid=b5ea89e6-ec54-40c4-9105-79e0c9865427"},"vehicle_type_id":"4","last_reported":1701468395,"current_range_meters":6000,"station_id":"ce4bgvh2rcd13ifvqcs0","pricing_plan_id":"free"},{"bike_id":"4b35f843-2d06-4054-b2a0-afdb27d8aa56","system_id":"levelo_inurba_marseille","lat":43.290345,"lon":5.38646,"is_reserved":false,"is_disabled":false,"rental_uris":{"android":"levelo://app?vid=4b35f843-2d06-4054-b2a0-afdb27d8aa56","ios":"levelo://app?vid=4b35f843-2d06-4054-b2a0-afdb27d8aa56"},"vehicle_type_id":"4","last_reported":1701468395,"current_range_meters":29600,"station_id":"ce4bh4p2rcd13ifvqe0g","pricing_plan_id":"free"},{"bike_id":"0c255fd0-4021-4307-9bd8-19a28f822961","system_id":"levelo_inurba_marseille","lat":43.29021,"lon":5.38657,"is_reserved":false,"is_disabled":false,"rental_uris":{"android":"levelo://app?vid=0c255fd0-4021-4307-9bd8-19a28f822961","ios":"levelo://app?vid=0c255fd0-4021-4307-9bd8-19a28f822961"},"vehicle_type_id":"4","last_reported":1701468395,"current_range_meters":2000,"station_id":"ce4bh4p2rcd13ifvqe0g","pricing_plan_id":"free"},{"bike_id":"bddee9d1-56af-40bf-84c3-b098693e8bc2","system_id":"levelo_inurba_marseille","lat":43.30244,"lon":5.40087,"is_reserved":false,"is_disabled":false,"rental_uris":{"android":"levelo://app?vid=bddee9d1-56af-40bf-84c3-b098693e8bc2","ios":"levelo://app?vid=bddee9d1-56af-40bf-84c3-b098693e8bc2"},"vehicle_type_id":"4","last_reported":1701468395,"current_range_meters":10400,"station_id":"ce4bgvh2rcd13ifvqcs0","pricing_plan_id":"free"},{"bike_id":"51e80092-f709-463a-96a2-8b25587b914d","system_id":"levelo_inurba_marseille","lat":43.286039,"lon":5.370681,"is_reserved":false,"is_disabled":false,"rental_uris":{"android":"levelo://app?vid=51e80092-f709-463a-96a2-8b25587b914d","ios":"levelo://app?vid=51e80092-f709-463a-96a2-8b25587b914d"},"vehicle_type_id":"4","last_reported":1701468395,"current_range_meters":27200,"station_id":"ce4bht12rcd13ifvqi60","pricing_plan_id":"free"},{"bike_id":"384f7e66-5c4f-44ef-87a3-007d4eac3bc2","system_id":"levelo_inurba_marseille","lat":43.30246,"lon":5.40096,"is_reserved":false,"is_disabled":false,"rental_uris":{"android":"levelo://app?vid=384f7e66-5c4f-44ef-87a3-007d4eac3bc2","ios":"levelo://app?vid=384f7e66-5c4f-44ef-87a3-007d4eac3bc2"},"vehicle_type_id":"4","last_reported":1701468395,"current_range_meters":27200,"station_id":"ce4bgvh2rcd13ifvqcs0","pricing_plan_id":"free"},{"bike_id":"ae273232-904a-4732-b71f-c562e810fa85","system_id":"levelo_inurba_marseille","lat":43.287053,"lon":5.379557,"is_reserved":false,"is_disabled":false,"rental_uris":{"android":"levelo://app?vid=ae273232-904a-4732-b71f-c562e810fa85","ios":"levelo://app?vid=ae273232-904a-4732-b71f-c562e810fa85"},"vehicle_type_id":"4","last_reported":1701468395,"current_range_meters":28400,"station_id":"ce4bh9p2rcd13ifvqec0","pricing_plan_id":"free"},{"bike_id":"189622c6-31d0-4222-82db-9ef7fb206284","system_id":"levelo_inurba_marseille","lat":43.284534,"lon":5.358662,"is_reserved":false,"is_disabled":false,"rental_uris":{"android":"levelo://app?vid=189622c6-31d0-4222-82db-9ef7fb206284","ios":"levelo://app?vid=189622c6-31d0-4222-82db-9ef7fb206284"},"vehicle_type_id":"4","last_reported":1701468395,"current_range_meters":4000,"station_id":"ce4bhah2rcd13ifvqei0","pricing_plan_id":"free"},{"bike_id":"c0431d32-b182-40b1-a784-2b6e12d52b19","system_id":"levelo_inurba_marseille","lat":43.294314,"lon":5.397498,"is_reserved":false,"is_disabled":false,"rental_uris":{"android":"levelo://app?vid=c0431d32-b182-40b1-a784-2b6e12d52b19","ios":"levelo://app?vid=c0431d32-b182-40b1-a784-2b6e12d52b19"},"vehicle_type_id":"4","last_reported":1701468395,"current_range_meters":8000,"station_id":"ce4bh3h2rcd13ifvqdo0","pricing_plan_id":"free"},{"bike_id":"4fec3294-b0d6-4602-8752-e8e7c54698e3","system_id":"levelo_inurba_marseille","lat":43.294314,"lon":5.397498,"is_reserved":false,"is_disabled":false,"rental_uris":{"android":"levelo://app?vid=4fec3294-b0d6-4602-8752-e8e7c54698e3","ios":"levelo://app?vid=4fec3294-b0d6-4602-8752-e8e7c54698e3"},"vehicle_type_id":"4","last_reported":1701468395,"current_range_meters":18000,"station_id":"ce4bh3h2rcd13ifvqdo0","pricing_plan_id":"free"},{"bike_id":"6876ca3c-4536-4659-b150-3e9e6d87cd51","system_id":"levelo_inurba_marseille","lat":43.284534,"lon":5.358662,"is_reserved":false,"is_disabled":false,"rental_uris":{"android":"levelo://app?vid=6876ca3c-4536-4659-b150-3e9e6d87cd51","ios":"levelo://app?vid=6876ca3c-4536-4659-b150-3e9e6d87cd51"},"vehicle_type_id":"4","last_reported":1701468395,"current_range_meters":8000,"station_id":"ce4bhah2rcd13ifvqei0","pricing_plan_id":"free"},{"bike_id":"40a0085e-25ea-4e01-afe8-763f8766a50e","system_id":"levelo_inurba_marseille","lat":43.286202,"lon":5.35097,"is_reserved":false,"is_disabled":false,"rental_uris":{"android":"levelo://app?vid=40a0085e-25ea-4e01-afe8-763f8766a50e","ios":"levelo://app?vid=40a0085e-25ea-4e01-afe8-763f8766a50e"},"vehicle_type_id":"4","last_reported":1701468395,"current_range_meters":10400,"station_id":"ce4bhch2rcd13ifvqeug","pricing_plan_id":"free"},{"bike_id":"c3463787-d853-4516-917f-ee9fab584f67","system_id":"levelo_inurba_marseille","lat":43.285848,"lon":5.350787,"is_reserved":false,"is_disabled":false,"rental_uris":{"android":"levelo://app?vid=c3463787-d853-4516-917f-ee9fab584f67","ios":"levelo://app?vid=c3463787-d853-4516-917f-ee9fab584f67"},"vehicle_type_id":"4","last_reported":1701468395,"current_range_meters":13200,"station_id":"ce4bhch2rcd13ifvqeug","pricing_plan_id":"free"},{"bike_id":"3377fb0f-5bcc-48b8-8573-a9172c6a4dc3","system_id":"levelo_inurba_marseille","lat":43.285848,"lon":5.350787,"is_reserved":false,"is_disabled":false,"rental_uris":{"android":"levelo://app?vid=3377fb0f-5bcc-48b8-8573-a9172c6a4dc3","ios":"levelo://app?vid=3377fb0f-5bcc-48b8-8573-a9172c6a4dc3"},"vehicle_type_id":"4","last_reported":1701468395,"current_range_meters":9600,"station_id":"ce4bhch2rcd13ifvqeug","pricing_plan_id":"free"},{"bike_id":"eb289157-ba48-4488-a945-0df7c601d545","system_id":"levelo_inurba_marseille","lat":43.285848,"lon":5.350787,"is_reserved":false,"is_disabled":false,"rental_uris":{"android":"levelo://app?vid=eb289157-ba48-4488-a945-0df7c601d545","ios":"levelo://app?vid=eb289157-ba48-4488-a945-0df7c601d545"},"vehicle_type_id":"4","last_reported":1701468395,"current_range_meters":19200,"station_id":"ce4bhch2rcd13ifvqeug","pricing_plan_id":"free"},{"bike_id":"d7b6a6f8-d3f9-47c4-af4e-fa1abc619c97","system_id":"levelo_inurba_marseille","lat":43.285848,"lon":5.350787,"is_reserved":false,"is_disabled":false,"rental_uris":{"android":"levelo://app?vid=d7b6a6f8-d3f9-47c4-af4e-fa1abc619c97","ios":"levelo://app?vid=d7b6a6f8-d3f9-47c4-af4e-fa1abc619c97"},"vehicle_type_id":"4","last_reported":1701468395,"current_range_meters":22000,"station_id":"ce4bhch2rcd13ifvqeug","pricing_plan_id":"free"},{"bike_id":"6442bcfe-6f3e-4e0f-946d-202ad91fc65f","system_id":"levelo_inurba_marseille","lat":43.283998,"lon":5.375062,"is_reserved":false,"is_disabled":false,"rental_uris":{"android":"levelo://app?vid=6442bcfe-6f3e-4e0f-946d-202ad91fc65f","ios":"levelo://app?vid=6442bcfe-6f3e-4e0f-946d-202ad91fc65f"},"vehicle_type_id":"4","last_reported":1701468395,"current_range_meters":10000,"station_id":"ce4bh412rcd13ifvqds0","pricing_plan_id":"free"},{"bike_id":"bdb8572d-ba3f-473f-b16b-81db1aaac173","system_id":"levelo_inurba_marseille","lat":43.283998,"lon":5.375062,"is_reserved":false,"is_disabled":false,"rental_uris":{"android":"levelo://app?vid=bdb8572d-ba3f-473f-b16b-81db1aaac173","ios":"levelo://app?vid=bdb8572d-ba3f-473f-b16b-81db1aaac173"},"vehicle_type_id":"4","last_reported":1701468395,"current_range_meters":20000,"station_id":"ce4bh412rcd13ifvqds0","pricing_plan_id":"free"},{"bike_id":"d42f5799-5cb3-4e46-a932-c865c645d9de","system_id":"levelo_inurba_marseille","lat":43.302759,"lon":5.400793,"is_reserved":false,"is_disabled":false,"rental_uris":{"android":"levelo://app?vid=d42f5799-5cb3-4e46-a932-c865c645d9de","ios":"levelo://app?vid=d42f5799-5cb3-4e46-a932-c865c645d9de"},"vehicle_type_id":"4","last_reported":1701468395,"current_range_meters":18800,"station_id":"ce4bgvh2rcd13ifvqcs0","pricing_plan_id":"free"},{"bike_id":"73f4a6b6-1014-4a5d-834c-071281f7bf69","system_id":"levelo_inurba_marseille","lat":43.295713,"lon":5.399639,"is_reserved":false,"is_disabled":false,"rental_uris":{"android":"levelo://app?vid=73f4a6b6-1014-4a5d-834c-071281f7bf69","ios":"levelo://app?vid=73f4a6b6-1014-4a5d-834c-071281f7bf69"},"vehicle_type_id":"4","last_reported":1701468395,"current_range_meters":20000,"station_id":"ce4bh312rcd13ifvqdj0","pricing_plan_id":"free"},{"bike_id":"7f458fab-3a0c-4609-8310-733ff5bbba57","system_id":"levelo_inurba_marseille","lat":43.33717,"lon":5.391857,"is_reserved":false,"is_disabled":false,"rental_uris":{"android":"levelo://app?vid=7f458fab-3a0c-4609-8310-733ff5bbba57","ios":"levelo://app?vid=7f458fab-3a0c-4609-8310-733ff5bbba57"},"vehicle_type_id":"4","last_reported":1701468395,"current_range_meters":30000,"station_id":"ce4bhr92rcd13ifvqhsg","pricing_plan_id":"free"},{"bike_id":"4714f7cd-5ff4-41d0-870b-3e9261538b58","system_id":"levelo_inurba_marseille","lat":43.323464,"lon":5.406297,"is_reserved":false,"is_disabled":false,"rental_uris":{"android":"levelo://app?vid=4714f7cd-5ff4-41d0-870b-3e9261538b58","ios":"levelo://app?vid=4714f7cd-5ff4-41d0-870b-3e9261538b58"},"vehicle_type_id":"4","last_reported":1701468395,"current_range_meters":26400,"station_id":"ce4bhq92rcd13ifvqhjg","pricing_plan_id":"free"},{"bike_id":"b945fb3d-e032-4a87-90fc-db07348a4026","system_id":"levelo_inurba_marseille","lat":43.323464,"lon":5.406297,"is_reserved":false,"is_disabled":false,"rental_uris":{"android":"levelo://app?vid=b945fb3d-e032-4a87-90fc-db07348a4026","ios":"levelo://app?vid=b945fb3d-e032-4a87-90fc-db07348a4026"},"vehicle_type_id":"4","last_reported":1701468395,"current_range_meters":1600,"station_id":"ce4bhq92rcd13ifvqhjg","pricing_plan_id":"free"},{"bike_id":"f99fc4d8-709b-4cee-a32c-2cdd6f1e8b1e","system_id":"levelo_inurba_marseille","lat":43.337168,"lon":5.391825,"is_reserved":false,"is_disabled":false,"rental_uris":{"android":"levelo://app?vid=f99fc4d8-709b-4cee-a32c-2cdd6f1e8b1e","ios":"levelo://app?vid=f99fc4d8-709b-4cee-a32c-2cdd6f1e8b1e"},"vehicle_type_id":"4","last_reported":1701468395,"current_range_meters":26400,"station_id":"ce4bhr92rcd13ifvqhsg","pricing_plan_id":"free"},{"bike_id":"4092b413-a8f0-49fd-8cc3-69bf3f509a40","system_id":"levelo_inurba_marseille","lat":43.32336,"lon":5.40627,"is_reserved":false,"is_disabled":false,"rental_uris":{"android":"levelo://app?vid=4092b413-a8f0-49fd-8cc3-69bf3f509a40","ios":"levelo://app?vid=4092b413-a8f0-49fd-8cc3-69bf3f509a40"},"vehicle_type_id":"4","last_reported":1701468395,"current_range_meters":12800,"station_id":"ce4bhq92rcd13ifvqhjg","pricing_plan_id":"free"},{"bike_id":"4a2913db-922d-4448-950f-3c0d9a797a4e","system_id":"levelo_inurba_marseille","lat":43.284793,"lon":5.384113,"is_reserved":false,"is_disabled":false,"rental_uris":{"android":"levelo://app?vid=4a2913db-922d-4448-950f-3c0d9a797a4e","ios":"levelo://app?vid=4a2913db-922d-4448-950f-3c0d9a797a4e"},"vehicle_type_id":"4","last_reported":1701468395,"current_range_meters":23200,"station_id":"ce4bh512rcd13ifvqe3g","pricing_plan_id":"free"},{"bike_id":"9b2e6b04-1f88-4581-8930-d210a5b38360","system_id":"levelo_inurba_marseille","lat":43.288501,"lon":5.393087,"is_reserved":false,"is_disabled":false,"rental_uris":{"android":"levelo://app?vid=9b2e6b04-1f88-4581-8930-d210a5b38360","ios":"levelo://app?vid=9b2e6b04-1f88-4581-8930-d210a5b38360"},"vehicle_type_id":"4","last_reported":1701468395,"current_range_meters":14000,"station_id":"ce4bh2p2rcd13ifvqdi0","pricing_plan_id":"free"},{"bike_id":"ee04b340-1b6e-49bd-9932-e2fd52badb73","system_id":"levelo_inurba_marseille","lat":43.288501,"lon":5.393087,"is_reserved":false,"is_disabled":false,"rental_uris":{"android":"levelo://app?vid=ee04b340-1b6e-49bd-9932-e2fd52badb73","ios":"levelo://app?vid=ee04b340-1b6e-49bd-9932-e2fd52badb73"},"vehicle_type_id":"4","last_reported":1701468395,"current_range_meters":3600,"station_id":"ce4bh2p2rcd13ifvqdi0","pricing_plan_id":"free"},{"bike_id":"4fde362e-b666-40d1-b601-a1d32ef9b744","system_id":"levelo_inurba_marseille","lat":43.28334,"lon":5.3812,"is_reserved":false,"is_disabled":false,"rental_uris":{"android":"levelo://app?vid=4fde362e-b666-40d1-b601-a1d32ef9b744","ios":"levelo://app?vid=4fde362e-b666-40d1-b601-a1d32ef9b744"},"vehicle_type_id":"4","last_reported":1701468395,"current_range_meters":13600,"station_id":"ce4bh412rcd13ifvqdr0","pricing_plan_id":"free"},{"bike_id":"47afa503-275c-4f70-bb54-ec9e9fe2d3cc","system_id":"levelo_inurba_marseille","lat":43.28944,"lon":5.39631,"is_reserved":false,"is_disabled":false,"rental_uris":{"android":"levelo://app?vid=47afa503-275c-4f70-bb54-ec9e9fe2d3cc","ios":"levelo://app?vid=47afa503-275c-4f70-bb54-ec9e9fe2d3cc"},"vehicle_type_id":"4","last_reported":1701468395,"current_range_meters":19200,"station_id":"ce4bh3h2rcd13ifvqdn0","pricing_plan_id":"free"},{"bike_id":"32d27d1e-be88-4097-b333-9847c4cdc61f","system_id":"levelo_inurba_marseille","lat":43.292724,"lon":5.401131,"is_reserved":false,"is_disabled":false,"rental_uris":{"android":"levelo://app?vid=32d27d1e-be88-4097-b333-9847c4cdc61f","ios":"levelo://app?vid=32d27d1e-be88-4097-b333-9847c4cdc61f"},"vehicle_type_id":"4","last_reported":1701468395,"current_range_meters":24400,"station_id":"ce4bh312rcd13ifvqdk0","pricing_plan_id":"free"},{"bike_id":"69881fbf-c0ea-49af-a1fc-762bfb1388e1","system_id":"levelo_inurba_marseille","lat":43.282754,"lon":5.350519,"is_reserved":false,"is_disabled":false,"rental_uris":{"android":"levelo://app?vid=69881fbf-c0ea-49af-a1fc-762bfb1388e1","ios":"levelo://app?vid=69881fbf-c0ea-49af-a1fc-762bfb1388e1"},"vehicle_type_id":"4","last_reported":1701468395,"current_range_meters":30400,"station_id":"ce4bhbp2rcd13ifvqerg","pricing_plan_id":"free"},{"bike_id":"93036383-9e0b-4820-8951-5351d0d0f806","system_id":"levelo_inurba_marseille","lat":43.282754,"lon":5.350519,"is_reserved":false,"is_disabled":false,"rental_uris":{"android":"levelo://app?vid=93036383-9e0b-4820-8951-5351d0d0f806","ios":"levelo://app?vid=93036383-9e0b-4820-8951-5351d0d0f806"},"vehicle_type_id":"4","last_reported":1701468395,"current_range_meters":22400,"station_id":"ce4bhbp2rcd13ifvqerg","pricing_plan_id":"free"},{"bike_id":"bad57887-f492-4b0f-8b83-5f6e680a40b5","system_id":"levelo_inurba_marseille","lat":43.283502,"lon":5.386471,"is_reserved":false,"is_disabled":false,"rental_uris":{"android":"levelo://app?vid=bad57887-f492-4b0f-8b83-5f6e680a40b5","ios":"levelo://app?vid=bad57887-f492-4b0f-8b83-5f6e680a40b5"},"vehicle_type_id":"4","last_reported":1701468395,"current_range_meters":27200,"station_id":"ce4bh492rcd13ifvqdvg","pricing_plan_id":"free"},{"bike_id":"384e313f-492c-4d83-a1a6-c31122558ed0","system_id":"levelo_inurba_marseille","lat":43.280382,"lon":5.369291,"is_reserved":false,"is_disabled":false,"rental_uris":{"android":"levelo://app?vid=384e313f-492c-4d83-a1a6-c31122558ed0","ios":"levelo://app?vid=384e313f-492c-4d83-a1a6-c31122558ed0"},"vehicle_type_id":"4","last_reported":1701468395,"current_range_meters":18400,"station_id":"ce4bha12rcd13ifvqef0","pricing_plan_id":"free"},{"bike_id":"da9c69a8-f034-4bc4-bd6f-19169039de2b","system_id":"levelo_inurba_marseille","lat":43.280382,"lon":5.369291,"is_reserved":false,"is_disabled":false,"rental_uris":{"android":"levelo://app?vid=da9c69a8-f034-4bc4-bd6f-19169039de2b","ios":"levelo://app?vid=da9c69a8-f034-4bc4-bd6f-19169039de2b"},"vehicle_type_id":"4","last_reported":1701468395,"current_range_meters":25200,"station_id":"ce4bha12rcd13ifvqef0","pricing_plan_id":"free"},{"bike_id":"af0cbd31-bc64-4543-ad67-5e22b8fdb205","system_id":"levelo_inurba_marseille","lat":43.29041,"lon":5.399634,"is_reserved":false,"is_disabled":false,"rental_uris":{"android":"levelo://app?vid=af0cbd31-bc64-4543-ad67-5e22b8fdb205","ios":"levelo://app?vid=af0cbd31-bc64-4543-ad67-5e22b8fdb205"},"vehicle_type_id":"4","last_reported":1701468395,"current_range_meters":7200,"station_id":"ce4bh392rcd13ifvqdm0","pricing_plan_id":"free"},{"bike_id":"67284c07-d246-4b08-abde-85a0fef44085","system_id":"levelo_inurba_marseille","lat":43.281044,"lon":5.378308,"is_reserved":false,"is_disabled":false,"rental_uris":{"android":"levelo://app?vid=67284c07-d246-4b08-abde-85a0fef44085","ios":"levelo://app?vid=67284c07-d246-4b08-abde-85a0fef44085"},"vehicle_type_id":"4","last_reported":1701468395,"current_range_meters":30800,"station_id":"ce4bha12rcd13ifvqee0","pricing_plan_id":"free"},{"bike_id":"259cc01d-55ba-4fa3-bb85-25440a4cf257","system_id":"levelo_inurba_marseille","lat":43.281044,"lon":5.378308,"is_reserved":false,"is_disabled":false,"rental_uris":{"android":"levelo://app?vid=259cc01d-55ba-4fa3-bb85-25440a4cf257","ios":"levelo://app?vid=259cc01d-55ba-4fa3-bb85-25440a4cf257"},"vehicle_type_id":"4","last_reported":1701468395,"current_range_meters":20400,"station_id":"ce4bha12rcd13ifvqee0","pricing_plan_id":"free"},{"bike_id":"0a35d642-f071-4392-8646-da8c032536ab","system_id":"levelo_inurba_marseille","lat":43.29041,"lon":5.399634,"is_reserved":false,"is_disabled":false,"rental_uris":{"android":"levelo://app?vid=0a35d642-f071-4392-8646-da8c032536ab","ios":"levelo://app?vid=0a35d642-f071-4392-8646-da8c032536ab"},"vehicle_type_id":"4","last_reported":1701468395,"current_range_meters":29600,"station_id":"ce4bh392rcd13ifvqdm0","pricing_plan_id":"free"},{"bike_id":"679ee0e9-0d2e-4b47-908d-8f258d9ea3ca","system_id":"levelo_inurba_marseille","lat":43.284462,"lon":5.392121,"is_reserved":false,"is_disabled":false,"rental_uris":{"android":"levelo://app?vid=679ee0e9-0d2e-4b47-908d-8f258d9ea3ca","ios":"levelo://app?vid=679ee0e9-0d2e-4b47-908d-8f258d9ea3ca"},"vehicle_type_id":"4","last_reported":1701468395,"current_range_meters":22000,"station_id":"ce4bhoh2rcd13ifvqh5g","pricing_plan_id":"free"},{"bike_id":"2fd7a7a9-7d3f-40a7-943b-58eb9afc5c16","system_id":"levelo_inurba_marseille","lat":43.284462,"lon":5.392121,"is_reserved":false,"is_disabled":false,"rental_uris":{"android":"levelo://app?vid=2fd7a7a9-7d3f-40a7-943b-58eb9afc5c16","ios":"levelo://app?vid=2fd7a7a9-7d3f-40a7-943b-58eb9afc5c16"},"vehicle_type_id":"4","last_reported":1701468395,"current_range_meters":31200,"station_id":"ce4bhoh2rcd13ifvqh5g","pricing_plan_id":"free"},{"bike_id":"b70188a9-3098-49e9-b32e-e2fa4d187eca","system_id":"levelo_inurba_marseille","lat":43.28436,"lon":5.39191,"is_reserved":false,"is_disabled":false,"rental_uris":{"android":"levelo://app?vid=b70188a9-3098-49e9-b32e-e2fa4d187eca","ios":"levelo://app?vid=b70188a9-3098-49e9-b32e-e2fa4d187eca"},"vehicle_type_id":"4","last_reported":1701468395,"current_range_meters":25600,"station_id":"ce4bhoh2rcd13ifvqh5g","pricing_plan_id":"free"},{"bike_id":"7fe3ac52-5fac-47cb-97cc-3fc0617535d9","system_id":"levelo_inurba_marseille","lat":43.28573,"lon":5.394992,"is_reserved":false,"is_disabled":false,"rental_uris":{"android":"levelo://app?vid=7fe3ac52-5fac-47cb-97cc-3fc0617535d9","ios":"levelo://app?vid=7fe3ac52-5fac-47cb-97cc-3fc0617535d9"},"vehicle_type_id":"4","last_reported":1701468395,"current_range_meters":31200,"station_id":"ce4bh292rcd13ifvqdg0","pricing_plan_id":"free"},{"bike_id":"c57c917a-e675-4cd3-bc55-1a4b865cab21","system_id":"levelo_inurba_marseille","lat":43.285742,"lon":5.395004,"is_reserved":false,"is_disabled":false,"rental_uris":{"android":"levelo://app?vid=c57c917a-e675-4cd3-bc55-1a4b865cab21","ios":"levelo://app?vid=c57c917a-e675-4cd3-bc55-1a4b865cab21"},"vehicle_type_id":"4","last_reported":1701468395,"current_range_meters":25600,"station_id":"ce4bh292rcd13ifvqdg0","pricing_plan_id":"free"},{"bike_id":"7e40992b-ed0d-4ecd-bdb8-cac451d70959","system_id":"levelo_inurba_marseille","lat":43.28573,"lon":5.394992,"is_reserved":false,"is_disabled":false,"rental_uris":{"android":"levelo://app?vid=7e40992b-ed0d-4ecd-bdb8-cac451d70959","ios":"levelo://app?vid=7e40992b-ed0d-4ecd-bdb8-cac451d70959"},"vehicle_type_id":"4","last_reported":1701468395,"current_range_meters":11200,"station_id":"ce4bh292rcd13ifvqdg0","pricing_plan_id":"free"},{"bike_id":"b3a83936-9830-4527-be31-08fc31f37344","system_id":"levelo_inurba_marseille","lat":43.28573,"lon":5.394992,"is_reserved":false,"is_disabled":false,"rental_uris":{"android":"levelo://app?vid=b3a83936-9830-4527-be31-08fc31f37344","ios":"levelo://app?vid=b3a83936-9830-4527-be31-08fc31f37344"},"vehicle_type_id":"4","last_reported":1701468395,"current_range_meters":18000,"station_id":"ce4bh292rcd13ifvqdg0","pricing_plan_id":"free"},{"bike_id":"96496c0a-f1aa-4bd5-b562-e791274ad1b2","system_id":"levelo_inurba_marseille","lat":43.326605,"lon":5.409903,"is_reserved":false,"is_disabled":false,"rental_uris":{"android":"levelo://app?vid=96496c0a-f1aa-4bd5-b562-e791274ad1b2","ios":"levelo://app?vid=96496c0a-f1aa-4bd5-b562-e791274ad1b2"},"vehicle_type_id":"4","last_reported":1701468395,"current_range_meters":26800,"station_id":"ce4bhpp2rcd13ifvqhgg","pricing_plan_id":"free"},{"bike_id":"3b198d43-72ef-4135-8019-b1e33447ab96","system_id":"levelo_inurba_marseille","lat":43.279087,"lon":5.380114,"is_reserved":false,"is_disabled":false,"rental_uris":{"android":"levelo://app?vid=3b198d43-72ef-4135-8019-b1e33447ab96","ios":"levelo://app?vid=3b198d43-72ef-4135-8019-b1e33447ab96"},"vehicle_type_id":"4","last_reported":1701468395,"current_range_meters":27600,"station_id":"ce4bhf92rcd13ifvqf50","pricing_plan_id":"free"},{"bike_id":"c4cd0b9d-0c41-4d84-aa06-fab71e60a157","system_id":"levelo_inurba_marseille","lat":43.28706,"lon":5.39997,"is_reserved":false,"is_disabled":false,"rental_uris":{"android":"levelo://app?vid=c4cd0b9d-0c41-4d84-aa06-fab71e60a157","ios":"levelo://app?vid=c4cd0b9d-0c41-4d84-aa06-fab71e60a157"},"vehicle_type_id":"4","last_reported":1701468395,"current_range_meters":11600,"station_id":"ce4bho92rcd13ifvqh3g","pricing_plan_id":"free"},{"bike_id":"cb8e2a69-243f-496f-9548-825bb94ddd44","system_id":"levelo_inurba_marseille","lat":43.29252,"lon":5.40897,"is_reserved":false,"is_disabled":false,"rental_uris":{"android":"levelo://app?vid=cb8e2a69-243f-496f-9548-825bb94ddd44","ios":"levelo://app?vid=cb8e2a69-243f-496f-9548-825bb94ddd44"},"vehicle_type_id":"4","last_reported":1701468395,"current_range_meters":0,"station_id":"ce4bh192rcd13ifvqdc0","pricing_plan_id":"free"},{"bike_id":"c4ba2439-c168-4da6-b729-1f7503155f2e","system_id":"levelo_inurba_marseille","lat":43.29254,"lon":5.40904,"is_reserved":false,"is_disabled":false,"rental_uris":{"android":"levelo://app?vid=c4ba2439-c168-4da6-b729-1f7503155f2e","ios":"levelo://app?vid=c4ba2439-c168-4da6-b729-1f7503155f2e"},"vehicle_type_id":"4","last_reported":1701468395,"current_range_meters":23600,"station_id":"ce4bh192rcd13ifvqdc0","pricing_plan_id":"free"},{"bike_id":"526b28c0-af5c-4ca6-a2cb-18f0c4599abf","system_id":"levelo_inurba_marseille","lat":43.292647,"lon":5.409162,"is_reserved":false,"is_disabled":false,"rental_uris":{"android":"levelo://app?vid=526b28c0-af5c-4ca6-a2cb-18f0c4599abf","ios":"levelo://app?vid=526b28c0-af5c-4ca6-a2cb-18f0c4599abf"},"vehicle_type_id":"4","last_reported":1701468395,"current_range_meters":22400,"station_id":"","pricing_plan_id":"free"},{"bike_id":"26219ec4-3e55-4361-8024-d785cc401ab4","system_id":"levelo_inurba_marseille","lat":43.29258,"lon":5.40911,"is_reserved":false,"is_disabled":false,"rental_uris":{"android":"levelo://app?vid=26219ec4-3e55-4361-8024-d785cc401ab4","ios":"levelo://app?vid=26219ec4-3e55-4361-8024-d785cc401ab4"},"vehicle_type_id":"4","last_reported":1701468395,"current_range_meters":30800,"station_id":"ce4bh192rcd13ifvqdc0","pricing_plan_id":"free"},{"bike_id":"df7fb786-3a0f-4ca8-9200-5934e980f116","system_id":"levelo_inurba_marseille","lat":43.27618,"lon":5.361009,"is_reserved":false,"is_disabled":false,"rental_uris":{"android":"levelo://app?vid=df7fb786-3a0f-4ca8-9200-5934e980f116","ios":"levelo://app?vid=df7fb786-3a0f-4ca8-9200-5934e980f116"},"vehicle_type_id":"4","last_reported":1701468395,"current_range_meters":16400,"station_id":"ce4bgj92rcd13ifvqbe0","pricing_plan_id":"free"},{"bike_id":"662d7ac0-b60c-4589-b775-59c466096683","system_id":"levelo_inurba_marseille","lat":43.325233,"lon":5.414318,"is_reserved":false,"is_disabled":false,"rental_uris":{"android":"levelo://app?vid=662d7ac0-b60c-4589-b775-59c466096683","ios":"levelo://app?vid=662d7ac0-b60c-4589-b775-59c466096683"},"vehicle_type_id":"4","last_reported":1701468395,"current_range_meters":29600,"station_id":"ce4bhq12rcd13ifvqhhg","pricing_plan_id":"free"},{"bike_id":"50f7840e-a9cf-4f40-b946-216ee75649a2","system_id":"levelo_inurba_marseille","lat":43.27611,"lon":5.36108,"is_reserved":false,"is_disabled":false,"rental_uris":{"android":"levelo://app?vid=50f7840e-a9cf-4f40-b946-216ee75649a2","ios":"levelo://app?vid=50f7840e-a9cf-4f40-b946-216ee75649a2"},"vehicle_type_id":"4","last_reported":1701468395,"current_range_meters":4800,"station_id":"ce4bgj92rcd13ifvqbe0","pricing_plan_id":"free"},{"bike_id":"7cda6506-1dca-4d1f-b208-0241def2b98e","system_id":"levelo_inurba_marseille","lat":43.303837,"lon":5.418724,"is_reserved":false,"is_disabled":false,"rental_uris":{"android":"levelo://app?vid=7cda6506-1dca-4d1f-b208-0241def2b98e","ios":"levelo://app?vid=7cda6506-1dca-4d1f-b208-0241def2b98e"},"vehicle_type_id":"4","last_reported":1701468395,"current_range_meters":13600,"station_id":"ce4bhop2rcd13ifvqh7g","pricing_plan_id":"free"},{"bike_id":"dad9420d-36bf-47cb-8906-3c62e7ceb4b7","system_id":"levelo_inurba_marseille","lat":43.30355,"lon":5.41891,"is_reserved":false,"is_disabled":false,"rental_uris":{"android":"levelo://app?vid=dad9420d-36bf-47cb-8906-3c62e7ceb4b7","ios":"levelo://app?vid=dad9420d-36bf-47cb-8906-3c62e7ceb4b7"},"vehicle_type_id":"4","last_reported":1701468395,"current_range_meters":19200,"station_id":"ce4bhop2rcd13ifvqh7g","pricing_plan_id":"free"},{"bike_id":"edff782a-cd00-42d1-8865-63a8e381c23b","system_id":"levelo_inurba_marseille","lat":43.278399,"lon":5.392139,"is_reserved":false,"is_disabled":false,"rental_uris":{"android":"levelo://app?vid=edff782a-cd00-42d1-8865-63a8e381c23b","ios":"levelo://app?vid=edff782a-cd00-42d1-8865-63a8e381c23b"},"vehicle_type_id":"4","last_reported":1701468395,"current_range_meters":27600,"station_id":"ce4bhjp2rcd13ifvqga0","pricing_plan_id":"free"},{"bike_id":"48e88626-98ec-4601-9420-6bee8678acec","system_id":"levelo_inurba_marseille","lat":43.278401,"lon":5.392152,"is_reserved":false,"is_disabled":false,"rental_uris":{"android":"levelo://app?vid=48e88626-98ec-4601-9420-6bee8678acec","ios":"levelo://app?vid=48e88626-98ec-4601-9420-6bee8678acec"},"vehicle_type_id":"4","last_reported":1701468395,"current_range_meters":10400,"station_id":"ce4bhjp2rcd13ifvqga0","pricing_plan_id":"free"},{"bike_id":"9af7d771-196b-4352-b274-143f6844e6bc","system_id":"levelo_inurba_marseille","lat":43.336134,"lon":5.410341,"is_reserved":false,"is_disabled":false,"rental_uris":{"android":"levelo://app?vid=9af7d771-196b-4352-b274-143f6844e6bc","ios":"levelo://app?vid=9af7d771-196b-4352-b274-143f6844e6bc"},"vehicle_type_id":"4","last_reported":1701468395,"current_range_meters":25200,"station_id":"ce4bhqh2rcd13ifvqhmg","pricing_plan_id":"free"},{"bike_id":"3308079f-d65b-4f92-9cc6-a28a1f6a4d2c","system_id":"levelo_inurba_marseille","lat":43.275625,"lon":5.384392,"is_reserved":false,"is_disabled":false,"rental_uris":{"android":"levelo://app?vid=3308079f-d65b-4f92-9cc6-a28a1f6a4d2c","ios":"levelo://app?vid=3308079f-d65b-4f92-9cc6-a28a1f6a4d2c"},"vehicle_type_id":"4","last_reported":1701468395,"current_range_meters":29200,"station_id":"ce4bhh92rcd13ifvqfi0","pricing_plan_id":"free"},{"bike_id":"33918e0d-cdb0-4611-a687-3272d72d60a6","system_id":"levelo_inurba_marseille","lat":43.325301,"lon":5.421285,"is_reserved":false,"is_disabled":false,"rental_uris":{"android":"levelo://app?vid=33918e0d-cdb0-4611-a687-3272d72d60a6","ios":"levelo://app?vid=33918e0d-cdb0-4611-a687-3272d72d60a6"},"vehicle_type_id":"4","last_reported":1701468395,"current_range_meters":26800,"station_id":"","pricing_plan_id":"free"},{"bike_id":"894f6494-585b-4b1b-a39f-39b137cf17d0","system_id":"levelo_inurba_marseille","lat":43.310785,"lon":5.424305,"is_reserved":false,"is_disabled":false,"rental_uris":{"android":"levelo://app?vid=894f6494-585b-4b1b-a39f-39b137cf17d0","ios":"levelo://app?vid=894f6494-585b-4b1b-a39f-39b137cf17d0"},"vehicle_type_id":"4","last_reported":1701468395,"current_range_meters":12000,"station_id":"ce4bhp92rcd13ifvqhag","pricing_plan_id":"free"},{"bike_id":"ec8cda27-8133-4ca8-abd6-6a978c40f976","system_id":"levelo_inurba_marseille","lat":43.340804,"lon":5.410219,"is_reserved":false,"is_disabled":false,"rental_uris":{"android":"levelo://app?vid=ec8cda27-8133-4ca8-abd6-6a978c40f976","ios":"levelo://app?vid=ec8cda27-8133-4ca8-abd6-6a978c40f976"},"vehicle_type_id":"4","last_reported":1701468395,"current_range_meters":14400,"station_id":"ce4bhqh2rcd13ifvqhlg","pricing_plan_id":"free"},{"bike_id":"7ed57e64-d5e4-414f-8eb1-b422e851258b","system_id":"levelo_inurba_marseille","lat":43.295523,"lon":5.422926,"is_reserved":false,"is_disabled":false,"rental_uris":{"android":"levelo://app?vid=7ed57e64-d5e4-414f-8eb1-b422e851258b","ios":"levelo://app?vid=7ed57e64-d5e4-414f-8eb1-b422e851258b"},"vehicle_type_id":"4","last_reported":1701468395,"current_range_meters":16800,"station_id":"ce4bhph2rcd13ifvqhdg","pricing_plan_id":"free"},{"bike_id":"2fd3642f-f043-47ed-8015-d904c8b402fd","system_id":"levelo_inurba_marseille","lat":43.27214,"lon":5.39134,"is_reserved":false,"is_disabled":false,"rental_uris":{"android":"levelo://app?vid=2fd3642f-f043-47ed-8015-d904c8b402fd","ios":"levelo://app?vid=2fd3642f-f043-47ed-8015-d904c8b402fd"},"vehicle_type_id":"4","last_reported":1701468395,"current_range_meters":0,"station_id":"ce4bhhp2rcd13ifvqfm0","pricing_plan_id":"free"},{"bike_id":"c9d37456-2e3f-46f6-b1d0-e19f6d661335","system_id":"levelo_inurba_marseille","lat":43.272124,"lon":5.391768,"is_reserved":false,"is_disabled":false,"rental_uris":{"android":"levelo://app?vid=c9d37456-2e3f-46f6-b1d0-e19f6d661335","ios":"levelo://app?vid=c9d37456-2e3f-46f6-b1d0-e19f6d661335"},"vehicle_type_id":"4","last_reported":1701468395,"current_range_meters":24400,"station_id":"ce4bhhp2rcd13ifvqfm0","pricing_plan_id":"free"},{"bike_id":"b1dff8c7-a0f6-4d0a-ae54-bdd75040aa47","system_id":"levelo_inurba_marseille","lat":43.272116,"lon":5.391747,"is_reserved":false,"is_disabled":false,"rental_uris":{"android":"levelo://app?vid=b1dff8c7-a0f6-4d0a-ae54-bdd75040aa47","ios":"levelo://app?vid=b1dff8c7-a0f6-4d0a-ae54-bdd75040aa47"},"vehicle_type_id":"4","last_reported":1701468395,"current_range_meters":19600,"station_id":"ce4bhhp2rcd13ifvqfm0","pricing_plan_id":"free"},{"bike_id":"706e4a02-a27d-4d04-aeb3-389469bc449c","system_id":"levelo_inurba_marseille","lat":43.278128,"lon":5.407195,"is_reserved":false,"is_disabled":false,"rental_uris":{"android":"levelo://app?vid=706e4a02-a27d-4d04-aeb3-389469bc449c","ios":"levelo://app?vid=706e4a02-a27d-4d04-aeb3-389469bc449c"},"vehicle_type_id":"4","last_reported":1701468395,"current_range_meters":4000,"station_id":"ce4bhnh2rcd13ifvqgtg","pricing_plan_id":"free"},{"bike_id":"8f235616-66dc-486c-875c-c51be2a706b4","system_id":"levelo_inurba_marseille","lat":43.27947,"lon":5.41046,"is_reserved":false,"is_disabled":false,"rental_uris":{"android":"levelo://app?vid=8f235616-66dc-486c-875c-c51be2a706b4","ios":"levelo://app?vid=8f235616-66dc-486c-875c-c51be2a706b4"},"vehicle_type_id":"4","last_reported":1701468395,"current_range_meters":22800,"station_id":"ce4bhnp2rcd13ifvqh0g","pricing_plan_id":"free"},{"bike_id":"a2d420dd-14be-462d-a1c6-cb06f97f2ed5","system_id":"levelo_inurba_marseille","lat":43.27996,"lon":5.416624,"is_reserved":false,"is_disabled":false,"rental_uris":{"android":"levelo://app?vid=a2d420dd-14be-462d-a1c6-cb06f97f2ed5","ios":"levelo://app?vid=a2d420dd-14be-462d-a1c6-cb06f97f2ed5"},"vehicle_type_id":"4","last_reported":1701468395,"current_range_meters":23200,"station_id":"ce4bho12rcd13ifvqh1g","pricing_plan_id":"free"},{"bike_id":"6787df9e-23f3-497d-a354-f799784c3d82","system_id":"levelo_inurba_marseille","lat":43.265714,"lon":5.372891,"is_reserved":false,"is_disabled":false,"rental_uris":{"android":"levelo://app?vid=6787df9e-23f3-497d-a354-f799784c3d82","ios":"levelo://app?vid=6787df9e-23f3-497d-a354-f799784c3d82"},"vehicle_type_id":"4","last_reported":1701468395,"current_range_meters":14000,"station_id":"ce4bhg12rcd13ifvqf70","pricing_plan_id":"free"},{"bike_id":"40f1e3bc-8f5c-471e-9057-c007523bc0f9","system_id":"levelo_inurba_marseille","lat":43.267966,"lon":5.393976,"is_reserved":false,"is_disabled":false,"rental_uris":{"android":"levelo://app?vid=40f1e3bc-8f5c-471e-9057-c007523bc0f9","ios":"levelo://app?vid=40f1e3bc-8f5c-471e-9057-c007523bc0f9"},"vehicle_type_id":"4","last_reported":1701468395,"current_range_meters":27600,"station_id":"ce4bhh12rcd13ifvqfg0","pricing_plan_id":"free"},{"bike_id":"58ae9f60-d432-4b94-9ce7-4f28b8752645","system_id":"levelo_inurba_marseille","lat":43.267966,"lon":5.393976,"is_reserved":false,"is_disabled":false,"rental_uris":{"android":"levelo://app?vid=58ae9f60-d432-4b94-9ce7-4f28b8752645","ios":"levelo://app?vid=58ae9f60-d432-4b94-9ce7-4f28b8752645"},"vehicle_type_id":"4","last_reported":1701468395,"current_range_meters":11600,"station_id":"ce4bhh12rcd13ifvqfg0","pricing_plan_id":"free"},{"bike_id":"92311913-f3a0-413e-bbcf-fb6d37d5230a","system_id":"levelo_inurba_marseille","lat":43.308051,"lon":5.43527,"is_reserved":false,"is_disabled":false,"rental_uris":{"android":"levelo://app?vid=92311913-f3a0-413e-bbcf-fb6d37d5230a","ios":"levelo://app?vid=92311913-f3a0-413e-bbcf-fb6d37d5230a"},"vehicle_type_id":"4","last_reported":1701468395,"current_range_meters":26000,"station_id":"ce4bhph2rcd13ifvqheg","pricing_plan_id":"free"},{"bike_id":"55b33a5c-1177-4dd9-b3a0-e993463bd4e2","system_id":"levelo_inurba_marseille","lat":43.308051,"lon":5.43527,"is_reserved":false,"is_disabled":false,"rental_uris":{"android":"levelo://app?vid=55b33a5c-1177-4dd9-b3a0-e993463bd4e2","ios":"levelo://app?vid=55b33a5c-1177-4dd9-b3a0-e993463bd4e2"},"vehicle_type_id":"4","last_reported":1701468395,"current_range_meters":29200,"station_id":"ce4bhph2rcd13ifvqheg","pricing_plan_id":"free"},{"bike_id":"c71160fc-c7b7-4c0b-8b7c-da5014dcb825","system_id":"levelo_inurba_marseille","lat":43.317104,"lon":5.436818,"is_reserved":false,"is_disabled":false,"rental_uris":{"android":"levelo://app?vid=c71160fc-c7b7-4c0b-8b7c-da5014dcb825","ios":"levelo://app?vid=c71160fc-c7b7-4c0b-8b7c-da5014dcb825"},"vehicle_type_id":"4","last_reported":1701468395,"current_range_meters":30000,"station_id":"ce4bhp92rcd13ifvqhcg","pricing_plan_id":"free"},{"bike_id":"b9d72801-0099-400b-bb9d-19863a41d13e","system_id":"levelo_inurba_marseille","lat":43.261782,"lon":5.374515,"is_reserved":false,"is_disabled":false,"rental_uris":{"android":"levelo://app?vid=b9d72801-0099-400b-bb9d-19863a41d13e","ios":"levelo://app?vid=b9d72801-0099-400b-bb9d-19863a41d13e"},"vehicle_type_id":"4","last_reported":1701468395,"current_range_meters":13600,"station_id":"ce4bhgp2rcd13ifvqfc0","pricing_plan_id":"free"},{"bike_id":"d8d7eec2-d132-4c88-8d3c-6d9c452000f4","system_id":"levelo_inurba_marseille","lat":43.271368,"lon":5.40928,"is_reserved":false,"is_disabled":false,"rental_uris":{"android":"levelo://app?vid=d8d7eec2-d132-4c88-8d3c-6d9c452000f4","ios":"levelo://app?vid=d8d7eec2-d132-4c88-8d3c-6d9c452000f4"},"vehicle_type_id":"4","last_reported":1701468395,"current_range_meters":13600,"station_id":"ce4bhl12rcd13ifvqgf0","pricing_plan_id":"free"},{"bike_id":"f9cac9a5-67a1-4158-a2a6-203ab176f26c","system_id":"levelo_inurba_marseille","lat":43.271388,"lon":5.409269,"is_reserved":false,"is_disabled":false,"rental_uris":{"android":"levelo://app?vid=f9cac9a5-67a1-4158-a2a6-203ab176f26c","ios":"levelo://app?vid=f9cac9a5-67a1-4158-a2a6-203ab176f26c"},"vehicle_type_id":"4","last_reported":1701468395,"current_range_meters":26800,"station_id":"ce4bhl12rcd13ifvqgf0","pricing_plan_id":"free"},{"bike_id":"64ac9a22-2cf9-4141-a288-3e6209d010e8","system_id":"levelo_inurba_marseille","lat":43.271368,"lon":5.40928,"is_reserved":false,"is_disabled":false,"rental_uris":{"android":"levelo://app?vid=64ac9a22-2cf9-4141-a288-3e6209d010e8","ios":"levelo://app?vid=64ac9a22-2cf9-4141-a288-3e6209d010e8"},"vehicle_type_id":"4","last_reported":1701468395,"current_range_meters":31200,"station_id":"ce4bhl12rcd13ifvqgf0","pricing_plan_id":"free"},{"bike_id":"2ba9db67-bc08-4181-91bc-5b87bbc9227d","system_id":"levelo_inurba_marseille","lat":43.26202,"lon":5.379299,"is_reserved":false,"is_disabled":false,"rental_uris":{"android":"levelo://app?vid=2ba9db67-bc08-4181-91bc-5b87bbc9227d","ios":"levelo://app?vid=2ba9db67-bc08-4181-91bc-5b87bbc9227d"},"vehicle_type_id":"4","last_reported":1701468395,"current_range_meters":18800,"station_id":"ce4bhjp2rcd13ifvqg90","pricing_plan_id":"free"},{"bike_id":"a4124f48-25c9-4f2d-8b83-4f62a5b2e009","system_id":"levelo_inurba_marseille","lat":43.271388,"lon":5.409269,"is_reserved":false,"is_disabled":false,"rental_uris":{"android":"levelo://app?vid=a4124f48-25c9-4f2d-8b83-4f62a5b2e009","ios":"levelo://app?vid=a4124f48-25c9-4f2d-8b83-4f62a5b2e009"},"vehicle_type_id":"4","last_reported":1701468395,"current_range_meters":0,"station_id":"ce4bhl12rcd13ifvqgf0","pricing_plan_id":"free"},{"bike_id":"be554e14-baf6-4d39-bbf3-064c681b17e0","system_id":"levelo_inurba_marseille","lat":43.267959,"lon":5.402687,"is_reserved":false,"is_disabled":false,"rental_uris":{"android":"levelo://app?vid=be554e14-baf6-4d39-bbf3-064c681b17e0","ios":"levelo://app?vid=be554e14-baf6-4d39-bbf3-064c681b17e0"},"vehicle_type_id":"4","last_reported":1701468395,"current_range_meters":27200,"station_id":"ce501612rcd8frsf0b60","pricing_plan_id":"free"},{"bike_id":"e0c7aaa5-f957-4643-9938-29acc1fa1c9e","system_id":"levelo_inurba_marseille","lat":43.267959,"lon":5.402687,"is_reserved":false,"is_disabled":false,"rental_uris":{"android":"levelo://app?vid=e0c7aaa5-f957-4643-9938-29acc1fa1c9e","ios":"levelo://app?vid=e0c7aaa5-f957-4643-9938-29acc1fa1c9e"},"vehicle_type_id":"4","last_reported":1701468395,"current_range_meters":2000,"station_id":"ce501612rcd8frsf0b60","pricing_plan_id":"free"},{"bike_id":"56de3f0e-b18c-485a-8c58-e4c4956ba711","system_id":"levelo_inurba_marseille","lat":43.270721,"lon":5.422764,"is_reserved":false,"is_disabled":false,"rental_uris":{"android":"levelo://app?vid=56de3f0e-b18c-485a-8c58-e4c4956ba711","ios":"levelo://app?vid=56de3f0e-b18c-485a-8c58-e4c4956ba711"},"vehicle_type_id":"4","last_reported":1701468395,"current_range_meters":2400,"station_id":"ce4bhk92rcd13ifvqgb0","pricing_plan_id":"free"},{"bike_id":"3532a786-7312-4db1-88be-2e5e8a274941","system_id":"levelo_inurba_marseille","lat":43.281538,"lon":5.42644,"is_reserved":false,"is_disabled":false,"rental_uris":{"android":"levelo://app?vid=3532a786-7312-4db1-88be-2e5e8a274941","ios":"levelo://app?vid=3532a786-7312-4db1-88be-2e5e8a274941"},"vehicle_type_id":"4","last_reported":1701468395,"current_range_meters":26400,"station_id":"ce4bhnh2rcd13ifvqgug","pricing_plan_id":"free"},{"bike_id":"93192e7e-06d9-445a-b3fa-5cdf2fc1a273","system_id":"levelo_inurba_marseille","lat":43.281548,"lon":5.42643,"is_reserved":false,"is_disabled":false,"rental_uris":{"android":"levelo://app?vid=93192e7e-06d9-445a-b3fa-5cdf2fc1a273","ios":"levelo://app?vid=93192e7e-06d9-445a-b3fa-5cdf2fc1a273"},"vehicle_type_id":"4","last_reported":1701468395,"current_range_meters":21600,"station_id":"ce4bhnh2rcd13ifvqgug","pricing_plan_id":"free"},{"bike_id":"a265f57d-2203-4406-8278-bc194922c399","system_id":"levelo_inurba_marseille","lat":43.28151,"lon":5.42644,"is_reserved":false,"is_disabled":false,"rental_uris":{"android":"levelo://app?vid=a265f57d-2203-4406-8278-bc194922c399","ios":"levelo://app?vid=a265f57d-2203-4406-8278-bc194922c399"},"vehicle_type_id":"4","last_reported":1701468395,"current_range_meters":30000,"station_id":"ce4bhnh2rcd13ifvqgug","pricing_plan_id":"free"},{"bike_id":"d3df04f1-aa36-401c-b9f0-16ea3bba87de","system_id":"levelo_inurba_marseille","lat":43.281515,"lon":5.426445,"is_reserved":false,"is_disabled":false,"rental_uris":{"android":"levelo://app?vid=d3df04f1-aa36-401c-b9f0-16ea3bba87de","ios":"levelo://app?vid=d3df04f1-aa36-401c-b9f0-16ea3bba87de"},"vehicle_type_id":"4","last_reported":1701468395,"current_range_meters":16000,"station_id":"ce4bhnh2rcd13ifvqgug","pricing_plan_id":"free"},{"bike_id":"3de40b48-7293-4590-b1e4-a9c54e991d0a","system_id":"levelo_inurba_marseille","lat":43.2815,"lon":5.42644,"is_reserved":false,"is_disabled":false,"rental_uris":{"android":"levelo://app?vid=3de40b48-7293-4590-b1e4-a9c54e991d0a","ios":"levelo://app?vid=3de40b48-7293-4590-b1e4-a9c54e991d0a"},"vehicle_type_id":"4","last_reported":1701468395,"current_range_meters":18000,"station_id":"ce4bhnh2rcd13ifvqgug","pricing_plan_id":"free"},{"bike_id":"81f4f34a-8d36-4c09-961e-e42c57ef3483","system_id":"levelo_inurba_marseille","lat":43.28152,"lon":5.42648,"is_reserved":false,"is_disabled":false,"rental_uris":{"android":"levelo://app?vid=81f4f34a-8d36-4c09-961e-e42c57ef3483","ios":"levelo://app?vid=81f4f34a-8d36-4c09-961e-e42c57ef3483"},"vehicle_type_id":"4","last_reported":1701468395,"current_range_meters":2400,"station_id":"ce4bhnh2rcd13ifvqgug","pricing_plan_id":"free"},{"bike_id":"b802834e-51f4-41a4-96cb-c31681473515","system_id":"levelo_inurba_marseille","lat":43.281546,"lon":5.426519,"is_reserved":false,"is_disabled":false,"rental_uris":{"android":"levelo://app?vid=b802834e-51f4-41a4-96cb-c31681473515","ios":"levelo://app?vid=b802834e-51f4-41a4-96cb-c31681473515"},"vehicle_type_id":"4","last_reported":1701468395,"current_range_meters":31200,"station_id":"ce4bhnh2rcd13ifvqgug","pricing_plan_id":"free"},{"bike_id":"b50e7963-680b-40e1-ab37-36504f3646f3","system_id":"levelo_inurba_marseille","lat":43.258224,"lon":5.394369,"is_reserved":false,"is_disabled":false,"rental_uris":{"android":"levelo://app?vid=b50e7963-680b-40e1-ab37-36504f3646f3","ios":"levelo://app?vid=b50e7963-680b-40e1-ab37-36504f3646f3"},"vehicle_type_id":"4","last_reported":1701468395,"current_range_meters":6000,"station_id":"ce4bhip2rcd13ifvqft0","pricing_plan_id":"free"},{"bike_id":"6b55de0b-bf22-4d3b-bb7b-9bfacee3cb65","system_id":"levelo_inurba_marseille","lat":43.27067,"lon":5.42281,"is_reserved":false,"is_disabled":false,"rental_uris":{"android":"levelo://app?vid=6b55de0b-bf22-4d3b-bb7b-9bfacee3cb65","ios":"levelo://app?vid=6b55de0b-bf22-4d3b-bb7b-9bfacee3cb65"},"vehicle_type_id":"4","last_reported":1701468395,"current_range_meters":25200,"station_id":"ce4bhk92rcd13ifvqgb0","pricing_plan_id":"free"},{"bike_id":"f88fd433-05bf-4de3-9f93-62a16ba6307d","system_id":"levelo_inurba_marseille","lat":43.25934,"lon":5.40914,"is_reserved":false,"is_disabled":false,"rental_uris":{"android":"levelo://app?vid=f88fd433-05bf-4de3-9f93-62a16ba6307d","ios":"levelo://app?vid=f88fd433-05bf-4de3-9f93-62a16ba6307d"},"vehicle_type_id":"4","last_reported":1701468395,"current_range_meters":16000,"station_id":"ce4bhm92rcd13ifvqglg","pricing_plan_id":"free"},{"bike_id":"8260938c-99a0-41e0-9eca-ebe62e09f8e6","system_id":"levelo_inurba_marseille","lat":43.259263,"lon":5.40902,"is_reserved":false,"is_disabled":false,"rental_uris":{"android":"levelo://app?vid=8260938c-99a0-41e0-9eca-ebe62e09f8e6","ios":"levelo://app?vid=8260938c-99a0-41e0-9eca-ebe62e09f8e6"},"vehicle_type_id":"4","last_reported":1701468395,"current_range_meters":22400,"station_id":"ce4bhm92rcd13ifvqglg","pricing_plan_id":"free"},{"bike_id":"5e761ea7-cd12-47ba-8924-5427ef369611","system_id":"levelo_inurba_marseille","lat":43.2479,"lon":5.374457,"is_reserved":false,"is_disabled":false,"rental_uris":{"android":"levelo://app?vid=5e761ea7-cd12-47ba-8924-5427ef369611","ios":"levelo://app?vid=5e761ea7-cd12-47ba-8924-5427ef369611"},"vehicle_type_id":"4","last_reported":1701468395,"current_range_meters":8800,"station_id":"ce4bhgh2rcd13ifvqfb0","pricing_plan_id":"free"},{"bike_id":"9c6849bc-5d3b-4a37-9ab0-7e9b5f1119d3","system_id":"levelo_inurba_marseille","lat":43.2479,"lon":5.374457,"is_reserved":false,"is_disabled":false,"rental_uris":{"android":"levelo://app?vid=9c6849bc-5d3b-4a37-9ab0-7e9b5f1119d3","ios":"levelo://app?vid=9c6849bc-5d3b-4a37-9ab0-7e9b5f1119d3"},"vehicle_type_id":"4","last_reported":1701468395,"current_range_meters":30400,"station_id":"ce4bhgh2rcd13ifvqfb0","pricing_plan_id":"free"},{"bike_id":"7aa24d96-c95d-4468-a02b-494a7d7dd09e","system_id":"levelo_inurba_marseille","lat":43.250791,"lon":5.395153,"is_reserved":false,"is_disabled":false,"rental_uris":{"android":"levelo://app?vid=7aa24d96-c95d-4468-a02b-494a7d7dd09e","ios":"levelo://app?vid=7aa24d96-c95d-4468-a02b-494a7d7dd09e"},"vehicle_type_id":"4","last_reported":1701468395,"current_range_meters":14800,"station_id":"ce4bhm12rcd13ifvqgkg","pricing_plan_id":"free"},{"bike_id":"7b86737e-88b6-402e-953d-d66f821e4367","system_id":"levelo_inurba_marseille","lat":43.25078,"lon":5.39522,"is_reserved":false,"is_disabled":false,"rental_uris":{"android":"levelo://app?vid=7b86737e-88b6-402e-953d-d66f821e4367","ios":"levelo://app?vid=7b86737e-88b6-402e-953d-d66f821e4367"},"vehicle_type_id":"4","last_reported":1701468395,"current_range_meters":30800,"station_id":"ce4bhm12rcd13ifvqgkg","pricing_plan_id":"free"},{"bike_id":"1d4676a2-3cde-486f-aa8e-7590ad29ddb5","system_id":"levelo_inurba_marseille","lat":43.25102,"lon":5.403214,"is_reserved":false,"is_disabled":false,"rental_uris":{"android":"levelo://app?vid=1d4676a2-3cde-486f-aa8e-7590ad29ddb5","ios":"levelo://app?vid=1d4676a2-3cde-486f-aa8e-7590ad29ddb5"},"vehicle_type_id":"4","last_reported":1701468395,"current_range_meters":23200,"station_id":"ce4bhlh2rcd13ifvqgig","pricing_plan_id":"free"},{"bike_id":"e7aad632-367b-4496-9cef-bcfeaf0ec9a0","system_id":"levelo_inurba_marseille","lat":43.246461,"lon":5.389014,"is_reserved":false,"is_disabled":false,"rental_uris":{"android":"levelo://app?vid=e7aad632-367b-4496-9cef-bcfeaf0ec9a0","ios":"levelo://app?vid=e7aad632-367b-4496-9cef-bcfeaf0ec9a0"},"vehicle_type_id":"4","last_reported":1701468395,"current_range_meters":30400,"station_id":"ce4bhg12rcd13ifvqf60","pricing_plan_id":"free"},{"bike_id":"7216dfac-de69-4985-86e5-194ab2bb3efc","system_id":"levelo_inurba_marseille","lat":43.239678,"lon":5.366248,"is_reserved":false,"is_disabled":false,"rental_uris":{"android":"levelo://app?vid=7216dfac-de69-4985-86e5-194ab2bb3efc","ios":"levelo://app?vid=7216dfac-de69-4985-86e5-194ab2bb3efc"},"vehicle_type_id":"4","last_reported":1701468395,"current_range_meters":8000,"station_id":"ce4bhi12rcd13ifvqfp0","pricing_plan_id":"free"},{"bike_id":"b4c37c99-9e43-4e8c-8c9c-eb1236d213c4","system_id":"levelo_inurba_marseille","lat":43.239588,"lon":5.366238,"is_reserved":false,"is_disabled":false,"rental_uris":{"android":"levelo://app?vid=b4c37c99-9e43-4e8c-8c9c-eb1236d213c4","ios":"levelo://app?vid=b4c37c99-9e43-4e8c-8c9c-eb1236d213c4"},"vehicle_type_id":"4","last_reported":1701468395,"current_range_meters":26000,"station_id":"ce4bhi12rcd13ifvqfp0","pricing_plan_id":"free"},{"bike_id":"af3b5dda-ecb1-495f-b599-2a130933014b","system_id":"levelo_inurba_marseille","lat":43.241782,"lon":5.397261,"is_reserved":false,"is_disabled":false,"rental_uris":{"android":"levelo://app?vid=af3b5dda-ecb1-495f-b599-2a130933014b","ios":"levelo://app?vid=af3b5dda-ecb1-495f-b599-2a130933014b"},"vehicle_type_id":"4","last_reported":1701468395,"current_range_meters":3600,"station_id":"ce4bhn12rcd13ifvqgpg","pricing_plan_id":"free"},{"bike_id":"cd2806e3-7a91-44f5-9e97-e41c2a460e29","system_id":"levelo_inurba_marseille","lat":43.24176,"lon":5.39728,"is_reserved":false,"is_disabled":false,"rental_uris":{"android":"levelo://app?vid=cd2806e3-7a91-44f5-9e97-e41c2a460e29","ios":"levelo://app?vid=cd2806e3-7a91-44f5-9e97-e41c2a460e29"},"vehicle_type_id":"4","last_reported":1701468395,"current_range_meters":2000,"station_id":"ce4bhn12rcd13ifvqgpg","pricing_plan_id":"free"},{"bike_id":"cf3102c4-88e0-4a41-86b7-69a76932d3e6","system_id":"levelo_inurba_marseille","lat":43.231923,"lon":5.355545,"is_reserved":false,"is_disabled":false,"rental_uris":{"android":"levelo://app?vid=cf3102c4-88e0-4a41-86b7-69a76932d3e6","ios":"levelo://app?vid=cf3102c4-88e0-4a41-86b7-69a76932d3e6"},"vehicle_type_id":"4","last_reported":1701468395,"current_range_meters":31200,"station_id":"ce4bhu92rcd13ifvqi70","pricing_plan_id":"free"},{"bike_id":"6382809b-45d0-4ad2-8be7-697249f82077","system_id":"levelo_inurba_marseille","lat":43.231919,"lon":5.355532,"is_reserved":false,"is_disabled":false,"rental_uris":{"android":"levelo://app?vid=6382809b-45d0-4ad2-8be7-697249f82077","ios":"levelo://app?vid=6382809b-45d0-4ad2-8be7-697249f82077"},"vehicle_type_id":"4","last_reported":1701468395,"current_range_meters":31200,"station_id":"ce4bhu92rcd13ifvqi70","pricing_plan_id":"free"},{"bike_id":"6462fbc5-ceb8-47e3-b56d-fc1e69bef19f","system_id":"levelo_inurba_marseille","lat":43.231919,"lon":5.355532,"is_reserved":false,"is_disabled":false,"rental_uris":{"android":"levelo://app?vid=6462fbc5-ceb8-47e3-b56d-fc1e69bef19f","ios":"levelo://app?vid=6462fbc5-ceb8-47e3-b56d-fc1e69bef19f"},"vehicle_type_id":"4","last_reported":1701468395,"current_range_meters":31200,"station_id":"ce4bhu92rcd13ifvqi70","pricing_plan_id":"free"},{"bike_id":"9dc97c96-8e15-4d34-bc42-2b10dd83e9f4","system_id":"levelo_inurba_marseille","lat":43.23193,"lon":5.3555,"is_reserved":false,"is_disabled":false,"rental_uris":{"android":"levelo://app?vid=9dc97c96-8e15-4d34-bc42-2b10dd83e9f4","ios":"levelo://app?vid=9dc97c96-8e15-4d34-bc42-2b10dd83e9f4"},"vehicle_type_id":"4","last_reported":1701468395,"current_range_meters":22000,"station_id":"ce4bhu92rcd13ifvqi70","pricing_plan_id":"free"},{"bike_id":"d919cd84-7675-4a37-b94c-3ba2519b645c","system_id":"levelo_inurba_marseille","lat":43.231919,"lon":5.355532,"is_reserved":false,"is_disabled":false,"rental_uris":{"android":"levelo://app?vid=d919cd84-7675-4a37-b94c-3ba2519b645c","ios":"levelo://app?vid=d919cd84-7675-4a37-b94c-3ba2519b645c"},"vehicle_type_id":"4","last_reported":1701468395,"current_range_meters":27200,"station_id":"ce4bhu92rcd13ifvqi70","pricing_plan_id":"free"},{"bike_id":"d0b35396-6769-42d4-8160-8b44cb829902","system_id":"levelo_inurba_marseille","lat":43.231793,"lon":5.400044,"is_reserved":false,"is_disabled":false,"rental_uris":{"android":"levelo://app?vid=d0b35396-6769-42d4-8160-8b44cb829902","ios":"levelo://app?vid=d0b35396-6769-42d4-8160-8b44cb829902"},"vehicle_type_id":"4","last_reported":1701468395,"current_range_meters":31200,"station_id":"ce4bhn12rcd13ifvqgqg","pricing_plan_id":"free"},{"bike_id":"22bd98e3-c33f-4c44-ae2b-f96729d36f4f","system_id":"levelo_inurba_marseille","lat":43.23188,"lon":5.39998,"is_reserved":false,"is_disabled":false,"rental_uris":{"android":"levelo://app?vid=22bd98e3-c33f-4c44-ae2b-f96729d36f4f","ios":"levelo://app?vid=22bd98e3-c33f-4c44-ae2b-f96729d36f4f"},"vehicle_type_id":"4","last_reported":1701468395,"current_range_meters":30400,"station_id":"ce4bhn12rcd13ifvqgqg","pricing_plan_id":"free"},{"bike_id":"1eeab9a5-d341-4bc8-8d21-ee151ff9d9b2","system_id":"levelo_inurba_marseille","lat":43.231856,"lon":5.39997,"is_reserved":false,"is_disabled":false,"rental_uris":{"android":"levelo://app?vid=1eeab9a5-d341-4bc8-8d21-ee151ff9d9b2","ios":"levelo://app?vid=1eeab9a5-d341-4bc8-8d21-ee151ff9d9b2"},"vehicle_type_id":"4","last_reported":1701468395,"current_range_meters":20400,"station_id":"ce4bhn12rcd13ifvqgqg","pricing_plan_id":"free"},{"bike_id":"457c552c-8af5-4b7b-9f6b-8c901265a623","system_id":"levelo_inurba_marseille","lat":43.231793,"lon":5.400044,"is_reserved":false,"is_disabled":false,"rental_uris":{"android":"levelo://app?vid=457c552c-8af5-4b7b-9f6b-8c901265a623","ios":"levelo://app?vid=457c552c-8af5-4b7b-9f6b-8c901265a623"},"vehicle_type_id":"4","last_reported":1701468395,"current_range_meters":30000,"station_id":"ce4bhn12rcd13ifvqgqg","pricing_plan_id":"free"},{"bike_id":"6bd9f065-50d9-4657-9ca0-a006f413d305","system_id":"levelo_inurba_marseille","lat":43.231794,"lon":5.400052,"is_reserved":false,"is_disabled":false,"rental_uris":{"android":"levelo://app?vid=6bd9f065-50d9-4657-9ca0-a006f413d305","ios":"levelo://app?vid=6bd9f065-50d9-4657-9ca0-a006f413d305"},"vehicle_type_id":"4","last_reported":1701468395,"current_range_meters":22400,"station_id":"ce4bhn12rcd13ifvqgqg","pricing_plan_id":"free"}]}}