{"last_updated":1687490583,"ttl":30,"version":"2.2","data":{"bikes":[{"bike_id":"d4332dc1-ca7f-47c1-8251-6fc28249a3b4","system_id":"levelo_inurba_marseille","lat":43.313391,"lon":5.36706,"is_reserved":false,"is_disabled":false,"rental_uris":{"android":"levelo://app?vid=d4332dc1-ca7f-47c1-8251-6fc28249a3b4","ios":"levelo://app?vid=d4332dc1-ca7f-47c1-8251-6fc28249a3b4"},"vehicle_type_id":"4","last_reported":1687490584,"current_range_meters":31200,"station_id":"ce4bgr92rcd13ifvqc6g","pricing_plan_id":"free"},{"bike_id":"5dc666bf-f148-4c4d-ae39-69fe1328a441","system_id":"levelo_inurba_marseille","lat":43.31341,"lon":5.367098,"is_reserved":false,"is_disabled":false,"rental_uris":{"android":"levelo://app?vid=5dc666bf-f148-4c4d-ae39-69fe1328a441","ios":"levelo://app?vid=5dc666bf-f148-4c4d-ae39-69fe1328a441"},"vehicle_type_id":"4","last_reported":1687490584,"current_range_meters":29200,"station_id":"ce4bgr92rcd13ifvqc6g","pricing_plan_id":"free"},{"bike_id":"e174d5f0-b6c8-4dda-a820-d2e61e69de13","system_id":"levelo_inurba_marseille","lat":43.31341,"lon":5.367098,"is_reserved":false,"is_disabled":false,"rental_uris":{"android":"levelo://app?vid=e174d5f0-b6c8-4dda-a820-d2e61e69de13","ios":"levelo://app?vid=e174d5f0-b6c8-4dda-a820-d2e61e69de13"},"vehicle_type_id":"4","last_reported":1687490584,"current_range_meters":31200,"station_id":"ce4bgr92rcd13ifvqc6g","pricing_plan_id":"free"},{"bike_id":"59b3de83-71c2-4e5b-8049-67e7ba32c62e","system_id":"levelo_inurba_marseille","lat":43.313391,"lon":5.36706,"is_reserved":false,"is_disabled":false,"rental_uris":{"android":"levelo://app?vid=59b3de83-71c2-4e5b-8049-67e7ba32c62e","ios":"levelo://app?vid=59b3de83-71c2-4e5b-8049-67e7ba32c62e"},"vehicle_type_id":"4","last_reported":1687490584,"current_range_meters":28400,"station_id":"ce4bgr92rcd13ifvqc6g","pricing_plan_id":"free"},{"bike_id":"15c62054-955a-4820-982e-5c2322ea45bf","system_id":"levelo_inurba_marseille","lat":43.313391,"lon":5.36706,"is_reserved":false,"is_disabled":false,"rental_uris":{"android":"levelo://app?vid=15c62054-955a-4820-982e-5c2322ea45bf","ios":"levelo://app?vid=15c62054-955a-4820-982e-5c2322ea45bf"},"vehicle_type_id":"4","last_reported":1687490584,"current_range_meters":31200,"station_id":"ce4bgr92rcd13ifvqc6g","pricing_plan_id":"free"},{"bike_id":"442277db-a1b1-404f-99ca-4e553a79746d","system_id":"levelo_inurba_marseille","lat":43.31341,"lon":5.367098,"is_reserved":false,"is_disabled":false,"rental_uris":{"android":"levelo://app?vid=442277db-a1b1-404f-99ca-4e553a79746d","ios":"levelo://app?vid=442277db-a1b1-404f-99ca-4e553a79746d"},"vehicle_type_id":"4","last_reported":1687490584,"current_range_meters":30400,"station_id":"ce4bgr92rcd13ifvqc6g","pricing_plan_id":"free"},{"bike_id":"0550341a-124c-4d98-bbe2-ecab3fc28f99","system_id":"levelo_inurba_marseille","lat":43.313391,"lon":5.36706,"is_reserved":false,"is_disabled":false,"rental_uris":{"android":"levelo://app?vid=0550341a-124c-4d98-bbe2-ecab3fc28f99","ios":"levelo://app?vid=0550341a-124c-4d98-bbe2-ecab3fc28f99"},"vehicle_type_id":"4","last_reported":1687490584,"current_range_meters":31200,"station_id":"ce4bgr92rcd13ifvqc6g","pricing_plan_id":"free"},{"bike_id":"561dae15-b950-41f4-8280-62512ee198df","system_id":"levelo_inurba_marseille","lat":43.313391,"lon":5.36706,"is_reserved":false,"is_disabled":false,"rental_uris":{"android":"levelo://app?vid=561dae15-b950-41f4-8280-62512ee198df","ios":"levelo://app?vid=561dae15-b950-41f4-8280-62512ee198df"},"vehicle_type_id":"4","last_reported":1687490584,"current_range_meters":31200,"station_id":"ce4bgr92rcd13ifvqc6g","pricing_plan_id":"free"},{"bike_id":"4953f328-3844-4770-9687-adbaf569325c","system_id":"levelo_inurba_marseille","lat":43.31341,"lon":5.367098,"is_reserved":false,"is_disabled":false,"rental_uris":{"android":"levelo://app?vid=4953f328-3844-4770-9687-adbaf569325c","ios":"levelo://app?vid=4953f328-3844-4770-9687-adbaf569325c"},"vehicle_type_id":"4","last_reported":1687490584,"current_range_meters":31200,"station_id":"ce4bgr92rcd13ifvqc6g","pricing_plan_id":"free"},{"bike_id":"6af3ddd3-abe5-4014-930d-8bc2eb738f55","system_id":"levelo_inurba_marseille","lat":43.31341,"lon":5.367098,"is_reserved":false,"is_disabled":false,"rental_uris":{"android":"levelo://app?vid=6af3ddd3-abe5-4014-930d-8bc2eb738f55","ios":"levelo://app?vid=6af3ddd3-abe5-4014-930d-8bc2eb738f55"},"vehicle_type_id":"4","last_reported":1687490584,"current_range_meters":31200,"station_id":"ce4bgr92rcd13ifvqc6g","pricing_plan_id":"free"},{"bike_id":"2a9df421-d06e-431e-9efa-47f3b7f93b51","system_id":"levelo_inurba_marseille","lat":43.312239,"lon":5.368562,"is_reserved":false,"is_disabled":false,"rental_uris":{"android":"levelo://app?vid=2a9df421-d06e-431e-9efa-47f3b7f93b51","ios":"levelo://app?vid=2a9df421-d06e-431e-9efa-47f3b7f93b51"},"vehicle_type_id":"4","last_reported":1687490584,"current_range_meters":28800,"station_id":"ce4bgl92rcd13ifvqbq0","pricing_plan_id":"free"},{"bike_id":"f0eec080-d9d7-470c-8e7c-4a8b016fa3a2","system_id":"levelo_inurba_marseille","lat":43.312239,"lon":5.368562,"is_reserved":false,"is_disabled":false,"rental_uris":{"android":"levelo://app?vid=f0eec080-d9d7-470c-8e7c-4a8b016fa3a2","ios":"levelo://app?vid=f0eec080-d9d7-470c-8e7c-4a8b016fa3a2"},"vehicle_type_id":"4","last_reported":1687490584,"current_range_meters":29600,"station_id":"ce4bgl92rcd13ifvqbq0","pricing_plan_id":"free"},{"bike_id":"6077385d-d5e9-40fb-b969-818a094a8c18","system_id":"levelo_inurba_marseille","lat":43.312239,"lon":5.368562,"is_reserved":false,"is_disabled":false,"rental_uris":{"android":"levelo://app?vid=6077385d-d5e9-40fb-b969-818a094a8c18","ios":"levelo://app?vid=6077385d-d5e9-40fb-b969-818a094a8c18"},"vehicle_type_id":"4","last_reported":1687490584,"current_range_meters":31200,"station_id":"ce4bgl92rcd13ifvqbq0","pricing_plan_id":"free"},{"bike_id":"268e6c5f-a51e-4653-9dd6-175f0fb59056","system_id":"levelo_inurba_marseille","lat":43.314811,"lon":5.373104,"is_reserved":false,"is_disabled":false,"rental_uris":{"android":"levelo://app?vid=268e6c5f-a51e-4653-9dd6-175f0fb59056","ios":"levelo://app?vid=268e6c5f-a51e-4653-9dd6-175f0fb59056"},"vehicle_type_id":"4","last_reported":1687490584,"current_range_meters":31200,"station_id":"ce4bgt12rcd13ifvqcd0","pricing_plan_id":"free"},{"bike_id":"9174dbf7-ae34-41ab-9dd9-dc259622b9ba","system_id":"levelo_inurba_marseille","lat":43.314811,"lon":5.373104,"is_reserved":false,"is_disabled":false,"rental_uris":{"android":"levelo://app?vid=9174dbf7-ae34-41ab-9dd9-dc259622b9ba","ios":"levelo://app?vid=9174dbf7-ae34-41ab-9dd9-dc259622b9ba"},"vehicle_type_id":"4","last_reported":1687490584,"current_range_meters":14000,"station_id":"ce4bgt12rcd13ifvqcd0","pricing_plan_id":"free"},{"bike_id":"4c49f83e-daca-406f-9ead-989fcd7d8d23","system_id":"levelo_inurba_marseille","lat":43.314811,"lon":5.373103,"is_reserved":false,"is_disabled":false,"rental_uris":{"android":"levelo://app?vid=4c49f83e-daca-406f-9ead-989fcd7d8d23","ios":"levelo://app?vid=4c49f83e-daca-406f-9ead-989fcd7d8d23"},"vehicle_type_id":"4","last_reported":1687490584,"current_range_meters":31200,"station_id":"ce4bgt12rcd13ifvqcd0","pricing_plan_id":"free"},{"bike_id":"1031ff69-939d-4e07-bcd5-7ad6809c69ec","system_id":"levelo_inurba_marseille","lat":43.314811,"lon":5.373103,"is_reserved":false,"is_disabled":false,"rental_uris":{"android":"levelo://app?vid=1031ff69-939d-4e07-bcd5-7ad6809c69ec","ios":"levelo://app?vid=1031ff69-939d-4e07-bcd5-7ad6809c69ec"},"vehicle_type_id":"4","last_reported":1687490584,"current_range_meters":28400,"station_id":"ce4bgt12rcd13ifvqcd0","pricing_plan_id":"free"},{"bike_id":"bf5e2e61-6eb6-4b20-af42-e284a7be0669","system_id":"levelo_inurba_marseille","lat":43.314811,"lon":5.373103,"is_reserved":false,"is_disabled":false,"rental_uris":{"android":"levelo://app?vid=bf5e2e61-6eb6-4b20-af42-e284a7be0669","ios":"levelo://app?vid=bf5e2e61-6eb6-4b20-af42-e284a7be0669"},"vehicle_type_id":"4","last_reported":1687490584,"current_range_meters":25600,"station_id":"ce4bgt12rcd13ifvqcd0","pricing_plan_id":"free"},{"bike_id":"562849a2-3a1d-4231-8ef3-2b11b4ab8202","system_id":"levelo_inurba_marseille","lat":43.314811,"lon":5.373104,"is_reserved":false,"is_disabled":false,"rental_uris":{"android":"levelo://app?vid=562849a2-3a1d-4231-8ef3-2b11b4ab8202","ios":"levelo://app?vid=562849a2-3a1d-4231-8ef3-2b11b4ab8202"},"vehicle_type_id":"4","last_reported":1687490584,"current_range_meters":31200,"station_id":"ce4bgt12rcd13ifvqcd0","pricing_plan_id":"free"},{"bike_id":"96895d04-17a6-4556-95a9-baa83c8b4d10","system_id":"levelo_inurba_marseille","lat":43.308606,"lon":5.372099,"is_reserved":false,"is_disabled":false,"rental_uris":{"android":"levelo://app?vid=96895d04-17a6-4556-95a9-baa83c8b4d10","ios":"levelo://app?vid=96895d04-17a6-4556-95a9-baa83c8b4d10"},"vehicle_type_id":"4","last_reported":1687490584,"current_range_meters":28800,"station_id":"ce4bguh2rcd13ifvqckg","pricing_plan_id":"free"},{"bike_id":"077012c0-327a-41b7-a149-1df98069d09b","system_id":"levelo_inurba_marseille","lat":43.31539,"lon":5.37312,"is_reserved":false,"is_disabled":false,"rental_uris":{"android":"levelo://app?vid=077012c0-327a-41b7-a149-1df98069d09b","ios":"levelo://app?vid=077012c0-327a-41b7-a149-1df98069d09b"},"vehicle_type_id":"4","last_reported":1687490584,"current_range_meters":29200,"station_id":"","pricing_plan_id":"free"},{"bike_id":"e9c4accd-8d38-4929-8890-93bc25cdc726","system_id":"levelo_inurba_marseille","lat":43.308606,"lon":5.372099,"is_reserved":false,"is_disabled":false,"rental_uris":{"android":"levelo://app?vid=e9c4accd-8d38-4929-8890-93bc25cdc726","ios":"levelo://app?vid=e9c4accd-8d38-4929-8890-93bc25cdc726"},"vehicle_type_id":"4","last_reported":1687490584,"current_range_meters":29600,"station_id":"ce4bguh2rcd13ifvqckg","pricing_plan_id":"free"},{"bike_id":"ab32dd18-283b-4cae-8e2d-e2ced9b6f62c","system_id":"levelo_inurba_marseille","lat":43.308606,"lon":5.372099,"is_reserved":false,"is_disabled":false,"rental_uris":{"android":"levelo://app?vid=ab32dd18-283b-4cae-8e2d-e2ced9b6f62c","ios":"levelo://app?vid=ab32dd18-283b-4cae-8e2d-e2ced9b6f62c"},"vehicle_type_id":"4","last_reported":1687490584,"current_range_meters":31200,"station_id":"ce4bguh2rcd13ifvqckg","pricing_plan_id":"free"},{"bike_id":"af02ffe4-83be-4055-b1c3-8ac53b1a8109","system_id":"levelo_inurba_marseille","lat":43.308606,"lon":5.372099,"is_reserved":false,"is_disabled":false,"rental_uris":{"android":"levelo://app?vid=af02ffe4-83be-4055-b1c3-8ac53b1a8109","ios":"levelo://app?vid=af02ffe4-83be-4055-b1c3-8ac53b1a8109"},"vehicle_type_id":"4","last_reported":1687490584,"current_range_meters":31200,"station_id":"ce4bguh2rcd13ifvqckg","pricing_plan_id":"free"},{"bike_id":"794c4c7a-1e2c-4328-8422-2d8fd2b43b75","system_id":"levelo_inurba_marseille","lat":43.308606,"lon":5.372099,"is_reserved":false,"is_disabled":false,"rental_uris":{"android":"levelo://app?vid=794c4c7a-1e2c-4328-8422-2d8fd2b43b75","ios":"levelo://app?vid=794c4c7a-1e2c-4328-8422-2d8fd2b43b75"},"vehicle_type_id":"4","last_reported":1687490584,"current_range_meters":30000,"station_id":"ce4bguh2rcd13ifvqckg","pricing_plan_id":"free"},{"bike_id":"fdfb4452-1a79-4ea2-b2a9-f1943a38854d","system_id":"levelo_inurba_marseille","lat":43.30895,"lon":5.37215,"is_reserved":false,"is_disabled":false,"rental_uris":{"android":"levelo://app?vid=fdfb4452-1a79-4ea2-b2a9-f1943a38854d","ios":"levelo://app?vid=fdfb4452-1a79-4ea2-b2a9-f1943a38854d"},"vehicle_type_id":"4","last_reported":1687490584,"current_range_meters":25600,"station_id":"","pricing_plan_id":"free"},{"bike_id":"d8721d5f-5d78-4ac4-a868-d58ab3c47312","system_id":"levelo_inurba_marseille","lat":43.305714,"lon":5.365633,"is_reserved":false,"is_disabled":false,"rental_uris":{"android":"levelo://app?vid=d8721d5f-5d78-4ac4-a868-d58ab3c47312","ios":"levelo://app?vid=d8721d5f-5d78-4ac4-a868-d58ab3c47312"},"vehicle_type_id":"4","last_reported":1687490584,"current_range_meters":18800,"station_id":"ce4bgs12rcd13ifvqcag","pricing_plan_id":"free"},{"bike_id":"f13bdbc9-0952-40e9-9c5c-df95de4d8643","system_id":"levelo_inurba_marseille","lat":43.30607,"lon":5.37222,"is_reserved":false,"is_disabled":false,"rental_uris":{"android":"levelo://app?vid=f13bdbc9-0952-40e9-9c5c-df95de4d8643","ios":"levelo://app?vid=f13bdbc9-0952-40e9-9c5c-df95de4d8643"},"vehicle_type_id":"4","last_reported":1687490584,"current_range_meters":13600,"station_id":"ce4bgqh2rcd13ifvqc4g","pricing_plan_id":"free"},{"bike_id":"aa30e27d-3ee7-427b-91d5-1258887ef154","system_id":"levelo_inurba_marseille","lat":43.305989,"lon":5.37225,"is_reserved":false,"is_disabled":false,"rental_uris":{"android":"levelo://app?vid=aa30e27d-3ee7-427b-91d5-1258887ef154","ios":"levelo://app?vid=aa30e27d-3ee7-427b-91d5-1258887ef154"},"vehicle_type_id":"4","last_reported":1687490584,"current_range_meters":14800,"station_id":"ce4bgqh2rcd13ifvqc4g","pricing_plan_id":"free"},{"bike_id":"afa7e078-0434-4921-8119-206a4f656a19","system_id":"levelo_inurba_marseille","lat":43.305989,"lon":5.37225,"is_reserved":false,"is_disabled":false,"rental_uris":{"android":"levelo://app?vid=afa7e078-0434-4921-8119-206a4f656a19","ios":"levelo://app?vid=afa7e078-0434-4921-8119-206a4f656a19"},"vehicle_type_id":"4","last_reported":1687490584,"current_range_meters":31600,"station_id":"ce4bgqh2rcd13ifvqc4g","pricing_plan_id":"free"},{"bike_id":"7596fd07-0cb4-4683-b464-7845ba70d383","system_id":"levelo_inurba_marseille","lat":43.305989,"lon":5.37225,"is_reserved":false,"is_disabled":false,"rental_uris":{"android":"levelo://app?vid=7596fd07-0cb4-4683-b464-7845ba70d383","ios":"levelo://app?vid=7596fd07-0cb4-4683-b464-7845ba70d383"},"vehicle_type_id":"4","last_reported":1687490584,"current_range_meters":31600,"station_id":"ce4bgqh2rcd13ifvqc4g","pricing_plan_id":"free"},{"bike_id":"dacd09ba-bfc8-4199-9dd8-1d0bc0d56fb6","system_id":"levelo_inurba_marseille","lat":43.305989,"lon":5.37225,"is_reserved":false,"is_disabled":false,"rental_uris":{"android":"levelo://app?vid=dacd09ba-bfc8-4199-9dd8-1d0bc0d56fb6","ios":"levelo://app?vid=dacd09ba-bfc8-4199-9dd8-1d0bc0d56fb6"},"vehicle_type_id":"4","last_reported":1687490584,"current_range_meters":31200,"station_id":"ce4bgqh2rcd13ifvqc4g","pricing_plan_id":"free"},{"bike_id":"819a209d-9422-467b-9c78-f4d3dd027db9","system_id":"levelo_inurba_marseille","lat":43.305989,"lon":5.37225,"is_reserved":false,"is_disabled":false,"rental_uris":{"android":"levelo://app?vid=819a209d-9422-467b-9c78-f4d3dd027db9","ios":"levelo://app?vid=819a209d-9422-467b-9c78-f4d3dd027db9"},"vehicle_type_id":"4","last_reported":1687490584,"current_range_meters":31200,"station_id":"ce4bgqh2rcd13ifvqc4g","pricing_plan_id":"free"},{"bike_id":"8f8f25e5-3616-46c3-a680-2caa8dd36ece","system_id":"levelo_inurba_marseille","lat":43.305989,"lon":5.37225,"is_reserved":false,"is_disabled":false,"rental_uris":{"android":"levelo://app?vid=8f8f25e5-3616-46c3-a680-2caa8dd36ece","ios":"levelo://app?vid=8f8f25e5-3616-46c3-a680-2caa8dd36ece"},"vehicle_type_id":"4","last_reported":1687490584,"current_range_meters":31200,"station_id":"ce4bgqh2rcd13ifvqc4g","pricing_plan_id":"free"},{"bike_id":"183e9158-1c73-46f6-a3ae-7b0e28dfc5e9","system_id":"levelo_inurba_marseille","lat":43.305989,"lon":5.37225,"is_reserved":false,"is_disabled":false,"rental_uris":{"android":"levelo://app?vid=183e9158-1c73-46f6-a3ae-7b0e28dfc5e9","ios":"levelo://app?vid=183e9158-1c73-46f6-a3ae-7b0e28dfc5e9"},"vehicle_type_id":"4","last_reported":1687490584,"current_range_meters":3200,"station_id":"ce4bgqh2rcd13ifvqc4g","pricing_plan_id":"free"},{"bike_id":"2fec8dab-bb3e-4ac7-8b3c-4025e1ebff09","system_id":"levelo_inurba_marseille","lat":43.305989,"lon":5.37225,"is_reserved":false,"is_disabled":false,"rental_uris":{"android":"levelo://app?vid=2fec8dab-bb3e-4ac7-8b3c-4025e1ebff09","ios":"levelo://app?vid=2fec8dab-bb3e-4ac7-8b3c-4025e1ebff09"},"vehicle_type_id":"4","last_reported":1687490584,"current_range_meters":31200,"station_id":"ce4bgqh2rcd13ifvqc4g","pricing_plan_id":"free"},{"bike_id":"4fd85b1a-352d-4783-9331-4da0887623d8","system_id":"levelo_inurba_marseille","lat":43.311125,"lon":5.377624,"is_reserved":false,"is_disabled":false,"rental_uris":{"android":"levelo://app?vid=4fd85b1a-352d-4783-9331-4da0887623d8","ios":"levelo://app?vid=4fd85b1a-352d-4783-9331-4da0887623d8"},"vehicle_type_id":"4","last_reported":1687490584,"current_range_meters":30400,"station_id":"ce4bgt92rcd13ifvqcg0","pricing_plan_id":"free"},{"bike_id":"ff10af4e-ed79-41b9-a171-372351c144ba","system_id":"levelo_inurba_marseille","lat":43.317075,"lon":5.377367,"is_reserved":false,"is_disabled":false,"rental_uris":{"android":"levelo://app?vid=ff10af4e-ed79-41b9-a171-372351c144ba","ios":"levelo://app?vid=ff10af4e-ed79-41b9-a171-372351c144ba"},"vehicle_type_id":"4","last_reported":1687490584,"current_range_meters":31200,"station_id":"ce4bgth2rcd13ifvqch0","pricing_plan_id":"free"},{"bike_id":"2cebafeb-12a0-4cb6-83ce-4e34dcefc158","system_id":"levelo_inurba_marseille","lat":43.317075,"lon":5.377367,"is_reserved":false,"is_disabled":false,"rental_uris":{"android":"levelo://app?vid=2cebafeb-12a0-4cb6-83ce-4e34dcefc158","ios":"levelo://app?vid=2cebafeb-12a0-4cb6-83ce-4e34dcefc158"},"vehicle_type_id":"4","last_reported":1687490584,"current_range_meters":31200,"station_id":"ce4bgth2rcd13ifvqch0","pricing_plan_id":"free"},{"bike_id":"752fe1b5-4bef-439c-8f17-39b8b6a82fb4","system_id":"levelo_inurba_marseille","lat":43.317075,"lon":5.377367,"is_reserved":false,"is_disabled":false,"rental_uris":{"android":"levelo://app?vid=752fe1b5-4bef-439c-8f17-39b8b6a82fb4","ios":"levelo://app?vid=752fe1b5-4bef-439c-8f17-39b8b6a82fb4"},"vehicle_type_id":"4","last_reported":1687490584,"current_range_meters":29200,"station_id":"ce4bgth2rcd13ifvqch0","pricing_plan_id":"free"},{"bike_id":"ad74f00f-759a-4fc6-916c-b1eb45485146","system_id":"levelo_inurba_marseille","lat":43.30973,"lon":5.37976,"is_reserved":false,"is_disabled":false,"rental_uris":{"android":"levelo://app?vid=ad74f00f-759a-4fc6-916c-b1eb45485146","ios":"levelo://app?vid=ad74f00f-759a-4fc6-916c-b1eb45485146"},"vehicle_type_id":"4","last_reported":1687490584,"current_range_meters":19600,"station_id":"","pricing_plan_id":"free"},{"bike_id":"81b88133-480d-41c0-a6bd-4d98733e5f32","system_id":"levelo_inurba_marseille","lat":43.31524,"lon":5.38033,"is_reserved":false,"is_disabled":false,"rental_uris":{"android":"levelo://app?vid=81b88133-480d-41c0-a6bd-4d98733e5f32","ios":"levelo://app?vid=81b88133-480d-41c0-a6bd-4d98733e5f32"},"vehicle_type_id":"4","last_reported":1687490584,"current_range_meters":19600,"station_id":"ce4bhsp2rcd13ifvqi50","pricing_plan_id":"free"},{"bike_id":"676544c1-d089-4ff3-ac82-440502e7e765","system_id":"levelo_inurba_marseille","lat":43.31527,"lon":5.38034,"is_reserved":false,"is_disabled":false,"rental_uris":{"android":"levelo://app?vid=676544c1-d089-4ff3-ac82-440502e7e765","ios":"levelo://app?vid=676544c1-d089-4ff3-ac82-440502e7e765"},"vehicle_type_id":"4","last_reported":1687490584,"current_range_meters":26400,"station_id":"ce4bhsp2rcd13ifvqi50","pricing_plan_id":"free"},{"bike_id":"fc041bb5-1bb7-4b33-a020-fcd3557ab067","system_id":"levelo_inurba_marseille","lat":43.31537,"lon":5.38031,"is_reserved":false,"is_disabled":false,"rental_uris":{"android":"levelo://app?vid=fc041bb5-1bb7-4b33-a020-fcd3557ab067","ios":"levelo://app?vid=fc041bb5-1bb7-4b33-a020-fcd3557ab067"},"vehicle_type_id":"4","last_reported":1687490584,"current_range_meters":25600,"station_id":"ce4bhsp2rcd13ifvqi50","pricing_plan_id":"free"},{"bike_id":"52dc773e-7544-4093-a872-825c7271cf6f","system_id":"levelo_inurba_marseille","lat":43.31536,"lon":5.38036,"is_reserved":false,"is_disabled":false,"rental_uris":{"android":"levelo://app?vid=52dc773e-7544-4093-a872-825c7271cf6f","ios":"levelo://app?vid=52dc773e-7544-4093-a872-825c7271cf6f"},"vehicle_type_id":"4","last_reported":1687490584,"current_range_meters":4400,"station_id":"ce4bhsp2rcd13ifvqi50","pricing_plan_id":"free"},{"bike_id":"416b18cc-631a-48ee-97e4-78518d241dcb","system_id":"levelo_inurba_marseille","lat":43.31534,"lon":5.38039,"is_reserved":false,"is_disabled":false,"rental_uris":{"android":"levelo://app?vid=416b18cc-631a-48ee-97e4-78518d241dcb","ios":"levelo://app?vid=416b18cc-631a-48ee-97e4-78518d241dcb"},"vehicle_type_id":"4","last_reported":1687490584,"current_range_meters":31200,"station_id":"ce4bhsp2rcd13ifvqi50","pricing_plan_id":"free"},{"bike_id":"cb35ca57-9113-4d87-879a-5a532fea8ffd","system_id":"levelo_inurba_marseille","lat":43.30832,"lon":5.38122,"is_reserved":false,"is_disabled":false,"rental_uris":{"android":"levelo://app?vid=cb35ca57-9113-4d87-879a-5a532fea8ffd","ios":"levelo://app?vid=cb35ca57-9113-4d87-879a-5a532fea8ffd"},"vehicle_type_id":"4","last_reported":1687490584,"current_range_meters":8000,"station_id":"","pricing_plan_id":"free"},{"bike_id":"c98c824a-5a21-41d7-a2b3-cfad705b7985","system_id":"levelo_inurba_marseille","lat":43.292642,"lon":5.384254,"is_reserved":false,"is_disabled":false,"rental_uris":{"android":"levelo://app?vid=c98c824a-5a21-41d7-a2b3-cfad705b7985","ios":"levelo://app?vid=c98c824a-5a21-41d7-a2b3-cfad705b7985"},"vehicle_type_id":"4","last_reported":1687490584,"current_range_meters":0,"station_id":"ce4bh692rcd13ifvqea0","pricing_plan_id":"free"},{"bike_id":"cd639034-6c54-4e79-98cb-c9aa9112afa1","system_id":"levelo_inurba_marseille","lat":43.308012,"lon":5.381511,"is_reserved":false,"is_disabled":false,"rental_uris":{"android":"levelo://app?vid=cd639034-6c54-4e79-98cb-c9aa9112afa1","ios":"levelo://app?vid=cd639034-6c54-4e79-98cb-c9aa9112afa1"},"vehicle_type_id":"4","last_reported":1687490584,"current_range_meters":9200,"station_id":"ce4bgt12rcd13ifvqce0","pricing_plan_id":"free"},{"bike_id":"769d8b99-eb74-458c-b604-0a5f57e627be","system_id":"levelo_inurba_marseille","lat":43.308012,"lon":5.381511,"is_reserved":false,"is_disabled":false,"rental_uris":{"android":"levelo://app?vid=769d8b99-eb74-458c-b604-0a5f57e627be","ios":"levelo://app?vid=769d8b99-eb74-458c-b604-0a5f57e627be"},"vehicle_type_id":"4","last_reported":1687490584,"current_range_meters":26800,"station_id":"ce4bgt12rcd13ifvqce0","pricing_plan_id":"free"},{"bike_id":"cc89cf4a-1020-4c37-b8df-7a044c546535","system_id":"levelo_inurba_marseille","lat":43.308012,"lon":5.381511,"is_reserved":false,"is_disabled":false,"rental_uris":{"android":"levelo://app?vid=cc89cf4a-1020-4c37-b8df-7a044c546535","ios":"levelo://app?vid=cc89cf4a-1020-4c37-b8df-7a044c546535"},"vehicle_type_id":"4","last_reported":1687490584,"current_range_meters":4400,"station_id":"ce4bgt12rcd13ifvqce0","pricing_plan_id":"free"},{"bike_id":"08778001-02a4-47f8-82a8-7f7ea343a1f8","system_id":"levelo_inurba_marseille","lat":43.308012,"lon":5.381511,"is_reserved":false,"is_disabled":false,"rental_uris":{"android":"levelo://app?vid=08778001-02a4-47f8-82a8-7f7ea343a1f8","ios":"levelo://app?vid=08778001-02a4-47f8-82a8-7f7ea343a1f8"},"vehicle_type_id":"4","last_reported":1687490584,"current_range_meters":16400,"station_id":"ce4bgt12rcd13ifvqce0","pricing_plan_id":"free"},{"bike_id":"26ce8121-f992-40e2-9d05-685e5df6c7c8","system_id":"levelo_inurba_marseille","lat":43.308012,"lon":5.381511,"is_reserved":false,"is_disabled":false,"rental_uris":{"android":"levelo://app?vid=26ce8121-f992-40e2-9d05-685e5df6c7c8","ios":"levelo://app?vid=26ce8121-f992-40e2-9d05-685e5df6c7c8"},"vehicle_type_id":"4","last_reported":1687490584,"current_range_meters":25600,"station_id":"ce4bgt12rcd13ifvqce0","pricing_plan_id":"free"},{"bike_id":"c9ab1ff8-910c-42af-b19e-94be384fcf7c","system_id":"levelo_inurba_marseille","lat":43.308012,"lon":5.381511,"is_reserved":false,"is_disabled":false,"rental_uris":{"android":"levelo://app?vid=c9ab1ff8-910c-42af-b19e-94be384fcf7c","ios":"levelo://app?vid=c9ab1ff8-910c-42af-b19e-94be384fcf7c"},"vehicle_type_id":"4","last_reported":1687490584,"current_range_meters":28800,"station_id":"ce4bgt12rcd13ifvqce0","pricing_plan_id":"free"},{"bike_id":"dda91a29-d185-469e-b54b-dbcd41aa89d2","system_id":"levelo_inurba_marseille","lat":43.304606,"lon":5.379026,"is_reserved":false,"is_disabled":false,"rental_uris":{"android":"levelo://app?vid=dda91a29-d185-469e-b54b-dbcd41aa89d2","ios":"levelo://app?vid=dda91a29-d185-469e-b54b-dbcd41aa89d2"},"vehicle_type_id":"4","last_reported":1687490584,"current_range_meters":31200,"station_id":"ce4bgup2rcd13ifvqcn0","pricing_plan_id":"free"},{"bike_id":"fae4ba13-7ae5-4701-a668-88620cde3432","system_id":"levelo_inurba_marseille","lat":43.304606,"lon":5.379026,"is_reserved":false,"is_disabled":false,"rental_uris":{"android":"levelo://app?vid=fae4ba13-7ae5-4701-a668-88620cde3432","ios":"levelo://app?vid=fae4ba13-7ae5-4701-a668-88620cde3432"},"vehicle_type_id":"4","last_reported":1687490584,"current_range_meters":28800,"station_id":"ce4bgup2rcd13ifvqcn0","pricing_plan_id":"free"},{"bike_id":"54973313-967f-4f8a-815f-1290391740e7","system_id":"levelo_inurba_marseille","lat":43.304606,"lon":5.379026,"is_reserved":false,"is_disabled":false,"rental_uris":{"android":"levelo://app?vid=54973313-967f-4f8a-815f-1290391740e7","ios":"levelo://app?vid=54973313-967f-4f8a-815f-1290391740e7"},"vehicle_type_id":"4","last_reported":1687490584,"current_range_meters":29600,"station_id":"ce4bgup2rcd13ifvqcn0","pricing_plan_id":"free"},{"bike_id":"43fc693e-f2a9-4aec-8fd9-d094bb02cb70","system_id":"levelo_inurba_marseille","lat":43.304606,"lon":5.379026,"is_reserved":false,"is_disabled":false,"rental_uris":{"android":"levelo://app?vid=43fc693e-f2a9-4aec-8fd9-d094bb02cb70","ios":"levelo://app?vid=43fc693e-f2a9-4aec-8fd9-d094bb02cb70"},"vehicle_type_id":"4","last_reported":1687490584,"current_range_meters":0,"station_id":"ce4bgup2rcd13ifvqcn0","pricing_plan_id":"free"},{"bike_id":"0b4a31ae-ed9a-4a13-a212-ec54921b4ee8","system_id":"levelo_inurba_marseille","lat":43.304606,"lon":5.379026,"is_reserved":false,"is_disabled":false,"rental_uris":{"android":"levelo://app?vid=0b4a31ae-ed9a-4a13-a212-ec54921b4ee8","ios":"levelo://app?vid=0b4a31ae-ed9a-4a13-a212-ec54921b4ee8"},"vehicle_type_id":"4","last_reported":1687490584,"current_range_meters":28800,"station_id":"ce4bgup2rcd13ifvqcn0","pricing_plan_id":"free"},{"bike_id":"3d15c059-1927-4824-89c2-b57f714c35a9","system_id":"levelo_inurba_marseille","lat":43.304606,"lon":5.379026,"is_reserved":false,"is_disabled":false,"rental_uris":{"android":"levelo://app?vid=3d15c059-1927-4824-89c2-b57f714c35a9","ios":"levelo://app?vid=3d15c059-1927-4824-89c2-b57f714c35a9"},"vehicle_type_id":"4","last_reported":1687490584,"current_range_meters":24400,"station_id":"ce4bgup2rcd13ifvqcn0","pricing_plan_id":"free"},{"bike_id":"4459e13d-8da4-4fca-aa1b-5694361e1fcf","system_id":"levelo_inurba_marseille","lat":43.302784,"lon":5.377158,"is_reserved":false,"is_disabled":false,"rental_uris":{"android":"levelo://app?vid=4459e13d-8da4-4fca-aa1b-5694361e1fcf","ios":"levelo://app?vid=4459e13d-8da4-4fca-aa1b-5694361e1fcf"},"vehicle_type_id":"4","last_reported":1687490584,"current_range_meters":0,"station_id":"ce4bguh2rcd13ifvqcj0","pricing_plan_id":"free"},{"bike_id":"a0bfd6b7-c91c-4aec-ae80-1ff9c8c6ec18","system_id":"levelo_inurba_marseille","lat":43.302784,"lon":5.377158,"is_reserved":false,"is_disabled":false,"rental_uris":{"android":"levelo://app?vid=a0bfd6b7-c91c-4aec-ae80-1ff9c8c6ec18","ios":"levelo://app?vid=a0bfd6b7-c91c-4aec-ae80-1ff9c8c6ec18"},"vehicle_type_id":"4","last_reported":1687490584,"current_range_meters":8800,"station_id":"ce4bguh2rcd13ifvqcj0","pricing_plan_id":"free"},{"bike_id":"caa0df7a-3469-4982-a402-c82d8e49ac69","system_id":"levelo_inurba_marseille","lat":43.302784,"lon":5.377158,"is_reserved":false,"is_disabled":false,"rental_uris":{"android":"levelo://app?vid=caa0df7a-3469-4982-a402-c82d8e49ac69","ios":"levelo://app?vid=caa0df7a-3469-4982-a402-c82d8e49ac69"},"vehicle_type_id":"4","last_reported":1687490584,"current_range_meters":25600,"station_id":"ce4bguh2rcd13ifvqcj0","pricing_plan_id":"free"},{"bike_id":"c6962907-c52e-4b25-a6d6-6607eb67d520","system_id":"levelo_inurba_marseille","lat":43.302784,"lon":5.377158,"is_reserved":false,"is_disabled":false,"rental_uris":{"android":"levelo://app?vid=c6962907-c52e-4b25-a6d6-6607eb67d520","ios":"levelo://app?vid=c6962907-c52e-4b25-a6d6-6607eb67d520"},"vehicle_type_id":"4","last_reported":1687490584,"current_range_meters":23200,"station_id":"ce4bguh2rcd13ifvqcj0","pricing_plan_id":"free"},{"bike_id":"8bdc3002-dcbd-400e-b672-fbc455efd9c5","system_id":"levelo_inurba_marseille","lat":43.302784,"lon":5.377158,"is_reserved":false,"is_disabled":false,"rental_uris":{"android":"levelo://app?vid=8bdc3002-dcbd-400e-b672-fbc455efd9c5","ios":"levelo://app?vid=8bdc3002-dcbd-400e-b672-fbc455efd9c5"},"vehicle_type_id":"4","last_reported":1687490584,"current_range_meters":28800,"station_id":"ce4bguh2rcd13ifvqcj0","pricing_plan_id":"free"},{"bike_id":"c83f0f10-70c9-4129-b5c7-0a5d1bf5c323","system_id":"levelo_inurba_marseille","lat":43.30139,"lon":5.37421,"is_reserved":false,"is_disabled":false,"rental_uris":{"android":"levelo://app?vid=c83f0f10-70c9-4129-b5c7-0a5d1bf5c323","ios":"levelo://app?vid=c83f0f10-70c9-4129-b5c7-0a5d1bf5c323"},"vehicle_type_id":"4","last_reported":1687490584,"current_range_meters":24000,"station_id":"ce4bgs92rcd13ifvqcc0","pricing_plan_id":"free"},{"bike_id":"7deee56c-9315-446d-9bb0-655b3a7b2977","system_id":"levelo_inurba_marseille","lat":43.319935,"lon":5.381699,"is_reserved":false,"is_disabled":false,"rental_uris":{"android":"levelo://app?vid=7deee56c-9315-446d-9bb0-655b3a7b2977","ios":"levelo://app?vid=7deee56c-9315-446d-9bb0-655b3a7b2977"},"vehicle_type_id":"4","last_reported":1687490584,"current_range_meters":30000,"station_id":"ce4bhr12rcd13ifvqhpg","pricing_plan_id":"free"},{"bike_id":"fc36b020-a0fa-4ea1-b73a-1b3b927113fc","system_id":"levelo_inurba_marseille","lat":43.319935,"lon":5.381699,"is_reserved":false,"is_disabled":false,"rental_uris":{"android":"levelo://app?vid=fc36b020-a0fa-4ea1-b73a-1b3b927113fc","ios":"levelo://app?vid=fc36b020-a0fa-4ea1-b73a-1b3b927113fc"},"vehicle_type_id":"4","last_reported":1687490584,"current_range_meters":21200,"station_id":"ce4bhr12rcd13ifvqhpg","pricing_plan_id":"free"},{"bike_id":"dd0223fc-e3b2-4277-9a36-68031be99e8b","system_id":"levelo_inurba_marseille","lat":43.319935,"lon":5.381699,"is_reserved":false,"is_disabled":false,"rental_uris":{"android":"levelo://app?vid=dd0223fc-e3b2-4277-9a36-68031be99e8b","ios":"levelo://app?vid=dd0223fc-e3b2-4277-9a36-68031be99e8b"},"vehicle_type_id":"4","last_reported":1687490584,"current_range_meters":10800,"station_id":"ce4bhr12rcd13ifvqhpg","pricing_plan_id":"free"},{"bike_id":"b6ec6e00-31ec-471f-ae4a-d9f92b742295","system_id":"levelo_inurba_marseille","lat":43.319935,"lon":5.381699,"is_reserved":false,"is_disabled":false,"rental_uris":{"android":"levelo://app?vid=b6ec6e00-31ec-471f-ae4a-d9f92b742295","ios":"levelo://app?vid=b6ec6e00-31ec-471f-ae4a-d9f92b742295"},"vehicle_type_id":"4","last_reported":1687490584,"current_range_meters":31200,"station_id":"ce4bhr12rcd13ifvqhpg","pricing_plan_id":"free"},{"bike_id":"2b477804-59d6-4ed2-b858-3f9e3c0f0764","system_id":"levelo_inurba_marseille","lat":43.319935,"lon":5.381699,"is_reserved":false,"is_disabled":false,"rental_uris":{"android":"levelo://app?vid=2b477804-59d6-4ed2-b858-3f9e3c0f0764","ios":"levelo://app?vid=2b477804-59d6-4ed2-b858-3f9e3c0f0764"},"vehicle_type_id":"4","last_reported":1687490584,"current_range_meters":25200,"station_id":"ce4bhr12rcd13ifvqhpg","pricing_plan_id":"free"},{"bike_id":"0b03bed2-85b6-43ba-8a36-33c78d25df6b","system_id":"levelo_inurba_marseille","lat":43.30694,"lon":5.38272,"is_reserved":false,"is_disabled":false,"rental_uris":{"android":"levelo://app?vid=0b03bed2-85b6-43ba-8a36-33c78d25df6b","ios":"levelo://app?vid=0b03bed2-85b6-43ba-8a36-33c78d25df6b"},"vehicle_type_id":"4","last_reported":1687490584,"current_range_meters":31200,"station_id":"","pricing_plan_id":"free"},{"bike_id":"dd707d1b-6225-4661-996c-70284ecdf521","system_id":"levelo_inurba_marseille","lat":43.319935,"lon":5.381699,"is_reserved":false,"is_disabled":false,"rental_uris":{"android":"levelo://app?vid=dd707d1b-6225-4661-996c-70284ecdf521","ios":"levelo://app?vid=dd707d1b-6225-4661-996c-70284ecdf521"},"vehicle_type_id":"4","last_reported":1687490584,"current_range_meters":31200,"station_id":"ce4bhr12rcd13ifvqhpg","pricing_plan_id":"free"},{"bike_id":"cc7ccaed-aeac-4fb6-a249-e3eec1cb8751","system_id":"levelo_inurba_marseille","lat":43.32226,"lon":5.37911,"is_reserved":false,"is_disabled":false,"rental_uris":{"android":"levelo://app?vid=cc7ccaed-aeac-4fb6-a249-e3eec1cb8751","ios":"levelo://app?vid=cc7ccaed-aeac-4fb6-a249-e3eec1cb8751"},"vehicle_type_id":"4","last_reported":1687490584,"current_range_meters":29200,"station_id":"","pricing_plan_id":"free"},{"bike_id":"cdcf2c67-35c4-4727-bedc-0b4ed1fb29c3","system_id":"levelo_inurba_marseille","lat":43.313571,"lon":5.384829,"is_reserved":false,"is_disabled":false,"rental_uris":{"android":"levelo://app?vid=cdcf2c67-35c4-4727-bedc-0b4ed1fb29c3","ios":"levelo://app?vid=cdcf2c67-35c4-4727-bedc-0b4ed1fb29c3"},"vehicle_type_id":"4","last_reported":1687490584,"current_range_meters":30800,"station_id":"ce4bgt92rcd13ifvqcf0","pricing_plan_id":"free"},{"bike_id":"794954bb-28e2-445c-a16d-3d663661fbd7","system_id":"levelo_inurba_marseille","lat":43.313571,"lon":5.384829,"is_reserved":false,"is_disabled":false,"rental_uris":{"android":"levelo://app?vid=794954bb-28e2-445c-a16d-3d663661fbd7","ios":"levelo://app?vid=794954bb-28e2-445c-a16d-3d663661fbd7"},"vehicle_type_id":"4","last_reported":1687490584,"current_range_meters":30400,"station_id":"ce4bgt92rcd13ifvqcf0","pricing_plan_id":"free"},{"bike_id":"53339ef0-f454-467f-8db6-76538555b40a","system_id":"levelo_inurba_marseille","lat":43.313593,"lon":5.38492,"is_reserved":false,"is_disabled":false,"rental_uris":{"android":"levelo://app?vid=53339ef0-f454-467f-8db6-76538555b40a","ios":"levelo://app?vid=53339ef0-f454-467f-8db6-76538555b40a"},"vehicle_type_id":"4","last_reported":1687490584,"current_range_meters":11200,"station_id":"ce4bgt92rcd13ifvqcf0","pricing_plan_id":"free"},{"bike_id":"e317eca7-f2ac-441b-9988-0c6854f7cbb8","system_id":"levelo_inurba_marseille","lat":43.313571,"lon":5.384829,"is_reserved":false,"is_disabled":false,"rental_uris":{"android":"levelo://app?vid=e317eca7-f2ac-441b-9988-0c6854f7cbb8","ios":"levelo://app?vid=e317eca7-f2ac-441b-9988-0c6854f7cbb8"},"vehicle_type_id":"4","last_reported":1687490584,"current_range_meters":30000,"station_id":"ce4bgt92rcd13ifvqcf0","pricing_plan_id":"free"},{"bike_id":"86f68182-b9b8-4fd7-b9ae-d06054d49d49","system_id":"levelo_inurba_marseille","lat":43.305364,"lon":5.384119,"is_reserved":false,"is_disabled":false,"rental_uris":{"android":"levelo://app?vid=86f68182-b9b8-4fd7-b9ae-d06054d49d49","ios":"levelo://app?vid=86f68182-b9b8-4fd7-b9ae-d06054d49d49"},"vehicle_type_id":"4","last_reported":1687490584,"current_range_meters":1600,"station_id":"ce4bgg92rcd13ifvqb30","pricing_plan_id":"free"},{"bike_id":"b6c2cd2a-5966-49ab-be10-e501371ae18f","system_id":"levelo_inurba_marseille","lat":43.305364,"lon":5.384119,"is_reserved":false,"is_disabled":false,"rental_uris":{"android":"levelo://app?vid=b6c2cd2a-5966-49ab-be10-e501371ae18f","ios":"levelo://app?vid=b6c2cd2a-5966-49ab-be10-e501371ae18f"},"vehicle_type_id":"4","last_reported":1687490584,"current_range_meters":10800,"station_id":"ce4bgg92rcd13ifvqb30","pricing_plan_id":"free"},{"bike_id":"d5f32ebe-b91f-4261-a4f5-b32cedc02b36","system_id":"levelo_inurba_marseille","lat":43.311722,"lon":5.387247,"is_reserved":false,"is_disabled":false,"rental_uris":{"android":"levelo://app?vid=d5f32ebe-b91f-4261-a4f5-b32cedc02b36","ios":"levelo://app?vid=d5f32ebe-b91f-4261-a4f5-b32cedc02b36"},"vehicle_type_id":"4","last_reported":1687490584,"current_range_meters":31200,"station_id":"ce4bgv12rcd13ifvqcp0","pricing_plan_id":"free"},{"bike_id":"59671e05-1547-4ad1-b769-eafdc0594cc2","system_id":"levelo_inurba_marseille","lat":43.311722,"lon":5.387247,"is_reserved":false,"is_disabled":false,"rental_uris":{"android":"levelo://app?vid=59671e05-1547-4ad1-b769-eafdc0594cc2","ios":"levelo://app?vid=59671e05-1547-4ad1-b769-eafdc0594cc2"},"vehicle_type_id":"4","last_reported":1687490584,"current_range_meters":30000,"station_id":"ce4bgv12rcd13ifvqcp0","pricing_plan_id":"free"},{"bike_id":"1c14f884-ffbd-4c87-9fd3-0ab8b668cfe7","system_id":"levelo_inurba_marseille","lat":43.311722,"lon":5.387247,"is_reserved":false,"is_disabled":false,"rental_uris":{"android":"levelo://app?vid=1c14f884-ffbd-4c87-9fd3-0ab8b668cfe7","ios":"levelo://app?vid=1c14f884-ffbd-4c87-9fd3-0ab8b668cfe7"},"vehicle_type_id":"4","last_reported":1687490584,"current_range_meters":28800,"station_id":"ce4bgv12rcd13ifvqcp0","pricing_plan_id":"free"},{"bike_id":"0561a7df-a130-4a80-a922-5ceeac9f19d8","system_id":"levelo_inurba_marseille","lat":43.311722,"lon":5.387247,"is_reserved":false,"is_disabled":false,"rental_uris":{"android":"levelo://app?vid=0561a7df-a130-4a80-a922-5ceeac9f19d8","ios":"levelo://app?vid=0561a7df-a130-4a80-a922-5ceeac9f19d8"},"vehicle_type_id":"4","last_reported":1687490584,"current_range_meters":22800,"station_id":"ce4bgv12rcd13ifvqcp0","pricing_plan_id":"free"},{"bike_id":"cd87ed38-83cb-45e1-805f-3b897bb5194e","system_id":"levelo_inurba_marseille","lat":43.311722,"lon":5.387247,"is_reserved":false,"is_disabled":false,"rental_uris":{"android":"levelo://app?vid=cd87ed38-83cb-45e1-805f-3b897bb5194e","ios":"levelo://app?vid=cd87ed38-83cb-45e1-805f-3b897bb5194e"},"vehicle_type_id":"4","last_reported":1687490584,"current_range_meters":31200,"station_id":"ce4bgv12rcd13ifvqcp0","pricing_plan_id":"free"},{"bike_id":"680a587f-a582-4a84-aa52-5f6cdfeea3da","system_id":"levelo_inurba_marseille","lat":43.311667,"lon":5.387233,"is_reserved":false,"is_disabled":false,"rental_uris":{"android":"levelo://app?vid=680a587f-a582-4a84-aa52-5f6cdfeea3da","ios":"levelo://app?vid=680a587f-a582-4a84-aa52-5f6cdfeea3da"},"vehicle_type_id":"4","last_reported":1687490584,"current_range_meters":31200,"station_id":"ce4bgv12rcd13ifvqcp0","pricing_plan_id":"free"},{"bike_id":"668cf921-bc13-4110-8e8b-9f157e072ecf","system_id":"levelo_inurba_marseille","lat":43.311722,"lon":5.387247,"is_reserved":false,"is_disabled":false,"rental_uris":{"android":"levelo://app?vid=668cf921-bc13-4110-8e8b-9f157e072ecf","ios":"levelo://app?vid=668cf921-bc13-4110-8e8b-9f157e072ecf"},"vehicle_type_id":"4","last_reported":1687490584,"current_range_meters":4800,"station_id":"ce4bgv12rcd13ifvqcp0","pricing_plan_id":"free"},{"bike_id":"f900b13a-3879-46c9-8bcf-58354a1b7527","system_id":"levelo_inurba_marseille","lat":43.311722,"lon":5.387247,"is_reserved":false,"is_disabled":false,"rental_uris":{"android":"levelo://app?vid=f900b13a-3879-46c9-8bcf-58354a1b7527","ios":"levelo://app?vid=f900b13a-3879-46c9-8bcf-58354a1b7527"},"vehicle_type_id":"4","last_reported":1687490584,"current_range_meters":30800,"station_id":"ce4bgv12rcd13ifvqcp0","pricing_plan_id":"free"},{"bike_id":"a73ba982-b9a4-4629-8656-46245f9d10c7","system_id":"levelo_inurba_marseille","lat":43.29778,"lon":5.37093,"is_reserved":false,"is_disabled":false,"rental_uris":{"android":"levelo://app?vid=a73ba982-b9a4-4629-8656-46245f9d10c7","ios":"levelo://app?vid=a73ba982-b9a4-4629-8656-46245f9d10c7"},"vehicle_type_id":"4","last_reported":1687490584,"current_range_meters":0,"station_id":"ce4bgop2rcd13ifvqc1g","pricing_plan_id":"free"},{"bike_id":"31ddad60-d4bd-4b75-a02e-e3bbf11065ed","system_id":"levelo_inurba_marseille","lat":43.328371,"lon":5.366909,"is_reserved":false,"is_disabled":false,"rental_uris":{"android":"levelo://app?vid=31ddad60-d4bd-4b75-a02e-e3bbf11065ed","ios":"levelo://app?vid=31ddad60-d4bd-4b75-a02e-e3bbf11065ed"},"vehicle_type_id":"4","last_reported":1687490584,"current_range_meters":24800,"station_id":"ce4bhs92rcd13ifvqi0g","pricing_plan_id":"free"},{"bike_id":"f29725c6-87c0-4998-96d6-7b7afbecb764","system_id":"levelo_inurba_marseille","lat":43.328371,"lon":5.366909,"is_reserved":false,"is_disabled":false,"rental_uris":{"android":"levelo://app?vid=f29725c6-87c0-4998-96d6-7b7afbecb764","ios":"levelo://app?vid=f29725c6-87c0-4998-96d6-7b7afbecb764"},"vehicle_type_id":"4","last_reported":1687490584,"current_range_meters":3200,"station_id":"ce4bhs92rcd13ifvqi0g","pricing_plan_id":"free"},{"bike_id":"41235149-f42e-4673-9d1a-055ac92c3df6","system_id":"levelo_inurba_marseille","lat":43.32828,"lon":5.36683,"is_reserved":false,"is_disabled":false,"rental_uris":{"android":"levelo://app?vid=41235149-f42e-4673-9d1a-055ac92c3df6","ios":"levelo://app?vid=41235149-f42e-4673-9d1a-055ac92c3df6"},"vehicle_type_id":"4","last_reported":1687490584,"current_range_meters":27200,"station_id":"ce4bhs92rcd13ifvqi0g","pricing_plan_id":"free"},{"bike_id":"32007623-af1f-4b13-99da-1a105ea60890","system_id":"levelo_inurba_marseille","lat":43.3283,"lon":5.36683,"is_reserved":false,"is_disabled":false,"rental_uris":{"android":"levelo://app?vid=32007623-af1f-4b13-99da-1a105ea60890","ios":"levelo://app?vid=32007623-af1f-4b13-99da-1a105ea60890"},"vehicle_type_id":"4","last_reported":1687490584,"current_range_meters":31200,"station_id":"ce4bhs92rcd13ifvqi0g","pricing_plan_id":"free"},{"bike_id":"90374857-a63d-4642-9017-e49bf86a7332","system_id":"levelo_inurba_marseille","lat":43.32835,"lon":5.36691,"is_reserved":false,"is_disabled":false,"rental_uris":{"android":"levelo://app?vid=90374857-a63d-4642-9017-e49bf86a7332","ios":"levelo://app?vid=90374857-a63d-4642-9017-e49bf86a7332"},"vehicle_type_id":"4","last_reported":1687490584,"current_range_meters":31200,"station_id":"ce4bhs92rcd13ifvqi0g","pricing_plan_id":"free"},{"bike_id":"a7609b82-0005-4e13-b94d-903dd279316f","system_id":"levelo_inurba_marseille","lat":43.297163,"lon":5.365866,"is_reserved":false,"is_disabled":false,"rental_uris":{"android":"levelo://app?vid=a7609b82-0005-4e13-b94d-903dd279316f","ios":"levelo://app?vid=a7609b82-0005-4e13-b94d-903dd279316f"},"vehicle_type_id":"4","last_reported":1687490584,"current_range_meters":25200,"station_id":"ce4bgn12rcd13ifvqbt0","pricing_plan_id":"free"},{"bike_id":"d6aa4b8f-0fbd-492f-a726-f1b64033634e","system_id":"levelo_inurba_marseille","lat":43.29702,"lon":5.36407,"is_reserved":false,"is_disabled":false,"rental_uris":{"android":"levelo://app?vid=d6aa4b8f-0fbd-492f-a726-f1b64033634e","ios":"levelo://app?vid=d6aa4b8f-0fbd-492f-a726-f1b64033634e"},"vehicle_type_id":"4","last_reported":1687490584,"current_range_meters":12800,"station_id":"","pricing_plan_id":"free"},{"bike_id":"77b90041-c694-45f6-983a-a26db613977f","system_id":"levelo_inurba_marseille","lat":43.296921,"lon":5.376579,"is_reserved":false,"is_disabled":false,"rental_uris":{"android":"levelo://app?vid=77b90041-c694-45f6-983a-a26db613977f","ios":"levelo://app?vid=77b90041-c694-45f6-983a-a26db613977f"},"vehicle_type_id":"4","last_reported":1687490584,"current_range_meters":18800,"station_id":"ce4bgkh2rcd13ifvqbl0","pricing_plan_id":"free"},{"bike_id":"da64e271-13f6-4b9f-928b-bb90ebb69da1","system_id":"levelo_inurba_marseille","lat":43.296921,"lon":5.376579,"is_reserved":false,"is_disabled":false,"rental_uris":{"android":"levelo://app?vid=da64e271-13f6-4b9f-928b-bb90ebb69da1","ios":"levelo://app?vid=da64e271-13f6-4b9f-928b-bb90ebb69da1"},"vehicle_type_id":"4","last_reported":1687490584,"current_range_meters":400,"station_id":"ce4bgkh2rcd13ifvqbl0","pricing_plan_id":"free"},{"bike_id":"0b34b024-981a-4bad-b253-27a4e6e73e85","system_id":"levelo_inurba_marseille","lat":43.296921,"lon":5.376579,"is_reserved":false,"is_disabled":false,"rental_uris":{"android":"levelo://app?vid=0b34b024-981a-4bad-b253-27a4e6e73e85","ios":"levelo://app?vid=0b34b024-981a-4bad-b253-27a4e6e73e85"},"vehicle_type_id":"4","last_reported":1687490584,"current_range_meters":21600,"station_id":"ce4bgkh2rcd13ifvqbl0","pricing_plan_id":"free"},{"bike_id":"38974716-2be1-4f3e-826a-c324b786cc94","system_id":"levelo_inurba_marseille","lat":43.296935,"lon":5.376544,"is_reserved":false,"is_disabled":false,"rental_uris":{"android":"levelo://app?vid=38974716-2be1-4f3e-826a-c324b786cc94","ios":"levelo://app?vid=38974716-2be1-4f3e-826a-c324b786cc94"},"vehicle_type_id":"4","last_reported":1687490584,"current_range_meters":22400,"station_id":"ce4bgkh2rcd13ifvqbl0","pricing_plan_id":"free"},{"bike_id":"2f0fbaff-44b5-4965-8a0b-642f36d4a3e2","system_id":"levelo_inurba_marseille","lat":43.296935,"lon":5.376544,"is_reserved":false,"is_disabled":false,"rental_uris":{"android":"levelo://app?vid=2f0fbaff-44b5-4965-8a0b-642f36d4a3e2","ios":"levelo://app?vid=2f0fbaff-44b5-4965-8a0b-642f36d4a3e2"},"vehicle_type_id":"4","last_reported":1687490584,"current_range_meters":0,"station_id":"ce4bgkh2rcd13ifvqbl0","pricing_plan_id":"free"},{"bike_id":"7511448e-9c9c-44ea-b984-00e3be4ca410","system_id":"levelo_inurba_marseille","lat":43.299028,"lon":5.381509,"is_reserved":false,"is_disabled":false,"rental_uris":{"android":"levelo://app?vid=7511448e-9c9c-44ea-b984-00e3be4ca410","ios":"levelo://app?vid=7511448e-9c9c-44ea-b984-00e3be4ca410"},"vehicle_type_id":"4","last_reported":1687490584,"current_range_meters":30800,"station_id":"ce4bgj12rcd13ifvqbc0","pricing_plan_id":"free"},{"bike_id":"82782101-da42-4d98-ab67-90554f272f1e","system_id":"levelo_inurba_marseille","lat":43.299028,"lon":5.381509,"is_reserved":false,"is_disabled":false,"rental_uris":{"android":"levelo://app?vid=82782101-da42-4d98-ab67-90554f272f1e","ios":"levelo://app?vid=82782101-da42-4d98-ab67-90554f272f1e"},"vehicle_type_id":"4","last_reported":1687490584,"current_range_meters":27600,"station_id":"ce4bgj12rcd13ifvqbc0","pricing_plan_id":"free"},{"bike_id":"041bc147-ef2f-419b-bb81-deca3bdf89e2","system_id":"levelo_inurba_marseille","lat":43.29611,"lon":5.36046,"is_reserved":false,"is_disabled":false,"rental_uris":{"android":"levelo://app?vid=041bc147-ef2f-419b-bb81-deca3bdf89e2","ios":"levelo://app?vid=041bc147-ef2f-419b-bb81-deca3bdf89e2"},"vehicle_type_id":"4","last_reported":1687490584,"current_range_meters":12400,"station_id":"","pricing_plan_id":"free"},{"bike_id":"2700600f-bb42-4ee7-bf04-1327a44ebce4","system_id":"levelo_inurba_marseille","lat":43.29899,"lon":5.38144,"is_reserved":false,"is_disabled":false,"rental_uris":{"android":"levelo://app?vid=2700600f-bb42-4ee7-bf04-1327a44ebce4","ios":"levelo://app?vid=2700600f-bb42-4ee7-bf04-1327a44ebce4"},"vehicle_type_id":"4","last_reported":1687490584,"current_range_meters":31200,"station_id":"ce4bgj12rcd13ifvqbc0","pricing_plan_id":"free"},{"bike_id":"a9a2f185-74ab-40dd-85d2-c9b91cd0ec95","system_id":"levelo_inurba_marseille","lat":43.317557,"lon":5.390173,"is_reserved":false,"is_disabled":false,"rental_uris":{"android":"levelo://app?vid=a9a2f185-74ab-40dd-85d2-c9b91cd0ec95","ios":"levelo://app?vid=a9a2f185-74ab-40dd-85d2-c9b91cd0ec95"},"vehicle_type_id":"4","last_reported":1687490584,"current_range_meters":30000,"station_id":"ce4bhqp2rcd13ifvqhng","pricing_plan_id":"free"},{"bike_id":"c371fbb5-2063-4eac-a8ee-0d1442b1cefa","system_id":"levelo_inurba_marseille","lat":43.317557,"lon":5.390173,"is_reserved":false,"is_disabled":false,"rental_uris":{"android":"levelo://app?vid=c371fbb5-2063-4eac-a8ee-0d1442b1cefa","ios":"levelo://app?vid=c371fbb5-2063-4eac-a8ee-0d1442b1cefa"},"vehicle_type_id":"4","last_reported":1687490584,"current_range_meters":26400,"station_id":"ce4bhqp2rcd13ifvqhng","pricing_plan_id":"free"},{"bike_id":"681d22cc-078d-43a2-af9f-0bccbe9fc706","system_id":"levelo_inurba_marseille","lat":43.30245,"lon":5.38721,"is_reserved":false,"is_disabled":false,"rental_uris":{"android":"levelo://app?vid=681d22cc-078d-43a2-af9f-0bccbe9fc706","ios":"levelo://app?vid=681d22cc-078d-43a2-af9f-0bccbe9fc706"},"vehicle_type_id":"4","last_reported":1687490584,"current_range_meters":0,"station_id":"","pricing_plan_id":"free"},{"bike_id":"137d1e30-4597-453e-a994-85ab7e21c0ba","system_id":"levelo_inurba_marseille","lat":43.295748,"lon":5.37522,"is_reserved":false,"is_disabled":false,"rental_uris":{"android":"levelo://app?vid=137d1e30-4597-453e-a994-85ab7e21c0ba","ios":"levelo://app?vid=137d1e30-4597-453e-a994-85ab7e21c0ba"},"vehicle_type_id":"4","last_reported":1687490584,"current_range_meters":31200,"station_id":"ce4bgh92rcd13ifvqb50","pricing_plan_id":"free"},{"bike_id":"5df42c1a-ed2b-492e-8f85-33aa2d0ed3a0","system_id":"levelo_inurba_marseille","lat":43.295748,"lon":5.37522,"is_reserved":false,"is_disabled":false,"rental_uris":{"android":"levelo://app?vid=5df42c1a-ed2b-492e-8f85-33aa2d0ed3a0","ios":"levelo://app?vid=5df42c1a-ed2b-492e-8f85-33aa2d0ed3a0"},"vehicle_type_id":"4","last_reported":1687490584,"current_range_meters":13200,"station_id":"ce4bgh92rcd13ifvqb50","pricing_plan_id":"free"},{"bike_id":"fd1c370a-02c8-4777-97ce-3c1bdb882120","system_id":"levelo_inurba_marseille","lat":43.296263,"lon":5.377094,"is_reserved":false,"is_disabled":false,"rental_uris":{"android":"levelo://app?vid=fd1c370a-02c8-4777-97ce-3c1bdb882120","ios":"levelo://app?vid=fd1c370a-02c8-4777-97ce-3c1bdb882120"},"vehicle_type_id":"4","last_reported":1687490584,"current_range_meters":29200,"station_id":"ce4bgi92rcd13ifvqb90","pricing_plan_id":"free"},{"bike_id":"6da096a4-5db6-45fc-8239-5748da671d72","system_id":"levelo_inurba_marseille","lat":43.299707,"lon":5.384859,"is_reserved":false,"is_disabled":false,"rental_uris":{"android":"levelo://app?vid=6da096a4-5db6-45fc-8239-5748da671d72","ios":"levelo://app?vid=6da096a4-5db6-45fc-8239-5748da671d72"},"vehicle_type_id":"4","last_reported":1687490584,"current_range_meters":24400,"station_id":"ce4bgj92rcd13ifvqbd0","pricing_plan_id":"free"},{"bike_id":"c982d2d4-f203-4fd5-a87b-eeba8d70ebaa","system_id":"levelo_inurba_marseille","lat":43.299707,"lon":5.384859,"is_reserved":false,"is_disabled":false,"rental_uris":{"android":"levelo://app?vid=c982d2d4-f203-4fd5-a87b-eeba8d70ebaa","ios":"levelo://app?vid=c982d2d4-f203-4fd5-a87b-eeba8d70ebaa"},"vehicle_type_id":"4","last_reported":1687490584,"current_range_meters":14400,"station_id":"ce4bgj92rcd13ifvqbd0","pricing_plan_id":"free"},{"bike_id":"4fc4f194-e67a-4037-be4b-dd931ac50050","system_id":"levelo_inurba_marseille","lat":43.29978,"lon":5.38497,"is_reserved":false,"is_disabled":false,"rental_uris":{"android":"levelo://app?vid=4fc4f194-e67a-4037-be4b-dd931ac50050","ios":"levelo://app?vid=4fc4f194-e67a-4037-be4b-dd931ac50050"},"vehicle_type_id":"4","last_reported":1687490584,"current_range_meters":25200,"station_id":"ce4bgj92rcd13ifvqbd0","pricing_plan_id":"free"},{"bike_id":"469ef8fc-5f87-49c1-9829-13454b04bc83","system_id":"levelo_inurba_marseille","lat":43.299707,"lon":5.384859,"is_reserved":false,"is_disabled":false,"rental_uris":{"android":"levelo://app?vid=469ef8fc-5f87-49c1-9829-13454b04bc83","ios":"levelo://app?vid=469ef8fc-5f87-49c1-9829-13454b04bc83"},"vehicle_type_id":"4","last_reported":1687490584,"current_range_meters":27600,"station_id":"ce4bgj92rcd13ifvqbd0","pricing_plan_id":"free"},{"bike_id":"97d9eccf-9d27-41a8-93bc-138ca7899aeb","system_id":"levelo_inurba_marseille","lat":43.323657,"lon":5.388772,"is_reserved":false,"is_disabled":false,"rental_uris":{"android":"levelo://app?vid=97d9eccf-9d27-41a8-93bc-138ca7899aeb","ios":"levelo://app?vid=97d9eccf-9d27-41a8-93bc-138ca7899aeb"},"vehicle_type_id":"4","last_reported":1687490584,"current_range_meters":30400,"station_id":"ce4bhqp2rcd13ifvqhog","pricing_plan_id":"free"},{"bike_id":"64662981-7513-476f-94ac-37e143c3fe68","system_id":"levelo_inurba_marseille","lat":43.323659,"lon":5.388787,"is_reserved":false,"is_disabled":false,"rental_uris":{"android":"levelo://app?vid=64662981-7513-476f-94ac-37e143c3fe68","ios":"levelo://app?vid=64662981-7513-476f-94ac-37e143c3fe68"},"vehicle_type_id":"4","last_reported":1687490584,"current_range_meters":29200,"station_id":"ce4bhqp2rcd13ifvqhog","pricing_plan_id":"free"},{"bike_id":"537904b6-81e9-4163-ada3-bc304b2c5b19","system_id":"levelo_inurba_marseille","lat":43.323665,"lon":5.388809,"is_reserved":false,"is_disabled":false,"rental_uris":{"android":"levelo://app?vid=537904b6-81e9-4163-ada3-bc304b2c5b19","ios":"levelo://app?vid=537904b6-81e9-4163-ada3-bc304b2c5b19"},"vehicle_type_id":"4","last_reported":1687490584,"current_range_meters":13200,"station_id":"ce4bhqp2rcd13ifvqhog","pricing_plan_id":"free"},{"bike_id":"ba9bcc13-30a6-41ee-ab87-c9d21de1e9f5","system_id":"levelo_inurba_marseille","lat":43.32367,"lon":5.388836,"is_reserved":false,"is_disabled":false,"rental_uris":{"android":"levelo://app?vid=ba9bcc13-30a6-41ee-ab87-c9d21de1e9f5","ios":"levelo://app?vid=ba9bcc13-30a6-41ee-ab87-c9d21de1e9f5"},"vehicle_type_id":"4","last_reported":1687490584,"current_range_meters":19200,"station_id":"ce4bhqp2rcd13ifvqhog","pricing_plan_id":"free"},{"bike_id":"10fe77c1-5e15-42b2-9115-e66cf6b1c4f4","system_id":"levelo_inurba_marseille","lat":43.32367,"lon":5.388836,"is_reserved":false,"is_disabled":false,"rental_uris":{"android":"levelo://app?vid=10fe77c1-5e15-42b2-9115-e66cf6b1c4f4","ios":"levelo://app?vid=10fe77c1-5e15-42b2-9115-e66cf6b1c4f4"},"vehicle_type_id":"4","last_reported":1687490584,"current_range_meters":25600,"station_id":"ce4bhqp2rcd13ifvqhog","pricing_plan_id":"free"},{"bike_id":"a4982143-2425-407a-81e3-fbbbd5897622","system_id":"levelo_inurba_marseille","lat":43.323666,"lon":5.38884,"is_reserved":false,"is_disabled":false,"rental_uris":{"android":"levelo://app?vid=a4982143-2425-407a-81e3-fbbbd5897622","ios":"levelo://app?vid=a4982143-2425-407a-81e3-fbbbd5897622"},"vehicle_type_id":"4","last_reported":1687490584,"current_range_meters":1600,"station_id":"ce4bhqp2rcd13ifvqhog","pricing_plan_id":"free"},{"bike_id":"6b240958-c6ee-4137-b7eb-f90da79bb462","system_id":"levelo_inurba_marseille","lat":43.32367,"lon":5.388836,"is_reserved":false,"is_disabled":false,"rental_uris":{"android":"levelo://app?vid=6b240958-c6ee-4137-b7eb-f90da79bb462","ios":"levelo://app?vid=6b240958-c6ee-4137-b7eb-f90da79bb462"},"vehicle_type_id":"4","last_reported":1687490584,"current_range_meters":19600,"station_id":"ce4bhqp2rcd13ifvqhog","pricing_plan_id":"free"},{"bike_id":"9eb6839e-6824-4f74-a71e-6f1996b3ff40","system_id":"levelo_inurba_marseille","lat":43.32367,"lon":5.388836,"is_reserved":false,"is_disabled":false,"rental_uris":{"android":"levelo://app?vid=9eb6839e-6824-4f74-a71e-6f1996b3ff40","ios":"levelo://app?vid=9eb6839e-6824-4f74-a71e-6f1996b3ff40"},"vehicle_type_id":"4","last_reported":1687490584,"current_range_meters":23600,"station_id":"ce4bhqp2rcd13ifvqhog","pricing_plan_id":"free"},{"bike_id":"0003540a-7003-4f9d-93cf-ee0643a910ac","system_id":"levelo_inurba_marseille","lat":43.30597,"lon":5.39355,"is_reserved":false,"is_disabled":false,"rental_uris":{"android":"levelo://app?vid=0003540a-7003-4f9d-93cf-ee0643a910ac","ios":"levelo://app?vid=0003540a-7003-4f9d-93cf-ee0643a910ac"},"vehicle_type_id":"4","last_reported":1687490584,"current_range_meters":21600,"station_id":"ce4bh0p2rcd13ifvqd80","pricing_plan_id":"free"},{"bike_id":"76d32c13-29a6-4f86-8ef8-3c4796243362","system_id":"levelo_inurba_marseille","lat":43.30596,"lon":5.39355,"is_reserved":false,"is_disabled":false,"rental_uris":{"android":"levelo://app?vid=76d32c13-29a6-4f86-8ef8-3c4796243362","ios":"levelo://app?vid=76d32c13-29a6-4f86-8ef8-3c4796243362"},"vehicle_type_id":"4","last_reported":1687490584,"current_range_meters":20800,"station_id":"ce4bh0p2rcd13ifvqd80","pricing_plan_id":"free"},{"bike_id":"06c12b5b-4dae-4a74-8f74-870fddd5005a","system_id":"levelo_inurba_marseille","lat":43.30602,"lon":5.39358,"is_reserved":false,"is_disabled":false,"rental_uris":{"android":"levelo://app?vid=06c12b5b-4dae-4a74-8f74-870fddd5005a","ios":"levelo://app?vid=06c12b5b-4dae-4a74-8f74-870fddd5005a"},"vehicle_type_id":"4","last_reported":1687490584,"current_range_meters":30400,"station_id":"ce4bh0p2rcd13ifvqd80","pricing_plan_id":"free"},{"bike_id":"1c5f7728-71a3-47d2-9ec9-30c783515525","system_id":"levelo_inurba_marseille","lat":43.30302,"lon":5.3921,"is_reserved":false,"is_disabled":false,"rental_uris":{"android":"levelo://app?vid=1c5f7728-71a3-47d2-9ec9-30c783515525","ios":"levelo://app?vid=1c5f7728-71a3-47d2-9ec9-30c783515525"},"vehicle_type_id":"4","last_reported":1687490584,"current_range_meters":20800,"station_id":"ce4bgkh2rcd13ifvqbk0","pricing_plan_id":"free"},{"bike_id":"5f8a67d7-2f18-4582-85a4-3d57f5695628","system_id":"levelo_inurba_marseille","lat":43.30305,"lon":5.39216,"is_reserved":false,"is_disabled":false,"rental_uris":{"android":"levelo://app?vid=5f8a67d7-2f18-4582-85a4-3d57f5695628","ios":"levelo://app?vid=5f8a67d7-2f18-4582-85a4-3d57f5695628"},"vehicle_type_id":"4","last_reported":1687490584,"current_range_meters":12000,"station_id":"ce4bgkh2rcd13ifvqbk0","pricing_plan_id":"free"},{"bike_id":"d4bead1d-c0c4-4ba5-8c69-42b53e1a3c50","system_id":"levelo_inurba_marseille","lat":43.302992,"lon":5.392136,"is_reserved":false,"is_disabled":false,"rental_uris":{"android":"levelo://app?vid=d4bead1d-c0c4-4ba5-8c69-42b53e1a3c50","ios":"levelo://app?vid=d4bead1d-c0c4-4ba5-8c69-42b53e1a3c50"},"vehicle_type_id":"4","last_reported":1687490584,"current_range_meters":13200,"station_id":"ce4bgkh2rcd13ifvqbk0","pricing_plan_id":"free"},{"bike_id":"29631889-3077-493f-82f2-c0fa3a053c54","system_id":"levelo_inurba_marseille","lat":43.30303,"lon":5.39219,"is_reserved":false,"is_disabled":false,"rental_uris":{"android":"levelo://app?vid=29631889-3077-493f-82f2-c0fa3a053c54","ios":"levelo://app?vid=29631889-3077-493f-82f2-c0fa3a053c54"},"vehicle_type_id":"4","last_reported":1687490584,"current_range_meters":31200,"station_id":"ce4bgkh2rcd13ifvqbk0","pricing_plan_id":"free"},{"bike_id":"14d81599-cc98-49d0-9d78-fd40eafe54ef","system_id":"levelo_inurba_marseille","lat":43.302992,"lon":5.392136,"is_reserved":false,"is_disabled":false,"rental_uris":{"android":"levelo://app?vid=14d81599-cc98-49d0-9d78-fd40eafe54ef","ios":"levelo://app?vid=14d81599-cc98-49d0-9d78-fd40eafe54ef"},"vehicle_type_id":"4","last_reported":1687490584,"current_range_meters":28000,"station_id":"ce4bgkh2rcd13ifvqbk0","pricing_plan_id":"free"},{"bike_id":"4d287d60-6b15-4c86-88af-f66f96deb113","system_id":"levelo_inurba_marseille","lat":43.303042,"lon":5.392221,"is_reserved":false,"is_disabled":false,"rental_uris":{"android":"levelo://app?vid=4d287d60-6b15-4c86-88af-f66f96deb113","ios":"levelo://app?vid=4d287d60-6b15-4c86-88af-f66f96deb113"},"vehicle_type_id":"4","last_reported":1687490584,"current_range_meters":18000,"station_id":"ce4bgkh2rcd13ifvqbk0","pricing_plan_id":"free"},{"bike_id":"7be02f21-5f3f-476d-8d1f-e4734d4e0b8c","system_id":"levelo_inurba_marseille","lat":43.302992,"lon":5.392136,"is_reserved":false,"is_disabled":false,"rental_uris":{"android":"levelo://app?vid=7be02f21-5f3f-476d-8d1f-e4734d4e0b8c","ios":"levelo://app?vid=7be02f21-5f3f-476d-8d1f-e4734d4e0b8c"},"vehicle_type_id":"4","last_reported":1687490584,"current_range_meters":24400,"station_id":"ce4bgkh2rcd13ifvqbk0","pricing_plan_id":"free"},{"bike_id":"c8cf5963-56d2-4caa-a03b-7ed7eb6b52ec","system_id":"levelo_inurba_marseille","lat":43.30311,"lon":5.39228,"is_reserved":false,"is_disabled":false,"rental_uris":{"android":"levelo://app?vid=c8cf5963-56d2-4caa-a03b-7ed7eb6b52ec","ios":"levelo://app?vid=c8cf5963-56d2-4caa-a03b-7ed7eb6b52ec"},"vehicle_type_id":"4","last_reported":1687490584,"current_range_meters":31200,"station_id":"ce4bgkh2rcd13ifvqbk0","pricing_plan_id":"free"},{"bike_id":"9eb34ee2-5d27-4d26-b391-5fd2df57f472","system_id":"levelo_inurba_marseille","lat":43.302992,"lon":5.392136,"is_reserved":false,"is_disabled":false,"rental_uris":{"android":"levelo://app?vid=9eb34ee2-5d27-4d26-b391-5fd2df57f472","ios":"levelo://app?vid=9eb34ee2-5d27-4d26-b391-5fd2df57f472"},"vehicle_type_id":"4","last_reported":1687490584,"current_range_meters":31200,"station_id":"ce4bgkh2rcd13ifvqbk0","pricing_plan_id":"free"},{"bike_id":"d3b61373-858b-4e6a-bd02-e28155d2cb0e","system_id":"levelo_inurba_marseille","lat":43.302992,"lon":5.392136,"is_reserved":false,"is_disabled":false,"rental_uris":{"android":"levelo://app?vid=d3b61373-858b-4e6a-bd02-e28155d2cb0e","ios":"levelo://app?vid=d3b61373-858b-4e6a-bd02-e28155d2cb0e"},"vehicle_type_id":"4","last_reported":1687490584,"current_range_meters":25200,"station_id":"ce4bgkh2rcd13ifvqbk0","pricing_plan_id":"free"},{"bike_id":"52dde2fd-7453-410d-ab6f-8ac6c700b749","system_id":"levelo_inurba_marseille","lat":43.2936,"lon":5.37835,"is_reserved":false,"is_disabled":false,"rental_uris":{"android":"levelo://app?vid=52dde2fd-7453-410d-ab6f-8ac6c700b749","ios":"levelo://app?vid=52dde2fd-7453-410d-ab6f-8ac6c700b749"},"vehicle_type_id":"4","last_reported":1687490584,"current_range_meters":29200,"station_id":"ce4bgjh2rcd13ifvqbf0","pricing_plan_id":"free"},{"bike_id":"2a1031d3-6a10-4d77-9d10-498719f54073","system_id":"levelo_inurba_marseille","lat":43.30302,"lon":5.39235,"is_reserved":false,"is_disabled":false,"rental_uris":{"android":"levelo://app?vid=2a1031d3-6a10-4d77-9d10-498719f54073","ios":"levelo://app?vid=2a1031d3-6a10-4d77-9d10-498719f54073"},"vehicle_type_id":"4","last_reported":1687490584,"current_range_meters":16000,"station_id":"ce4bgkh2rcd13ifvqbk0","pricing_plan_id":"free"},{"bike_id":"461fea00-de9a-4f47-9778-8f53edf142b5","system_id":"levelo_inurba_marseille","lat":43.2936,"lon":5.37849,"is_reserved":false,"is_disabled":false,"rental_uris":{"android":"levelo://app?vid=461fea00-de9a-4f47-9778-8f53edf142b5","ios":"levelo://app?vid=461fea00-de9a-4f47-9778-8f53edf142b5"},"vehicle_type_id":"4","last_reported":1687490584,"current_range_meters":12000,"station_id":"ce4bgjh2rcd13ifvqbf0","pricing_plan_id":"free"},{"bike_id":"c0c06248-472c-4437-a153-9bf01b39c0db","system_id":"levelo_inurba_marseille","lat":43.302992,"lon":5.392136,"is_reserved":false,"is_disabled":false,"rental_uris":{"android":"levelo://app?vid=c0c06248-472c-4437-a153-9bf01b39c0db","ios":"levelo://app?vid=c0c06248-472c-4437-a153-9bf01b39c0db"},"vehicle_type_id":"4","last_reported":1687490584,"current_range_meters":29200,"station_id":"ce4bgkh2rcd13ifvqbk0","pricing_plan_id":"free"},{"bike_id":"4d7bb623-71b5-4384-8531-68bd0ae4ca46","system_id":"levelo_inurba_marseille","lat":43.292311,"lon":5.360731,"is_reserved":false,"is_disabled":false,"rental_uris":{"android":"levelo://app?vid=4d7bb623-71b5-4384-8531-68bd0ae4ca46","ios":"levelo://app?vid=4d7bb623-71b5-4384-8531-68bd0ae4ca46"},"vehicle_type_id":"4","last_reported":1687490584,"current_range_meters":28800,"station_id":"ce4bhbh2rcd13ifvqeqg","pricing_plan_id":"free"},{"bike_id":"97d38a77-0477-432d-9182-884574d45011","system_id":"levelo_inurba_marseille","lat":43.298764,"lon":5.388973,"is_reserved":false,"is_disabled":false,"rental_uris":{"android":"levelo://app?vid=97d38a77-0477-432d-9182-884574d45011","ios":"levelo://app?vid=97d38a77-0477-432d-9182-884574d45011"},"vehicle_type_id":"4","last_reported":1687490584,"current_range_meters":0,"station_id":"ce4bh392rcd13ifvqdl0","pricing_plan_id":"free"},{"bike_id":"224f023c-93a6-4aa2-a12a-27bd62d74cbc","system_id":"levelo_inurba_marseille","lat":43.29883,"lon":5.38912,"is_reserved":false,"is_disabled":false,"rental_uris":{"android":"levelo://app?vid=224f023c-93a6-4aa2-a12a-27bd62d74cbc","ios":"levelo://app?vid=224f023c-93a6-4aa2-a12a-27bd62d74cbc"},"vehicle_type_id":"4","last_reported":1687490584,"current_range_meters":0,"station_id":"ce4bh392rcd13ifvqdl0","pricing_plan_id":"free"},{"bike_id":"cbdbf9ef-2595-4607-8372-4dbf7b49bf9a","system_id":"levelo_inurba_marseille","lat":43.29879,"lon":5.38911,"is_reserved":false,"is_disabled":false,"rental_uris":{"android":"levelo://app?vid=cbdbf9ef-2595-4607-8372-4dbf7b49bf9a","ios":"levelo://app?vid=cbdbf9ef-2595-4607-8372-4dbf7b49bf9a"},"vehicle_type_id":"4","last_reported":1687490584,"current_range_meters":0,"station_id":"ce4bh392rcd13ifvqdl0","pricing_plan_id":"free"},{"bike_id":"efdd9ee3-98a6-4730-858b-c69650cf54b6","system_id":"levelo_inurba_marseille","lat":43.298764,"lon":5.388973,"is_reserved":false,"is_disabled":false,"rental_uris":{"android":"levelo://app?vid=efdd9ee3-98a6-4730-858b-c69650cf54b6","ios":"levelo://app?vid=efdd9ee3-98a6-4730-858b-c69650cf54b6"},"vehicle_type_id":"4","last_reported":1687490584,"current_range_meters":3600,"station_id":"ce4bh392rcd13ifvqdl0","pricing_plan_id":"free"},{"bike_id":"5f4d6d09-ff78-4c12-bee9-b60bcab38ff2","system_id":"levelo_inurba_marseille","lat":43.298764,"lon":5.388973,"is_reserved":false,"is_disabled":false,"rental_uris":{"android":"levelo://app?vid=5f4d6d09-ff78-4c12-bee9-b60bcab38ff2","ios":"levelo://app?vid=5f4d6d09-ff78-4c12-bee9-b60bcab38ff2"},"vehicle_type_id":"4","last_reported":1687490584,"current_range_meters":11600,"station_id":"ce4bh392rcd13ifvqdl0","pricing_plan_id":"free"},{"bike_id":"cde57789-a867-4d7c-924c-edfeb6fddb5a","system_id":"levelo_inurba_marseille","lat":43.291675,"lon":5.371583,"is_reserved":false,"is_disabled":false,"rental_uris":{"android":"levelo://app?vid=cde57789-a867-4d7c-924c-edfeb6fddb5a","ios":"levelo://app?vid=cde57789-a867-4d7c-924c-edfeb6fddb5a"},"vehicle_type_id":"4","last_reported":1687490584,"current_range_meters":4000,"station_id":"ce4bha92rcd13ifvqeh0","pricing_plan_id":"free"},{"bike_id":"e0ba6429-9f12-41cc-9e71-6cf6f57a38ac","system_id":"levelo_inurba_marseille","lat":43.30891,"lon":5.39632,"is_reserved":false,"is_disabled":false,"rental_uris":{"android":"levelo://app?vid=e0ba6429-9f12-41cc-9e71-6cf6f57a38ac","ios":"levelo://app?vid=e0ba6429-9f12-41cc-9e71-6cf6f57a38ac"},"vehicle_type_id":"4","last_reported":1687490584,"current_range_meters":31200,"station_id":"ce4bh012rcd13ifvqcv0","pricing_plan_id":"free"},{"bike_id":"de4bd374-f226-46b0-8c8a-67c5a33cb7bf","system_id":"levelo_inurba_marseille","lat":43.309038,"lon":5.396546,"is_reserved":false,"is_disabled":false,"rental_uris":{"android":"levelo://app?vid=de4bd374-f226-46b0-8c8a-67c5a33cb7bf","ios":"levelo://app?vid=de4bd374-f226-46b0-8c8a-67c5a33cb7bf"},"vehicle_type_id":"4","last_reported":1687490584,"current_range_meters":30000,"station_id":"ce4bh012rcd13ifvqcv0","pricing_plan_id":"free"},{"bike_id":"54fda2f9-7b1a-4838-9b70-087d4101d0ae","system_id":"levelo_inurba_marseille","lat":43.33257,"lon":5.37938,"is_reserved":false,"is_disabled":false,"rental_uris":{"android":"levelo://app?vid=54fda2f9-7b1a-4838-9b70-087d4101d0ae","ios":"levelo://app?vid=54fda2f9-7b1a-4838-9b70-087d4101d0ae"},"vehicle_type_id":"4","last_reported":1687490584,"current_range_meters":4800,"station_id":"","pricing_plan_id":"free"},{"bike_id":"559db029-0fb2-4567-ada8-55820940cc07","system_id":"levelo_inurba_marseille","lat":43.313291,"lon":5.396838,"is_reserved":false,"is_disabled":false,"rental_uris":{"android":"levelo://app?vid=559db029-0fb2-4567-ada8-55820940cc07","ios":"levelo://app?vid=559db029-0fb2-4567-ada8-55820940cc07"},"vehicle_type_id":"4","last_reported":1687490584,"current_range_meters":18800,"station_id":"ce4bgvp2rcd13ifvqcu0","pricing_plan_id":"free"},{"bike_id":"fc007bee-75e7-4563-897d-7b84c2c1a061","system_id":"levelo_inurba_marseille","lat":43.309038,"lon":5.396546,"is_reserved":false,"is_disabled":false,"rental_uris":{"android":"levelo://app?vid=fc007bee-75e7-4563-897d-7b84c2c1a061","ios":"levelo://app?vid=fc007bee-75e7-4563-897d-7b84c2c1a061"},"vehicle_type_id":"4","last_reported":1687490584,"current_range_meters":17600,"station_id":"ce4bh012rcd13ifvqcv0","pricing_plan_id":"free"},{"bike_id":"7f264bf8-fe33-48c3-adcc-a5a159801ef7","system_id":"levelo_inurba_marseille","lat":43.309038,"lon":5.396546,"is_reserved":false,"is_disabled":false,"rental_uris":{"android":"levelo://app?vid=7f264bf8-fe33-48c3-adcc-a5a159801ef7","ios":"levelo://app?vid=7f264bf8-fe33-48c3-adcc-a5a159801ef7"},"vehicle_type_id":"4","last_reported":1687490584,"current_range_meters":20800,"station_id":"ce4bh012rcd13ifvqcv0","pricing_plan_id":"free"},{"bike_id":"fed04270-d0d5-4055-818d-08b18666f7c4","system_id":"levelo_inurba_marseille","lat":43.309038,"lon":5.396546,"is_reserved":false,"is_disabled":false,"rental_uris":{"android":"levelo://app?vid=fed04270-d0d5-4055-818d-08b18666f7c4","ios":"levelo://app?vid=fed04270-d0d5-4055-818d-08b18666f7c4"},"vehicle_type_id":"4","last_reported":1687490584,"current_range_meters":24800,"station_id":"ce4bh012rcd13ifvqcv0","pricing_plan_id":"free"},{"bike_id":"1b0115bd-f8d5-4a8c-b949-1c4fbf08d487","system_id":"levelo_inurba_marseille","lat":43.313291,"lon":5.396838,"is_reserved":false,"is_disabled":false,"rental_uris":{"android":"levelo://app?vid=1b0115bd-f8d5-4a8c-b949-1c4fbf08d487","ios":"levelo://app?vid=1b0115bd-f8d5-4a8c-b949-1c4fbf08d487"},"vehicle_type_id":"4","last_reported":1687490584,"current_range_meters":18800,"station_id":"ce4bgvp2rcd13ifvqcu0","pricing_plan_id":"free"},{"bike_id":"864e9523-74e2-41e9-92f8-3363dd706035","system_id":"levelo_inurba_marseille","lat":43.309038,"lon":5.396546,"is_reserved":false,"is_disabled":false,"rental_uris":{"android":"levelo://app?vid=864e9523-74e2-41e9-92f8-3363dd706035","ios":"levelo://app?vid=864e9523-74e2-41e9-92f8-3363dd706035"},"vehicle_type_id":"4","last_reported":1687490584,"current_range_meters":31200,"station_id":"ce4bh012rcd13ifvqcv0","pricing_plan_id":"free"},{"bike_id":"80ba6f7b-2b06-4ece-a55a-059497cf5eb9","system_id":"levelo_inurba_marseille","lat":43.313291,"lon":5.396838,"is_reserved":false,"is_disabled":false,"rental_uris":{"android":"levelo://app?vid=80ba6f7b-2b06-4ece-a55a-059497cf5eb9","ios":"levelo://app?vid=80ba6f7b-2b06-4ece-a55a-059497cf5eb9"},"vehicle_type_id":"4","last_reported":1687490584,"current_range_meters":22800,"station_id":"ce4bgvp2rcd13ifvqcu0","pricing_plan_id":"free"},{"bike_id":"f29a7205-f2cc-4d14-9e6e-ba20e6495f15","system_id":"levelo_inurba_marseille","lat":43.313291,"lon":5.396838,"is_reserved":false,"is_disabled":false,"rental_uris":{"android":"levelo://app?vid=f29a7205-f2cc-4d14-9e6e-ba20e6495f15","ios":"levelo://app?vid=f29a7205-f2cc-4d14-9e6e-ba20e6495f15"},"vehicle_type_id":"4","last_reported":1687490584,"current_range_meters":31200,"station_id":"ce4bgvp2rcd13ifvqcu0","pricing_plan_id":"free"},{"bike_id":"1d082cc5-b66e-4a94-ba63-c95ea667242a","system_id":"levelo_inurba_marseille","lat":43.313291,"lon":5.396838,"is_reserved":false,"is_disabled":false,"rental_uris":{"android":"levelo://app?vid=1d082cc5-b66e-4a94-ba63-c95ea667242a","ios":"levelo://app?vid=1d082cc5-b66e-4a94-ba63-c95ea667242a"},"vehicle_type_id":"4","last_reported":1687490584,"current_range_meters":8800,"station_id":"ce4bgvp2rcd13ifvqcu0","pricing_plan_id":"free"},{"bike_id":"05e55cf0-5d25-467d-bc4f-680753b93701","system_id":"levelo_inurba_marseille","lat":43.313291,"lon":5.396838,"is_reserved":false,"is_disabled":false,"rental_uris":{"android":"levelo://app?vid=05e55cf0-5d25-467d-bc4f-680753b93701","ios":"levelo://app?vid=05e55cf0-5d25-467d-bc4f-680753b93701"},"vehicle_type_id":"4","last_reported":1687490584,"current_range_meters":20800,"station_id":"ce4bgvp2rcd13ifvqcu0","pricing_plan_id":"free"},{"bike_id":"f7e7d9c5-0d99-447b-908a-0641743deac5","system_id":"levelo_inurba_marseille","lat":43.309038,"lon":5.396546,"is_reserved":false,"is_disabled":false,"rental_uris":{"android":"levelo://app?vid=f7e7d9c5-0d99-447b-908a-0641743deac5","ios":"levelo://app?vid=f7e7d9c5-0d99-447b-908a-0641743deac5"},"vehicle_type_id":"4","last_reported":1687490584,"current_range_meters":26000,"station_id":"ce4bh012rcd13ifvqcv0","pricing_plan_id":"free"},{"bike_id":"f7f0a8e2-7c6c-4b58-a947-497a11aea52e","system_id":"levelo_inurba_marseille","lat":43.302008,"lon":5.394694,"is_reserved":false,"is_disabled":false,"rental_uris":{"android":"levelo://app?vid=f7f0a8e2-7c6c-4b58-a947-497a11aea52e","ios":"levelo://app?vid=f7f0a8e2-7c6c-4b58-a947-497a11aea52e"},"vehicle_type_id":"4","last_reported":1687490584,"current_range_meters":30400,"station_id":"ce4bh0p2rcd13ifvqd70","pricing_plan_id":"free"},{"bike_id":"f6b1ee60-11f2-4cf9-a89e-f6fa9e3bcf6a","system_id":"levelo_inurba_marseille","lat":43.302008,"lon":5.394694,"is_reserved":false,"is_disabled":false,"rental_uris":{"android":"levelo://app?vid=f6b1ee60-11f2-4cf9-a89e-f6fa9e3bcf6a","ios":"levelo://app?vid=f6b1ee60-11f2-4cf9-a89e-f6fa9e3bcf6a"},"vehicle_type_id":"4","last_reported":1687490584,"current_range_meters":30400,"station_id":"ce4bh0p2rcd13ifvqd70","pricing_plan_id":"free"},{"bike_id":"7517e9c5-0f18-4a61-b792-a04f92ce79f2","system_id":"levelo_inurba_marseille","lat":43.290624,"lon":5.359245,"is_reserved":false,"is_disabled":false,"rental_uris":{"android":"levelo://app?vid=7517e9c5-0f18-4a61-b792-a04f92ce79f2","ios":"levelo://app?vid=7517e9c5-0f18-4a61-b792-a04f92ce79f2"},"vehicle_type_id":"4","last_reported":1687490584,"current_range_meters":30400,"station_id":"ce4bha92rcd13ifvqeg0","pricing_plan_id":"free"},{"bike_id":"20b2702a-2cf1-439f-b7da-41f192fa1a0a","system_id":"levelo_inurba_marseille","lat":43.29411,"lon":5.38614,"is_reserved":false,"is_disabled":false,"rental_uris":{"android":"levelo://app?vid=20b2702a-2cf1-439f-b7da-41f192fa1a0a","ios":"levelo://app?vid=20b2702a-2cf1-439f-b7da-41f192fa1a0a"},"vehicle_type_id":"4","last_reported":1687490584,"current_range_meters":24400,"station_id":"","pricing_plan_id":"free"},{"bike_id":"3d86ffc7-5a82-42bf-a86a-fc24211f786f","system_id":"levelo_inurba_marseille","lat":43.289184,"lon":5.366408,"is_reserved":false,"is_disabled":false,"rental_uris":{"android":"levelo://app?vid=3d86ffc7-5a82-42bf-a86a-fc24211f786f","ios":"levelo://app?vid=3d86ffc7-5a82-42bf-a86a-fc24211f786f"},"vehicle_type_id":"4","last_reported":1687490584,"current_range_meters":30000,"station_id":"ce4bhap2rcd13ifvqek0","pricing_plan_id":"free"},{"bike_id":"da7d1859-f71c-4d2e-8be3-90e7d65749fd","system_id":"levelo_inurba_marseille","lat":43.28935,"lon":5.36403,"is_reserved":false,"is_disabled":false,"rental_uris":{"android":"levelo://app?vid=da7d1859-f71c-4d2e-8be3-90e7d65749fd","ios":"levelo://app?vid=da7d1859-f71c-4d2e-8be3-90e7d65749fd"},"vehicle_type_id":"4","last_reported":1687490584,"current_range_meters":16000,"station_id":"","pricing_plan_id":"free"},{"bike_id":"0df8f1c3-103e-40f5-9a37-041c08fd58d1","system_id":"levelo_inurba_marseille","lat":43.289468,"lon":5.363719,"is_reserved":false,"is_disabled":false,"rental_uris":{"android":"levelo://app?vid=0df8f1c3-103e-40f5-9a37-041c08fd58d1","ios":"levelo://app?vid=0df8f1c3-103e-40f5-9a37-041c08fd58d1"},"vehicle_type_id":"4","last_reported":1687490584,"current_range_meters":30000,"station_id":"ce4bhc92rcd13ifvqetg","pricing_plan_id":"free"},{"bike_id":"ae92e679-7466-456a-be2f-0aa22027c3cf","system_id":"levelo_inurba_marseille","lat":43.289468,"lon":5.363719,"is_reserved":false,"is_disabled":false,"rental_uris":{"android":"levelo://app?vid=ae92e679-7466-456a-be2f-0aa22027c3cf","ios":"levelo://app?vid=ae92e679-7466-456a-be2f-0aa22027c3cf"},"vehicle_type_id":"4","last_reported":1687490584,"current_range_meters":28400,"station_id":"ce4bhc92rcd13ifvqetg","pricing_plan_id":"free"},{"bike_id":"608dcba3-9eea-4c7a-b24c-de3b3d8de781","system_id":"levelo_inurba_marseille","lat":43.292644,"lon":5.384257,"is_reserved":false,"is_disabled":false,"rental_uris":{"android":"levelo://app?vid=608dcba3-9eea-4c7a-b24c-de3b3d8de781","ios":"levelo://app?vid=608dcba3-9eea-4c7a-b24c-de3b3d8de781"},"vehicle_type_id":"4","last_reported":1687490584,"current_range_meters":5600,"station_id":"ce4bh692rcd13ifvqea0","pricing_plan_id":"free"},{"bike_id":"85014f3c-72ed-4330-97d1-c24450407470","system_id":"levelo_inurba_marseille","lat":43.304296,"lon":5.397513,"is_reserved":false,"is_disabled":false,"rental_uris":{"android":"levelo://app?vid=85014f3c-72ed-4330-97d1-c24450407470","ios":"levelo://app?vid=85014f3c-72ed-4330-97d1-c24450407470"},"vehicle_type_id":"4","last_reported":1687490584,"current_range_meters":27200,"station_id":"ce4bh092rcd13ifvqd20","pricing_plan_id":"free"},{"bike_id":"dcbeae36-e893-4c53-834e-933ca5889d3f","system_id":"levelo_inurba_marseille","lat":43.33042,"lon":5.38917,"is_reserved":false,"is_disabled":false,"rental_uris":{"android":"levelo://app?vid=dcbeae36-e893-4c53-834e-933ca5889d3f","ios":"levelo://app?vid=dcbeae36-e893-4c53-834e-933ca5889d3f"},"vehicle_type_id":"4","last_reported":1687490584,"current_range_meters":31200,"station_id":"ce4bhr92rcd13ifvqhrg","pricing_plan_id":"free"},{"bike_id":"e4f4d0dc-ede6-4dbb-9ce1-15ec8d5215f4","system_id":"levelo_inurba_marseille","lat":43.330451,"lon":5.389164,"is_reserved":false,"is_disabled":false,"rental_uris":{"android":"levelo://app?vid=e4f4d0dc-ede6-4dbb-9ce1-15ec8d5215f4","ios":"levelo://app?vid=e4f4d0dc-ede6-4dbb-9ce1-15ec8d5215f4"},"vehicle_type_id":"4","last_reported":1687490584,"current_range_meters":16000,"station_id":"ce4bhr92rcd13ifvqhrg","pricing_plan_id":"free"},{"bike_id":"593e86a8-fc99-4449-9edd-dcb6e6d72cc5","system_id":"levelo_inurba_marseille","lat":43.330439,"lon":5.389199,"is_reserved":false,"is_disabled":false,"rental_uris":{"android":"levelo://app?vid=593e86a8-fc99-4449-9edd-dcb6e6d72cc5","ios":"levelo://app?vid=593e86a8-fc99-4449-9edd-dcb6e6d72cc5"},"vehicle_type_id":"4","last_reported":1687490584,"current_range_meters":24000,"station_id":"ce4bhr92rcd13ifvqhrg","pricing_plan_id":"free"},{"bike_id":"de4a6415-7cce-4656-89ac-d7d4eaa645b3","system_id":"levelo_inurba_marseille","lat":43.330452,"lon":5.389181,"is_reserved":false,"is_disabled":false,"rental_uris":{"android":"levelo://app?vid=de4a6415-7cce-4656-89ac-d7d4eaa645b3","ios":"levelo://app?vid=de4a6415-7cce-4656-89ac-d7d4eaa645b3"},"vehicle_type_id":"4","last_reported":1687490584,"current_range_meters":17200,"station_id":"ce4bhr92rcd13ifvqhrg","pricing_plan_id":"free"},{"bike_id":"b8d8195b-96f3-4a90-ac56-fcb41dc7c3cb","system_id":"levelo_inurba_marseille","lat":43.330432,"lon":5.389219,"is_reserved":false,"is_disabled":false,"rental_uris":{"android":"levelo://app?vid=b8d8195b-96f3-4a90-ac56-fcb41dc7c3cb","ios":"levelo://app?vid=b8d8195b-96f3-4a90-ac56-fcb41dc7c3cb"},"vehicle_type_id":"4","last_reported":1687490584,"current_range_meters":5200,"station_id":"ce4bhr92rcd13ifvqhrg","pricing_plan_id":"free"},{"bike_id":"28c7dbbb-539c-4e0f-ae61-04dda52f6d09","system_id":"levelo_inurba_marseille","lat":43.33041,"lon":5.38926,"is_reserved":false,"is_disabled":false,"rental_uris":{"android":"levelo://app?vid=28c7dbbb-539c-4e0f-ae61-04dda52f6d09","ios":"levelo://app?vid=28c7dbbb-539c-4e0f-ae61-04dda52f6d09"},"vehicle_type_id":"4","last_reported":1687490584,"current_range_meters":23200,"station_id":"ce4bhr92rcd13ifvqhrg","pricing_plan_id":"free"},{"bike_id":"c73d2cc7-61ec-4fd2-a002-ffa050603a67","system_id":"levelo_inurba_marseille","lat":43.330431,"lon":5.389235,"is_reserved":false,"is_disabled":false,"rental_uris":{"android":"levelo://app?vid=c73d2cc7-61ec-4fd2-a002-ffa050603a67","ios":"levelo://app?vid=c73d2cc7-61ec-4fd2-a002-ffa050603a67"},"vehicle_type_id":"4","last_reported":1687490584,"current_range_meters":30800,"station_id":"ce4bhr92rcd13ifvqhrg","pricing_plan_id":"free"},{"bike_id":"2616f8e6-c8f6-4bc8-9b80-33cb4446d9d5","system_id":"levelo_inurba_marseille","lat":43.33047,"lon":5.3892,"is_reserved":false,"is_disabled":false,"rental_uris":{"android":"levelo://app?vid=2616f8e6-c8f6-4bc8-9b80-33cb4446d9d5","ios":"levelo://app?vid=2616f8e6-c8f6-4bc8-9b80-33cb4446d9d5"},"vehicle_type_id":"4","last_reported":1687490584,"current_range_meters":30800,"station_id":"ce4bhr92rcd13ifvqhrg","pricing_plan_id":"free"},{"bike_id":"5966a886-1680-4b40-9508-56a27bc024f0","system_id":"levelo_inurba_marseille","lat":43.290995,"lon":5.381361,"is_reserved":false,"is_disabled":false,"rental_uris":{"android":"levelo://app?vid=5966a886-1680-4b40-9508-56a27bc024f0","ios":"levelo://app?vid=5966a886-1680-4b40-9508-56a27bc024f0"},"vehicle_type_id":"4","last_reported":1687490584,"current_range_meters":30400,"station_id":"ce4bh512rcd13ifvqe2g","pricing_plan_id":"free"},{"bike_id":"8f7c164b-bb50-446d-99d6-c94c448e1490","system_id":"levelo_inurba_marseille","lat":43.29791,"lon":5.3935,"is_reserved":false,"is_disabled":false,"rental_uris":{"android":"levelo://app?vid=8f7c164b-bb50-446d-99d6-c94c448e1490","ios":"levelo://app?vid=8f7c164b-bb50-446d-99d6-c94c448e1490"},"vehicle_type_id":"4","last_reported":1687490584,"current_range_meters":26800,"station_id":"chh1huq6cuj3fo74tm60","pricing_plan_id":"free"},{"bike_id":"5741cb6c-db81-48fa-be32-57f6ad7915cc","system_id":"levelo_inurba_marseille","lat":43.28985,"lon":5.37853,"is_reserved":false,"is_disabled":false,"rental_uris":{"android":"levelo://app?vid=5741cb6c-db81-48fa-be32-57f6ad7915cc","ios":"levelo://app?vid=5741cb6c-db81-48fa-be32-57f6ad7915cc"},"vehicle_type_id":"4","last_reported":1687490584,"current_range_meters":0,"station_id":"ce4bh9p2rcd13ifvqed0","pricing_plan_id":"free"},{"bike_id":"a33cdef7-bf5b-4e14-98a2-2ff80f167752","system_id":"levelo_inurba_marseille","lat":43.295169,"lon":5.390426,"is_reserved":false,"is_disabled":false,"rental_uris":{"android":"levelo://app?vid=a33cdef7-bf5b-4e14-98a2-2ff80f167752","ios":"levelo://app?vid=a33cdef7-bf5b-4e14-98a2-2ff80f167752"},"vehicle_type_id":"4","last_reported":1687490584,"current_range_meters":18000,"station_id":"ce4bh3p2rcd13ifvqdp0","pricing_plan_id":"free"},{"bike_id":"68fc071d-2907-4219-8ed7-fd3fb1349a1f","system_id":"levelo_inurba_marseille","lat":43.297815,"lon":5.393548,"is_reserved":false,"is_disabled":false,"rental_uris":{"android":"levelo://app?vid=68fc071d-2907-4219-8ed7-fd3fb1349a1f","ios":"levelo://app?vid=68fc071d-2907-4219-8ed7-fd3fb1349a1f"},"vehicle_type_id":"4","last_reported":1687490584,"current_range_meters":24800,"station_id":"chh1huq6cuj3fo74tm60","pricing_plan_id":"free"},{"bike_id":"01e7fc35-edf7-4916-8e57-3b3cd9add74b","system_id":"levelo_inurba_marseille","lat":43.295169,"lon":5.390426,"is_reserved":false,"is_disabled":false,"rental_uris":{"android":"levelo://app?vid=01e7fc35-edf7-4916-8e57-3b3cd9add74b","ios":"levelo://app?vid=01e7fc35-edf7-4916-8e57-3b3cd9add74b"},"vehicle_type_id":"4","last_reported":1687490584,"current_range_meters":30400,"station_id":"ce4bh3p2rcd13ifvqdp0","pricing_plan_id":"free"},{"bike_id":"7be2dcc4-b0e8-4052-803f-11d9d4534e80","system_id":"levelo_inurba_marseille","lat":43.2887,"lon":5.35843,"is_reserved":false,"is_disabled":false,"rental_uris":{"android":"levelo://app?vid=7be2dcc4-b0e8-4052-803f-11d9d4534e80","ios":"levelo://app?vid=7be2dcc4-b0e8-4052-803f-11d9d4534e80"},"vehicle_type_id":"4","last_reported":1687490584,"current_range_meters":8800,"station_id":"ce4bhb12rcd13ifvqem0","pricing_plan_id":"free"},{"bike_id":"1b953c1a-0b9a-4142-898f-5c84dfc10477","system_id":"levelo_inurba_marseille","lat":43.28856,"lon":5.358371,"is_reserved":false,"is_disabled":false,"rental_uris":{"android":"levelo://app?vid=1b953c1a-0b9a-4142-898f-5c84dfc10477","ios":"levelo://app?vid=1b953c1a-0b9a-4142-898f-5c84dfc10477"},"vehicle_type_id":"4","last_reported":1687490584,"current_range_meters":400,"station_id":"ce4bhb12rcd13ifvqem0","pricing_plan_id":"free"},{"bike_id":"3b31e7b9-0902-40f1-87cb-e6378d6be46c","system_id":"levelo_inurba_marseille","lat":43.28864,"lon":5.35844,"is_reserved":false,"is_disabled":false,"rental_uris":{"android":"levelo://app?vid=3b31e7b9-0902-40f1-87cb-e6378d6be46c","ios":"levelo://app?vid=3b31e7b9-0902-40f1-87cb-e6378d6be46c"},"vehicle_type_id":"4","last_reported":1687490584,"current_range_meters":31200,"station_id":"ce4bhb12rcd13ifvqem0","pricing_plan_id":"free"},{"bike_id":"5b390d09-b2a8-4c87-9a95-8331329e9fbf","system_id":"levelo_inurba_marseille","lat":43.28862,"lon":5.35845,"is_reserved":false,"is_disabled":false,"rental_uris":{"android":"levelo://app?vid=5b390d09-b2a8-4c87-9a95-8331329e9fbf","ios":"levelo://app?vid=5b390d09-b2a8-4c87-9a95-8331329e9fbf"},"vehicle_type_id":"4","last_reported":1687490584,"current_range_meters":31200,"station_id":"ce4bhb12rcd13ifvqem0","pricing_plan_id":"free"},{"bike_id":"3469adbd-4f93-4b31-9b3f-5633c2ef2034","system_id":"levelo_inurba_marseille","lat":43.28856,"lon":5.358371,"is_reserved":false,"is_disabled":false,"rental_uris":{"android":"levelo://app?vid=3469adbd-4f93-4b31-9b3f-5633c2ef2034","ios":"levelo://app?vid=3469adbd-4f93-4b31-9b3f-5633c2ef2034"},"vehicle_type_id":"4","last_reported":1687490584,"current_range_meters":19600,"station_id":"ce4bhb12rcd13ifvqem0","pricing_plan_id":"free"},{"bike_id":"c57d22af-5a96-4ed4-8f7b-aa5c73ccd857","system_id":"levelo_inurba_marseille","lat":43.28856,"lon":5.358371,"is_reserved":false,"is_disabled":false,"rental_uris":{"android":"levelo://app?vid=c57d22af-5a96-4ed4-8f7b-aa5c73ccd857","ios":"levelo://app?vid=c57d22af-5a96-4ed4-8f7b-aa5c73ccd857"},"vehicle_type_id":"4","last_reported":1687490584,"current_range_meters":6000,"station_id":"ce4bhb12rcd13ifvqem0","pricing_plan_id":"free"},{"bike_id":"0847460f-34e1-4a80-a18a-cad3dde97f6b","system_id":"levelo_inurba_marseille","lat":43.28854,"lon":5.3584,"is_reserved":false,"is_disabled":false,"rental_uris":{"android":"levelo://app?vid=0847460f-34e1-4a80-a18a-cad3dde97f6b","ios":"levelo://app?vid=0847460f-34e1-4a80-a18a-cad3dde97f6b"},"vehicle_type_id":"4","last_reported":1687490584,"current_range_meters":31200,"station_id":"ce4bhb12rcd13ifvqem0","pricing_plan_id":"free"},{"bike_id":"777cf6da-1b09-47dd-bbc3-8d54dc0a98c8","system_id":"levelo_inurba_marseille","lat":43.28856,"lon":5.358371,"is_reserved":false,"is_disabled":false,"rental_uris":{"android":"levelo://app?vid=777cf6da-1b09-47dd-bbc3-8d54dc0a98c8","ios":"levelo://app?vid=777cf6da-1b09-47dd-bbc3-8d54dc0a98c8"},"vehicle_type_id":"4","last_reported":1687490584,"current_range_meters":26800,"station_id":"ce4bhb12rcd13ifvqem0","pricing_plan_id":"free"},{"bike_id":"3f8a925a-6a54-4259-a38f-9cf091aab246","system_id":"levelo_inurba_marseille","lat":43.29265,"lon":5.3877,"is_reserved":false,"is_disabled":false,"rental_uris":{"android":"levelo://app?vid=3f8a925a-6a54-4259-a38f-9cf091aab246","ios":"levelo://app?vid=3f8a925a-6a54-4259-a38f-9cf091aab246"},"vehicle_type_id":"4","last_reported":1687490584,"current_range_meters":27200,"station_id":"","pricing_plan_id":"free"},{"bike_id":"a462fe71-f0d8-4849-a95c-a322d9f8aa2b","system_id":"levelo_inurba_marseille","lat":43.309371,"lon":5.401449,"is_reserved":false,"is_disabled":false,"rental_uris":{"android":"levelo://app?vid=a462fe71-f0d8-4849-a95c-a322d9f8aa2b","ios":"levelo://app?vid=a462fe71-f0d8-4849-a95c-a322d9f8aa2b"},"vehicle_type_id":"4","last_reported":1687490584,"current_range_meters":29600,"station_id":"ce4bgvp2rcd13ifvqct0","pricing_plan_id":"free"},{"bike_id":"a339dc85-f4be-42f7-94da-838d3c3c1703","system_id":"levelo_inurba_marseille","lat":43.309371,"lon":5.401449,"is_reserved":false,"is_disabled":false,"rental_uris":{"android":"levelo://app?vid=a339dc85-f4be-42f7-94da-838d3c3c1703","ios":"levelo://app?vid=a339dc85-f4be-42f7-94da-838d3c3c1703"},"vehicle_type_id":"4","last_reported":1687490584,"current_range_meters":27200,"station_id":"ce4bgvp2rcd13ifvqct0","pricing_plan_id":"free"},{"bike_id":"7afa4ded-642d-4610-ad68-f1ed24d9f183","system_id":"levelo_inurba_marseille","lat":43.309371,"lon":5.401449,"is_reserved":false,"is_disabled":false,"rental_uris":{"android":"levelo://app?vid=7afa4ded-642d-4610-ad68-f1ed24d9f183","ios":"levelo://app?vid=7afa4ded-642d-4610-ad68-f1ed24d9f183"},"vehicle_type_id":"4","last_reported":1687490584,"current_range_meters":19200,"station_id":"ce4bgvp2rcd13ifvqct0","pricing_plan_id":"free"},{"bike_id":"c5ead361-3c89-43e3-9508-2ca596aafcb8","system_id":"levelo_inurba_marseille","lat":43.30649,"lon":5.40066,"is_reserved":false,"is_disabled":false,"rental_uris":{"android":"levelo://app?vid=c5ead361-3c89-43e3-9508-2ca596aafcb8","ios":"levelo://app?vid=c5ead361-3c89-43e3-9508-2ca596aafcb8"},"vehicle_type_id":"4","last_reported":1687490584,"current_range_meters":28400,"station_id":"ce4bh112rcd13ifvqda0","pricing_plan_id":"free"},{"bike_id":"e782fda8-f65d-4066-94ce-ec82665df08e","system_id":"levelo_inurba_marseille","lat":43.309371,"lon":5.401449,"is_reserved":false,"is_disabled":false,"rental_uris":{"android":"levelo://app?vid=e782fda8-f65d-4066-94ce-ec82665df08e","ios":"levelo://app?vid=e782fda8-f65d-4066-94ce-ec82665df08e"},"vehicle_type_id":"4","last_reported":1687490584,"current_range_meters":31200,"station_id":"ce4bgvp2rcd13ifvqct0","pricing_plan_id":"free"},{"bike_id":"e61b61d7-3668-435b-90ae-a2cade7b84eb","system_id":"levelo_inurba_marseille","lat":43.309371,"lon":5.401449,"is_reserved":false,"is_disabled":false,"rental_uris":{"android":"levelo://app?vid=e61b61d7-3668-435b-90ae-a2cade7b84eb","ios":"levelo://app?vid=e61b61d7-3668-435b-90ae-a2cade7b84eb"},"vehicle_type_id":"4","last_reported":1687490584,"current_range_meters":8000,"station_id":"ce4bgvp2rcd13ifvqct0","pricing_plan_id":"free"},{"bike_id":"fc0738ad-f4d1-4d02-bf08-bfd0fcb3fe29","system_id":"levelo_inurba_marseille","lat":43.309371,"lon":5.401449,"is_reserved":false,"is_disabled":false,"rental_uris":{"android":"levelo://app?vid=fc0738ad-f4d1-4d02-bf08-bfd0fcb3fe29","ios":"levelo://app?vid=fc0738ad-f4d1-4d02-bf08-bfd0fcb3fe29"},"vehicle_type_id":"4","last_reported":1687490584,"current_range_meters":12400,"station_id":"ce4bgvp2rcd13ifvqct0","pricing_plan_id":"free"},{"bike_id":"cd5d7261-da6e-47fa-a309-6e93b348d679","system_id":"levelo_inurba_marseille","lat":43.309371,"lon":5.401449,"is_reserved":false,"is_disabled":false,"rental_uris":{"android":"levelo://app?vid=cd5d7261-da6e-47fa-a309-6e93b348d679","ios":"levelo://app?vid=cd5d7261-da6e-47fa-a309-6e93b348d679"},"vehicle_type_id":"4","last_reported":1687490584,"current_range_meters":24400,"station_id":"ce4bgvp2rcd13ifvqct0","pricing_plan_id":"free"},{"bike_id":"d74474a7-d1ea-4940-94c7-db1e07163ef0","system_id":"levelo_inurba_marseille","lat":43.337482,"lon":5.374726,"is_reserved":false,"is_disabled":false,"rental_uris":{"android":"levelo://app?vid=d74474a7-d1ea-4940-94c7-db1e07163ef0","ios":"levelo://app?vid=d74474a7-d1ea-4940-94c7-db1e07163ef0"},"vehicle_type_id":"4","last_reported":1687490584,"current_range_meters":10400,"station_id":"","pricing_plan_id":"free"},{"bike_id":"c0d04987-c474-4242-bc5e-f8ee1228f07f","system_id":"levelo_inurba_marseille","lat":43.309371,"lon":5.401449,"is_reserved":false,"is_disabled":false,"rental_uris":{"android":"levelo://app?vid=c0d04987-c474-4242-bc5e-f8ee1228f07f","ios":"levelo://app?vid=c0d04987-c474-4242-bc5e-f8ee1228f07f"},"vehicle_type_id":"4","last_reported":1687490584,"current_range_meters":31200,"station_id":"ce4bgvp2rcd13ifvqct0","pricing_plan_id":"free"},{"bike_id":"0f1dd5d4-0798-4f2d-bb93-f5da20e4483b","system_id":"levelo_inurba_marseille","lat":43.30642,"lon":5.401031,"is_reserved":false,"is_disabled":false,"rental_uris":{"android":"levelo://app?vid=0f1dd5d4-0798-4f2d-bb93-f5da20e4483b","ios":"levelo://app?vid=0f1dd5d4-0798-4f2d-bb93-f5da20e4483b"},"vehicle_type_id":"4","last_reported":1687490584,"current_range_meters":30000,"station_id":"ce4bh112rcd13ifvqda0","pricing_plan_id":"free"},{"bike_id":"71a50c1f-09f0-47f2-bd28-cfcd0711a6bd","system_id":"levelo_inurba_marseille","lat":43.33755,"lon":5.3745,"is_reserved":false,"is_disabled":false,"rental_uris":{"android":"levelo://app?vid=71a50c1f-09f0-47f2-bd28-cfcd0711a6bd","ios":"levelo://app?vid=71a50c1f-09f0-47f2-bd28-cfcd0711a6bd"},"vehicle_type_id":"4","last_reported":1687490584,"current_range_meters":28400,"station_id":"","pricing_plan_id":"free"},{"bike_id":"c180ae38-f769-441f-8a55-5a6e4930e6ad","system_id":"levelo_inurba_marseille","lat":43.33756,"lon":5.37444,"is_reserved":false,"is_disabled":false,"rental_uris":{"android":"levelo://app?vid=c180ae38-f769-441f-8a55-5a6e4930e6ad","ios":"levelo://app?vid=c180ae38-f769-441f-8a55-5a6e4930e6ad"},"vehicle_type_id":"4","last_reported":1687490584,"current_range_meters":28000,"station_id":"","pricing_plan_id":"free"},{"bike_id":"98bb595b-e2be-42d5-9b4c-0d18527ce9ed","system_id":"levelo_inurba_marseille","lat":43.30642,"lon":5.401031,"is_reserved":false,"is_disabled":false,"rental_uris":{"android":"levelo://app?vid=98bb595b-e2be-42d5-9b4c-0d18527ce9ed","ios":"levelo://app?vid=98bb595b-e2be-42d5-9b4c-0d18527ce9ed"},"vehicle_type_id":"4","last_reported":1687490584,"current_range_meters":24400,"station_id":"ce4bh112rcd13ifvqda0","pricing_plan_id":"free"},{"bike_id":"75beba07-c037-4bb5-9928-8bd8e3ccd825","system_id":"levelo_inurba_marseille","lat":43.30646,"lon":5.4008,"is_reserved":false,"is_disabled":false,"rental_uris":{"android":"levelo://app?vid=75beba07-c037-4bb5-9928-8bd8e3ccd825","ios":"levelo://app?vid=75beba07-c037-4bb5-9928-8bd8e3ccd825"},"vehicle_type_id":"4","last_reported":1687490584,"current_range_meters":18400,"station_id":"ce4bh112rcd13ifvqda0","pricing_plan_id":"free"},{"bike_id":"b0bd3bcb-bd35-4f75-8285-8f528f09b8d5","system_id":"levelo_inurba_marseille","lat":43.337575,"lon":5.374489,"is_reserved":false,"is_disabled":false,"rental_uris":{"android":"levelo://app?vid=b0bd3bcb-bd35-4f75-8285-8f528f09b8d5","ios":"levelo://app?vid=b0bd3bcb-bd35-4f75-8285-8f528f09b8d5"},"vehicle_type_id":"4","last_reported":1687490584,"current_range_meters":13600,"station_id":"","pricing_plan_id":"free"},{"bike_id":"273b9994-e164-4221-ab69-7a5534a15d8f","system_id":"levelo_inurba_marseille","lat":43.30636,"lon":5.40077,"is_reserved":false,"is_disabled":false,"rental_uris":{"android":"levelo://app?vid=273b9994-e164-4221-ab69-7a5534a15d8f","ios":"levelo://app?vid=273b9994-e164-4221-ab69-7a5534a15d8f"},"vehicle_type_id":"4","last_reported":1687490584,"current_range_meters":23200,"station_id":"ce4bh112rcd13ifvqda0","pricing_plan_id":"free"},{"bike_id":"23d867b1-db18-4b6c-b30f-abbc006f6c29","system_id":"levelo_inurba_marseille","lat":43.30645,"lon":5.40081,"is_reserved":false,"is_disabled":false,"rental_uris":{"android":"levelo://app?vid=23d867b1-db18-4b6c-b30f-abbc006f6c29","ios":"levelo://app?vid=23d867b1-db18-4b6c-b30f-abbc006f6c29"},"vehicle_type_id":"4","last_reported":1687490584,"current_range_meters":25600,"station_id":"ce4bh112rcd13ifvqda0","pricing_plan_id":"free"},{"bike_id":"e02cd65e-e1e7-48a9-a70f-9ef1b29dd797","system_id":"levelo_inurba_marseille","lat":43.30642,"lon":5.401031,"is_reserved":false,"is_disabled":false,"rental_uris":{"android":"levelo://app?vid=e02cd65e-e1e7-48a9-a70f-9ef1b29dd797","ios":"levelo://app?vid=e02cd65e-e1e7-48a9-a70f-9ef1b29dd797"},"vehicle_type_id":"4","last_reported":1687490584,"current_range_meters":31200,"station_id":"ce4bh112rcd13ifvqda0","pricing_plan_id":"free"},{"bike_id":"b6f3c2c9-ed59-4f47-9064-42e0f659e057","system_id":"levelo_inurba_marseille","lat":43.30658,"lon":5.40095,"is_reserved":false,"is_disabled":false,"rental_uris":{"android":"levelo://app?vid=b6f3c2c9-ed59-4f47-9064-42e0f659e057","ios":"levelo://app?vid=b6f3c2c9-ed59-4f47-9064-42e0f659e057"},"vehicle_type_id":"4","last_reported":1687490584,"current_range_meters":31200,"station_id":"ce4bh112rcd13ifvqda0","pricing_plan_id":"free"},{"bike_id":"20a23733-f9f7-4c56-9065-5296fb421e14","system_id":"levelo_inurba_marseille","lat":43.30636,"lon":5.40096,"is_reserved":false,"is_disabled":false,"rental_uris":{"android":"levelo://app?vid=20a23733-f9f7-4c56-9065-5296fb421e14","ios":"levelo://app?vid=20a23733-f9f7-4c56-9065-5296fb421e14"},"vehicle_type_id":"4","last_reported":1687490584,"current_range_meters":12800,"station_id":"ce4bh112rcd13ifvqda0","pricing_plan_id":"free"},{"bike_id":"2cb5841e-cfd4-4329-9d4d-e35d1c08e5e2","system_id":"levelo_inurba_marseille","lat":43.33772,"lon":5.37455,"is_reserved":false,"is_disabled":false,"rental_uris":{"android":"levelo://app?vid=2cb5841e-cfd4-4329-9d4d-e35d1c08e5e2","ios":"levelo://app?vid=2cb5841e-cfd4-4329-9d4d-e35d1c08e5e2"},"vehicle_type_id":"4","last_reported":1687490584,"current_range_meters":26000,"station_id":"","pricing_plan_id":"free"},{"bike_id":"8a870c11-ef3c-4a4d-aac6-d307f1955993","system_id":"levelo_inurba_marseille","lat":43.30349,"lon":5.39981,"is_reserved":false,"is_disabled":false,"rental_uris":{"android":"levelo://app?vid=8a870c11-ef3c-4a4d-aac6-d307f1955993","ios":"levelo://app?vid=8a870c11-ef3c-4a4d-aac6-d307f1955993"},"vehicle_type_id":"4","last_reported":1687490584,"current_range_meters":28400,"station_id":"","pricing_plan_id":"free"},{"bike_id":"7df3376a-a47c-4484-a7c0-cb9799469218","system_id":"levelo_inurba_marseille","lat":43.301117,"lon":5.398795,"is_reserved":false,"is_disabled":false,"rental_uris":{"android":"levelo://app?vid=7df3376a-a47c-4484-a7c0-cb9799469218","ios":"levelo://app?vid=7df3376a-a47c-4484-a7c0-cb9799469218"},"vehicle_type_id":"4","last_reported":1687490584,"current_range_meters":24800,"station_id":"ce4bh0h2rcd13ifvqd40","pricing_plan_id":"free"},{"bike_id":"b5c653c2-255c-4b7f-b19a-cce93eb9e4e8","system_id":"levelo_inurba_marseille","lat":43.301117,"lon":5.398795,"is_reserved":false,"is_disabled":false,"rental_uris":{"android":"levelo://app?vid=b5c653c2-255c-4b7f-b19a-cce93eb9e4e8","ios":"levelo://app?vid=b5c653c2-255c-4b7f-b19a-cce93eb9e4e8"},"vehicle_type_id":"4","last_reported":1687490584,"current_range_meters":15200,"station_id":"ce4bh0h2rcd13ifvqd40","pricing_plan_id":"free"},{"bike_id":"5f98b8f7-0acb-4d08-a540-7684dc4ad40a","system_id":"levelo_inurba_marseille","lat":43.301117,"lon":5.398795,"is_reserved":false,"is_disabled":false,"rental_uris":{"android":"levelo://app?vid=5f98b8f7-0acb-4d08-a540-7684dc4ad40a","ios":"levelo://app?vid=5f98b8f7-0acb-4d08-a540-7684dc4ad40a"},"vehicle_type_id":"4","last_reported":1687490584,"current_range_meters":8400,"station_id":"ce4bh0h2rcd13ifvqd40","pricing_plan_id":"free"},{"bike_id":"e178673e-cab5-47d8-ae54-41ca051511f4","system_id":"levelo_inurba_marseille","lat":43.301117,"lon":5.398795,"is_reserved":false,"is_disabled":false,"rental_uris":{"android":"levelo://app?vid=e178673e-cab5-47d8-ae54-41ca051511f4","ios":"levelo://app?vid=e178673e-cab5-47d8-ae54-41ca051511f4"},"vehicle_type_id":"4","last_reported":1687490584,"current_range_meters":24400,"station_id":"ce4bh0h2rcd13ifvqd40","pricing_plan_id":"free"},{"bike_id":"44cb7c78-af51-4dc0-8b59-946c9895f8d6","system_id":"levelo_inurba_marseille","lat":43.301117,"lon":5.398795,"is_reserved":false,"is_disabled":false,"rental_uris":{"android":"levelo://app?vid=44cb7c78-af51-4dc0-8b59-946c9895f8d6","ios":"levelo://app?vid=44cb7c78-af51-4dc0-8b59-946c9895f8d6"},"vehicle_type_id":"4","last_reported":1687490584,"current_range_meters":28400,"station_id":"ce4bh0h2rcd13ifvqd40","pricing_plan_id":"free"},{"bike_id":"a221af4e-d740-4e5a-b083-bf981d27d508","system_id":"levelo_inurba_marseille","lat":43.301117,"lon":5.398795,"is_reserved":false,"is_disabled":false,"rental_uris":{"android":"levelo://app?vid=a221af4e-d740-4e5a-b083-bf981d27d508","ios":"levelo://app?vid=a221af4e-d740-4e5a-b083-bf981d27d508"},"vehicle_type_id":"4","last_reported":1687490584,"current_range_meters":0,"station_id":"ce4bh0h2rcd13ifvqd40","pricing_plan_id":"free"},{"bike_id":"73bb4652-6e61-4b3e-bd83-ee6f01647d93","system_id":"levelo_inurba_marseille","lat":43.286591,"lon":5.363346,"is_reserved":false,"is_disabled":false,"rental_uris":{"android":"levelo://app?vid=73bb4652-6e61-4b3e-bd83-ee6f01647d93","ios":"levelo://app?vid=73bb4652-6e61-4b3e-bd83-ee6f01647d93"},"vehicle_type_id":"4","last_reported":1687490584,"current_range_meters":31200,"station_id":"ce4bhah2rcd13ifvqej0","pricing_plan_id":"free"},{"bike_id":"73d3073b-7852-4f56-8039-58778d66a581","system_id":"levelo_inurba_marseille","lat":43.286961,"lon":5.373785,"is_reserved":false,"is_disabled":false,"rental_uris":{"android":"levelo://app?vid=73d3073b-7852-4f56-8039-58778d66a581","ios":"levelo://app?vid=73d3073b-7852-4f56-8039-58778d66a581"},"vehicle_type_id":"4","last_reported":1687490584,"current_range_meters":28000,"station_id":"ce4bh3p2rcd13ifvqdq0","pricing_plan_id":"free"},{"bike_id":"6a4c8295-69a2-465c-9869-ce4f80de4577","system_id":"levelo_inurba_marseille","lat":43.298681,"lon":5.397225,"is_reserved":false,"is_disabled":false,"rental_uris":{"android":"levelo://app?vid=6a4c8295-69a2-465c-9869-ce4f80de4577","ios":"levelo://app?vid=6a4c8295-69a2-465c-9869-ce4f80de4577"},"vehicle_type_id":"4","last_reported":1687490584,"current_range_meters":26000,"station_id":"ce4bh0h2rcd13ifvqd50","pricing_plan_id":"free"},{"bike_id":"45e19ec6-db52-46d4-a717-89e32ecdef5d","system_id":"levelo_inurba_marseille","lat":43.286591,"lon":5.363346,"is_reserved":false,"is_disabled":false,"rental_uris":{"android":"levelo://app?vid=45e19ec6-db52-46d4-a717-89e32ecdef5d","ios":"levelo://app?vid=45e19ec6-db52-46d4-a717-89e32ecdef5d"},