{"last_updated":1783366866,"ttl":60,"version":"2.2","data":{"bikes":[{"bike_id":"ba0c28b1-8732-48e2-8079-f25b2b3fbc3c","system_id":"levelo_inurba_marseille","lat":43.337444,"lon":5.374475,"is_reserved":false,"is_disabled":false,"rental_uris":{"android":"levelo://app?vid=ba0c28b1-8732-48e2-8079-f25b2b3fbc3c","ios":"levelo://app?vid=ba0c28b1-8732-48e2-8079-f25b2b3fbc3c"},"vehicle_type_id":"4","last_reported":1783366867,"current_range_meters":0,"station_id":"","pricing_plan_id":"cebpf4jnsgd1na2vs0mg"},{"bike_id":"2c05df95-d5fe-415b-93d8-3c1c4ea0165b","system_id":"levelo_inurba_marseille","lat":43.29458,"lon":5.38573,"is_reserved":false,"is_disabled":false,"rental_uris":{"android":"levelo://app?vid=2c05df95-d5fe-415b-93d8-3c1c4ea0165b","ios":"levelo://app?vid=2c05df95-d5fe-415b-93d8-3c1c4ea0165b"},"vehicle_type_id":"4","last_reported":1783366867,"current_range_meters":2800,"station_id":"","pricing_plan_id":"cebpf4jnsgd1na2vs0mg"},{"bike_id":"6e28c7de-4432-46c6-8824-5a05812aca65","system_id":"levelo_inurba_marseille","lat":43.22534,"lon":5.3483,"is_reserved":false,"is_disabled":true,"rental_uris":{"android":"levelo://app?vid=6e28c7de-4432-46c6-8824-5a05812aca65","ios":"levelo://app?vid=6e28c7de-4432-46c6-8824-5a05812aca65"},"vehicle_type_id":"4","last_reported":1783366867,"current_range_meters":2800,"station_id":"st_cvj5dfep6f1abm77gieg","pricing_plan_id":"cebpf4jnsgd1na2vs0mg"},{"bike_id":"d0b44d12-307d-4e73-9876-5e41748eadcf","system_id":"levelo_inurba_marseille","lat":43.27182,"lon":5.40991,"is_reserved":false,"is_disabled":true,"rental_uris":{"android":"levelo://app?vid=d0b44d12-307d-4e73-9876-5e41748eadcf","ios":"levelo://app?vid=d0b44d12-307d-4e73-9876-5e41748eadcf"},"vehicle_type_id":"4","last_reported":1783366867,"current_range_meters":2800,"station_id":"ce4bhl12rcd13ifvqgf0","pricing_plan_id":"cebpf4jnsgd1na2vs0mg"},{"bike_id":"2d3dd4f4-c2be-4315-be3d-f35763bc2c71","system_id":"levelo_inurba_marseille","lat":43.26706,"lon":5.40202,"is_reserved":false,"is_disabled":false,"rental_uris":{"android":"levelo://app?vid=2d3dd4f4-c2be-4315-be3d-f35763bc2c71","ios":"levelo://app?vid=2d3dd4f4-c2be-4315-be3d-f35763bc2c71"},"vehicle_type_id":"4","last_reported":1783366867,"current_range_meters":2800,"station_id":"","pricing_plan_id":"cebpf4jnsgd1na2vs0mg"},{"bike_id":"b1aa72f3-04ce-4ad9-8f2a-64d0257f47a8","system_id":"levelo_inurba_marseille","lat":43.2928,"lon":5.36837,"is_reserved":false,"is_disabled":false,"rental_uris":{"android":"levelo://app?vid=b1aa72f3-04ce-4ad9-8f2a-64d0257f47a8","ios":"levelo://app?vid=b1aa72f3-04ce-4ad9-8f2a-64d0257f47a8"},"vehicle_type_id":"4","last_reported":1783366867,"current_range_meters":2800,"station_id":"ce4bhbp2rcd13ifvqesg","pricing_plan_id":"cebpf4jnsgd1na2vs0mg"},{"bike_id":"d34a4fc1-7777-4611-bd4d-4f5621a9b40d","system_id":"levelo_inurba_marseille","lat":43.246451,"lon":5.388885,"is_reserved":false,"is_disabled":false,"rental_uris":{"android":"levelo://app?vid=d34a4fc1-7777-4611-bd4d-4f5621a9b40d","ios":"levelo://app?vid=d34a4fc1-7777-4611-bd4d-4f5621a9b40d"},"vehicle_type_id":"4","last_reported":1783366867,"current_range_meters":2800,"station_id":"ce4bhg12rcd13ifvqf60","pricing_plan_id":"cebpf4jnsgd1na2vs0mg"},{"bike_id":"6b067209-3286-48ad-866a-1b5a70a2c780","system_id":"levelo_inurba_marseille","lat":43.29038,"lon":5.39972,"is_reserved":false,"is_disabled":false,"rental_uris":{"android":"levelo://app?vid=6b067209-3286-48ad-866a-1b5a70a2c780","ios":"levelo://app?vid=6b067209-3286-48ad-866a-1b5a70a2c780"},"vehicle_type_id":"4","last_reported":1783366867,"current_range_meters":2800,"station_id":"ce4bh392rcd13ifvqdm0","pricing_plan_id":"cebpf4jnsgd1na2vs0mg"},{"bike_id":"7409df86-839b-41b4-84e7-5a0eba8d53e3","system_id":"levelo_inurba_marseille","lat":43.29535,"lon":5.38554,"is_reserved":false,"is_disabled":false,"rental_uris":{"android":"levelo://app?vid=7409df86-839b-41b4-84e7-5a0eba8d53e3","ios":"levelo://app?vid=7409df86-839b-41b4-84e7-5a0eba8d53e3"},"vehicle_type_id":"4","last_reported":1783366867,"current_range_meters":2800,"station_id":"ce4bgih2rcd13ifvqba0","pricing_plan_id":"cebpf4jnsgd1na2vs0mg"},{"bike_id":"fb0888e3-a931-42d5-978b-cd7203c8a8bb","system_id":"levelo_inurba_marseille","lat":43.2874,"lon":5.36056,"is_reserved":false,"is_disabled":false,"rental_uris":{"android":"levelo://app?vid=fb0888e3-a931-42d5-978b-cd7203c8a8bb","ios":"levelo://app?vid=fb0888e3-a931-42d5-978b-cd7203c8a8bb"},"vehicle_type_id":"4","last_reported":1783366867,"current_range_meters":2800,"station_id":"cki0cbj6b192h4jlfktg","pricing_plan_id":"cebpf4jnsgd1na2vs0mg"},{"bike_id":"fbf4b1e3-ca93-42fa-b2c4-13196fccc28c","system_id":"levelo_inurba_marseille","lat":43.28457,"lon":5.35893,"is_reserved":false,"is_disabled":false,"rental_uris":{"android":"levelo://app?vid=fbf4b1e3-ca93-42fa-b2c4-13196fccc28c","ios":"levelo://app?vid=fbf4b1e3-ca93-42fa-b2c4-13196fccc28c"},"vehicle_type_id":"4","last_reported":1783366867,"current_range_meters":2800,"station_id":"ce4bhah2rcd13ifvqei0","pricing_plan_id":"cebpf4jnsgd1na2vs0mg"},{"bike_id":"a12a4f83-c050-4064-a9cd-bf7775a31f2f","system_id":"levelo_inurba_marseille","lat":43.24678,"lon":5.38164,"is_reserved":false,"is_disabled":true,"rental_uris":{"android":"levelo://app?vid=a12a4f83-c050-4064-a9cd-bf7775a31f2f","ios":"levelo://app?vid=a12a4f83-c050-4064-a9cd-bf7775a31f2f"},"vehicle_type_id":"4","last_reported":1783366867,"current_range_meters":2800,"station_id":"ce4bhih2rcd13ifvqfr0","pricing_plan_id":"cebpf4jnsgd1na2vs0mg"},{"bike_id":"a0e97ccd-2f91-4aef-b1f4-74a2af8040ca","system_id":"levelo_inurba_marseille","lat":43.28606,"lon":5.3987,"is_reserved":false,"is_disabled":false,"rental_uris":{"android":"levelo://app?vid=a0e97ccd-2f91-4aef-b1f4-74a2af8040ca","ios":"levelo://app?vid=a0e97ccd-2f91-4aef-b1f4-74a2af8040ca"},"vehicle_type_id":"4","last_reported":1783366867,"current_range_meters":2800,"station_id":"st_d4a7ka997mjs738ck50g","pricing_plan_id":"cebpf4jnsgd1na2vs0mg"},{"bike_id":"64c74cf9-3f30-4c93-81af-6540d68b40ef","system_id":"levelo_inurba_marseille","lat":43.29291,"lon":5.37465,"is_reserved":false,"is_disabled":false,"rental_uris":{"android":"levelo://app?vid=64c74cf9-3f30-4c93-81af-6540d68b40ef","ios":"levelo://app?vid=64c74cf9-3f30-4c93-81af-6540d68b40ef"},"vehicle_type_id":"4","last_reported":1783366867,"current_range_meters":2800,"station_id":"ce4bgi12rcd13ifvqb70","pricing_plan_id":"cebpf4jnsgd1na2vs0mg"},{"bike_id":"1b6b0e61-269d-4e80-8b51-709faeedbad8","system_id":"levelo_inurba_marseille","lat":43.29524,"lon":5.37515,"is_reserved":false,"is_disabled":false,"rental_uris":{"android":"levelo://app?vid=1b6b0e61-269d-4e80-8b51-709faeedbad8","ios":"levelo://app?vid=1b6b0e61-269d-4e80-8b51-709faeedbad8"},"vehicle_type_id":"4","last_reported":1783366867,"current_range_meters":2800,"station_id":"ce4bgkp2rcd13ifvqbmg","pricing_plan_id":"cebpf4jnsgd1na2vs0mg"},{"bike_id":"e03a8bd0-2697-43b0-8d13-8dd357e02c88","system_id":"levelo_inurba_marseille","lat":43.26564,"lon":5.38983,"is_reserved":false,"is_disabled":true,"rental_uris":{"android":"levelo://app?vid=e03a8bd0-2697-43b0-8d13-8dd357e02c88","ios":"levelo://app?vid=e03a8bd0-2697-43b0-8d13-8dd357e02c88"},"vehicle_type_id":"4","last_reported":1783366867,"current_range_meters":2800,"station_id":"ce4bhe12rcd13ifvqf30","pricing_plan_id":"cebpf4jnsgd1na2vs0mg"},{"bike_id":"d86b8446-3ee6-46dc-81f8-4e30c1af6b90","system_id":"levelo_inurba_marseille","lat":43.26555,"lon":5.42099,"is_reserved":false,"is_disabled":false,"rental_uris":{"android":"levelo://app?vid=d86b8446-3ee6-46dc-81f8-4e30c1af6b90","ios":"levelo://app?vid=d86b8446-3ee6-46dc-81f8-4e30c1af6b90"},"vehicle_type_id":"4","last_reported":1783366867,"current_range_meters":2800,"station_id":"","pricing_plan_id":"cebpf4jnsgd1na2vs0mg"},{"bike_id":"94e1c63c-779b-47e1-ba49-f534532630b3","system_id":"levelo_inurba_marseille","lat":43.30149,"lon":5.38082,"is_reserved":false,"is_disabled":false,"rental_uris":{"android":"levelo://app?vid=94e1c63c-779b-47e1-ba49-f534532630b3","ios":"levelo://app?vid=94e1c63c-779b-47e1-ba49-f534532630b3"},"vehicle_type_id":"4","last_reported":1783366867,"current_range_meters":2800,"station_id":"ce4bgjp2rcd13ifvqbh0","pricing_plan_id":"cebpf4jnsgd1na2vs0mg"},{"bike_id":"e48c197e-a69c-4b1a-b97b-d9e03c8e95cf","system_id":"levelo_inurba_marseille","lat":43.29883,"lon":5.42091,"is_reserved":false,"is_disabled":false,"rental_uris":{"android":"levelo://app?vid=e48c197e-a69c-4b1a-b97b-d9e03c8e95cf","ios":"levelo://app?vid=e48c197e-a69c-4b1a-b97b-d9e03c8e95cf"},"vehicle_type_id":"4","last_reported":1783366867,"current_range_meters":3200,"station_id":"st_d6tc004otcvc738tfe70","pricing_plan_id":"cebpf4jnsgd1na2vs0mg"},{"bike_id":"2deb7e86-65b2-4e64-839e-97ef8ef77900","system_id":"levelo_inurba_marseille","lat":43.27482,"lon":5.40743,"is_reserved":false,"is_disabled":false,"rental_uris":{"android":"levelo://app?vid=2deb7e86-65b2-4e64-839e-97ef8ef77900","ios":"levelo://app?vid=2deb7e86-65b2-4e64-839e-97ef8ef77900"},"vehicle_type_id":"4","last_reported":1783366867,"current_range_meters":3200,"station_id":"","pricing_plan_id":"cebpf4jnsgd1na2vs0mg"},{"bike_id":"cc4a70ba-bc40-4cb2-a35d-550878cc93ad","system_id":"levelo_inurba_marseille","lat":43.28599,"lon":5.35113,"is_reserved":false,"is_disabled":false,"rental_uris":{"android":"levelo://app?vid=cc4a70ba-bc40-4cb2-a35d-550878cc93ad","ios":"levelo://app?vid=cc4a70ba-bc40-4cb2-a35d-550878cc93ad"},"vehicle_type_id":"4","last_reported":1783366867,"current_range_meters":3200,"station_id":"ce4bhch2rcd13ifvqeug","pricing_plan_id":"cebpf4jnsgd1na2vs0mg"},{"bike_id":"f5862b25-8b9f-4511-934a-30eb2d62b473","system_id":"levelo_inurba_marseille","lat":43.23752,"lon":5.36185,"is_reserved":false,"is_disabled":false,"rental_uris":{"android":"levelo://app?vid=f5862b25-8b9f-4511-934a-30eb2d62b473","ios":"levelo://app?vid=f5862b25-8b9f-4511-934a-30eb2d62b473"},"vehicle_type_id":"4","last_reported":1783366867,"current_range_meters":3200,"station_id":"","pricing_plan_id":"cebpf4jnsgd1na2vs0mg"},{"bike_id":"77f13bdc-1261-4db1-ab17-23ee4e608773","system_id":"levelo_inurba_marseille","lat":43.28938,"lon":5.36637,"is_reserved":false,"is_disabled":false,"rental_uris":{"android":"levelo://app?vid=77f13bdc-1261-4db1-ab17-23ee4e608773","ios":"levelo://app?vid=77f13bdc-1261-4db1-ab17-23ee4e608773"},"vehicle_type_id":"4","last_reported":1783366867,"current_range_meters":3200,"station_id":"ce4bhap2rcd13ifvqek0","pricing_plan_id":"cebpf4jnsgd1na2vs0mg"},{"bike_id":"3fcf6205-f23c-4cee-8363-04389955351d","system_id":"levelo_inurba_marseille","lat":43.22565,"lon":5.41636,"is_reserved":false,"is_disabled":true,"rental_uris":{"android":"levelo://app?vid=3fcf6205-f23c-4cee-8363-04389955351d","ios":"levelo://app?vid=3fcf6205-f23c-4cee-8363-04389955351d"},"vehicle_type_id":"4","last_reported":1783366867,"current_range_meters":3200,"station_id":"st_d2o4gvlbi1j2169b742g","pricing_plan_id":"cebpf4jnsgd1na2vs0mg"},{"bike_id":"11eaa423-cfde-42e3-ad60-4eff20d7d673","system_id":"levelo_inurba_marseille","lat":43.29706,"lon":5.36606,"is_reserved":false,"is_disabled":false,"rental_uris":{"android":"levelo://app?vid=11eaa423-cfde-42e3-ad60-4eff20d7d673","ios":"levelo://app?vid=11eaa423-cfde-42e3-ad60-4eff20d7d673"},"vehicle_type_id":"4","last_reported":1783366867,"current_range_meters":3200,"station_id":"ce4bgn12rcd13ifvqbt0","pricing_plan_id":"cebpf4jnsgd1na2vs0mg"},{"bike_id":"4a6bc899-4386-403a-85bd-a0b6e4730c86","system_id":"levelo_inurba_marseille","lat":43.27404,"lon":5.393894,"is_reserved":false,"is_disabled":false,"rental_uris":{"android":"levelo://app?vid=4a6bc899-4386-403a-85bd-a0b6e4730c86","ios":"levelo://app?vid=4a6bc899-4386-403a-85bd-a0b6e4730c86"},"vehicle_type_id":"4","last_reported":1783366867,"current_range_meters":3200,"station_id":"ce4bhdp2rcd13ifvqf20","pricing_plan_id":"cebpf4jnsgd1na2vs0mg"},{"bike_id":"7a71c416-c3b5-4289-ad0e-531bcb18f06d","system_id":"levelo_inurba_marseille","lat":43.33195,"lon":5.37735,"is_reserved":false,"is_disabled":false,"rental_uris":{"android":"levelo://app?vid=7a71c416-c3b5-4289-ad0e-531bcb18f06d","ios":"levelo://app?vid=7a71c416-c3b5-4289-ad0e-531bcb18f06d"},"vehicle_type_id":"4","last_reported":1783366867,"current_range_meters":3200,"station_id":"","pricing_plan_id":"cebpf4jnsgd1na2vs0mg"},{"bike_id":"25aacf84-4e25-4404-a181-808ff45ef97f","system_id":"levelo_inurba_marseille","lat":43.24795,"lon":5.37469,"is_reserved":false,"is_disabled":false,"rental_uris":{"android":"levelo://app?vid=25aacf84-4e25-4404-a181-808ff45ef97f","ios":"levelo://app?vid=25aacf84-4e25-4404-a181-808ff45ef97f"},"vehicle_type_id":"4","last_reported":1783366867,"current_range_meters":3200,"station_id":"ce4bhgh2rcd13ifvqfb0","pricing_plan_id":"cebpf4jnsgd1na2vs0mg"},{"bike_id":"40d2f8fc-f040-4242-8dd7-9ca3aba71d2c","system_id":"levelo_inurba_marseille","lat":43.29174,"lon":5.35821,"is_reserved":false,"is_disabled":false,"rental_uris":{"android":"levelo://app?vid=40d2f8fc-f040-4242-8dd7-9ca3aba71d2c","ios":"levelo://app?vid=40d2f8fc-f040-4242-8dd7-9ca3aba71d2c"},"vehicle_type_id":"4","last_reported":1783366867,"current_range_meters":3200,"station_id":"ce4bhb12rcd13ifvqel0","pricing_plan_id":"cebpf4jnsgd1na2vs0mg"},{"bike_id":"030265b2-4dd1-44f4-b998-e3903e3adbf1","system_id":"levelo_inurba_marseille","lat":43.28617,"lon":5.37062,"is_reserved":false,"is_disabled":true,"rental_uris":{"android":"levelo://app?vid=030265b2-4dd1-44f4-b998-e3903e3adbf1","ios":"levelo://app?vid=030265b2-4dd1-44f4-b998-e3903e3adbf1"},"vehicle_type_id":"4","last_reported":1783366867,"current_range_meters":3200,"station_id":"ce4bht12rcd13ifvqi60","pricing_plan_id":"cebpf4jnsgd1na2vs0mg"},{"bike_id":"6615886b-74f9-497e-8ba7-a60ccb6fd329","system_id":"levelo_inurba_marseille","lat":43.2604,"lon":5.39793,"is_reserved":false,"is_disabled":false,"rental_uris":{"android":"levelo://app?vid=6615886b-74f9-497e-8ba7-a60ccb6fd329","ios":"levelo://app?vid=6615886b-74f9-497e-8ba7-a60ccb6fd329"},"vehicle_type_id":"4","last_reported":1783366867,"current_range_meters":3200,"station_id":"","pricing_plan_id":"cebpf4jnsgd1na2vs0mg"},{"bike_id":"9aad7fb2-4b68-4ff1-a63e-5832ca4f6501","system_id":"levelo_inurba_marseille","lat":43.26961,"lon":5.38551,"is_reserved":false,"is_disabled":false,"rental_uris":{"android":"levelo://app?vid=9aad7fb2-4b68-4ff1-a63e-5832ca4f6501","ios":"levelo://app?vid=9aad7fb2-4b68-4ff1-a63e-5832ca4f6501"},"vehicle_type_id":"4","last_reported":1783366867,"current_range_meters":3200,"station_id":"","pricing_plan_id":"cebpf4jnsgd1na2vs0mg"},{"bike_id":"bcd53d36-65c1-45f1-997e-8c88ae5de755","system_id":"levelo_inurba_marseille","lat":43.295675,"lon":5.39972,"is_reserved":false,"is_disabled":false,"rental_uris":{"android":"levelo://app?vid=bcd53d36-65c1-45f1-997e-8c88ae5de755","ios":"levelo://app?vid=bcd53d36-65c1-45f1-997e-8c88ae5de755"},"vehicle_type_id":"4","last_reported":1783366867,"current_range_meters":3200,"station_id":"ce4bh312rcd13ifvqdj0","pricing_plan_id":"cebpf4jnsgd1na2vs0mg"},{"bike_id":"f7826c83-beb8-416f-bc97-d9c1cfbddb0b","system_id":"levelo_inurba_marseille","lat":43.25153,"lon":5.40416,"is_reserved":false,"is_disabled":false,"rental_uris":{"android":"levelo://app?vid=f7826c83-beb8-416f-bc97-d9c1cfbddb0b","ios":"levelo://app?vid=f7826c83-beb8-416f-bc97-d9c1cfbddb0b"},"vehicle_type_id":"4","last_reported":1783366867,"current_range_meters":3200,"station_id":"","pricing_plan_id":"cebpf4jnsgd1na2vs0mg"},{"bike_id":"d77cc863-5cb1-45dd-b41f-de07cd7f6770","system_id":"levelo_inurba_marseille","lat":43.27804,"lon":5.35499,"is_reserved":false,"is_disabled":false,"rental_uris":{"android":"levelo://app?vid=d77cc863-5cb1-45dd-b41f-de07cd7f6770","ios":"levelo://app?vid=d77cc863-5cb1-45dd-b41f-de07cd7f6770"},"vehicle_type_id":"4","last_reported":1783366867,"current_range_meters":3200,"station_id":"","pricing_plan_id":"cebpf4jnsgd1na2vs0mg"},{"bike_id":"bb964f01-4f17-4f8d-a624-62c969964b3a","system_id":"levelo_inurba_marseille","lat":43.2796,"lon":5.38772,"is_reserved":false,"is_disabled":false,"rental_uris":{"android":"levelo://app?vid=bb964f01-4f17-4f8d-a624-62c969964b3a","ios":"levelo://app?vid=bb964f01-4f17-4f8d-a624-62c969964b3a"},"vehicle_type_id":"4","last_reported":1783366867,"current_range_meters":3600,"station_id":"ce4bhg12rcd13ifvqf80","pricing_plan_id":"cebpf4jnsgd1na2vs0mg"},{"bike_id":"4d52a61b-5c30-41df-a6ac-71b42f016aed","system_id":"levelo_inurba_marseille","lat":43.25861,"lon":5.39889,"is_reserved":false,"is_disabled":true,"rental_uris":{"android":"levelo://app?vid=4d52a61b-5c30-41df-a6ac-71b42f016aed","ios":"levelo://app?vid=4d52a61b-5c30-41df-a6ac-71b42f016aed"},"vehicle_type_id":"4","last_reported":1783366867,"current_range_meters":3600,"station_id":"ce4bhl92rcd13ifvqghg","pricing_plan_id":"cebpf4jnsgd1na2vs0mg"},{"bike_id":"e3842490-ab86-4035-93b6-1f29e745eb57","system_id":"levelo_inurba_marseille","lat":43.28112,"lon":5.37859,"is_reserved":false,"is_disabled":false,"rental_uris":{"android":"levelo://app?vid=e3842490-ab86-4035-93b6-1f29e745eb57","ios":"levelo://app?vid=e3842490-ab86-4035-93b6-1f29e745eb57"},"vehicle_type_id":"4","last_reported":1783366867,"current_range_meters":3600,"station_id":"ce4bha12rcd13ifvqee0","pricing_plan_id":"cebpf4jnsgd1na2vs0mg"},{"bike_id":"d62a5f06-a4d3-43f1-8950-c438f1f04a18","system_id":"levelo_inurba_marseille","lat":43.2748,"lon":5.40522,"is_reserved":false,"is_disabled":false,"rental_uris":{"android":"levelo://app?vid=d62a5f06-a4d3-43f1-8950-c438f1f04a18","ios":"levelo://app?vid=d62a5f06-a4d3-43f1-8950-c438f1f04a18"},"vehicle_type_id":"4","last_reported":1783366867,"current_range_meters":3600,"station_id":"","pricing_plan_id":"cebpf4jnsgd1na2vs0mg"},{"bike_id":"79778ba9-86a6-4c3e-ad1d-4812be37a7c3","system_id":"levelo_inurba_marseille","lat":43.286114,"lon":5.351075,"is_reserved":false,"is_disabled":false,"rental_uris":{"android":"levelo://app?vid=79778ba9-86a6-4c3e-ad1d-4812be37a7c3","ios":"levelo://app?vid=79778ba9-86a6-4c3e-ad1d-4812be37a7c3"},"vehicle_type_id":"4","last_reported":1783366867,"current_range_meters":3600,"station_id":"ce4bhch2rcd13ifvqeug","pricing_plan_id":"cebpf4jnsgd1na2vs0mg"},{"bike_id":"ebb69cdb-f57c-486a-9d37-3814132e26e5","system_id":"levelo_inurba_marseille","lat":43.28021,"lon":5.36943,"is_reserved":false,"is_disabled":true,"rental_uris":{"android":"levelo://app?vid=ebb69cdb-f57c-486a-9d37-3814132e26e5","ios":"levelo://app?vid=ebb69cdb-f57c-486a-9d37-3814132e26e5"},"vehicle_type_id":"4","last_reported":1783366867,"current_range_meters":3600,"station_id":"ce4bha12rcd13ifvqef0","pricing_plan_id":"cebpf4jnsgd1na2vs0mg"},{"bike_id":"9612f907-be9b-42cc-b451-42130758f227","system_id":"levelo_inurba_marseille","lat":43.29678,"lon":5.37279,"is_reserved":false,"is_disabled":false,"rental_uris":{"android":"levelo://app?vid=9612f907-be9b-42cc-b451-42130758f227","ios":"levelo://app?vid=9612f907-be9b-42cc-b451-42130758f227"},"vehicle_type_id":"4","last_reported":1783366867,"current_range_meters":3600,"station_id":"ce4bgk12rcd13ifvqbj0","pricing_plan_id":"cebpf4jnsgd1na2vs0mg"},{"bike_id":"c4d8ba0d-98cf-4fcd-b3d5-78700a15cc24","system_id":"levelo_inurba_marseille","lat":43.28399,"lon":5.37521,"is_reserved":false,"is_disabled":false,"rental_uris":{"android":"levelo://app?vid=c4d8ba0d-98cf-4fcd-b3d5-78700a15cc24","ios":"levelo://app?vid=c4d8ba0d-98cf-4fcd-b3d5-78700a15cc24"},"vehicle_type_id":"4","last_reported":1783366867,"current_range_meters":3600,"station_id":"ce4bh412rcd13ifvqds0","pricing_plan_id":"cebpf4jnsgd1na2vs0mg"},{"bike_id":"83163ef9-6031-416c-97fd-7e89bcf58161","system_id":"levelo_inurba_marseille","lat":43.31169,"lon":5.40166,"is_reserved":false,"is_disabled":false,"rental_uris":{"android":"levelo://app?vid=83163ef9-6031-416c-97fd-7e89bcf58161","ios":"levelo://app?vid=83163ef9-6031-416c-97fd-7e89bcf58161"},"vehicle_type_id":"4","last_reported":1783366867,"current_range_meters":3600,"station_id":"","pricing_plan_id":"cebpf4jnsgd1na2vs0mg"},{"bike_id":"fa00646f-7fa9-40bf-b57c-ac003ea2388c","system_id":"levelo_inurba_marseille","lat":43.29301,"lon":5.37166,"is_reserved":false,"is_disabled":false,"rental_uris":{"android":"levelo://app?vid=fa00646f-7fa9-40bf-b57c-ac003ea2388c","ios":"levelo://app?vid=fa00646f-7fa9-40bf-b57c-ac003ea2388c"},"vehicle_type_id":"4","last_reported":1783366867,"current_range_meters":3600,"station_id":"ce4bgh92rcd13ifvqb40","pricing_plan_id":"cebpf4jnsgd1na2vs0mg"},{"bike_id":"a73730c4-994d-45f1-82fd-a34fd7c29c13","system_id":"levelo_inurba_marseille","lat":43.31164,"lon":5.393,"is_reserved":false,"is_disabled":false,"rental_uris":{"android":"levelo://app?vid=a73730c4-994d-45f1-82fd-a34fd7c29c13","ios":"levelo://app?vid=a73730c4-994d-45f1-82fd-a34fd7c29c13"},"vehicle_type_id":"4","last_reported":1783366867,"current_range_meters":3600,"station_id":"","pricing_plan_id":"cebpf4jnsgd1na2vs0mg"},{"bike_id":"c9445652-b236-402b-8ec1-fb5567a22b0f","system_id":"levelo_inurba_marseille","lat":43.24466,"lon":5.40921,"is_reserved":false,"is_disabled":false,"rental_uris":{"android":"levelo://app?vid=c9445652-b236-402b-8ec1-fb5567a22b0f","ios":"levelo://app?vid=c9445652-b236-402b-8ec1-fb5567a22b0f"},"vehicle_type_id":"4","last_reported":1783366867,"current_range_meters":3600,"station_id":"","pricing_plan_id":"cebpf4jnsgd1na2vs0mg"},{"bike_id":"acb6b183-d4d6-4d8e-974e-924b61f91a80","system_id":"levelo_inurba_marseille","lat":43.34403,"lon":5.42052,"is_reserved":false,"is_disabled":false,"rental_uris":{"android":"levelo://app?vid=acb6b183-d4d6-4d8e-974e-924b61f91a80","ios":"levelo://app?vid=acb6b183-d4d6-4d8e-974e-924b61f91a80"},"vehicle_type_id":"4","last_reported":1783366867,"current_range_meters":3600,"station_id":"","pricing_plan_id":"cebpf4jnsgd1na2vs0mg"},{"bike_id":"fc5d7b22-bed1-4640-a4b2-9379b1406486","system_id":"levelo_inurba_marseille","lat":43.29431,"lon":5.38436,"is_reserved":false,"is_disabled":true,"rental_uris":{"android":"levelo://app?vid=fc5d7b22-bed1-4640-a4b2-9379b1406486","ios":"levelo://app?vid=fc5d7b22-bed1-4640-a4b2-9379b1406486"},"vehicle_type_id":"4","last_reported":1783366867,"current_range_meters":3600,"station_id":"","pricing_plan_id":"cebpf4jnsgd1na2vs0mg"},{"bike_id":"9b5e1a74-b52e-44f6-8543-716d2db5b26f","system_id":"levelo_inurba_marseille","lat":43.25091,"lon":5.39518,"is_reserved":false,"is_disabled":false,"rental_uris":{"android":"levelo://app?vid=9b5e1a74-b52e-44f6-8543-716d2db5b26f","ios":"levelo://app?vid=9b5e1a74-b52e-44f6-8543-716d2db5b26f"},"vehicle_type_id":"4","last_reported":1783366867,"current_range_meters":3600,"station_id":"ce4bhm12rcd13ifvqgkg","pricing_plan_id":"cebpf4jnsgd1na2vs0mg"},{"bike_id":"579fb202-26b3-4954-b066-d4e519e81590","system_id":"levelo_inurba_marseille","lat":43.27071,"lon":5.42263,"is_reserved":false,"is_disabled":false,"rental_uris":{"android":"levelo://app?vid=579fb202-26b3-4954-b066-d4e519e81590","ios":"levelo://app?vid=579fb202-26b3-4954-b066-d4e519e81590"},"vehicle_type_id":"4","last_reported":1783366867,"current_range_meters":3600,"station_id":"ce4bhk92rcd13ifvqgb0","pricing_plan_id":"cebpf4jnsgd1na2vs0mg"},{"bike_id":"b58d7813-ef6c-476b-abd4-3ce1491500c2","system_id":"levelo_inurba_marseille","lat":43.33177,"lon":5.413,"is_reserved":false,"is_disabled":false,"rental_uris":{"android":"levelo://app?vid=b58d7813-ef6c-476b-abd4-3ce1491500c2","ios":"levelo://app?vid=b58d7813-ef6c-476b-abd4-3ce1491500c2"},"vehicle_type_id":"4","last_reported":1783366867,"current_range_meters":3600,"station_id":"","pricing_plan_id":"cebpf4jnsgd1na2vs0mg"},{"bike_id":"f43a4952-68d4-4cbd-a125-61de5814de5f","system_id":"levelo_inurba_marseille","lat":43.29235,"lon":5.38338,"is_reserved":false,"is_disabled":false,"rental_uris":{"android":"levelo://app?vid=f43a4952-68d4-4cbd-a125-61de5814de5f","ios":"levelo://app?vid=f43a4952-68d4-4cbd-a125-61de5814de5f"},"vehicle_type_id":"4","last_reported":1783366867,"current_range_meters":3600,"station_id":"","pricing_plan_id":"cebpf4jnsgd1na2vs0mg"},{"bike_id":"805128f8-2053-4b92-b242-a09561c94130","system_id":"levelo_inurba_marseille","lat":43.25494,"lon":5.3765,"is_reserved":false,"is_disabled":false,"rental_uris":{"android":"levelo://app?vid=805128f8-2053-4b92-b242-a09561c94130","ios":"levelo://app?vid=805128f8-2053-4b92-b242-a09561c94130"},"vehicle_type_id":"4","last_reported":1783366867,"current_range_meters":3600,"station_id":"ce4bhh12rcd13ifvqff0","pricing_plan_id":"cebpf4jnsgd1na2vs0mg"},{"bike_id":"297f19c2-1509-4ef1-bb08-ef5e41965823","system_id":"levelo_inurba_marseille","lat":43.29527,"lon":5.39042,"is_reserved":false,"is_disabled":false,"rental_uris":{"android":"levelo://app?vid=297f19c2-1509-4ef1-bb08-ef5e41965823","ios":"levelo://app?vid=297f19c2-1509-4ef1-bb08-ef5e41965823"},"vehicle_type_id":"4","last_reported":1783366867,"current_range_meters":3600,"station_id":"ce4bh3p2rcd13ifvqdp0","pricing_plan_id":"cebpf4jnsgd1na2vs0mg"},{"bike_id":"aff0189f-3189-492d-9c2b-d00146413cd3","system_id":"levelo_inurba_marseille","lat":43.28099,"lon":5.37887,"is_reserved":false,"is_disabled":false,"rental_uris":{"android":"levelo://app?vid=aff0189f-3189-492d-9c2b-d00146413cd3","ios":"levelo://app?vid=aff0189f-3189-492d-9c2b-d00146413cd3"},"vehicle_type_id":"4","last_reported":1783366867,"current_range_meters":4000,"station_id":"ce4bha12rcd13ifvqee0","pricing_plan_id":"cebpf4jnsgd1na2vs0mg"},{"bike_id":"fde40573-5fd8-4c1a-869a-8c594a585efa","system_id":"levelo_inurba_marseille","lat":43.29528,"lon":5.38552,"is_reserved":false,"is_disabled":false,"rental_uris":{"android":"levelo://app?vid=fde40573-5fd8-4c1a-869a-8c594a585efa","ios":"levelo://app?vid=fde40573-5fd8-4c1a-869a-8c594a585efa"},"vehicle_type_id":"4","last_reported":1783366867,"current_range_meters":4000,"station_id":"ce4bgih2rcd13ifvqba0","pricing_plan_id":"cebpf4jnsgd1na2vs0mg"},{"bike_id":"67ab63d3-0a4a-456c-9971-0a4652bf66d3","system_id":"levelo_inurba_marseille","lat":43.29208,"lon":5.36068,"is_reserved":false,"is_disabled":false,"rental_uris":{"android":"levelo://app?vid=67ab63d3-0a4a-456c-9971-0a4652bf66d3","ios":"levelo://app?vid=67ab63d3-0a4a-456c-9971-0a4652bf66d3"},"vehicle_type_id":"4","last_reported":1783366867,"current_range_meters":4000,"station_id":"ce4bhbh2rcd13ifvqeqg","pricing_plan_id":"cebpf4jnsgd1na2vs0mg"},{"bike_id":"138e49e7-8d22-4832-895c-d97d918d2d72","system_id":"levelo_inurba_marseille","lat":43.27821,"lon":5.36469,"is_reserved":false,"is_disabled":false,"rental_uris":{"android":"levelo://app?vid=138e49e7-8d22-4832-895c-d97d918d2d72","ios":"levelo://app?vid=138e49e7-8d22-4832-895c-d97d918d2d72"},"vehicle_type_id":"4","last_reported":1783366867,"current_range_meters":4000,"station_id":"","pricing_plan_id":"cebpf4jnsgd1na2vs0mg"},{"bike_id":"635f15d3-94fb-4b96-bb93-1aa74bc4d00c","system_id":"levelo_inurba_marseille","lat":43.26929,"lon":5.38933,"is_reserved":false,"is_disabled":false,"rental_uris":{"android":"levelo://app?vid=635f15d3-94fb-4b96-bb93-1aa74bc4d00c","ios":"levelo://app?vid=635f15d3-94fb-4b96-bb93-1aa74bc4d00c"},"vehicle_type_id":"4","last_reported":1783366867,"current_range_meters":4000,"station_id":"ce4bhhh2rcd13ifvqfl0","pricing_plan_id":"cebpf4jnsgd1na2vs0mg"},{"bike_id":"a5f0d7a5-3e76-4fdc-8526-d2892136c9de","system_id":"levelo_inurba_marseille","lat":43.28441,"lon":5.39211,"is_reserved":false,"is_disabled":false,"rental_uris":{"android":"levelo://app?vid=a5f0d7a5-3e76-4fdc-8526-d2892136c9de","ios":"levelo://app?vid=a5f0d7a5-3e76-4fdc-8526-d2892136c9de"},"vehicle_type_id":"4","last_reported":1783366867,"current_range_meters":4000,"station_id":"ce4bhoh2rcd13ifvqh5g","pricing_plan_id":"cebpf4jnsgd1na2vs0mg"},{"bike_id":"a29bf31a-36a7-4eb9-9672-b510d9977ae0","system_id":"levelo_inurba_marseille","lat":43.2826,"lon":5.35085,"is_reserved":false,"is_disabled":false,"rental_uris":{"android":"levelo://app?vid=a29bf31a-36a7-4eb9-9672-b510d9977ae0","ios":"levelo://app?vid=a29bf31a-36a7-4eb9-9672-b510d9977ae0"},"vehicle_type_id":"4","last_reported":1783366867,"current_range_meters":4000,"station_id":"ce4bhbp2rcd13ifvqerg","pricing_plan_id":"cebpf4jnsgd1na2vs0mg"},{"bike_id":"85375d55-e0d1-447d-809b-18247820754d","system_id":"levelo_inurba_marseille","lat":43.28914,"lon":5.48154,"is_reserved":false,"is_disabled":false,"rental_uris":{"android":"levelo://app?vid=85375d55-e0d1-447d-809b-18247820754d","ios":"levelo://app?vid=85375d55-e0d1-447d-809b-18247820754d"},"vehicle_type_id":"4","last_reported":1783366867,"current_range_meters":4000,"station_id":"","pricing_plan_id":"cebpf4jnsgd1na2vs0mg"},{"bike_id":"0627f6f7-2380-4e1a-a1d6-60acd73c468e","system_id":"levelo_inurba_marseille","lat":43.30141,"lon":5.38074,"is_reserved":false,"is_disabled":false,"rental_uris":{"android":"levelo://app?vid=0627f6f7-2380-4e1a-a1d6-60acd73c468e","ios":"levelo://app?vid=0627f6f7-2380-4e1a-a1d6-60acd73c468e"},"vehicle_type_id":"4","last_reported":1783366867,"current_range_meters":4000,"station_id":"ce4bgjp2rcd13ifvqbh0","pricing_plan_id":"cebpf4jnsgd1na2vs0mg"},{"bike_id":"db8a891d-01a8-477c-86bb-61f9ddbc2ad3","system_id":"levelo_inurba_marseille","lat":43.24945,"lon":5.40501,"is_reserved":false,"is_disabled":false,"rental_uris":{"android":"levelo://app?vid=db8a891d-01a8-477c-86bb-61f9ddbc2ad3","ios":"levelo://app?vid=db8a891d-01a8-477c-86bb-61f9ddbc2ad3"},"vehicle_type_id":"4","last_reported":1783366867,"current_range_meters":4000,"station_id":"st_d2ngiaodas8pm72gd1h0","pricing_plan_id":"cebpf4jnsgd1na2vs0mg"},{"bike_id":"49ab2764-f571-4f43-8b96-23d3b0325d1b","system_id":"levelo_inurba_marseille","lat":43.25371,"lon":5.382,"is_reserved":false,"is_disabled":false,"rental_uris":{"android":"levelo://app?vid=49ab2764-f571-4f43-8b96-23d3b0325d1b","ios":"levelo://app?vid=49ab2764-f571-4f43-8b96-23d3b0325d1b"},"vehicle_type_id":"4","last_reported":1783366867,"current_range_meters":4000,"station_id":"","pricing_plan_id":"cebpf4jnsgd1na2vs0mg"},{"bike_id":"ff40b7b5-0e5a-48a9-8e19-d944ded562ea","system_id":"levelo_inurba_marseille","lat":43.25106,"lon":5.40323,"is_reserved":false,"is_disabled":false,"rental_uris":{"android":"levelo://app?vid=ff40b7b5-0e5a-48a9-8e19-d944ded562ea","ios":"levelo://app?vid=ff40b7b5-0e5a-48a9-8e19-d944ded562ea"},"vehicle_type_id":"4","last_reported":1783366867,"current_range_meters":4000,"station_id":"ce4bhlh2rcd13ifvqgig","pricing_plan_id":"cebpf4jnsgd1na2vs0mg"},{"bike_id":"6241374e-73c4-46ec-b8b1-8679025bd407","system_id":"levelo_inurba_marseille","lat":43.27964,"lon":5.39549,"is_reserved":false,"is_disabled":false,"rental_uris":{"android":"levelo://app?vid=6241374e-73c4-46ec-b8b1-8679025bd407","ios":"levelo://app?vid=6241374e-73c4-46ec-b8b1-8679025bd407"},"vehicle_type_id":"4","last_reported":1783366867,"current_range_meters":4000,"station_id":"","pricing_plan_id":"cebpf4jnsgd1na2vs0mg"},{"bike_id":"b8fbb99f-d86b-4eee-80fd-cbbbb31e476d","system_id":"levelo_inurba_marseille","lat":43.28443,"lon":5.39198,"is_reserved":false,"is_disabled":false,"rental_uris":{"android":"levelo://app?vid=b8fbb99f-d86b-4eee-80fd-cbbbb31e476d","ios":"levelo://app?vid=b8fbb99f-d86b-4eee-80fd-cbbbb31e476d"},"vehicle_type_id":"4","last_reported":1783366867,"current_range_meters":4000,"station_id":"ce4bhoh2rcd13ifvqh5g","pricing_plan_id":"cebpf4jnsgd1na2vs0mg"},{"bike_id":"121fd4b2-de4a-4aad-a741-15a0e0db795b","system_id":"levelo_inurba_marseille","lat":43.23398,"lon":5.36452,"is_reserved":false,"is_disabled":false,"rental_uris":{"android":"levelo://app?vid=121fd4b2-de4a-4aad-a741-15a0e0db795b","ios":"levelo://app?vid=121fd4b2-de4a-4aad-a741-15a0e0db795b"},"vehicle_type_id":"4","last_reported":1783366867,"current_range_meters":4000,"station_id":"","pricing_plan_id":"cebpf4jnsgd1na2vs0mg"},{"bike_id":"0f4bf674-ba98-4482-b60d-334334901c34","system_id":"levelo_inurba_marseille","lat":43.33151,"lon":5.37759,"is_reserved":false,"is_disabled":false,"rental_uris":{"android":"levelo://app?vid=0f4bf674-ba98-4482-b60d-334334901c34","ios":"levelo://app?vid=0f4bf674-ba98-4482-b60d-334334901c34"},"vehicle_type_id":"4","last_reported":1783366867,"current_range_meters":4000,"station_id":"","pricing_plan_id":"cebpf4jnsgd1na2vs0mg"},{"bike_id":"1a784ee2-5ece-4f21-b142-4543a92b4f1d","system_id":"levelo_inurba_marseille","lat":43.28461,"lon":5.35891,"is_reserved":false,"is_disabled":false,"rental_uris":{"android":"levelo://app?vid=1a784ee2-5ece-4f21-b142-4543a92b4f1d","ios":"levelo://app?vid=1a784ee2-5ece-4f21-b142-4543a92b4f1d"},"vehicle_type_id":"4","last_reported":1783366867,"current_range_meters":4000,"station_id":"ce4bhah2rcd13ifvqei0","pricing_plan_id":"cebpf4jnsgd1na2vs0mg"},{"bike_id":"66296cca-1fb1-4026-b28e-9962b7dd7cfc","system_id":"levelo_inurba_marseille","lat":43.296288,"lon":5.377172,"is_reserved":false,"is_disabled":true,"rental_uris":{"android":"levelo://app?vid=66296cca-1fb1-4026-b28e-9962b7dd7cfc","ios":"levelo://app?vid=66296cca-1fb1-4026-b28e-9962b7dd7cfc"},"vehicle_type_id":"4","last_reported":1783366867,"current_range_meters":4000,"station_id":"ce4bha92rcd13ifvqeh0","pricing_plan_id":"cebpf4jnsgd1na2vs0mg"},{"bike_id":"97adf299-2030-4b0d-a941-a2f79c561a29","system_id":"levelo_inurba_marseille","lat":43.28673,"lon":5.38662,"is_reserved":false,"is_disabled":false,"rental_uris":{"android":"levelo://app?vid=97adf299-2030-4b0d-a941-a2f79c561a29","ios":"levelo://app?vid=97adf299-2030-4b0d-a941-a2f79c561a29"},"vehicle_type_id":"4","last_reported":1783366867,"current_range_meters":4000,"station_id":"ce4bh492rcd13ifvqdug","pricing_plan_id":"cebpf4jnsgd1na2vs0mg"},{"bike_id":"c1c88b11-92f5-437b-85af-b745aa920b32","system_id":"levelo_inurba_marseille","lat":43.26658,"lon":5.38734,"is_reserved":false,"is_disabled":false,"rental_uris":{"android":"levelo://app?vid=c1c88b11-92f5-437b-85af-b745aa920b32","ios":"levelo://app?vid=c1c88b11-92f5-437b-85af-b745aa920b32"},"vehicle_type_id":"4","last_reported":1783366867,"current_range_meters":4000,"station_id":"","pricing_plan_id":"cebpf4jnsgd1na2vs0mg"},{"bike_id":"d09c401f-6b36-445c-9fd9-258220d4c8e4","system_id":"levelo_inurba_marseille","lat":43.31491,"lon":5.37271,"is_reserved":false,"is_disabled":false,"rental_uris":{"android":"levelo://app?vid=d09c401f-6b36-445c-9fd9-258220d4c8e4","ios":"levelo://app?vid=d09c401f-6b36-445c-9fd9-258220d4c8e4"},"vehicle_type_id":"4","last_reported":1783366867,"current_range_meters":4000,"station_id":"ce4bgt12rcd13ifvqcd0","pricing_plan_id":"cebpf4jnsgd1na2vs0mg"},{"bike_id":"e6f09f2a-b8d3-4c0e-9a3f-71cf2936e78e","system_id":"levelo_inurba_marseille","lat":43.28396,"lon":5.37506,"is_reserved":false,"is_disabled":false,"rental_uris":{"android":"levelo://app?vid=e6f09f2a-b8d3-4c0e-9a3f-71cf2936e78e","ios":"levelo://app?vid=e6f09f2a-b8d3-4c0e-9a3f-71cf2936e78e"},"vehicle_type_id":"4","last_reported":1783366867,"current_range_meters":4000,"station_id":"ce4bh412rcd13ifvqds0","pricing_plan_id":"cebpf4jnsgd1na2vs0mg"},{"bike_id":"6561da10-7a09-4fd9-b043-45bdb7ded2ef","system_id":"levelo_inurba_marseille","lat":43.25105,"lon":5.40323,"is_reserved":false,"is_disabled":true,"rental_uris":{"android":"levelo://app?vid=6561da10-7a09-4fd9-b043-45bdb7ded2ef","ios":"levelo://app?vid=6561da10-7a09-4fd9-b043-45bdb7ded2ef"},"vehicle_type_id":"4","last_reported":1783366867,"current_range_meters":4400,"station_id":"ce4bhlh2rcd13ifvqgig","pricing_plan_id":"cebpf4jnsgd1na2vs0mg"},{"bike_id":"3e6c6bce-5072-4983-bf29-cb65bad52ecf","system_id":"levelo_inurba_marseille","lat":43.28151,"lon":5.42633,"is_reserved":false,"is_disabled":false,"rental_uris":{"android":"levelo://app?vid=3e6c6bce-5072-4983-bf29-cb65bad52ecf","ios":"levelo://app?vid=3e6c6bce-5072-4983-bf29-cb65bad52ecf"},"vehicle_type_id":"4","last_reported":1783366867,"current_range_meters":4400,"station_id":"ce4bhnh2rcd13ifvqgug","pricing_plan_id":"cebpf4jnsgd1na2vs0mg"},{"bike_id":"c3d94bf3-19b7-443d-bc75-2bac8eb17cbe","system_id":"levelo_inurba_marseille","lat":43.33134,"lon":5.39822,"is_reserved":false,"is_disabled":false,"rental_uris":{"android":"levelo://app?vid=c3d94bf3-19b7-443d-bc75-2bac8eb17cbe","ios":"levelo://app?vid=c3d94bf3-19b7-443d-bc75-2bac8eb17cbe"},"vehicle_type_id":"4","last_reported":1783366867,"current_range_meters":4400,"station_id":"","pricing_plan_id":"cebpf4jnsgd1na2vs0mg"},{"bike_id":"ba4c6d96-1179-4a18-8142-64de7c8dd090","system_id":"levelo_inurba_marseille","lat":43.28925,"lon":5.36641,"is_reserved":false,"is_disabled":false,"rental_uris":{"android":"levelo://app?vid=ba4c6d96-1179-4a18-8142-64de7c8dd090","ios":"levelo://app?vid=ba4c6d96-1179-4a18-8142-64de7c8dd090"},"vehicle_type_id":"4","last_reported":1783366867,"current_range_meters":4400,"station_id":"ce4bhap2rcd13ifvqek0","pricing_plan_id":"cebpf4jnsgd1na2vs0mg"},{"bike_id":"d5a4aa2d-cb43-47d6-af76-dda19b880491","system_id":"levelo_inurba_marseille","lat":43.28464,"lon":5.48408,"is_reserved":false,"is_disabled":false,"rental_uris":{"android":"levelo://app?vid=d5a4aa2d-cb43-47d6-af76-dda19b880491","ios":"levelo://app?vid=d5a4aa2d-cb43-47d6-af76-dda19b880491"},"vehicle_type_id":"4","last_reported":1783366867,"current_range_meters":4400,"station_id":"st_d3svhcjqgbts73a3dn0g","pricing_plan_id":"cebpf4jnsgd1na2vs0mg"},{"bike_id":"24101c5c-8eb7-4f51-a037-e1fbe9f469c5","system_id":"levelo_inurba_marseille","lat":43.24997,"lon":5.37968,"is_reserved":false,"is_disabled":false,"rental_uris":{"android":"levelo://app?vid=24101c5c-8eb7-4f51-a037-e1fbe9f469c5","ios":"levelo://app?vid=24101c5c-8eb7-4f51-a037-e1fbe9f469c5"},"vehicle_type_id":"4","last_reported":1783366867,"current_range_meters":4400,"station_id":"","pricing_plan_id":"cebpf4jnsgd1na2vs0mg"},{"bike_id":"fa1c5a44-fee1-4582-bdcd-d202fa9baa88","system_id":"levelo_inurba_marseille","lat":43.29065,"lon":5.371592,"is_reserved":false,"is_disabled":false,"rental_uris":{"android":"levelo://app?vid=fa1c5a44-fee1-4582-bdcd-d202fa9baa88","ios":"levelo://app?vid=fa1c5a44-fee1-4582-bdcd-d202fa9baa88"},"vehicle_type_id":"4","last_reported":1783366867,"current_range_meters":4400,"station_id":"ce4bh5p2rcd13ifvqe4g","pricing_plan_id":"cebpf4jnsgd1na2vs0mg"},{"bike_id":"68f15f16-03e7-4500-a627-dad23dd9e9de","system_id":"levelo_inurba_marseille","lat":43.2607,"lon":5.37479,"is_reserved":false,"is_disabled":false,"rental_uris":{"android":"levelo://app?vid=68f15f16-03e7-4500-a627-dad23dd9e9de","ios":"levelo://app?vid=68f15f16-03e7-4500-a627-dad23dd9e9de"},"vehicle_type_id":"4","last_reported":1783366867,"current_range_meters":4400,"station_id":"","pricing_plan_id":"cebpf4jnsgd1na2vs0mg"},{"bike_id":"4508f1bf-b054-47ef-b47b-1a62a4f8a3e9","system_id":"levelo_inurba_marseille","lat":43.22814,"lon":5.3499,"is_reserved":false,"is_disabled":false,"rental_uris":{"android":"levelo://app?vid=4508f1bf-b054-47ef-b47b-1a62a4f8a3e9","ios":"levelo://app?vid=4508f1bf-b054-47ef-b47b-1a62a4f8a3e9"},"vehicle_type_id":"4","last_reported":1783366867,"current_range_meters":4400,"station_id":"","pricing_plan_id":"cebpf4jnsgd1na2vs0mg"},{"bike_id":"94c11373-b797-4d83-84de-362c71cd17bc","system_id":"levelo_inurba_marseille","lat":43.29794,"lon":5.38113,"is_reserved":false,"is_disabled":false,"rental_uris":{"android":"levelo://app?vid=94c11373-b797-4d83-84de-362c71cd17bc","ios":"levelo://app?vid=94c11373-b797-4d83-84de-362c71cd17bc"},"vehicle_type_id":"4","last_reported":1783366867,"current_range_meters":4400,"station_id":"ce4bgip2rcd13ifvqbb0","pricing_plan_id":"cebpf4jnsgd1na2vs0mg"},{"bike_id":"87da481c-7e44-49ce-9617-64ee4bd27ca4","system_id":"levelo_inurba_marseille","lat":43.26399,"lon":5.39886,"is_reserved":false,"is_disabled":false,"rental_uris":{"android":"levelo://app?vid=87da481c-7e44-49ce-9617-64ee4bd27ca4","ios":"levelo://app?vid=87da481c-7e44-49ce-9617-64ee4bd27ca4"},"vehicle_type_id":"4","last_reported":1783366867,"current_range_meters":4400,"station_id":"","pricing_plan_id":"cebpf4jnsgd1na2vs0mg"},{"bike_id":"7c427d21-5ba3-47e9-b621-2ca7d29df3d2","system_id":"levelo_inurba_marseille","lat":43.28629,"lon":5.4438,"is_reserved":false,"is_disabled":false,"rental_uris":{"android":"levelo://app?vid=7c427d21-5ba3-47e9-b621-2ca7d29df3d2","ios":"levelo://app?vid=7c427d21-5ba3-47e9-b621-2ca7d29df3d2"},"vehicle_type_id":"4","last_reported":1783366867,"current_range_meters":4400,"station_id":"","pricing_plan_id":"cebpf4jnsgd1na2vs0mg"},{"bike_id":"311672f9-1d64-4f9c-9d27-732bc5e38bff","system_id":"levelo_inurba_marseille","lat":43.29297,"lon":5.37144,"is_reserved":false,"is_disabled":false,"rental_uris":{"android":"levelo://app?vid=311672f9-1d64-4f9c-9d27-732bc5e38bff","ios":"levelo://app?vid=311672f9-1d64-4f9c-9d27-732bc5e38bff"},"vehicle_type_id":"4","last_reported":1783366867,"current_range_meters":4800,"station_id":"ce4bgh92rcd13ifvqb40","pricing_plan_id":"cebpf4jnsgd1na2vs0mg"},{"bike_id":"fff6250b-43c6-49a4-86df-1a4ad13c407f","system_id":"levelo_inurba_marseille","lat":43.27365,"lon":5.36254,"is_reserved":false,"is_disabled":true,"rental_uris":{"android":"levelo://app?vid=fff6250b-43c6-49a4-86df-1a4ad13c407f","ios":"levelo://app?vid=fff6250b-43c6-49a4-86df-1a4ad13c407f"},"vehicle_type_id":"4","last_reported":1783366867,"current_range_meters":4800,"station_id":"ce4bhbh2rcd13ifvqeo0","pricing_plan_id":"cebpf4jnsgd1na2vs0mg"},{"bike_id":"aa5d8214-0026-487e-9a56-7cf88ff50400","system_id":"levelo_inurba_marseille","lat":43.32289,"lon":5.38271,"is_reserved":false,"is_disabled":false,"rental_uris":{"android":"levelo://app?vid=aa5d8214-0026-487e-9a56-7cf88ff50400","ios":"levelo://app?vid=aa5d8214-0026-487e-9a56-7cf88ff50400"},"vehicle_type_id":"4","last_reported":1783366867,"current_range_meters":4800,"station_id":"ce4bhr12rcd13ifvqhqg","pricing_plan_id":"cebpf4jnsgd1na2vs0mg"},{"bike_id":"c223056a-cee4-44b0-b411-9e874d6d5516","system_id":"levelo_inurba_marseille","lat":43.29481,"lon":5.39929,"is_reserved":false,"is_disabled":false,"rental_uris":{"android":"levelo://app?vid=c223056a-cee4-44b0-b411-9e874d6d5516","ios":"levelo://app?vid=c223056a-cee4-44b0-b411-9e874d6d5516"},"vehicle_type_id":"4","last_reported":1783366867,"current_range_meters":4800,"station_id":"","pricing_plan_id":"cebpf4jnsgd1na2vs0mg"},{"bike_id":"1b3387d5-b042-4c75-9dea-b2f5bf6f53d4","system_id":"levelo_inurba_marseille","lat":43.24179,"lon":5.39718,"is_reserved":false,"is_disabled":true,"rental_uris":{"android":"levelo://app?vid=1b3387d5-b042-4c75-9dea-b2f5bf6f53d4","ios":"levelo://app?vid=1b3387d5-b042-4c75-9dea-b2f5bf6f53d4"},"vehicle_type_id":"4","last_reported":1783366867,"current_range_meters":4800,"station_id":"ce4bhn12rcd13ifvqgpg","pricing_plan_id":"cebpf4jnsgd1na2vs0mg"},{"bike_id":"e85b927b-b99f-4cd1-b380-85d2c5279eef","system_id":"levelo_inurba_marseille","lat":43.2925,"lon":5.38444,"is_reserved":false,"is_disabled":false,"rental_uris":{"android":"levelo://app?vid=e85b927b-b99f-4cd1-b380-85d2c5279eef","ios":"levelo://app?vid=e85b927b-b99f-4cd1-b380-85d2c5279eef"},"vehicle_type_id":"4","last_reported":1783366867,"current_range_meters":4800,"station_id":"ce4bh692rcd13ifvqea0","pricing_plan_id":"cebpf4jnsgd1na2vs0mg"},{"bike_id":"2ae51ed9-4d75-4efa-8296-a3e6cfae03a2","system_id":"levelo_inurba_marseille","lat":43.29207,"lon":5.40592,"is_reserved":false,"is_disabled":false,"rental_uris":{"android":"levelo://app?vid=2ae51ed9-4d75-4efa-8296-a3e6cfae03a2","ios":"levelo://app?vid=2ae51ed9-4d75-4efa-8296-a3e6cfae03a2"},"vehicle_type_id":"4","last_reported":1783366867,"current_range_meters":4800,"station_id":"","pricing_plan_id":"cebpf4jnsgd1na2vs0mg"},{"bike_id":"20caa1fc-06d5-4252-9f45-594b25108b35","system_id":"levelo_inurba_marseille","lat":43.28486,"lon":5.4839,"is_reserved":false,"is_disabled":false,"rental_uris":{"android":"levelo://app?vid=20caa1fc-06d5-4252-9f45-594b25108b35","ios":"levelo://app?vid=20caa1fc-06d5-4252-9f45-594b25108b35"},"vehicle_type_id":"4","last_reported":1783366867,"current_range_meters":4800,"station_id":"st_d3svhcjqgbts73a3dn0g","pricing_plan_id":"cebpf4jnsgd1na2vs0mg"},{"bike_id":"c24b0d68-14d9-44af-8b0c-35f8569c6d0c","system_id":"levelo_inurba_marseille","lat":43.28474,"lon":5.38557,"is_reserved":false,"is_disabled":true,"rental_uris":{"android":"levelo://app?vid=c24b0d68-14d9-44af-8b0c-35f8569c6d0c","ios":"levelo://app?vid=c24b0d68-14d9-44af-8b0c-35f8569c6d0c"},"vehicle_type_id":"4","last_reported":1783366867,"current_range_meters":4800,"station_id":"ce4bh8p2rcd13ifvqeb0","pricing_plan_id":"cebpf4jnsgd1na2vs0mg"},{"bike_id":"43bfa63d-cf49-4079-9d64-907bf1dc7526","system_id":"levelo_inurba_marseille","lat":43.2887,"lon":5.36659,"is_reserved":false,"is_disabled":false,"rental_uris":{"android":"levelo://app?vid=43bfa63d-cf49-4079-9d64-907bf1dc7526","ios":"levelo://app?vid=43bfa63d-cf49-4079-9d64-907bf1dc7526"},"vehicle_type_id":"4","last_reported":1783366867,"current_range_meters":4800,"station_id":"","pricing_plan_id":"cebpf4jnsgd1na2vs0mg"},{"bike_id":"5d8ae476-a0f0-4308-9aeb-9084905e683d","system_id":"levelo_inurba_marseille","lat":43.29707,"lon":5.36613,"is_reserved":false,"is_disabled":false,"rental_uris":{"android":"levelo://app?vid=5d8ae476-a0f0-4308-9aeb-9084905e683d","ios":"levelo://app?vid=5d8ae476-a0f0-4308-9aeb-9084905e683d"},"vehicle_type_id":"4","last_reported":1783366867,"current_range_meters":4800,"station_id":"ce4bgn12rcd13ifvqbt0","pricing_plan_id":"cebpf4jnsgd1na2vs0mg"},{"bike_id":"66b1d859-efa4-4718-b20e-7f50856236e0","system_id":"levelo_inurba_marseille","lat":43.29534,"lon":5.38542,"is_reserved":false,"is_disabled":false,"rental_uris":{"android":"levelo://app?vid=66b1d859-efa4-4718-b20e-7f50856236e0","ios":"levelo://app?vid=66b1d859-efa4-4718-b20e-7f50856236e0"},"vehicle_type_id":"4","last_reported":1783366867,"current_range_meters":4800,"station_id":"ce4bgih2rcd13ifvqba0","pricing_plan_id":"cebpf4jnsgd1na2vs0mg"},{"bike_id":"576e7064-ba12-4855-ba96-f96bc4a8634e","system_id":"levelo_inurba_marseille","lat":43.23178,"lon":5.39997,"is_reserved":false,"is_disabled":false,"rental_uris":{"android":"levelo://app?vid=576e7064-ba12-4855-ba96-f96bc4a8634e","ios":"levelo://app?vid=576e7064-ba12-4855-ba96-f96bc4a8634e"},"vehicle_type_id":"4","last_reported":1783366867,"current_range_meters":4800,"station_id":"ce4bhn12rcd13ifvqgqg","pricing_plan_id":"cebpf4jnsgd1na2vs0mg"},{"bike_id":"d2974c90-490a-4ce0-82b2-9802a308be0c","system_id":"levelo_inurba_marseille","lat":43.28713,"lon":5.39969,"is_reserved":false,"is_disabled":true,"rental_uris":{"android":"levelo://app?vid=d2974c90-490a-4ce0-82b2-9802a308be0c","ios":"levelo://app?vid=d2974c90-490a-4ce0-82b2-9802a308be0c"},"vehicle_type_id":"4","last_reported":1783366867,"current_range_meters":4800,"station_id":"ce4bho92rcd13ifvqh3g","pricing_plan_id":"cebpf4jnsgd1na2vs0mg"},{"bike_id":"d0a0bbf6-38fc-4522-9194-0862de6eee0c","system_id":"levelo_inurba_marseille","lat":43.29372,"lon":5.37839,"is_reserved":false,"is_disabled":false,"rental_uris":{"android":"levelo://app?vid=d0a0bbf6-38fc-4522-9194-0862de6eee0c","ios":"levelo://app?vid=d0a0bbf6-38fc-4522-9194-0862de6eee0c"},"vehicle_type_id":"4","last_reported":1783366867,"current_range_meters":4800,"station_id":"ce4bgjh2rcd13ifvqbf0","pricing_plan_id":"cebpf4jnsgd1na2vs0mg"},{"bike_id":"d9fa5dbe-9eca-4210-ba2d-c3f22c1954c9","system_id":"levelo_inurba_marseille","lat":43.28114,"lon":5.37822,"is_reserved":false,"is_disabled":false,"rental_uris":{"android":"levelo://app?vid=d9fa5dbe-9eca-4210-ba2d-c3f22c1954c9","ios":"levelo://app?vid=d9fa5dbe-9eca-4210-ba2d-c3f22c1954c9"},"vehicle_type_id":"4","last_reported":1783366867,"current_range_meters":4800,"station_id":"ce4bha12rcd13ifvqee0","pricing_plan_id":"cebpf4jnsgd1na2vs0mg"},{"bike_id":"4dfc7bb9-cc55-431a-a4d9-7079b3f6aeaf","system_id":"levelo_inurba_marseille","lat":43.249979,"lon":5.389272,"is_reserved":false,"is_disabled":false,"rental_uris":{"android":"levelo://app?vid=4dfc7bb9-cc55-431a-a4d9-7079b3f6aeaf","ios":"levelo://app?vid=4dfc7bb9-cc55-431a-a4d9-7079b3f6aeaf"},"vehicle_type_id":"4","last_reported":1783366867,"current_range_meters":4800,"station_id":"ce4bhgp2rcd13ifvqfd0","pricing_plan_id":"cebpf4jnsgd1na2vs0mg"},{"bike_id":"cfbcff4a-8c19-4577-a519-5ad273538f97","system_id":"levelo_inurba_marseille","lat":43.29873,"lon":5.39729,"is_reserved":false,"is_disabled":false,"rental_uris":{"android":"levelo://app?vid=cfbcff4a-8c19-4577-a519-5ad273538f97","ios":"levelo://app?vid=cfbcff4a-8c19-4577-a519-5ad273538f97"},"vehicle_type_id":"4","last_reported":1783366867,"current_range_meters":4800,"station_id":"ce4bh0h2rcd13ifvqd50","pricing_plan_id":"cebpf4jnsgd1na2vs0mg"},{"bike_id":"927f034a-0960-4153-81f1-316c469b9213","system_id":"levelo_inurba_marseille","lat":43.25856,"lon":5.39935,"is_reserved":false,"is_disabled":true,"rental_uris":{"android":"levelo://app?vid=927f034a-0960-4153-81f1-316c469b9213","ios":"levelo://app?vid=927f034a-0960-4153-81f1-316c469b9213"},"vehicle_type_id":"4","last_reported":1783366867,"current_range_meters":4800,"station_id":"ce4bhl92rcd13ifvqghg","pricing_plan_id":"cebpf4jnsgd1na2vs0mg"},{"bike_id":"78632288-cc14-4825-b5fb-7515f68747c6","system_id":"levelo_inurba_marseille","lat":43.30481,"lon":5.37911,"is_reserved":false,"is_disabled":false,"rental_uris":{"android":"levelo://app?vid=78632288-cc14-4825-b5fb-7515f68747c6","ios":"levelo://app?vid=78632288-cc14-4825-b5fb-7515f68747c6"},"vehicle_type_id":"4","last_reported":1783366867,"current_range_meters":4800,"station_id":"ce4bgup2rcd13ifvqcn0","pricing_plan_id":"cebpf4jnsgd1na2vs0mg"},{"bike_id":"3aa33fdc-7e11-4755-b6ca-91c8941abb34","system_id":"levelo_inurba_marseille","lat":43.29527,"lon":5.38535,"is_reserved":false,"is_disabled":false,"rental_uris":{"android":"levelo://app?vid=3aa33fdc-7e11-4755-b6ca-91c8941abb34","ios":"levelo://app?vid=3aa33fdc-7e11-4755-b6ca-91c8941abb34"},"vehicle_type_id":"4","last_reported":1783366867,"current_range_meters":4800,"station_id":"ce4bgih2rcd13ifvqba0","pricing_plan_id":"cebpf4jnsgd1na2vs0mg"},{"bike_id":"e13a64ad-fa2f-4c2f-81b0-7fcb824df2f9","system_id":"levelo_inurba_marseille","lat":43.23964,"lon":5.36635,"is_reserved":false,"is_disabled":false,"rental_uris":{"android":"levelo://app?vid=e13a64ad-fa2f-4c2f-81b0-7fcb824df2f9","ios":"levelo://app?vid=e13a64ad-fa2f-4c2f-81b0-7fcb824df2f9"},"vehicle_type_id":"4","last_reported":1783366867,"current_range_meters":4800,"station_id":"ce4bhi12rcd13ifvqfp0","pricing_plan_id":"cebpf4jnsgd1na2vs0mg"},{"bike_id":"f0418703-7a27-4dca-9433-bdd8213135dc","system_id":"levelo_inurba_marseille","lat":43.21193,"lon":5.35079,"is_reserved":false,"is_disabled":false,"rental_uris":{"android":"levelo://app?vid=f0418703-7a27-4dca-9433-bdd8213135dc","ios":"levelo://app?vid=f0418703-7a27-4dca-9433-bdd8213135dc"},"vehicle_type_id":"4","last_reported":1783366867,"current_range_meters":5600,"station_id":"st_cvj6sg6p6f1abm77japg","pricing_plan_id":"cebpf4jnsgd1na2vs0mg"},{"bike_id":"268860b7-a6e7-4b6e-a857-94d1ec5f8071","system_id":"levelo_inurba_marseille","lat":43.29193,"lon":5.35785,"is_reserved":false,"is_disabled":true,"rental_uris":{"android":"levelo://app?vid=268860b7-a6e7-4b6e-a857-94d1ec5f8071","ios":"levelo://app?vid=268860b7-a6e7-4b6e-a857-94d1ec5f8071"},"vehicle_type_id":"4","last_reported":1783366867,"current_range_meters":5600,"station_id":"ce4bhb12rcd13ifvqel0","pricing_plan_id":"cebpf4jnsgd1na2vs0mg"},{"bike_id":"73721c5f-387f-410f-841c-282e9dcbc948","system_id":"levelo_inurba_marseille","lat":43.28468,"lon":5.3841,"is_reserved":false,"is_disabled":false,"rental_uris":{"android":"levelo://app?vid=73721c5f-387f-410f-841c-282e9dcbc948","ios":"levelo://app?vid=73721c5f-387f-410f-841c-282e9dcbc948"},"vehicle_type_id":"4","last_reported":1783366867,"current_range_meters":5600,"station_id":"ce4bh512rcd13ifvqe3g","pricing_plan_id":"cebpf4jnsgd1na2vs0mg"},{"bike_id":"6584fea4-3aeb-4646-91eb-6103f8071261","system_id":"levelo_inurba_marseille","lat":43.31067,"lon":5.40071,"is_reserved":false,"is_disabled":false,"rental_uris":{"android":"levelo://app?vid=6584fea4-3aeb-4646-91eb-6103f8071261","ios":"levelo://app?vid=6584fea4-3aeb-4646-91eb-6103f8071261"},"vehicle_type_id":"4","last_reported":1783366867,"current_range_meters":5600,"station_id":"","pricing_plan_id":"cebpf4jnsgd1na2vs0mg"},{"bike_id":"fb2e8bd1-8803-4d96-b5e9-5618c029fbea","system_id":"levelo_inurba_marseille","lat":43.28718,"lon":5.37942,"is_reserved":false,"is_disabled":true,"rental_uris":{"android":"levelo://app?vid=fb2e8bd1-8803-4d96-b5e9-5618c029fbea","ios":"levelo://app?vid=fb2e8bd1-8803-4d96-b5e9-5618c029fbea"},"vehicle_type_id":"4","last_reported":1783366867,"current_range_meters":5600,"station_id":"ce4bh9p2rcd13ifvqec0","pricing_plan_id":"cebpf4jnsgd1na2vs0mg"},{"bike_id":"1f4e0174-6452-46ac-a5ad-af3797eee568","system_id":"levelo_inurba_marseille","lat":43.29297,"lon":5.37467,"is_reserved":false,"is_disabled":false,"rental_uris":{"android":"levelo://app?vid=1f4e0174-6452-46ac-a5ad-af3797eee568","ios":"levelo://app?vid=1f4e0174-6452-46ac-a5ad-af3797eee568"},"vehicle_type_id":"4","last_reported":1783366867,"current_range_meters":5600,"station_id":"ce4bgi12rcd13ifvqb70","pricing_plan_id":"cebpf4jnsgd1na2vs0mg"},{"bike_id":"5f8491b7-6afe-4763-8c6d-f7eadff0e4de","system_id":"levelo_inurba_marseille","lat":43.26525,"lon":5.36951,"is_reserved":false,"is_disabled":true,"rental_uris":{"android":"levelo://app?vid=5f8491b7-6afe-4763-8c6d-f7eadff0e4de","ios":"levelo://app?vid=5f8491b7-6afe-4763-8c6d-f7eadff0e4de"},"vehicle_type_id":"4","last_reported":1783366867,"current_range_meters":5600,"station_id":"","pricing_plan_id":"cebpf4jnsgd1na2vs0mg"},{"bike_id":"871f3ed7-a4b0-4e09-9105-27dce2165e99","system_id":"levelo_inurba_marseille","lat":43.29853,"lon":5.38897,"is_reserved":false,"is_disabled":true,"rental_uris":{"android":"levelo://app?vid=871f3ed7-a4b0-4e09-9105-27dce2165e99","ios":"levelo://app?vid=871f3ed7-a4b0-4e09-9105-27dce2165e99"},"vehicle_type_id":"4","last_reported":1783366867,"current_range_meters":5600,"station_id":"ce4bh392rcd13ifvqdl0","pricing_plan_id":"cebpf4jnsgd1na2vs0mg"},{"bike_id":"92a0c0cb-0818-4864-a9ba-8af564118461","system_id":"levelo_inurba_marseille","lat":43.324,"lon":5.37399,"is_reserved":false,"is_disabled":false,"rental_uris":{"android":"levelo://app?vid=92a0c0cb-0818-4864-a9ba-8af564118461","ios":"levelo://app?vid=92a0c0cb-0818-4864-a9ba-8af564118461"},"vehicle_type_id":"4","last_reported":1783366867,"current_range_meters":5600,"station_id":"","pricing_plan_id":"cebpf4jnsgd1na2vs0mg"},{"bike_id":"e9c7bfa8-5874-4f90-ad84-6bece76dfa23","system_id":"levelo_inurba_marseille","lat":43.29402,"lon":5.35929,"is_reserved":false,"is_disabled":false,"rental_uris":{"android":"levelo://app?vid=e9c7bfa8-5874-4f90-ad84-6bece76dfa23","ios":"levelo://app?vid=e9c7bfa8-5874-4f90-ad84-6bece76dfa23"},"vehicle_type_id":"4","last_reported":1783366867,"current_range_meters":5600,"station_id":"","pricing_plan_id":"cebpf4jnsgd1na2vs0mg"},{"bike_id":"c09d7abd-1302-4abc-870c-e8de8b056545","system_id":"levelo_inurba_marseille","lat":43.28409,"lon":5.37534,"is_reserved":false,"is_disabled":false,"rental_uris":{"android":"levelo://app?vid=c09d7abd-1302-4abc-870c-e8de8b056545","ios":"levelo://app?vid=c09d7abd-1302-4abc-870c-e8de8b056545"},"vehicle_type_id":"4","last_reported":1783366867,"current_range_meters":5600,"station_id":"ce4bh412rcd13ifvqds0","pricing_plan_id":"cebpf4jnsgd1na2vs0mg"},{"bike_id":"7a4a7fe2-7b4a-4a18-93f3-1a28ea548359","system_id":"levelo_inurba_marseille","lat":43.29039,"lon":5.37566,"is_reserved":false,"is_disabled":false,"rental_uris":{"android":"levelo://app?vid=7a4a7fe2-7b4a-4a18-93f3-1a28ea548359","ios":"levelo://app?vid=7a4a7fe2-7b4a-4a18-93f3-1a28ea548359"},"vehicle_type_id":"4","last_reported":1783366867,"current_range_meters":5600,"station_id":"ce4bh692rcd13ifvqe90","pricing_plan_id":"cebpf4jnsgd1na2vs0mg"},{"bike_id":"afe9a566-d8c0-4f06-a183-9935532dd6e0","system_id":"levelo_inurba_marseille","lat":43.25267,"lon":5.37515,"is_reserved":false,"is_disabled":false,"rental_uris":{"android":"levelo://app?vid=afe9a566-d8c0-4f06-a183-9935532dd6e0","ios":"levelo://app?vid=afe9a566-d8c0-4f06-a183-9935532dd6e0"},"vehicle_type_id":"4","last_reported":1783366867,"current_range_meters":5600,"station_id":"","pricing_plan_id":"cebpf4jnsgd1na2vs0mg"},{"bike_id":"f094764f-2ddf-4452-be4a-c8029998973a","system_id":"levelo_inurba_marseille","lat":43.26677,"lon":5.39539,"is_reserved":false,"is_disabled":false,"rental_uris":{"android":"levelo://app?vid=f094764f-2ddf-4452-be4a-c8029998973a","ios":"levelo://app?vid=f094764f-2ddf-4452-be4a-c8029998973a"},"vehicle_type_id":"4","last_reported":1783366867,"current_range_meters":5600,"station_id":"","pricing_plan_id":"cebpf4jnsgd1na2vs0mg"},{"bike_id":"a3e9490f-5a0a-4c20-818c-92c869956a89","system_id":"levelo_inurba_marseille","lat":43.25091,"lon":5.395294,"is_reserved":false,"is_disabled":false,"rental_uris":{"android":"levelo://app?vid=a3e9490f-5a0a-4c20-818c-92c869956a89","ios":"levelo://app?vid=a3e9490f-5a0a-4c20-818c-92c869956a89"},"vehicle_type_id":"4","last_reported":1783366867,"current_range_meters":5600,"station_id":"ce4bhm12rcd13ifvqgkg","pricing_plan_id":"cebpf4jnsgd1na2vs0mg"},{"bike_id":"151318e1-1ede-4f1c-8297-71ff21b43437","system_id":"levelo_inurba_marseille","lat":43.28884,"lon":5.37743,"is_reserved":false,"is_disabled":false,"rental_uris":{"android":"levelo://app?vid=151318e1-1ede-4f1c-8297-71ff21b43437","ios":"levelo://app?vid=151318e1-1ede-4f1c-8297-71ff21b43437"},"vehicle_type_id":"4","last_reported":1783366867,"current_range_meters":5600,"station_id":"","pricing_plan_id":"cebpf4jnsgd1na2vs0mg"},{"bike_id":"da995ece-b413-4ae7-8af4-b3e727781c7e","system_id":"levelo_inurba_marseille","lat":43.28494,"lon":5.43698,"is_reserved":false,"is_disabled":false,"rental_uris":{"android":"levelo://app?vid=da995ece-b413-4ae7-8af4-b3e727781c7e","ios":"levelo://app?vid=da995ece-b413-4ae7-8af4-b3e727781c7e"},"vehicle_type_id":"4","last_reported":1783366867,"current_range_meters":5600,"station_id":"","pricing_plan_id":"cebpf4jnsgd1na2vs0mg"},{"bike_id":"5f60167f-6caf-47e0-bceb-88584ade7145","system_id":"levelo_inurba_marseille","lat":43.29293,"lon":5.37168,"is_reserved":false,"is_disabled":false,"rental_uris":{"android":"levelo://app?vid=5f60167f-6caf-47e0-bceb-88584ade7145","ios":"levelo://app?vid=5f60167f-6caf-47e0-bceb-88584ade7145"},"vehicle_type_id":"4","last_reported":1783366867,"current_range_meters":6000,"station_id":"ce4bgh92rcd13ifvqb40","pricing_plan_id":"cebpf4jnsgd1na2vs0mg"},{"bike_id":"85706f81-4982-4276-b755-d4181aa895f9","system_id":"levelo_inurba_marseille","lat":43.28421,"lon":5.38446,"is_reserved":false,"is_disabled":false,"rental_uris":{"android":"levelo://app?vid=85706f81-4982-4276-b755-d4181aa895f9","ios":"levelo://app?vid=85706f81-4982-4276-b755-d4181aa895f9"},"vehicle_type_id":"4","last_reported":1783366867,"current_range_meters":6000,"station_id":"","pricing_plan_id":"cebpf4jnsgd1na2vs0mg"},{"bike_id":"270c8d54-382f-4c26-a411-a00cd804e229","system_id":"levelo_inurba_marseille","lat":43.2926,"lon":5.4092,"is_reserved":false,"is_disabled":false,"rental_uris":{"android":"levelo://app?vid=270c8d54-382f-4c26-a411-a00cd804e229","ios":"levelo://app?vid=270c8d54-382f-4c26-a411-a00cd804e229"},"vehicle_type_id":"4","last_reported":1783366867,"current_range_meters":6000,"station_id":"ce4bh192rcd13ifvqdc0","pricing_plan_id":"cebpf4jnsgd1na2vs0mg"},{"bike_id":"0606406a-c7be-4cfb-949c-43dd0b2d164d","system_id":"levelo_inurba_marseille","lat":43.29021,"lon":5.38124,"is_reserved":false,"is_disabled":false,"rental_uris":{"android":"levelo://app?vid=0606406a-c7be-4cfb-949c-43dd0b2d164d","ios":"levelo://app?vid=0606406a-c7be-4cfb-949c-43dd0b2d164d"},"vehicle_type_id":"4","last_reported":1783366867,"current_range_meters":6000,"station_id":"ce4bh4p2rcd13ifvqe1g","pricing_plan_id":"cebpf4jnsgd1na2vs0mg"},{"bike_id":"9db47c28-d135-4619-b753-4c4fa126f9fd","system_id":"levelo_inurba_marseille","lat":43.29215,"lon":5.36053,"is_reserved":false,"is_disabled":true,"rental_uris":{"android":"levelo://app?vid=9db47c28-d135-4619-b753-4c4fa126f9fd","ios":"levelo://app?vid=9db47c28-d135-4619-b753-4c4fa126f9fd"},"vehicle_type_id":"4","last_reported":1783366867,"current_range_meters":6000,"station_id":"ce4bhbh2rcd13ifvqeqg","pricing_plan_id":"cebpf4jnsgd1na2vs0mg"},{"bike_id":"740e3abb-7a97-4df1-905d-538654b5ac19","system_id":"levelo_inurba_marseille","lat":43.30138,"lon":5.38782,"is_reserved":false,"is_disabled":true,"rental_uris":{"android":"levelo://app?vid=740e3abb-7a97-4df1-905d-538654b5ac19","ios":"levelo://app?vid=740e3abb-7a97-4df1-905d-538654b5ac19"},"vehicle_type_id":"4","last_reported":1783366867,"current_range_meters":6000,"station_id":"ce4bghh2rcd13ifvqb60","pricing_plan_id":"cebpf4jnsgd1na2vs0mg"},{"bike_id":"a76154a9-31bd-4e9f-9783-5211ef53119f","system_id":"levelo_inurba_marseille","lat":43.284623,"lon":5.358829,"is_reserved":false,"is_disabled":false,"rental_uris":{"android":"levelo://app?vid=a76154a9-31bd-4e9f-9783-5211ef53119f","ios":"levelo://app?vid=a76154a9-31bd-4e9f-9783-5211ef53119f"},"vehicle_type_id":"4","last_reported":1783366867,"current_range_meters":6000,"station_id":"ce4bhah2rcd13ifvqei0","pricing_plan_id":"cebpf4jnsgd1na2vs0mg"},{"bike_id":"ab8b1e49-6aa1-4b8d-8a03-94e3cca0bfa3","system_id":"levelo_inurba_marseille","lat":43.26771,"lon":5.3945,"is_reserved":false,"is_disabled":false,"rental_uris":{"android":"levelo://app?vid=ab8b1e49-6aa1-4b8d-8a03-94e3cca0bfa3","ios":"levelo://app?vid=ab8b1e49-6aa1-4b8d-8a03-94e3cca0bfa3"},"vehicle_type_id":"4","last_reported":1783366867,"current_range_meters":6000,"station_id":"","pricing_plan_id":"cebpf4jnsgd1na2vs0mg"},{"bike_id":"ec2af0c4-368d-42f1-99ce-3cfbdfae1d56","system_id":"levelo_inurba_marseille","lat":43.29387,"lon":5.40238,"is_reserved":false,"is_disabled":false,"rental_uris":{"android":"levelo://app?vid=ec2af0c4-368d-42f1-99ce-3cfbdfae1d56","ios":"levelo://app?vid=ec2af0c4-368d-42f1-99ce-3cfbdfae1d56"},"vehicle_type_id":"4","last_reported":1783366867,"current_range_meters":6000,"station_id":"","pricing_plan_id":"cebpf4jnsgd1na2vs0mg"},{"bike_id":"c7a1e725-280a-4ff8-bf6c-928127e37c70","system_id":"levelo_inurba_marseille","lat":43.29306,"lon":5.37173,"is_reserved":false,"is_disabled":false,"rental_uris":{"android":"levelo://app?vid=c7a1e725-280a-4ff8-bf6c-928127e37c70","ios":"levelo://app?vid=c7a1e725-280a-4ff8-bf6c-928127e37c70"},"vehicle_type_id":"4","last_reported":1783366867,"current_range_meters":6000,"station_id":"ce4bgh92rcd13ifvqb40","pricing_plan_id":"cebpf4jnsgd1na2vs0mg"},{"bike_id":"5a5d3956-d379-45a4-b54f-85cf3b677ea4","system_id":"levelo_inurba_marseille","lat":43.29256,"lon":5.38438,"is_reserved":false,"is_disabled":false,"rental_uris":{"android":"levelo://app?vid=5a5d3956-d379-45a4-b54f-85cf3b677ea4","ios":"levelo://app?vid=5a5d3956-d379-45a4-b54f-85cf3b677ea4"},"vehicle_type_id":"4","last_reported":1783366867,"current_range_meters":6000,"station_id":"ce4bh692rcd13ifvqea0","pricing_plan_id":"cebpf4jnsgd1na2vs0mg"},{"bike_id":"14e98b39-b7a8-4608-8aac-1d8635ff8bf5","system_id":"levelo_inurba_marseille","lat":43.28479,"lon":5.48389,"is_reserved":false,"is_disabled":false,"rental_uris":{"android":"levelo://app?vid=14e98b39-b7a8-4608-8aac-1d8635ff8bf5","ios":"levelo://app?vid=14e98b39-b7a8-4608-8aac-1d8635ff8bf5"},"vehicle_type_id":"4","last_reported":1783366867,"current_range_meters":6000,"station_id":"st_d3svhcjqgbts73a3dn0g","pricing_plan_id":"cebpf4jnsgd1na2vs0mg"},{"bike_id":"a2359cf1-4343-4d54-aa51-d6e5cbb23186","system_id":"levelo_inurba_marseille","lat":43.23414,"lon":5.36441,"is_reserved":false,"is_disabled":false,"rental_uris":{"android":"levelo://app?vid=a2359cf1-4343-4d54-aa51-d6e5cbb23186","ios":"levelo://app?vid=a2359cf1-4343-4d54-aa51-d6e5cbb23186"},"vehicle_type_id":"4","last_reported":1783366867,"current_range_meters":6000,"station_id":"","pricing_plan_id":"cebpf4jnsgd1na2vs0mg"},{"bike_id":"72db5589-dfd0-442a-904d-e9c5bdcd1d4f","system_id":"levelo_inurba_marseille","lat":43.3163,"lon":5.37931,"is_reserved":false,"is_disabled":false,"rental_uris":{"android":"levelo://app?vid=72db5589-dfd0-442a-904d-e9c5bdcd1d4f","ios":"levelo://app?vid=72db5589-dfd0-442a-904d-e9c5bdcd1d4f"},"vehicle_type_id":"4","last_reported":1783366867,"current_range_meters":6400,"station_id":"","pricing_plan_id":"cebpf4jnsgd1na2vs0mg"},{"bike_id":"024af0f2-a411-452f-aa96-12e26b2996d9","system_id":"levelo_inurba_marseille","lat":43.29208,"lon":5.36073,"is_reserved":false,"is_disabled":false,"rental_uris":{"android":"levelo://app?vid=024af0f2-a411-452f-aa96-12e26b2996d9","ios":"levelo://app?vid=024af0f2-a411-452f-aa96-12e26b2996d9"},"vehicle_type_id":"4","last_reported":1783366867,"current_range_meters":6400,"station_id":"ce4bhbh2rcd13ifvqeqg","pricing_plan_id":"cebpf4jnsgd1na2vs0mg"},{"bike_id":"df8ce680-348e-47d0-92ea-a06487739a15","system_id":"levelo_inurba_marseille","lat":43.30056,"lon":5.38311,"is_reserved":false,"is_disabled":false,"rental_uris":{"android":"levelo://app?vid=df8ce680-348e-47d0-92ea-a06487739a15","ios":"levelo://app?vid=df8ce680-348e-47d0-92ea-a06487739a15"},"vehicle_type_id":"4","last_reported":1783366867,"current_range_meters":6400,"station_id":"","pricing_plan_id":"cebpf4jnsgd1na2vs0mg"},{"bike_id":"4bb72506-4f3b-4ca7-992e-20cc9c7bb1d6","system_id":"levelo_inurba_marseille","lat":43.24712,"lon":5.41742,"is_reserved":false,"is_disabled":false,"rental_uris":{"android":"levelo://app?vid=4bb72506-4f3b-4ca7-992e-20cc9c7bb1d6","ios":"levelo://app?vid=4bb72506-4f3b-4ca7-992e-20cc9c7bb1d6"},"vehicle_type_id":"4","last_reported":1783366867,"current_range_meters":6400,"station_id":"","pricing_plan_id":"cebpf4jnsgd1na2vs0mg"},{"bike_id":"02a697e1-e5b2-4327-98ae-ef22d66476ef","system_id":"levelo_inurba_marseille","lat":43.2861,"lon":5.35108,"is_reserved":false,"is_disabled":false,"rental_uris":{"android":"levelo://app?vid=02a697e1-e5b2-4327-98ae-ef22d66476ef","ios":"levelo://app?vid=02a697e1-e5b2-4327-98ae-ef22d66476ef"},"vehicle_type_id":"4","last_reported":1783366867,"current_range_meters":6400,"station_id":"ce4bhch2rcd13ifvqeug","pricing_plan_id":"cebpf4jnsgd1na2vs0mg"},{"bike_id":"1726d1ab-e397-4f5e-a317-e6343838f1e7","system_id":"levelo_inurba_marseille","lat":43.29525,"lon":5.38539,"is_reserved":false,"is_disabled":false,"rental_uris":{"android":"levelo://app?vid=1726d1ab-e397-4f5e-a317-e6343838f1e7","ios":"levelo://app?vid=1726d1ab-e397-4f5e-a317-e6343838f1e7"},"vehicle_type_id":"4","last_reported":1783366867,"current_range_meters":6400,"station_id":"ce4bgih2rcd13ifvqba0","pricing_plan_id":"cebpf4jnsgd1na2vs0mg"},{"bike_id":"773f950c-1a37-4f11-85a7-7cbf338fd285","system_id":"levelo_inurba_marseille","lat":43.24948,"lon":5.40485,"is_reserved":false,"is_disabled":false,"rental_uris":{"android":"levelo://app?vid=773f950c-1a37-4f11-85a7-7cbf338fd285","ios":"levelo://app?vid=773f950c-1a37-4f11-85a7-7cbf338fd285"},"vehicle_type_id":"4","last_reported":1783366867,"current_range_meters":6400,"station_id":"st_d2ngiaodas8pm72gd1h0","pricing_plan_id":"cebpf4jnsgd1na2vs0mg"},{"bike_id":"8106ca99-f827-40dd-90a5-a5e8ac3a1d30","system_id":"levelo_inurba_marseille","lat":43.28497,"lon":5.48374,"is_reserved":false,"is_disabled":false,"rental_uris":{"android":"levelo://app?vid=8106ca99-f827-40dd-90a5-a5e8ac3a1d30","ios":"levelo://app?vid=8106ca99-f827-40dd-90a5-a5e8ac3a1d30"},"vehicle_type_id":"4","last_reported":1783366867,"current_range_meters":6400,"station_id":"st_d3svhcjqgbts73a3dn0g","pricing_plan_id":"cebpf4jnsgd1na2vs0mg"},{"bike_id":"7f78b261-125c-4bca-9776-bae310a654d4","system_id":"levelo_inurba_marseille","lat":43.26203,"lon":5.3745,"is_reserved":false,"is_disabled":false,"rental_uris":{"android":"levelo://app?vid=7f78b261-125c-4bca-9776-bae310a654d4","ios":"levelo://app?vid=7f78b261-125c-4bca-9776-bae310a654d4"},"vehicle_type_id":"4","last_reported":1783366867,"current_range_meters":6400,"station_id":"ce4bhgp2rcd13ifvqfc0","pricing_plan_id":"cebpf4jnsgd1na2vs0mg"},{"bike_id":"2361af77-a100-433a-ae8c-fac4e1ee0b95","system_id":"levelo_inurba_marseille","lat":43.23045,"lon":5.35501,"is_reserved":false,"is_disabled":false,"rental_uris":{"android":"levelo://app?vid=2361af77-a100-433a-ae8c-fac4e1ee0b95","ios":"levelo://app?vid=2361af77-a100-433a-ae8c-fac4e1ee0b95"},"vehicle_type_id":"4","last_reported":1783366867,"current_range_meters":6400,"station_id":"cpo3342slgdg3j2ifvpg","pricing_plan_id":"cebpf4jnsgd1na2vs0mg"},{"bike_id":"faae4998-2660-4cc6-a836-6400055fc88a","system_id":"levelo_inurba_marseille","lat":43.29853,"lon":5.36297,"is_reserved":false,"is_disabled":true,"rental_uris":{"android":"levelo://app?vid=faae4998-2660-4cc6-a836-6400055fc88a","ios":"levelo://app?vid=faae4998-2660-4cc6-a836-6400055fc88a"},"vehicle_type_id":"4","last_reported":1783366867,"current_range_meters":6400,"station_id":"ce4bgpp2rcd13ifvqc3g","pricing_plan_id":"cebpf4jnsgd1na2vs0mg"},{"bike_id":"46468b74-5455-42c1-b355-213b9be4a89c","system_id":"levelo_inurba_marseille","lat":43.22535,"lon":5.34826,"is_reserved":false,"is_disabled":false,"rental_uris":{"android":"levelo://app?vid=46468b74-5455-42c1-b355-213b9be4a89c","ios":"levelo://app?vid=46468b74-5455-42c1-b355-213b9be4a89c"},"vehicle_type_id":"4","last_reported":1783366867,"current_range_meters":6400,"station_id":"st_cvj5dfep6f1abm77gieg","pricing_plan_id":"cebpf4jnsgd1na2vs0mg"},{"bike_id":"ea16089c-5e8a-4202-9073-6896ebaaa857","system_id":"levelo_inurba_marseille","lat":43.28105,"lon":5.37851,"is_reserved":false,"is_disabled":false,"rental_uris":{"android":"levelo://app?vid=ea16089c-5e8a-4202-9073-6896ebaaa857","ios":"levelo://app?vid=ea16089c-5e8a-4202-9073-6896ebaaa857"},"vehicle_type_id":"4","last_reported":1783366867,"current_range_meters":6400,"station_id":"ce4bha12rcd13ifvqee0","pricing_plan_id":"cebpf4jnsgd1na2vs0mg"},{"bike_id":"a61b180c-0c09-461e-b25d-cc270c23bef9","system_id":"levelo_inurba_marseille","lat":43.28662,"lon":5.38694,"is_reserved":false,"is_disabled":false,"rental_uris":{"android":"levelo://app?vid=a61b180c-0c09-461e-b25d-cc270c23bef9","ios":"levelo://app?vid=a61b180c-0c09-461e-b25d-cc270c23bef9"},"vehicle_type_id":"4","last_reported":1783366867,"current_range_meters":6400,"station_id":"ce4bh492rcd13ifvqdug","pricing_plan_id":"cebpf4jnsgd1na2vs0mg"},{"bike_id":"70b46194-6046-409c-a43f-2491a66cf9f7","system_id":"levelo_inurba_marseille","lat":43.2826,"lon":5.35068,"is_reserved":false,"is_disabled":false,"rental_uris":{"android":"levelo://app?vid=70b46194-6046-409c-a43f-2491a66cf9f7","ios":"levelo://app?vid=70b46194-6046-409c-a43f-2491a66cf9f7"},"vehicle_type_id":"4","last_reported":1783366867,"current_range_meters":6400,"station_id":"ce4bhbp2rcd13ifvqerg","pricing_plan_id":"cebpf4jnsgd1na2vs0mg"},{"bike_id":"7678e258-73ee-4d26-8d86-8beb357c78a0","system_id":"levelo_inurba_marseille","lat":43.2435,"lon":5.40581,"is_reserved":false,"is_disabled":false,"rental_uris":{"android":"levelo://app?vid=7678e258-73ee-4d26-8d86-8beb357c78a0","ios":"levelo://app?vid=7678e258-73ee-4d26-8d86-8beb357c78a0"},"vehicle_type_id":"4","last_reported":1783366867,"current_range_meters":6400,"station_id":"","pricing_plan_id":"cebpf4jnsgd1na2vs0mg"},{"bike_id":"26742064-5692-4199-aabb-3e7db839142a","system_id":"levelo_inurba_marseille","lat":43.27492,"lon":5.42446,"is_reserved":false,"is_disabled":false,"rental_uris":{"android":"levelo://app?vid=26742064-5692-4199-aabb-3e7db839142a","ios":"levelo://app?vid=26742064-5692-4199-aabb-3e7db839142a"},"vehicle_type_id":"4","last_reported":1783366867,"current_range_meters":6400,"station_id":"ce4bhn92rcd13ifvqgrg","pricing_plan_id":"cebpf4jnsgd1na2vs0mg"},{"bike_id":"0b5fa059-2a5d-42c8-ba4b-d3a77217ba17","system_id":"levelo_inurba_marseille","lat":43.29211,"lon":5.36065,"is_reserved":false,"is_disabled":false,"rental_uris":{"android":"levelo://app?vid=0b5fa059-2a5d-42c8-ba4b-d3a77217ba17","ios":"levelo://app?vid=0b5fa059-2a5d-42c8-ba4b-d3a77217ba17"},"vehicle_type_id":"4","last_reported":1783366867,"current_range_meters":6400,"station_id":"ce4bhbh2rcd13ifvqeqg","pricing_plan_id":"cebpf4jnsgd1na2vs0mg"},{"bike_id":"e490c445-2a81-47d0-b9ac-9e81669d9f6c","system_id":"levelo_inurba_marseille","lat":43.30144,"lon":5.38771,"is_reserved":false,"is_disabled":false,"rental_uris":{"android":"levelo://app?vid=e490c445-2a81-47d0-b9ac-9e81669d9f6c","ios":"levelo://app?vid=e490c445-2a81-47d0-b9ac-9e81669d9f6c"},"vehicle_type_id":"4","last_reported":1783366867,"current_range_meters":6400,"station_id":"ce4bghh2rcd13ifvqb60","pricing_plan_id":"cebpf4jnsgd1na2vs0mg"},{"bike_id":"d7c33e32-1bf6-466d-abaf-8816e2645afe","system_id":"levelo_inurba_marseille","lat":43.31906,"lon":5.40718,"is_reserved":false,"is_disabled":true,"rental_uris":{"android":"levelo://app?vid=d7c33e32-1bf6-466d-abaf-8816e2645afe","ios":"levelo://app?vid=d7c33e32-1bf6-466d-abaf-8816e2645afe"},"vehicle_type_id":"4","last_reported":1783366867,"current_range_meters":6800,"station_id":"ce4bhq12rcd13ifvqhig","pricing_plan_id":"cebpf4jnsgd1na2vs0mg"},{"bike_id":"4b030e34-8697-41cc-a2b7-60a40f2af919","system_id":"levelo_inurba_marseille","lat":43.28397,"lon":5.37521,"is_reserved":false,"is_disabled":false,"rental_uris":{"android":"levelo://app?vid=4b030e34-8697-41cc-a2b7-60a40f2af919","ios":"levelo://app?vid=4b030e34-8697-41cc-a2b7-60a40f2af919"},"vehicle_type_id":"4","last_reported":1783366867,"current_range_meters":6800,"station_id":"ce4bh412rcd13ifvqds0","pricing_plan_id":"cebpf4jnsgd1na2vs0mg"},{"bike_id":"7fb54030-81c0-4653-ab50-a6e69be8636f","system_id":"levelo_inurba_marseille","lat":43.26042,"lon":5.37474,"is_reserved":false,"is_disabled":true,"rental_uris":{"android":"levelo://app?vid=7fb54030-81c0-4653-ab50-a6e69be8636f","ios":"levelo://app?vid=7fb54030-81c0-4653-ab50-a6e69be8636f"},"vehicle_type_id":"4","last_reported":1783366867,"current_range_meters":6800,"station_id":"ce4bhgh2rcd13ifvqfa0","pricing_plan_id":"cebpf4jnsgd1na2vs0mg"},{"bike_id":"efce0065-4524-417a-a35d-e4c1a8a9f922","system_id":"levelo_inurba_marseille","lat":43.28226,"lon":5.34896,"is_reserved":false,"is_disabled":false,"rental_uris":{"android":"levelo://app?vid=efce0065-4524-417a-a35d-e4c1a8a9f922","ios":"levelo://app?vid=efce0065-4524-417a-a35d-e4c1a8a9f922"},"vehicle_type_id":"4","last_reported":1783366867,"current_range_meters":6800,"station_id":"","pricing_plan_id":"cebpf4jnsgd1na2vs0mg"},{"bike_id":"73384978-e53a-4abb-9169-983ff46c2a11","system_id":"levelo_inurba_marseille","lat":43.28584,"lon":5.3901,"is_reserved":false,"is_disabled":false,"rental_uris":{"android":"levelo://app?vid=73384978-e53a-4abb-9169-983ff46c2a11","ios":"levelo://app?vid=73384978-e53a-4abb-9169-983ff46c2a11"},"vehicle_type_id":"4","last_reported":1783366867,"current_range_meters":6800,"station_id":"","pricing_plan_id":"cebpf4jnsgd1na2vs0mg"},{"bike_id":"4b71ea7a-3ffc-4ca2-a5b0-91fcaaf1579c","system_id":"levelo_inurba_marseille","lat":43.30337,"lon":5.38257,"is_reserved":false,"is_disabled":false,"rental_uris":{"android":"levelo://app?vid=4b71ea7a-3ffc-4ca2-a5b0-91fcaaf1579c","ios":"levelo://app?vid=4b71ea7a-3ffc-4ca2-a5b0-91fcaaf1579c"},"vehicle_type_id":"4","last_reported":1783366867,"current_range_meters":6800,"station_id":"","pricing_plan_id":"cebpf4jnsgd1na2vs0mg"},{"bike_id":"f1fa67ea-70e8-494e-90f1-3cd8a54e2aac","system_id":"levelo_inurba_marseille","lat":43.2828,"lon":5.35064,"is_reserved":false,"is_disabled":true,"rental_uris":{"android":"levelo://app?vid=f1fa67ea-70e8-494e-90f1-3cd8a54e2aac","ios":"levelo://app?vid=f1fa67ea-70e8-494e-90f1-3cd8a54e2aac"},"vehicle_type_id":"4","last_reported":1783366867,"current_range_meters":6800,"station_id":"ce4bhbp2rcd13ifvqerg","pricing_plan_id":"cebpf4jnsgd1na2vs0mg"},{"bike_id":"1b38264d-b828-4294-b072-9ccc46169fbe","system_id":"levelo_inurba_marseille","lat":43.31074,"lon":5.43765,"is_reserved":false,"is_disabled":false,"rental_uris":{"android":"levelo://app?vid=1b38264d-b828-4294-b072-9ccc46169fbe","ios":"levelo://app?vid=1b38264d-b828-4294-b072-9ccc46169fbe"},"vehicle_type_id":"4","last_reported":1783366867,"current_range_meters":6800,"station_id":"","pricing_plan_id":"cebpf4jnsgd1na2vs0mg"},{"bike_id":"5c27c21d-e49d-4272-89f4-b58751c04dc1","system_id":"levelo_inurba_marseille","lat":43.23434,"lon":5.38149,"is_reserved":false,"is_disabled":false,"rental_uris":{"android":"levelo://app?vid=5c27c21d-e49d-4272-89f4-b58751c04dc1","ios":"levelo://app?vid=5c27c21d-e49d-4272-89f4-b58751c04dc1"},"vehicle_type_id":"4","last_reported":1783366867,"current_range_meters":6800,"station_id":"","pricing_plan_id":"cebpf4jnsgd1na2vs0mg"},{"bike_id":"10eef851-cd11-4897-8f5c-5346e97e8cbe","system_id":"levelo_inurba_marseille","lat":43.23893,"lon":5.37436,"is_reserved":false,"is_disabled":false,"rental_uris":{"android":"levelo://app?vid=10eef851-cd11-4897-8f5c-5346e97e8cbe","ios":"levelo://app?vid=10eef851-cd11-4897-8f5c-5346e97e8cbe"},"vehicle_type_id":"4","last_reported":1783366867,"current_range_meters":6800,"station_id":"st_d6sm7csbq4hs73f8fpjg","pricing_plan_id":"cebpf4jnsgd1na2vs0mg"},{"bike_id":"700367e5-6c87-4c9d-b09c-2b54e001a8c5","system_id":"levelo_inurba_marseille","lat":43.29219,"lon":5.36047,"is_reserved":false,"is_disabled":true,"rental_uris":{"android":"levelo://app?vid=700367e5-6c87-4c9d-b09c-2b54e001a8c5","ios":"levelo://app?vid=700367e5-6c87-4c9d-b09c-2b54e001a8c5"},"vehicle_type_id":"4","last_reported":1783366867,"current_range_meters":6800,"station_id":"ce4bhbh2rcd13ifvqeqg","pricing_plan_id":"cebpf4jnsgd1na2vs0mg"},{"bike_id":"8a4af8c4-2774-4e13-bdc0-c1e27b92eb1f","system_id":"levelo_inurba_marseille","lat":43.25492,"lon":5.37647,"is_reserved":false,"is_disabled":false,"rental_uris":{"android":"levelo://app?vid=8a4af8c4-2774-4e13-bdc0-c1e27b92eb1f","ios":"levelo://app?vid=8a4af8c4-2774-4e13-bdc0-c1e27b92eb1f"},"vehicle_type_id":"4","last_reported":1783366867,"current_range_meters":6800,"station_id":"ce4bhh12rcd13ifvqff0","pricing_plan_id":"cebpf4jnsgd1na2vs0mg"},{"bike_id":"3112c030-03e7-4ad3-a895-94002cb7d5c7","system_id":"levelo_inurba_marseille","lat":43.23955,"lon":5.36652,"is_reserved":false,"is_disabled":true,"rental_uris":{"android":"levelo://app?vid=3112c030-03e7-4ad3-a895-94002cb7d5c7","ios":"levelo://app?vid=3112c030-03e7-4ad3-a895-94002cb7d5c7"},"vehicle_type_id":"4","last_reported":1783366867,"current_range_meters":6800,"station_id":"ce4bhi12rcd13ifvqfp0","pricing_plan_id":"cebpf4jnsgd1na2vs0mg"},{"bike_id":"4014f91a-ee33-44ef-b529-b234e9656f9c","system_id":"levelo_inurba_marseille","lat":43.26983,"lon":5.40599,"is_reserved":false,"is_disabled":false,"rental_uris":{"android":"levelo://app?vid=4014f91a-ee33-44ef-b529-b234e9656f9c","ios":"levelo://app?vid=4014f91a-ee33-44ef-b529-b234e9656f9c"},"vehicle_type_id":"4","last_reported":1783366867,"current_range_meters":6800,"station_id":"","pricing_plan_id":"cebpf4jnsgd1na2vs0mg"},{"bike_id":"e509462a-e46e-42ad-a0af-98b393921cba","system_id":"levelo_inurba_marseille","lat":43.28409,"lon":5.3499,"is_reserved":false,"is_disabled":false,"rental_uris":{"android":"levelo://app?vid=e509462a-e46e-42ad-a0af-98b393921cba","ios":"levelo://app?vid=e509462a-e46e-42ad-a0af-98b393921cba"},"vehicle_type_id":"4","last_reported":1783366867,"current_range_meters":6800,"station_id":"ce4bhbh2rcd13ifvqepg","pricing_plan_id":"cebpf4jnsgd1na2vs0mg"},{"bike_id":"855e7a9f-7fac-43b2-bcad-28b5bd4fe663","system_id":"levelo_inurba_marseille","lat":43.28416,"lon":5.34994,"is_reserved":false,"is_disabled":false,"rental_uris":{"android":"levelo://app?vid=855e7a9f-7fac-43b2-bcad-28b5bd4fe663","ios":"levelo://app?vid=855e7a9f-7fac-43b2-bcad-28b5bd4fe663"},"vehicle_type_id":"4","last_reported":1783366867,"current_range_meters":6800,"station_id":"ce4bhbh2rcd13ifvqepg","pricing_plan_id":"cebpf4jnsgd1na2vs0mg"},{"bike_id":"541fe144-8635-4340-b46c-6447991085f5","system_id":"levelo_inurba_marseille","lat":43.31358,"lon":5.38516,"is_reserved":false,"is_disabled":false,"rental_uris":{"android":"levelo://app?vid=541fe144-8635-4340-b46c-6447991085f5","ios":"levelo://app?vid=541fe144-8635-4340-b46c-6447991085f5"},"vehicle_type_id":"4","last_reported":1783366867,"current_range_meters":6800,"station_id":"ce4bgt92rcd13ifvqcf0","pricing_plan_id":"cebpf4jnsgd1na2vs0mg"},{"bike_id":"736a00bc-8a2d-4421-a321-985033b665a9","system_id":"levelo_inurba_marseille","lat":43.26182,"lon":5.37476,"is_reserved":false,"is_disabled":false,"rental_uris":{"android":"levelo://app?vid=736a00bc-8a2d-4421-a321-985033b665a9","ios":"levelo://app?vid=736a00bc-8a2d-4421-a321-985033b665a9"},"vehicle_type_id":"4","last_reported":1783366867,"current_range_meters":6800,"station_id":"","pricing_plan_id":"cebpf4jnsgd1na2vs0mg"},{"bike_id":"d0b958a4-0781-4a1e-83d0-28cb0b198006","system_id":"levelo_inurba_marseille","lat":43.29599,"lon":5.38588,"is_reserved":false,"is_disabled":false,"rental_uris":{"android":"levelo://app?vid=d0b958a4-0781-4a1e-83d0-28cb0b198006","ios":"levelo://app?vid=d0b958a4-0781-4a1e-83d0-28cb0b198006"},"vehicle_type_id":"4","last_reported":1783366867,"current_range_meters":6800,"station_id":"","pricing_plan_id":"cebpf4jnsgd1na2vs0mg"},{"bike_id":"cf207596-0f5a-4e21-bace-427c44812913","system_id":"levelo_inurba_marseille","lat":43.29519,"lon":5.39031,"is_reserved":false,"is_disabled":false,"rental_uris":{"android":"levelo://app?vid=cf207596-0f5a-4e21-bace-427c44812913","ios":"levelo://app?vid=cf207596-0f5a-4e21-bace-427c44812913"},"vehicle_type_id":"4","last_reported":1783366867,"current_range_meters":6800,"station_id":"ce4bh3p2rcd13ifvqdp0","pricing_plan_id":"cebpf4jnsgd1na2vs0mg"},{"bike_id":"0b191b52-a597-4ef4-8e0d-3ad97743606f","system_id":"levelo_inurba_marseille","lat":43.24167,"lon":5.36394,"is_reserved":false,"is_disabled":false,"rental_uris":{"android":"levelo://app?vid=0b191b52-a597-4ef4-8e0d-3ad97743606f","ios":"levelo://app?vid=0b191b52-a597-4ef4-8e0d-3ad97743606f"},"vehicle_type_id":"4","last_reported":1783366867,"current_range_meters":6800,"station_id":"cpo36qri1sfpv3e86is0","pricing_plan_id":"cebpf4jnsgd1na2vs0mg"},{"bike_id":"1b396dbc-cdbe-441c-a6f9-d18101b3cc4f","system_id":"levelo_inurba_marseille","lat":43.33336,"lon":5.4109,"is_reserved":false,"is_disabled":false,"rental_uris":{"android":"levelo://app?vid=1b396dbc-cdbe-441c-a6f9-d18101b3cc4f","ios":"levelo://app?vid=1b396dbc-cdbe-441c-a6f9-d18101b3cc4f"},"vehicle_type_id":"4","last_reported":1783366867,"current_range_meters":6800,"station_id":"","pricing_plan_id":"cebpf4jnsgd1na2vs0mg"},{"bike_id":"4e82c7ac-545b-48b6-91da-304991e596c6","system_id":"levelo_inurba_marseille","lat":43.29519,"lon":5.39402,"is_reserved":false,"is_disabled":false,"rental_uris":{"android":"levelo://app?vid=4e82c7ac-545b-48b6-91da-304991e596c6","ios":"levelo://app?vid=4e82c7ac-545b-48b6-91da-304991e596c6"},"vehicle_type_id":"4","last_reported":1783366867,"current_range_meters":6800,"station_id":"ce4bh292rcd13ifvqdf0","pricing_plan_id":"cebpf4jnsgd1na2vs0mg"},{"bike_id":"a40fac1c-fdae-4a33-8735-3f7c9c669ebe","system_id":"levelo_inurba_marseille","lat":43.29726,"lon":5.38229,"is_reserved":false,"is_disabled":false,"rental_uris":{"android":"levelo://app?vid=a40fac1c-fdae-4a33-8735-3f7c9c669ebe","ios":"levelo://app?vid=a40fac1c-fdae-4a33-8735-3f7c9c669ebe"},"vehicle_type_id":"4","last_reported":1783366867,"current_range_meters":7200,"station_id":"","pricing_plan_id":"cebpf4jnsgd1na2vs0mg"},{"bike_id":"4461f359-e578-4853-804a-593f2289f613","system_id":"levelo_inurba_marseille","lat":43.29656,"lon":5.40147,"is_reserved":false,"is_disabled":false,"rental_uris":{"android":"levelo://app?vid=4461f359-e578-4853-804a-593f2289f613","ios":"levelo://app?vid=4461f359-e578-4853-804a-593f2289f613"},"vehicle_type_id":"4","last_reported":1783366867,"current_range_meters":7200,"station_id":"","pricing_plan_id":"cebpf4jnsgd1na2vs0mg"},{"bike_id":"572e68b9-d18d-4505-bc29-553721ee1599","system_id":"levelo_inurba_marseille","lat":43.2638,"lon":5.41064,"is_reserved":false,"is_disabled":false,"rental_uris":{"android":"levelo://app?vid=572e68b9-d18d-4505-bc29-553721ee1599","ios":"levelo://app?vid=572e68b9-d18d-4505-bc29-553721ee1599"},"vehicle_type_id":"4","last_reported":1783366867,"current_range_meters":7200,"station_id":"st_d4e5ca6na9uc73bfl5fg","pricing_plan_id":"cebpf4jnsgd1na2vs0mg"},{"bike_id":"ad9588a3-2468-4eaf-aa45-4f186d90b3ec","system_id":"levelo_inurba_marseille","lat":43.28267,"lon":5.35075,"is_reserved":false,"is_disabled":false,"rental_uris":{"android":"levelo://app?vid=ad9588a3-2468-4eaf-aa45-4f186d90b3ec","ios":"levelo://app?vid=ad9588a3-2468-4eaf-aa45-4f186d90b3ec"},"vehicle_type_id":"4","last_reported":1783366867,"current_range_meters":7200,"station_id":"ce4bhbp2rcd13ifvqerg","pricing_plan_id":"cebpf4jnsgd1na2vs0mg"},{"bike_id":"96d23458-e22b-4ffa-8762-718cb4a15083","system_id":"levelo_inurba_marseille","lat":43.26787,"lon":5.39408,"is_reserved":false,"is_disabled":false,"rental_uris":{"android":"levelo://app?vid=96d23458-e22b-4ffa-8762-718cb4a15083","ios":"levelo://app?vid=96d23458-e22b-4ffa-8762-718cb4a15083"},"vehicle_type_id":"4","last_reported":1783366867,"current_range_meters":7200,"station_id":"ce4bhh12rcd13ifvqfg0","pricing_plan_id":"cebpf4jnsgd1na2vs0mg"},{"bike_id":"fad3a5c8-af26-42f0-8125-e7b06c3c902b","system_id":"levelo_inurba_marseille","lat":43.27618,"lon":5.36091,"is_reserved":false,"is_disabled":false,"rental_uris":{"android":"levelo://app?vid=fad3a5c8-af26-42f0-8125-e7b06c3c902b","ios":"levelo://app?vid=fad3a5c8-af26-42f0-8125-e7b06c3c902b"},"vehicle_type_id":"4","last_reported":1783366867,"current_range_meters":7200,"station_id":"ce4bgj92rcd13ifvqbe0","pricing_plan_id":"cebpf4jnsgd1na2vs0mg"},{"bike_id":"e36b3922-5f19-4f70-82e3-658e8680ae96","system_id":"levelo_inurba_marseille","lat":43.28678,"lon":5.38653,"is_reserved":false,"is_disabled":false,"rental_uris":{"android":"levelo://app?vid=e36b3922-5f19-4f70-82e3-658e8680ae96","ios":"levelo://app?vid=e36b3922-5f19-4f70-82e3-658e8680ae96"},"vehicle_type_id":"4","last_reported":1783366867,"current_range_meters":7200,"station_id":"ce4bh492rcd13ifvqdug","pricing_plan_id":"cebpf4jnsgd1na2vs0mg"},{"bike_id":"4c2faf4f-2c5e-448a-b2bb-c638ed2105fe","system_id":"levelo_inurba_marseille","lat":43.29189,"lon":5.3582,"is_reserved":false,"is_disabled":false,"rental_uris":{"android":"levelo://app?vid=4c2faf4f-2c5e-448a-b2bb-c638ed2105fe","ios":"levelo://app?vid=4c2faf4f-2c5e-448a-b2bb-c638ed2105fe"},"vehicle_type_id":"4","last_reported":1783366867,"current_range_meters":7200,"station_id":"ce4bhb12rcd13ifvqel0","pricing_plan_id":"cebpf4jnsgd1na2vs0mg"},{"bike_id":"d296ba14-f2d3-47fe-a398-57c694bc659b","system_id":"levelo_inurba_marseille","lat":43.26207,"lon":5.37458,"is_reserved":false,"is_disabled":false,"rental_uris":{"android":"levelo://app?vid=d296ba14-f2d3-47fe-a398-57c694bc659b","ios":"levelo://app?vid=d296ba14-f2d3-47fe-a398-57c694bc659b"},"vehicle_type_id":"4","last_reported":1783366867,"current_range_meters":7200,"station_id":"ce4bhgp2rcd13ifvqfc0","pricing_plan_id":"cebpf4jnsgd1na2vs0mg"},{"bike_id":"814b0a23-4b15-472b-a08d-7d4fdd4dc68d","system_id":"levelo_inurba_marseille","lat":43.29361,"lon":5.3787,"is_reserved":false,"is_disabled":false,"rental_uris":{"android":"levelo://app?vid=814b0a23-4b15-472b-a08d-7d4fdd4dc68d","ios":"levelo://app?vid=814b0a23-4b15-472b-a08d-7d4fdd4dc68d"},"vehicle_type_id":"4","last_reported":1783366867,"current_range_meters":7200,"station_id":"ce4bgjh2rcd13ifvqbf0","pricing_plan_id":"cebpf4jnsgd1na2vs0mg"},{"bike_id":"e3022a6a-a8f2-4537-83b2-c5cd58afaf3e","system_id":"levelo_inurba_marseille","lat":43.25082,"lon":5.39511,"is_reserved":false,"is_disabled":true,"rental_uris":{"android":"levelo://app?vid=e3022a6a-a8f2-4537-83b2-c5cd58afaf3e","ios":"levelo://app?vid=e3022a6a-a8f2-4537-83b2-c5cd58afaf3e"},"vehicle_type_id":"4","last_reported":1783366867,"current_range_meters":7200,"station_id":"ce4bhm12rcd13ifvqgkg","pricing_plan_id":"cebpf4jnsgd1na2vs0mg"},{"bike_id":"4c59db62-5427-46c6-9d26-5bad55e837ae","system_id":"levelo_inurba_marseille","lat":43.23623,"lon":5.40348,"is_reserved":false,"is_disabled":false,"rental_uris":{"android":"levelo://app?vid=4c59db62-5427-46c6-9d26-5bad55e837ae","ios":"levelo://app?vid=4c59db62-5427-46c6-9d26-5bad55e837ae"},"vehicle_type_id":"4","last_reported":1783366867,"current_range_meters":7200,"station_id":"","pricing_plan_id":"cebpf4jnsgd1na2vs0mg"},{"bike_id":"396c8593-55a2-45a0-9aa3-9e4ab624cca0","system_id":"levelo_inurba_marseille","lat":43.29523,"lon":5.38545,"is_reserved":false,"is_disabled":false,"rental_uris":{"android":"levelo://app?vid=396c8593-55a2-45a0-9aa3-9e4ab624cca0","ios":"levelo://app?vid=396c8593-55a2-45a0-9aa3-9e4ab624cca0"},"vehicle_type_id":"4","last_reported":1783366867,"current_range_meters":7200,"station_id":"ce4bgih2rcd13ifvqba0","pricing_plan_id":"cebpf4jnsgd1na2vs0mg"},{"bike_id":"ba519288-3165-4959-8f14-2ff6890660bd","system_id":"levelo_inurba_marseille","lat":43.25132,"lon":5.37367,"is_reserved":false,"is_disabled":false,"rental_uris":{"android":"levelo://app?vid=ba519288-3165-4959-8f14-2ff6890660bd","ios":"levelo://app?vid=ba519288-3165-4959-8f14-2ff6890660bd"},"vehicle_type_id":"4","last_reported":1783366867,"current_range_meters":7200,"station_id":"","pricing_plan_id":"cebpf4jnsgd1na2vs0mg"},{"bike_id":"8f9589bc-5102-48ec-bff3-0aa876684c01","system_id":"levelo_inurba_marseille","lat":43.29819,"lon":5.44063,"is_reserved":false,"is_disabled":true,"rental_uris":{"android":"levelo://app?vid=8f9589bc-5102-48ec-bff3-0aa876684c01","ios":"levelo://app?vid=8f9589bc-5102-48ec-bff3-0aa876684c01"},"vehicle_type_id":"4","last_reported":1783366867,"current_range_meters":7200,"station_id":"st_d3jp68qikq2c7381ktn0","pricing_plan_id":"cebpf4jnsgd1na2vs0mg"},{"bike_id":"863a0472-bac0-49bb-bd91-e3109091f5b0","system_id":"levelo_inurba_marseille","lat":43.29535,"lon":5.38544,"is_reserved":false,"is_disabled":false,"rental_uris":{"android":"levelo://app?vid=863a0472-bac0-49bb-bd91-e3109091f5b0","ios":"levelo://app?vid=863a0472-bac0-49bb-bd91-e3109091f5b0"},"vehicle_type_id":"4","last_reported":1783366867,"current_range_meters":7200,"station_id":"ce4bgih2rcd13ifvqba0","pricing_plan_id":"cebpf4jnsgd1na2vs0mg"},{"bike_id":"4a858ccc-3149-4170-95c7-1df6b5c97246","system_id":"levelo_inurba_marseille","lat":43.29533,"lon":5.38542,"is_reserved":false,"is_disabled":false,"rental_uris":{"android":"levelo://app?vid=4a858ccc-3149-4170-95c7-1df6b5c97246","ios":"levelo://app?vid=4a858ccc-3149-4170-95c7-1df6b5c97246"},"vehicle_type_id":"4","last_reported":1783366867,"current_range_meters":7200,"station_id":"ce4bgih2rcd13ifvqba0","pricing_plan_id":"cebpf4jnsgd1na2vs0mg"},{"bike_id":"9e5a2ef5-40b8-4842-abef-5a9e0877c3d7","system_id":"levelo_inurba_marseille","lat":43.28475,"lon":5.48401,"is_reserved":false,"is_disabled":false,"rental_uris":{"android":"levelo://app?vid=9e5a2ef5-40b8-4842-abef-5a9e0877c3d7","ios":"levelo://app?vid=9e5a2ef5-40b8-4842-abef-5a9e0877c3d7"},"vehicle_type_id":"4","last_reported":1783366867,"current_range_meters":7200,"station_id":"st_d3svhcjqgbts73a3dn0g","pricing_plan_id":"cebpf4jnsgd1na2vs0mg"},{"bike_id":"392c3337-6c79-43a2-8793-f52cbbcc2fa9","system_id":"levelo_inurba_marseille","lat":43.26548,"lon":5.42122,"is_reserved":false,"is_disabled":false,"rental_uris":{"android":"levelo://app?vid=392c3337-6c79-43a2-8793-f52cbbcc2fa9","ios":"levelo://app?vid=392c3337-6c79-43a2-8793-f52cbbcc2fa9"},"vehicle_type_id":"4","last_reported":1783366867,"current_range_meters":7200,"station_id":"","pricing_plan_id":"cebpf4jnsgd1na2vs0mg"},{"bike_id":"48e9f399-608e-4ef3-aef5-0ea0fdd27ad4","system_id":"levelo_inurba_marseille","lat":43.29249,"lon":5.40902,"is_reserved":false,"is_disabled":true,"rental_uris":{"android":"levelo://app?vid=48e9f399-608e-4ef3-aef5-0ea0fdd27ad4","ios":"levelo://app?vid=48e9f399-608e-4ef3-aef5-0ea0fdd27ad4"},"vehicle_type_id":"4","last_reported":1783366867,"current_range_meters":7200,"station_id":"ce4bh192rcd13ifvqdc0","pricing_plan_id":"cebpf4jnsgd1na2vs0mg"},{"bike_id":"74afaa06-dc19-45a5-94a0-7a76a0f77f86","system_id":"levelo_inurba_marseille","lat":43.29627,"lon":5.37718,"is_reserved":false,"is_disabled":false,"rental_uris":{"android":"levelo://app?vid=74afaa06-dc19-45a5-94a0-7a76a0f77f86","ios":"levelo://app?vid=74afaa06-dc19-45a5-94a0-7a76a0f77f86"},"vehicle_type_id":"4","last_reported":1783366867,"current_range_meters":7200,"station_id":"ce4bgi92rcd13ifvqb90","pricing_plan_id":"cebpf4jnsgd1na2vs0mg"},{"bike_id":"99612607-4e1a-4321-a179-f155635396b0","system_id":"levelo_inurba_marseille","lat":43.27828,"lon":5.39211,"is_reserved":false,"is_disabled":false,"rental_uris":{"android":"levelo://app?vid=99612607-4e1a-4321-a179-f155635396b0","ios":"levelo://app?vid=99612607-4e1a-4321-a179-f155635396b0"},"vehicle_type_id":"4","last_reported":1783366867,"current_range_meters":7200,"station_id":"ce4bhjp2rcd13ifvqga0","pricing_plan_id":"cebpf4jnsgd1na2vs0mg"},{"bike_id":"401beb52-7dd5-4e26-b86e-92c4b7a914f4","system_id":"levelo_inurba_marseille","lat":43.28428,"lon":5.3499,"is_reserved":false,"is_disabled":true,"rental_uris":{"android":"levelo://app?vid=401beb52-7dd5-4e26-b86e-92c4b7a914f4","ios":"levelo://app?vid=401beb52-7dd5-4e26-b86e-92c4b7a914f4"},"vehicle_type_id":"4","last_reported":1783366867,"current_range_meters":8000,"station_id":"ce4bhbh2rcd13ifvqepg","pricing_plan_id":"cebpf4jnsgd1na2vs0mg"},{"bike_id":"f3301cc2-00d6-4cc4-8fd4-4fae69c63155","system_id":"levelo_inurba_marseille","lat":43.28926,"lon":5.36638,"is_reserved":false,"is_disabled":false,"rental_uris":{"android":"levelo://app?vid=f3301cc2-00d6-4cc4-8fd4-4fae69c63155","ios":"levelo://app?vid=f3301cc2-00d6-4cc4-8fd4-4fae69c63155"},"vehicle_type_id":"4","last_reported":1783366867,"current_range_meters":8000,"station_id":"ce4bhap2rcd13ifvqek0","pricing_plan_id":"cebpf4jnsgd1na2vs0mg"},{"bike_id":"5951597b-fe82-4381-875d-23c94025e45c","system_id":"levelo_inurba_marseille","lat":43.28476,"lon":5.48389,"is_reserved":false,"is_disabled":false,"rental_uris":{"android":"levelo://app?vid=5951597b-fe82-4381-875d-23c94025e45c","ios":"levelo://app?vid=5951597b-fe82-4381-875d-23c94025e45c"},"vehicle_type_id":"4","last_reported":1783366867,"current_range_meters":8000,"station_id":"st_d3svhcjqgbts73a3dn0g","pricing_plan_id":"cebpf4jnsgd1na2vs0mg"},{"bike_id":"ab418650-7aa1-48e1-943c-df3dcb35a850","system_id":"levelo_inurba_marseille","lat":43.27899,"lon":5.38014,"is_reserved":false,"is_disabled":false,"rental_uris":{"android":"levelo://app?vid=ab418650-7aa1-48e1-943c-df3dcb35a850","ios":"levelo://app?vid=ab418650-7aa1-48e1-943c-df3dcb35a850"},"vehicle_type_id":"4","last_reported":1783366867,"current_range_meters":8000,"station_id":"ce4bhf92rcd13ifvqf50","pricing_plan_id":"cebpf4jnsgd1na2vs0mg"},{"bike_id":"6dba7751-9b32-49d1-8663-50c18acacf6a","system_id":"levelo_inurba_marseille","lat":43.30627,"lon":5.37581,"is_reserved":false,"is_disabled":false,"rental_uris":{"android":"levelo://app?vid=6dba7751-9b32-49d1-8663-50c18acacf6a","ios":"levelo://app?vid=6dba7751-9b32-49d1-8663-50c18acacf6a"},"vehicle_type_id":"4","last_reported":1783366867,"current_range_meters":8000,"station_id":"","pricing_plan_id":"cebpf4jnsgd1na2vs0mg"},{"bike_id":"e522c856-52e6-47d0-b70d-e1816d5e13fd","system_id":"levelo_inurba_marseille","lat":43.28574,"lon":5.39503,"is_reserved":false,"is_disabled":false,"rental_uris":{"android":"levelo://app?vid=e522c856-52e6-47d0-b70d-e1816d5e13fd","ios":"levelo://app?vid=e522c856-52e6-47d0-b70d-e1816d5e13fd"},"vehicle_type_id":"4","last_reported":1783366867,"current_range_meters":8000,"station_id":"ce4bh292rcd13ifvqdg0","pricing_plan_id":"cebpf4jnsgd1na2vs0mg"},{"bike_id":"1ba829f8-b1b3-42c4-b7d6-56798fbfb19b","system_id":"levelo_inurba_marseille","lat":43.28402,"lon":5.34964,"is_reserved":false,"is_disabled":false,"rental_uris":{"android":"levelo://app?vid=1ba829f8-b1b3-42c4-b7d6-56798fbfb19b","ios":"levelo://app?vid=1ba829f8-b1b3-42c4-b7d6-56798fbfb19b"},"vehicle_type_id":"4","last_reported":1783366867,"current_range_meters":8000,"station_id":"ce4bhbh2rcd13ifvqepg","pricing_plan_id":"cebpf4jnsgd1na2vs0mg"},{"bike_id":"1cb60d38-7c63-408b-b393-0aa5635a9fd2","system_id":"levelo_inurba_marseille","lat":43.29102,"lon":5.38128,"is_reserved":false,"is_disabled":false,"rental_uris":{"android":"levelo://app?vid=1cb60d38-7c63-408b-b393-0aa5635a9fd2","ios":"levelo://app?vid=1cb60d38-7c63-408b-b393-0aa5635a9fd2"},"vehicle_type_id":"4","last_reported":1783366867,"current_range_meters":8000,"station_id":"ce4bh512rcd13ifvqe2g","pricing_plan_id":"cebpf4jnsgd1na2vs0mg"},{"bike_id":"c130727c-5090-4d3e-a999-15e4fa124901","system_id":"levelo_inurba_marseille","lat":43.27684,"lon":5.38891,"is_reserved":false,"is_disabled":false,"rental_uris":{"android":"levelo://app?vid=c130727c-5090-4d3e-a999-15e4fa124901","ios":"levelo://app?vid=c130727c-5090-4d3e-a999-15e4fa124901"},"vehicle_type_id":"4","last_reported":1783366867,"current_range_meters":8000,"station_id":"ce4bhi12rcd13ifvqfo0","pricing_plan_id":"cebpf4jnsgd1na2vs0mg"},{"bike_id":"5291857a-d5f7-47a0-b743-13ac73e0440f","system_id":"levelo_inurba_marseille","lat":43.2119,"lon":5.35074,"is_reserved":false,"is_disabled":false,"rental_uris":{"android":"levelo://app?vid=5291857a-d5f7-47a0-b743-13ac73e0440f","ios":"levelo://app?vid=5291857a-d5f7-47a0-b743-13ac73e0440f"},"vehicle_type_id":"4","last_reported":1783366867,"current_range_meters":8000,"station_id":"st_cvj6sg6p6f1abm77japg","pricing_plan_id":"cebpf4jnsgd1na2vs0mg"},{"bike_id":"c01c24ac-7761-4b9e-86f9-c1e700386839","system_id":"levelo_inurba_marseille","lat":43.2533,"lon":5.42158,"is_reserved":false,"is_disabled":false,"rental_uris":{"android":"levelo://app?vid=c01c24ac-7761-4b9e-86f9-c1e700386839","ios":"levelo://app?vid=c01c24ac-7761-4b9e-86f9-c1e700386839"},"vehicle_type_id":"4","last_reported":1783366867,"current_range_meters":8000,"station_id":"st_d2m65c5bi1j21697t3ng","pricing_plan_id":"cebpf4jnsgd1na2vs0mg"},{"bike_id":"cc738f32-f811-4e3f-b968-0bc0d7c9be0d","system_id":"levelo_inurba_marseille","lat":43.29264,"lon":5.4092,"is_reserved":false,"is_disabled":true,"rental_uris":{"android":"levelo://app?vid=cc738f32-f811-4e3f-b968-0bc0d7c9be0d","ios":"levelo://app?vid=cc738f32-f811-4e3f-b968-0bc0d7c9be0d"},"vehicle_type_id":"4","last_reported":1783366867,"current_range_meters":8000,"station_id":"ce4bh192rcd13ifvqdc0","pricing_plan_id":"cebpf4jnsgd1na2vs0mg"},{"bike_id":"98cb3bf5-a53b-4657-a54d-a4e50b669962","system_id":"levelo_inurba_marseille","lat":43.2861,"lon":5.37059,"is_reserved":false,"is_disabled":false,"rental_uris":{"android":"levelo://app?vid=98cb3bf5-a53b-4657-a54d-a4e50b669962","ios":"levelo://app?vid=98cb3bf5-a53b-4657-a54d-a4e50b669962"},"vehicle_type_id":"4","last_reported":1783366867,"current_range_meters":8000,"station_id":"ce4bht12rcd13ifvqi60","pricing_plan_id":"cebpf4jnsgd1na2vs0mg"},{"bike_id":"1c1b5d97-0f21-4844-b514-8a657a8cfd66","system_id":"levelo_inurba_marseille","lat":43.292741,"lon":5.401072,"is_reserved":false,"is_disabled":false,"rental_uris":{"android":"levelo://app?vid=1c1b5d97-0f21-4844-b514-8a657a8cfd66","ios":"levelo://app?vid=1c1b5d97-0f21-4844-b514-8a657a8cfd66"},"vehicle_type_id":"4","last_reported":1783366867,"current_range_meters":8000,"station_id":"ce4bh312rcd13ifvqdk0","pricing_plan_id":"cebpf4jnsgd1na2vs0mg"},{"bike_id":"ec21b348-a79c-45e5-a2ca-3a10372453e7","system_id":"levelo_inurba_marseille","lat":43.31929,"lon":5.39891,"is_reserved":false,"is_disabled":false,"rental_uris":{"android":"levelo://app?vid=ec21b348-a79c-45e5-a2ca-3a10372453e7","ios":"levelo://app?vid=ec21b348-a79c-45e5-a2ca-3a10372453e7"},"vehicle_type_id":"4","last_reported":1783366867,"current_range_meters":8000,"station_id":"","pricing_plan_id":"cebpf4jnsgd1na2vs0mg"},{"bike_id":"a958ece6-057b-48da-839a-c893fbafe1c4","system_id":"levelo_inurba_marseille","lat":43.29794,"lon":5.38076,"is_reserved":false,"is_disabled":false,"rental_uris":{"android":"levelo://app?vid=a958ece6-057b-48da-839a-c893fbafe1c4","ios":"levelo://app?vid=a958ece6-057b-48da-839a-c893fbafe1c4"},"vehicle_type_id":"4","last_reported":1783366867,"current_range_meters":8000,"station_id":"ce4bgip2rcd13ifvqbb0","pricing_plan_id":"cebpf4jnsgd1na2vs0mg"},{"bike_id":"19f607a3-0a54-4eff-a69a-0f6684840ec5","system_id":"levelo_inurba_marseille","lat":43.24947,"lon":5.40487,"is_reserved":false,"is_disabled":false,"rental_uris":{"android":"levelo://app?vid=19f607a3-0a54-4eff-a69a-0f6684840ec5","ios":"levelo://app?vid=19f607a3-0a54-4eff-a69a-0f6684840ec5"},"vehicle_type_id":"4","last_reported":1783366867,"current_range_meters":8000,"station_id":"st_d2ngiaodas8pm72gd1h0","pricing_plan_id":"cebpf4jnsgd1na2vs0mg"},