{"last_updated":1700755740,"ttl":30,"version":"2.2","data":{"bikes":[{"bike_id":"1768f595-fab9-431e-a005-e0909aaa484b","system_id":"levelo_inurba_marseille","lat":43.31341,"lon":5.367098,"is_reserved":false,"is_disabled":false,"rental_uris":{"android":"levelo://app?vid=1768f595-fab9-431e-a005-e0909aaa484b","ios":"levelo://app?vid=1768f595-fab9-431e-a005-e0909aaa484b"},"vehicle_type_id":"4","last_reported":1700755740,"current_range_meters":31200,"station_id":"ce4bgr92rcd13ifvqc6g","pricing_plan_id":"free"},{"bike_id":"b81ebcb8-2c2b-4f3e-872a-78611829dfd6","system_id":"levelo_inurba_marseille","lat":43.3123,"lon":5.36855,"is_reserved":false,"is_disabled":false,"rental_uris":{"android":"levelo://app?vid=b81ebcb8-2c2b-4f3e-872a-78611829dfd6","ios":"levelo://app?vid=b81ebcb8-2c2b-4f3e-872a-78611829dfd6"},"vehicle_type_id":"4","last_reported":1700755740,"current_range_meters":16400,"station_id":"ce4bgl92rcd13ifvqbq0","pricing_plan_id":"free"},{"bike_id":"1cb1026f-8196-4c9f-9816-7772cb450f87","system_id":"levelo_inurba_marseille","lat":43.312239,"lon":5.368562,"is_reserved":false,"is_disabled":false,"rental_uris":{"android":"levelo://app?vid=1cb1026f-8196-4c9f-9816-7772cb450f87","ios":"levelo://app?vid=1cb1026f-8196-4c9f-9816-7772cb450f87"},"vehicle_type_id":"4","last_reported":1700755740,"current_range_meters":15600,"station_id":"ce4bgl92rcd13ifvqbq0","pricing_plan_id":"free"},{"bike_id":"454bea7c-e5a0-4c71-9d0c-dc34e40c5de2","system_id":"levelo_inurba_marseille","lat":43.314811,"lon":5.373104,"is_reserved":false,"is_disabled":false,"rental_uris":{"android":"levelo://app?vid=454bea7c-e5a0-4c71-9d0c-dc34e40c5de2","ios":"levelo://app?vid=454bea7c-e5a0-4c71-9d0c-dc34e40c5de2"},"vehicle_type_id":"4","last_reported":1700755740,"current_range_meters":8400,"station_id":"ce4bgt12rcd13ifvqcd0","pricing_plan_id":"free"},{"bike_id":"7389da65-1a6e-400d-a8a1-a004b3258cae","system_id":"levelo_inurba_marseille","lat":43.31484,"lon":5.37317,"is_reserved":false,"is_disabled":false,"rental_uris":{"android":"levelo://app?vid=7389da65-1a6e-400d-a8a1-a004b3258cae","ios":"levelo://app?vid=7389da65-1a6e-400d-a8a1-a004b3258cae"},"vehicle_type_id":"4","last_reported":1700755740,"current_range_meters":3600,"station_id":"ce4bgt12rcd13ifvqcd0","pricing_plan_id":"free"},{"bike_id":"998926d2-c0c9-40eb-b338-074be67b68d0","system_id":"levelo_inurba_marseille","lat":43.305712,"lon":5.365641,"is_reserved":false,"is_disabled":false,"rental_uris":{"android":"levelo://app?vid=998926d2-c0c9-40eb-b338-074be67b68d0","ios":"levelo://app?vid=998926d2-c0c9-40eb-b338-074be67b68d0"},"vehicle_type_id":"4","last_reported":1700755740,"current_range_meters":21600,"station_id":"ce4bgs12rcd13ifvqcag","pricing_plan_id":"free"},{"bike_id":"62cc8dd8-df90-42dd-8cbb-f2f9a0a21054","system_id":"levelo_inurba_marseille","lat":43.311131,"lon":5.377651,"is_reserved":false,"is_disabled":false,"rental_uris":{"android":"levelo://app?vid=62cc8dd8-df90-42dd-8cbb-f2f9a0a21054","ios":"levelo://app?vid=62cc8dd8-df90-42dd-8cbb-f2f9a0a21054"},"vehicle_type_id":"4","last_reported":1700755740,"current_range_meters":14400,"station_id":"ce4bgt92rcd13ifvqcg0","pricing_plan_id":"free"},{"bike_id":"cd7a6091-8c0f-40b4-8b5f-4f828e491b47","system_id":"levelo_inurba_marseille","lat":43.311125,"lon":5.377624,"is_reserved":false,"is_disabled":false,"rental_uris":{"android":"levelo://app?vid=cd7a6091-8c0f-40b4-8b5f-4f828e491b47","ios":"levelo://app?vid=cd7a6091-8c0f-40b4-8b5f-4f828e491b47"},"vehicle_type_id":"4","last_reported":1700755740,"current_range_meters":2400,"station_id":"ce4bgt92rcd13ifvqcg0","pricing_plan_id":"free"},{"bike_id":"acf2e61c-da7a-4535-afce-6dae5cd5d176","system_id":"levelo_inurba_marseille","lat":43.30827,"lon":5.37635,"is_reserved":false,"is_disabled":false,"rental_uris":{"android":"levelo://app?vid=acf2e61c-da7a-4535-afce-6dae5cd5d176","ios":"levelo://app?vid=acf2e61c-da7a-4535-afce-6dae5cd5d176"},"vehicle_type_id":"4","last_reported":1700755740,"current_range_meters":7200,"station_id":"ce4bgv92rcd13ifvqcq0","pricing_plan_id":"free"},{"bike_id":"cb831096-b78a-4b81-9642-df22882295e9","system_id":"levelo_inurba_marseille","lat":43.30813,"lon":5.37657,"is_reserved":false,"is_disabled":false,"rental_uris":{"android":"levelo://app?vid=cb831096-b78a-4b81-9642-df22882295e9","ios":"levelo://app?vid=cb831096-b78a-4b81-9642-df22882295e9"},"vehicle_type_id":"4","last_reported":1700755740,"current_range_meters":20400,"station_id":"ce4bgv92rcd13ifvqcq0","pricing_plan_id":"free"},{"bike_id":"6688d18a-76b3-4d1f-a5d7-ff5674d61b67","system_id":"levelo_inurba_marseille","lat":43.303195,"lon":5.366405,"is_reserved":false,"is_disabled":false,"rental_uris":{"android":"levelo://app?vid=6688d18a-76b3-4d1f-a5d7-ff5674d61b67","ios":"levelo://app?vid=6688d18a-76b3-4d1f-a5d7-ff5674d61b67"},"vehicle_type_id":"4","last_reported":1700755740,"current_range_meters":0,"station_id":"","pricing_plan_id":"free"},{"bike_id":"0327687b-f51e-4077-bf49-2ec73a6de092","system_id":"levelo_inurba_marseille","lat":43.32235,"lon":5.37564,"is_reserved":false,"is_disabled":false,"rental_uris":{"android":"levelo://app?vid=0327687b-f51e-4077-bf49-2ec73a6de092","ios":"levelo://app?vid=0327687b-f51e-4077-bf49-2ec73a6de092"},"vehicle_type_id":"4","last_reported":1700755740,"current_range_meters":11200,"station_id":"","pricing_plan_id":"free"},{"bike_id":"9b23fc13-b691-4871-8306-cb52a4ca9417","system_id":"levelo_inurba_marseille","lat":43.324756,"lon":5.365551,"is_reserved":false,"is_disabled":false,"rental_uris":{"android":"levelo://app?vid=9b23fc13-b691-4871-8306-cb52a4ca9417","ios":"levelo://app?vid=9b23fc13-b691-4871-8306-cb52a4ca9417"},"vehicle_type_id":"4","last_reported":1700755740,"current_range_meters":4800,"station_id":"ce4bhs12rcd13ifvqhvg","pricing_plan_id":"free"},{"bike_id":"e2b44916-d67e-408f-a7d0-6b0eeb5d15c7","system_id":"levelo_inurba_marseille","lat":43.302864,"lon":5.376926,"is_reserved":false,"is_disabled":false,"rental_uris":{"android":"levelo://app?vid=e2b44916-d67e-408f-a7d0-6b0eeb5d15c7","ios":"levelo://app?vid=e2b44916-d67e-408f-a7d0-6b0eeb5d15c7"},"vehicle_type_id":"4","last_reported":1700755740,"current_range_meters":17200,"station_id":"ce4bguh2rcd13ifvqcj0","pricing_plan_id":"free"},{"bike_id":"a9cd90c3-62f8-4157-a7ad-08c4fed58f44","system_id":"levelo_inurba_marseille","lat":43.319935,"lon":5.381699,"is_reserved":false,"is_disabled":false,"rental_uris":{"android":"levelo://app?vid=a9cd90c3-62f8-4157-a7ad-08c4fed58f44","ios":"levelo://app?vid=a9cd90c3-62f8-4157-a7ad-08c4fed58f44"},"vehicle_type_id":"4","last_reported":1700755740,"current_range_meters":21600,"station_id":"ce4bhr12rcd13ifvqhpg","pricing_plan_id":"free"},{"bike_id":"f969438b-4c85-4abe-899c-fa6fcdcfca02","system_id":"levelo_inurba_marseille","lat":43.319935,"lon":5.381699,"is_reserved":false,"is_disabled":false,"rental_uris":{"android":"levelo://app?vid=f969438b-4c85-4abe-899c-fa6fcdcfca02","ios":"levelo://app?vid=f969438b-4c85-4abe-899c-fa6fcdcfca02"},"vehicle_type_id":"4","last_reported":1700755740,"current_range_meters":15600,"station_id":"ce4bhr12rcd13ifvqhpg","pricing_plan_id":"free"},{"bike_id":"c40d1d79-10d2-438d-b47e-f0b8dd8fe0c8","system_id":"levelo_inurba_marseille","lat":43.31375,"lon":5.384842,"is_reserved":false,"is_disabled":false,"rental_uris":{"android":"levelo://app?vid=c40d1d79-10d2-438d-b47e-f0b8dd8fe0c8","ios":"levelo://app?vid=c40d1d79-10d2-438d-b47e-f0b8dd8fe0c8"},"vehicle_type_id":"4","last_reported":1700755740,"current_range_meters":23600,"station_id":"ce4bgt92rcd13ifvqcf0","pricing_plan_id":"free"},{"bike_id":"32d5ab05-2744-4c50-aefb-564a35a14bc6","system_id":"levelo_inurba_marseille","lat":43.31365,"lon":5.38489,"is_reserved":false,"is_disabled":false,"rental_uris":{"android":"levelo://app?vid=32d5ab05-2744-4c50-aefb-564a35a14bc6","ios":"levelo://app?vid=32d5ab05-2744-4c50-aefb-564a35a14bc6"},"vehicle_type_id":"4","last_reported":1700755740,"current_range_meters":20000,"station_id":"ce4bgt92rcd13ifvqcf0","pricing_plan_id":"free"},{"bike_id":"7d67e170-0dc5-4366-8406-b9b3077351ba","system_id":"levelo_inurba_marseille","lat":43.31355,"lon":5.38496,"is_reserved":false,"is_disabled":false,"rental_uris":{"android":"levelo://app?vid=7d67e170-0dc5-4366-8406-b9b3077351ba","ios":"levelo://app?vid=7d67e170-0dc5-4366-8406-b9b3077351ba"},"vehicle_type_id":"4","last_reported":1700755740,"current_range_meters":8000,"station_id":"ce4bgt92rcd13ifvqcf0","pricing_plan_id":"free"},{"bike_id":"29e3f9ee-744f-4ec6-8f3e-61ecbf32edac","system_id":"levelo_inurba_marseille","lat":43.31381,"lon":5.38495,"is_reserved":false,"is_disabled":false,"rental_uris":{"android":"levelo://app?vid=29e3f9ee-744f-4ec6-8f3e-61ecbf32edac","ios":"levelo://app?vid=29e3f9ee-744f-4ec6-8f3e-61ecbf32edac"},"vehicle_type_id":"4","last_reported":1700755740,"current_range_meters":27600,"station_id":"ce4bgt92rcd13ifvqcf0","pricing_plan_id":"free"},{"bike_id":"20d2a473-389a-414f-812a-ce96aad909b4","system_id":"levelo_inurba_marseille","lat":43.31364,"lon":5.38504,"is_reserved":false,"is_disabled":false,"rental_uris":{"android":"levelo://app?vid=20d2a473-389a-414f-812a-ce96aad909b4","ios":"levelo://app?vid=20d2a473-389a-414f-812a-ce96aad909b4"},"vehicle_type_id":"4","last_reported":1700755740,"current_range_meters":26400,"station_id":"ce4bgt92rcd13ifvqcf0","pricing_plan_id":"free"},{"bike_id":"6fdf60c7-f900-45b0-9999-8e2789ec5afa","system_id":"levelo_inurba_marseille","lat":43.29936,"lon":5.36554,"is_reserved":false,"is_disabled":false,"rental_uris":{"android":"levelo://app?vid=6fdf60c7-f900-45b0-9999-8e2789ec5afa","ios":"levelo://app?vid=6fdf60c7-f900-45b0-9999-8e2789ec5afa"},"vehicle_type_id":"4","last_reported":1700755740,"current_range_meters":24400,"station_id":"ce4bgm92rcd13ifvqbr0","pricing_plan_id":"free"},{"bike_id":"f2fe7a6e-484a-44f4-9d06-341ca951fd86","system_id":"levelo_inurba_marseille","lat":43.29933,"lon":5.36554,"is_reserved":false,"is_disabled":false,"rental_uris":{"android":"levelo://app?vid=f2fe7a6e-484a-44f4-9d06-341ca951fd86","ios":"levelo://app?vid=f2fe7a6e-484a-44f4-9d06-341ca951fd86"},"vehicle_type_id":"4","last_reported":1700755740,"current_range_meters":7600,"station_id":"ce4bgm92rcd13ifvqbr0","pricing_plan_id":"free"},{"bike_id":"744bd2d7-6c5f-418d-b7bb-264a79149d85","system_id":"levelo_inurba_marseille","lat":43.2993,"lon":5.36552,"is_reserved":false,"is_disabled":false,"rental_uris":{"android":"levelo://app?vid=744bd2d7-6c5f-418d-b7bb-264a79149d85","ios":"levelo://app?vid=744bd2d7-6c5f-418d-b7bb-264a79149d85"},"vehicle_type_id":"4","last_reported":1700755740,"current_range_meters":12800,"station_id":"ce4bgm92rcd13ifvqbr0","pricing_plan_id":"free"},{"bike_id":"12910d96-55db-46f1-a931-a6c8ee5ba9fc","system_id":"levelo_inurba_marseille","lat":43.299243,"lon":5.37481,"is_reserved":false,"is_disabled":false,"rental_uris":{"android":"levelo://app?vid=12910d96-55db-46f1-a931-a6c8ee5ba9fc","ios":"levelo://app?vid=12910d96-55db-46f1-a931-a6c8ee5ba9fc"},"vehicle_type_id":"4","last_reported":1700755740,"current_range_meters":1600,"station_id":"ce4bgjh2rcd13ifvqbg0","pricing_plan_id":"free"},{"bike_id":"0e62916c-7404-48fd-92b7-dc8764bbfb30","system_id":"levelo_inurba_marseille","lat":43.311722,"lon":5.387247,"is_reserved":false,"is_disabled":false,"rental_uris":{"android":"levelo://app?vid=0e62916c-7404-48fd-92b7-dc8764bbfb30","ios":"levelo://app?vid=0e62916c-7404-48fd-92b7-dc8764bbfb30"},"vehicle_type_id":"4","last_reported":1700755740,"current_range_meters":800,"station_id":"ce4bgv12rcd13ifvqcp0","pricing_plan_id":"free"},{"bike_id":"833a62a8-532b-4cbb-b007-2a7cbfd2267a","system_id":"levelo_inurba_marseille","lat":43.311722,"lon":5.387247,"is_reserved":false,"is_disabled":false,"rental_uris":{"android":"levelo://app?vid=833a62a8-532b-4cbb-b007-2a7cbfd2267a","ios":"levelo://app?vid=833a62a8-532b-4cbb-b007-2a7cbfd2267a"},"vehicle_type_id":"4","last_reported":1700755740,"current_range_meters":20000,"station_id":"ce4bgv12rcd13ifvqcp0","pricing_plan_id":"free"},{"bike_id":"1948815e-2150-4bbb-a7f2-5e6659022929","system_id":"levelo_inurba_marseille","lat":43.299243,"lon":5.374807,"is_reserved":false,"is_disabled":false,"rental_uris":{"android":"levelo://app?vid=1948815e-2150-4bbb-a7f2-5e6659022929","ios":"levelo://app?vid=1948815e-2150-4bbb-a7f2-5e6659022929"},"vehicle_type_id":"4","last_reported":1700755740,"current_range_meters":11200,"station_id":"ce4bgjh2rcd13ifvqbg0","pricing_plan_id":"free"},{"bike_id":"30638fc0-3fcc-40b1-b276-ddbd708eb27c","system_id":"levelo_inurba_marseille","lat":43.311722,"lon":5.387247,"is_reserved":false,"is_disabled":false,"rental_uris":{"android":"levelo://app?vid=30638fc0-3fcc-40b1-b276-ddbd708eb27c","ios":"levelo://app?vid=30638fc0-3fcc-40b1-b276-ddbd708eb27c"},"vehicle_type_id":"4","last_reported":1700755740,"current_range_meters":26400,"station_id":"ce4bgv12rcd13ifvqcp0","pricing_plan_id":"free"},{"bike_id":"ca46db69-c5db-4bbe-b365-50c4fcf954d7","system_id":"levelo_inurba_marseille","lat":43.32828,"lon":5.36696,"is_reserved":false,"is_disabled":false,"rental_uris":{"android":"levelo://app?vid=ca46db69-c5db-4bbe-b365-50c4fcf954d7","ios":"levelo://app?vid=ca46db69-c5db-4bbe-b365-50c4fcf954d7"},"vehicle_type_id":"4","last_reported":1700755740,"current_range_meters":16800,"station_id":"ce4bhs92rcd13ifvqi0g","pricing_plan_id":"free"},{"bike_id":"0e28c766-6cf3-426f-9551-4c99d7847f88","system_id":"levelo_inurba_marseille","lat":43.297163,"lon":5.365866,"is_reserved":false,"is_disabled":false,"rental_uris":{"android":"levelo://app?vid=0e28c766-6cf3-426f-9551-4c99d7847f88","ios":"levelo://app?vid=0e28c766-6cf3-426f-9551-4c99d7847f88"},"vehicle_type_id":"4","last_reported":1700755740,"current_range_meters":23200,"station_id":"ce4bgn12rcd13ifvqbt0","pricing_plan_id":"free"},{"bike_id":"4d7509f5-9559-42ca-a60d-bef9e80f0981","system_id":"levelo_inurba_marseille","lat":43.29951,"lon":5.37922,"is_reserved":false,"is_disabled":false,"rental_uris":{"android":"levelo://app?vid=4d7509f5-9559-42ca-a60d-bef9e80f0981","ios":"levelo://app?vid=4d7509f5-9559-42ca-a60d-bef9e80f0981"},"vehicle_type_id":"4","last_reported":1700755740,"current_range_meters":0,"station_id":"","pricing_plan_id":"free"},{"bike_id":"9b08bd7e-5fb3-4e1b-9ddf-51fe2542d627","system_id":"levelo_inurba_marseille","lat":43.29599,"lon":5.36802,"is_reserved":false,"is_disabled":false,"rental_uris":{"android":"levelo://app?vid=9b08bd7e-5fb3-4e1b-9ddf-51fe2542d627","ios":"levelo://app?vid=9b08bd7e-5fb3-4e1b-9ddf-51fe2542d627"},"vehicle_type_id":"4","last_reported":1700755740,"current_range_meters":23600,"station_id":"","pricing_plan_id":"free"},{"bike_id":"bb4ecd91-40a3-4e67-bc61-546b716edb1c","system_id":"levelo_inurba_marseille","lat":43.29573,"lon":5.367355,"is_reserved":false,"is_disabled":false,"rental_uris":{"android":"levelo://app?vid=bb4ecd91-40a3-4e67-bc61-546b716edb1c","ios":"levelo://app?vid=bb4ecd91-40a3-4e67-bc61-546b716edb1c"},"vehicle_type_id":"4","last_reported":1700755740,"current_range_meters":9600,"station_id":"ce4bgph2rcd13ifvqc2g","pricing_plan_id":"free"},{"bike_id":"fb13598d-7140-457a-b4d9-1a2254e806fb","system_id":"levelo_inurba_marseille","lat":43.31754,"lon":5.39016,"is_reserved":false,"is_disabled":false,"rental_uris":{"android":"levelo://app?vid=fb13598d-7140-457a-b4d9-1a2254e806fb","ios":"levelo://app?vid=fb13598d-7140-457a-b4d9-1a2254e806fb"},"vehicle_type_id":"4","last_reported":1700755740,"current_range_meters":31200,"station_id":"ce4bhqp2rcd13ifvqhng","pricing_plan_id":"free"},{"bike_id":"b6267f12-01f0-4e95-845f-500330d0ac68","system_id":"levelo_inurba_marseille","lat":43.317557,"lon":5.390173,"is_reserved":false,"is_disabled":false,"rental_uris":{"android":"levelo://app?vid=b6267f12-01f0-4e95-845f-500330d0ac68","ios":"levelo://app?vid=b6267f12-01f0-4e95-845f-500330d0ac68"},"vehicle_type_id":"4","last_reported":1700755740,"current_range_meters":3200,"station_id":"ce4bhqp2rcd13ifvqhng","pricing_plan_id":"free"},{"bike_id":"ea080739-67fe-4b29-ad93-68fd11146174","system_id":"levelo_inurba_marseille","lat":43.31749,"lon":5.39029,"is_reserved":false,"is_disabled":false,"rental_uris":{"android":"levelo://app?vid=ea080739-67fe-4b29-ad93-68fd11146174","ios":"levelo://app?vid=ea080739-67fe-4b29-ad93-68fd11146174"},"vehicle_type_id":"4","last_reported":1700755740,"current_range_meters":0,"station_id":"ce4bhqp2rcd13ifvqhng","pricing_plan_id":"free"},{"bike_id":"6d4f1961-94e1-4138-8de8-842f3428190b","system_id":"levelo_inurba_marseille","lat":43.299724,"lon":5.384848,"is_reserved":false,"is_disabled":false,"rental_uris":{"android":"levelo://app?vid=6d4f1961-94e1-4138-8de8-842f3428190b","ios":"levelo://app?vid=6d4f1961-94e1-4138-8de8-842f3428190b"},"vehicle_type_id":"4","last_reported":1700755740,"current_range_meters":0,"station_id":"ce4bgj92rcd13ifvqbd0","pricing_plan_id":"free"},{"bike_id":"d8639c30-2ad0-4ca4-995e-8d544d4ba707","system_id":"levelo_inurba_marseille","lat":43.295279,"lon":5.375048,"is_reserved":false,"is_disabled":false,"rental_uris":{"android":"levelo://app?vid=d8639c30-2ad0-4ca4-995e-8d544d4ba707","ios":"levelo://app?vid=d8639c30-2ad0-4ca4-995e-8d544d4ba707"},"vehicle_type_id":"4","last_reported":1700755740,"current_range_meters":21200,"station_id":"ce4bgkp2rcd13ifvqbmg","pricing_plan_id":"free"},{"bike_id":"6b621983-5e9e-42f7-990d-ad5a093820d2","system_id":"levelo_inurba_marseille","lat":43.293801,"lon":5.363066,"is_reserved":false,"is_disabled":false,"rental_uris":{"android":"levelo://app?vid=6b621983-5e9e-42f7-990d-ad5a093820d2","ios":"levelo://app?vid=6b621983-5e9e-42f7-990d-ad5a093820d2"},"vehicle_type_id":"4","last_reported":1700755740,"current_range_meters":8000,"station_id":"","pricing_plan_id":"free"},{"bike_id":"b548a01f-e1ac-4abf-8593-015e8e5b9d7e","system_id":"levelo_inurba_marseille","lat":43.293259,"lon":5.371586,"is_reserved":false,"is_disabled":false,"rental_uris":{"android":"levelo://app?vid=b548a01f-e1ac-4abf-8593-015e8e5b9d7e","ios":"levelo://app?vid=b548a01f-e1ac-4abf-8593-015e8e5b9d7e"},"vehicle_type_id":"4","last_reported":1700755740,"current_range_meters":16000,"station_id":"ce4bgh92rcd13ifvqb40","pricing_plan_id":"free"},{"bike_id":"0428df84-bf95-44d5-b4bb-c548b954c5ea","system_id":"levelo_inurba_marseille","lat":43.29372,"lon":5.37858,"is_reserved":false,"is_disabled":false,"rental_uris":{"android":"levelo://app?vid=0428df84-bf95-44d5-b4bb-c548b954c5ea","ios":"levelo://app?vid=0428df84-bf95-44d5-b4bb-c548b954c5ea"},"vehicle_type_id":"4","last_reported":1700755740,"current_range_meters":4800,"station_id":"","pricing_plan_id":"free"},{"bike_id":"c567b57f-30d4-48dd-afd5-9bfb60ac9414","system_id":"levelo_inurba_marseille","lat":43.300852,"lon":5.390859,"is_reserved":false,"is_disabled":false,"rental_uris":{"android":"levelo://app?vid=c567b57f-30d4-48dd-afd5-9bfb60ac9414","ios":"levelo://app?vid=c567b57f-30d4-48dd-afd5-9bfb60ac9414"},"vehicle_type_id":"4","last_reported":1700755740,"current_range_meters":17200,"station_id":"ce4bh192rcd13ifvqdb0","pricing_plan_id":"free"},{"bike_id":"919cdf03-2143-4286-a852-d045a9de1fc8","system_id":"levelo_inurba_marseille","lat":43.292663,"lon":5.376389,"is_reserved":false,"is_disabled":false,"rental_uris":{"android":"levelo://app?vid=919cdf03-2143-4286-a852-d045a9de1fc8","ios":"levelo://app?vid=919cdf03-2143-4286-a852-d045a9de1fc8"},"vehicle_type_id":"4","last_reported":1700755740,"current_range_meters":11600,"station_id":"ce4bgi12rcd13ifvqb80","pricing_plan_id":"free"},{"bike_id":"1d10a1b1-d55f-4279-928a-9c6858f32ca9","system_id":"levelo_inurba_marseille","lat":43.33211,"lon":5.38112,"is_reserved":false,"is_disabled":false,"rental_uris":{"android":"levelo://app?vid=1d10a1b1-d55f-4279-928a-9c6858f32ca9","ios":"levelo://app?vid=1d10a1b1-d55f-4279-928a-9c6858f32ca9"},"vehicle_type_id":"4","last_reported":1700755740,"current_range_meters":0,"station_id":"","pricing_plan_id":"free"},{"bike_id":"ea955316-c105-4715-ab9b-87097272e8b0","system_id":"levelo_inurba_marseille","lat":43.302008,"lon":5.394694,"is_reserved":false,"is_disabled":false,"rental_uris":{"android":"levelo://app?vid=ea955316-c105-4715-ab9b-87097272e8b0","ios":"levelo://app?vid=ea955316-c105-4715-ab9b-87097272e8b0"},"vehicle_type_id":"4","last_reported":1700755740,"current_range_meters":8000,"station_id":"ce4bh0p2rcd13ifvqd70","pricing_plan_id":"free"},{"bike_id":"a805d190-1ad9-4359-8ad2-81d53086eb5a","system_id":"levelo_inurba_marseille","lat":43.29419,"lon":5.38626,"is_reserved":false,"is_disabled":false,"rental_uris":{"android":"levelo://app?vid=a805d190-1ad9-4359-8ad2-81d53086eb5a","ios":"levelo://app?vid=a805d190-1ad9-4359-8ad2-81d53086eb5a"},"vehicle_type_id":"4","last_reported":1700755740,"current_range_meters":0,"station_id":"ce4bh2h2rcd13ifvqdh0","pricing_plan_id":"free"},{"bike_id":"731fa430-2388-405b-bce5-b2677d32ca1b","system_id":"levelo_inurba_marseille","lat":43.289184,"lon":5.366408,"is_reserved":false,"is_disabled":false,"rental_uris":{"android":"levelo://app?vid=731fa430-2388-405b-bce5-b2677d32ca1b","ios":"levelo://app?vid=731fa430-2388-405b-bce5-b2677d32ca1b"},"vehicle_type_id":"4","last_reported":1700755740,"current_range_meters":11600,"station_id":"ce4bhap2rcd13ifvqek0","pricing_plan_id":"free"},{"bike_id":"ef450862-949f-4b1a-98cb-0664a451e081","system_id":"levelo_inurba_marseille","lat":43.289184,"lon":5.366408,"is_reserved":false,"is_disabled":false,"rental_uris":{"android":"levelo://app?vid=ef450862-949f-4b1a-98cb-0664a451e081","ios":"levelo://app?vid=ef450862-949f-4b1a-98cb-0664a451e081"},"vehicle_type_id":"4","last_reported":1700755740,"current_range_meters":0,"station_id":"ce4bhap2rcd13ifvqek0","pricing_plan_id":"free"},{"bike_id":"c9f6b709-10cc-40dc-8b94-ee3cde2da46a","system_id":"levelo_inurba_marseille","lat":43.28932,"lon":5.36405,"is_reserved":false,"is_disabled":false,"rental_uris":{"android":"levelo://app?vid=c9f6b709-10cc-40dc-8b94-ee3cde2da46a","ios":"levelo://app?vid=c9f6b709-10cc-40dc-8b94-ee3cde2da46a"},"vehicle_type_id":"4","last_reported":1700755740,"current_range_meters":18400,"station_id":"ce4bhc92rcd13ifvqetg","pricing_plan_id":"free"},{"bike_id":"47bc904b-7a33-4d0f-8770-74f8ff702b66","system_id":"levelo_inurba_marseille","lat":43.289468,"lon":5.363719,"is_reserved":false,"is_disabled":false,"rental_uris":{"android":"levelo://app?vid=47bc904b-7a33-4d0f-8770-74f8ff702b66","ios":"levelo://app?vid=47bc904b-7a33-4d0f-8770-74f8ff702b66"},"vehicle_type_id":"4","last_reported":1700755740,"current_range_meters":15200,"station_id":"ce4bhc92rcd13ifvqetg","pricing_plan_id":"free"},{"bike_id":"91f43715-e29c-420b-86ac-1e6c1a18d185","system_id":"levelo_inurba_marseille","lat":43.310125,"lon":5.399364,"is_reserved":false,"is_disabled":false,"rental_uris":{"android":"levelo://app?vid=91f43715-e29c-420b-86ac-1e6c1a18d185","ios":"levelo://app?vid=91f43715-e29c-420b-86ac-1e6c1a18d185"},"vehicle_type_id":"4","last_reported":1700755740,"current_range_meters":0,"station_id":"","pricing_plan_id":"free"},{"bike_id":"58bdf351-5d7e-4a10-9792-7a749a95de36","system_id":"levelo_inurba_marseille","lat":43.292642,"lon":5.384254,"is_reserved":false,"is_disabled":false,"rental_uris":{"android":"levelo://app?vid=58bdf351-5d7e-4a10-9792-7a749a95de36","ios":"levelo://app?vid=58bdf351-5d7e-4a10-9792-7a749a95de36"},"vehicle_type_id":"4","last_reported":1700755740,"current_range_meters":26800,"station_id":"ce4bh692rcd13ifvqea0","pricing_plan_id":"free"},{"bike_id":"c0fac844-81e3-43ca-a49c-cbfb0cb56fdc","system_id":"levelo_inurba_marseille","lat":43.29779,"lon":5.39336,"is_reserved":false,"is_disabled":false,"rental_uris":{"android":"levelo://app?vid=c0fac844-81e3-43ca-a49c-cbfb0cb56fdc","ios":"levelo://app?vid=c0fac844-81e3-43ca-a49c-cbfb0cb56fdc"},"vehicle_type_id":"4","last_reported":1700755740,"current_range_meters":16400,"station_id":"chh1huq6cuj3fo74tm60","pricing_plan_id":"free"},{"bike_id":"abbb8182-1a78-4d70-b671-161ac834f0fc","system_id":"levelo_inurba_marseille","lat":43.33102,"lon":5.38912,"is_reserved":false,"is_disabled":false,"rental_uris":{"android":"levelo://app?vid=abbb8182-1a78-4d70-b671-161ac834f0fc","ios":"levelo://app?vid=abbb8182-1a78-4d70-b671-161ac834f0fc"},"vehicle_type_id":"4","last_reported":1700755740,"current_range_meters":0,"station_id":"","pricing_plan_id":"free"},{"bike_id":"f5cf2a5e-5a39-49e3-8cf0-4a2ac2d30483","system_id":"levelo_inurba_marseille","lat":43.304274,"lon":5.397513,"is_reserved":false,"is_disabled":false,"rental_uris":{"android":"levelo://app?vid=f5cf2a5e-5a39-49e3-8cf0-4a2ac2d30483","ios":"levelo://app?vid=f5cf2a5e-5a39-49e3-8cf0-4a2ac2d30483"},"vehicle_type_id":"4","last_reported":1700755740,"current_range_meters":6800,"station_id":"ce4bh092rcd13ifvqd20","pricing_plan_id":"free"},{"bike_id":"c7d5fc0d-36a8-496d-a2ab-181b76e25cbf","system_id":"levelo_inurba_marseille","lat":43.312609,"lon":5.401662,"is_reserved":false,"is_disabled":false,"rental_uris":{"android":"levelo://app?vid=c7d5fc0d-36a8-496d-a2ab-181b76e25cbf","ios":"levelo://app?vid=c7d5fc0d-36a8-496d-a2ab-181b76e25cbf"},"vehicle_type_id":"4","last_reported":1700755740,"current_range_meters":4800,"station_id":"ce4bh092rcd13ifvqd30","pricing_plan_id":"free"},{"bike_id":"e746a6d4-6f39-438d-bf21-0c94d511d02f","system_id":"levelo_inurba_marseille","lat":43.306412,"lon":5.401035,"is_reserved":false,"is_disabled":false,"rental_uris":{"android":"levelo://app?vid=e746a6d4-6f39-438d-bf21-0c94d511d02f","ios":"levelo://app?vid=e746a6d4-6f39-438d-bf21-0c94d511d02f"},"vehicle_type_id":"4","last_reported":1700755740,"current_range_meters":25200,"station_id":"ce4bh112rcd13ifvqda0","pricing_plan_id":"free"},{"bike_id":"c34bdabb-f3d6-4701-8f0b-74533be7863e","system_id":"levelo_inurba_marseille","lat":43.301117,"lon":5.398795,"is_reserved":false,"is_disabled":false,"rental_uris":{"android":"levelo://app?vid=c34bdabb-f3d6-4701-8f0b-74533be7863e","ios":"levelo://app?vid=c34bdabb-f3d6-4701-8f0b-74533be7863e"},"vehicle_type_id":"4","last_reported":1700755740,"current_range_meters":4800,"station_id":"ce4bh0h2rcd13ifvqd40","pricing_plan_id":"free"},{"bike_id":"bb7c91a8-3cb2-41ba-8d4c-ddfb41686fa8","system_id":"levelo_inurba_marseille","lat":43.295196,"lon":5.39397,"is_reserved":false,"is_disabled":false,"rental_uris":{"android":"levelo://app?vid=bb7c91a8-3cb2-41ba-8d4c-ddfb41686fa8","ios":"levelo://app?vid=bb7c91a8-3cb2-41ba-8d4c-ddfb41686fa8"},"vehicle_type_id":"4","last_reported":1700755740,"current_range_meters":4400,"station_id":"ce4bh292rcd13ifvqdf0","pricing_plan_id":"free"},{"bike_id":"42cc0f4c-bd76-49cd-9ee1-3928a4858d5f","system_id":"levelo_inurba_marseille","lat":43.286961,"lon":5.373785,"is_reserved":false,"is_disabled":false,"rental_uris":{"android":"levelo://app?vid=42cc0f4c-bd76-49cd-9ee1-3928a4858d5f","ios":"levelo://app?vid=42cc0f4c-bd76-49cd-9ee1-3928a4858d5f"},"vehicle_type_id":"4","last_reported":1700755740,"current_range_meters":3600,"station_id":"ce4bh3p2rcd13ifvqdq0","pricing_plan_id":"free"},{"bike_id":"42e1c05e-ef31-4a36-aca0-42eee266633f","system_id":"levelo_inurba_marseille","lat":43.289307,"lon":5.38406,"is_reserved":false,"is_disabled":false,"rental_uris":{"android":"levelo://app?vid=42e1c05e-ef31-4a36-aca0-42eee266633f","ios":"levelo://app?vid=42e1c05e-ef31-4a36-aca0-42eee266633f"},"vehicle_type_id":"4","last_reported":1700755740,"current_range_meters":30000,"station_id":"ce4bh612rcd13ifvqe6g","pricing_plan_id":"free"},{"bike_id":"f047ef81-fa7a-44b1-8527-d954c1fb1988","system_id":"levelo_inurba_marseille","lat":43.28922,"lon":5.38399,"is_reserved":false,"is_disabled":false,"rental_uris":{"android":"levelo://app?vid=f047ef81-fa7a-44b1-8527-d954c1fb1988","ios":"levelo://app?vid=f047ef81-fa7a-44b1-8527-d954c1fb1988"},"vehicle_type_id":"4","last_reported":1700755740,"current_range_meters":24400,"station_id":"ce4bh612rcd13ifvqe6g","pricing_plan_id":"free"},{"bike_id":"8164012e-598c-49f3-a5b8-d0f71574baf5","system_id":"levelo_inurba_marseille","lat":43.28618,"lon":5.37067,"is_reserved":false,"is_disabled":false,"rental_uris":{"android":"levelo://app?vid=8164012e-598c-49f3-a5b8-d0f71574baf5","ios":"levelo://app?vid=8164012e-598c-49f3-a5b8-d0f71574baf5"},"vehicle_type_id":"4","last_reported":1700755740,"current_range_meters":9200,"station_id":"ce4bht12rcd13ifvqi60","pricing_plan_id":"free"},{"bike_id":"a4b00d87-ac2e-457c-9492-3ed75a99c968","system_id":"levelo_inurba_marseille","lat":43.286039,"lon":5.370679,"is_reserved":false,"is_disabled":false,"rental_uris":{"android":"levelo://app?vid=a4b00d87-ac2e-457c-9492-3ed75a99c968","ios":"levelo://app?vid=a4b00d87-ac2e-457c-9492-3ed75a99c968"},"vehicle_type_id":"4","last_reported":1700755740,"current_range_meters":18800,"station_id":"ce4bht12rcd13ifvqi60","pricing_plan_id":"free"},{"bike_id":"52495387-5c77-4ae6-8d36-705d49f3942e","system_id":"levelo_inurba_marseille","lat":43.28722,"lon":5.37936,"is_reserved":false,"is_disabled":false,"rental_uris":{"android":"levelo://app?vid=52495387-5c77-4ae6-8d36-705d49f3942e","ios":"levelo://app?vid=52495387-5c77-4ae6-8d36-705d49f3942e"},"vehicle_type_id":"4","last_reported":1700755740,"current_range_meters":14800,"station_id":"ce4bh9p2rcd13ifvqec0","pricing_plan_id":"free"},{"bike_id":"adbd441f-44c4-4168-877a-9278b4bd7ceb","system_id":"levelo_inurba_marseille","lat":43.331033,"lon":5.39726,"is_reserved":false,"is_disabled":false,"rental_uris":{"android":"levelo://app?vid=adbd441f-44c4-4168-877a-9278b4bd7ceb","ios":"levelo://app?vid=adbd441f-44c4-4168-877a-9278b4bd7ceb"},"vehicle_type_id":"4","last_reported":1700755740,"current_range_meters":17200,"station_id":"","pricing_plan_id":"free"},{"bike_id":"b4b1e005-0f86-44f6-881b-5449bef1f3b4","system_id":"levelo_inurba_marseille","lat":43.284538,"lon":5.358657,"is_reserved":false,"is_disabled":false,"rental_uris":{"android":"levelo://app?vid=b4b1e005-0f86-44f6-881b-5449bef1f3b4","ios":"levelo://app?vid=b4b1e005-0f86-44f6-881b-5449bef1f3b4"},"vehicle_type_id":"4","last_reported":1700755740,"current_range_meters":14000,"station_id":"ce4bhah2rcd13ifvqei0","pricing_plan_id":"free"},{"bike_id":"c398e26d-33d4-4bc4-8422-e0df537c17e1","system_id":"levelo_inurba_marseille","lat":43.284538,"lon":5.358657,"is_reserved":false,"is_disabled":false,"rental_uris":{"android":"levelo://app?vid=c398e26d-33d4-4bc4-8422-e0df537c17e1","ios":"levelo://app?vid=c398e26d-33d4-4bc4-8422-e0df537c17e1"},"vehicle_type_id":"4","last_reported":1700755740,"current_range_meters":14400,"station_id":"ce4bhah2rcd13ifvqei0","pricing_plan_id":"free"},{"bike_id":"0c72b6bc-9f16-4897-841a-5835901e7e16","system_id":"levelo_inurba_marseille","lat":43.284538,"lon":5.358657,"is_reserved":false,"is_disabled":false,"rental_uris":{"android":"levelo://app?vid=0c72b6bc-9f16-4897-841a-5835901e7e16","ios":"levelo://app?vid=0c72b6bc-9f16-4897-841a-5835901e7e16"},"vehicle_type_id":"4","last_reported":1700755740,"current_range_meters":27200,"station_id":"ce4bhah2rcd13ifvqei0","pricing_plan_id":"free"},{"bike_id":"66ae4cf7-7b71-420e-b92e-436996655851","system_id":"levelo_inurba_marseille","lat":43.284538,"lon":5.358657,"is_reserved":false,"is_disabled":false,"rental_uris":{"android":"levelo://app?vid=66ae4cf7-7b71-420e-b92e-436996655851","ios":"levelo://app?vid=66ae4cf7-7b71-420e-b92e-436996655851"},"vehicle_type_id":"4","last_reported":1700755740,"current_range_meters":24800,"station_id":"ce4bhah2rcd13ifvqei0","pricing_plan_id":"free"},{"bike_id":"97a7b791-c306-480d-867e-557fe88dad46","system_id":"levelo_inurba_marseille","lat":43.284534,"lon":5.358662,"is_reserved":false,"is_disabled":false,"rental_uris":{"android":"levelo://app?vid=97a7b791-c306-480d-867e-557fe88dad46","ios":"levelo://app?vid=97a7b791-c306-480d-867e-557fe88dad46"},"vehicle_type_id":"4","last_reported":1700755740,"current_range_meters":800,"station_id":"ce4bhah2rcd13ifvqei0","pricing_plan_id":"free"},{"bike_id":"b2851a33-db05-4aa6-a785-615990f2eff3","system_id":"levelo_inurba_marseille","lat":43.284538,"lon":5.358657,"is_reserved":false,"is_disabled":false,"rental_uris":{"android":"levelo://app?vid=b2851a33-db05-4aa6-a785-615990f2eff3","ios":"levelo://app?vid=b2851a33-db05-4aa6-a785-615990f2eff3"},"vehicle_type_id":"4","last_reported":1700755740,"current_range_meters":13600,"station_id":"ce4bhah2rcd13ifvqei0","pricing_plan_id":"free"},{"bike_id":"10e6ce4e-1729-4beb-b43a-494d42195930","system_id":"levelo_inurba_marseille","lat":43.284534,"lon":5.358662,"is_reserved":false,"is_disabled":false,"rental_uris":{"android":"levelo://app?vid=10e6ce4e-1729-4beb-b43a-494d42195930","ios":"levelo://app?vid=10e6ce4e-1729-4beb-b43a-494d42195930"},"vehicle_type_id":"4","last_reported":1700755740,"current_range_meters":25200,"station_id":"ce4bhah2rcd13ifvqei0","pricing_plan_id":"free"},{"bike_id":"5fa4bea7-c4d6-4063-beef-e86bb88b9ac7","system_id":"levelo_inurba_marseille","lat":43.284538,"lon":5.358657,"is_reserved":false,"is_disabled":false,"rental_uris":{"android":"levelo://app?vid=5fa4bea7-c4d6-4063-beef-e86bb88b9ac7","ios":"levelo://app?vid=5fa4bea7-c4d6-4063-beef-e86bb88b9ac7"},"vehicle_type_id":"4","last_reported":1700755740,"current_range_meters":24400,"station_id":"ce4bhah2rcd13ifvqei0","pricing_plan_id":"free"},{"bike_id":"8a57f11d-c414-4135-a740-e1425f3991d0","system_id":"levelo_inurba_marseille","lat":43.33717,"lon":5.391857,"is_reserved":false,"is_disabled":false,"rental_uris":{"android":"levelo://app?vid=8a57f11d-c414-4135-a740-e1425f3991d0","ios":"levelo://app?vid=8a57f11d-c414-4135-a740-e1425f3991d0"},"vehicle_type_id":"4","last_reported":1700755740,"current_range_meters":10400,"station_id":"ce4bhr92rcd13ifvqhsg","pricing_plan_id":"free"},{"bike_id":"0244ad37-c25d-46ed-811e-93438894f817","system_id":"levelo_inurba_marseille","lat":43.337168,"lon":5.391825,"is_reserved":false,"is_disabled":false,"rental_uris":{"android":"levelo://app?vid=0244ad37-c25d-46ed-811e-93438894f817","ios":"levelo://app?vid=0244ad37-c25d-46ed-811e-93438894f817"},"vehicle_type_id":"4","last_reported":1700755740,"current_range_meters":2000,"station_id":"ce4bhr92rcd13ifvqhsg","pricing_plan_id":"free"},{"bike_id":"33df67cf-87ee-4bed-bf0d-0f0f2d51e92d","system_id":"levelo_inurba_marseille","lat":43.28487,"lon":5.3842,"is_reserved":false,"is_disabled":false,"rental_uris":{"android":"levelo://app?vid=33df67cf-87ee-4bed-bf0d-0f0f2d51e92d","ios":"levelo://app?vid=33df67cf-87ee-4bed-bf0d-0f0f2d51e92d"},"vehicle_type_id":"4","last_reported":1700755740,"current_range_meters":0,"station_id":"ce4bh512rcd13ifvqe3g","pricing_plan_id":"free"},{"bike_id":"79b098d3-58e7-48e3-8f9e-e210349db040","system_id":"levelo_inurba_marseille","lat":43.288501,"lon":5.393087,"is_reserved":false,"is_disabled":false,"rental_uris":{"android":"levelo://app?vid=79b098d3-58e7-48e3-8f9e-e210349db040","ios":"levelo://app?vid=79b098d3-58e7-48e3-8f9e-e210349db040"},"vehicle_type_id":"4","last_reported":1700755740,"current_range_meters":28400,"station_id":"ce4bh2p2rcd13ifvqdi0","pricing_plan_id":"free"},{"bike_id":"efde2bf0-086d-485f-8fe4-43d1f7695765","system_id":"levelo_inurba_marseille","lat":43.284219,"lon":5.3497,"is_reserved":false,"is_disabled":false,"rental_uris":{"android":"levelo://app?vid=efde2bf0-086d-485f-8fe4-43d1f7695765","ios":"levelo://app?vid=efde2bf0-086d-485f-8fe4-43d1f7695765"},"vehicle_type_id":"4","last_reported":1700755740,"current_range_meters":4800,"station_id":"ce4bhbh2rcd13ifvqepg","pricing_plan_id":"free"},{"bike_id":"e2284003-4e46-4e0a-93e7-73d05c3666d9","system_id":"levelo_inurba_marseille","lat":43.33479,"lon":5.39788,"is_reserved":false,"is_disabled":false,"rental_uris":{"android":"levelo://app?vid=e2284003-4e46-4e0a-93e7-73d05c3666d9","ios":"levelo://app?vid=e2284003-4e46-4e0a-93e7-73d05c3666d9"},"vehicle_type_id":"4","last_reported":1700755740,"current_range_meters":26400,"station_id":"","pricing_plan_id":"free"},{"bike_id":"5a026ef8-c10a-4020-a588-e2539a09a52d","system_id":"levelo_inurba_marseille","lat":43.292724,"lon":5.401131,"is_reserved":false,"is_disabled":false,"rental_uris":{"android":"levelo://app?vid=5a026ef8-c10a-4020-a588-e2539a09a52d","ios":"levelo://app?vid=5a026ef8-c10a-4020-a588-e2539a09a52d"},"vehicle_type_id":"4","last_reported":1700755740,"current_range_meters":11600,"station_id":"ce4bh312rcd13ifvqdk0","pricing_plan_id":"free"},{"bike_id":"9f406700-c6fa-44c2-b209-2e781c68762e","system_id":"levelo_inurba_marseille","lat":43.28627,"lon":5.39143,"is_reserved":false,"is_disabled":false,"rental_uris":{"android":"levelo://app?vid=9f406700-c6fa-44c2-b209-2e781c68762e","ios":"levelo://app?vid=9f406700-c6fa-44c2-b209-2e781c68762e"},"vehicle_type_id":"4","last_reported":1700755740,"current_range_meters":7600,"station_id":"","pricing_plan_id":"free"},{"bike_id":"42fdeb6a-5eb6-4e91-a08e-607bb878f908","system_id":"levelo_inurba_marseille","lat":43.282754,"lon":5.350519,"is_reserved":false,"is_disabled":false,"rental_uris":{"android":"levelo://app?vid=42fdeb6a-5eb6-4e91-a08e-607bb878f908","ios":"levelo://app?vid=42fdeb6a-5eb6-4e91-a08e-607bb878f908"},"vehicle_type_id":"4","last_reported":1700755740,"current_range_meters":16800,"station_id":"ce4bhbp2rcd13ifvqerg","pricing_plan_id":"free"},{"bike_id":"f47a9dca-6225-42e7-a5dc-0c1b98f237f6","system_id":"levelo_inurba_marseille","lat":43.282754,"lon":5.350519,"is_reserved":false,"is_disabled":false,"rental_uris":{"android":"levelo://app?vid=f47a9dca-6225-42e7-a5dc-0c1b98f237f6","ios":"levelo://app?vid=f47a9dca-6225-42e7-a5dc-0c1b98f237f6"},"vehicle_type_id":"4","last_reported":1700755740,"current_range_meters":28000,"station_id":"ce4bhbp2rcd13ifvqerg","pricing_plan_id":"free"},{"bike_id":"120cf939-d266-42c6-8775-2faf5edf0692","system_id":"levelo_inurba_marseille","lat":43.28039,"lon":5.369297,"is_reserved":false,"is_disabled":false,"rental_uris":{"android":"levelo://app?vid=120cf939-d266-42c6-8775-2faf5edf0692","ios":"levelo://app?vid=120cf939-d266-42c6-8775-2faf5edf0692"},"vehicle_type_id":"4","last_reported":1700755740,"current_range_meters":27200,"station_id":"ce4bha12rcd13ifvqef0","pricing_plan_id":"free"},{"bike_id":"db329319-c3de-4db2-8c49-27cab9d9c7c1","system_id":"levelo_inurba_marseille","lat":43.28037,"lon":5.36939,"is_reserved":false,"is_disabled":false,"rental_uris":{"android":"levelo://app?vid=db329319-c3de-4db2-8c49-27cab9d9c7c1","ios":"levelo://app?vid=db329319-c3de-4db2-8c49-27cab9d9c7c1"},"vehicle_type_id":"4","last_reported":1700755740,"current_range_meters":16400,"station_id":"ce4bha12rcd13ifvqef0","pricing_plan_id":"free"},{"bike_id":"9ad862a4-4c0c-40d6-b42f-4fe1401d19b7","system_id":"levelo_inurba_marseille","lat":43.28036,"lon":5.36945,"is_reserved":false,"is_disabled":false,"rental_uris":{"android":"levelo://app?vid=9ad862a4-4c0c-40d6-b42f-4fe1401d19b7","ios":"levelo://app?vid=9ad862a4-4c0c-40d6-b42f-4fe1401d19b7"},"vehicle_type_id":"4","last_reported":1700755740,"current_range_meters":29200,"station_id":"ce4bha12rcd13ifvqef0","pricing_plan_id":"free"},{"bike_id":"372eb93b-80ec-49ae-a74c-b0f24b6b592b","system_id":"levelo_inurba_marseille","lat":43.28035,"lon":5.3694,"is_reserved":false,"is_disabled":false,"rental_uris":{"android":"levelo://app?vid=372eb93b-80ec-49ae-a74c-b0f24b6b592b","ios":"levelo://app?vid=372eb93b-80ec-49ae-a74c-b0f24b6b592b"},"vehicle_type_id":"4","last_reported":1700755740,"current_range_meters":22000,"station_id":"ce4bha12rcd13ifvqef0","pricing_plan_id":"free"},{"bike_id":"1e98dc10-de50-4d81-8a1b-71d9403349bb","system_id":"levelo_inurba_marseille","lat":43.28253,"lon":5.35063,"is_reserved":false,"is_disabled":false,"rental_uris":{"android":"levelo://app?vid=1e98dc10-de50-4d81-8a1b-71d9403349bb","ios":"levelo://app?vid=1e98dc10-de50-4d81-8a1b-71d9403349bb"},"vehicle_type_id":"4","last_reported":1700755740,"current_range_meters":20400,"station_id":"ce4bhbp2rcd13ifvqerg","pricing_plan_id":"free"},{"bike_id":"e05d5c00-a409-4cef-b348-88ea16a82ce0","system_id":"levelo_inurba_marseille","lat":43.28252,"lon":5.3506,"is_reserved":false,"is_disabled":false,"rental_uris":{"android":"levelo://app?vid=e05d5c00-a409-4cef-b348-88ea16a82ce0","ios":"levelo://app?vid=e05d5c00-a409-4cef-b348-88ea16a82ce0"},"vehicle_type_id":"4","last_reported":1700755740,"current_range_meters":24000,"station_id":"ce4bhbp2rcd13ifvqerg","pricing_plan_id":"free"},{"bike_id":"22c453ae-7cfc-4848-b65e-a5714fa01f37","system_id":"levelo_inurba_marseille","lat":43.280382,"lon":5.369291,"is_reserved":false,"is_disabled":false,"rental_uris":{"android":"levelo://app?vid=22c453ae-7cfc-4848-b65e-a5714fa01f37","ios":"levelo://app?vid=22c453ae-7cfc-4848-b65e-a5714fa01f37"},"vehicle_type_id":"4","last_reported":1700755740,"current_range_meters":31200,"station_id":"ce4bha12rcd13ifvqef0","pricing_plan_id":"free"},{"bike_id":"41b32225-c8a9-4a50-b754-507a314aed34","system_id":"levelo_inurba_marseille","lat":43.280382,"lon":5.369291,"is_reserved":false,"is_disabled":false,"rental_uris":{"android":"levelo://app?vid=41b32225-c8a9-4a50-b754-507a314aed34","ios":"levelo://app?vid=41b32225-c8a9-4a50-b754-507a314aed34"},"vehicle_type_id":"4","last_reported":1700755740,"current_range_meters":31200,"station_id":"ce4bha12rcd13ifvqef0","pricing_plan_id":"free"},{"bike_id":"09e388af-b1f5-403b-9f69-d726e879d310","system_id":"levelo_inurba_marseille","lat":43.296263,"lon":5.40601,"is_reserved":false,"is_disabled":false,"rental_uris":{"android":"levelo://app?vid=09e388af-b1f5-403b-9f69-d726e879d310","ios":"levelo://app?vid=09e388af-b1f5-403b-9f69-d726e879d310"},"vehicle_type_id":"4","last_reported":1700755740,"current_range_meters":23200,"station_id":"ce4bh0h2rcd13ifvqd60","pricing_plan_id":"free"},{"bike_id":"4a358834-7939-4ccd-a279-4daba74f694c","system_id":"levelo_inurba_marseille","lat":43.284462,"lon":5.392121,"is_reserved":false,"is_disabled":false,"rental_uris":{"android":"levelo://app?vid=4a358834-7939-4ccd-a279-4daba74f694c","ios":"levelo://app?vid=4a358834-7939-4ccd-a279-4daba74f694c"},"vehicle_type_id":"4","last_reported":1700755740,"current_range_meters":10800,"station_id":"ce4bhoh2rcd13ifvqh5g","pricing_plan_id":"free"},{"bike_id":"88a624b1-b633-4b62-b141-f367a382c638","system_id":"levelo_inurba_marseille","lat":43.30421,"lon":5.41273,"is_reserved":false,"is_disabled":false,"rental_uris":{"android":"levelo://app?vid=88a624b1-b633-4b62-b141-f367a382c638","ios":"levelo://app?vid=88a624b1-b633-4b62-b141-f367a382c638"},"vehicle_type_id":"4","last_reported":1700755740,"current_range_meters":16000,"station_id":"ce4bhop2rcd13ifvqh8g","pricing_plan_id":"free"},{"bike_id":"8e360a99-579d-498b-8373-2b154126c995","system_id":"levelo_inurba_marseille","lat":43.304188,"lon":5.412904,"is_reserved":false,"is_disabled":false,"rental_uris":{"android":"levelo://app?vid=8e360a99-579d-498b-8373-2b154126c995","ios":"levelo://app?vid=8e360a99-579d-498b-8373-2b154126c995"},"vehicle_type_id":"4","last_reported":1700755740,"current_range_meters":30800,"station_id":"ce4bhop2rcd13ifvqh8g","pricing_plan_id":"free"},{"bike_id":"6ef4d231-d4e9-4026-8af2-24c6ef37ad14","system_id":"levelo_inurba_marseille","lat":43.30426,"lon":5.412819,"is_reserved":false,"is_disabled":false,"rental_uris":{"android":"levelo://app?vid=6ef4d231-d4e9-4026-8af2-24c6ef37ad14","ios":"levelo://app?vid=6ef4d231-d4e9-4026-8af2-24c6ef37ad14"},"vehicle_type_id":"4","last_reported":1700755740,"current_range_meters":18000,"station_id":"ce4bhop2rcd13ifvqh8g","pricing_plan_id":"free"},{"bike_id":"daf23069-4582-4007-9aa6-700490719ebe","system_id":"levelo_inurba_marseille","lat":43.287154,"lon":5.399979,"is_reserved":false,"is_disabled":false,"rental_uris":{"android":"levelo://app?vid=daf23069-4582-4007-9aa6-700490719ebe","ios":"levelo://app?vid=daf23069-4582-4007-9aa6-700490719ebe"},"vehicle_type_id":"4","last_reported":1700755740,"current_range_meters":27600,"station_id":"ce4bho92rcd13ifvqh3g","pricing_plan_id":"free"},{"bike_id":"6e2c2465-4e40-4aae-912b-ca1fbcdf1978","system_id":"levelo_inurba_marseille","lat":43.327,"lon":5.41236,"is_reserved":false,"is_disabled":false,"rental_uris":{"android":"levelo://app?vid=6e2c2465-4e40-4aae-912b-ca1fbcdf1978","ios":"levelo://app?vid=6e2c2465-4e40-4aae-912b-ca1fbcdf1978"},"vehicle_type_id":"4","last_reported":1700755740,"current_range_meters":0,"station_id":"","pricing_plan_id":"free"},{"bike_id":"a8e2b52b-9ba9-4b70-bcb4-1e1ad46ab6fe","system_id":"levelo_inurba_marseille","lat":43.29939,"lon":5.41321,"is_reserved":false,"is_disabled":false,"rental_uris":{"android":"levelo://app?vid=a8e2b52b-9ba9-4b70-bcb4-1e1ad46ab6fe","ios":"levelo://app?vid=a8e2b52b-9ba9-4b70-bcb4-1e1ad46ab6fe"},"vehicle_type_id":"4","last_reported":1700755740,"current_range_meters":30800,"station_id":"ce4bhp12rcd13ifvqh9g","pricing_plan_id":"free"},{"bike_id":"7011775b-c0e4-46dc-8231-7485425aba5f","system_id":"levelo_inurba_marseille","lat":43.29931,"lon":5.4133,"is_reserved":false,"is_disabled":false,"rental_uris":{"android":"levelo://app?vid=7011775b-c0e4-46dc-8231-7485425aba5f","ios":"levelo://app?vid=7011775b-c0e4-46dc-8231-7485425aba5f"},"vehicle_type_id":"4","last_reported":1700755740,"current_range_meters":26800,"station_id":"ce4bhp12rcd13ifvqh9g","pricing_plan_id":"free"},{"bike_id":"cf7c6503-d761-4e4a-b826-f55f74848caf","system_id":"levelo_inurba_marseille","lat":43.34882,"lon":5.37507,"is_reserved":false,"is_disabled":false,"rental_uris":{"android":"levelo://app?vid=cf7c6503-d761-4e4a-b826-f55f74848caf","ios":"levelo://app?vid=cf7c6503-d761-4e4a-b826-f55f74848caf"},"vehicle_type_id":"4","last_reported":1700755740,"current_range_meters":400,"station_id":"","pricing_plan_id":"free"},{"bike_id":"0475e105-3a55-49ec-ac82-47c13dde5cb3","system_id":"levelo_inurba_marseille","lat":43.2761,"lon":5.36117,"is_reserved":false,"is_disabled":false,"rental_uris":{"android":"levelo://app?vid=0475e105-3a55-49ec-ac82-47c13dde5cb3","ios":"levelo://app?vid=0475e105-3a55-49ec-ac82-47c13dde5cb3"},"vehicle_type_id":"4","last_reported":1700755740,"current_range_meters":12000,"station_id":"ce4bgj92rcd13ifvqbe0","pricing_plan_id":"free"},{"bike_id":"5d19bf6c-7648-4ff2-8860-ef1baf092491","system_id":"levelo_inurba_marseille","lat":43.280784,"lon":5.396622,"is_reserved":false,"is_disabled":false,"rental_uris":{"android":"levelo://app?vid=5d19bf6c-7648-4ff2-8860-ef1baf092491","ios":"levelo://app?vid=5d19bf6c-7648-4ff2-8860-ef1baf092491"},"vehicle_type_id":"4","last_reported":1700755740,"current_range_meters":14800,"station_id":"ce4bho12rcd13ifvqh2g","pricing_plan_id":"free"},{"bike_id":"045f565a-4f29-4a1f-a970-009ce7a3a8c5","system_id":"levelo_inurba_marseille","lat":43.303837,"lon":5.418724,"is_reserved":false,"is_disabled":false,"rental_uris":{"android":"levelo://app?vid=045f565a-4f29-4a1f-a970-009ce7a3a8c5","ios":"levelo://app?vid=045f565a-4f29-4a1f-a970-009ce7a3a8c5"},"vehicle_type_id":"4","last_reported":1700755740,"current_range_meters":21200,"station_id":"ce4bhop2rcd13ifvqh7g","pricing_plan_id":"free"},{"bike_id":"47f221d5-968e-4fd9-893c-7fb43f4ce35a","system_id":"levelo_inurba_marseille","lat":43.278399,"lon":5.392139,"is_reserved":false,"is_disabled":false,"rental_uris":{"android":"levelo://app?vid=47f221d5-968e-4fd9-893c-7fb43f4ce35a","ios":"levelo://app?vid=47f221d5-968e-4fd9-893c-7fb43f4ce35a"},"vehicle_type_id":"4","last_reported":1700755740,"current_range_meters":14400,"station_id":"ce4bhjp2rcd13ifvqga0","pricing_plan_id":"free"},{"bike_id":"e039b260-50af-4976-a0b6-f5a58609b6c4","system_id":"levelo_inurba_marseille","lat":43.278399,"lon":5.392139,"is_reserved":false,"is_disabled":false,"rental_uris":{"android":"levelo://app?vid=e039b260-50af-4976-a0b6-f5a58609b6c4","ios":"levelo://app?vid=e039b260-50af-4976-a0b6-f5a58609b6c4"},"vehicle_type_id":"4","last_reported":1700755740,"current_range_meters":15600,"station_id":"ce4bhjp2rcd13ifvqga0","pricing_plan_id":"free"},{"bike_id":"4043b474-b5ba-43f1-8754-efc7e66c3e3f","system_id":"levelo_inurba_marseille","lat":43.273613,"lon":5.362705,"is_reserved":false,"is_disabled":false,"rental_uris":{"android":"levelo://app?vid=4043b474-b5ba-43f1-8754-efc7e66c3e3f","ios":"levelo://app?vid=4043b474-b5ba-43f1-8754-efc7e66c3e3f"},"vehicle_type_id":"4","last_reported":1700755740,"current_range_meters":28000,"station_id":"ce4bhbh2rcd13ifvqeo0","pricing_plan_id":"free"},{"bike_id":"3ab916d7-9199-4e3e-a401-b8fa636cd35b","system_id":"levelo_inurba_marseille","lat":43.273613,"lon":5.362705,"is_reserved":false,"is_disabled":false,"rental_uris":{"android":"levelo://app?vid=3ab916d7-9199-4e3e-a401-b8fa636cd35b","ios":"levelo://app?vid=3ab916d7-9199-4e3e-a401-b8fa636cd35b"},"vehicle_type_id":"4","last_reported":1700755740,"current_range_meters":31200,"station_id":"ce4bhbh2rcd13ifvqeo0","pricing_plan_id":"free"},{"bike_id":"2cf4f1d8-1e21-47b9-bd18-5b4ec8a41dda","system_id":"levelo_inurba_marseille","lat":43.273613,"lon":5.362705,"is_reserved":false,"is_disabled":false,"rental_uris":{"android":"levelo://app?vid=2cf4f1d8-1e21-47b9-bd18-5b4ec8a41dda","ios":"levelo://app?vid=2cf4f1d8-1e21-47b9-bd18-5b4ec8a41dda"},"vehicle_type_id":"4","last_reported":1700755740,"current_range_meters":18400,"station_id":"ce4bhbh2rcd13ifvqeo0","pricing_plan_id":"free"},{"bike_id":"577d5cb3-145f-4c52-9d66-03e6ed6d7af2","system_id":"levelo_inurba_marseille","lat":43.275625,"lon":5.384392,"is_reserved":false,"is_disabled":false,"rental_uris":{"android":"levelo://app?vid=577d5cb3-145f-4c52-9d66-03e6ed6d7af2","ios":"levelo://app?vid=577d5cb3-145f-4c52-9d66-03e6ed6d7af2"},"vehicle_type_id":"4","last_reported":1700755740,"current_range_meters":23600,"station_id":"ce4bhh92rcd13ifvqfi0","pricing_plan_id":"free"},{"bike_id":"b15fbec5-8078-4961-ad3e-8a84730caa09","system_id":"levelo_inurba_marseille","lat":43.273613,"lon":5.362705,"is_reserved":false,"is_disabled":false,"rental_uris":{"android":"levelo://app?vid=b15fbec5-8078-4961-ad3e-8a84730caa09","ios":"levelo://app?vid=b15fbec5-8078-4961-ad3e-8a84730caa09"},"vehicle_type_id":"4","last_reported":1700755740,"current_range_meters":30800,"station_id":"ce4bhbh2rcd13ifvqeo0","pricing_plan_id":"free"},{"bike_id":"8b4ef16f-7299-4e88-801d-ef1488fb616a","system_id":"levelo_inurba_marseille","lat":43.273609,"lon":5.362708,"is_reserved":false,"is_disabled":false,"rental_uris":{"android":"levelo://app?vid=8b4ef16f-7299-4e88-801d-ef1488fb616a","ios":"levelo://app?vid=8b4ef16f-7299-4e88-801d-ef1488fb616a"},"vehicle_type_id":"4","last_reported":1700755740,"current_range_meters":27200,"station_id":"ce4bhbh2rcd13ifvqeo0","pricing_plan_id":"free"},{"bike_id":"4e60ba1a-37af-4135-9b59-25b091cdd67f","system_id":"levelo_inurba_marseille","lat":43.275625,"lon":5.384392,"is_reserved":false,"is_disabled":false,"rental_uris":{"android":"levelo://app?vid=4e60ba1a-37af-4135-9b59-25b091cdd67f","ios":"levelo://app?vid=4e60ba1a-37af-4135-9b59-25b091cdd67f"},"vehicle_type_id":"4","last_reported":1700755740,"current_range_meters":14800,"station_id":"ce4bhh92rcd13ifvqfi0","pricing_plan_id":"free"},{"bike_id":"14924201-f905-406d-a189-c5f3f101adf3","system_id":"levelo_inurba_marseille","lat":43.28003,"lon":5.40012,"is_reserved":false,"is_disabled":false,"rental_uris":{"android":"levelo://app?vid=14924201-f905-406d-a189-c5f3f101adf3","ios":"levelo://app?vid=14924201-f905-406d-a189-c5f3f101adf3"},"vehicle_type_id":"4","last_reported":1700755740,"current_range_meters":7600,"station_id":"ce4bho92rcd13ifvqh4g","pricing_plan_id":"free"},{"bike_id":"f1900cb9-91aa-4f87-be96-dcbf7b8fdff1","system_id":"levelo_inurba_marseille","lat":43.28002,"lon":5.40017,"is_reserved":false,"is_disabled":false,"rental_uris":{"android":"levelo://app?vid=f1900cb9-91aa-4f87-be96-dcbf7b8fdff1","ios":"levelo://app?vid=f1900cb9-91aa-4f87-be96-dcbf7b8fdff1"},"vehicle_type_id":"4","last_reported":1700755740,"current_range_meters":17200,"station_id":"ce4bho92rcd13ifvqh4g","pricing_plan_id":"free"},{"bike_id":"149db787-fdf2-4b68-a24e-3684109179f8","system_id":"levelo_inurba_marseille","lat":43.27996,"lon":5.40012,"is_reserved":false,"is_disabled":false,"rental_uris":{"android":"levelo://app?vid=149db787-fdf2-4b68-a24e-3684109179f8","ios":"levelo://app?vid=149db787-fdf2-4b68-a24e-3684109179f8"},"vehicle_type_id":"4","last_reported":1700755740,"current_range_meters":30000,"station_id":"ce4bho92rcd13ifvqh4g","pricing_plan_id":"free"},{"bike_id":"b3c9dcd3-865f-42dd-8eff-2ab6406c8b1b","system_id":"levelo_inurba_marseille","lat":43.279952,"lon":5.400085,"is_reserved":false,"is_disabled":false,"rental_uris":{"android":"levelo://app?vid=b3c9dcd3-865f-42dd-8eff-2ab6406c8b1b","ios":"levelo://app?vid=b3c9dcd3-865f-42dd-8eff-2ab6406c8b1b"},"vehicle_type_id":"4","last_reported":1700755740,"current_range_meters":23600,"station_id":"ce4bho92rcd13ifvqh4g","pricing_plan_id":"free"},{"bike_id":"7b23025e-3e59-4334-a31d-c2cc870a7c0e","system_id":"levelo_inurba_marseille","lat":43.295511,"lon":5.422926,"is_reserved":false,"is_disabled":false,"rental_uris":{"android":"levelo://app?vid=7b23025e-3e59-4334-a31d-c2cc870a7c0e","ios":"levelo://app?vid=7b23025e-3e59-4334-a31d-c2cc870a7c0e"},"vehicle_type_id":"4","last_reported":1700755740,"current_range_meters":21200,"station_id":"ce4bhph2rcd13ifvqhdg","pricing_plan_id":"free"},{"bike_id":"0ec9cdee-9bf5-453d-bbd8-0345b593a6bb","system_id":"levelo_inurba_marseille","lat":43.295511,"lon":5.422926,"is_reserved":false,"is_disabled":false,"rental_uris":{"android":"levelo://app?vid=0ec9cdee-9bf5-453d-bbd8-0345b593a6bb","ios":"levelo://app?vid=0ec9cdee-9bf5-453d-bbd8-0345b593a6bb"},"vehicle_type_id":"4","last_reported":1700755740,"current_range_meters":26400,"station_id":"ce4bhph2rcd13ifvqhdg","pricing_plan_id":"free"},{"bike_id":"72d3541b-d0ba-4970-8e11-62588791666b","system_id":"levelo_inurba_marseille","lat":43.295511,"lon":5.422926,"is_reserved":false,"is_disabled":false,"rental_uris":{"android":"levelo://app?vid=72d3541b-d0ba-4970-8e11-62588791666b","ios":"levelo://app?vid=72d3541b-d0ba-4970-8e11-62588791666b"},"vehicle_type_id":"4","last_reported":1700755740,"current_range_meters":29600,"station_id":"ce4bhph2rcd13ifvqhdg","pricing_plan_id":"free"},{"bike_id":"e57f52ed-652d-4955-80f2-72fbd24238b5","system_id":"levelo_inurba_marseille","lat":43.295511,"lon":5.422926,"is_reserved":false,"is_disabled":false,"rental_uris":{"android":"levelo://app?vid=e57f52ed-652d-4955-80f2-72fbd24238b5","ios":"levelo://app?vid=e57f52ed-652d-4955-80f2-72fbd24238b5"},"vehicle_type_id":"4","last_reported":1700755740,"current_range_meters":8400,"station_id":"ce4bhph2rcd13ifvqhdg","pricing_plan_id":"free"},{"bike_id":"48c1fbfb-e6c4-4c56-a75c-55416f8bb4c3","system_id":"levelo_inurba_marseille","lat":43.272195,"lon":5.39252,"is_reserved":false,"is_disabled":false,"rental_uris":{"android":"levelo://app?vid=48c1fbfb-e6c4-4c56-a75c-55416f8bb4c3","ios":"levelo://app?vid=48c1fbfb-e6c4-4c56-a75c-55416f8bb4c3"},"vehicle_type_id":"4","last_reported":1700755740,"current_range_meters":25200,"station_id":"","pricing_plan_id":"free"},{"bike_id":"f09bbb26-d053-46d1-8ed0-bce54cc3171a","system_id":"levelo_inurba_marseille","lat":43.278128,"lon":5.407195,"is_reserved":false,"is_disabled":false,"rental_uris":{"android":"levelo://app?vid=f09bbb26-d053-46d1-8ed0-bce54cc3171a","ios":"levelo://app?vid=f09bbb26-d053-46d1-8ed0-bce54cc3171a"},"vehicle_type_id":"4","last_reported":1700755740,"current_range_meters":26400,"station_id":"ce4bhnh2rcd13ifvqgtg","pricing_plan_id":"free"},{"bike_id":"01fa973a-8c73-40cc-9718-142c88ceaefc","system_id":"levelo_inurba_marseille","lat":43.278128,"lon":5.407195,"is_reserved":false,"is_disabled":false,"rental_uris":{"android":"levelo://app?vid=01fa973a-8c73-40cc-9718-142c88ceaefc","ios":"levelo://app?vid=01fa973a-8c73-40cc-9718-142c88ceaefc"},"vehicle_type_id":"4","last_reported":1700755740,"current_range_meters":22800,"station_id":"ce4bhnh2rcd13ifvqgtg","pricing_plan_id":"free"},{"bike_id":"ac271da3-346c-428a-8b63-4a456d0d7d57","system_id":"levelo_inurba_marseille","lat":43.278128,"lon":5.407195,"is_reserved":false,"is_disabled":false,"rental_uris":{"android":"levelo://app?vid=ac271da3-346c-428a-8b63-4a456d0d7d57","ios":"levelo://app?vid=ac271da3-346c-428a-8b63-4a456d0d7d57"},"vehicle_type_id":"4","last_reported":1700755740,"current_range_meters":28000,"station_id":"ce4bhnh2rcd13ifvqgtg","pricing_plan_id":"free"},{"bike_id":"80a09980-f790-49cf-af6c-535c549912ab","system_id":"levelo_inurba_marseille","lat":43.278128,"lon":5.407195,"is_reserved":false,"is_disabled":false,"rental_uris":{"android":"levelo://app?vid=80a09980-f790-49cf-af6c-535c549912ab","ios":"levelo://app?vid=80a09980-f790-49cf-af6c-535c549912ab"},"vehicle_type_id":"4","last_reported":1700755740,"current_range_meters":22400,"station_id":"ce4bhnh2rcd13ifvqgtg","pricing_plan_id":"free"},{"bike_id":"7d743a81-1738-4073-ace5-fc737b562d1e","system_id":"levelo_inurba_marseille","lat":43.269495,"lon":5.386302,"is_reserved":false,"is_disabled":false,"rental_uris":{"android":"levelo://app?vid=7d743a81-1738-4073-ace5-fc737b562d1e","ios":"levelo://app?vid=7d743a81-1738-4073-ace5-fc737b562d1e"},"vehicle_type_id":"4","last_reported":1700755740,"current_range_meters":30400,"station_id":"ce4bhh92rcd13ifvqfh0","pricing_plan_id":"free"},{"bike_id":"ef750200-dabe-4ea5-aab3-a49e4ddffd43","system_id":"levelo_inurba_marseille","lat":43.26941,"lon":5.38633,"is_reserved":false,"is_disabled":false,"rental_uris":{"android":"levelo://app?vid=ef750200-dabe-4ea5-aab3-a49e4ddffd43","ios":"levelo://app?vid=ef750200-dabe-4ea5-aab3-a49e4ddffd43"},"vehicle_type_id":"4","last_reported":1700755740,"current_range_meters":18000,"station_id":"","pricing_plan_id":"free"},{"bike_id":"b6bffa22-9468-46ef-963e-610f0f7a1b11","system_id":"levelo_inurba_marseille","lat":43.26935,"lon":5.38919,"is_reserved":false,"is_disabled":false,"rental_uris":{"android":"levelo://app?vid=b6bffa22-9468-46ef-963e-610f0f7a1b11","ios":"levelo://app?vid=b6bffa22-9468-46ef-963e-610f0f7a1b11"},"vehicle_type_id":"4","last_reported":1700755740,"current_range_meters":26000,"station_id":"","pricing_plan_id":"free"},{"bike_id":"964667e6-f8e8-42b8-b3c4-a46a34dc2a14","system_id":"levelo_inurba_marseille","lat":43.26967,"lon":5.39248,"is_reserved":false,"is_disabled":false,"rental_uris":{"android":"levelo://app?vid=964667e6-f8e8-42b8-b3c4-a46a34dc2a14","ios":"levelo://app?vid=964667e6-f8e8-42b8-b3c4-a46a34dc2a14"},"vehicle_type_id":"4","last_reported":1700755740,"current_range_meters":11200,"station_id":"","pricing_plan_id":"free"},{"bike_id":"b7db5c54-de32-4eb4-be54-5c7b17738ebc","system_id":"levelo_inurba_marseille","lat":43.26555,"lon":5.37284,"is_reserved":false,"is_disabled":false,"rental_uris":{"android":"levelo://app?vid=b7db5c54-de32-4eb4-be54-5c7b17738ebc","ios":"levelo://app?vid=b7db5c54-de32-4eb4-be54-5c7b17738ebc"},"vehicle_type_id":"4","last_reported":1700755740,"current_range_meters":1600,"station_id":"ce4bhg12rcd13ifvqf70","pricing_plan_id":"free"},{"bike_id":"28e8ce00-6b21-4e06-9930-c7c4408cc650","system_id":"levelo_inurba_marseille","lat":43.326174,"lon":5.430584,"is_reserved":false,"is_disabled":false,"rental_uris":{"android":"levelo://app?vid=28e8ce00-6b21-4e06-9930-c7c4408cc650","ios":"levelo://app?vid=28e8ce00-6b21-4e06-9930-c7c4408cc650"},"vehicle_type_id":"4","last_reported":1700755740,"current_range_meters":2400,"station_id":"","pricing_plan_id":"free"},{"bike_id":"2b5f0b27-ae58-4e9e-bd76-c585f78e8a73","system_id":"levelo_inurba_marseille","lat":43.26386,"lon":5.37454,"is_reserved":false,"is_disabled":false,"rental_uris":{"android":"levelo://app?vid=2b5f0b27-ae58-4e9e-bd76-c585f78e8a73","ios":"levelo://app?vid=2b5f0b27-ae58-4e9e-bd76-c585f78e8a73"},"vehicle_type_id":"4","last_reported":1700755740,"current_range_meters":18000,"station_id":"","pricing_plan_id":"free"},{"bike_id":"5a72c296-5d91-4ac5-a88b-5369e1512138","system_id":"levelo_inurba_marseille","lat":43.308051,"lon":5.43527,"is_reserved":false,"is_disabled":false,"rental_uris":{"android":"levelo://app?vid=5a72c296-5d91-4ac5-a88b-5369e1512138","ios":"levelo://app?vid=5a72c296-5d91-4ac5-a88b-5369e1512138"},"vehicle_type_id":"4","last_reported":1700755740,"current_range_meters":30400,"station_id":"ce4bhph2rcd13ifvqheg","pricing_plan_id":"free"},{"bike_id":"03fbdde1-bb27-4f24-965c-37bb00e0f7c7","system_id":"levelo_inurba_marseille","lat":43.26942,"lon":5.40253,"is_reserved":false,"is_disabled":false,"rental_uris":{"android":"levelo://app?vid=03fbdde1-bb27-4f24-965c-37bb00e0f7c7","ios":"levelo://app?vid=03fbdde1-bb27-4f24-965c-37bb00e0f7c7"},"vehicle_type_id":"4","last_reported":1700755740,"current_range_meters":10400,"station_id":"cjm6bp8fraef2m0cb0m0","pricing_plan_id":"free"},{"bike_id":"cd794d31-e23e-40f8-8ce9-b587f81ca4b2","system_id":"levelo_inurba_marseille","lat":43.26936,"lon":5.40255,"is_reserved":false,"is_disabled":false,"rental_uris":{"android":"levelo://app?vid=cd794d31-e23e-40f8-8ce9-b587f81ca4b2","ios":"levelo://app?vid=cd794d31-e23e-40f8-8ce9-b587f81ca4b2"},"vehicle_type_id":"4","last_reported":1700755740,"current_range_meters":8800,"station_id":"","pricing_plan_id":"free"},{"bike_id":"12b18236-02f7-417a-a34f-d87fc2e98b72","system_id":"levelo_inurba_marseille","lat":43.317104,"lon":5.436818,"is_reserved":false,"is_disabled":false,"rental_uris":{"android":"levelo://app?vid=12b18236-02f7-417a-a34f-d87fc2e98b72","ios":"levelo://app?vid=12b18236-02f7-417a-a34f-d87fc2e98b72"},"vehicle_type_id":"4","last_reported":1700755740,"current_range_meters":31200,"station_id":"ce4bhp92rcd13ifvqhcg","pricing_plan_id":"free"},{"bike_id":"f041f357-690c-450e-8398-7a21afd89a63","system_id":"levelo_inurba_marseille","lat":43.317104,"lon":5.436818,"is_reserved":false,"is_disabled":false,"rental_uris":{"android":"levelo://app?vid=f041f357-690c-450e-8398-7a21afd89a63","ios":"levelo://app?vid=f041f357-690c-450e-8398-7a21afd89a63"},"vehicle_type_id":"4","last_reported":1700755740,"current_range_meters":19600,"station_id":"ce4bhp92rcd13ifvqhcg","pricing_plan_id":"free"},{"bike_id":"28bdf912-8ba7-4c75-b1e4-cc3e56ef56db","system_id":"levelo_inurba_marseille","lat":43.26202,"lon":5.379299,"is_reserved":false,"is_disabled":false,"rental_uris":{"android":"levelo://app?vid=28bdf912-8ba7-4c75-b1e4-cc3e56ef56db","ios":"levelo://app?vid=28bdf912-8ba7-4c75-b1e4-cc3e56ef56db"},"vehicle_type_id":"4","last_reported":1700755740,"current_range_meters":21600,"station_id":"ce4bhjp2rcd13ifvqg90","pricing_plan_id":"free"},{"bike_id":"20650c99-8e22-4500-9d54-d01ffda1269c","system_id":"levelo_inurba_marseille","lat":43.271368,"lon":5.40928,"is_reserved":false,"is_disabled":false,"rental_uris":{"android":"levelo://app?vid=20650c99-8e22-4500-9d54-d01ffda1269c","ios":"levelo://app?vid=20650c99-8e22-4500-9d54-d01ffda1269c"},"vehicle_type_id":"4","last_reported":1700755740,"current_range_meters":0,"station_id":"ce4bhl12rcd13ifvqgf0","pricing_plan_id":"free"},{"bike_id":"de0ee282-eb2c-429e-98c6-ade30fe0ec8d","system_id":"levelo_inurba_marseille","lat":43.27173,"lon":5.40996,"is_reserved":false,"is_disabled":false,"rental_uris":{"android":"levelo://app?vid=de0ee282-eb2c-429e-98c6-ade30fe0ec8d","ios":"levelo://app?vid=de0ee282-eb2c-429e-98c6-ade30fe0ec8d"},"vehicle_type_id":"4","last_reported":1700755740,"current_range_meters":12800,"station_id":"ce4bhl12rcd13ifvqgf0","pricing_plan_id":"free"},{"bike_id":"f28ee2de-f607-4d3d-b326-bf3c6a38255c","system_id":"levelo_inurba_marseille","lat":43.271368,"lon":5.40928,"is_reserved":false,"is_disabled":false,"rental_uris":{"android":"levelo://app?vid=f28ee2de-f607-4d3d-b326-bf3c6a38255c","ios":"levelo://app?vid=f28ee2de-f607-4d3d-b326-bf3c6a38255c"},"vehicle_type_id":"4","last_reported":1700755740,"current_range_meters":6400,"station_id":"ce4bhl12rcd13ifvqgf0","pricing_plan_id":"free"},{"bike_id":"c6fb98d5-5eb6-47f9-8abb-5be1873f085e","system_id":"levelo_inurba_marseille","lat":43.267959,"lon":5.402685,"is_reserved":false,"is_disabled":false,"rental_uris":{"android":"levelo://app?vid=c6fb98d5-5eb6-47f9-8abb-5be1873f085e","ios":"levelo://app?vid=c6fb98d5-5eb6-47f9-8abb-5be1873f085e"},"vehicle_type_id":"4","last_reported":1700755740,"current_range_meters":15600,"station_id":"ce501612rcd8frsf0b60","pricing_plan_id":"free"},{"bike_id":"b7f683d4-d9fd-457e-975f-f5cc0011e9fe","system_id":"levelo_inurba_marseille","lat":43.26805,"lon":5.40269,"is_reserved":false,"is_disabled":false,"rental_uris":{"android":"levelo://app?vid=b7f683d4-d9fd-457e-975f-f5cc0011e9fe","ios":"levelo://app?vid=b7f683d4-d9fd-457e-975f-f5cc0011e9fe"},"vehicle_type_id":"4","last_reported":1700755740,"current_range_meters":17200,"station_id":"ce501612rcd8frsf0b60","pricing_plan_id":"free"},{"bike_id":"6ad99f31-e63a-4f3d-aa89-1a38eae771e2","system_id":"levelo_inurba_marseille","lat":43.26174,"lon":5.37924,"is_reserved":false,"is_disabled":false,"rental_uris":{"android":"levelo://app?vid=6ad99f31-e63a-4f3d-aa89-1a38eae771e2","ios":"levelo://app?vid=6ad99f31-e63a-4f3d-aa89-1a38eae771e2"},"vehicle_type_id":"4","last_reported":1700755740,"current_range_meters":22800,"station_id":"","pricing_plan_id":"free"},{"bike_id":"cb16d7ee-4d8d-44c4-bc7a-142b1234ab63","system_id":"levelo_inurba_marseille","lat":43.31725,"lon":5.43786,"is_reserved":false,"is_disabled":false,"rental_uris":{"android":"levelo://app?vid=cb16d7ee-4d8d-44c4-bc7a-142b1234ab63","ios":"levelo://app?vid=cb16d7ee-4d8d-44c4-bc7a-142b1234ab63"},"vehicle_type_id":"4","last_reported":1700755740,"current_range_meters":0,"station_id":"","pricing_plan_id":"free"},{"bike_id":"d0bb53f7-f1b8-4609-a668-27efdac67f66","system_id":"levelo_inurba_marseille","lat":43.26301,"lon":5.38842,"is_reserved":false,"is_disabled":false,"rental_uris":{"android":"levelo://app?vid=d0bb53f7-f1b8-4609-a668-27efdac67f66","ios":"levelo://app?vid=d0bb53f7-f1b8-4609-a668-27efdac67f66"},"vehicle_type_id":"4","last_reported":1700755740,"current_range_meters":0,"station_id":"","pricing_plan_id":"free"},{"bike_id":"0cc28025-42d6-41f0-82b7-00a3bc7d7de5","system_id":"levelo_inurba_marseille","lat":43.298768,"lon":5.43643,"is_reserved":false,"is_disabled":false,"rental_uris":{"android":"levelo://app?vid=0cc28025-42d6-41f0-82b7-00a3bc7d7de5","ios":"levelo://app?vid=0cc28025-42d6-41f0-82b7-00a3bc7d7de5"},"vehicle_type_id":"4","last_reported":1700755740,"current_range_meters":31200,"station_id":"ce4bhpp2rcd13ifvqhfg","pricing_plan_id":"free"},{"bike_id":"895de8b6-6f51-45cd-a58a-c7983d56547d","system_id":"levelo_inurba_marseille","lat":43.298768,"lon":5.43643,"is_reserved":false,"is_disabled":false,"rental_uris":{"android":"levelo://app?vid=895de8b6-6f51-45cd-a58a-c7983d56547d","ios":"levelo://app?vid=895de8b6-6f51-45cd-a58a-c7983d56547d"},"vehicle_type_id":"4","last_reported":1700755740,"current_range_meters":28400,"station_id":"ce4bhpp2rcd13ifvqhfg","pricing_plan_id":"free"},{"bike_id":"184477c7-b75c-4b90-9726-0ece3a63ae57","system_id":"levelo_inurba_marseille","lat":43.2607,"lon":5.393983,"is_reserved":false,"is_disabled":false,"rental_uris":{"android":"levelo://app?vid=184477c7-b75c-4b90-9726-0ece3a63ae57","ios":"levelo://app?vid=184477c7-b75c-4b90-9726-0ece3a63ae57"},"vehicle_type_id":"4","last_reported":1700755740,"current_range_meters":28400,"station_id":"ce4bhh92rcd13ifvqfj0","pricing_plan_id":"free"},{"bike_id":"c87f93df-8a22-4882-93af-1a157bd73b92","system_id":"levelo_inurba_marseille","lat":43.270721,"lon":5.422764,"is_reserved":false,"is_disabled":false,"rental_uris":{"android":"levelo://app?vid=c87f93df-8a22-4882-93af-1a157bd73b92","ios":"levelo://app?vid=c87f93df-8a22-4882-93af-1a157bd73b92"},"vehicle_type_id":"4","last_reported":1700755740,"current_range_meters":0,"station_id":"ce4bhk92rcd13ifvqgb0","pricing_plan_id":"free"},{"bike_id":"2c42dc32-816e-4c76-adce-f67248cdc7d5","system_id":"levelo_inurba_marseille","lat":43.257079,"lon":5.411051,"is_reserved":false,"is_disabled":false,"rental_uris":{"android":"levelo://app?vid=2c42dc32-816e-4c76-adce-f67248cdc7d5","ios":"levelo://app?vid=2c42dc32-816e-4c76-adce-f67248cdc7d5"},"vehicle_type_id":"4","last_reported":1700755740,"current_range_meters":7200,"station_id":"ce4bhkp2rcd13ifvqgd0","pricing_plan_id":"free"},{"bike_id":"97584902-988a-421a-8eb4-0aca6317a345","system_id":"levelo_inurba_marseille","lat":43.25723,"lon":5.4111,"is_reserved":false,"is_disabled":false,"rental_uris":{"android":"levelo://app?vid=97584902-988a-421a-8eb4-0aca6317a345","ios":"levelo://app?vid=97584902-988a-421a-8eb4-0aca6317a345"},"vehicle_type_id":"4","last_reported":1700755740,"current_range_meters":4400,"station_id":"ce4bhkp2rcd13ifvqgd0","pricing_plan_id":"free"},{"bike_id":"0259856c-3116-4919-8035-c8f01372ff94","system_id":"levelo_inurba_marseille","lat":43.25723,"lon":5.41111,"is_reserved":false,"is_disabled":false,"rental_uris":{"android":"levelo://app?vid=0259856c-3116-4919-8035-c8f01372ff94","ios":"levelo://app?vid=0259856c-3116-4919-8035-c8f01372ff94"},"vehicle_type_id":"4","last_reported":1700755740,"current_range_meters":6800,"station_id":"ce4bhkp2rcd13ifvqgd0","pricing_plan_id":"free"},{"bike_id":"4b48ec4b-0e22-425f-993c-0c5c1c1ddd6a","system_id":"levelo_inurba_marseille","lat":43.250009,"lon":5.389195,"is_reserved":false,"is_disabled":false,"rental_uris":{"android":"levelo://app?vid=4b48ec4b-0e22-425f-993c-0c5c1c1ddd6a","ios":"levelo://app?vid=4b48ec4b-0e22-425f-993c-0c5c1c1ddd6a"},"vehicle_type_id":"4","last_reported":1700755740,"current_range_meters":14000,"station_id":"ce4bhgp2rcd13ifvqfd0","pricing_plan_id":"free"},{"bike_id":"1ec08569-0886-4234-98e6-28b0fc950d20","system_id":"levelo_inurba_marseille","lat":43.250966,"lon":5.395186,"is_reserved":false,"is_disabled":false,"rental_uris":{"android":"levelo://app?vid=1ec08569-0886-4234-98e6-28b0fc950d20","ios":"levelo://app?vid=1ec08569-0886-4234-98e6-28b0fc950d20"},"vehicle_type_id":"4","last_reported":1700755740,"current_range_meters":5600,"station_id":"ce4bhm12rcd13ifvqgkg","pricing_plan_id":"free"},{"bike_id":"be637d79-85d6-44d7-8c49-fa7b8679f6f4","system_id":"levelo_inurba_marseille","lat":43.24669,"lon":5.38157,"is_reserved":false,"is_disabled":false,"rental_uris":{"android":"levelo://app?vid=be637d79-85d6-44d7-8c49-fa7b8679f6f4","ios":"levelo://app?vid=be637d79-85d6-44d7-8c49-fa7b8679f6f4"},"vehicle_type_id":"4","last_reported":1700755740,"current_range_meters":25200,"station_id":"ce4bhih2rcd13ifvqfr0","pricing_plan_id":"free"},{"bike_id":"72e1d0e4-87cc-44f9-8b26-adf878165870","system_id":"levelo_inurba_marseille","lat":43.246461,"lon":5.389014,"is_reserved":false,"is_disabled":false,"rental_uris":{"android":"levelo://app?vid=72e1d0e4-87cc-44f9-8b26-adf878165870","ios":"levelo://app?vid=72e1d0e4-87cc-44f9-8b26-adf878165870"},"vehicle_type_id":"4","last_reported":1700755740,"current_range_meters":14800,"station_id":"ce4bhg12rcd13ifvqf60","pricing_plan_id":"free"},{"bike_id":"51ed567d-20c4-4fda-89d6-ba0b7c051ca8","system_id":"levelo_inurba_marseille","lat":43.246461,"lon":5.389014,"is_reserved":false,"is_disabled":false,"rental_uris":{"android":"levelo://app?vid=51ed567d-20c4-4fda-89d6-ba0b7c051ca8","ios":"levelo://app?vid=51ed567d-20c4-4fda-89d6-ba0b7c051ca8"},"vehicle_type_id":"4","last_reported":1700755740,"current_range_meters":4800,"station_id":"ce4bhg12rcd13ifvqf60","pricing_plan_id":"free"},{"bike_id":"ccfd0e24-186c-4d25-bd97-59a2331cf68b","system_id":"levelo_inurba_marseille","lat":43.246461,"lon":5.389014,"is_reserved":false,"is_disabled":false,"rental_uris":{"android":"levelo://app?vid=ccfd0e24-186c-4d25-bd97-59a2331cf68b","ios":"levelo://app?vid=ccfd0e24-186c-4d25-bd97-59a2331cf68b"},"vehicle_type_id":"4","last_reported":1700755740,"current_range_meters":31200,"station_id":"ce4bhg12rcd13ifvqf60","pricing_plan_id":"free"},{"bike_id":"48e791d7-857e-491e-a7f0-67e81461fd93","system_id":"levelo_inurba_marseille","lat":43.245581,"lon":5.395069,"is_reserved":false,"is_disabled":false,"rental_uris":{"android":"levelo://app?vid=48e791d7-857e-491e-a7f0-67e81461fd93","ios":"levelo://app?vid=48e791d7-857e-491e-a7f0-67e81461fd93"},"vehicle_type_id":"4","last_reported":1700755740,"current_range_meters":23200,"station_id":"ce4bhlp2rcd13ifvqgjg","pricing_plan_id":"free"},{"bike_id":"d271a988-5cce-45ac-9a5c-39831629cfba","system_id":"levelo_inurba_marseille","lat":43.24099,"lon":5.37731,"is_reserved":false,"is_disabled":false,"rental_uris":{"android":"levelo://app?vid=d271a988-5cce-45ac-9a5c-39831629cfba","ios":"levelo://app?vid=d271a988-5cce-45ac-9a5c-39831629cfba"},"vehicle_type_id":"4","last_reported":1700755740,"current_range_meters":28400,"station_id":"ce4bhnp2rcd13ifvqgvg","pricing_plan_id":"free"},{"bike_id":"74946933-b2b7-48eb-9ae2-890f844b8c5f","system_id":"levelo_inurba_marseille","lat":43.239588,"lon":5.366238,"is_reserved":false,"is_disabled":false,"rental_uris":{"android":"levelo://app?vid=74946933-b2b7-48eb-9ae2-890f844b8c5f","ios":"levelo://app?vid=74946933-b2b7-48eb-9ae2-890f844b8c5f"},"vehicle_type_id":"4","last_reported":1700755740,"current_range_meters":17600,"station_id":"ce4bhi12rcd13ifvqfp0","pricing_plan_id":"free"},{"bike_id":"5af44420-f288-487d-abf9-5f4de05fc437","system_id":"levelo_inurba_marseille","lat":43.239588,"lon":5.366238,"is_reserved":false,"is_disabled":false,"rental_uris":{"android":"levelo://app?vid=5af44420-f288-487d-abf9-5f4de05fc437","ios":"levelo://app?vid=5af44420-f288-487d-abf9-5f4de05fc437"},"vehicle_type_id":"4","last_reported":1700755740,"current_range_meters":24400,"station_id":"ce4bhi12rcd13ifvqfp0","pricing_plan_id":"free"},{"bike_id":"c3facbb7-06a8-412a-9a80-52aeb0503e18","system_id":"levelo_inurba_marseille","lat":43.231923,"lon":5.355545,"is_reserved":false,"is_disabled":false,"rental_uris":{"android":"levelo://app?vid=c3facbb7-06a8-412a-9a80-52aeb0503e18","ios":"levelo://app?vid=c3facbb7-06a8-412a-9a80-52aeb0503e18"},"vehicle_type_id":"4","last_reported":1700755740,"current_range_meters":30800,"station_id":"ce4bhu92rcd13ifvqi70","pricing_plan_id":"free"},{"bike_id":"34700193-2b37-4988-81ab-1abafccd9969","system_id":"levelo_inurba_marseille","lat":43.231923,"lon":5.355545,"is_reserved":false,"is_disabled":false,"rental_uris":{"android":"levelo://app?vid=34700193-2b37-4988-81ab-1abafccd9969","ios":"levelo://app?vid=34700193-2b37-4988-81ab-1abafccd9969"},"vehicle_type_id":"4","last_reported":1700755740,"current_range_meters":26000,"station_id":"ce4bhu92rcd13ifvqi70","pricing_plan_id":"free"},{"bike_id":"fc662a28-6862-417e-b1e8-237d73d29719","system_id":"levelo_inurba_marseille","lat":43.231919,"lon":5.355532,"is_reserved":false,"is_disabled":false,"rental_uris":{"android":"levelo://app?vid=fc662a28-6862-417e-b1e8-237d73d29719","ios":"levelo://app?vid=fc662a28-6862-417e-b1e8-237d73d29719"},"vehicle_type_id":"4","last_reported":1700755740,"current_range_meters":20000,"station_id":"ce4bhu92rcd13ifvqi70","pricing_plan_id":"free"},{"bike_id":"aeb874ed-5a67-45f7-94cd-1c1e110219bc","system_id":"levelo_inurba_marseille","lat":43.231919,"lon":5.355532,"is_reserved":false,"is_disabled":false,"rental_uris":{"android":"levelo://app?vid=aeb874ed-5a67-45f7-94cd-1c1e110219bc","ios":"levelo://app?vid=aeb874ed-5a67-45f7-94cd-1c1e110219bc"},"vehicle_type_id":"4","last_reported":1700755740,"current_range_meters":31200,"station_id":"ce4bhu92rcd13ifvqi70","pricing_plan_id":"free"},{"bike_id":"425d3457-d7b1-4bd6-af05-1b26bfd08345","system_id":"levelo_inurba_marseille","lat":43.231923,"lon":5.355545,"is_reserved":false,"is_disabled":false,"rental_uris":{"android":"levelo://app?vid=425d3457-d7b1-4bd6-af05-1b26bfd08345","ios":"levelo://app?vid=425d3457-d7b1-4bd6-af05-1b26bfd08345"},"vehicle_type_id":"4","last_reported":1700755740,"current_range_meters":28800,"station_id":"ce4bhu92rcd13ifvqi70","pricing_plan_id":"free"},{"bike_id":"62d0079e-a6d1-4abb-8137-335ef37b5185","system_id":"levelo_inurba_marseille","lat":43.231794,"lon":5.400052,"is_reserved":false,"is_disabled":false,"rental_uris":{"android":"levelo://app?vid=62d0079e-a6d1-4abb-8137-335ef37b5185","ios":"levelo://app?vid=62d0079e-a6d1-4abb-8137-335ef37b5185"},"vehicle_type_id":"4","last_reported":1700755740,"current_range_meters":25200,"station_id":"ce4bhn12rcd13ifvqgqg","pricing_plan_id":"free"},{"bike_id":"faa0ca6f-091a-44f2-aa9f-8113f3d96335","system_id":"levelo_inurba_marseille","lat":43.231793,"lon":5.400044,"is_reserved":false,"is_disabled":false,"rental_uris":{"android":"levelo://app?vid=faa0ca6f-091a-44f2-aa9f-8113f3d96335","ios":"levelo://app?vid=faa0ca6f-091a-44f2-aa9f-8113f3d96335"},"vehicle_type_id":"4","last_reported":1700755740,"current_range_meters":31200,"station_id":"ce4bhn12rcd13ifvqgqg","pricing_plan_id":"free"},{"bike_id":"0ac3e6f0-b012-41ac-a04d-1110541c6da0","system_id":"levelo_inurba_marseille","lat":43.231794,"lon":5.400052,"is_reserved":false,"is_disabled":false,"rental_uris":{"android":"levelo://app?vid=0ac3e6f0-b012-41ac-a04d-1110541c6da0","ios":"levelo://app?vid=0ac3e6f0-b012-41ac-a04d-1110541c6da0"},"vehicle_type_id":"4","last_reported":1700755740,"current_range_meters":28400,"station_id":"ce4bhn12rcd13ifvqgqg","pricing_plan_id":"free"},{"bike_id":"42b71bb2-3e67-452d-bdb5-18d18eec3243","system_id":"levelo_inurba_marseille","lat":43.231794,"lon":5.400052,"is_reserved":false,"is_disabled":false,"rental_uris":{"android":"levelo://app?vid=42b71bb2-3e67-452d-bdb5-18d18eec3243","ios":"levelo://app?vid=42b71bb2-3e67-452d-bdb5-18d18eec3243"},"vehicle_type_id":"4","last_reported":1700755740,"current_range_meters":25600,"station_id":"ce4bhn12rcd13ifvqgqg","pricing_plan_id":"free"},{"bike_id":"d698cf00-089a-45c5-88c4-12dc1afbcd05","system_id":"levelo_inurba_marseille","lat":43.231794,"lon":5.400052,"is_reserved":false,"is_disabled":false,"rental_uris":{"android":"levelo://app?vid=d698cf00-089a-45c5-88c4-12dc1afbcd05","ios":"levelo://app?vid=d698cf00-089a-45c5-88c4-12dc1afbcd05"},"vehicle_type_id":"4","last_reported":1700755740,"current_range_meters":11200,"station_id":"ce4bhn12rcd13ifvqgqg","pricing_plan_id":"free"}]}}