{"last_updated":1758028833,"ttl":60,"version":"2.2","data":{"bikes":[{"bike_id":"8196c012-3856-4937-8c7d-47aec4764796","system_id":"levelo_inurba_marseille","lat":43.30163,"lon":5.38084,"is_reserved":false,"is_disabled":false,"rental_uris":{"android":"levelo://app?vid=8196c012-3856-4937-8c7d-47aec4764796","ios":"levelo://app?vid=8196c012-3856-4937-8c7d-47aec4764796"},"vehicle_type_id":"4","last_reported":1758028834,"current_range_meters":2800,"station_id":"ce4bgjp2rcd13ifvqbh0","pricing_plan_id":"cebpf4jnsgd1na2vs0mg"},{"bike_id":"4f9bd625-ea72-423e-9234-f59f397dfa3c","system_id":"levelo_inurba_marseille","lat":43.21194,"lon":5.35068,"is_reserved":false,"is_disabled":false,"rental_uris":{"android":"levelo://app?vid=4f9bd625-ea72-423e-9234-f59f397dfa3c","ios":"levelo://app?vid=4f9bd625-ea72-423e-9234-f59f397dfa3c"},"vehicle_type_id":"4","last_reported":1758028834,"current_range_meters":2800,"station_id":"st_cvj6sg6p6f1abm77japg","pricing_plan_id":"cebpf4jnsgd1na2vs0mg"},{"bike_id":"2f2c09e3-2a11-4010-93a4-0fed3804d048","system_id":"levelo_inurba_marseille","lat":43.28454,"lon":5.35889,"is_reserved":false,"is_disabled":false,"rental_uris":{"android":"levelo://app?vid=2f2c09e3-2a11-4010-93a4-0fed3804d048","ios":"levelo://app?vid=2f2c09e3-2a11-4010-93a4-0fed3804d048"},"vehicle_type_id":"4","last_reported":1758028834,"current_range_meters":2800,"station_id":"ce4bhah2rcd13ifvqei0","pricing_plan_id":"cebpf4jnsgd1na2vs0mg"},{"bike_id":"92328f20-9c61-4621-aefd-c280af7d31a0","system_id":"levelo_inurba_marseille","lat":43.288596,"lon":5.425234,"is_reserved":false,"is_disabled":false,"rental_uris":{"android":"levelo://app?vid=92328f20-9c61-4621-aefd-c280af7d31a0","ios":"levelo://app?vid=92328f20-9c61-4621-aefd-c280af7d31a0"},"vehicle_type_id":"4","last_reported":1758028834,"current_range_meters":2800,"station_id":"","pricing_plan_id":"cebpf4jnsgd1na2vs0mg"},{"bike_id":"03809294-3a3e-4efa-afda-0ac11dcf72fc","system_id":"levelo_inurba_marseille","lat":43.33727,"lon":5.37475,"is_reserved":false,"is_disabled":false,"rental_uris":{"android":"levelo://app?vid=03809294-3a3e-4efa-afda-0ac11dcf72fc","ios":"levelo://app?vid=03809294-3a3e-4efa-afda-0ac11dcf72fc"},"vehicle_type_id":"4","last_reported":1758028834,"current_range_meters":2800,"station_id":"","pricing_plan_id":"cebpf4jnsgd1na2vs0mg"},{"bike_id":"cd50740f-f7ae-444d-9e02-d9678f8f3f1f","system_id":"levelo_inurba_marseille","lat":43.29917,"lon":5.37483,"is_reserved":false,"is_disabled":false,"rental_uris":{"android":"levelo://app?vid=cd50740f-f7ae-444d-9e02-d9678f8f3f1f","ios":"levelo://app?vid=cd50740f-f7ae-444d-9e02-d9678f8f3f1f"},"vehicle_type_id":"4","last_reported":1758028834,"current_range_meters":3200,"station_id":"ce4bgjh2rcd13ifvqbg0","pricing_plan_id":"cebpf4jnsgd1na2vs0mg"},{"bike_id":"d765e876-dc94-417e-ad8c-0ac49bf5261a","system_id":"levelo_inurba_marseille","lat":43.33213,"lon":5.36298,"is_reserved":false,"is_disabled":false,"rental_uris":{"android":"levelo://app?vid=d765e876-dc94-417e-ad8c-0ac49bf5261a","ios":"levelo://app?vid=d765e876-dc94-417e-ad8c-0ac49bf5261a"},"vehicle_type_id":"4","last_reported":1758028834,"current_range_meters":3200,"station_id":"","pricing_plan_id":"cebpf4jnsgd1na2vs0mg"},{"bike_id":"beb3ab88-6491-41ca-8b04-3f1820256375","system_id":"levelo_inurba_marseille","lat":43.3027,"lon":5.36918,"is_reserved":false,"is_disabled":false,"rental_uris":{"android":"levelo://app?vid=beb3ab88-6491-41ca-8b04-3f1820256375","ios":"levelo://app?vid=beb3ab88-6491-41ca-8b04-3f1820256375"},"vehicle_type_id":"4","last_reported":1758028834,"current_range_meters":3200,"station_id":"ce4bgqh2rcd13ifvqc5g","pricing_plan_id":"cebpf4jnsgd1na2vs0mg"},{"bike_id":"55fd3e3b-493c-4f91-ae37-a650fabc4e32","system_id":"levelo_inurba_marseille","lat":43.30214,"lon":5.39466,"is_reserved":false,"is_disabled":false,"rental_uris":{"android":"levelo://app?vid=55fd3e3b-493c-4f91-ae37-a650fabc4e32","ios":"levelo://app?vid=55fd3e3b-493c-4f91-ae37-a650fabc4e32"},"vehicle_type_id":"4","last_reported":1758028834,"current_range_meters":3200,"station_id":"ce4bh0p2rcd13ifvqd70","pricing_plan_id":"cebpf4jnsgd1na2vs0mg"},{"bike_id":"63c2bec2-56ae-42d4-a965-91defc1f04e9","system_id":"levelo_inurba_marseille","lat":43.29697,"lon":5.38016,"is_reserved":false,"is_disabled":false,"rental_uris":{"android":"levelo://app?vid=63c2bec2-56ae-42d4-a965-91defc1f04e9","ios":"levelo://app?vid=63c2bec2-56ae-42d4-a965-91defc1f04e9"},"vehicle_type_id":"4","last_reported":1758028834,"current_range_meters":3600,"station_id":"","pricing_plan_id":"cebpf4jnsgd1na2vs0mg"},{"bike_id":"c37933c6-f301-4e72-ae28-b86236887c46","system_id":"levelo_inurba_marseille","lat":43.225329,"lon":5.348362,"is_reserved":false,"is_disabled":false,"rental_uris":{"android":"levelo://app?vid=c37933c6-f301-4e72-ae28-b86236887c46","ios":"levelo://app?vid=c37933c6-f301-4e72-ae28-b86236887c46"},"vehicle_type_id":"4","last_reported":1758028834,"current_range_meters":3600,"station_id":"","pricing_plan_id":"cebpf4jnsgd1na2vs0mg"},{"bike_id":"abb6cfe3-174c-4faa-a6b1-c3c4c837cdd3","system_id":"levelo_inurba_marseille","lat":43.27929,"lon":5.39562,"is_reserved":false,"is_disabled":false,"rental_uris":{"android":"levelo://app?vid=abb6cfe3-174c-4faa-a6b1-c3c4c837cdd3","ios":"levelo://app?vid=abb6cfe3-174c-4faa-a6b1-c3c4c837cdd3"},"vehicle_type_id":"4","last_reported":1758028834,"current_range_meters":3600,"station_id":"ce4bhf92rcd13ifvqf40","pricing_plan_id":"cebpf4jnsgd1na2vs0mg"},{"bike_id":"4ec115f7-70e2-44a0-950b-cc56db458600","system_id":"levelo_inurba_marseille","lat":43.21777,"lon":5.34589,"is_reserved":false,"is_disabled":true,"rental_uris":{"android":"levelo://app?vid=4ec115f7-70e2-44a0-950b-cc56db458600","ios":"levelo://app?vid=4ec115f7-70e2-44a0-950b-cc56db458600"},"vehicle_type_id":"4","last_reported":1758028834,"current_range_meters":3600,"station_id":"st_cvj6r9ubvosntc0bgbag","pricing_plan_id":"cebpf4jnsgd1na2vs0mg"},{"bike_id":"6b5b3c8e-1efc-443e-8d65-f1b5bb18a3da","system_id":"levelo_inurba_marseille","lat":43.26828,"lon":5.39596,"is_reserved":false,"is_disabled":false,"rental_uris":{"android":"levelo://app?vid=6b5b3c8e-1efc-443e-8d65-f1b5bb18a3da","ios":"levelo://app?vid=6b5b3c8e-1efc-443e-8d65-f1b5bb18a3da"},"vehicle_type_id":"4","last_reported":1758028834,"current_range_meters":3600,"station_id":"","pricing_plan_id":"cebpf4jnsgd1na2vs0mg"},{"bike_id":"d2c2f1d0-8b01-4e08-9dff-706d88363fef","system_id":"levelo_inurba_marseille","lat":43.29052,"lon":5.37605,"is_reserved":false,"is_disabled":false,"rental_uris":{"android":"levelo://app?vid=d2c2f1d0-8b01-4e08-9dff-706d88363fef","ios":"levelo://app?vid=d2c2f1d0-8b01-4e08-9dff-706d88363fef"},"vehicle_type_id":"4","last_reported":1758028834,"current_range_meters":3600,"station_id":"ce4bh692rcd13ifvqe90","pricing_plan_id":"cebpf4jnsgd1na2vs0mg"},{"bike_id":"b982f00c-34a9-4ed3-b17f-5c48d0cb70b9","system_id":"levelo_inurba_marseille","lat":43.236938,"lon":5.360733,"is_reserved":false,"is_disabled":false,"rental_uris":{"android":"levelo://app?vid=b982f00c-34a9-4ed3-b17f-5c48d0cb70b9","ios":"levelo://app?vid=b982f00c-34a9-4ed3-b17f-5c48d0cb70b9"},"vehicle_type_id":"4","last_reported":1758028834,"current_range_meters":3600,"station_id":"","pricing_plan_id":"cebpf4jnsgd1na2vs0mg"},{"bike_id":"955cfb33-21b2-4976-94e4-d13edf4d12a0","system_id":"levelo_inurba_marseille","lat":43.279968,"lon":5.400065,"is_reserved":false,"is_disabled":false,"rental_uris":{"android":"levelo://app?vid=955cfb33-21b2-4976-94e4-d13edf4d12a0","ios":"levelo://app?vid=955cfb33-21b2-4976-94e4-d13edf4d12a0"},"vehicle_type_id":"4","last_reported":1758028834,"current_range_meters":4000,"station_id":"ce4bho92rcd13ifvqh4g","pricing_plan_id":"cebpf4jnsgd1na2vs0mg"},{"bike_id":"3bd79661-6def-43c8-b210-869fd67a5981","system_id":"levelo_inurba_marseille","lat":43.30913,"lon":5.3685,"is_reserved":false,"is_disabled":false,"rental_uris":{"android":"levelo://app?vid=3bd79661-6def-43c8-b210-869fd67a5981","ios":"levelo://app?vid=3bd79661-6def-43c8-b210-869fd67a5981"},"vehicle_type_id":"4","last_reported":1758028834,"current_range_meters":4000,"station_id":"ce4bgn92rcd13ifvqbvg","pricing_plan_id":"cebpf4jnsgd1na2vs0mg"},{"bike_id":"b0c670dd-2f19-4060-b302-ab73e380e637","system_id":"levelo_inurba_marseille","lat":43.31476,"lon":5.37291,"is_reserved":false,"is_disabled":false,"rental_uris":{"android":"levelo://app?vid=b0c670dd-2f19-4060-b302-ab73e380e637","ios":"levelo://app?vid=b0c670dd-2f19-4060-b302-ab73e380e637"},"vehicle_type_id":"4","last_reported":1758028834,"current_range_meters":4000,"station_id":"ce4bgt12rcd13ifvqcd0","pricing_plan_id":"cebpf4jnsgd1na2vs0mg"},{"bike_id":"b150af79-1f66-493e-9610-0724af328721","system_id":"levelo_inurba_marseille","lat":43.30797,"lon":5.38162,"is_reserved":false,"is_disabled":false,"rental_uris":{"android":"levelo://app?vid=b150af79-1f66-493e-9610-0724af328721","ios":"levelo://app?vid=b150af79-1f66-493e-9610-0724af328721"},"vehicle_type_id":"4","last_reported":1758028834,"current_range_meters":4400,"station_id":"ce4bgt12rcd13ifvqce0","pricing_plan_id":"cebpf4jnsgd1na2vs0mg"},{"bike_id":"2bee77f0-d429-4648-bbab-675ea2382917","system_id":"levelo_inurba_marseille","lat":43.286735,"lon":5.386801,"is_reserved":false,"is_disabled":false,"rental_uris":{"android":"levelo://app?vid=2bee77f0-d429-4648-bbab-675ea2382917","ios":"levelo://app?vid=2bee77f0-d429-4648-bbab-675ea2382917"},"vehicle_type_id":"4","last_reported":1758028834,"current_range_meters":4400,"station_id":"","pricing_plan_id":"cebpf4jnsgd1na2vs0mg"},{"bike_id":"f07bfd2d-da87-4119-8ec2-19053d0b8bb5","system_id":"levelo_inurba_marseille","lat":43.28414,"lon":5.375,"is_reserved":false,"is_disabled":false,"rental_uris":{"android":"levelo://app?vid=f07bfd2d-da87-4119-8ec2-19053d0b8bb5","ios":"levelo://app?vid=f07bfd2d-da87-4119-8ec2-19053d0b8bb5"},"vehicle_type_id":"4","last_reported":1758028834,"current_range_meters":4400,"station_id":"ce4bh412rcd13ifvqds0","pricing_plan_id":"cebpf4jnsgd1na2vs0mg"},{"bike_id":"0dacdbe0-20ba-4ddd-b676-c46d0e76e7c6","system_id":"levelo_inurba_marseille","lat":43.29225,"lon":5.36071,"is_reserved":false,"is_disabled":false,"rental_uris":{"android":"levelo://app?vid=0dacdbe0-20ba-4ddd-b676-c46d0e76e7c6","ios":"levelo://app?vid=0dacdbe0-20ba-4ddd-b676-c46d0e76e7c6"},"vehicle_type_id":"4","last_reported":1758028834,"current_range_meters":4400,"station_id":"ce4bhbh2rcd13ifvqeqg","pricing_plan_id":"cebpf4jnsgd1na2vs0mg"},{"bike_id":"f9e58361-e25d-448a-a515-d390f482f579","system_id":"levelo_inurba_marseille","lat":43.31373,"lon":5.38497,"is_reserved":false,"is_disabled":false,"rental_uris":{"android":"levelo://app?vid=f9e58361-e25d-448a-a515-d390f482f579","ios":"levelo://app?vid=f9e58361-e25d-448a-a515-d390f482f579"},"vehicle_type_id":"4","last_reported":1758028834,"current_range_meters":4400,"station_id":"ce4bgt92rcd13ifvqcf0","pricing_plan_id":"cebpf4jnsgd1na2vs0mg"},{"bike_id":"a234c8d6-1e23-409a-95bc-672a869cb12e","system_id":"levelo_inurba_marseille","lat":43.32692,"lon":5.40286,"is_reserved":false,"is_disabled":false,"rental_uris":{"android":"levelo://app?vid=a234c8d6-1e23-409a-95bc-672a869cb12e","ios":"levelo://app?vid=a234c8d6-1e23-409a-95bc-672a869cb12e"},"vehicle_type_id":"4","last_reported":1758028834,"current_range_meters":4400,"station_id":"","pricing_plan_id":"cebpf4jnsgd1na2vs0mg"},{"bike_id":"aeb20f16-685e-4d94-83ad-350e6238c4fd","system_id":"levelo_inurba_marseille","lat":43.2826,"lon":5.35069,"is_reserved":false,"is_disabled":false,"rental_uris":{"android":"levelo://app?vid=aeb20f16-685e-4d94-83ad-350e6238c4fd","ios":"levelo://app?vid=aeb20f16-685e-4d94-83ad-350e6238c4fd"},"vehicle_type_id":"4","last_reported":1758028834,"current_range_meters":4800,"station_id":"ce4bhbp2rcd13ifvqerg","pricing_plan_id":"cebpf4jnsgd1na2vs0mg"},{"bike_id":"42b2a1af-420a-42a6-8e0c-1634322b1d21","system_id":"levelo_inurba_marseille","lat":43.243882,"lon":5.370626,"is_reserved":false,"is_disabled":false,"rental_uris":{"android":"levelo://app?vid=42b2a1af-420a-42a6-8e0c-1634322b1d21","ios":"levelo://app?vid=42b2a1af-420a-42a6-8e0c-1634322b1d21"},"vehicle_type_id":"4","last_reported":1758028834,"current_range_meters":6800,"station_id":"ce4bhhh2rcd13ifvqfk0","pricing_plan_id":"cebpf4jnsgd1na2vs0mg"},{"bike_id":"f7ac85a9-20be-4d2a-881e-cf6f9829206c","system_id":"levelo_inurba_marseille","lat":43.28969,"lon":5.357,"is_reserved":false,"is_disabled":false,"rental_uris":{"android":"levelo://app?vid=f7ac85a9-20be-4d2a-881e-cf6f9829206c","ios":"levelo://app?vid=f7ac85a9-20be-4d2a-881e-cf6f9829206c"},"vehicle_type_id":"4","last_reported":1758028834,"current_range_meters":4800,"station_id":"","pricing_plan_id":"cebpf4jnsgd1na2vs0mg"},{"bike_id":"80929e0f-3d7a-47ff-b08a-19b0b2713c01","system_id":"levelo_inurba_marseille","lat":43.28623,"lon":5.35102,"is_reserved":false,"is_disabled":false,"rental_uris":{"android":"levelo://app?vid=80929e0f-3d7a-47ff-b08a-19b0b2713c01","ios":"levelo://app?vid=80929e0f-3d7a-47ff-b08a-19b0b2713c01"},"vehicle_type_id":"4","last_reported":1758028834,"current_range_meters":4800,"station_id":"ce4bhch2rcd13ifvqeug","pricing_plan_id":"cebpf4jnsgd1na2vs0mg"},{"bike_id":"5570c680-c9dc-4862-8050-2310b8dfd168","system_id":"levelo_inurba_marseille","lat":43.30883,"lon":5.39627,"is_reserved":false,"is_disabled":false,"rental_uris":{"android":"levelo://app?vid=5570c680-c9dc-4862-8050-2310b8dfd168","ios":"levelo://app?vid=5570c680-c9dc-4862-8050-2310b8dfd168"},"vehicle_type_id":"4","last_reported":1758028834,"current_range_meters":4800,"station_id":"ce4bh012rcd13ifvqcv0","pricing_plan_id":"cebpf4jnsgd1na2vs0mg"},{"bike_id":"dd32f779-e928-424d-999f-b730cf475fa7","system_id":"levelo_inurba_marseille","lat":43.22399,"lon":5.34657,"is_reserved":false,"is_disabled":false,"rental_uris":{"android":"levelo://app?vid=dd32f779-e928-424d-999f-b730cf475fa7","ios":"levelo://app?vid=dd32f779-e928-424d-999f-b730cf475fa7"},"vehicle_type_id":"4","last_reported":1758028834,"current_range_meters":5600,"station_id":"","pricing_plan_id":"cebpf4jnsgd1na2vs0mg"},{"bike_id":"308d1d65-5777-401d-8090-0b7c957407fe","system_id":"levelo_inurba_marseille","lat":43.29796,"lon":5.38097,"is_reserved":false,"is_disabled":false,"rental_uris":{"android":"levelo://app?vid=308d1d65-5777-401d-8090-0b7c957407fe","ios":"levelo://app?vid=308d1d65-5777-401d-8090-0b7c957407fe"},"vehicle_type_id":"4","last_reported":1758028834,"current_range_meters":5600,"station_id":"ce4bgip2rcd13ifvqbb0","pricing_plan_id":"cebpf4jnsgd1na2vs0mg"},{"bike_id":"37a38595-4387-4d7c-badc-0f340b9a3707","system_id":"levelo_inurba_marseille","lat":43.273736,"lon":5.362606,"is_reserved":false,"is_disabled":false,"rental_uris":{"android":"levelo://app?vid=37a38595-4387-4d7c-badc-0f340b9a3707","ios":"levelo://app?vid=37a38595-4387-4d7c-badc-0f340b9a3707"},"vehicle_type_id":"4","last_reported":1758028834,"current_range_meters":8400,"station_id":"ce4bhbh2rcd13ifvqeo0","pricing_plan_id":"cebpf4jnsgd1na2vs0mg"},{"bike_id":"d6ed9793-3ecb-43f1-a394-fef0a9592577","system_id":"levelo_inurba_marseille","lat":43.3132,"lon":5.3675,"is_reserved":false,"is_disabled":false,"rental_uris":{"android":"levelo://app?vid=d6ed9793-3ecb-43f1-a394-fef0a9592577","ios":"levelo://app?vid=d6ed9793-3ecb-43f1-a394-fef0a9592577"},"vehicle_type_id":"4","last_reported":1758028834,"current_range_meters":6000,"station_id":"ce4bgr92rcd13ifvqc6g","pricing_plan_id":"cebpf4jnsgd1na2vs0mg"},{"bike_id":"fce9944b-32db-46b4-8461-82bdabe55002","system_id":"levelo_inurba_marseille","lat":43.255772,"lon":5.382366,"is_reserved":false,"is_disabled":false,"rental_uris":{"android":"levelo://app?vid=fce9944b-32db-46b4-8461-82bdabe55002","ios":"levelo://app?vid=fce9944b-32db-46b4-8461-82bdabe55002"},"vehicle_type_id":"4","last_reported":1758028834,"current_range_meters":8000,"station_id":"ce4bhih2rcd13ifvqfs0","pricing_plan_id":"cebpf4jnsgd1na2vs0mg"},{"bike_id":"178fa568-1c50-462f-a706-8cc286b5fa97","system_id":"levelo_inurba_marseille","lat":43.30928,"lon":5.36849,"is_reserved":false,"is_disabled":false,"rental_uris":{"android":"levelo://app?vid=178fa568-1c50-462f-a706-8cc286b5fa97","ios":"levelo://app?vid=178fa568-1c50-462f-a706-8cc286b5fa97"},"vehicle_type_id":"4","last_reported":1758028834,"current_range_meters":6400,"station_id":"ce4bgn92rcd13ifvqbvg","pricing_plan_id":"cebpf4jnsgd1na2vs0mg"},{"bike_id":"8b30fb0f-31cc-4fb5-a1e1-ed7f2cfb4518","system_id":"levelo_inurba_marseille","lat":43.28715,"lon":5.3793,"is_reserved":false,"is_disabled":false,"rental_uris":{"android":"levelo://app?vid=8b30fb0f-31cc-4fb5-a1e1-ed7f2cfb4518","ios":"levelo://app?vid=8b30fb0f-31cc-4fb5-a1e1-ed7f2cfb4518"},"vehicle_type_id":"4","last_reported":1758028834,"current_range_meters":6400,"station_id":"ce4bh9p2rcd13ifvqec0","pricing_plan_id":"cebpf4jnsgd1na2vs0mg"},{"bike_id":"27bc6b0c-c22e-494b-ab92-4e390584592b","system_id":"levelo_inurba_marseille","lat":43.337535,"lon":5.374631,"is_reserved":false,"is_disabled":false,"rental_uris":{"android":"levelo://app?vid=27bc6b0c-c22e-494b-ab92-4e390584592b","ios":"levelo://app?vid=27bc6b0c-c22e-494b-ab92-4e390584592b"},"vehicle_type_id":"4","last_reported":1758028834,"current_range_meters":6400,"station_id":"","pricing_plan_id":"cebpf4jnsgd1na2vs0mg"},{"bike_id":"c5c26a6a-9552-40c7-9936-3e360d626b0d","system_id":"levelo_inurba_marseille","lat":43.29012,"lon":5.356127,"is_reserved":false,"is_disabled":false,"rental_uris":{"android":"levelo://app?vid=c5c26a6a-9552-40c7-9936-3e360d626b0d","ios":"levelo://app?vid=c5c26a6a-9552-40c7-9936-3e360d626b0d"},"vehicle_type_id":"4","last_reported":1758028834,"current_range_meters":6800,"station_id":"ce4bhb92rcd13ifvqen0","pricing_plan_id":"cebpf4jnsgd1na2vs0mg"},{"bike_id":"33bb1785-d459-4f3b-9518-672a188c6a87","system_id":"levelo_inurba_marseille","lat":43.337444,"lon":5.374475,"is_reserved":false,"is_disabled":false,"rental_uris":{"android":"levelo://app?vid=33bb1785-d459-4f3b-9518-672a188c6a87","ios":"levelo://app?vid=33bb1785-d459-4f3b-9518-672a188c6a87"},"vehicle_type_id":"4","last_reported":1758028834,"current_range_meters":6800,"station_id":"","pricing_plan_id":"cebpf4jnsgd1na2vs0mg"},{"bike_id":"fe6cbc6d-2c86-425b-b36b-553f9b684a3a","system_id":"levelo_inurba_marseille","lat":43.27567,"lon":5.38407,"is_reserved":false,"is_disabled":false,"rental_uris":{"android":"levelo://app?vid=fe6cbc6d-2c86-425b-b36b-553f9b684a3a","ios":"levelo://app?vid=fe6cbc6d-2c86-425b-b36b-553f9b684a3a"},"vehicle_type_id":"4","last_reported":1758028834,"current_range_meters":6800,"station_id":"ce4bhh92rcd13ifvqfi0","pricing_plan_id":"cebpf4jnsgd1na2vs0mg"},{"bike_id":"b7f0990e-3c74-49cf-960f-b0acb07a1f54","system_id":"levelo_inurba_marseille","lat":43.27959,"lon":5.38749,"is_reserved":false,"is_disabled":false,"rental_uris":{"android":"levelo://app?vid=b7f0990e-3c74-49cf-960f-b0acb07a1f54","ios":"levelo://app?vid=b7f0990e-3c74-49cf-960f-b0acb07a1f54"},"vehicle_type_id":"4","last_reported":1758028834,"current_range_meters":7200,"station_id":"ce4bhg12rcd13ifvqf80","pricing_plan_id":"cebpf4jnsgd1na2vs0mg"},{"bike_id":"57127154-7e15-4346-89ed-ab9d76ef9c2c","system_id":"levelo_inurba_marseille","lat":43.28838,"lon":5.36326,"is_reserved":false,"is_disabled":false,"rental_uris":{"android":"levelo://app?vid=57127154-7e15-4346-89ed-ab9d76ef9c2c","ios":"levelo://app?vid=57127154-7e15-4346-89ed-ab9d76ef9c2c"},"vehicle_type_id":"4","last_reported":1758028834,"current_range_meters":6800,"station_id":"","pricing_plan_id":"cebpf4jnsgd1na2vs0mg"},{"bike_id":"e7a329bd-ed66-4ac7-aaba-63f2810ddd86","system_id":"levelo_inurba_marseille","lat":43.31859,"lon":5.37206,"is_reserved":false,"is_disabled":false,"rental_uris":{"android":"levelo://app?vid=e7a329bd-ed66-4ac7-aaba-63f2810ddd86","ios":"levelo://app?vid=e7a329bd-ed66-4ac7-aaba-63f2810ddd86"},"vehicle_type_id":"4","last_reported":1758028834,"current_range_meters":7200,"station_id":"","pricing_plan_id":"cebpf4jnsgd1na2vs0mg"},{"bike_id":"3497e7a2-d1ac-45c8-b73f-5afe1dfc9c24","system_id":"levelo_inurba_marseille","lat":43.28612,"lon":5.37062,"is_reserved":false,"is_disabled":false,"rental_uris":{"android":"levelo://app?vid=3497e7a2-d1ac-45c8-b73f-5afe1dfc9c24","ios":"levelo://app?vid=3497e7a2-d1ac-45c8-b73f-5afe1dfc9c24"},"vehicle_type_id":"4","last_reported":1758028834,"current_range_meters":7200,"station_id":"ce4bht12rcd13ifvqi60","pricing_plan_id":"cebpf4jnsgd1na2vs0mg"},{"bike_id":"c235bba5-9a2d-4c1a-88d7-62a4de8f9d8f","system_id":"levelo_inurba_marseille","lat":43.29036,"lon":5.37567,"is_reserved":false,"is_disabled":false,"rental_uris":{"android":"levelo://app?vid=c235bba5-9a2d-4c1a-88d7-62a4de8f9d8f","ios":"levelo://app?vid=c235bba5-9a2d-4c1a-88d7-62a4de8f9d8f"},"vehicle_type_id":"4","last_reported":1758028834,"current_range_meters":10000,"station_id":"ce4bh692rcd13ifvqe90","pricing_plan_id":"cebpf4jnsgd1na2vs0mg"},{"bike_id":"a9b3b798-7302-4a42-97ba-94c12bba8c3d","system_id":"levelo_inurba_marseille","lat":43.23966,"lon":5.36641,"is_reserved":false,"is_disabled":false,"rental_uris":{"android":"levelo://app?vid=a9b3b798-7302-4a42-97ba-94c12bba8c3d","ios":"levelo://app?vid=a9b3b798-7302-4a42-97ba-94c12bba8c3d"},"vehicle_type_id":"4","last_reported":1758028834,"current_range_meters":8000,"station_id":"ce4bhi12rcd13ifvqfp0","pricing_plan_id":"cebpf4jnsgd1na2vs0mg"},{"bike_id":"99ddd021-b081-4c55-b76b-6ee2334dea2c","system_id":"levelo_inurba_marseille","lat":43.28623,"lon":5.35089,"is_reserved":false,"is_disabled":false,"rental_uris":{"android":"levelo://app?vid=99ddd021-b081-4c55-b76b-6ee2334dea2c","ios":"levelo://app?vid=99ddd021-b081-4c55-b76b-6ee2334dea2c"},"vehicle_type_id":"4","last_reported":1758028834,"current_range_meters":8000,"station_id":"ce4bhch2rcd13ifvqeug","pricing_plan_id":"cebpf4jnsgd1na2vs0mg"},{"bike_id":"f7825ce6-de89-45bf-831f-3599d0d91c3c","system_id":"levelo_inurba_marseille","lat":43.30472,"lon":5.3667,"is_reserved":false,"is_disabled":false,"rental_uris":{"android":"levelo://app?vid=f7825ce6-de89-45bf-831f-3599d0d91c3c","ios":"levelo://app?vid=f7825ce6-de89-45bf-831f-3599d0d91c3c"},"vehicle_type_id":"4","last_reported":1758028834,"current_range_meters":8000,"station_id":"","pricing_plan_id":"cebpf4jnsgd1na2vs0mg"},{"bike_id":"c82bf25e-ea33-4855-8875-0e2620cc37a1","system_id":"levelo_inurba_marseille","lat":43.29004,"lon":5.356114,"is_reserved":false,"is_disabled":false,"rental_uris":{"android":"levelo://app?vid=c82bf25e-ea33-4855-8875-0e2620cc37a1","ios":"levelo://app?vid=c82bf25e-ea33-4855-8875-0e2620cc37a1"},"vehicle_type_id":"4","last_reported":1758028834,"current_range_meters":8000,"station_id":"ce4bhb92rcd13ifvqen0","pricing_plan_id":"cebpf4jnsgd1na2vs0mg"},{"bike_id":"7f2a8108-7def-422d-8177-e1b386edeefa","system_id":"levelo_inurba_marseille","lat":43.29924,"lon":5.3652,"is_reserved":false,"is_disabled":false,"rental_uris":{"android":"levelo://app?vid=7f2a8108-7def-422d-8177-e1b386edeefa","ios":"levelo://app?vid=7f2a8108-7def-422d-8177-e1b386edeefa"},"vehicle_type_id":"4","last_reported":1758028834,"current_range_meters":8000,"station_id":"ce4bgm92rcd13ifvqbr0","pricing_plan_id":"cebpf4jnsgd1na2vs0mg"},{"bike_id":"400a5726-88a4-471f-83f0-847319d6028a","system_id":"levelo_inurba_marseille","lat":43.28415,"lon":5.35,"is_reserved":false,"is_disabled":false,"rental_uris":{"android":"levelo://app?vid=400a5726-88a4-471f-83f0-847319d6028a","ios":"levelo://app?vid=400a5726-88a4-471f-83f0-847319d6028a"},"vehicle_type_id":"4","last_reported":1758028834,"current_range_meters":8000,"station_id":"ce4bhbh2rcd13ifvqepg","pricing_plan_id":"cebpf4jnsgd1na2vs0mg"},{"bike_id":"bad0cc0e-b7ea-4b6b-abf8-bd98f10cce09","system_id":"levelo_inurba_marseille","lat":43.304229,"lon":5.397258,"is_reserved":false,"is_disabled":false,"rental_uris":{"android":"levelo://app?vid=bad0cc0e-b7ea-4b6b-abf8-bd98f10cce09","ios":"levelo://app?vid=bad0cc0e-b7ea-4b6b-abf8-bd98f10cce09"},"vehicle_type_id":"4","last_reported":1758028834,"current_range_meters":8000,"station_id":"ce4bh092rcd13ifvqd20","pricing_plan_id":"cebpf4jnsgd1na2vs0mg"},{"bike_id":"0a15ba0d-25a8-4aec-8a5a-aa8bd4284804","system_id":"levelo_inurba_marseille","lat":43.241689,"lon":5.363912,"is_reserved":false,"is_disabled":false,"rental_uris":{"android":"levelo://app?vid=0a15ba0d-25a8-4aec-8a5a-aa8bd4284804","ios":"levelo://app?vid=0a15ba0d-25a8-4aec-8a5a-aa8bd4284804"},"vehicle_type_id":"4","last_reported":1758028834,"current_range_meters":8400,"station_id":"cpo36qri1sfpv3e86is0","pricing_plan_id":"cebpf4jnsgd1na2vs0mg"},{"bike_id":"322c1f5a-85db-4ef6-bcd4-1b5c417c8ee0","system_id":"levelo_inurba_marseille","lat":43.3377,"lon":5.37488,"is_reserved":false,"is_disabled":false,"rental_uris":{"android":"levelo://app?vid=322c1f5a-85db-4ef6-bcd4-1b5c417c8ee0","ios":"levelo://app?vid=322c1f5a-85db-4ef6-bcd4-1b5c417c8ee0"},"vehicle_type_id":"4","last_reported":1758028834,"current_range_meters":8400,"station_id":"","pricing_plan_id":"cebpf4jnsgd1na2vs0mg"},{"bike_id":"ad37c9f1-19c2-483a-940a-92dcfd90a292","system_id":"levelo_inurba_marseille","lat":43.29006,"lon":5.35621,"is_reserved":false,"is_disabled":false,"rental_uris":{"android":"levelo://app?vid=ad37c9f1-19c2-483a-940a-92dcfd90a292","ios":"levelo://app?vid=ad37c9f1-19c2-483a-940a-92dcfd90a292"},"vehicle_type_id":"4","last_reported":1758028834,"current_range_meters":8400,"station_id":"ce4bhb92rcd13ifvqen0","pricing_plan_id":"cebpf4jnsgd1na2vs0mg"},{"bike_id":"a03f7afa-3848-4645-87bb-d4423f3d03d4","system_id":"levelo_inurba_marseille","lat":43.23968,"lon":5.36636,"is_reserved":false,"is_disabled":false,"rental_uris":{"android":"levelo://app?vid=a03f7afa-3848-4645-87bb-d4423f3d03d4","ios":"levelo://app?vid=a03f7afa-3848-4645-87bb-d4423f3d03d4"},"vehicle_type_id":"4","last_reported":1758028834,"current_range_meters":8400,"station_id":"ce4bhi12rcd13ifvqfp0","pricing_plan_id":"cebpf4jnsgd1na2vs0mg"},{"bike_id":"77b1e207-5acc-490c-b512-d2163da76374","system_id":"levelo_inurba_marseille","lat":43.217494,"lon":5.346011,"is_reserved":false,"is_disabled":false,"rental_uris":{"android":"levelo://app?vid=77b1e207-5acc-490c-b512-d2163da76374","ios":"levelo://app?vid=77b1e207-5acc-490c-b512-d2163da76374"},"vehicle_type_id":"4","last_reported":1758028834,"current_range_meters":8800,"station_id":"st_cvj6r9ubvosntc0bgbag","pricing_plan_id":"cebpf4jnsgd1na2vs0mg"},{"bike_id":"24134c4f-7420-49cc-a4b9-fce39e8b3a82","system_id":"levelo_inurba_marseille","lat":43.27057,"lon":5.4026,"is_reserved":false,"is_disabled":false,"rental_uris":{"android":"levelo://app?vid=24134c4f-7420-49cc-a4b9-fce39e8b3a82","ios":"levelo://app?vid=24134c4f-7420-49cc-a4b9-fce39e8b3a82"},"vehicle_type_id":"4","last_reported":1758028834,"current_range_meters":8800,"station_id":"ce4bhk92rcd13ifvqgc0","pricing_plan_id":"cebpf4jnsgd1na2vs0mg"},{"bike_id":"4ee02fff-4a3e-4fac-b4ad-827f407451e0","system_id":"levelo_inurba_marseille","lat":43.23962,"lon":5.36631,"is_reserved":false,"is_disabled":false,"rental_uris":{"android":"levelo://app?vid=4ee02fff-4a3e-4fac-b4ad-827f407451e0","ios":"levelo://app?vid=4ee02fff-4a3e-4fac-b4ad-827f407451e0"},"vehicle_type_id":"4","last_reported":1758028834,"current_range_meters":8800,"station_id":"ce4bhi12rcd13ifvqfp0","pricing_plan_id":"cebpf4jnsgd1na2vs0mg"},{"bike_id":"1ddf0484-06d4-4943-aa3c-7b614fd7f256","system_id":"levelo_inurba_marseille","lat":43.29243,"lon":5.39335,"is_reserved":false,"is_disabled":false,"rental_uris":{"android":"levelo://app?vid=1ddf0484-06d4-4943-aa3c-7b614fd7f256","ios":"levelo://app?vid=1ddf0484-06d4-4943-aa3c-7b614fd7f256"},"vehicle_type_id":"4","last_reported":1758028834,"current_range_meters":9200,"station_id":"","pricing_plan_id":"cebpf4jnsgd1na2vs0mg"},{"bike_id":"34539d66-9bce-4d1c-8b94-78e2e11c6e1a","system_id":"levelo_inurba_marseille","lat":43.28871,"lon":5.42515,"is_reserved":false,"is_disabled":false,"rental_uris":{"android":"levelo://app?vid=34539d66-9bce-4d1c-8b94-78e2e11c6e1a","ios":"levelo://app?vid=34539d66-9bce-4d1c-8b94-78e2e11c6e1a"},"vehicle_type_id":"4","last_reported":1758028834,"current_range_meters":9200,"station_id":"","pricing_plan_id":"cebpf4jnsgd1na2vs0mg"},{"bike_id":"63dc1384-fc6c-4684-975f-38f6a5793898","system_id":"levelo_inurba_marseille","lat":43.30532,"lon":5.36511,"is_reserved":false,"is_disabled":false,"rental_uris":{"android":"levelo://app?vid=63dc1384-fc6c-4684-975f-38f6a5793898","ios":"levelo://app?vid=63dc1384-fc6c-4684-975f-38f6a5793898"},"vehicle_type_id":"4","last_reported":1758028834,"current_range_meters":9200,"station_id":"","pricing_plan_id":"cebpf4jnsgd1na2vs0mg"},{"bike_id":"02fcf327-a7c0-4a4c-ae57-b3542ebc4bb3","system_id":"levelo_inurba_marseille","lat":43.27055,"lon":5.402679,"is_reserved":false,"is_disabled":false,"rental_uris":{"android":"levelo://app?vid=02fcf327-a7c0-4a4c-ae57-b3542ebc4bb3","ios":"levelo://app?vid=02fcf327-a7c0-4a4c-ae57-b3542ebc4bb3"},"vehicle_type_id":"4","last_reported":1758028834,"current_range_meters":9200,"station_id":"ce4bhk92rcd13ifvqgc0","pricing_plan_id":"cebpf4jnsgd1na2vs0mg"},{"bike_id":"3346933a-65a5-4fb4-89d8-967b8db6eb9f","system_id":"levelo_inurba_marseille","lat":43.284205,"lon":5.349891,"is_reserved":false,"is_disabled":false,"rental_uris":{"android":"levelo://app?vid=3346933a-65a5-4fb4-89d8-967b8db6eb9f","ios":"levelo://app?vid=3346933a-65a5-4fb4-89d8-967b8db6eb9f"},"vehicle_type_id":"4","last_reported":1758028834,"current_range_meters":9200,"station_id":"ce4bhbh2rcd13ifvqepg","pricing_plan_id":"cebpf4jnsgd1na2vs0mg"},{"bike_id":"86729533-93f3-4c7e-8df1-2b3bb20a6999","system_id":"levelo_inurba_marseille","lat":43.28275,"lon":5.35087,"is_reserved":false,"is_disabled":true,"rental_uris":{"android":"levelo://app?vid=86729533-93f3-4c7e-8df1-2b3bb20a6999","ios":"levelo://app?vid=86729533-93f3-4c7e-8df1-2b3bb20a6999"},"vehicle_type_id":"4","last_reported":1758028834,"current_range_meters":9200,"station_id":"ce4bhbp2rcd13ifvqerg","pricing_plan_id":"cebpf4jnsgd1na2vs0mg"},{"bike_id":"7fa1d55c-a206-4116-9f2a-151a448e2e51","system_id":"levelo_inurba_marseille","lat":43.23975,"lon":5.3662,"is_reserved":false,"is_disabled":false,"rental_uris":{"android":"levelo://app?vid=7fa1d55c-a206-4116-9f2a-151a448e2e51","ios":"levelo://app?vid=7fa1d55c-a206-4116-9f2a-151a448e2e51"},"vehicle_type_id":"4","last_reported":1758028834,"current_range_meters":9200,"station_id":"ce4bhi12rcd13ifvqfp0","pricing_plan_id":"cebpf4jnsgd1na2vs0mg"},{"bike_id":"d73ebff0-d957-41dc-a638-29b88edc4926","system_id":"levelo_inurba_marseille","lat":43.22529,"lon":5.4154,"is_reserved":false,"is_disabled":false,"rental_uris":{"android":"levelo://app?vid=d73ebff0-d957-41dc-a638-29b88edc4926","ios":"levelo://app?vid=d73ebff0-d957-41dc-a638-29b88edc4926"},"vehicle_type_id":"4","last_reported":1758028834,"current_range_meters":9600,"station_id":"","pricing_plan_id":"cebpf4jnsgd1na2vs0mg"},{"bike_id":"a155e67d-bec0-4326-ae57-c035ef5e1c81","system_id":"levelo_inurba_marseille","lat":43.29907,"lon":5.43688,"is_reserved":false,"is_disabled":false,"rental_uris":{"android":"levelo://app?vid=a155e67d-bec0-4326-ae57-c035ef5e1c81","ios":"levelo://app?vid=a155e67d-bec0-4326-ae57-c035ef5e1c81"},"vehicle_type_id":"4","last_reported":1758028834,"current_range_meters":9600,"station_id":"ce4bhpp2rcd13ifvqhfg","pricing_plan_id":"cebpf4jnsgd1na2vs0mg"},{"bike_id":"c975dd6a-3aa6-4d82-a7be-47a4c7cc93bf","system_id":"levelo_inurba_marseille","lat":43.2558,"lon":5.38231,"is_reserved":false,"is_disabled":false,"rental_uris":{"android":"levelo://app?vid=c975dd6a-3aa6-4d82-a7be-47a4c7cc93bf","ios":"levelo://app?vid=c975dd6a-3aa6-4d82-a7be-47a4c7cc93bf"},"vehicle_type_id":"4","last_reported":1758028834,"current_range_meters":12800,"station_id":"ce4bhih2rcd13ifvqfs0","pricing_plan_id":"cebpf4jnsgd1na2vs0mg"},{"bike_id":"1a84b21a-d1e4-4133-90cf-940c8877cb47","system_id":"levelo_inurba_marseille","lat":43.31332,"lon":5.36718,"is_reserved":false,"is_disabled":false,"rental_uris":{"android":"levelo://app?vid=1a84b21a-d1e4-4133-90cf-940c8877cb47","ios":"levelo://app?vid=1a84b21a-d1e4-4133-90cf-940c8877cb47"},"vehicle_type_id":"4","last_reported":1758028834,"current_range_meters":9600,"station_id":"ce4bgr92rcd13ifvqc6g","pricing_plan_id":"cebpf4jnsgd1na2vs0mg"},{"bike_id":"06e82b4e-0a92-4a68-846c-d61edaa41b08","system_id":"levelo_inurba_marseille","lat":43.27372,"lon":5.36256,"is_reserved":false,"is_disabled":false,"rental_uris":{"android":"levelo://app?vid=06e82b4e-0a92-4a68-846c-d61edaa41b08","ios":"levelo://app?vid=06e82b4e-0a92-4a68-846c-d61edaa41b08"},"vehicle_type_id":"4","last_reported":1758028834,"current_range_meters":9600,"station_id":"ce4bhbh2rcd13ifvqeo0","pricing_plan_id":"cebpf4jnsgd1na2vs0mg"},{"bike_id":"72024541-ea72-4684-9d58-a08779792132","system_id":"levelo_inurba_marseille","lat":43.28867,"lon":5.40045,"is_reserved":false,"is_disabled":false,"rental_uris":{"android":"levelo://app?vid=72024541-ea72-4684-9d58-a08779792132","ios":"levelo://app?vid=72024541-ea72-4684-9d58-a08779792132"},"vehicle_type_id":"4","last_reported":1758028834,"current_range_meters":9600,"station_id":"","pricing_plan_id":"cebpf4jnsgd1na2vs0mg"},{"bike_id":"c07e7a2d-d8a6-4efd-8723-e965be4d1a74","system_id":"levelo_inurba_marseille","lat":43.22533,"lon":5.348367,"is_reserved":false,"is_disabled":false,"rental_uris":{"android":"levelo://app?vid=c07e7a2d-d8a6-4efd-8723-e965be4d1a74","ios":"levelo://app?vid=c07e7a2d-d8a6-4efd-8723-e965be4d1a74"},"vehicle_type_id":"4","last_reported":1758028834,"current_range_meters":9600,"station_id":"","pricing_plan_id":"cebpf4jnsgd1na2vs0mg"},{"bike_id":"a29d9c7d-1634-4abc-a8ae-4db46d5032da","system_id":"levelo_inurba_marseille","lat":43.29208,"lon":5.39308,"is_reserved":false,"is_disabled":false,"rental_uris":{"android":"levelo://app?vid=a29d9c7d-1634-4abc-a8ae-4db46d5032da","ios":"levelo://app?vid=a29d9c7d-1634-4abc-a8ae-4db46d5032da"},"vehicle_type_id":"4","last_reported":1758028834,"current_range_meters":9600,"station_id":"ce4bh192rcd13ifvqdd0","pricing_plan_id":"cebpf4jnsgd1na2vs0mg"},{"bike_id":"72ec3fbd-9d6a-407a-8992-6890ef768568","system_id":"levelo_inurba_marseille","lat":43.29971,"lon":5.38495,"is_reserved":false,"is_disabled":false,"rental_uris":{"android":"levelo://app?vid=72ec3fbd-9d6a-407a-8992-6890ef768568","ios":"levelo://app?vid=72ec3fbd-9d6a-407a-8992-6890ef768568"},"vehicle_type_id":"4","last_reported":1758028834,"current_range_meters":12400,"station_id":"ce4bgj92rcd13ifvqbd0","pricing_plan_id":"cebpf4jnsgd1na2vs0mg"},{"bike_id":"cd02c080-8936-4e2b-af4d-301cbe8eb8f1","system_id":"levelo_inurba_marseille","lat":43.30059,"lon":5.40344,"is_reserved":false,"is_disabled":false,"rental_uris":{"android":"levelo://app?vid=cd02c080-8936-4e2b-af4d-301cbe8eb8f1","ios":"levelo://app?vid=cd02c080-8936-4e2b-af4d-301cbe8eb8f1"},"vehicle_type_id":"4","last_reported":1758028834,"current_range_meters":10000,"station_id":"","pricing_plan_id":"cebpf4jnsgd1na2vs0mg"},{"bike_id":"336c74d9-d9c9-46d7-a94b-134b36ad023a","system_id":"levelo_inurba_marseille","lat":43.298524,"lon":5.378335,"is_reserved":false,"is_disabled":false,"rental_uris":{"android":"levelo://app?vid=336c74d9-d9c9-46d7-a94b-134b36ad023a","ios":"levelo://app?vid=336c74d9-d9c9-46d7-a94b-134b36ad023a"},"vehicle_type_id":"4","last_reported":1758028834,"current_range_meters":10000,"station_id":"","pricing_plan_id":"cebpf4jnsgd1na2vs0mg"},{"bike_id":"68657626-417f-4a6a-b6a9-68ab1b2f5726","system_id":"levelo_inurba_marseille","lat":43.29854,"lon":5.36282,"is_reserved":false,"is_disabled":false,"rental_uris":{"android":"levelo://app?vid=68657626-417f-4a6a-b6a9-68ab1b2f5726","ios":"levelo://app?vid=68657626-417f-4a6a-b6a9-68ab1b2f5726"},"vehicle_type_id":"4","last_reported":1758028834,"current_range_meters":10000,"station_id":"ce4bgpp2rcd13ifvqc3g","pricing_plan_id":"cebpf4jnsgd1na2vs0mg"},{"bike_id":"e5c0f9fa-aa79-401b-ac6b-a846850c5345","system_id":"levelo_inurba_marseille","lat":43.27838,"lon":5.3851,"is_reserved":false,"is_disabled":false,"rental_uris":{"android":"levelo://app?vid=e5c0f9fa-aa79-401b-ac6b-a846850c5345","ios":"levelo://app?vid=e5c0f9fa-aa79-401b-ac6b-a846850c5345"},"vehicle_type_id":"4","last_reported":1758028834,"current_range_meters":10000,"station_id":"","pricing_plan_id":"cebpf4jnsgd1na2vs0mg"},{"bike_id":"b5cd28c6-b998-481a-bb20-2c6c816869e4","system_id":"levelo_inurba_marseille","lat":43.25727,"lon":5.41108,"is_reserved":false,"is_disabled":false,"rental_uris":{"android":"levelo://app?vid=b5cd28c6-b998-481a-bb20-2c6c816869e4","ios":"levelo://app?vid=b5cd28c6-b998-481a-bb20-2c6c816869e4"},"vehicle_type_id":"4","last_reported":1758028834,"current_range_meters":10000,"station_id":"ce4bhkp2rcd13ifvqgd0","pricing_plan_id":"cebpf4jnsgd1na2vs0mg"},{"bike_id":"4eaa3312-c529-4e4e-a6ab-f03d6e255c9d","system_id":"levelo_inurba_marseille","lat":43.23147,"lon":5.43725,"is_reserved":false,"is_disabled":false,"rental_uris":{"android":"levelo://app?vid=4eaa3312-c529-4e4e-a6ab-f03d6e255c9d","ios":"levelo://app?vid=4eaa3312-c529-4e4e-a6ab-f03d6e255c9d"},"vehicle_type_id":"4","last_reported":1758028834,"current_range_meters":10800,"station_id":"ce4bhmp2rcd13ifvqgog","pricing_plan_id":"cebpf4jnsgd1na2vs0mg"},{"bike_id":"fb7074da-8cf7-4ece-9829-63c7e8f23fd4","system_id":"levelo_inurba_marseille","lat":43.26689,"lon":5.38265,"is_reserved":false,"is_disabled":false,"rental_uris":{"android":"levelo://app?vid=fb7074da-8cf7-4ece-9829-63c7e8f23fd4","ios":"levelo://app?vid=fb7074da-8cf7-4ece-9829-63c7e8f23fd4"},"vehicle_type_id":"4","last_reported":1758028834,"current_range_meters":10000,"station_id":"ce4bhg92rcd13ifvqf90","pricing_plan_id":"cebpf4jnsgd1na2vs0mg"},{"bike_id":"ae873b3a-0e0d-4cd8-8800-087390b0a811","system_id":"levelo_inurba_marseille","lat":43.28266,"lon":5.35073,"is_reserved":false,"is_disabled":false,"rental_uris":{"android":"levelo://app?vid=ae873b3a-0e0d-4cd8-8800-087390b0a811","ios":"levelo://app?vid=ae873b3a-0e0d-4cd8-8800-087390b0a811"},"vehicle_type_id":"4","last_reported":1758028834,"current_range_meters":10800,"station_id":"ce4bhbp2rcd13ifvqerg","pricing_plan_id":"cebpf4jnsgd1na2vs0mg"},{"bike_id":"8ef8bf7d-8a91-4724-8c2e-ddeef723e28a","system_id":"levelo_inurba_marseille","lat":43.27037,"lon":5.37931,"is_reserved":false,"is_disabled":false,"rental_uris":{"android":"levelo://app?vid=8ef8bf7d-8a91-4724-8c2e-ddeef723e28a","ios":"levelo://app?vid=8ef8bf7d-8a91-4724-8c2e-ddeef723e28a"},"vehicle_type_id":"4","last_reported":1758028834,"current_range_meters":10800,"station_id":"","pricing_plan_id":"cebpf4jnsgd1na2vs0mg"},{"bike_id":"2b421639-cc56-4ee6-8f16-dc2d7fa45ad3","system_id":"levelo_inurba_marseille","lat":43.265546,"lon":5.390468,"is_reserved":false,"is_disabled":false,"rental_uris":{"android":"levelo://app?vid=2b421639-cc56-4ee6-8f16-dc2d7fa45ad3","ios":"levelo://app?vid=2b421639-cc56-4ee6-8f16-dc2d7fa45ad3"},"vehicle_type_id":"4","last_reported":1758028834,"current_range_meters":10800,"station_id":"ce4bhe12rcd13ifvqf30","pricing_plan_id":"cebpf4jnsgd1na2vs0mg"},{"bike_id":"02d56be7-a682-4563-9ee2-79054ee7d3d9","system_id":"levelo_inurba_marseille","lat":43.344666,"lon":5.431177,"is_reserved":false,"is_disabled":false,"rental_uris":{"android":"levelo://app?vid=02d56be7-a682-4563-9ee2-79054ee7d3d9","ios":"levelo://app?vid=02d56be7-a682-4563-9ee2-79054ee7d3d9"},"vehicle_type_id":"4","last_reported":1758028834,"current_range_meters":10800,"station_id":"","pricing_plan_id":"cebpf4jnsgd1na2vs0mg"},{"bike_id":"f7cfce6f-0ebd-4efa-a1b9-fee0836b54f0","system_id":"levelo_inurba_marseille","lat":43.28425,"lon":5.34986,"is_reserved":false,"is_disabled":false,"rental_uris":{"android":"levelo://app?vid=f7cfce6f-0ebd-4efa-a1b9-fee0836b54f0","ios":"levelo://app?vid=f7cfce6f-0ebd-4efa-a1b9-fee0836b54f0"},"vehicle_type_id":"4","last_reported":1758028834,"current_range_meters":10000,"station_id":"ce4bhbh2rcd13ifvqepg","pricing_plan_id":"cebpf4jnsgd1na2vs0mg"},{"bike_id":"acc21a74-c69f-49a6-91bc-1b7e811ede4e","system_id":"levelo_inurba_marseille","lat":43.27078,"lon":5.40267,"is_reserved":false,"is_disabled":false,"rental_uris":{"android":"levelo://app?vid=acc21a74-c69f-49a6-91bc-1b7e811ede4e","ios":"levelo://app?vid=acc21a74-c69f-49a6-91bc-1b7e811ede4e"},"vehicle_type_id":"4","last_reported":1758028834,"current_range_meters":10800,"station_id":"ce4bhk92rcd13ifvqgc0","pricing_plan_id":"cebpf4jnsgd1na2vs0mg"},{"bike_id":"77246e06-46b3-406d-9b69-b9b3e2cbdee1","system_id":"levelo_inurba_marseille","lat":43.28066,"lon":5.386631,"is_reserved":false,"is_disabled":false,"rental_uris":{"android":"levelo://app?vid=77246e06-46b3-406d-9b69-b9b3e2cbdee1","ios":"levelo://app?vid=77246e06-46b3-406d-9b69-b9b3e2cbdee1"},"vehicle_type_id":"4","last_reported":1758028834,"current_range_meters":10800,"station_id":"","pricing_plan_id":"cebpf4jnsgd1na2vs0mg"},{"bike_id":"503f6c44-185f-467b-8982-92113ab149d2","system_id":"levelo_inurba_marseille","lat":43.26214,"lon":5.37441,"is_reserved":false,"is_disabled":false,"rental_uris":{"android":"levelo://app?vid=503f6c44-185f-467b-8982-92113ab149d2","ios":"levelo://app?vid=503f6c44-185f-467b-8982-92113ab149d2"},"vehicle_type_id":"4","last_reported":1758028834,"current_range_meters":10800,"station_id":"ce4bhgp2rcd13ifvqfc0","pricing_plan_id":"cebpf4jnsgd1na2vs0mg"},{"bike_id":"e824d254-16a6-4ae4-983a-05af083f4c81","system_id":"levelo_inurba_marseille","lat":43.21753,"lon":5.34607,"is_reserved":false,"is_disabled":false,"rental_uris":{"android":"levelo://app?vid=e824d254-16a6-4ae4-983a-05af083f4c81","ios":"levelo://app?vid=e824d254-16a6-4ae4-983a-05af083f4c81"},"vehicle_type_id":"4","last_reported":1758028834,"current_range_meters":11200,"station_id":"","pricing_plan_id":"cebpf4jnsgd1na2vs0mg"},{"bike_id":"fbd65d43-321a-49dc-bcd6-3c3f9b766b37","system_id":"levelo_inurba_marseille","lat":43.2847,"lon":5.35878,"is_reserved":false,"is_disabled":false,"rental_uris":{"android":"levelo://app?vid=fbd65d43-321a-49dc-bcd6-3c3f9b766b37","ios":"levelo://app?vid=fbd65d43-321a-49dc-bcd6-3c3f9b766b37"},"vehicle_type_id":"4","last_reported":1758028834,"current_range_meters":10800,"station_id":"ce4bhah2rcd13ifvqei0","pricing_plan_id":"cebpf4jnsgd1na2vs0mg"},{"bike_id":"03ef693f-c532-4e7c-8d02-51c4cf73c821","system_id":"levelo_inurba_marseille","lat":43.31081,"lon":5.38363,"is_reserved":false,"is_disabled":false,"rental_uris":{"android":"levelo://app?vid=03ef693f-c532-4e7c-8d02-51c4cf73c821","ios":"levelo://app?vid=03ef693f-c532-4e7c-8d02-51c4cf73c821"},"vehicle_type_id":"4","last_reported":1758028834,"current_range_meters":11200,"station_id":"ce4bgv92rcd13ifvqcr0","pricing_plan_id":"cebpf4jnsgd1na2vs0mg"},{"bike_id":"23c65637-3130-4c68-93c4-77d4d94282c2","system_id":"levelo_inurba_marseille","lat":43.2417,"lon":5.36397,"is_reserved":false,"is_disabled":false,"rental_uris":{"android":"levelo://app?vid=23c65637-3130-4c68-93c4-77d4d94282c2","ios":"levelo://app?vid=23c65637-3130-4c68-93c4-77d4d94282c2"},"vehicle_type_id":"4","last_reported":1758028834,"current_range_meters":11200,"station_id":"cpo36qri1sfpv3e86is0","pricing_plan_id":"cebpf4jnsgd1na2vs0mg"},{"bike_id":"b0be4869-7062-4f28-ad5e-2f9fc72a4433","system_id":"levelo_inurba_marseille","lat":43.30547,"lon":5.36559,"is_reserved":false,"is_disabled":false,"rental_uris":{"android":"levelo://app?vid=b0be4869-7062-4f28-ad5e-2f9fc72a4433","ios":"levelo://app?vid=b0be4869-7062-4f28-ad5e-2f9fc72a4433"},"vehicle_type_id":"4","last_reported":1758028834,"current_range_meters":11600,"station_id":"ce4bgs12rcd13ifvqcag","pricing_plan_id":"cebpf4jnsgd1na2vs0mg"},{"bike_id":"ac340abf-24c3-418f-9e97-0eb4212ba73f","system_id":"levelo_inurba_marseille","lat":43.3093,"lon":5.36879,"is_reserved":false,"is_disabled":false,"rental_uris":{"android":"levelo://app?vid=ac340abf-24c3-418f-9e97-0eb4212ba73f","ios":"levelo://app?vid=ac340abf-24c3-418f-9e97-0eb4212ba73f"},"vehicle_type_id":"4","last_reported":1758028834,"current_range_meters":11600,"station_id":"ce4bgn92rcd13ifvqbvg","pricing_plan_id":"cebpf4jnsgd1na2vs0mg"},{"bike_id":"95e70730-277b-4231-9c86-eae2e6943999","system_id":"levelo_inurba_marseille","lat":43.30144,"lon":5.374098,"is_reserved":false,"is_disabled":false,"rental_uris":{"android":"levelo://app?vid=95e70730-277b-4231-9c86-eae2e6943999","ios":"levelo://app?vid=95e70730-277b-4231-9c86-eae2e6943999"},"vehicle_type_id":"4","last_reported":1758028834,"current_range_meters":11600,"station_id":"ce4bgs92rcd13ifvqcc0","pricing_plan_id":"cebpf4jnsgd1na2vs0mg"},{"bike_id":"afceab56-3de2-47a0-b44e-120a44d1d132","system_id":"levelo_inurba_marseille","lat":43.28258,"lon":5.35067,"is_reserved":false,"is_disabled":false,"rental_uris":{"android":"levelo://app?vid=afceab56-3de2-47a0-b44e-120a44d1d132","ios":"levelo://app?vid=afceab56-3de2-47a0-b44e-120a44d1d132"},"vehicle_type_id":"4","last_reported":1758028834,"current_range_meters":11600,"station_id":"ce4bhbp2rcd13ifvqerg","pricing_plan_id":"cebpf4jnsgd1na2vs0mg"},{"bike_id":"37651add-4052-43d9-bdff-01341493f68f","system_id":"levelo_inurba_marseille","lat":43.30915,"lon":5.36846,"is_reserved":false,"is_disabled":false,"rental_uris":{"android":"levelo://app?vid=37651add-4052-43d9-bdff-01341493f68f","ios":"levelo://app?vid=37651add-4052-43d9-bdff-01341493f68f"},"vehicle_type_id":"4","last_reported":1758028834,"current_range_meters":11600,"station_id":"ce4bgn92rcd13ifvqbvg","pricing_plan_id":"cebpf4jnsgd1na2vs0mg"},{"bike_id":"4d9785ea-13de-4210-bc0d-f170841019c0","system_id":"levelo_inurba_marseille","lat":43.231981,"lon":5.355472,"is_reserved":false,"is_disabled":false,"rental_uris":{"android":"levelo://app?vid=4d9785ea-13de-4210-bc0d-f170841019c0","ios":"levelo://app?vid=4d9785ea-13de-4210-bc0d-f170841019c0"},"vehicle_type_id":"4","last_reported":1758028834,"current_range_meters":11600,"station_id":"ce4bhu92rcd13ifvqi70","pricing_plan_id":"cebpf4jnsgd1na2vs0mg"},{"bike_id":"17490bdf-8114-4887-864a-67f78bde8a89","system_id":"levelo_inurba_marseille","lat":43.284331,"lon":5.349704,"is_reserved":false,"is_disabled":false,"rental_uris":{"android":"levelo://app?vid=17490bdf-8114-4887-864a-67f78bde8a89","ios":"levelo://app?vid=17490bdf-8114-4887-864a-67f78bde8a89"},"vehicle_type_id":"4","last_reported":1758028834,"current_range_meters":11600,"station_id":"ce4bh3p2rcd13ifvqdp0","pricing_plan_id":"cebpf4jnsgd1na2vs0mg"},{"bike_id":"8ff30fb7-38d3-41e0-97e7-456d15add69c","system_id":"levelo_inurba_marseille","lat":43.32353,"lon":5.36755,"is_reserved":false,"is_disabled":false,"rental_uris":{"android":"levelo://app?vid=8ff30fb7-38d3-41e0-97e7-456d15add69c","ios":"levelo://app?vid=8ff30fb7-38d3-41e0-97e7-456d15add69c"},"vehicle_type_id":"4","last_reported":1758028834,"current_range_meters":12000,"station_id":"ce4bhsh2rcd13ifvqi2g","pricing_plan_id":"cebpf4jnsgd1na2vs0mg"},{"bike_id":"8e39e603-6d26-44dc-ba83-90967d9dedc1","system_id":"levelo_inurba_marseille","lat":43.28274,"lon":5.35072,"is_reserved":false,"is_disabled":false,"rental_uris":{"android":"levelo://app?vid=8e39e603-6d26-44dc-ba83-90967d9dedc1","ios":"levelo://app?vid=8e39e603-6d26-44dc-ba83-90967d9dedc1"},"vehicle_type_id":"4","last_reported":1758028834,"current_range_meters":12000,"station_id":"ce4bhbp2rcd13ifvqerg","pricing_plan_id":"cebpf4jnsgd1na2vs0mg"},{"bike_id":"6b83898c-9bad-4bd4-a83a-6fc7aa3c7dec","system_id":"levelo_inurba_marseille","lat":43.25507,"lon":5.3766,"is_reserved":false,"is_disabled":false,"rental_uris":{"android":"levelo://app?vid=6b83898c-9bad-4bd4-a83a-6fc7aa3c7dec","ios":"levelo://app?vid=6b83898c-9bad-4bd4-a83a-6fc7aa3c7dec"},"vehicle_type_id":"4","last_reported":1758028834,"current_range_meters":12000,"station_id":"ce4bhh12rcd13ifvqff0","pricing_plan_id":"cebpf4jnsgd1na2vs0mg"},{"bike_id":"5b41fd04-05cf-4928-b738-4411687739ea","system_id":"levelo_inurba_marseille","lat":43.28106,"lon":5.3783,"is_reserved":false,"is_disabled":false,"rental_uris":{"android":"levelo://app?vid=5b41fd04-05cf-4928-b738-4411687739ea","ios":"levelo://app?vid=5b41fd04-05cf-4928-b738-4411687739ea"},"vehicle_type_id":"4","last_reported":1758028834,"current_range_meters":12000,"station_id":"ce4bha12rcd13ifvqee0","pricing_plan_id":"cebpf4jnsgd1na2vs0mg"},{"bike_id":"9156b3e9-6a8e-4859-87d7-eac70607edc4","system_id":"levelo_inurba_marseille","lat":43.296229,"lon":5.376965,"is_reserved":false,"is_disabled":false,"rental_uris":{"android":"levelo://app?vid=9156b3e9-6a8e-4859-87d7-eac70607edc4","ios":"levelo://app?vid=9156b3e9-6a8e-4859-87d7-eac70607edc4"},"vehicle_type_id":"4","last_reported":1758028834,"current_range_meters":12400,"station_id":"ce4bgi92rcd13ifvqb90","pricing_plan_id":"cebpf4jnsgd1na2vs0mg"},{"bike_id":"0446eae8-aab0-480e-893b-9cb40d15936c","system_id":"levelo_inurba_marseille","lat":43.22572,"lon":5.41659,"is_reserved":false,"is_disabled":false,"rental_uris":{"android":"levelo://app?vid=0446eae8-aab0-480e-893b-9cb40d15936c","ios":"levelo://app?vid=0446eae8-aab0-480e-893b-9cb40d15936c"},"vehicle_type_id":"4","last_reported":1758028834,"current_range_meters":12400,"station_id":"st_d2o4gvlbi1j2169b742g","pricing_plan_id":"cebpf4jnsgd1na2vs0mg"},{"bike_id":"8be4edf1-6304-4340-9a11-ee3b226d6122","system_id":"levelo_inurba_marseille","lat":43.28103,"lon":5.37825,"is_reserved":false,"is_disabled":false,"rental_uris":{"android":"levelo://app?vid=8be4edf1-6304-4340-9a11-ee3b226d6122","ios":"levelo://app?vid=8be4edf1-6304-4340-9a11-ee3b226d6122"},"vehicle_type_id":"4","last_reported":1758028834,"current_range_meters":12800,"station_id":"ce4bha12rcd13ifvqee0","pricing_plan_id":"cebpf4jnsgd1na2vs0mg"},{"bike_id":"fbf68d05-5125-49dc-91fb-265fd58ee496","system_id":"levelo_inurba_marseille","lat":43.24068,"lon":5.37751,"is_reserved":false,"is_disabled":false,"rental_uris":{"android":"levelo://app?vid=fbf68d05-5125-49dc-91fb-265fd58ee496","ios":"levelo://app?vid=fbf68d05-5125-49dc-91fb-265fd58ee496"},"vehicle_type_id":"4","last_reported":1758028834,"current_range_meters":12800,"station_id":"ce4bhnp2rcd13ifvqgvg","pricing_plan_id":"cebpf4jnsgd1na2vs0mg"},{"bike_id":"33211439-4c1d-49d1-8c80-6f86ae54dfb9","system_id":"levelo_inurba_marseille","lat":43.29055,"lon":5.37161,"is_reserved":false,"is_disabled":false,"rental_uris":{"android":"levelo://app?vid=33211439-4c1d-49d1-8c80-6f86ae54dfb9","ios":"levelo://app?vid=33211439-4c1d-49d1-8c80-6f86ae54dfb9"},"vehicle_type_id":"4","last_reported":1758028834,"current_range_meters":12800,"station_id":"ce4bh5p2rcd13ifvqe4g","pricing_plan_id":"cebpf4jnsgd1na2vs0mg"},{"bike_id":"4da91a3c-13ea-4269-8611-c5bf87e7418b","system_id":"levelo_inurba_marseille","lat":43.28273,"lon":5.35079,"is_reserved":false,"is_disabled":false,"rental_uris":{"android":"levelo://app?vid=4da91a3c-13ea-4269-8611-c5bf87e7418b","ios":"levelo://app?vid=4da91a3c-13ea-4269-8611-c5bf87e7418b"},"vehicle_type_id":"4","last_reported":1758028834,"current_range_meters":12800,"station_id":"ce4bhbp2rcd13ifvqerg","pricing_plan_id":"cebpf4jnsgd1na2vs0mg"},{"bike_id":"3468df82-d21c-4467-9dad-0840097912f9","system_id":"levelo_inurba_marseille","lat":43.25499,"lon":5.37645,"is_reserved":false,"is_disabled":false,"rental_uris":{"android":"levelo://app?vid=3468df82-d21c-4467-9dad-0840097912f9","ios":"levelo://app?vid=3468df82-d21c-4467-9dad-0840097912f9"},"vehicle_type_id":"4","last_reported":1758028834,"current_range_meters":12800,"station_id":"ce4bhh12rcd13ifvqff0","pricing_plan_id":"cebpf4jnsgd1na2vs0mg"},{"bike_id":"09c16f5a-16da-4441-ac47-480ebe866167","system_id":"levelo_inurba_marseille","lat":43.281154,"lon":5.378223,"is_reserved":false,"is_disabled":false,"rental_uris":{"android":"levelo://app?vid=09c16f5a-16da-4441-ac47-480ebe866167","ios":"levelo://app?vid=09c16f5a-16da-4441-ac47-480ebe866167"},"vehicle_type_id":"4","last_reported":1758028834,"current_range_meters":12800,"station_id":"ce4bha12rcd13ifvqee0","pricing_plan_id":"cebpf4jnsgd1na2vs0mg"},{"bike_id":"3b26aa0d-3679-4b4c-9b55-1096f6d08a9d","system_id":"levelo_inurba_marseille","lat":43.312974,"lon":5.39392,"is_reserved":false,"is_disabled":false,"rental_uris":{"android":"levelo://app?vid=3b26aa0d-3679-4b4c-9b55-1096f6d08a9d","ios":"levelo://app?vid=3b26aa0d-3679-4b4c-9b55-1096f6d08a9d"},"vehicle_type_id":"4","last_reported":1758028834,"current_range_meters":13600,"station_id":"","pricing_plan_id":"cebpf4jnsgd1na2vs0mg"},{"bike_id":"cd2513dc-3627-4964-a0b1-d4c9260c4c8e","system_id":"levelo_inurba_marseille","lat":43.24078,"lon":5.37737,"is_reserved":false,"is_disabled":false,"rental_uris":{"android":"levelo://app?vid=cd2513dc-3627-4964-a0b1-d4c9260c4c8e","ios":"levelo://app?vid=cd2513dc-3627-4964-a0b1-d4c9260c4c8e"},"vehicle_type_id":"4","last_reported":1758028834,"current_range_meters":13600,"station_id":"ce4bhnp2rcd13ifvqgvg","pricing_plan_id":"cebpf4jnsgd1na2vs0mg"},{"bike_id":"9c740e69-761d-4034-b327-63addcf5f7f3","system_id":"levelo_inurba_marseille","lat":43.28277,"lon":5.3506,"is_reserved":false,"is_disabled":false,"rental_uris":{"android":"levelo://app?vid=9c740e69-761d-4034-b327-63addcf5f7f3","ios":"levelo://app?vid=9c740e69-761d-4034-b327-63addcf5f7f3"},"vehicle_type_id":"4","last_reported":1758028834,"current_range_meters":13600,"station_id":"ce4bhbp2rcd13ifvqerg","pricing_plan_id":"cebpf4jnsgd1na2vs0mg"},{"bike_id":"2ba6d751-735d-4f3f-b471-7e3f5bc5e1b1","system_id":"levelo_inurba_marseille","lat":43.32096,"lon":5.36786,"is_reserved":false,"is_disabled":false,"rental_uris":{"android":"levelo://app?vid=2ba6d751-735d-4f3f-b471-7e3f5bc5e1b1","ios":"levelo://app?vid=2ba6d751-735d-4f3f-b471-7e3f5bc5e1b1"},"vehicle_type_id":"4","last_reported":1758028834,"current_range_meters":13600,"station_id":"ce4bhrh2rcd13ifvqhug","pricing_plan_id":"cebpf4jnsgd1na2vs0mg"},{"bike_id":"fb351b77-39b9-4407-912a-c1008fce46ae","system_id":"levelo_inurba_marseille","lat":43.313429,"lon":5.36722,"is_reserved":false,"is_disabled":false,"rental_uris":{"android":"levelo://app?vid=fb351b77-39b9-4407-912a-c1008fce46ae","ios":"levelo://app?vid=fb351b77-39b9-4407-912a-c1008fce46ae"},"vehicle_type_id":"4","last_reported":1758028834,"current_range_meters":13600,"station_id":"ce4bgr92rcd13ifvqc6g","pricing_plan_id":"cebpf4jnsgd1na2vs0mg"},{"bike_id":"0ddb371b-8863-4158-9a59-3f7292d778af","system_id":"levelo_inurba_marseille","lat":43.24631,"lon":5.43146,"is_reserved":false,"is_disabled":false,"rental_uris":{"android":"levelo://app?vid=0ddb371b-8863-4158-9a59-3f7292d778af","ios":"levelo://app?vid=0ddb371b-8863-4158-9a59-3f7292d778af"},"vehicle_type_id":"4","last_reported":1758028834,"current_range_meters":14000,"station_id":"st_d2m6c4gdas8pm72e190g","pricing_plan_id":"cebpf4jnsgd1na2vs0mg"},{"bike_id":"89e919e7-59ff-4a77-a762-3e671ceab2f5","system_id":"levelo_inurba_marseille","lat":43.29046,"lon":5.35925,"is_reserved":false,"is_disabled":false,"rental_uris":{"android":"levelo://app?vid=89e919e7-59ff-4a77-a762-3e671ceab2f5","ios":"levelo://app?vid=89e919e7-59ff-4a77-a762-3e671ceab2f5"},"vehicle_type_id":"4","last_reported":1758028834,"current_range_meters":14000,"station_id":"ce4bha92rcd13ifvqeg0","pricing_plan_id":"cebpf4jnsgd1na2vs0mg"},{"bike_id":"7401f904-c7a5-4420-9a38-b32c76084c39","system_id":"levelo_inurba_marseille","lat":43.28266,"lon":5.35051,"is_reserved":false,"is_disabled":false,"rental_uris":{"android":"levelo://app?vid=7401f904-c7a5-4420-9a38-b32c76084c39","ios":"levelo://app?vid=7401f904-c7a5-4420-9a38-b32c76084c39"},"vehicle_type_id":"4","last_reported":1758028834,"current_range_meters":14000,"station_id":"ce4bhbp2rcd13ifvqerg","pricing_plan_id":"cebpf4jnsgd1na2vs0mg"},{"bike_id":"f5eca083-ec69-453e-ade1-461e9e28e798","system_id":"levelo_inurba_marseille","lat":43.24076,"lon":5.37767,"is_reserved":false,"is_disabled":false,"rental_uris":{"android":"levelo://app?vid=f5eca083-ec69-453e-ade1-461e9e28e798","ios":"levelo://app?vid=f5eca083-ec69-453e-ade1-461e9e28e798"},"vehicle_type_id":"4","last_reported":1758028834,"current_range_meters":14000,"station_id":"ce4bhnp2rcd13ifvqgvg","pricing_plan_id":"cebpf4jnsgd1na2vs0mg"},{"bike_id":"532628d9-eac6-417b-9d37-f9d29eec171a","system_id":"levelo_inurba_marseille","lat":43.30248,"lon":5.40062,"is_reserved":false,"is_disabled":false,"rental_uris":{"android":"levelo://app?vid=532628d9-eac6-417b-9d37-f9d29eec171a","ios":"levelo://app?vid=532628d9-eac6-417b-9d37-f9d29eec171a"},"vehicle_type_id":"4","last_reported":1758028834,"current_range_meters":14000,"station_id":"ce4bgvh2rcd13ifvqcs0","pricing_plan_id":"cebpf4jnsgd1na2vs0mg"},{"bike_id":"f8b55e6f-fc3d-4219-a744-334ff9e3907f","system_id":"levelo_inurba_marseille","lat":43.31368,"lon":5.36713,"is_reserved":false,"is_disabled":false,"rental_uris":{"android":"levelo://app?vid=f8b55e6f-fc3d-4219-a744-334ff9e3907f","ios":"levelo://app?vid=f8b55e6f-fc3d-4219-a744-334ff9e3907f"},"vehicle_type_id":"4","last_reported":1758028834,"current_range_meters":14000,"station_id":"ce4bgr92rcd13ifvqc6g","pricing_plan_id":"cebpf4jnsgd1na2vs0mg"},{"bike_id":"0ede21be-37d9-4495-b672-80274a6292be","system_id":"levelo_inurba_marseille","lat":43.35062,"lon":5.3407,"is_reserved":false,"is_disabled":false,"rental_uris":{"android":"levelo://app?vid=0ede21be-37d9-4495-b672-80274a6292be","ios":"levelo://app?vid=0ede21be-37d9-4495-b672-80274a6292be"},"vehicle_type_id":"4","last_reported":1758028834,"current_range_meters":14000,"station_id":"","pricing_plan_id":"cebpf4jnsgd1na2vs0mg"},{"bike_id":"d762704f-3cd8-498d-bca9-b2e2238f8e27","system_id":"levelo_inurba_marseille","lat":43.302502,"lon":5.400656,"is_reserved":false,"is_disabled":false,"rental_uris":{"android":"levelo://app?vid=d762704f-3cd8-498d-bca9-b2e2238f8e27","ios":"levelo://app?vid=d762704f-3cd8-498d-bca9-b2e2238f8e27"},"vehicle_type_id":"4","last_reported":1758028834,"current_range_meters":14400,"station_id":"ce4bgvh2rcd13ifvqcs0","pricing_plan_id":"cebpf4jnsgd1na2vs0mg"},{"bike_id":"819acd2d-1fa5-4830-afb3-48b5185776e3","system_id":"levelo_inurba_marseille","lat":43.2989,"lon":5.43656,"is_reserved":false,"is_disabled":false,"rental_uris":{"android":"levelo://app?vid=819acd2d-1fa5-4830-afb3-48b5185776e3","ios":"levelo://app?vid=819acd2d-1fa5-4830-afb3-48b5185776e3"},"vehicle_type_id":"4","last_reported":1758028834,"current_range_meters":14400,"station_id":"ce4bhpp2rcd13ifvqhfg","pricing_plan_id":"cebpf4jnsgd1na2vs0mg"},{"bike_id":"a233fd34-6838-42a2-943f-f1f026b5e317","system_id":"levelo_inurba_marseille","lat":43.28416,"lon":5.34978,"is_reserved":false,"is_disabled":false,"rental_uris":{"android":"levelo://app?vid=a233fd34-6838-42a2-943f-f1f026b5e317","ios":"levelo://app?vid=a233fd34-6838-42a2-943f-f1f026b5e317"},"vehicle_type_id":"4","last_reported":1758028834,"current_range_meters":14400,"station_id":"ce4bhbh2rcd13ifvqepg","pricing_plan_id":"cebpf4jnsgd1na2vs0mg"},{"bike_id":"0049acfe-97a7-4c73-afbf-6c0e3d2fdff3","system_id":"levelo_inurba_marseille","lat":43.284876,"lon":5.385559,"is_reserved":false,"is_disabled":false,"rental_uris":{"android":"levelo://app?vid=0049acfe-97a7-4c73-afbf-6c0e3d2fdff3","ios":"levelo://app?vid=0049acfe-97a7-4c73-afbf-6c0e3d2fdff3"},"vehicle_type_id":"4","last_reported":1758028834,"current_range_meters":14400,"station_id":"ce4bh8p2rcd13ifvqeb0","pricing_plan_id":"cebpf4jnsgd1na2vs0mg"},{"bike_id":"fd20e166-4328-4893-afd2-ac0b406b2700","system_id":"levelo_inurba_marseille","lat":43.32541,"lon":5.41435,"is_reserved":false,"is_disabled":false,"rental_uris":{"android":"levelo://app?vid=fd20e166-4328-4893-afd2-ac0b406b2700","ios":"levelo://app?vid=fd20e166-4328-4893-afd2-ac0b406b2700"},"vehicle_type_id":"4","last_reported":1758028834,"current_range_meters":14400,"station_id":"ce4bhq12rcd13ifvqhhg","pricing_plan_id":"cebpf4jnsgd1na2vs0mg"},{"bike_id":"4c42b1b8-2051-4007-8888-f6b621a827e6","system_id":"levelo_inurba_marseille","lat":43.27361,"lon":5.36246,"is_reserved":false,"is_disabled":false,"rental_uris":{"android":"levelo://app?vid=4c42b1b8-2051-4007-8888-f6b621a827e6","ios":"levelo://app?vid=4c42b1b8-2051-4007-8888-f6b621a827e6"},"vehicle_type_id":"4","last_reported":1758028834,"current_range_meters":14400,"station_id":"ce4bhbh2rcd13ifvqeo0","pricing_plan_id":"cebpf4jnsgd1na2vs0mg"},{"bike_id":"de5c5e32-fdec-446f-b519-ccf2243c1a8b","system_id":"levelo_inurba_marseille","lat":43.29226,"lon":5.39311,"is_reserved":false,"is_disabled":false,"rental_uris":{"android":"levelo://app?vid=de5c5e32-fdec-446f-b519-ccf2243c1a8b","ios":"levelo://app?vid=de5c5e32-fdec-446f-b519-ccf2243c1a8b"},"vehicle_type_id":"4","last_reported":1758028834,"current_range_meters":14400,"station_id":"ce4bh192rcd13ifvqdd0","pricing_plan_id":"cebpf4jnsgd1na2vs0mg"},{"bike_id":"62473aca-5d60-4f9b-8d0a-e6ce0ea7fc2f","system_id":"levelo_inurba_marseille","lat":43.30353,"lon":5.36607,"is_reserved":false,"is_disabled":false,"rental_uris":{"android":"levelo://app?vid=62473aca-5d60-4f9b-8d0a-e6ce0ea7fc2f","ios":"levelo://app?vid=62473aca-5d60-4f9b-8d0a-e6ce0ea7fc2f"},"vehicle_type_id":"4","last_reported":1758028834,"current_range_meters":14800,"station_id":"","pricing_plan_id":"cebpf4jnsgd1na2vs0mg"},{"bike_id":"ece07351-e21d-4c48-bd8e-d6076d0d6379","system_id":"levelo_inurba_marseille","lat":43.28463,"lon":5.37469,"is_reserved":false,"is_disabled":false,"rental_uris":{"android":"levelo://app?vid=ece07351-e21d-4c48-bd8e-d6076d0d6379","ios":"levelo://app?vid=ece07351-e21d-4c48-bd8e-d6076d0d6379"},"vehicle_type_id":"4","last_reported":1758028834,"current_range_meters":14800,"station_id":"","pricing_plan_id":"cebpf4jnsgd1na2vs0mg"},{"bike_id":"d5a9b994-9876-4c5b-b3fe-a560bfabc7d1","system_id":"levelo_inurba_marseille","lat":43.28441,"lon":5.34988,"is_reserved":false,"is_disabled":false,"rental_uris":{"android":"levelo://app?vid=d5a9b994-9876-4c5b-b3fe-a560bfabc7d1","ios":"levelo://app?vid=d5a9b994-9876-4c5b-b3fe-a560bfabc7d1"},"vehicle_type_id":"4","last_reported":1758028834,"current_range_meters":14400,"station_id":"ce4bhbh2rcd13ifvqepg","pricing_plan_id":"cebpf4jnsgd1na2vs0mg"},{"bike_id":"d895c5a7-456d-498b-bfae-41498c3d490a","system_id":"levelo_inurba_marseille","lat":43.32075,"lon":5.41534,"is_reserved":false,"is_disabled":false,"rental_uris":{"android":"levelo://app?vid=d895c5a7-456d-498b-bfae-41498c3d490a","ios":"levelo://app?vid=d895c5a7-456d-498b-bfae-41498c3d490a"},"vehicle_type_id":"4","last_reported":1758028834,"current_range_meters":14800,"station_id":"ce4bhq92rcd13ifvqhkg","pricing_plan_id":"cebpf4jnsgd1na2vs0mg"},{"bike_id":"26bc042a-9bfe-4247-b155-c97441915eee","system_id":"levelo_inurba_marseille","lat":43.250671,"lon":5.375505,"is_reserved":false,"is_disabled":false,"rental_uris":{"android":"levelo://app?vid=26bc042a-9bfe-4247-b155-c97441915eee","ios":"levelo://app?vid=26bc042a-9bfe-4247-b155-c97441915eee"},"vehicle_type_id":"4","last_reported":1758028834,"current_range_meters":14800,"station_id":"","pricing_plan_id":"cebpf4jnsgd1na2vs0mg"},{"bike_id":"a44b7d9c-7d7f-4649-9e3e-bc97747000c5","system_id":"levelo_inurba_marseille","lat":43.30543,"lon":5.36521,"is_reserved":false,"is_disabled":false,"rental_uris":{"android":"levelo://app?vid=a44b7d9c-7d7f-4649-9e3e-bc97747000c5","ios":"levelo://app?vid=a44b7d9c-7d7f-4649-9e3e-bc97747000c5"},"vehicle_type_id":"4","last_reported":1758028834,"current_range_meters":14800,"station_id":"ce4bgs12rcd13ifvqcag","pricing_plan_id":"cebpf4jnsgd1na2vs0mg"},{"bike_id":"c5db8956-5cb9-45c3-98ae-2d5ca5a164f9","system_id":"levelo_inurba_marseille","lat":43.30544,"lon":5.367258,"is_reserved":false,"is_disabled":false,"rental_uris":{"android":"levelo://app?vid=c5db8956-5cb9-45c3-98ae-2d5ca5a164f9","ios":"levelo://app?vid=c5db8956-5cb9-45c3-98ae-2d5ca5a164f9"},"vehicle_type_id":"4","last_reported":1758028834,"current_range_meters":14800,"station_id":"ce4bgrp2rcd13ifvqc9g","pricing_plan_id":"cebpf4jnsgd1na2vs0mg"},{"bike_id":"7e35631e-b59e-4a9e-8f6b-829cc42d7a80","system_id":"levelo_inurba_marseille","lat":43.26213,"lon":5.37919,"is_reserved":false,"is_disabled":false,"rental_uris":{"android":"levelo://app?vid=7e35631e-b59e-4a9e-8f6b-829cc42d7a80","ios":"levelo://app?vid=7e35631e-b59e-4a9e-8f6b-829cc42d7a80"},"vehicle_type_id":"4","last_reported":1758028834,"current_range_meters":14800,"station_id":"ce4bhjp2rcd13ifvqg90","pricing_plan_id":"cebpf4jnsgd1na2vs0mg"},{"bike_id":"c8144899-9b41-4fd4-84a4-755117cb116d","system_id":"levelo_inurba_marseille","lat":43.284722,"lon":5.384208,"is_reserved":false,"is_disabled":false,"rental_uris":{"android":"levelo://app?vid=c8144899-9b41-4fd4-84a4-755117cb116d","ios":"levelo://app?vid=c8144899-9b41-4fd4-84a4-755117cb116d"},"vehicle_type_id":"4","last_reported":1758028834,"current_range_meters":14800,"station_id":"","pricing_plan_id":"cebpf4jnsgd1na2vs0mg"},{"bike_id":"894c083a-1fb2-426e-a8c8-fa7f31ea72d3","system_id":"levelo_inurba_marseille","lat":43.255755,"lon":5.382409,"is_reserved":false,"is_disabled":false,"rental_uris":{"android":"levelo://app?vid=894c083a-1fb2-426e-a8c8-fa7f31ea72d3","ios":"levelo://app?vid=894c083a-1fb2-426e-a8c8-fa7f31ea72d3"},"vehicle_type_id":"4","last_reported":1758028834,"current_range_meters":15200,"station_id":"ce4bhih2rcd13ifvqfs0","pricing_plan_id":"cebpf4jnsgd1na2vs0mg"},{"bike_id":"11555ead-152a-4e2f-ac3e-7aaa852c50e5","system_id":"levelo_inurba_marseille","lat":43.225326,"lon":5.348358,"is_reserved":false,"is_disabled":false,"rental_uris":{"android":"levelo://app?vid=11555ead-152a-4e2f-ac3e-7aaa852c50e5","ios":"levelo://app?vid=11555ead-152a-4e2f-ac3e-7aaa852c50e5"},"vehicle_type_id":"4","last_reported":1758028834,"current_range_meters":15200,"station_id":"","pricing_plan_id":"cebpf4jnsgd1na2vs0mg"},{"bike_id":"a05fdb49-e038-4a84-8ea1-52f3eaaf07b1","system_id":"levelo_inurba_marseille","lat":43.22557,"lon":5.41645,"is_reserved":false,"is_disabled":false,"rental_uris":{"android":"levelo://app?vid=a05fdb49-e038-4a84-8ea1-52f3eaaf07b1","ios":"levelo://app?vid=a05fdb49-e038-4a84-8ea1-52f3eaaf07b1"},"vehicle_type_id":"4","last_reported":1758028834,"current_range_meters":15200,"station_id":"st_d2o4gvlbi1j2169b742g","pricing_plan_id":"cebpf4jnsgd1na2vs0mg"},{"bike_id":"18ad16a3-5d00-46e9-af95-5fc429f027f6","system_id":"levelo_inurba_marseille","lat":43.280395,"lon":5.369418,"is_reserved":false,"is_disabled":false,"rental_uris":{"android":"levelo://app?vid=18ad16a3-5d00-46e9-af95-5fc429f027f6","ios":"levelo://app?vid=18ad16a3-5d00-46e9-af95-5fc429f027f6"},"vehicle_type_id":"4","last_reported":1758028834,"current_range_meters":15200,"station_id":"ce4bha12rcd13ifvqef0","pricing_plan_id":"cebpf4jnsgd1na2vs0mg"},{"bike_id":"c90b53f2-ffb7-445d-88ba-3fbf20ae9860","system_id":"levelo_inurba_marseille","lat":43.27505,"lon":5.4246,"is_reserved":false,"is_disabled":false,"rental_uris":{"android":"levelo://app?vid=c90b53f2-ffb7-445d-88ba-3fbf20ae9860","ios":"levelo://app?vid=c90b53f2-ffb7-445d-88ba-3fbf20ae9860"},"vehicle_type_id":"4","last_reported":1758028834,"current_range_meters":15200,"station_id":"ce4bhn92rcd13ifvqgrg","pricing_plan_id":"cebpf4jnsgd1na2vs0mg"},{"bike_id":"5c0b2341-c41a-4f62-9e5f-92e6a593fad9","system_id":"levelo_inurba_marseille","lat":43.33819,"lon":5.3739,"is_reserved":false,"is_disabled":false,"rental_uris":{"android":"levelo://app?vid=5c0b2341-c41a-4f62-9e5f-92e6a593fad9","ios":"levelo://app?vid=5c0b2341-c41a-4f62-9e5f-92e6a593fad9"},"vehicle_type_id":"4","last_reported":1758028834,"current_range_meters":16000,"station_id":"","pricing_plan_id":"cebpf4jnsgd1na2vs0mg"},{"bike_id":"25f95f45-2ad0-4306-a141-c450ca91a399","system_id":"levelo_inurba_marseille","lat":43.26216,"lon":5.37439,"is_reserved":false,"is_disabled":false,"rental_uris":{"android":"levelo://app?vid=25f95f45-2ad0-4306-a141-c450ca91a399","ios":"levelo://app?vid=25f95f45-2ad0-4306-a141-c450ca91a399"},"vehicle_type_id":"4","last_reported":1758028834,"current_range_meters":16000,"station_id":"ce4bhgp2rcd13ifvqfc0","pricing_plan_id":"cebpf4jnsgd1na2vs0mg"},{"bike_id":"af855c88-100f-429f-ba0c-3dad51b30928","system_id":"levelo_inurba_marseille","lat":43.21218,"lon":5.35052,"is_reserved":false,"is_disabled":false,"rental_uris":{"android":"levelo://app?vid=af855c88-100f-429f-ba0c-3dad51b30928","ios":"levelo://app?vid=af855c88-100f-429f-ba0c-3dad51b30928"},"vehicle_type_id":"4","last_reported":1758028834,"current_range_meters":16000,"station_id":"","pricing_plan_id":"cebpf4jnsgd1na2vs0mg"},{"bike_id":"88a8a850-d513-47ec-8870-e7210ef51b52","system_id":"levelo_inurba_marseille","lat":43.29929,"lon":5.38523,"is_reserved":false,"is_disabled":false,"rental_uris":{"android":"levelo://app?vid=88a8a850-d513-47ec-8870-e7210ef51b52","ios":"levelo://app?vid=88a8a850-d513-47ec-8870-e7210ef51b52"},"vehicle_type_id":"4","last_reported":1758028834,"current_range_meters":16000,"station_id":"","pricing_plan_id":"cebpf4jnsgd1na2vs0mg"},{"bike_id":"82e0bfcc-bba2-4c2c-9484-d3ca3b13a18b","system_id":"levelo_inurba_marseille","lat":43.29469,"lon":5.37546,"is_reserved":false,"is_disabled":false,"rental_uris":{"android":"levelo://app?vid=82e0bfcc-bba2-4c2c-9484-d3ca3b13a18b","ios":"levelo://app?vid=82e0bfcc-bba2-4c2c-9484-d3ca3b13a18b"},"vehicle_type_id":"4","last_reported":1758028834,"current_range_meters":16000,"station_id":"","pricing_plan_id":"cebpf4jnsgd1na2vs0mg"},{"bike_id":"87a12197-d7b3-42e2-a707-19d3a560f520","system_id":"levelo_inurba_marseille","lat":43.24633,"lon":5.43145,"is_reserved":false,"is_disabled":false,"rental_uris":{"android":"levelo://app?vid=87a12197-d7b3-42e2-a707-19d3a560f520","ios":"levelo://app?vid=87a12197-d7b3-42e2-a707-19d3a560f520"},"vehicle_type_id":"4","last_reported":1758028834,"current_range_meters":16000,"station_id":"st_d2m6c4gdas8pm72e190g","pricing_plan_id":"cebpf4jnsgd1na2vs0mg"},{"bike_id":"fd3b4146-0073-4a79-82a9-bfaee63ff612","system_id":"levelo_inurba_marseille","lat":43.29428,"lon":5.38522,"is_reserved":false,"is_disabled":false,"rental_uris":{"android":"levelo://app?vid=fd3b4146-0073-4a79-82a9-bfaee63ff612","ios":"levelo://app?vid=fd3b4146-0073-4a79-82a9-bfaee63ff612"},"vehicle_type_id":"4","last_reported":1758028834,"current_range_meters":16000,"station_id":"","pricing_plan_id":"cebpf4jnsgd1na2vs0mg"},{"bike_id":"e97596f4-3a97-4444-a1c9-7dd15e909170","system_id":"levelo_inurba_marseille","lat":43.29221,"lon":5.36074,"is_reserved":false,"is_disabled":false,"rental_uris":{"android":"levelo://app?vid=e97596f4-3a97-4444-a1c9-7dd15e909170","ios":"levelo://app?vid=e97596f4-3a97-4444-a1c9-7dd15e909170"},"vehicle_type_id":"4","last_reported":1758028834,"current_range_meters":16000,"station_id":"ce4bhbh2rcd13ifvqeqg","pricing_plan_id":"cebpf4jnsgd1na2vs0mg"},{"bike_id":"f5538dd9-94c3-433e-ada5-fc5d10ad63b0","system_id":"levelo_inurba_marseille","lat":43.309062,"lon":5.368699,"is_reserved":false,"is_disabled":false,"rental_uris":{"android":"levelo://app?vid=f5538dd9-94c3-433e-ada5-fc5d10ad63b0","ios":"levelo://app?vid=f5538dd9-94c3-433e-ada5-fc5d10ad63b0"},"vehicle_type_id":"4","last_reported":1758028834,"current_range_meters":16000,"station_id":"ce4bgn92rcd13ifvqbvg","pricing_plan_id":"cebpf4jnsgd1na2vs0mg"},{"bike_id":"40495e59-b743-486e-987c-cb0c3ab2f191","system_id":"levelo_inurba_marseille","lat":43.332879,"lon":5.412798,"is_reserved":false,"is_disabled":false,"rental_uris":{"android":"levelo://app?vid=40495e59-b743-486e-987c-cb0c3ab2f191","ios":"levelo://app?vid=40495e59-b743-486e-987c-cb0c3ab2f191"},"vehicle_type_id":"4","last_reported":1758028834,"current_range_meters":16000,"station_id":"","pricing_plan_id":"cebpf4jnsgd1na2vs0mg"},{"bike_id":"46a49489-92ea-4c0b-918a-1f7092497e67","system_id":"levelo_inurba_marseille","lat":43.211946,"lon":5.350754,"is_reserved":false,"is_disabled":false,"rental_uris":{"android":"levelo://app?vid=46a49489-92ea-4c0b-918a-1f7092497e67","ios":"levelo://app?vid=46a49489-92ea-4c0b-918a-1f7092497e67"},"vehicle_type_id":"4","last_reported":1758028834,"current_range_meters":16000,"station_id":"st_cvj6sg6p6f1abm77japg","pricing_plan_id":"cebpf4jnsgd1na2vs0mg"},{"bike_id":"8ad3dab9-1d2d-4ac0-a622-2705413043f8","system_id":"levelo_inurba_marseille","lat":43.24626,"lon":5.43117,"is_reserved":false,"is_disabled":false,"rental_uris":{"android":"levelo://app?vid=8ad3dab9-1d2d-4ac0-a622-2705413043f8","ios":"levelo://app?vid=8ad3dab9-1d2d-4ac0-a622-2705413043f8"},"vehicle_type_id":"4","last_reported":1758028834,"current_range_meters":16000,"station_id":"st_d2m6c4gdas8pm72e190g","pricing_plan_id":"cebpf4jnsgd1na2vs0mg"},{"bike_id":"56845f81-93df-439a-87bf-94c54f1b6884","system_id":"levelo_inurba_marseille","lat":43.27377,"lon":5.36231,"is_reserved":false,"is_disabled":false,"rental_uris":{"android":"levelo://app?vid=56845f81-93df-439a-87bf-94c54f1b6884","ios":"levelo://app?vid=56845f81-93df-439a-87bf-94c54f1b6884"},"vehicle_type_id":"4","last_reported":1758028834,"current_range_meters":16000,"station_id":"ce4bhbh2rcd13ifvqeo0","pricing_plan_id":"cebpf4jnsgd1na2vs0mg"},{"bike_id":"e475e9f0-91d5-4f8c-a272-09b31ed2056d","system_id":"levelo_inurba_marseille","lat":43.23178,"lon":5.43691,"is_reserved":false,"is_disabled":false,"rental_uris":{"android":"levelo://app?vid=e475e9f0-91d5-4f8c-a272-09b31ed2056d","ios":"levelo://app?vid=e475e9f0-91d5-4f8c-a272-09b31ed2056d"},"vehicle_type_id":"4","last_reported":1758028834,"current_range_meters":16000,"station_id":"ce4bhmp2rcd13ifvqgog","pricing_plan_id":"cebpf4jnsgd1na2vs0mg"},{"bike_id":"2c5700c8-80b2-496f-a6fe-eb485ba43e2f","system_id":"levelo_inurba_marseille","lat":43.28257,"lon":5.35079,"is_reserved":false,"is_disabled":false,"rental_uris":{"android":"levelo://app?vid=2c5700c8-80b2-496f-a6fe-eb485ba43e2f","ios":"levelo://app?vid=2c5700c8-80b2-496f-a6fe-eb485ba43e2f"},"vehicle_type_id":"4","last_reported":1758028834,"current_range_meters":16400,"station_id":"ce4bhbp2rcd13ifvqerg","pricing_plan_id":"cebpf4jnsgd1na2vs0mg"},{"bike_id":"003515e8-8117-44bb-979d-5f47e8d50fda","system_id":"levelo_inurba_marseille","lat":43.3061,"lon":5.37585,"is_reserved":false,"is_disabled":false,"rental_uris":{"android":"levelo://app?vid=003515e8-8117-44bb-979d-5f47e8d50fda","ios":"levelo://app?vid=003515e8-8117-44bb-979d-5f47e8d50fda"},"vehicle_type_id":"4","last_reported":1758028834,"current_range_meters":16400,"station_id":"","pricing_plan_id":"cebpf4jnsgd1na2vs0mg"},{"bike_id":"80930b1b-4d33-432c-b1ac-c3da94c6fab9","system_id":"levelo_inurba_marseille","lat":43.2439,"lon":5.3705,"is_reserved":false,"is_disabled":false,"rental_uris":{"android":"levelo://app?vid=80930b1b-4d33-432c-b1ac-c3da94c6fab9","ios":"levelo://app?vid=80930b1b-4d33-432c-b1ac-c3da94c6fab9"},"vehicle_type_id":"4","last_reported":1758028834,"current_range_meters":16400,"station_id":"ce4bhhh2rcd13ifvqfk0","pricing_plan_id":"cebpf4jnsgd1na2vs0mg"},{"bike_id":"96644ae3-2807-4f95-a981-fef4ac2b0e69","system_id":"levelo_inurba_marseille","lat":43.225329,"lon":5.34835,"is_reserved":false,"is_disabled":false,"rental_uris":{"android":"levelo://app?vid=96644ae3-2807-4f95-a981-fef4ac2b0e69","ios":"levelo://app?vid=96644ae3-2807-4f95-a981-fef4ac2b0e69"},"vehicle_type_id":"4","last_reported":1758028834,"current_range_meters":16400,"station_id":"","pricing_plan_id":"cebpf4jnsgd1na2vs0mg"},{"bike_id":"453a2908-3680-455f-bda7-00a342891b64","system_id":"levelo_inurba_marseille","lat":43.22569,"lon":5.41629,"is_reserved":false,"is_disabled":false,"rental_uris":{"android":"levelo://app?vid=453a2908-3680-455f-bda7-00a342891b64","ios":"levelo://app?vid=453a2908-3680-455f-bda7-00a342891b64"},"vehicle_type_id":"4","last_reported":1758028834,"current_range_meters":16400,"station_id":"st_d2o4gvlbi1j2169b742g","pricing_plan_id":"cebpf4jnsgd1na2vs0mg"},{"bike_id":"c1b8e49c-226a-43ba-bbac-bf1c54ed82bf","system_id":"levelo_inurba_marseille","lat":43.30815,"lon":5.38141,"is_reserved":false,"is_disabled":false,"rental_uris":{"android":"levelo://app?vid=c1b8e49c-226a-43ba-bbac-bf1c54ed82bf","ios":"levelo://app?vid=c1b8e49c-226a-43ba-bbac-bf1c54ed82bf"},"vehicle_type_id":"4","last_reported":1758028834,"current_range_meters":16400,"station_id":"ce4bgt12rcd13ifvqce0","pricing_plan_id":"cebpf4jnsgd1na2vs0mg"},{"bike_id":"5dbca62f-7019-41e0-bb60-cbaa2e477dc8","system_id":"levelo_inurba_marseille","lat":43.30967,"lon":5.36864,"is_reserved":false,"is_disabled":false,"rental_uris":{"android":"levelo://app?vid=5dbca62f-7019-41e0-bb60-cbaa2e477dc8","ios":"levelo://app?vid=5dbca62f-7019-41e0-bb60-cbaa2e477dc8"},"vehicle_type_id":"4","last_reported":1758028834,"current_range_meters":16400,"station_id":"","pricing_plan_id":"cebpf4jnsgd1na2vs0mg"},{"bike_id":"4c090053-9a61-4189-8a57-967870365223","system_id":"levelo_inurba_marseille","lat":43.3135,"lon":5.36712,"is_reserved":false,"is_disabled":false,"rental_uris":{"android":"levelo://app?vid=4c090053-9a61-4189-8a57-967870365223","ios":"levelo://app?vid=4c090053-9a61-4189-8a57-967870365223"},"vehicle_type_id":"4","last_reported":1758028834,"current_range_meters":16400,"station_id":"ce4bgr92rcd13ifvqc6g","pricing_plan_id":"cebpf4jnsgd1na2vs0mg"},{"bike_id":"78e1a55e-86e9-482a-abd9-036694975e7c","system_id":"levelo_inurba_marseille","lat":43.32084,"lon":5.41548,"is_reserved":false,"is_disabled":false,"rental_uris":{"android":"levelo://app?vid=78e1a55e-86e9-482a-abd9-036694975e7c","ios":"levelo://app?vid=78e1a55e-86e9-482a-abd9-036694975e7c"},"vehicle_type_id":"4","last_reported":1758028834,"current_range_meters":16400,"station_id":"ce4bhq92rcd13ifvqhkg","pricing_plan_id":"cebpf4jnsgd1na2vs0mg"},{"bike_id":"1e0afe47-467f-48f1-9f29-65d964b2a461","system_id":"levelo_inurba_marseille","lat":43.290078,"lon":5.356166,"is_reserved":false,"is_disabled":false,"rental_uris":{"android":"levelo://app?vid=1e0afe47-467f-48f1-9f29-65d964b2a461","ios":"levelo://app?vid=1e0afe47-467f-48f1-9f29-65d964b2a461"},"vehicle_type_id":"4","last_reported":1758028834,"current_range_meters":16400,"station_id":"ce4bhb92rcd13ifvqen0","pricing_plan_id":"cebpf4jnsgd1na2vs0mg"},{"bike_id":"0b530ca0-5abe-456a-80f2-061626fcc9b1","system_id":"levelo_inurba_marseille","lat":43.29974,"lon":5.3822,"is_reserved":false,"is_disabled":false,"rental_uris":{"android":"levelo://app?vid=0b530ca0-5abe-456a-80f2-061626fcc9b1","ios":"levelo://app?vid=0b530ca0-5abe-456a-80f2-061626fcc9b1"},"vehicle_type_id":"4","last_reported":1758028834,"current_range_meters":16400,"station_id":"","pricing_plan_id":"cebpf4jnsgd1na2vs0mg"},{"bike_id":"c66560b1-071b-4ff6-924b-362f7f844db3","system_id":"levelo_inurba_marseille","lat":43.28476,"lon":5.39285,"is_reserved":false,"is_disabled":false,"rental_uris":{"android":"levelo://app?vid=c66560b1-071b-4ff6-924b-362f7f844db3","ios":"levelo://app?vid=c66560b1-071b-4ff6-924b-362f7f844db3"},"vehicle_type_id":"4","last_reported":1758028834,"current_range_meters":16400,"station_id":"","pricing_plan_id":"cebpf4jnsgd1na2vs0mg"},{"bike_id":"daf44963-6de4-4983-b9d2-ac4f845119e4","system_id":"levelo_inurba_marseille","lat":43.25584,"lon":5.38228,"is_reserved":false,"is_disabled":false,"rental_uris":{"android":"levelo://app?vid=daf44963-6de4-4983-b9d2-ac4f845119e4","ios":"levelo://app?vid=daf44963-6de4-4983-b9d2-ac4f845119e4"},"vehicle_type_id":"4","last_reported":1758028834,"current_range_meters":16400,"station_id":"ce4bhih2rcd13ifvqfs0","pricing_plan_id":"cebpf4jnsgd1na2vs0mg"},{"bike_id":"51145f9e-c333-41c3-b7bc-19b1ea639fd4","system_id":"levelo_inurba_marseille","lat":43.30803,"lon":5.38155,"is_reserved":false,"is_disabled":false,"rental_uris":{"android":"levelo://app?vid=51145f9e-c333-41c3-b7bc-19b1ea639fd4","ios":"levelo://app?vid=51145f9e-c333-41c3-b7bc-19b1ea639fd4"},"vehicle_type_id":"4","last_reported":1758028834,"current_range_meters":16800,"station_id":"ce4bgt12rcd13ifvqce0","pricing_plan_id":"cebpf4jnsgd1na2vs0mg"},{"bike_id":"5468743a-d065-4569-944f-260b4bcb1af3","system_id":"levelo_inurba_marseille","lat":43.25945,"lon":5.40881,"is_reserved":false,"is_disabled":false,"rental_uris":{"android":"levelo://app?vid=5468743a-d065-4569-944f-260b4bcb1af3","ios":"levelo://app?vid=5468743a-d065-4569-944f-260b4bcb1af3"},"vehicle_type_id":"4","last_reported":1758028834,"current_range_meters":16800,"station_id":"ce4bhm92rcd13ifvqglg","pricing_plan_id":"cebpf4jnsgd1na2vs0mg"},{"bike_id":"237ff8c3-18a9-4403-94a8-15862296b062","system_id":"levelo_inurba_marseille","lat":43.231569,"lon":5.437081,"is_reserved":false,"is_disabled":false,"rental_uris":{"android":"levelo://app?vid=237ff8c3-18a9-4403-94a8-15862296b062","ios":"levelo://app?vid=237ff8c3-18a9-4403-94a8-15862296b062"},"vehicle_type_id":"4","last_reported":1758028834,"current_range_meters":16800,"station_id":"ce4bhmp2rcd13ifvqgog","pricing_plan_id":"cebpf4jnsgd1na2vs0mg"},{"bike_id":"ca5a1340-d41e-49f3-95f8-599734e0a36c","system_id":"levelo_inurba_marseille","lat":43.225336,"lon":5.348339,"is_reserved":false,"is_disabled":false,"rental_uris":{"android":"levelo://app?vid=ca5a1340-d41e-49f3-95f8-599734e0a36c","ios":"levelo://app?vid=ca5a1340-d41e-49f3-95f8-599734e0a36c"},"vehicle_type_id":"4","last_reported":1758028834,"current_range_meters":16800,"station_id":"","pricing_plan_id":"cebpf4jnsgd1na2vs0mg"},{"bike_id":"18c64b31-21a3-4fc9-abb7-deb0889a8d41","system_id":"levelo_inurba_marseille","lat":43.27619,"lon":5.36107,"is_reserved":false,"is_disabled":false,"rental_uris":{"android":"levelo://app?vid=18c64b31-21a3-4fc9-abb7-deb0889a8d41","ios":"levelo://app?vid=18c64b31-21a3-4fc9-abb7-deb0889a8d41"},"vehicle_type_id":"4","last_reported":1758028834,"current_range_meters":16800,"station_id":"ce4bgj92rcd13ifvqbe0","pricing_plan_id":"cebpf4jnsgd1na2vs0mg"},{"bike_id":"642d689d-56db-445e-8d0f-7706f2866210","system_id":"levelo_inurba_marseille","lat":43.26194,"lon":5.37919,"is_reserved":false,"is_disabled":false,"rental_uris":{"android":"levelo://app?vid=642d689d-56db-445e-8d0f-7706f2866210","ios":"levelo://app?vid=642d689d-56db-445e-8d0f-7706f2866210"},"vehicle_type_id":"4","last_reported":1758028834,"current_range_meters":16800,"station_id":"ce4bhjp2rcd13ifvqg90","pricing_plan_id":"cebpf4jnsgd1na2vs0mg"},{"bike_id":"23e1572e-7ccb-4eea-8020-599035749c9e","system_id":"levelo_inurba_marseille","lat":43.23847,"lon":5.36565,"is_reserved":false,"is_disabled":false,"rental_uris":{"android":"levelo://app?vid=23e1572e-7ccb-4eea-8020-599035749c9e","ios":"levelo://app?vid=23e1572e-7ccb-4eea-8020-599035749c9e"},"vehicle_type_id":"4","last_reported":1758028834,"current_range_meters":16800,"station_id":"","pricing_plan_id":"cebpf4jnsgd1na2vs0mg"},{"bike_id":"b730872c-944f-439c-915a-fe170090d0c4","system_id":"levelo_inurba_marseille","lat":43.28415,"lon":5.34987,"is_reserved":false,"is_disabled":false,"rental_uris":{"android":"levelo://app?vid=b730872c-944f-439c-915a-fe170090d0c4","ios":"levelo://app?vid=b730872c-944f-439c-915a-fe170090d0c4"},"vehicle_type_id":"4","last_reported":1758028834,"current_range_meters":16800,"station_id":"ce4bhbh2rcd13ifvqepg","pricing_plan_id":"cebpf4jnsgd1na2vs0mg"},{"bike_id":"88a4bc06-6261-4921-890d-d133aa4606a8","system_id":"levelo_inurba_marseille","lat":43.337444,"lon":5.374475,"is_reserved":false,"is_disabled":true,"rental_uris":{"android":"levelo://app?vid=88a4bc06-6261-4921-890d-d133aa4606a8","ios":"levelo://app?vid=88a4bc06-6261-4921-890d-d133aa4606a8"},"vehicle_type_id":"4","last_reported":1758028834,"current_range_meters":17200,"station_id":"","pricing_plan_id":"cebpf4jnsgd1na2vs0mg"},{"bike_id":"eef903ec-fda2-4d7c-ab67-b22e1b495c99","system_id":"levelo_inurba_marseille","lat":43.25963,"lon":5.4089,"is_reserved":false,"is_disabled":false,"rental_uris":{"android":"levelo://app?vid=eef903ec-fda2-4d7c-ab67-b22e1b495c99","ios":"levelo://app?vid=eef903ec-fda2-4d7c-ab67-b22e1b495c99"},"vehicle_type_id":"4","last_reported":1758028834,"current_range_meters":17200,"station_id":"ce4bhm92rcd13ifvqglg","pricing_plan_id":"cebpf4jnsgd1na2vs0mg"},{"bike_id":"2a5e641a-ca90-4f3a-9350-63bb94d9cebf","system_id":"levelo_inurba_marseille","lat":43.25558,"lon":5.39177,"is_reserved":false,"is_disabled":false,"rental_uris":{"android":"levelo://app?vid=2a5e641a-ca90-4f3a-9350-63bb94d9cebf","ios":"levelo://app?vid=2a5e641a-ca90-4f3a-9350-63bb94d9cebf"},"vehicle_type_id":"4","last_reported":1758028834,"current_range_meters":17200,"station_id":"","pricing_plan_id":"cebpf4jnsgd1na2vs0mg"},{"bike_id":"c0be4c8b-bb69-4916-a3e7-6fb17cd40559","system_id":"levelo_inurba_marseille","lat":43.318526,"lon":5.366313,"is_reserved":false,"is_disabled":false,"rental_uris":{"android":"levelo://app?vid=c0be4c8b-bb69-4916-a3e7-6fb17cd40559","ios":"levelo://app?vid=c0be4c8b-bb69-4916-a3e7-6fb17cd40559"},"vehicle_type_id":"4","last_reported":1758028834,"current_range_meters":17200,"station_id":"ce4bgr92rcd13ifvqc6g","pricing_plan_id":"cebpf4jnsgd1na2vs0mg"},{"bike_id":"2d6afa22-82fe-46a2-b30b-43f1fad51541","system_id":"levelo_inurba_marseille","lat":43.25498,"lon":5.37649,"is_reserved":false,"is_disabled":false,"rental_uris":{"android":"levelo://app?vid=2d6afa22-82fe-46a2-b30b-43f1fad51541","ios":"levelo://app?vid=2d6afa22-82fe-46a2-b30b-43f1fad51541"},"vehicle_type_id":"4","last_reported":1758028834,"current_range_meters":17200,"station_id":"ce4bhh12rcd13ifvqff0","pricing_plan_id":"cebpf4jnsgd1na2vs0mg"},{"bike_id":"a71029e6-dd4a-44e9-a74a-728a452c1b7f","system_id":"levelo_inurba_marseille","lat":43.30147,"lon":5.39848,"is_reserved":false,"is_disabled":false,"rental_uris":{"android":"levelo://app?vid=a71029e6-dd4a-44e9-a74a-728a452c1b7f","ios":"levelo://app?vid=a71029e6-dd4a-44e9-a74a-728a452c1b7f"},"vehicle_type_id":"4","last_reported":1758028834,"current_range_meters":16800,"station_id":"ce4bh0h2rcd13ifvqd40","pricing_plan_id":"cebpf4jnsgd1na2vs0mg"},{"bike_id":"fcd56ccc-f0ab-49ef-a538-8c498b5ecd49","system_id":"levelo_inurba_marseille","lat":43.22557,"lon":5.41597,"is_reserved":false,"is_disabled":false,"rental_uris":{"android":"levelo://app?vid=fcd56ccc-f0ab-49ef-a538-8c498b5ecd49","ios":"levelo://app?vid=fcd56ccc-f0ab-49ef-a538-8c498b5ecd49"},"vehicle_type_id":"4","last_reported":1758028834,"current_range_meters":17200,"station_id":"st_d2o4gvlbi1j2169b742g","pricing_plan_id":"cebpf4jnsgd1na2vs0mg"},{"bike_id":"eb6cbeef-bc92-4528-a915-7b01f98754fe","system_id":"levelo_inurba_marseille","lat":43.30289,"lon":5.37396,"is_reserved":false,"is_disabled":false,"rental_uris":{"android":"levelo://app?vid=eb6cbeef-bc92-4528-a915-7b01f98754fe","ios":"levelo://app?vid=eb6cbeef-bc92-4528-a915-7b01f98754fe"},"vehicle_type_id":"4","last_reported":1758028834,"current_range_meters":17200,"station_id":"","pricing_plan_id":"cebpf4jnsgd1na2vs0mg"},{"bike_id":"d1788760-0706-4b90-8999-db00a9e42210","system_id":"levelo_inurba_marseille","lat":43.32659,"lon":5.41005,"is_reserved":false,"is_disabled":false,"rental_uris":{"android":"levelo://app?vid=d1788760-0706-4b90-8999-db00a9e42210","ios":"levelo://app?vid=d1788760-0706-4b90-8999-db00a9e42210"},"vehicle_type_id":"4","last_reported":1758028834,"current_range_meters":17200,"station_id":"","pricing_plan_id":"cebpf4jnsgd1na2vs0mg"},{"bike_id":"22f0687d-25d3-4094-9c4a-293a61e189a6","system_id":"levelo_inurba_marseille","lat":43.24084,"lon":5.40662,"is_reserved":false,"is_disabled":false,"rental_uris":{"android":"levelo://app?vid=22f0687d-25d3-4094-9c4a-293a61e189a6","ios":"levelo://app?vid=22f0687d-25d3-4094-9c4a-293a61e189a6"},"vehicle_type_id":"4","last_reported":1758028834,"current_range_meters":17200,"station_id":"","pricing_plan_id":"cebpf4jnsgd1na2vs0mg"},{"bike_id":"d66079b8-e1e6-49f6-8513-918b3ce83cf8","system_id":"levelo_inurba_marseille","lat":43.26228,"lon":5.40453,"is_reserved":false,"is_disabled":false,"rental_uris":{"android":"levelo://app?vid=d66079b8-e1e6-49f6-8513-918b3ce83cf8","ios":"levelo://app?vid=d66079b8-e1e6-49f6-8513-918b3ce83cf8"},"vehicle_type_id":"4","last_reported":1758028834,"current_range_meters":17200,"station_id":"ce4bhmh2rcd13ifvqgmg","pricing_plan_id":"cebpf4jnsgd1na2vs0mg"},{"bike_id":"328f4ed1-e2b6-4222-8054-4ecd7f52a2aa","system_id":"levelo_inurba_marseille","lat":43.24557,"lon":5.39525,"is_reserved":false,"is_disabled":false,"rental_uris":{"android":"levelo://app?vid=328f4ed1-e2b6-4222-8054-4ecd7f52a2aa","ios":"levelo://app?vid=328f4ed1-e2b6-4222-8054-4ecd7f52a2aa"},"vehicle_type_id":"4","last_reported":1758028834,"current_range_meters":17200,"station_id":"ce4bhlp2rcd13ifvqgjg","pricing_plan_id":"cebpf4jnsgd1na2vs0mg"},{"bike_id":"4d428ea9-1dcb-4a75-b622-5cb7b20a1dad","system_id":"levelo_inurba_marseille","lat":43.32338,"lon":5.3674,"is_reserved":false,"is_disabled":false,"rental_uris":{"android":"levelo://app?vid=4d428ea9-1dcb-4a75-b622-5cb7b20a1dad","ios":"levelo://app?vid=4d428ea9-1dcb-4a75-b622-5cb7b20a1dad"},"vehicle_type_id":"4","last_reported":1758028834,"current_range_meters":17600,"station_id":"ce4bhsh2rcd13ifvqi2g","pricing_plan_id":"cebpf4jnsgd1na2vs0mg"},{"bike_id":"64b1deee-ef02-45e9-a66a-3e5e20b8d612","system_id":"levelo_inurba_marseille","lat":43.299284,"lon":5.385203,"is_reserved":false,"is_disabled":false,"rental_uris":{"android":"levelo://app?vid=64b1deee-ef02-45e9-a66a-3e5e20b8d612","ios":"levelo://app?vid=64b1deee-ef02-45e9-a66a-3e5e20b8d612"},"vehicle_type_id":"4","last_reported":1758028834,"current_range_meters":17600,"station_id":"ce4bgop2rcd13ifvqc1g","pricing_plan_id":"cebpf4jnsgd1na2vs0mg"},{"bike_id":"d0a50b79-c96d-43a6-a5c8-dd2a87f1499e","system_id":"levelo_inurba_marseille","lat":43.30094,"lon":5.39091,"is_reserved":false,"is_disabled":false,"rental_uris":{"android":"levelo://app?vid=d0a50b79-c96d-43a6-a5c8-dd2a87f1499e","ios":"levelo://app?vid=d0a50b79-c96d-43a6-a5c8-dd2a87f1499e"},"vehicle_type_id":"4","last_reported":1758028834,"current_range_meters":17600,"station_id":"ce4bh192rcd13ifvqdb0","pricing_plan_id":"cebpf4jnsgd1na2vs0mg"},{"bike_id":"b2b3f118-f930-4549-8d49-265a30e53939","system_id":"levelo_inurba_marseille","lat":43.24146,"lon":5.36348,"is_reserved":false,"is_disabled":false,"rental_uris":{"android":"levelo://app?vid=b2b3f118-f930-4549-8d49-265a30e53939","ios":"levelo://app?vid=b2b3f118-f930-4549-8d49-265a30e53939"},"vehicle_type_id":"4","last_reported":1758028834,"current_range_meters":17600,"station_id":"cpo36qri1sfpv3e86is0","pricing_plan_id":"cebpf4jnsgd1na2vs0mg"},{"bike_id":"508031f8-bf6a-4bfe-aeae-adf3ce513b76","system_id":"levelo_inurba_marseille","lat":43.25975,"lon":5.40873,"is_reserved":false,"is_disabled":false,"rental_uris":{"android":"levelo://app?vid=508031f8-bf6a-4bfe-aeae-adf3ce513b76","ios":"levelo://app?vid=508031f8-bf6a-4bfe-aeae-adf3ce513b76"},"vehicle_type_id":"4","last_reported":1758028834,"current_range_meters":17600,"station_id":"","pricing_plan_id":"cebpf4jnsgd1na2vs0mg"},{"bike_id":"1ee7f789-8f4e-4802-b2af-6c15245dc63a","system_id":"levelo_inurba_marseille","lat":43.28408,"lon":5.34997,"is_reserved":false,"is_disabled":false,"rental_uris":{"android":"levelo://app?vid=1ee7f789-8f4e-4802-b2af-6c15245dc63a","ios":"levelo://app?vid=1ee7f789-8f4e-4802-b2af-6c15245dc63a"},"vehicle_type_id":"4","last_reported":1758028834,"current_range_meters":18000,"station_id":"ce4bhbh2rcd13ifvqepg","pricing_plan_id":"cebpf4jnsgd1na2vs0mg"},{"bike_id":"2c75f324-0a3d-41d8-a1e8-4f1291da99f7","system_id":"levelo_inurba_marseille","lat":43.316896,"lon":5.377353,"is_reserved":false,"is_disabled":false,"rental_uris":{"android":"levelo://app?vid=2c75f324-0a3d-41d8-a1e8-4f1291da99f7","ios":"levelo://app?vid=2c75f324-0a3d-41d8-a1e8-4f1291da99f7"},"vehicle_type_id":"4","last_reported":1758028834,"current_range_meters":18000,"station_id":"","pricing_plan_id":"cebpf4jnsgd1na2vs0mg"},{"bike_id":"8c515bb4-8ba8-4225-8caf-37e0634882c6","system_id":"levelo_inurba_marseille","lat":43.30299,"lon":5.38635,"is_reserved":false,"is_disabled":false,"rental_uris":{"android":"levelo://app?vid=8c515bb4-8ba8-4225-8caf-37e0634882c6","ios":"levelo://app?vid=8c515bb4-8ba8-4225-8caf-37e0634882c6"},"vehicle_type_id":"4","last_reported":1758028834,"current_range_meters":18000,"station_id":"","pricing_plan_id":"cebpf4jnsgd1na2vs0mg"},{"bike_id":"46cbcee3-845b-447b-a395-16f85ed6d743","system_id":"levelo_inurba_marseille","lat":43.30572,"lon":5.36703,"is_reserved":false,"is_disabled":false,"rental_uris":{"android":"levelo://app?vid=46cbcee3-845b-447b-a395-16f85ed6d743","ios":"levelo://app?vid=46cbcee3-845b-447b-a395-16f85ed6d743"},"vehicle_type_id":"4","last_reported":1758028834,"current_range_meters":18000,"station_id":"ce4bgrp2rcd13ifvqc9g","pricing_plan_id":"cebpf4jnsgd1na2vs0mg"},{"bike_id":"5701fe9c-3e98-4b9f-a910-5eb395d4e5d3","system_id":"levelo_inurba_marseille","lat":43.305389,"lon":5.384223,"is_reserved":false,"is_disabled":false,"rental_uris":{"android":"levelo://app?vid=5701fe9c-3e98-4b9f-a910-5eb395d4e5d3","ios":"levelo://app?vid=5701fe9c-3e98-4b9f-a910-5eb395d4e5d3"},"vehicle_type_id":"4","last_reported":1758028834,"current_range_meters":18000,"station_id":"","pricing_plan_id":"cebpf4jnsgd1na2vs0mg"},{"bike_id":"8e776f7a-b18e-4ad9-bd8e-5757c06999c9","system_id":"levelo_inurba_marseille","lat":43.30889,"lon":5.37189,"is_reserved":false,"is_disabled":false,"rental_uris":{"android":"levelo://app?vid=8e776f7a-b18e-4ad9-bd8e-5757c06999c9","ios":"levelo://app?vid=8e776f7a-b18e-4ad9-bd8e-5757c06999c9"},"vehicle_type_id":"4","last_reported":1758028834,"current_range_meters":15200,"station_id":"ce4bguh2rcd13ifvqckg","pricing_plan_id":"cebpf4jnsgd1na2vs0mg"},{"bike_id":"eef5a466-e939-407b-b497-3aa8002e43a3","system_id":"levelo_inurba_marseille","lat":43.24804,"lon":5.37462,"is_reserved":false,"is_disabled":false,"rental_uris":{"android":"levelo://app?vid=eef5a466-e939-407b-b497-3aa8002e43a3","ios":"levelo://app?vid=eef5a466-e939-407b-b497-3aa8002e43a3"},"vehicle_type_id":"4","last_reported":1758028834,"current_range_meters":18000,"station_id":"ce4bhgh2rcd13ifvqfb0","pricing_plan_id":"cebpf4jnsgd1na2vs0mg"},{"bike_id":"c8a7dee6-2332-4a84-a508-681234669df9","system_id":"levelo_inurba_marseille","lat":43.25942,"lon":5.40879,"is_reserved":false,"is_disabled":false,"rental_uris":{"android":"levelo://app?vid=c8a7dee6-2332-4a84-a508-681234669df9","ios":"levelo://app?vid=c8a7dee6-2332-4a84-a508-681234669df9"},"vehicle_type_id":"4","last_reported":1758028834,"current_range_meters":18800,"station_id":"ce4bhm92rcd13ifvqglg","pricing_plan_id":"cebpf4jnsgd1na2vs0mg"},{"bike_id":"bf2899ee-3f05-4eb1-bffb-ac5d7007fd3c","system_id":"levelo_inurba_marseille","lat":43.28266,"lon":5.35062,"is_reserved":false,"is_disabled":false,"rental_uris":{"android":"levelo://app?vid=bf2899ee-3f05-4eb1-bffb-ac5d7007fd3c","ios":"levelo://app?vid=bf2899ee-3f05-4eb1-bffb-ac5d7007fd3c"},"vehicle_type_id":"4","last_reported":1758028834,"current_range_meters":18800,"station_id":"ce4bhbp2rcd13ifvqerg","pricing_plan_id":"cebpf4jnsgd1na2vs0mg"},{"bike_id":"c4706891-6ce1-4440-91ff-a3ecf2ff007e","system_id":"levelo_inurba_marseille","lat":43.24382,"lon":5.37479,"is_reserved":false,"is_disabled":false,"rental_uris":{"android":"levelo://app?vid=c4706891-6ce1-4440-91ff-a3ecf2ff007e","ios":"levelo://app?vid=c4706891-6ce1-4440-91ff-a3ecf2ff007e"},"vehicle_type_id":"4","last_reported":1758028834,"current_range_meters":18800,"station_id":"","pricing_plan_id":"cebpf4jnsgd1na2vs0mg"},{"bike_id":"13157309-e613-45d3-8195-1bcd24e6f228","system_id":"levelo_inurba_marseille","lat":43.2826,"lon":5.3507,"is_reserved":false,"is_disabled":false,"rental_uris":{"android":"levelo://app?vid=13157309-e613-45d3-8195-1bcd24e6f228","ios":"levelo://app?vid=13157309-e613-45d3-8195-1bcd24e6f228"},"vehicle_type_id":"4","last_reported":1758028834,"current_range_meters":18800,"station_id":"ce4bhbp2rcd13ifvqerg","pricing_plan_id":"cebpf4jnsgd1na2vs0mg"},{"bike_id":"7bc981e2-9b37-4f57-a238-db58aaaa0f1e","system_id":"levelo_inurba_marseille","lat":43.24629,"lon":5.43133,"is_reserved":false,"is_disabled":false,"rental_uris":{"android":"levelo://app?vid=7bc981e2-9b37-4f57-a238-db58aaaa0f1e","ios":"levelo://app?vid=7bc981e2-9b37-4f57-a238-db58aaaa0f1e"},"vehicle_type_id":"4","last_reported":1758028834,"current_range_meters":18800,"station_id":"st_d2m6c4gdas8pm72e190g","pricing_plan_id":"cebpf4jnsgd1na2vs0mg"},{"bike_id":"ca586d3a-f254-48f8-a0da-7a5b5535e6fb","system_id":"levelo_inurba_marseille","lat":43.259402,"lon":5.40863,"is_reserved":false,"is_disabled":false,"rental_uris":{"android":"levelo://app?vid=ca586d3a-f254-48f8-a0da-7a5b5535e6fb","ios":"levelo://app?vid=ca586d3a-f254-48f8-a0da-7a5b5535e6fb"},"vehicle_type_id":"4","last_reported":1758028834,"current_range_meters":18800,"station_id":"ce4bhm92rcd13ifvqglg","pricing_plan_id":"cebpf4jnsgd1na2vs0mg"},{"bike_id":"fa37c174-6c3d-4637-8855-82dfd4716a9e","system_id":"levelo_inurba_marseille","lat":43.29511,"lon":5.39403,"is_reserved":false,"is_disabled":false,"rental_uris":{"android":"levelo://app?vid=fa37c174-6c3d-4637-8855-82dfd4716a9e","ios":"levelo://app?vid=fa37c174-6c3d-4637-8855-82dfd4716a9e"},"vehicle_type_id":"4","last_reported":1758028834,"current_range_meters":18800,"station_id":"ce4bh292rcd13ifvqdf0","pricing_plan_id":"cebpf4jnsgd1na2vs0mg"},{"bike_id":"db08f5f7-97df-4a4f-9703-e2d72cfb4bee","system_id":"levelo_inurba_marseille","lat":43.31072,"lon":5.38354,"is_reserved":false,"is_disabled":false,"rental_uris":{"android":"levelo://app?vid=db08f5f7-97df-4a4f-9703-e2d72cfb4bee","ios":"levelo://app?vid=db08f5f7-97df-4a4f-9703-e2d72cfb4bee"},"vehicle_type_id":"4","last_reported":1758028834,"current_range_meters":18800,"station_id":"ce4bgv92rcd13ifvqcr0","pricing_plan_id":"cebpf4jnsgd1na2vs0mg"},{"bike_id":"26d32f40-abd9-41e8-ad33-e16c33cbf788","system_id":"levelo_inurba_marseille","lat":43.29956,"lon":5.37755,"is_reserved":false,"is_disabled":false,"rental_uris":{"android":"levelo://app?vid=26d32f40-abd9-41e8-ad33-e16c33cbf788","ios":"levelo://app?vid=26d32f40-abd9-41e8-ad33-e16c33cbf788"},"vehicle_type_id":"4","last_reported":1758028834,"current_range_meters":18800,"station_id":"","pricing_plan_id":"cebpf4jnsgd1na2vs0mg"},{"bike_id":"3e20e3a4-937e-432f-909a-6da6b3490607","system_id":"levelo_inurba_marseille","lat":43.29098,"lon":5.38134,"is_reserved":false,"is_disabled":false,"rental_uris":{"android":"levelo://app?vid=3e20e3a4-937e-432f-909a-6da6b3490607","ios":"levelo://app?vid=3e20e3a4-937e-432f-909a-6da6b3490607"},"vehicle_type_id":"4","last_reported":1758028834,"current_range_meters":18800,"station_id":"ce4bh512rcd13ifvqe2g","pricing_plan_id":"cebpf4jnsgd1na2vs0mg"},{"bike_id":"c2a02b0c-0400-47d0-814e-3740047e19dc","system_id":"levelo_inurba_marseille","lat":43.22574,"lon":5.41627,"is_reserved":false,"is_disabled":false,"rental_uris":{"android":"levelo://app?vid=c2a02b0c-0400-47d0-814e-3740047e19dc","ios":"levelo://app?vid=c2a02b0c-0400-47d0-814e-3740047e19dc"},"vehicle_type_id":"4","last_reported":1758028834,"current_range_meters":18800,"station_id":"st_d2o4gvlbi1j2169b742g","pricing_plan_id":"cebpf4jnsgd1na2vs0mg"},{"bike_id":"797d594a-91b3-4375-ad0d-bc637135bfd1","system_id":"levelo_inurba_marseille","lat":43.31368,"lon":5.37128,"is_reserved":false,"is_disabled":false,"rental_uris":{"android":"levelo://app?vid=797d594a-91b3-4375-ad0d-bc637135bfd1","ios":"levelo://app?vid=797d594a-91b3-4375-ad0d-bc637135bfd1"},"vehicle_type_id":"4","last_reported":1758028834,"current_range_meters":18800,"station_id":"","pricing_plan_id":"cebpf4jnsgd1na2vs0mg"},{"bike_id":"2098e9cb-557c-4f53-85f2-265df9ccd555","system_id":"levelo_inurba_marseille","lat":43.312377,"lon":5.368688,"is_reserved":false,"is_disabled":false,"rental_uris":{"android":"levelo://app?vid=2098e9cb-557c-4f53-85f2-265df9ccd555","ios":"levelo://app?vid=2098e9cb-557c-4f53-85f2-265df9ccd555"},"vehicle_type_id":"4","last_reported":1758028834,"current_range_meters":18800,"station_id":"ce4bgl92rcd13ifvqbq0","pricing_plan_id":"cebpf4jnsgd1na2vs0mg"},{"bike_id":"3cea6315-6784-4309-82c4-85831e48e207","system_id":"levelo_inurba_marseille","lat":43.299771,"lon":5.371817,"is_reserved":false,"is_disabled":false,"rental_uris":{"android":"levelo://app?vid=3cea6315-6784-4309-82c4-85831e48e207","ios":"levelo://app?vid=3cea6315-6784-4309-82c4-85831e48e207"},"vehicle_type_id":"4","last_reported":1758028834,"current_range_meters":18800,"station_id":"ce4bgr92rcd13ifvqc7g","pricing_plan_id":"cebpf4jnsgd1na2vs0mg"},{"bike_id":"a55b5e8f-9e50-43b8-be1f-63a346c11004","system_id":"levelo_inurba_marseille","lat":43.27323,"lon":5.39096,"is_reserved":false,"is_disabled":false,"rental_uris":{"android":"levelo://app?vid=a55b5e8f-9e50-43b8-be1f-63a346c11004","ios":"levelo://app?vid=a55b5e8f-9e50-43b8-be1f-63a346c11004"},"vehicle_type_id":"4","last_reported":1758028834,"current_range_meters":18800,"station_id":"ce4bhgp2rcd13ifvqfe0","pricing_plan_id":"cebpf4jnsgd1na2vs0mg"},