{"last_updated":1728396636,"ttl":60,"version":"2.2","data":{"bikes":[{"bike_id":"fe9e3ff3-5119-4544-8348-e1dfca0edf92","system_id":"levelo_inurba_marseille","lat":43.30249,"lon":5.40051,"is_reserved":false,"is_disabled":false,"rental_uris":{"android":"levelo://app?vid=fe9e3ff3-5119-4544-8348-e1dfca0edf92","ios":"levelo://app?vid=fe9e3ff3-5119-4544-8348-e1dfca0edf92"},"vehicle_type_id":"4","last_reported":1728396636,"current_range_meters":4400,"station_id":"ce4bgvh2rcd13ifvqcs0","pricing_plan_id":"cebpf4jnsgd1na2vs0mg"},{"bike_id":"b6182a40-3f1f-40af-8c45-6b885ec4da05","system_id":"levelo_inurba_marseille","lat":43.28095,"lon":5.3784,"is_reserved":false,"is_disabled":false,"rental_uris":{"android":"levelo://app?vid=b6182a40-3f1f-40af-8c45-6b885ec4da05","ios":"levelo://app?vid=b6182a40-3f1f-40af-8c45-6b885ec4da05"},"vehicle_type_id":"4","last_reported":1728396636,"current_range_meters":38800,"station_id":"ce4bha12rcd13ifvqee0","pricing_plan_id":"cebpf4jnsgd1na2vs0mg"},{"bike_id":"52fda321-8c34-4ec2-847d-b36cae8fb7ef","system_id":"levelo_inurba_marseille","lat":43.26059,"lon":5.39391,"is_reserved":false,"is_disabled":false,"rental_uris":{"android":"levelo://app?vid=52fda321-8c34-4ec2-847d-b36cae8fb7ef","ios":"levelo://app?vid=52fda321-8c34-4ec2-847d-b36cae8fb7ef"},"vehicle_type_id":"4","last_reported":1728396636,"current_range_meters":38800,"station_id":"ce4bhh92rcd13ifvqfj0","pricing_plan_id":"cebpf4jnsgd1na2vs0mg"},{"bike_id":"68cc9b2e-3bdd-4866-a986-7cead00d4cfc","system_id":"levelo_inurba_marseille","lat":43.33753,"lon":5.37449,"is_reserved":false,"is_disabled":false,"rental_uris":{"android":"levelo://app?vid=68cc9b2e-3bdd-4866-a986-7cead00d4cfc","ios":"levelo://app?vid=68cc9b2e-3bdd-4866-a986-7cead00d4cfc"},"vehicle_type_id":"4","last_reported":1728396636,"current_range_meters":35200,"station_id":"","pricing_plan_id":"cebpf4jnsgd1na2vs0mg"},{"bike_id":"b75a207a-f4c4-4008-9468-20a3ad29fef4","system_id":"levelo_inurba_marseille","lat":43.24808,"lon":5.37455,"is_reserved":false,"is_disabled":false,"rental_uris":{"android":"levelo://app?vid=b75a207a-f4c4-4008-9468-20a3ad29fef4","ios":"levelo://app?vid=b75a207a-f4c4-4008-9468-20a3ad29fef4"},"vehicle_type_id":"4","last_reported":1728396636,"current_range_meters":38800,"station_id":"ce4bhgh2rcd13ifvqfb0","pricing_plan_id":"cebpf4jnsgd1na2vs0mg"},{"bike_id":"ab5eba56-3a1b-4ac1-a3a3-6cda3bc6971e","system_id":"levelo_inurba_marseille","lat":43.24081,"lon":5.37748,"is_reserved":false,"is_disabled":false,"rental_uris":{"android":"levelo://app?vid=ab5eba56-3a1b-4ac1-a3a3-6cda3bc6971e","ios":"levelo://app?vid=ab5eba56-3a1b-4ac1-a3a3-6cda3bc6971e"},"vehicle_type_id":"4","last_reported":1728396636,"current_range_meters":16000,"station_id":"ce4bhnp2rcd13ifvqgvg","pricing_plan_id":"cebpf4jnsgd1na2vs0mg"},{"bike_id":"75f11660-7622-4c47-b2e5-57a2baeae5dd","system_id":"levelo_inurba_marseille","lat":43.27374,"lon":5.36265,"is_reserved":false,"is_disabled":false,"rental_uris":{"android":"levelo://app?vid=75f11660-7622-4c47-b2e5-57a2baeae5dd","ios":"levelo://app?vid=75f11660-7622-4c47-b2e5-57a2baeae5dd"},"vehicle_type_id":"4","last_reported":1728396636,"current_range_meters":30400,"station_id":"ce4bhbh2rcd13ifvqeo0","pricing_plan_id":"cebpf4jnsgd1na2vs0mg"},{"bike_id":"3edccbad-c604-40df-acb2-6e9d91b67298","system_id":"levelo_inurba_marseille","lat":43.23055,"lon":5.3549,"is_reserved":false,"is_disabled":false,"rental_uris":{"android":"levelo://app?vid=3edccbad-c604-40df-acb2-6e9d91b67298","ios":"levelo://app?vid=3edccbad-c604-40df-acb2-6e9d91b67298"},"vehicle_type_id":"4","last_reported":1728396636,"current_range_meters":13600,"station_id":"cpo3342slgdg3j2ifvpg","pricing_plan_id":"cebpf4jnsgd1na2vs0mg"},{"bike_id":"261d5525-64ed-4988-bad1-cdd84d110abb","system_id":"levelo_inurba_marseille","lat":43.29791,"lon":5.38095,"is_reserved":false,"is_disabled":false,"rental_uris":{"android":"levelo://app?vid=261d5525-64ed-4988-bad1-cdd84d110abb","ios":"levelo://app?vid=261d5525-64ed-4988-bad1-cdd84d110abb"},"vehicle_type_id":"4","last_reported":1728396636,"current_range_meters":28000,"station_id":"ce4bgip2rcd13ifvqbb0","pricing_plan_id":"cebpf4jnsgd1na2vs0mg"},{"bike_id":"2c50859b-8887-456e-93f0-added9e01d0e","system_id":"levelo_inurba_marseille","lat":43.31756,"lon":5.39014,"is_reserved":false,"is_disabled":false,"rental_uris":{"android":"levelo://app?vid=2c50859b-8887-456e-93f0-added9e01d0e","ios":"levelo://app?vid=2c50859b-8887-456e-93f0-added9e01d0e"},"vehicle_type_id":"4","last_reported":1728396636,"current_range_meters":3600,"station_id":"ce4bhqp2rcd13ifvqhng","pricing_plan_id":"cebpf4jnsgd1na2vs0mg"},{"bike_id":"70104770-3380-4c96-a09b-a763dfad3813","system_id":"levelo_inurba_marseille","lat":43.29262,"lon":5.38443,"is_reserved":false,"is_disabled":false,"rental_uris":{"android":"levelo://app?vid=70104770-3380-4c96-a09b-a763dfad3813","ios":"levelo://app?vid=70104770-3380-4c96-a09b-a763dfad3813"},"vehicle_type_id":"4","last_reported":1728396636,"current_range_meters":38800,"station_id":"ce4bh692rcd13ifvqea0","pricing_plan_id":"cebpf4jnsgd1na2vs0mg"},{"bike_id":"a89048e8-53d5-4f08-b04c-138cf6e5115c","system_id":"levelo_inurba_marseille","lat":43.30329,"lon":5.40424,"is_reserved":false,"is_disabled":false,"rental_uris":{"android":"levelo://app?vid=a89048e8-53d5-4f08-b04c-138cf6e5115c","ios":"levelo://app?vid=a89048e8-53d5-4f08-b04c-138cf6e5115c"},"vehicle_type_id":"4","last_reported":1728396636,"current_range_meters":7200,"station_id":"ce4bh012rcd13ifvqd10","pricing_plan_id":"cebpf4jnsgd1na2vs0mg"},{"bike_id":"dc53d6c0-6869-48ad-a4a1-0bba76af32e5","system_id":"levelo_inurba_marseille","lat":43.30099,"lon":5.3702,"is_reserved":false,"is_disabled":false,"rental_uris":{"android":"levelo://app?vid=dc53d6c0-6869-48ad-a4a1-0bba76af32e5","ios":"levelo://app?vid=dc53d6c0-6869-48ad-a4a1-0bba76af32e5"},"vehicle_type_id":"4","last_reported":1728396636,"current_range_meters":8400,"station_id":"","pricing_plan_id":"cebpf4jnsgd1na2vs0mg"},{"bike_id":"51953a59-945f-49e7-9ca9-3342cd8eb446","system_id":"levelo_inurba_marseille","lat":43.31237,"lon":5.36875,"is_reserved":false,"is_disabled":false,"rental_uris":{"android":"levelo://app?vid=51953a59-945f-49e7-9ca9-3342cd8eb446","ios":"levelo://app?vid=51953a59-945f-49e7-9ca9-3342cd8eb446"},"vehicle_type_id":"4","last_reported":1728396636,"current_range_meters":28800,"station_id":"ce4bgl92rcd13ifvqbq0","pricing_plan_id":"cebpf4jnsgd1na2vs0mg"},{"bike_id":"5d83196e-2696-42f0-b987-268ca7ced73b","system_id":"levelo_inurba_marseille","lat":43.30225,"lon":5.39454,"is_reserved":false,"is_disabled":false,"rental_uris":{"android":"levelo://app?vid=5d83196e-2696-42f0-b987-268ca7ced73b","ios":"levelo://app?vid=5d83196e-2696-42f0-b987-268ca7ced73b"},"vehicle_type_id":"4","last_reported":1728396636,"current_range_meters":33200,"station_id":"ce4bgvp2rcd13ifvqct0","pricing_plan_id":"cebpf4jnsgd1na2vs0mg"},{"bike_id":"618e8371-79ed-4254-b722-54a1e0bd4be6","system_id":"levelo_inurba_marseille","lat":43.2606,"lon":5.39388,"is_reserved":false,"is_disabled":false,"rental_uris":{"android":"levelo://app?vid=618e8371-79ed-4254-b722-54a1e0bd4be6","ios":"levelo://app?vid=618e8371-79ed-4254-b722-54a1e0bd4be6"},"vehicle_type_id":"4","last_reported":1728396636,"current_range_meters":5600,"station_id":"ce4bhh92rcd13ifvqfj0","pricing_plan_id":"cebpf4jnsgd1na2vs0mg"},{"bike_id":"ef5a7948-7466-4eb0-b6a8-103fdf191bce","system_id":"levelo_inurba_marseille","lat":43.28091,"lon":5.39574,"is_reserved":false,"is_disabled":false,"rental_uris":{"android":"levelo://app?vid=ef5a7948-7466-4eb0-b6a8-103fdf191bce","ios":"levelo://app?vid=ef5a7948-7466-4eb0-b6a8-103fdf191bce"},"vehicle_type_id":"4","last_reported":1728396636,"current_range_meters":34000,"station_id":"ce4bh2h2rcd13ifvqdh0","pricing_plan_id":"cebpf4jnsgd1na2vs0mg"},{"bike_id":"7f8896c9-e044-4169-ba02-75989da632b5","system_id":"levelo_inurba_marseille","lat":43.24812,"lon":5.37462,"is_reserved":false,"is_disabled":false,"rental_uris":{"android":"levelo://app?vid=7f8896c9-e044-4169-ba02-75989da632b5","ios":"levelo://app?vid=7f8896c9-e044-4169-ba02-75989da632b5"},"vehicle_type_id":"4","last_reported":1728396636,"current_range_meters":37600,"station_id":"ce4bhgh2rcd13ifvqfb0","pricing_plan_id":"cebpf4jnsgd1na2vs0mg"},{"bike_id":"d1619aa2-3800-406f-9e01-5e33ecf4e9c5","system_id":"levelo_inurba_marseille","lat":43.26209,"lon":5.37438,"is_reserved":false,"is_disabled":false,"rental_uris":{"android":"levelo://app?vid=d1619aa2-3800-406f-9e01-5e33ecf4e9c5","ios":"levelo://app?vid=d1619aa2-3800-406f-9e01-5e33ecf4e9c5"},"vehicle_type_id":"4","last_reported":1728396636,"current_range_meters":22000,"station_id":"ce4bhgp2rcd13ifvqfc0","pricing_plan_id":"cebpf4jnsgd1na2vs0mg"},{"bike_id":"31e1bc34-97b5-4c1e-9f88-7aab4c68de02","system_id":"levelo_inurba_marseille","lat":43.29415,"lon":5.3863,"is_reserved":false,"is_disabled":false,"rental_uris":{"android":"levelo://app?vid=31e1bc34-97b5-4c1e-9f88-7aab4c68de02","ios":"levelo://app?vid=31e1bc34-97b5-4c1e-9f88-7aab4c68de02"},"vehicle_type_id":"4","last_reported":1728396636,"current_range_meters":22800,"station_id":"ce4bh2h2rcd13ifvqdh0","pricing_plan_id":"cebpf4jnsgd1na2vs0mg"},{"bike_id":"81b07a05-4c57-4e76-99d6-5f6e3acbb201","system_id":"levelo_inurba_marseille","lat":43.23064,"lon":5.35484,"is_reserved":false,"is_disabled":false,"rental_uris":{"android":"levelo://app?vid=81b07a05-4c57-4e76-99d6-5f6e3acbb201","ios":"levelo://app?vid=81b07a05-4c57-4e76-99d6-5f6e3acbb201"},"vehicle_type_id":"4","last_reported":1728396636,"current_range_meters":6800,"station_id":"cpo3342slgdg3j2ifvpg","pricing_plan_id":"cebpf4jnsgd1na2vs0mg"},{"bike_id":"553df947-caf6-4536-a36f-f5b78240b269","system_id":"levelo_inurba_marseille","lat":43.33024,"lon":5.39041,"is_reserved":false,"is_disabled":false,"rental_uris":{"android":"levelo://app?vid=553df947-caf6-4536-a36f-f5b78240b269","ios":"levelo://app?vid=553df947-caf6-4536-a36f-f5b78240b269"},"vehicle_type_id":"4","last_reported":1728396636,"current_range_meters":29600,"station_id":"ce4bhr92rcd13ifvqhrg","pricing_plan_id":"cebpf4jnsgd1na2vs0mg"},{"bike_id":"056ac00d-96b4-49a2-8552-8f2ffe288a04","system_id":"levelo_inurba_marseille","lat":43.28606,"lon":5.37061,"is_reserved":false,"is_disabled":false,"rental_uris":{"android":"levelo://app?vid=056ac00d-96b4-49a2-8552-8f2ffe288a04","ios":"levelo://app?vid=056ac00d-96b4-49a2-8552-8f2ffe288a04"},"vehicle_type_id":"4","last_reported":1728396636,"current_range_meters":4000,"station_id":"ce4bht12rcd13ifvqi60","pricing_plan_id":"cebpf4jnsgd1na2vs0mg"},{"bike_id":"5ee247ae-fbdb-4b53-aaae-5c994fd8f921","system_id":"levelo_inurba_marseille","lat":43.3122,"lon":5.36854,"is_reserved":false,"is_disabled":false,"rental_uris":{"android":"levelo://app?vid=5ee247ae-fbdb-4b53-aaae-5c994fd8f921","ios":"levelo://app?vid=5ee247ae-fbdb-4b53-aaae-5c994fd8f921"},"vehicle_type_id":"4","last_reported":1728396636,"current_range_meters":14000,"station_id":"ce4bgl92rcd13ifvqbq0","pricing_plan_id":"cebpf4jnsgd1na2vs0mg"},{"bike_id":"d833949b-01aa-4094-af42-54603b2bd20e","system_id":"levelo_inurba_marseille","lat":43.28614,"lon":5.35101,"is_reserved":false,"is_disabled":false,"rental_uris":{"android":"levelo://app?vid=d833949b-01aa-4094-af42-54603b2bd20e","ios":"levelo://app?vid=d833949b-01aa-4094-af42-54603b2bd20e"},"vehicle_type_id":"4","last_reported":1728396636,"current_range_meters":24800,"station_id":"ce4bhch2rcd13ifvqeug","pricing_plan_id":"cebpf4jnsgd1na2vs0mg"},{"bike_id":"005d6080-4df0-4246-b15f-336d7c596e2e","system_id":"levelo_inurba_marseille","lat":43.28721,"lon":5.36074,"is_reserved":false,"is_disabled":false,"rental_uris":{"android":"levelo://app?vid=005d6080-4df0-4246-b15f-336d7c596e2e","ios":"levelo://app?vid=005d6080-4df0-4246-b15f-336d7c596e2e"},"vehicle_type_id":"4","last_reported":1728396636,"current_range_meters":39200,"station_id":"cki0cbj6b192h4jlfktg","pricing_plan_id":"cebpf4jnsgd1na2vs0mg"},{"bike_id":"5256c220-b28f-4888-a433-a045a5a24c5e","system_id":"levelo_inurba_marseille","lat":43.30969,"lon":5.39034,"is_reserved":false,"is_disabled":false,"rental_uris":{"android":"levelo://app?vid=5256c220-b28f-4888-a433-a045a5a24c5e","ios":"levelo://app?vid=5256c220-b28f-4888-a433-a045a5a24c5e"},"vehicle_type_id":"4","last_reported":1728396636,"current_range_meters":10000,"station_id":"ce4bgup2rcd13ifvqco0","pricing_plan_id":"cebpf4jnsgd1na2vs0mg"},{"bike_id":"5a9404ec-acde-4c8d-b47b-b8eecdb8be79","system_id":"levelo_inurba_marseille","lat":43.254822,"lon":5.37649,"is_reserved":false,"is_disabled":false,"rental_uris":{"android":"levelo://app?vid=5a9404ec-acde-4c8d-b47b-b8eecdb8be79","ios":"levelo://app?vid=5a9404ec-acde-4c8d-b47b-b8eecdb8be79"},"vehicle_type_id":"4","last_reported":1728396636,"current_range_meters":12800,"station_id":"ce4bhh12rcd13ifvqff0","pricing_plan_id":"cebpf4jnsgd1na2vs0mg"},{"bike_id":"aa3103db-f865-40d4-97ce-aa89e199ca1d","system_id":"levelo_inurba_marseille","lat":43.28268,"lon":5.35054,"is_reserved":false,"is_disabled":false,"rental_uris":{"android":"levelo://app?vid=aa3103db-f865-40d4-97ce-aa89e199ca1d","ios":"levelo://app?vid=aa3103db-f865-40d4-97ce-aa89e199ca1d"},"vehicle_type_id":"4","last_reported":1728396636,"current_range_meters":32400,"station_id":"ce4bhbp2rcd13ifvqerg","pricing_plan_id":"cebpf4jnsgd1na2vs0mg"},{"bike_id":"066ccb90-6b9a-4302-bde4-9c97dfce747d","system_id":"levelo_inurba_marseille","lat":43.33724,"lon":5.39195,"is_reserved":false,"is_disabled":false,"rental_uris":{"android":"levelo://app?vid=066ccb90-6b9a-4302-bde4-9c97dfce747d","ios":"levelo://app?vid=066ccb90-6b9a-4302-bde4-9c97dfce747d"},"vehicle_type_id":"4","last_reported":1728396636,"current_range_meters":36800,"station_id":"ce4bhr92rcd13ifvqhsg","pricing_plan_id":"cebpf4jnsgd1na2vs0mg"},{"bike_id":"f50162c6-b604-4fac-8f3c-6b59d21e8e0f","system_id":"levelo_inurba_marseille","lat":43.24178,"lon":5.39731,"is_reserved":false,"is_disabled":false,"rental_uris":{"android":"levelo://app?vid=f50162c6-b604-4fac-8f3c-6b59d21e8e0f","ios":"levelo://app?vid=f50162c6-b604-4fac-8f3c-6b59d21e8e0f"},"vehicle_type_id":"4","last_reported":1728396636,"current_range_meters":9600,"station_id":"ce4bhn12rcd13ifvqgpg","pricing_plan_id":"cebpf4jnsgd1na2vs0mg"},{"bike_id":"4afa70cd-6713-4863-bd22-a2235fe4bd29","system_id":"levelo_inurba_marseille","lat":43.2408,"lon":5.37759,"is_reserved":false,"is_disabled":false,"rental_uris":{"android":"levelo://app?vid=4afa70cd-6713-4863-bd22-a2235fe4bd29","ios":"levelo://app?vid=4afa70cd-6713-4863-bd22-a2235fe4bd29"},"vehicle_type_id":"4","last_reported":1728396636,"current_range_meters":38800,"station_id":"ce4bhnp2rcd13ifvqgvg","pricing_plan_id":"cebpf4jnsgd1na2vs0mg"},{"bike_id":"fe6105f7-aa47-4be8-ba57-eb6ff730c0c1","system_id":"levelo_inurba_marseille","lat":43.28271,"lon":5.35054,"is_reserved":false,"is_disabled":false,"rental_uris":{"android":"levelo://app?vid=fe6105f7-aa47-4be8-ba57-eb6ff730c0c1","ios":"levelo://app?vid=fe6105f7-aa47-4be8-ba57-eb6ff730c0c1"},"vehicle_type_id":"4","last_reported":1728396636,"current_range_meters":18800,"station_id":"ce4bhbp2rcd13ifvqerg","pricing_plan_id":"cebpf4jnsgd1na2vs0mg"},{"bike_id":"2d5bad90-372b-4959-bca8-db3a93327907","system_id":"levelo_inurba_marseille","lat":43.30142,"lon":5.37406,"is_reserved":false,"is_disabled":false,"rental_uris":{"android":"levelo://app?vid=2d5bad90-372b-4959-bca8-db3a93327907","ios":"levelo://app?vid=2d5bad90-372b-4959-bca8-db3a93327907"},"vehicle_type_id":"4","last_reported":1728396636,"current_range_meters":29600,"station_id":"ce4bgs92rcd13ifvqcc0","pricing_plan_id":"cebpf4jnsgd1na2vs0mg"},{"bike_id":"35db5aab-a536-4286-87d7-90ec43783f24","system_id":"levelo_inurba_marseille","lat":43.23193,"lon":5.35554,"is_reserved":false,"is_disabled":false,"rental_uris":{"android":"levelo://app?vid=35db5aab-a536-4286-87d7-90ec43783f24","ios":"levelo://app?vid=35db5aab-a536-4286-87d7-90ec43783f24"},"vehicle_type_id":"4","last_reported":1728396636,"current_range_meters":29600,"station_id":"ce4bhu92rcd13ifvqi70","pricing_plan_id":"cebpf4jnsgd1na2vs0mg"},{"bike_id":"9adf9858-ce2b-490e-a1e8-a9b924cd850b","system_id":"levelo_inurba_marseille","lat":43.31072,"lon":5.38355,"is_reserved":false,"is_disabled":false,"rental_uris":{"android":"levelo://app?vid=9adf9858-ce2b-490e-a1e8-a9b924cd850b","ios":"levelo://app?vid=9adf9858-ce2b-490e-a1e8-a9b924cd850b"},"vehicle_type_id":"4","last_reported":1728396636,"current_range_meters":24800,"station_id":"ce4bgv92rcd13ifvqcr0","pricing_plan_id":"cebpf4jnsgd1na2vs0mg"},{"bike_id":"fe449bbf-f980-4363-b8e0-9c70732ff8a1","system_id":"levelo_inurba_marseille","lat":43.29925,"lon":5.37465,"is_reserved":false,"is_disabled":false,"rental_uris":{"android":"levelo://app?vid=fe449bbf-f980-4363-b8e0-9c70732ff8a1","ios":"levelo://app?vid=fe449bbf-f980-4363-b8e0-9c70732ff8a1"},"vehicle_type_id":"4","last_reported":1728396636,"current_range_meters":8000,"station_id":"ce4bgjh2rcd13ifvqbg0","pricing_plan_id":"cebpf4jnsgd1na2vs0mg"},{"bike_id":"62a8687a-0f43-45cd-bb89-c850f03dc36e","system_id":"levelo_inurba_marseille","lat":43.28729,"lon":5.36083,"is_reserved":false,"is_disabled":false,"rental_uris":{"android":"levelo://app?vid=62a8687a-0f43-45cd-bb89-c850f03dc36e","ios":"levelo://app?vid=62a8687a-0f43-45cd-bb89-c850f03dc36e"},"vehicle_type_id":"4","last_reported":1728396636,"current_range_meters":29600,"station_id":"cki0cbj6b192h4jlfktg","pricing_plan_id":"cebpf4jnsgd1na2vs0mg"},{"bike_id":"62dfd99c-f976-4937-b2d0-5b50f5ae699f","system_id":"levelo_inurba_marseille","lat":43.2417,"lon":5.36396,"is_reserved":false,"is_disabled":false,"rental_uris":{"android":"levelo://app?vid=62dfd99c-f976-4937-b2d0-5b50f5ae699f","ios":"levelo://app?vid=62dfd99c-f976-4937-b2d0-5b50f5ae699f"},"vehicle_type_id":"4","last_reported":1728396636,"current_range_meters":4800,"station_id":"cpo36qri1sfpv3e86is0","pricing_plan_id":"cebpf4jnsgd1na2vs0mg"},{"bike_id":"c2b98b8d-6a7a-4620-a079-49e2a853f444","system_id":"levelo_inurba_marseille","lat":43.296106,"lon":5.381186,"is_reserved":false,"is_disabled":false,"rental_uris":{"android":"levelo://app?vid=c2b98b8d-6a7a-4620-a079-49e2a853f444","ios":"levelo://app?vid=c2b98b8d-6a7a-4620-a079-49e2a853f444"},"vehicle_type_id":"4","last_reported":1728396636,"current_range_meters":23200,"station_id":"ce4bgl12rcd13ifvqbo0","pricing_plan_id":"cebpf4jnsgd1na2vs0mg"},{"bike_id":"75f57a73-2404-4725-9a97-371aa6b98eed","system_id":"levelo_inurba_marseille","lat":43.299672,"lon":5.384896,"is_reserved":false,"is_disabled":false,"rental_uris":{"android":"levelo://app?vid=75f57a73-2404-4725-9a97-371aa6b98eed","ios":"levelo://app?vid=75f57a73-2404-4725-9a97-371aa6b98eed"},"vehicle_type_id":"4","last_reported":1728396636,"current_range_meters":17200,"station_id":"ce4bhqh2rcd13ifvqhlg","pricing_plan_id":"cebpf4jnsgd1na2vs0mg"},{"bike_id":"8664acd8-7ca0-4cfc-9ebd-c36dfe00a51d","system_id":"levelo_inurba_marseille","lat":43.2973,"lon":5.3769,"is_reserved":false,"is_disabled":false,"rental_uris":{"android":"levelo://app?vid=8664acd8-7ca0-4cfc-9ebd-c36dfe00a51d","ios":"levelo://app?vid=8664acd8-7ca0-4cfc-9ebd-c36dfe00a51d"},"vehicle_type_id":"4","last_reported":1728396636,"current_range_meters":40000,"station_id":"ce4bgkh2rcd13ifvqbl0","pricing_plan_id":"cebpf4jnsgd1na2vs0mg"},{"bike_id":"51ea515d-944c-489c-8a74-b1f09acd3971","system_id":"levelo_inurba_marseille","lat":43.25583,"lon":5.3824,"is_reserved":false,"is_disabled":false,"rental_uris":{"android":"levelo://app?vid=51ea515d-944c-489c-8a74-b1f09acd3971","ios":"levelo://app?vid=51ea515d-944c-489c-8a74-b1f09acd3971"},"vehicle_type_id":"4","last_reported":1728396636,"current_range_meters":40000,"station_id":"ce4bhih2rcd13ifvqfs0","pricing_plan_id":"cebpf4jnsgd1na2vs0mg"},{"bike_id":"771b20b4-f22e-47f5-a8b9-cb3b30bb55ad","system_id":"levelo_inurba_marseille","lat":43.27968,"lon":5.38739,"is_reserved":false,"is_disabled":false,"rental_uris":{"android":"levelo://app?vid=771b20b4-f22e-47f5-a8b9-cb3b30bb55ad","ios":"levelo://app?vid=771b20b4-f22e-47f5-a8b9-cb3b30bb55ad"},"vehicle_type_id":"4","last_reported":1728396636,"current_range_meters":32400,"station_id":"ce4bhg12rcd13ifvqf80","pricing_plan_id":"cebpf4jnsgd1na2vs0mg"},{"bike_id":"e339ab47-5bfa-4bc0-9021-8f0020c0febe","system_id":"levelo_inurba_marseille","lat":43.3025,"lon":5.40063,"is_reserved":false,"is_disabled":false,"rental_uris":{"android":"levelo://app?vid=e339ab47-5bfa-4bc0-9021-8f0020c0febe","ios":"levelo://app?vid=e339ab47-5bfa-4bc0-9021-8f0020c0febe"},"vehicle_type_id":"4","last_reported":1728396636,"current_range_meters":36800,"station_id":"ce4bgvh2rcd13ifvqcs0","pricing_plan_id":"cebpf4jnsgd1na2vs0mg"},{"bike_id":"e22e3d78-6574-4497-9480-a4b2a3948e5e","system_id":"levelo_inurba_marseille","lat":43.25494,"lon":5.37643,"is_reserved":false,"is_disabled":false,"rental_uris":{"android":"levelo://app?vid=e22e3d78-6574-4497-9480-a4b2a3948e5e","ios":"levelo://app?vid=e22e3d78-6574-4497-9480-a4b2a3948e5e"},"vehicle_type_id":"4","last_reported":1728396636,"current_range_meters":36000,"station_id":"ce4bhh12rcd13ifvqff0","pricing_plan_id":"cebpf4jnsgd1na2vs0mg"},{"bike_id":"47de23d2-8ecc-4457-9f94-3e9dad9926f1","system_id":"levelo_inurba_marseille","lat":43.32538,"lon":5.4143,"is_reserved":false,"is_disabled":false,"rental_uris":{"android":"levelo://app?vid=47de23d2-8ecc-4457-9f94-3e9dad9926f1","ios":"levelo://app?vid=47de23d2-8ecc-4457-9f94-3e9dad9926f1"},"vehicle_type_id":"4","last_reported":1728396636,"current_range_meters":11200,"station_id":"ce4bhq12rcd13ifvqhhg","pricing_plan_id":"cebpf4jnsgd1na2vs0mg"},{"bike_id":"9d9de456-3f55-4909-a3cb-d4686c8dd2f8","system_id":"levelo_inurba_marseille","lat":43.23059,"lon":5.35487,"is_reserved":false,"is_disabled":false,"rental_uris":{"android":"levelo://app?vid=9d9de456-3f55-4909-a3cb-d4686c8dd2f8","ios":"levelo://app?vid=9d9de456-3f55-4909-a3cb-d4686c8dd2f8"},"vehicle_type_id":"4","last_reported":1728396636,"current_range_meters":6000,"station_id":"cpo3342slgdg3j2ifvpg","pricing_plan_id":"cebpf4jnsgd1na2vs0mg"},{"bike_id":"72f390d6-8036-4225-a9fd-bbdc6e34eeea","system_id":"levelo_inurba_marseille","lat":43.23193,"lon":5.39989,"is_reserved":false,"is_disabled":false,"rental_uris":{"android":"levelo://app?vid=72f390d6-8036-4225-a9fd-bbdc6e34eeea","ios":"levelo://app?vid=72f390d6-8036-4225-a9fd-bbdc6e34eeea"},"vehicle_type_id":"4","last_reported":1728396636,"current_range_meters":36800,"station_id":"ce4bhn12rcd13ifvqgqg","pricing_plan_id":"cebpf4jnsgd1na2vs0mg"},{"bike_id":"2a066864-957b-48bf-a7a4-acdf63b9750b","system_id":"levelo_inurba_marseille","lat":43.27619,"lon":5.36106,"is_reserved":false,"is_disabled":false,"rental_uris":{"android":"levelo://app?vid=2a066864-957b-48bf-a7a4-acdf63b9750b","ios":"levelo://app?vid=2a066864-957b-48bf-a7a4-acdf63b9750b"},"vehicle_type_id":"4","last_reported":1728396636,"current_range_meters":31200,"station_id":"ce4bgj92rcd13ifvqbe0","pricing_plan_id":"cebpf4jnsgd1na2vs0mg"},{"bike_id":"f99aa27f-51bb-4101-92d4-c0428b6e3abf","system_id":"levelo_inurba_marseille","lat":43.24812,"lon":5.37459,"is_reserved":false,"is_disabled":false,"rental_uris":{"android":"levelo://app?vid=f99aa27f-51bb-4101-92d4-c0428b6e3abf","ios":"levelo://app?vid=f99aa27f-51bb-4101-92d4-c0428b6e3abf"},"vehicle_type_id":"4","last_reported":1728396636,"current_range_meters":38800,"station_id":"ce4bhgh2rcd13ifvqfb0","pricing_plan_id":"cebpf4jnsgd1na2vs0mg"},{"bike_id":"4af55307-045f-4c66-a045-a91d88bb4c16","system_id":"levelo_inurba_marseille","lat":43.22935,"lon":5.35369,"is_reserved":false,"is_disabled":false,"rental_uris":{"android":"levelo://app?vid=4af55307-045f-4c66-a045-a91d88bb4c16","ios":"levelo://app?vid=4af55307-045f-4c66-a045-a91d88bb4c16"},"vehicle_type_id":"4","last_reported":1728396636,"current_range_meters":20800,"station_id":"cpo3532slgdg3j2ikp40","pricing_plan_id":"cebpf4jnsgd1na2vs0mg"},{"bike_id":"0df953cd-cce5-4e9f-80ca-e96eaa3253bd","system_id":"levelo_inurba_marseille","lat":43.30258,"lon":5.40074,"is_reserved":false,"is_disabled":false,"rental_uris":{"android":"levelo://app?vid=0df953cd-cce5-4e9f-80ca-e96eaa3253bd","ios":"levelo://app?vid=0df953cd-cce5-4e9f-80ca-e96eaa3253bd"},"vehicle_type_id":"4","last_reported":1728396636,"current_range_meters":34800,"station_id":"ce4bgvh2rcd13ifvqcs0","pricing_plan_id":"cebpf4jnsgd1na2vs0mg"},{"bike_id":"1108f945-2562-4a37-b07f-6ae5d87c264e","system_id":"levelo_inurba_marseille","lat":43.337444,"lon":5.374475,"is_reserved":false,"is_disabled":false,"rental_uris":{"android":"levelo://app?vid=1108f945-2562-4a37-b07f-6ae5d87c264e","ios":"levelo://app?vid=1108f945-2562-4a37-b07f-6ae5d87c264e"},"vehicle_type_id":"4","last_reported":1728396636,"current_range_meters":37600,"station_id":"","pricing_plan_id":"cebpf4jnsgd1na2vs0mg"},{"bike_id":"4c37e8f3-a39f-4eb6-a870-150371ed3625","system_id":"levelo_inurba_marseille","lat":43.29037,"lon":5.39963,"is_reserved":false,"is_disabled":false,"rental_uris":{"android":"levelo://app?vid=4c37e8f3-a39f-4eb6-a870-150371ed3625","ios":"levelo://app?vid=4c37e8f3-a39f-4eb6-a870-150371ed3625"},"vehicle_type_id":"4","last_reported":1728396636,"current_range_meters":30000,"station_id":"ce4bh392rcd13ifvqdm0","pricing_plan_id":"cebpf4jnsgd1na2vs0mg"},{"bike_id":"47efe985-66e3-4fb1-a00d-60851f779f19","system_id":"levelo_inurba_marseille","lat":43.32541,"lon":5.41417,"is_reserved":false,"is_disabled":false,"rental_uris":{"android":"levelo://app?vid=47efe985-66e3-4fb1-a00d-60851f779f19","ios":"levelo://app?vid=47efe985-66e3-4fb1-a00d-60851f779f19"},"vehicle_type_id":"4","last_reported":1728396636,"current_range_meters":25600,"station_id":"ce4bhq12rcd13ifvqhhg","pricing_plan_id":"cebpf4jnsgd1na2vs0mg"},{"bike_id":"8d79dde4-d406-40c0-b4c5-ddf52a69f5db","system_id":"levelo_inurba_marseille","lat":43.31489,"lon":5.37309,"is_reserved":false,"is_disabled":false,"rental_uris":{"android":"levelo://app?vid=8d79dde4-d406-40c0-b4c5-ddf52a69f5db","ios":"levelo://app?vid=8d79dde4-d406-40c0-b4c5-ddf52a69f5db"},"vehicle_type_id":"4","last_reported":1728396636,"current_range_meters":38000,"station_id":"ce4bgt12rcd13ifvqcd0","pricing_plan_id":"cebpf4jnsgd1na2vs0mg"},{"bike_id":"19d0be02-48c5-4d10-a731-02ab6afdb3eb","system_id":"levelo_inurba_marseille","lat":43.31698,"lon":5.37651,"is_reserved":false,"is_disabled":false,"rental_uris":{"android":"levelo://app?vid=19d0be02-48c5-4d10-a731-02ab6afdb3eb","ios":"levelo://app?vid=19d0be02-48c5-4d10-a731-02ab6afdb3eb"},"vehicle_type_id":"4","last_reported":1728396636,"current_range_meters":28800,"station_id":"ce4bgth2rcd13ifvqch0","pricing_plan_id":"cebpf4jnsgd1na2vs0mg"},{"bike_id":"2ea0e98f-5807-4375-8bc4-af4b0ec0b227","system_id":"levelo_inurba_marseille","lat":43.28583,"lon":5.39256,"is_reserved":false,"is_disabled":false,"rental_uris":{"android":"levelo://app?vid=2ea0e98f-5807-4375-8bc4-af4b0ec0b227","ios":"levelo://app?vid=2ea0e98f-5807-4375-8bc4-af4b0ec0b227"},"vehicle_type_id":"4","last_reported":1728396636,"current_range_meters":28000,"station_id":"ce4bgkh2rcd13ifvqbl0","pricing_plan_id":"cebpf4jnsgd1na2vs0mg"},{"bike_id":"c12c46a4-bd86-493d-803e-5d507cd7924b","system_id":"levelo_inurba_marseille","lat":43.23196,"lon":5.35543,"is_reserved":false,"is_disabled":false,"rental_uris":{"android":"levelo://app?vid=c12c46a4-bd86-493d-803e-5d507cd7924b","ios":"levelo://app?vid=c12c46a4-bd86-493d-803e-5d507cd7924b"},"vehicle_type_id":"4","last_reported":1728396636,"current_range_meters":18800,"station_id":"ce4bhu92rcd13ifvqi70","pricing_plan_id":"cebpf4jnsgd1na2vs0mg"},{"bike_id":"1e22ea5d-d406-4b63-92d6-06a783dc0af8","system_id":"levelo_inurba_marseille","lat":43.23185,"lon":5.39978,"is_reserved":false,"is_disabled":false,"rental_uris":{"android":"levelo://app?vid=1e22ea5d-d406-4b63-92d6-06a783dc0af8","ios":"levelo://app?vid=1e22ea5d-d406-4b63-92d6-06a783dc0af8"},"vehicle_type_id":"4","last_reported":1728396636,"current_range_meters":18000,"station_id":"ce4bhn12rcd13ifvqgqg","pricing_plan_id":"cebpf4jnsgd1na2vs0mg"},{"bike_id":"c19e637b-a9df-4896-bb6a-b56e60a34764","system_id":"levelo_inurba_marseille","lat":43.2509,"lon":5.39516,"is_reserved":false,"is_disabled":false,"rental_uris":{"android":"levelo://app?vid=c19e637b-a9df-4896-bb6a-b56e60a34764","ios":"levelo://app?vid=c19e637b-a9df-4896-bb6a-b56e60a34764"},"vehicle_type_id":"4","last_reported":1728396636,"current_range_meters":19600,"station_id":"ce4bhm12rcd13ifvqgkg","pricing_plan_id":"cebpf4jnsgd1na2vs0mg"},{"bike_id":"672a58c1-2e50-4685-8202-b1726462b83b","system_id":"levelo_inurba_marseille","lat":43.30135,"lon":5.39857,"is_reserved":false,"is_disabled":false,"rental_uris":{"android":"levelo://app?vid=672a58c1-2e50-4685-8202-b1726462b83b","ios":"levelo://app?vid=672a58c1-2e50-4685-8202-b1726462b83b"},"vehicle_type_id":"4","last_reported":1728396636,"current_range_meters":38800,"station_id":"ce4bh0h2rcd13ifvqd40","pricing_plan_id":"cebpf4jnsgd1na2vs0mg"},{"bike_id":"662f4970-f45a-4eb7-8b5b-5f2d14dbdf57","system_id":"levelo_inurba_marseille","lat":43.26682,"lon":5.38272,"is_reserved":false,"is_disabled":false,"rental_uris":{"android":"levelo://app?vid=662f4970-f45a-4eb7-8b5b-5f2d14dbdf57","ios":"levelo://app?vid=662f4970-f45a-4eb7-8b5b-5f2d14dbdf57"},"vehicle_type_id":"4","last_reported":1728396636,"current_range_meters":36800,"station_id":"ce4bhg92rcd13ifvqf90","pricing_plan_id":"cebpf4jnsgd1na2vs0mg"},{"bike_id":"67216403-fb53-413b-9bdc-59794a873275","system_id":"levelo_inurba_marseille","lat":43.285614,"lon":5.371096,"is_reserved":false,"is_disabled":false,"rental_uris":{"android":"levelo://app?vid=67216403-fb53-413b-9bdc-59794a873275","ios":"levelo://app?vid=67216403-fb53-413b-9bdc-59794a873275"},"vehicle_type_id":"4","last_reported":1728396636,"current_range_meters":30800,"station_id":"ce4bht12rcd13ifvqi60","pricing_plan_id":"cebpf4jnsgd1na2vs0mg"},{"bike_id":"a01ad824-e5f7-46ec-a6e7-0e696a4a69d7","system_id":"levelo_inurba_marseille","lat":43.29268,"lon":5.38434,"is_reserved":false,"is_disabled":false,"rental_uris":{"android":"levelo://app?vid=a01ad824-e5f7-46ec-a6e7-0e696a4a69d7","ios":"levelo://app?vid=a01ad824-e5f7-46ec-a6e7-0e696a4a69d7"},"vehicle_type_id":"4","last_reported":1728396636,"current_range_meters":20800,"station_id":"ce4bh692rcd13ifvqea0","pricing_plan_id":"cebpf4jnsgd1na2vs0mg"},{"bike_id":"b08f2dd0-e437-4398-9607-6d079a1449c5","system_id":"levelo_inurba_marseille","lat":43.31367,"lon":5.38488,"is_reserved":false,"is_disabled":false,"rental_uris":{"android":"levelo://app?vid=b08f2dd0-e437-4398-9607-6d079a1449c5","ios":"levelo://app?vid=b08f2dd0-e437-4398-9607-6d079a1449c5"},"vehicle_type_id":"4","last_reported":1728396636,"current_range_meters":39200,"station_id":"ce4bgt92rcd13ifvqcf0","pricing_plan_id":"cebpf4jnsgd1na2vs0mg"},{"bike_id":"a5c459cc-1b4c-42d6-a411-afd06cacbfb5","system_id":"levelo_inurba_marseille","lat":43.32105,"lon":5.36775,"is_reserved":false,"is_disabled":false,"rental_uris":{"android":"levelo://app?vid=a5c459cc-1b4c-42d6-a411-afd06cacbfb5","ios":"levelo://app?vid=a5c459cc-1b4c-42d6-a411-afd06cacbfb5"},"vehicle_type_id":"4","last_reported":1728396636,"current_range_meters":28400,"station_id":"ce4bhrh2rcd13ifvqhug","pricing_plan_id":"cebpf4jnsgd1na2vs0mg"},{"bike_id":"2eb7f17d-8753-446f-a598-1cde0700b33f","system_id":"levelo_inurba_marseille","lat":43.31067,"lon":5.3835,"is_reserved":false,"is_disabled":false,"rental_uris":{"android":"levelo://app?vid=2eb7f17d-8753-446f-a598-1cde0700b33f","ios":"levelo://app?vid=2eb7f17d-8753-446f-a598-1cde0700b33f"},"vehicle_type_id":"4","last_reported":1728396636,"current_range_meters":24800,"station_id":"ce4bgv92rcd13ifvqcr0","pricing_plan_id":"cebpf4jnsgd1na2vs0mg"},{"bike_id":"ff720b89-af5f-4ce7-84c8-be9b47e3670d","system_id":"levelo_inurba_marseille","lat":43.30899,"lon":5.37202,"is_reserved":false,"is_disabled":false,"rental_uris":{"android":"levelo://app?vid=ff720b89-af5f-4ce7-84c8-be9b47e3670d","ios":"levelo://app?vid=ff720b89-af5f-4ce7-84c8-be9b47e3670d"},"vehicle_type_id":"4","last_reported":1728396636,"current_range_meters":36000,"station_id":"ce4bguh2rcd13ifvqckg","pricing_plan_id":"cebpf4jnsgd1na2vs0mg"},{"bike_id":"8a230e39-8ef1-44bd-9062-08774cd42ca1","system_id":"levelo_inurba_marseille","lat":43.29728,"lon":5.37686,"is_reserved":false,"is_disabled":false,"rental_uris":{"android":"levelo://app?vid=8a230e39-8ef1-44bd-9062-08774cd42ca1","ios":"levelo://app?vid=8a230e39-8ef1-44bd-9062-08774cd42ca1"},"vehicle_type_id":"4","last_reported":1728396636,"current_range_meters":38800,"station_id":"ce4bgkh2rcd13ifvqbl0","pricing_plan_id":"cebpf4jnsgd1na2vs0mg"},{"bike_id":"44b18d0d-b975-4009-9592-678f696abe4c","system_id":"levelo_inurba_marseille","lat":43.29024,"lon":5.38128,"is_reserved":false,"is_disabled":false,"rental_uris":{"android":"levelo://app?vid=44b18d0d-b975-4009-9592-678f696abe4c","ios":"levelo://app?vid=44b18d0d-b975-4009-9592-678f696abe4c"},"vehicle_type_id":"4","last_reported":1728396636,"current_range_meters":7200,"station_id":"ce4bh4p2rcd13ifvqe1g","pricing_plan_id":"cebpf4jnsgd1na2vs0mg"},{"bike_id":"8614b994-ae2d-4ba6-9c50-9dc14a4d72af","system_id":"levelo_inurba_marseille","lat":43.255,"lon":5.37654,"is_reserved":false,"is_disabled":false,"rental_uris":{"android":"levelo://app?vid=8614b994-ae2d-4ba6-9c50-9dc14a4d72af","ios":"levelo://app?vid=8614b994-ae2d-4ba6-9c50-9dc14a4d72af"},"vehicle_type_id":"4","last_reported":1728396636,"current_range_meters":28800,"station_id":"ce4bhh12rcd13ifvqff0","pricing_plan_id":"cebpf4jnsgd1na2vs0mg"},{"bike_id":"0dd34a9b-1eb6-4247-811d-75a2f59a4b3c","system_id":"levelo_inurba_marseille","lat":43.33024,"lon":5.39031,"is_reserved":false,"is_disabled":false,"rental_uris":{"android":"levelo://app?vid=0dd34a9b-1eb6-4247-811d-75a2f59a4b3c","ios":"levelo://app?vid=0dd34a9b-1eb6-4247-811d-75a2f59a4b3c"},"vehicle_type_id":"4","last_reported":1728396636,"current_range_meters":33600,"station_id":"ce4bhr92rcd13ifvqhrg","pricing_plan_id":"cebpf4jnsgd1na2vs0mg"},{"bike_id":"1c852732-d49a-4a4c-86e9-c4a33127f8ee","system_id":"levelo_inurba_marseille","lat":43.29976,"lon":5.37177,"is_reserved":false,"is_disabled":false,"rental_uris":{"android":"levelo://app?vid=1c852732-d49a-4a4c-86e9-c4a33127f8ee","ios":"levelo://app?vid=1c852732-d49a-4a4c-86e9-c4a33127f8ee"},"vehicle_type_id":"4","last_reported":1728396636,"current_range_meters":36400,"station_id":"","pricing_plan_id":"cebpf4jnsgd1na2vs0mg"},{"bike_id":"6b5668a9-0029-4b95-8860-61cea6d5c551","system_id":"levelo_inurba_marseille","lat":43.29585,"lon":5.389,"is_reserved":false,"is_disabled":false,"rental_uris":{"android":"levelo://app?vid=6b5668a9-0029-4b95-8860-61cea6d5c551","ios":"levelo://app?vid=6b5668a9-0029-4b95-8860-61cea6d5c551"},"vehicle_type_id":"4","last_reported":1728396636,"current_range_meters":38000,"station_id":"","pricing_plan_id":"cebpf4jnsgd1na2vs0mg"},{"bike_id":"d00a3477-782a-4de0-b711-15ed9dd434f4","system_id":"levelo_inurba_marseille","lat":43.23054,"lon":5.35488,"is_reserved":false,"is_disabled":false,"rental_uris":{"android":"levelo://app?vid=d00a3477-782a-4de0-b711-15ed9dd434f4","ios":"levelo://app?vid=d00a3477-782a-4de0-b711-15ed9dd434f4"},"vehicle_type_id":"4","last_reported":1728396636,"current_range_meters":4000,"station_id":"cpo3342slgdg3j2ifvpg","pricing_plan_id":"cebpf4jnsgd1na2vs0mg"},{"bike_id":"428c9266-e011-4b54-8895-02f6fecf3d59","system_id":"levelo_inurba_marseille","lat":43.29413,"lon":5.38623,"is_reserved":false,"is_disabled":false,"rental_uris":{"android":"levelo://app?vid=428c9266-e011-4b54-8895-02f6fecf3d59","ios":"levelo://app?vid=428c9266-e011-4b54-8895-02f6fecf3d59"},"vehicle_type_id":"4","last_reported":1728396636,"current_range_meters":38800,"station_id":"ce4bh2h2rcd13ifvqdh0","pricing_plan_id":"cebpf4jnsgd1na2vs0mg"},{"bike_id":"cec3c99e-ca48-4d80-8754-f9affa5d8948","system_id":"levelo_inurba_marseille","lat":43.23155,"lon":5.43706,"is_reserved":false,"is_disabled":false,"rental_uris":{"android":"levelo://app?vid=cec3c99e-ca48-4d80-8754-f9affa5d8948","ios":"levelo://app?vid=cec3c99e-ca48-4d80-8754-f9affa5d8948"},"vehicle_type_id":"4","last_reported":1728396636,"current_range_meters":20800,"station_id":"ce4bhmp2rcd13ifvqgog","pricing_plan_id":"cebpf4jnsgd1na2vs0mg"},{"bike_id":"441c99f5-9ec1-4a47-80dc-8b4a10bb7d09","system_id":"levelo_inurba_marseille","lat":43.30554,"lon":5.36524,"is_reserved":false,"is_disabled":false,"rental_uris":{"android":"levelo://app?vid=441c99f5-9ec1-4a47-80dc-8b4a10bb7d09","ios":"levelo://app?vid=441c99f5-9ec1-4a47-80dc-8b4a10bb7d09"},"vehicle_type_id":"4","last_reported":1728396636,"current_range_meters":27200,"station_id":"ce4bgs12rcd13ifvqcag","pricing_plan_id":"cebpf4jnsgd1na2vs0mg"},{"bike_id":"cb2d78d8-d730-4807-864c-a6e861e202b2","system_id":"levelo_inurba_marseille","lat":43.30882,"lon":5.39622,"is_reserved":false,"is_disabled":false,"rental_uris":{"android":"levelo://app?vid=cb2d78d8-d730-4807-864c-a6e861e202b2","ios":"levelo://app?vid=cb2d78d8-d730-4807-864c-a6e861e202b2"},"vehicle_type_id":"4","last_reported":1728396636,"current_range_meters":38400,"station_id":"","pricing_plan_id":"cebpf4jnsgd1na2vs0mg"},{"bike_id":"e8fc03fc-b789-43de-a556-67c3ddaa9a8d","system_id":"levelo_inurba_marseille","lat":43.29895,"lon":5.43666,"is_reserved":false,"is_disabled":false,"rental_uris":{"android":"levelo://app?vid=e8fc03fc-b789-43de-a556-67c3ddaa9a8d","ios":"levelo://app?vid=e8fc03fc-b789-43de-a556-67c3ddaa9a8d"},"vehicle_type_id":"4","last_reported":1728396636,"current_range_meters":14800,"station_id":"ce4bhpp2rcd13ifvqhfg","pricing_plan_id":"cebpf4jnsgd1na2vs0mg"},{"bike_id":"520eec86-5600-4803-a76a-5f8da5d24f49","system_id":"levelo_inurba_marseille","lat":43.30543,"lon":5.36528,"is_reserved":false,"is_disabled":false,"rental_uris":{"android":"levelo://app?vid=520eec86-5600-4803-a76a-5f8da5d24f49","ios":"levelo://app?vid=520eec86-5600-4803-a76a-5f8da5d24f49"},"vehicle_type_id":"4","last_reported":1728396636,"current_range_meters":14800,"station_id":"ce4bgs12rcd13ifvqcag","pricing_plan_id":"cebpf4jnsgd1na2vs0mg"},{"bike_id":"e8f38f77-6572-42be-9296-0cbe6e7cb972","system_id":"levelo_inurba_marseille","lat":43.23054,"lon":5.35492,"is_reserved":false,"is_disabled":false,"rental_uris":{"android":"levelo://app?vid=e8f38f77-6572-42be-9296-0cbe6e7cb972","ios":"levelo://app?vid=e8f38f77-6572-42be-9296-0cbe6e7cb972"},"vehicle_type_id":"4","last_reported":1728396636,"current_range_meters":31200,"station_id":"cpo3342slgdg3j2ifvpg","pricing_plan_id":"cebpf4jnsgd1na2vs0mg"},{"bike_id":"46da54f3-6b57-4693-afe2-4e0b6033eb8e","system_id":"levelo_inurba_marseille","lat":43.28412,"lon":5.37509,"is_reserved":false,"is_disabled":false,"rental_uris":{"android":"levelo://app?vid=46da54f3-6b57-4693-afe2-4e0b6033eb8e","ios":"levelo://app?vid=46da54f3-6b57-4693-afe2-4e0b6033eb8e"},"vehicle_type_id":"4","last_reported":1728396636,"current_range_meters":6800,"station_id":"ce4bh412rcd13ifvqds0","pricing_plan_id":"cebpf4jnsgd1na2vs0mg"},{"bike_id":"444ff25d-7108-4ee4-bae3-a76f3f9835cc","system_id":"levelo_inurba_marseille","lat":43.314013,"lon":5.384739,"is_reserved":false,"is_disabled":false,"rental_uris":{"android":"levelo://app?vid=444ff25d-7108-4ee4-bae3-a76f3f9835cc","ios":"levelo://app?vid=444ff25d-7108-4ee4-bae3-a76f3f9835cc"},"vehicle_type_id":"4","last_reported":1728396636,"current_range_meters":28400,"station_id":"ce4bgt92rcd13ifvqcf0","pricing_plan_id":"cebpf4jnsgd1na2vs0mg"},{"bike_id":"b16dc9e0-3a26-48a0-8528-6cee38f98885","system_id":"levelo_inurba_marseille","lat":43.30769,"lon":5.37646,"is_reserved":false,"is_disabled":false,"rental_uris":{"android":"levelo://app?vid=b16dc9e0-3a26-48a0-8528-6cee38f98885","ios":"levelo://app?vid=b16dc9e0-3a26-48a0-8528-6cee38f98885"},"vehicle_type_id":"4","last_reported":1728396636,"current_range_meters":16800,"station_id":"ce4bgv92rcd13ifvqcq0","pricing_plan_id":"cebpf4jnsgd1na2vs0mg"},{"bike_id":"485bc90e-76e5-4ef0-8a60-6695dcc5102a","system_id":"levelo_inurba_marseille","lat":43.3249,"lon":5.36566,"is_reserved":false,"is_disabled":false,"rental_uris":{"android":"levelo://app?vid=485bc90e-76e5-4ef0-8a60-6695dcc5102a","ios":"levelo://app?vid=485bc90e-76e5-4ef0-8a60-6695dcc5102a"},"vehicle_type_id":"4","last_reported":1728396636,"current_range_meters":11600,"station_id":"ce4bhs12rcd13ifvqhvg","pricing_plan_id":"cebpf4jnsgd1na2vs0mg"},{"bike_id":"77d131a6-db5f-44eb-adb1-7fc7032d111b","system_id":"levelo_inurba_marseille","lat":43.24652,"lon":5.38897,"is_reserved":false,"is_disabled":false,"rental_uris":{"android":"levelo://app?vid=77d131a6-db5f-44eb-adb1-7fc7032d111b","ios":"levelo://app?vid=77d131a6-db5f-44eb-adb1-7fc7032d111b"},"vehicle_type_id":"4","last_reported":1728396636,"current_range_meters":12800,"station_id":"ce4bhg12rcd13ifvqf60","pricing_plan_id":"cebpf4jnsgd1na2vs0mg"},{"bike_id":"3c5cef1b-ff17-43a6-bf26-1f3026d99caf","system_id":"levelo_inurba_marseille","lat":43.271126,"lon":5.408946,"is_reserved":false,"is_disabled":false,"rental_uris":{"android":"levelo://app?vid=3c5cef1b-ff17-43a6-bf26-1f3026d99caf","ios":"levelo://app?vid=3c5cef1b-ff17-43a6-bf26-1f3026d99caf"},"vehicle_type_id":"4","last_reported":1728396636,"current_range_meters":9600,"station_id":"ce4bhl12rcd13ifvqgf0","pricing_plan_id":"cebpf4jnsgd1na2vs0mg"},{"bike_id":"28c8a995-683c-40ff-ada1-05dccb3b8437","system_id":"levelo_inurba_marseille","lat":43.29265,"lon":5.38445,"is_reserved":false,"is_disabled":false,"rental_uris":{"android":"levelo://app?vid=28c8a995-683c-40ff-ada1-05dccb3b8437","ios":"levelo://app?vid=28c8a995-683c-40ff-ada1-05dccb3b8437"},"vehicle_type_id":"4","last_reported":1728396636,"current_range_meters":28000,"station_id":"ce4bh692rcd13ifvqea0","pricing_plan_id":"cebpf4jnsgd1na2vs0mg"},{"bike_id":"2fe330c3-d527-47fc-bca3-c0536e295037","system_id":"levelo_inurba_marseille","lat":43.29899,"lon":5.38123,"is_reserved":false,"is_disabled":false,"rental_uris":{"android":"levelo://app?vid=2fe330c3-d527-47fc-bca3-c0536e295037","ios":"levelo://app?vid=2fe330c3-d527-47fc-bca3-c0536e295037"},"vehicle_type_id":"4","last_reported":1728396636,"current_range_meters":15200,"station_id":"ce4bgj12rcd13ifvqbc0","pricing_plan_id":"cebpf4jnsgd1na2vs0mg"},{"bike_id":"69cc4832-d7b2-469f-b6b9-424707bdabf1","system_id":"levelo_inurba_marseille","lat":43.295243,"lon":5.394056,"is_reserved":false,"is_disabled":false,"rental_uris":{"android":"levelo://app?vid=69cc4832-d7b2-469f-b6b9-424707bdabf1","ios":"levelo://app?vid=69cc4832-d7b2-469f-b6b9-424707bdabf1"},"vehicle_type_id":"4","last_reported":1728396636,"current_range_meters":19200,"station_id":"ce4bh292rcd13ifvqdf0","pricing_plan_id":"cebpf4jnsgd1na2vs0mg"},{"bike_id":"e66d212e-6b9b-443e-b4e1-4b743bb4a76e","system_id":"levelo_inurba_marseille","lat":43.29875,"lon":5.38898,"is_reserved":false,"is_disabled":false,"rental_uris":{"android":"levelo://app?vid=e66d212e-6b9b-443e-b4e1-4b743bb4a76e","ios":"levelo://app?vid=e66d212e-6b9b-443e-b4e1-4b743bb4a76e"},"vehicle_type_id":"4","last_reported":1728396636,"current_range_meters":28000,"station_id":"ce4bh392rcd13ifvqdl0","pricing_plan_id":"cebpf4jnsgd1na2vs0mg"},{"bike_id":"4756f994-dcd0-40f0-8c02-f11efbc81576","system_id":"levelo_inurba_marseille","lat":43.25575,"lon":5.3823,"is_reserved":false,"is_disabled":false,"rental_uris":{"android":"levelo://app?vid=4756f994-dcd0-40f0-8c02-f11efbc81576","ios":"levelo://app?vid=4756f994-dcd0-40f0-8c02-f11efbc81576"},"vehicle_type_id":"4","last_reported":1728396636,"current_range_meters":28400,"station_id":"ce4bhih2rcd13ifvqfs0","pricing_plan_id":"cebpf4jnsgd1na2vs0mg"},{"bike_id":"539eacbc-92e3-40a6-ae36-ff0b108b53ac","system_id":"levelo_inurba_marseille","lat":43.31332,"lon":5.39695,"is_reserved":false,"is_disabled":false,"rental_uris":{"android":"levelo://app?vid=539eacbc-92e3-40a6-ae36-ff0b108b53ac","ios":"levelo://app?vid=539eacbc-92e3-40a6-ae36-ff0b108b53ac"},"vehicle_type_id":"4","last_reported":1728396636,"current_range_meters":3600,"station_id":"ce4bgvp2rcd13ifvqcu0","pricing_plan_id":"cebpf4jnsgd1na2vs0mg"},{"bike_id":"b5142c12-3f3f-452c-853c-bcb33ce12fbf","system_id":"levelo_inurba_marseille","lat":43.23194,"lon":5.35551,"is_reserved":false,"is_disabled":false,"rental_uris":{"android":"levelo://app?vid=b5142c12-3f3f-452c-853c-bcb33ce12fbf","ios":"levelo://app?vid=b5142c12-3f3f-452c-853c-bcb33ce12fbf"},"vehicle_type_id":"4","last_reported":1728396636,"current_range_meters":37600,"station_id":"ce4bhu92rcd13ifvqi70","pricing_plan_id":"cebpf4jnsgd1na2vs0mg"},{"bike_id":"6448e51f-987d-4be8-934e-75c3baaa6cf1","system_id":"levelo_inurba_marseille","lat":43.28614,"lon":5.35098,"is_reserved":false,"is_disabled":false,"rental_uris":{"android":"levelo://app?vid=6448e51f-987d-4be8-934e-75c3baaa6cf1","ios":"levelo://app?vid=6448e51f-987d-4be8-934e-75c3baaa6cf1"},"vehicle_type_id":"4","last_reported":1728396636,"current_range_meters":8800,"station_id":"ce4bhch2rcd13ifvqeug","pricing_plan_id":"cebpf4jnsgd1na2vs0mg"},{"bike_id":"79555c8e-20f9-46a3-8062-329a728ab0e7","system_id":"levelo_inurba_marseille","lat":43.28696,"lon":5.39976,"is_reserved":false,"is_disabled":false,"rental_uris":{"android":"levelo://app?vid=79555c8e-20f9-46a3-8062-329a728ab0e7","ios":"levelo://app?vid=79555c8e-20f9-46a3-8062-329a728ab0e7"},"vehicle_type_id":"4","last_reported":1728396636,"current_range_meters":20800,"station_id":"ce4bho92rcd13ifvqh3g","pricing_plan_id":"cebpf4jnsgd1na2vs0mg"},{"bike_id":"c4236907-ce27-48ac-abd9-c181a707f095","system_id":"levelo_inurba_marseille","lat":43.24082,"lon":5.37748,"is_reserved":false,"is_disabled":false,"rental_uris":{"android":"levelo://app?vid=c4236907-ce27-48ac-abd9-c181a707f095","ios":"levelo://app?vid=c4236907-ce27-48ac-abd9-c181a707f095"},"vehicle_type_id":"4","last_reported":1728396636,"current_range_meters":10000,"station_id":"ce4bhnp2rcd13ifvqgvg","pricing_plan_id":"cebpf4jnsgd1na2vs0mg"},{"bike_id":"2b180ed1-c5eb-4da3-b549-c1c629710ffa","system_id":"levelo_inurba_marseille","lat":43.29791,"lon":5.38095,"is_reserved":false,"is_disabled":false,"rental_uris":{"android":"levelo://app?vid=2b180ed1-c5eb-4da3-b549-c1c629710ffa","ios":"levelo://app?vid=2b180ed1-c5eb-4da3-b549-c1c629710ffa"},"vehicle_type_id":"4","last_reported":1728396636,"current_range_meters":22800,"station_id":"ce4bgip2rcd13ifvqbb0","pricing_plan_id":"cebpf4jnsgd1na2vs0mg"},{"bike_id":"93d45870-2e1c-4ed1-9664-7b219a4ed443","system_id":"levelo_inurba_marseille","lat":43.22927,"lon":5.35381,"is_reserved":false,"is_disabled":false,"rental_uris":{"android":"levelo://app?vid=93d45870-2e1c-4ed1-9664-7b219a4ed443","ios":"levelo://app?vid=93d45870-2e1c-4ed1-9664-7b219a4ed443"},"vehicle_type_id":"4","last_reported":1728396636,"current_range_meters":30800,"station_id":"cpo3532slgdg3j2ikp40","pricing_plan_id":"cebpf4jnsgd1na2vs0mg"},{"bike_id":"9a9d7542-6c26-40b3-9306-c6d7725ffc14","system_id":"levelo_inurba_marseille","lat":43.31492,"lon":5.37311,"is_reserved":false,"is_disabled":false,"rental_uris":{"android":"levelo://app?vid=9a9d7542-6c26-40b3-9306-c6d7725ffc14","ios":"levelo://app?vid=9a9d7542-6c26-40b3-9306-c6d7725ffc14"},"vehicle_type_id":"4","last_reported":1728396636,"current_range_meters":16400,"station_id":"ce4bgt12rcd13ifvqcd0","pricing_plan_id":"cebpf4jnsgd1na2vs0mg"},{"bike_id":"f0389dc4-da30-4889-ba74-bc2c44eec4ad","system_id":"levelo_inurba_marseille","lat":43.28613,"lon":5.35095,"is_reserved":false,"is_disabled":false,"rental_uris":{"android":"levelo://app?vid=f0389dc4-da30-4889-ba74-bc2c44eec4ad","ios":"levelo://app?vid=f0389dc4-da30-4889-ba74-bc2c44eec4ad"},"vehicle_type_id":"4","last_reported":1728396636,"current_range_meters":9600,"station_id":"ce4bhch2rcd13ifvqeug","pricing_plan_id":"cebpf4jnsgd1na2vs0mg"},{"bike_id":"0e3bfff6-2bee-4be5-8568-766c0160a493","system_id":"levelo_inurba_marseille","lat":43.31707,"lon":5.43697,"is_reserved":false,"is_disabled":false,"rental_uris":{"android":"levelo://app?vid=0e3bfff6-2bee-4be5-8568-766c0160a493","ios":"levelo://app?vid=0e3bfff6-2bee-4be5-8568-766c0160a493"},"vehicle_type_id":"4","last_reported":1728396636,"current_range_meters":8000,"station_id":"ce4bhp92rcd13ifvqhcg","pricing_plan_id":"cebpf4jnsgd1na2vs0mg"},{"bike_id":"a28251c4-ff93-47c6-829b-dbe7867b1430","system_id":"levelo_inurba_marseille","lat":43.30249,"lon":5.40039,"is_reserved":false,"is_disabled":false,"rental_uris":{"android":"levelo://app?vid=a28251c4-ff93-47c6-829b-dbe7867b1430","ios":"levelo://app?vid=a28251c4-ff93-47c6-829b-dbe7867b1430"},"vehicle_type_id":"4","last_reported":1728396636,"current_range_meters":39200,"station_id":"ce4bgvh2rcd13ifvqcs0","pricing_plan_id":"cebpf4jnsgd1na2vs0mg"},{"bike_id":"68a15803-7161-4d8a-9c98-d979734f5b64","system_id":"levelo_inurba_marseille","lat":43.26033,"lon":5.37549,"is_reserved":false,"is_disabled":false,"rental_uris":{"android":"levelo://app?vid=68a15803-7161-4d8a-9c98-d979734f5b64","ios":"levelo://app?vid=68a15803-7161-4d8a-9c98-d979734f5b64"},"vehicle_type_id":"4","last_reported":1728396636,"current_range_meters":38800,"station_id":"ce4bhgh2rcd13ifvqfa0","pricing_plan_id":"cebpf4jnsgd1na2vs0mg"},{"bike_id":"5269c144-c5c0-40ea-b198-41f72f1dc05c","system_id":"levelo_inurba_marseille","lat":43.29883,"lon":5.38889,"is_reserved":false,"is_disabled":false,"rental_uris":{"android":"levelo://app?vid=5269c144-c5c0-40ea-b198-41f72f1dc05c","ios":"levelo://app?vid=5269c144-c5c0-40ea-b198-41f72f1dc05c"},"vehicle_type_id":"4","last_reported":1728396636,"current_range_meters":28800,"station_id":"ce4bh392rcd13ifvqdl0","pricing_plan_id":"cebpf4jnsgd1na2vs0mg"},{"bike_id":"80d2551b-73f7-476e-b5bb-35d98bbaa095","system_id":"levelo_inurba_marseille","lat":43.29555,"lon":5.42275,"is_reserved":false,"is_disabled":false,"rental_uris":{"android":"levelo://app?vid=80d2551b-73f7-476e-b5bb-35d98bbaa095","ios":"levelo://app?vid=80d2551b-73f7-476e-b5bb-35d98bbaa095"},"vehicle_type_id":"4","last_reported":1728396636,"current_range_meters":31200,"station_id":"ce4bhph2rcd13ifvqhdg","pricing_plan_id":"cebpf4jnsgd1na2vs0mg"},{"bike_id":"c51b3b25-2a50-466b-acaa-e98177040c7c","system_id":"levelo_inurba_marseille","lat":43.27433,"lon":5.39401,"is_reserved":false,"is_disabled":false,"rental_uris":{"android":"levelo://app?vid=c51b3b25-2a50-466b-acaa-e98177040c7c","ios":"levelo://app?vid=c51b3b25-2a50-466b-acaa-e98177040c7c"},"vehicle_type_id":"4","last_reported":1728396636,"current_range_meters":38400,"station_id":"ce4bhdp2rcd13ifvqf20","pricing_plan_id":"cebpf4jnsgd1na2vs0mg"},{"bike_id":"46cb044c-fd88-4fbc-8d40-ab906a2fae0f","system_id":"levelo_inurba_marseille","lat":43.27203,"lon":5.39179,"is_reserved":false,"is_disabled":false,"rental_uris":{"android":"levelo://app?vid=46cb044c-fd88-4fbc-8d40-ab906a2fae0f","ios":"levelo://app?vid=46cb044c-fd88-4fbc-8d40-ab906a2fae0f"},"vehicle_type_id":"4","last_reported":1728396636,"current_range_meters":24800,"station_id":"ce4bhhp2rcd13ifvqfm0","pricing_plan_id":"cebpf4jnsgd1na2vs0mg"},{"bike_id":"83ca7793-fb7f-4f63-843d-a13c4fc0bddf","system_id":"levelo_inurba_marseille","lat":43.2594,"lon":5.40898,"is_reserved":false,"is_disabled":false,"rental_uris":{"android":"levelo://app?vid=83ca7793-fb7f-4f63-843d-a13c4fc0bddf","ios":"levelo://app?vid=83ca7793-fb7f-4f63-843d-a13c4fc0bddf"},"vehicle_type_id":"4","last_reported":1728396636,"current_range_meters":31200,"station_id":"ce4bhm92rcd13ifvqglg","pricing_plan_id":"cebpf4jnsgd1na2vs0mg"},{"bike_id":"6f9b24aa-d1bd-44e3-bfac-777b21b81549","system_id":"levelo_inurba_marseille","lat":43.25118,"lon":5.40314,"is_reserved":false,"is_disabled":false,"rental_uris":{"android":"levelo://app?vid=6f9b24aa-d1bd-44e3-bfac-777b21b81549","ios":"levelo://app?vid=6f9b24aa-d1bd-44e3-bfac-777b21b81549"},"vehicle_type_id":"4","last_reported":1728396636,"current_range_meters":32000,"station_id":"ce4bhlh2rcd13ifvqgig","pricing_plan_id":"cebpf4jnsgd1na2vs0mg"},{"bike_id":"93a538e2-33d2-44e2-ac66-feb42e05dfad","system_id":"levelo_inurba_marseille","lat":43.24165,"lon":5.36392,"is_reserved":false,"is_disabled":false,"rental_uris":{"android":"levelo://app?vid=93a538e2-33d2-44e2-ac66-feb42e05dfad","ios":"levelo://app?vid=93a538e2-33d2-44e2-ac66-feb42e05dfad"},"vehicle_type_id":"4","last_reported":1728396636,"current_range_meters":24400,"station_id":"cpo36qri1sfpv3e86is0","pricing_plan_id":"cebpf4jnsgd1na2vs0mg"},{"bike_id":"4ab9f1e1-8dcc-40ac-82c9-dced6b0a682b","system_id":"levelo_inurba_marseille","lat":43.28569,"lon":5.39498,"is_reserved":false,"is_disabled":false,"rental_uris":{"android":"levelo://app?vid=4ab9f1e1-8dcc-40ac-82c9-dced6b0a682b","ios":"levelo://app?vid=4ab9f1e1-8dcc-40ac-82c9-dced6b0a682b"},"vehicle_type_id":"4","last_reported":1728396636,"current_range_meters":8400,"station_id":"ce4bh292rcd13ifvqdg0","pricing_plan_id":"cebpf4jnsgd1na2vs0mg"},{"bike_id":"9deb97e4-93fd-4456-9e32-8654e941ba45","system_id":"levelo_inurba_marseille","lat":43.27433,"lon":5.39419,"is_reserved":false,"is_disabled":false,"rental_uris":{"android":"levelo://app?vid=9deb97e4-93fd-4456-9e32-8654e941ba45","ios":"levelo://app?vid=9deb97e4-93fd-4456-9e32-8654e941ba45"},"vehicle_type_id":"4","last_reported":1728396636,"current_range_meters":8400,"station_id":"ce4bhdp2rcd13ifvqf20","pricing_plan_id":"cebpf4jnsgd1na2vs0mg"},{"bike_id":"ea337048-f7d5-4ebc-85ec-c577054005ea","system_id":"levelo_inurba_marseille","lat":43.296171,"lon":5.371674,"is_reserved":false,"is_disabled":false,"rental_uris":{"android":"levelo://app?vid=ea337048-f7d5-4ebc-85ec-c577054005ea","ios":"levelo://app?vid=ea337048-f7d5-4ebc-85ec-c577054005ea"},"vehicle_type_id":"4","last_reported":1728396636,"current_range_meters":38000,"station_id":"ce4bgnh2rcd13ifvqc0g","pricing_plan_id":"cebpf4jnsgd1na2vs0mg"},{"bike_id":"778018cd-ff67-4a08-9d67-2500586c0b8a","system_id":"levelo_inurba_marseille","lat":43.29337,"lon":5.38242,"is_reserved":false,"is_disabled":false,"rental_uris":{"android":"levelo://app?vid=778018cd-ff67-4a08-9d67-2500586c0b8a","ios":"levelo://app?vid=778018cd-ff67-4a08-9d67-2500586c0b8a"},"vehicle_type_id":"4","last_reported":1728396636,"current_range_meters":38000,"station_id":"ce4bh512rcd13ifvqe2g","pricing_plan_id":"cebpf4jnsgd1na2vs0mg"},{"bike_id":"a92f6206-1720-4e29-9ed4-ca1db6a5dc4b","system_id":"levelo_inurba_marseille","lat":43.30212,"lon":5.36945,"is_reserved":false,"is_disabled":false,"rental_uris":{"android":"levelo://app?vid=a92f6206-1720-4e29-9ed4-ca1db6a5dc4b","ios":"levelo://app?vid=a92f6206-1720-4e29-9ed4-ca1db6a5dc4b"},"vehicle_type_id":"4","last_reported":1728396636,"current_range_meters":28000,"station_id":"","pricing_plan_id":"cebpf4jnsgd1na2vs0mg"},{"bike_id":"de10c7f5-4dea-4d5e-86ac-4191c4bb3389","system_id":"levelo_inurba_marseille","lat":43.31118,"lon":5.3776,"is_reserved":false,"is_disabled":false,"rental_uris":{"android":"levelo://app?vid=de10c7f5-4dea-4d5e-86ac-4191c4bb3389","ios":"levelo://app?vid=de10c7f5-4dea-4d5e-86ac-4191c4bb3389"},"vehicle_type_id":"4","last_reported":1728396636,"current_range_meters":27600,"station_id":"ce4bgt92rcd13ifvqcg0","pricing_plan_id":"cebpf4jnsgd1na2vs0mg"},{"bike_id":"feac16a6-9d40-4cb8-a580-5c0463645055","system_id":"levelo_inurba_marseille","lat":43.24068,"lon":5.37757,"is_reserved":false,"is_disabled":false,"rental_uris":{"android":"levelo://app?vid=feac16a6-9d40-4cb8-a580-5c0463645055","ios":"levelo://app?vid=feac16a6-9d40-4cb8-a580-5c0463645055"},"vehicle_type_id":"4","last_reported":1728396636,"current_range_meters":29600,"station_id":"ce4bhnp2rcd13ifvqgvg","pricing_plan_id":"cebpf4jnsgd1na2vs0mg"},{"bike_id":"f456090f-a0c7-4fc2-8fae-d7810399099f","system_id":"levelo_inurba_marseille","lat":43.31485,"lon":5.37305,"is_reserved":false,"is_disabled":false,"rental_uris":{"android":"levelo://app?vid=f456090f-a0c7-4fc2-8fae-d7810399099f","ios":"levelo://app?vid=f456090f-a0c7-4fc2-8fae-d7810399099f"},"vehicle_type_id":"4","last_reported":1728396636,"current_range_meters":24800,"station_id":"ce4bgt12rcd13ifvqcd0","pricing_plan_id":"cebpf4jnsgd1na2vs0mg"},{"bike_id":"6090b859-1bd4-4a2b-af82-9eb6fc46b1b2","system_id":"levelo_inurba_marseille","lat":43.30459,"lon":5.37898,"is_reserved":false,"is_disabled":false,"rental_uris":{"android":"levelo://app?vid=6090b859-1bd4-4a2b-af82-9eb6fc46b1b2","ios":"levelo://app?vid=6090b859-1bd4-4a2b-af82-9eb6fc46b1b2"},"vehicle_type_id":"4","last_reported":1728396636,"current_range_meters":24800,"station_id":"ce4bgup2rcd13ifvqcn0","pricing_plan_id":"cebpf4jnsgd1na2vs0mg"},{"bike_id":"ead412e2-1554-4813-90af-b66961f0172f","system_id":"levelo_inurba_marseille","lat":43.2781,"lon":5.40702,"is_reserved":false,"is_disabled":false,"rental_uris":{"android":"levelo://app?vid=ead412e2-1554-4813-90af-b66961f0172f","ios":"levelo://app?vid=ead412e2-1554-4813-90af-b66961f0172f"},"vehicle_type_id":"4","last_reported":1728396636,"current_range_meters":9600,"station_id":"ce4bhnh2rcd13ifvqgtg","pricing_plan_id":"cebpf4jnsgd1na2vs0mg"},{"bike_id":"7ad06205-868a-4802-a1e3-0dc7e4c673d2","system_id":"levelo_inurba_marseille","lat":43.32483,"lon":5.36566,"is_reserved":false,"is_disabled":false,"rental_uris":{"android":"levelo://app?vid=7ad06205-868a-4802-a1e3-0dc7e4c673d2","ios":"levelo://app?vid=7ad06205-868a-4802-a1e3-0dc7e4c673d2"},"vehicle_type_id":"4","last_reported":1728396636,"current_range_meters":30000,"station_id":"ce4bhs12rcd13ifvqhvg","pricing_plan_id":"cebpf4jnsgd1na2vs0mg"},{"bike_id":"19e3f4b5-ae8e-4b4b-8df6-159ed1e0ba17","system_id":"levelo_inurba_marseille","lat":43.30246,"lon":5.40051,"is_reserved":false,"is_disabled":false,"rental_uris":{"android":"levelo://app?vid=19e3f4b5-ae8e-4b4b-8df6-159ed1e0ba17","ios":"levelo://app?vid=19e3f4b5-ae8e-4b4b-8df6-159ed1e0ba17"},"vehicle_type_id":"4","last_reported":1728396636,"current_range_meters":31200,"station_id":"ce4bgvh2rcd13ifvqcs0","pricing_plan_id":"cebpf4jnsgd1na2vs0mg"},{"bike_id":"6ba2c342-a7a1-4c75-b24b-4ba0a6ade0ad","system_id":"levelo_inurba_marseille","lat":43.28154,"lon":5.42648,"is_reserved":false,"is_disabled":false,"rental_uris":{"android":"levelo://app?vid=6ba2c342-a7a1-4c75-b24b-4ba0a6ade0ad","ios":"levelo://app?vid=6ba2c342-a7a1-4c75-b24b-4ba0a6ade0ad"},"vehicle_type_id":"4","last_reported":1728396636,"current_range_meters":12400,"station_id":"ce4bhnh2rcd13ifvqgug","pricing_plan_id":"cebpf4jnsgd1na2vs0mg"},{"bike_id":"38a76496-6edc-49c6-8336-e24f81a96175","system_id":"levelo_inurba_marseille","lat":43.25111,"lon":5.40322,"is_reserved":false,"is_disabled":false,"rental_uris":{"android":"levelo://app?vid=38a76496-6edc-49c6-8336-e24f81a96175","ios":"levelo://app?vid=38a76496-6edc-49c6-8336-e24f81a96175"},"vehicle_type_id":"4","last_reported":1728396636,"current_range_meters":10800,"station_id":"ce4bhlh2rcd13ifvqgig","pricing_plan_id":"cebpf4jnsgd1na2vs0mg"},{"bike_id":"5ffd1d5c-f110-4d1c-881b-a88677adda97","system_id":"levelo_inurba_marseille","lat":43.30249,"lon":5.40051,"is_reserved":false,"is_disabled":false,"rental_uris":{"android":"levelo://app?vid=5ffd1d5c-f110-4d1c-881b-a88677adda97","ios":"levelo://app?vid=5ffd1d5c-f110-4d1c-881b-a88677adda97"},"vehicle_type_id":"4","last_reported":1728396636,"current_range_meters":24800,"station_id":"ce4bgvh2rcd13ifvqcs0","pricing_plan_id":"cebpf4jnsgd1na2vs0mg"},{"bike_id":"031eba1e-cf64-460f-8eea-2184ad210133","system_id":"levelo_inurba_marseille","lat":43.26557,"lon":5.37279,"is_reserved":false,"is_disabled":false,"rental_uris":{"android":"levelo://app?vid=031eba1e-cf64-460f-8eea-2184ad210133","ios":"levelo://app?vid=031eba1e-cf64-460f-8eea-2184ad210133"},"vehicle_type_id":"4","last_reported":1728396636,"current_range_meters":14000,"station_id":"ce4bhg12rcd13ifvqf70","pricing_plan_id":"cebpf4jnsgd1na2vs0mg"},{"bike_id":"8cfbbf4f-80bf-468c-ba5e-5816a94c008a","system_id":"levelo_inurba_marseille","lat":43.30884,"lon":5.39641,"is_reserved":false,"is_disabled":false,"rental_uris":{"android":"levelo://app?vid=8cfbbf4f-80bf-468c-ba5e-5816a94c008a","ios":"levelo://app?vid=8cfbbf4f-80bf-468c-ba5e-5816a94c008a"},"vehicle_type_id":"4","last_reported":1728396636,"current_range_meters":6800,"station_id":"ce4bh012rcd13ifvqcv0","pricing_plan_id":"cebpf4jnsgd1na2vs0mg"},{"bike_id":"f7612392-4f4b-453b-a64c-499de3c2600f","system_id":"levelo_inurba_marseille","lat":43.24168,"lon":5.36389,"is_reserved":false,"is_disabled":false,"rental_uris":{"android":"levelo://app?vid=f7612392-4f4b-453b-a64c-499de3c2600f","ios":"levelo://app?vid=f7612392-4f4b-453b-a64c-499de3c2600f"},"vehicle_type_id":"4","last_reported":1728396636,"current_range_meters":30800,"station_id":"cpo36qri1sfpv3e86is0","pricing_plan_id":"cebpf4jnsgd1na2vs0mg"},{"bike_id":"1ac68b24-638e-4cf6-87c6-af3533b9ec37","system_id":"levelo_inurba_marseille","lat":43.26214,"lon":5.37438,"is_reserved":false,"is_disabled":false,"rental_uris":{"android":"levelo://app?vid=1ac68b24-638e-4cf6-87c6-af3533b9ec37","ios":"levelo://app?vid=1ac68b24-638e-4cf6-87c6-af3533b9ec37"},"vehicle_type_id":"4","last_reported":1728396636,"current_range_meters":27200,"station_id":"ce4bhgp2rcd13ifvqfc0","pricing_plan_id":"cebpf4jnsgd1na2vs0mg"},{"bike_id":"ba49c431-49f3-4906-bed0-700a2eaf1b22","system_id":"levelo_inurba_marseille","lat":43.26953,"lon":5.3862,"is_reserved":false,"is_disabled":false,"rental_uris":{"android":"levelo://app?vid=ba49c431-49f3-4906-bed0-700a2eaf1b22","ios":"levelo://app?vid=ba49c431-49f3-4906-bed0-700a2eaf1b22"},"vehicle_type_id":"4","last_reported":1728396636,"current_range_meters":38800,"station_id":"ce4bhh92rcd13ifvqfh0","pricing_plan_id":"cebpf4jnsgd1na2vs0mg"},{"bike_id":"41c9fdb8-fe00-4b88-abd8-9ed1f3551cdf","system_id":"levelo_inurba_marseille","lat":43.28075,"lon":5.39655,"is_reserved":false,"is_disabled":false,"rental_uris":{"android":"levelo://app?vid=41c9fdb8-fe00-4b88-abd8-9ed1f3551cdf","ios":"levelo://app?vid=41c9fdb8-fe00-4b88-abd8-9ed1f3551cdf"},"vehicle_type_id":"4","last_reported":1728396636,"current_range_meters":38000,"station_id":"ce4bho12rcd13ifvqh2g","pricing_plan_id":"cebpf4jnsgd1na2vs0mg"},{"bike_id":"aa704487-dbbb-4b32-851e-1ce314d1cfa2","system_id":"levelo_inurba_marseille","lat":43.26553,"lon":5.37282,"is_reserved":false,"is_disabled":false,"rental_uris":{"android":"levelo://app?vid=aa704487-dbbb-4b32-851e-1ce314d1cfa2","ios":"levelo://app?vid=aa704487-dbbb-4b32-851e-1ce314d1cfa2"},"vehicle_type_id":"4","last_reported":1728396636,"current_range_meters":27600,"station_id":"ce4bhg12rcd13ifvqf70","pricing_plan_id":"cebpf4jnsgd1na2vs0mg"},{"bike_id":"ef13235d-8214-4395-ab09-7a42b5ade229","system_id":"levelo_inurba_marseille","lat":43.31348,"lon":5.36722,"is_reserved":false,"is_disabled":false,"rental_uris":{"android":"levelo://app?vid=ef13235d-8214-4395-ab09-7a42b5ade229","ios":"levelo://app?vid=ef13235d-8214-4395-ab09-7a42b5ade229"},"vehicle_type_id":"4","last_reported":1728396636,"current_range_meters":17200,"station_id":"ce4bgr92rcd13ifvqc6g","pricing_plan_id":"cebpf4jnsgd1na2vs0mg"},{"bike_id":"01c29f55-9891-4bf6-b457-0ca8c223bf4a","system_id":"levelo_inurba_marseille","lat":43.29601,"lon":5.38116,"is_reserved":false,"is_disabled":false,"rental_uris":{"android":"levelo://app?vid=01c29f55-9891-4bf6-b457-0ca8c223bf4a","ios":"levelo://app?vid=01c29f55-9891-4bf6-b457-0ca8c223bf4a"},"vehicle_type_id":"4","last_reported":1728396636,"current_range_meters":32800,"station_id":"ce4bgl12rcd13ifvqbo0","pricing_plan_id":"cebpf4jnsgd1na2vs0mg"},{"bike_id":"2313264a-7800-4fbf-8da6-4131c6053cfd","system_id":"levelo_inurba_marseille","lat":43.278595,"lon":5.387883,"is_reserved":false,"is_disabled":false,"rental_uris":{"android":"levelo://app?vid=2313264a-7800-4fbf-8da6-4131c6053cfd","ios":"levelo://app?vid=2313264a-7800-4fbf-8da6-4131c6053cfd"},"vehicle_type_id":"4","last_reported":1728396636,"current_range_meters":22800,"station_id":"ce4bgup2rcd13ifvqcn0","pricing_plan_id":"cebpf4jnsgd1na2vs0mg"},{"bike_id":"bb1b6213-2180-49df-b65d-f3f160c3052b","system_id":"levelo_inurba_marseille","lat":43.28267,"lon":5.35062,"is_reserved":false,"is_disabled":false,"rental_uris":{"android":"levelo://app?vid=bb1b6213-2180-49df-b65d-f3f160c3052b","ios":"levelo://app?vid=bb1b6213-2180-49df-b65d-f3f160c3052b"},"vehicle_type_id":"4","last_reported":1728396636,"current_range_meters":27600,"station_id":"ce4bhbp2rcd13ifvqerg","pricing_plan_id":"cebpf4jnsgd1na2vs0mg"},{"bike_id":"300f54cf-901c-4735-81dc-169e5609836a","system_id":"levelo_inurba_marseille","lat":43.25117,"lon":5.4032,"is_reserved":false,"is_disabled":false,"rental_uris":{"android":"levelo://app?vid=300f54cf-901c-4735-81dc-169e5609836a","ios":"levelo://app?vid=300f54cf-901c-4735-81dc-169e5609836a"},"vehicle_type_id":"4","last_reported":1728396636,"current_range_meters":5600,"station_id":"ce4bhlh2rcd13ifvqgig","pricing_plan_id":"cebpf4jnsgd1na2vs0mg"},{"bike_id":"0a8ccba5-237d-43b9-a077-96384e616267","system_id":"levelo_inurba_marseille","lat":43.25929,"lon":5.40898,"is_reserved":false,"is_disabled":false,"rental_uris":{"android":"levelo://app?vid=0a8ccba5-237d-43b9-a077-96384e616267","ios":"levelo://app?vid=0a8ccba5-237d-43b9-a077-96384e616267"},"vehicle_type_id":"4","last_reported":1728396636,"current_range_meters":22000,"station_id":"ce4bhm92rcd13ifvqglg","pricing_plan_id":"cebpf4jnsgd1na2vs0mg"},{"bike_id":"44a99ac9-d5e2-477f-a632-d642f166b9fc","system_id":"levelo_inurba_marseille","lat":43.29035,"lon":5.38663,"is_reserved":false,"is_disabled":false,"rental_uris":{"android":"levelo://app?vid=44a99ac9-d5e2-477f-a632-d642f166b9fc","ios":"levelo://app?vid=44a99ac9-d5e2-477f-a632-d642f166b9fc"},"vehicle_type_id":"4","last_reported":1728396636,"current_range_meters":29600,"station_id":"ce4bh4p2rcd13ifvqe0g","pricing_plan_id":"cebpf4jnsgd1na2vs0mg"},{"bike_id":"ce449568-e4ab-41fb-bcc4-85ab8033ee11","system_id":"levelo_inurba_marseille","lat":43.29921,"lon":5.38183,"is_reserved":false,"is_disabled":false,"rental_uris":{"android":"levelo://app?vid=ce449568-e4ab-41fb-bcc4-85ab8033ee11","ios":"levelo://app?vid=ce449568-e4ab-41fb-bcc4-85ab8033ee11"},"vehicle_type_id":"4","last_reported":1728396636,"current_range_meters":19200,"station_id":"ce4bgj12rcd13ifvqbc0","pricing_plan_id":"cebpf4jnsgd1na2vs0mg"},{"bike_id":"9100748c-eeab-4374-80fa-b91bbf693e35","system_id":"levelo_inurba_marseille","lat":43.29973,"lon":5.37175,"is_reserved":false,"is_disabled":false,"rental_uris":{"android":"levelo://app?vid=9100748c-eeab-4374-80fa-b91bbf693e35","ios":"levelo://app?vid=9100748c-eeab-4374-80fa-b91bbf693e35"},"vehicle_type_id":"4","last_reported":1728396636,"current_range_meters":36400,"station_id":"ce4bgr92rcd13ifvqc7g","pricing_plan_id":"cebpf4jnsgd1na2vs0mg"},{"bike_id":"cf927195-cafe-4fe6-8a9b-b503bf9be2b0","system_id":"levelo_inurba_marseille","lat":43.23186,"lon":5.3998,"is_reserved":false,"is_disabled":false,"rental_uris":{"android":"levelo://app?vid=cf927195-cafe-4fe6-8a9b-b503bf9be2b0","ios":"levelo://app?vid=cf927195-cafe-4fe6-8a9b-b503bf9be2b0"},"vehicle_type_id":"4","last_reported":1728396636,"current_range_meters":36400,"station_id":"ce4bhn12rcd13ifvqgqg","pricing_plan_id":"cebpf4jnsgd1na2vs0mg"},{"bike_id":"8a003b6d-3bea-4049-a6ee-155ddc961d5b","system_id":"levelo_inurba_marseille","lat":43.28273,"lon":5.35055,"is_reserved":false,"is_disabled":false,"rental_uris":{"android":"levelo://app?vid=8a003b6d-3bea-4049-a6ee-155ddc961d5b","ios":"levelo://app?vid=8a003b6d-3bea-4049-a6ee-155ddc961d5b"},"vehicle_type_id":"4","last_reported":1728396636,"current_range_meters":13600,"station_id":"ce4bhbp2rcd13ifvqerg","pricing_plan_id":"cebpf4jnsgd1na2vs0mg"},{"bike_id":"47d5a9c0-2c62-4cce-a497-70cd8b4916cb","system_id":"levelo_inurba_marseille","lat":43.31344,"lon":5.36712,"is_reserved":false,"is_disabled":false,"rental_uris":{"android":"levelo://app?vid=47d5a9c0-2c62-4cce-a497-70cd8b4916cb","ios":"levelo://app?vid=47d5a9c0-2c62-4cce-a497-70cd8b4916cb"},"vehicle_type_id":"4","last_reported":1728396636,"current_range_meters":7200,"station_id":"ce4bgr92rcd13ifvqc6g","pricing_plan_id":"cebpf4jnsgd1na2vs0mg"},{"bike_id":"22942128-eccb-447c-a404-8ab36ea27ffe","system_id":"levelo_inurba_marseille","lat":43.2594,"lon":5.40903,"is_reserved":false,"is_disabled":false,"rental_uris":{"android":"levelo://app?vid=22942128-eccb-447c-a404-8ab36ea27ffe","ios":"levelo://app?vid=22942128-eccb-447c-a404-8ab36ea27ffe"},"vehicle_type_id":"4","last_reported":1728396636,"current_range_meters":37600,"station_id":"ce4bhm92rcd13ifvqglg","pricing_plan_id":"cebpf4jnsgd1na2vs0mg"},{"bike_id":"542404d0-7ad8-4d88-9837-14b7ea9cdc5a","system_id":"levelo_inurba_marseille","lat":43.31709,"lon":5.437,"is_reserved":false,"is_disabled":false,"rental_uris":{"android":"levelo://app?vid=542404d0-7ad8-4d88-9837-14b7ea9cdc5a","ios":"levelo://app?vid=542404d0-7ad8-4d88-9837-14b7ea9cdc5a"},"vehicle_type_id":"4","last_reported":1728396636,"current_range_meters":37600,"station_id":"ce4bhp92rcd13ifvqhcg","pricing_plan_id":"cebpf4jnsgd1na2vs0mg"},{"bike_id":"0f09949b-7881-457a-a689-7d06ea884778","system_id":"levelo_inurba_marseille","lat":43.29983,"lon":5.37173,"is_reserved":false,"is_disabled":false,"rental_uris":{"android":"levelo://app?vid=0f09949b-7881-457a-a689-7d06ea884778","ios":"levelo://app?vid=0f09949b-7881-457a-a689-7d06ea884778"},"vehicle_type_id":"4","last_reported":1728396636,"current_range_meters":36800,"station_id":"ce4bgr92rcd13ifvqc7g","pricing_plan_id":"cebpf4jnsgd1na2vs0mg"},{"bike_id":"554756f8-6f7e-4af1-8882-1f32f7e0cf48","system_id":"levelo_inurba_marseille","lat":43.32044,"lon":5.41546,"is_reserved":false,"is_disabled":false,"rental_uris":{"android":"levelo://app?vid=554756f8-6f7e-4af1-8882-1f32f7e0cf48","ios":"levelo://app?vid=554756f8-6f7e-4af1-8882-1f32f7e0cf48"},"vehicle_type_id":"4","last_reported":1728396636,"current_range_meters":12800,"station_id":"ce4bhq92rcd13ifvqhkg","pricing_plan_id":"cebpf4jnsgd1na2vs0mg"},{"bike_id":"6731d1b1-b391-47f7-84a2-e5222ded00d2","system_id":"levelo_inurba_marseille","lat":43.3302,"lon":5.39035,"is_reserved":false,"is_disabled":false,"rental_uris":{"android":"levelo://app?vid=6731d1b1-b391-47f7-84a2-e5222ded00d2","ios":"levelo://app?vid=6731d1b1-b391-47f7-84a2-e5222ded00d2"},"vehicle_type_id":"4","last_reported":1728396636,"current_range_meters":25200,"station_id":"ce4bhr92rcd13ifvqhrg","pricing_plan_id":"cebpf4jnsgd1na2vs0mg"},{"bike_id":"0b48fe96-5a73-4eb1-a1e0-ff84cc376fde","system_id":"levelo_inurba_marseille","lat":43.25495,"lon":5.3765,"is_reserved":false,"is_disabled":false,"rental_uris":{"android":"levelo://app?vid=0b48fe96-5a73-4eb1-a1e0-ff84cc376fde","ios":"levelo://app?vid=0b48fe96-5a73-4eb1-a1e0-ff84cc376fde"},"vehicle_type_id":"4","last_reported":1728396636,"current_range_meters":30400,"station_id":"ce4bhh12rcd13ifvqff0","pricing_plan_id":"cebpf4jnsgd1na2vs0mg"},{"bike_id":"39585e24-9284-4558-bd63-27a4a9dd3a64","system_id":"levelo_inurba_marseille","lat":43.25578,"lon":5.38235,"is_reserved":false,"is_disabled":false,"rental_uris":{"android":"levelo://app?vid=39585e24-9284-4558-bd63-27a4a9dd3a64","ios":"levelo://app?vid=39585e24-9284-4558-bd63-27a4a9dd3a64"},"vehicle_type_id":"4","last_reported":1728396636,"current_range_meters":15200,"station_id":"ce4bhih2rcd13ifvqfs0","pricing_plan_id":"cebpf4jnsgd1na2vs0mg"},{"bike_id":"2daa0c02-4ad6-4aec-8adf-88d1beaca6a2","system_id":"levelo_inurba_marseille","lat":43.24069,"lon":5.37758,"is_reserved":false,"is_disabled":false,"rental_uris":{"android":"levelo://app?vid=2daa0c02-4ad6-4aec-8adf-88d1beaca6a2","ios":"levelo://app?vid=2daa0c02-4ad6-4aec-8adf-88d1beaca6a2"},"vehicle_type_id":"4","last_reported":1728396636,"current_range_meters":30000,"station_id":"ce4bhnp2rcd13ifvqgvg","pricing_plan_id":"cebpf4jnsgd1na2vs0mg"},{"bike_id":"6afb0010-d391-4880-9faa-69f2f1fa4f4a","system_id":"levelo_inurba_marseille","lat":43.253296,"lon":5.394583,"is_reserved":false,"is_disabled":false,"rental_uris":{"android":"levelo://app?vid=6afb0010-d391-4880-9faa-69f2f1fa4f4a","ios":"levelo://app?vid=6afb0010-d391-4880-9faa-69f2f1fa4f4a"},"vehicle_type_id":"4","last_reported":1728396636,"current_range_meters":37600,"station_id":"ce4bhih2rcd13ifvqfs0","pricing_plan_id":"cebpf4jnsgd1na2vs0mg"},{"bike_id":"c3985243-2841-469e-8de6-d80890e33070","system_id":"levelo_inurba_marseille","lat":43.30907,"lon":5.36845,"is_reserved":false,"is_disabled":false,"rental_uris":{"android":"levelo://app?vid=c3985243-2841-469e-8de6-d80890e33070","ios":"levelo://app?vid=c3985243-2841-469e-8de6-d80890e33070"},"vehicle_type_id":"4","last_reported":1728396636,"current_range_meters":28800,"station_id":"ce4bgn92rcd13ifvqbvg","pricing_plan_id":"cebpf4jnsgd1na2vs0mg"},{"bike_id":"e0f72ac0-1c4a-45bd-919a-50a9c9d32d2c","system_id":"levelo_inurba_marseille","lat":43.24547,"lon":5.39523,"is_reserved":false,"is_disabled":false,"rental_uris":{"android":"levelo://app?vid=e0f72ac0-1c4a-45bd-919a-50a9c9d32d2c","ios":"levelo://app?vid=e0f72ac0-1c4a-45bd-919a-50a9c9d32d2c"},"vehicle_type_id":"4","last_reported":1728396636,"current_range_meters":11200,"station_id":"ce4bhlp2rcd13ifvqgjg","pricing_plan_id":"cebpf4jnsgd1na2vs0mg"},{"bike_id":"8c57ef0e-a429-4a21-8b4d-70eeecda1108","system_id":"levelo_inurba_marseille","lat":43.25937,"lon":5.40902,"is_reserved":false,"is_disabled":false,"rental_uris":{"android":"levelo://app?vid=8c57ef0e-a429-4a21-8b4d-70eeecda1108","ios":"levelo://app?vid=8c57ef0e-a429-4a21-8b4d-70eeecda1108"},"vehicle_type_id":"4","last_reported":1728396636,"current_range_meters":8800,"station_id":"ce4bhm92rcd13ifvqglg","pricing_plan_id":"cebpf4jnsgd1na2vs0mg"},{"bike_id":"42296bd3-dc78-44b2-a041-37b8cda00ea9","system_id":"levelo_inurba_marseille","lat":43.29628,"lon":5.4059,"is_reserved":false,"is_disabled":false,"rental_uris":{"android":"levelo://app?vid=42296bd3-dc78-44b2-a041-37b8cda00ea9","ios":"levelo://app?vid=42296bd3-dc78-44b2-a041-37b8cda00ea9"},"vehicle_type_id":"4","last_reported":1728396636,"current_range_meters":39200,"station_id":"ce4bh0h2rcd13ifvqd60","pricing_plan_id":"cebpf4jnsgd1na2vs0mg"},{"bike_id":"76d1f583-272f-4a56-8d74-ba151e11a7ef","system_id":"levelo_inurba_marseille","lat":43.25719,"lon":5.41108,"is_reserved":false,"is_disabled":false,"rental_uris":{"android":"levelo://app?vid=76d1f583-272f-4a56-8d74-ba151e11a7ef","ios":"levelo://app?vid=76d1f583-272f-4a56-8d74-ba151e11a7ef"},"vehicle_type_id":"4","last_reported":1728396636,"current_range_meters":36400,"station_id":"ce4bhkp2rcd13ifvqgd0","pricing_plan_id":"cebpf4jnsgd1na2vs0mg"},{"bike_id":"7e1ad20a-7909-471f-9b06-9e653d4b1949","system_id":"levelo_inurba_marseille","lat":43.30649,"lon":5.40092,"is_reserved":false,"is_disabled":false,"rental_uris":{"android":"levelo://app?vid=7e1ad20a-7909-471f-9b06-9e653d4b1949","ios":"levelo://app?vid=7e1ad20a-7909-471f-9b06-9e653d4b1949"},"vehicle_type_id":"4","last_reported":1728396636,"current_range_meters":26000,"station_id":"ce4bh112rcd13ifvqda0","pricing_plan_id":"cebpf4jnsgd1na2vs0mg"},{"bike_id":"2b0f66da-8ffa-47b4-82fc-54df73d2a50d","system_id":"levelo_inurba_marseille","lat":43.30419,"lon":5.41277,"is_reserved":false,"is_disabled":false,"rental_uris":{"android":"levelo://app?vid=2b0f66da-8ffa-47b4-82fc-54df73d2a50d","ios":"levelo://app?vid=2b0f66da-8ffa-47b4-82fc-54df73d2a50d"},"vehicle_type_id":"4","last_reported":1728396636,"current_range_meters":29600,"station_id":"ce4bhop2rcd13ifvqh8g","pricing_plan_id":"cebpf4jnsgd1na2vs0mg"},{"bike_id":"c666b088-741b-47f3-8c6f-54a0b9ca708a","system_id":"levelo_inurba_marseille","lat":43.25829,"lon":5.39429,"is_reserved":false,"is_disabled":false,"rental_uris":{"android":"levelo://app?vid=c666b088-741b-47f3-8c6f-54a0b9ca708a","ios":"levelo://app?vid=c666b088-741b-47f3-8c6f-54a0b9ca708a"},"vehicle_type_id":"4","last_reported":1728396636,"current_range_meters":8400,"station_id":"ce4bhip2rcd13ifvqft0","pricing_plan_id":"cebpf4jnsgd1na2vs0mg"},{"bike_id":"f1510c6a-ec9a-4cb6-ba53-8ced3616703a","system_id":"levelo_inurba_marseille","lat":43.32481,"lon":5.36562,"is_reserved":false,"is_disabled":false,"rental_uris":{"android":"levelo://app?vid=f1510c6a-ec9a-4cb6-ba53-8ced3616703a","ios":"levelo://app?vid=f1510c6a-ec9a-4cb6-ba53-8ced3616703a"},"vehicle_type_id":"4","last_reported":1728396636,"current_range_meters":37600,"station_id":"ce4bhs12rcd13ifvqhvg","pricing_plan_id":"cebpf4jnsgd1na2vs0mg"},{"bike_id":"8c5c003b-46b6-4359-9b8e-e1ba157a3771","system_id":"levelo_inurba_marseille","lat":43.29984,"lon":5.38471,"is_reserved":false,"is_disabled":false,"rental_uris":{"android":"levelo://app?vid=8c5c003b-46b6-4359-9b8e-e1ba157a3771","ios":"levelo://app?vid=8c5c003b-46b6-4359-9b8e-e1ba157a3771"},"vehicle_type_id":"4","last_reported":1728396636,"current_range_meters":8000,"station_id":"ce4bgj92rcd13ifvqbd0","pricing_plan_id":"cebpf4jnsgd1na2vs0mg"},{"bike_id":"7a857a21-0bfc-42cc-b6b4-5e1c9e2d5d66","system_id":"levelo_inurba_marseille","lat":43.294556,"lon":5.386724,"is_reserved":false,"is_disabled":false,"rental_uris":{"android":"levelo://app?vid=7a857a21-0bfc-42cc-b6b4-5e1c9e2d5d66","ios":"levelo://app?vid=7a857a21-0bfc-42cc-b6b4-5e1c9e2d5d66"},"vehicle_type_id":"4","last_reported":1728396636,"current_range_meters":30000,"station_id":"ce4bh2h2rcd13ifvqdh0","pricing_plan_id":"cebpf4jnsgd1na2vs0mg"},{"bike_id":"e9a6752d-34d4-4012-b80c-635acec3a501","system_id":"levelo_inurba_marseille","lat":43.25109,"lon":5.40318,"is_reserved":false,"is_disabled":false,"rental_uris":{"android":"levelo://app?vid=e9a6752d-34d4-4012-b80c-635acec3a501","ios":"levelo://app?vid=e9a6752d-34d4-4012-b80c-635acec3a501"},"vehicle_type_id":"4","last_reported":1728396636,"current_range_meters":25200,"station_id":"ce4bhlh2rcd13ifvqgig","pricing_plan_id":"cebpf4jnsgd1na2vs0mg"},{"bike_id":"e6d86d2f-929e-412d-b639-89761e6c74e0","system_id":"levelo_inurba_marseille","lat":43.337444,"lon":5.374475,"is_reserved":false,"is_disabled":false,"rental_uris":{"android":"levelo://app?vid=e6d86d2f-929e-412d-b639-89761e6c74e0","ios":"levelo://app?vid=e6d86d2f-929e-412d-b639-89761e6c74e0"},"vehicle_type_id":"4","last_reported":1728396636,"current_range_meters":30000,"station_id":"","pricing_plan_id":"cebpf4jnsgd1na2vs0mg"},{"bike_id":"c796f2d4-3bc9-4750-897d-524f0497017c","system_id":"levelo_inurba_marseille","lat":43.23965,"lon":5.36624,"is_reserved":false,"is_disabled":false,"rental_uris":{"android":"levelo://app?vid=c796f2d4-3bc9-4750-897d-524f0497017c","ios":"levelo://app?vid=c796f2d4-3bc9-4750-897d-524f0497017c"},"vehicle_type_id":"4","last_reported":1728396636,"current_range_meters":3600,"station_id":"ce4bhi12rcd13ifvqfp0","pricing_plan_id":"cebpf4jnsgd1na2vs0mg"},{"bike_id":"2bc8224e-64f6-45f5-a13f-e383a4583002","system_id":"levelo_inurba_marseille","lat":43.32331,"lon":5.40612,"is_reserved":false,"is_disabled":false,"rental_uris":{"android":"levelo://app?vid=2bc8224e-64f6-45f5-a13f-e383a4583002","ios":"levelo://app?vid=2bc8224e-64f6-45f5-a13f-e383a4583002"},"vehicle_type_id":"4","last_reported":1728396636,"current_range_meters":24400,"station_id":"ce4bhq92rcd13ifvqhjg","pricing_plan_id":"cebpf4jnsgd1na2vs0mg"},{"bike_id":"fcc2e6f3-c1ba-491b-b3b8-03d530dad016","system_id":"levelo_inurba_marseille","lat":43.30542,"lon":5.36524,"is_reserved":false,"is_disabled":false,"rental_uris":{"android":"levelo://app?vid=fcc2e6f3-c1ba-491b-b3b8-03d530dad016","ios":"levelo://app?vid=fcc2e6f3-c1ba-491b-b3b8-03d530dad016"},"vehicle_type_id":"4","last_reported":1728396636,"current_range_meters":20800,"station_id":"ce4bgs12rcd13ifvqcag","pricing_plan_id":"cebpf4jnsgd1na2vs0mg"},{"bike_id":"70de97d8-7606-4848-bf6d-7008ff3b0283","system_id":"levelo_inurba_marseille","lat":43.24071,"lon":5.37759,"is_reserved":false,"is_disabled":false,"rental_uris":{"android":"levelo://app?vid=70de97d8-7606-4848-bf6d-7008ff3b0283","ios":"levelo://app?vid=70de97d8-7606-4848-bf6d-7008ff3b0283"},"vehicle_type_id":"4","last_reported":1728396636,"current_range_meters":33200,"station_id":"ce4bhnp2rcd13ifvqgvg","pricing_plan_id":"cebpf4jnsgd1na2vs0mg"},{"bike_id":"c711849a-42fb-4ced-9766-3e10a09e0c75","system_id":"levelo_inurba_marseille","lat":43.30933,"lon":5.40136,"is_reserved":false,"is_disabled":false,"rental_uris":{"android":"levelo://app?vid=c711849a-42fb-4ced-9766-3e10a09e0c75","ios":"levelo://app?vid=c711849a-42fb-4ced-9766-3e10a09e0c75"},"vehicle_type_id":"4","last_reported":1728396636,"current_range_meters":30800,"station_id":"ce4bgvp2rcd13ifvqct0","pricing_plan_id":"cebpf4jnsgd1na2vs0mg"},{"bike_id":"7a284141-427f-4b3a-b279-a9138bc649ca","system_id":"levelo_inurba_marseille","lat":43.33024,"lon":5.39041,"is_reserved":false,"is_disabled":false,"rental_uris":{"android":"levelo://app?vid=7a284141-427f-4b3a-b279-a9138bc649ca","ios":"levelo://app?vid=7a284141-427f-4b3a-b279-a9138bc649ca"},"vehicle_type_id":"4","last_reported":1728396636,"current_range_meters":36800,"station_id":"ce4bhr92rcd13ifvqhrg","pricing_plan_id":"cebpf4jnsgd1na2vs0mg"},{"bike_id":"c190b4a1-ea1d-47e2-b2e8-eefa3099f9cc","system_id":"levelo_inurba_marseille","lat":43.23193,"lon":5.35551,"is_reserved":false,"is_disabled":false,"rental_uris":{"android":"levelo://app?vid=c190b4a1-ea1d-47e2-b2e8-eefa3099f9cc","ios":"levelo://app?vid=c190b4a1-ea1d-47e2-b2e8-eefa3099f9cc"},"vehicle_type_id":"4","last_reported":1728396636,"current_range_meters":35600,"station_id":"ce4bhu92rcd13ifvqi70","pricing_plan_id":"cebpf4jnsgd1na2vs0mg"},{"bike_id":"6f34ba66-dc7e-4580-ad03-13f9f6e9f96e","system_id":"levelo_inurba_marseille","lat":43.3248,"lon":5.36563,"is_reserved":false,"is_disabled":false,"rental_uris":{"android":"levelo://app?vid=6f34ba66-dc7e-4580-ad03-13f9f6e9f96e","ios":"levelo://app?vid=6f34ba66-dc7e-4580-ad03-13f9f6e9f96e"},"vehicle_type_id":"4","last_reported":1728396636,"current_range_meters":38400,"station_id":"ce4bhs12rcd13ifvqhvg","pricing_plan_id":"cebpf4jnsgd1na2vs0mg"},{"bike_id":"ff5ba5ff-b9bc-44eb-9be7-e35bd733d917","system_id":"levelo_inurba_marseille","lat":43.24169,"lon":5.36396,"is_reserved":false,"is_disabled":false,"rental_uris":{"android":"levelo://app?vid=ff5ba5ff-b9bc-44eb-9be7-e35bd733d917","ios":"levelo://app?vid=ff5ba5ff-b9bc-44eb-9be7-e35bd733d917"},"vehicle_type_id":"4","last_reported":1728396636,"current_range_meters":36800,"station_id":"cpo36qri1sfpv3e86is0","pricing_plan_id":"cebpf4jnsgd1na2vs0mg"},{"bike_id":"1d6fe866-e5a6-4cae-9c9a-6f55815c6cc1","system_id":"levelo_inurba_marseille","lat":43.31225,"lon":5.36849,"is_reserved":false,"is_disabled":false,"rental_uris":{"android":"levelo://app?vid=1d6fe866-e5a6-4cae-9c9a-6f55815c6cc1","ios":"levelo://app?vid=1d6fe866-e5a6-4cae-9c9a-6f55815c6cc1"},"vehicle_type_id":"4","last_reported":1728396636,"current_range_meters":30400,"station_id":"ce4bgl92rcd13ifvqbq0","pricing_plan_id":"cebpf4jnsgd1na2vs0mg"},{"bike_id":"2a75358c-c53d-4d85-b84f-ba43cbf3d3c3","system_id":"levelo_inurba_marseille","lat":43.337444,"lon":5.374475,"is_reserved":false,"is_disabled":false,"rental_uris":{"android":"levelo://app?vid=2a75358c-c53d-4d85-b84f-ba43cbf3d3c3","ios":"levelo://app?vid=2a75358c-c53d-4d85-b84f-ba43cbf3d3c3"},"vehicle_type_id":"4","last_reported":1728396636,"current_range_meters":36800,"station_id":"","pricing_plan_id":"cebpf4jnsgd1na2vs0mg"},{"bike_id":"59abd995-2d0a-4497-ba48-75c0aea03333","system_id":"levelo_inurba_marseille","lat":43.30882,"lon":5.39643,"is_reserved":false,"is_disabled":false,"rental_uris":{"android":"levelo://app?vid=59abd995-2d0a-4497-ba48-75c0aea03333","ios":"levelo://app?vid=59abd995-2d0a-4497-ba48-75c0aea03333"},"vehicle_type_id":"4","last_reported":1728396636,"current_range_meters":30000,"station_id":"ce4bh012rcd13ifvqcv0","pricing_plan_id":"cebpf4jnsgd1na2vs0mg"},{"bike_id":"74352523-fc79-427a-86a6-ae3fd512dbc6","system_id":"levelo_inurba_marseille","lat":43.24078,"lon":5.37736,"is_reserved":false,"is_disabled":false,"rental_uris":{"android":"levelo://app?vid=74352523-fc79-427a-86a6-ae3fd512dbc6","ios":"levelo://app?vid=74352523-fc79-427a-86a6-ae3fd512dbc6"},"vehicle_type_id":"4","last_reported":1728396636,"current_range_meters":16800,"station_id":"ce4bhnp2rcd13ifvqgvg","pricing_plan_id":"cebpf4jnsgd1na2vs0mg"},{"bike_id":"f70ea160-3b75-4edf-b11e-acfe22f8eda9","system_id":"levelo_inurba_marseille","lat":43.24178,"lon":5.39726,"is_reserved":false,"is_disabled":false,"rental_uris":{"android":"levelo://app?vid=f70ea160-3b75-4edf-b11e-acfe22f8eda9","ios":"levelo://app?vid=f70ea160-3b75-4edf-b11e-acfe22f8eda9"},"vehicle_type_id":"4","last_reported":1728396636,"current_range_meters":35200,"station_id":"ce4bhn12rcd13ifvqgpg","pricing_plan_id":"cebpf4jnsgd1na2vs0mg"},{"bike_id":"198221ae-bf5a-430b-876d-959e1c71dcca","system_id":"levelo_inurba_marseille","lat":43.30433,"lon":5.39753,"is_reserved":false,"is_disabled":false,"rental_uris":{"android":"levelo://app?vid=198221ae-bf5a-430b-876d-959e1c71dcca","ios":"levelo://app?vid=198221ae-bf5a-430b-876d-959e1c71dcca"},"vehicle_type_id":"4","last_reported":1728396636,"current_range_meters":3600,"station_id":"ce4bh092rcd13ifvqd20","pricing_plan_id":"cebpf4jnsgd1na2vs0mg"},{"bike_id":"74d9a3c9-96b5-4dbf-b3c3-81ef3a14d238","system_id":"levelo_inurba_marseille","lat":43.23149,"lon":5.4372,"is_reserved":false,"is_disabled":false,"rental_uris":{"android":"levelo://app?vid=74d9a3c9-96b5-4dbf-b3c3-81ef3a14d238","ios":"levelo://app?vid=74d9a3c9-96b5-4dbf-b3c3-81ef3a14d238"},"vehicle_type_id":"4","last_reported":1728396636,"current_range_meters":7200,"station_id":"ce4bhmp2rcd13ifvqgog","pricing_plan_id":"cebpf4jnsgd1na2vs0mg"},{"bike_id":"3c372c91-2c1d-4e56-8813-0b94655503a7","system_id":"levelo_inurba_marseille","lat":43.29976,"lon":5.37171,"is_reserved":false,"is_disabled":false,"rental_uris":{"android":"levelo://app?vid=3c372c91-2c1d-4e56-8813-0b94655503a7","ios":"levelo://app?vid=3c372c91-2c1d-4e56-8813-0b94655503a7"},"vehicle_type_id":"4","last_reported":1728396636,"current_range_meters":38800,"station_id":"ce4bgr92rcd13ifvqc7g","pricing_plan_id":"cebpf4jnsgd1na2vs0mg"},{"bike_id":"e42026bc-1eaf-4ab0-8872-58fafaf9f081","system_id":"levelo_inurba_marseille","lat":43.27057,"lon":5.40257,"is_reserved":false,"is_disabled":false,"rental_uris":{"android":"levelo://app?vid=e42026bc-1eaf-4ab0-8872-58fafaf9f081","ios":"levelo://app?vid=e42026bc-1eaf-4ab0-8872-58fafaf9f081"},"vehicle_type_id":"4","last_reported":1728396636,"current_range_meters":32000,"station_id":"ce4bhk92rcd13ifvqgc0","pricing_plan_id":"cebpf4jnsgd1na2vs0mg"},{"bike_id":"35037166-b750-4404-b126-abdb2a4ef364","system_id":"levelo_inurba_marseille","lat":43.31066,"lon":5.38351,"is_reserved":false,"is_disabled":false,"rental_uris":{"android":"levelo://app?vid=35037166-b750-4404-b126-abdb2a4ef364","ios":"levelo://app?vid=35037166-b750-4404-b126-abdb2a4ef364"},"vehicle_type_id":"4","last_reported":1728396636,"current_range_meters":38800,"station_id":"ce4bgv92rcd13ifvqcr0","pricing_plan_id":"cebpf4jnsgd1na2vs0mg"},{"bike_id":"5ac37687-3953-4e87-ab18-4615269211df","system_id":"levelo_inurba_marseille","lat":43.29622,"lon":5.37161,"is_reserved":false,"is_disabled":false,"rental_uris":{"android":"levelo://app?vid=5ac37687-3953-4e87-ab18-4615269211df","ios":"levelo://app?vid=5ac37687-3953-4e87-ab18-4615269211df"},"vehicle_type_id":"4","last_reported":1728396636,"current_range_meters":32400,"station_id":"ce4bgnh2rcd13ifvqc0g","pricing_plan_id":"cebpf4jnsgd1na2vs0mg"},{"bike_id":"dafbe001-ebbb-4e98-b3d7-c871b5fc47e0","system_id":"levelo_inurba_marseille","lat":43.313407,"lon":5.36719,"is_reserved":false,"is_disabled":false,"rental_uris":{"android":"levelo://app?vid=dafbe001-ebbb-4e98-b3d7-c871b5fc47e0","ios":"levelo://app?vid=dafbe001-ebbb-4e98-b3d7-c871b5fc47e0"},"vehicle_type_id":"4","last_reported":1728396636,"current_range_meters":30000,"station_id":"ce4bgr92rcd13ifvqc6g","pricing_plan_id":"cebpf4jnsgd1na2vs0mg"},{"bike_id":"b3874c75-d29f-4443-bca5-9e092c153fc1","system_id":"levelo_inurba_marseille","lat":43.29366,"lon":5.37851,"is_reserved":false,"is_disabled":false,"rental_uris":{"android":"levelo://app?vid=b3874c75-d29f-4443-bca5-9e092c153fc1","ios":"levelo://app?vid=b3874c75-d29f-4443-bca5-9e092c153fc1"},"vehicle_type_id":"4","last_reported":1728396636,"current_range_meters":20800,"station_id":"ce4bgjh2rcd13ifvqbf0","pricing_plan_id":"cebpf4jnsgd1na2vs0mg"},{"bike_id":"79f12c1b-c99b-408b-b988-55b5506dd72b","system_id":"levelo_inurba_marseille","lat":43.30327,"lon":5.40436,"is_reserved":false,"is_disabled":false,"rental_uris":{"android":"levelo://app?vid=79f12c1b-c99b-408b-b988-55b5506dd72b","ios":"levelo://app?vid=79f12c1b-c99b-408b-b988-55b5506dd72b"},"vehicle_type_id":"4","last_reported":1728396636,"current_range_meters":38000,"station_id":"ce4bh012rcd13ifvqd10","pricing_plan_id":"cebpf4jnsgd1na2vs0mg"},{"bike_id":"f25cebb0-0412-47dc-8099-c1a18e123a0b","system_id":"levelo_inurba_marseille","lat":43.24801,"lon":5.3745,"is_reserved":false,"is_disabled":false,"rental_uris":{"android":"levelo://app?vid=f25cebb0-0412-47dc-8099-c1a18e123a0b","ios":"levelo://app?vid=f25cebb0-0412-47dc-8099-c1a18e123a0b"},"vehicle_type_id":"4","last_reported":1728396636,"current_range_meters":36400,"station_id":"ce4bhgh2rcd13ifvqfb0","pricing_plan_id":"cebpf4jnsgd1na2vs0mg"},{"bike_id":"669fe7e6-124f-4e15-b926-4fdbc66bdd5c","system_id":"levelo_inurba_marseille","lat":43.29601,"lon":5.381,"is_reserved":false,"is_disabled":false,"rental_uris":{"android":"levelo://app?vid=669fe7e6-124f-4e15-b926-4fdbc66bdd5c","ios":"levelo://app?vid=669fe7e6-124f-4e15-b926-4fdbc66bdd5c"},"vehicle_type_id":"4","last_reported":1728396636,"current_range_meters":24400,"station_id":"ce4bgl12rcd13ifvqbo0","pricing_plan_id":"cebpf4jnsgd1na2vs0mg"},{"bike_id":"7835ccc4-dc46-4842-84a8-a5c2e837c5e6","system_id":"levelo_inurba_marseille","lat":43.26035,"lon":5.3755,"is_reserved":false,"is_disabled":false,"rental_uris":{"android":"levelo://app?vid=7835ccc4-dc46-4842-84a8-a5c2e837c5e6","ios":"levelo://app?vid=7835ccc4-dc46-4842-84a8-a5c2e837c5e6"},"vehicle_type_id":"4","last_reported":1728396636,"current_range_meters":38800,"station_id":"ce4bhgh2rcd13ifvqfa0","pricing_plan_id":"cebpf4jnsgd1na2vs0mg"},{"bike_id":"89323adc-67ad-479c-bd6d-b95120522de9","system_id":"levelo_inurba_marseille","lat":43.28724,"lon":5.36094,"is_reserved":false,"is_disabled":false,"rental_uris":{"android":"levelo://app?vid=89323adc-67ad-479c-bd6d-b95120522de9","ios":"levelo://app?vid=89323adc-67ad-479c-bd6d-b95120522de9"},"vehicle_type_id":"4","last_reported":1728396636,"current_range_meters":38800,"station_id":"cki0cbj6b192h4jlfktg","pricing_plan_id":"cebpf4jnsgd1na2vs0mg"},{"bike_id":"a732333a-7b31-4190-ba26-a02f954b54de","system_id":"levelo_inurba_marseille","lat":43.28269,"lon":5.35064,"is_reserved":false,"is_disabled":false,"rental_uris":{"android":"levelo://app?vid=a732333a-7b31-4190-ba26-a02f954b54de","ios":"levelo://app?vid=a732333a-7b31-4190-ba26-a02f954b54de"},"vehicle_type_id":"4","last_reported":1728396636,"current_range_meters":33200,"station_id":"ce4bhbp2rcd13ifvqerg","pricing_plan_id":"cebpf4jnsgd1na2vs0mg"},{"bike_id":"9d85e41c-4816-47d9-8874-e536d2d04b83","system_id":"levelo_inurba_marseille","lat":43.30421,"lon":5.39738,"is_reserved":false,"is_disabled":false,"rental_uris":{"android":"levelo://app?vid=9d85e41c-4816-47d9-8874-e536d2d04b83","ios":"levelo://app?vid=9d85e41c-4816-47d9-8874-e536d2d04b83"},"vehicle_type_id":"4","last_reported":1728396636,"current_range_meters":3200,"station_id":"ce4bh092rcd13ifvqd20","pricing_plan_id":"cebpf4jnsgd1na2vs0mg"},{"bike_id":"3ede201e-f410-48bb-b0df-d84845561d0d","system_id":"levelo_inurba_marseille","lat":43.29917,"lon":5.38145,"is_reserved":false,"is_disabled":false,"rental_uris":{"android":"levelo://app?vid=3ede201e-f410-48bb-b0df-d84845561d0d","ios":"levelo://app?vid=3ede201e-f410-48bb-b0df-d84845561d0d"},"vehicle_type_id":"4","last_reported":1728396636,"current_range_meters":6800,"station_id":"ce4bgj12rcd13ifvqbc0","pricing_plan_id":"cebpf4jnsgd1na2vs0mg"},{"bike_id":"b625834a-54ef-4eab-8c9d-e8c85e149a97","system_id":"levelo_inurba_marseille","lat":43.31081,"lon":5.4243,"is_reserved":false,"is_disabled":false,"rental_uris":{"android":"levelo://app?vid=b625834a-54ef-4eab-8c9d-e8c85e149a97","ios":"levelo://app?vid=b625834a-54ef-4eab-8c9d-e8c85e149a97"},"vehicle_type_id":"4","last_reported":1728396636,"current_range_meters":36800,"station_id":"ce4bhp92rcd13ifvqhag","pricing_plan_id":"cebpf4jnsgd1na2vs0mg"},{"bike_id":"87cb76c2-0d61-4527-8d7b-4918ced68e7b","system_id":"levelo_inurba_marseille","lat":43.28868,"lon":5.36634,"is_reserved":false,"is_disabled":false,"rental_uris":{"android":"levelo://app?vid=87cb76c2-0d61-4527-8d7b-4918ced68e7b","ios":"levelo://app?vid=87cb76c2-0d61-4527-8d7b-4918ced68e7b"},"vehicle_type_id":"4","last_reported":1728396636,"current_range_meters":32400,"station_id":"ce4bhbp2rcd13ifvqerg","pricing_plan_id":"cebpf4jnsgd1na2vs0mg"},{"bike_id":"d5c4ef42-f49e-4132-8030-e662853db584","system_id":"levelo_inurba_marseille","lat":43.25582,"lon":5.38234,"is_reserved":false,"is_disabled":false,"rental_uris":{"android":"levelo://app?vid=d5c4ef42-f49e-4132-8030-e662853db584","ios":"levelo://app?vid=d5c4ef42-f49e-4132-8030-e662853db584"},"vehicle_type_id":"4","last_reported":1728396636,"current_range_meters":36000,"station_id":"ce4bhih2rcd13ifvqfs0","pricing_plan_id":"cebpf4jnsgd1na2vs0mg"},{"bike_id":"d4b41b5a-4cec-47fc-8b0f-4ee889ae7964","system_id":"levelo_inurba_marseille","lat":43.31225,"lon":5.36855,"is_reserved":false,"is_disabled":false,"rental_uris":{"android":"levelo://app?vid=d4b41b5a-4cec-47fc-8b0f-4ee889ae7964","ios":"levelo://app?vid=d4b41b5a-4cec-47fc-8b0f-4ee889ae7964"},"vehicle_type_id":"4","last_reported":1728396636,"current_range_meters":28400,"station_id":"ce4bgl92rcd13ifvqbq0","pricing_plan_id":"cebpf4jnsgd1na2vs0mg"},{"bike_id":"a5ed2505-d659-4ba0-aca5-ffd30389ceb2","system_id":"levelo_inurba_marseille","lat":43.25116,"lon":5.40316,"is_reserved":false,"is_disabled":false,"rental_uris":{"android":"levelo://app?vid=a5ed2505-d659-4ba0-aca5-ffd30389ceb2","ios":"levelo://app?vid=a5ed2505-d659-4ba0-aca5-ffd30389ceb2"},"vehicle_type_id":"4","last_reported":1728396636,"current_range_meters":25200,"station_id":"ce4bhlh2rcd13ifvqgig","pricing_plan_id":"cebpf4jnsgd1na2vs0mg"},{"bike_id":"8b2ae2e2-bf8c-4445-8c58-4af37144e487","system_id":"levelo_inurba_marseille","lat":43.32478,"lon":5.36562,"is_reserved":false,"is_disabled":false,"rental_uris":{"android":"levelo://app?vid=8b2ae2e2-bf8c-4445-8c58-4af37144e487","ios":"levelo://app?vid=8b2ae2e2-bf8c-4445-8c58-4af37144e487"},"vehicle_type_id":"4","last_reported":1728396636,"current_range_meters":32000,"station_id":"ce4bhs12rcd13ifvqhvg","pricing_plan_id":"cebpf4jnsgd1na2vs0mg"},{"bike_id":"4ca86201-f70e-42ae-9f2d-4a801abb7fde","system_id":"levelo_inurba_marseille","lat":43.29262,"lon":5.38435,"is_reserved":false,"is_disabled":false,"rental_uris":{"android":"levelo://app?vid=4ca86201-f70e-42ae-9f2d-4a801abb7fde","ios":"levelo://app?vid=4ca86201-f70e-42ae-9f2d-4a801abb7fde"},"vehicle_type_id":"4","last_reported":1728396636,"current_range_meters":39200,"station_id":"ce4bh692rcd13ifvqea0","pricing_plan_id":"cebpf4jnsgd1na2vs0mg"},{"bike_id":"e92face7-55fb-4e4a-8138-742dfb95c034","system_id":"levelo_inurba_marseille","lat":43.29043,"lon":5.39961,"is_reserved":false,"is_disabled":false,"rental_uris":{"android":"levelo://app?vid=e92face7-55fb-4e4a-8138-742dfb95c034","ios":"levelo://app?vid=e92face7-55fb-4e4a-8138-742dfb95c034"},"vehicle_type_id":"4","last_reported":1728396636,"current_range_meters":34000,"station_id":"ce4bh392rcd13ifvqdm0","pricing_plan_id":"cebpf4jnsgd1na2vs0mg"},{"bike_id":"b5225278-db6a-4a13-86d7-81ad47d5e688","system_id":"levelo_inurba_marseille","lat":43.29779,"lon":5.37092,"is_reserved":false,"is_disabled":false,"rental_uris":{"android":"levelo://app?vid=b5225278-db6a-4a13-86d7-81ad47d5e688","ios":"levelo://app?vid=b5225278-db6a-4a13-86d7-81ad47d5e688"},"vehicle_type_id":"4","last_reported":1728396636,"current_range_meters":32800,"station_id":"ce4bgop2rcd13ifvqc1g","pricing_plan_id":"cebpf4jnsgd1na2vs0mg"},{"bike_id":"298e75c5-f6fe-487a-a334-3b4332f91d54","system_id":"levelo_inurba_marseille","lat":43.23964,"lon":5.36635,"is_reserved":false,"is_disabled":false,"rental_uris":{"android":"levelo://app?vid=298e75c5-f6fe-487a-a334-3b4332f91d54","ios":"levelo://app?vid=298e75c5-f6fe-487a-a334-3b4332f91d54"},"vehicle_type_id":"4","last_reported":1728396636,"current_range_meters":18800,"station_id":"ce4bhi12rcd13ifvqfp0","pricing_plan_id":"cebpf4jnsgd1na2vs0mg"},{"bike_id":"1df5ee42-abe1-43a6-bcc0-4f91f00d4eec","system_id":"levelo_inurba_marseille","lat":43.299252,"lon":5.3748,"is_reserved":false,"is_disabled":false,"rental_uris":{"android":"levelo://app?vid=1df5ee42-abe1-43a6-bcc0-4f91f00d4eec","ios":"levelo://app?vid=1df5ee42-abe1-43a6-bcc0-4f91f00d4eec"},"vehicle_type_id":"4","last_reported":1728396636,"current_range_meters":18800,"station_id":"ce4bgjh2rcd13ifvqbg0","pricing_plan_id":"cebpf4jnsgd1na2vs0mg"},{"bike_id":"7441c84f-1c12-42ed-ba31-636a365d72de","system_id":"levelo_inurba_marseille","lat":43.24667,"lon":5.38153,"is_reserved":false,"is_disabled":false,"rental_uris":{"android":"levelo://app?vid=7441c84f-1c12-42ed-ba31-636a365d72de","ios":"levelo://app?vid=7441c84f-1c12-42ed-ba31-636a365d72de"},"vehicle_type_id":"4","last_reported":1728396636,"current_range_meters":36400,"station_id":"ce4bhih2rcd13ifvqfr0","pricing_plan_id":"cebpf4jnsgd1na2vs0mg"},{"bike_id":"21de9f96-534f-4ebe-8746-b9898cf4da65","system_id":"levelo_inurba_marseille","lat":43.29257,"lon":5.38432,"is_reserved":false,"is_disabled":false,"rental_uris":{"android":"levelo://app?vid=21de9f96-534f-4ebe-8746-b9898cf4da65","ios":"levelo://app?vid=21de9f96-534f-4ebe-8746-b9898cf4da65"},"vehicle_type_id":"4","last_reported":1728396636,"current_range_meters":32000,"station_id":"ce4bh692rcd13ifvqea0","pricing_plan_id":"cebpf4jnsgd1na2vs0mg"},{"bike_id":"894b8092-90ad-43ba-92d6-799d1b3569fb","system_id":"levelo_inurba_marseille","lat":43.231445,"lon":5.43724,"is_reserved":false,"is_disabled":false,"rental_uris":{"android":"levelo://app?vid=894b8092-90ad-43ba-92d6-799d1b3569fb","ios":"levelo://app?vid=894b8092-90ad-43ba-92d6-799d1b3569fb"},"vehicle_type_id":"4","last_reported":1728396636,"current_range_meters":36800,"station_id":"ce4bhmp2rcd13ifvqgog","pricing_plan_id":"cebpf4jnsgd1na2vs0mg"},{"bike_id":"79d4ce44-dde0-4856-adfb-9d048612b764","system_id":"levelo_inurba_marseille","lat":43.2417,"lon":5.36397,"is_reserved":false,"is_disabled":false,"rental_uris":{"android":"levelo://app?vid=79d4ce44-dde0-4856-adfb-9d048612b764","ios":"levelo://app?vid=79d4ce44-dde0-4856-adfb-9d048612b764"},"vehicle_type_id":"4","last_reported":1728396636,"current_range_meters":24400,"station_id":"cpo36qri1sfpv3e86is0","pricing_plan_id":"cebpf4jnsgd1na2vs0mg"},{"bike_id":"b33fbfff-3f7d-433e-94fa-6be9c0f53aa7","system_id":"levelo_inurba_marseille","lat":43.29593,"lon":5.38096,"is_reserved":false,"is_disabled":false,"rental_uris":{"android":"levelo://app?vid=b33fbfff-3f7d-433e-94fa-6be9c0f53aa7","ios":"levelo://app?vid=b33fbfff-3f7d-433e-94fa-6be9c0f53aa7"},"vehicle_type_id":"4","last_reported":1728396636,"current_range_meters":19600,"station_id":"ce4bgl12rcd13ifvqbo0","pricing_plan_id":"cebpf4jnsgd1na2vs0mg"},{"bike_id":"a26a2f89-8ae6-4036-bc24-451fc5641138","system_id":"levelo_inurba_marseille","lat":43.24385,"lon":5.37056,"is_reserved":false,"is_disabled":false,"rental_uris":{"android":"levelo://app?vid=a26a2f89-8ae6-4036-bc24-451fc5641138","ios":"levelo://app?vid=a26a2f89-8ae6-4036-bc24-451fc5641138"},"vehicle_type_id":"4","last_reported":1728396636,"current_range_meters":36800,"station_id":"ce4bhhh2rcd13ifvqfk0","pricing_plan_id":"cebpf4jnsgd1na2vs0mg"},{"bike_id":"7bc9e179-b0df-49f2-9c92-d5c9639b4ee1","system_id":"levelo_inurba_marseille","lat":43.30355,"lon":5.36861,"is_reserved":false,"is_disabled":false,"rental_uris":{"android":"levelo://app?vid=7bc9e179-b0df-49f2-9c92-d5c9639b4ee1","ios":"levelo://app?vid=7bc9e179-b0df-49f2-9c92-d5c9639b4ee1"},"vehicle_type_id":"4","last_reported":1728396636,"current_range_meters":13600,"station_id":"ce4bgv92rcd13ifvqcq0","pricing_plan_id":"cebpf4jnsgd1na2vs0mg"},{"bike_id":"ec9bc485-b727-43bd-a011-e06f6476d2f3","system_id":"levelo_inurba_marseille","lat":43.25112,"lon":5.40318,"is_reserved":false,"is_disabled":false,"rental_uris":{"android":"levelo://app?vid=ec9bc485-b727-43bd-a011-e06f6476d2f3","ios":"levelo://app?vid=ec9bc485-b727-43bd-a011-e06f6476d2f3"},"vehicle_type_id":"4","last_reported":1728396636,"current_range_meters":22400,"station_id":"ce4bhlh2rcd13ifvqgig","pricing_plan_id":"cebpf4jnsgd1na2vs0mg"},