{"last_updated":1692738367,"ttl":30,"version":"2.2","data":{"bikes":[{"bike_id":"dbd9b7c8-863a-4764-ac52-08f90c60d239","system_id":"levelo_inurba_marseille","lat":43.31341,"lon":5.367098,"is_reserved":false,"is_disabled":false,"rental_uris":{"android":"levelo://app?vid=dbd9b7c8-863a-4764-ac52-08f90c60d239","ios":"levelo://app?vid=dbd9b7c8-863a-4764-ac52-08f90c60d239"},"vehicle_type_id":"4","last_reported":1692738368,"current_range_meters":8000,"station_id":"ce4bgr92rcd13ifvqc6g","pricing_plan_id":"free"},{"bike_id":"9ce1d110-a9c7-470c-aecb-345bd943d9c7","system_id":"levelo_inurba_marseille","lat":43.312239,"lon":5.368562,"is_reserved":false,"is_disabled":false,"rental_uris":{"android":"levelo://app?vid=9ce1d110-a9c7-470c-aecb-345bd943d9c7","ios":"levelo://app?vid=9ce1d110-a9c7-470c-aecb-345bd943d9c7"},"vehicle_type_id":"4","last_reported":1692738368,"current_range_meters":20800,"station_id":"ce4bgl92rcd13ifvqbq0","pricing_plan_id":"free"},{"bike_id":"0c105f08-84cd-41da-abfa-c3df23d24521","system_id":"levelo_inurba_marseille","lat":43.312239,"lon":5.368562,"is_reserved":false,"is_disabled":false,"rental_uris":{"android":"levelo://app?vid=0c105f08-84cd-41da-abfa-c3df23d24521","ios":"levelo://app?vid=0c105f08-84cd-41da-abfa-c3df23d24521"},"vehicle_type_id":"4","last_reported":1692738368,"current_range_meters":14800,"station_id":"ce4bgl92rcd13ifvqbq0","pricing_plan_id":"free"},{"bike_id":"f1b264c9-1daa-4c1b-abb3-bbf514af1d5f","system_id":"levelo_inurba_marseille","lat":43.312239,"lon":5.368562,"is_reserved":false,"is_disabled":false,"rental_uris":{"android":"levelo://app?vid=f1b264c9-1daa-4c1b-abb3-bbf514af1d5f","ios":"levelo://app?vid=f1b264c9-1daa-4c1b-abb3-bbf514af1d5f"},"vehicle_type_id":"4","last_reported":1692738368,"current_range_meters":13200,"station_id":"ce4bgl92rcd13ifvqbq0","pricing_plan_id":"free"},{"bike_id":"f22ca441-4e4e-4660-b824-b2f46943e54d","system_id":"levelo_inurba_marseille","lat":43.312239,"lon":5.368562,"is_reserved":false,"is_disabled":false,"rental_uris":{"android":"levelo://app?vid=f22ca441-4e4e-4660-b824-b2f46943e54d","ios":"levelo://app?vid=f22ca441-4e4e-4660-b824-b2f46943e54d"},"vehicle_type_id":"4","last_reported":1692738368,"current_range_meters":31600,"station_id":"ce4bgl92rcd13ifvqbq0","pricing_plan_id":"free"},{"bike_id":"499335b6-e9d4-41be-97ca-0faa24199d47","system_id":"levelo_inurba_marseille","lat":43.309076,"lon":5.368465,"is_reserved":false,"is_disabled":false,"rental_uris":{"android":"levelo://app?vid=499335b6-e9d4-41be-97ca-0faa24199d47","ios":"levelo://app?vid=499335b6-e9d4-41be-97ca-0faa24199d47"},"vehicle_type_id":"4","last_reported":1692738368,"current_range_meters":7600,"station_id":"ce4bgn92rcd13ifvqbvg","pricing_plan_id":"free"},{"bike_id":"2713f1be-413d-4663-9147-56809af21850","system_id":"levelo_inurba_marseille","lat":43.314811,"lon":5.373103,"is_reserved":false,"is_disabled":false,"rental_uris":{"android":"levelo://app?vid=2713f1be-413d-4663-9147-56809af21850","ios":"levelo://app?vid=2713f1be-413d-4663-9147-56809af21850"},"vehicle_type_id":"4","last_reported":1692738368,"current_range_meters":13600,"station_id":"ce4bgt12rcd13ifvqcd0","pricing_plan_id":"free"},{"bike_id":"d2be997d-44d2-40a5-bb20-02aeaaf65fa5","system_id":"levelo_inurba_marseille","lat":43.314811,"lon":5.373103,"is_reserved":false,"is_disabled":false,"rental_uris":{"android":"levelo://app?vid=d2be997d-44d2-40a5-bb20-02aeaaf65fa5","ios":"levelo://app?vid=d2be997d-44d2-40a5-bb20-02aeaaf65fa5"},"vehicle_type_id":"4","last_reported":1692738368,"current_range_meters":31600,"station_id":"ce4bgt12rcd13ifvqcd0","pricing_plan_id":"free"},{"bike_id":"e7b82ff3-4dfa-4e5d-b956-b86a9da5ea54","system_id":"levelo_inurba_marseille","lat":43.309039,"lon":5.371797,"is_reserved":false,"is_disabled":false,"rental_uris":{"android":"levelo://app?vid=e7b82ff3-4dfa-4e5d-b956-b86a9da5ea54","ios":"levelo://app?vid=e7b82ff3-4dfa-4e5d-b956-b86a9da5ea54"},"vehicle_type_id":"4","last_reported":1692738368,"current_range_meters":3600,"station_id":"ce4bguh2rcd13ifvqckg","pricing_plan_id":"free"},{"bike_id":"9fbe6e18-d192-44c2-98b5-cafb68b41aa4","system_id":"levelo_inurba_marseille","lat":43.30534,"lon":5.36538,"is_reserved":false,"is_disabled":false,"rental_uris":{"android":"levelo://app?vid=9fbe6e18-d192-44c2-98b5-cafb68b41aa4","ios":"levelo://app?vid=9fbe6e18-d192-44c2-98b5-cafb68b41aa4"},"vehicle_type_id":"4","last_reported":1692738368,"current_range_meters":25600,"station_id":"ce4bgs12rcd13ifvqcag","pricing_plan_id":"free"},{"bike_id":"57149163-b4d9-45e7-8fcf-65f1e208886c","system_id":"levelo_inurba_marseille","lat":43.305989,"lon":5.37225,"is_reserved":false,"is_disabled":false,"rental_uris":{"android":"levelo://app?vid=57149163-b4d9-45e7-8fcf-65f1e208886c","ios":"levelo://app?vid=57149163-b4d9-45e7-8fcf-65f1e208886c"},"vehicle_type_id":"4","last_reported":1692738368,"current_range_meters":10800,"station_id":"ce4bgqh2rcd13ifvqc4g","pricing_plan_id":"free"},{"bike_id":"4084b96f-2523-4923-bf8b-24f25009d853","system_id":"levelo_inurba_marseille","lat":43.305989,"lon":5.37225,"is_reserved":false,"is_disabled":false,"rental_uris":{"android":"levelo://app?vid=4084b96f-2523-4923-bf8b-24f25009d853","ios":"levelo://app?vid=4084b96f-2523-4923-bf8b-24f25009d853"},"vehicle_type_id":"4","last_reported":1692738368,"current_range_meters":4000,"station_id":"ce4bgqh2rcd13ifvqc4g","pricing_plan_id":"free"},{"bike_id":"2c6b53cd-ac9f-47fb-9d71-d569c56b7fc7","system_id":"levelo_inurba_marseille","lat":43.305989,"lon":5.37225,"is_reserved":false,"is_disabled":false,"rental_uris":{"android":"levelo://app?vid=2c6b53cd-ac9f-47fb-9d71-d569c56b7fc7","ios":"levelo://app?vid=2c6b53cd-ac9f-47fb-9d71-d569c56b7fc7"},"vehicle_type_id":"4","last_reported":1692738368,"current_range_meters":8800,"station_id":"ce4bgqh2rcd13ifvqc4g","pricing_plan_id":"free"},{"bike_id":"35b0396d-cfed-4fa8-a477-d7c9acfb10f6","system_id":"levelo_inurba_marseille","lat":43.305989,"lon":5.37225,"is_reserved":false,"is_disabled":false,"rental_uris":{"android":"levelo://app?vid=35b0396d-cfed-4fa8-a477-d7c9acfb10f6","ios":"levelo://app?vid=35b0396d-cfed-4fa8-a477-d7c9acfb10f6"},"vehicle_type_id":"4","last_reported":1692738368,"current_range_meters":12800,"station_id":"ce4bgqh2rcd13ifvqc4g","pricing_plan_id":"free"},{"bike_id":"fee46877-5f58-4220-b46a-d9c7069c0763","system_id":"levelo_inurba_marseille","lat":43.305989,"lon":5.37225,"is_reserved":false,"is_disabled":false,"rental_uris":{"android":"levelo://app?vid=fee46877-5f58-4220-b46a-d9c7069c0763","ios":"levelo://app?vid=fee46877-5f58-4220-b46a-d9c7069c0763"},"vehicle_type_id":"4","last_reported":1692738368,"current_range_meters":31200,"station_id":"ce4bgqh2rcd13ifvqc4g","pricing_plan_id":"free"},{"bike_id":"638f049f-c5f0-42e7-a3ab-fc6c72b0f472","system_id":"levelo_inurba_marseille","lat":43.305989,"lon":5.37225,"is_reserved":false,"is_disabled":false,"rental_uris":{"android":"levelo://app?vid=638f049f-c5f0-42e7-a3ab-fc6c72b0f472","ios":"levelo://app?vid=638f049f-c5f0-42e7-a3ab-fc6c72b0f472"},"vehicle_type_id":"4","last_reported":1692738368,"current_range_meters":29600,"station_id":"ce4bgqh2rcd13ifvqc4g","pricing_plan_id":"free"},{"bike_id":"f24c90cc-1add-4cd2-8438-2492631741a3","system_id":"levelo_inurba_marseille","lat":43.305989,"lon":5.37225,"is_reserved":false,"is_disabled":false,"rental_uris":{"android":"levelo://app?vid=f24c90cc-1add-4cd2-8438-2492631741a3","ios":"levelo://app?vid=f24c90cc-1add-4cd2-8438-2492631741a3"},"vehicle_type_id":"4","last_reported":1692738368,"current_range_meters":22400,"station_id":"ce4bgqh2rcd13ifvqc4g","pricing_plan_id":"free"},{"bike_id":"7bedafb7-4016-43d3-bf1a-c54addc51f5c","system_id":"levelo_inurba_marseille","lat":43.311125,"lon":5.377624,"is_reserved":false,"is_disabled":false,"rental_uris":{"android":"levelo://app?vid=7bedafb7-4016-43d3-bf1a-c54addc51f5c","ios":"levelo://app?vid=7bedafb7-4016-43d3-bf1a-c54addc51f5c"},"vehicle_type_id":"4","last_reported":1692738368,"current_range_meters":4000,"station_id":"ce4bgt92rcd13ifvqcg0","pricing_plan_id":"free"},{"bike_id":"cd0c8bb2-fc70-44ec-8645-3cafe502746d","system_id":"levelo_inurba_marseille","lat":43.311125,"lon":5.377624,"is_reserved":false,"is_disabled":false,"rental_uris":{"android":"levelo://app?vid=cd0c8bb2-fc70-44ec-8645-3cafe502746d","ios":"levelo://app?vid=cd0c8bb2-fc70-44ec-8645-3cafe502746d"},"vehicle_type_id":"4","last_reported":1692738368,"current_range_meters":1200,"station_id":"ce4bgt92rcd13ifvqcg0","pricing_plan_id":"free"},{"bike_id":"bb3275a7-e344-4aa4-b1ce-336f5edf57bb","system_id":"levelo_inurba_marseille","lat":43.311131,"lon":5.377651,"is_reserved":false,"is_disabled":false,"rental_uris":{"android":"levelo://app?vid=bb3275a7-e344-4aa4-b1ce-336f5edf57bb","ios":"levelo://app?vid=bb3275a7-e344-4aa4-b1ce-336f5edf57bb"},"vehicle_type_id":"4","last_reported":1692738368,"current_range_meters":18800,"station_id":"ce4bgt92rcd13ifvqcg0","pricing_plan_id":"free"},{"bike_id":"5707ba40-9f8a-4b67-982e-7fff090c48a2","system_id":"levelo_inurba_marseille","lat":43.307945,"lon":5.376487,"is_reserved":false,"is_disabled":false,"rental_uris":{"android":"levelo://app?vid=5707ba40-9f8a-4b67-982e-7fff090c48a2","ios":"levelo://app?vid=5707ba40-9f8a-4b67-982e-7fff090c48a2"},"vehicle_type_id":"4","last_reported":1692738368,"current_range_meters":20000,"station_id":"ce4bgv92rcd13ifvqcq0","pricing_plan_id":"free"},{"bike_id":"910ee35a-1fed-435f-962e-c877be4df733","system_id":"levelo_inurba_marseille","lat":43.30791,"lon":5.37643,"is_reserved":false,"is_disabled":false,"rental_uris":{"android":"levelo://app?vid=910ee35a-1fed-435f-962e-c877be4df733","ios":"levelo://app?vid=910ee35a-1fed-435f-962e-c877be4df733"},"vehicle_type_id":"4","last_reported":1692738368,"current_range_meters":22800,"station_id":"ce4bgv92rcd13ifvqcq0","pricing_plan_id":"free"},{"bike_id":"be2a9b7c-9aab-47e1-b081-5a1369cbd6a5","system_id":"levelo_inurba_marseille","lat":43.307945,"lon":5.376487,"is_reserved":false,"is_disabled":false,"rental_uris":{"android":"levelo://app?vid=be2a9b7c-9aab-47e1-b081-5a1369cbd6a5","ios":"levelo://app?vid=be2a9b7c-9aab-47e1-b081-5a1369cbd6a5"},"vehicle_type_id":"4","last_reported":1692738368,"current_range_meters":800,"station_id":"ce4bgv92rcd13ifvqcq0","pricing_plan_id":"free"},{"bike_id":"fe625659-517c-4e4e-b858-fa37794f542a","system_id":"levelo_inurba_marseille","lat":43.30786,"lon":5.37645,"is_reserved":false,"is_disabled":false,"rental_uris":{"android":"levelo://app?vid=fe625659-517c-4e4e-b858-fa37794f542a","ios":"levelo://app?vid=fe625659-517c-4e4e-b858-fa37794f542a"},"vehicle_type_id":"4","last_reported":1692738368,"current_range_meters":0,"station_id":"ce4bgv92rcd13ifvqcq0","pricing_plan_id":"free"},{"bike_id":"874e34a8-80c1-4d79-8e18-aa1bd38adad4","system_id":"levelo_inurba_marseille","lat":43.317065,"lon":5.377313,"is_reserved":false,"is_disabled":false,"rental_uris":{"android":"levelo://app?vid=874e34a8-80c1-4d79-8e18-aa1bd38adad4","ios":"levelo://app?vid=874e34a8-80c1-4d79-8e18-aa1bd38adad4"},"vehicle_type_id":"4","last_reported":1692738368,"current_range_meters":0,"station_id":"ce4bgth2rcd13ifvqch0","pricing_plan_id":"free"},{"bike_id":"9423ef59-be86-46c3-a5b3-04293ba7e827","system_id":"levelo_inurba_marseille","lat":43.30316,"lon":5.36907,"is_reserved":false,"is_disabled":false,"rental_uris":{"android":"levelo://app?vid=9423ef59-be86-46c3-a5b3-04293ba7e827","ios":"levelo://app?vid=9423ef59-be86-46c3-a5b3-04293ba7e827"},"vehicle_type_id":"4","last_reported":1692738368,"current_range_meters":0,"station_id":"ce4bgqh2rcd13ifvqc5g","pricing_plan_id":"free"},{"bike_id":"48926894-92f8-4022-9754-eee54d785874","system_id":"levelo_inurba_marseille","lat":43.283998,"lon":5.375062,"is_reserved":false,"is_disabled":false,"rental_uris":{"android":"levelo://app?vid=48926894-92f8-4022-9754-eee54d785874","ios":"levelo://app?vid=48926894-92f8-4022-9754-eee54d785874"},"vehicle_type_id":"4","last_reported":1692738368,"current_range_meters":7200,"station_id":"ce4bh412rcd13ifvqds0","pricing_plan_id":"free"},{"bike_id":"8c1589ba-b171-4f9b-9199-86b2eb1deeb8","system_id":"levelo_inurba_marseille","lat":43.315289,"lon":5.380349,"is_reserved":false,"is_disabled":false,"rental_uris":{"android":"levelo://app?vid=8c1589ba-b171-4f9b-9199-86b2eb1deeb8","ios":"levelo://app?vid=8c1589ba-b171-4f9b-9199-86b2eb1deeb8"},"vehicle_type_id":"4","last_reported":1692738368,"current_range_meters":10400,"station_id":"ce4bhsp2rcd13ifvqi50","pricing_plan_id":"free"},{"bike_id":"f3b585f5-2b8e-44b6-90d3-9d24b9e119bc","system_id":"levelo_inurba_marseille","lat":43.315289,"lon":5.380349,"is_reserved":false,"is_disabled":false,"rental_uris":{"android":"levelo://app?vid=f3b585f5-2b8e-44b6-90d3-9d24b9e119bc","ios":"levelo://app?vid=f3b585f5-2b8e-44b6-90d3-9d24b9e119bc"},"vehicle_type_id":"4","last_reported":1692738368,"current_range_meters":23200,"station_id":"ce4bhsp2rcd13ifvqi50","pricing_plan_id":"free"},{"bike_id":"2a3d5432-0108-4eb9-882d-694bea8753ec","system_id":"levelo_inurba_marseille","lat":43.31528,"lon":5.38035,"is_reserved":false,"is_disabled":false,"rental_uris":{"android":"levelo://app?vid=2a3d5432-0108-4eb9-882d-694bea8753ec","ios":"levelo://app?vid=2a3d5432-0108-4eb9-882d-694bea8753ec"},"vehicle_type_id":"4","last_reported":1692738368,"current_range_meters":4400,"station_id":"ce4bhsp2rcd13ifvqi50","pricing_plan_id":"free"},{"bike_id":"821a10d6-a3fd-4a32-b0f9-cb67c0d19692","system_id":"levelo_inurba_marseille","lat":43.315289,"lon":5.380349,"is_reserved":false,"is_disabled":false,"rental_uris":{"android":"levelo://app?vid=821a10d6-a3fd-4a32-b0f9-cb67c0d19692","ios":"levelo://app?vid=821a10d6-a3fd-4a32-b0f9-cb67c0d19692"},"vehicle_type_id":"4","last_reported":1692738368,"current_range_meters":3200,"station_id":"ce4bhsp2rcd13ifvqi50","pricing_plan_id":"free"},{"bike_id":"7044e17f-74b4-4da4-95d5-b12e1197beda","system_id":"levelo_inurba_marseille","lat":43.301939,"lon":5.366286,"is_reserved":false,"is_disabled":false,"rental_uris":{"android":"levelo://app?vid=7044e17f-74b4-4da4-95d5-b12e1197beda","ios":"levelo://app?vid=7044e17f-74b4-4da4-95d5-b12e1197beda"},"vehicle_type_id":"4","last_reported":1692738368,"current_range_meters":800,"station_id":"ce4bgrh2rcd13ifvqc8g","pricing_plan_id":"free"},{"bike_id":"237c1187-0b1e-4a6a-83f3-89fcb0ea5cea","system_id":"levelo_inurba_marseille","lat":43.307898,"lon":5.381549,"is_reserved":false,"is_disabled":false,"rental_uris":{"android":"levelo://app?vid=237c1187-0b1e-4a6a-83f3-89fcb0ea5cea","ios":"levelo://app?vid=237c1187-0b1e-4a6a-83f3-89fcb0ea5cea"},"vehicle_type_id":"4","last_reported":1692738368,"current_range_meters":0,"station_id":"ce4bgt92rcd13ifvqcg0","pricing_plan_id":"free"},{"bike_id":"ea18d479-0b70-46ae-b13e-811a355c6abe","system_id":"levelo_inurba_marseille","lat":43.304606,"lon":5.379026,"is_reserved":false,"is_disabled":false,"rental_uris":{"android":"levelo://app?vid=ea18d479-0b70-46ae-b13e-811a355c6abe","ios":"levelo://app?vid=ea18d479-0b70-46ae-b13e-811a355c6abe"},"vehicle_type_id":"4","last_reported":1692738368,"current_range_meters":8800,"station_id":"ce4bgup2rcd13ifvqcn0","pricing_plan_id":"free"},{"bike_id":"5bd62f9c-e84d-4424-a11f-e825ef1ec1c5","system_id":"levelo_inurba_marseille","lat":43.304606,"lon":5.379026,"is_reserved":false,"is_disabled":false,"rental_uris":{"android":"levelo://app?vid=5bd62f9c-e84d-4424-a11f-e825ef1ec1c5","ios":"levelo://app?vid=5bd62f9c-e84d-4424-a11f-e825ef1ec1c5"},"vehicle_type_id":"4","last_reported":1692738368,"current_range_meters":12400,"station_id":"ce4bgup2rcd13ifvqcn0","pricing_plan_id":"free"},{"bike_id":"188ec01c-eab0-43ee-a9fb-ec77fa82a3de","system_id":"levelo_inurba_marseille","lat":43.304606,"lon":5.379026,"is_reserved":false,"is_disabled":false,"rental_uris":{"android":"levelo://app?vid=188ec01c-eab0-43ee-a9fb-ec77fa82a3de","ios":"levelo://app?vid=188ec01c-eab0-43ee-a9fb-ec77fa82a3de"},"vehicle_type_id":"4","last_reported":1692738368,"current_range_meters":4800,"station_id":"ce4bgup2rcd13ifvqcn0","pricing_plan_id":"free"},{"bike_id":"9941be17-cc77-45ef-8002-048acfe15bac","system_id":"levelo_inurba_marseille","lat":43.304606,"lon":5.379026,"is_reserved":false,"is_disabled":false,"rental_uris":{"android":"levelo://app?vid=9941be17-cc77-45ef-8002-048acfe15bac","ios":"levelo://app?vid=9941be17-cc77-45ef-8002-048acfe15bac"},"vehicle_type_id":"4","last_reported":1692738368,"current_range_meters":19600,"station_id":"ce4bgup2rcd13ifvqcn0","pricing_plan_id":"free"},{"bike_id":"e8d28361-63fa-43ac-9419-da1953f19def","system_id":"levelo_inurba_marseille","lat":43.30456,"lon":5.37905,"is_reserved":false,"is_disabled":false,"rental_uris":{"android":"levelo://app?vid=e8d28361-63fa-43ac-9419-da1953f19def","ios":"levelo://app?vid=e8d28361-63fa-43ac-9419-da1953f19def"},"vehicle_type_id":"4","last_reported":1692738368,"current_range_meters":4400,"station_id":"","pricing_plan_id":"free"},{"bike_id":"af970a6f-a0eb-46ae-af0e-a890ba80d546","system_id":"levelo_inurba_marseille","lat":43.302784,"lon":5.377158,"is_reserved":false,"is_disabled":false,"rental_uris":{"android":"levelo://app?vid=af970a6f-a0eb-46ae-af0e-a890ba80d546","ios":"levelo://app?vid=af970a6f-a0eb-46ae-af0e-a890ba80d546"},"vehicle_type_id":"4","last_reported":1692738368,"current_range_meters":4800,"station_id":"ce4bguh2rcd13ifvqcj0","pricing_plan_id":"free"},{"bike_id":"b8e926e7-f88c-4d77-bc1e-68c95b94855f","system_id":"levelo_inurba_marseille","lat":43.302784,"lon":5.377158,"is_reserved":false,"is_disabled":false,"rental_uris":{"android":"levelo://app?vid=b8e926e7-f88c-4d77-bc1e-68c95b94855f","ios":"levelo://app?vid=b8e926e7-f88c-4d77-bc1e-68c95b94855f"},"vehicle_type_id":"4","last_reported":1692738368,"current_range_meters":25600,"station_id":"ce4bguh2rcd13ifvqcj0","pricing_plan_id":"free"},{"bike_id":"f8cbe9ae-aa21-4d37-ac21-56c2cd40941f","system_id":"levelo_inurba_marseille","lat":43.302784,"lon":5.377158,"is_reserved":false,"is_disabled":false,"rental_uris":{"android":"levelo://app?vid=f8cbe9ae-aa21-4d37-ac21-56c2cd40941f","ios":"levelo://app?vid=f8cbe9ae-aa21-4d37-ac21-56c2cd40941f"},"vehicle_type_id":"4","last_reported":1692738368,"current_range_meters":4400,"station_id":"ce4bguh2rcd13ifvqcj0","pricing_plan_id":"free"},{"bike_id":"8a79ebbd-0790-4b7e-b35a-917df69abc2f","system_id":"levelo_inurba_marseille","lat":43.302784,"lon":5.377158,"is_reserved":false,"is_disabled":false,"rental_uris":{"android":"levelo://app?vid=8a79ebbd-0790-4b7e-b35a-917df69abc2f","ios":"levelo://app?vid=8a79ebbd-0790-4b7e-b35a-917df69abc2f"},"vehicle_type_id":"4","last_reported":1692738368,"current_range_meters":4400,"station_id":"ce4bguh2rcd13ifvqcj0","pricing_plan_id":"free"},{"bike_id":"fc6ce35d-7fae-4cf6-900a-c2b489540485","system_id":"levelo_inurba_marseille","lat":43.31993,"lon":5.38169,"is_reserved":false,"is_disabled":false,"rental_uris":{"android":"levelo://app?vid=fc6ce35d-7fae-4cf6-900a-c2b489540485","ios":"levelo://app?vid=fc6ce35d-7fae-4cf6-900a-c2b489540485"},"vehicle_type_id":"4","last_reported":1692738368,"current_range_meters":21200,"station_id":"ce4bhr12rcd13ifvqhpg","pricing_plan_id":"free"},{"bike_id":"d86d50f3-96d0-4f82-b515-e64529fd9838","system_id":"levelo_inurba_marseille","lat":43.320035,"lon":5.381676,"is_reserved":false,"is_disabled":false,"rental_uris":{"android":"levelo://app?vid=d86d50f3-96d0-4f82-b515-e64529fd9838","ios":"levelo://app?vid=d86d50f3-96d0-4f82-b515-e64529fd9838"},"vehicle_type_id":"4","last_reported":1692738368,"current_range_meters":19200,"station_id":"","pricing_plan_id":"free"},{"bike_id":"0912fd8a-1365-4550-8d07-9f0c8035a67b","system_id":"levelo_inurba_marseille","lat":43.29938,"lon":5.36566,"is_reserved":false,"is_disabled":false,"rental_uris":{"android":"levelo://app?vid=0912fd8a-1365-4550-8d07-9f0c8035a67b","ios":"levelo://app?vid=0912fd8a-1365-4550-8d07-9f0c8035a67b"},"vehicle_type_id":"4","last_reported":1692738368,"current_range_meters":29600,"station_id":"ce4bgm92rcd13ifvqbr0","pricing_plan_id":"free"},{"bike_id":"95dc9ecf-047e-4c3a-bb12-a5676cb36ad4","system_id":"levelo_inurba_marseille","lat":43.3216,"lon":5.38166,"is_reserved":false,"is_disabled":false,"rental_uris":{"android":"levelo://app?vid=95dc9ecf-047e-4c3a-bb12-a5676cb36ad4","ios":"levelo://app?vid=95dc9ecf-047e-4c3a-bb12-a5676cb36ad4"},"vehicle_type_id":"4","last_reported":1692738368,"current_range_meters":6000,"station_id":"","pricing_plan_id":"free"},{"bike_id":"e97b3ac0-d4ce-4b67-b858-527de5362003","system_id":"levelo_inurba_marseille","lat":43.305213,"lon":5.38309,"is_reserved":false,"is_disabled":false,"rental_uris":{"android":"levelo://app?vid=e97b3ac0-d4ce-4b67-b858-527de5362003","ios":"levelo://app?vid=e97b3ac0-d4ce-4b67-b858-527de5362003"},"vehicle_type_id":"4","last_reported":1692738368,"current_range_meters":23600,"station_id":"","pricing_plan_id":"free"},{"bike_id":"b885f463-e8c5-42cc-902f-7152167ce1c7","system_id":"levelo_inurba_marseille","lat":43.299243,"lon":5.37481,"is_reserved":false,"is_disabled":false,"rental_uris":{"android":"levelo://app?vid=b885f463-e8c5-42cc-902f-7152167ce1c7","ios":"levelo://app?vid=b885f463-e8c5-42cc-902f-7152167ce1c7"},"vehicle_type_id":"4","last_reported":1692738368,"current_range_meters":31200,"station_id":"ce4bgjh2rcd13ifvqbg0","pricing_plan_id":"free"},{"bike_id":"6672f5d2-c435-4743-b098-f7c92b60e622","system_id":"levelo_inurba_marseille","lat":43.30538,"lon":5.3842,"is_reserved":false,"is_disabled":false,"rental_uris":{"android":"levelo://app?vid=6672f5d2-c435-4743-b098-f7c92b60e622","ios":"levelo://app?vid=6672f5d2-c435-4743-b098-f7c92b60e622"},"vehicle_type_id":"4","last_reported":1692738368,"current_range_meters":14800,"station_id":"ce4bgg92rcd13ifvqb30","pricing_plan_id":"free"},{"bike_id":"2f9e2def-2173-4eb4-a460-9a385f59debe","system_id":"levelo_inurba_marseille","lat":43.299243,"lon":5.374807,"is_reserved":false,"is_disabled":false,"rental_uris":{"android":"levelo://app?vid=2f9e2def-2173-4eb4-a460-9a385f59debe","ios":"levelo://app?vid=2f9e2def-2173-4eb4-a460-9a385f59debe"},"vehicle_type_id":"4","last_reported":1692738368,"current_range_meters":31200,"station_id":"ce4bgjh2rcd13ifvqbg0","pricing_plan_id":"free"},{"bike_id":"4ed380d9-81f7-496b-8154-42eeea0fc709","system_id":"levelo_inurba_marseille","lat":43.305364,"lon":5.384119,"is_reserved":false,"is_disabled":false,"rental_uris":{"android":"levelo://app?vid=4ed380d9-81f7-496b-8154-42eeea0fc709","ios":"levelo://app?vid=4ed380d9-81f7-496b-8154-42eeea0fc709"},"vehicle_type_id":"4","last_reported":1692738368,"current_range_meters":3200,"station_id":"ce4bgg92rcd13ifvqb30","pricing_plan_id":"free"},{"bike_id":"31cd58a0-046a-428f-ac3e-3629efb51bc7","system_id":"levelo_inurba_marseille","lat":43.30535,"lon":5.38436,"is_reserved":false,"is_disabled":false,"rental_uris":{"android":"levelo://app?vid=31cd58a0-046a-428f-ac3e-3629efb51bc7","ios":"levelo://app?vid=31cd58a0-046a-428f-ac3e-3629efb51bc7"},"vehicle_type_id":"4","last_reported":1692738368,"current_range_meters":10400,"station_id":"ce4bgg92rcd13ifvqb30","pricing_plan_id":"free"},{"bike_id":"fa539643-016e-45b7-bda5-46ee7315bbef","system_id":"levelo_inurba_marseille","lat":43.311722,"lon":5.387247,"is_reserved":false,"is_disabled":false,"rental_uris":{"android":"levelo://app?vid=fa539643-016e-45b7-bda5-46ee7315bbef","ios":"levelo://app?vid=fa539643-016e-45b7-bda5-46ee7315bbef"},"vehicle_type_id":"4","last_reported":1692738368,"current_range_meters":20400,"station_id":"ce4bgv12rcd13ifvqcp0","pricing_plan_id":"free"},{"bike_id":"8dc74b15-16e8-458d-b318-829df7df5e5e","system_id":"levelo_inurba_marseille","lat":43.311722,"lon":5.387247,"is_reserved":false,"is_disabled":false,"rental_uris":{"android":"levelo://app?vid=8dc74b15-16e8-458d-b318-829df7df5e5e","ios":"levelo://app?vid=8dc74b15-16e8-458d-b318-829df7df5e5e"},"vehicle_type_id":"4","last_reported":1692738368,"current_range_meters":31200,"station_id":"ce4bgv12rcd13ifvqcp0","pricing_plan_id":"free"},{"bike_id":"f5d9bc9c-d318-468d-9d76-142041bb3750","system_id":"levelo_inurba_marseille","lat":43.311722,"lon":5.387247,"is_reserved":false,"is_disabled":false,"rental_uris":{"android":"levelo://app?vid=f5d9bc9c-d318-468d-9d76-142041bb3750","ios":"levelo://app?vid=f5d9bc9c-d318-468d-9d76-142041bb3750"},"vehicle_type_id":"4","last_reported":1692738368,"current_range_meters":15600,"station_id":"ce4bgv12rcd13ifvqcp0","pricing_plan_id":"free"},{"bike_id":"48773837-8a01-4137-95bb-600dc54ff51e","system_id":"levelo_inurba_marseille","lat":43.32289,"lon":5.38239,"is_reserved":false,"is_disabled":false,"rental_uris":{"android":"levelo://app?vid=48773837-8a01-4137-95bb-600dc54ff51e","ios":"levelo://app?vid=48773837-8a01-4137-95bb-600dc54ff51e"},"vehicle_type_id":"4","last_reported":1692738368,"current_range_meters":26800,"station_id":"ce4bhr12rcd13ifvqhqg","pricing_plan_id":"free"},{"bike_id":"6dd98541-501c-4698-bca4-af6b43df67e4","system_id":"levelo_inurba_marseille","lat":43.32832,"lon":5.36693,"is_reserved":false,"is_disabled":false,"rental_uris":{"android":"levelo://app?vid=6dd98541-501c-4698-bca4-af6b43df67e4","ios":"levelo://app?vid=6dd98541-501c-4698-bca4-af6b43df67e4"},"vehicle_type_id":"4","last_reported":1692738368,"current_range_meters":14000,"station_id":"ce4bhs92rcd13ifvqi0g","pricing_plan_id":"free"},{"bike_id":"dd789220-e7b5-42c1-b9dc-dc4243148021","system_id":"levelo_inurba_marseille","lat":43.297163,"lon":5.365866,"is_reserved":false,"is_disabled":false,"rental_uris":{"android":"levelo://app?vid=dd789220-e7b5-42c1-b9dc-dc4243148021","ios":"levelo://app?vid=dd789220-e7b5-42c1-b9dc-dc4243148021"},"vehicle_type_id":"4","last_reported":1692738368,"current_range_meters":31200,"station_id":"ce4bgn12rcd13ifvqbt0","pricing_plan_id":"free"},{"bike_id":"a520c0e4-9a3e-4c8b-a582-27a7a0b5eb34","system_id":"levelo_inurba_marseille","lat":43.32848,"lon":5.36691,"is_reserved":false,"is_disabled":false,"rental_uris":{"android":"levelo://app?vid=a520c0e4-9a3e-4c8b-a582-27a7a0b5eb34","ios":"levelo://app?vid=a520c0e4-9a3e-4c8b-a582-27a7a0b5eb34"},"vehicle_type_id":"4","last_reported":1692738368,"current_range_meters":16000,"station_id":"ce4bhs92rcd13ifvqi0g","pricing_plan_id":"free"},{"bike_id":"d8519647-19ce-4c78-b0d1-6a2314908389","system_id":"levelo_inurba_marseille","lat":43.31553,"lon":5.38835,"is_reserved":false,"is_disabled":false,"rental_uris":{"android":"levelo://app?vid=d8519647-19ce-4c78-b0d1-6a2314908389","ios":"levelo://app?vid=d8519647-19ce-4c78-b0d1-6a2314908389"},"vehicle_type_id":"4","last_reported":1692738368,"current_range_meters":25200,"station_id":"","pricing_plan_id":"free"},{"bike_id":"d3139180-8ba9-4c91-b6e4-8baae3c22113","system_id":"levelo_inurba_marseille","lat":43.296131,"lon":5.370791,"is_reserved":false,"is_disabled":false,"rental_uris":{"android":"levelo://app?vid=d3139180-8ba9-4c91-b6e4-8baae3c22113","ios":"levelo://app?vid=d3139180-8ba9-4c91-b6e4-8baae3c22113"},"vehicle_type_id":"4","last_reported":1692738368,"current_range_meters":29600,"station_id":"ce4bgnh2rcd13ifvqc0g","pricing_plan_id":"free"},{"bike_id":"bb155e93-116e-494a-9911-2df351c7dae8","system_id":"levelo_inurba_marseille","lat":43.2962,"lon":5.3718,"is_reserved":false,"is_disabled":false,"rental_uris":{"android":"levelo://app?vid=bb155e93-116e-494a-9911-2df351c7dae8","ios":"levelo://app?vid=bb155e93-116e-494a-9911-2df351c7dae8"},"vehicle_type_id":"4","last_reported":1692738368,"current_range_meters":28000,"station_id":"","pricing_plan_id":"free"},{"bike_id":"fa61a483-e08f-4926-942f-04fcf2191b35","system_id":"levelo_inurba_marseille","lat":43.30953,"lon":5.39033,"is_reserved":false,"is_disabled":false,"rental_uris":{"android":"levelo://app?vid=fa61a483-e08f-4926-942f-04fcf2191b35","ios":"levelo://app?vid=fa61a483-e08f-4926-942f-04fcf2191b35"},"vehicle_type_id":"4","last_reported":1692738368,"current_range_meters":800,"station_id":"ce4bgup2rcd13ifvqco0","pricing_plan_id":"free"},{"bike_id":"2c93ce6f-c5e1-4ec9-9941-ebb7469bb8f2","system_id":"levelo_inurba_marseille","lat":43.31738,"lon":5.39014,"is_reserved":false,"is_disabled":false,"rental_uris":{"android":"levelo://app?vid=2c93ce6f-c5e1-4ec9-9941-ebb7469bb8f2","ios":"levelo://app?vid=2c93ce6f-c5e1-4ec9-9941-ebb7469bb8f2"},"vehicle_type_id":"4","last_reported":1692738368,"current_range_meters":26000,"station_id":"ce4bhqp2rcd13ifvqhng","pricing_plan_id":"free"},{"bike_id":"952a19e7-6602-41c3-942f-79cfb514366f","system_id":"levelo_inurba_marseille","lat":43.29799,"lon":5.38096,"is_reserved":false,"is_disabled":false,"rental_uris":{"android":"levelo://app?vid=952a19e7-6602-41c3-942f-79cfb514366f","ios":"levelo://app?vid=952a19e7-6602-41c3-942f-79cfb514366f"},"vehicle_type_id":"4","last_reported":1692738368,"current_range_meters":31200,"station_id":"ce4bgip2rcd13ifvqbb0","pricing_plan_id":"free"},{"bike_id":"a4df99ce-0488-49dd-a888-94686f562e88","system_id":"levelo_inurba_marseille","lat":43.295748,"lon":5.37522,"is_reserved":false,"is_disabled":false,"rental_uris":{"android":"levelo://app?vid=a4df99ce-0488-49dd-a888-94686f562e88","ios":"levelo://app?vid=a4df99ce-0488-49dd-a888-94686f562e88"},"vehicle_type_id":"4","last_reported":1692738368,"current_range_meters":30400,"station_id":"ce4bgh92rcd13ifvqb50","pricing_plan_id":"free"},{"bike_id":"0fa23cbb-e768-42a9-92d3-8c0fb98333fa","system_id":"levelo_inurba_marseille","lat":43.304274,"lon":5.388873,"is_reserved":false,"is_disabled":false,"rental_uris":{"android":"levelo://app?vid=0fa23cbb-e768-42a9-92d3-8c0fb98333fa","ios":"levelo://app?vid=0fa23cbb-e768-42a9-92d3-8c0fb98333fa"},"vehicle_type_id":"4","last_reported":1692738368,"current_range_meters":14000,"station_id":"ce4bgk12rcd13ifvqbi0","pricing_plan_id":"free"},{"bike_id":"5f6989c3-2ef4-4dec-81fe-9275793bf563","system_id":"levelo_inurba_marseille","lat":43.296277,"lon":5.377108,"is_reserved":false,"is_disabled":false,"rental_uris":{"android":"levelo://app?vid=5f6989c3-2ef4-4dec-81fe-9275793bf563","ios":"levelo://app?vid=5f6989c3-2ef4-4dec-81fe-9275793bf563"},"vehicle_type_id":"4","last_reported":1692738368,"current_range_meters":0,"station_id":"ce4bgi92rcd13ifvqb90","pricing_plan_id":"free"},{"bike_id":"1832cc0a-fcd4-4006-a7cf-a610f17168e8","system_id":"levelo_inurba_marseille","lat":43.296263,"lon":5.377094,"is_reserved":false,"is_disabled":false,"rental_uris":{"android":"levelo://app?vid=1832cc0a-fcd4-4006-a7cf-a610f17168e8","ios":"levelo://app?vid=1832cc0a-fcd4-4006-a7cf-a610f17168e8"},"vehicle_type_id":"4","last_reported":1692738368,"current_range_meters":2000,"station_id":"ce4bgi92rcd13ifvqb90","pricing_plan_id":"free"},{"bike_id":"eda23cc2-b527-4691-b545-70ec42979c2f","system_id":"levelo_inurba_marseille","lat":43.295279,"lon":5.375048,"is_reserved":false,"is_disabled":false,"rental_uris":{"android":"levelo://app?vid=eda23cc2-b527-4691-b545-70ec42979c2f","ios":"levelo://app?vid=eda23cc2-b527-4691-b545-70ec42979c2f"},"vehicle_type_id":"4","last_reported":1692738368,"current_range_meters":19600,"station_id":"ce4bgkp2rcd13ifvqbmg","pricing_plan_id":"free"},{"bike_id":"1b88b000-5c50-4679-be27-198b73fdc992","system_id":"levelo_inurba_marseille","lat":43.299707,"lon":5.384859,"is_reserved":false,"is_disabled":false,"rental_uris":{"android":"levelo://app?vid=1b88b000-5c50-4679-be27-198b73fdc992","ios":"levelo://app?vid=1b88b000-5c50-4679-be27-198b73fdc992"},"vehicle_type_id":"4","last_reported":1692738368,"current_range_meters":8400,"station_id":"ce4bgj92rcd13ifvqbd0","pricing_plan_id":"free"},{"bike_id":"761f3865-f743-48db-97ac-edca9ec01b93","system_id":"levelo_inurba_marseille","lat":43.295279,"lon":5.375048,"is_reserved":false,"is_disabled":false,"rental_uris":{"android":"levelo://app?vid=761f3865-f743-48db-97ac-edca9ec01b93","ios":"levelo://app?vid=761f3865-f743-48db-97ac-edca9ec01b93"},"vehicle_type_id":"4","last_reported":1692738368,"current_range_meters":19600,"station_id":"ce4bgkp2rcd13ifvqbmg","pricing_plan_id":"free"},{"bike_id":"39beed4d-f39d-47f5-89ff-923bd50cf2a0","system_id":"levelo_inurba_marseille","lat":43.299707,"lon":5.384859,"is_reserved":false,"is_disabled":false,"rental_uris":{"android":"levelo://app?vid=39beed4d-f39d-47f5-89ff-923bd50cf2a0","ios":"levelo://app?vid=39beed4d-f39d-47f5-89ff-923bd50cf2a0"},"vehicle_type_id":"4","last_reported":1692738368,"current_range_meters":9200,"station_id":"ce4bgj92rcd13ifvqbd0","pricing_plan_id":"free"},{"bike_id":"248e2d4f-e6c8-480d-b66d-30b4207cee8d","system_id":"levelo_inurba_marseille","lat":43.299717,"lon":5.384845,"is_reserved":false,"is_disabled":false,"rental_uris":{"android":"levelo://app?vid=248e2d4f-e6c8-480d-b66d-30b4207cee8d","ios":"levelo://app?vid=248e2d4f-e6c8-480d-b66d-30b4207cee8d"},"vehicle_type_id":"4","last_reported":1692738368,"current_range_meters":18000,"station_id":"ce4bgj92rcd13ifvqbd0","pricing_plan_id":"free"},{"bike_id":"e565a13e-26ee-4ac3-99e9-1761661d32ab","system_id":"levelo_inurba_marseille","lat":43.295279,"lon":5.375048,"is_reserved":false,"is_disabled":false,"rental_uris":{"android":"levelo://app?vid=e565a13e-26ee-4ac3-99e9-1761661d32ab","ios":"levelo://app?vid=e565a13e-26ee-4ac3-99e9-1761661d32ab"},"vehicle_type_id":"4","last_reported":1692738368,"current_range_meters":23600,"station_id":"ce4bgkp2rcd13ifvqbmg","pricing_plan_id":"free"},{"bike_id":"f1afde3b-6478-4fe6-a897-2546561c58cd","system_id":"levelo_inurba_marseille","lat":43.299724,"lon":5.384848,"is_reserved":false,"is_disabled":false,"rental_uris":{"android":"levelo://app?vid=f1afde3b-6478-4fe6-a897-2546561c58cd","ios":"levelo://app?vid=f1afde3b-6478-4fe6-a897-2546561c58cd"},"vehicle_type_id":"4","last_reported":1692738368,"current_range_meters":2400,"station_id":"ce4bgj92rcd13ifvqbd0","pricing_plan_id":"free"},{"bike_id":"ccf89a03-4459-41cd-928b-cbb84836b501","system_id":"levelo_inurba_marseille","lat":43.299724,"lon":5.384848,"is_reserved":false,"is_disabled":false,"rental_uris":{"android":"levelo://app?vid=ccf89a03-4459-41cd-928b-cbb84836b501","ios":"levelo://app?vid=ccf89a03-4459-41cd-928b-cbb84836b501"},"vehicle_type_id":"4","last_reported":1692738368,"current_range_meters":8800,"station_id":"ce4bgj92rcd13ifvqbd0","pricing_plan_id":"free"},{"bike_id":"def7da8b-1757-45a3-8dea-cb955d378ab0","system_id":"levelo_inurba_marseille","lat":43.30123,"lon":5.38742,"is_reserved":false,"is_disabled":false,"rental_uris":{"android":"levelo://app?vid=def7da8b-1757-45a3-8dea-cb955d378ab0","ios":"levelo://app?vid=def7da8b-1757-45a3-8dea-cb955d378ab0"},"vehicle_type_id":"4","last_reported":1692738368,"current_range_meters":12000,"station_id":"","pricing_plan_id":"free"},{"bike_id":"5b3fcd30-fde1-4d3f-b3ac-fe2432b64388","system_id":"levelo_inurba_marseille","lat":43.29665,"lon":5.38071,"is_reserved":false,"is_disabled":false,"rental_uris":{"android":"levelo://app?vid=5b3fcd30-fde1-4d3f-b3ac-fe2432b64388","ios":"levelo://app?vid=5b3fcd30-fde1-4d3f-b3ac-fe2432b64388"},"vehicle_type_id":"4","last_reported":1692738368,"current_range_meters":4400,"station_id":"","pricing_plan_id":"free"},{"bike_id":"00883cd9-a56a-4720-bb55-237d0136a4a1","system_id":"levelo_inurba_marseille","lat":43.3236,"lon":5.38884,"is_reserved":false,"is_disabled":false,"rental_uris":{"android":"levelo://app?vid=00883cd9-a56a-4720-bb55-237d0136a4a1","ios":"levelo://app?vid=00883cd9-a56a-4720-bb55-237d0136a4a1"},"vehicle_type_id":"4","last_reported":1692738368,"current_range_meters":12000,"station_id":"ce4bhqp2rcd13ifvqhog","pricing_plan_id":"free"},{"bike_id":"3ee6736d-0a2a-429b-8608-53e06375372f","system_id":"levelo_inurba_marseille","lat":43.32365,"lon":5.38887,"is_reserved":false,"is_disabled":false,"rental_uris":{"android":"levelo://app?vid=3ee6736d-0a2a-429b-8608-53e06375372f","ios":"levelo://app?vid=3ee6736d-0a2a-429b-8608-53e06375372f"},"vehicle_type_id":"4","last_reported":1692738368,"current_range_meters":8400,"station_id":"ce4bhqp2rcd13ifvqhog","pricing_plan_id":"free"},{"bike_id":"a26bb7af-3d2f-4968-a4f8-e03eb687353d","system_id":"levelo_inurba_marseille","lat":43.32363,"lon":5.38889,"is_reserved":false,"is_disabled":false,"rental_uris":{"android":"levelo://app?vid=a26bb7af-3d2f-4968-a4f8-e03eb687353d","ios":"levelo://app?vid=a26bb7af-3d2f-4968-a4f8-e03eb687353d"},"vehicle_type_id":"4","last_reported":1692738368,"current_range_meters":1600,"station_id":"ce4bhqp2rcd13ifvqhog","pricing_plan_id":"free"},{"bike_id":"7d8c3923-f0a3-4e44-8291-49f4210a308a","system_id":"levelo_inurba_marseille","lat":43.32367,"lon":5.388836,"is_reserved":false,"is_disabled":false,"rental_uris":{"android":"levelo://app?vid=7d8c3923-f0a3-4e44-8291-49f4210a308a","ios":"levelo://app?vid=7d8c3923-f0a3-4e44-8291-49f4210a308a"},"vehicle_type_id":"4","last_reported":1692738368,"current_range_meters":6000,"station_id":"ce4bhqp2rcd13ifvqhog","pricing_plan_id":"free"},{"bike_id":"d135718e-147e-44de-a051-b77408cfbafe","system_id":"levelo_inurba_marseille","lat":43.29602,"lon":5.381084,"is_reserved":false,"is_disabled":false,"rental_uris":{"android":"levelo://app?vid=d135718e-147e-44de-a051-b77408cfbafe","ios":"levelo://app?vid=d135718e-147e-44de-a051-b77408cfbafe"},"vehicle_type_id":"4","last_reported":1692738368,"current_range_meters":21200,"station_id":"ce4bgl12rcd13ifvqbo0","pricing_plan_id":"free"},{"bike_id":"c31e9666-b494-485b-8d5a-30dfc977a991","system_id":"levelo_inurba_marseille","lat":43.29601,"lon":5.381084,"is_reserved":false,"is_disabled":false,"rental_uris":{"android":"levelo://app?vid=c31e9666-b494-485b-8d5a-30dfc977a991","ios":"levelo://app?vid=c31e9666-b494-485b-8d5a-30dfc977a991"},"vehicle_type_id":"4","last_reported":1692738368,"current_range_meters":19200,"station_id":"ce4bgl12rcd13ifvqbo0","pricing_plan_id":"free"},{"bike_id":"6a7dc047-d97d-44de-a22c-0d14df1c9981","system_id":"levelo_inurba_marseille","lat":43.29602,"lon":5.381084,"is_reserved":false,"is_disabled":false,"rental_uris":{"android":"levelo://app?vid=6a7dc047-d97d-44de-a22c-0d14df1c9981","ios":"levelo://app?vid=6a7dc047-d97d-44de-a22c-0d14df1c9981"},"vehicle_type_id":"4","last_reported":1692738368,"current_range_meters":31200,"station_id":"ce4bgl12rcd13ifvqbo0","pricing_plan_id":"free"},{"bike_id":"c9ae1af7-4cca-4ac6-b602-25d626cedcc0","system_id":"levelo_inurba_marseille","lat":43.29601,"lon":5.381084,"is_reserved":false,"is_disabled":false,"rental_uris":{"android":"levelo://app?vid=c9ae1af7-4cca-4ac6-b602-25d626cedcc0","ios":"levelo://app?vid=c9ae1af7-4cca-4ac6-b602-25d626cedcc0"},"vehicle_type_id":"4","last_reported":1692738368,"current_range_meters":30400,"station_id":"ce4bgl12rcd13ifvqbo0","pricing_plan_id":"free"},{"bike_id":"6fcdd630-f81d-4b2c-bba3-4e8a0a857c3d","system_id":"levelo_inurba_marseille","lat":43.29601,"lon":5.381084,"is_reserved":false,"is_disabled":false,"rental_uris":{"android":"levelo://app?vid=6fcdd630-f81d-4b2c-bba3-4e8a0a857c3d","ios":"levelo://app?vid=6fcdd630-f81d-4b2c-bba3-4e8a0a857c3d"},"vehicle_type_id":"4","last_reported":1692738368,"current_range_meters":15200,"station_id":"ce4bgl12rcd13ifvqbo0","pricing_plan_id":"free"},{"bike_id":"b76cef07-3952-457c-afba-b8f6145fe4ad","system_id":"levelo_inurba_marseille","lat":43.29602,"lon":5.381084,"is_reserved":false,"is_disabled":false,"rental_uris":{"android":"levelo://app?vid=b76cef07-3952-457c-afba-b8f6145fe4ad","ios":"levelo://app?vid=b76cef07-3952-457c-afba-b8f6145fe4ad"},"vehicle_type_id":"4","last_reported":1692738368,"current_range_meters":20400,"station_id":"ce4bgl12rcd13ifvqbo0","pricing_plan_id":"free"},{"bike_id":"2e5adb83-f920-49b6-a088-6b57db8d76f3","system_id":"levelo_inurba_marseille","lat":43.29601,"lon":5.381084,"is_reserved":false,"is_disabled":false,"rental_uris":{"android":"levelo://app?vid=2e5adb83-f920-49b6-a088-6b57db8d76f3","ios":"levelo://app?vid=2e5adb83-f920-49b6-a088-6b57db8d76f3"},"vehicle_type_id":"4","last_reported":1692738368,"current_range_meters":30000,"station_id":"ce4bgl12rcd13ifvqbo0","pricing_plan_id":"free"},{"bike_id":"92ddc616-8c8f-4fab-a940-ed796d002d4e","system_id":"levelo_inurba_marseille","lat":43.29601,"lon":5.381084,"is_reserved":false,"is_disabled":false,"rental_uris":{"android":"levelo://app?vid=92ddc616-8c8f-4fab-a940-ed796d002d4e","ios":"levelo://app?vid=92ddc616-8c8f-4fab-a940-ed796d002d4e"},"vehicle_type_id":"4","last_reported":1692738368,"current_range_meters":28400,"station_id":"ce4bgl12rcd13ifvqbo0","pricing_plan_id":"free"},{"bike_id":"b66945e3-8526-4d59-b246-e48354e52de8","system_id":"levelo_inurba_marseille","lat":43.29601,"lon":5.381084,"is_reserved":false,"is_disabled":false,"rental_uris":{"android":"levelo://app?vid=b66945e3-8526-4d59-b246-e48354e52de8","ios":"levelo://app?vid=b66945e3-8526-4d59-b246-e48354e52de8"},"vehicle_type_id":"4","last_reported":1692738368,"current_range_meters":6800,"station_id":"ce4bgl12rcd13ifvqbo0","pricing_plan_id":"free"},{"bike_id":"5eeadd51-0aee-4f97-b0ab-56f40fd8882c","system_id":"levelo_inurba_marseille","lat":43.29602,"lon":5.381084,"is_reserved":false,"is_disabled":false,"rental_uris":{"android":"levelo://app?vid=5eeadd51-0aee-4f97-b0ab-56f40fd8882c","ios":"levelo://app?vid=5eeadd51-0aee-4f97-b0ab-56f40fd8882c"},"vehicle_type_id":"4","last_reported":1692738368,"current_range_meters":24400,"station_id":"ce4bgl12rcd13ifvqbo0","pricing_plan_id":"free"},{"bike_id":"0c9984f3-c458-4336-9b7e-ca10ade9aac7","system_id":"levelo_inurba_marseille","lat":43.292749,"lon":5.368402,"is_reserved":false,"is_disabled":false,"rental_uris":{"android":"levelo://app?vid=0c9984f3-c458-4336-9b7e-ca10ade9aac7","ios":"levelo://app?vid=0c9984f3-c458-4336-9b7e-ca10ade9aac7"},"vehicle_type_id":"4","last_reported":1692738368,"current_range_meters":400,"station_id":"ce4bhbp2rcd13ifvqesg","pricing_plan_id":"free"},{"bike_id":"f0a31fe4-ad6e-4df7-8720-92d6dcf6b595","system_id":"levelo_inurba_marseille","lat":43.292749,"lon":5.368398,"is_reserved":false,"is_disabled":false,"rental_uris":{"android":"levelo://app?vid=f0a31fe4-ad6e-4df7-8720-92d6dcf6b595","ios":"levelo://app?vid=f0a31fe4-ad6e-4df7-8720-92d6dcf6b595"},"vehicle_type_id":"4","last_reported":1692738368,"current_range_meters":30000,"station_id":"ce4bhbp2rcd13ifvqesg","pricing_plan_id":"free"},{"bike_id":"b4516e77-9ba0-4712-9982-5e5de7bcb41c","system_id":"levelo_inurba_marseille","lat":43.292754,"lon":5.368407,"is_reserved":false,"is_disabled":false,"rental_uris":{"android":"levelo://app?vid=b4516e77-9ba0-4712-9982-5e5de7bcb41c","ios":"levelo://app?vid=b4516e77-9ba0-4712-9982-5e5de7bcb41c"},"vehicle_type_id":"4","last_reported":1692738368,"current_range_meters":20000,"station_id":"ce4bhbp2rcd13ifvqesg","pricing_plan_id":"free"},{"bike_id":"4ba49f4a-9136-494d-906a-4c7deac20f4a","system_id":"levelo_inurba_marseille","lat":43.29241,"lon":5.36468,"is_reserved":false,"is_disabled":false,"rental_uris":{"android":"levelo://app?vid=4ba49f4a-9136-494d-906a-4c7deac20f4a","ios":"levelo://app?vid=4ba49f4a-9136-494d-906a-4c7deac20f4a"},"vehicle_type_id":"4","last_reported":1692738368,"current_range_meters":800,"station_id":"","pricing_plan_id":"free"},{"bike_id":"aaa8c77d-9d61-447f-bfa9-5b7e2b05835e","system_id":"levelo_inurba_marseille","lat":43.305994,"lon":5.393687,"is_reserved":false,"is_disabled":false,"rental_uris":{"android":"levelo://app?vid=aaa8c77d-9d61-447f-bfa9-5b7e2b05835e","ios":"levelo://app?vid=aaa8c77d-9d61-447f-bfa9-5b7e2b05835e"},"vehicle_type_id":"4","last_reported":1692738368,"current_range_meters":20000,"station_id":"ce4bh0p2rcd13ifvqd80","pricing_plan_id":"free"},{"bike_id":"581e312e-fe10-462a-bce4-2828b1e2fdc8","system_id":"levelo_inurba_marseille","lat":43.30588,"lon":5.39352,"is_reserved":false,"is_disabled":false,"rental_uris":{"android":"levelo://app?vid=581e312e-fe10-462a-bce4-2828b1e2fdc8","ios":"levelo://app?vid=581e312e-fe10-462a-bce4-2828b1e2fdc8"},"vehicle_type_id":"4","last_reported":1692738368,"current_range_meters":800,"station_id":"ce4bh0p2rcd13ifvqd80","pricing_plan_id":"free"},{"bike_id":"caa8992a-3f63-4997-ac44-be2b5b86ec4a","system_id":"levelo_inurba_marseille","lat":43.305992,"lon":5.393618,"is_reserved":false,"is_disabled":false,"rental_uris":{"android":"levelo://app?vid=caa8992a-3f63-4997-ac44-be2b5b86ec4a","ios":"levelo://app?vid=caa8992a-3f63-4997-ac44-be2b5b86ec4a"},"vehicle_type_id":"4","last_reported":1692738368,"current_range_meters":15600,"station_id":"ce4bh0p2rcd13ifvqd80","pricing_plan_id":"free"},{"bike_id":"61875794-9d5d-447c-a6a8-319b7e14b400","system_id":"levelo_inurba_marseille","lat":43.30589,"lon":5.39358,"is_reserved":false,"is_disabled":false,"rental_uris":{"android":"levelo://app?vid=61875794-9d5d-447c-a6a8-319b7e14b400","ios":"levelo://app?vid=61875794-9d5d-447c-a6a8-319b7e14b400"},"vehicle_type_id":"4","last_reported":1692738368,"current_range_meters":2400,"station_id":"ce4bh0p2rcd13ifvqd80","pricing_plan_id":"free"},{"bike_id":"11f162e0-1884-45e2-b243-3e3564bfcd39","system_id":"levelo_inurba_marseille","lat":43.305994,"lon":5.393687,"is_reserved":false,"is_disabled":false,"rental_uris":{"android":"levelo://app?vid=11f162e0-1884-45e2-b243-3e3564bfcd39","ios":"levelo://app?vid=11f162e0-1884-45e2-b243-3e3564bfcd39"},"vehicle_type_id":"4","last_reported":1692738368,"current_range_meters":8400,"station_id":"ce4bh0p2rcd13ifvqd80","pricing_plan_id":"free"},{"bike_id":"9ad614f3-ed10-4863-a4fd-05e1167da560","system_id":"levelo_inurba_marseille","lat":43.305994,"lon":5.393687,"is_reserved":false,"is_disabled":false,"rental_uris":{"android":"levelo://app?vid=9ad614f3-ed10-4863-a4fd-05e1167da560","ios":"levelo://app?vid=9ad614f3-ed10-4863-a4fd-05e1167da560"},"vehicle_type_id":"4","last_reported":1692738368,"current_range_meters":31200,"station_id":"ce4bh0p2rcd13ifvqd80","pricing_plan_id":"free"},{"bike_id":"0724f352-a262-45b7-9b71-9a09ff17d945","system_id":"levelo_inurba_marseille","lat":43.30299,"lon":5.39205,"is_reserved":false,"is_disabled":false,"rental_uris":{"android":"levelo://app?vid=0724f352-a262-45b7-9b71-9a09ff17d945","ios":"levelo://app?vid=0724f352-a262-45b7-9b71-9a09ff17d945"},"vehicle_type_id":"4","last_reported":1692738368,"current_range_meters":30400,"station_id":"ce4bgkh2rcd13ifvqbk0","pricing_plan_id":"free"},{"bike_id":"97cb69b2-3f42-47b5-889a-426e30c171f3","system_id":"levelo_inurba_marseille","lat":43.2936,"lon":5.37835,"is_reserved":false,"is_disabled":false,"rental_uris":{"android":"levelo://app?vid=97cb69b2-3f42-47b5-889a-426e30c171f3","ios":"levelo://app?vid=97cb69b2-3f42-47b5-889a-426e30c171f3"},"vehicle_type_id":"4","last_reported":1692738368,"current_range_meters":2400,"station_id":"ce4bgjh2rcd13ifvqbf0","pricing_plan_id":"free"},{"bike_id":"5e4b932b-3d48-4325-afd0-4f01790ab9cd","system_id":"levelo_inurba_marseille","lat":43.2936,"lon":5.37835,"is_reserved":false,"is_disabled":false,"rental_uris":{"android":"levelo://app?vid=5e4b932b-3d48-4325-afd0-4f01790ab9cd","ios":"levelo://app?vid=5e4b932b-3d48-4325-afd0-4f01790ab9cd"},"vehicle_type_id":"4","last_reported":1692738368,"current_range_meters":14000,"station_id":"ce4bgjh2rcd13ifvqbf0","pricing_plan_id":"free"},{"bike_id":"38fef587-7cc5-4800-b069-87b8f296a10a","system_id":"levelo_inurba_marseille","lat":43.29269,"lon":5.37477,"is_reserved":false,"is_disabled":false,"rental_uris":{"android":"levelo://app?vid=38fef587-7cc5-4800-b069-87b8f296a10a","ios":"levelo://app?vid=38fef587-7cc5-4800-b069-87b8f296a10a"},"vehicle_type_id":"4","last_reported":1692738368,"current_range_meters":31200,"station_id":"ce4bgi12rcd13ifvqb70","pricing_plan_id":"free"},{"bike_id":"2086f2db-9f1d-4694-90e5-3bdc415fd974","system_id":"levelo_inurba_marseille","lat":43.300852,"lon":5.390859,"is_reserved":false,"is_disabled":false,"rental_uris":{"android":"levelo://app?vid=2086f2db-9f1d-4694-90e5-3bdc415fd974","ios":"levelo://app?vid=2086f2db-9f1d-4694-90e5-3bdc415fd974"},"vehicle_type_id":"4","last_reported":1692738368,"current_range_meters":2000,"station_id":"ce4bh192rcd13ifvqdb0","pricing_plan_id":"free"},{"bike_id":"bac3a101-c108-4a58-b038-6ec4d97ffb54","system_id":"levelo_inurba_marseille","lat":43.30892,"lon":5.39631,"is_reserved":false,"is_disabled":false,"rental_uris":{"android":"levelo://app?vid=bac3a101-c108-4a58-b038-6ec4d97ffb54","ios":"levelo://app?vid=bac3a101-c108-4a58-b038-6ec4d97ffb54"},"vehicle_type_id":"4","last_reported":1692738368,"current_range_meters":26800,"station_id":"ce4bh012rcd13ifvqcv0","pricing_plan_id":"free"},{"bike_id":"637f1d0b-7d22-452f-b31c-2ae320b69447","system_id":"levelo_inurba_marseille","lat":43.309038,"lon":5.396546,"is_reserved":false,"is_disabled":false,"rental_uris":{"android":"levelo://app?vid=637f1d0b-7d22-452f-b31c-2ae320b69447","ios":"levelo://app?vid=637f1d0b-7d22-452f-b31c-2ae320b69447"},"vehicle_type_id":"4","last_reported":1692738368,"current_range_meters":9600,"station_id":"ce4bh012rcd13ifvqcv0","pricing_plan_id":"free"},{"bike_id":"f45ab98f-8a47-4787-a8b2-a40b8611b07b","system_id":"levelo_inurba_marseille","lat":43.30877,"lon":5.39652,"is_reserved":false,"is_disabled":false,"rental_uris":{"android":"levelo://app?vid=f45ab98f-8a47-4787-a8b2-a40b8611b07b","ios":"levelo://app?vid=f45ab98f-8a47-4787-a8b2-a40b8611b07b"},"vehicle_type_id":"4","last_reported":1692738368,"current_range_meters":15600,"station_id":"ce4bh012rcd13ifvqcv0","pricing_plan_id":"free"},{"bike_id":"3fafc205-03a9-4991-ad42-2ebe16297a6e","system_id":"levelo_inurba_marseille","lat":43.29529,"lon":5.385581,"is_reserved":false,"is_disabled":false,"rental_uris":{"android":"levelo://app?vid=3fafc205-03a9-4991-ad42-2ebe16297a6e","ios":"levelo://app?vid=3fafc205-03a9-4991-ad42-2ebe16297a6e"},"vehicle_type_id":"4","last_reported":1692738368,"current_range_meters":26800,"station_id":"ce4bgih2rcd13ifvqba0","pricing_plan_id":"free"},{"bike_id":"894c96a3-c65b-4206-a347-51ae1822e707","system_id":"levelo_inurba_marseille","lat":43.29529,"lon":5.385581,"is_reserved":false,"is_disabled":false,"rental_uris":{"android":"levelo://app?vid=894c96a3-c65b-4206-a347-51ae1822e707","ios":"levelo://app?vid=894c96a3-c65b-4206-a347-51ae1822e707"},"vehicle_type_id":"4","last_reported":1692738368,"current_range_meters":0,"station_id":"ce4bgih2rcd13ifvqba0","pricing_plan_id":"free"},{"bike_id":"26197f13-1062-4671-977a-e975873a031a","system_id":"levelo_inurba_marseille","lat":43.30872,"lon":5.39661,"is_reserved":false,"is_disabled":false,"rental_uris":{"android":"levelo://app?vid=26197f13-1062-4671-977a-e975873a031a","ios":"levelo://app?vid=26197f13-1062-4671-977a-e975873a031a"},"vehicle_type_id":"4","last_reported":1692738368,"current_range_meters":7200,"station_id":"ce4bh012rcd13ifvqcv0","pricing_plan_id":"free"},{"bike_id":"bf71c76e-4369-456c-b68c-c694e09e6867","system_id":"levelo_inurba_marseille","lat":43.29536,"lon":5.3854,"is_reserved":false,"is_disabled":false,"rental_uris":{"android":"levelo://app?vid=bf71c76e-4369-456c-b68c-c694e09e6867","ios":"levelo://app?vid=bf71c76e-4369-456c-b68c-c694e09e6867"},"vehicle_type_id":"4","last_reported":1692738368,"current_range_meters":1600,"station_id":"ce4bgih2rcd13ifvqba0","pricing_plan_id":"free"},{"bike_id":"2cc91d8b-3968-4ec8-bacd-25efc1813388","system_id":"levelo_inurba_marseille","lat":43.29529,"lon":5.385581,"is_reserved":false,"is_disabled":false,"rental_uris":{"android":"levelo://app?vid=2cc91d8b-3968-4ec8-bacd-25efc1813388","ios":"levelo://app?vid=2cc91d8b-3968-4ec8-bacd-25efc1813388"},"vehicle_type_id":"4","last_reported":1692738368,"current_range_meters":31200,"station_id":"ce4bgih2rcd13ifvqba0","pricing_plan_id":"free"},{"bike_id":"b2de43cb-a723-47f9-87aa-2e4160c879ed","system_id":"levelo_inurba_marseille","lat":43.29529,"lon":5.385581,"is_reserved":false,"is_disabled":false,"rental_uris":{"android":"levelo://app?vid=b2de43cb-a723-47f9-87aa-2e4160c879ed","ios":"levelo://app?vid=b2de43cb-a723-47f9-87aa-2e4160c879ed"},"vehicle_type_id":"4","last_reported":1692738368,"current_range_meters":4800,"station_id":"ce4bgih2rcd13ifvqba0","pricing_plan_id":"free"},{"bike_id":"7f19c326-f11b-47c2-bfec-4cb0b4cf9a34","system_id":"levelo_inurba_marseille","lat":43.29536,"lon":5.38548,"is_reserved":false,"is_disabled":false,"rental_uris":{"android":"levelo://app?vid=7f19c326-f11b-47c2-bfec-4cb0b4cf9a34","ios":"levelo://app?vid=7f19c326-f11b-47c2-bfec-4cb0b4cf9a34"},"vehicle_type_id":"4","last_reported":1692738368,"current_range_meters":0,"station_id":"ce4bgih2rcd13ifvqba0","pricing_plan_id":"free"},{"bike_id":"df514ea9-9c0d-4c24-a3ad-2db0247e120c","system_id":"levelo_inurba_marseille","lat":43.29533,"lon":5.38544,"is_reserved":false,"is_disabled":false,"rental_uris":{"android":"levelo://app?vid=df514ea9-9c0d-4c24-a3ad-2db0247e120c","ios":"levelo://app?vid=df514ea9-9c0d-4c24-a3ad-2db0247e120c"},"vehicle_type_id":"4","last_reported":1692738368,"current_range_meters":17200,"station_id":"ce4bgih2rcd13ifvqba0","pricing_plan_id":"free"},{"bike_id":"a92b85cb-ecdd-4e90-9701-fce587da1fb5","system_id":"levelo_inurba_marseille","lat":43.29533,"lon":5.38544,"is_reserved":false,"is_disabled":false,"rental_uris":{"android":"levelo://app?vid=a92b85cb-ecdd-4e90-9701-fce587da1fb5","ios":"levelo://app?vid=a92b85cb-ecdd-4e90-9701-fce587da1fb5"},"vehicle_type_id":"4","last_reported":1692738368,"current_range_meters":0,"station_id":"ce4bgih2rcd13ifvqba0","pricing_plan_id":"free"},{"bike_id":"e6c930b8-5062-4c4e-a546-e078b1103137","system_id":"levelo_inurba_marseille","lat":43.29532,"lon":5.38543,"is_reserved":false,"is_disabled":false,"rental_uris":{"android":"levelo://app?vid=e6c930b8-5062-4c4e-a546-e078b1103137","ios":"levelo://app?vid=e6c930b8-5062-4c4e-a546-e078b1103137"},"vehicle_type_id":"4","last_reported":1692738368,"current_range_meters":25600,"station_id":"ce4bgih2rcd13ifvqba0","pricing_plan_id":"free"},{"bike_id":"d30f3382-6234-4cb1-b4d5-6afdc7818f81","system_id":"levelo_inurba_marseille","lat":43.2953,"lon":5.3854,"is_reserved":false,"is_disabled":false,"rental_uris":{"android":"levelo://app?vid=d30f3382-6234-4cb1-b4d5-6afdc7818f81","ios":"levelo://app?vid=d30f3382-6234-4cb1-b4d5-6afdc7818f81"},"vehicle_type_id":"4","last_reported":1692738368,"current_range_meters":10000,"station_id":"ce4bgih2rcd13ifvqba0","pricing_plan_id":"free"},{"bike_id":"dd4343be-aa81-4d76-8571-da1e831ef24c","system_id":"levelo_inurba_marseille","lat":43.29528,"lon":5.38538,"is_reserved":false,"is_disabled":false,"rental_uris":{"android":"levelo://app?vid=dd4343be-aa81-4d76-8571-da1e831ef24c","ios":"levelo://app?vid=dd4343be-aa81-4d76-8571-da1e831ef24c"},"vehicle_type_id":"4","last_reported":1692738368,"current_range_meters":0,"station_id":"ce4bgih2rcd13ifvqba0","pricing_plan_id":"free"},{"bike_id":"d6aab7db-0bef-4e98-b647-48c3ea4d622b","system_id":"levelo_inurba_marseille","lat":43.29531,"lon":5.38544,"is_reserved":false,"is_disabled":false,"rental_uris":{"android":"levelo://app?vid=d6aab7db-0bef-4e98-b647-48c3ea4d622b","ios":"levelo://app?vid=d6aab7db-0bef-4e98-b647-48c3ea4d622b"},"vehicle_type_id":"4","last_reported":1692738368,"current_range_meters":12800,"station_id":"ce4bgih2rcd13ifvqba0","pricing_plan_id":"free"},{"bike_id":"5100eef7-4a09-4006-abb5-cde67eacae5f","system_id":"levelo_inurba_marseille","lat":43.29529,"lon":5.385581,"is_reserved":false,"is_disabled":false,"rental_uris":{"android":"levelo://app?vid=5100eef7-4a09-4006-abb5-cde67eacae5f","ios":"levelo://app?vid=5100eef7-4a09-4006-abb5-cde67eacae5f"},"vehicle_type_id":"4","last_reported":1692738368,"current_range_meters":18800,"station_id":"ce4bgih2rcd13ifvqba0","pricing_plan_id":"free"},{"bike_id":"ddefef2b-4d02-461b-befe-c7f32d299436","system_id":"levelo_inurba_marseille","lat":43.29529,"lon":5.38542,"is_reserved":false,"is_disabled":false,"rental_uris":{"android":"levelo://app?vid=ddefef2b-4d02-461b-befe-c7f32d299436","ios":"levelo://app?vid=ddefef2b-4d02-461b-befe-c7f32d299436"},"vehicle_type_id":"4","last_reported":1692738368,"current_range_meters":12800,"station_id":"ce4bgih2rcd13ifvqba0","pricing_plan_id":"free"},{"bike_id":"fa5a6f78-397b-4ab2-baa0-8ad60b5654ad","system_id":"levelo_inurba_marseille","lat":43.29526,"lon":5.38538,"is_reserved":false,"is_disabled":false,"rental_uris":{"android":"levelo://app?vid=fa5a6f78-397b-4ab2-baa0-8ad60b5654ad","ios":"levelo://app?vid=fa5a6f78-397b-4ab2-baa0-8ad60b5654ad"},"vehicle_type_id":"4","last_reported":1692738368,"current_range_meters":12000,"station_id":"ce4bgih2rcd13ifvqba0","pricing_plan_id":"free"},{"bike_id":"af32fa2d-406d-4e09-82b2-695cf9cd7dad","system_id":"levelo_inurba_marseille","lat":43.29531,"lon":5.38552,"is_reserved":false,"is_disabled":false,"rental_uris":{"android":"levelo://app?vid=af32fa2d-406d-4e09-82b2-695cf9cd7dad","ios":"levelo://app?vid=af32fa2d-406d-4e09-82b2-695cf9cd7dad"},"vehicle_type_id":"4","last_reported":1692738368,"current_range_meters":400,"station_id":"ce4bgih2rcd13ifvqba0","pricing_plan_id":"free"},{"bike_id":"23f3e5a0-807c-4010-8802-0cc963debc41","system_id":"levelo_inurba_marseille","lat":43.29531,"lon":5.38552,"is_reserved":false,"is_disabled":false,"rental_uris":{"android":"levelo://app?vid=23f3e5a0-807c-4010-8802-0cc963debc41","ios":"levelo://app?vid=23f3e5a0-807c-4010-8802-0cc963debc41"},"vehicle_type_id":"4","last_reported":1692738368,"current_range_meters":10800,"station_id":"ce4bgih2rcd13ifvqba0","pricing_plan_id":"free"},{"bike_id":"0e473bc5-f39f-4237-a728-b77f8190021f","system_id":"levelo_inurba_marseille","lat":43.29531,"lon":5.38553,"is_reserved":false,"is_disabled":false,"rental_uris":{"android":"levelo://app?vid=0e473bc5-f39f-4237-a728-b77f8190021f","ios":"levelo://app?vid=0e473bc5-f39f-4237-a728-b77f8190021f"},"vehicle_type_id":"4","last_reported":1692738368,"current_range_meters":18800,"station_id":"ce4bgih2rcd13ifvqba0","pricing_plan_id":"free"},{"bike_id":"441ddb8d-bc33-4780-a462-985ec0c32747","system_id":"levelo_inurba_marseille","lat":43.29521,"lon":5.38542,"is_reserved":false,"is_disabled":false,"rental_uris":{"android":"levelo://app?vid=441ddb8d-bc33-4780-a462-985ec0c32747","ios":"levelo://app?vid=441ddb8d-bc33-4780-a462-985ec0c32747"},"vehicle_type_id":"4","last_reported":1692738368,"current_range_meters":0,"station_id":"ce4bgih2rcd13ifvqba0","pricing_plan_id":"free"},{"bike_id":"923971e2-948b-4383-9fd9-b99c0202375b","system_id":"levelo_inurba_marseille","lat":43.29529,"lon":5.385581,"is_reserved":false,"is_disabled":false,"rental_uris":{"android":"levelo://app?vid=923971e2-948b-4383-9fd9-b99c0202375b","ios":"levelo://app?vid=923971e2-948b-4383-9fd9-b99c0202375b"},"vehicle_type_id":"4","last_reported":1692738368,"current_range_meters":27200,"station_id":"ce4bgih2rcd13ifvqba0","pricing_plan_id":"free"},{"bike_id":"2279c813-7154-408b-8d6b-2b05ae86a2a1","system_id":"levelo_inurba_marseille","lat":43.290779,"lon":5.371482,"is_reserved":false,"is_disabled":false,"rental_uris":{"android":"levelo://app?vid=2279c813-7154-408b-8d6b-2b05ae86a2a1","ios":"levelo://app?vid=2279c813-7154-408b-8d6b-2b05ae86a2a1"},"vehicle_type_id":"4","last_reported":1692738368,"current_range_meters":30400,"station_id":"ce4bh5p2rcd13ifvqe4g","pricing_plan_id":"free"},{"bike_id":"fcacf185-e1c5-4124-856e-4bddfda7a73b","system_id":"levelo_inurba_marseille","lat":43.290624,"lon":5.359245,"is_reserved":false,"is_disabled":false,"rental_uris":{"android":"levelo://app?vid=fcacf185-e1c5-4124-856e-4bddfda7a73b","ios":"levelo://app?vid=fcacf185-e1c5-4124-856e-4bddfda7a73b"},"vehicle_type_id":"4","last_reported":1692738368,"current_range_meters":4800,"station_id":"ce4bha92rcd13ifvqeg0","pricing_plan_id":"free"},{"bike_id":"39b5b5cf-86ef-48ea-a176-58e554756417","system_id":"levelo_inurba_marseille","lat":43.302008,"lon":5.394694,"is_reserved":false,"is_disabled":false,"rental_uris":{"android":"levelo://app?vid=39b5b5cf-86ef-48ea-a176-58e554756417","ios":"levelo://app?vid=39b5b5cf-86ef-48ea-a176-58e554756417"},"vehicle_type_id":"4","last_reported":1692738368,"current_range_meters":31200,"station_id":"ce4bh0p2rcd13ifvqd70","pricing_plan_id":"free"},{"bike_id":"c702a175-aa0b-40eb-8e16-20958543d61f","system_id":"levelo_inurba_marseille","lat":43.2904,"lon":5.3757,"is_reserved":false,"is_disabled":false,"rental_uris":{"android":"levelo://app?vid=c702a175-aa0b-40eb-8e16-20958543d61f","ios":"levelo://app?vid=c702a175-aa0b-40eb-8e16-20958543d61f"},"vehicle_type_id":"4","last_reported":1692738368,"current_range_meters":2800,"station_id":"ce4bh692rcd13ifvqe90","pricing_plan_id":"free"},{"bike_id":"796ece55-1ae1-4b96-8000-1740e4018a44","system_id":"levelo_inurba_marseille","lat":43.294153,"lon":5.386305,"is_reserved":false,"is_disabled":false,"rental_uris":{"android":"levelo://app?vid=796ece55-1ae1-4b96-8000-1740e4018a44","ios":"levelo://app?vid=796ece55-1ae1-4b96-8000-1740e4018a44"},"vehicle_type_id":"4","last_reported":1692738368,"current_range_meters":14000,"station_id":"ce4bh2h2rcd13ifvqdh0","pricing_plan_id":"free"},{"bike_id":"2ad69db7-8fd4-4c87-bae2-ac5200c1f70e","system_id":"levelo_inurba_marseille","lat":43.29419,"lon":5.38626,"is_reserved":false,"is_disabled":false,"rental_uris":{"android":"levelo://app?vid=2ad69db7-8fd4-4c87-bae2-ac5200c1f70e","ios":"levelo://app?vid=2ad69db7-8fd4-4c87-bae2-ac5200c1f70e"},"vehicle_type_id":"4","last_reported":1692738368,"current_range_meters":20800,"station_id":"ce4bh2h2rcd13ifvqdh0","pricing_plan_id":"free"},{"bike_id":"77004dd4-4d4d-47e3-a9dc-39f414fc98e6","system_id":"levelo_inurba_marseille","lat":43.294153,"lon":5.386305,"is_reserved":false,"is_disabled":false,"rental_uris":{"android":"levelo://app?vid=77004dd4-4d4d-47e3-a9dc-39f414fc98e6","ios":"levelo://app?vid=77004dd4-4d4d-47e3-a9dc-39f414fc98e6"},"vehicle_type_id":"4","last_reported":1692738368,"current_range_meters":10400,"station_id":"ce4bh2h2rcd13ifvqdh0","pricing_plan_id":"free"},{"bike_id":"3aaac9f1-a6fb-45f3-a22c-a88d25f2454a","system_id":"levelo_inurba_marseille","lat":43.2942,"lon":5.38631,"is_reserved":false,"is_disabled":false,"rental_uris":{"android":"levelo://app?vid=3aaac9f1-a6fb-45f3-a22c-a88d25f2454a","ios":"levelo://app?vid=3aaac9f1-a6fb-45f3-a22c-a88d25f2454a"},"vehicle_type_id":"4","last_reported":1692738368,"current_range_meters":18400,"station_id":"ce4bh2h2rcd13ifvqdh0","pricing_plan_id":"free"},{"bike_id":"63128ee7-7c6c-4439-9083-496ce0b6d69f","system_id":"levelo_inurba_marseille","lat":43.29418,"lon":5.38629,"is_reserved":false,"is_disabled":false,"rental_uris":{"android":"levelo://app?vid=63128ee7-7c6c-4439-9083-496ce0b6d69f","ios":"levelo://app?vid=63128ee7-7c6c-4439-9083-496ce0b6d69f"},"vehicle_type_id":"4","last_reported":1692738368,"current_range_meters":10400,"station_id":"ce4bh2h2rcd13ifvqdh0","pricing_plan_id":"free"},{"bike_id":"a4f8fac5-c337-49d0-bab3-8a525e39720f","system_id":"levelo_inurba_marseille","lat":43.29415,"lon":5.38625,"is_reserved":false,"is_disabled":false,"rental_uris":{"android":"levelo://app?vid=a4f8fac5-c337-49d0-bab3-8a525e39720f","ios":"levelo://app?vid=a4f8fac5-c337-49d0-bab3-8a525e39720f"},"vehicle_type_id":"4","last_reported":1692738368,"current_range_meters":19200,"station_id":"ce4bh2h2rcd13ifvqdh0","pricing_plan_id":"free"},{"bike_id":"1367ae2d-6756-43bf-997c-ace901ca0ffc","system_id":"levelo_inurba_marseille","lat":43.294153,"lon":5.386305,"is_reserved":false,"is_disabled":false,"rental_uris":{"android":"levelo://app?vid=1367ae2d-6756-43bf-997c-ace901ca0ffc","ios":"levelo://app?vid=1367ae2d-6756-43bf-997c-ace901ca0ffc"},"vehicle_type_id":"4","last_reported":1692738368,"current_range_meters":9200,"station_id":"ce4bh2h2rcd13ifvqdh0","pricing_plan_id":"free"},{"bike_id":"a95ee426-85d6-46eb-84e7-9979657e8289","system_id":"levelo_inurba_marseille","lat":43.29417,"lon":5.38633,"is_reserved":false,"is_disabled":false,"rental_uris":{"android":"levelo://app?vid=a95ee426-85d6-46eb-84e7-9979657e8289","ios":"levelo://app?vid=a95ee426-85d6-46eb-84e7-9979657e8289"},"vehicle_type_id":"4","last_reported":1692738368,"current_range_meters":800,"station_id":"ce4bh2h2rcd13ifvqdh0","pricing_plan_id":"free"},{"bike_id":"f3d1fe89-7bf2-4d87-9f0a-2d0a209ef53a","system_id":"levelo_inurba_marseille","lat":43.29417,"lon":5.38634,"is_reserved":false,"is_disabled":false,"rental_uris":{"android":"levelo://app?vid=f3d1fe89-7bf2-4d87-9f0a-2d0a209ef53a","ios":"levelo://app?vid=f3d1fe89-7bf2-4d87-9f0a-2d0a209ef53a"},"vehicle_type_id":"4","last_reported":1692738368,"current_range_meters":5600,"station_id":"ce4bh2h2rcd13ifvqdh0","pricing_plan_id":"free"},{"bike_id":"e7d839d3-1ea7-4949-80db-31fbc613aa34","system_id":"levelo_inurba_marseille","lat":43.29414,"lon":5.38631,"is_reserved":false,"is_disabled":false,"rental_uris":{"android":"levelo://app?vid=e7d839d3-1ea7-4949-80db-31fbc613aa34","ios":"levelo://app?vid=e7d839d3-1ea7-4949-80db-31fbc613aa34"},"vehicle_type_id":"4","last_reported":1692738368,"current_range_meters":7200,"station_id":"ce4bh2h2rcd13ifvqdh0","pricing_plan_id":"free"},{"bike_id":"785f2602-e877-44b6-9e60-6da87ac16a3a","system_id":"levelo_inurba_marseille","lat":43.29413,"lon":5.3863,"is_reserved":false,"is_disabled":false,"rental_uris":{"android":"levelo://app?vid=785f2602-e877-44b6-9e60-6da87ac16a3a","ios":"levelo://app?vid=785f2602-e877-44b6-9e60-6da87ac16a3a"},"vehicle_type_id":"4","last_reported":1692738368,"current_range_meters":19200,"station_id":"ce4bh2h2rcd13ifvqdh0","pricing_plan_id":"free"},{"bike_id":"dbd41a50-f896-4303-b0fb-2699d7be9132","system_id":"levelo_inurba_marseille","lat":43.29412,"lon":5.38629,"is_reserved":false,"is_disabled":false,"rental_uris":{"android":"levelo://app?vid=dbd41a50-f896-4303-b0fb-2699d7be9132","ios":"levelo://app?vid=dbd41a50-f896-4303-b0fb-2699d7be9132"},"vehicle_type_id":"4","last_reported":1692738368,"current_range_meters":23600,"station_id":"ce4bh2h2rcd13ifvqdh0","pricing_plan_id":"free"},{"bike_id":"234ff499-3ff9-4623-bf72-130930eb0ee0","system_id":"levelo_inurba_marseille","lat":43.29265,"lon":5.38437,"is_reserved":false,"is_disabled":false,"rental_uris":{"android":"levelo://app?vid=234ff499-3ff9-4623-bf72-130930eb0ee0","ios":"levelo://app?vid=234ff499-3ff9-4623-bf72-130930eb0ee0"},"vehicle_type_id":"4","last_reported":1692738368,"current_range_meters":23600,"station_id":"ce4bh692rcd13ifvqea0","pricing_plan_id":"free"},{"bike_id":"5adee765-1726-4635-8986-b7c843a0ad86","system_id":"levelo_inurba_marseille","lat":43.292644,"lon":5.384257,"is_reserved":false,"is_disabled":false,"rental_uris":{"android":"levelo://app?vid=5adee765-1726-4635-8986-b7c843a0ad86","ios":"levelo://app?vid=5adee765-1726-4635-8986-b7c843a0ad86"},"vehicle_type_id":"4","last_reported":1692738368,"current_range_meters":26400,"station_id":"ce4bh692rcd13ifvqea0","pricing_plan_id":"free"},{"bike_id":"b7aed49f-d95c-420f-80ee-f904e8bbbc04","system_id":"levelo_inurba_marseille","lat":43.292644,"lon":5.384257,"is_reserved":false,"is_disabled":false,"rental_uris":{"android":"levelo://app?vid=b7aed49f-d95c-420f-80ee-f904e8bbbc04","ios":"levelo://app?vid=b7aed49f-d95c-420f-80ee-f904e8bbbc04"},"vehicle_type_id":"4","last_reported":1692738368,"current_range_meters":31200,"station_id":"ce4bh692rcd13ifvqea0","pricing_plan_id":"free"},{"bike_id":"622d1ac4-c0c2-460b-915b-fcde873bcb95","system_id":"levelo_inurba_marseille","lat":43.292642,"lon":5.384254,"is_reserved":false,"is_disabled":false,"rental_uris":{"android":"levelo://app?vid=622d1ac4-c0c2-460b-915b-fcde873bcb95","ios":"levelo://app?vid=622d1ac4-c0c2-460b-915b-fcde873bcb95"},"vehicle_type_id":"4","last_reported":1692738368,"current_range_meters":29200,"station_id":"ce4bh692rcd13ifvqea0","pricing_plan_id":"free"},{"bike_id":"7f5e1fcb-c292-4279-b103-0b6275777e4d","system_id":"levelo_inurba_marseille","lat":43.292644,"lon":5.384257,"is_reserved":false,"is_disabled":false,"rental_uris":{"android":"levelo://app?vid=7f5e1fcb-c292-4279-b103-0b6275777e4d","ios":"levelo://app?vid=7f5e1fcb-c292-4279-b103-0b6275777e4d"},"vehicle_type_id":"4","last_reported":1692738368,"current_range_meters":30000,"station_id":"ce4bh692rcd13ifvqea0","pricing_plan_id":"free"},{"bike_id":"13d1a3be-5d6e-4378-a78f-8e67d0368424","system_id":"levelo_inurba_marseille","lat":43.304274,"lon":5.397513,"is_reserved":false,"is_disabled":false,"rental_uris":{"android":"levelo://app?vid=13d1a3be-5d6e-4378-a78f-8e67d0368424","ios":"levelo://app?vid=13d1a3be-5d6e-4378-a78f-8e67d0368424"},"vehicle_type_id":"4","last_reported":1692738368,"current_range_meters":26800,"station_id":"ce4bh092rcd13ifvqd20","pricing_plan_id":"free"},{"bike_id":"0d97f343-9af3-4d45-99ad-4afc07538e53","system_id":"levelo_inurba_marseille","lat":43.292642,"lon":5.384254,"is_reserved":false,"is_disabled":false,"rental_uris":{"android":"levelo://app?vid=0d97f343-9af3-4d45-99ad-4afc07538e53","ios":"levelo://app?vid=0d97f343-9af3-4d45-99ad-4afc07538e53"},"vehicle_type_id":"4","last_reported":1692738368,"current_range_meters":31200,"station_id":"ce4bh692rcd13ifvqea0","pricing_plan_id":"free"},{"bike_id":"62037bc5-10fa-4b66-aca1-005bf3589049","system_id":"levelo_inurba_marseille","lat":43.292642,"lon":5.384254,"is_reserved":false,"is_disabled":false,"rental_uris":{"android":"levelo://app?vid=62037bc5-10fa-4b66-aca1-005bf3589049","ios":"levelo://app?vid=62037bc5-10fa-4b66-aca1-005bf3589049"},"vehicle_type_id":"4","last_reported":1692738368,"current_range_meters":25600,"station_id":"ce4bh692rcd13ifvqea0","pricing_plan_id":"free"},{"bike_id":"b574eb39-b46c-4ef4-b93c-d45f975f1b1f","system_id":"levelo_inurba_marseille","lat":43.292644,"lon":5.384257,"is_reserved":false,"is_disabled":false,"rental_uris":{"android":"levelo://app?vid=b574eb39-b46c-4ef4-b93c-d45f975f1b1f","ios":"levelo://app?vid=b574eb39-b46c-4ef4-b93c-d45f975f1b1f"},"vehicle_type_id":"4","last_reported":1692738368,"current_range_meters":26000,"station_id":"ce4bh692rcd13ifvqea0","pricing_plan_id":"free"},{"bike_id":"52c0c6ce-0f87-4e50-9033-6f4ddb250a47","system_id":"levelo_inurba_marseille","lat":43.29262,"lon":5.38448,"is_reserved":false,"is_disabled":false,"rental_uris":{"android":"levelo://app?vid=52c0c6ce-0f87-4e50-9033-6f4ddb250a47","ios":"levelo://app?vid=52c0c6ce-0f87-4e50-9033-6f4ddb250a47"},"vehicle_type_id":"4","last_reported":1692738368,"current_range_meters":10400,"station_id":"ce4bh692rcd13ifvqea0","pricing_plan_id":"free"},{"bike_id":"0830f8b4-1bef-4495-86a5-fc803618804a","system_id":"levelo_inurba_marseille","lat":43.292644,"lon":5.384257,"is_reserved":false,"is_disabled":false,"rental_uris":{"android":"levelo://app?vid=0830f8b4-1bef-4495-86a5-fc803618804a","ios":"levelo://app?vid=0830f8b4-1bef-4495-86a5-fc803618804a"},"vehicle_type_id":"4","last_reported":1692738368,"current_range_meters":13200,"station_id":"ce4bh692rcd13ifvqea0","pricing_plan_id":"free"},{"bike_id":"59e9bb2b-25a5-4767-8b22-6fc84dcfba63","system_id":"levelo_inurba_marseille","lat":43.292644,"lon":5.384257,"is_reserved":false,"is_disabled":false,"rental_uris":{"android":"levelo://app?vid=59e9bb2b-25a5-4767-8b22-6fc84dcfba63","ios":"levelo://app?vid=59e9bb2b-25a5-4767-8b22-6fc84dcfba63"},"vehicle_type_id":"4","last_reported":1692738368,"current_range_meters":15600,"station_id":"ce4bh692rcd13ifvqea0","pricing_plan_id":"free"},{"bike_id":"8281b9c4-f624-4461-805e-3a47d2b1dc8c","system_id":"levelo_inurba_marseille","lat":43.2926,"lon":5.3845,"is_reserved":false,"is_disabled":false,"rental_uris":{"android":"levelo://app?vid=8281b9c4-f624-4461-805e-3a47d2b1dc8c","ios":"levelo://app?vid=8281b9c4-f624-4461-805e-3a47d2b1dc8c"},"vehicle_type_id":"4","last_reported":1692738368,"current_range_meters":31200,"station_id":"ce4bh692rcd13ifvqea0","pricing_plan_id":"free"},{"bike_id":"810ca40e-2beb-4d7b-a76c-d4fd63e0faff","system_id":"levelo_inurba_marseille","lat":43.292642,"lon":5.384254,"is_reserved":false,"is_disabled":false,"rental_uris":{"android":"levelo://app?vid=810ca40e-2beb-4d7b-a76c-d4fd63e0faff","ios":"levelo://app?vid=810ca40e-2beb-4d7b-a76c-d4fd63e0faff"},"vehicle_type_id":"4","last_reported":1692738368,"current_range_meters":11600,"station_id":"ce4bh692rcd13ifvqea0","pricing_plan_id":"free"},{"bike_id":"6de74f0a-67c9-41a0-beae-9bff7bc86602","system_id":"levelo_inurba_marseille","lat":43.292644,"lon":5.384257,"is_reserved":false,"is_disabled":false,"rental_uris":{"android":"levelo://app?vid=6de74f0a-67c9-41a0-beae-9bff7bc86602","ios":"levelo://app?vid=6de74f0a-67c9-41a0-beae-9bff7bc86602"},"vehicle_type_id":"4","last_reported":1692738368,"current_range_meters":25200,"station_id":"ce4bh692rcd13ifvqea0","pricing_plan_id":"free"},{"bike_id":"1ab5569a-a71c-4fa9-9195-aa546915cd1c","system_id":"levelo_inurba_marseille","lat":43.292644,"lon":5.384257,"is_reserved":false,"is_disabled":false,"rental_uris":{"android":"levelo://app?vid=1ab5569a-a71c-4fa9-9195-aa546915cd1c","ios":"levelo://app?vid=1ab5569a-a71c-4fa9-9195-aa546915cd1c"},"vehicle_type_id":"4","last_reported":1692738368,"current_range_meters":24400,"station_id":"ce4bh692rcd13ifvqea0","pricing_plan_id":"free"},{"bike_id":"27ceb71b-26ba-4976-8745-789e4086df72","system_id":"levelo_inurba_marseille","lat":43.2926,"lon":5.38455,"is_reserved":false,"is_disabled":false,"rental_uris":{"android":"levelo://app?vid=27ceb71b-26ba-4976-8745-789e4086df72","ios":"levelo://app?vid=27ceb71b-26ba-4976-8745-789e4086df72"},"vehicle_type_id":"4","last_reported":1692738368,"current_range_meters":31200,"station_id":"ce4bh692rcd13ifvqea0","pricing_plan_id":"free"},{"bike_id":"e42ef7a4-060f-42e5-9585-8714f341edb8","system_id":"levelo_inurba_marseille","lat":43.292642,"lon":5.384254,"is_reserved":false,"is_disabled":false,"rental_uris":{"android":"levelo://app?vid=e42ef7a4-060f-42e5-9585-8714f341edb8","ios":"levelo://app?vid=e42ef7a4-060f-42e5-9585-8714f341edb8"},"vehicle_type_id":"4","last_reported":1692738368,"current_range_meters":12000,"station_id":"ce4bh692rcd13ifvqea0","pricing_plan_id":"free"},{"bike_id":"c50fbe86-cbfa-42d4-b5b3-628f7928dab3","system_id":"levelo_inurba_marseille","lat":43.292642,"lon":5.384254,"is_reserved":false,"is_disabled":false,"rental_uris":{"android":"levelo://app?vid=c50fbe86-cbfa-42d4-b5b3-628f7928dab3","ios":"levelo://app?vid=c50fbe86-cbfa-42d4-b5b3-628f7928dab3"},"vehicle_type_id":"4","last_reported":1692738368,"current_range_meters":21600,"station_id":"ce4bh692rcd13ifvqea0","pricing_plan_id":"free"},{"bike_id":"047877bd-432f-4276-8480-eaef74045d49","system_id":"levelo_inurba_marseille","lat":43.292644,"lon":5.384257,"is_reserved":false,"is_disabled":false,"rental_uris":{"android":"levelo://app?vid=047877bd-432f-4276-8480-eaef74045d49","ios":"levelo://app?vid=047877bd-432f-4276-8480-eaef74045d49"},"vehicle_type_id":"4","last_reported":1692738368,"current_range_meters":26000,"station_id":"ce4bh692rcd13ifvqea0","pricing_plan_id":"free"},{"bike_id":"74546af5-a225-484c-86a2-5426c927168d","system_id":"levelo_inurba_marseille","lat":43.29252,"lon":5.3845,"is_reserved":false,"is_disabled":false,"rental_uris":{"android":"levelo://app?vid=74546af5-a225-484c-86a2-5426c927168d","ios":"levelo://app?vid=74546af5-a225-484c-86a2-5426c927168d"},"vehicle_type_id":"4","last_reported":1692738368,"current_range_meters":31200,"station_id":"ce4bh692rcd13ifvqea0","pricing_plan_id":"free"},{"bike_id":"7e400323-01f3-4358-a248-dcf3a9105f86","system_id":"levelo_inurba_marseille","lat":43.292644,"lon":5.384257,"is_reserved":false,"is_disabled":false,"rental_uris":{"android":"levelo://app?vid=7e400323-01f3-4358-a248-dcf3a9105f86","ios":"levelo://app?vid=7e400323-01f3-4358-a248-dcf3a9105f86"},"vehicle_type_id":"4","last_reported":1692738368,"current_range_meters":31200,"station_id":"ce4bh692rcd13ifvqea0","pricing_plan_id":"free"},{"bike_id":"0f060318-14ff-4bbb-b1bd-d3bad0d20b4a","system_id":"levelo_inurba_marseille","lat":43.33039,"lon":5.3892,"is_reserved":false,"is_disabled":false,"rental_uris":{"android":"levelo://app?vid=0f060318-14ff-4bbb-b1bd-d3bad0d20b4a","ios":"levelo://app?vid=0f060318-14ff-4bbb-b1bd-d3bad0d20b4a"},"vehicle_type_id":"4","last_reported":1692738368,"current_range_meters":14000,"station_id":"ce4bhr92rcd13ifvqhrg","pricing_plan_id":"free"},{"bike_id":"ea2c072a-c599-4cb1-a67c-c82011d9d932","system_id":"levelo_inurba_marseille","lat":43.330412,"lon":5.38919,"is_reserved":false,"is_disabled":false,"rental_uris":{"android":"levelo://app?vid=ea2c072a-c599-4cb1-a67c-c82011d9d932","ios":"levelo://app?vid=ea2c072a-c599-4cb1-a67c-c82011d9d932"},"vehicle_type_id":"4","last_reported":1692738368,"current_range_meters":20000,"station_id":"ce4bhr92rcd13ifvqhrg","pricing_plan_id":"free"},{"bike_id":"3edec34c-b5e0-4c51-b916-cb7b6255aa81","system_id":"levelo_inurba_marseille","lat":43.3304,"lon":5.38921,"is_reserved":false,"is_disabled":false,"rental_uris":{"android":"levelo://app?vid=3edec34c-b5e0-4c51-b916-cb7b6255aa81","ios":"levelo://app?vid=3edec34c-b5e0-4c51-b916-cb7b6255aa81"},"vehicle_type_id":"4","last_reported":1692738368,"current_range_meters":12000,"station_id":"ce4bhr92rcd13ifvqhrg","pricing_plan_id":"free"},{"bike_id":"7691d65d-d321-467f-86e8-b26ac6013c5b","system_id":"levelo_inurba_marseille","lat":43.33038,"lon":5.38927,"is_reserved":false,"is_disabled":false,"rental_uris":{"android":"levelo://app?vid=7691d65d-d321-467f-86e8-b26ac6013c5b","ios":"levelo://app?vid=7691d65d-d321-467f-86e8-b26ac6013c5b"},"vehicle_type_id":"4","last_reported":1692738368,"current_range_meters":27600,"station_id":"ce4bhr92rcd13ifvqhrg","pricing_plan_id":"free"},{"bike_id":"8a3cca1e-f8c9-4d3c-810d-3147c2872ca7","system_id":"levelo_inurba_marseille","lat":43.33043,"lon":5.3892,"is_reserved":false,"is_disabled":false,"rental_uris":{"android":"levelo://app?vid=8a3cca1e-f8c9-4d3c-810d-3147c2872ca7","ios":"levelo://app?vid=8a3cca1e-f8c9-4d3c-810d-3147c2872ca7"},"vehicle_type_id":"4","last_reported":1692738368,"current_range_meters":24800,"station_id":"ce4bhr92rcd13ifvqhrg","pricing_plan_id":"free"},{"bike_id":"416832a5-c1d4-423b-90c0-e0470dfb3aa6","system_id":"levelo_inurba_marseille","lat":43.33041,"lon":5.38924,"is_reserved":false,"is_disabled":false,"rental_uris":{"android":"levelo://app?vid=416832a5-c1d4-423b-90c0-e0470dfb3aa6","ios":"levelo://app?vid=416832a5-c1d4-423b-90c0-e0470dfb3aa6"},"vehicle_type_id":"4","last_reported":1692738368,"current_range_meters":23200,"station_id":"ce4bhr92rcd13ifvqhrg","pricing_plan_id":"free"},{"bike_id":"4bef911f-f277-4de3-86d5-0f9c7aaa1d5e","system_id":"levelo_inurba_marseille","lat":43.33044,"lon":5.38923,"is_reserved":false,"is_disabled":false,"rental_uris":{"android":"levelo://app?vid=4bef911f-f277-4de3-86d5-0f9c7aaa1d5e","ios":"levelo://app?vid=4bef911f-f277-4de3-86d5-0f9c7aaa1d5e"},"vehicle_type_id":"4","last_reported":1692738368,"current_range_meters":14800,"station_id":"ce4bhr92rcd13ifvqhrg","pricing_plan_id":"free"},{"bike_id":"91ae4a97-63fc-410d-810e-b2b8493fa74b","system_id":"levelo_inurba_marseille","lat":43.290103,"lon":5.356114,"is_reserved":false,"is_disabled":false,"rental_uris":{"android":"levelo://app?vid=91ae4a97-63fc-410d-810e-b2b8493fa74b","ios":"levelo://app?vid=91ae4a97-63fc-410d-810e-b2b8493fa74b"},"vehicle_type_id":"4","last_reported":1692738368,"current_range_meters":16400,"station_id":"ce4bhb92rcd13ifvqen0","pricing_plan_id":"free"},{"bike_id":"b011f57f-117e-47e8-b6e6-e1cf1d007fe5","system_id":"levelo_inurba_marseille","lat":43.291012,"lon":5.381334,"is_reserved":false,"is_disabled":false,"rental_uris":{"android":"levelo://app?vid=b011f57f-117e-47e8-b6e6-e1cf1d007fe5","ios":"levelo://app?vid=b011f57f-117e-47e8-b6e6-e1cf1d007fe5"},"vehicle_type_id":"4","last_reported":1692738368,"current_range_meters":3600,"station_id":"ce4bh512rcd13ifvqe2g","pricing_plan_id":"free"},{"bike_id":"5241fa7b-494d-4f21-9f66-e891718eeb90","system_id":"levelo_inurba_marseille","lat":43.290995,"lon":5.381361,"is_reserved":false,"is_disabled":false,"rental_uris":{"android":"levelo://app?vid=5241fa7b-494d-4f21-9f66-e891718eeb90","ios":"levelo://app?vid=5241fa7b-494d-4f21-9f66-e891718eeb90"},"vehicle_type_id":"4","last_reported":1692738368,"current_range_meters":28000,"station_id":"ce4bh512rcd13ifvqe2g","pricing_plan_id":"free"},{"bike_id":"66442408-4808-4484-97b4-f9d3fd546b4d","system_id":"levelo_inurba_marseille","lat":43.29094,"lon":5.38135,"is_reserved":false,"is_disabled":false,"rental_uris":{"android":"levelo://app?vid=66442408-4808-4484-97b4-f9d3fd546b4d","ios":"levelo://app?vid=66442408-4808-4484-97b4-f9d3fd546b4d"},"vehicle_type_id":"4","last_reported":1692738368,"current_range_meters":3600,"station_id":"","pricing_plan_id":"free"},{"bike_id":"25208009-0d30-4d45-a77f-7ef4c7868ab8","system_id":"levelo_inurba_marseille","lat":43.29097,"lon":5.38162,"is_reserved":false,"is_disabled":false,"rental_uris":{"android":"levelo://app?vid=25208009-0d30-4d45-a77f-7ef4c7868ab8","ios":"levelo://app?vid=25208009-0d30-4d45-a77f-7ef4c7868ab8"},"vehicle_type_id":"4","last_reported":1692738368,"current_range_meters":24400,"station_id":"ce4bh512rcd13ifvqe2g","pricing_plan_id":"free"},{"bike_id":"16d2f6f3-f9b4-4fb5-8222-7a3b5517f1b7","system_id":"levelo_inurba_marseille","lat":43.295169,"lon":5.390426,"is_reserved":false,"is_disabled":false,"rental_uris":{"android":"levelo://app?vid=16d2f6f3-f9b4-4fb5-8222-7a3b5517f1b7","ios":"levelo://app?vid=16d2f6f3-f9b4-4fb5-8222-7a3b5517f1b7"},"vehicle_type_id":"4","last_reported":1692738368,"current_range_meters":31200,"station_id":"ce4bh3p2rcd13ifvqdp0","pricing_plan_id":"free"},{"bike_id":"deea1a59-ca2b-44d8-8c2d-2a67830b1040","system_id":"levelo_inurba_marseille","lat":43.295169,"lon":5.390426,"is_reserved":false,"is_disabled":false,"rental_uris":{"android":"levelo://app?vid=deea1a59-ca2b-44d8-8c2d-2a67830b1040","ios":"levelo://app?vid=deea1a59-ca2b-44d8-8c2d-2a67830b1040"},"vehicle_type_id":"4","last_reported":1692738368,"current_range_meters":13200,"station_id":"ce4bh3p2rcd13ifvqdp0","pricing_plan_id":"free"},{"bike_id":"a95f9bf8-7fa2-4d8c-adb9-14e24a17f5b5","system_id":"levelo_inurba_marseille","lat":43.295169,"lon":5.390426,"is_reserved":false,"is_disabled":false,"rental_uris":{"android":"levelo://app?vid=a95f9bf8-7fa2-4d8c-adb9-14e24a17f5b5","ios":"levelo://app?vid=a95f9bf8-7fa2-4d8c-adb9-14e24a17f5b5"},"vehicle_type_id":"4","last_reported":1692738368,"current_range_meters":22800,"station_id":"ce4bh3p2rcd13ifvqdp0","pricing_plan_id":"free"},{"bike_id":"463a20f1-a0b5-4cd9-9d79-5de4878d278f","system_id":"levelo_inurba_marseille","lat":43.295169,"lon":5.390426,"is_reserved":false,"is_disabled":false,"rental_uris":{"android":"levelo://app?vid=463a20f1-a0b5-4cd9-9d79-5de4878d278f","ios":"levelo://app?vid=463a20f1-a0b5-4cd9-9d79-5de4878d278f"},"vehicle_type_id":"4","last_reported":1692738368,"current_range_meters":8000,"station_id":"ce4bh3p2rcd13ifvqdp0","pricing_plan_id":"free"},{"bike_id":"0ce5942e-1280-4094-a712-90513f72e530","system_id":"levelo_inurba_marseille","lat":43.297815,"lon":5.393548,"is_reserved":false,"is_disabled":false,"rental_uris":{"android":"levelo://app?vid=0ce5942e-1280-4094-a712-90513f72e530","ios":"levelo://app?vid=0ce5942e-1280-4094-a712-90513f72e530"},"vehicle_type_id":"4","last_reported":1692738368,"current_range_meters":22400,"station_id":"chh1huq6cuj3fo74tm60","pricing_plan_id":"free"},{"bike_id":"3e636f57-93b8-4ed8-9edf-949c6a0a4c3c","system_id":"levelo_inurba_marseille","lat":43.295169,"lon":5.390426,"is_reserved":false,"is_disabled":false,"rental_uris":{"android":"levelo://app?vid=3e636f57-93b8-4ed8-9edf-949c6a0a4c3c","ios":"levelo://app?vid=3e636f57-93b8-4ed8-9edf-949c6a0a4c3c"},"vehicle_type_id":"4","last_reported":1692738368,"current_range_meters":17200,"station_id":"ce4bh3p2rcd13ifvqdp0","pricing_plan_id":"free"},{"bike_id":"3fd7dab2-cde2-414a-abcc-5fbfa533e4de","system_id":"levelo_inurba_marseille","lat":43.29026,"lon":5.38139,"is_reserved":false,"is_disabled":false,"rental_uris":{"android":"levelo://app?vid=3fd7dab2-cde2-414a-abcc-5fbfa533e4de","ios":"levelo://app?vid=3fd7dab2-cde2-414a-abcc-5fbfa533e4de"},"vehicle_type_id":"4","last_reported":1692738368,"current_range_meters":5600,"station_id":"ce4bh4p2rcd13ifvqe1g","pricing_plan_id":"free"},{"bike_id":"e5f4c27c-1a1d-49ec-b2c5-f9d2ba33c8cf","system_id":"levelo_inurba_marseille","lat":43.29028,"lon":5.38152,"is_reserved":false,"is_disabled":false,"rental_uris":{"android":"levelo://app?vid=e5f4c27c-1a1d-49ec-b2c5-f9d2ba33c8cf","ios":"levelo://app?vid=e5f4c27c-1a1d-49ec-b2c5-f9d2ba33c8cf"},"vehicle_type_id":"4","last_reported":1692738368,"current_range_meters":10000,"station_id":"ce4bh4p2rcd13ifvqe1g","pricing_plan_id":"free"},{"bike_id":"2a3c0cee-8fa7-4337-9ffe-03bc024e8e5e","system_id":"levelo_inurba_marseille","lat":43.29016,"lon":5.38136,"is_reserved":false,"is_disabled":false,"rental_uris":{"android":"levelo://app?vid=2a3c0cee-8fa7-4337-9ffe-03bc024e8e5e","ios":"levelo://app?vid=2a3c0cee-8fa7-4337-9ffe-03bc024e8e5e"},"vehicle_type_id":"4","last_reported":1692738368,"current_range_meters":9200,"station_id":"ce4bh4p2rcd13ifvqe1g","pricing_plan_id":"free"},{"bike_id":"596540bc-f67a-4618-8fe6-dbf2cbc13bc1","system_id":"levelo_inurba_marseille","lat":43.31267,"lon":5.40166,"is_reserved":false,"is_disabled":false,"rental_uris":{"android":"levelo://app?vid=596540bc-f67a-4618-8fe6-dbf2cbc13bc1","ios":"levelo://app?vid=596540bc-f67a-4618-8fe6-dbf2cbc13bc1"},"vehicle_type_id":"4","last_reported":1692738368,"current_range_meters":4400,"station_id":"ce4bh092rcd13ifvqd30","pricing_plan_id":"free"},{"bike_id":"6327e5ae-36a1-44a0-b04d-691e4f9ae8eb","system_id":"levelo_inurba_marseille","lat":43.3376,"lon":5.37519,"is_reserved":false,"is_disabled":false,"rental_uris":{"android":"levelo://app?vid=6327e5ae-36a1-44a0-b04d-691e4f9ae8eb","ios":"levelo://app?vid=6327e5ae-36a1-44a0-b04d-691e4f9ae8eb"},"vehicle_type_id":"4","last_reported":1692738368,"current_range_meters":800,"station_id":"","pricing_plan_id":"free"},{"bike_id":"7ae05c74-b55a-4627-a532-dc2e399876ea","system_id":"levelo_inurba_marseille","lat":43.301117,"lon":5.398795,"is_reserved":false,"is_disabled":false,"rental_uris":{"android":"levelo://app?vid=7ae05c74-b55a-4627-a532-dc2e399876ea","ios":"levelo://app?vid=7ae05c74-b55a-4627-a532-dc2e399876ea"},"vehicle_type_id":"4","last_reported":1692738368,"current_range_meters":8800,"station_id":"ce4bh0h2rcd13ifvqd40","pricing_plan_id":"free"},{"bike_id":"833b1ec9-9981-4b58-9c59-386c3849cd4a","system_id":"levelo_inurba_marseille","lat":43.301117,"lon":5.398795,"is_reserved":false,"is_disabled":false,"rental_uris":{"android":"levelo://app?vid=833b1ec9-9981-4b58-9c59-386c3849cd4a","ios":"levelo://app?vid=833b1ec9-9981-4b58-9c59-386c3849cd4a"},"vehicle_type_id":"4","last_reported":1692738368,"current_range_meters":4400,"station_id":"ce4bh0h2rcd13ifvqd40","pricing_plan_id":"free"},{"bike_id":"0b292982-5778-4160-a81a-b4f8c87c73eb","system_id":"levelo_inurba_marseille","lat":43.286591,"lon":5.363346,"is_reserved":false,"is_disabled":false,"rental_uris":{"android":"levelo://app?vid=0b292982-5778-4160-a81a-b4f8c87c73eb","ios":"levelo://app?vid=0b292982-5778-4160-a81a-b4f8c87c73eb"},"vehicle_type_id":"4","last_reported":1692738368,"current_range_meters":10800,"station_id":"ce4bhah2rcd13ifvqej0","pricing_plan_id":"free"},{"bike_id":"c75d85fe-d68a-452d-bd82-127de08d9463","system_id":"levelo_inurba_marseille","lat":43.286961,"lon":5.373785,"is_reserved":false,"is_disabled":false,"rental_uris":{"android":"levelo://app?vid=c75d85fe-d68a-452d-bd82-127de08d9463","ios":"levelo://app?vid=c75d85fe-d68a-452d-bd82-127de08d9463"},"vehicle_type_id":"4","last_reported":1692738368,"current_range_meters":31200,"station_id":"ce4bh3p2rcd13ifvqdq0","pricing_plan_id":"free"},{"bike_id":"c33ae546-e394-45d7-927a-fb5e25febfce","system_id":"levelo_inurba_marseille","lat":43.286961,"lon":5.373785,"is_reserved":false,"is_disabled":false,"rental_uris":{"android":"levelo://app?vid=c33ae546-e394-45d7-927a-fb5e25febfce","ios":"levelo://app?vid=c33ae546-e394-45d7-927a-fb5e25febfce"},"vehicle_type_id":"4","last_reported":1692738368,"current_range_meters":18800,"station_id":"ce4bh3p2rcd13ifvqdq0","pricing_plan_id":"free"},{"bike_id":"6018dcaa-0e79-448d-9196-60581b6d9e55","system_id":"levelo_inurba_marseille","lat":43.286961,"lon":5.373785,"is_reserved":false,"is_disabled":false,"rental_uris":{"android":"levelo://app?vid=6018dcaa-0e79-448d-9196-60581b6d9e55","ios":"levelo://app?vid=6018dcaa-0e79-448d-9196-60581b6d9e55"},"vehicle_type_id":"4","last_reported":1692738368,"current_range_meters":18000,"station_id":"ce4bh3p2rcd13ifvqdq0","pricing_plan_id":"free"},{"bike_id":"05bc30d4-2a2b-43c5-8b46-98ca90fc775b","system_id":"levelo_inurba_marseille","lat":43.286961,"lon":5.373785,"is_reserved":false,"is_disabled":false,"rental_uris":{"android":"levelo://app?vid=05bc30d4-2a2b-43c5-8b46-98ca90fc775b","ios":"levelo://app?vid=05bc30d4-2a2b-43c5-8b46-98ca90fc775b"},"vehicle_type_id":"4","last_reported":1692738368,"current_range_meters":18800,"station_id":"ce4bh3p2rcd13ifvqdq0","pricing_plan_id":"free"},{"bike_id":"447affa7-6856-46f8-8f32-f564970404e9","system_id":"levelo_inurba_marseille","lat":43.298681,"lon":5.397225,"is_reserved":false,"is_disabled":false,"rental_uris":{"android":"levelo://app?vid=447affa7-6856-46f8-8f32-f564970404e9","ios":"levelo://app?vid=447affa7-6856-46f8-8f32-f564970404e9"},"vehicle_type_id":"4","last_reported":1692738368,"current_range_meters":5600,"station_id":"ce4bh0h2rcd13ifvqd50","pricing_plan_id":"free"},{"bike_id":"4b955c1d-3c84-4884-a56d-bcbbac8e4638","system_id":"levelo_inurba_marseille","lat":43.298681,"lon":5.397225,"is_reserved":false,"is_disabled":false,"rental_uris":{"android":"levelo://app?vid=4b955c1d-3c84-4884-a56d-bcbbac8e4638","ios":"levelo://app?vid=4b955c1d-3c84-4884-a56d-bcbbac8e4638"},"vehicle_type_id":"4","last_reported":1692738368,"current_range_meters":14400,"station_id":"ce4bh0h2rcd13ifvqd50","pricing_plan_id":"free"},{"bike_id":"ee0a193b-c91c-4ee1-ab16-2325221e2857","system_id":"levelo_inurba_marseille","lat":43.298681,"lon":5.397225,"is_reserved":false,"is_disabled":false,"rental_uris":{"android":"levelo://app?vid=ee0a193b-c91c-4ee1-ab16-2325221e2857","ios":"levelo://app?vid=ee0a193b-c91c-4ee1-ab16-2325221e2857"},"vehicle_type_id":"4","last_reported":1692738368,"current_range_meters":30800,"station_id":"ce4bh0h2rcd13ifvqd50","pricing_plan_id":"free"},{"bike_id":"75199276-b705-4ad7-b6a9-49aeaa84628a","system_id":"levelo_inurba_marseille","lat":43.286591,"lon":5.363346,"is_reserved":false,"is_disabled":false,"rental_uris":{"android":"levelo://app?vid=75199276-b705-4ad7-b6a9-49aeaa84628a","ios":"levelo://app?vid=75199276-b705-4ad7-b6a9-49aeaa84628a"},"vehicle_type_id":"4","last_reported":1692738368,"current_range_meters":30800,"station_id":"ce4bhah2rcd13ifvqej0","pricing_plan_id":"free"},{"bike_id":"52a0d2dd-6ad3-4421-b684-3e504a3ea0be","system_id":"levelo_inurba_marseille","lat":43.286961,"lon":5.373785,"is_reserved":false,"is_disabled":false,"rental_uris":{"android":"levelo://app?vid=52a0d2dd-6ad3-4421-b684-3e504a3ea0be","ios":"levelo://app?vid=52a0d2dd-6ad3-4421-b684-3e504a3ea0be"},"vehicle_type_id":"4","last_reported":1692738368,"current_range_meters":14400,"station_id":"ce4bh3p2rcd13ifvqdq0","pricing_plan_id":"free"},{"bike_id":"019c15c6-0437-4c1a-a6d6-022556fa0ead","system_id":"levelo_inurba_marseille","lat":43.286961,"lon":5.373785,"is_reserved":false,"is_disabled":false,"rental_uris":{"android":"levelo://app?vid=019c15c6-0437-4c1a-a6d6-022556fa0ead","ios":"levelo://app?vid=019c15c6-0437-4c1a-a6d6-022556fa0ead"},"vehicle_type_id":"4","last_reported":1692738368,"current_range_meters":20400,"station_id":"ce4bh3p2rcd13ifvqdq0","pricing_plan_id":"free"},{"bike_id":"d2670e98-f161-4228-9746-13334fa112be","system_id":"levelo_inurba_marseille","lat":43.298681,"lon":5.397225,"is_reserved":false,"is_disabled":false,"rental_uris":{"android":"levelo://app?vid=d2670e98-f161-4228-9746-13334fa112be","ios":"levelo://app?vid=d2670e98-f161-4228-9746-13334fa112be"},"vehicle_type_id":"4","last_reported":1692738368,"current_range_meters":11600,"station_id":"ce4bh0h2rcd13ifvqd50","pricing_plan_id":"free"},{"bike_id":"7d59e6c4-d6a9-4092-98ae-1c5107709156","system_id":"levelo_inurba_marseille","lat":43.286961,"lon":5.373785,"is_reserved":false,"is_disabled":false,"rental_uris":{"android":"levelo://app?vid=7d59e6c4-d6a9-4092-98ae-1c5107709156","ios":"levelo://app?vid=7d59e6c4-d6a9-4092-98ae-1c5107709156"},"vehicle_type_id":"4","last_reported":1692738368,"current_range_meters":27600,"station_id":"ce4bh3p2rcd13ifvqdq0","pricing_plan_id":"free"},{"bike_id":"ca19cc7f-4a55-4bcf-99b1-e0949be37b28","system_id":"levelo_inurba_marseille","lat":43.298681,"lon":5.397225,"is_reserved":false,"is_disabled":false,"rental_uris":{"android":"levelo://app?vid=ca19cc7f-4a55-4bcf-99b1-e0949be37b28","ios":"levelo://app?vid=ca19cc7f-4a55-4bcf-99b1-e0949be37b28"},"vehicle_type_id":"4","last_reported":1692738368,"current_range_meters":24400,"station_id":"ce4bh0h2rcd13ifvqd50","pricing_plan_id":"free"},{"bike_id":"7a159a83-c8e0-475a-a476-bf6d5d754c3c","system_id":"levelo_inurba_marseille","lat":43.295196,"lon":5.39397,"is_reserved":false,"is_disabled":false,"rental_uris":{"android":"levelo://app?vid=7a159a83-c8e0-475a-a476-bf6d5d754c3c","ios":"levelo://app?vid=7a159a83-c8e0-475a-a476-bf6d5d754c3c"},"vehicle_type_id":"4","last_reported":1692738368,"current_range_meters":15200,"station_id":"ce4bh292rcd13ifvqdf0","pricing_plan_id":"free"},{"bike_id":"7bb33e96-d198-4930-b9ad-6332a6694ab7","system_id":"levelo_inurba_marseille","lat":43.298681,"lon":5.397225,"is_reserved":false,"is_disabled":false,"rental_uris":{"android":"levelo://app?vid=7bb33e96-d198-4930-b9ad-6332a6694ab7","ios":"levelo://app?vid=7bb33e96-d198-4930-b9ad-6332a6694ab7"},"vehicle_type_id":"4","last_reported":1692738368,"current_range_meters":23600,"station_id":"ce4bh0h2rcd13ifvqd50","pricing_plan_id":"free"},{"bike_id":"e591c88a-f788-4926-bf1f-0e0b2d585f2e","system_id":"levelo_inurba_marseille","lat":43.28697,"lon":5.37398,"is_reserved":false,"is_disabled":false,"rental_uris":{"android":"levelo://app?vid=e591c88a-f788-4926-bf1f-0e0b2d585f2e","ios":"levelo://app?vid=e591c88a-f788-4926-bf1f-0e0b2d585f2e"},"vehicle_type_id":"4","last_reported":1692738368,"current_range_meters":5200,"station_id":"ce4bh3p2rcd13ifvqdq0","pricing_plan_id":"free"},{"bike_id":"4ad60e11-7b6a-4a3b-a20f-096241780652","system_id":"levelo_inurba_marseille","lat":43.28695,"lon":5.37385,"is_reserved":false,"is_disabled":false,"rental_uris":{"android":"levelo://app?vid=4ad60e11-7b6a-4a3b-a20f-096241780652","ios":"levelo://app?vid=4ad60e11-7b6a-4a3b-a20f-096241780652"},"vehicle_type_id":"4","last_reported":1692738368,"current_range_meters":19200,"station_id":"","pricing_plan_id":"free"},{"bike_id":"c72d34b8-409e-4b6a-b4ef-74cd86d0c1b0","system_id":"levelo_inurba_marseille","lat":43.286961,"lon":5.373785,"is_reserved":false,"is_disabled":false,"rental_uris":{"android":"levelo://app?vid=c72d34b8-409e-4b6a-b4ef-74cd86d0c1b0","ios":"levelo://app?vid=c72d34b8-409e-4b6a-b4ef-74cd86d0c1b0"},"vehicle_type_id":"4","last_reported":1692738368,"current_range_meters":16000,"station_id":"ce4bh3p2rcd13ifvqdq0","pricing_plan_id":"free"},{"bike_id":"0ae768da-569f-4b18-aac2-e37036de42b0","system_id":"levelo_inurba_marseille","lat":43.295196,"lon":5.39397,"is_reserved":false,"is_disabled":false,"rental_uris":{"android":"levelo://app?vid=0ae768da-569f-4b18-aac2-e37036de42b0","ios":"levelo://app?vid=0ae768da-569f-4b18-aac2-e37036de42b0"},"vehicle_type_id":"4","last_reported":1692738368,"current_range_meters":24800,"station_id":"ce4bh292rcd13ifvqdf0","pricing_plan_id":"free"},{"bike_id":"350be7fb-9313-4f11-911f-4f38ed1ee082","system_id":"levelo_inurba_marseille","lat":43.28655,"lon":5.36371,"is_reserved":false,"is_disabled":false,"rental_uris":{"android":"levelo://app?vid=350be7fb-9313-4f11-911f-4f38ed1ee082","ios":"levelo://app?vid=350be7fb-9313-4f11-911f-4f38ed1ee082"},"vehicle_type_id":"4","last_reported":1692738368,"current_range_meters":0,"station_id":"ce4bhah2rcd13ifvqej0","pricing_plan_id":"free"},{"bike_id":"9b87d1f6-eb71-4022-a7ef-1487e2123167","system_id":"levelo_inurba_marseille","lat":43.28691,"lon":5.37391,"is_reserved":false,"is_disabled":false,"rental_uris":{"android":"levelo://app?vid=9b87d1f6-eb71-4022-a7ef-1487e2123167","ios":"levelo://app?vid=9b87d1f6-eb71-4022-a7ef-1487e2123167"},"vehicle_type_id":"4","last_reported":1692738368,"current_range_meters":20400,"station_id":"ce4bh3p2rcd13ifvqdq0","pricing_plan_id":"free"},{"bike_id":"309d57f9-9606-48e9-a108-ecb6e87e42b7","system_id":"levelo_inurba_marseille","lat":43.286961,"lon":5.373785,"is_reserved":false,"is_disabled":false,"rental_uris":{"android":"levelo://app?vid=309d57f9-9606-48e9-a108-ecb6e87e42b7","ios":"levelo://app?vid=309d57f9-9606-48e9-a108-ecb6e87e42b7"},"vehicle_type_id":"4","last_reported":1692738368,"current_range_meters":11200,"station_id":"ce4bh3p2rcd13ifvqdq0","pricing_plan_id":"free"},{"bike_id":"2f2d285e-80c3-4284-b049-f7f0636acf85","system_id":"levelo_inurba_marseille","lat":43.298681,"lon":5.397225,"is_reserved":false,"is_disabled":false,"rental_uris":{"android":"levelo://app?vid=2f2d285e-80c3-4284-b049-f7f0636acf85","ios":"levelo://app?vid=2f2d285e-80c3-4284-b049-f7f0636acf85"},"vehicle_type_id":"4","last_reported":1692738368,"current_range_meters":1200,"station_id":"ce4bh0h2rcd13ifvqd50","pricing_plan_id":"free"},{"bike_id":"e63bc095-6ea9-44ad-a3de-9fc65c7ca86c","system_id":"levelo_inurba_marseille","lat":43.29028,"lon":5.3863,"is_reserved":false,"is_disabled":false,"rental_uris":{"android":"levelo://app?vid=e63bc095-6ea9-44ad-a3de-9fc65c7ca86c","ios":"levelo://app?vid=e63bc095-6ea9-44ad-a3de-9fc65c7ca86c"},"vehicle_type_id":"4","last_reported":1692738368,"current_range_meters":11600,"station_id":"ce4bh4p2rcd13ifvqe0g","pricing_plan_id":"free"},{"bike_id":"aaf5316b-f7a3-4934-8ff3-e4474627f0bc","system_id":"levelo_inurba_marseille","lat":43.2903,"lon":5.38636,"is_reserved":false,"is_disabled":false,"rental_uris":{"android":"levelo://app?vid=aaf5316b-f7a3-4934-8ff3-e4474627f0bc","ios":"levelo://app?vid=aaf5316b-f7a3-4934-8ff3-e4474627f0bc"},"vehicle_type_id":"4","last_reported":1692738368,"current_range_meters":19600,"station_id":"ce4bh4p2rcd13ifvqe0g","pricing_plan_id":"free"},{"bike_id":"a5598a40-1104-410c-8053-cf700b3f6f4c","system_id":"levelo_inurba_marseille","lat":43.290336,"lon":5.386425,"is_reserved":false,"is_disabled":false,"rental_uris":{"android":"levelo://app?vid=a5598a40-1104-410c-8053-cf700b3f6f4c","ios":"levelo://app?vid=a5598a40-1104-410c-8053-cf700b3f6f4c"},"vehicle_type_id":"4","last_reported":1692738368,"current_range_meters":4400,"station_id":"ce4bh4p2rcd13ifvqe0g","pricing_plan_id":"free"},{"bike_id":"64949f88-684a-48ab-a2d6-3eb524bac85c","system_id":"levelo_inurba_marseille","lat":43.290336,"lon":5.386425,"is_reserved":false,"is_disabled":false,"rental_uris":{"android":"levelo://app?vid=64949f88-684a-48ab-a2d6-3eb524bac85c","ios":"levelo://app?vid=64949f88-684a-48ab-a2d6-3eb524bac85c"},"vehicle_type_id":"4","last_reported":1692738368,"current_range_meters":10000,"station_id":"ce4bh4p2rcd13ifvqe0g","pricing_plan_id":"free"},{"bike_id":"394b27e5-51e9-4029-818b-040631cccf3a","system_id":"levelo_inurba_marseille","lat":43.290336,"lon":5.386425,"is_reserved":false,"is_disabled":false,"rental_uris":{"android":"levelo://app?vid=394b27e5-51e9-4029-818b-040631cccf3a","ios":"levelo://app?vid=394b27e5-51e9-4029-818b-040631cccf3a"},"vehicle_type_id":"4","last_reported":1692738368,"current_range_meters":15600,"station_id":"ce4bh4p2rcd13ifvqe0g","pricing_plan_id":"free"},{"bike_id":"cd9ba4bc-1336-4d0e-bbaf-612ffae623fe","system_id":"levelo_inurba_marseille","lat":43.29023,"lon":5.38654,"is_reserved":false,"is_disabled":false,"rental_uris":{"android":"levelo://app?vid=cd9ba4bc-1336-4d0e-bbaf-612ffae623fe","ios":"levelo://app?vid=cd9ba4bc-1336-4d0e-bbaf-612ffae623fe"},"vehicle_type_id":"4","last_reported":1692738368,"current_range_meters":31200,"station_id":"ce4bh4p2rcd13ifvqe0g","pricing_plan_id":"free"},{"bike_id":"b2b6a888-805d-4928-87b1-b326b2d4940a","system_id":"levelo_inurba_marseille","lat":43.2902,"lon":5.38649,"is_reserved":false,"is_disabled":false,"rental_uris":{"android":"levelo://app?vid=b2b6a888-805d-4928-87b1-b326b2d4940a","ios":"levelo://app?vid=b2b6a888-805d-4928-87b1-b326b2d4940a"},"vehicle_type_id":"4","last_reported":1692738368,"current_range_meters":3200,"station_id":"","pricing_plan_id":"free"},{"bike_id":"a655151d-de6c-41eb-a3ec-b634f9f78d6b","system_id":"levelo_inurba_marseille","lat":43.286039,"lon":5.370679,"is_reserved":false,"is_disabled":false,"rental_uris":{"android":"levelo://app?vid=a655151d-de6c-41eb-a3ec-b634f9f78d6b","ios":"levelo://app?vid=a655151d-de6c-41eb-a3ec-b634f9f78d6b"},