{"last_updated":1750788921,"ttl":60,"version":"2.2","data":{"bikes":[{"bike_id":"3da29fb8-fc97-44c6-b9ac-31dd456b2fd4","system_id":"levelo_inurba_marseille","lat":43.33771,"lon":5.37424,"is_reserved":false,"is_disabled":true,"rental_uris":{"android":"levelo://app?vid=3da29fb8-fc97-44c6-b9ac-31dd456b2fd4","ios":"levelo://app?vid=3da29fb8-fc97-44c6-b9ac-31dd456b2fd4"},"vehicle_type_id":"4","last_reported":1750788921,"current_range_meters":0,"station_id":"","pricing_plan_id":"cebpf4jnsgd1na2vs0mg"},{"bike_id":"01861ad8-a8d7-4be6-816e-651927c87584","system_id":"levelo_inurba_marseille","lat":43.33751,"lon":5.37456,"is_reserved":false,"is_disabled":true,"rental_uris":{"android":"levelo://app?vid=01861ad8-a8d7-4be6-816e-651927c87584","ios":"levelo://app?vid=01861ad8-a8d7-4be6-816e-651927c87584"},"vehicle_type_id":"4","last_reported":1750788921,"current_range_meters":0,"station_id":"","pricing_plan_id":"cebpf4jnsgd1na2vs0mg"},{"bike_id":"f0a1d594-9817-42ab-a8d6-aea4947e8858","system_id":"levelo_inurba_marseille","lat":43.288329,"lon":5.434368,"is_reserved":false,"is_disabled":true,"rental_uris":{"android":"levelo://app?vid=f0a1d594-9817-42ab-a8d6-aea4947e8858","ios":"levelo://app?vid=f0a1d594-9817-42ab-a8d6-aea4947e8858"},"vehicle_type_id":"4","last_reported":1750788921,"current_range_meters":0,"station_id":"","pricing_plan_id":"cebpf4jnsgd1na2vs0mg"},{"bike_id":"763475c0-a5de-4444-b5fb-a67ccd172449","system_id":"levelo_inurba_marseille","lat":43.26534,"lon":5.37325,"is_reserved":false,"is_disabled":true,"rental_uris":{"android":"levelo://app?vid=763475c0-a5de-4444-b5fb-a67ccd172449","ios":"levelo://app?vid=763475c0-a5de-4444-b5fb-a67ccd172449"},"vehicle_type_id":"4","last_reported":1750788921,"current_range_meters":0,"station_id":"","pricing_plan_id":"cebpf4jnsgd1na2vs0mg"},{"bike_id":"62a493c7-4534-4419-ad43-0582de34a72a","system_id":"levelo_inurba_marseille","lat":43.21366,"lon":5.355183,"is_reserved":false,"is_disabled":true,"rental_uris":{"android":"levelo://app?vid=62a493c7-4534-4419-ad43-0582de34a72a","ios":"levelo://app?vid=62a493c7-4534-4419-ad43-0582de34a72a"},"vehicle_type_id":"4","last_reported":1750788921,"current_range_meters":0,"station_id":"","pricing_plan_id":"cebpf4jnsgd1na2vs0mg"},{"bike_id":"139d47bd-ff87-42d8-a4c6-89da4be6f80c","system_id":"levelo_inurba_marseille","lat":43.27962,"lon":5.44252,"is_reserved":false,"is_disabled":true,"rental_uris":{"android":"levelo://app?vid=139d47bd-ff87-42d8-a4c6-89da4be6f80c","ios":"levelo://app?vid=139d47bd-ff87-42d8-a4c6-89da4be6f80c"},"vehicle_type_id":"4","last_reported":1750788921,"current_range_meters":0,"station_id":"","pricing_plan_id":"cebpf4jnsgd1na2vs0mg"},{"bike_id":"d07b07aa-5732-4368-b606-c642421b7603","system_id":"levelo_inurba_marseille","lat":43.3312,"lon":5.3606,"is_reserved":false,"is_disabled":true,"rental_uris":{"android":"levelo://app?vid=d07b07aa-5732-4368-b606-c642421b7603","ios":"levelo://app?vid=d07b07aa-5732-4368-b606-c642421b7603"},"vehicle_type_id":"4","last_reported":1750788921,"current_range_meters":0,"station_id":"","pricing_plan_id":"cebpf4jnsgd1na2vs0mg"},{"bike_id":"d6ce388f-ca76-4c7c-9e3f-e6b4d12862f1","system_id":"levelo_inurba_marseille","lat":43.24558,"lon":5.4146,"is_reserved":false,"is_disabled":true,"rental_uris":{"android":"levelo://app?vid=d6ce388f-ca76-4c7c-9e3f-e6b4d12862f1","ios":"levelo://app?vid=d6ce388f-ca76-4c7c-9e3f-e6b4d12862f1"},"vehicle_type_id":"4","last_reported":1750788921,"current_range_meters":0,"station_id":"","pricing_plan_id":"cebpf4jnsgd1na2vs0mg"},{"bike_id":"3a3a1818-f20a-442b-bfcf-0e0a18008f43","system_id":"levelo_inurba_marseille","lat":43.26612,"lon":5.37491,"is_reserved":false,"is_disabled":true,"rental_uris":{"android":"levelo://app?vid=3a3a1818-f20a-442b-bfcf-0e0a18008f43","ios":"levelo://app?vid=3a3a1818-f20a-442b-bfcf-0e0a18008f43"},"vehicle_type_id":"4","last_reported":1750788921,"current_range_meters":0,"station_id":"","pricing_plan_id":"cebpf4jnsgd1na2vs0mg"},{"bike_id":"11d160d1-34e0-4ce8-9789-9603b74a4446","system_id":"levelo_inurba_marseille","lat":43.327062,"lon":5.374882,"is_reserved":false,"is_disabled":true,"rental_uris":{"android":"levelo://app?vid=11d160d1-34e0-4ce8-9789-9603b74a4446","ios":"levelo://app?vid=11d160d1-34e0-4ce8-9789-9603b74a4446"},"vehicle_type_id":"4","last_reported":1750788921,"current_range_meters":0,"station_id":"","pricing_plan_id":"cebpf4jnsgd1na2vs0mg"},{"bike_id":"d6609b4f-333b-43c1-9ebe-8726f5e76e88","system_id":"levelo_inurba_marseille","lat":43.337444,"lon":5.374475,"is_reserved":false,"is_disabled":true,"rental_uris":{"android":"levelo://app?vid=d6609b4f-333b-43c1-9ebe-8726f5e76e88","ios":"levelo://app?vid=d6609b4f-333b-43c1-9ebe-8726f5e76e88"},"vehicle_type_id":"4","last_reported":1750788921,"current_range_meters":0,"station_id":"","pricing_plan_id":"cebpf4jnsgd1na2vs0mg"},{"bike_id":"9cb193d0-906b-4ac2-85c5-eea810b1d20f","system_id":"levelo_inurba_marseille","lat":43.29409,"lon":5.431837,"is_reserved":false,"is_disabled":true,"rental_uris":{"android":"levelo://app?vid=9cb193d0-906b-4ac2-85c5-eea810b1d20f","ios":"levelo://app?vid=9cb193d0-906b-4ac2-85c5-eea810b1d20f"},"vehicle_type_id":"4","last_reported":1750788921,"current_range_meters":0,"station_id":"","pricing_plan_id":"cebpf4jnsgd1na2vs0mg"},{"bike_id":"bd17737b-22d2-4e4f-88e8-4eb661d864c4","system_id":"levelo_inurba_marseille","lat":43.2918,"lon":5.46074,"is_reserved":false,"is_disabled":true,"rental_uris":{"android":"levelo://app?vid=bd17737b-22d2-4e4f-88e8-4eb661d864c4","ios":"levelo://app?vid=bd17737b-22d2-4e4f-88e8-4eb661d864c4"},"vehicle_type_id":"4","last_reported":1750788921,"current_range_meters":0,"station_id":"","pricing_plan_id":"cebpf4jnsgd1na2vs0mg"},{"bike_id":"3d07ef76-af52-42e0-81f1-5f4963c9ee29","system_id":"levelo_inurba_marseille","lat":43.294701,"lon":5.438349,"is_reserved":false,"is_disabled":true,"rental_uris":{"android":"levelo://app?vid=3d07ef76-af52-42e0-81f1-5f4963c9ee29","ios":"levelo://app?vid=3d07ef76-af52-42e0-81f1-5f4963c9ee29"},"vehicle_type_id":"4","last_reported":1750788921,"current_range_meters":0,"station_id":"","pricing_plan_id":"cebpf4jnsgd1na2vs0mg"},{"bike_id":"0c86cdad-b64a-47bf-ba91-5b398064181c","system_id":"levelo_inurba_marseille","lat":43.384196,"lon":5.358629,"is_reserved":false,"is_disabled":true,"rental_uris":{"android":"levelo://app?vid=0c86cdad-b64a-47bf-ba91-5b398064181c","ios":"levelo://app?vid=0c86cdad-b64a-47bf-ba91-5b398064181c"},"vehicle_type_id":"4","last_reported":1750788921,"current_range_meters":0,"station_id":"","pricing_plan_id":"cebpf4jnsgd1na2vs0mg"},{"bike_id":"5f323328-2659-4a61-b3f9-c0deacd92bac","system_id":"levelo_inurba_marseille","lat":43.3113,"lon":5.37765,"is_reserved":false,"is_disabled":true,"rental_uris":{"android":"levelo://app?vid=5f323328-2659-4a61-b3f9-c0deacd92bac","ios":"levelo://app?vid=5f323328-2659-4a61-b3f9-c0deacd92bac"},"vehicle_type_id":"4","last_reported":1750788921,"current_range_meters":0,"station_id":"ce4bgt92rcd13ifvqcg0","pricing_plan_id":"cebpf4jnsgd1na2vs0mg"},{"bike_id":"d94a6864-daee-4fbb-b2e6-90ace98c8f11","system_id":"levelo_inurba_marseille","lat":43.30143,"lon":5.39849,"is_reserved":false,"is_disabled":true,"rental_uris":{"android":"levelo://app?vid=d94a6864-daee-4fbb-b2e6-90ace98c8f11","ios":"levelo://app?vid=d94a6864-daee-4fbb-b2e6-90ace98c8f11"},"vehicle_type_id":"4","last_reported":1750788921,"current_range_meters":0,"station_id":"ce4bh0h2rcd13ifvqd40","pricing_plan_id":"cebpf4jnsgd1na2vs0mg"},{"bike_id":"1ae47c26-0196-4726-8bc9-9726bb4ac801","system_id":"levelo_inurba_marseille","lat":43.29251,"lon":5.40917,"is_reserved":false,"is_disabled":true,"rental_uris":{"android":"levelo://app?vid=1ae47c26-0196-4726-8bc9-9726bb4ac801","ios":"levelo://app?vid=1ae47c26-0196-4726-8bc9-9726bb4ac801"},"vehicle_type_id":"4","last_reported":1750788921,"current_range_meters":0,"station_id":"ce4bh192rcd13ifvqdc0","pricing_plan_id":"cebpf4jnsgd1na2vs0mg"},{"bike_id":"2bbff3a8-3026-4f89-87fa-82202100f52c","system_id":"levelo_inurba_marseille","lat":43.29255,"lon":5.40902,"is_reserved":false,"is_disabled":true,"rental_uris":{"android":"levelo://app?vid=2bbff3a8-3026-4f89-87fa-82202100f52c","ios":"levelo://app?vid=2bbff3a8-3026-4f89-87fa-82202100f52c"},"vehicle_type_id":"4","last_reported":1750788921,"current_range_meters":0,"station_id":"ce4bh192rcd13ifvqdc0","pricing_plan_id":"cebpf4jnsgd1na2vs0mg"},{"bike_id":"82d0b757-3c92-49af-938c-0b59becea6f5","system_id":"levelo_inurba_marseille","lat":43.2944,"lon":5.38613,"is_reserved":false,"is_disabled":true,"rental_uris":{"android":"levelo://app?vid=82d0b757-3c92-49af-938c-0b59becea6f5","ios":"levelo://app?vid=82d0b757-3c92-49af-938c-0b59becea6f5"},"vehicle_type_id":"4","last_reported":1750788921,"current_range_meters":0,"station_id":"ce4bh2h2rcd13ifvqdh0","pricing_plan_id":"cebpf4jnsgd1na2vs0mg"},{"bike_id":"879d0dfe-a80f-4ff5-87f1-37564fb5c48d","system_id":"levelo_inurba_marseille","lat":43.292389,"lon":5.400948,"is_reserved":false,"is_disabled":true,"rental_uris":{"android":"levelo://app?vid=879d0dfe-a80f-4ff5-87f1-37564fb5c48d","ios":"levelo://app?vid=879d0dfe-a80f-4ff5-87f1-37564fb5c48d"},"vehicle_type_id":"4","last_reported":1750788921,"current_range_meters":0,"station_id":"ce4bh312rcd13ifvqdk0","pricing_plan_id":"cebpf4jnsgd1na2vs0mg"},{"bike_id":"b3c15d31-bfd2-4841-b1c0-84d3c550bd37","system_id":"levelo_inurba_marseille","lat":43.29893,"lon":5.38892,"is_reserved":false,"is_disabled":true,"rental_uris":{"android":"levelo://app?vid=b3c15d31-bfd2-4841-b1c0-84d3c550bd37","ios":"levelo://app?vid=b3c15d31-bfd2-4841-b1c0-84d3c550bd37"},"vehicle_type_id":"4","last_reported":1750788921,"current_range_meters":0,"station_id":"ce4bh392rcd13ifvqdl0","pricing_plan_id":"cebpf4jnsgd1na2vs0mg"},{"bike_id":"891d100a-085c-47be-89a0-499ff070b04f","system_id":"levelo_inurba_marseille","lat":43.28374,"lon":5.38633,"is_reserved":false,"is_disabled":true,"rental_uris":{"android":"levelo://app?vid=891d100a-085c-47be-89a0-499ff070b04f","ios":"levelo://app?vid=891d100a-085c-47be-89a0-499ff070b04f"},"vehicle_type_id":"4","last_reported":1750788921,"current_range_meters":0,"station_id":"ce4bh492rcd13ifvqdvg","pricing_plan_id":"cebpf4jnsgd1na2vs0mg"},{"bike_id":"8db46461-c262-424e-9c28-3ec94d2a2acf","system_id":"levelo_inurba_marseille","lat":43.262007,"lon":5.374523,"is_reserved":false,"is_disabled":true,"rental_uris":{"android":"levelo://app?vid=8db46461-c262-424e-9c28-3ec94d2a2acf","ios":"levelo://app?vid=8db46461-c262-424e-9c28-3ec94d2a2acf"},"vehicle_type_id":"4","last_reported":1750788921,"current_range_meters":0,"station_id":"ce4bhgp2rcd13ifvqfc0","pricing_plan_id":"cebpf4jnsgd1na2vs0mg"},{"bike_id":"863fb065-6c51-4bd3-af3a-32b03fa367fe","system_id":"levelo_inurba_marseille","lat":43.26194,"lon":5.37446,"is_reserved":false,"is_disabled":true,"rental_uris":{"android":"levelo://app?vid=863fb065-6c51-4bd3-af3a-32b03fa367fe","ios":"levelo://app?vid=863fb065-6c51-4bd3-af3a-32b03fa367fe"},"vehicle_type_id":"4","last_reported":1750788921,"current_range_meters":0,"station_id":"ce4bhgp2rcd13ifvqfc0","pricing_plan_id":"cebpf4jnsgd1na2vs0mg"},{"bike_id":"6dbfc9ce-304e-43b0-9cc8-293418dc90f0","system_id":"levelo_inurba_marseille","lat":43.262115,"lon":5.37441,"is_reserved":false,"is_disabled":true,"rental_uris":{"android":"levelo://app?vid=6dbfc9ce-304e-43b0-9cc8-293418dc90f0","ios":"levelo://app?vid=6dbfc9ce-304e-43b0-9cc8-293418dc90f0"},"vehicle_type_id":"4","last_reported":1750788921,"current_range_meters":0,"station_id":"ce4bhgp2rcd13ifvqfc0","pricing_plan_id":"cebpf4jnsgd1na2vs0mg"},{"bike_id":"69b85ff0-525f-4e56-b244-402f8a03c06f","system_id":"levelo_inurba_marseille","lat":43.23196,"lon":5.39975,"is_reserved":false,"is_disabled":true,"rental_uris":{"android":"levelo://app?vid=69b85ff0-525f-4e56-b244-402f8a03c06f","ios":"levelo://app?vid=69b85ff0-525f-4e56-b244-402f8a03c06f"},"vehicle_type_id":"4","last_reported":1750788921,"current_range_meters":0,"station_id":"ce4bhn12rcd13ifvqgqg","pricing_plan_id":"cebpf4jnsgd1na2vs0mg"},{"bike_id":"20d47005-cace-496a-b214-2d861decab4e","system_id":"levelo_inurba_marseille","lat":43.21766,"lon":5.34605,"is_reserved":false,"is_disabled":true,"rental_uris":{"android":"levelo://app?vid=20d47005-cace-496a-b214-2d861decab4e","ios":"levelo://app?vid=20d47005-cace-496a-b214-2d861decab4e"},"vehicle_type_id":"4","last_reported":1750788921,"current_range_meters":0,"station_id":"st_cvj6r9ubvosntc0bgbag","pricing_plan_id":"cebpf4jnsgd1na2vs0mg"},{"bike_id":"f21bbe4f-0f2a-4f3b-bb2f-9a510c8b4fd9","system_id":"levelo_inurba_marseille","lat":43.29531,"lon":5.39396,"is_reserved":false,"is_disabled":true,"rental_uris":{"android":"levelo://app?vid=f21bbe4f-0f2a-4f3b-bb2f-9a510c8b4fd9","ios":"levelo://app?vid=f21bbe4f-0f2a-4f3b-bb2f-9a510c8b4fd9"},"vehicle_type_id":"4","last_reported":1750788921,"current_range_meters":400,"station_id":"ce4bh292rcd13ifvqdf0","pricing_plan_id":"cebpf4jnsgd1na2vs0mg"},{"bike_id":"da58a640-7a3c-4e0b-8819-4adf063e1914","system_id":"levelo_inurba_marseille","lat":43.2903,"lon":5.38641,"is_reserved":false,"is_disabled":true,"rental_uris":{"android":"levelo://app?vid=da58a640-7a3c-4e0b-8819-4adf063e1914","ios":"levelo://app?vid=da58a640-7a3c-4e0b-8819-4adf063e1914"},"vehicle_type_id":"4","last_reported":1750788921,"current_range_meters":400,"station_id":"ce4bh4p2rcd13ifvqe0g","pricing_plan_id":"cebpf4jnsgd1na2vs0mg"},{"bike_id":"82f76ebd-df75-412d-9f15-da5f92b71a59","system_id":"levelo_inurba_marseille","lat":43.29257,"lon":5.38447,"is_reserved":false,"is_disabled":true,"rental_uris":{"android":"levelo://app?vid=82f76ebd-df75-412d-9f15-da5f92b71a59","ios":"levelo://app?vid=82f76ebd-df75-412d-9f15-da5f92b71a59"},"vehicle_type_id":"4","last_reported":1750788921,"current_range_meters":400,"station_id":"ce4bh692rcd13ifvqea0","pricing_plan_id":"cebpf4jnsgd1na2vs0mg"},{"bike_id":"ffe49122-4212-4c98-94c9-769da3c440a3","system_id":"levelo_inurba_marseille","lat":43.27974,"lon":5.38744,"is_reserved":false,"is_disabled":true,"rental_uris":{"android":"levelo://app?vid=ffe49122-4212-4c98-94c9-769da3c440a3","ios":"levelo://app?vid=ffe49122-4212-4c98-94c9-769da3c440a3"},"vehicle_type_id":"4","last_reported":1750788921,"current_range_meters":400,"station_id":"ce4bhg12rcd13ifvqf80","pricing_plan_id":"cebpf4jnsgd1na2vs0mg"},{"bike_id":"85c58f10-925d-4344-b389-09267487a6fc","system_id":"levelo_inurba_marseille","lat":43.21118,"lon":5.41943,"is_reserved":false,"is_disabled":true,"rental_uris":{"android":"levelo://app?vid=85c58f10-925d-4344-b389-09267487a6fc","ios":"levelo://app?vid=85c58f10-925d-4344-b389-09267487a6fc"},"vehicle_type_id":"4","last_reported":1750788921,"current_range_meters":800,"station_id":"","pricing_plan_id":"cebpf4jnsgd1na2vs0mg"},{"bike_id":"bbbe8304-a4b0-4990-b6be-13477b5dc830","system_id":"levelo_inurba_marseille","lat":43.3066,"lon":5.40043,"is_reserved":false,"is_disabled":true,"rental_uris":{"android":"levelo://app?vid=bbbe8304-a4b0-4990-b6be-13477b5dc830","ios":"levelo://app?vid=bbbe8304-a4b0-4990-b6be-13477b5dc830"},"vehicle_type_id":"4","last_reported":1750788921,"current_range_meters":800,"station_id":"","pricing_plan_id":"cebpf4jnsgd1na2vs0mg"},{"bike_id":"b56337a1-122f-4216-8698-aee5a39d833e","system_id":"levelo_inurba_marseille","lat":43.27961,"lon":5.39962,"is_reserved":false,"is_disabled":true,"rental_uris":{"android":"levelo://app?vid=b56337a1-122f-4216-8698-aee5a39d833e","ios":"levelo://app?vid=b56337a1-122f-4216-8698-aee5a39d833e"},"vehicle_type_id":"4","last_reported":1750788921,"current_range_meters":800,"station_id":"","pricing_plan_id":"cebpf4jnsgd1na2vs0mg"},{"bike_id":"3bafa275-aa47-48c5-a483-db29f9ae4ae8","system_id":"levelo_inurba_marseille","lat":43.26038,"lon":5.37548,"is_reserved":false,"is_disabled":true,"rental_uris":{"android":"levelo://app?vid=3bafa275-aa47-48c5-a483-db29f9ae4ae8","ios":"levelo://app?vid=3bafa275-aa47-48c5-a483-db29f9ae4ae8"},"vehicle_type_id":"4","last_reported":1750788921,"current_range_meters":800,"station_id":"ce4bhgh2rcd13ifvqfa0","pricing_plan_id":"cebpf4jnsgd1na2vs0mg"},{"bike_id":"bd64543a-0ab6-4758-8e41-8141b45bd065","system_id":"levelo_inurba_marseille","lat":43.26201,"lon":5.37444,"is_reserved":false,"is_disabled":true,"rental_uris":{"android":"levelo://app?vid=bd64543a-0ab6-4758-8e41-8141b45bd065","ios":"levelo://app?vid=bd64543a-0ab6-4758-8e41-8141b45bd065"},"vehicle_type_id":"4","last_reported":1750788921,"current_range_meters":800,"station_id":"ce4bhgp2rcd13ifvqfc0","pricing_plan_id":"cebpf4jnsgd1na2vs0mg"},{"bike_id":"dcc9c9a5-2afc-4239-8a81-2aee8da5ac40","system_id":"levelo_inurba_marseille","lat":43.29715,"lon":5.37691,"is_reserved":false,"is_disabled":true,"rental_uris":{"android":"levelo://app?vid=dcc9c9a5-2afc-4239-8a81-2aee8da5ac40","ios":"levelo://app?vid=dcc9c9a5-2afc-4239-8a81-2aee8da5ac40"},"vehicle_type_id":"4","last_reported":1750788921,"current_range_meters":1200,"station_id":"ce4bgkh2rcd13ifvqbl0","pricing_plan_id":"cebpf4jnsgd1na2vs0mg"},{"bike_id":"5b04bc0d-10a2-4c1c-8b5e-1e040726ec0d","system_id":"levelo_inurba_marseille","lat":43.29532,"lon":5.37499,"is_reserved":false,"is_disabled":true,"rental_uris":{"android":"levelo://app?vid=5b04bc0d-10a2-4c1c-8b5e-1e040726ec0d","ios":"levelo://app?vid=5b04bc0d-10a2-4c1c-8b5e-1e040726ec0d"},"vehicle_type_id":"4","last_reported":1750788921,"current_range_meters":1200,"station_id":"ce4bgkp2rcd13ifvqbmg","pricing_plan_id":"cebpf4jnsgd1na2vs0mg"},{"bike_id":"9a35b35e-8af3-4238-b37b-4317a724124d","system_id":"levelo_inurba_marseille","lat":43.26028,"lon":5.37546,"is_reserved":false,"is_disabled":false,"rental_uris":{"android":"levelo://app?vid=9a35b35e-8af3-4238-b37b-4317a724124d","ios":"levelo://app?vid=9a35b35e-8af3-4238-b37b-4317a724124d"},"vehicle_type_id":"4","last_reported":1750788921,"current_range_meters":1200,"station_id":"ce4bhgh2rcd13ifvqfa0","pricing_plan_id":"cebpf4jnsgd1na2vs0mg"},{"bike_id":"e6c5169c-ca25-4e20-926e-381d9666be2d","system_id":"levelo_inurba_marseille","lat":43.28608,"lon":5.37051,"is_reserved":false,"is_disabled":true,"rental_uris":{"android":"levelo://app?vid=e6c5169c-ca25-4e20-926e-381d9666be2d","ios":"levelo://app?vid=e6c5169c-ca25-4e20-926e-381d9666be2d"},"vehicle_type_id":"4","last_reported":1750788921,"current_range_meters":1200,"station_id":"ce4bht12rcd13ifvqi60","pricing_plan_id":"cebpf4jnsgd1na2vs0mg"},{"bike_id":"3319d1a1-80a2-4950-b1a4-acb67b42134c","system_id":"levelo_inurba_marseille","lat":43.29034,"lon":5.37567,"is_reserved":false,"is_disabled":false,"rental_uris":{"android":"levelo://app?vid=3319d1a1-80a2-4950-b1a4-acb67b42134c","ios":"levelo://app?vid=3319d1a1-80a2-4950-b1a4-acb67b42134c"},"vehicle_type_id":"4","last_reported":1750788921,"current_range_meters":1600,"station_id":"ce4bh692rcd13ifvqe90","pricing_plan_id":"cebpf4jnsgd1na2vs0mg"},{"bike_id":"6a1a5b2c-4d80-4d2c-b656-a86429cac504","system_id":"levelo_inurba_marseille","lat":43.29191,"lon":5.35783,"is_reserved":false,"is_disabled":true,"rental_uris":{"android":"levelo://app?vid=6a1a5b2c-4d80-4d2c-b656-a86429cac504","ios":"levelo://app?vid=6a1a5b2c-4d80-4d2c-b656-a86429cac504"},"vehicle_type_id":"4","last_reported":1750788921,"current_range_meters":1600,"station_id":"ce4bhb12rcd13ifvqel0","pricing_plan_id":"cebpf4jnsgd1na2vs0mg"},{"bike_id":"473ba9d5-0c74-4178-ac60-f2730748893e","system_id":"levelo_inurba_marseille","lat":43.26568,"lon":5.39014,"is_reserved":false,"is_disabled":true,"rental_uris":{"android":"levelo://app?vid=473ba9d5-0c74-4178-ac60-f2730748893e","ios":"levelo://app?vid=473ba9d5-0c74-4178-ac60-f2730748893e"},"vehicle_type_id":"4","last_reported":1750788921,"current_range_meters":1600,"station_id":"ce4bhe12rcd13ifvqf30","pricing_plan_id":"cebpf4jnsgd1na2vs0mg"},{"bike_id":"f352e0f2-9906-4dc4-90a1-538e5a2940c4","system_id":"levelo_inurba_marseille","lat":43.27827,"lon":5.39211,"is_reserved":false,"is_disabled":true,"rental_uris":{"android":"levelo://app?vid=f352e0f2-9906-4dc4-90a1-538e5a2940c4","ios":"levelo://app?vid=f352e0f2-9906-4dc4-90a1-538e5a2940c4"},"vehicle_type_id":"4","last_reported":1750788921,"current_range_meters":1600,"station_id":"ce4bhjp2rcd13ifvqga0","pricing_plan_id":"cebpf4jnsgd1na2vs0mg"},{"bike_id":"115f3903-5e88-4e0b-af15-071ff77d7b23","system_id":"levelo_inurba_marseille","lat":43.29532,"lon":5.38545,"is_reserved":false,"is_disabled":true,"rental_uris":{"android":"levelo://app?vid=115f3903-5e88-4e0b-af15-071ff77d7b23","ios":"levelo://app?vid=115f3903-5e88-4e0b-af15-071ff77d7b23"},"vehicle_type_id":"4","last_reported":1750788921,"current_range_meters":2000,"station_id":"ce4bgih2rcd13ifvqba0","pricing_plan_id":"cebpf4jnsgd1na2vs0mg"},{"bike_id":"f641d53a-6684-41fc-99b3-306e0eaaece6","system_id":"levelo_inurba_marseille","lat":43.288574,"lon":5.35845,"is_reserved":false,"is_disabled":true,"rental_uris":{"android":"levelo://app?vid=f641d53a-6684-41fc-99b3-306e0eaaece6","ios":"levelo://app?vid=f641d53a-6684-41fc-99b3-306e0eaaece6"},"vehicle_type_id":"4","last_reported":1750788921,"current_range_meters":2000,"station_id":"ce4bhb12rcd13ifvqem0","pricing_plan_id":"cebpf4jnsgd1na2vs0mg"},{"bike_id":"f3b483b2-5693-4d6c-8b69-0750ff4a9211","system_id":"levelo_inurba_marseille","lat":43.2651,"lon":5.39532,"is_reserved":false,"is_disabled":true,"rental_uris":{"android":"levelo://app?vid=f3b483b2-5693-4d6c-8b69-0750ff4a9211","ios":"levelo://app?vid=f3b483b2-5693-4d6c-8b69-0750ff4a9211"},"vehicle_type_id":"4","last_reported":1750788921,"current_range_meters":2000,"station_id":"ce4bhi12rcd13ifvqfq0","pricing_plan_id":"cebpf4jnsgd1na2vs0mg"},{"bike_id":"8c6de0c1-9eaf-4c18-8155-d956789067ae","system_id":"levelo_inurba_marseille","lat":43.27951,"lon":5.44248,"is_reserved":false,"is_disabled":false,"rental_uris":{"android":"levelo://app?vid=8c6de0c1-9eaf-4c18-8155-d956789067ae","ios":"levelo://app?vid=8c6de0c1-9eaf-4c18-8155-d956789067ae"},"vehicle_type_id":"4","last_reported":1750788921,"current_range_meters":2800,"station_id":"","pricing_plan_id":"cebpf4jnsgd1na2vs0mg"},{"bike_id":"4b51865d-7689-4312-90ec-3578d1f30155","system_id":"levelo_inurba_marseille","lat":43.313823,"lon":5.391773,"is_reserved":false,"is_disabled":false,"rental_uris":{"android":"levelo://app?vid=4b51865d-7689-4312-90ec-3578d1f30155","ios":"levelo://app?vid=4b51865d-7689-4312-90ec-3578d1f30155"},"vehicle_type_id":"4","last_reported":1750788921,"current_range_meters":2800,"station_id":"","pricing_plan_id":"cebpf4jnsgd1na2vs0mg"},{"bike_id":"ae212501-fda6-45c1-bf69-c17cb4f6f758","system_id":"levelo_inurba_marseille","lat":43.30794,"lon":5.3765,"is_reserved":false,"is_disabled":false,"rental_uris":{"android":"levelo://app?vid=ae212501-fda6-45c1-bf69-c17cb4f6f758","ios":"levelo://app?vid=ae212501-fda6-45c1-bf69-c17cb4f6f758"},"vehicle_type_id":"4","last_reported":1750788921,"current_range_meters":2800,"station_id":"ce4bgv92rcd13ifvqcq0","pricing_plan_id":"cebpf4jnsgd1na2vs0mg"},{"bike_id":"a7da96cc-d25d-4196-9800-906e478a6450","system_id":"levelo_inurba_marseille","lat":43.29525,"lon":5.39405,"is_reserved":false,"is_disabled":false,"rental_uris":{"android":"levelo://app?vid=a7da96cc-d25d-4196-9800-906e478a6450","ios":"levelo://app?vid=a7da96cc-d25d-4196-9800-906e478a6450"},"vehicle_type_id":"4","last_reported":1750788921,"current_range_meters":2800,"station_id":"ce4bh292rcd13ifvqdf0","pricing_plan_id":"cebpf4jnsgd1na2vs0mg"},{"bike_id":"aa9cd0c9-c45d-40e1-82ff-86fbb1b9b78b","system_id":"levelo_inurba_marseille","lat":43.26954,"lon":5.38635,"is_reserved":false,"is_disabled":false,"rental_uris":{"android":"levelo://app?vid=aa9cd0c9-c45d-40e1-82ff-86fbb1b9b78b","ios":"levelo://app?vid=aa9cd0c9-c45d-40e1-82ff-86fbb1b9b78b"},"vehicle_type_id":"4","last_reported":1750788921,"current_range_meters":2800,"station_id":"ce4bhh92rcd13ifvqfh0","pricing_plan_id":"cebpf4jnsgd1na2vs0mg"},{"bike_id":"9dd4a945-0c75-4d9c-a265-07a3f665c044","system_id":"levelo_inurba_marseille","lat":43.25111,"lon":5.4032,"is_reserved":false,"is_disabled":false,"rental_uris":{"android":"levelo://app?vid=9dd4a945-0c75-4d9c-a265-07a3f665c044","ios":"levelo://app?vid=9dd4a945-0c75-4d9c-a265-07a3f665c044"},"vehicle_type_id":"4","last_reported":1750788921,"current_range_meters":2800,"station_id":"ce4bhlh2rcd13ifvqgig","pricing_plan_id":"cebpf4jnsgd1na2vs0mg"},{"bike_id":"a9e5e555-fdaf-49c0-b286-f0f2659b17d0","system_id":"levelo_inurba_marseille","lat":43.28316,"lon":5.43236,"is_reserved":false,"is_disabled":false,"rental_uris":{"android":"levelo://app?vid=a9e5e555-fdaf-49c0-b286-f0f2659b17d0","ios":"levelo://app?vid=a9e5e555-fdaf-49c0-b286-f0f2659b17d0"},"vehicle_type_id":"4","last_reported":1750788921,"current_range_meters":3200,"station_id":"","pricing_plan_id":"cebpf4jnsgd1na2vs0mg"},{"bike_id":"e607e2f9-3084-4490-abb2-6180cfcf8bd1","system_id":"levelo_inurba_marseille","lat":43.29518,"lon":5.39039,"is_reserved":false,"is_disabled":false,"rental_uris":{"android":"levelo://app?vid=e607e2f9-3084-4490-abb2-6180cfcf8bd1","ios":"levelo://app?vid=e607e2f9-3084-4490-abb2-6180cfcf8bd1"},"vehicle_type_id":"4","last_reported":1750788921,"current_range_meters":3200,"station_id":"ce4bh3p2rcd13ifvqdp0","pricing_plan_id":"cebpf4jnsgd1na2vs0mg"},{"bike_id":"aebeb6ea-1092-4e92-aea8-169f27604418","system_id":"levelo_inurba_marseille","lat":43.28424,"lon":5.34988,"is_reserved":false,"is_disabled":false,"rental_uris":{"android":"levelo://app?vid=aebeb6ea-1092-4e92-aea8-169f27604418","ios":"levelo://app?vid=aebeb6ea-1092-4e92-aea8-169f27604418"},"vehicle_type_id":"4","last_reported":1750788921,"current_range_meters":3200,"station_id":"ce4bhbh2rcd13ifvqepg","pricing_plan_id":"cebpf4jnsgd1na2vs0mg"},{"bike_id":"17139277-f6ef-439b-86dd-ab3ce7a402d2","system_id":"levelo_inurba_marseille","lat":43.24389,"lon":5.37061,"is_reserved":false,"is_disabled":false,"rental_uris":{"android":"levelo://app?vid=17139277-f6ef-439b-86dd-ab3ce7a402d2","ios":"levelo://app?vid=17139277-f6ef-439b-86dd-ab3ce7a402d2"},"vehicle_type_id":"4","last_reported":1750788921,"current_range_meters":3200,"station_id":"ce4bhhh2rcd13ifvqfk0","pricing_plan_id":"cebpf4jnsgd1na2vs0mg"},{"bike_id":"37e8e3d7-9693-4634-86f1-20f2a3fbbf68","system_id":"levelo_inurba_marseille","lat":43.29893,"lon":5.43658,"is_reserved":false,"is_disabled":false,"rental_uris":{"android":"levelo://app?vid=37e8e3d7-9693-4634-86f1-20f2a3fbbf68","ios":"levelo://app?vid=37e8e3d7-9693-4634-86f1-20f2a3fbbf68"},"vehicle_type_id":"4","last_reported":1750788921,"current_range_meters":3200,"station_id":"ce4bhpp2rcd13ifvqhfg","pricing_plan_id":"cebpf4jnsgd1na2vs0mg"},{"bike_id":"b026235c-dcea-4098-85b9-edf6609ddaa6","system_id":"levelo_inurba_marseille","lat":43.24387,"lon":5.37056,"is_reserved":false,"is_disabled":false,"rental_uris":{"android":"levelo://app?vid=b026235c-dcea-4098-85b9-edf6609ddaa6","ios":"levelo://app?vid=b026235c-dcea-4098-85b9-edf6609ddaa6"},"vehicle_type_id":"4","last_reported":1750788921,"current_range_meters":4000,"station_id":"ce4bhhh2rcd13ifvqfk0","pricing_plan_id":"cebpf4jnsgd1na2vs0mg"},{"bike_id":"a6534a16-9cdc-42e2-bcd2-26ce2c6e0f0e","system_id":"levelo_inurba_marseille","lat":43.31878,"lon":5.40735,"is_reserved":false,"is_disabled":false,"rental_uris":{"android":"levelo://app?vid=a6534a16-9cdc-42e2-bcd2-26ce2c6e0f0e","ios":"levelo://app?vid=a6534a16-9cdc-42e2-bcd2-26ce2c6e0f0e"},"vehicle_type_id":"4","last_reported":1750788921,"current_range_meters":4000,"station_id":"ce4bhq12rcd13ifvqhig","pricing_plan_id":"cebpf4jnsgd1na2vs0mg"},{"bike_id":"17d0afaa-6951-4dde-a43d-60017e75021c","system_id":"levelo_inurba_marseille","lat":43.291681,"lon":5.421175,"is_reserved":false,"is_disabled":false,"rental_uris":{"android":"levelo://app?vid=17d0afaa-6951-4dde-a43d-60017e75021c","ios":"levelo://app?vid=17d0afaa-6951-4dde-a43d-60017e75021c"},"vehicle_type_id":"4","last_reported":1750788921,"current_range_meters":4400,"station_id":"","pricing_plan_id":"cebpf4jnsgd1na2vs0mg"},{"bike_id":"409789e6-9ffa-4e6f-986e-bc25098cddcb","system_id":"levelo_inurba_marseille","lat":43.29711,"lon":5.36616,"is_reserved":false,"is_disabled":false,"rental_uris":{"android":"levelo://app?vid=409789e6-9ffa-4e6f-986e-bc25098cddcb","ios":"levelo://app?vid=409789e6-9ffa-4e6f-986e-bc25098cddcb"},"vehicle_type_id":"4","last_reported":1750788921,"current_range_meters":4400,"station_id":"ce4bgn12rcd13ifvqbt0","pricing_plan_id":"cebpf4jnsgd1na2vs0mg"},{"bike_id":"0823e064-ad81-42e9-b8ab-e3c915d23527","system_id":"levelo_inurba_marseille","lat":43.28407,"lon":5.37516,"is_reserved":false,"is_disabled":false,"rental_uris":{"android":"levelo://app?vid=0823e064-ad81-42e9-b8ab-e3c915d23527","ios":"levelo://app?vid=0823e064-ad81-42e9-b8ab-e3c915d23527"},"vehicle_type_id":"4","last_reported":1750788921,"current_range_meters":4400,"station_id":"ce4bh412rcd13ifvqds0","pricing_plan_id":"cebpf4jnsgd1na2vs0mg"},{"bike_id":"a77c160c-a981-433e-9584-aa7473f05944","system_id":"levelo_inurba_marseille","lat":43.30376,"lon":5.42484,"is_reserved":false,"is_disabled":false,"rental_uris":{"android":"levelo://app?vid=a77c160c-a981-433e-9584-aa7473f05944","ios":"levelo://app?vid=a77c160c-a981-433e-9584-aa7473f05944"},"vehicle_type_id":"4","last_reported":1750788921,"current_range_meters":4400,"station_id":"ce4bhoh2rcd13ifvqh6g","pricing_plan_id":"cebpf4jnsgd1na2vs0mg"},{"bike_id":"a05a27e2-b198-4394-a384-52c704a557d6","system_id":"levelo_inurba_marseille","lat":43.29437,"lon":5.39741,"is_reserved":false,"is_disabled":false,"rental_uris":{"android":"levelo://app?vid=a05a27e2-b198-4394-a384-52c704a557d6","ios":"levelo://app?vid=a05a27e2-b198-4394-a384-52c704a557d6"},"vehicle_type_id":"4","last_reported":1750788921,"current_range_meters":4800,"station_id":"ce4bh3h2rcd13ifvqdo0","pricing_plan_id":"cebpf4jnsgd1na2vs0mg"},{"bike_id":"702fd56d-88d0-41d9-a07e-6b1323fce4c8","system_id":"levelo_inurba_marseille","lat":43.2842,"lon":5.3499,"is_reserved":false,"is_disabled":false,"rental_uris":{"android":"levelo://app?vid=702fd56d-88d0-41d9-a07e-6b1323fce4c8","ios":"levelo://app?vid=702fd56d-88d0-41d9-a07e-6b1323fce4c8"},"vehicle_type_id":"4","last_reported":1750788921,"current_range_meters":4800,"station_id":"ce4bhbh2rcd13ifvqepg","pricing_plan_id":"cebpf4jnsgd1na2vs0mg"},{"bike_id":"d9e379e6-0dc0-4a92-9be8-8ef3afd4b19b","system_id":"levelo_inurba_marseille","lat":43.28421,"lon":5.34996,"is_reserved":false,"is_disabled":false,"rental_uris":{"android":"levelo://app?vid=d9e379e6-0dc0-4a92-9be8-8ef3afd4b19b","ios":"levelo://app?vid=d9e379e6-0dc0-4a92-9be8-8ef3afd4b19b"},"vehicle_type_id":"4","last_reported":1750788921,"current_range_meters":5600,"station_id":"ce4bhbh2rcd13ifvqepg","pricing_plan_id":"cebpf4jnsgd1na2vs0mg"},{"bike_id":"4f5882c5-9c1b-47f0-b1f7-7690bd46214d","system_id":"levelo_inurba_marseille","lat":43.2509,"lon":5.39523,"is_reserved":false,"is_disabled":false,"rental_uris":{"android":"levelo://app?vid=4f5882c5-9c1b-47f0-b1f7-7690bd46214d","ios":"levelo://app?vid=4f5882c5-9c1b-47f0-b1f7-7690bd46214d"},"vehicle_type_id":"4","last_reported":1750788921,"current_range_meters":5600,"station_id":"ce4bhm12rcd13ifvqgkg","pricing_plan_id":"cebpf4jnsgd1na2vs0mg"},{"bike_id":"70764641-799a-4261-99bd-903918c1b74a","system_id":"levelo_inurba_marseille","lat":43.32818,"lon":5.38133,"is_reserved":false,"is_disabled":false,"rental_uris":{"android":"levelo://app?vid=70764641-799a-4261-99bd-903918c1b74a","ios":"levelo://app?vid=70764641-799a-4261-99bd-903918c1b74a"},"vehicle_type_id":"4","last_reported":1750788921,"current_range_meters":6000,"station_id":"","pricing_plan_id":"cebpf4jnsgd1na2vs0mg"},{"bike_id":"078eb701-6457-4896-89c2-354071928a69","system_id":"levelo_inurba_marseille","lat":43.269514,"lon":5.386282,"is_reserved":false,"is_disabled":false,"rental_uris":{"android":"levelo://app?vid=078eb701-6457-4896-89c2-354071928a69","ios":"levelo://app?vid=078eb701-6457-4896-89c2-354071928a69"},"vehicle_type_id":"4","last_reported":1750788921,"current_range_meters":6000,"station_id":"ce4bhh92rcd13ifvqfh0","pricing_plan_id":"cebpf4jnsgd1na2vs0mg"},{"bike_id":"ff18894c-2229-483a-8e1b-8ae03dcfb167","system_id":"levelo_inurba_marseille","lat":43.281655,"lon":5.428153,"is_reserved":false,"is_disabled":false,"rental_uris":{"android":"levelo://app?vid=ff18894c-2229-483a-8e1b-8ae03dcfb167","ios":"levelo://app?vid=ff18894c-2229-483a-8e1b-8ae03dcfb167"},"vehicle_type_id":"4","last_reported":1750788921,"current_range_meters":6000,"station_id":"ce4bhnh2rcd13ifvqgug","pricing_plan_id":"cebpf4jnsgd1na2vs0mg"},{"bike_id":"bc886dcf-b504-4157-a974-132805177387","system_id":"levelo_inurba_marseille","lat":43.31273,"lon":5.40161,"is_reserved":false,"is_disabled":false,"rental_uris":{"android":"levelo://app?vid=bc886dcf-b504-4157-a974-132805177387","ios":"levelo://app?vid=bc886dcf-b504-4157-a974-132805177387"},"vehicle_type_id":"4","last_reported":1750788921,"current_range_meters":6400,"station_id":"ce4bh092rcd13ifvqd30","pricing_plan_id":"cebpf4jnsgd1na2vs0mg"},{"bike_id":"39556b21-077a-48cc-b8de-87c1fea7edf6","system_id":"levelo_inurba_marseille","lat":43.273747,"lon":5.362513,"is_reserved":false,"is_disabled":false,"rental_uris":{"android":"levelo://app?vid=39556b21-077a-48cc-b8de-87c1fea7edf6","ios":"levelo://app?vid=39556b21-077a-48cc-b8de-87c1fea7edf6"},"vehicle_type_id":"4","last_reported":1750788921,"current_range_meters":6400,"station_id":"ce4bhbh2rcd13ifvqeo0","pricing_plan_id":"cebpf4jnsgd1na2vs0mg"},{"bike_id":"e7b1f682-3442-4bc6-b32d-97bd1f054657","system_id":"levelo_inurba_marseille","lat":43.2827,"lon":5.35062,"is_reserved":false,"is_disabled":false,"rental_uris":{"android":"levelo://app?vid=e7b1f682-3442-4bc6-b32d-97bd1f054657","ios":"levelo://app?vid=e7b1f682-3442-4bc6-b32d-97bd1f054657"},"vehicle_type_id":"4","last_reported":1750788921,"current_range_meters":6400,"station_id":"ce4bhbp2rcd13ifvqerg","pricing_plan_id":"cebpf4jnsgd1na2vs0mg"},{"bike_id":"2fbb2382-0e85-43fd-9e49-a7f99053f862","system_id":"levelo_inurba_marseille","lat":43.27946,"lon":5.41042,"is_reserved":false,"is_disabled":false,"rental_uris":{"android":"levelo://app?vid=2fbb2382-0e85-43fd-9e49-a7f99053f862","ios":"levelo://app?vid=2fbb2382-0e85-43fd-9e49-a7f99053f862"},"vehicle_type_id":"4","last_reported":1750788921,"current_range_meters":6400,"station_id":"ce4bhnp2rcd13ifvqh0g","pricing_plan_id":"cebpf4jnsgd1na2vs0mg"},{"bike_id":"cb2eb46e-9bff-4868-80ba-f19c97f460d0","system_id":"levelo_inurba_marseille","lat":43.27366,"lon":5.36242,"is_reserved":false,"is_disabled":false,"rental_uris":{"android":"levelo://app?vid=cb2eb46e-9bff-4868-80ba-f19c97f460d0","ios":"levelo://app?vid=cb2eb46e-9bff-4868-80ba-f19c97f460d0"},"vehicle_type_id":"4","last_reported":1750788921,"current_range_meters":6800,"station_id":"ce4bhbh2rcd13ifvqeo0","pricing_plan_id":"cebpf4jnsgd1na2vs0mg"},{"bike_id":"6e3386e2-70a9-402b-9ce4-98e2ff214c60","system_id":"levelo_inurba_marseille","lat":43.24387,"lon":5.37053,"is_reserved":false,"is_disabled":false,"rental_uris":{"android":"levelo://app?vid=6e3386e2-70a9-402b-9ce4-98e2ff214c60","ios":"levelo://app?vid=6e3386e2-70a9-402b-9ce4-98e2ff214c60"},"vehicle_type_id":"4","last_reported":1750788921,"current_range_meters":6800,"station_id":"ce4bhhh2rcd13ifvqfk0","pricing_plan_id":"cebpf4jnsgd1na2vs0mg"},{"bike_id":"065b981f-597e-4b38-8b2e-32ae280f7275","system_id":"levelo_inurba_marseille","lat":43.278206,"lon":5.392465,"is_reserved":false,"is_disabled":false,"rental_uris":{"android":"levelo://app?vid=065b981f-597e-4b38-8b2e-32ae280f7275","ios":"levelo://app?vid=065b981f-597e-4b38-8b2e-32ae280f7275"},"vehicle_type_id":"4","last_reported":1750788921,"current_range_meters":6800,"station_id":"ce4bhjp2rcd13ifvqga0","pricing_plan_id":"cebpf4jnsgd1na2vs0mg"},{"bike_id":"333e37dc-bded-4fd3-8027-531f92677449","system_id":"levelo_inurba_marseille","lat":43.30417,"lon":5.41279,"is_reserved":false,"is_disabled":false,"rental_uris":{"android":"levelo://app?vid=333e37dc-bded-4fd3-8027-531f92677449","ios":"levelo://app?vid=333e37dc-bded-4fd3-8027-531f92677449"},"vehicle_type_id":"4","last_reported":1750788921,"current_range_meters":6800,"station_id":"ce4bhop2rcd13ifvqh8g","pricing_plan_id":"cebpf4jnsgd1na2vs0mg"},{"bike_id":"00d5a70e-5a5a-4b7f-8b93-335d086d2678","system_id":"levelo_inurba_marseille","lat":43.28609,"lon":5.37065,"is_reserved":false,"is_disabled":false,"rental_uris":{"android":"levelo://app?vid=00d5a70e-5a5a-4b7f-8b93-335d086d2678","ios":"levelo://app?vid=00d5a70e-5a5a-4b7f-8b93-335d086d2678"},"vehicle_type_id":"4","last_reported":1750788921,"current_range_meters":6800,"station_id":"ce4bht12rcd13ifvqi60","pricing_plan_id":"cebpf4jnsgd1na2vs0mg"},{"bike_id":"e162441c-93a0-47e1-a54d-425b473afb50","system_id":"levelo_inurba_marseille","lat":43.23191,"lon":5.35566,"is_reserved":false,"is_disabled":false,"rental_uris":{"android":"levelo://app?vid=e162441c-93a0-47e1-a54d-425b473afb50","ios":"levelo://app?vid=e162441c-93a0-47e1-a54d-425b473afb50"},"vehicle_type_id":"4","last_reported":1750788921,"current_range_meters":6800,"station_id":"ce4bhu92rcd13ifvqi70","pricing_plan_id":"cebpf4jnsgd1na2vs0mg"},{"bike_id":"34d55f23-45c1-4cee-888d-8f51f3b0ae80","system_id":"levelo_inurba_marseille","lat":43.32517,"lon":5.43362,"is_reserved":false,"is_disabled":false,"rental_uris":{"android":"levelo://app?vid=34d55f23-45c1-4cee-888d-8f51f3b0ae80","ios":"levelo://app?vid=34d55f23-45c1-4cee-888d-8f51f3b0ae80"},"vehicle_type_id":"4","last_reported":1750788921,"current_range_meters":7200,"station_id":"","pricing_plan_id":"cebpf4jnsgd1na2vs0mg"},{"bike_id":"b1426751-e940-457b-85b3-e9256c53031a","system_id":"levelo_inurba_marseille","lat":43.3095,"lon":5.39033,"is_reserved":false,"is_disabled":false,"rental_uris":{"android":"levelo://app?vid=b1426751-e940-457b-85b3-e9256c53031a","ios":"levelo://app?vid=b1426751-e940-457b-85b3-e9256c53031a"},"vehicle_type_id":"4","last_reported":1750788921,"current_range_meters":7200,"station_id":"ce4bgup2rcd13ifvqco0","pricing_plan_id":"cebpf4jnsgd1na2vs0mg"},{"bike_id":"c036be5b-7cce-41a2-8ecc-a5bd69a1b1ac","system_id":"levelo_inurba_marseille","lat":43.30886,"lon":5.3965,"is_reserved":false,"is_disabled":false,"rental_uris":{"android":"levelo://app?vid=c036be5b-7cce-41a2-8ecc-a5bd69a1b1ac","ios":"levelo://app?vid=c036be5b-7cce-41a2-8ecc-a5bd69a1b1ac"},"vehicle_type_id":"4","last_reported":1750788921,"current_range_meters":7200,"station_id":"ce4bh012rcd13ifvqcv0","pricing_plan_id":"cebpf4jnsgd1na2vs0mg"},{"bike_id":"0b6455cb-38cb-4edc-83aa-17ebe22a74f4","system_id":"levelo_inurba_marseille","lat":43.27376,"lon":5.36257,"is_reserved":false,"is_disabled":false,"rental_uris":{"android":"levelo://app?vid=0b6455cb-38cb-4edc-83aa-17ebe22a74f4","ios":"levelo://app?vid=0b6455cb-38cb-4edc-83aa-17ebe22a74f4"},"vehicle_type_id":"4","last_reported":1750788921,"current_range_meters":7200,"station_id":"ce4bhbh2rcd13ifvqeo0","pricing_plan_id":"cebpf4jnsgd1na2vs0mg"},{"bike_id":"4f7dfe85-16f6-4428-bece-68311f2d3cc7","system_id":"levelo_inurba_marseille","lat":43.27383,"lon":5.36254,"is_reserved":false,"is_disabled":false,"rental_uris":{"android":"levelo://app?vid=4f7dfe85-16f6-4428-bece-68311f2d3cc7","ios":"levelo://app?vid=4f7dfe85-16f6-4428-bece-68311f2d3cc7"},"vehicle_type_id":"4","last_reported":1750788921,"current_range_meters":7200,"station_id":"ce4bhbh2rcd13ifvqeo0","pricing_plan_id":"cebpf4jnsgd1na2vs0mg"},{"bike_id":"2625ccf3-086a-465b-884e-a555bc0d6ac0","system_id":"levelo_inurba_marseille","lat":43.2842,"lon":5.34987,"is_reserved":false,"is_disabled":false,"rental_uris":{"android":"levelo://app?vid=2625ccf3-086a-465b-884e-a555bc0d6ac0","ios":"levelo://app?vid=2625ccf3-086a-465b-884e-a555bc0d6ac0"},"vehicle_type_id":"4","last_reported":1750788921,"current_range_meters":7200,"station_id":"ce4bhbh2rcd13ifvqepg","pricing_plan_id":"cebpf4jnsgd1na2vs0mg"},{"bike_id":"58e0b69b-fbaa-445d-8f2d-d6e57569e8c3","system_id":"levelo_inurba_marseille","lat":43.28404,"lon":5.34985,"is_reserved":false,"is_disabled":false,"rental_uris":{"android":"levelo://app?vid=58e0b69b-fbaa-445d-8f2d-d6e57569e8c3","ios":"levelo://app?vid=58e0b69b-fbaa-445d-8f2d-d6e57569e8c3"},"vehicle_type_id":"4","last_reported":1750788921,"current_range_meters":7200,"station_id":"ce4bhbh2rcd13ifvqepg","pricing_plan_id":"cebpf4jnsgd1na2vs0mg"},{"bike_id":"5d7049bb-7e9f-4be8-be51-9b7065e42925","system_id":"levelo_inurba_marseille","lat":43.28609,"lon":5.37063,"is_reserved":false,"is_disabled":false,"rental_uris":{"android":"levelo://app?vid=5d7049bb-7e9f-4be8-be51-9b7065e42925","ios":"levelo://app?vid=5d7049bb-7e9f-4be8-be51-9b7065e42925"},"vehicle_type_id":"4","last_reported":1750788921,"current_range_meters":7200,"station_id":"ce4bht12rcd13ifvqi60","pricing_plan_id":"cebpf4jnsgd1na2vs0mg"},{"bike_id":"465d2323-f97d-48b0-a820-bc5fa54ae0fa","system_id":"levelo_inurba_marseille","lat":43.283827,"lon":5.459457,"is_reserved":false,"is_disabled":false,"rental_uris":{"android":"levelo://app?vid=465d2323-f97d-48b0-a820-bc5fa54ae0fa","ios":"levelo://app?vid=465d2323-f97d-48b0-a820-bc5fa54ae0fa"},"vehicle_type_id":"4","last_reported":1750788921,"current_range_meters":8000,"station_id":"","pricing_plan_id":"cebpf4jnsgd1na2vs0mg"},{"bike_id":"df4e7d0f-f7b4-4fdb-8e76-c7087e56c4bd","system_id":"levelo_inurba_marseille","lat":43.2762,"lon":5.36111,"is_reserved":false,"is_disabled":false,"rental_uris":{"android":"levelo://app?vid=df4e7d0f-f7b4-4fdb-8e76-c7087e56c4bd","ios":"levelo://app?vid=df4e7d0f-f7b4-4fdb-8e76-c7087e56c4bd"},"vehicle_type_id":"4","last_reported":1750788921,"current_range_meters":8000,"station_id":"ce4bgj92rcd13ifvqbe0","pricing_plan_id":"cebpf4jnsgd1na2vs0mg"},{"bike_id":"380be8a4-7820-47a8-8af4-a255b7df56a1","system_id":"levelo_inurba_marseille","lat":43.30434,"lon":5.39745,"is_reserved":false,"is_disabled":false,"rental_uris":{"android":"levelo://app?vid=380be8a4-7820-47a8-8af4-a255b7df56a1","ios":"levelo://app?vid=380be8a4-7820-47a8-8af4-a255b7df56a1"},"vehicle_type_id":"4","last_reported":1750788921,"current_range_meters":8000,"station_id":"ce4bh092rcd13ifvqd20","pricing_plan_id":"cebpf4jnsgd1na2vs0mg"},{"bike_id":"7e21ea22-b0fd-474f-93ce-4c99615ccd33","system_id":"levelo_inurba_marseille","lat":43.28397,"lon":5.34984,"is_reserved":false,"is_disabled":false,"rental_uris":{"android":"levelo://app?vid=7e21ea22-b0fd-474f-93ce-4c99615ccd33","ios":"levelo://app?vid=7e21ea22-b0fd-474f-93ce-4c99615ccd33"},"vehicle_type_id":"4","last_reported":1750788921,"current_range_meters":8000,"station_id":"ce4bhbh2rcd13ifvqepg","pricing_plan_id":"cebpf4jnsgd1na2vs0mg"},{"bike_id":"8c52b308-7389-4a8b-9997-1ec6f0c5a796","system_id":"levelo_inurba_marseille","lat":43.2841,"lon":5.3499,"is_reserved":false,"is_disabled":false,"rental_uris":{"android":"levelo://app?vid=8c52b308-7389-4a8b-9997-1ec6f0c5a796","ios":"levelo://app?vid=8c52b308-7389-4a8b-9997-1ec6f0c5a796"},"vehicle_type_id":"4","last_reported":1750788921,"current_range_meters":8000,"station_id":"ce4bhbh2rcd13ifvqepg","pricing_plan_id":"cebpf4jnsgd1na2vs0mg"},{"bike_id":"3753c8e8-cb3b-4631-ba13-413e3ea5e299","system_id":"levelo_inurba_marseille","lat":43.28618,"lon":5.35103,"is_reserved":false,"is_disabled":false,"rental_uris":{"android":"levelo://app?vid=3753c8e8-cb3b-4631-ba13-413e3ea5e299","ios":"levelo://app?vid=3753c8e8-cb3b-4631-ba13-413e3ea5e299"},"vehicle_type_id":"4","last_reported":1750788921,"current_range_meters":8000,"station_id":"ce4bhch2rcd13ifvqeug","pricing_plan_id":"cebpf4jnsgd1na2vs0mg"},{"bike_id":"a092c41c-0118-4d86-b43e-981a2615e33e","system_id":"levelo_inurba_marseille","lat":43.34687,"lon":5.34555,"is_reserved":false,"is_disabled":false,"rental_uris":{"android":"levelo://app?vid=a092c41c-0118-4d86-b43e-981a2615e33e","ios":"levelo://app?vid=a092c41c-0118-4d86-b43e-981a2615e33e"},"vehicle_type_id":"4","last_reported":1750788921,"current_range_meters":8400,"station_id":"","pricing_plan_id":"cebpf4jnsgd1na2vs0mg"},{"bike_id":"113b198a-6e1b-46eb-8e6f-7d0d14639408","system_id":"levelo_inurba_marseille","lat":43.28791,"lon":5.36375,"is_reserved":false,"is_disabled":false,"rental_uris":{"android":"levelo://app?vid=113b198a-6e1b-46eb-8e6f-7d0d14639408","ios":"levelo://app?vid=113b198a-6e1b-46eb-8e6f-7d0d14639408"},"vehicle_type_id":"4","last_reported":1750788921,"current_range_meters":8400,"station_id":"","pricing_plan_id":"cebpf4jnsgd1na2vs0mg"},{"bike_id":"9f3b025a-e3cc-4bae-afac-9d00d1fd9d68","system_id":"levelo_inurba_marseille","lat":43.28662,"lon":5.36354,"is_reserved":false,"is_disabled":false,"rental_uris":{"android":"levelo://app?vid=9f3b025a-e3cc-4bae-afac-9d00d1fd9d68","ios":"levelo://app?vid=9f3b025a-e3cc-4bae-afac-9d00d1fd9d68"},"vehicle_type_id":"4","last_reported":1750788921,"current_range_meters":8400,"station_id":"ce4bhah2rcd13ifvqej0","pricing_plan_id":"cebpf4jnsgd1na2vs0mg"},{"bike_id":"8112196c-8522-4fc0-8bb4-ae3153219fde","system_id":"levelo_inurba_marseille","lat":43.28415,"lon":5.34978,"is_reserved":false,"is_disabled":false,"rental_uris":{"android":"levelo://app?vid=8112196c-8522-4fc0-8bb4-ae3153219fde","ios":"levelo://app?vid=8112196c-8522-4fc0-8bb4-ae3153219fde"},"vehicle_type_id":"4","last_reported":1750788921,"current_range_meters":8400,"station_id":"ce4bhbh2rcd13ifvqepg","pricing_plan_id":"cebpf4jnsgd1na2vs0mg"},{"bike_id":"50ead7e5-8038-4782-87c7-aa1c790b33de","system_id":"levelo_inurba_marseille","lat":43.2725,"lon":5.4003,"is_reserved":false,"is_disabled":false,"rental_uris":{"android":"levelo://app?vid=50ead7e5-8038-4782-87c7-aa1c790b33de","ios":"levelo://app?vid=50ead7e5-8038-4782-87c7-aa1c790b33de"},"vehicle_type_id":"4","last_reported":1750788921,"current_range_meters":8800,"station_id":"","pricing_plan_id":"cebpf4jnsgd1na2vs0mg"},{"bike_id":"9aacfd6e-0542-47f4-8a32-7953b059aaad","system_id":"levelo_inurba_marseille","lat":43.21755,"lon":5.34595,"is_reserved":false,"is_disabled":false,"rental_uris":{"android":"levelo://app?vid=9aacfd6e-0542-47f4-8a32-7953b059aaad","ios":"levelo://app?vid=9aacfd6e-0542-47f4-8a32-7953b059aaad"},"vehicle_type_id":"4","last_reported":1750788921,"current_range_meters":8800,"station_id":"","pricing_plan_id":"cebpf4jnsgd1na2vs0mg"},{"bike_id":"e127ef7e-24d3-4248-81fa-66c5e7c3e582","system_id":"levelo_inurba_marseille","lat":43.296204,"lon":5.379464,"is_reserved":false,"is_disabled":false,"rental_uris":{"android":"levelo://app?vid=e127ef7e-24d3-4248-81fa-66c5e7c3e582","ios":"levelo://app?vid=e127ef7e-24d3-4248-81fa-66c5e7c3e582"},"vehicle_type_id":"4","last_reported":1750788921,"current_range_meters":8800,"station_id":"","pricing_plan_id":"cebpf4jnsgd1na2vs0mg"},{"bike_id":"234e0a22-f939-4bc7-b32c-1a974afb99c3","system_id":"levelo_inurba_marseille","lat":43.281846,"lon":5.351118,"is_reserved":false,"is_disabled":false,"rental_uris":{"android":"levelo://app?vid=234e0a22-f939-4bc7-b32c-1a974afb99c3","ios":"levelo://app?vid=234e0a22-f939-4bc7-b32c-1a974afb99c3"},"vehicle_type_id":"4","last_reported":1750788921,"current_range_meters":8800,"station_id":"ce4bgih2rcd13ifvqba0","pricing_plan_id":"cebpf4jnsgd1na2vs0mg"},{"bike_id":"74e5ffb4-1971-4247-94ec-482def45ebb7","system_id":"levelo_inurba_marseille","lat":43.31277,"lon":5.40173,"is_reserved":false,"is_disabled":false,"rental_uris":{"android":"levelo://app?vid=74e5ffb4-1971-4247-94ec-482def45ebb7","ios":"levelo://app?vid=74e5ffb4-1971-4247-94ec-482def45ebb7"},"vehicle_type_id":"4","last_reported":1750788921,"current_range_meters":8800,"station_id":"ce4bh092rcd13ifvqd30","pricing_plan_id":"cebpf4jnsgd1na2vs0mg"},{"bike_id":"b438f64c-a98f-4342-acb4-2dea540134be","system_id":"levelo_inurba_marseille","lat":43.291994,"lon":5.358033,"is_reserved":false,"is_disabled":false,"rental_uris":{"android":"levelo://app?vid=b438f64c-a98f-4342-acb4-2dea540134be","ios":"levelo://app?vid=b438f64c-a98f-4342-acb4-2dea540134be"},"vehicle_type_id":"4","last_reported":1750788921,"current_range_meters":8800,"station_id":"ce4bhb12rcd13ifvqel0","pricing_plan_id":"cebpf4jnsgd1na2vs0mg"},{"bike_id":"c1d9f29d-1307-4bf6-9fda-2484177a55a9","system_id":"levelo_inurba_marseille","lat":43.2558,"lon":5.38226,"is_reserved":false,"is_disabled":false,"rental_uris":{"android":"levelo://app?vid=c1d9f29d-1307-4bf6-9fda-2484177a55a9","ios":"levelo://app?vid=c1d9f29d-1307-4bf6-9fda-2484177a55a9"},"vehicle_type_id":"4","last_reported":1750788921,"current_range_meters":8800,"station_id":"ce4bhih2rcd13ifvqfs0","pricing_plan_id":"cebpf4jnsgd1na2vs0mg"},{"bike_id":"ea05c440-7f36-4fcb-9ab7-7af6339863fd","system_id":"levelo_inurba_marseille","lat":43.24069,"lon":5.3775,"is_reserved":false,"is_disabled":false,"rental_uris":{"android":"levelo://app?vid=ea05c440-7f36-4fcb-9ab7-7af6339863fd","ios":"levelo://app?vid=ea05c440-7f36-4fcb-9ab7-7af6339863fd"},"vehicle_type_id":"4","last_reported":1750788921,"current_range_meters":8800,"station_id":"ce4bhnp2rcd13ifvqgvg","pricing_plan_id":"cebpf4jnsgd1na2vs0mg"},{"bike_id":"f333bcb3-17e0-43f1-847f-eb3d745e3e41","system_id":"levelo_inurba_marseille","lat":43.29358,"lon":5.42825,"is_reserved":false,"is_disabled":false,"rental_uris":{"android":"levelo://app?vid=f333bcb3-17e0-43f1-847f-eb3d745e3e41","ios":"levelo://app?vid=f333bcb3-17e0-43f1-847f-eb3d745e3e41"},"vehicle_type_id":"4","last_reported":1750788921,"current_range_meters":9200,"station_id":"","pricing_plan_id":"cebpf4jnsgd1na2vs0mg"},{"bike_id":"d647d82e-58fb-4efa-913b-7b5c87759cda","system_id":"levelo_inurba_marseille","lat":43.26987,"lon":5.39869,"is_reserved":false,"is_disabled":false,"rental_uris":{"android":"levelo://app?vid=d647d82e-58fb-4efa-913b-7b5c87759cda","ios":"levelo://app?vid=d647d82e-58fb-4efa-913b-7b5c87759cda"},"vehicle_type_id":"4","last_reported":1750788921,"current_range_meters":9200,"station_id":"","pricing_plan_id":"cebpf4jnsgd1na2vs0mg"},{"bike_id":"b0e984a3-506d-4d2d-a80a-13dc42d99bb0","system_id":"levelo_inurba_marseille","lat":43.27617,"lon":5.36111,"is_reserved":false,"is_disabled":false,"rental_uris":{"android":"levelo://app?vid=b0e984a3-506d-4d2d-a80a-13dc42d99bb0","ios":"levelo://app?vid=b0e984a3-506d-4d2d-a80a-13dc42d99bb0"},"vehicle_type_id":"4","last_reported":1750788921,"current_range_meters":9200,"station_id":"ce4bgj92rcd13ifvqbe0","pricing_plan_id":"cebpf4jnsgd1na2vs0mg"},{"bike_id":"c644c411-7310-4d1e-840d-118af1b98bcf","system_id":"levelo_inurba_marseille","lat":43.2987,"lon":5.39736,"is_reserved":false,"is_disabled":false,"rental_uris":{"android":"levelo://app?vid=c644c411-7310-4d1e-840d-118af1b98bcf","ios":"levelo://app?vid=c644c411-7310-4d1e-840d-118af1b98bcf"},"vehicle_type_id":"4","last_reported":1750788921,"current_range_meters":9200,"station_id":"ce4bh0h2rcd13ifvqd50","pricing_plan_id":"cebpf4jnsgd1na2vs0mg"},{"bike_id":"fdffb176-788a-4d78-8042-56c17f37a0ac","system_id":"levelo_inurba_marseille","lat":43.30593,"lon":5.3936,"is_reserved":false,"is_disabled":false,"rental_uris":{"android":"levelo://app?vid=fdffb176-788a-4d78-8042-56c17f37a0ac","ios":"levelo://app?vid=fdffb176-788a-4d78-8042-56c17f37a0ac"},"vehicle_type_id":"4","last_reported":1750788921,"current_range_meters":9200,"station_id":"ce4bh0p2rcd13ifvqd80","pricing_plan_id":"cebpf4jnsgd1na2vs0mg"},{"bike_id":"34824075-81ed-457c-b5ef-7db664518822","system_id":"levelo_inurba_marseille","lat":43.28273,"lon":5.35075,"is_reserved":false,"is_disabled":false,"rental_uris":{"android":"levelo://app?vid=34824075-81ed-457c-b5ef-7db664518822","ios":"levelo://app?vid=34824075-81ed-457c-b5ef-7db664518822"},"vehicle_type_id":"4","last_reported":1750788921,"current_range_meters":9200,"station_id":"ce4bhbp2rcd13ifvqerg","pricing_plan_id":"cebpf4jnsgd1na2vs0mg"},{"bike_id":"002e2856-94d6-44b5-b902-06a7f61ae6d0","system_id":"levelo_inurba_marseille","lat":43.269565,"lon":5.386246,"is_reserved":false,"is_disabled":false,"rental_uris":{"android":"levelo://app?vid=002e2856-94d6-44b5-b902-06a7f61ae6d0","ios":"levelo://app?vid=002e2856-94d6-44b5-b902-06a7f61ae6d0"},"vehicle_type_id":"4","last_reported":1750788921,"current_range_meters":9200,"station_id":"ce4bhh92rcd13ifvqfh0","pricing_plan_id":"cebpf4jnsgd1na2vs0mg"},{"bike_id":"e999d062-42ba-4fb3-a91a-d1a0af7790b6","system_id":"levelo_inurba_marseille","lat":43.31996,"lon":5.38167,"is_reserved":false,"is_disabled":false,"rental_uris":{"android":"levelo://app?vid=e999d062-42ba-4fb3-a91a-d1a0af7790b6","ios":"levelo://app?vid=e999d062-42ba-4fb3-a91a-d1a0af7790b6"},"vehicle_type_id":"4","last_reported":1750788921,"current_range_meters":9200,"station_id":"ce4bhr12rcd13ifvqhpg","pricing_plan_id":"cebpf4jnsgd1na2vs0mg"},{"bike_id":"82daa609-66e4-4b91-8a1c-a20f4b557675","system_id":"levelo_inurba_marseille","lat":43.30336,"lon":5.36691,"is_reserved":false,"is_disabled":false,"rental_uris":{"android":"levelo://app?vid=82daa609-66e4-4b91-8a1c-a20f4b557675","ios":"levelo://app?vid=82daa609-66e4-4b91-8a1c-a20f4b557675"},"vehicle_type_id":"4","last_reported":1750788921,"current_range_meters":9600,"station_id":"","pricing_plan_id":"cebpf4jnsgd1na2vs0mg"},{"bike_id":"df82bbe8-727f-4fe0-a94f-c2be0b62728b","system_id":"levelo_inurba_marseille","lat":43.30953,"lon":5.39035,"is_reserved":false,"is_disabled":false,"rental_uris":{"android":"levelo://app?vid=df82bbe8-727f-4fe0-a94f-c2be0b62728b","ios":"levelo://app?vid=df82bbe8-727f-4fe0-a94f-c2be0b62728b"},"vehicle_type_id":"4","last_reported":1750788921,"current_range_meters":9600,"station_id":"ce4bgup2rcd13ifvqco0","pricing_plan_id":"cebpf4jnsgd1na2vs0mg"},{"bike_id":"9f61f589-6d13-4e0f-a89b-0a5ee2da8ef4","system_id":"levelo_inurba_marseille","lat":43.30937,"lon":5.40143,"is_reserved":false,"is_disabled":false,"rental_uris":{"android":"levelo://app?vid=9f61f589-6d13-4e0f-a89b-0a5ee2da8ef4","ios":"levelo://app?vid=9f61f589-6d13-4e0f-a89b-0a5ee2da8ef4"},"vehicle_type_id":"4","last_reported":1750788921,"current_range_meters":9600,"station_id":"ce4bgvp2rcd13ifvqct0","pricing_plan_id":"cebpf4jnsgd1na2vs0mg"},{"bike_id":"0fffa81c-26e5-4ed5-a16a-055677c5fd5a","system_id":"levelo_inurba_marseille","lat":43.27371,"lon":5.36251,"is_reserved":false,"is_disabled":false,"rental_uris":{"android":"levelo://app?vid=0fffa81c-26e5-4ed5-a16a-055677c5fd5a","ios":"levelo://app?vid=0fffa81c-26e5-4ed5-a16a-055677c5fd5a"},"vehicle_type_id":"4","last_reported":1750788921,"current_range_meters":9600,"station_id":"ce4bhbh2rcd13ifvqeo0","pricing_plan_id":"cebpf4jnsgd1na2vs0mg"},{"bike_id":"e9fb73bf-b6ce-484c-b34e-c290da1bd54a","system_id":"levelo_inurba_marseille","lat":43.25088,"lon":5.39522,"is_reserved":false,"is_disabled":false,"rental_uris":{"android":"levelo://app?vid=e9fb73bf-b6ce-484c-b34e-c290da1bd54a","ios":"levelo://app?vid=e9fb73bf-b6ce-484c-b34e-c290da1bd54a"},"vehicle_type_id":"4","last_reported":1750788921,"current_range_meters":9600,"station_id":"ce4bhm12rcd13ifvqgkg","pricing_plan_id":"cebpf4jnsgd1na2vs0mg"},{"bike_id":"e12d25ad-6a34-4f7d-a8b9-169850127fad","system_id":"levelo_inurba_marseille","lat":43.32693,"lon":5.40282,"is_reserved":false,"is_disabled":false,"rental_uris":{"android":"levelo://app?vid=e12d25ad-6a34-4f7d-a8b9-169850127fad","ios":"levelo://app?vid=e12d25ad-6a34-4f7d-a8b9-169850127fad"},"vehicle_type_id":"4","last_reported":1750788921,"current_range_meters":10000,"station_id":"","pricing_plan_id":"cebpf4jnsgd1na2vs0mg"},{"bike_id":"d287b345-663e-4220-a327-bcf863cad223","system_id":"levelo_inurba_marseille","lat":43.284034,"lon":5.349806,"is_reserved":false,"is_disabled":false,"rental_uris":{"android":"levelo://app?vid=d287b345-663e-4220-a327-bcf863cad223","ios":"levelo://app?vid=d287b345-663e-4220-a327-bcf863cad223"},"vehicle_type_id":"4","last_reported":1750788921,"current_range_meters":10000,"station_id":"ce4bhh92rcd13ifvqfi0","pricing_plan_id":"cebpf4jnsgd1na2vs0mg"},{"bike_id":"fd64c6c1-0c64-4fff-b88a-3fa869f567b0","system_id":"levelo_inurba_marseille","lat":43.27991,"lon":5.40014,"is_reserved":false,"is_disabled":false,"rental_uris":{"android":"levelo://app?vid=fd64c6c1-0c64-4fff-b88a-3fa869f567b0","ios":"levelo://app?vid=fd64c6c1-0c64-4fff-b88a-3fa869f567b0"},"vehicle_type_id":"4","last_reported":1750788921,"current_range_meters":10000,"station_id":"ce4bho92rcd13ifvqh4g","pricing_plan_id":"cebpf4jnsgd1na2vs0mg"},{"bike_id":"51dcb3e1-2b07-4a2e-9a2b-e4ec75156f6c","system_id":"levelo_inurba_marseille","lat":43.22948,"lon":5.35356,"is_reserved":false,"is_disabled":false,"rental_uris":{"android":"levelo://app?vid=51dcb3e1-2b07-4a2e-9a2b-e4ec75156f6c","ios":"levelo://app?vid=51dcb3e1-2b07-4a2e-9a2b-e4ec75156f6c"},"vehicle_type_id":"4","last_reported":1750788921,"current_range_meters":10000,"station_id":"cpo3532slgdg3j2ikp40","pricing_plan_id":"cebpf4jnsgd1na2vs0mg"},{"bike_id":"03b2c1ad-0f73-4878-ad96-34f6ba2428f7","system_id":"levelo_inurba_marseille","lat":43.27524,"lon":5.38401,"is_reserved":false,"is_disabled":false,"rental_uris":{"android":"levelo://app?vid=03b2c1ad-0f73-4878-ad96-34f6ba2428f7","ios":"levelo://app?vid=03b2c1ad-0f73-4878-ad96-34f6ba2428f7"},"vehicle_type_id":"4","last_reported":1750788921,"current_range_meters":10800,"station_id":"","pricing_plan_id":"cebpf4jnsgd1na2vs0mg"},{"bike_id":"c940cda6-f203-4a99-88c0-6637ff62e74b","system_id":"levelo_inurba_marseille","lat":43.27385,"lon":5.36247,"is_reserved":false,"is_disabled":false,"rental_uris":{"android":"levelo://app?vid=c940cda6-f203-4a99-88c0-6637ff62e74b","ios":"levelo://app?vid=c940cda6-f203-4a99-88c0-6637ff62e74b"},"vehicle_type_id":"4","last_reported":1750788921,"current_range_meters":10800,"station_id":"ce4bhbh2rcd13ifvqeo0","pricing_plan_id":"cebpf4jnsgd1na2vs0mg"},{"bike_id":"88230a78-9fbf-4e6f-8358-9006acfaa40c","system_id":"levelo_inurba_marseille","lat":43.25028,"lon":5.38888,"is_reserved":false,"is_disabled":false,"rental_uris":{"android":"levelo://app?vid=88230a78-9fbf-4e6f-8358-9006acfaa40c","ios":"levelo://app?vid=88230a78-9fbf-4e6f-8358-9006acfaa40c"},"vehicle_type_id":"4","last_reported":1750788921,"current_range_meters":10800,"station_id":"ce4bhgp2rcd13ifvqfd0","pricing_plan_id":"cebpf4jnsgd1na2vs0mg"},{"bike_id":"3223c9d8-6d4f-40f0-a265-b428a23600f0","system_id":"levelo_inurba_marseille","lat":43.33019,"lon":5.3905,"is_reserved":false,"is_disabled":false,"rental_uris":{"android":"levelo://app?vid=3223c9d8-6d4f-40f0-a265-b428a23600f0","ios":"levelo://app?vid=3223c9d8-6d4f-40f0-a265-b428a23600f0"},"vehicle_type_id":"4","last_reported":1750788921,"current_range_meters":10800,"station_id":"ce4bhr92rcd13ifvqhrg","pricing_plan_id":"cebpf4jnsgd1na2vs0mg"},{"bike_id":"b7d27408-8db6-4d78-be1b-d4ad1c3f5edb","system_id":"levelo_inurba_marseille","lat":43.3073,"lon":5.42432,"is_reserved":false,"is_disabled":false,"rental_uris":{"android":"levelo://app?vid=b7d27408-8db6-4d78-be1b-d4ad1c3f5edb","ios":"levelo://app?vid=b7d27408-8db6-4d78-be1b-d4ad1c3f5edb"},"vehicle_type_id":"4","last_reported":1750788921,"current_range_meters":10800,"station_id":"st_cvj6ca6bvosntc0bfgr0","pricing_plan_id":"cebpf4jnsgd1na2vs0mg"},{"bike_id":"4a20052a-cd92-44bd-aa1b-f0bd48af6c34","system_id":"levelo_inurba_marseille","lat":43.29916,"lon":5.38159,"is_reserved":false,"is_disabled":false,"rental_uris":{"android":"levelo://app?vid=4a20052a-cd92-44bd-aa1b-f0bd48af6c34","ios":"levelo://app?vid=4a20052a-cd92-44bd-aa1b-f0bd48af6c34"},"vehicle_type_id":"4","last_reported":1750788921,"current_range_meters":11200,"station_id":"ce4bgj12rcd13ifvqbc0","pricing_plan_id":"cebpf4jnsgd1na2vs0mg"},{"bike_id":"5849c720-474b-4338-842f-95d85f834288","system_id":"levelo_inurba_marseille","lat":43.30214,"lon":5.39462,"is_reserved":false,"is_disabled":false,"rental_uris":{"android":"levelo://app?vid=5849c720-474b-4338-842f-95d85f834288","ios":"levelo://app?vid=5849c720-474b-4338-842f-95d85f834288"},"vehicle_type_id":"4","last_reported":1750788921,"current_range_meters":11200,"station_id":"ce4bh0p2rcd13ifvqd70","pricing_plan_id":"cebpf4jnsgd1na2vs0mg"},{"bike_id":"c95f409c-976f-42b0-b741-c7e65c7c6f0b","system_id":"levelo_inurba_marseille","lat":43.24391,"lon":5.37063,"is_reserved":false,"is_disabled":false,"rental_uris":{"android":"levelo://app?vid=c95f409c-976f-42b0-b741-c7e65c7c6f0b","ios":"levelo://app?vid=c95f409c-976f-42b0-b741-c7e65c7c6f0b"},"vehicle_type_id":"4","last_reported":1750788921,"current_range_meters":11200,"station_id":"ce4bhhh2rcd13ifvqfk0","pricing_plan_id":"cebpf4jnsgd1na2vs0mg"},{"bike_id":"fe4b6064-b65b-40e0-b528-83e83d032eb6","system_id":"levelo_inurba_marseille","lat":43.297913,"lon":5.393494,"is_reserved":false,"is_disabled":false,"rental_uris":{"android":"levelo://app?vid=fe4b6064-b65b-40e0-b528-83e83d032eb6","ios":"levelo://app?vid=fe4b6064-b65b-40e0-b528-83e83d032eb6"},"vehicle_type_id":"4","last_reported":1750788921,"current_range_meters":11200,"station_id":"chh1huq6cuj3fo74tm60","pricing_plan_id":"cebpf4jnsgd1na2vs0mg"},{"bike_id":"fb1d0b95-5e30-489b-b478-9b9a164cad1b","system_id":"levelo_inurba_marseille","lat":43.24171,"lon":5.36394,"is_reserved":false,"is_disabled":false,"rental_uris":{"android":"levelo://app?vid=fb1d0b95-5e30-489b-b478-9b9a164cad1b","ios":"levelo://app?vid=fb1d0b95-5e30-489b-b478-9b9a164cad1b"},"vehicle_type_id":"4","last_reported":1750788921,"current_range_meters":11200,"station_id":"cpo36qri1sfpv3e86is0","pricing_plan_id":"cebpf4jnsgd1na2vs0mg"},{"bike_id":"095eabd1-5dcf-4106-9219-bdac4470d970","system_id":"levelo_inurba_marseille","lat":43.328316,"lon":5.433685,"is_reserved":false,"is_disabled":false,"rental_uris":{"android":"levelo://app?vid=095eabd1-5dcf-4106-9219-bdac4470d970","ios":"levelo://app?vid=095eabd1-5dcf-4106-9219-bdac4470d970"},"vehicle_type_id":"4","last_reported":1750788921,"current_range_meters":11600,"station_id":"","pricing_plan_id":"cebpf4jnsgd1na2vs0mg"},{"bike_id":"ea58c5af-7e24-472a-9042-4626112e91cb","system_id":"levelo_inurba_marseille","lat":43.291979,"lon":5.358054,"is_reserved":false,"is_disabled":false,"rental_uris":{"android":"levelo://app?vid=ea58c5af-7e24-472a-9042-4626112e91cb","ios":"levelo://app?vid=ea58c5af-7e24-472a-9042-4626112e91cb"},"vehicle_type_id":"4","last_reported":1750788921,"current_range_meters":11600,"station_id":"","pricing_plan_id":"cebpf4jnsgd1na2vs0mg"},{"bike_id":"774a342c-26a0-4fa7-b556-b71a3cc0cfaa","system_id":"levelo_inurba_marseille","lat":43.27536,"lon":5.359923,"is_reserved":false,"is_disabled":false,"rental_uris":{"android":"levelo://app?vid=774a342c-26a0-4fa7-b556-b71a3cc0cfaa","ios":"levelo://app?vid=774a342c-26a0-4fa7-b556-b71a3cc0cfaa"},"vehicle_type_id":"4","last_reported":1750788921,"current_range_meters":11600,"station_id":"ce4bgj92rcd13ifvqbe0","pricing_plan_id":"cebpf4jnsgd1na2vs0mg"},{"bike_id":"663d0ab5-1170-49cb-8f40-f0a5ad1539c0","system_id":"levelo_inurba_marseille","lat":43.291976,"lon":5.358089,"is_reserved":false,"is_disabled":false,"rental_uris":{"android":"levelo://app?vid=663d0ab5-1170-49cb-8f40-f0a5ad1539c0","ios":"levelo://app?vid=663d0ab5-1170-49cb-8f40-f0a5ad1539c0"},"vehicle_type_id":"4","last_reported":1750788921,"current_range_meters":11600,"station_id":"ce4bhb12rcd13ifvqel0","pricing_plan_id":"cebpf4jnsgd1na2vs0mg"},{"bike_id":"812ed64a-d77e-45ca-bd16-2819bfe1369e","system_id":"levelo_inurba_marseille","lat":43.27371,"lon":5.36252,"is_reserved":false,"is_disabled":false,"rental_uris":{"android":"levelo://app?vid=812ed64a-d77e-45ca-bd16-2819bfe1369e","ios":"levelo://app?vid=812ed64a-d77e-45ca-bd16-2819bfe1369e"},"vehicle_type_id":"4","last_reported":1750788921,"current_range_meters":11600,"station_id":"ce4bhbh2rcd13ifvqeo0","pricing_plan_id":"cebpf4jnsgd1na2vs0mg"},{"bike_id":"a05b3fcc-d293-416d-a975-fa97dcc56f03","system_id":"levelo_inurba_marseille","lat":43.26241,"lon":5.40441,"is_reserved":false,"is_disabled":false,"rental_uris":{"android":"levelo://app?vid=a05b3fcc-d293-416d-a975-fa97dcc56f03","ios":"levelo://app?vid=a05b3fcc-d293-416d-a975-fa97dcc56f03"},"vehicle_type_id":"4","last_reported":1750788921,"current_range_meters":11600,"station_id":"ce4bhmh2rcd13ifvqgmg","pricing_plan_id":"cebpf4jnsgd1na2vs0mg"},{"bike_id":"0ca1821f-b84b-4f4f-ae1f-467b6f60383b","system_id":"levelo_inurba_marseille","lat":43.27998,"lon":5.41663,"is_reserved":false,"is_disabled":false,"rental_uris":{"android":"levelo://app?vid=0ca1821f-b84b-4f4f-ae1f-467b6f60383b","ios":"levelo://app?vid=0ca1821f-b84b-4f4f-ae1f-467b6f60383b"},"vehicle_type_id":"4","last_reported":1750788921,"current_range_meters":11600,"station_id":"ce4bho12rcd13ifvqh1g","pricing_plan_id":"cebpf4jnsgd1na2vs0mg"},{"bike_id":"7c67d328-ff91-4960-b39f-a0d04bf6a825","system_id":"levelo_inurba_marseille","lat":43.24167,"lon":5.36393,"is_reserved":false,"is_disabled":false,"rental_uris":{"android":"levelo://app?vid=7c67d328-ff91-4960-b39f-a0d04bf6a825","ios":"levelo://app?vid=7c67d328-ff91-4960-b39f-a0d04bf6a825"},"vehicle_type_id":"4","last_reported":1750788921,"current_range_meters":11600,"station_id":"cpo36qri1sfpv3e86is0","pricing_plan_id":"cebpf4jnsgd1na2vs0mg"},{"bike_id":"3e0f5345-cfae-479a-9b41-9237c8726756","system_id":"levelo_inurba_marseille","lat":43.29682,"lon":5.36331,"is_reserved":false,"is_disabled":false,"rental_uris":{"android":"levelo://app?vid=3e0f5345-cfae-479a-9b41-9237c8726756","ios":"levelo://app?vid=3e0f5345-cfae-479a-9b41-9237c8726756"},"vehicle_type_id":"4","last_reported":1750788921,"current_range_meters":12000,"station_id":"","pricing_plan_id":"cebpf4jnsgd1na2vs0mg"},{"bike_id":"7c3f6852-4f29-42a9-a8c1-e2b82bb43fcf","system_id":"levelo_inurba_marseille","lat":43.29295,"lon":5.42722,"is_reserved":false,"is_disabled":false,"rental_uris":{"android":"levelo://app?vid=7c3f6852-4f29-42a9-a8c1-e2b82bb43fcf","ios":"levelo://app?vid=7c3f6852-4f29-42a9-a8c1-e2b82bb43fcf"},"vehicle_type_id":"4","last_reported":1750788921,"current_range_meters":12000,"station_id":"","pricing_plan_id":"cebpf4jnsgd1na2vs0mg"},{"bike_id":"b6b861fa-fd27-43ad-89fb-4be1a264be92","system_id":"levelo_inurba_marseille","lat":43.25307,"lon":5.37497,"is_reserved":false,"is_disabled":false,"rental_uris":{"android":"levelo://app?vid=b6b861fa-fd27-43ad-89fb-4be1a264be92","ios":"levelo://app?vid=b6b861fa-fd27-43ad-89fb-4be1a264be92"},"vehicle_type_id":"4","last_reported":1750788921,"current_range_meters":12400,"station_id":"","pricing_plan_id":"cebpf4jnsgd1na2vs0mg"},{"bike_id":"895a35dc-c1cd-4082-8c2a-bdb4120dff09","system_id":"levelo_inurba_marseille","lat":43.30143,"lon":5.41814,"is_reserved":false,"is_disabled":false,"rental_uris":{"android":"levelo://app?vid=895a35dc-c1cd-4082-8c2a-bdb4120dff09","ios":"levelo://app?vid=895a35dc-c1cd-4082-8c2a-bdb4120dff09"},"vehicle_type_id":"4","last_reported":1750788921,"current_range_meters":12400,"station_id":"","pricing_plan_id":"cebpf4jnsgd1na2vs0mg"},{"bike_id":"fb423f78-4840-48f3-9d29-705f2294a918","system_id":"levelo_inurba_marseille","lat":43.29603,"lon":5.38109,"is_reserved":false,"is_disabled":false,"rental_uris":{"android":"levelo://app?vid=fb423f78-4840-48f3-9d29-705f2294a918","ios":"levelo://app?vid=fb423f78-4840-48f3-9d29-705f2294a918"},"vehicle_type_id":"4","last_reported":1750788921,"current_range_meters":12400,"station_id":"ce4bgl12rcd13ifvqbo0","pricing_plan_id":"cebpf4jnsgd1na2vs0mg"},{"bike_id":"ce19a373-4131-4843-8b6a-067d0d042e61","system_id":"levelo_inurba_marseille","lat":43.27373,"lon":5.36248,"is_reserved":false,"is_disabled":false,"rental_uris":{"android":"levelo://app?vid=ce19a373-4131-4843-8b6a-067d0d042e61","ios":"levelo://app?vid=ce19a373-4131-4843-8b6a-067d0d042e61"},"vehicle_type_id":"4","last_reported":1750788921,"current_range_meters":12400,"station_id":"ce4bhbh2rcd13ifvqeo0","pricing_plan_id":"cebpf4jnsgd1na2vs0mg"},{"bike_id":"37cde254-ae72-4c27-b041-6f2121d01553","system_id":"levelo_inurba_marseille","lat":43.26558,"lon":5.37282,"is_reserved":false,"is_disabled":false,"rental_uris":{"android":"levelo://app?vid=37cde254-ae72-4c27-b041-6f2121d01553","ios":"levelo://app?vid=37cde254-ae72-4c27-b041-6f2121d01553"},"vehicle_type_id":"4","last_reported":1750788921,"current_range_meters":12400,"station_id":"ce4bhg12rcd13ifvqf70","pricing_plan_id":"cebpf4jnsgd1na2vs0mg"},{"bike_id":"3ddae011-c825-4adf-b966-906f999f1525","system_id":"levelo_inurba_marseille","lat":43.34148,"lon":5.40903,"is_reserved":false,"is_disabled":false,"rental_uris":{"android":"levelo://app?vid=3ddae011-c825-4adf-b966-906f999f1525","ios":"levelo://app?vid=3ddae011-c825-4adf-b966-906f999f1525"},"vehicle_type_id":"4","last_reported":1750788921,"current_range_meters":12400,"station_id":"ce4bhqh2rcd13ifvqhlg","pricing_plan_id":"cebpf4jnsgd1na2vs0mg"},{"bike_id":"3f29bc4a-e294-4aca-91af-a4eb5f7b985e","system_id":"levelo_inurba_marseille","lat":43.22929,"lon":5.35372,"is_reserved":false,"is_disabled":false,"rental_uris":{"android":"levelo://app?vid=3f29bc4a-e294-4aca-91af-a4eb5f7b985e","ios":"levelo://app?vid=3f29bc4a-e294-4aca-91af-a4eb5f7b985e"},"vehicle_type_id":"4","last_reported":1750788921,"current_range_meters":12400,"station_id":"cpo3532slgdg3j2ikp40","pricing_plan_id":"cebpf4jnsgd1na2vs0mg"},{"bike_id":"f30b7e2c-e6a8-47ac-9582-47bca9aac1bf","system_id":"levelo_inurba_marseille","lat":43.33158,"lon":5.38177,"is_reserved":false,"is_disabled":false,"rental_uris":{"android":"levelo://app?vid=f30b7e2c-e6a8-47ac-9582-47bca9aac1bf","ios":"levelo://app?vid=f30b7e2c-e6a8-47ac-9582-47bca9aac1bf"},"vehicle_type_id":"4","last_reported":1750788921,"current_range_meters":12800,"station_id":"","pricing_plan_id":"cebpf4jnsgd1na2vs0mg"},{"bike_id":"11ebf4fb-e752-44af-81e3-7d28e8eee9cc","system_id":"levelo_inurba_marseille","lat":43.28124,"lon":5.43185,"is_reserved":false,"is_disabled":false,"rental_uris":{"android":"levelo://app?vid=11ebf4fb-e752-44af-81e3-7d28e8eee9cc","ios":"levelo://app?vid=11ebf4fb-e752-44af-81e3-7d28e8eee9cc"},"vehicle_type_id":"4","last_reported":1750788921,"current_range_meters":12800,"station_id":"","pricing_plan_id":"cebpf4jnsgd1na2vs0mg"},{"bike_id":"d73e9bbc-c090-470a-8032-f86234a90165","system_id":"levelo_inurba_marseille","lat":43.28914,"lon":5.3629,"is_reserved":false,"is_disabled":false,"rental_uris":{"android":"levelo://app?vid=d73e9bbc-c090-470a-8032-f86234a90165","ios":"levelo://app?vid=d73e9bbc-c090-470a-8032-f86234a90165"},"vehicle_type_id":"4","last_reported":1750788921,"current_range_meters":12800,"station_id":"","pricing_plan_id":"cebpf4jnsgd1na2vs0mg"},{"bike_id":"dd9c7be5-788b-413d-a78f-e13f048b6e32","system_id":"levelo_inurba_marseille","lat":43.28423,"lon":5.37502,"is_reserved":false,"is_disabled":false,"rental_uris":{"android":"levelo://app?vid=dd9c7be5-788b-413d-a78f-e13f048b6e32","ios":"levelo://app?vid=dd9c7be5-788b-413d-a78f-e13f048b6e32"},"vehicle_type_id":"4","last_reported":1750788921,"current_range_meters":12800,"station_id":"ce4bh412rcd13ifvqds0","pricing_plan_id":"cebpf4jnsgd1na2vs0mg"},{"bike_id":"aecd3b1e-d44b-49ee-af8d-e8473fdd7169","system_id":"levelo_inurba_marseille","lat":43.28037,"lon":5.36943,"is_reserved":false,"is_disabled":false,"rental_uris":{"android":"levelo://app?vid=aecd3b1e-d44b-49ee-af8d-e8473fdd7169","ios":"levelo://app?vid=aecd3b1e-d44b-49ee-af8d-e8473fdd7169"},"vehicle_type_id":"4","last_reported":1750788921,"current_range_meters":12800,"station_id":"ce4bha12rcd13ifvqef0","pricing_plan_id":"cebpf4jnsgd1na2vs0mg"},{"bike_id":"cef721fd-afe4-48d0-89b0-0777a634e87f","system_id":"levelo_inurba_marseille","lat":43.244,"lon":5.37109,"is_reserved":false,"is_disabled":false,"rental_uris":{"android":"levelo://app?vid=cef721fd-afe4-48d0-89b0-0777a634e87f","ios":"levelo://app?vid=cef721fd-afe4-48d0-89b0-0777a634e87f"},"vehicle_type_id":"4","last_reported":1750788921,"current_range_meters":12800,"station_id":"ce4bhhh2rcd13ifvqfk0","pricing_plan_id":"cebpf4jnsgd1na2vs0mg"},{"bike_id":"476a0e8e-d375-436b-8c7a-12847ccad301","system_id":"levelo_inurba_marseille","lat":43.27368,"lon":5.36251,"is_reserved":false,"is_disabled":false,"rental_uris":{"android":"levelo://app?vid=476a0e8e-d375-436b-8c7a-12847ccad301","ios":"levelo://app?vid=476a0e8e-d375-436b-8c7a-12847ccad301"},"vehicle_type_id":"4","last_reported":1750788921,"current_range_meters":13600,"station_id":"ce4bhbh2rcd13ifvqeo0","pricing_plan_id":"cebpf4jnsgd1na2vs0mg"},{"bike_id":"da2f2dd5-4690-46ba-817e-39b284ec5536","system_id":"levelo_inurba_marseille","lat":43.31722,"lon":5.42393,"is_reserved":false,"is_disabled":false,"rental_uris":{"android":"levelo://app?vid=da2f2dd5-4690-46ba-817e-39b284ec5536","ios":"levelo://app?vid=da2f2dd5-4690-46ba-817e-39b284ec5536"},"vehicle_type_id":"4","last_reported":1750788921,"current_range_meters":13600,"station_id":"ce4bhp92rcd13ifvqhbg","pricing_plan_id":"cebpf4jnsgd1na2vs0mg"},{"bike_id":"05b986b3-af07-40b0-bbdf-2c79ba2956b7","system_id":"levelo_inurba_marseille","lat":43.29899,"lon":5.43674,"is_reserved":false,"is_disabled":false,"rental_uris":{"android":"levelo://app?vid=05b986b3-af07-40b0-bbdf-2c79ba2956b7","ios":"levelo://app?vid=05b986b3-af07-40b0-bbdf-2c79ba2956b7"},"vehicle_type_id":"4","last_reported":1750788921,"current_range_meters":13600,"station_id":"ce4bhpp2rcd13ifvqhfg","pricing_plan_id":"cebpf4jnsgd1na2vs0mg"},{"bike_id":"36b8d534-3492-401a-a3e5-861eb38cf118","system_id":"levelo_inurba_marseille","lat":43.262095,"lon":5.374394,"is_reserved":false,"is_disabled":false,"rental_uris":{"android":"levelo://app?vid=36b8d534-3492-401a-a3e5-861eb38cf118","ios":"levelo://app?vid=36b8d534-3492-401a-a3e5-861eb38cf118"},"vehicle_type_id":"4","last_reported":1750788921,"current_range_meters":14000,"station_id":"ce4bhgp2rcd13ifvqfc0","pricing_plan_id":"cebpf4jnsgd1na2vs0mg"},{"bike_id":"9ef3df74-9d53-41f1-a00e-ab16558109d9","system_id":"levelo_inurba_marseille","lat":43.25002,"lon":5.38922,"is_reserved":false,"is_disabled":false,"rental_uris":{"android":"levelo://app?vid=9ef3df74-9d53-41f1-a00e-ab16558109d9","ios":"levelo://app?vid=9ef3df74-9d53-41f1-a00e-ab16558109d9"},"vehicle_type_id":"4","last_reported":1750788921,"current_range_meters":14000,"station_id":"ce4bhgp2rcd13ifvqfd0","pricing_plan_id":"cebpf4jnsgd1na2vs0mg"},{"bike_id":"6dc4c6a3-5f27-42e4-90c9-df1f8af50e13","system_id":"levelo_inurba_marseille","lat":43.32054,"lon":5.41536,"is_reserved":false,"is_disabled":false,"rental_uris":{"android":"levelo://app?vid=6dc4c6a3-5f27-42e4-90c9-df1f8af50e13","ios":"levelo://app?vid=6dc4c6a3-5f27-42e4-90c9-df1f8af50e13"},"vehicle_type_id":"4","last_reported":1750788921,"current_range_meters":14000,"station_id":"ce4bhq92rcd13ifvqhkg","pricing_plan_id":"cebpf4jnsgd1na2vs0mg"},{"bike_id":"51b217be-9488-41c1-b083-6d728251b280","system_id":"levelo_inurba_marseille","lat":43.24338,"lon":5.36877,"is_reserved":false,"is_disabled":false,"rental_uris":{"android":"levelo://app?vid=51b217be-9488-41c1-b083-6d728251b280","ios":"levelo://app?vid=51b217be-9488-41c1-b083-6d728251b280"},"vehicle_type_id":"4","last_reported":1750788921,"current_range_meters":14400,"station_id":"","pricing_plan_id":"cebpf4jnsgd1na2vs0mg"},{"bike_id":"37639598-87cb-49f2-bb28-e8116a49605f","system_id":"levelo_inurba_marseille","lat":43.22503,"lon":5.34784,"is_reserved":false,"is_disabled":false,"rental_uris":{"android":"levelo://app?vid=37639598-87cb-49f2-bb28-e8116a49605f","ios":"levelo://app?vid=37639598-87cb-49f2-bb28-e8116a49605f"},"vehicle_type_id":"4","last_reported":1750788921,"current_range_meters":14400,"station_id":"st_cvj5dfep6f1abm77gieg","pricing_plan_id":"cebpf4jnsgd1na2vs0mg"},{"bike_id":"03119c0e-95d2-4c28-bb8c-02ff9e4b2ead","system_id":"levelo_inurba_marseille","lat":43.30424,"lon":5.39745,"is_reserved":false,"is_disabled":false,"rental_uris":{"android":"levelo://app?vid=03119c0e-95d2-4c28-bb8c-02ff9e4b2ead","ios":"levelo://app?vid=03119c0e-95d2-4c28-bb8c-02ff9e4b2ead"},"vehicle_type_id":"4","last_reported":1750788921,"current_range_meters":14800,"station_id":"ce4bh092rcd13ifvqd20","pricing_plan_id":"cebpf4jnsgd1na2vs0mg"},{"bike_id":"89385bbf-66c5-41ac-a585-42f9912191dc","system_id":"levelo_inurba_marseille","lat":43.28426,"lon":5.34991,"is_reserved":false,"is_disabled":false,"rental_uris":{"android":"levelo://app?vid=89385bbf-66c5-41ac-a585-42f9912191dc","ios":"levelo://app?vid=89385bbf-66c5-41ac-a585-42f9912191dc"},"vehicle_type_id":"4","last_reported":1750788921,"current_range_meters":14800,"station_id":"ce4bhbh2rcd13ifvqepg","pricing_plan_id":"cebpf4jnsgd1na2vs0mg"},{"bike_id":"00317fdd-1ecb-4bed-827e-4c611cfa5f8b","system_id":"levelo_inurba_marseille","lat":43.27072,"lon":5.42282,"is_reserved":false,"is_disabled":false,"rental_uris":{"android":"levelo://app?vid=00317fdd-1ecb-4bed-827e-4c611cfa5f8b","ios":"levelo://app?vid=00317fdd-1ecb-4bed-827e-4c611cfa5f8b"},"vehicle_type_id":"4","last_reported":1750788921,"current_range_meters":14800,"station_id":"ce4bhk92rcd13ifvqgb0","pricing_plan_id":"cebpf4jnsgd1na2vs0mg"},{"bike_id":"7ea3c9bd-f9bd-438e-b9e1-cdbe4f91c60d","system_id":"levelo_inurba_marseille","lat":43.22878,"lon":5.3527,"is_reserved":false,"is_disabled":false,"rental_uris":{"android":"levelo://app?vid=7ea3c9bd-f9bd-438e-b9e1-cdbe4f91c60d","ios":"levelo://app?vid=7ea3c9bd-f9bd-438e-b9e1-cdbe4f91c60d"},"vehicle_type_id":"4","last_reported":1750788921,"current_range_meters":15200,"station_id":"","pricing_plan_id":"cebpf4jnsgd1na2vs0mg"},{"bike_id":"af112b62-19de-41d4-b8d7-e14d0172315d","system_id":"levelo_inurba_marseille","lat":43.32726,"lon":5.39195,"is_reserved":false,"is_disabled":false,"rental_uris":{"android":"levelo://app?vid=af112b62-19de-41d4-b8d7-e14d0172315d","ios":"levelo://app?vid=af112b62-19de-41d4-b8d7-e14d0172315d"},"vehicle_type_id":"4","last_reported":1750788921,"current_range_meters":15200,"station_id":"","pricing_plan_id":"cebpf4jnsgd1na2vs0mg"},{"bike_id":"ff1500cc-ac8f-45c9-881c-9fd6595094a3","system_id":"levelo_inurba_marseille","lat":43.31842,"lon":5.402,"is_reserved":false,"is_disabled":false,"rental_uris":{"android":"levelo://app?vid=ff1500cc-ac8f-45c9-881c-9fd6595094a3","ios":"levelo://app?vid=ff1500cc-ac8f-45c9-881c-9fd6595094a3"},"vehicle_type_id":"4","last_reported":1750788921,"current_range_meters":15200,"station_id":"","pricing_plan_id":"cebpf4jnsgd1na2vs0mg"},{"bike_id":"d188bc4b-d5e2-4e26-aa75-ed43b7185821","system_id":"levelo_inurba_marseille","lat":43.27378,"lon":5.36252,"is_reserved":false,"is_disabled":false,"rental_uris":{"android":"levelo://app?vid=d188bc4b-d5e2-4e26-aa75-ed43b7185821","ios":"levelo://app?vid=d188bc4b-d5e2-4e26-aa75-ed43b7185821"},"vehicle_type_id":"4","last_reported":1750788921,"current_range_meters":15200,"station_id":"ce4bhbh2rcd13ifvqeo0","pricing_plan_id":"cebpf4jnsgd1na2vs0mg"},{"bike_id":"9c13462e-eac6-459c-b6d6-46b3d56464d6","system_id":"levelo_inurba_marseille","lat":43.282715,"lon":5.350616,"is_reserved":false,"is_disabled":false,"rental_uris":{"android":"levelo://app?vid=9c13462e-eac6-459c-b6d6-46b3d56464d6","ios":"levelo://app?vid=9c13462e-eac6-459c-b6d6-46b3d56464d6"},"vehicle_type_id":"4","last_reported":1750788921,"current_range_meters":15200,"station_id":"ce4bhbp2rcd13ifvqerg","pricing_plan_id":"cebpf4jnsgd1na2vs0mg"},{"bike_id":"92b965e7-1a22-48a3-aa7b-644f868c101c","system_id":"levelo_inurba_marseille","lat":43.24816,"lon":5.37457,"is_reserved":false,"is_disabled":false,"rental_uris":{"android":"levelo://app?vid=92b965e7-1a22-48a3-aa7b-644f868c101c","ios":"levelo://app?vid=92b965e7-1a22-48a3-aa7b-644f868c101c"},"vehicle_type_id":"4","last_reported":1750788921,"current_range_meters":15200,"station_id":"ce4bhgh2rcd13ifvqfb0","pricing_plan_id":"cebpf4jnsgd1na2vs0mg"},{"bike_id":"24bec0ac-4c6c-4842-80e7-9983c2b33e58","system_id":"levelo_inurba_marseille","lat":43.21207,"lon":5.35046,"is_reserved":false,"is_disabled":false,"rental_uris":{"android":"levelo://app?vid=24bec0ac-4c6c-4842-80e7-9983c2b33e58","ios":"levelo://app?vid=24bec0ac-4c6c-4842-80e7-9983c2b33e58"},"vehicle_type_id":"4","last_reported":1750788921,"current_range_meters":16000,"station_id":"","pricing_plan_id":"cebpf4jnsgd1na2vs0mg"},{"bike_id":"6073aecf-ede3-46ea-8654-a3bc94a79840","system_id":"levelo_inurba_marseille","lat":43.28402,"lon":5.34986,"is_reserved":false,"is_disabled":false,"rental_uris":{"android":"levelo://app?vid=6073aecf-ede3-46ea-8654-a3bc94a79840","ios":"levelo://app?vid=6073aecf-ede3-46ea-8654-a3bc94a79840"},"vehicle_type_id":"4","last_reported":1750788921,"current_range_meters":16000,"station_id":"ce4bhbh2rcd13ifvqepg","pricing_plan_id":"cebpf4jnsgd1na2vs0mg"},{"bike_id":"1ba1d0ff-df6c-4f08-b638-086ce9658873","system_id":"levelo_inurba_marseille","lat":43.28281,"lon":5.35069,"is_reserved":false,"is_disabled":false,"rental_uris":{"android":"levelo://app?vid=1ba1d0ff-df6c-4f08-b638-086ce9658873","ios":"levelo://app?vid=1ba1d0ff-df6c-4f08-b638-086ce9658873"},"vehicle_type_id":"4","last_reported":1750788921,"current_range_meters":16000,"station_id":"ce4bhbp2rcd13ifvqerg","pricing_plan_id":"cebpf4jnsgd1na2vs0mg"},{"bike_id":"2a76f130-17c0-4c02-a41f-dc2c9cf4161b","system_id":"levelo_inurba_marseille","lat":43.27252,"lon":5.39109,"is_reserved":false,"is_disabled":false,"rental_uris":{"android":"levelo://app?vid=2a76f130-17c0-4c02-a41f-dc2c9cf4161b","ios":"levelo://app?vid=2a76f130-17c0-4c02-a41f-dc2c9cf4161b"},"vehicle_type_id":"4","last_reported":1750788921,"current_range_meters":16400,"station_id":"","pricing_plan_id":"cebpf4jnsgd1na2vs0mg"},{"bike_id":"00c9546b-6ecd-432a-8890-e5dee94fc45a","system_id":"levelo_inurba_marseille","lat":43.31164,"lon":5.38729,"is_reserved":false,"is_disabled":false,"rental_uris":{"android":"levelo://app?vid=00c9546b-6ecd-432a-8890-e5dee94fc45a","ios":"levelo://app?vid=00c9546b-6ecd-432a-8890-e5dee94fc45a"},"vehicle_type_id":"4","last_reported":1750788921,"current_range_meters":16400,"station_id":"","pricing_plan_id":"cebpf4jnsgd1na2vs0mg"},{"bike_id":"5eee8925-0941-460b-a942-18fcb70bac7c","system_id":"levelo_inurba_marseille","lat":43.27239,"lon":5.40052,"is_reserved":false,"is_disabled":false,"rental_uris":{"android":"levelo://app?vid=5eee8925-0941-460b-a942-18fcb70bac7c","ios":"levelo://app?vid=5eee8925-0941-460b-a942-18fcb70bac7c"},"vehicle_type_id":"4","last_reported":1750788921,"current_range_meters":16400,"station_id":"","pricing_plan_id":"cebpf4jnsgd1na2vs0mg"},{"bike_id":"26a14eba-87a9-47b8-9607-30bd0042d428","system_id":"levelo_inurba_marseille","lat":43.31468,"lon":5.39432,"is_reserved":false,"is_disabled":false,"rental_uris":{"android":"levelo://app?vid=26a14eba-87a9-47b8-9607-30bd0042d428","ios":"levelo://app?vid=26a14eba-87a9-47b8-9607-30bd0042d428"},"vehicle_type_id":"4","last_reported":1750788921,"current_range_meters":16400,"station_id":"","pricing_plan_id":"cebpf4jnsgd1na2vs0mg"},{"bike_id":"07cdd9bc-134d-4e50-9349-2c63dde96468","system_id":"levelo_inurba_marseille","lat":43.28041,"lon":5.36944,"is_reserved":false,"is_disabled":false,"rental_uris":{"android":"levelo://app?vid=07cdd9bc-134d-4e50-9349-2c63dde96468","ios":"levelo://app?vid=07cdd9bc-134d-4e50-9349-2c63dde96468"},"vehicle_type_id":"4","last_reported":1750788921,"current_range_meters":16400,"station_id":"ce4bha12rcd13ifvqef0","pricing_plan_id":"cebpf4jnsgd1na2vs0mg"},{"bike_id":"85aebb63-1277-49af-91e5-22f2d655e266","system_id":"levelo_inurba_marseille","lat":43.29911,"lon":5.43694,"is_reserved":false,"is_disabled":false,"rental_uris":{"android":"levelo://app?vid=85aebb63-1277-49af-91e5-22f2d655e266","ios":"levelo://app?vid=85aebb63-1277-49af-91e5-22f2d655e266"},"vehicle_type_id":"4","last_reported":1750788921,"current_range_meters":16400,"station_id":"ce4bhpp2rcd13ifvqhfg","pricing_plan_id":"cebpf4jnsgd1na2vs0mg"},{"bike_id":"5a370da7-34f6-4902-a483-86e3424a814e","system_id":"levelo_inurba_marseille","lat":43.29262,"lon":5.40903,"is_reserved":false,"is_disabled":false,"rental_uris":{"android":"levelo://app?vid=5a370da7-34f6-4902-a483-86e3424a814e","ios":"levelo://app?vid=5a370da7-34f6-4902-a483-86e3424a814e"},"vehicle_type_id":"4","last_reported":1750788921,"current_range_meters":16800,"station_id":"ce4bh192rcd13ifvqdc0","pricing_plan_id":"cebpf4jnsgd1na2vs0mg"},{"bike_id":"15175464-06fc-4e23-a790-65cd30a5627c","system_id":"levelo_inurba_marseille","lat":43.28425,"lon":5.34985,"is_reserved":false,"is_disabled":false,"rental_uris":{"android":"levelo://app?vid=15175464-06fc-4e23-a790-65cd30a5627c","ios":"levelo://app?vid=15175464-06fc-4e23-a790-65cd30a5627c"},"vehicle_type_id":"4","last_reported":1750788921,"current_range_meters":16800,"station_id":"ce4bhbh2rcd13ifvqepg","pricing_plan_id":"cebpf4jnsgd1na2vs0mg"},{"bike_id":"d4a74bd1-242b-4f46-9457-94066f51962e","system_id":"levelo_inurba_marseille","lat":43.28422,"lon":5.34991,"is_reserved":false,"is_disabled":false,"rental_uris":{"android":"levelo://app?vid=d4a74bd1-242b-4f46-9457-94066f51962e","ios":"levelo://app?vid=d4a74bd1-242b-4f46-9457-94066f51962e"},"vehicle_type_id":"4","last_reported":1750788921,"current_range_meters":16800,"station_id":"ce4bhbh2rcd13ifvqepg","pricing_plan_id":"cebpf4jnsgd1na2vs0mg"},{"bike_id":"ff1df367-0a60-4e61-a775-8f0271b67cfd","system_id":"levelo_inurba_marseille","lat":43.28153,"lon":5.42641,"is_reserved":false,"is_disabled":false,"rental_uris":{"android":"levelo://app?vid=ff1df367-0a60-4e61-a775-8f0271b67cfd","ios":"levelo://app?vid=ff1df367-0a60-4e61-a775-8f0271b67cfd"},"vehicle_type_id":"4","last_reported":1750788921,"current_range_meters":16800,"station_id":"ce4bhnh2rcd13ifvqgug","pricing_plan_id":"cebpf4jnsgd1na2vs0mg"},{"bike_id":"07dead3e-fced-4a36-b1c0-dda7dd873caf","system_id":"levelo_inurba_marseille","lat":43.23194,"lon":5.35553,"is_reserved":false,"is_disabled":false,"rental_uris":{"android":"levelo://app?vid=07dead3e-fced-4a36-b1c0-dda7dd873caf","ios":"levelo://app?vid=07dead3e-fced-4a36-b1c0-dda7dd873caf"},"vehicle_type_id":"4","last_reported":1750788921,"current_range_meters":16800,"station_id":"ce4bhu92rcd13ifvqi70","pricing_plan_id":"cebpf4jnsgd1na2vs0mg"},{"bike_id":"6d66f760-917a-49b1-b200-d585832e6166","system_id":"levelo_inurba_marseille","lat":43.22925,"lon":5.35371,"is_reserved":false,"is_disabled":false,"rental_uris":{"android":"levelo://app?vid=6d66f760-917a-49b1-b200-d585832e6166","ios":"levelo://app?vid=6d66f760-917a-49b1-b200-d585832e6166"},"vehicle_type_id":"4","last_reported":1750788921,"current_range_meters":16800,"station_id":"cpo3532slgdg3j2ikp40","pricing_plan_id":"cebpf4jnsgd1na2vs0mg"},{"bike_id":"c9378442-8a73-4d70-a55c-bf37f13dceb1","system_id":"levelo_inurba_marseille","lat":43.21191,"lon":5.35071,"is_reserved":false,"is_disabled":false,"rental_uris":{"android":"levelo://app?vid=c9378442-8a73-4d70-a55c-bf37f13dceb1","ios":"levelo://app?vid=c9378442-8a73-4d70-a55c-bf37f13dceb1"},"vehicle_type_id":"4","last_reported":1750788921,"current_range_meters":16800,"station_id":"st_cvj6sg6p6f1abm77japg","pricing_plan_id":"cebpf4jnsgd1na2vs0mg"},{"bike_id":"bc7b4c15-abf0-46dd-8ed3-469e108c4302","system_id":"levelo_inurba_marseille","lat":43.29966,"lon":5.38503,"is_reserved":false,"is_disabled":false,"rental_uris":{"android":"levelo://app?vid=bc7b4c15-abf0-46dd-8ed3-469e108c4302","ios":"levelo://app?vid=bc7b4c15-abf0-46dd-8ed3-469e108c4302"},"vehicle_type_id":"4","last_reported":1750788921,"current_range_meters":17200,"station_id":"ce4bgj92rcd13ifvqbd0","pricing_plan_id":"cebpf4jnsgd1na2vs0mg"},{"bike_id":"f72f1357-4e7a-4d52-b497-7b3ec05af736","system_id":"levelo_inurba_marseille","lat":43.27625,"lon":5.36108,"is_reserved":false,"is_disabled":false,"rental_uris":{"android":"levelo://app?vid=f72f1357-4e7a-4d52-b497-7b3ec05af736","ios":"levelo://app?vid=f72f1357-4e7a-4d52-b497-7b3ec05af736"},"vehicle_type_id":"4","last_reported":1750788921,"current_range_meters":17200,"station_id":"ce4bgj92rcd13ifvqbe0","pricing_plan_id":"cebpf4jnsgd1na2vs0mg"},{"bike_id":"602fa7cd-040f-47c4-b5be-5b4d5f9bb83a","system_id":"levelo_inurba_marseille","lat":43.26211,"lon":5.37447,"is_reserved":false,"is_disabled":false,"rental_uris":{"android":"levelo://app?vid=602fa7cd-040f-47c4-b5be-5b4d5f9bb83a","ios":"levelo://app?vid=602fa7cd-040f-47c4-b5be-5b4d5f9bb83a"},"vehicle_type_id":"4","last_reported":1750788921,"current_range_meters":17200,"station_id":"ce4bhgp2rcd13ifvqfc0","pricing_plan_id":"cebpf4jnsgd1na2vs0mg"},{"bike_id":"62c0ae9e-9e5d-4757-b598-f1bb6b049cd5","system_id":"levelo_inurba_marseille","lat":43.26217,"lon":5.37433,"is_reserved":false,"is_disabled":false,"rental_uris":{"android":"levelo://app?vid=62c0ae9e-9e5d-4757-b598-f1bb6b049cd5","ios":"levelo://app?vid=62c0ae9e-9e5d-4757-b598-f1bb6b049cd5"},"vehicle_type_id":"4","last_reported":1750788921,"current_range_meters":17200,"station_id":"ce4bhgp2rcd13ifvqfc0","pricing_plan_id":"cebpf4jnsgd1na2vs0mg"},{"bike_id":"7d385f68-724a-43fe-93be-0c1a98ce8f3a","system_id":"levelo_inurba_marseille","lat":43.27492,"lon":5.42447,"is_reserved":false,"is_disabled":false,"rental_uris":{"android":"levelo://app?vid=7d385f68-724a-43fe-93be-0c1a98ce8f3a","ios":"levelo://app?vid=7d385f68-724a-43fe-93be-0c1a98ce8f3a"},"vehicle_type_id":"4","last_reported":1750788921,"current_range_meters":17200,"station_id":"ce4bhn92rcd13ifvqgrg","pricing_plan_id":"cebpf4jnsgd1na2vs0mg"},{"bike_id":"e3cbe31d-3f2f-4c4c-a959-3bdba55d2dad","system_id":"levelo_inurba_marseille","lat":43.22942,"lon":5.35413,"is_reserved":false,"is_disabled":false,"rental_uris":{"android":"levelo://app?vid=e3cbe31d-3f2f-4c4c-a959-3bdba55d2dad","ios":"levelo://app?vid=e3cbe31d-3f2f-4c4c-a959-3bdba55d2dad"},"vehicle_type_id":"4","last_reported":1750788921,"current_range_meters":17200,"station_id":"cpo3532slgdg3j2ikp40","pricing_plan_id":"cebpf4jnsgd1na2vs0mg"},{"bike_id":"1f23ae54-85c5-46b5-991c-eb3711dda4ea","system_id":"levelo_inurba_marseille","lat":43.24175,"lon":5.36392,"is_reserved":false,"is_disabled":false,"rental_uris":{"android":"levelo://app?vid=1f23ae54-85c5-46b5-991c-eb3711dda4ea","ios":"levelo://app?vid=1f23ae54-85c5-46b5-991c-eb3711dda4ea"},"vehicle_type_id":"4","last_reported":1750788921,"current_range_meters":17200,"station_id":"cpo36qri1sfpv3e86is0","pricing_plan_id":"cebpf4jnsgd1na2vs0mg"},{"bike_id":"3b951d47-daef-4f47-9b11-1cb55583c0cc","system_id":"levelo_inurba_marseille","lat":43.21212,"lon":5.3506,"is_reserved":false,"is_disabled":false,"rental_uris":{"android":"levelo://app?vid=3b951d47-daef-4f47-9b11-1cb55583c0cc","ios":"levelo://app?vid=3b951d47-daef-4f47-9b11-1cb55583c0cc"},"vehicle_type_id":"4","last_reported":1750788921,"current_range_meters":17200,"station_id":"st_cvj6sg6p6f1abm77japg","pricing_plan_id":"cebpf4jnsgd1na2vs0mg"},{"bike_id":"73003e5e-1157-4cf0-aafe-d13c75118280","system_id":"levelo_inurba_marseille","lat":43.33423,"lon":5.3965,"is_reserved":false,"is_disabled":false,"rental_uris":{"android":"levelo://app?vid=73003e5e-1157-4cf0-aafe-d13c75118280","ios":"levelo://app?vid=73003e5e-1157-4cf0-aafe-d13c75118280"},"vehicle_type_id":"4","last_reported":1750788921,"current_range_meters":17600,"station_id":"","pricing_plan_id":"cebpf4jnsgd1na2vs0mg"},{"bike_id":"e8f01134-9211-4fca-8c64-adf9bc370934","system_id":"levelo_inurba_marseille","lat":43.27628,"lon":5.36106,"is_reserved":false,"is_disabled":false,"rental_uris":{"android":"levelo://app?vid=e8f01134-9211-4fca-8c64-adf9bc370934","ios":"levelo://app?vid=e8f01134-9211-4fca-8c64-adf9bc370934"},"vehicle_type_id":"4","last_reported":1750788921,"current_range_meters":17600,"station_id":"ce4bgj92rcd13ifvqbe0","pricing_plan_id":"cebpf4jnsgd1na2vs0mg"},{"bike_id":"b4eebfba-94c5-480d-8346-58642f6549e5","system_id":"levelo_inurba_marseille","lat":43.31323,"lon":5.39695,"is_reserved":false,"is_disabled":false,"rental_uris":{"android":"levelo://app?vid=b4eebfba-94c5-480d-8346-58642f6549e5","ios":"levelo://app?vid=b4eebfba-94c5-480d-8346-58642f6549e5"},"vehicle_type_id":"4","last_reported":1750788921,"current_range_meters":17600,"station_id":"ce4bgvp2rcd13ifvqcu0","pricing_plan_id":"cebpf4jnsgd1na2vs0mg"},{"bike_id":"6c717979-2956-42f1-95cf-a2fceb0dcc63","system_id":"levelo_inurba_marseille","lat":43.2842,"lon":5.37514,"is_reserved":false,"is_disabled":false,"rental_uris":{"android":"levelo://app?vid=6c717979-2956-42f1-95cf-a2fceb0dcc63","ios":"levelo://app?vid=6c717979-2956-42f1-95cf-a2fceb0dcc63"},"vehicle_type_id":"4","last_reported":1750788921,"current_range_meters":17600,"station_id":"ce4bh412rcd13ifvqds0","pricing_plan_id":"cebpf4jnsgd1na2vs0mg"},{"bike_id":"15eaa280-e50b-4fd5-a14e-66a76c071292","system_id":"levelo_inurba_marseille","lat":43.26558,"lon":5.37281,"is_reserved":false,"is_disabled":false,"rental_uris":{"android":"levelo://app?vid=15eaa280-e50b-4fd5-a14e-66a76c071292","ios":"levelo://app?vid=15eaa280-e50b-4fd5-a14e-66a76c071292"},"vehicle_type_id":"4","last_reported":1750788921,"current_range_meters":17600,"station_id":"ce4bhg12rcd13ifvqf70","pricing_plan_id":"cebpf4jnsgd1na2vs0mg"},{"bike_id":"119c9db0-5325-435a-ba23-2bf06fb7d329","system_id":"levelo_inurba_marseille","lat":43.248077,"lon":5.374553,"is_reserved":false,"is_disabled":false,"rental_uris":{"android":"levelo://app?vid=119c9db0-5325-435a-ba23-2bf06fb7d329","ios":"levelo://app?vid=119c9db0-5325-435a-ba23-2bf06fb7d329"},"vehicle_type_id":"4","last_reported":1750788921,"current_range_meters":17600,"station_id":"ce4bhgh2rcd13ifvqfb0","pricing_plan_id":"cebpf4jnsgd1na2vs0mg"},{"bike_id":"6da0d080-b7af-4ec5-9975-c8710b868cdc","system_id":"levelo_inurba_marseille","lat":43.24394,"lon":5.37054,"is_reserved":false,"is_disabled":false,"rental_uris":{"android":"levelo://app?vid=6da0d080-b7af-4ec5-9975-c8710b868cdc","ios":"levelo://app?vid=6da0d080-b7af-4ec5-9975-c8710b868cdc"},"vehicle_type_id":"4","last_reported":1750788921,"current_range_meters":17600,"station_id":"ce4bhhh2rcd13ifvqfk0","pricing_plan_id":"cebpf4jnsgd1na2vs0mg"},{"bike_id":"122f9c4d-9dc0-4d5d-b6db-3e07c2b8e4f5","system_id":"levelo_inurba_marseille","lat":43.29958,"lon":5.41316,"is_reserved":false,"is_disabled":false,"rental_uris":{"android":"levelo://app?vid=122f9c4d-9dc0-4d5d-b6db-3e07c2b8e4f5","ios":"levelo://app?vid=122f9c4d-9dc0-4d5d-b6db-3e07c2b8e4f5"},"vehicle_type_id":"4","last_reported":1750788921,"current_range_meters":17600,"station_id":"ce4bhp12rcd13ifvqh9g","pricing_plan_id":"cebpf4jnsgd1na2vs0mg"},{"bike_id":"fc1021d2-7bd8-41cc-a566-5df5c9bc4ea6","system_id":"levelo_inurba_marseille","lat":43.21199,"lon":5.35066,"is_reserved":false,"is_disabled":false,"rental_uris":{"android":"levelo://app?vid=fc1021d2-7bd8-41cc-a566-5df5c9bc4ea6","ios":"levelo://app?vid=fc1021d2-7bd8-41cc-a566-5df5c9bc4ea6"},"vehicle_type_id":"4","last_reported":1750788921,"current_range_meters":17600,"station_id":"st_cvj6sg6p6f1abm77japg","pricing_plan_id":"cebpf4jnsgd1na2vs0mg"},{"bike_id":"e2f5b300-4a63-4778-aada-c29a8a0ea1e8","system_id":"levelo_inurba_marseille","lat":43.32847,"lon":5.39149,"is_reserved":false,"is_disabled":false,"rental_uris":{"android":"levelo://app?vid=e2f5b300-4a63-4778-aada-c29a8a0ea1e8","ios":"levelo://app?vid=e2f5b300-4a63-4778-aada-c29a8a0ea1e8"},"vehicle_type_id":"4","last_reported":1750788921,"current_range_meters":18000,"station_id":"","pricing_plan_id":"cebpf4jnsgd1na2vs0mg"},{"bike_id":"5b0059f2-5a2a-41ce-b903-1f956adfdd24","system_id":"levelo_inurba_marseille","lat":43.29779,"lon":5.43561,"is_reserved":false,"is_disabled":false,"rental_uris":{"android":"levelo://app?vid=5b0059f2-5a2a-41ce-b903-1f956adfdd24","ios":"levelo://app?vid=5b0059f2-5a2a-41ce-b903-1f956adfdd24"},"vehicle_type_id":"4","last_reported":1750788921,"current_range_meters":18000,"station_id":"","pricing_plan_id":"cebpf4jnsgd1na2vs0mg"},{"bike_id":"92a9dcd9-3d2e-4b06-a957-288834a3cf35","system_id":"levelo_inurba_marseille","lat":43.27368,"lon":5.36265,"is_reserved":false,"is_disabled":false,"rental_uris":{"android":"levelo://app?vid=92a9dcd9-3d2e-4b06-a957-288834a3cf35","ios":"levelo://app?vid=92a9dcd9-3d2e-4b06-a957-288834a3cf35"},"vehicle_type_id":"4","last_reported":1750788921,"current_range_meters":18000,"station_id":"ce4bhbh2rcd13ifvqeo0","pricing_plan_id":"cebpf4jnsgd1na2vs0mg"},{"bike_id":"51b9029c-a8b4-49be-88a9-639814edcae4","system_id":"levelo_inurba_marseille","lat":43.28417,"lon":5.34981,"is_reserved":false,"is_disabled":false,"rental_uris":{"android":"levelo://app?vid=51b9029c-a8b4-49be-88a9-639814edcae4","ios":"levelo://app?vid=51b9029c-a8b4-49be-88a9-639814edcae4"},"vehicle_type_id":"4","last_reported":1750788921,"current_range_meters":18000,"station_id":"ce4bhbh2rcd13ifvqepg","pricing_plan_id":"cebpf4jnsgd1na2vs0mg"},{"bike_id":"ecae2d13-464e-41b6-9163-d80de5db3400","system_id":"levelo_inurba_marseille","lat":43.26056,"lon":5.39397,"is_reserved":false,"is_disabled":false,"rental_uris":{"android":"levelo://app?vid=ecae2d13-464e-41b6-9163-d80de5db3400","ios":"levelo://app?vid=ecae2d13-464e-41b6-9163-d80de5db3400"},"vehicle_type_id":"4","last_reported":1750788921,"current_range_meters":18000,"station_id":"ce4bhh92rcd13ifvqfj0","pricing_plan_id":"cebpf4jnsgd1na2vs0mg"},{"bike_id":"25b03d5e-d66a-4218-885e-579b5056d6c6","system_id":"levelo_inurba_marseille","lat":43.24391,"lon":5.37061,"is_reserved":false,"is_disabled":false,"rental_uris":{"android":"levelo://app?vid=25b03d5e-d66a-4218-885e-579b5056d6c6","ios":"levelo://app?vid=25b03d5e-d66a-4218-885e-579b5056d6c6"},"vehicle_type_id":"4","last_reported":1750788921,"current_range_meters":18000,"station_id":"ce4bhhh2rcd13ifvqfk0","pricing_plan_id":"cebpf4jnsgd1na2vs0mg"},{"bike_id":"18028507-ab03-4edb-86b7-ab7704d2c26f","system_id":"levelo_inurba_marseille","lat":43.211943,"lon":5.350724,"is_reserved":false,"is_disabled":false,"rental_uris":{"android":"levelo://app?vid=18028507-ab03-4edb-86b7-ab7704d2c26f","ios":"levelo://app?vid=18028507-ab03-4edb-86b7-ab7704d2c26f"},"vehicle_type_id":"4","last_reported":1750788921,"current_range_meters":18000,"station_id":"st_cvj6sg6p6f1abm77japg","pricing_plan_id":"cebpf4jnsgd1na2vs0mg"},{"bike_id":"8fc36912-d7a7-4c5e-bf3c-ae03694d6ba3","system_id":"levelo_inurba_marseille","lat":43.211936,"lon":5.350706,"is_reserved":false,"is_disabled":false,"rental_uris":{"android":"levelo://app?vid=8fc36912-d7a7-4c5e-bf3c-ae03694d6ba3","ios":"levelo://app?vid=8fc36912-d7a7-4c5e-bf3c-ae03694d6ba3"},"vehicle_type_id":"4","last_reported":1750788921,"current_range_meters":18000,"station_id":"st_cvj6sg6p6f1abm77japg","pricing_plan_id":"cebpf4jnsgd1na2vs0mg"},{"bike_id":"85cc4651-cb72-4774-a8c2-529200729370","system_id":"levelo_inurba_marseille","lat":43.301465,"lon":5.374224,"is_reserved":false,"is_disabled":false,"rental_uris":{"android":"levelo://app?vid=85cc4651-cb72-4774-a8c2-529200729370","ios":"levelo://app?vid=85cc4651-cb72-4774-a8c2-529200729370"},"vehicle_type_id":"4","last_reported":1750788921,"current_range_meters":18800,"station_id":"ce4bgi92rcd13ifvqb90","pricing_plan_id":"cebpf4jnsgd1na2vs0mg"},{"bike_id":"8740e811-9757-4519-9e68-beb664fe6b02","system_id":"levelo_inurba_marseille","lat":43.29885,"lon":5.38897,"is_reserved":false,"is_disabled":false,"rental_uris":{"android":"levelo://app?vid=8740e811-9757-4519-9e68-beb664fe6b02","ios":"levelo://app?vid=8740e811-9757-4519-9e68-beb664fe6b02"},"vehicle_type_id":"4","last_reported":1750788921,"current_range_meters":18800,"station_id":"ce4bh392rcd13ifvqdl0","pricing_plan_id":"cebpf4jnsgd1na2vs0mg"},{"bike_id":"55120179-28de-4686-ab14-32811c502cc6","system_id":"levelo_inurba_marseille","lat":43.27378,"lon":5.36266,"is_reserved":false,"is_disabled":false,"rental_uris":{"android":"levelo://app?vid=55120179-28de-4686-ab14-32811c502cc6","ios":"levelo://app?vid=55120179-28de-4686-ab14-32811c502cc6"},"vehicle_type_id":"4","last_reported":1750788921,"current_range_meters":18800,"station_id":"ce4bhbh2rcd13ifvqeo0","pricing_plan_id":"cebpf4jnsgd1na2vs0mg"},{"bike_id":"a26b1cbf-b838-454f-8e1e-bef6899c9b60","system_id":"levelo_inurba_marseille","lat":43.27379,"lon":5.36249,"is_reserved":false,"is_disabled":false,"rental_uris":{"android":"levelo://app?vid=a26b1cbf-b838-454f-8e1e-bef6899c9b60","ios":"levelo://app?vid=a26b1cbf-b838-454f-8e1e-bef6899c9b60"},"vehicle_type_id":"4","last_reported":1750788921,"current_range_meters":18800,"station_id":"ce4bhbh2rcd13ifvqeo0","pricing_plan_id":"cebpf4jnsgd1na2vs0mg"},{"bike_id":"9be337f2-794b-46e5-ba14-210e3fc71681","system_id":"levelo_inurba_marseille","lat":43.28272,"lon":5.35062,"is_reserved":false,"is_disabled":false,"rental_uris":{"android":"levelo://app?vid=9be337f2-794b-46e5-ba14-210e3fc71681","ios":"levelo://app?vid=9be337f2-794b-46e5-ba14-210e3fc71681"},"vehicle_type_id":"4","last_reported":1750788921,"current_range_meters":18800,"station_id":"ce4bhbp2rcd13ifvqerg","pricing_plan_id":"cebpf4jnsgd1na2vs0mg"},