{"last_updated":1736144046,"ttl":60,"version":"2.2","data":{"bikes":[{"bike_id":"df5ea857-c820-4b6e-bf1e-add8c4632de2","system_id":"levelo_inurba_marseille","lat":43.321027,"lon":5.367728,"is_reserved":false,"is_disabled":false,"rental_uris":{"android":"levelo://app?vid=df5ea857-c820-4b6e-bf1e-add8c4632de2","ios":"levelo://app?vid=df5ea857-c820-4b6e-bf1e-add8c4632de2"},"vehicle_type_id":"4","last_reported":1736144046,"current_range_meters":24800,"station_id":"ce4bhrh2rcd13ifvqhug","pricing_plan_id":"cebpf4jnsgd1na2vs0mg"},{"bike_id":"8f29603c-5d9a-4bc6-963d-711ada2a168a","system_id":"levelo_inurba_marseille","lat":43.246771,"lon":5.398551,"is_reserved":false,"is_disabled":true,"rental_uris":{"android":"levelo://app?vid=8f29603c-5d9a-4bc6-963d-711ada2a168a","ios":"levelo://app?vid=8f29603c-5d9a-4bc6-963d-711ada2a168a"},"vehicle_type_id":"4","last_reported":1736144046,"current_range_meters":22000,"station_id":"","pricing_plan_id":"cebpf4jnsgd1na2vs0mg"},{"bike_id":"10713e37-afc7-43d1-b51d-2b4416e38ed1","system_id":"levelo_inurba_marseille","lat":43.28711,"lon":5.39992,"is_reserved":false,"is_disabled":true,"rental_uris":{"android":"levelo://app?vid=10713e37-afc7-43d1-b51d-2b4416e38ed1","ios":"levelo://app?vid=10713e37-afc7-43d1-b51d-2b4416e38ed1"},"vehicle_type_id":"4","last_reported":1736144046,"current_range_meters":38800,"station_id":"ce4bho92rcd13ifvqh3g","pricing_plan_id":"cebpf4jnsgd1na2vs0mg"},{"bike_id":"e0c83e8d-febb-4306-a0d9-005eeb5be6c6","system_id":"levelo_inurba_marseille","lat":43.29714,"lon":5.36615,"is_reserved":false,"is_disabled":false,"rental_uris":{"android":"levelo://app?vid=e0c83e8d-febb-4306-a0d9-005eeb5be6c6","ios":"levelo://app?vid=e0c83e8d-febb-4306-a0d9-005eeb5be6c6"},"vehicle_type_id":"4","last_reported":1736144046,"current_range_meters":38000,"station_id":"ce4bgn12rcd13ifvqbt0","pricing_plan_id":"cebpf4jnsgd1na2vs0mg"},{"bike_id":"6f3c8be9-e0de-46af-ada4-22ade12b6a11","system_id":"levelo_inurba_marseille","lat":43.317561,"lon":5.390159,"is_reserved":false,"is_disabled":false,"rental_uris":{"android":"levelo://app?vid=6f3c8be9-e0de-46af-ada4-22ade12b6a11","ios":"levelo://app?vid=6f3c8be9-e0de-46af-ada4-22ade12b6a11"},"vehicle_type_id":"4","last_reported":1736144046,"current_range_meters":38400,"station_id":"ce4bhqp2rcd13ifvqhng","pricing_plan_id":"cebpf4jnsgd1na2vs0mg"},{"bike_id":"e705cc05-93fc-4991-b533-1be34e3c5466","system_id":"levelo_inurba_marseille","lat":43.29037,"lon":5.35937,"is_reserved":false,"is_disabled":false,"rental_uris":{"android":"levelo://app?vid=e705cc05-93fc-4991-b533-1be34e3c5466","ios":"levelo://app?vid=e705cc05-93fc-4991-b533-1be34e3c5466"},"vehicle_type_id":"4","last_reported":1736144046,"current_range_meters":38000,"station_id":"ce4bha92rcd13ifvqeg0","pricing_plan_id":"cebpf4jnsgd1na2vs0mg"},{"bike_id":"7cf5d252-8254-489d-8f1f-ef8408f89cb3","system_id":"levelo_inurba_marseille","lat":43.29169,"lon":5.37166,"is_reserved":false,"is_disabled":false,"rental_uris":{"android":"levelo://app?vid=7cf5d252-8254-489d-8f1f-ef8408f89cb3","ios":"levelo://app?vid=7cf5d252-8254-489d-8f1f-ef8408f89cb3"},"vehicle_type_id":"4","last_reported":1736144046,"current_range_meters":14800,"station_id":"ce4bha92rcd13ifvqeh0","pricing_plan_id":"cebpf4jnsgd1na2vs0mg"},{"bike_id":"5dc11390-059b-4136-9f1a-189200cf304c","system_id":"levelo_inurba_marseille","lat":43.299401,"lon":5.365359,"is_reserved":false,"is_disabled":true,"rental_uris":{"android":"levelo://app?vid=5dc11390-059b-4136-9f1a-189200cf304c","ios":"levelo://app?vid=5dc11390-059b-4136-9f1a-189200cf304c"},"vehicle_type_id":"4","last_reported":1736144046,"current_range_meters":38400,"station_id":"ce4bgm92rcd13ifvqbr0","pricing_plan_id":"cebpf4jnsgd1na2vs0mg"},{"bike_id":"0153ae28-9422-4039-87f8-952c80b8c9cc","system_id":"levelo_inurba_marseille","lat":43.27316,"lon":5.3909,"is_reserved":false,"is_disabled":true,"rental_uris":{"android":"levelo://app?vid=0153ae28-9422-4039-87f8-952c80b8c9cc","ios":"levelo://app?vid=0153ae28-9422-4039-87f8-952c80b8c9cc"},"vehicle_type_id":"4","last_reported":1736144046,"current_range_meters":37600,"station_id":"ce4bhgp2rcd13ifvqfe0","pricing_plan_id":"cebpf4jnsgd1na2vs0mg"},{"bike_id":"cee840b5-ff12-484c-baab-acbc211b8ae4","system_id":"levelo_inurba_marseille","lat":43.279822,"lon":5.416581,"is_reserved":false,"is_disabled":false,"rental_uris":{"android":"levelo://app?vid=cee840b5-ff12-484c-baab-acbc211b8ae4","ios":"levelo://app?vid=cee840b5-ff12-484c-baab-acbc211b8ae4"},"vehicle_type_id":"4","last_reported":1736144046,"current_range_meters":28000,"station_id":"ce4bho12rcd13ifvqh1g","pricing_plan_id":"cebpf4jnsgd1na2vs0mg"},{"bike_id":"7e0deb38-514b-46d8-bead-2ad1ec3d471c","system_id":"levelo_inurba_marseille","lat":43.28034,"lon":5.36952,"is_reserved":false,"is_disabled":false,"rental_uris":{"android":"levelo://app?vid=7e0deb38-514b-46d8-bead-2ad1ec3d471c","ios":"levelo://app?vid=7e0deb38-514b-46d8-bead-2ad1ec3d471c"},"vehicle_type_id":"4","last_reported":1736144046,"current_range_meters":38800,"station_id":"ce4bha12rcd13ifvqef0","pricing_plan_id":"cebpf4jnsgd1na2vs0mg"},{"bike_id":"82c4d105-b076-414c-8e86-9ffcf5003394","system_id":"levelo_inurba_marseille","lat":43.28709,"lon":5.37383,"is_reserved":false,"is_disabled":false,"rental_uris":{"android":"levelo://app?vid=82c4d105-b076-414c-8e86-9ffcf5003394","ios":"levelo://app?vid=82c4d105-b076-414c-8e86-9ffcf5003394"},"vehicle_type_id":"4","last_reported":1736144046,"current_range_meters":36800,"station_id":"ce4bh3p2rcd13ifvqdq0","pricing_plan_id":"cebpf4jnsgd1na2vs0mg"},{"bike_id":"a38d7913-e298-4f70-b767-22c33dd66ed4","system_id":"levelo_inurba_marseille","lat":43.29897,"lon":5.43679,"is_reserved":false,"is_disabled":false,"rental_uris":{"android":"levelo://app?vid=a38d7913-e298-4f70-b767-22c33dd66ed4","ios":"levelo://app?vid=a38d7913-e298-4f70-b767-22c33dd66ed4"},"vehicle_type_id":"4","last_reported":1736144046,"current_range_meters":38800,"station_id":"ce4bhpp2rcd13ifvqhfg","pricing_plan_id":"cebpf4jnsgd1na2vs0mg"},{"bike_id":"7cbf6f5f-84c0-4c69-9c7d-9902b00c6686","system_id":"levelo_inurba_marseille","lat":43.30465,"lon":5.37908,"is_reserved":false,"is_disabled":false,"rental_uris":{"android":"levelo://app?vid=7cbf6f5f-84c0-4c69-9c7d-9902b00c6686","ios":"levelo://app?vid=7cbf6f5f-84c0-4c69-9c7d-9902b00c6686"},"vehicle_type_id":"4","last_reported":1736144046,"current_range_meters":32400,"station_id":"ce4bgup2rcd13ifvqcn0","pricing_plan_id":"cebpf4jnsgd1na2vs0mg"},{"bike_id":"bcf0bc77-feb4-4e25-93da-4721812265a5","system_id":"levelo_inurba_marseille","lat":43.29838,"lon":5.3627,"is_reserved":false,"is_disabled":false,"rental_uris":{"android":"levelo://app?vid=bcf0bc77-feb4-4e25-93da-4721812265a5","ios":"levelo://app?vid=bcf0bc77-feb4-4e25-93da-4721812265a5"},"vehicle_type_id":"4","last_reported":1736144046,"current_range_meters":38400,"station_id":"ce4bgpp2rcd13ifvqc3g","pricing_plan_id":"cebpf4jnsgd1na2vs0mg"},{"bike_id":"f4cc2a7a-93a2-4cac-8ea9-071d412204f4","system_id":"levelo_inurba_marseille","lat":43.279457,"lon":5.410415,"is_reserved":false,"is_disabled":false,"rental_uris":{"android":"levelo://app?vid=f4cc2a7a-93a2-4cac-8ea9-071d412204f4","ios":"levelo://app?vid=f4cc2a7a-93a2-4cac-8ea9-071d412204f4"},"vehicle_type_id":"4","last_reported":1736144046,"current_range_meters":8800,"station_id":"ce4bhnp2rcd13ifvqh0g","pricing_plan_id":"cebpf4jnsgd1na2vs0mg"},{"bike_id":"730144be-fcee-4065-ac38-325ca1d5cbf7","system_id":"levelo_inurba_marseille","lat":43.25727,"lon":5.41105,"is_reserved":false,"is_disabled":false,"rental_uris":{"android":"levelo://app?vid=730144be-fcee-4065-ac38-325ca1d5cbf7","ios":"levelo://app?vid=730144be-fcee-4065-ac38-325ca1d5cbf7"},"vehicle_type_id":"4","last_reported":1736144046,"current_range_meters":28000,"station_id":"ce4bhkp2rcd13ifvqgd0","pricing_plan_id":"cebpf4jnsgd1na2vs0mg"},{"bike_id":"bedb5aab-1ef7-4d8c-920b-5402d7d4a64b","system_id":"levelo_inurba_marseille","lat":43.2892,"lon":5.36627,"is_reserved":false,"is_disabled":false,"rental_uris":{"android":"levelo://app?vid=bedb5aab-1ef7-4d8c-920b-5402d7d4a64b","ios":"levelo://app?vid=bedb5aab-1ef7-4d8c-920b-5402d7d4a64b"},"vehicle_type_id":"4","last_reported":1736144046,"current_range_meters":25200,"station_id":"ce4bhap2rcd13ifvqek0","pricing_plan_id":"cebpf4jnsgd1na2vs0mg"},{"bike_id":"cfa9ca20-27d4-44a2-a7d9-d2b75ed2f4ac","system_id":"levelo_inurba_marseille","lat":43.31091,"lon":5.38349,"is_reserved":false,"is_disabled":true,"rental_uris":{"android":"levelo://app?vid=cfa9ca20-27d4-44a2-a7d9-d2b75ed2f4ac","ios":"levelo://app?vid=cfa9ca20-27d4-44a2-a7d9-d2b75ed2f4ac"},"vehicle_type_id":"4","last_reported":1736144046,"current_range_meters":4400,"station_id":"ce4bgv92rcd13ifvqcr0","pricing_plan_id":"cebpf4jnsgd1na2vs0mg"},{"bike_id":"2e3020fc-739e-484f-aff1-968aa18f2ac1","system_id":"levelo_inurba_marseille","lat":43.279934,"lon":5.416534,"is_reserved":false,"is_disabled":true,"rental_uris":{"android":"levelo://app?vid=2e3020fc-739e-484f-aff1-968aa18f2ac1","ios":"levelo://app?vid=2e3020fc-739e-484f-aff1-968aa18f2ac1"},"vehicle_type_id":"4","last_reported":1736144046,"current_range_meters":0,"station_id":"ce4bho12rcd13ifvqh1g","pricing_plan_id":"cebpf4jnsgd1na2vs0mg"},{"bike_id":"71dd2f5b-102e-4770-9024-a06bbe2347d6","system_id":"levelo_inurba_marseille","lat":43.29713,"lon":5.36604,"is_reserved":false,"is_disabled":false,"rental_uris":{"android":"levelo://app?vid=71dd2f5b-102e-4770-9024-a06bbe2347d6","ios":"levelo://app?vid=71dd2f5b-102e-4770-9024-a06bbe2347d6"},"vehicle_type_id":"4","last_reported":1736144046,"current_range_meters":26800,"station_id":"ce4bgn12rcd13ifvqbt0","pricing_plan_id":"cebpf4jnsgd1na2vs0mg"},{"bike_id":"ce0e460b-fbf5-4f76-a294-ee5f28a95ad0","system_id":"levelo_inurba_marseille","lat":43.27077,"lon":5.42284,"is_reserved":false,"is_disabled":false,"rental_uris":{"android":"levelo://app?vid=ce0e460b-fbf5-4f76-a294-ee5f28a95ad0","ios":"levelo://app?vid=ce0e460b-fbf5-4f76-a294-ee5f28a95ad0"},"vehicle_type_id":"4","last_reported":1736144046,"current_range_meters":39200,"station_id":"ce4bhk92rcd13ifvqgb0","pricing_plan_id":"cebpf4jnsgd1na2vs0mg"},{"bike_id":"a0adb3c4-caf9-464d-8f3e-6b5be1eb9699","system_id":"levelo_inurba_marseille","lat":43.25133,"lon":5.40323,"is_reserved":false,"is_disabled":false,"rental_uris":{"android":"levelo://app?vid=a0adb3c4-caf9-464d-8f3e-6b5be1eb9699","ios":"levelo://app?vid=a0adb3c4-caf9-464d-8f3e-6b5be1eb9699"},"vehicle_type_id":"4","last_reported":1736144046,"current_range_meters":38800,"station_id":"ce4bhlh2rcd13ifvqgig","pricing_plan_id":"cebpf4jnsgd1na2vs0mg"},{"bike_id":"593d8424-f565-422e-8480-e0f50e2c043e","system_id":"levelo_inurba_marseille","lat":43.27933,"lon":5.38699,"is_reserved":false,"is_disabled":true,"rental_uris":{"android":"levelo://app?vid=593d8424-f565-422e-8480-e0f50e2c043e","ios":"levelo://app?vid=593d8424-f565-422e-8480-e0f50e2c043e"},"vehicle_type_id":"4","last_reported":1736144046,"current_range_meters":30400,"station_id":"","pricing_plan_id":"cebpf4jnsgd1na2vs0mg"},{"bike_id":"a944f865-f260-4d6e-8bfb-34b22d4c0ecd","system_id":"levelo_inurba_marseille","lat":43.3021,"lon":5.36628,"is_reserved":false,"is_disabled":true,"rental_uris":{"android":"levelo://app?vid=a944f865-f260-4d6e-8bfb-34b22d4c0ecd","ios":"levelo://app?vid=a944f865-f260-4d6e-8bfb-34b22d4c0ecd"},"vehicle_type_id":"4","last_reported":1736144046,"current_range_meters":24000,"station_id":"ce4bgrh2rcd13ifvqc8g","pricing_plan_id":"cebpf4jnsgd1na2vs0mg"},{"bike_id":"3278af25-489c-48eb-804e-00ab7fbbb552","system_id":"levelo_inurba_marseille","lat":43.28493,"lon":5.38548,"is_reserved":false,"is_disabled":false,"rental_uris":{"android":"levelo://app?vid=3278af25-489c-48eb-804e-00ab7fbbb552","ios":"levelo://app?vid=3278af25-489c-48eb-804e-00ab7fbbb552"},"vehicle_type_id":"4","last_reported":1736144046,"current_range_meters":24000,"station_id":"ce4bh8p2rcd13ifvqeb0","pricing_plan_id":"cebpf4jnsgd1na2vs0mg"},{"bike_id":"31f47cfe-68ee-4b2f-85af-e4f28d91dc50","system_id":"levelo_inurba_marseille","lat":43.313264,"lon":5.396996,"is_reserved":false,"is_disabled":false,"rental_uris":{"android":"levelo://app?vid=31f47cfe-68ee-4b2f-85af-e4f28d91dc50","ios":"levelo://app?vid=31f47cfe-68ee-4b2f-85af-e4f28d91dc50"},"vehicle_type_id":"4","last_reported":1736144046,"current_range_meters":37600,"station_id":"ce4bgvp2rcd13ifvqcu0","pricing_plan_id":"cebpf4jnsgd1na2vs0mg"},{"bike_id":"e985bca8-e7b8-492f-9e37-2d6082d07f00","system_id":"levelo_inurba_marseille","lat":43.27812,"lon":5.40711,"is_reserved":false,"is_disabled":false,"rental_uris":{"android":"levelo://app?vid=e985bca8-e7b8-492f-9e37-2d6082d07f00","ios":"levelo://app?vid=e985bca8-e7b8-492f-9e37-2d6082d07f00"},"vehicle_type_id":"4","last_reported":1736144046,"current_range_meters":16800,"station_id":"ce4bhnh2rcd13ifvqgtg","pricing_plan_id":"cebpf4jnsgd1na2vs0mg"},{"bike_id":"20ffeea9-73bd-4164-837b-d84bb167a778","system_id":"levelo_inurba_marseille","lat":43.29192,"lon":5.393,"is_reserved":false,"is_disabled":false,"rental_uris":{"android":"levelo://app?vid=20ffeea9-73bd-4164-837b-d84bb167a778","ios":"levelo://app?vid=20ffeea9-73bd-4164-837b-d84bb167a778"},"vehicle_type_id":"4","last_reported":1736144046,"current_range_meters":33200,"station_id":"ce4bh192rcd13ifvqdd0","pricing_plan_id":"cebpf4jnsgd1na2vs0mg"},{"bike_id":"c8a19e46-fbeb-485a-af48-9ddb71e594fe","system_id":"levelo_inurba_marseille","lat":43.25003,"lon":5.3893,"is_reserved":false,"is_disabled":false,"rental_uris":{"android":"levelo://app?vid=c8a19e46-fbeb-485a-af48-9ddb71e594fe","ios":"levelo://app?vid=c8a19e46-fbeb-485a-af48-9ddb71e594fe"},"vehicle_type_id":"4","last_reported":1736144046,"current_range_meters":38800,"station_id":"ce4bhgp2rcd13ifvqfd0","pricing_plan_id":"cebpf4jnsgd1na2vs0mg"},{"bike_id":"7785ab47-fc21-464f-82e3-4fad2439c0ee","system_id":"levelo_inurba_marseille","lat":43.29829,"lon":5.43706,"is_reserved":false,"is_disabled":false,"rental_uris":{"android":"levelo://app?vid=7785ab47-fc21-464f-82e3-4fad2439c0ee","ios":"levelo://app?vid=7785ab47-fc21-464f-82e3-4fad2439c0ee"},"vehicle_type_id":"4","last_reported":1736144046,"current_range_meters":22800,"station_id":"","pricing_plan_id":"cebpf4jnsgd1na2vs0mg"},{"bike_id":"365269b9-c703-4105-a1e5-68231e24254b","system_id":"levelo_inurba_marseille","lat":43.2991,"lon":5.38142,"is_reserved":false,"is_disabled":false,"rental_uris":{"android":"levelo://app?vid=365269b9-c703-4105-a1e5-68231e24254b","ios":"levelo://app?vid=365269b9-c703-4105-a1e5-68231e24254b"},"vehicle_type_id":"4","last_reported":1736144046,"current_range_meters":38400,"station_id":"ce4bgj12rcd13ifvqbc0","pricing_plan_id":"cebpf4jnsgd1na2vs0mg"},{"bike_id":"66cc9b32-c30f-4a3f-8824-8640942730c9","system_id":"levelo_inurba_marseille","lat":43.30876,"lon":5.37202,"is_reserved":false,"is_disabled":false,"rental_uris":{"android":"levelo://app?vid=66cc9b32-c30f-4a3f-8824-8640942730c9","ios":"levelo://app?vid=66cc9b32-c30f-4a3f-8824-8640942730c9"},"vehicle_type_id":"4","last_reported":1736144046,"current_range_meters":14800,"station_id":"ce4bguh2rcd13ifvqckg","pricing_plan_id":"cebpf4jnsgd1na2vs0mg"},{"bike_id":"9bd04c4d-bba3-44a3-88b7-e0bf363fe6b8","system_id":"levelo_inurba_marseille","lat":43.24667,"lon":5.38141,"is_reserved":false,"is_disabled":false,"rental_uris":{"android":"levelo://app?vid=9bd04c4d-bba3-44a3-88b7-e0bf363fe6b8","ios":"levelo://app?vid=9bd04c4d-bba3-44a3-88b7-e0bf363fe6b8"},"vehicle_type_id":"4","last_reported":1736144046,"current_range_meters":29600,"station_id":"ce4bhih2rcd13ifvqfr0","pricing_plan_id":"cebpf4jnsgd1na2vs0mg"},{"bike_id":"ab68ed21-148d-4a0e-ae51-a2dd92014de0","system_id":"levelo_inurba_marseille","lat":43.249858,"lon":5.389525,"is_reserved":false,"is_disabled":false,"rental_uris":{"android":"levelo://app?vid=ab68ed21-148d-4a0e-ae51-a2dd92014de0","ios":"levelo://app?vid=ab68ed21-148d-4a0e-ae51-a2dd92014de0"},"vehicle_type_id":"4","last_reported":1736144046,"current_range_meters":37600,"station_id":"ce4bhgp2rcd13ifvqfd0","pricing_plan_id":"cebpf4jnsgd1na2vs0mg"},{"bike_id":"75539ff0-fe32-4da7-83df-96fa72019050","system_id":"levelo_inurba_marseille","lat":43.31089,"lon":5.42419,"is_reserved":false,"is_disabled":false,"rental_uris":{"android":"levelo://app?vid=75539ff0-fe32-4da7-83df-96fa72019050","ios":"levelo://app?vid=75539ff0-fe32-4da7-83df-96fa72019050"},"vehicle_type_id":"4","last_reported":1736144046,"current_range_meters":38800,"station_id":"ce4bhp92rcd13ifvqhag","pricing_plan_id":"cebpf4jnsgd1na2vs0mg"},{"bike_id":"c023aed8-c4af-47de-bf55-7ec6cfb1c879","system_id":"levelo_inurba_marseille","lat":43.26192,"lon":5.37431,"is_reserved":false,"is_disabled":true,"rental_uris":{"android":"levelo://app?vid=c023aed8-c4af-47de-bf55-7ec6cfb1c879","ios":"levelo://app?vid=c023aed8-c4af-47de-bf55-7ec6cfb1c879"},"vehicle_type_id":"4","last_reported":1736144046,"current_range_meters":33200,"station_id":"ce4bhgp2rcd13ifvqfc0","pricing_plan_id":"cebpf4jnsgd1na2vs0mg"},{"bike_id":"ecd42398-8216-4896-a93c-4f50e89a759e","system_id":"levelo_inurba_marseille","lat":43.30797,"lon":5.38148,"is_reserved":false,"is_disabled":false,"rental_uris":{"android":"levelo://app?vid=ecd42398-8216-4896-a93c-4f50e89a759e","ios":"levelo://app?vid=ecd42398-8216-4896-a93c-4f50e89a759e"},"vehicle_type_id":"4","last_reported":1736144046,"current_range_meters":38800,"station_id":"ce4bgt12rcd13ifvqce0","pricing_plan_id":"cebpf4jnsgd1na2vs0mg"},{"bike_id":"c1b58cca-de3c-4c3c-bdcc-ad0946a62041","system_id":"levelo_inurba_marseille","lat":43.30131,"lon":5.38778,"is_reserved":false,"is_disabled":false,"rental_uris":{"android":"levelo://app?vid=c1b58cca-de3c-4c3c-bdcc-ad0946a62041","ios":"levelo://app?vid=c1b58cca-de3c-4c3c-bdcc-ad0946a62041"},"vehicle_type_id":"4","last_reported":1736144046,"current_range_meters":38800,"station_id":"ce4bghh2rcd13ifvqb60","pricing_plan_id":"cebpf4jnsgd1na2vs0mg"},{"bike_id":"299c1567-9388-4643-9b9c-58c204819425","system_id":"levelo_inurba_marseille","lat":43.302974,"lon":5.392047,"is_reserved":false,"is_disabled":false,"rental_uris":{"android":"levelo://app?vid=299c1567-9388-4643-9b9c-58c204819425","ios":"levelo://app?vid=299c1567-9388-4643-9b9c-58c204819425"},"vehicle_type_id":"4","last_reported":1736144046,"current_range_meters":28000,"station_id":"ce4bgkh2rcd13ifvqbk0","pricing_plan_id":"cebpf4jnsgd1na2vs0mg"},{"bike_id":"ad036647-e9f4-4246-953d-37ee6601db50","system_id":"levelo_inurba_marseille","lat":43.246639,"lon":5.381689,"is_reserved":false,"is_disabled":false,"rental_uris":{"android":"levelo://app?vid=ad036647-e9f4-4246-953d-37ee6601db50","ios":"levelo://app?vid=ad036647-e9f4-4246-953d-37ee6601db50"},"vehicle_type_id":"4","last_reported":1736144046,"current_range_meters":23200,"station_id":"ce4bhih2rcd13ifvqfr0","pricing_plan_id":"cebpf4jnsgd1na2vs0mg"},{"bike_id":"c3496726-b8ea-47ac-a44b-66bc69a8d7e9","system_id":"levelo_inurba_marseille","lat":43.29841,"lon":5.36277,"is_reserved":false,"is_disabled":false,"rental_uris":{"android":"levelo://app?vid=c3496726-b8ea-47ac-a44b-66bc69a8d7e9","ios":"levelo://app?vid=c3496726-b8ea-47ac-a44b-66bc69a8d7e9"},"vehicle_type_id":"4","last_reported":1736144046,"current_range_meters":30400,"station_id":"ce4bgpp2rcd13ifvqc3g","pricing_plan_id":"cebpf4jnsgd1na2vs0mg"},{"bike_id":"983c1c2f-e8c2-4091-9b84-e3e775a48393","system_id":"levelo_inurba_marseille","lat":43.31766,"lon":5.39005,"is_reserved":false,"is_disabled":false,"rental_uris":{"android":"levelo://app?vid=983c1c2f-e8c2-4091-9b84-e3e775a48393","ios":"levelo://app?vid=983c1c2f-e8c2-4091-9b84-e3e775a48393"},"vehicle_type_id":"4","last_reported":1736144046,"current_range_meters":32800,"station_id":"ce4bhqp2rcd13ifvqhng","pricing_plan_id":"cebpf4jnsgd1na2vs0mg"},{"bike_id":"d2c7155e-6bf6-44bd-a45e-78727ddd52d8","system_id":"levelo_inurba_marseille","lat":43.29248,"lon":5.40907,"is_reserved":false,"is_disabled":false,"rental_uris":{"android":"levelo://app?vid=d2c7155e-6bf6-44bd-a45e-78727ddd52d8","ios":"levelo://app?vid=d2c7155e-6bf6-44bd-a45e-78727ddd52d8"},"vehicle_type_id":"4","last_reported":1736144046,"current_range_meters":38800,"station_id":"ce4bh192rcd13ifvqdc0","pricing_plan_id":"cebpf4jnsgd1na2vs0mg"},{"bike_id":"3416ca56-5307-4350-a978-cf34b59a8554","system_id":"levelo_inurba_marseille","lat":43.28401,"lon":5.37527,"is_reserved":false,"is_disabled":false,"rental_uris":{"android":"levelo://app?vid=3416ca56-5307-4350-a978-cf34b59a8554","ios":"levelo://app?vid=3416ca56-5307-4350-a978-cf34b59a8554"},"vehicle_type_id":"4","last_reported":1736144046,"current_range_meters":32800,"station_id":"ce4bh412rcd13ifvqds0","pricing_plan_id":"cebpf4jnsgd1na2vs0mg"},{"bike_id":"dc58264c-9717-4975-abc9-03db7bffa07d","system_id":"levelo_inurba_marseille","lat":43.29908,"lon":5.38148,"is_reserved":false,"is_disabled":false,"rental_uris":{"android":"levelo://app?vid=dc58264c-9717-4975-abc9-03db7bffa07d","ios":"levelo://app?vid=dc58264c-9717-4975-abc9-03db7bffa07d"},"vehicle_type_id":"4","last_reported":1736144046,"current_range_meters":17600,"station_id":"ce4bgj12rcd13ifvqbc0","pricing_plan_id":"cebpf4jnsgd1na2vs0mg"},{"bike_id":"74098fc6-7328-47e4-8d2d-8ae77bdb4aea","system_id":"levelo_inurba_marseille","lat":43.29937,"lon":5.36525,"is_reserved":false,"is_disabled":false,"rental_uris":{"android":"levelo://app?vid=74098fc6-7328-47e4-8d2d-8ae77bdb4aea","ios":"levelo://app?vid=74098fc6-7328-47e4-8d2d-8ae77bdb4aea"},"vehicle_type_id":"4","last_reported":1736144046,"current_range_meters":30400,"station_id":"ce4bgm92rcd13ifvqbr0","pricing_plan_id":"cebpf4jnsgd1na2vs0mg"},{"bike_id":"66d3e1ef-7727-44f9-b619-eeddb54c1fba","system_id":"levelo_inurba_marseille","lat":43.30443,"lon":5.38894,"is_reserved":false,"is_disabled":true,"rental_uris":{"android":"levelo://app?vid=66d3e1ef-7727-44f9-b619-eeddb54c1fba","ios":"levelo://app?vid=66d3e1ef-7727-44f9-b619-eeddb54c1fba"},"vehicle_type_id":"4","last_reported":1736144046,"current_range_meters":7200,"station_id":"ce4bgk12rcd13ifvqbi0","pricing_plan_id":"cebpf4jnsgd1na2vs0mg"},{"bike_id":"a7390380-29a0-477f-b3fb-4feff889fb95","system_id":"levelo_inurba_marseille","lat":43.28834,"lon":5.39322,"is_reserved":false,"is_disabled":false,"rental_uris":{"android":"levelo://app?vid=a7390380-29a0-477f-b3fb-4feff889fb95","ios":"levelo://app?vid=a7390380-29a0-477f-b3fb-4feff889fb95"},"vehicle_type_id":"4","last_reported":1736144046,"current_range_meters":38800,"station_id":"ce4bh2p2rcd13ifvqdi0","pricing_plan_id":"cebpf4jnsgd1na2vs0mg"},{"bike_id":"53f0838a-ffca-45dc-96ad-e12807afa175","system_id":"levelo_inurba_marseille","lat":43.2319,"lon":5.39982,"is_reserved":false,"is_disabled":false,"rental_uris":{"android":"levelo://app?vid=53f0838a-ffca-45dc-96ad-e12807afa175","ios":"levelo://app?vid=53f0838a-ffca-45dc-96ad-e12807afa175"},"vehicle_type_id":"4","last_reported":1736144046,"current_range_meters":23200,"station_id":"ce4bhn12rcd13ifvqgqg","pricing_plan_id":"cebpf4jnsgd1na2vs0mg"},{"bike_id":"f2107d97-861e-478f-aae7-bc0c7527ce03","system_id":"levelo_inurba_marseille","lat":43.31493,"lon":5.37301,"is_reserved":false,"is_disabled":false,"rental_uris":{"android":"levelo://app?vid=f2107d97-861e-478f-aae7-bc0c7527ce03","ios":"levelo://app?vid=f2107d97-861e-478f-aae7-bc0c7527ce03"},"vehicle_type_id":"4","last_reported":1736144046,"current_range_meters":31200,"station_id":"ce4bgt12rcd13ifvqcd0","pricing_plan_id":"cebpf4jnsgd1na2vs0mg"},{"bike_id":"683c3a18-2fe8-4db2-829b-d8065bc8adc1","system_id":"levelo_inurba_marseille","lat":43.24067,"lon":5.377611,"is_reserved":false,"is_disabled":false,"rental_uris":{"android":"levelo://app?vid=683c3a18-2fe8-4db2-829b-d8065bc8adc1","ios":"levelo://app?vid=683c3a18-2fe8-4db2-829b-d8065bc8adc1"},"vehicle_type_id":"4","last_reported":1736144046,"current_range_meters":38800,"station_id":"ce4bhnp2rcd13ifvqgvg","pricing_plan_id":"cebpf4jnsgd1na2vs0mg"},{"bike_id":"f1441367-2bff-4377-abff-d64950d2561f","system_id":"levelo_inurba_marseille","lat":43.29283,"lon":5.40118,"is_reserved":false,"is_disabled":false,"rental_uris":{"android":"levelo://app?vid=f1441367-2bff-4377-abff-d64950d2561f","ios":"levelo://app?vid=f1441367-2bff-4377-abff-d64950d2561f"},"vehicle_type_id":"4","last_reported":1736144046,"current_range_meters":38000,"station_id":"ce4bh312rcd13ifvqdk0","pricing_plan_id":"cebpf4jnsgd1na2vs0mg"},{"bike_id":"63974816-d974-4062-9a4e-2e396a611e50","system_id":"levelo_inurba_marseille","lat":43.31873,"lon":5.40769,"is_reserved":false,"is_disabled":false,"rental_uris":{"android":"levelo://app?vid=63974816-d974-4062-9a4e-2e396a611e50","ios":"levelo://app?vid=63974816-d974-4062-9a4e-2e396a611e50"},"vehicle_type_id":"4","last_reported":1736144046,"current_range_meters":38800,"station_id":"ce4bhq12rcd13ifvqhig","pricing_plan_id":"cebpf4jnsgd1na2vs0mg"},{"bike_id":"83d42574-0df9-47a8-949f-44f2d65e9e8b","system_id":"levelo_inurba_marseille","lat":43.31168,"lon":5.38715,"is_reserved":false,"is_disabled":false,"rental_uris":{"android":"levelo://app?vid=83d42574-0df9-47a8-949f-44f2d65e9e8b","ios":"levelo://app?vid=83d42574-0df9-47a8-949f-44f2d65e9e8b"},"vehicle_type_id":"4","last_reported":1736144046,"current_range_meters":24800,"station_id":"ce4bgv12rcd13ifvqcp0","pricing_plan_id":"cebpf4jnsgd1na2vs0mg"},{"bike_id":"e7322205-0263-4fc6-ac61-c0ff19201698","system_id":"levelo_inurba_marseille","lat":43.30463,"lon":5.37897,"is_reserved":false,"is_disabled":false,"rental_uris":{"android":"levelo://app?vid=e7322205-0263-4fc6-ac61-c0ff19201698","ios":"levelo://app?vid=e7322205-0263-4fc6-ac61-c0ff19201698"},"vehicle_type_id":"4","last_reported":1736144046,"current_range_meters":38800,"station_id":"ce4bgup2rcd13ifvqcn0","pricing_plan_id":"cebpf4jnsgd1na2vs0mg"},{"bike_id":"59a9e05c-7e5f-4b16-a52b-942843a4c471","system_id":"levelo_inurba_marseille","lat":43.304226,"lon":5.397458,"is_reserved":false,"is_disabled":false,"rental_uris":{"android":"levelo://app?vid=59a9e05c-7e5f-4b16-a52b-942843a4c471","ios":"levelo://app?vid=59a9e05c-7e5f-4b16-a52b-942843a4c471"},"vehicle_type_id":"4","last_reported":1736144046,"current_range_meters":38800,"station_id":"ce4bh092rcd13ifvqd20","pricing_plan_id":"cebpf4jnsgd1na2vs0mg"},{"bike_id":"2332862a-3884-4317-af82-ee9793e9b62c","system_id":"levelo_inurba_marseille","lat":43.240841,"lon":5.377459,"is_reserved":false,"is_disabled":false,"rental_uris":{"android":"levelo://app?vid=2332862a-3884-4317-af82-ee9793e9b62c","ios":"levelo://app?vid=2332862a-3884-4317-af82-ee9793e9b62c"},"vehicle_type_id":"4","last_reported":1736144046,"current_range_meters":8000,"station_id":"ce4bhnp2rcd13ifvqgvg","pricing_plan_id":"cebpf4jnsgd1na2vs0mg"},{"bike_id":"88921916-2a99-4e7a-8a3f-cca7ea156041","system_id":"levelo_inurba_marseille","lat":43.31084,"lon":5.38356,"is_reserved":false,"is_disabled":false,"rental_uris":{"android":"levelo://app?vid=88921916-2a99-4e7a-8a3f-cca7ea156041","ios":"levelo://app?vid=88921916-2a99-4e7a-8a3f-cca7ea156041"},"vehicle_type_id":"4","last_reported":1736144046,"current_range_meters":28800,"station_id":"ce4bgv92rcd13ifvqcr0","pricing_plan_id":"cebpf4jnsgd1na2vs0mg"},{"bike_id":"83dc138f-4ad1-426c-9de5-b150982b8a71","system_id":"levelo_inurba_marseille","lat":43.29182,"lon":5.39309,"is_reserved":false,"is_disabled":false,"rental_uris":{"android":"levelo://app?vid=83dc138f-4ad1-426c-9de5-b150982b8a71","ios":"levelo://app?vid=83dc138f-4ad1-426c-9de5-b150982b8a71"},"vehicle_type_id":"4","last_reported":1736144046,"current_range_meters":36400,"station_id":"ce4bh192rcd13ifvqdd0","pricing_plan_id":"cebpf4jnsgd1na2vs0mg"},{"bike_id":"ba2b0799-90e5-436b-a8ac-d2a80ff5da69","system_id":"levelo_inurba_marseille","lat":43.24826,"lon":5.37447,"is_reserved":false,"is_disabled":false,"rental_uris":{"android":"levelo://app?vid=ba2b0799-90e5-436b-a8ac-d2a80ff5da69","ios":"levelo://app?vid=ba2b0799-90e5-436b-a8ac-d2a80ff5da69"},"vehicle_type_id":"4","last_reported":1736144046,"current_range_meters":38800,"station_id":"ce4bhgh2rcd13ifvqfb0","pricing_plan_id":"cebpf4jnsgd1na2vs0mg"},{"bike_id":"5b49bc9e-0372-4642-ba4e-6768062fc93f","system_id":"levelo_inurba_marseille","lat":43.309161,"lon":5.368486,"is_reserved":false,"is_disabled":false,"rental_uris":{"android":"levelo://app?vid=5b49bc9e-0372-4642-ba4e-6768062fc93f","ios":"levelo://app?vid=5b49bc9e-0372-4642-ba4e-6768062fc93f"},"vehicle_type_id":"4","last_reported":1736144046,"current_range_meters":38800,"station_id":"ce4bgn92rcd13ifvqbvg","pricing_plan_id":"cebpf4jnsgd1na2vs0mg"},{"bike_id":"dd34045c-9351-468b-86f7-2a551094493e","system_id":"levelo_inurba_marseille","lat":43.31279,"lon":5.4016,"is_reserved":false,"is_disabled":false,"rental_uris":{"android":"levelo://app?vid=dd34045c-9351-468b-86f7-2a551094493e","ios":"levelo://app?vid=dd34045c-9351-468b-86f7-2a551094493e"},"vehicle_type_id":"4","last_reported":1736144046,"current_range_meters":17200,"station_id":"ce4bh092rcd13ifvqd30","pricing_plan_id":"cebpf4jnsgd1na2vs0mg"},{"bike_id":"c592643e-5c88-4aea-ab5f-ddf77f4a34b9","system_id":"levelo_inurba_marseille","lat":43.29538,"lon":5.38539,"is_reserved":false,"is_disabled":false,"rental_uris":{"android":"levelo://app?vid=c592643e-5c88-4aea-ab5f-ddf77f4a34b9","ios":"levelo://app?vid=c592643e-5c88-4aea-ab5f-ddf77f4a34b9"},"vehicle_type_id":"4","last_reported":1736144046,"current_range_meters":34800,"station_id":"ce4bgih2rcd13ifvqba0","pricing_plan_id":"cebpf4jnsgd1na2vs0mg"},{"bike_id":"e95bb54d-583b-4328-8deb-2f42d6df9b6c","system_id":"levelo_inurba_marseille","lat":43.290419,"lon":5.399533,"is_reserved":false,"is_disabled":false,"rental_uris":{"android":"levelo://app?vid=e95bb54d-583b-4328-8deb-2f42d6df9b6c","ios":"levelo://app?vid=e95bb54d-583b-4328-8deb-2f42d6df9b6c"},"vehicle_type_id":"4","last_reported":1736144046,"current_range_meters":34800,"station_id":"ce4bh392rcd13ifvqdm0","pricing_plan_id":"cebpf4jnsgd1na2vs0mg"},{"bike_id":"7ee45656-cc2b-4090-8514-bcfd033cfdf8","system_id":"levelo_inurba_marseille","lat":43.337324,"lon":5.391761,"is_reserved":false,"is_disabled":false,"rental_uris":{"android":"levelo://app?vid=7ee45656-cc2b-4090-8514-bcfd033cfdf8","ios":"levelo://app?vid=7ee45656-cc2b-4090-8514-bcfd033cfdf8"},"vehicle_type_id":"4","last_reported":1736144046,"current_range_meters":38400,"station_id":"ce4bhr92rcd13ifvqhsg","pricing_plan_id":"cebpf4jnsgd1na2vs0mg"},{"bike_id":"c8529c5f-726c-44b9-8f81-1b72db6f4e53","system_id":"levelo_inurba_marseille","lat":43.323624,"lon":5.38882,"is_reserved":false,"is_disabled":false,"rental_uris":{"android":"levelo://app?vid=c8529c5f-726c-44b9-8f81-1b72db6f4e53","ios":"levelo://app?vid=c8529c5f-726c-44b9-8f81-1b72db6f4e53"},"vehicle_type_id":"4","last_reported":1736144046,"current_range_meters":36800,"station_id":"ce4bhqp2rcd13ifvqhog","pricing_plan_id":"cebpf4jnsgd1na2vs0mg"},{"bike_id":"cbc638ef-e540-4f9c-ac5d-e16032597628","system_id":"levelo_inurba_marseille","lat":43.29595,"lon":5.38088,"is_reserved":false,"is_disabled":true,"rental_uris":{"android":"levelo://app?vid=cbc638ef-e540-4f9c-ac5d-e16032597628","ios":"levelo://app?vid=cbc638ef-e540-4f9c-ac5d-e16032597628"},"vehicle_type_id":"4","last_reported":1736144046,"current_range_meters":34800,"station_id":"ce4bgl12rcd13ifvqbo0","pricing_plan_id":"cebpf4jnsgd1na2vs0mg"},{"bike_id":"f4018583-4096-49ee-bd0e-b21ec3fd078b","system_id":"levelo_inurba_marseille","lat":43.283414,"lon":5.3811,"is_reserved":false,"is_disabled":true,"rental_uris":{"android":"levelo://app?vid=f4018583-4096-49ee-bd0e-b21ec3fd078b","ios":"levelo://app?vid=f4018583-4096-49ee-bd0e-b21ec3fd078b"},"vehicle_type_id":"4","last_reported":1736144046,"current_range_meters":6400,"station_id":"ce4bh412rcd13ifvqdr0","pricing_plan_id":"cebpf4jnsgd1na2vs0mg"},{"bike_id":"b74a3454-da0c-4c9d-af2e-3aed3956671d","system_id":"levelo_inurba_marseille","lat":43.31378,"lon":5.38497,"is_reserved":false,"is_disabled":false,"rental_uris":{"android":"levelo://app?vid=b74a3454-da0c-4c9d-af2e-3aed3956671d","ios":"levelo://app?vid=b74a3454-da0c-4c9d-af2e-3aed3956671d"},"vehicle_type_id":"4","last_reported":1736144046,"current_range_meters":37600,"station_id":"ce4bgt92rcd13ifvqcf0","pricing_plan_id":"cebpf4jnsgd1na2vs0mg"},{"bike_id":"9022ce33-766e-441b-af63-bac8528d7fac","system_id":"levelo_inurba_marseille","lat":43.2893,"lon":5.39635,"is_reserved":false,"is_disabled":false,"rental_uris":{"android":"levelo://app?vid=9022ce33-766e-441b-af63-bac8528d7fac","ios":"levelo://app?vid=9022ce33-766e-441b-af63-bac8528d7fac"},"vehicle_type_id":"4","last_reported":1736144046,"current_range_meters":10000,"station_id":"ce4bh3h2rcd13ifvqdn0","pricing_plan_id":"cebpf4jnsgd1na2vs0mg"},{"bike_id":"08269339-b0ba-4628-83b5-efe5a32da8a3","system_id":"levelo_inurba_marseille","lat":43.27915,"lon":5.40933,"is_reserved":false,"is_disabled":false,"rental_uris":{"android":"levelo://app?vid=08269339-b0ba-4628-83b5-efe5a32da8a3","ios":"levelo://app?vid=08269339-b0ba-4628-83b5-efe5a32da8a3"},"vehicle_type_id":"4","last_reported":1736144046,"current_range_meters":28000,"station_id":"ce4bhnp2rcd13ifvqh0g","pricing_plan_id":"cebpf4jnsgd1na2vs0mg"},{"bike_id":"7f1ce4ed-0cd0-4d23-b89e-099e0df8c108","system_id":"levelo_inurba_marseille","lat":43.2573,"lon":5.41106,"is_reserved":false,"is_disabled":false,"rental_uris":{"android":"levelo://app?vid=7f1ce4ed-0cd0-4d23-b89e-099e0df8c108","ios":"levelo://app?vid=7f1ce4ed-0cd0-4d23-b89e-099e0df8c108"},"vehicle_type_id":"4","last_reported":1736144046,"current_range_meters":38400,"station_id":"ce4bhkp2rcd13ifvqgd0","pricing_plan_id":"cebpf4jnsgd1na2vs0mg"},{"bike_id":"9db30acb-5eb1-4a75-9331-1f42fd694337","system_id":"levelo_inurba_marseille","lat":43.279223,"lon":5.395781,"is_reserved":false,"is_disabled":false,"rental_uris":{"android":"levelo://app?vid=9db30acb-5eb1-4a75-9331-1f42fd694337","ios":"levelo://app?vid=9db30acb-5eb1-4a75-9331-1f42fd694337"},"vehicle_type_id":"4","last_reported":1736144046,"current_range_meters":19600,"station_id":"ce4bhf92rcd13ifvqf40","pricing_plan_id":"cebpf4jnsgd1na2vs0mg"},{"bike_id":"46b62559-aa08-4333-86bc-1469343cb594","system_id":"levelo_inurba_marseille","lat":43.28157,"lon":5.42634,"is_reserved":false,"is_disabled":false,"rental_uris":{"android":"levelo://app?vid=46b62559-aa08-4333-86bc-1469343cb594","ios":"levelo://app?vid=46b62559-aa08-4333-86bc-1469343cb594"},"vehicle_type_id":"4","last_reported":1736144046,"current_range_meters":10800,"station_id":"ce4bhnh2rcd13ifvqgug","pricing_plan_id":"cebpf4jnsgd1na2vs0mg"},{"bike_id":"f8142e8a-f886-4c5e-b399-88d8fa1c1d32","system_id":"levelo_inurba_marseille","lat":43.24678,"lon":5.38156,"is_reserved":false,"is_disabled":false,"rental_uris":{"android":"levelo://app?vid=f8142e8a-f886-4c5e-b399-88d8fa1c1d32","ios":"levelo://app?vid=f8142e8a-f886-4c5e-b399-88d8fa1c1d32"},"vehicle_type_id":"4","last_reported":1736144046,"current_range_meters":24000,"station_id":"ce4bhih2rcd13ifvqfr0","pricing_plan_id":"cebpf4jnsgd1na2vs0mg"},{"bike_id":"5dd951df-366f-4424-80ad-9c916727aba9","system_id":"levelo_inurba_marseille","lat":43.2872,"lon":5.37401,"is_reserved":false,"is_disabled":false,"rental_uris":{"android":"levelo://app?vid=5dd951df-366f-4424-80ad-9c916727aba9","ios":"levelo://app?vid=5dd951df-366f-4424-80ad-9c916727aba9"},"vehicle_type_id":"4","last_reported":1736144046,"current_range_meters":30000,"station_id":"ce4bh3p2rcd13ifvqdq0","pricing_plan_id":"cebpf4jnsgd1na2vs0mg"},{"bike_id":"1aba21f4-1bc8-481b-8d4e-71db03f213fd","system_id":"levelo_inurba_marseille","lat":43.25116,"lon":5.40324,"is_reserved":false,"is_disabled":false,"rental_uris":{"android":"levelo://app?vid=1aba21f4-1bc8-481b-8d4e-71db03f213fd","ios":"levelo://app?vid=1aba21f4-1bc8-481b-8d4e-71db03f213fd"},"vehicle_type_id":"4","last_reported":1736144046,"current_range_meters":28400,"station_id":"ce4bhlh2rcd13ifvqgig","pricing_plan_id":"cebpf4jnsgd1na2vs0mg"},{"bike_id":"5acd51ab-33ae-465f-9994-b539f1713987","system_id":"levelo_inurba_marseille","lat":43.33751,"lon":5.39189,"is_reserved":false,"is_disabled":false,"rental_uris":{"android":"levelo://app?vid=5acd51ab-33ae-465f-9994-b539f1713987","ios":"levelo://app?vid=5acd51ab-33ae-465f-9994-b539f1713987"},"vehicle_type_id":"4","last_reported":1736144046,"current_range_meters":34800,"station_id":"ce4bhr92rcd13ifvqhsg","pricing_plan_id":"cebpf4jnsgd1na2vs0mg"},{"bike_id":"f3d41f41-839d-41a5-aa6d-f2ba87ff18f0","system_id":"levelo_inurba_marseille","lat":43.24093,"lon":5.37743,"is_reserved":false,"is_disabled":true,"rental_uris":{"android":"levelo://app?vid=f3d41f41-839d-41a5-aa6d-f2ba87ff18f0","ios":"levelo://app?vid=f3d41f41-839d-41a5-aa6d-f2ba87ff18f0"},"vehicle_type_id":"4","last_reported":1736144046,"current_range_meters":36400,"station_id":"ce4bhnp2rcd13ifvqgvg","pricing_plan_id":"cebpf4jnsgd1na2vs0mg"},{"bike_id":"7a642d60-3ea7-4aa8-9bb5-5f10b3beea02","system_id":"levelo_inurba_marseille","lat":43.3229,"lon":5.38258,"is_reserved":false,"is_disabled":false,"rental_uris":{"android":"levelo://app?vid=7a642d60-3ea7-4aa8-9bb5-5f10b3beea02","ios":"levelo://app?vid=7a642d60-3ea7-4aa8-9bb5-5f10b3beea02"},"vehicle_type_id":"4","last_reported":1736144046,"current_range_meters":38800,"station_id":"ce4bhr12rcd13ifvqhqg","pricing_plan_id":"cebpf4jnsgd1na2vs0mg"},{"bike_id":"5a231d4e-1469-4389-a9bc-0d65fec09d5f","system_id":"levelo_inurba_marseille","lat":43.282974,"lon":5.433125,"is_reserved":false,"is_disabled":false,"rental_uris":{"android":"levelo://app?vid=5a231d4e-1469-4389-a9bc-0d65fec09d5f","ios":"levelo://app?vid=5a231d4e-1469-4389-a9bc-0d65fec09d5f"},"vehicle_type_id":"4","last_reported":1736144046,"current_range_meters":10000,"station_id":"","pricing_plan_id":"cebpf4jnsgd1na2vs0mg"},{"bike_id":"5385c6e1-e487-44ec-a99e-fdfbbbe38b27","system_id":"levelo_inurba_marseille","lat":43.30799,"lon":5.38165,"is_reserved":false,"is_disabled":false,"rental_uris":{"android":"levelo://app?vid=5385c6e1-e487-44ec-a99e-fdfbbbe38b27","ios":"levelo://app?vid=5385c6e1-e487-44ec-a99e-fdfbbbe38b27"},"vehicle_type_id":"4","last_reported":1736144046,"current_range_meters":33600,"station_id":"ce4bgt12rcd13ifvqce0","pricing_plan_id":"cebpf4jnsgd1na2vs0mg"},{"bike_id":"bab376a2-3ba0-43a3-a60d-b5a59c40e0bc","system_id":"levelo_inurba_marseille","lat":43.292585,"lon":5.409162,"is_reserved":false,"is_disabled":true,"rental_uris":{"android":"levelo://app?vid=bab376a2-3ba0-43a3-a60d-b5a59c40e0bc","ios":"levelo://app?vid=bab376a2-3ba0-43a3-a60d-b5a59c40e0bc"},"vehicle_type_id":"4","last_reported":1736144046,"current_range_meters":22800,"station_id":"ce4bh192rcd13ifvqdc0","pricing_plan_id":"cebpf4jnsgd1na2vs0mg"},{"bike_id":"7b78d5e2-5142-402d-a4f8-0f3037a6c533","system_id":"levelo_inurba_marseille","lat":43.2695,"lon":5.38623,"is_reserved":false,"is_disabled":true,"rental_uris":{"android":"levelo://app?vid=7b78d5e2-5142-402d-a4f8-0f3037a6c533","ios":"levelo://app?vid=7b78d5e2-5142-402d-a4f8-0f3037a6c533"},"vehicle_type_id":"4","last_reported":1736144046,"current_range_meters":37600,"station_id":"ce4bhh92rcd13ifvqfh0","pricing_plan_id":"cebpf4jnsgd1na2vs0mg"},{"bike_id":"99ea5841-b8af-4dc3-9cba-b0924afd8cdf","system_id":"levelo_inurba_marseille","lat":43.292514,"lon":5.409171,"is_reserved":false,"is_disabled":false,"rental_uris":{"android":"levelo://app?vid=99ea5841-b8af-4dc3-9cba-b0924afd8cdf","ios":"levelo://app?vid=99ea5841-b8af-4dc3-9cba-b0924afd8cdf"},"vehicle_type_id":"4","last_reported":1736144046,"current_range_meters":20800,"station_id":"ce4bh192rcd13ifvqdc0","pricing_plan_id":"cebpf4jnsgd1na2vs0mg"},{"bike_id":"2f33d4dd-c94f-41e6-bce5-42d4c6341eb0","system_id":"levelo_inurba_marseille","lat":43.299024,"lon":5.436575,"is_reserved":false,"is_disabled":false,"rental_uris":{"android":"levelo://app?vid=2f33d4dd-c94f-41e6-bce5-42d4c6341eb0","ios":"levelo://app?vid=2f33d4dd-c94f-41e6-bce5-42d4c6341eb0"},"vehicle_type_id":"4","last_reported":1736144046,"current_range_meters":30400,"station_id":"ce4bhpp2rcd13ifvqhfg","pricing_plan_id":"cebpf4jnsgd1na2vs0mg"},{"bike_id":"d0d21930-fe1d-478b-8251-bcf89564599d","system_id":"levelo_inurba_marseille","lat":43.29549,"lon":5.42278,"is_reserved":false,"is_disabled":false,"rental_uris":{"android":"levelo://app?vid=d0d21930-fe1d-478b-8251-bcf89564599d","ios":"levelo://app?vid=d0d21930-fe1d-478b-8251-bcf89564599d"},"vehicle_type_id":"4","last_reported":1736144046,"current_range_meters":24800,"station_id":"ce4bhph2rcd13ifvqhdg","pricing_plan_id":"cebpf4jnsgd1na2vs0mg"},{"bike_id":"793e61cf-3f17-4ddb-a802-7a02054d1a95","system_id":"levelo_inurba_marseille","lat":43.23148,"lon":5.43708,"is_reserved":false,"is_disabled":false,"rental_uris":{"android":"levelo://app?vid=793e61cf-3f17-4ddb-a802-7a02054d1a95","ios":"levelo://app?vid=793e61cf-3f17-4ddb-a802-7a02054d1a95"},"vehicle_type_id":"4","last_reported":1736144046,"current_range_meters":38800,"station_id":"ce4bhmp2rcd13ifvqgog","pricing_plan_id":"cebpf4jnsgd1na2vs0mg"},{"bike_id":"7280ad2a-98b8-469f-88a2-0cc12e42033e","system_id":"levelo_inurba_marseille","lat":43.28359,"lon":5.38624,"is_reserved":false,"is_disabled":false,"rental_uris":{"android":"levelo://app?vid=7280ad2a-98b8-469f-88a2-0cc12e42033e","ios":"levelo://app?vid=7280ad2a-98b8-469f-88a2-0cc12e42033e"},"vehicle_type_id":"4","last_reported":1736144046,"current_range_meters":36000,"station_id":"ce4bh492rcd13ifvqdvg","pricing_plan_id":"cebpf4jnsgd1na2vs0mg"},{"bike_id":"5fbd1720-c69d-4722-9ef8-c3015f6432bc","system_id":"levelo_inurba_marseille","lat":43.27843,"lon":5.39207,"is_reserved":false,"is_disabled":false,"rental_uris":{"android":"levelo://app?vid=5fbd1720-c69d-4722-9ef8-c3015f6432bc","ios":"levelo://app?vid=5fbd1720-c69d-4722-9ef8-c3015f6432bc"},"vehicle_type_id":"4","last_reported":1736144046,"current_range_meters":36000,"station_id":"ce4bhjp2rcd13ifvqga0","pricing_plan_id":"cebpf4jnsgd1na2vs0mg"},{"bike_id":"41362472-f79e-4cfa-aad7-dd33310824b0","system_id":"levelo_inurba_marseille","lat":43.33729,"lon":5.39154,"is_reserved":false,"is_disabled":false,"rental_uris":{"android":"levelo://app?vid=41362472-f79e-4cfa-aad7-dd33310824b0","ios":"levelo://app?vid=41362472-f79e-4cfa-aad7-dd33310824b0"},"vehicle_type_id":"4","last_reported":1736144046,"current_range_meters":38000,"station_id":"ce4bhr92rcd13ifvqhsg","pricing_plan_id":"cebpf4jnsgd1na2vs0mg"},{"bike_id":"6e3c84b2-6dd9-459d-aa5d-f0176703ca86","system_id":"levelo_inurba_marseille","lat":43.31168,"lon":5.38746,"is_reserved":false,"is_disabled":false,"rental_uris":{"android":"levelo://app?vid=6e3c84b2-6dd9-459d-aa5d-f0176703ca86","ios":"levelo://app?vid=6e3c84b2-6dd9-459d-aa5d-f0176703ca86"},"vehicle_type_id":"4","last_reported":1736144046,"current_range_meters":28400,"station_id":"ce4bgv12rcd13ifvqcp0","pricing_plan_id":"cebpf4jnsgd1na2vs0mg"},{"bike_id":"9f2b47b7-2543-4e6c-8391-343fb67c1ff7","system_id":"levelo_inurba_marseille","lat":43.28599,"lon":5.37053,"is_reserved":false,"is_disabled":false,"rental_uris":{"android":"levelo://app?vid=9f2b47b7-2543-4e6c-8391-343fb67c1ff7","ios":"levelo://app?vid=9f2b47b7-2543-4e6c-8391-343fb67c1ff7"},"vehicle_type_id":"4","last_reported":1736144046,"current_range_meters":38000,"station_id":"ce4bht12rcd13ifvqi60","pricing_plan_id":"cebpf4jnsgd1na2vs0mg"},{"bike_id":"96ba2f1d-82f4-465c-8ab6-4416dcee590a","system_id":"levelo_inurba_marseille","lat":43.3088,"lon":5.37173,"is_reserved":false,"is_disabled":false,"rental_uris":{"android":"levelo://app?vid=96ba2f1d-82f4-465c-8ab6-4416dcee590a","ios":"levelo://app?vid=96ba2f1d-82f4-465c-8ab6-4416dcee590a"},"vehicle_type_id":"4","last_reported":1736144046,"current_range_meters":11600,"station_id":"ce4bguh2rcd13ifvqckg","pricing_plan_id":"cebpf4jnsgd1na2vs0mg"},{"bike_id":"dd9ceb88-0982-451d-a24d-2f92b1b447f4","system_id":"levelo_inurba_marseille","lat":43.23169,"lon":5.39973,"is_reserved":false,"is_disabled":false,"rental_uris":{"android":"levelo://app?vid=dd9ceb88-0982-451d-a24d-2f92b1b447f4","ios":"levelo://app?vid=dd9ceb88-0982-451d-a24d-2f92b1b447f4"},"vehicle_type_id":"4","last_reported":1736144046,"current_range_meters":8000,"station_id":"ce4bhn12rcd13ifvqgqg","pricing_plan_id":"cebpf4jnsgd1na2vs0mg"},{"bike_id":"830b5d3b-cabb-4fdb-be27-c9d3d8ea9fde","system_id":"levelo_inurba_marseille","lat":43.248162,"lon":5.3746,"is_reserved":false,"is_disabled":false,"rental_uris":{"android":"levelo://app?vid=830b5d3b-cabb-4fdb-be27-c9d3d8ea9fde","ios":"levelo://app?vid=830b5d3b-cabb-4fdb-be27-c9d3d8ea9fde"},"vehicle_type_id":"4","last_reported":1736144046,"current_range_meters":35200,"station_id":"ce4bhgh2rcd13ifvqfb0","pricing_plan_id":"cebpf4jnsgd1na2vs0mg"},{"bike_id":"014411df-20bd-4572-85be-a67bda909058","system_id":"levelo_inurba_marseille","lat":43.29559,"lon":5.42284,"is_reserved":false,"is_disabled":false,"rental_uris":{"android":"levelo://app?vid=014411df-20bd-4572-85be-a67bda909058","ios":"levelo://app?vid=014411df-20bd-4572-85be-a67bda909058"},"vehicle_type_id":"4","last_reported":1736144046,"current_range_meters":12400,"station_id":"ce4bhph2rcd13ifvqhdg","pricing_plan_id":"cebpf4jnsgd1na2vs0mg"},{"bike_id":"3ea93760-c4b6-4cff-8cc2-3391799ff4b1","system_id":"levelo_inurba_marseille","lat":43.307914,"lon":5.381641,"is_reserved":false,"is_disabled":false,"rental_uris":{"android":"levelo://app?vid=3ea93760-c4b6-4cff-8cc2-3391799ff4b1","ios":"levelo://app?vid=3ea93760-c4b6-4cff-8cc2-3391799ff4b1"},"vehicle_type_id":"4","last_reported":1736144046,"current_range_meters":33200,"station_id":"ce4bgt12rcd13ifvqce0","pricing_plan_id":"cebpf4jnsgd1na2vs0mg"},{"bike_id":"8785ddf2-7225-4c15-a282-1f8baeace2a7","system_id":"levelo_inurba_marseille","lat":43.260595,"lon":5.394001,"is_reserved":false,"is_disabled":false,"rental_uris":{"android":"levelo://app?vid=8785ddf2-7225-4c15-a282-1f8baeace2a7","ios":"levelo://app?vid=8785ddf2-7225-4c15-a282-1f8baeace2a7"},"vehicle_type_id":"4","last_reported":1736144046,"current_range_meters":23200,"station_id":"ce4bhh92rcd13ifvqfj0","pricing_plan_id":"cebpf4jnsgd1na2vs0mg"},{"bike_id":"66b33574-24c6-44d6-a05a-4207c00ae305","system_id":"levelo_inurba_marseille","lat":43.310702,"lon":5.383531,"is_reserved":false,"is_disabled":false,"rental_uris":{"android":"levelo://app?vid=66b33574-24c6-44d6-a05a-4207c00ae305","ios":"levelo://app?vid=66b33574-24c6-44d6-a05a-4207c00ae305"},"vehicle_type_id":"4","last_reported":1736144046,"current_range_meters":20800,"station_id":"ce4bgv92rcd13ifvqcr0","pricing_plan_id":"cebpf4jnsgd1na2vs0mg"},{"bike_id":"a6f828f1-5f97-4da7-bf33-7d48a155db3e","system_id":"levelo_inurba_marseille","lat":43.27837,"lon":5.39194,"is_reserved":false,"is_disabled":false,"rental_uris":{"android":"levelo://app?vid=a6f828f1-5f97-4da7-bf33-7d48a155db3e","ios":"levelo://app?vid=a6f828f1-5f97-4da7-bf33-7d48a155db3e"},"vehicle_type_id":"4","last_reported":1736144046,"current_range_meters":18800,"station_id":"ce4bhjp2rcd13ifvqga0","pricing_plan_id":"cebpf4jnsgd1na2vs0mg"},{"bike_id":"a14752e9-4237-4aa7-9e60-bc816ae71a2f","system_id":"levelo_inurba_marseille","lat":43.2918,"lon":5.35812,"is_reserved":false,"is_disabled":false,"rental_uris":{"android":"levelo://app?vid=a14752e9-4237-4aa7-9e60-bc816ae71a2f","ios":"levelo://app?vid=a14752e9-4237-4aa7-9e60-bc816ae71a2f"},"vehicle_type_id":"4","last_reported":1736144046,"current_range_meters":39200,"station_id":"ce4bhb12rcd13ifvqel0","pricing_plan_id":"cebpf4jnsgd1na2vs0mg"},{"bike_id":"c0649201-bc1b-41b8-8eaf-5dc12e3a77ae","system_id":"levelo_inurba_marseille","lat":43.26935,"lon":5.38907,"is_reserved":false,"is_disabled":false,"rental_uris":{"android":"levelo://app?vid=c0649201-bc1b-41b8-8eaf-5dc12e3a77ae","ios":"levelo://app?vid=c0649201-bc1b-41b8-8eaf-5dc12e3a77ae"},"vehicle_type_id":"4","last_reported":1736144046,"current_range_meters":38000,"station_id":"ce4bhhh2rcd13ifvqfl0","pricing_plan_id":"cebpf4jnsgd1na2vs0mg"},{"bike_id":"f122e831-c7ed-4542-9b1c-c7235e984a7a","system_id":"levelo_inurba_marseille","lat":43.28618,"lon":5.35096,"is_reserved":false,"is_disabled":false,"rental_uris":{"android":"levelo://app?vid=f122e831-c7ed-4542-9b1c-c7235e984a7a","ios":"levelo://app?vid=f122e831-c7ed-4542-9b1c-c7235e984a7a"},"vehicle_type_id":"4","last_reported":1736144046,"current_range_meters":36000,"station_id":"ce4bhch2rcd13ifvqeug","pricing_plan_id":"cebpf4jnsgd1na2vs0mg"},{"bike_id":"debe4c5f-4743-4cfb-88bd-9bd4502d24d0","system_id":"levelo_inurba_marseille","lat":43.29701,"lon":5.36621,"is_reserved":false,"is_disabled":false,"rental_uris":{"android":"levelo://app?vid=debe4c5f-4743-4cfb-88bd-9bd4502d24d0","ios":"levelo://app?vid=debe4c5f-4743-4cfb-88bd-9bd4502d24d0"},"vehicle_type_id":"4","last_reported":1736144046,"current_range_meters":9200,"station_id":"ce4bgn12rcd13ifvqbt0","pricing_plan_id":"cebpf4jnsgd1na2vs0mg"},{"bike_id":"f5f2d3f5-3bbb-4c59-9777-6110c51980fa","system_id":"levelo_inurba_marseille","lat":43.24653,"lon":5.38891,"is_reserved":false,"is_disabled":false,"rental_uris":{"android":"levelo://app?vid=f5f2d3f5-3bbb-4c59-9777-6110c51980fa","ios":"levelo://app?vid=f5f2d3f5-3bbb-4c59-9777-6110c51980fa"},"vehicle_type_id":"4","last_reported":1736144046,"current_range_meters":34000,"station_id":"ce4bhg12rcd13ifvqf60","pricing_plan_id":"cebpf4jnsgd1na2vs0mg"},{"bike_id":"05215e21-878e-438e-ac42-e01393afee99","system_id":"levelo_inurba_marseille","lat":43.30956,"lon":5.39028,"is_reserved":false,"is_disabled":false,"rental_uris":{"android":"levelo://app?vid=05215e21-878e-438e-ac42-e01393afee99","ios":"levelo://app?vid=05215e21-878e-438e-ac42-e01393afee99"},"vehicle_type_id":"4","last_reported":1736144046,"current_range_meters":24800,"station_id":"ce4bgup2rcd13ifvqco0","pricing_plan_id":"cebpf4jnsgd1na2vs0mg"},{"bike_id":"aaee115f-ba6f-4b16-a66a-8dd30ccab7f7","system_id":"levelo_inurba_marseille","lat":43.289438,"lon":5.364109,"is_reserved":false,"is_disabled":false,"rental_uris":{"android":"levelo://app?vid=aaee115f-ba6f-4b16-a66a-8dd30ccab7f7","ios":"levelo://app?vid=aaee115f-ba6f-4b16-a66a-8dd30ccab7f7"},"vehicle_type_id":"4","last_reported":1736144046,"current_range_meters":17600,"station_id":"ce4bhc92rcd13ifvqetg","pricing_plan_id":"cebpf4jnsgd1na2vs0mg"},{"bike_id":"f4dc4c8b-b100-4ed9-834b-1843bd63cff1","system_id":"levelo_inurba_marseille","lat":43.287247,"lon":5.360915,"is_reserved":false,"is_disabled":false,"rental_uris":{"android":"levelo://app?vid=f4dc4c8b-b100-4ed9-834b-1843bd63cff1","ios":"levelo://app?vid=f4dc4c8b-b100-4ed9-834b-1843bd63cff1"},"vehicle_type_id":"4","last_reported":1736144046,"current_range_meters":38800,"station_id":"cki0cbj6b192h4jlfktg","pricing_plan_id":"cebpf4jnsgd1na2vs0mg"},{"bike_id":"6a595de3-0911-46a9-bdbf-4cca5437105e","system_id":"levelo_inurba_marseille","lat":43.231943,"lon":5.355457,"is_reserved":false,"is_disabled":false,"rental_uris":{"android":"levelo://app?vid=6a595de3-0911-46a9-bdbf-4cca5437105e","ios":"levelo://app?vid=6a595de3-0911-46a9-bdbf-4cca5437105e"},"vehicle_type_id":"4","last_reported":1736144046,"current_range_meters":22800,"station_id":"ce4bhu92rcd13ifvqi70","pricing_plan_id":"cebpf4jnsgd1na2vs0mg"},{"bike_id":"641d8acc-50b2-4173-ab23-c70f2a11d28e","system_id":"levelo_inurba_marseille","lat":43.28161,"lon":5.42633,"is_reserved":false,"is_disabled":true,"rental_uris":{"android":"levelo://app?vid=641d8acc-50b2-4173-ab23-c70f2a11d28e","ios":"levelo://app?vid=641d8acc-50b2-4173-ab23-c70f2a11d28e"},"vehicle_type_id":"4","last_reported":1736144046,"current_range_meters":28800,"station_id":"ce4bhnh2rcd13ifvqgug","pricing_plan_id":"cebpf4jnsgd1na2vs0mg"},{"bike_id":"5e1410a8-2898-4c41-8f96-f8d8591cd1e8","system_id":"levelo_inurba_marseille","lat":43.28455,"lon":5.39203,"is_reserved":false,"is_disabled":false,"rental_uris":{"android":"levelo://app?vid=5e1410a8-2898-4c41-8f96-f8d8591cd1e8","ios":"levelo://app?vid=5e1410a8-2898-4c41-8f96-f8d8591cd1e8"},"vehicle_type_id":"4","last_reported":1736144046,"current_range_meters":34000,"station_id":"ce4bhoh2rcd13ifvqh5g","pricing_plan_id":"cebpf4jnsgd1na2vs0mg"},{"bike_id":"15e503f5-1d52-42d6-a98f-33a61fd8b554","system_id":"levelo_inurba_marseille","lat":43.28464,"lon":5.35887,"is_reserved":false,"is_disabled":true,"rental_uris":{"android":"levelo://app?vid=15e503f5-1d52-42d6-a98f-33a61fd8b554","ios":"levelo://app?vid=15e503f5-1d52-42d6-a98f-33a61fd8b554"},"vehicle_type_id":"4","last_reported":1736144046,"current_range_meters":23200,"station_id":"ce4bhah2rcd13ifvqei0","pricing_plan_id":"cebpf4jnsgd1na2vs0mg"},{"bike_id":"6a6cde56-543d-4320-b530-a8d4d4944794","system_id":"levelo_inurba_marseille","lat":43.29903,"lon":5.43671,"is_reserved":false,"is_disabled":false,"rental_uris":{"android":"levelo://app?vid=6a6cde56-543d-4320-b530-a8d4d4944794","ios":"levelo://app?vid=6a6cde56-543d-4320-b530-a8d4d4944794"},"vehicle_type_id":"4","last_reported":1736144046,"current_range_meters":25600,"station_id":"ce4bhpp2rcd13ifvqhfg","pricing_plan_id":"cebpf4jnsgd1na2vs0mg"},{"bike_id":"4a1d5dab-484e-4068-b3c0-ab56856350fa","system_id":"levelo_inurba_marseille","lat":43.32366,"lon":5.38879,"is_reserved":false,"is_disabled":false,"rental_uris":{"android":"levelo://app?vid=4a1d5dab-484e-4068-b3c0-ab56856350fa","ios":"levelo://app?vid=4a1d5dab-484e-4068-b3c0-ab56856350fa"},"vehicle_type_id":"4","last_reported":1736144046,"current_range_meters":38400,"station_id":"ce4bhqp2rcd13ifvqhog","pricing_plan_id":"cebpf4jnsgd1na2vs0mg"},{"bike_id":"88fbd2f9-edba-4674-927d-ce8a9c56a0e7","system_id":"levelo_inurba_marseille","lat":43.28134,"lon":5.42649,"is_reserved":false,"is_disabled":false,"rental_uris":{"android":"levelo://app?vid=88fbd2f9-edba-4674-927d-ce8a9c56a0e7","ios":"levelo://app?vid=88fbd2f9-edba-4674-927d-ce8a9c56a0e7"},"vehicle_type_id":"4","last_reported":1736144046,"current_range_meters":28800,"station_id":"ce4bhnh2rcd13ifvqgug","pricing_plan_id":"cebpf4jnsgd1na2vs0mg"},{"bike_id":"bd609247-c05b-4bfd-8224-3974e4956916","system_id":"levelo_inurba_marseille","lat":43.30903,"lon":5.36853,"is_reserved":false,"is_disabled":true,"rental_uris":{"android":"levelo://app?vid=bd609247-c05b-4bfd-8224-3974e4956916","ios":"levelo://app?vid=bd609247-c05b-4bfd-8224-3974e4956916"},"vehicle_type_id":"4","last_reported":1736144046,"current_range_meters":28800,"station_id":"ce4bgn92rcd13ifvqbvg","pricing_plan_id":"cebpf4jnsgd1na2vs0mg"},{"bike_id":"c350e80b-13c8-4219-b4ba-37b6a9d2c429","system_id":"levelo_inurba_marseille","lat":43.30319,"lon":5.39263,"is_reserved":false,"is_disabled":false,"rental_uris":{"android":"levelo://app?vid=c350e80b-13c8-4219-b4ba-37b6a9d2c429","ios":"levelo://app?vid=c350e80b-13c8-4219-b4ba-37b6a9d2c429"},"vehicle_type_id":"4","last_reported":1736144046,"current_range_meters":24800,"station_id":"ce4bgkh2rcd13ifvqbk0","pricing_plan_id":"cebpf4jnsgd1na2vs0mg"},{"bike_id":"1d0bbe0f-f700-4582-ac8d-9f2887749fbf","system_id":"levelo_inurba_marseille","lat":43.28488,"lon":5.38438,"is_reserved":false,"is_disabled":true,"rental_uris":{"android":"levelo://app?vid=1d0bbe0f-f700-4582-ac8d-9f2887749fbf","ios":"levelo://app?vid=1d0bbe0f-f700-4582-ac8d-9f2887749fbf"},"vehicle_type_id":"4","last_reported":1736144046,"current_range_meters":38400,"station_id":"ce4bh512rcd13ifvqe3g","pricing_plan_id":"cebpf4jnsgd1na2vs0mg"},{"bike_id":"2631e358-029e-480f-b803-303a60df89fa","system_id":"levelo_inurba_marseille","lat":43.29029,"lon":5.35925,"is_reserved":false,"is_disabled":false,"rental_uris":{"android":"levelo://app?vid=2631e358-029e-480f-b803-303a60df89fa","ios":"levelo://app?vid=2631e358-029e-480f-b803-303a60df89fa"},"vehicle_type_id":"4","last_reported":1736144046,"current_range_meters":38800,"station_id":"ce4bha92rcd13ifvqeg0","pricing_plan_id":"cebpf4jnsgd1na2vs0mg"},{"bike_id":"152868db-856f-4e6c-8fb6-ccf4c29a87ed","system_id":"levelo_inurba_marseille","lat":43.279888,"lon":5.416621,"is_reserved":false,"is_disabled":false,"rental_uris":{"android":"levelo://app?vid=152868db-856f-4e6c-8fb6-ccf4c29a87ed","ios":"levelo://app?vid=152868db-856f-4e6c-8fb6-ccf4c29a87ed"},"vehicle_type_id":"4","last_reported":1736144046,"current_range_meters":34800,"station_id":"ce4bho12rcd13ifvqh1g","pricing_plan_id":"cebpf4jnsgd1na2vs0mg"},{"bike_id":"cc2efdd1-beaf-4fd4-918b-092fd4e8fead","system_id":"levelo_inurba_marseille","lat":43.24179,"lon":5.39727,"is_reserved":false,"is_disabled":false,"rental_uris":{"android":"levelo://app?vid=cc2efdd1-beaf-4fd4-918b-092fd4e8fead","ios":"levelo://app?vid=cc2efdd1-beaf-4fd4-918b-092fd4e8fead"},"vehicle_type_id":"4","last_reported":1736144046,"current_range_meters":17200,"station_id":"ce4bhn12rcd13ifvqgpg","pricing_plan_id":"cebpf4jnsgd1na2vs0mg"},{"bike_id":"8d515d4e-b12d-4e7e-8357-ec6df663e249","system_id":"levelo_inurba_marseille","lat":43.30463,"lon":5.37901,"is_reserved":false,"is_disabled":false,"rental_uris":{"android":"levelo://app?vid=8d515d4e-b12d-4e7e-8357-ec6df663e249","ios":"levelo://app?vid=8d515d4e-b12d-4e7e-8357-ec6df663e249"},"vehicle_type_id":"4","last_reported":1736144046,"current_range_meters":24800,"station_id":"ce4bgup2rcd13ifvqcn0","pricing_plan_id":"cebpf4jnsgd1na2vs0mg"},{"bike_id":"c80cec36-d313-41ad-bf5e-908a22a7fd56","system_id":"levelo_inurba_marseille","lat":43.24073,"lon":5.37753,"is_reserved":false,"is_disabled":false,"rental_uris":{"android":"levelo://app?vid=c80cec36-d313-41ad-bf5e-908a22a7fd56","ios":"levelo://app?vid=c80cec36-d313-41ad-bf5e-908a22a7fd56"},"vehicle_type_id":"4","last_reported":1736144046,"current_range_meters":14800,"station_id":"ce4bhnp2rcd13ifvqgvg","pricing_plan_id":"cebpf4jnsgd1na2vs0mg"},{"bike_id":"237eb7a7-7331-4631-9377-6cdbdc6e4e98","system_id":"levelo_inurba_marseille","lat":43.265554,"lon":5.390073,"is_reserved":false,"is_disabled":true,"rental_uris":{"android":"levelo://app?vid=237eb7a7-7331-4631-9377-6cdbdc6e4e98","ios":"levelo://app?vid=237eb7a7-7331-4631-9377-6cdbdc6e4e98"},"vehicle_type_id":"4","last_reported":1736144046,"current_range_meters":36800,"station_id":"ce4bhe12rcd13ifvqf30","pricing_plan_id":"cebpf4jnsgd1na2vs0mg"},{"bike_id":"eba3cd62-ef6f-400c-a7e6-496161a25851","system_id":"levelo_inurba_marseille","lat":43.27567,"lon":5.38417,"is_reserved":false,"is_disabled":false,"rental_uris":{"android":"levelo://app?vid=eba3cd62-ef6f-400c-a7e6-496161a25851","ios":"levelo://app?vid=eba3cd62-ef6f-400c-a7e6-496161a25851"},"vehicle_type_id":"4","last_reported":1736144046,"current_range_meters":38000,"station_id":"ce4bhh92rcd13ifvqfi0","pricing_plan_id":"cebpf4jnsgd1na2vs0mg"},{"bike_id":"6268d7ad-3df4-4644-99f7-20ac166db2ca","system_id":"levelo_inurba_marseille","lat":43.29786,"lon":5.39349,"is_reserved":false,"is_disabled":false,"rental_uris":{"android":"levelo://app?vid=6268d7ad-3df4-4644-99f7-20ac166db2ca","ios":"levelo://app?vid=6268d7ad-3df4-4644-99f7-20ac166db2ca"},"vehicle_type_id":"4","last_reported":1736144046,"current_range_meters":38800,"station_id":"chh1huq6cuj3fo74tm60","pricing_plan_id":"cebpf4jnsgd1na2vs0mg"},{"bike_id":"983a939f-0c90-4b41-8e07-1ba37a328643","system_id":"levelo_inurba_marseille","lat":43.24167,"lon":5.36389,"is_reserved":false,"is_disabled":false,"rental_uris":{"android":"levelo://app?vid=983a939f-0c90-4b41-8e07-1ba37a328643","ios":"levelo://app?vid=983a939f-0c90-4b41-8e07-1ba37a328643"},"vehicle_type_id":"4","last_reported":1736144046,"current_range_meters":17200,"station_id":"cpo36qri1sfpv3e86is0","pricing_plan_id":"cebpf4jnsgd1na2vs0mg"},{"bike_id":"e92918ec-92c9-453f-8a2f-aeaed83ac5fd","system_id":"levelo_inurba_marseille","lat":43.240736,"lon":5.377404,"is_reserved":false,"is_disabled":false,"rental_uris":{"android":"levelo://app?vid=e92918ec-92c9-453f-8a2f-aeaed83ac5fd","ios":"levelo://app?vid=e92918ec-92c9-453f-8a2f-aeaed83ac5fd"},"vehicle_type_id":"4","last_reported":1736144046,"current_range_meters":38000,"station_id":"ce4bhnp2rcd13ifvqgvg","pricing_plan_id":"cebpf4jnsgd1na2vs0mg"},{"bike_id":"ba5b40ed-3814-49d1-83cb-e27f1caea548","system_id":"levelo_inurba_marseille","lat":43.25719,"lon":5.41112,"is_reserved":false,"is_disabled":false,"rental_uris":{"android":"levelo://app?vid=ba5b40ed-3814-49d1-83cb-e27f1caea548","ios":"levelo://app?vid=ba5b40ed-3814-49d1-83cb-e27f1caea548"},"vehicle_type_id":"4","last_reported":1736144046,"current_range_meters":9600,"station_id":"ce4bhkp2rcd13ifvqgd0","pricing_plan_id":"cebpf4jnsgd1na2vs0mg"},{"bike_id":"1e496b87-3da6-4263-a745-4081c8209b32","system_id":"levelo_inurba_marseille","lat":43.2919,"lon":5.358,"is_reserved":false,"is_disabled":false,"rental_uris":{"android":"levelo://app?vid=1e496b87-3da6-4263-a745-4081c8209b32","ios":"levelo://app?vid=1e496b87-3da6-4263-a745-4081c8209b32"},"vehicle_type_id":"4","last_reported":1736144046,"current_range_meters":37600,"station_id":"ce4bhb12rcd13ifvqel0","pricing_plan_id":"cebpf4jnsgd1na2vs0mg"},{"bike_id":"794820a8-3ae3-4e47-b94b-63ea56986ff5","system_id":"levelo_inurba_marseille","lat":43.29538,"lon":5.42295,"is_reserved":false,"is_disabled":false,"rental_uris":{"android":"levelo://app?vid=794820a8-3ae3-4e47-b94b-63ea56986ff5","ios":"levelo://app?vid=794820a8-3ae3-4e47-b94b-63ea56986ff5"},"vehicle_type_id":"4","last_reported":1736144046,"current_range_meters":18000,"station_id":"ce4bhph2rcd13ifvqhdg","pricing_plan_id":"cebpf4jnsgd1na2vs0mg"},{"bike_id":"050c8547-701b-4653-a21b-d4d7c02a87ef","system_id":"levelo_inurba_marseille","lat":43.239629,"lon":5.366444,"is_reserved":false,"is_disabled":false,"rental_uris":{"android":"levelo://app?vid=050c8547-701b-4653-a21b-d4d7c02a87ef","ios":"levelo://app?vid=050c8547-701b-4653-a21b-d4d7c02a87ef"},"vehicle_type_id":"4","last_reported":1736144046,"current_range_meters":26000,"station_id":"ce4bhi12rcd13ifvqfp0","pricing_plan_id":"cebpf4jnsgd1na2vs0mg"},{"bike_id":"90066fd0-2da5-4c7c-9f7e-f7f04e357bab","system_id":"levelo_inurba_marseille","lat":43.30661,"lon":5.40048,"is_reserved":false,"is_disabled":false,"rental_uris":{"android":"levelo://app?vid=90066fd0-2da5-4c7c-9f7e-f7f04e357bab","ios":"levelo://app?vid=90066fd0-2da5-4c7c-9f7e-f7f04e357bab"},"vehicle_type_id":"4","last_reported":1736144046,"current_range_meters":38400,"station_id":"ce4bh112rcd13ifvqda0","pricing_plan_id":"cebpf4jnsgd1na2vs0mg"},{"bike_id":"e6af462e-a797-41e4-90cd-7e71587eba6d","system_id":"levelo_inurba_marseille","lat":43.25114,"lon":5.40345,"is_reserved":false,"is_disabled":false,"rental_uris":{"android":"levelo://app?vid=e6af462e-a797-41e4-90cd-7e71587eba6d","ios":"levelo://app?vid=e6af462e-a797-41e4-90cd-7e71587eba6d"},"vehicle_type_id":"4","last_reported":1736144046,"current_range_meters":18000,"station_id":"ce4bhlh2rcd13ifvqgig","pricing_plan_id":"cebpf4jnsgd1na2vs0mg"},{"bike_id":"2ad19bf8-d3c1-4ef3-aacb-207e0f367ded","system_id":"levelo_inurba_marseille","lat":43.27938,"lon":5.41042,"is_reserved":false,"is_disabled":false,"rental_uris":{"android":"levelo://app?vid=2ad19bf8-d3c1-4ef3-aacb-207e0f367ded","ios":"levelo://app?vid=2ad19bf8-d3c1-4ef3-aacb-207e0f367ded"},"vehicle_type_id":"4","last_reported":1736144046,"current_range_meters":38800,"station_id":"ce4bhnp2rcd13ifvqh0g","pricing_plan_id":"cebpf4jnsgd1na2vs0mg"},{"bike_id":"cca2f7c7-45e7-4f8a-80d9-cffca2b70c93","system_id":"levelo_inurba_marseille","lat":43.26686,"lon":5.3829,"is_reserved":false,"is_disabled":true,"rental_uris":{"android":"levelo://app?vid=cca2f7c7-45e7-4f8a-80d9-cffca2b70c93","ios":"levelo://app?vid=cca2f7c7-45e7-4f8a-80d9-cffca2b70c93"},"vehicle_type_id":"4","last_reported":1736144046,"current_range_meters":36800,"station_id":"ce4bhg92rcd13ifvqf90","pricing_plan_id":"cebpf4jnsgd1na2vs0mg"},{"bike_id":"773945ae-dd4d-481d-819e-1f5b2e8fdb8a","system_id":"levelo_inurba_marseille","lat":43.29214,"lon":5.36086,"is_reserved":false,"is_disabled":false,"rental_uris":{"android":"levelo://app?vid=773945ae-dd4d-481d-819e-1f5b2e8fdb8a","ios":"levelo://app?vid=773945ae-dd4d-481d-819e-1f5b2e8fdb8a"},"vehicle_type_id":"4","last_reported":1736144046,"current_range_meters":36400,"station_id":"ce4bhbh2rcd13ifvqeqg","pricing_plan_id":"cebpf4jnsgd1na2vs0mg"},{"bike_id":"dc9bc3db-f797-43ce-9d3b-2eb28ec14817","system_id":"levelo_inurba_marseille","lat":43.29036,"lon":5.35577,"is_reserved":false,"is_disabled":false,"rental_uris":{"android":"levelo://app?vid=dc9bc3db-f797-43ce-9d3b-2eb28ec14817","ios":"levelo://app?vid=dc9bc3db-f797-43ce-9d3b-2eb28ec14817"},"vehicle_type_id":"4","last_reported":1736144046,"current_range_meters":38000,"station_id":"ce4bhb92rcd13ifvqen0","pricing_plan_id":"cebpf4jnsgd1na2vs0mg"},{"bike_id":"ae75911a-b0bb-4e4d-94f0-7de7971b6816","system_id":"levelo_inurba_marseille","lat":43.24391,"lon":5.3706,"is_reserved":false,"is_disabled":false,"rental_uris":{"android":"levelo://app?vid=ae75911a-b0bb-4e4d-94f0-7de7971b6816","ios":"levelo://app?vid=ae75911a-b0bb-4e4d-94f0-7de7971b6816"},"vehicle_type_id":"4","last_reported":1736144046,"current_range_meters":38800,"station_id":"ce4bhhh2rcd13ifvqfk0","pricing_plan_id":"cebpf4jnsgd1na2vs0mg"},{"bike_id":"de61784b-9926-4849-b558-4384f26dad49","system_id":"levelo_inurba_marseille","lat":43.28478,"lon":5.38446,"is_reserved":false,"is_disabled":true,"rental_uris":{"android":"levelo://app?vid=de61784b-9926-4849-b558-4384f26dad49","ios":"levelo://app?vid=de61784b-9926-4849-b558-4384f26dad49"},"vehicle_type_id":"4","last_reported":1736144046,"current_range_meters":38000,"station_id":"ce4bh512rcd13ifvqe3g","pricing_plan_id":"cebpf4jnsgd1na2vs0mg"},{"bike_id":"3ed1aa83-d08e-4055-ab7d-3532be6b03a0","system_id":"levelo_inurba_marseille","lat":43.25722,"lon":5.41107,"is_reserved":false,"is_disabled":false,"rental_uris":{"android":"levelo://app?vid=3ed1aa83-d08e-4055-ab7d-3532be6b03a0","ios":"levelo://app?vid=3ed1aa83-d08e-4055-ab7d-3532be6b03a0"},"vehicle_type_id":"4","last_reported":1736144046,"current_range_meters":21600,"station_id":"ce4bhkp2rcd13ifvqgd0","pricing_plan_id":"cebpf4jnsgd1na2vs0mg"},{"bike_id":"182c8827-ad8b-4aa6-9862-5b2da55309dc","system_id":"levelo_inurba_marseille","lat":43.2922,"lon":5.36053,"is_reserved":false,"is_disabled":true,"rental_uris":{"android":"levelo://app?vid=182c8827-ad8b-4aa6-9862-5b2da55309dc","ios":"levelo://app?vid=182c8827-ad8b-4aa6-9862-5b2da55309dc"},"vehicle_type_id":"4","last_reported":1736144046,"current_range_meters":36400,"station_id":"ce4bhbh2rcd13ifvqeqg","pricing_plan_id":"cebpf4jnsgd1na2vs0mg"},{"bike_id":"40bfa82c-28b0-45f9-94a4-7ea656577cf2","system_id":"levelo_inurba_marseille","lat":43.29202,"lon":5.39314,"is_reserved":false,"is_disabled":false,"rental_uris":{"android":"levelo://app?vid=40bfa82c-28b0-45f9-94a4-7ea656577cf2","ios":"levelo://app?vid=40bfa82c-28b0-45f9-94a4-7ea656577cf2"},"vehicle_type_id":"4","last_reported":1736144046,"current_range_meters":38800,"station_id":"ce4bh192rcd13ifvqdd0","pricing_plan_id":"cebpf4jnsgd1na2vs0mg"},{"bike_id":"d8b76d84-2dfc-400f-9630-9e7b0787e9cc","system_id":"levelo_inurba_marseille","lat":43.27501,"lon":5.42454,"is_reserved":false,"is_disabled":true,"rental_uris":{"android":"levelo://app?vid=d8b76d84-2dfc-400f-9630-9e7b0787e9cc","ios":"levelo://app?vid=d8b76d84-2dfc-400f-9630-9e7b0787e9cc"},"vehicle_type_id":"4","last_reported":1736144046,"current_range_meters":37600,"station_id":"ce4bhn92rcd13ifvqgrg","pricing_plan_id":"cebpf4jnsgd1na2vs0mg"},{"bike_id":"d4a9d3db-0cbc-4e84-8afc-afe48b86587f","system_id":"levelo_inurba_marseille","lat":43.2408,"lon":5.37739,"is_reserved":false,"is_disabled":false,"rental_uris":{"android":"levelo://app?vid=d4a9d3db-0cbc-4e84-8afc-afe48b86587f","ios":"levelo://app?vid=d4a9d3db-0cbc-4e84-8afc-afe48b86587f"},"vehicle_type_id":"4","last_reported":1736144046,"current_range_meters":10000,"station_id":"ce4bhnp2rcd13ifvqgvg","pricing_plan_id":"cebpf4jnsgd1na2vs0mg"},{"bike_id":"e992c03b-ca7d-4792-921d-691c68548edd","system_id":"levelo_inurba_marseille","lat":43.289333,"lon":5.364005,"is_reserved":false,"is_disabled":false,"rental_uris":{"android":"levelo://app?vid=e992c03b-ca7d-4792-921d-691c68548edd","ios":"levelo://app?vid=e992c03b-ca7d-4792-921d-691c68548edd"},"vehicle_type_id":"4","last_reported":1736144046,"current_range_meters":38000,"station_id":"ce4bhc92rcd13ifvqetg","pricing_plan_id":"cebpf4jnsgd1na2vs0mg"},{"bike_id":"8bacdaca-b499-4837-9d6b-73ff9ef5b0d7","system_id":"levelo_inurba_marseille","lat":43.305025,"lon":5.380916,"is_reserved":false,"is_disabled":false,"rental_uris":{"android":"levelo://app?vid=8bacdaca-b499-4837-9d6b-73ff9ef5b0d7","ios":"levelo://app?vid=8bacdaca-b499-4837-9d6b-73ff9ef5b0d7"},"vehicle_type_id":"4","last_reported":1736144046,"current_range_meters":29600,"station_id":"","pricing_plan_id":"cebpf4jnsgd1na2vs0mg"},{"bike_id":"f0df7c86-b68f-4046-92e2-b2fcd0d35b41","system_id":"levelo_inurba_marseille","lat":43.28937,"lon":5.3663,"is_reserved":false,"is_disabled":false,"rental_uris":{"android":"levelo://app?vid=f0df7c86-b68f-4046-92e2-b2fcd0d35b41","ios":"levelo://app?vid=f0df7c86-b68f-4046-92e2-b2fcd0d35b41"},"vehicle_type_id":"4","last_reported":1736144046,"current_range_meters":28000,"station_id":"ce4bhap2rcd13ifvqek0","pricing_plan_id":"cebpf4jnsgd1na2vs0mg"},{"bike_id":"3615c4a8-839e-424d-971f-0ec5edfc8084","system_id":"levelo_inurba_marseille","lat":43.25137,"lon":5.40346,"is_reserved":false,"is_disabled":false,"rental_uris":{"android":"levelo://app?vid=3615c4a8-839e-424d-971f-0ec5edfc8084","ios":"levelo://app?vid=3615c4a8-839e-424d-971f-0ec5edfc8084"},"vehicle_type_id":"4","last_reported":1736144046,"current_range_meters":13600,"station_id":"ce4bhlh2rcd13ifvqgig","pricing_plan_id":"cebpf4jnsgd1na2vs0mg"},{"bike_id":"bacd7571-be15-43c7-8506-8086a631a213","system_id":"levelo_inurba_marseille","lat":43.25127,"lon":5.40328,"is_reserved":false,"is_disabled":false,"rental_uris":{"android":"levelo://app?vid=bacd7571-be15-43c7-8506-8086a631a213","ios":"levelo://app?vid=bacd7571-be15-43c7-8506-8086a631a213"},"vehicle_type_id":"4","last_reported":1736144046,"current_range_meters":38000,"station_id":"ce4bhlh2rcd13ifvqgig","pricing_plan_id":"cebpf4jnsgd1na2vs0mg"},{"bike_id":"76d1f3ad-7922-4f8a-8405-15108b9500fb","system_id":"levelo_inurba_marseille","lat":43.29709,"lon":5.36611,"is_reserved":false,"is_disabled":false,"rental_uris":{"android":"levelo://app?vid=76d1f3ad-7922-4f8a-8405-15108b9500fb","ios":"levelo://app?vid=76d1f3ad-7922-4f8a-8405-15108b9500fb"},"vehicle_type_id":"4","last_reported":1736144046,"current_range_meters":38800,"station_id":"ce4bgn12rcd13ifvqbt0","pricing_plan_id":"cebpf4jnsgd1na2vs0mg"},{"bike_id":"ff78e1f1-bcb8-4182-b9b1-5ab83eb2de66","system_id":"levelo_inurba_marseille","lat":43.3133,"lon":5.39701,"is_reserved":false,"is_disabled":false,"rental_uris":{"android":"levelo://app?vid=ff78e1f1-bcb8-4182-b9b1-5ab83eb2de66","ios":"levelo://app?vid=ff78e1f1-bcb8-4182-b9b1-5ab83eb2de66"},"vehicle_type_id":"4","last_reported":1736144046,"current_range_meters":38800,"station_id":"ce4bgvp2rcd13ifvqcu0","pricing_plan_id":"cebpf4jnsgd1na2vs0mg"},{"bike_id":"ea0bf760-5ebe-42ea-9b3d-1899441dca38","system_id":"levelo_inurba_marseille","lat":43.28831,"lon":5.39336,"is_reserved":false,"is_disabled":false,"rental_uris":{"android":"levelo://app?vid=ea0bf760-5ebe-42ea-9b3d-1899441dca38","ios":"levelo://app?vid=ea0bf760-5ebe-42ea-9b3d-1899441dca38"},"vehicle_type_id":"4","last_reported":1736144046,"current_range_meters":36800,"station_id":"ce4bh2p2rcd13ifvqdi0","pricing_plan_id":"cebpf4jnsgd1na2vs0mg"},{"bike_id":"24bccac7-1e4b-45e8-bc23-0feeff5509f0","system_id":"levelo_inurba_marseille","lat":43.264957,"lon":5.395495,"is_reserved":false,"is_disabled":true,"rental_uris":{"android":"levelo://app?vid=24bccac7-1e4b-45e8-bc23-0feeff5509f0","ios":"levelo://app?vid=24bccac7-1e4b-45e8-bc23-0feeff5509f0"},"vehicle_type_id":"4","last_reported":1736144046,"current_range_meters":0,"station_id":"ce4bhi12rcd13ifvqfq0","pricing_plan_id":"cebpf4jnsgd1na2vs0mg"},{"bike_id":"a5cf8e40-6726-4c4e-8206-4d503c5c86a7","system_id":"levelo_inurba_marseille","lat":43.3039,"lon":5.36837,"is_reserved":false,"is_disabled":false,"rental_uris":{"android":"levelo://app?vid=a5cf8e40-6726-4c4e-8206-4d503c5c86a7","ios":"levelo://app?vid=a5cf8e40-6726-4c4e-8206-4d503c5c86a7"},"vehicle_type_id":"4","last_reported":1736144046,"current_range_meters":32800,"station_id":"","pricing_plan_id":"cebpf4jnsgd1na2vs0mg"},{"bike_id":"d400eb61-16e5-4772-875c-c1ea2e3b188d","system_id":"levelo_inurba_marseille","lat":43.27659,"lon":5.38937,"is_reserved":false,"is_disabled":false,"rental_uris":{"android":"levelo://app?vid=d400eb61-16e5-4772-875c-c1ea2e3b188d","ios":"levelo://app?vid=d400eb61-16e5-4772-875c-c1ea2e3b188d"},"vehicle_type_id":"4","last_reported":1736144046,"current_range_meters":38400,"station_id":"","pricing_plan_id":"cebpf4jnsgd1na2vs0mg"},{"bike_id":"b11585d7-076e-4c68-968e-8bf6b6834abc","system_id":"levelo_inurba_marseille","lat":43.298557,"lon":5.385352,"is_reserved":false,"is_disabled":false,"rental_uris":{"android":"levelo://app?vid=b11585d7-076e-4c68-968e-8bf6b6834abc","ios":"levelo://app?vid=b11585d7-076e-4c68-968e-8bf6b6834abc"},"vehicle_type_id":"4","last_reported":1736144046,"current_range_meters":38400,"station_id":"","pricing_plan_id":"cebpf4jnsgd1na2vs0mg"},{"bike_id":"cffd017d-8541-4adb-92a2-b3ad33d37f2a","system_id":"levelo_inurba_marseille","lat":43.29269,"lon":5.40139,"is_reserved":false,"is_disabled":false,"rental_uris":{"android":"levelo://app?vid=cffd017d-8541-4adb-92a2-b3ad33d37f2a","ios":"levelo://app?vid=cffd017d-8541-4adb-92a2-b3ad33d37f2a"},"vehicle_type_id":"4","last_reported":1736144046,"current_range_meters":38400,"station_id":"ce4bh312rcd13ifvqdk0","pricing_plan_id":"cebpf4jnsgd1na2vs0mg"},{"bike_id":"55eb4f9e-055d-45a9-a404-9e0d3a07a877","system_id":"levelo_inurba_marseille","lat":43.292538,"lon":5.401403,"is_reserved":false,"is_disabled":true,"rental_uris":{"android":"levelo://app?vid=55eb4f9e-055d-45a9-a404-9e0d3a07a877","ios":"levelo://app?vid=55eb4f9e-055d-45a9-a404-9e0d3a07a877"},"vehicle_type_id":"4","last_reported":1736144046,"current_range_meters":0,"station_id":"ce4bh312rcd13ifvqdk0","pricing_plan_id":"cebpf4jnsgd1na2vs0mg"},{"bike_id":"c4036580-79e3-4a2d-ad16-300064623c44","system_id":"levelo_inurba_marseille","lat":43.25734,"lon":5.41087,"is_reserved":false,"is_disabled":false,"rental_uris":{"android":"levelo://app?vid=c4036580-79e3-4a2d-ad16-300064623c44","ios":"levelo://app?vid=c4036580-79e3-4a2d-ad16-300064623c44"},"vehicle_type_id":"4","last_reported":1736144046,"current_range_meters":19600,"station_id":"ce4bhkp2rcd13ifvqgd0","pricing_plan_id":"cebpf4jnsgd1na2vs0mg"},{"bike_id":"177c1e4d-2fcb-4b52-a3bf-88a2132c12b4","system_id":"levelo_inurba_marseille","lat":43.28705,"lon":5.3738,"is_reserved":false,"is_disabled":true,"rental_uris":{"android":"levelo://app?vid=177c1e4d-2fcb-4b52-a3bf-88a2132c12b4","ios":"levelo://app?vid=177c1e4d-2fcb-4b52-a3bf-88a2132c12b4"},"vehicle_type_id":"4","last_reported":1736144046,"current_range_meters":0,"station_id":"ce4bh3p2rcd13ifvqdq0","pricing_plan_id":"cebpf4jnsgd1na2vs0mg"},{"bike_id":"d45d0089-5e8c-41ac-a04c-9866c8dc94cc","system_id":"levelo_inurba_marseille","lat":43.23203,"lon":5.35547,"is_reserved":false,"is_disabled":false,"rental_uris":{"android":"levelo://app?vid=d45d0089-5e8c-41ac-a04c-9866c8dc94cc","ios":"levelo://app?vid=d45d0089-5e8c-41ac-a04c-9866c8dc94cc"},"vehicle_type_id":"4","last_reported":1736144046,"current_range_meters":8800,"station_id":"ce4bhu92rcd13ifvqi70","pricing_plan_id":"cebpf4jnsgd1na2vs0mg"},{"bike_id":"fb67626b-3e24-428c-900f-1b5768f016c2","system_id":"levelo_inurba_marseille","lat":43.31752,"lon":5.39005,"is_reserved":false,"is_disabled":false,"rental_uris":{"android":"levelo://app?vid=fb67626b-3e24-428c-900f-1b5768f016c2","ios":"levelo://app?vid=fb67626b-3e24-428c-900f-1b5768f016c2"},"vehicle_type_id":"4","last_reported":1736144046,"current_range_meters":38800,"station_id":"ce4bhqp2rcd13ifvqhng","pricing_plan_id":"cebpf4jnsgd1na2vs0mg"},{"bike_id":"b5de95e0-8f34-41aa-a5fc-c4e76e03a994","system_id":"levelo_inurba_marseille","lat":43.28099,"lon":5.39647,"is_reserved":false,"is_disabled":true,"rental_uris":{"android":"levelo://app?vid=b5de95e0-8f34-41aa-a5fc-c4e76e03a994","ios":"levelo://app?vid=b5de95e0-8f34-41aa-a5fc-c4e76e03a994"},"vehicle_type_id":"4","last_reported":1736144046,"current_range_meters":28400,"station_id":"ce4bho12rcd13ifvqh2g","pricing_plan_id":"cebpf4jnsgd1na2vs0mg"},{"bike_id":"aa33a53e-f806-43a8-ad7e-8e2bd9644426","system_id":"levelo_inurba_marseille","lat":43.32345,"lon":5.40629,"is_reserved":false,"is_disabled":true,"rental_uris":{"android":"levelo://app?vid=aa33a53e-f806-43a8-ad7e-8e2bd9644426","ios":"levelo://app?vid=aa33a53e-f806-43a8-ad7e-8e2bd9644426"},"vehicle_type_id":"4","last_reported":1736144046,"current_range_meters":0,"station_id":"ce4bhq92rcd13ifvqhjg","pricing_plan_id":"cebpf4jnsgd1na2vs0mg"},{"bike_id":"0e841a74-0111-4815-a752-6cac0c819790","system_id":"levelo_inurba_marseille","lat":43.28078,"lon":5.39646,"is_reserved":false,"is_disabled":false,"rental_uris":{"android":"levelo://app?vid=0e841a74-0111-4815-a752-6cac0c819790","ios":"levelo://app?vid=0e841a74-0111-4815-a752-6cac0c819790"},"vehicle_type_id":"4","last_reported":1736144046,"current_range_meters":38400,"station_id":"ce4bho12rcd13ifvqh2g","pricing_plan_id":"cebpf4jnsgd1na2vs0mg"},{"bike_id":"4e4d149f-4bc5-408b-8029-61d784a9e74a","system_id":"levelo_inurba_marseille","lat":43.31184,"lon":5.38715,"is_reserved":false,"is_disabled":false,"rental_uris":{"android":"levelo://app?vid=4e4d149f-4bc5-408b-8029-61d784a9e74a","ios":"levelo://app?vid=4e4d149f-4bc5-408b-8029-61d784a9e74a"},"vehicle_type_id":"4","last_reported":1736144046,"current_range_meters":25600,"station_id":"ce4bgv12rcd13ifvqcp0","pricing_plan_id":"cebpf4jnsgd1na2vs0mg"},{"bike_id":"bb896405-905f-4110-a07e-defff063aef8","system_id":"levelo_inurba_marseille","lat":43.29302,"lon":5.37439,"is_reserved":false,"is_disabled":true,"rental_uris":{"android":"levelo://app?vid=bb896405-905f-4110-a07e-defff063aef8","ios":"levelo://app?vid=bb896405-905f-4110-a07e-defff063aef8"},"vehicle_type_id":"4","last_reported":1736144046,"current_range_meters":34800,"station_id":"ce4bgi12rcd13ifvqb70","pricing_plan_id":"cebpf4jnsgd1na2vs0mg"},{"bike_id":"8337c19c-4469-4056-9cbb-8b71f280eb80","system_id":"levelo_inurba_marseille","lat":43.290461,"lon":5.359096,"is_reserved":false,"is_disabled":false,"rental_uris":{"android":"levelo://app?vid=8337c19c-4469-4056-9cbb-8b71f280eb80","ios":"levelo://app?vid=8337c19c-4469-4056-9cbb-8b71f280eb80"},"vehicle_type_id":"4","last_reported":1736144046,"current_range_meters":38000,"station_id":"ce4bha92rcd13ifvqeg0","pricing_plan_id":"cebpf4jnsgd1na2vs0mg"},{"bike_id":"6b455687-bb82-4d97-b8eb-de58185ea05e","system_id":"levelo_inurba_marseille","lat":43.29226,"lon":5.36301,"is_reserved":false,"is_disabled":false,"rental_uris":{"android":"levelo://app?vid=6b455687-bb82-4d97-b8eb-de58185ea05e","ios":"levelo://app?vid=6b455687-bb82-4d97-b8eb-de58185ea05e"},"vehicle_type_id":"4","last_reported":1736144046,"current_range_meters":13600,"station_id":"","pricing_plan_id":"cebpf4jnsgd1na2vs0mg"},{"bike_id":"8df41abf-ed14-4589-9867-b5613d43a037","system_id":"levelo_inurba_marseille","lat":43.324785,"lon":5.365658,"is_reserved":false,"is_disabled":false,"rental_uris":{"android":"levelo://app?vid=8df41abf-ed14-4589-9867-b5613d43a037","ios":"levelo://app?vid=8df41abf-ed14-4589-9867-b5613d43a037"},"vehicle_type_id":"4","last_reported":1736144046,"current_range_meters":38400,"station_id":"ce4bhs12rcd13ifvqhvg","pricing_plan_id":"cebpf4jnsgd1na2vs0mg"},{"bike_id":"45744d07-eb73-453c-b6ee-d9a256b9901b","system_id":"levelo_inurba_marseille","lat":43.30947,"lon":5.39061,"is_reserved":false,"is_disabled":true,"rental_uris":{"android":"levelo://app?vid=45744d07-eb73-453c-b6ee-d9a256b9901b","ios":"levelo://app?vid=45744d07-eb73-453c-b6ee-d9a256b9901b"},"vehicle_type_id":"4","last_reported":1736144046,"current_range_meters":10000,"station_id":"ce4bgup2rcd13ifvqco0","pricing_plan_id":"cebpf4jnsgd1na2vs0mg"},{"bike_id":"1c0f0bab-bbc0-4733-b4ce-7c5a9fc0d0cb","system_id":"levelo_inurba_marseille","lat":43.29633,"lon":5.40598,"is_reserved":false,"is_disabled":false,"rental_uris":{"android":"levelo://app?vid=1c0f0bab-bbc0-4733-b4ce-7c5a9fc0d0cb","ios":"levelo://app?vid=1c0f0bab-bbc0-4733-b4ce-7c5a9fc0d0cb"},"vehicle_type_id":"4","last_reported":1736144046,"current_range_meters":38000,"station_id":"ce4bh0h2rcd13ifvqd60","pricing_plan_id":"cebpf4jnsgd1na2vs0mg"},{"bike_id":"e14fc727-e110-4847-a3c5-e82ea6a6fcb8","system_id":"levelo_inurba_marseille","lat":43.28949,"lon":5.39623,"is_reserved":false,"is_disabled":true,"rental_uris":{"android":"levelo://app?vid=e14fc727-e110-4847-a3c5-e82ea6a6fcb8","ios":"levelo://app?vid=e14fc727-e110-4847-a3c5-e82ea6a6fcb8"},"vehicle_type_id":"4","last_reported":1736144046,"current_range_meters":32800,"station_id":"ce4bh3h2rcd13ifvqdn0","pricing_plan_id":"cebpf4jnsgd1na2vs0mg"},{"bike_id":"ad61caab-ed76-48fb-b594-4605be6c3c4b","system_id":"levelo_inurba_marseille","lat":43.293067,"lon":5.371832,"is_reserved":false,"is_disabled":true,"rental_uris":{"android":"levelo://app?vid=ad61caab-ed76-48fb-b594-4605be6c3c4b","ios":"levelo://app?vid=ad61caab-ed76-48fb-b594-4605be6c3c4b"},"vehicle_type_id":"4","last_reported":1736144046,"current_range_meters":33600,"station_id":"ce4bgh92rcd13ifvqb40","pricing_plan_id":"cebpf4jnsgd1na2vs0mg"},{"bike_id":"d0541b38-8e7e-4e1e-8666-5868b43eb4cc","system_id":"levelo_inurba_marseille","lat":43.251057,"lon":5.403216,"is_reserved":false,"is_disabled":false,"rental_uris":{"android":"levelo://app?vid=d0541b38-8e7e-4e1e-8666-5868b43eb4cc","ios":"levelo://app?vid=d0541b38-8e7e-4e1e-8666-5868b43eb4cc"},"vehicle_type_id":"4","last_reported":1736144046,"current_range_meters":38800,"station_id":"ce4bhlh2rcd13ifvqgig","pricing_plan_id":"cebpf4jnsgd1na2vs0mg"},{"bike_id":"b0f6aca8-3f91-4c48-a9ce-fc71c17d1788","system_id":"levelo_inurba_marseille","lat":43.29831,"lon":5.38085,"is_reserved":false,"is_disabled":false,"rental_uris":{"android":"levelo://app?vid=b0f6aca8-3f91-4c48-a9ce-fc71c17d1788","ios":"levelo://app?vid=b0f6aca8-3f91-4c48-a9ce-fc71c17d1788"},"vehicle_type_id":"4","last_reported":1736144046,"current_range_meters":38800,"station_id":"ce4bgip2rcd13ifvqbb0","pricing_plan_id":"cebpf4jnsgd1na2vs0mg"},{"bike_id":"ad539604-9e59-421d-a71a-49da59bdd974","system_id":"levelo_inurba_marseille","lat":43.290284,"lon":5.386339,"is_reserved":false,"is_disabled":true,"rental_uris":{"android":"levelo://app?vid=ad539604-9e59-421d-a71a-49da59bdd974","ios":"levelo://app?vid=ad539604-9e59-421d-a71a-49da59bdd974"},"vehicle_type_id":"4","last_reported":1736144046,"current_range_meters":26000,"station_id":"ce4bh4p2rcd13ifvqe0g","pricing_plan_id":"cebpf4jnsgd1na2vs0mg"},{"bike_id":"d23fffab-bc74-4322-8603-eb42a1e6da10","system_id":"levelo_inurba_marseille","lat":43.28454,"lon":5.35895,"is_reserved":false,"is_disabled":false,"rental_uris":{"android":"levelo://app?vid=d23fffab-bc74-4322-8603-eb42a1e6da10","ios":"levelo://app?vid=d23fffab-bc74-4322-8603-eb42a1e6da10"},"vehicle_type_id":"4","last_reported":1736144046,"current_range_meters":38800,"station_id":"ce4bhah2rcd13ifvqei0","pricing_plan_id":"cebpf4jnsgd1na2vs0mg"},{"bike_id":"6eb177fb-62e6-4265-86d6-25cfff0db403","system_id":"levelo_inurba_marseille","lat":43.28732,"lon":5.36089,"is_reserved":false,"is_disabled":false,"rental_uris":{"android":"levelo://app?vid=6eb177fb-62e6-4265-86d6-25cfff0db403","ios":"levelo://app?vid=6eb177fb-62e6-4265-86d6-25cfff0db403"},"vehicle_type_id":"4","last_reported":1736144046,"current_range_meters":38000,"station_id":"cki0cbj6b192h4jlfktg","pricing_plan_id":"cebpf4jnsgd1na2vs0mg"},{"bike_id":"8a474426-cd46-4cf8-9edc-ef843a0ca02e","system_id":"levelo_inurba_marseille","lat":43.26531,"lon":5.39065,"is_reserved":false,"is_disabled":true,"rental_uris":{"android":"levelo://app?vid=8a474426-cd46-4cf8-9edc-ef843a0ca02e","ios":"levelo://app?vid=8a474426-cd46-4cf8-9edc-ef843a0ca02e"},"vehicle_type_id":"4","last_reported":1736144046,"current_range_meters":35600,"station_id":"","pricing_plan_id":"cebpf4jnsgd1na2vs0mg"},{"bike_id":"d0234cf8-3190-48a6-bab2-6c84efe1b44c","system_id":"levelo_inurba_marseille","lat":43.24803,"lon":5.37444,"is_reserved":false,"is_disabled":false,"rental_uris":{"android":"levelo://app?vid=d0234cf8-3190-48a6-bab2-6c84efe1b44c","ios":"levelo://app?vid=d0234cf8-3190-48a6-bab2-6c84efe1b44c"},"vehicle_type_id":"4","last_reported":1736144046,"current_range_meters":38800,"station_id":"ce4bhgh2rcd13ifvqfb0","pricing_plan_id":"cebpf4jnsgd1na2vs0mg"},{"bike_id":"bbf998ea-d252-4590-8711-16d78ff4b07c","system_id":"levelo_inurba_marseille","lat":43.24651,"lon":5.38878,"is_reserved":false,"is_disabled":false,"rental_uris":{"android":"levelo://app?vid=bbf998ea-d252-4590-8711-16d78ff4b07c","ios":"levelo://app?vid=bbf998ea-d252-4590-8711-16d78ff4b07c"},"vehicle_type_id":"4","last_reported":1736144046,"current_range_meters":30800,"station_id":"ce4bhg12rcd13ifvqf60","pricing_plan_id":"cebpf4jnsgd1na2vs0mg"},{"bike_id":"bd05523f-3abf-419a-b104-6ebd90fe8ea3","system_id":"levelo_inurba_marseille","lat":43.284632,"lon":5.358906,"is_reserved":false,"is_disabled":false,"rental_uris":{"android":"levelo://app?vid=bd05523f-3abf-419a-b104-6ebd90fe8ea3","ios":"levelo://app?vid=bd05523f-3abf-419a-b104-6ebd90fe8ea3"},"vehicle_type_id":"4","last_reported":1736144046,"current_range_meters":29600,"station_id":"ce4bhah2rcd13ifvqei0","pricing_plan_id":"cebpf4jnsgd1na2vs0mg"},{"bike_id":"d455a1f2-fb7f-480c-b03e-1cf1cbe15c4a","system_id":"levelo_inurba_marseille","lat":43.31504,"lon":5.37285,"is_reserved":false,"is_disabled":false,"rental_uris":{"android":"levelo://app?vid=d455a1f2-fb7f-480c-b03e-1cf1cbe15c4a","ios":"levelo://app?vid=d455a1f2-fb7f-480c-b03e-1cf1cbe15c4a"},"vehicle_type_id":"4","last_reported":1736144046,"current_range_meters":24000,"station_id":"ce4bgt12rcd13ifvqcd0","pricing_plan_id":"cebpf4jnsgd1na2vs0mg"},{"bike_id":"f5a4a49b-f269-4ec2-b80a-e579bf67a966","system_id":"levelo_inurba_marseille","lat":43.29524,"lon":5.3615,"is_reserved":false,"is_disabled":true,"rental_uris":{"android":"levelo://app?vid=f5a4a49b-f269-4ec2-b80a-e579bf67a966","ios":"levelo://app?vid=f5a4a49b-f269-4ec2-b80a-e579bf67a966"},"vehicle_type_id":"4","last_reported":1736144046,"current_range_meters":32800,"station_id":"","pricing_plan_id":"cebpf4jnsgd1na2vs0mg"},{"bike_id":"6f21fba1-6f8e-47c4-a476-286cca5f9cc6","system_id":"levelo_inurba_marseille","lat":43.28296,"lon":5.35055,"is_reserved":false,"is_disabled":true,"rental_uris":{"android":"levelo://app?vid=6f21fba1-6f8e-47c4-a476-286cca5f9cc6","ios":"levelo://app?vid=6f21fba1-6f8e-47c4-a476-286cca5f9cc6"},"vehicle_type_id":"4","last_reported":1736144046,"current_range_meters":0,"station_id":"ce4bhbp2rcd13ifvqerg","pricing_plan_id":"cebpf4jnsgd1na2vs0mg"},{"bike_id":"21f0e3c2-495a-43ca-b213-21dd4a411241","system_id":"levelo_inurba_marseille","lat":43.2844,"lon":5.39202,"is_reserved":false,"is_disabled":false,"rental_uris":{"android":"levelo://app?vid=21f0e3c2-495a-43ca-b213-21dd4a411241","ios":"levelo://app?vid=21f0e3c2-495a-43ca-b213-21dd4a411241"},"vehicle_type_id":"4","last_reported":1736144046,"current_range_meters":35200,"station_id":"ce4bhoh2rcd13ifvqh5g","pricing_plan_id":"cebpf4jnsgd1na2vs0mg"},{"bike_id":"f3419395-d732-4b6b-a80c-9ac967e357ec","system_id":"levelo_inurba_marseille","lat":43.28932,"lon":5.36633,"is_reserved":false,"is_disabled":false,"rental_uris":{"android":"levelo://app?vid=f3419395-d732-4b6b-a80c-9ac967e357ec","ios":"levelo://app?vid=f3419395-d732-4b6b-a80c-9ac967e357ec"},"vehicle_type_id":"4","last_reported":1736144046,"current_range_meters":36800,"station_id":"ce4bhap2rcd13ifvqek0","pricing_plan_id":"cebpf4jnsgd1na2vs0mg"},{"bike_id":"6a70bf65-6927-4dc1-a071-8231e3cf5cbb","system_id":"levelo_inurba_marseille","lat":43.28913,"lon":5.38396,"is_reserved":false,"is_disabled":false,"rental_uris":{"android":"levelo://app?vid=6a70bf65-6927-4dc1-a071-8231e3cf5cbb","ios":"levelo://app?vid=6a70bf65-6927-4dc1-a071-8231e3cf5cbb"},"vehicle_type_id":"4","last_reported":1736144046,"current_range_meters":38800,"station_id":"ce4bh612rcd13ifvqe6g","pricing_plan_id":"cebpf4jnsgd1na2vs0mg"},{"bike_id":"ccc8f787-0497-4a92-b4e6-c15faf24e4ec","system_id":"levelo_inurba_marseille","lat":43.30621,"lon":5.39351,"is_reserved":false,"is_disabled":false,"rental_uris":{"android":"levelo://app?vid=ccc8f787-0497-4a92-b4e6-c15faf24e4ec","ios":"levelo://app?vid=ccc8f787-0497-4a92-b4e6-c15faf24e4ec"},"vehicle_type_id":"4","last_reported":1736144046,"current_range_meters":32400,"station_id":"ce4bh0p2rcd13ifvqd80","pricing_plan_id":"cebpf4jnsgd1na2vs0mg"},{"bike_id":"0bcfea18-61ca-412d-bded-b63f59943884","system_id":"levelo_inurba_marseille","lat":43.286116,"lon":5.351032,"is_reserved":false,"is_disabled":true,"rental_uris":{"android":"levelo://app?vid=0bcfea18-61ca-412d-bded-b63f59943884","ios":"levelo://app?vid=0bcfea18-61ca-412d-bded-b63f59943884"},"vehicle_type_id":"4","last_reported":1736144046,"current_range_meters":35200,"station_id":"ce4bhch2rcd13ifvqeug","pricing_plan_id":"cebpf4jnsgd1na2vs0mg"},{"bike_id":"5befd006-a601-4f1d-8fbe-6e419c854ac0","system_id":"levelo_inurba_marseille","lat":43.24067,"lon":5.37759,"is_reserved":false,"is_disabled":false,"rental_uris":{"android":"levelo://app?vid=5befd006-a601-4f1d-8fbe-6e419c854ac0","ios":"levelo://app?vid=5befd006-a601-4f1d-8fbe-6e419c854ac0"},"vehicle_type_id":"4","last_reported":1736144046,"current_range_meters":38800,"station_id":"ce4bhnp2rcd13ifvqgvg","pricing_plan_id":"cebpf4jnsgd1na2vs0mg"},{"bike_id":"ccedd857-09cd-44c5-b6fb-4559763177cf","system_id":"levelo_inurba_marseille","lat":43.25106,"lon":5.40342,"is_reserved":false,"is_disabled":true,"rental_uris":{"android":"levelo://app?vid=ccedd857-09cd-44c5-b6fb-4559763177cf","ios":"levelo://app?vid=ccedd857-09cd-44c5-b6fb-4559763177cf"},"vehicle_type_id":"4","last_reported":1736144046,"current_range_meters":34000,"station_id":"ce4bhlh2rcd13ifvqgig","pricing_plan_id":"cebpf4jnsgd1na2vs0mg"},{"bike_id":"057a78d9-4838-4cec-9960-b2b57e04db07","system_id":"levelo_inurba_marseille","lat":43.31205,"lon":5.3684,"is_reserved":false,"is_disabled":true,"rental_uris":{"android":"levelo://app?vid=057a78d9-4838-4cec-9960-b2b57e04db07","ios":"levelo://app?vid=057a78d9-4838-4cec-9960-b2b57e04db07"},"vehicle_type_id":"4","last_reported":1736144046,"current_range_meters":34800,"station_id":"ce4bgl92rcd13ifvqbq0","pricing_plan_id":"cebpf4jnsgd1na2vs0mg"},{"bike_id":"85cba0a3-d6ec-4723-83bf-95316674cece","system_id":"levelo_inurba_marseille","lat":43.27553,"lon":5.384304,"is_reserved":false,"is_disabled":true,"rental_uris":{"android":"levelo://app?vid=85cba0a3-d6ec-4723-83bf-95316674cece","ios":"levelo://app?vid=85cba0a3-d6ec-4723-83bf-95316674cece"},"vehicle_type_id":"4","last_reported":1736144046,"current_range_meters":0,"station_id":"ce4bhh92rcd13ifvqfi0","pricing_plan_id":"cebpf4jnsgd1na2vs0mg"},{"bike_id":"cc96942b-ea42-440c-a8c6-c54bf65550d1","system_id":"levelo_inurba_marseille","lat":43.28718,"lon":5.374,"is_reserved":false,"is_disabled":false,"rental_uris":{"android":"levelo://app?vid=cc96942b-ea42-440c-a8c6-c54bf65550d1","ios":"levelo://app?vid=cc96942b-ea42-440c-a8c6-c54bf65550d1"},"vehicle_type_id":"4","last_reported":1736144046,"current_range_meters":28000,"station_id":"ce4bh3p2rcd13ifvqdq0","pricing_plan_id":"cebpf4jnsgd1na2vs0mg"},{"bike_id":"848571f8-713d-43b7-8532-226899c73429","system_id":"levelo_inurba_marseille","lat":43.24186,"lon":5.39729,"is_reserved":false,"is_disabled":false,"rental_uris":{"android":"levelo://app?vid=848571f8-713d-43b7-8532-226899c73429","ios":"levelo://app?vid=848571f8-713d-43b7-8532-226899c73429"},"vehicle_type_id":"4","last_reported":1736144046,"current_range_meters":39200,"station_id":"ce4bhn12rcd13ifvqgpg","pricing_plan_id":"cebpf4jnsgd1na2vs0mg"},{"bike_id":"266d97a0-8b6a-4815-8e1e-a29e516886ab","system_id":"levelo_inurba_marseille","lat":43.32362,"lon":5.36747,"is_reserved":false,"is_disabled":false,"rental_uris":{"android":"levelo://app?vid=266d97a0-8b6a-4815-8e1e-a29e516886ab","ios":"levelo://app?vid=266d97a0-8b6a-4815-8e1e-a29e516886ab"},"vehicle_type_id":"4","last_reported":1736144046,"current_range_meters":28400,"station_id":"ce4bhsh2rcd13ifvqi2g","pricing_plan_id":"cebpf4jnsgd1na2vs0mg"},{"bike_id":"8d3db9c8-7683-417b-ae4c-a136850e4613","system_id":"levelo_inurba_marseille","lat":43.24672,"lon":5.38165,"is_reserved":false,"is_disabled":false,"rental_uris":{"android":"levelo://app?vid=8d3db9c8-7683-417b-ae4c-a136850e4613","ios":"levelo://app?vid=8d3db9c8-7683-417b-ae4c-a136850e4613"},"vehicle_type_id":"4","last_reported":1736144046,"current_range_meters":30800,"station_id":"ce4bhih2rcd13ifvqfr0","pricing_plan_id":"cebpf4jnsgd1na2vs0mg"},{"bike_id":"3114ec84-8af5-4895-9b9c-20cd6c3656d1","system_id":"levelo_inurba_marseille","lat":43.29022,"lon":5.38623,"is_reserved":false,"is_disabled":false,"rental_uris":{"android":"levelo://app?vid=3114ec84-8af5-4895-9b9c-20cd6c3656d1","ios":"levelo://app?vid=3114ec84-8af5-4895-9b9c-20cd6c3656d1"},"vehicle_type_id":"4","last_reported":1736144046,"current_range_meters":25600,"station_id":"ce4bh4p2rcd13ifvqe0g","pricing_plan_id":"cebpf4jnsgd1na2vs0mg"},{"bike_id":"d5f85def-5cfe-40c7-a3af-6e3a1a43bd28","system_id":"levelo_inurba_marseille","lat":43.29442,"lon":5.39759,"is_reserved":false,"is_disabled":false,"rental_uris":{"android":"levelo://app?vid=d5f85def-5cfe-40c7-a3af-6e3a1a43bd28","ios":"levelo://app?vid=d5f85def-5cfe-40c7-a3af-6e3a1a43bd28"},"vehicle_type_id":"4","last_reported":1736144046,"current_range_meters":38800,"station_id":"ce4bh3h2rcd13ifvqdo0","pricing_plan_id":"cebpf4jnsgd1na2vs0mg"},{"bike_id":"2937c8f0-6f06-4c7f-8240-41ad44bc55fa","system_id":"levelo_inurba_marseille","lat":43.23188,"lon":5.39988,"is_reserved":false,"is_disabled":false,"rental_uris":{"android":"levelo://app?vid=2937c8f0-6f06-4c7f-8240-41ad44bc55fa","ios":"levelo://app?vid=2937c8f0-6f06-4c7f-8240-41ad44bc55fa"},"vehicle_type_id":"4","last_reported":1736144046,"current_range_meters":17200,"station_id":"ce4bhn12rcd13ifvqgqg","pricing_plan_id":"cebpf4jnsgd1na2vs0mg"},{"bike_id":"228b1a6b-4bda-4c88-8a0e-38c1aa0541bc","system_id":"levelo_inurba_marseille","lat":43.27985,"lon":5.41649,"is_reserved":false,"is_disabled":false,"rental_uris":{"android":"levelo://app?vid=228b1a6b-4bda-4c88-8a0e-38c1aa0541bc","ios":"levelo://app?vid=228b1a6b-4bda-4c88-8a0e-38c1aa0541bc"},"vehicle_type_id":"4","last_reported":1736144046,"current_range_meters":25600,"station_id":"ce4bho12rcd13ifvqh1g","pricing_plan_id":"cebpf4jnsgd1na2vs0mg"},{"bike_id":"543fbaf7-6cf9-4fe6-8e74-0567d6f825b1","system_id":"levelo_inurba_marseille","lat":43.28413,"lon":5.37522,"is_reserved":false,"is_disabled":false,"rental_uris":{"android":"levelo://app?vid=543fbaf7-6cf9-4fe6-8e74-0567d6f825b1","ios":"levelo://app?vid=543fbaf7-6cf9-4fe6-8e74-0567d6f825b1"},"vehicle_type_id":"4","last_reported":1736144046,"current_range_meters":37600,"station_id":"ce4bh412rcd13ifvqds0","pricing_plan_id":"cebpf4jnsgd1na2vs0mg"},{"bike_id":"85260f61-7e0a-45ba-8d80-a08a975748a7","system_id":"levelo_inurba_marseille","lat":43.326634,"lon":5.409924,"is_reserved":false,"is_disabled":false,"rental_uris":{"android":"levelo://app?vid=85260f61-7e0a-45ba-8d80-a08a975748a7","ios":"levelo://app?vid=85260f61-7e0a-45ba-8d80-a08a975748a7"},"vehicle_type_id":"4","last_reported":1736144046,"current_range_meters":38000,"station_id":"ce4bhpp2rcd13ifvqhgg","pricing_plan_id":"cebpf4jnsgd1na2vs0mg"},{"bike_id":"d09e735f-aee5-48d7-9e50-0a0d6686ead5","system_id":"levelo_inurba_marseille","lat":43.24809,"lon":5.37456,"is_reserved":false,"is_disabled":false,"rental_uris":{"android":"levelo://app?vid=d09e735f-aee5-48d7-9e50-0a0d6686ead5","ios":"levelo://app?vid=d09e735f-aee5-48d7-9e50-0a0d6686ead5"},"vehicle_type_id":"4","last_reported":1736144046,"current_range_meters":38400,"station_id":"ce4bhgh2rcd13ifvqfb0","pricing_plan_id":"cebpf4jnsgd1na2vs0mg"},{"bike_id":"f49298c6-b208-404d-bb0c-160ccbda2eed","system_id":"levelo_inurba_marseille","lat":43.279916,"lon":5.400123,"is_reserved":false,"is_disabled":true,"rental_uris":{"android":"levelo://app?vid=f49298c6-b208-404d-bb0c-160ccbda2eed","ios":"levelo://app?vid=f49298c6-b208-404d-bb0c-160ccbda2eed"},"vehicle_type_id":"4","last_reported":1736144046,"current_range_meters":36800,"station_id":"ce4bho92rcd13ifvqh4g","pricing_plan_id":"cebpf4jnsgd1na2vs0mg"},{"bike_id":"2c354e5f-37ab-453c-814e-0e1e1d3051e2","system_id":"levelo_inurba_marseille","lat":43.313614,"lon":5.385097,"is_reserved":false,"is_disabled":true,"rental_uris":{"android":"levelo://app?vid=2c354e5f-37ab-453c-814e-0e1e1d3051e2","ios":"levelo://app?vid=2c354e5f-37ab-453c-814e-0e1e1d3051e2"},"vehicle_type_id":"4","last_reported":1736144046,"current_range_meters":17600,"station_id":"ce4bgt92rcd13ifvqcf0","pricing_plan_id":"cebpf4jnsgd1na2vs0mg"},{"bike_id":"d014f699-d84d-436b-b3bf-8c059d18ea89","system_id":"levelo_inurba_marseille","lat":43.229259,"lon":5.353781,"is_reserved":false,"is_disabled":false,"rental_uris":{"android":"levelo://app?vid=d014f699-d84d-436b-b3bf-8c059d18ea89","ios":"levelo://app?vid=d014f699-d84d-436b-b3bf-8c059d18ea89"},"vehicle_type_id":"4","last_reported":1736144046,"current_range_meters":13600,"station_id":"cpo3532slgdg3j2ikp40","pricing_plan_id":"cebpf4jnsgd1na2vs0mg"},{"bike_id":"ec0f9318-aa2c-45e0-bef1-17ed0e399506","system_id":"levelo_inurba_marseille","lat":43.25849,"lon":5.39911,"is_reserved":false,"is_disabled":false,"rental_uris":{"android":"levelo://app?vid=ec0f9318-aa2c-45e0-bef1-17ed0e399506","ios":"levelo://app?vid=ec0f9318-aa2c-45e0-bef1-17ed0e399506"},"vehicle_type_id":"4","last_reported":1736144046,"current_range_meters":12400,"station_id":"ce4bhl92rcd13ifvqghg","pricing_plan_id":"cebpf4jnsgd1na2vs0mg"},{"bike_id":"3093b4f6-32f4-4dec-aab8-9d4da00d0520","system_id":"levelo_inurba_marseille","lat":43.23192,"lon":5.35557,"is_reserved":false,"is_disabled":false,"rental_uris":{"android":"levelo://app?vid=3093b4f6-32f4-4dec-aab8-9d4da00d0520","ios":"levelo://app?vid=3093b4f6-32f4-4dec-aab8-9d4da00d0520"},"vehicle_type_id":"4","last_reported":1736144046,"current_range_meters":38000,"station_id":"ce4bhu92rcd13ifvqi70","pricing_plan_id":"cebpf4jnsgd1na2vs0mg"},{"bike_id":"73175e06-3869-46aa-af2d-c27e0a52bd66","system_id":"levelo_inurba_marseille","lat":43.2928,"lon":5.40108,"is_reserved":false,"is_disabled":false,"rental_uris":{"android":"levelo://app?vid=73175e06-3869-46aa-af2d-c27e0a52bd66","ios":"levelo://app?vid=73175e06-3869-46aa-af2d-c27e0a52bd66"},"vehicle_type_id":"4","last_reported":1736144046,"current_range_meters":38800,"station_id":"ce4bh312rcd13ifvqdk0","pricing_plan_id":"cebpf4jnsgd1na2vs0mg"},{"bike_id":"c420422e-e5ff-46aa-9ade-56c25e82f06d","system_id":"levelo_inurba_marseille","lat":43.23203,"lon":5.35549,"is_reserved":false,"is_disabled":false,"rental_uris":{"android":"levelo://app?vid=c420422e-e5ff-46aa-9ade-56c25e82f06d","ios":"levelo://app?vid=c420422e-e5ff-46aa-9ade-56c25e82f06d"},"vehicle_type_id":"4","last_reported":1736144046,"current_range_meters":38800,"station_id":"ce4bhu92rcd13ifvqi70","pricing_plan_id":"cebpf4jnsgd1na2vs0mg"},{"bike_id":"ef72cdb4-465d-4178-b952-49906f159c48","system_id":"levelo_inurba_marseille","lat":43.28162,"lon":5.4264,"is_reserved":false,"is_disabled":false,"rental_uris":{"android":"levelo://app?vid=ef72cdb4-465d-4178-b952-49906f159c48","ios":"levelo://app?vid=ef72cdb4-465d-4178-b952-49906f159c48"},"vehicle_type_id":"4","last_reported":1736144046,"current_range_meters":7200,"station_id":"ce4bhnh2rcd13ifvqgug","pricing_plan_id":"cebpf4jnsgd1na2vs0mg"},{"bike_id":"ab0676e2-224e-433c-a641-1ada0ea9485e","system_id":"levelo_inurba_marseille","lat":43.30309,"lon":5.40409,"is_reserved":false,"is_disabled":false,"rental_uris":{"android":"levelo://app?vid=ab0676e2-224e-433c-a641-1ada0ea9485e","ios":"levelo://app?vid=ab0676e2-224e-433c-a641-1ada0ea9485e"},"vehicle_type_id":"4","last_reported":1736144046,"current_range_meters":31200,"station_id":"ce4bh012rcd13ifvqd10","pricing_plan_id":"cebpf4jnsgd1na2vs0mg"},{"bike_id":"1ef24f7d-3a25-4ade-9d72-e621e3b3d1d1","system_id":"levelo_inurba_marseille","lat":43.25099,"lon":5.39528,"is_reserved":false,"is_disabled":false,"rental_uris":{"android":"levelo://app?vid=1ef24f7d-3a25-4ade-9d72-e621e3b3d1d1","ios":"levelo://app?vid=1ef24f7d-3a25-4ade-9d72-e621e3b3d1d1"},"vehicle_type_id":"4","last_reported":1736144046,"current_range_meters":29600,"station_id":"ce4bhm12rcd13ifvqgkg","pricing_plan_id":"cebpf4jnsgd1na2vs0mg"},