{"last_updated":1684984038,"ttl":30,"version":"2.2","data":{"bikes":[{"bike_id":"d99c1bcf-74e3-41bb-a740-5ce155c3fa73","system_id":"levelo_inurba_marseille","lat":43.312239,"lon":5.368562,"is_reserved":false,"is_disabled":false,"rental_uris":{"android":"levelo://app?vid=d99c1bcf-74e3-41bb-a740-5ce155c3fa73","ios":"levelo://app?vid=d99c1bcf-74e3-41bb-a740-5ce155c3fa73"},"vehicle_type_id":"4","last_reported":1684984039,"current_range_meters":13600,"station_id":"ce4bgl92rcd13ifvqbq0","pricing_plan_id":"free"},{"bike_id":"e9eb63ae-c7e8-4c73-856a-3bd06ff94387","system_id":"levelo_inurba_marseille","lat":43.314811,"lon":5.373103,"is_reserved":false,"is_disabled":false,"rental_uris":{"android":"levelo://app?vid=e9eb63ae-c7e8-4c73-856a-3bd06ff94387","ios":"levelo://app?vid=e9eb63ae-c7e8-4c73-856a-3bd06ff94387"},"vehicle_type_id":"4","last_reported":1684984039,"current_range_meters":21600,"station_id":"ce4bgt12rcd13ifvqcd0","pricing_plan_id":"free"},{"bike_id":"70585f29-5943-4f0e-8df8-0125e64e20e2","system_id":"levelo_inurba_marseille","lat":43.314811,"lon":5.373104,"is_reserved":false,"is_disabled":false,"rental_uris":{"android":"levelo://app?vid=70585f29-5943-4f0e-8df8-0125e64e20e2","ios":"levelo://app?vid=70585f29-5943-4f0e-8df8-0125e64e20e2"},"vehicle_type_id":"4","last_reported":1684984039,"current_range_meters":20000,"station_id":"ce4bgt12rcd13ifvqcd0","pricing_plan_id":"free"},{"bike_id":"c5a815fa-b736-4851-b927-1235c1be17db","system_id":"levelo_inurba_marseille","lat":43.308614,"lon":5.372098,"is_reserved":false,"is_disabled":false,"rental_uris":{"android":"levelo://app?vid=c5a815fa-b736-4851-b927-1235c1be17db","ios":"levelo://app?vid=c5a815fa-b736-4851-b927-1235c1be17db"},"vehicle_type_id":"4","last_reported":1684984039,"current_range_meters":10800,"station_id":"ce4bguh2rcd13ifvqckg","pricing_plan_id":"free"},{"bike_id":"d37e1392-9bb2-4f13-84da-1c1f0dd03fcd","system_id":"levelo_inurba_marseille","lat":43.308614,"lon":5.372098,"is_reserved":false,"is_disabled":false,"rental_uris":{"android":"levelo://app?vid=d37e1392-9bb2-4f13-84da-1c1f0dd03fcd","ios":"levelo://app?vid=d37e1392-9bb2-4f13-84da-1c1f0dd03fcd"},"vehicle_type_id":"4","last_reported":1684984039,"current_range_meters":21600,"station_id":"ce4bguh2rcd13ifvqckg","pricing_plan_id":"free"},{"bike_id":"8f28eeb1-a911-48a7-995c-cb1d14aa267e","system_id":"levelo_inurba_marseille","lat":43.308614,"lon":5.372098,"is_reserved":false,"is_disabled":false,"rental_uris":{"android":"levelo://app?vid=8f28eeb1-a911-48a7-995c-cb1d14aa267e","ios":"levelo://app?vid=8f28eeb1-a911-48a7-995c-cb1d14aa267e"},"vehicle_type_id":"4","last_reported":1684984039,"current_range_meters":17200,"station_id":"ce4bguh2rcd13ifvqckg","pricing_plan_id":"free"},{"bike_id":"c138181f-48ac-4415-a593-05e777911b4d","system_id":"levelo_inurba_marseille","lat":43.30679,"lon":5.36688,"is_reserved":false,"is_disabled":false,"rental_uris":{"android":"levelo://app?vid=c138181f-48ac-4415-a593-05e777911b4d","ios":"levelo://app?vid=c138181f-48ac-4415-a593-05e777911b4d"},"vehicle_type_id":"4","last_reported":1684984039,"current_range_meters":25200,"station_id":"","pricing_plan_id":"free"},{"bike_id":"ffd5c177-d890-4e61-8234-19ef4660c40b","system_id":"levelo_inurba_marseille","lat":43.305368,"lon":5.367343,"is_reserved":false,"is_disabled":false,"rental_uris":{"android":"levelo://app?vid=ffd5c177-d890-4e61-8234-19ef4660c40b","ios":"levelo://app?vid=ffd5c177-d890-4e61-8234-19ef4660c40b"},"vehicle_type_id":"4","last_reported":1684984039,"current_range_meters":4000,"station_id":"ce4bgrp2rcd13ifvqc9g","pricing_plan_id":"free"},{"bike_id":"45fbb644-f1da-4631-86ee-5665e38ccf76","system_id":"levelo_inurba_marseille","lat":43.30537,"lon":5.367345,"is_reserved":false,"is_disabled":false,"rental_uris":{"android":"levelo://app?vid=45fbb644-f1da-4631-86ee-5665e38ccf76","ios":"levelo://app?vid=45fbb644-f1da-4631-86ee-5665e38ccf76"},"vehicle_type_id":"4","last_reported":1684984039,"current_range_meters":0,"station_id":"ce4bgrp2rcd13ifvqc9g","pricing_plan_id":"free"},{"bike_id":"16e7282a-4eed-47c3-83b3-d7e0dee6c006","system_id":"levelo_inurba_marseille","lat":43.317075,"lon":5.377367,"is_reserved":false,"is_disabled":false,"rental_uris":{"android":"levelo://app?vid=16e7282a-4eed-47c3-83b3-d7e0dee6c006","ios":"levelo://app?vid=16e7282a-4eed-47c3-83b3-d7e0dee6c006"},"vehicle_type_id":"4","last_reported":1684984039,"current_range_meters":24000,"station_id":"ce4bgth2rcd13ifvqch0","pricing_plan_id":"free"},{"bike_id":"68553df9-2b4c-4244-a834-2447f191355a","system_id":"levelo_inurba_marseille","lat":43.317075,"lon":5.377367,"is_reserved":false,"is_disabled":false,"rental_uris":{"android":"levelo://app?vid=68553df9-2b4c-4244-a834-2447f191355a","ios":"levelo://app?vid=68553df9-2b4c-4244-a834-2447f191355a"},"vehicle_type_id":"4","last_reported":1684984039,"current_range_meters":8000,"station_id":"ce4bgth2rcd13ifvqch0","pricing_plan_id":"free"},{"bike_id":"8d3b898a-41aa-4f28-b1a2-33ce656ae17f","system_id":"levelo_inurba_marseille","lat":43.317075,"lon":5.377367,"is_reserved":false,"is_disabled":false,"rental_uris":{"android":"levelo://app?vid=8d3b898a-41aa-4f28-b1a2-33ce656ae17f","ios":"levelo://app?vid=8d3b898a-41aa-4f28-b1a2-33ce656ae17f"},"vehicle_type_id":"4","last_reported":1684984039,"current_range_meters":12000,"station_id":"ce4bgth2rcd13ifvqch0","pricing_plan_id":"free"},{"bike_id":"fd38c318-e10c-4ea0-8386-140691495f8d","system_id":"levelo_inurba_marseille","lat":43.31713,"lon":5.37832,"is_reserved":false,"is_disabled":false,"rental_uris":{"android":"levelo://app?vid=fd38c318-e10c-4ea0-8386-140691495f8d","ios":"levelo://app?vid=fd38c318-e10c-4ea0-8386-140691495f8d"},"vehicle_type_id":"4","last_reported":1684984039,"current_range_meters":30000,"station_id":"","pricing_plan_id":"free"},{"bike_id":"a51d6815-3b96-4bf1-94b3-ce10fd9127b7","system_id":"levelo_inurba_marseille","lat":43.303046,"lon":5.368981,"is_reserved":false,"is_disabled":false,"rental_uris":{"android":"levelo://app?vid=a51d6815-3b96-4bf1-94b3-ce10fd9127b7","ios":"levelo://app?vid=a51d6815-3b96-4bf1-94b3-ce10fd9127b7"},"vehicle_type_id":"4","last_reported":1684984039,"current_range_meters":25200,"station_id":"ce4bgqh2rcd13ifvqc5g","pricing_plan_id":"free"},{"bike_id":"e6d095ef-2b84-4614-9036-dcde0d40e77b","system_id":"levelo_inurba_marseille","lat":43.315289,"lon":5.380349,"is_reserved":false,"is_disabled":false,"rental_uris":{"android":"levelo://app?vid=e6d095ef-2b84-4614-9036-dcde0d40e77b","ios":"levelo://app?vid=e6d095ef-2b84-4614-9036-dcde0d40e77b"},"vehicle_type_id":"4","last_reported":1684984039,"current_range_meters":31600,"station_id":"ce4bhsp2rcd13ifvqi50","pricing_plan_id":"free"},{"bike_id":"6d6f9f90-e329-45d1-97a2-dad532edd73d","system_id":"levelo_inurba_marseille","lat":43.315293,"lon":5.380349,"is_reserved":false,"is_disabled":false,"rental_uris":{"android":"levelo://app?vid=6d6f9f90-e329-45d1-97a2-dad532edd73d","ios":"levelo://app?vid=6d6f9f90-e329-45d1-97a2-dad532edd73d"},"vehicle_type_id":"4","last_reported":1684984039,"current_range_meters":29600,"station_id":"ce4bhsp2rcd13ifvqi50","pricing_plan_id":"free"},{"bike_id":"b7409f09-2a8a-4570-aae9-bdb6db678b58","system_id":"levelo_inurba_marseille","lat":43.315289,"lon":5.380349,"is_reserved":false,"is_disabled":false,"rental_uris":{"android":"levelo://app?vid=b7409f09-2a8a-4570-aae9-bdb6db678b58","ios":"levelo://app?vid=b7409f09-2a8a-4570-aae9-bdb6db678b58"},"vehicle_type_id":"4","last_reported":1684984039,"current_range_meters":18800,"station_id":"ce4bhsp2rcd13ifvqi50","pricing_plan_id":"free"},{"bike_id":"9f092c7a-0082-405d-9c06-5fabb48acf1f","system_id":"levelo_inurba_marseille","lat":43.315289,"lon":5.380349,"is_reserved":false,"is_disabled":false,"rental_uris":{"android":"levelo://app?vid=9f092c7a-0082-405d-9c06-5fabb48acf1f","ios":"levelo://app?vid=9f092c7a-0082-405d-9c06-5fabb48acf1f"},"vehicle_type_id":"4","last_reported":1684984039,"current_range_meters":3600,"station_id":"ce4bhsp2rcd13ifvqi50","pricing_plan_id":"free"},{"bike_id":"a37433d2-2d7a-4259-b151-e938f1d0965f","system_id":"levelo_inurba_marseille","lat":43.308012,"lon":5.381511,"is_reserved":false,"is_disabled":false,"rental_uris":{"android":"levelo://app?vid=a37433d2-2d7a-4259-b151-e938f1d0965f","ios":"levelo://app?vid=a37433d2-2d7a-4259-b151-e938f1d0965f"},"vehicle_type_id":"4","last_reported":1684984039,"current_range_meters":0,"station_id":"ce4bgt12rcd13ifvqce0","pricing_plan_id":"free"},{"bike_id":"685cb26c-6a9e-4705-bb05-7c4222f8cf2e","system_id":"levelo_inurba_marseille","lat":43.308012,"lon":5.381511,"is_reserved":false,"is_disabled":false,"rental_uris":{"android":"levelo://app?vid=685cb26c-6a9e-4705-bb05-7c4222f8cf2e","ios":"levelo://app?vid=685cb26c-6a9e-4705-bb05-7c4222f8cf2e"},"vehicle_type_id":"4","last_reported":1684984039,"current_range_meters":3600,"station_id":"ce4bgt12rcd13ifvqce0","pricing_plan_id":"free"},{"bike_id":"3725c0fa-bd69-45c5-a7ab-70c8aab98b64","system_id":"levelo_inurba_marseille","lat":43.30805,"lon":5.38153,"is_reserved":false,"is_disabled":false,"rental_uris":{"android":"levelo://app?vid=3725c0fa-bd69-45c5-a7ab-70c8aab98b64","ios":"levelo://app?vid=3725c0fa-bd69-45c5-a7ab-70c8aab98b64"},"vehicle_type_id":"4","last_reported":1684984039,"current_range_meters":12400,"station_id":"ce4bgt12rcd13ifvqce0","pricing_plan_id":"free"},{"bike_id":"452b048b-d030-4309-abb3-a92cae253b9c","system_id":"levelo_inurba_marseille","lat":43.308012,"lon":5.381511,"is_reserved":false,"is_disabled":false,"rental_uris":{"android":"levelo://app?vid=452b048b-d030-4309-abb3-a92cae253b9c","ios":"levelo://app?vid=452b048b-d030-4309-abb3-a92cae253b9c"},"vehicle_type_id":"4","last_reported":1684984039,"current_range_meters":2000,"station_id":"ce4bgt12rcd13ifvqce0","pricing_plan_id":"free"},{"bike_id":"7c0b9fd2-0d92-400b-85cc-7abca1d198de","system_id":"levelo_inurba_marseille","lat":43.308012,"lon":5.381511,"is_reserved":false,"is_disabled":false,"rental_uris":{"android":"levelo://app?vid=7c0b9fd2-0d92-400b-85cc-7abca1d198de","ios":"levelo://app?vid=7c0b9fd2-0d92-400b-85cc-7abca1d198de"},"vehicle_type_id":"4","last_reported":1684984039,"current_range_meters":26000,"station_id":"ce4bgt12rcd13ifvqce0","pricing_plan_id":"free"},{"bike_id":"c91a319f-ff33-492f-a0ff-6ad5b7e4656a","system_id":"levelo_inurba_marseille","lat":43.308012,"lon":5.381511,"is_reserved":false,"is_disabled":false,"rental_uris":{"android":"levelo://app?vid=c91a319f-ff33-492f-a0ff-6ad5b7e4656a","ios":"levelo://app?vid=c91a319f-ff33-492f-a0ff-6ad5b7e4656a"},"vehicle_type_id":"4","last_reported":1684984039,"current_range_meters":10000,"station_id":"ce4bgt12rcd13ifvqce0","pricing_plan_id":"free"},{"bike_id":"f812cbf8-2bf6-4bf3-a4f8-9dc4e19950b9","system_id":"levelo_inurba_marseille","lat":43.308012,"lon":5.381511,"is_reserved":false,"is_disabled":false,"rental_uris":{"android":"levelo://app?vid=f812cbf8-2bf6-4bf3-a4f8-9dc4e19950b9","ios":"levelo://app?vid=f812cbf8-2bf6-4bf3-a4f8-9dc4e19950b9"},"vehicle_type_id":"4","last_reported":1684984039,"current_range_meters":5200,"station_id":"ce4bgt12rcd13ifvqce0","pricing_plan_id":"free"},{"bike_id":"cb79e689-3bb0-430f-95c7-107aeee7d1fc","system_id":"levelo_inurba_marseille","lat":43.30473,"lon":5.37905,"is_reserved":false,"is_disabled":false,"rental_uris":{"android":"levelo://app?vid=cb79e689-3bb0-430f-95c7-107aeee7d1fc","ios":"levelo://app?vid=cb79e689-3bb0-430f-95c7-107aeee7d1fc"},"vehicle_type_id":"4","last_reported":1684984039,"current_range_meters":30000,"station_id":"ce4bgup2rcd13ifvqcn0","pricing_plan_id":"free"},{"bike_id":"cf2f3eb4-6f4f-4a50-b605-72765a8ff72b","system_id":"levelo_inurba_marseille","lat":43.304606,"lon":5.379026,"is_reserved":false,"is_disabled":false,"rental_uris":{"android":"levelo://app?vid=cf2f3eb4-6f4f-4a50-b605-72765a8ff72b","ios":"levelo://app?vid=cf2f3eb4-6f4f-4a50-b605-72765a8ff72b"},"vehicle_type_id":"4","last_reported":1684984039,"current_range_meters":28800,"station_id":"ce4bgup2rcd13ifvqcn0","pricing_plan_id":"free"},{"bike_id":"4a04b2b5-e6b7-4dde-a6fa-a015924ab68d","system_id":"levelo_inurba_marseille","lat":43.304606,"lon":5.379026,"is_reserved":false,"is_disabled":false,"rental_uris":{"android":"levelo://app?vid=4a04b2b5-e6b7-4dde-a6fa-a015924ab68d","ios":"levelo://app?vid=4a04b2b5-e6b7-4dde-a6fa-a015924ab68d"},"vehicle_type_id":"4","last_reported":1684984039,"current_range_meters":30800,"station_id":"ce4bgup2rcd13ifvqcn0","pricing_plan_id":"free"},{"bike_id":"94f072e2-85ff-4596-bbb0-710894775dab","system_id":"levelo_inurba_marseille","lat":43.304606,"lon":5.379026,"is_reserved":false,"is_disabled":false,"rental_uris":{"android":"levelo://app?vid=94f072e2-85ff-4596-bbb0-710894775dab","ios":"levelo://app?vid=94f072e2-85ff-4596-bbb0-710894775dab"},"vehicle_type_id":"4","last_reported":1684984039,"current_range_meters":27200,"station_id":"ce4bgup2rcd13ifvqcn0","pricing_plan_id":"free"},{"bike_id":"b06b8421-bbaa-499d-a461-99fecf739d8f","system_id":"levelo_inurba_marseille","lat":43.319935,"lon":5.381699,"is_reserved":false,"is_disabled":false,"rental_uris":{"android":"levelo://app?vid=b06b8421-bbaa-499d-a461-99fecf739d8f","ios":"levelo://app?vid=b06b8421-bbaa-499d-a461-99fecf739d8f"},"vehicle_type_id":"4","last_reported":1684984039,"current_range_meters":10400,"station_id":"ce4bhr12rcd13ifvqhpg","pricing_plan_id":"free"},{"bike_id":"e5571f58-adb6-49b7-8c86-2d757ae8e1a0","system_id":"levelo_inurba_marseille","lat":43.319935,"lon":5.381699,"is_reserved":false,"is_disabled":false,"rental_uris":{"android":"levelo://app?vid=e5571f58-adb6-49b7-8c86-2d757ae8e1a0","ios":"levelo://app?vid=e5571f58-adb6-49b7-8c86-2d757ae8e1a0"},"vehicle_type_id":"4","last_reported":1684984039,"current_range_meters":24400,"station_id":"ce4bhr12rcd13ifvqhpg","pricing_plan_id":"free"},{"bike_id":"ca6734a0-a0ee-4445-bc44-dc7854a1d3b0","system_id":"levelo_inurba_marseille","lat":43.319935,"lon":5.381699,"is_reserved":false,"is_disabled":false,"rental_uris":{"android":"levelo://app?vid=ca6734a0-a0ee-4445-bc44-dc7854a1d3b0","ios":"levelo://app?vid=ca6734a0-a0ee-4445-bc44-dc7854a1d3b0"},"vehicle_type_id":"4","last_reported":1684984039,"current_range_meters":12400,"station_id":"ce4bhr12rcd13ifvqhpg","pricing_plan_id":"free"},{"bike_id":"d0086ee5-2c76-40c6-ac41-971c5ff57f75","system_id":"levelo_inurba_marseille","lat":43.319935,"lon":5.381699,"is_reserved":false,"is_disabled":false,"rental_uris":{"android":"levelo://app?vid=d0086ee5-2c76-40c6-ac41-971c5ff57f75","ios":"levelo://app?vid=d0086ee5-2c76-40c6-ac41-971c5ff57f75"},"vehicle_type_id":"4","last_reported":1684984039,"current_range_meters":18400,"station_id":"ce4bhr12rcd13ifvqhpg","pricing_plan_id":"free"},{"bike_id":"2b96ca08-55ec-4ff6-b25d-8071798338b6","system_id":"levelo_inurba_marseille","lat":43.319935,"lon":5.381699,"is_reserved":false,"is_disabled":false,"rental_uris":{"android":"levelo://app?vid=2b96ca08-55ec-4ff6-b25d-8071798338b6","ios":"levelo://app?vid=2b96ca08-55ec-4ff6-b25d-8071798338b6"},"vehicle_type_id":"4","last_reported":1684984039,"current_range_meters":2000,"station_id":"ce4bhr12rcd13ifvqhpg","pricing_plan_id":"free"},{"bike_id":"09ed8f54-7a11-49be-8172-6d4f777b72c5","system_id":"levelo_inurba_marseille","lat":43.319935,"lon":5.381699,"is_reserved":false,"is_disabled":false,"rental_uris":{"android":"levelo://app?vid=09ed8f54-7a11-49be-8172-6d4f777b72c5","ios":"levelo://app?vid=09ed8f54-7a11-49be-8172-6d4f777b72c5"},"vehicle_type_id":"4","last_reported":1684984039,"current_range_meters":27600,"station_id":"ce4bhr12rcd13ifvqhpg","pricing_plan_id":"free"},{"bike_id":"a1f1c795-20e9-4640-8865-529ec3dbf18a","system_id":"levelo_inurba_marseille","lat":43.313571,"lon":5.384829,"is_reserved":false,"is_disabled":false,"rental_uris":{"android":"levelo://app?vid=a1f1c795-20e9-4640-8865-529ec3dbf18a","ios":"levelo://app?vid=a1f1c795-20e9-4640-8865-529ec3dbf18a"},"vehicle_type_id":"4","last_reported":1684984039,"current_range_meters":26400,"station_id":"ce4bgt92rcd13ifvqcf0","pricing_plan_id":"free"},{"bike_id":"109d5d5d-8830-4262-8e4d-b8392815c711","system_id":"levelo_inurba_marseille","lat":43.313571,"lon":5.384829,"is_reserved":false,"is_disabled":false,"rental_uris":{"android":"levelo://app?vid=109d5d5d-8830-4262-8e4d-b8392815c711","ios":"levelo://app?vid=109d5d5d-8830-4262-8e4d-b8392815c711"},"vehicle_type_id":"4","last_reported":1684984039,"current_range_meters":25600,"station_id":"ce4bgt92rcd13ifvqcf0","pricing_plan_id":"free"},{"bike_id":"b4eb1a62-3444-4753-b264-f18c6a532866","system_id":"levelo_inurba_marseille","lat":43.313571,"lon":5.384829,"is_reserved":false,"is_disabled":false,"rental_uris":{"android":"levelo://app?vid=b4eb1a62-3444-4753-b264-f18c6a532866","ios":"levelo://app?vid=b4eb1a62-3444-4753-b264-f18c6a532866"},"vehicle_type_id":"4","last_reported":1684984039,"current_range_meters":27200,"station_id":"ce4bgt92rcd13ifvqcf0","pricing_plan_id":"free"},{"bike_id":"d4b0c2b6-4e7a-43aa-b1a1-ee583cc5e17a","system_id":"levelo_inurba_marseille","lat":43.313571,"lon":5.384829,"is_reserved":false,"is_disabled":false,"rental_uris":{"android":"levelo://app?vid=d4b0c2b6-4e7a-43aa-b1a1-ee583cc5e17a","ios":"levelo://app?vid=d4b0c2b6-4e7a-43aa-b1a1-ee583cc5e17a"},"vehicle_type_id":"4","last_reported":1684984039,"current_range_meters":28800,"station_id":"ce4bgt92rcd13ifvqcf0","pricing_plan_id":"free"},{"bike_id":"761811ed-1cac-4d79-bc98-23ca49d35d0d","system_id":"levelo_inurba_marseille","lat":43.313571,"lon":5.384829,"is_reserved":false,"is_disabled":false,"rental_uris":{"android":"levelo://app?vid=761811ed-1cac-4d79-bc98-23ca49d35d0d","ios":"levelo://app?vid=761811ed-1cac-4d79-bc98-23ca49d35d0d"},"vehicle_type_id":"4","last_reported":1684984039,"current_range_meters":26400,"station_id":"ce4bgt92rcd13ifvqcf0","pricing_plan_id":"free"},{"bike_id":"f54c339c-af4d-4a4c-a61f-40c64d0fb5b4","system_id":"levelo_inurba_marseille","lat":43.299222,"lon":5.365554,"is_reserved":false,"is_disabled":false,"rental_uris":{"android":"levelo://app?vid=f54c339c-af4d-4a4c-a61f-40c64d0fb5b4","ios":"levelo://app?vid=f54c339c-af4d-4a4c-a61f-40c64d0fb5b4"},"vehicle_type_id":"4","last_reported":1684984039,"current_range_meters":26000,"station_id":"ce4bgm92rcd13ifvqbr0","pricing_plan_id":"free"},{"bike_id":"ed9c5309-b948-4c5e-ab63-55272af1a246","system_id":"levelo_inurba_marseille","lat":43.305364,"lon":5.384119,"is_reserved":false,"is_disabled":false,"rental_uris":{"android":"levelo://app?vid=ed9c5309-b948-4c5e-ab63-55272af1a246","ios":"levelo://app?vid=ed9c5309-b948-4c5e-ab63-55272af1a246"},"vehicle_type_id":"4","last_reported":1684984039,"current_range_meters":28400,"station_id":"ce4bgg92rcd13ifvqb30","pricing_plan_id":"free"},{"bike_id":"c747e41f-a532-40e8-8f43-3f48338df1e1","system_id":"levelo_inurba_marseille","lat":43.305364,"lon":5.384119,"is_reserved":false,"is_disabled":false,"rental_uris":{"android":"levelo://app?vid=c747e41f-a532-40e8-8f43-3f48338df1e1","ios":"levelo://app?vid=c747e41f-a532-40e8-8f43-3f48338df1e1"},"vehicle_type_id":"4","last_reported":1684984039,"current_range_meters":16000,"station_id":"ce4bgg92rcd13ifvqb30","pricing_plan_id":"free"},{"bike_id":"222af222-eb78-44de-9b83-1cd69aaa2759","system_id":"levelo_inurba_marseille","lat":43.299243,"lon":5.37481,"is_reserved":false,"is_disabled":false,"rental_uris":{"android":"levelo://app?vid=222af222-eb78-44de-9b83-1cd69aaa2759","ios":"levelo://app?vid=222af222-eb78-44de-9b83-1cd69aaa2759"},"vehicle_type_id":"4","last_reported":1684984039,"current_range_meters":29600,"station_id":"ce4bgjh2rcd13ifvqbg0","pricing_plan_id":"free"},{"bike_id":"2a0221ad-bdef-4900-b792-f8b540edfa8f","system_id":"levelo_inurba_marseille","lat":43.311722,"lon":5.387247,"is_reserved":false,"is_disabled":false,"rental_uris":{"android":"levelo://app?vid=2a0221ad-bdef-4900-b792-f8b540edfa8f","ios":"levelo://app?vid=2a0221ad-bdef-4900-b792-f8b540edfa8f"},"vehicle_type_id":"4","last_reported":1684984039,"current_range_meters":30400,"station_id":"ce4bgv12rcd13ifvqcp0","pricing_plan_id":"free"},{"bike_id":"b79e81cc-c4e9-445e-88e5-ddb09a56de28","system_id":"levelo_inurba_marseille","lat":43.311722,"lon":5.387247,"is_reserved":false,"is_disabled":false,"rental_uris":{"android":"levelo://app?vid=b79e81cc-c4e9-445e-88e5-ddb09a56de28","ios":"levelo://app?vid=b79e81cc-c4e9-445e-88e5-ddb09a56de28"},"vehicle_type_id":"4","last_reported":1684984039,"current_range_meters":31200,"station_id":"ce4bgv12rcd13ifvqcp0","pricing_plan_id":"free"},{"bike_id":"79ea4606-c6a1-48e7-b04e-6e98630b3459","system_id":"levelo_inurba_marseille","lat":43.311722,"lon":5.387247,"is_reserved":false,"is_disabled":false,"rental_uris":{"android":"levelo://app?vid=79ea4606-c6a1-48e7-b04e-6e98630b3459","ios":"levelo://app?vid=79ea4606-c6a1-48e7-b04e-6e98630b3459"},"vehicle_type_id":"4","last_reported":1684984039,"current_range_meters":31200,"station_id":"ce4bgv12rcd13ifvqcp0","pricing_plan_id":"free"},{"bike_id":"e1ae692f-8b0c-4566-9d50-1ef3d5cde2b1","system_id":"levelo_inurba_marseille","lat":43.311722,"lon":5.387247,"is_reserved":false,"is_disabled":false,"rental_uris":{"android":"levelo://app?vid=e1ae692f-8b0c-4566-9d50-1ef3d5cde2b1","ios":"levelo://app?vid=e1ae692f-8b0c-4566-9d50-1ef3d5cde2b1"},"vehicle_type_id":"4","last_reported":1684984039,"current_range_meters":28400,"station_id":"ce4bgv12rcd13ifvqcp0","pricing_plan_id":"free"},{"bike_id":"c2d42e90-f79f-40cf-8861-d19d413a8993","system_id":"levelo_inurba_marseille","lat":43.311722,"lon":5.387247,"is_reserved":false,"is_disabled":false,"rental_uris":{"android":"levelo://app?vid=c2d42e90-f79f-40cf-8861-d19d413a8993","ios":"levelo://app?vid=c2d42e90-f79f-40cf-8861-d19d413a8993"},"vehicle_type_id":"4","last_reported":1684984039,"current_range_meters":30000,"station_id":"ce4bgv12rcd13ifvqcp0","pricing_plan_id":"free"},{"bike_id":"06d97226-790c-4cce-b2d2-f9b56c25339f","system_id":"levelo_inurba_marseille","lat":43.311722,"lon":5.387247,"is_reserved":false,"is_disabled":false,"rental_uris":{"android":"levelo://app?vid=06d97226-790c-4cce-b2d2-f9b56c25339f","ios":"levelo://app?vid=06d97226-790c-4cce-b2d2-f9b56c25339f"},"vehicle_type_id":"4","last_reported":1684984039,"current_range_meters":28400,"station_id":"ce4bgv12rcd13ifvqcp0","pricing_plan_id":"free"},{"bike_id":"65c49fca-29d5-422c-8b90-ee0679ccfae0","system_id":"levelo_inurba_marseille","lat":43.311722,"lon":5.387247,"is_reserved":false,"is_disabled":false,"rental_uris":{"android":"levelo://app?vid=65c49fca-29d5-422c-8b90-ee0679ccfae0","ios":"levelo://app?vid=65c49fca-29d5-422c-8b90-ee0679ccfae0"},"vehicle_type_id":"4","last_reported":1684984039,"current_range_meters":27200,"station_id":"ce4bgv12rcd13ifvqcp0","pricing_plan_id":"free"},{"bike_id":"58ecae82-9131-4e1b-b319-0bb67330e828","system_id":"levelo_inurba_marseille","lat":43.311722,"lon":5.387247,"is_reserved":false,"is_disabled":false,"rental_uris":{"android":"levelo://app?vid=58ecae82-9131-4e1b-b319-0bb67330e828","ios":"levelo://app?vid=58ecae82-9131-4e1b-b319-0bb67330e828"},"vehicle_type_id":"4","last_reported":1684984039,"current_range_meters":25600,"station_id":"ce4bgv12rcd13ifvqcp0","pricing_plan_id":"free"},{"bike_id":"9b5280e7-5549-4a4a-8641-11143a4523be","system_id":"levelo_inurba_marseille","lat":43.297794,"lon":5.370888,"is_reserved":false,"is_disabled":false,"rental_uris":{"android":"levelo://app?vid=9b5280e7-5549-4a4a-8641-11143a4523be","ios":"levelo://app?vid=9b5280e7-5549-4a4a-8641-11143a4523be"},"vehicle_type_id":"4","last_reported":1684984039,"current_range_meters":27600,"station_id":"ce4bgop2rcd13ifvqc1g","pricing_plan_id":"free"},{"bike_id":"8ed1d8e4-f7e2-4037-9f56-bf16c3e27cb9","system_id":"levelo_inurba_marseille","lat":43.29742,"lon":5.36635,"is_reserved":false,"is_disabled":false,"rental_uris":{"android":"levelo://app?vid=8ed1d8e4-f7e2-4037-9f56-bf16c3e27cb9","ios":"levelo://app?vid=8ed1d8e4-f7e2-4037-9f56-bf16c3e27cb9"},"vehicle_type_id":"4","last_reported":1684984039,"current_range_meters":29600,"station_id":"","pricing_plan_id":"free"},{"bike_id":"07d0f5f8-594a-4c99-bd5f-efd86e16327f","system_id":"levelo_inurba_marseille","lat":43.328371,"lon":5.366912,"is_reserved":false,"is_disabled":false,"rental_uris":{"android":"levelo://app?vid=07d0f5f8-594a-4c99-bd5f-efd86e16327f","ios":"levelo://app?vid=07d0f5f8-594a-4c99-bd5f-efd86e16327f"},"vehicle_type_id":"4","last_reported":1684984039,"current_range_meters":14000,"station_id":"ce4bhs92rcd13ifvqi0g","pricing_plan_id":"free"},{"bike_id":"a72cd3ab-e87f-4964-a87c-25d1d90e9843","system_id":"levelo_inurba_marseille","lat":43.328371,"lon":5.366912,"is_reserved":false,"is_disabled":false,"rental_uris":{"android":"levelo://app?vid=a72cd3ab-e87f-4964-a87c-25d1d90e9843","ios":"levelo://app?vid=a72cd3ab-e87f-4964-a87c-25d1d90e9843"},"vehicle_type_id":"4","last_reported":1684984039,"current_range_meters":20400,"station_id":"ce4bhs92rcd13ifvqi0g","pricing_plan_id":"free"},{"bike_id":"fad50468-bff6-4eb0-bc39-08e7203bec60","system_id":"levelo_inurba_marseille","lat":43.328371,"lon":5.366912,"is_reserved":false,"is_disabled":false,"rental_uris":{"android":"levelo://app?vid=fad50468-bff6-4eb0-bc39-08e7203bec60","ios":"levelo://app?vid=fad50468-bff6-4eb0-bc39-08e7203bec60"},"vehicle_type_id":"4","last_reported":1684984039,"current_range_meters":19200,"station_id":"ce4bhs92rcd13ifvqi0g","pricing_plan_id":"free"},{"bike_id":"050bacbd-365e-4759-a583-ecc146186f44","system_id":"levelo_inurba_marseille","lat":43.29708,"lon":5.36602,"is_reserved":false,"is_disabled":false,"rental_uris":{"android":"levelo://app?vid=050bacbd-365e-4759-a583-ecc146186f44","ios":"levelo://app?vid=050bacbd-365e-4759-a583-ecc146186f44"},"vehicle_type_id":"4","last_reported":1684984039,"current_range_meters":29200,"station_id":"","pricing_plan_id":"free"},{"bike_id":"7187ccfd-8c7a-4cc5-91e7-248a68a678e4","system_id":"levelo_inurba_marseille","lat":43.31665,"lon":5.38965,"is_reserved":false,"is_disabled":false,"rental_uris":{"android":"levelo://app?vid=7187ccfd-8c7a-4cc5-91e7-248a68a678e4","ios":"levelo://app?vid=7187ccfd-8c7a-4cc5-91e7-248a68a678e4"},"vehicle_type_id":"4","last_reported":1684984039,"current_range_meters":3200,"station_id":"","pricing_plan_id":"free"},{"bike_id":"253bb9d2-b1fb-40bd-8593-eea7fc182d35","system_id":"levelo_inurba_marseille","lat":43.296921,"lon":5.376579,"is_reserved":false,"is_disabled":false,"rental_uris":{"android":"levelo://app?vid=253bb9d2-b1fb-40bd-8593-eea7fc182d35","ios":"levelo://app?vid=253bb9d2-b1fb-40bd-8593-eea7fc182d35"},"vehicle_type_id":"4","last_reported":1684984039,"current_range_meters":30800,"station_id":"ce4bgkh2rcd13ifvqbl0","pricing_plan_id":"free"},{"bike_id":"848d4752-c98f-4430-9b24-a407d0d5a6ee","system_id":"levelo_inurba_marseille","lat":43.296921,"lon":5.376579,"is_reserved":false,"is_disabled":false,"rental_uris":{"android":"levelo://app?vid=848d4752-c98f-4430-9b24-a407d0d5a6ee","ios":"levelo://app?vid=848d4752-c98f-4430-9b24-a407d0d5a6ee"},"vehicle_type_id":"4","last_reported":1684984039,"current_range_meters":28400,"station_id":"ce4bgkh2rcd13ifvqbl0","pricing_plan_id":"free"},{"bike_id":"84502411-4df8-48b5-bef6-097371dfb74d","system_id":"levelo_inurba_marseille","lat":43.2991,"lon":5.38144,"is_reserved":false,"is_disabled":false,"rental_uris":{"android":"levelo://app?vid=84502411-4df8-48b5-bef6-097371dfb74d","ios":"levelo://app?vid=84502411-4df8-48b5-bef6-097371dfb74d"},"vehicle_type_id":"4","last_reported":1684984039,"current_range_meters":25600,"station_id":"ce4bgj12rcd13ifvqbc0","pricing_plan_id":"free"},{"bike_id":"f2d45249-00b6-47d6-9ee6-155d081ee36d","system_id":"levelo_inurba_marseille","lat":43.299028,"lon":5.381509,"is_reserved":false,"is_disabled":false,"rental_uris":{"android":"levelo://app?vid=f2d45249-00b6-47d6-9ee6-155d081ee36d","ios":"levelo://app?vid=f2d45249-00b6-47d6-9ee6-155d081ee36d"},"vehicle_type_id":"4","last_reported":1684984039,"current_range_meters":21600,"station_id":"ce4bgj12rcd13ifvqbc0","pricing_plan_id":"free"},{"bike_id":"c77457e4-87f3-41b0-904c-85ccd9afea9a","system_id":"levelo_inurba_marseille","lat":43.29905,"lon":5.38143,"is_reserved":false,"is_disabled":false,"rental_uris":{"android":"levelo://app?vid=c77457e4-87f3-41b0-904c-85ccd9afea9a","ios":"levelo://app?vid=c77457e4-87f3-41b0-904c-85ccd9afea9a"},"vehicle_type_id":"4","last_reported":1684984039,"current_range_meters":6800,"station_id":"ce4bgj12rcd13ifvqbc0","pricing_plan_id":"free"},{"bike_id":"900b6f57-26f5-484f-889f-9847d60c517f","system_id":"levelo_inurba_marseille","lat":43.309589,"lon":5.390258,"is_reserved":false,"is_disabled":false,"rental_uris":{"android":"levelo://app?vid=900b6f57-26f5-484f-889f-9847d60c517f","ios":"levelo://app?vid=900b6f57-26f5-484f-889f-9847d60c517f"},"vehicle_type_id":"4","last_reported":1684984039,"current_range_meters":31200,"station_id":"ce4bgup2rcd13ifvqco0","pricing_plan_id":"free"},{"bike_id":"6c811dda-8ade-4eac-a585-d7bb833bc0c1","system_id":"levelo_inurba_marseille","lat":43.309589,"lon":5.390258,"is_reserved":false,"is_disabled":false,"rental_uris":{"android":"levelo://app?vid=6c811dda-8ade-4eac-a585-d7bb833bc0c1","ios":"levelo://app?vid=6c811dda-8ade-4eac-a585-d7bb833bc0c1"},"vehicle_type_id":"4","last_reported":1684984039,"current_range_meters":29200,"station_id":"ce4bgup2rcd13ifvqco0","pricing_plan_id":"free"},{"bike_id":"62daeab9-03ea-4e03-aa2c-9028257d2325","system_id":"levelo_inurba_marseille","lat":43.309589,"lon":5.390258,"is_reserved":false,"is_disabled":false,"rental_uris":{"android":"levelo://app?vid=62daeab9-03ea-4e03-aa2c-9028257d2325","ios":"levelo://app?vid=62daeab9-03ea-4e03-aa2c-9028257d2325"},"vehicle_type_id":"4","last_reported":1684984039,"current_range_meters":26400,"station_id":"ce4bgup2rcd13ifvqco0","pricing_plan_id":"free"},{"bike_id":"4228cdad-fb51-49fb-9e1c-003ed21d34c8","system_id":"levelo_inurba_marseille","lat":43.317557,"lon":5.390173,"is_reserved":false,"is_disabled":false,"rental_uris":{"android":"levelo://app?vid=4228cdad-fb51-49fb-9e1c-003ed21d34c8","ios":"levelo://app?vid=4228cdad-fb51-49fb-9e1c-003ed21d34c8"},"vehicle_type_id":"4","last_reported":1684984039,"current_range_meters":5200,"station_id":"ce4bhqp2rcd13ifvqhng","pricing_plan_id":"free"},{"bike_id":"b760f2f7-fbd3-49c3-940c-2d1c6ffc01d5","system_id":"levelo_inurba_marseille","lat":43.30434,"lon":5.38882,"is_reserved":false,"is_disabled":false,"rental_uris":{"android":"levelo://app?vid=b760f2f7-fbd3-49c3-940c-2d1c6ffc01d5","ios":"levelo://app?vid=b760f2f7-fbd3-49c3-940c-2d1c6ffc01d5"},"vehicle_type_id":"4","last_reported":1684984039,"current_range_meters":26000,"station_id":"ce4bgk12rcd13ifvqbi0","pricing_plan_id":"free"},{"bike_id":"e1d1f05f-4b57-4ef7-bca9-33ac1b1bb140","system_id":"levelo_inurba_marseille","lat":43.30435,"lon":5.38884,"is_reserved":false,"is_disabled":false,"rental_uris":{"android":"levelo://app?vid=e1d1f05f-4b57-4ef7-bca9-33ac1b1bb140","ios":"levelo://app?vid=e1d1f05f-4b57-4ef7-bca9-33ac1b1bb140"},"vehicle_type_id":"4","last_reported":1684984039,"current_range_meters":3200,"station_id":"ce4bgk12rcd13ifvqbi0","pricing_plan_id":"free"},{"bike_id":"7332fb79-b7ef-430b-a7a6-10cae139a19e","system_id":"levelo_inurba_marseille","lat":43.29639,"lon":5.3774,"is_reserved":false,"is_disabled":false,"rental_uris":{"android":"levelo://app?vid=7332fb79-b7ef-430b-a7a6-10cae139a19e","ios":"levelo://app?vid=7332fb79-b7ef-430b-a7a6-10cae139a19e"},"vehicle_type_id":"4","last_reported":1684984039,"current_range_meters":0,"station_id":"ce4bgi92rcd13ifvqb90","pricing_plan_id":"free"},{"bike_id":"497e3183-25ff-4d99-b6db-3831918c2270","system_id":"levelo_inurba_marseille","lat":43.30433,"lon":5.38886,"is_reserved":false,"is_disabled":false,"rental_uris":{"android":"levelo://app?vid=497e3183-25ff-4d99-b6db-3831918c2270","ios":"levelo://app?vid=497e3183-25ff-4d99-b6db-3831918c2270"},"vehicle_type_id":"4","last_reported":1684984039,"current_range_meters":6000,"station_id":"ce4bgk12rcd13ifvqbi0","pricing_plan_id":"free"},{"bike_id":"184da89f-e034-42c8-8f7c-6731bd86c2cc","system_id":"levelo_inurba_marseille","lat":43.304274,"lon":5.388873,"is_reserved":false,"is_disabled":false,"rental_uris":{"android":"levelo://app?vid=184da89f-e034-42c8-8f7c-6731bd86c2cc","ios":"levelo://app?vid=184da89f-e034-42c8-8f7c-6731bd86c2cc"},"vehicle_type_id":"4","last_reported":1684984039,"current_range_meters":12800,"station_id":"ce4bgk12rcd13ifvqbi0","pricing_plan_id":"free"},{"bike_id":"24c7feae-b4e5-4ae0-90eb-7190ba4e5450","system_id":"levelo_inurba_marseille","lat":43.304274,"lon":5.388873,"is_reserved":false,"is_disabled":false,"rental_uris":{"android":"levelo://app?vid=24c7feae-b4e5-4ae0-90eb-7190ba4e5450","ios":"levelo://app?vid=24c7feae-b4e5-4ae0-90eb-7190ba4e5450"},"vehicle_type_id":"4","last_reported":1684984039,"current_range_meters":11600,"station_id":"ce4bgk12rcd13ifvqbi0","pricing_plan_id":"free"},{"bike_id":"3b34414f-772a-42be-8098-108f2a7ed3cd","system_id":"levelo_inurba_marseille","lat":43.30438,"lon":5.38894,"is_reserved":false,"is_disabled":false,"rental_uris":{"android":"levelo://app?vid=3b34414f-772a-42be-8098-108f2a7ed3cd","ios":"levelo://app?vid=3b34414f-772a-42be-8098-108f2a7ed3cd"},"vehicle_type_id":"4","last_reported":1684984039,"current_range_meters":7600,"station_id":"ce4bgk12rcd13ifvqbi0","pricing_plan_id":"free"},{"bike_id":"9b9e2536-8958-4aa2-895b-bb2693ccf83e","system_id":"levelo_inurba_marseille","lat":43.30433,"lon":5.38894,"is_reserved":false,"is_disabled":false,"rental_uris":{"android":"levelo://app?vid=9b9e2536-8958-4aa2-895b-bb2693ccf83e","ios":"levelo://app?vid=9b9e2536-8958-4aa2-895b-bb2693ccf83e"},"vehicle_type_id":"4","last_reported":1684984039,"current_range_meters":30400,"station_id":"ce4bgk12rcd13ifvqbi0","pricing_plan_id":"free"},{"bike_id":"fcbf4e72-3318-43e4-9858-9e1e4afdb760","system_id":"levelo_inurba_marseille","lat":43.32338,"lon":5.38909,"is_reserved":false,"is_disabled":false,"rental_uris":{"android":"levelo://app?vid=fcbf4e72-3318-43e4-9858-9e1e4afdb760","ios":"levelo://app?vid=fcbf4e72-3318-43e4-9858-9e1e4afdb760"},"vehicle_type_id":"4","last_reported":1684984039,"current_range_meters":0,"station_id":"","pricing_plan_id":"free"},{"bike_id":"3f245026-7545-4924-a951-14be0bedc89e","system_id":"levelo_inurba_marseille","lat":43.31291,"lon":5.39369,"is_reserved":false,"is_disabled":false,"rental_uris":{"android":"levelo://app?vid=3f245026-7545-4924-a951-14be0bedc89e","ios":"levelo://app?vid=3f245026-7545-4924-a951-14be0bedc89e"},"vehicle_type_id":"4","last_reported":1684984039,"current_range_meters":3600,"station_id":"","pricing_plan_id":"free"},{"bike_id":"bfdcad51-97fc-4fc5-8b82-c545596782cd","system_id":"levelo_inurba_marseille","lat":43.32497,"lon":5.38792,"is_reserved":false,"is_disabled":false,"rental_uris":{"android":"levelo://app?vid=bfdcad51-97fc-4fc5-8b82-c545596782cd","ios":"levelo://app?vid=bfdcad51-97fc-4fc5-8b82-c545596782cd"},"vehicle_type_id":"4","last_reported":1684984039,"current_range_meters":9600,"station_id":"","pricing_plan_id":"free"},{"bike_id":"f14e98ef-5411-4e82-bde5-c1ae27e7e267","system_id":"levelo_inurba_marseille","lat":43.292749,"lon":5.368402,"is_reserved":false,"is_disabled":false,"rental_uris":{"android":"levelo://app?vid=f14e98ef-5411-4e82-bde5-c1ae27e7e267","ios":"levelo://app?vid=f14e98ef-5411-4e82-bde5-c1ae27e7e267"},"vehicle_type_id":"4","last_reported":1684984039,"current_range_meters":31200,"station_id":"ce4bhbp2rcd13ifvqesg","pricing_plan_id":"free"},{"bike_id":"128a1573-fadb-4f84-a0a4-82d9e6b55327","system_id":"levelo_inurba_marseille","lat":43.29277,"lon":5.3685,"is_reserved":false,"is_disabled":false,"rental_uris":{"android":"levelo://app?vid=128a1573-fadb-4f84-a0a4-82d9e6b55327","ios":"levelo://app?vid=128a1573-fadb-4f84-a0a4-82d9e6b55327"},"vehicle_type_id":"4","last_reported":1684984039,"current_range_meters":27600,"station_id":"ce4bhbp2rcd13ifvqesg","pricing_plan_id":"free"},{"bike_id":"fb7a0de9-d42d-424a-bddb-56f0e3b2fc5f","system_id":"levelo_inurba_marseille","lat":43.29276,"lon":5.36854,"is_reserved":false,"is_disabled":false,"rental_uris":{"android":"levelo://app?vid=fb7a0de9-d42d-424a-bddb-56f0e3b2fc5f","ios":"levelo://app?vid=fb7a0de9-d42d-424a-bddb-56f0e3b2fc5f"},"vehicle_type_id":"4","last_reported":1684984039,"current_range_meters":28800,"station_id":"ce4bhbp2rcd13ifvqesg","pricing_plan_id":"free"},{"bike_id":"f7a8d96f-306a-4bbb-978c-c1754a1d8a55","system_id":"levelo_inurba_marseille","lat":43.292749,"lon":5.368402,"is_reserved":false,"is_disabled":false,"rental_uris":{"android":"levelo://app?vid=f7a8d96f-306a-4bbb-978c-c1754a1d8a55","ios":"levelo://app?vid=f7a8d96f-306a-4bbb-978c-c1754a1d8a55"},"vehicle_type_id":"4","last_reported":1684984039,"current_range_meters":29600,"station_id":"ce4bhbp2rcd13ifvqesg","pricing_plan_id":"free"},{"bike_id":"867b707d-dbf4-40f8-82fc-a291436f2927","system_id":"levelo_inurba_marseille","lat":43.29307,"lon":5.37438,"is_reserved":false,"is_disabled":false,"rental_uris":{"android":"levelo://app?vid=867b707d-dbf4-40f8-82fc-a291436f2927","ios":"levelo://app?vid=867b707d-dbf4-40f8-82fc-a291436f2927"},"vehicle_type_id":"4","last_reported":1684984039,"current_range_meters":22800,"station_id":"ce4bh192rcd13ifvqdd0","pricing_plan_id":"free"},{"bike_id":"a43dbc80-c2e6-405f-85dc-8bf0a88d522f","system_id":"levelo_inurba_marseille","lat":43.302992,"lon":5.392136,"is_reserved":false,"is_disabled":false,"rental_uris":{"android":"levelo://app?vid=a43dbc80-c2e6-405f-85dc-8bf0a88d522f","ios":"levelo://app?vid=a43dbc80-c2e6-405f-85dc-8bf0a88d522f"},"vehicle_type_id":"4","last_reported":1684984039,"current_range_meters":29600,"station_id":"ce4bgkh2rcd13ifvqbk0","pricing_plan_id":"free"},{"bike_id":"b842a883-baab-4aaa-9c22-726d37235f77","system_id":"levelo_inurba_marseille","lat":43.32766,"lon":5.38818,"is_reserved":false,"is_disabled":false,"rental_uris":{"android":"levelo://app?vid=b842a883-baab-4aaa-9c22-726d37235f77","ios":"levelo://app?vid=b842a883-baab-4aaa-9c22-726d37235f77"},"vehicle_type_id":"4","last_reported":1684984039,"current_range_meters":7200,"station_id":"","pricing_plan_id":"free"},{"bike_id":"baf4541d-bb4d-419b-8932-e85ca69fa8ad","system_id":"levelo_inurba_marseille","lat":43.291994,"lon":5.357886,"is_reserved":false,"is_disabled":false,"rental_uris":{"android":"levelo://app?vid=baf4541d-bb4d-419b-8932-e85ca69fa8ad","ios":"levelo://app?vid=baf4541d-bb4d-419b-8932-e85ca69fa8ad"},"vehicle_type_id":"4","last_reported":1684984039,"current_range_meters":6800,"station_id":"ce4bhb12rcd13ifvqel0","pricing_plan_id":"free"},{"bike_id":"785c2350-deb0-47d5-8234-f21c487dda07","system_id":"levelo_inurba_marseille","lat":43.30888,"lon":5.39635,"is_reserved":false,"is_disabled":false,"rental_uris":{"android":"levelo://app?vid=785c2350-deb0-47d5-8234-f21c487dda07","ios":"levelo://app?vid=785c2350-deb0-47d5-8234-f21c487dda07"},"vehicle_type_id":"4","last_reported":1684984039,"current_range_meters":22000,"station_id":"ce4bh012rcd13ifvqcv0","pricing_plan_id":"free"},{"bike_id":"a8ad2fcf-4c89-4ddf-8293-f9096e5faef9","system_id":"levelo_inurba_marseille","lat":43.31323,"lon":5.39682,"is_reserved":false,"is_disabled":false,"rental_uris":{"android":"levelo://app?vid=a8ad2fcf-4c89-4ddf-8293-f9096e5faef9","ios":"levelo://app?vid=a8ad2fcf-4c89-4ddf-8293-f9096e5faef9"},"vehicle_type_id":"4","last_reported":1684984039,"current_range_meters":0,"station_id":"ce4bgvp2rcd13ifvqcu0","pricing_plan_id":"free"},{"bike_id":"22ceb553-4636-4bf7-9e4f-7a93a3348769","system_id":"levelo_inurba_marseille","lat":43.313291,"lon":5.396838,"is_reserved":false,"is_disabled":false,"rental_uris":{"android":"levelo://app?vid=22ceb553-4636-4bf7-9e4f-7a93a3348769","ios":"levelo://app?vid=22ceb553-4636-4bf7-9e4f-7a93a3348769"},"vehicle_type_id":"4","last_reported":1684984039,"current_range_meters":16800,"station_id":"ce4bgvp2rcd13ifvqcu0","pricing_plan_id":"free"},{"bike_id":"ee83c6c0-9484-4cda-9df6-8f8bb96e1df8","system_id":"levelo_inurba_marseille","lat":43.309038,"lon":5.396546,"is_reserved":false,"is_disabled":false,"rental_uris":{"android":"levelo://app?vid=ee83c6c0-9484-4cda-9df6-8f8bb96e1df8","ios":"levelo://app?vid=ee83c6c0-9484-4cda-9df6-8f8bb96e1df8"},"vehicle_type_id":"4","last_reported":1684984039,"current_range_meters":14400,"station_id":"ce4bh012rcd13ifvqcv0","pricing_plan_id":"free"},{"bike_id":"2df0138c-996a-466b-bb58-79a20c3f3078","system_id":"levelo_inurba_marseille","lat":43.309038,"lon":5.396546,"is_reserved":false,"is_disabled":false,"rental_uris":{"android":"levelo://app?vid=2df0138c-996a-466b-bb58-79a20c3f3078","ios":"levelo://app?vid=2df0138c-996a-466b-bb58-79a20c3f3078"},"vehicle_type_id":"4","last_reported":1684984039,"current_range_meters":800,"station_id":"ce4bh012rcd13ifvqcv0","pricing_plan_id":"free"},{"bike_id":"5afb875f-309c-48b4-aac4-19a2f4e8983f","system_id":"levelo_inurba_marseille","lat":43.313291,"lon":5.396838,"is_reserved":false,"is_disabled":false,"rental_uris":{"android":"levelo://app?vid=5afb875f-309c-48b4-aac4-19a2f4e8983f","ios":"levelo://app?vid=5afb875f-309c-48b4-aac4-19a2f4e8983f"},"vehicle_type_id":"4","last_reported":1684984039,"current_range_meters":24800,"station_id":"ce4bgvp2rcd13ifvqcu0","pricing_plan_id":"free"},{"bike_id":"acce7db7-caa0-4bb7-85e2-316c2c76a6f7","system_id":"levelo_inurba_marseille","lat":43.3132,"lon":5.3969,"is_reserved":false,"is_disabled":false,"rental_uris":{"android":"levelo://app?vid=acce7db7-caa0-4bb7-85e2-316c2c76a6f7","ios":"levelo://app?vid=acce7db7-caa0-4bb7-85e2-316c2c76a6f7"},"vehicle_type_id":"4","last_reported":1684984039,"current_range_meters":13200,"station_id":"ce4bgvp2rcd13ifvqcu0","pricing_plan_id":"free"},{"bike_id":"11f1ef6a-329e-4508-89a0-ab2f3fa417fc","system_id":"levelo_inurba_marseille","lat":43.313291,"lon":5.396838,"is_reserved":false,"is_disabled":false,"rental_uris":{"android":"levelo://app?vid=11f1ef6a-329e-4508-89a0-ab2f3fa417fc","ios":"levelo://app?vid=11f1ef6a-329e-4508-89a0-ab2f3fa417fc"},"vehicle_type_id":"4","last_reported":1684984039,"current_range_meters":19200,"station_id":"ce4bgvp2rcd13ifvqcu0","pricing_plan_id":"free"},{"bike_id":"76e7ded7-04d1-4c1b-93d7-332d6d29d9c4","system_id":"levelo_inurba_marseille","lat":43.3088,"lon":5.39643,"is_reserved":false,"is_disabled":false,"rental_uris":{"android":"levelo://app?vid=76e7ded7-04d1-4c1b-93d7-332d6d29d9c4","ios":"levelo://app?vid=76e7ded7-04d1-4c1b-93d7-332d6d29d9c4"},"vehicle_type_id":"4","last_reported":1684984039,"current_range_meters":22000,"station_id":"ce4bh012rcd13ifvqcv0","pricing_plan_id":"free"},{"bike_id":"3927ca54-ef8a-4500-8f05-3961302e72f6","system_id":"levelo_inurba_marseille","lat":43.30883,"lon":5.39644,"is_reserved":false,"is_disabled":false,"rental_uris":{"android":"levelo://app?vid=3927ca54-ef8a-4500-8f05-3961302e72f6","ios":"levelo://app?vid=3927ca54-ef8a-4500-8f05-3961302e72f6"},"vehicle_type_id":"4","last_reported":1684984039,"current_range_meters":22000,"station_id":"ce4bh012rcd13ifvqcv0","pricing_plan_id":"free"},{"bike_id":"af0a295c-ae19-42cb-b8db-a3036f91fbf0","system_id":"levelo_inurba_marseille","lat":43.29189,"lon":5.358,"is_reserved":false,"is_disabled":false,"rental_uris":{"android":"levelo://app?vid=af0a295c-ae19-42cb-b8db-a3036f91fbf0","ios":"levelo://app?vid=af0a295c-ae19-42cb-b8db-a3036f91fbf0"},"vehicle_type_id":"4","last_reported":1684984039,"current_range_meters":0,"station_id":"ce4bhb12rcd13ifvqel0","pricing_plan_id":"free"},{"bike_id":"bfdbe81b-a54d-45dc-98c9-4267cc5699fd","system_id":"levelo_inurba_marseille","lat":43.31331,"lon":5.39694,"is_reserved":false,"is_disabled":false,"rental_uris":{"android":"levelo://app?vid=bfdbe81b-a54d-45dc-98c9-4267cc5699fd","ios":"levelo://app?vid=bfdbe81b-a54d-45dc-98c9-4267cc5699fd"},"vehicle_type_id":"4","last_reported":1684984039,"current_range_meters":4000,"station_id":"ce4bgvp2rcd13ifvqcu0","pricing_plan_id":"free"},{"bike_id":"df1880ac-d231-4326-8b39-c3d013dbb8ca","system_id":"levelo_inurba_marseille","lat":43.3132,"lon":5.39695,"is_reserved":false,"is_disabled":false,"rental_uris":{"android":"levelo://app?vid=df1880ac-d231-4326-8b39-c3d013dbb8ca","ios":"levelo://app?vid=df1880ac-d231-4326-8b39-c3d013dbb8ca"},"vehicle_type_id":"4","last_reported":1684984039,"current_range_meters":24800,"station_id":"ce4bgvp2rcd13ifvqcu0","pricing_plan_id":"free"},{"bike_id":"37cadb1a-8226-423f-9b4e-980f6ffb16e7","system_id":"levelo_inurba_marseille","lat":43.309038,"lon":5.396546,"is_reserved":false,"is_disabled":false,"rental_uris":{"android":"levelo://app?vid=37cadb1a-8226-423f-9b4e-980f6ffb16e7","ios":"levelo://app?vid=37cadb1a-8226-423f-9b4e-980f6ffb16e7"},"vehicle_type_id":"4","last_reported":1684984039,"current_range_meters":27200,"station_id":"ce4bh012rcd13ifvqcv0","pricing_plan_id":"free"},{"bike_id":"09bc6842-f54e-4bb2-bae1-1a1e5351e19d","system_id":"levelo_inurba_marseille","lat":43.31323,"lon":5.39696,"is_reserved":false,"is_disabled":false,"rental_uris":{"android":"levelo://app?vid=09bc6842-f54e-4bb2-bae1-1a1e5351e19d","ios":"levelo://app?vid=09bc6842-f54e-4bb2-bae1-1a1e5351e19d"},"vehicle_type_id":"4","last_reported":1684984039,"current_range_meters":17600,"station_id":"ce4bgvp2rcd13ifvqcu0","pricing_plan_id":"free"},{"bike_id":"31ad45cc-cd55-4fa4-8819-4f1a25288b6a","system_id":"levelo_inurba_marseille","lat":43.313291,"lon":5.396838,"is_reserved":false,"is_disabled":false,"rental_uris":{"android":"levelo://app?vid=31ad45cc-cd55-4fa4-8819-4f1a25288b6a","ios":"levelo://app?vid=31ad45cc-cd55-4fa4-8819-4f1a25288b6a"},"vehicle_type_id":"4","last_reported":1684984039,"current_range_meters":7200,"station_id":"ce4bgvp2rcd13ifvqcu0","pricing_plan_id":"free"},{"bike_id":"794f3774-ad8b-4cdb-a4f7-da6a80488cd5","system_id":"levelo_inurba_marseille","lat":43.30883,"lon":5.39649,"is_reserved":false,"is_disabled":false,"rental_uris":{"android":"levelo://app?vid=794f3774-ad8b-4cdb-a4f7-da6a80488cd5","ios":"levelo://app?vid=794f3774-ad8b-4cdb-a4f7-da6a80488cd5"},"vehicle_type_id":"4","last_reported":1684984039,"current_range_meters":8400,"station_id":"ce4bh012rcd13ifvqcv0","pricing_plan_id":"free"},{"bike_id":"40b68277-6f5f-4aac-8216-847d33e7dfd3","system_id":"levelo_inurba_marseille","lat":43.309038,"lon":5.396546,"is_reserved":false,"is_disabled":false,"rental_uris":{"android":"levelo://app?vid=40b68277-6f5f-4aac-8216-847d33e7dfd3","ios":"levelo://app?vid=40b68277-6f5f-4aac-8216-847d33e7dfd3"},"vehicle_type_id":"4","last_reported":1684984039,"current_range_meters":13600,"station_id":"ce4bh012rcd13ifvqcv0","pricing_plan_id":"free"},{"bike_id":"39b92bc6-2b80-4a42-9abc-2bf32b2b6dfe","system_id":"levelo_inurba_marseille","lat":43.30881,"lon":5.3965,"is_reserved":false,"is_disabled":false,"rental_uris":{"android":"levelo://app?vid=39b92bc6-2b80-4a42-9abc-2bf32b2b6dfe","ios":"levelo://app?vid=39b92bc6-2b80-4a42-9abc-2bf32b2b6dfe"},"vehicle_type_id":"4","last_reported":1684984039,"current_range_meters":25600,"station_id":"ce4bh012rcd13ifvqcv0","pricing_plan_id":"free"},{"bike_id":"b7dc8e89-3981-4ab7-afd2-3b69403ee522","system_id":"levelo_inurba_marseille","lat":43.313291,"lon":5.396838,"is_reserved":false,"is_disabled":false,"rental_uris":{"android":"levelo://app?vid=b7dc8e89-3981-4ab7-afd2-3b69403ee522","ios":"levelo://app?vid=b7dc8e89-3981-4ab7-afd2-3b69403ee522"},"vehicle_type_id":"4","last_reported":1684984039,"current_range_meters":15600,"station_id":"ce4bgvp2rcd13ifvqcu0","pricing_plan_id":"free"},{"bike_id":"be81e138-98e9-40de-82ee-dc7da87ab544","system_id":"levelo_inurba_marseille","lat":43.309038,"lon":5.396546,"is_reserved":false,"is_disabled":false,"rental_uris":{"android":"levelo://app?vid=be81e138-98e9-40de-82ee-dc7da87ab544","ios":"levelo://app?vid=be81e138-98e9-40de-82ee-dc7da87ab544"},"vehicle_type_id":"4","last_reported":1684984039,"current_range_meters":7200,"station_id":"ce4bh012rcd13ifvqcv0","pricing_plan_id":"free"},{"bike_id":"5f98fcc2-0be1-4e7c-8e06-620df7cdbd6d","system_id":"levelo_inurba_marseille","lat":43.309038,"lon":5.396546,"is_reserved":false,"is_disabled":false,"rental_uris":{"android":"levelo://app?vid=5f98fcc2-0be1-4e7c-8e06-620df7cdbd6d","ios":"levelo://app?vid=5f98fcc2-0be1-4e7c-8e06-620df7cdbd6d"},"vehicle_type_id":"4","last_reported":1684984039,"current_range_meters":18400,"station_id":"ce4bh012rcd13ifvqcv0","pricing_plan_id":"free"},{"bike_id":"d4478e5d-9e50-4fee-a0f2-993155a43740","system_id":"levelo_inurba_marseille","lat":43.309038,"lon":5.396546,"is_reserved":false,"is_disabled":false,"rental_uris":{"android":"levelo://app?vid=d4478e5d-9e50-4fee-a0f2-993155a43740","ios":"levelo://app?vid=d4478e5d-9e50-4fee-a0f2-993155a43740"},"vehicle_type_id":"4","last_reported":1684984039,"current_range_meters":18400,"station_id":"ce4bh012rcd13ifvqcv0","pricing_plan_id":"free"},{"bike_id":"07955834-0802-4708-9847-138d2e792e2e","system_id":"levelo_inurba_marseille","lat":43.308956,"lon":5.396575,"is_reserved":false,"is_disabled":false,"rental_uris":{"android":"levelo://app?vid=07955834-0802-4708-9847-138d2e792e2e","ios":"levelo://app?vid=07955834-0802-4708-9847-138d2e792e2e"},"vehicle_type_id":"4","last_reported":1684984039,"current_range_meters":0,"station_id":"","pricing_plan_id":"free"},{"bike_id":"ce2230b3-5873-4e72-a718-1670e15c2050","system_id":"levelo_inurba_marseille","lat":43.309038,"lon":5.396546,"is_reserved":false,"is_disabled":false,"rental_uris":{"android":"levelo://app?vid=ce2230b3-5873-4e72-a718-1670e15c2050","ios":"levelo://app?vid=ce2230b3-5873-4e72-a718-1670e15c2050"},"vehicle_type_id":"4","last_reported":1684984039,"current_range_meters":6400,"station_id":"ce4bh012rcd13ifvqcv0","pricing_plan_id":"free"},{"bike_id":"e88b197a-d9a1-438c-9c7e-5e5594971001","system_id":"levelo_inurba_marseille","lat":43.31327,"lon":5.39711,"is_reserved":false,"is_disabled":false,"rental_uris":{"android":"levelo://app?vid=e88b197a-d9a1-438c-9c7e-5e5594971001","ios":"levelo://app?vid=e88b197a-d9a1-438c-9c7e-5e5594971001"},"vehicle_type_id":"4","last_reported":1684984039,"current_range_meters":1600,"station_id":"ce4bgvp2rcd13ifvqcu0","pricing_plan_id":"free"},{"bike_id":"716be2a0-1933-40f4-bbf9-85725ad4ebbf","system_id":"levelo_inurba_marseille","lat":43.302008,"lon":5.394694,"is_reserved":false,"is_disabled":false,"rental_uris":{"android":"levelo://app?vid=716be2a0-1933-40f4-bbf9-85725ad4ebbf","ios":"levelo://app?vid=716be2a0-1933-40f4-bbf9-85725ad4ebbf"},"vehicle_type_id":"4","last_reported":1684984039,"current_range_meters":27200,"station_id":"ce4bh0p2rcd13ifvqd70","pricing_plan_id":"free"},{"bike_id":"4f9637c6-3870-43cd-bf5e-f9cfd23b1d10","system_id":"levelo_inurba_marseille","lat":43.290624,"lon":5.359245,"is_reserved":false,"is_disabled":false,"rental_uris":{"android":"levelo://app?vid=4f9637c6-3870-43cd-bf5e-f9cfd23b1d10","ios":"levelo://app?vid=4f9637c6-3870-43cd-bf5e-f9cfd23b1d10"},"vehicle_type_id":"4","last_reported":1684984039,"current_range_meters":28400,"station_id":"ce4bha92rcd13ifvqeg0","pricing_plan_id":"free"},{"bike_id":"8c8acfdb-f5a3-41ec-8586-d0a903d0fa80","system_id":"levelo_inurba_marseille","lat":43.290631,"lon":5.359244,"is_reserved":false,"is_disabled":false,"rental_uris":{"android":"levelo://app?vid=8c8acfdb-f5a3-41ec-8586-d0a903d0fa80","ios":"levelo://app?vid=8c8acfdb-f5a3-41ec-8586-d0a903d0fa80"},"vehicle_type_id":"4","last_reported":1684984039,"current_range_meters":28400,"station_id":"ce4bha92rcd13ifvqeg0","pricing_plan_id":"free"},{"bike_id":"8e37c4bc-db58-42b2-adc4-6aa7b839ace8","system_id":"levelo_inurba_marseille","lat":43.289184,"lon":5.366408,"is_reserved":false,"is_disabled":false,"rental_uris":{"android":"levelo://app?vid=8e37c4bc-db58-42b2-adc4-6aa7b839ace8","ios":"levelo://app?vid=8e37c4bc-db58-42b2-adc4-6aa7b839ace8"},"vehicle_type_id":"4","last_reported":1684984039,"current_range_meters":31200,"station_id":"ce4bhap2rcd13ifvqek0","pricing_plan_id":"free"},{"bike_id":"44fba8ad-f3bb-4b30-84f0-5509f135e8b4","system_id":"levelo_inurba_marseille","lat":43.28947,"lon":5.36637,"is_reserved":false,"is_disabled":false,"rental_uris":{"android":"levelo://app?vid=44fba8ad-f3bb-4b30-84f0-5509f135e8b4","ios":"levelo://app?vid=44fba8ad-f3bb-4b30-84f0-5509f135e8b4"},"vehicle_type_id":"4","last_reported":1684984039,"current_range_meters":31200,"station_id":"","pricing_plan_id":"free"},{"bike_id":"4146b4d4-c8ae-4e00-8b34-f8102e7e0e57","system_id":"levelo_inurba_marseille","lat":43.289184,"lon":5.366408,"is_reserved":false,"is_disabled":false,"rental_uris":{"android":"levelo://app?vid=4146b4d4-c8ae-4e00-8b34-f8102e7e0e57","ios":"levelo://app?vid=4146b4d4-c8ae-4e00-8b34-f8102e7e0e57"},"vehicle_type_id":"4","last_reported":1684984039,"current_range_meters":30000,"station_id":"ce4bhap2rcd13ifvqek0","pricing_plan_id":"free"},{"bike_id":"f6369698-25c6-48c9-b431-a1e6a4bbfcc9","system_id":"levelo_inurba_marseille","lat":43.28945,"lon":5.36635,"is_reserved":false,"is_disabled":false,"rental_uris":{"android":"levelo://app?vid=f6369698-25c6-48c9-b431-a1e6a4bbfcc9","ios":"levelo://app?vid=f6369698-25c6-48c9-b431-a1e6a4bbfcc9"},"vehicle_type_id":"4","last_reported":1684984039,"current_range_meters":31200,"station_id":"ce4bhap2rcd13ifvqek0","pricing_plan_id":"free"},{"bike_id":"c290c9a5-91e5-4a01-b28a-bae38d70be59","system_id":"levelo_inurba_marseille","lat":43.289184,"lon":5.366408,"is_reserved":false,"is_disabled":false,"rental_uris":{"android":"levelo://app?vid=c290c9a5-91e5-4a01-b28a-bae38d70be59","ios":"levelo://app?vid=c290c9a5-91e5-4a01-b28a-bae38d70be59"},"vehicle_type_id":"4","last_reported":1684984039,"current_range_meters":30000,"station_id":"ce4bhap2rcd13ifvqek0","pricing_plan_id":"free"},{"bike_id":"50801b8b-e10d-4a4f-819a-57773e991d5e","system_id":"levelo_inurba_marseille","lat":43.289184,"lon":5.366408,"is_reserved":false,"is_disabled":false,"rental_uris":{"android":"levelo://app?vid=50801b8b-e10d-4a4f-819a-57773e991d5e","ios":"levelo://app?vid=50801b8b-e10d-4a4f-819a-57773e991d5e"},"vehicle_type_id":"4","last_reported":1684984039,"current_range_meters":31200,"station_id":"ce4bhap2rcd13ifvqek0","pricing_plan_id":"free"},{"bike_id":"b5487e63-a2ff-4a81-a110-f61bd81ee2e2","system_id":"levelo_inurba_marseille","lat":43.289184,"lon":5.366408,"is_reserved":false,"is_disabled":false,"rental_uris":{"android":"levelo://app?vid=b5487e63-a2ff-4a81-a110-f61bd81ee2e2","ios":"levelo://app?vid=b5487e63-a2ff-4a81-a110-f61bd81ee2e2"},"vehicle_type_id":"4","last_reported":1684984039,"current_range_meters":30400,"station_id":"ce4bhap2rcd13ifvqek0","pricing_plan_id":"free"},{"bike_id":"60fe0775-d04b-464e-a73f-734de671b1bf","system_id":"levelo_inurba_marseille","lat":43.289184,"lon":5.366408,"is_reserved":false,"is_disabled":false,"rental_uris":{"android":"levelo://app?vid=60fe0775-d04b-464e-a73f-734de671b1bf","ios":"levelo://app?vid=60fe0775-d04b-464e-a73f-734de671b1bf"},"vehicle_type_id":"4","last_reported":1684984039,"current_range_meters":31200,"station_id":"ce4bhap2rcd13ifvqek0","pricing_plan_id":"free"},{"bike_id":"c6c438af-1b7f-426c-8dde-f6ae99f88289","system_id":"levelo_inurba_marseille","lat":43.289184,"lon":5.366408,"is_reserved":false,"is_disabled":false,"rental_uris":{"android":"levelo://app?vid=c6c438af-1b7f-426c-8dde-f6ae99f88289","ios":"levelo://app?vid=c6c438af-1b7f-426c-8dde-f6ae99f88289"},"vehicle_type_id":"4","last_reported":1684984039,"current_range_meters":28400,"station_id":"ce4bhap2rcd13ifvqek0","pricing_plan_id":"free"},{"bike_id":"fa43d385-88c7-49b4-aed7-04a17f094dc4","system_id":"levelo_inurba_marseille","lat":43.289184,"lon":5.366408,"is_reserved":false,"is_disabled":false,"rental_uris":{"android":"levelo://app?vid=fa43d385-88c7-49b4-aed7-04a17f094dc4","ios":"levelo://app?vid=fa43d385-88c7-49b4-aed7-04a17f094dc4"},"vehicle_type_id":"4","last_reported":1684984039,"current_range_meters":27600,"station_id":"ce4bhap2rcd13ifvqek0","pricing_plan_id":"free"},{"bike_id":"d2991e64-b2ff-43e2-8bcc-89c772abf29a","system_id":"levelo_inurba_marseille","lat":43.289184,"lon":5.366408,"is_reserved":false,"is_disabled":false,"rental_uris":{"android":"levelo://app?vid=d2991e64-b2ff-43e2-8bcc-89c772abf29a","ios":"levelo://app?vid=d2991e64-b2ff-43e2-8bcc-89c772abf29a"},"vehicle_type_id":"4","last_reported":1684984039,"current_range_meters":26000,"station_id":"ce4bhap2rcd13ifvqek0","pricing_plan_id":"free"},{"bike_id":"3da05009-c87f-441d-a34f-d5cb52e742af","system_id":"levelo_inurba_marseille","lat":43.289184,"lon":5.366408,"is_reserved":false,"is_disabled":false,"rental_uris":{"android":"levelo://app?vid=3da05009-c87f-441d-a34f-d5cb52e742af","ios":"levelo://app?vid=3da05009-c87f-441d-a34f-d5cb52e742af"},"vehicle_type_id":"4","last_reported":1684984039,"current_range_meters":30000,"station_id":"ce4bhap2rcd13ifvqek0","pricing_plan_id":"free"},{"bike_id":"5725a808-9cfd-4f69-8ab2-bdc589084833","system_id":"levelo_inurba_marseille","lat":43.289468,"lon":5.363719,"is_reserved":false,"is_disabled":false,"rental_uris":{"android":"levelo://app?vid=5725a808-9cfd-4f69-8ab2-bdc589084833","ios":"levelo://app?vid=5725a808-9cfd-4f69-8ab2-bdc589084833"},"vehicle_type_id":"4","last_reported":1684984039,"current_range_meters":29600,"station_id":"ce4bhc92rcd13ifvqetg","pricing_plan_id":"free"},{"bike_id":"99d787be-1053-45e0-819f-ceff9d810ad1","system_id":"levelo_inurba_marseille","lat":43.289468,"lon":5.363719,"is_reserved":false,"is_disabled":false,"rental_uris":{"android":"levelo://app?vid=99d787be-1053-45e0-819f-ceff9d810ad1","ios":"levelo://app?vid=99d787be-1053-45e0-819f-ceff9d810ad1"},"vehicle_type_id":"4","last_reported":1684984039,"current_range_meters":28000,"station_id":"ce4bhc92rcd13ifvqetg","pricing_plan_id":"free"},{"bike_id":"0b567880-3d8a-4493-ae5f-ce9c836d4191","system_id":"levelo_inurba_marseille","lat":43.28934,"lon":5.36397,"is_reserved":false,"is_disabled":false,"rental_uris":{"android":"levelo://app?vid=0b567880-3d8a-4493-ae5f-ce9c836d4191","ios":"levelo://app?vid=0b567880-3d8a-4493-ae5f-ce9c836d4191"},"vehicle_type_id":"4","last_reported":1684984039,"current_range_meters":0,"station_id":"ce4bhc92rcd13ifvqetg","pricing_plan_id":"free"},{"bike_id":"97ce13d7-8f03-4099-b354-bc7c8cf2a615","system_id":"levelo_inurba_marseille","lat":43.304296,"lon":5.397513,"is_reserved":false,"is_disabled":false,"rental_uris":{"android":"levelo://app?vid=97ce13d7-8f03-4099-b354-bc7c8cf2a615","ios":"levelo://app?vid=97ce13d7-8f03-4099-b354-bc7c8cf2a615"},"vehicle_type_id":"4","last_reported":1684984039,"current_range_meters":29600,"station_id":"ce4bh092rcd13ifvqd20","pricing_plan_id":"free"},{"bike_id":"86b1bcc2-9ff6-4dd0-b7be-ea6d1ca53593","system_id":"levelo_inurba_marseille","lat":43.304296,"lon":5.397513,"is_reserved":false,"is_disabled":false,"rental_uris":{"android":"levelo://app?vid=86b1bcc2-9ff6-4dd0-b7be-ea6d1ca53593","ios":"levelo://app?vid=86b1bcc2-9ff6-4dd0-b7be-ea6d1ca53593"},"vehicle_type_id":"4","last_reported":1684984039,"current_range_meters":30000,"station_id":"ce4bh092rcd13ifvqd20","pricing_plan_id":"free"},{"bike_id":"e79ba1f0-85ec-444a-b686-cdb3a6e720c6","system_id":"levelo_inurba_marseille","lat":43.304296,"lon":5.397513,"is_reserved":false,"is_disabled":false,"rental_uris":{"android":"levelo://app?vid=e79ba1f0-85ec-444a-b686-cdb3a6e720c6","ios":"levelo://app?vid=e79ba1f0-85ec-444a-b686-cdb3a6e720c6"},"vehicle_type_id":"4","last_reported":1684984039,"current_range_meters":27600,"station_id":"ce4bh092rcd13ifvqd20","pricing_plan_id":"free"},{"bike_id":"7af0c0c8-7163-465c-8186-a80ea83a2a13","system_id":"levelo_inurba_marseille","lat":43.304274,"lon":5.397513,"is_reserved":false,"is_disabled":false,"rental_uris":{"android":"levelo://app?vid=7af0c0c8-7163-465c-8186-a80ea83a2a13","ios":"levelo://app?vid=7af0c0c8-7163-465c-8186-a80ea83a2a13"},"vehicle_type_id":"4","last_reported":1684984039,"current_range_meters":25200,"station_id":"ce4bh092rcd13ifvqd20","pricing_plan_id":"free"},{"bike_id":"3427e378-5300-4bcc-9f34-ebfb41bb1668","system_id":"levelo_inurba_marseille","lat":43.304296,"lon":5.397513,"is_reserved":false,"is_disabled":false,"rental_uris":{"android":"levelo://app?vid=3427e378-5300-4bcc-9f34-ebfb41bb1668","ios":"levelo://app?vid=3427e378-5300-4bcc-9f34-ebfb41bb1668"},"vehicle_type_id":"4","last_reported":1684984039,"current_range_meters":31600,"station_id":"ce4bh092rcd13ifvqd20","pricing_plan_id":"free"},{"bike_id":"0f9425f6-a3ba-4831-a9f3-0955aae43b65","system_id":"levelo_inurba_marseille","lat":43.3304,"lon":5.38918,"is_reserved":false,"is_disabled":false,"rental_uris":{"android":"levelo://app?vid=0f9425f6-a3ba-4831-a9f3-0955aae43b65","ios":"levelo://app?vid=0f9425f6-a3ba-4831-a9f3-0955aae43b65"},"vehicle_type_id":"4","last_reported":1684984039,"current_range_meters":25200,"station_id":"ce4bhr92rcd13ifvqhrg","pricing_plan_id":"free"},{"bike_id":"21617d98-7753-408e-aa57-197f55ab36d7","system_id":"levelo_inurba_marseille","lat":43.290104,"lon":5.356111,"is_reserved":false,"is_disabled":false,"rental_uris":{"android":"levelo://app?vid=21617d98-7753-408e-aa57-197f55ab36d7","ios":"levelo://app?vid=21617d98-7753-408e-aa57-197f55ab36d7"},"vehicle_type_id":"4","last_reported":1684984039,"current_range_meters":28000,"station_id":"ce4bhb92rcd13ifvqen0","pricing_plan_id":"free"},{"bike_id":"2fc2c6b3-1be8-4eda-8376-caa8cb2396aa","system_id":"levelo_inurba_marseille","lat":43.33047,"lon":5.38913,"is_reserved":false,"is_disabled":false,"rental_uris":{"android":"levelo://app?vid=2fc2c6b3-1be8-4eda-8376-caa8cb2396aa","ios":"levelo://app?vid=2fc2c6b3-1be8-4eda-8376-caa8cb2396aa"},"vehicle_type_id":"4","last_reported":1684984039,"current_range_meters":16000,"station_id":"ce4bhr92rcd13ifvqhrg","pricing_plan_id":"free"},{"bike_id":"de9926d2-7bc1-4035-b7d1-02a6f4811dea","system_id":"levelo_inurba_marseille","lat":43.33047,"lon":5.38913,"is_reserved":false,"is_disabled":false,"rental_uris":{"android":"levelo://app?vid=de9926d2-7bc1-4035-b7d1-02a6f4811dea","ios":"levelo://app?vid=de9926d2-7bc1-4035-b7d1-02a6f4811dea"},"vehicle_type_id":"4","last_reported":1684984039,"current_range_meters":29600,"station_id":"ce4bhr92rcd13ifvqhrg","pricing_plan_id":"free"},{"bike_id":"fe5ecaf9-a0c8-4337-b541-052d281d9d38","system_id":"levelo_inurba_marseille","lat":43.290104,"lon":5.356111,"is_reserved":false,"is_disabled":false,"rental_uris":{"android":"levelo://app?vid=fe5ecaf9-a0c8-4337-b541-052d281d9d38","ios":"levelo://app?vid=fe5ecaf9-a0c8-4337-b541-052d281d9d38"},"vehicle_type_id":"4","last_reported":1684984039,"current_range_meters":26000,"station_id":"ce4bhb92rcd13ifvqen0","pricing_plan_id":"free"},{"bike_id":"d45014e4-0171-4e37-9b25-188fd673a4c7","system_id":"levelo_inurba_marseille","lat":43.290932,"lon":5.381277,"is_reserved":false,"is_disabled":false,"rental_uris":{"android":"levelo://app?vid=d45014e4-0171-4e37-9b25-188fd673a4c7","ios":"levelo://app?vid=d45014e4-0171-4e37-9b25-188fd673a4c7"},"vehicle_type_id":"4","last_reported":1684984039,"current_range_meters":2000,"station_id":"","pricing_plan_id":"free"},{"bike_id":"0690dfa6-3beb-48c6-82c6-e9260c6b453d","system_id":"levelo_inurba_marseille","lat":43.297814,"lon":5.393513,"is_reserved":false,"is_disabled":false,"rental_uris":{"android":"levelo://app?vid=0690dfa6-3beb-48c6-82c6-e9260c6b453d","ios":"levelo://app?vid=0690dfa6-3beb-48c6-82c6-e9260c6b453d"},"vehicle_type_id":"4","last_reported":1684984039,"current_range_meters":23600,"station_id":"chh1huq6cuj3fo74tm60","pricing_plan_id":"free"},{"bike_id":"80b3c35e-cdd1-4cbd-831f-3568029b676f","system_id":"levelo_inurba_marseille","lat":43.297814,"lon":5.393513,"is_reserved":false,"is_disabled":false,"rental_uris":{"android":"levelo://app?vid=80b3c35e-cdd1-4cbd-831f-3568029b676f","ios":"levelo://app?vid=80b3c35e-cdd1-4cbd-831f-3568029b676f"},"vehicle_type_id":"4","last_reported":1684984039,"current_range_meters":3600,"station_id":"chh1huq6cuj3fo74tm60","pricing_plan_id":"free"},{"bike_id":"3e7a8e17-ef79-47f0-8530-1e3d823da94f","system_id":"levelo_inurba_marseille","lat":43.29243,"lon":5.3854,"is_reserved":false,"is_disabled":false,"rental_uris":{"android":"levelo://app?vid=3e7a8e17-ef79-47f0-8530-1e3d823da94f","ios":"levelo://app?vid=3e7a8e17-ef79-47f0-8530-1e3d823da94f"},"vehicle_type_id":"4","last_reported":1684984039,"current_range_meters":1200,"station_id":"","pricing_plan_id":"free"},{"bike_id":"c8b210c8-3e43-4c4b-958e-a23f9554259f","system_id":"levelo_inurba_marseille","lat":43.2979,"lon":5.39352,"is_reserved":false,"is_disabled":false,"rental_uris":{"android":"levelo://app?vid=c8b210c8-3e43-4c4b-958e-a23f9554259f","ios":"levelo://app?vid=c8b210c8-3e43-4c4b-958e-a23f9554259f"},"vehicle_type_id":"4","last_reported":1684984039,"current_range_meters":20000,"station_id":"chh1huq6cuj3fo74tm60","pricing_plan_id":"free"},{"bike_id":"6d75f381-583f-4ca2-a254-ac7ecd07e692","system_id":"levelo_inurba_marseille","lat":43.297814,"lon":5.393513,"is_reserved":false,"is_disabled":false,"rental_uris":{"android":"levelo://app?vid=6d75f381-583f-4ca2-a254-ac7ecd07e692","ios":"levelo://app?vid=6d75f381-583f-4ca2-a254-ac7ecd07e692"},"vehicle_type_id":"4","last_reported":1684984039,"current_range_meters":400,"station_id":"chh1huq6cuj3fo74tm60","pricing_plan_id":"free"},{"bike_id":"80afdb09-b071-411c-9756-ba719c3a34d4","system_id":"levelo_inurba_marseille","lat":43.28976,"lon":5.378464,"is_reserved":false,"is_disabled":false,"rental_uris":{"android":"levelo://app?vid=80afdb09-b071-411c-9756-ba719c3a34d4","ios":"levelo://app?vid=80afdb09-b071-411c-9756-ba719c3a34d4"},"vehicle_type_id":"4","last_reported":1684984039,"current_range_meters":23200,"station_id":"","pricing_plan_id":"free"},{"bike_id":"980ed30b-ce04-4142-b775-f35803f42cad","system_id":"levelo_inurba_marseille","lat":43.28974,"lon":5.37839,"is_reserved":false,"is_disabled":false,"rental_uris":{"android":"levelo://app?vid=980ed30b-ce04-4142-b775-f35803f42cad","ios":"levelo://app?vid=980ed30b-ce04-4142-b775-f35803f42cad"},"vehicle_type_id":"4","last_reported":1684984039,"current_range_meters":30400,"station_id":"ce4bh9p2rcd13ifvqed0","pricing_plan_id":"free"},{"bike_id":"1fa30637-6e39-4848-b63f-7be84875caa9","system_id":"levelo_inurba_marseille","lat":43.297814,"lon":5.393513,"is_reserved":false,"is_disabled":false,"rental_uris":{"android":"levelo://app?vid=1fa30637-6e39-4848-b63f-7be84875caa9","ios":"levelo://app?vid=1fa30637-6e39-4848-b63f-7be84875caa9"},"vehicle_type_id":"4","last_reported":1684984039,"current_range_meters":0,"station_id":"chh1huq6cuj3fo74tm60","pricing_plan_id":"free"},{"bike_id":"81bad515-29f3-44b1-ab10-7ffba6a0a1b8","system_id":"levelo_inurba_marseille","lat":43.28969,"lon":5.37843,"is_reserved":false,"is_disabled":false,"rental_uris":{"android":"levelo://app?vid=81bad515-29f3-44b1-ab10-7ffba6a0a1b8","ios":"levelo://app?vid=81bad515-29f3-44b1-ab10-7ffba6a0a1b8"},"vehicle_type_id":"4","last_reported":1684984039,"current_range_meters":28400,"station_id":"ce4bh9p2rcd13ifvqed0","pricing_plan_id":"free"},{"bike_id":"2c2693e8-76f7-4704-8e14-bfb6e4fab706","system_id":"levelo_inurba_marseille","lat":43.290094,"lon":5.381264,"is_reserved":false,"is_disabled":false,"rental_uris":{"android":"levelo://app?vid=2c2693e8-76f7-4704-8e14-bfb6e4fab706","ios":"levelo://app?vid=2c2693e8-76f7-4704-8e14-bfb6e4fab706"},"vehicle_type_id":"4","last_reported":1684984039,"current_range_meters":30400,"station_id":"ce4bh4p2rcd13ifvqe1g","pricing_plan_id":"free"},{"bike_id":"bb41cdb6-2de6-4e5f-b9bc-e58a858370e4","system_id":"levelo_inurba_marseille","lat":43.290094,"lon":5.381264,"is_reserved":false,"is_disabled":false,"rental_uris":{"android":"levelo://app?vid=bb41cdb6-2de6-4e5f-b9bc-e58a858370e4","ios":"levelo://app?vid=bb41cdb6-2de6-4e5f-b9bc-e58a858370e4"},"vehicle_type_id":"4","last_reported":1684984039,"current_range_meters":28400,"station_id":"ce4bh4p2rcd13ifvqe1g","pricing_plan_id":"free"},{"bike_id":"01128d1b-f9d3-40e7-b1d4-42bbc2ccad8e","system_id":"levelo_inurba_marseille","lat":43.28856,"lon":5.358371,"is_reserved":false,"is_disabled":false,"rental_uris":{"android":"levelo://app?vid=01128d1b-f9d3-40e7-b1d4-42bbc2ccad8e","ios":"levelo://app?vid=01128d1b-f9d3-40e7-b1d4-42bbc2ccad8e"},"vehicle_type_id":"4","last_reported":1684984039,"current_range_meters":31200,"station_id":"ce4bhb12rcd13ifvqem0","pricing_plan_id":"free"},{"bike_id":"6edc4138-b004-4d48-ba51-894230a2936b","system_id":"levelo_inurba_marseille","lat":43.28856,"lon":5.358371,"is_reserved":false,"is_disabled":false,"rental_uris":{"android":"levelo://app?vid=6edc4138-b004-4d48-ba51-894230a2936b","ios":"levelo://app?vid=6edc4138-b004-4d48-ba51-894230a2936b"},"vehicle_type_id":"4","last_reported":1684984039,"current_range_meters":28000,"station_id":"ce4bhb12rcd13ifvqem0","pricing_plan_id":"free"},{"bike_id":"b462df42-a90a-44a1-bd0a-81511349408d","system_id":"levelo_inurba_marseille","lat":43.290094,"lon":5.381264,"is_reserved":false,"is_disabled":false,"rental_uris":{"android":"levelo://app?vid=b462df42-a90a-44a1-bd0a-81511349408d","ios":"levelo://app?vid=b462df42-a90a-44a1-bd0a-81511349408d"},"vehicle_type_id":"4","last_reported":1684984039,"current_range_meters":31200,"station_id":"ce4bh4p2rcd13ifvqe1g","pricing_plan_id":"free"},{"bike_id":"acb091aa-de4e-403c-a548-aed16f7460d3","system_id":"levelo_inurba_marseille","lat":43.28856,"lon":5.358371,"is_reserved":false,"is_disabled":false,"rental_uris":{"android":"levelo://app?vid=acb091aa-de4e-403c-a548-aed16f7460d3","ios":"levelo://app?vid=acb091aa-de4e-403c-a548-aed16f7460d3"},"vehicle_type_id":"4","last_reported":1684984039,"current_range_meters":31200,"station_id":"ce4bhb12rcd13ifvqem0","pricing_plan_id":"free"},{"bike_id":"14004f30-4be5-4f69-92c8-180c9e3f4830","system_id":"levelo_inurba_marseille","lat":43.28856,"lon":5.358371,"is_reserved":false,"is_disabled":false,"rental_uris":{"android":"levelo://app?vid=14004f30-4be5-4f69-92c8-180c9e3f4830","ios":"levelo://app?vid=14004f30-4be5-4f69-92c8-180c9e3f4830"},"vehicle_type_id":"4","last_reported":1684984039,"current_range_meters":26800,"station_id":"ce4bhb12rcd13ifvqem0","pricing_plan_id":"free"},{"bike_id":"069d8faa-e6f8-4c36-9085-e80693748fdf","system_id":"levelo_inurba_marseille","lat":43.28848,"lon":5.35844,"is_reserved":false,"is_disabled":false,"rental_uris":{"android":"levelo://app?vid=069d8faa-e6f8-4c36-9085-e80693748fdf","ios":"levelo://app?vid=069d8faa-e6f8-4c36-9085-e80693748fdf"},"vehicle_type_id":"4","last_reported":1684984039,"current_range_meters":2400,"station_id":"ce4bhb12rcd13ifvqem0","pricing_plan_id":"free"},{"bike_id":"a844e9e3-cee4-4170-864a-104b52285d48","system_id":"levelo_inurba_marseille","lat":43.28856,"lon":5.358371,"is_reserved":false,"is_disabled":false,"rental_uris":{"android":"levelo://app?vid=a844e9e3-cee4-4170-864a-104b52285d48","ios":"levelo://app?vid=a844e9e3-cee4-4170-864a-104b52285d48"},"vehicle_type_id":"4","last_reported":1684984039,"current_range_meters":30800,"station_id":"ce4bhb12rcd13ifvqem0","pricing_plan_id":"free"},{"bike_id":"520fc77a-7d4a-40bb-ad89-fdcc0c148c34","system_id":"levelo_inurba_marseille","lat":43.33735,"lon":5.37451,"is_reserved":false,"is_disabled":false,"rental_uris":{"android":"levelo://app?vid=520fc77a-7d4a-40bb-ad89-fdcc0c148c34","ios":"levelo://app?vid=520fc77a-7d4a-40bb-ad89-fdcc0c148c34"},"vehicle_type_id":"4","last_reported":1684984039,"current_range_meters":26800,"station_id":"","pricing_plan_id":"free"},{"bike_id":"40b58590-091a-4add-9f25-2c62b7c16693","system_id":"levelo_inurba_marseille","lat":43.33733,"lon":5.37474,"is_reserved":false,"is_disabled":false,"rental_uris":{"android":"levelo://app?vid=40b58590-091a-4add-9f25-2c62b7c16693","ios":"levelo://app?vid=40b58590-091a-4add-9f25-2c62b7c16693"},"vehicle_type_id":"4","last_reported":1684984039,"current_range_meters":31200,"station_id":"","pricing_plan_id":"free"},{"bike_id":"deccdead-3a19-4eb1-a04e-30061fe6dc26","system_id":"levelo_inurba_marseille","lat":43.33752,"lon":5.37442,"is_reserved":false,"is_disabled":false,"rental_uris":{"android":"levelo://app?vid=deccdead-3a19-4eb1-a04e-30061fe6dc26","ios":"levelo://app?vid=deccdead-3a19-4eb1-a04e-30061fe6dc26"},"vehicle_type_id":"4","last_reported":1684984039,"current_range_meters":22400,"station_id":"","pricing_plan_id":"free"},{"bike_id":"d04b56e1-06bc-4ef9-b91a-3a97b29c531c","system_id":"levelo_inurba_marseille","lat":43.30642,"lon":5.401031,"is_reserved":false,"is_disabled":false,"rental_uris":{"android":"levelo://app?vid=d04b56e1-06bc-4ef9-b91a-3a97b29c531c","ios":"levelo://app?vid=d04b56e1-06bc-4ef9-b91a-3a97b29c531c"},"vehicle_type_id":"4","last_reported":1684984039,"current_range_meters":6400,"station_id":"ce4bh112rcd13ifvqda0","pricing_plan_id":"free"},{"bike_id":"b5fd9918-f4b8-4618-bcb3-ec74ff85bc47","system_id":"levelo_inurba_marseille","lat":43.33754,"lon":5.37452,"is_reserved":false,"is_disabled":false,"rental_uris":{"android":"levelo://app?vid=b5fd9918-f4b8-4618-bcb3-ec74ff85bc47","ios":"levelo://app?vid=b5fd9918-f4b8-4618-bcb3-ec74ff85bc47"},"vehicle_type_id":"4","last_reported":1684984039,"current_range_meters":24000,"station_id":"","pricing_plan_id":"free"},{"bike_id":"675fdc6d-1648-4de6-a888-43358c8b34e9","system_id":"levelo_inurba_marseille","lat":43.30642,"lon":5.401031,"is_reserved":false,"is_disabled":false,"rental_uris":{"android":"levelo://app?vid=675fdc6d-1648-4de6-a888-43358c8b34e9","ios":"levelo://app?vid=675fdc6d-1648-4de6-a888-43358c8b34e9"},"vehicle_type_id":"4","last_reported":1684984039,"current_range_meters":0,"station_id":"ce4bh112rcd13ifvqda0","pricing_plan_id":"free"},{"bike_id":"303216a1-40d3-4e4e-9e9d-5a7d1c8404e8","system_id":"levelo_inurba_marseille","lat":43.30642,"lon":5.401031,"is_reserved":false,"is_disabled":false,"rental_uris":{"android":"levelo://app?vid=303216a1-40d3-4e4e-9e9d-5a7d1c8404e8","ios":"levelo://app?vid=303216a1-40d3-4e4e-9e9d-5a7d1c8404e8"},"vehicle_type_id":"4","last_reported":1684984039,"current_range_meters":16800,"station_id":"ce4bh112rcd13ifvqda0","pricing_plan_id":"free"},{"bike_id":"0382b7b0-eb84-40b2-a7c5-cb9fa4e6ce0e","system_id":"levelo_inurba_marseille","lat":43.30642,"lon":5.401031,"is_reserved":false,"is_disabled":false,"rental_uris":{"android":"levelo://app?vid=0382b7b0-eb84-40b2-a7c5-cb9fa4e6ce0e","ios":"levelo://app?vid=0382b7b0-eb84-40b2-a7c5-cb9fa4e6ce0e"},"vehicle_type_id":"4","last_reported":1684984039,"current_range_meters":9200,"station_id":"ce4bh112rcd13ifvqda0","pricing_plan_id":"free"},{"bike_id":"15278201-1566-459c-a305-897c8f5c3a95","system_id":"levelo_inurba_marseille","lat":43.30642,"lon":5.401031,"is_reserved":false,"is_disabled":false,"rental_uris":{"android":"levelo://app?vid=15278201-1566-459c-a305-897c8f5c3a95","ios":"levelo://app?vid=15278201-1566-459c-a305-897c8f5c3a95"},"vehicle_type_id":"4","last_reported":1684984039,"current_range_meters":28000,"station_id":"ce4bh112rcd13ifvqda0","pricing_plan_id":"free"},{"bike_id":"6b4d66f6-48bd-444f-b146-965b7b43b139","system_id":"levelo_inurba_marseille","lat":43.30642,"lon":5.401031,"is_reserved":false,"is_disabled":false,"rental_uris":{"android":"levelo://app?vid=6b4d66f6-48bd-444f-b146-965b7b43b139","ios":"levelo://app?vid=6b4d66f6-48bd-444f-b146-965b7b43b139"},"vehicle_type_id":"4","last_reported":1684984039,"current_range_meters":17200,"station_id":"ce4bh112rcd13ifvqda0","pricing_plan_id":"free"},{"bike_id":"4f17b96c-aa92-4852-bd97-1a0a1b22e6e9","system_id":"levelo_inurba_marseille","lat":43.301117,"lon":5.398795,"is_reserved":false,"is_disabled":false,"rental_uris":{"android":"levelo://app?vid=4f17b96c-aa92-4852-bd97-1a0a1b22e6e9","ios":"levelo://app?vid=4f17b96c-aa92-4852-bd97-1a0a1b22e6e9"},"vehicle_type_id":"4","last_reported":1684984039,"current_range_meters":27600,"station_id":"ce4bh0h2rcd13ifvqd40","pricing_plan_id":"free"},{"bike_id":"7b615e0a-8264-4db7-9fc4-f31a8605525f","system_id":"levelo_inurba_marseille","lat":43.301117,"lon":5.398795,"is_reserved":false,"is_disabled":false,"rental_uris":{"android":"levelo://app?vid=7b615e0a-8264-4db7-9fc4-f31a8605525f","ios":"levelo://app?vid=7b615e0a-8264-4db7-9fc4-f31a8605525f"},"vehicle_type_id":"4","last_reported":1684984039,"current_range_meters":24800,"station_id":"ce4bh0h2rcd13ifvqd40","pricing_plan_id":"free"},{"bike_id":"6382aa16-df59-441f-9fb0-25ffc834ccdd","system_id":"levelo_inurba_marseille","lat":43.301117,"lon":5.398795,"is_reserved":false,"is_disabled":false,"rental_uris":{"android":"levelo://app?vid=6382aa16-df59-441f-9fb0-25ffc834ccdd","ios":"levelo://app?vid=6382aa16-df59-441f-9fb0-25ffc834ccdd"},"vehicle_type_id":"4","last_reported":1684984039,"current_range_meters":26400,"station_id":"ce4bh0h2rcd13ifvqd40","pricing_plan_id":"free"},{"bike_id":"99a2ad7e-290a-40f9-94b6-255642abc06f","system_id":"levelo_inurba_marseille","lat":43.301117,"lon":5.398795,"is_reserved":false,"is_disabled":false,"rental_uris":{"android":"levelo://app?vid=99a2ad7e-290a-40f9-94b6-255642abc06f","ios":"levelo://app?vid=99a2ad7e-290a-40f9-94b6-255642abc06f"},"vehicle_type_id":"4","last_reported":1684984039,"current_range_meters":31600,"station_id":"ce4bh0h2rcd13ifvqd40","pricing_plan_id":"free"},{"bike_id":"d78fa9ab-4697-42bd-bc1c-62a095c3a97d","system_id":"levelo_inurba_marseille","lat":43.301117,"lon":5.398795,"is_reserved":false,"is_disabled":false,"rental_uris":{"android":"levelo://app?vid=d78fa9ab-4697-42bd-bc1c-62a095c3a97d","ios":"levelo://app?vid=d78fa9ab-4697-42bd-bc1c-62a095c3a97d"},"vehicle_type_id":"4","last_reported":1684984039,"current_range_meters":11200,"station_id":"ce4bh0h2rcd13ifvqd40","pricing_plan_id":"free"},{"bike_id":"5774b04f-3236-448f-8f12-5a1fc2d03d90","system_id":"levelo_inurba_marseille","lat":43.301117,"lon":5.398795,"is_reserved":false,"is_disabled":false,"rental_uris":{"android":"levelo://app?vid=5774b04f-3236-448f-8f12-5a1fc2d03d90","ios":"levelo://app?vid=5774b04f-3236-448f-8f12-5a1fc2d03d90"},"vehicle_type_id":"4","last_reported":1684984039,"current_range_meters":31200,"station_id":"ce4bh0h2rcd13ifvqd40","pricing_plan_id":"free"},{"bike_id":"6fcc00c1-97d4-413d-829a-e0a293f2cc05","system_id":"levelo_inurba_marseille","lat":43.286591,"lon":5.363346,"is_reserved":false,"is_disabled":false,"rental_uris":{"android":"levelo://app?vid=6fcc00c1-97d4-413d-829a-e0a293f2cc05","ios":"levelo://app?vid=6fcc00c1-97d4-413d-829a-e0a293f2cc05"},"vehicle_type_id":"4","last_reported":1684984039,"current_range_meters":30800,"station_id":"ce4bhah2rcd13ifvqej0","pricing_plan_id":"free"},{"bike_id":"70783752-e2fe-4d49-9fe7-586ebdb0328b","system_id":"levelo_inurba_marseille","lat":43.28673,"lon":5.36354,"is_reserved":false,"is_disabled":false,"rental_uris":{"android":"levelo://app?vid=70783752-e2fe-4d49-9fe7-586ebdb0328b","ios":"levelo://app?vid=70783752-e2fe-4d49-9fe7-586ebdb0328b"},"vehicle_type_id":"4","last_reported":1684984039,"current_range_meters":5200,"station_id":"ce4bhah2rcd13ifvqej0","pricing_plan_id":"free"},{"bike_id":"e2454cc8-fdc7-4e27-8eac-b73b65611692","system_id":"levelo_inurba_marseille","lat":43.286591,"lon":5.363346,"is_reserved":false,"is_disabled":false,"rental_uris":{"android":"levelo://app?vid=e2454cc8-fdc7-4e27-8eac-b73b65611692","ios":"levelo://app?vid=e2454cc8-fdc7-4e27-8eac-b73b65611692"},"vehicle_type_id":"4","last_reported":1684984039,"current_range_meters":31200,"station_id":"ce4bhah2rcd13ifvqej0","pricing_plan_id":"free"},{"bike_id":"e116ac0c-bde7-422d-af30-1e1fe0be2dc6","system_id":"levelo_inurba_marseille","lat":43.28672,"lon":5.36356,"is_reserved":false,"is_disabled":false,"rental_uris":{"android":"levelo://app?vid=e116ac0c-bde7-422d-af30-1e1fe0be2dc6","ios":"levelo://app?vid=e116ac0c-bde7-422d-af30-1e1fe0be2dc6"},"vehicle_type_id":"4","last_reported":1684984039,"current_range_meters":31200,"station_id":"ce4bhah2rcd13ifvqej0","pricing_plan_id":"free"},{"bike_id":"86700cbc-69f3-4947-b80e-4fe910e3012d","system_id":"levelo_inurba_marseille","lat":43.286593,"lon":5.363346,"is_reserved":false,"is_disabled":false,"rental_uris":{"android":"levelo://app?vid=86700cbc-69f3-4947-b80e-4fe910e3012d","ios":"levelo://app?vid=86700cbc-69f3-4947-b80e-4fe910e3012d"},"vehicle_type_id":"4","last_reported":1684984039,"current_range_meters":23600,"station_id":"ce4bhah2rcd13ifvqej0","pricing_plan_id":"free"},{"bike_id":"dfadf876-2df6-4d94-ae3b-725187ca0251","system_id":"levelo_inurba_marseille","lat":43.286591,"lon":5.363346,"is_reserved":false,"is_disabled":false,"rental_uris":{"android":"levelo://app?vid=dfadf876-2df6-4d94-ae3b-725187ca0251","ios":"levelo://app?vid=dfadf876-2df6-4d94-ae3b-725187ca0251"},"vehicle_type_id":"4","last_reported":1684984039,"current_range_meters":29200,"station_id":"ce4bhah2rcd13ifvqej0","pricing_plan_id":"free"},{"bike_id":"123621fb-6c15-4df2-915d-88cc0203612d","system_id":"levelo_inurba_marseille","lat":43.30447,"lon":5.40105,"is_reserved":false,"is_disabled":false,"rental_uris":{"android":"levelo://app?vid=123621fb-6c15-4df2-915d-88cc0203612d","ios":"levelo://app?vid=123621fb-6c15-4df2-915d-88cc0203612d"},"vehicle_type_id":"4","last_reported":1684984039,"current_range_meters":11600,"station_id":"","pricing_plan_id":"free"},{"bike_id":"3977962f-277f-4a08-bc1a-ab5c2549e390","system_id":"levelo_inurba_marseille","lat":43.286593,"lon":5.363346,"is_reserved":false,"is_disabled":false,"rental_uris":{"android":"levelo://app?vid=3977962f-277f-4a08-bc1a-ab5c2549e390","ios":"levelo://app?vid=3977962f-277f-4a08-bc1a-ab5c2549e390"},"vehicle_type_id":"4","last_reported":1684984039,"current_range_meters":31200,"station_id":"ce4bhah2rcd13ifvqej0","pricing_plan_id":"free"},{"bike_id":"15e68253-a10e-490b-bb31-54f958fc372c","system_id":"levelo_inurba_marseille","lat":43.286591,"lon":5.363346,"is_reserved":false,"is_disabled":false,"rental_uris":{"android":"levelo://app?vid=15e68253-a10e-490b-bb31-54f958fc372c","ios":"levelo://app?vid=15e68253-a10e-490b-bb31-54f958fc372c"},"vehicle_type_id":"4","last_reported":1684984039,"current_range_meters":26400,"station_id":"ce4bhah2rcd13ifvqej0","pricing_plan_id":"free"},{"bike_id":"5adc80f8-7482-42b7-88af-80ec8da87666","system_id":"levelo_inurba_marseille","lat":43.286593,"lon":5.363346,"is_reserved":false,"is_disabled":false,"rental_uris":{"android":"levelo://app?vid=5adc80f8-7482-42b7-88af-80ec8da87666","ios":"levelo://app?vid=5adc80f8-7482-42b7-88af-80ec8da87666"},"vehicle_type_id":"4","last_reported":1684984039,"current_range_meters":27600,"station_id":"ce4bhah2rcd13ifvqej0","pricing_plan_id":"free"},{"bike_id":"fe8ba23d-fcd2-42de-906b-447602011ced","system_id":"levelo_inurba_marseille","lat":43.286593,"lon":5.363346,"is_reserved":false,"is_disabled":false,"rental_uris":{"android":"levelo://app?vid=fe8ba23d-fcd2-42de-906b-447602011ced","ios":"levelo://app?vid=fe8ba23d-fcd2-42de-906b-447602011ced"},"vehicle_type_id":"4","last_reported":1684984039,"current_range_meters":31200,"station_id":"ce4bhah2rcd13ifvqej0","pricing_plan_id":"free"},{"bike_id":"bf1898b4-0ad9-42c5-a240-5c8f7d5c6167","system_id":"levelo_inurba_marseille","lat":43.28666,"lon":5.3635,"is_reserved":false,"is_disabled":false,"rental_uris":{"android":"levelo://app?vid=bf1898b4-0ad9-42c5-a240-5c8f7d5c6167","ios":"levelo://app?vid=bf1898b4-0ad9-42c5-a240-5c8f7d5c6167"},"vehicle_type_id":"4","last_reported":1684984039,"current_range_meters":31200,"station_id":"ce4bhah2rcd13ifvqej0","pricing_plan_id":"free"},{"bike_id":"b4c1acaf-dc15-44a2-8554-b341644b43f3","system_id":"levelo_inurba_marseille","lat":43.28665,"lon":5.3635,"is_reserved":false,"is_disabled":false,"rental_uris":{"android":"levelo://app?vid=b4c1acaf-dc15-44a2-8554-b341644b43f3","ios":"levelo://app?vid=b4c1acaf-dc15-44a2-8554-b341644b43f3"},"vehicle_type_id":"4","last_reported":1684984039,"current_range_meters":30800,"station_id":"ce4bhah2rcd13ifvqej0","pricing_plan_id":"free"},{"bike_id":"c80f9298-a317-4d0e-a265-03d94ef7d777","system_id":"levelo_inurba_marseille","lat":43.298681,"lon":5.397225,"is_reserved":false,"is_disabled":false,"rental_uris":{"android":"levelo://app?vid=c80f9298-a317-4d0e-a265-03d94ef7d777","ios":"levelo://app?vid=c80f9298-a317-4d0e-a265-03d94ef7d777"},"vehicle_type_id":"4","last_reported":1684984039,"current_range_meters":28000,"station_id":"ce4bh0h2rcd13ifvqd50","pricing_plan_id":"free"},{"bike_id":"135a4af9-5808-48b8-847d-8ef39b148f15","system_id":"levelo_inurba_marseille","lat":43.298681,"lon":5.397225,"is_reserved":false,"is_disabled":false,"rental_uris":{"android":"levelo://app?vid=135a4af9-5808-48b8-847d-8ef39b148f15","ios":"levelo://app?vid=135a4af9-5808-48b8-847d-8ef39b148f15"},"vehicle_type_id":"4","last_reported":1684984039,"current_range_meters":29200,"station_id":"ce4bh0h2rcd13ifvqd50","pricing_plan_id":"free"},{"bike_id":"1cdda9e8-89c2-4423-9448-afa3e98db909","system_id":"levelo_inurba_marseille","lat":43.298681,"lon":5.397225,"is_reserved":false,"is_disabled":false,"rental_uris":{"android":"levelo://app?vid=1cdda9e8-89c2-4423-9448-afa3e98db909","ios":"levelo://app?vid=1cdda9e8-89c2-4423-9448-afa3e98db909"},"vehicle_type_id":"4","last_reported":1684984039,"current_range_meters":31200,"station_id":"ce4bh0h2rcd13ifvqd50","pricing_plan_id":"free"},{"bike_id":"9b524edd-de19-48b2-803c-3c5383a7df30","system_id":"levelo_inurba_marseille","lat":43.286593,"lon":5.363346,"is_reserved":false,"is_disabled":false,"rental_uris":{"android":"levelo://app?vid=9b524edd-de19-48b2-803c-3c5383a7df30","ios":"levelo://app?vid=9b524edd-de19-48b2-803c-3c5383a7df30"},"vehicle_type_id":"4","last_reported":1684984039,"current_range_meters":31200,"station_id":"ce4bhah2rcd13ifvqej0","pricing_plan_id":"free"},{"bike_id":"cfb8effd-ddad-4daa-9484-c8de98709650","system_id":"levelo_inurba_marseille","lat":43.286591,"lon":5.363346,"is_reserved":false,"is_disabled":false,"rental_uris":{"android":"levelo://app?vid=cfb8effd-ddad-4daa-9484-c8de98709650","ios":"levelo://app?vid=cfb8effd-ddad-4daa-9484-c8de98709650"},"vehicle_type_id":"4","last_reported":1684984039,"current_range_meters":31200,"station_id":"ce4bhah2rcd13ifvqej0","pricing_plan_id":"free"},{"bike_id":"431a7ada-c11f-47ff-b521-b22fcae794c5","system_id":"levelo_inurba_marseille","lat":43.298681,"lon":5.397225,"is_reserved":false,"is_disabled":false,"rental_uris":{"android":"levelo://app?vid=431a7ada-c11f-47ff-b521-b22fcae794c5","ios":"levelo://app?vid=431a7ada-c11f-47ff-b521-b22fcae794c5"},"vehicle_type_id":"4","last_reported":1684984039,"current_range_meters":0,"station_id":"ce4bh0h2rcd13ifvqd50","pricing_plan_id":"free"},{"bike_id":"59e0135c-f4fe-4d41-b3fb-ef37744f5a4b","system_id":"levelo_inurba_marseille","lat":43.298681,"lon":5.397225,"is_reserved":false,"is_disabled":false,"rental_uris":{"android":"levelo://app?vid=59e0135c-f4fe-4d41-b3fb-ef37744f5a4b","ios":"levelo://app?vid=59e0135c-f4fe-4d41-b3fb-ef37744f5a4b"},"vehicle_type_id":"4","last_reported":1684984039,"current_range_meters":31600,"station_id":"ce4bh0h2rcd13ifvqd50","pricing_plan_id":"free"},{"bike_id":"6b99e280-91b0-4f02-8fc2-1bc2b67a77a0","system_id":"levelo_inurba_marseille","lat":43.286593,"lon":5.363346,"is_reserved":false,"is_disabled":false,"rental_uris":{"android":"levelo://app?vid=6b99e280-91b0-4f02-8fc2-1bc2b67a77a0","ios":"levelo://app?vid=6b99e280-91b0-4f02-8fc2-1bc2b67a77a0"},"vehicle_type_id":"4","last_reported":1684984039,"current_range_meters":29200,"station_id":"ce4bhah2rcd13ifvqej0","pricing_plan_id":"free"},{"bike_id":"e4b78a32-8a75-444f-b7b1-b71ca80dbce7","system_id":"levelo_inurba_marseille","lat":43.29519,"lon":5.39408,"is_reserved":false,"is_disabled":false,"rental_uris":{"android":"levelo://app?vid=e4b78a32-8a75-444f-b7b1-b71ca80dbce7","ios":"levelo://app?vid=e4b78a32-8a75-444f-b7b1-b71ca80dbce7"},"vehicle_type_id":"4","last_reported":1684984039,"current_range_meters":0,"station_id":"ce4bh292rcd13ifvqdf0","pricing_plan_id":"free"},{"bike_id":"76717a89-9a53-4922-84b4-45eac68e9b7f","system_id":"levelo_inurba_marseille","lat":43.30241,"lon":5.4005,"is_reserved":false,"is_disabled":false,"rental_uris":{"android":"levelo://app?vid=76717a89-9a53-4922-84b4-45eac68e9b7f","ios":"levelo://app?vid=76717a89-9a53-4922-84b4-45eac68e9b7f"},"vehicle_type_id":"4","last_reported":1684984039,"current_range_meters":31200,"station_id":"ce4bgvh2rcd13ifvqcs0","pricing_plan_id":"free"},{"bike_id":"dedf5711-b5d6-4def-aa17-9aabfd1aaf4e","system_id":"levelo_inurba_marseille","lat":43.302759,"lon":5.400793,"is_reserved":false,"is_disabled":false,"rental_uris":{"android":"levelo://app?vid=dedf5711-b5d6-4def-aa17-9aabfd1aaf4e","ios":"levelo://app?vid=dedf5711-b5d6-4def-aa17-9aabfd1aaf4e"},"vehicle_type_id":"4","last_reported":1684984039,"current_range_meters":28000,"station_id":"ce4bgvh2rcd13ifvqcs0","pricing_plan_id":"free"},{"bike_id":"de99b532-d16d-4843-9669-85dd24c20c8c","system_id":"levelo_inurba_marseille","lat":43.302759,"lon":5.400793,"is_reserved":false,"is_disabled":false,"rental_uris":{"android":"levelo://app?vid=de99b532-d16d-4843-9669-85dd24c20c8c","ios":"levelo://app?vid=de99b532-d16d-4843-9669-85dd24c20c8c"},"vehicle_type_id":"4","last_reported":1684984039,"current_range_meters":30800,"station_id":"ce4bgvh2rcd13ifvqcs0","pricing_plan_id":"free"},{"bike_id":"a75abe62-74be-46a8-9fdd-80b18bc36662","system_id":"levelo_inurba_marseille","lat":43.302759,"lon":5.400793,"is_reserved":false,"is_disabled":false,"rental_uris":{"android":"levelo://app?vid=a75abe62-74be-46a8-9fdd-80b18bc36662","ios":"levelo://app?vid=a75abe62-74be-46a8-9fdd-80b18bc36662"},"vehicle_type_id":"4","last_reported":1684984039,"current_range_meters":31200,"station_id":"ce4bgvh2rcd13ifvqcs0","pricing_plan_id":"free"},{"bike_id":"ac2bee9c-03bd-4bcb-bca6-2b8b545efa79","system_id":"levelo_inurba_marseille","lat":43.290336,"lon":5.386425,"is_reserved":false,"is_disabled":false,"rental_uris":{"android":"levelo://app?vid=ac2bee9c-03bd-4bcb-bca6-2b8b545efa79","ios":"levelo://app?vid=ac2bee9c-03bd-4bcb-bca6-2b8b545efa79"},"vehicle_type_id":"4","last_reported":1684984039,"current_range_meters":25600,"station_id":"ce4bh4p2rcd13ifvqe0g","pricing_plan_id":"free"},{"bike_id":"8147b261-931d-4ebc-8726-6dc817fc9692","system_id":"levelo_inurba_marseille","lat":43.302759,"lon":5.400793,"is_reserved":false,"is_disabled":false,"rental_uris":{"android":"levelo://app?vid=8147b261-931d-4ebc-8726-6dc817fc9692","ios":"levelo://app?vid=8147b261-931d-4ebc-8726-6dc817fc9692"},"vehicle_type_id":"4","last_reported":1684984039,"current_range_meters":800,"station_id":"ce4bgvh2rcd13ifvqcs0","pricing_plan_id":"free"},{"bike_id":"193ceb1e-6a45-4d81-9160-17b797e9d61e","system_id":"levelo_inurba_marseille","lat":43.286039,"lon":5.370681,"is_reserved":false,"is_disabled":false,"rental_uris":{"android":"levelo://app?vid=193ceb1e-6a45-4d81-9160-17b797e9d61e","ios":"levelo://app?vid=193ceb1e-6a45-4d81-9160-17b797e9d61e"},"vehicle_type_id":"4","last_reported":1684984039,"current_range_meters":22000,"station_id":"ce4bht12rcd13ifvqi60","pricing_plan_id":"free"},{"bike_id":"038813cd-670b-4b22-9185-1621231a0fc4","system_id":"levelo_inurba_marseille","lat":43.287185,"lon":5.379373,"is_reserved":false,"is_disabled":false,"rental_uris":{"android":"levelo://app?vid=038813cd-670b-4b22-9185-1621231a0fc4","ios":"levelo://app?vid=038813cd-670b-4b22-9185-1621231a0fc4"},"vehicle_type_id":"4","last_reported":1684984039,"current_range_meters":12000,"station_id":"ce4bh9p2rcd13ifvqec0","pricing_plan_id":"free"},{"bike_id":"2bd56461-9a87-46ed-84ea-0c8a7ccba931","system_id":"levelo_inurba_marseille","lat":43.287185,"lon":5.379373,"is_reserved":false,"is_disabled":false,"rental_uris":{"android":"levelo://app?vid=2bd56461-9a87-46ed-84ea-0c8a7ccba931","ios":"levelo://app?vid=2bd56461-9a87-46ed-84ea-0c8a7ccba931"},"vehicle_type_id":"4","last_reported":1684984039,"current_range_meters":31200,"station_id":"ce4bh9p2rcd13ifvqec0","pricing_plan_id":"free"},{"bike_id":"4e3a5e1a-575a-45fb-94b2-16429c54ff82","system_id":"levelo_inurba_marseille","lat":43.28707,"lon":5.37936,"is_reserved":false,"is_disabled":false,"rental_uris":{"android":"levelo://app?vid=4e3a5e1a-575a-45fb-94b2-16429c54ff82","ios":"levelo://app?vid=4e3a5e1a-575a-45fb-94b2-16429c54ff82"},"vehicle_type_id":"4","last_reported":1684984039,"current_range_meters":29600,"station_id":"ce4bh9p2rcd13ifvqec0","pricing_plan_id":"free"},{"bike_id":"dfbb5f20-3dcf-450f-9eae-5deea8fe9f51","system_id":"levelo_inurba_marseille","lat":43.287185,"lon":5.379373,"is_reserved":false,"is_disabled":false,"rental_uris":{"android":"levelo://app?vid=dfbb5f20-3dcf-450f-9eae-5deea8fe9f51","ios":"levelo://app?vid=dfbb5f20-3dcf-450f-9eae-5deea8fe9f51"},"vehicle_type_id":"4","last_reported":1684984039,"current_range_meters":15600,"station_id":"ce4bh9p2rcd13ifvqec0","pricing_plan_id":"free"},{"bike_id":"6b361ef6-7d24-47e4-815c-aa4abded16ef","system_id":"levelo_inurba_marseille","lat":43.31644,"lon":5.40427,"is_reserved":false,"is_disabled":false,"rental_uris":{"android":"levelo://app?vid=6b361ef6-7d24-47e4-815c-aa4abded16ef","ios":"levelo://app?vid=6b361ef6-7d24-47e4-815c-aa4abded16ef"},"vehicle_type_id":"4","last_reported":1684984039,"current_range_meters":0,"station_id":"ce4bh012rcd13ifvqd00","pricing_plan_id":"free"},{"bike_id":"6b716f46-cfe1-4cb1-9405-f59b695e4173","system_id":"levelo_inurba_marseille","lat":43.31641,"lon":5.40431,"is_reserved":false,"is_disabled":false,"rental_uris":{"android":"levelo://app?vid=6b716f46-cfe1-4cb1-9405-f59b695e4173","ios":"levelo://app?vid=6b716f46-cfe1-4cb1-9405-f59b695e4173"},"vehicle_type_id":"4","last_reported":1684984039,"current_range_meters":0,"station_id":"ce4bh012rcd13ifvqd00","pricing_plan_id":"free"},{"bike_id":"d0201ae9-fbb4-4419-a3ef-dfce996f4abc","system_id":"levelo_inurba_marseille","lat":43.291994,"lon":5.392907,"is_reserved":false,"is_disabled":false,"rental_uris":{"android":"levelo://app?vid=d0201ae9-fbb4-4419-a3ef-dfce996f4abc","ios":"levelo://app?vid=d0201ae9-fbb4-4419-a3ef-dfce996f4abc"},"vehicle_type_id":"4","last_reported":1684984039,"current_range_meters":31200,"station_id":"ce4bh192rcd13ifvqdd0","pricing_plan_id":"free"},{"bike_id":"e99b91cb-1937-4c2b-a73d-593ad7e4b9ed","system_id":"levelo_inurba_marseille","lat":43.284534,"lon":5.358662,"is_reserved":false,"is_disabled":false,"rental_uris":{"android":"levelo://app?vid=e99b91cb-1937-4c2b-a73d-593ad7e4b9ed","ios":"levelo://app?vid=e99b91cb-1937-4c2b-a73d-593ad7e4b9ed"},"vehicle_type_id":"4","last_reported":1684984039,"current_range_meters":30800,"station_id":"ce4bhah2rcd13ifvqei0","pricing_plan_id":"free"},{"bike_id":"569dbaf0-cf66-4e52-9a52-da609e7051c1","system_id":"levelo_inurba_marseille","lat":43.284534,"lon":5.358662,"is_reserved":false,"is_disabled":false,"rental_uris":{"android":"levelo://app?vid=569dbaf0-cf66-4e52-9a52-da609e7051c1","ios":"levelo://app?vid=569dbaf0-cf66-4e52-9a52-da609e7051c1"},"vehicle_type_id":"4","last_reported":1684984039,"current_range_meters":23600,"station_id":"ce4bhah2rcd13ifvqei0","pricing_plan_id":"free"},{"bike_id":"8b7a174b-ad48-4f04-a846-ee9878e64a18","system_id":"levelo_inurba_marseille","lat":43.284534,"lon":5.358662,"is_reserved":false,"is_disabled":false,"rental_uris":{"android":"levelo://app?vid=8b7a174b-ad48-4f04-a846-ee9878e64a18","ios":"levelo://app?vid=8b7a174b-ad48-4f04-a846-ee9878e64a18"},"vehicle_type_id":"4","last_reported":1684984039,"current_range_meters":31200,"station_id":"ce4bhah2rcd13ifvqei0","pricing_plan_id":"free"},{"bike_id":"61a1f783-03b6-4c96-a256-d44463b639e5","system_id":"levelo_inurba_marseille","lat":43.284534,"lon":5.358662,"is_reserved":false,"is_disabled":false,"rental_uris":{"android":"levelo://app?vid=61a1f783-03b6-4c96-a256-d44463b639e5","ios":"levelo://app?vid=61a1f783-03b6-4c96-a256-d44463b639e5"},"vehicle_type_id":"4","last_reported":1684984039,"current_range_meters":29200,"station_id":"ce4bhah2rcd13ifvqei0","pricing_plan_id":"free"},{"bike_id":"dffc9ebc-93cf-4c0a-bf90-503cf0476e71","system_id":"levelo_inurba_marseille","lat":43.28465,"lon":5.35892,"is_reserved":false,"is_disabled":false,"rental_uris":{"android":"levelo://app?vid=dffc9ebc-93cf-4c0a-bf90-503cf0476e71","ios":"levelo://app?vid=dffc9ebc-93cf-4c0a-bf90-503cf0476e71"},"vehicle_type_id":"4","last_reported":1684984039,"current_range_meters":24400,"station_id":"ce4bhah2rcd13ifvqei0","pricing_plan_id":"free"},{"bike_id":"0d9a8218-71da-450a-b87b-1e290d643f93","system_id":"levelo_inurba_marseille","lat":43.28464,"lon":5.35893,"is_reserved":false,"is_disabled":false,"rental_uris":{"android":"levelo://app?vid=0d9a8218-71da-450a-b87b-1e290d643f93","ios":"levelo://app?vid=0d9a8218-71da-450a-b87b-1e290d643f93"},"vehicle_type_id":"4","last_reported":1684984039,"current_range_meters":29200,"station_id":"ce4bhah2rcd13ifvqei0","pricing_plan_id":"free"},{"bike_id":"4b4267d4-4f1e-41ff-916c-5f1e325114b1","system_id":"levelo_inurba_marseille","lat":43.284538,"lon":5.358657,"is_reserved":false,"is_disabled":false,"rental_uris":{"android":"levelo://app?vid=4b4267d4-4f1e-41ff-916c-5f1e325114b1","ios":"levelo://app?vid=4b4267d4-4f1e-41ff-916c-5f1e325114b1"},"vehicle_type_id":"4","last_reported":1684984039,"current_range_meters":31200,"station_id":"ce4bhah2rcd13ifvqei0","pricing_plan_id":"free"},{"bike_id":"29b7ba62-39de-4fb7-a466-e680e38b69f3","system_id":"levelo_inurba_marseille","lat":43.28462,"lon":5.359,"is_reserved":false,"is_disabled":false,"rental_uris":{"android":"levelo://app?vid=29b7ba62-39de-4fb7-a466-e680e38b69f3","ios":"levelo://app?vid=29b7ba62-39de-4fb7-a466-e680e38b69f3"},"vehicle_type_id":"4","last_reported":1684984039,"current_range_meters":25600,"station_id":"ce4bhah2rcd13ifvqei0","pricing_plan_id":"free"},{"bike_id":"84f56545-e6fb-4bcb-85d1-a19c8ec95b07","system_id":"levelo_inurba_marseille","lat":43.28462,"lon":5.35896,"is_reserved":false,"is_disabled":false,"rental_uris":{"android":"levelo://app?vid=84f56545-e6fb-4bcb-85d1-a19c8ec95b07","ios":"levelo://app?vid=84f56545-e6fb-4bcb-85d1-a19c8ec95b07"},"vehicle_type_id":"4","last_reported":1684984039,"current_range_meters":23200,"station_id":"ce4bhah2rcd13ifvqei0","pricing_plan_id":"free"},{"bike_id":"fb2761fb-e67d-4545-8237-ad26b3bafddf","system_id":"levelo_inurba_marseille","lat":43.284534,"lon":5.358662,"is_reserved":false,"is_disabled":false,"rental_uris":{"android":"levelo://app?vid=fb2761fb-e67d-4545-8237-ad26b3bafddf","ios":"levelo://app?vid=fb2761fb-e67d-4545-8237-ad26b3bafddf"},"vehicle_type_id":"4","last_reported":1684984039,"current_range_meters":28400,"station_id":"ce4bhah2rcd13ifvqei0","pricing_plan_id":"free"},{"bike_id":"951f3720-c879-448d-a66f-3f5cdee8ed62","system_id":"levelo_inurba_marseille","lat":43.284534,"lon":5.358662,"is_reserved":false,"is_disabled":false,"rental_uris":{"android":"levelo://app?vid=951f3720-c879-448d-a66f-3f5cdee8ed62","ios":"levelo://app?vid=951f3720-c879-448d-a66f-3f5cdee8ed62"},"vehicle_type_id":"4","last_reported":1684984039,"current_range_meters":24000,"station_id":"ce4bhah2rcd13ifvqei0","pricing_plan_id":"free"},{"bike_id":"297aa68e-82f1-443c-8514-0b577d056843","system_id":"levelo_inurba_marseille","lat":43.284538,"lon":5.358657,"is_reserved":false,"is_disabled":false,"rental_uris":{"android":"levelo://app?vid=297aa68e-82f1-443c-8514-0b577d056843","ios":"levelo://app?vid=297aa68e-82f1-443c-8514-0b577d056843"},"vehicle_type_id":"4","last_reported":1684984039,"current_range_meters":31200,"station_id":"ce4bhah2rcd13ifvqei0","pricing_plan_id":"free"},{"bike_id":"61d1afb6-70ce-4f62-91d2-3666237fb454","system_id":"levelo_inurba_marseille","lat":43.284534,"lon":5.358662,"is_reserved":false,"is_disabled":false,"rental_uris":{"android":"levelo://app?vid=61d1afb6-70ce-4f62-91d2-3666237fb454","ios":"levelo://app?vid=61d1afb6-70ce-4f62-91d2-3666237fb454"},"vehicle_type_id":"4","last_reported":1684984039,"current_range_meters":27200,"station_id":"ce4bhah2rcd13ifvqei0","pricing_plan_id":"free"},{"bike_id":"a66e6d51-b812-4eed-976a-d7facae8a335","system_id":"levelo_inurba_marseille","lat":43.284534,"lon":5.358662,"is_reserved":false,"is_disabled":false,"rental_uris":{"android":"levelo://app?vid=a66e6d51-b812-4eed-976a-d7facae8a335","ios":"levelo://app?vid=a66e6d51-b812-4eed-976a-d7facae8a335"},"vehicle_type_id":"4","last_reported":1684984039,"current_range_meters":30400,"station_id":"ce4bhah2rcd13ifvqei0","pricing_plan_id":"free"},{"bike_id":"00bcd119-ca73-40e7-b5e2-6cae70ff3d58","system_id":"levelo_inurba_marseille","lat":43.284534,"lon":5.358662,"is_reserved":false,"is_disabled":false,"rental_uris":{"android":"levelo://app?vid=00bcd119-ca73-40e7-b5e2-6cae70ff3d58","ios":"levelo://app?vid=00bcd119-ca73-40e7-b5e2-6cae70ff3d58"},"vehicle_type_id":"4","last_reported":1684984039,"current_range_meters":17600,"station_id":"ce4bhah2rcd13ifvqei0","pricing_plan_id":"free"},