{"last_updated":1728759985,"ttl":60,"version":"2.2","data":{"bikes":[{"bike_id":"a88cc3d5-4214-4799-a463-c01d33dbb23e","system_id":"levelo_inurba_marseille","lat":43.25,"lon":5.38918,"is_reserved":false,"is_disabled":false,"rental_uris":{"android":"levelo://app?vid=a88cc3d5-4214-4799-a463-c01d33dbb23e","ios":"levelo://app?vid=a88cc3d5-4214-4799-a463-c01d33dbb23e"},"vehicle_type_id":"4","last_reported":1728759986,"current_range_meters":20000,"station_id":"ce4bhgp2rcd13ifvqfd0","pricing_plan_id":"cebpf4jnsgd1na2vs0mg"},{"bike_id":"8a36bb65-dd05-437f-adaf-66c35c91f8ff","system_id":"levelo_inurba_marseille","lat":43.24167,"lon":5.36405,"is_reserved":false,"is_disabled":false,"rental_uris":{"android":"levelo://app?vid=8a36bb65-dd05-437f-adaf-66c35c91f8ff","ios":"levelo://app?vid=8a36bb65-dd05-437f-adaf-66c35c91f8ff"},"vehicle_type_id":"4","last_reported":1728759986,"current_range_meters":38000,"station_id":"cpo36qri1sfpv3e86is0","pricing_plan_id":"cebpf4jnsgd1na2vs0mg"},{"bike_id":"635303c4-fb7b-4aa3-bf5c-c9508e4d9073","system_id":"levelo_inurba_marseille","lat":43.30541,"lon":5.36545,"is_reserved":false,"is_disabled":false,"rental_uris":{"android":"levelo://app?vid=635303c4-fb7b-4aa3-bf5c-c9508e4d9073","ios":"levelo://app?vid=635303c4-fb7b-4aa3-bf5c-c9508e4d9073"},"vehicle_type_id":"4","last_reported":1728759986,"current_range_meters":8000,"station_id":"ce4bgs12rcd13ifvqcag","pricing_plan_id":"cebpf4jnsgd1na2vs0mg"},{"bike_id":"dfc73125-20e9-4b72-9649-d06407fdb3a3","system_id":"levelo_inurba_marseille","lat":43.2465,"lon":5.389,"is_reserved":false,"is_disabled":false,"rental_uris":{"android":"levelo://app?vid=dfc73125-20e9-4b72-9649-d06407fdb3a3","ios":"levelo://app?vid=dfc73125-20e9-4b72-9649-d06407fdb3a3"},"vehicle_type_id":"4","last_reported":1728759986,"current_range_meters":38800,"station_id":"ce4bhg12rcd13ifvqf60","pricing_plan_id":"cebpf4jnsgd1na2vs0mg"},{"bike_id":"480c36bc-dd66-41df-b09a-76735c76211b","system_id":"levelo_inurba_marseille","lat":43.27993,"lon":5.41665,"is_reserved":false,"is_disabled":false,"rental_uris":{"android":"levelo://app?vid=480c36bc-dd66-41df-b09a-76735c76211b","ios":"levelo://app?vid=480c36bc-dd66-41df-b09a-76735c76211b"},"vehicle_type_id":"4","last_reported":1728759986,"current_range_meters":38400,"station_id":"ce4bho12rcd13ifvqh1g","pricing_plan_id":"cebpf4jnsgd1na2vs0mg"},{"bike_id":"1dae633f-4c9d-4ac0-b2a6-1648e6545bd4","system_id":"levelo_inurba_marseille","lat":43.29844,"lon":5.3628,"is_reserved":false,"is_disabled":false,"rental_uris":{"android":"levelo://app?vid=1dae633f-4c9d-4ac0-b2a6-1648e6545bd4","ios":"levelo://app?vid=1dae633f-4c9d-4ac0-b2a6-1648e6545bd4"},"vehicle_type_id":"4","last_reported":1728759986,"current_range_meters":39200,"station_id":"ce4bgpp2rcd13ifvqc3g","pricing_plan_id":"cebpf4jnsgd1na2vs0mg"},{"bike_id":"ff9ac4f0-c77b-4887-a0e4-14adba691c66","system_id":"levelo_inurba_marseille","lat":43.29911,"lon":5.38156,"is_reserved":false,"is_disabled":false,"rental_uris":{"android":"levelo://app?vid=ff9ac4f0-c77b-4887-a0e4-14adba691c66","ios":"levelo://app?vid=ff9ac4f0-c77b-4887-a0e4-14adba691c66"},"vehicle_type_id":"4","last_reported":1728759986,"current_range_meters":38000,"station_id":"ce4bgj12rcd13ifvqbc0","pricing_plan_id":"cebpf4jnsgd1na2vs0mg"},{"bike_id":"7fea10cb-759b-430d-b4c9-ab91c663e829","system_id":"levelo_inurba_marseille","lat":43.30433,"lon":5.38889,"is_reserved":false,"is_disabled":false,"rental_uris":{"android":"levelo://app?vid=7fea10cb-759b-430d-b4c9-ab91c663e829","ios":"levelo://app?vid=7fea10cb-759b-430d-b4c9-ab91c663e829"},"vehicle_type_id":"4","last_reported":1728759986,"current_range_meters":24400,"station_id":"ce4bgk12rcd13ifvqbi0","pricing_plan_id":"cebpf4jnsgd1na2vs0mg"},{"bike_id":"3ef42292-5f8b-43cb-a0ec-0de8543cadff","system_id":"levelo_inurba_marseille","lat":43.33025,"lon":5.39036,"is_reserved":false,"is_disabled":false,"rental_uris":{"android":"levelo://app?vid=3ef42292-5f8b-43cb-a0ec-0de8543cadff","ios":"levelo://app?vid=3ef42292-5f8b-43cb-a0ec-0de8543cadff"},"vehicle_type_id":"4","last_reported":1728759986,"current_range_meters":39200,"station_id":"ce4bhr92rcd13ifvqhrg","pricing_plan_id":"cebpf4jnsgd1na2vs0mg"},{"bike_id":"e49be7dd-1e95-4af1-8431-31f4173ce85d","system_id":"levelo_inurba_marseille","lat":43.32111,"lon":5.36764,"is_reserved":false,"is_disabled":false,"rental_uris":{"android":"levelo://app?vid=e49be7dd-1e95-4af1-8431-31f4173ce85d","ios":"levelo://app?vid=e49be7dd-1e95-4af1-8431-31f4173ce85d"},"vehicle_type_id":"4","last_reported":1728759986,"current_range_meters":38800,"station_id":"ce4bhrh2rcd13ifvqhug","pricing_plan_id":"cebpf4jnsgd1na2vs0mg"},{"bike_id":"6143dcf9-c681-4212-af02-af18735f4829","system_id":"levelo_inurba_marseille","lat":43.284079,"lon":5.375251,"is_reserved":false,"is_disabled":false,"rental_uris":{"android":"levelo://app?vid=6143dcf9-c681-4212-af02-af18735f4829","ios":"levelo://app?vid=6143dcf9-c681-4212-af02-af18735f4829"},"vehicle_type_id":"4","last_reported":1728759986,"current_range_meters":38800,"station_id":"ce4bh412rcd13ifvqds0","pricing_plan_id":"cebpf4jnsgd1na2vs0mg"},{"bike_id":"61432fa4-e69a-43e1-a752-60da459a1e2e","system_id":"levelo_inurba_marseille","lat":43.33724,"lon":5.391873,"is_reserved":false,"is_disabled":false,"rental_uris":{"android":"levelo://app?vid=61432fa4-e69a-43e1-a752-60da459a1e2e","ios":"levelo://app?vid=61432fa4-e69a-43e1-a752-60da459a1e2e"},"vehicle_type_id":"4","last_reported":1728759986,"current_range_meters":36400,"station_id":"ce4bhr92rcd13ifvqhsg","pricing_plan_id":"cebpf4jnsgd1na2vs0mg"},{"bike_id":"a409efc3-8c4f-49f0-b378-3915d43a4034","system_id":"levelo_inurba_marseille","lat":43.27979,"lon":5.38739,"is_reserved":false,"is_disabled":false,"rental_uris":{"android":"levelo://app?vid=a409efc3-8c4f-49f0-b378-3915d43a4034","ios":"levelo://app?vid=a409efc3-8c4f-49f0-b378-3915d43a4034"},"vehicle_type_id":"4","last_reported":1728759986,"current_range_meters":31200,"station_id":"ce4bhg12rcd13ifvqf80","pricing_plan_id":"cebpf4jnsgd1na2vs0mg"},{"bike_id":"b424ba4d-d1b3-4e4e-85df-0ef7cbd1234b","system_id":"levelo_inurba_marseille","lat":43.2984,"lon":5.36277,"is_reserved":false,"is_disabled":false,"rental_uris":{"android":"levelo://app?vid=b424ba4d-d1b3-4e4e-85df-0ef7cbd1234b","ios":"levelo://app?vid=b424ba4d-d1b3-4e4e-85df-0ef7cbd1234b"},"vehicle_type_id":"4","last_reported":1728759986,"current_range_meters":20800,"station_id":"ce4bgpp2rcd13ifvqc3g","pricing_plan_id":"cebpf4jnsgd1na2vs0mg"},{"bike_id":"1e08b1f5-0336-4407-a88e-651f67e1a657","system_id":"levelo_inurba_marseille","lat":43.2696,"lon":5.4035,"is_reserved":false,"is_disabled":false,"rental_uris":{"android":"levelo://app?vid=1e08b1f5-0336-4407-a88e-651f67e1a657","ios":"levelo://app?vid=1e08b1f5-0336-4407-a88e-651f67e1a657"},"vehicle_type_id":"4","last_reported":1728759986,"current_range_meters":30800,"station_id":"cjm6bp8fraef2m0cb0m0","pricing_plan_id":"cebpf4jnsgd1na2vs0mg"},{"bike_id":"af965d61-9088-4807-915b-ea32923e4324","system_id":"levelo_inurba_marseille","lat":43.29727,"lon":5.37681,"is_reserved":false,"is_disabled":false,"rental_uris":{"android":"levelo://app?vid=af965d61-9088-4807-915b-ea32923e4324","ios":"levelo://app?vid=af965d61-9088-4807-915b-ea32923e4324"},"vehicle_type_id":"4","last_reported":1728759986,"current_range_meters":36400,"station_id":"ce4bgkh2rcd13ifvqbl0","pricing_plan_id":"cebpf4jnsgd1na2vs0mg"},{"bike_id":"83257cb4-5cf7-45fa-83ee-fe44d379ee85","system_id":"levelo_inurba_marseille","lat":43.24541,"lon":5.39526,"is_reserved":false,"is_disabled":false,"rental_uris":{"android":"levelo://app?vid=83257cb4-5cf7-45fa-83ee-fe44d379ee85","ios":"levelo://app?vid=83257cb4-5cf7-45fa-83ee-fe44d379ee85"},"vehicle_type_id":"4","last_reported":1728759986,"current_range_meters":28000,"station_id":"ce4bhlp2rcd13ifvqgjg","pricing_plan_id":"cebpf4jnsgd1na2vs0mg"},{"bike_id":"c5c33660-077d-4f97-b2f0-40691ac09116","system_id":"levelo_inurba_marseille","lat":43.24393,"lon":5.3707,"is_reserved":false,"is_disabled":false,"rental_uris":{"android":"levelo://app?vid=c5c33660-077d-4f97-b2f0-40691ac09116","ios":"levelo://app?vid=c5c33660-077d-4f97-b2f0-40691ac09116"},"vehicle_type_id":"4","last_reported":1728759986,"current_range_meters":36800,"station_id":"ce4bhhh2rcd13ifvqfk0","pricing_plan_id":"cebpf4jnsgd1na2vs0mg"},{"bike_id":"931d1f9c-4cb2-40a2-a856-914a1c55fcf3","system_id":"levelo_inurba_marseille","lat":43.24567,"lon":5.41661,"is_reserved":false,"is_disabled":false,"rental_uris":{"android":"levelo://app?vid=931d1f9c-4cb2-40a2-a856-914a1c55fcf3","ios":"levelo://app?vid=931d1f9c-4cb2-40a2-a856-914a1c55fcf3"},"vehicle_type_id":"4","last_reported":1728759986,"current_range_meters":10000,"station_id":"","pricing_plan_id":"cebpf4jnsgd1na2vs0mg"},{"bike_id":"36ca0ca8-90a4-490c-8d77-4000acac3807","system_id":"levelo_inurba_marseille","lat":43.28441,"lon":5.39199,"is_reserved":false,"is_disabled":false,"rental_uris":{"android":"levelo://app?vid=36ca0ca8-90a4-490c-8d77-4000acac3807","ios":"levelo://app?vid=36ca0ca8-90a4-490c-8d77-4000acac3807"},"vehicle_type_id":"4","last_reported":1728759986,"current_range_meters":8800,"station_id":"ce4bhoh2rcd13ifvqh5g","pricing_plan_id":"cebpf4jnsgd1na2vs0mg"},{"bike_id":"a5bf82c0-87e5-49bc-804d-a6fee28da561","system_id":"levelo_inurba_marseille","lat":43.28481,"lon":5.38446,"is_reserved":false,"is_disabled":false,"rental_uris":{"android":"levelo://app?vid=a5bf82c0-87e5-49bc-804d-a6fee28da561","ios":"levelo://app?vid=a5bf82c0-87e5-49bc-804d-a6fee28da561"},"vehicle_type_id":"4","last_reported":1728759986,"current_range_meters":38800,"station_id":"ce4bh512rcd13ifvqe3g","pricing_plan_id":"cebpf4jnsgd1na2vs0mg"},{"bike_id":"b239e39a-0d4f-4edd-87b1-8e40d3daeaca","system_id":"levelo_inurba_marseille","lat":43.296201,"lon":5.372578,"is_reserved":false,"is_disabled":false,"rental_uris":{"android":"levelo://app?vid=b239e39a-0d4f-4edd-87b1-8e40d3daeaca","ios":"levelo://app?vid=b239e39a-0d4f-4edd-87b1-8e40d3daeaca"},"vehicle_type_id":"4","last_reported":1728759986,"current_range_meters":18800,"station_id":"","pricing_plan_id":"cebpf4jnsgd1na2vs0mg"},{"bike_id":"5a7002b1-d89a-43cb-9ea2-ac0cfc153051","system_id":"levelo_inurba_marseille","lat":43.29839,"lon":5.36276,"is_reserved":false,"is_disabled":false,"rental_uris":{"android":"levelo://app?vid=5a7002b1-d89a-43cb-9ea2-ac0cfc153051","ios":"levelo://app?vid=5a7002b1-d89a-43cb-9ea2-ac0cfc153051"},"vehicle_type_id":"4","last_reported":1728759986,"current_range_meters":17200,"station_id":"ce4bgpp2rcd13ifvqc3g","pricing_plan_id":"cebpf4jnsgd1na2vs0mg"},{"bike_id":"8af20607-32f8-434d-b6d0-aaa914005a4c","system_id":"levelo_inurba_marseille","lat":43.29843,"lon":5.36282,"is_reserved":false,"is_disabled":false,"rental_uris":{"android":"levelo://app?vid=8af20607-32f8-434d-b6d0-aaa914005a4c","ios":"levelo://app?vid=8af20607-32f8-434d-b6d0-aaa914005a4c"},"vehicle_type_id":"4","last_reported":1728759986,"current_range_meters":35200,"station_id":"ce4bgpp2rcd13ifvqc3g","pricing_plan_id":"cebpf4jnsgd1na2vs0mg"},{"bike_id":"c4015b68-d99c-4e60-9211-7512a632fa47","system_id":"levelo_inurba_marseille","lat":43.30093,"lon":5.39072,"is_reserved":false,"is_disabled":false,"rental_uris":{"android":"levelo://app?vid=c4015b68-d99c-4e60-9211-7512a632fa47","ios":"levelo://app?vid=c4015b68-d99c-4e60-9211-7512a632fa47"},"vehicle_type_id":"4","last_reported":1728759986,"current_range_meters":38000,"station_id":"ce4bh192rcd13ifvqdb0","pricing_plan_id":"cebpf4jnsgd1na2vs0mg"},{"bike_id":"a4fabc59-6348-4eb9-83e9-6ea2ff71cce2","system_id":"levelo_inurba_marseille","lat":43.28855,"lon":5.35867,"is_reserved":false,"is_disabled":false,"rental_uris":{"android":"levelo://app?vid=a4fabc59-6348-4eb9-83e9-6ea2ff71cce2","ios":"levelo://app?vid=a4fabc59-6348-4eb9-83e9-6ea2ff71cce2"},"vehicle_type_id":"4","last_reported":1728759986,"current_range_meters":16000,"station_id":"ce4bhb12rcd13ifvqem0","pricing_plan_id":"cebpf4jnsgd1na2vs0mg"},{"bike_id":"867f3f40-5931-445f-8081-385466db43ab","system_id":"levelo_inurba_marseille","lat":43.29837,"lon":5.36269,"is_reserved":false,"is_disabled":false,"rental_uris":{"android":"levelo://app?vid=867f3f40-5931-445f-8081-385466db43ab","ios":"levelo://app?vid=867f3f40-5931-445f-8081-385466db43ab"},"vehicle_type_id":"4","last_reported":1728759986,"current_range_meters":39200,"station_id":"ce4bgpp2rcd13ifvqc3g","pricing_plan_id":"cebpf4jnsgd1na2vs0mg"},{"bike_id":"0de0711e-04df-48ec-9be5-aa95798b911c","system_id":"levelo_inurba_marseille","lat":43.28935,"lon":5.36642,"is_reserved":false,"is_disabled":false,"rental_uris":{"android":"levelo://app?vid=0de0711e-04df-48ec-9be5-aa95798b911c","ios":"levelo://app?vid=0de0711e-04df-48ec-9be5-aa95798b911c"},"vehicle_type_id":"4","last_reported":1728759986,"current_range_meters":5600,"station_id":"ce4bhap2rcd13ifvqek0","pricing_plan_id":"cebpf4jnsgd1na2vs0mg"},{"bike_id":"6b2daff3-9851-4dff-9081-e0ec010599e4","system_id":"levelo_inurba_marseille","lat":43.314515,"lon":5.37384,"is_reserved":false,"is_disabled":false,"rental_uris":{"android":"levelo://app?vid=6b2daff3-9851-4dff-9081-e0ec010599e4","ios":"levelo://app?vid=6b2daff3-9851-4dff-9081-e0ec010599e4"},"vehicle_type_id":"4","last_reported":1728759986,"current_range_meters":35600,"station_id":"","pricing_plan_id":"cebpf4jnsgd1na2vs0mg"},{"bike_id":"94c4912e-eac6-4ca2-ae8f-ac2fad25a3fd","system_id":"levelo_inurba_marseille","lat":43.25114,"lon":5.40318,"is_reserved":false,"is_disabled":false,"rental_uris":{"android":"levelo://app?vid=94c4912e-eac6-4ca2-ae8f-ac2fad25a3fd","ios":"levelo://app?vid=94c4912e-eac6-4ca2-ae8f-ac2fad25a3fd"},"vehicle_type_id":"4","last_reported":1728759986,"current_range_meters":18800,"station_id":"ce4bhlh2rcd13ifvqgig","pricing_plan_id":"cebpf4jnsgd1na2vs0mg"},{"bike_id":"f8fd929e-ef12-4998-8e1d-12522bd05de2","system_id":"levelo_inurba_marseille","lat":43.33023,"lon":5.39052,"is_reserved":false,"is_disabled":false,"rental_uris":{"android":"levelo://app?vid=f8fd929e-ef12-4998-8e1d-12522bd05de2","ios":"levelo://app?vid=f8fd929e-ef12-4998-8e1d-12522bd05de2"},"vehicle_type_id":"4","last_reported":1728759986,"current_range_meters":6400,"station_id":"ce4bhr92rcd13ifvqhrg","pricing_plan_id":"cebpf4jnsgd1na2vs0mg"},{"bike_id":"67961d90-17d3-42d3-8755-5887e08cc965","system_id":"levelo_inurba_marseille","lat":43.25493,"lon":5.3765,"is_reserved":false,"is_disabled":false,"rental_uris":{"android":"levelo://app?vid=67961d90-17d3-42d3-8755-5887e08cc965","ios":"levelo://app?vid=67961d90-17d3-42d3-8755-5887e08cc965"},"vehicle_type_id":"4","last_reported":1728759986,"current_range_meters":27600,"station_id":"ce4bhh12rcd13ifvqff0","pricing_plan_id":"cebpf4jnsgd1na2vs0mg"},{"bike_id":"3d56fd43-7f3a-478f-a81b-fba7289193d9","system_id":"levelo_inurba_marseille","lat":43.28,"lon":5.41665,"is_reserved":false,"is_disabled":false,"rental_uris":{"android":"levelo://app?vid=3d56fd43-7f3a-478f-a81b-fba7289193d9","ios":"levelo://app?vid=3d56fd43-7f3a-478f-a81b-fba7289193d9"},"vehicle_type_id":"4","last_reported":1728759986,"current_range_meters":24000,"station_id":"ce4bho12rcd13ifvqh1g","pricing_plan_id":"cebpf4jnsgd1na2vs0mg"},{"bike_id":"9bf9bb69-745f-4c8e-b951-fb86c724c409","system_id":"levelo_inurba_marseille","lat":43.297272,"lon":5.377038,"is_reserved":false,"is_disabled":false,"rental_uris":{"android":"levelo://app?vid=9bf9bb69-745f-4c8e-b951-fb86c724c409","ios":"levelo://app?vid=9bf9bb69-745f-4c8e-b951-fb86c724c409"},"vehicle_type_id":"4","last_reported":1728759986,"current_range_meters":36000,"station_id":"ce4bgjh2rcd13ifvqbg0","pricing_plan_id":"cebpf4jnsgd1na2vs0mg"},{"bike_id":"fa08456f-0316-46ca-b497-6c7d63a7f841","system_id":"levelo_inurba_marseille","lat":43.23198,"lon":5.35555,"is_reserved":false,"is_disabled":false,"rental_uris":{"android":"levelo://app?vid=fa08456f-0316-46ca-b497-6c7d63a7f841","ios":"levelo://app?vid=fa08456f-0316-46ca-b497-6c7d63a7f841"},"vehicle_type_id":"4","last_reported":1728759986,"current_range_meters":38000,"station_id":"ce4bhu92rcd13ifvqi70","pricing_plan_id":"cebpf4jnsgd1na2vs0mg"},{"bike_id":"005c4b3d-def2-4fe0-91c0-aa2f130dc69c","system_id":"levelo_inurba_marseille","lat":43.2988,"lon":5.38907,"is_reserved":false,"is_disabled":false,"rental_uris":{"android":"levelo://app?vid=005c4b3d-def2-4fe0-91c0-aa2f130dc69c","ios":"levelo://app?vid=005c4b3d-def2-4fe0-91c0-aa2f130dc69c"},"vehicle_type_id":"4","last_reported":1728759986,"current_range_meters":12400,"station_id":"ce4bh392rcd13ifvqdl0","pricing_plan_id":"cebpf4jnsgd1na2vs0mg"},{"bike_id":"3faba284-8971-4b5f-97df-e89047a5cd32","system_id":"levelo_inurba_marseille","lat":43.290741,"lon":5.372269,"is_reserved":false,"is_disabled":false,"rental_uris":{"android":"levelo://app?vid=3faba284-8971-4b5f-97df-e89047a5cd32","ios":"levelo://app?vid=3faba284-8971-4b5f-97df-e89047a5cd32"},"vehicle_type_id":"4","last_reported":1728759986,"current_range_meters":22400,"station_id":"ce4bh5p2rcd13ifvqe4g","pricing_plan_id":"cebpf4jnsgd1na2vs0mg"},{"bike_id":"86851483-6460-4f2a-8d92-b3b47e5c55aa","system_id":"levelo_inurba_marseille","lat":43.23957,"lon":5.36632,"is_reserved":false,"is_disabled":false,"rental_uris":{"android":"levelo://app?vid=86851483-6460-4f2a-8d92-b3b47e5c55aa","ios":"levelo://app?vid=86851483-6460-4f2a-8d92-b3b47e5c55aa"},"vehicle_type_id":"4","last_reported":1728759986,"current_range_meters":39200,"station_id":"ce4bhi12rcd13ifvqfp0","pricing_plan_id":"cebpf4jnsgd1na2vs0mg"},{"bike_id":"07aa5530-3ee0-4f81-901b-d150395cc5d8","system_id":"levelo_inurba_marseille","lat":43.2737,"lon":5.3626,"is_reserved":false,"is_disabled":false,"rental_uris":{"android":"levelo://app?vid=07aa5530-3ee0-4f81-901b-d150395cc5d8","ios":"levelo://app?vid=07aa5530-3ee0-4f81-901b-d150395cc5d8"},"vehicle_type_id":"4","last_reported":1728759986,"current_range_meters":25200,"station_id":"ce4bhbh2rcd13ifvqeo0","pricing_plan_id":"cebpf4jnsgd1na2vs0mg"},{"bike_id":"900d410e-a263-4441-80a1-af67345a66d2","system_id":"levelo_inurba_marseille","lat":43.24386,"lon":5.3706,"is_reserved":false,"is_disabled":false,"rental_uris":{"android":"levelo://app?vid=900d410e-a263-4441-80a1-af67345a66d2","ios":"levelo://app?vid=900d410e-a263-4441-80a1-af67345a66d2"},"vehicle_type_id":"4","last_reported":1728759986,"current_range_meters":21600,"station_id":"ce4bhhh2rcd13ifvqfk0","pricing_plan_id":"cebpf4jnsgd1na2vs0mg"},{"bike_id":"93cf6e6a-b59b-4d63-9a00-c25bf3ea1f05","system_id":"levelo_inurba_marseille","lat":43.29894,"lon":5.43667,"is_reserved":false,"is_disabled":false,"rental_uris":{"android":"levelo://app?vid=93cf6e6a-b59b-4d63-9a00-c25bf3ea1f05","ios":"levelo://app?vid=93cf6e6a-b59b-4d63-9a00-c25bf3ea1f05"},"vehicle_type_id":"4","last_reported":1728759986,"current_range_meters":39200,"station_id":"ce4bhpp2rcd13ifvqhfg","pricing_plan_id":"cebpf4jnsgd1na2vs0mg"},{"bike_id":"952ca1c8-0e1e-4bf5-a624-01fa4bd5f6b9","system_id":"levelo_inurba_marseille","lat":43.27934,"lon":5.41044,"is_reserved":false,"is_disabled":false,"rental_uris":{"android":"levelo://app?vid=952ca1c8-0e1e-4bf5-a624-01fa4bd5f6b9","ios":"levelo://app?vid=952ca1c8-0e1e-4bf5-a624-01fa4bd5f6b9"},"vehicle_type_id":"4","last_reported":1728759986,"current_range_meters":15200,"station_id":"ce4bhnp2rcd13ifvqh0g","pricing_plan_id":"cebpf4jnsgd1na2vs0mg"},{"bike_id":"eee47542-ac80-4b19-b140-0fd80f3b3ec3","system_id":"levelo_inurba_marseille","lat":43.2792,"lon":5.39576,"is_reserved":false,"is_disabled":false,"rental_uris":{"android":"levelo://app?vid=eee47542-ac80-4b19-b140-0fd80f3b3ec3","ios":"levelo://app?vid=eee47542-ac80-4b19-b140-0fd80f3b3ec3"},"vehicle_type_id":"4","last_reported":1728759986,"current_range_meters":20000,"station_id":"ce4bhf92rcd13ifvqf40","pricing_plan_id":"cebpf4jnsgd1na2vs0mg"},{"bike_id":"e29775bf-bbfc-4bc6-ba82-83fd45621a41","system_id":"levelo_inurba_marseille","lat":43.27214,"lon":5.39186,"is_reserved":false,"is_disabled":false,"rental_uris":{"android":"levelo://app?vid=e29775bf-bbfc-4bc6-ba82-83fd45621a41","ios":"levelo://app?vid=e29775bf-bbfc-4bc6-ba82-83fd45621a41"},"vehicle_type_id":"4","last_reported":1728759986,"current_range_meters":34800,"station_id":"ce4bhhp2rcd13ifvqfm0","pricing_plan_id":"cebpf4jnsgd1na2vs0mg"},{"bike_id":"ee3d77b2-c4c3-417a-8170-d8edb7edeab8","system_id":"levelo_inurba_marseille","lat":43.22934,"lon":5.35381,"is_reserved":false,"is_disabled":false,"rental_uris":{"android":"levelo://app?vid=ee3d77b2-c4c3-417a-8170-d8edb7edeab8","ios":"levelo://app?vid=ee3d77b2-c4c3-417a-8170-d8edb7edeab8"},"vehicle_type_id":"4","last_reported":1728759986,"current_range_meters":10800,"station_id":"cpo3532slgdg3j2ikp40","pricing_plan_id":"cebpf4jnsgd1na2vs0mg"},{"bike_id":"7211c059-dd0e-4cc6-b9b9-c481593769af","system_id":"levelo_inurba_marseille","lat":43.29261,"lon":5.40929,"is_reserved":false,"is_disabled":false,"rental_uris":{"android":"levelo://app?vid=7211c059-dd0e-4cc6-b9b9-c481593769af","ios":"levelo://app?vid=7211c059-dd0e-4cc6-b9b9-c481593769af"},"vehicle_type_id":"4","last_reported":1728759986,"current_range_meters":7200,"station_id":"ce4bh192rcd13ifvqdc0","pricing_plan_id":"cebpf4jnsgd1na2vs0mg"},{"bike_id":"144d3da5-8eef-4a2f-b055-3e88b902df06","system_id":"levelo_inurba_marseille","lat":43.28475,"lon":5.38406,"is_reserved":false,"is_disabled":false,"rental_uris":{"android":"levelo://app?vid=144d3da5-8eef-4a2f-b055-3e88b902df06","ios":"levelo://app?vid=144d3da5-8eef-4a2f-b055-3e88b902df06"},"vehicle_type_id":"4","last_reported":1728759986,"current_range_meters":8400,"station_id":"ce4bh512rcd13ifvqe3g","pricing_plan_id":"cebpf4jnsgd1na2vs0mg"},{"bike_id":"67958920-36de-4f6e-9456-bc4aa9d17976","system_id":"levelo_inurba_marseille","lat":43.28275,"lon":5.35075,"is_reserved":false,"is_disabled":false,"rental_uris":{"android":"levelo://app?vid=67958920-36de-4f6e-9456-bc4aa9d17976","ios":"levelo://app?vid=67958920-36de-4f6e-9456-bc4aa9d17976"},"vehicle_type_id":"4","last_reported":1728759986,"current_range_meters":20800,"station_id":"ce4bhbp2rcd13ifvqerg","pricing_plan_id":"cebpf4jnsgd1na2vs0mg"},{"bike_id":"b250aa55-5e4a-42f7-b901-52871aafaab1","system_id":"levelo_inurba_marseille","lat":43.28496,"lon":5.38556,"is_reserved":false,"is_disabled":false,"rental_uris":{"android":"levelo://app?vid=b250aa55-5e4a-42f7-b901-52871aafaab1","ios":"levelo://app?vid=b250aa55-5e4a-42f7-b901-52871aafaab1"},"vehicle_type_id":"4","last_reported":1728759986,"current_range_meters":34800,"station_id":"ce4bh8p2rcd13ifvqeb0","pricing_plan_id":"cebpf4jnsgd1na2vs0mg"},{"bike_id":"fe343dc0-883c-41b8-8795-a9cdb3d5231e","system_id":"levelo_inurba_marseille","lat":43.29529,"lon":5.38541,"is_reserved":false,"is_disabled":false,"rental_uris":{"android":"levelo://app?vid=fe343dc0-883c-41b8-8795-a9cdb3d5231e","ios":"levelo://app?vid=fe343dc0-883c-41b8-8795-a9cdb3d5231e"},"vehicle_type_id":"4","last_reported":1728759986,"current_range_meters":2800,"station_id":"ce4bgih2rcd13ifvqba0","pricing_plan_id":"cebpf4jnsgd1na2vs0mg"},{"bike_id":"bc0f52d5-4b8d-4288-a3f2-8a743f110fe6","system_id":"levelo_inurba_marseille","lat":43.26565,"lon":5.39019,"is_reserved":false,"is_disabled":false,"rental_uris":{"android":"levelo://app?vid=bc0f52d5-4b8d-4288-a3f2-8a743f110fe6","ios":"levelo://app?vid=bc0f52d5-4b8d-4288-a3f2-8a743f110fe6"},"vehicle_type_id":"4","last_reported":1728759986,"current_range_meters":12800,"station_id":"ce4bhe12rcd13ifvqf30","pricing_plan_id":"cebpf4jnsgd1na2vs0mg"},{"bike_id":"5dbc7dcc-9d48-4fd7-8ea7-69f4e7ca2466","system_id":"levelo_inurba_marseille","lat":43.26551,"lon":5.37286,"is_reserved":false,"is_disabled":false,"rental_uris":{"android":"levelo://app?vid=5dbc7dcc-9d48-4fd7-8ea7-69f4e7ca2466","ios":"levelo://app?vid=5dbc7dcc-9d48-4fd7-8ea7-69f4e7ca2466"},"vehicle_type_id":"4","last_reported":1728759986,"current_range_meters":38800,"station_id":"ce4bhg12rcd13ifvqf70","pricing_plan_id":"cebpf4jnsgd1na2vs0mg"},{"bike_id":"55fc653d-8bc3-41bf-a69f-6c3b74f78205","system_id":"levelo_inurba_marseille","lat":43.31495,"lon":5.373,"is_reserved":false,"is_disabled":false,"rental_uris":{"android":"levelo://app?vid=55fc653d-8bc3-41bf-a69f-6c3b74f78205","ios":"levelo://app?vid=55fc653d-8bc3-41bf-a69f-6c3b74f78205"},"vehicle_type_id":"4","last_reported":1728759986,"current_range_meters":38800,"station_id":"ce4bgt12rcd13ifvqcd0","pricing_plan_id":"cebpf4jnsgd1na2vs0mg"},{"bike_id":"caac0ae9-97a5-4abe-bfc2-b67d3e720f3d","system_id":"levelo_inurba_marseille","lat":43.2962,"lon":5.3717,"is_reserved":false,"is_disabled":false,"rental_uris":{"android":"levelo://app?vid=caac0ae9-97a5-4abe-bfc2-b67d3e720f3d","ios":"levelo://app?vid=caac0ae9-97a5-4abe-bfc2-b67d3e720f3d"},"vehicle_type_id":"4","last_reported":1728759986,"current_range_meters":28000,"station_id":"ce4bgnh2rcd13ifvqc0g","pricing_plan_id":"cebpf4jnsgd1na2vs0mg"},{"bike_id":"8dd78ca9-9222-49e2-ae71-45c00c5ac4e2","system_id":"levelo_inurba_marseille","lat":43.27375,"lon":5.36267,"is_reserved":false,"is_disabled":false,"rental_uris":{"android":"levelo://app?vid=8dd78ca9-9222-49e2-ae71-45c00c5ac4e2","ios":"levelo://app?vid=8dd78ca9-9222-49e2-ae71-45c00c5ac4e2"},"vehicle_type_id":"4","last_reported":1728759986,"current_range_meters":38800,"station_id":"ce4bhbh2rcd13ifvqeo0","pricing_plan_id":"cebpf4jnsgd1na2vs0mg"},{"bike_id":"a751214b-619f-4483-a2f5-200322f27979","system_id":"levelo_inurba_marseille","lat":43.29841,"lon":5.36266,"is_reserved":false,"is_disabled":false,"rental_uris":{"android":"levelo://app?vid=a751214b-619f-4483-a2f5-200322f27979","ios":"levelo://app?vid=a751214b-619f-4483-a2f5-200322f27979"},"vehicle_type_id":"4","last_reported":1728759986,"current_range_meters":16000,"station_id":"ce4bgpp2rcd13ifvqc3g","pricing_plan_id":"cebpf4jnsgd1na2vs0mg"},{"bike_id":"fa1be27d-8b16-4fc7-b2dd-84282e045451","system_id":"levelo_inurba_marseille","lat":43.301427,"lon":5.374246,"is_reserved":false,"is_disabled":false,"rental_uris":{"android":"levelo://app?vid=fa1be27d-8b16-4fc7-b2dd-84282e045451","ios":"levelo://app?vid=fa1be27d-8b16-4fc7-b2dd-84282e045451"},"vehicle_type_id":"4","last_reported":1728759986,"current_range_meters":37600,"station_id":"ce4bgs92rcd13ifvqcc0","pricing_plan_id":"cebpf4jnsgd1na2vs0mg"},{"bike_id":"7192b706-cb4e-4cee-90e9-9e93e065a345","system_id":"levelo_inurba_marseille","lat":43.27553,"lon":5.38435,"is_reserved":false,"is_disabled":false,"rental_uris":{"android":"levelo://app?vid=7192b706-cb4e-4cee-90e9-9e93e065a345","ios":"levelo://app?vid=7192b706-cb4e-4cee-90e9-9e93e065a345"},"vehicle_type_id":"4","last_reported":1728759986,"current_range_meters":9200,"station_id":"ce4bhh92rcd13ifvqfi0","pricing_plan_id":"cebpf4jnsgd1na2vs0mg"},{"bike_id":"da9b31ee-43b4-4389-85de-211de3ba1c9a","system_id":"levelo_inurba_marseille","lat":43.24649,"lon":5.38891,"is_reserved":false,"is_disabled":false,"rental_uris":{"android":"levelo://app?vid=da9b31ee-43b4-4389-85de-211de3ba1c9a","ios":"levelo://app?vid=da9b31ee-43b4-4389-85de-211de3ba1c9a"},"vehicle_type_id":"4","last_reported":1728759986,"current_range_meters":27600,"station_id":"ce4bhg12rcd13ifvqf60","pricing_plan_id":"cebpf4jnsgd1na2vs0mg"},{"bike_id":"7949a8c5-0f89-4d9d-9c33-af671ace3969","system_id":"levelo_inurba_marseille","lat":43.28609,"lon":5.35098,"is_reserved":false,"is_disabled":false,"rental_uris":{"android":"levelo://app?vid=7949a8c5-0f89-4d9d-9c33-af671ace3969","ios":"levelo://app?vid=7949a8c5-0f89-4d9d-9c33-af671ace3969"},"vehicle_type_id":"4","last_reported":1728759986,"current_range_meters":38800,"station_id":"ce4bhch2rcd13ifvqeug","pricing_plan_id":"cebpf4jnsgd1na2vs0mg"},{"bike_id":"3545951b-894d-4495-afdf-84cb7b3b25b3","system_id":"levelo_inurba_marseille","lat":43.23195,"lon":5.35555,"is_reserved":false,"is_disabled":false,"rental_uris":{"android":"levelo://app?vid=3545951b-894d-4495-afdf-84cb7b3b25b3","ios":"levelo://app?vid=3545951b-894d-4495-afdf-84cb7b3b25b3"},"vehicle_type_id":"4","last_reported":1728759986,"current_range_meters":34000,"station_id":"ce4bhu92rcd13ifvqi70","pricing_plan_id":"cebpf4jnsgd1na2vs0mg"},{"bike_id":"94b5b3e5-1466-4cd8-b5b3-d5cbebabce80","system_id":"levelo_inurba_marseille","lat":43.23962,"lon":5.36637,"is_reserved":false,"is_disabled":false,"rental_uris":{"android":"levelo://app?vid=94b5b3e5-1466-4cd8-b5b3-d5cbebabce80","ios":"levelo://app?vid=94b5b3e5-1466-4cd8-b5b3-d5cbebabce80"},"vehicle_type_id":"4","last_reported":1728759986,"current_range_meters":10800,"station_id":"ce4bhi12rcd13ifvqfp0","pricing_plan_id":"cebpf4jnsgd1na2vs0mg"},{"bike_id":"c5675f9c-0a26-411d-9f36-379bac3614a9","system_id":"levelo_inurba_marseille","lat":43.30184,"lon":5.36614,"is_reserved":false,"is_disabled":false,"rental_uris":{"android":"levelo://app?vid=c5675f9c-0a26-411d-9f36-379bac3614a9","ios":"levelo://app?vid=c5675f9c-0a26-411d-9f36-379bac3614a9"},"vehicle_type_id":"4","last_reported":1728759986,"current_range_meters":29600,"station_id":"ce4bgrh2rcd13ifvqc8g","pricing_plan_id":"cebpf4jnsgd1na2vs0mg"},{"bike_id":"6e86af6b-7805-47df-8017-4b4f14ccb8fc","system_id":"levelo_inurba_marseille","lat":43.29419,"lon":5.38625,"is_reserved":false,"is_disabled":false,"rental_uris":{"android":"levelo://app?vid=6e86af6b-7805-47df-8017-4b4f14ccb8fc","ios":"levelo://app?vid=6e86af6b-7805-47df-8017-4b4f14ccb8fc"},"vehicle_type_id":"4","last_reported":1728759986,"current_range_meters":38800,"station_id":"ce4bh2h2rcd13ifvqdh0","pricing_plan_id":"cebpf4jnsgd1na2vs0mg"},{"bike_id":"87353957-6cc4-4ee0-8d6b-616a188280f0","system_id":"levelo_inurba_marseille","lat":43.30958,"lon":5.39044,"is_reserved":false,"is_disabled":false,"rental_uris":{"android":"levelo://app?vid=87353957-6cc4-4ee0-8d6b-616a188280f0","ios":"levelo://app?vid=87353957-6cc4-4ee0-8d6b-616a188280f0"},"vehicle_type_id":"4","last_reported":1728759986,"current_range_meters":27600,"station_id":"ce4bgup2rcd13ifvqco0","pricing_plan_id":"cebpf4jnsgd1na2vs0mg"},{"bike_id":"da054122-2792-4628-b374-4f1f84bd9d4d","system_id":"levelo_inurba_marseille","lat":43.29549,"lon":5.375,"is_reserved":false,"is_disabled":false,"rental_uris":{"android":"levelo://app?vid=da054122-2792-4628-b374-4f1f84bd9d4d","ios":"levelo://app?vid=da054122-2792-4628-b374-4f1f84bd9d4d"},"vehicle_type_id":"4","last_reported":1728759986,"current_range_meters":22400,"station_id":"ce4bgkp2rcd13ifvqbmg","pricing_plan_id":"cebpf4jnsgd1na2vs0mg"},{"bike_id":"2fd3fc85-901e-4125-9eb8-61951126a742","system_id":"levelo_inurba_marseille","lat":43.24076,"lon":5.37756,"is_reserved":false,"is_disabled":false,"rental_uris":{"android":"levelo://app?vid=2fd3fc85-901e-4125-9eb8-61951126a742","ios":"levelo://app?vid=2fd3fc85-901e-4125-9eb8-61951126a742"},"vehicle_type_id":"4","last_reported":1728759986,"current_range_meters":13600,"station_id":"ce4bhnp2rcd13ifvqgvg","pricing_plan_id":"cebpf4jnsgd1na2vs0mg"},{"bike_id":"2e4332d3-2239-45a2-8c0f-08f6cf4189b8","system_id":"levelo_inurba_marseille","lat":43.28714,"lon":5.3739,"is_reserved":false,"is_disabled":false,"rental_uris":{"android":"levelo://app?vid=2e4332d3-2239-45a2-8c0f-08f6cf4189b8","ios":"levelo://app?vid=2e4332d3-2239-45a2-8c0f-08f6cf4189b8"},"vehicle_type_id":"4","last_reported":1728759986,"current_range_meters":11600,"station_id":"ce4bh3p2rcd13ifvqdq0","pricing_plan_id":"cebpf4jnsgd1na2vs0mg"},{"bike_id":"52edac88-0feb-4a46-8cd1-ad18baa21cfc","system_id":"levelo_inurba_marseille","lat":43.29203,"lon":5.39317,"is_reserved":false,"is_disabled":false,"rental_uris":{"android":"levelo://app?vid=52edac88-0feb-4a46-8cd1-ad18baa21cfc","ios":"levelo://app?vid=52edac88-0feb-4a46-8cd1-ad18baa21cfc"},"vehicle_type_id":"4","last_reported":1728759986,"current_range_meters":13600,"station_id":"ce4bh192rcd13ifvqdd0","pricing_plan_id":"cebpf4jnsgd1na2vs0mg"},{"bike_id":"4ef1648c-c9ae-408b-9de7-b24322c6ea92","system_id":"levelo_inurba_marseille","lat":43.248,"lon":5.37455,"is_reserved":false,"is_disabled":false,"rental_uris":{"android":"levelo://app?vid=4ef1648c-c9ae-408b-9de7-b24322c6ea92","ios":"levelo://app?vid=4ef1648c-c9ae-408b-9de7-b24322c6ea92"},"vehicle_type_id":"4","last_reported":1728759986,"current_range_meters":26000,"station_id":"ce4bhgh2rcd13ifvqfb0","pricing_plan_id":"cebpf4jnsgd1na2vs0mg"},{"bike_id":"25ed2710-8c35-44e6-81fd-8fc7cf6b54a8","system_id":"levelo_inurba_marseille","lat":43.274948,"lon":5.424466,"is_reserved":false,"is_disabled":false,"rental_uris":{"android":"levelo://app?vid=25ed2710-8c35-44e6-81fd-8fc7cf6b54a8","ios":"levelo://app?vid=25ed2710-8c35-44e6-81fd-8fc7cf6b54a8"},"vehicle_type_id":"4","last_reported":1728759986,"current_range_meters":24800,"station_id":"ce4bhn92rcd13ifvqgrg","pricing_plan_id":"cebpf4jnsgd1na2vs0mg"},{"bike_id":"d19606bd-d60f-48b9-800d-392237277cb7","system_id":"levelo_inurba_marseille","lat":43.29078,"lon":5.37175,"is_reserved":false,"is_disabled":false,"rental_uris":{"android":"levelo://app?vid=d19606bd-d60f-48b9-800d-392237277cb7","ios":"levelo://app?vid=d19606bd-d60f-48b9-800d-392237277cb7"},"vehicle_type_id":"4","last_reported":1728759986,"current_range_meters":26800,"station_id":"ce4bh5p2rcd13ifvqe4g","pricing_plan_id":"cebpf4jnsgd1na2vs0mg"},{"bike_id":"2114f7ff-483e-4059-9d88-4aa497a89314","system_id":"levelo_inurba_marseille","lat":43.25085,"lon":5.39525,"is_reserved":false,"is_disabled":false,"rental_uris":{"android":"levelo://app?vid=2114f7ff-483e-4059-9d88-4aa497a89314","ios":"levelo://app?vid=2114f7ff-483e-4059-9d88-4aa497a89314"},"vehicle_type_id":"4","last_reported":1728759986,"current_range_meters":18000,"station_id":"ce4bhm12rcd13ifvqgkg","pricing_plan_id":"cebpf4jnsgd1na2vs0mg"},{"bike_id":"ee789adc-9b88-48d2-8524-82153746a61e","system_id":"levelo_inurba_marseille","lat":43.2869,"lon":5.37386,"is_reserved":false,"is_disabled":false,"rental_uris":{"android":"levelo://app?vid=ee789adc-9b88-48d2-8524-82153746a61e","ios":"levelo://app?vid=ee789adc-9b88-48d2-8524-82153746a61e"},"vehicle_type_id":"4","last_reported":1728759986,"current_range_meters":39200,"station_id":"ce4bh3p2rcd13ifvqdq0","pricing_plan_id":"cebpf4jnsgd1na2vs0mg"},{"bike_id":"252cdcdf-aa5e-4041-b08e-25e35421dd4a","system_id":"levelo_inurba_marseille","lat":43.29842,"lon":5.36282,"is_reserved":false,"is_disabled":false,"rental_uris":{"android":"levelo://app?vid=252cdcdf-aa5e-4041-b08e-25e35421dd4a","ios":"levelo://app?vid=252cdcdf-aa5e-4041-b08e-25e35421dd4a"},"vehicle_type_id":"4","last_reported":1728759986,"current_range_meters":4800,"station_id":"ce4bgpp2rcd13ifvqc3g","pricing_plan_id":"cebpf4jnsgd1na2vs0mg"},{"bike_id":"d2719b50-dec8-4380-ae23-7c6e3b79924d","system_id":"levelo_inurba_marseille","lat":43.29026,"lon":5.3756,"is_reserved":false,"is_disabled":false,"rental_uris":{"android":"levelo://app?vid=d2719b50-dec8-4380-ae23-7c6e3b79924d","ios":"levelo://app?vid=d2719b50-dec8-4380-ae23-7c6e3b79924d"},"vehicle_type_id":"4","last_reported":1728759986,"current_range_meters":17600,"station_id":"ce4bh692rcd13ifvqe90","pricing_plan_id":"cebpf4jnsgd1na2vs0mg"},{"bike_id":"9aa2f93e-9889-4ce2-89fd-6fe75430764b","system_id":"levelo_inurba_marseille","lat":43.28342,"lon":5.38107,"is_reserved":false,"is_disabled":false,"rental_uris":{"android":"levelo://app?vid=9aa2f93e-9889-4ce2-89fd-6fe75430764b","ios":"levelo://app?vid=9aa2f93e-9889-4ce2-89fd-6fe75430764b"},"vehicle_type_id":"4","last_reported":1728759986,"current_range_meters":13600,"station_id":"ce4bh412rcd13ifvqdr0","pricing_plan_id":"cebpf4jnsgd1na2vs0mg"},{"bike_id":"7a6ec912-fb5b-4cfc-b1c0-2ab18d937abd","system_id":"levelo_inurba_marseille","lat":43.2952,"lon":5.3905,"is_reserved":false,"is_disabled":false,"rental_uris":{"android":"levelo://app?vid=7a6ec912-fb5b-4cfc-b1c0-2ab18d937abd","ios":"levelo://app?vid=7a6ec912-fb5b-4cfc-b1c0-2ab18d937abd"},"vehicle_type_id":"4","last_reported":1728759986,"current_range_meters":38800,"station_id":"ce4bh3p2rcd13ifvqdp0","pricing_plan_id":"cebpf4jnsgd1na2vs0mg"},{"bike_id":"0e93c01b-9e71-4227-9295-5a4a2f7a0689","system_id":"levelo_inurba_marseille","lat":43.32658,"lon":5.40992,"is_reserved":false,"is_disabled":false,"rental_uris":{"android":"levelo://app?vid=0e93c01b-9e71-4227-9295-5a4a2f7a0689","ios":"levelo://app?vid=0e93c01b-9e71-4227-9295-5a4a2f7a0689"},"vehicle_type_id":"4","last_reported":1728759986,"current_range_meters":30000,"station_id":"ce4bhpp2rcd13ifvqhgg","pricing_plan_id":"cebpf4jnsgd1na2vs0mg"},{"bike_id":"8a7c759e-bec8-4fd9-a13f-5d45080127dc","system_id":"levelo_inurba_marseille","lat":43.29852,"lon":5.36288,"is_reserved":false,"is_disabled":false,"rental_uris":{"android":"levelo://app?vid=8a7c759e-bec8-4fd9-a13f-5d45080127dc","ios":"levelo://app?vid=8a7c759e-bec8-4fd9-a13f-5d45080127dc"},"vehicle_type_id":"4","last_reported":1728759986,"current_range_meters":38800,"station_id":"ce4bgpp2rcd13ifvqc3g","pricing_plan_id":"cebpf4jnsgd1na2vs0mg"},{"bike_id":"82acbbc8-e4bf-4753-8147-16e875fd4817","system_id":"levelo_inurba_marseille","lat":43.25119,"lon":5.40315,"is_reserved":false,"is_disabled":false,"rental_uris":{"android":"levelo://app?vid=82acbbc8-e4bf-4753-8147-16e875fd4817","ios":"levelo://app?vid=82acbbc8-e4bf-4753-8147-16e875fd4817"},"vehicle_type_id":"4","last_reported":1728759986,"current_range_meters":25200,"station_id":"ce4bhlh2rcd13ifvqgig","pricing_plan_id":"cebpf4jnsgd1na2vs0mg"},{"bike_id":"bb241cd0-3e84-4cf0-ab2e-874c4f938eff","system_id":"levelo_inurba_marseille","lat":43.3175,"lon":5.39018,"is_reserved":false,"is_disabled":false,"rental_uris":{"android":"levelo://app?vid=bb241cd0-3e84-4cf0-ab2e-874c4f938eff","ios":"levelo://app?vid=bb241cd0-3e84-4cf0-ab2e-874c4f938eff"},"vehicle_type_id":"4","last_reported":1728759986,"current_range_meters":10800,"station_id":"ce4bhqp2rcd13ifvqhng","pricing_plan_id":"cebpf4jnsgd1na2vs0mg"},{"bike_id":"e3cd8953-9e5a-44ad-a5cd-debf49a539ae","system_id":"levelo_inurba_marseille","lat":43.21245,"lon":5.3545,"is_reserved":false,"is_disabled":false,"rental_uris":{"android":"levelo://app?vid=e3cd8953-9e5a-44ad-a5cd-debf49a539ae","ios":"levelo://app?vid=e3cd8953-9e5a-44ad-a5cd-debf49a539ae"},"vehicle_type_id":"4","last_reported":1728759986,"current_range_meters":25200,"station_id":"","pricing_plan_id":"cebpf4jnsgd1na2vs0mg"},{"bike_id":"e27ea739-3f17-489c-bc8b-ffca2ee39da6","system_id":"levelo_inurba_marseille","lat":43.298187,"lon":5.392703,"is_reserved":false,"is_disabled":false,"rental_uris":{"android":"levelo://app?vid=e27ea739-3f17-489c-bc8b-ffca2ee39da6","ios":"levelo://app?vid=e27ea739-3f17-489c-bc8b-ffca2ee39da6"},"vehicle_type_id":"4","last_reported":1728759986,"current_range_meters":25600,"station_id":"ce4bh4p2rcd13ifvqe0g","pricing_plan_id":"cebpf4jnsgd1na2vs0mg"},{"bike_id":"744d7d46-a030-452d-827a-600610e2a098","system_id":"levelo_inurba_marseille","lat":43.23186,"lon":5.39995,"is_reserved":false,"is_disabled":false,"rental_uris":{"android":"levelo://app?vid=744d7d46-a030-452d-827a-600610e2a098","ios":"levelo://app?vid=744d7d46-a030-452d-827a-600610e2a098"},"vehicle_type_id":"4","last_reported":1728759986,"current_range_meters":38000,"station_id":"ce4bhn12rcd13ifvqgqg","pricing_plan_id":"cebpf4jnsgd1na2vs0mg"},{"bike_id":"98f23933-0743-4813-895e-8d2629e680e6","system_id":"levelo_inurba_marseille","lat":43.27997,"lon":5.41659,"is_reserved":false,"is_disabled":false,"rental_uris":{"android":"levelo://app?vid=98f23933-0743-4813-895e-8d2629e680e6","ios":"levelo://app?vid=98f23933-0743-4813-895e-8d2629e680e6"},"vehicle_type_id":"4","last_reported":1728759986,"current_range_meters":6000,"station_id":"ce4bho12rcd13ifvqh1g","pricing_plan_id":"cebpf4jnsgd1na2vs0mg"},{"bike_id":"fd301c4f-88d0-470b-8444-02e732c4a052","system_id":"levelo_inurba_marseille","lat":43.24968,"lon":5.38094,"is_reserved":false,"is_disabled":false,"rental_uris":{"android":"levelo://app?vid=fd301c4f-88d0-470b-8444-02e732c4a052","ios":"levelo://app?vid=fd301c4f-88d0-470b-8444-02e732c4a052"},"vehicle_type_id":"4","last_reported":1728759986,"current_range_meters":27200,"station_id":"","pricing_plan_id":"cebpf4jnsgd1na2vs0mg"},{"bike_id":"61bb758d-655b-4811-8be2-948fed6b46a6","system_id":"levelo_inurba_marseille","lat":43.32472,"lon":5.36578,"is_reserved":false,"is_disabled":false,"rental_uris":{"android":"levelo://app?vid=61bb758d-655b-4811-8be2-948fed6b46a6","ios":"levelo://app?vid=61bb758d-655b-4811-8be2-948fed6b46a6"},"vehicle_type_id":"4","last_reported":1728759986,"current_range_meters":3200,"station_id":"ce4bhs12rcd13ifvqhvg","pricing_plan_id":"cebpf4jnsgd1na2vs0mg"},{"bike_id":"a0350309-0143-42c2-a839-8c95562592da","system_id":"levelo_inurba_marseille","lat":43.30888,"lon":5.37192,"is_reserved":false,"is_disabled":false,"rental_uris":{"android":"levelo://app?vid=a0350309-0143-42c2-a839-8c95562592da","ios":"levelo://app?vid=a0350309-0143-42c2-a839-8c95562592da"},"vehicle_type_id":"4","last_reported":1728759986,"current_range_meters":29600,"station_id":"ce4bguh2rcd13ifvqckg","pricing_plan_id":"cebpf4jnsgd1na2vs0mg"},{"bike_id":"cd054090-a92c-4192-9ff7-f0dcc337d919","system_id":"levelo_inurba_marseille","lat":43.30783,"lon":5.37636,"is_reserved":false,"is_disabled":false,"rental_uris":{"android":"levelo://app?vid=cd054090-a92c-4192-9ff7-f0dcc337d919","ios":"levelo://app?vid=cd054090-a92c-4192-9ff7-f0dcc337d919"},"vehicle_type_id":"4","last_reported":1728759986,"current_range_meters":9200,"station_id":"ce4bgv92rcd13ifvqcq0","pricing_plan_id":"cebpf4jnsgd1na2vs0mg"},{"bike_id":"50023f4b-a7ff-43cd-8e47-3fc37069fa5f","system_id":"levelo_inurba_marseille","lat":43.28365,"lon":5.38095,"is_reserved":false,"is_disabled":false,"rental_uris":{"android":"levelo://app?vid=50023f4b-a7ff-43cd-8e47-3fc37069fa5f","ios":"levelo://app?vid=50023f4b-a7ff-43cd-8e47-3fc37069fa5f"},"vehicle_type_id":"4","last_reported":1728759986,"current_range_meters":22400,"station_id":"ce4bh412rcd13ifvqdr0","pricing_plan_id":"cebpf4jnsgd1na2vs0mg"},{"bike_id":"54887b4f-fee3-474b-abbd-7336ddf1ae33","system_id":"levelo_inurba_marseille","lat":43.31689,"lon":5.40469,"is_reserved":false,"is_disabled":false,"rental_uris":{"android":"levelo://app?vid=54887b4f-fee3-474b-abbd-7336ddf1ae33","ios":"levelo://app?vid=54887b4f-fee3-474b-abbd-7336ddf1ae33"},"vehicle_type_id":"4","last_reported":1728759986,"current_range_meters":18800,"station_id":"ce4bh012rcd13ifvqd00","pricing_plan_id":"cebpf4jnsgd1na2vs0mg"},{"bike_id":"82b1ae91-5e6e-449f-97f5-199f0d9609fc","system_id":"levelo_inurba_marseille","lat":43.29849,"lon":5.36274,"is_reserved":false,"is_disabled":false,"rental_uris":{"android":"levelo://app?vid=82b1ae91-5e6e-449f-97f5-199f0d9609fc","ios":"levelo://app?vid=82b1ae91-5e6e-449f-97f5-199f0d9609fc"},"vehicle_type_id":"4","last_reported":1728759986,"current_range_meters":26800,"station_id":"ce4bgpp2rcd13ifvqc3g","pricing_plan_id":"cebpf4jnsgd1na2vs0mg"},{"bike_id":"1a90ad3a-447a-4014-8cf5-1bb8f629a10e","system_id":"levelo_inurba_marseille","lat":43.29584,"lon":5.36744,"is_reserved":false,"is_disabled":false,"rental_uris":{"android":"levelo://app?vid=1a90ad3a-447a-4014-8cf5-1bb8f629a10e","ios":"levelo://app?vid=1a90ad3a-447a-4014-8cf5-1bb8f629a10e"},"vehicle_type_id":"4","last_reported":1728759986,"current_range_meters":24000,"station_id":"ce4bgph2rcd13ifvqc2g","pricing_plan_id":"cebpf4jnsgd1na2vs0mg"},{"bike_id":"92c1af36-5649-40f5-84ed-a7b062884571","system_id":"levelo_inurba_marseille","lat":43.23957,"lon":5.36647,"is_reserved":false,"is_disabled":false,"rental_uris":{"android":"levelo://app?vid=92c1af36-5649-40f5-84ed-a7b062884571","ios":"levelo://app?vid=92c1af36-5649-40f5-84ed-a7b062884571"},"vehicle_type_id":"4","last_reported":1728759986,"current_range_meters":33200,"station_id":"ce4bhi12rcd13ifvqfp0","pricing_plan_id":"cebpf4jnsgd1na2vs0mg"},{"bike_id":"4b7b58cc-57ee-4f53-adac-2ae4d87181e7","system_id":"levelo_inurba_marseille","lat":43.23151,"lon":5.43705,"is_reserved":false,"is_disabled":false,"rental_uris":{"android":"levelo://app?vid=4b7b58cc-57ee-4f53-adac-2ae4d87181e7","ios":"levelo://app?vid=4b7b58cc-57ee-4f53-adac-2ae4d87181e7"},"vehicle_type_id":"4","last_reported":1728759986,"current_range_meters":38000,"station_id":"ce4bhmp2rcd13ifvqgog","pricing_plan_id":"cebpf4jnsgd1na2vs0mg"},{"bike_id":"6cb5b02c-2401-484a-8b7d-b4d2106d6b08","system_id":"levelo_inurba_marseille","lat":43.2319,"lon":5.35557,"is_reserved":false,"is_disabled":false,"rental_uris":{"android":"levelo://app?vid=6cb5b02c-2401-484a-8b7d-b4d2106d6b08","ios":"levelo://app?vid=6cb5b02c-2401-484a-8b7d-b4d2106d6b08"},"vehicle_type_id":"4","last_reported":1728759986,"current_range_meters":30800,"station_id":"ce4bhu92rcd13ifvqi70","pricing_plan_id":"cebpf4jnsgd1na2vs0mg"},{"bike_id":"ea203679-8246-41bb-bc64-80edd7e095b0","system_id":"levelo_inurba_marseille","lat":43.3302,"lon":5.39043,"is_reserved":false,"is_disabled":false,"rental_uris":{"android":"levelo://app?vid=ea203679-8246-41bb-bc64-80edd7e095b0","ios":"levelo://app?vid=ea203679-8246-41bb-bc64-80edd7e095b0"},"vehicle_type_id":"4","last_reported":1728759986,"current_range_meters":20400,"station_id":"ce4bhr92rcd13ifvqhrg","pricing_plan_id":"cebpf4jnsgd1na2vs0mg"},{"bike_id":"f7dd1dc7-fa4b-4758-aac5-4419d54d56ad","system_id":"levelo_inurba_marseille","lat":43.31755,"lon":5.39016,"is_reserved":false,"is_disabled":false,"rental_uris":{"android":"levelo://app?vid=f7dd1dc7-fa4b-4758-aac5-4419d54d56ad","ios":"levelo://app?vid=f7dd1dc7-fa4b-4758-aac5-4419d54d56ad"},"vehicle_type_id":"4","last_reported":1728759986,"current_range_meters":38800,"station_id":"ce4bhqp2rcd13ifvqhng","pricing_plan_id":"cebpf4jnsgd1na2vs0mg"},{"bike_id":"c88cdfb0-4bf9-4a8c-8ce2-b63c2598193b","system_id":"levelo_inurba_marseille","lat":43.29581,"lon":5.36742,"is_reserved":false,"is_disabled":false,"rental_uris":{"android":"levelo://app?vid=c88cdfb0-4bf9-4a8c-8ce2-b63c2598193b","ios":"levelo://app?vid=c88cdfb0-4bf9-4a8c-8ce2-b63c2598193b"},"vehicle_type_id":"4","last_reported":1728759986,"current_range_meters":36400,"station_id":"ce4bgph2rcd13ifvqc2g","pricing_plan_id":"cebpf4jnsgd1na2vs0mg"},{"bike_id":"5a8c6d4d-1a86-4268-b224-c78725034b80","system_id":"levelo_inurba_marseille","lat":43.30212,"lon":5.39471,"is_reserved":false,"is_disabled":false,"rental_uris":{"android":"levelo://app?vid=5a8c6d4d-1a86-4268-b224-c78725034b80","ios":"levelo://app?vid=5a8c6d4d-1a86-4268-b224-c78725034b80"},"vehicle_type_id":"4","last_reported":1728759986,"current_range_meters":30400,"station_id":"ce4bh0p2rcd13ifvqd70","pricing_plan_id":"cebpf4jnsgd1na2vs0mg"},{"bike_id":"722f38b4-43d3-4d62-993a-aba6e907d3eb","system_id":"levelo_inurba_marseille","lat":43.29844,"lon":5.36288,"is_reserved":false,"is_disabled":false,"rental_uris":{"android":"levelo://app?vid=722f38b4-43d3-4d62-993a-aba6e907d3eb","ios":"levelo://app?vid=722f38b4-43d3-4d62-993a-aba6e907d3eb"},"vehicle_type_id":"4","last_reported":1728759986,"current_range_meters":36800,"station_id":"ce4bgpp2rcd13ifvqc3g","pricing_plan_id":"cebpf4jnsgd1na2vs0mg"},{"bike_id":"d96846d4-7c39-4854-b1be-df8e9540d577","system_id":"levelo_inurba_marseille","lat":43.28848,"lon":5.35847,"is_reserved":false,"is_disabled":false,"rental_uris":{"android":"levelo://app?vid=d96846d4-7c39-4854-b1be-df8e9540d577","ios":"levelo://app?vid=d96846d4-7c39-4854-b1be-df8e9540d577"},"vehicle_type_id":"4","last_reported":1728759986,"current_range_meters":22400,"station_id":"ce4bhb12rcd13ifvqem0","pricing_plan_id":"cebpf4jnsgd1na2vs0mg"},{"bike_id":"d33f0c64-3ea5-4609-b68f-411193e0368e","system_id":"levelo_inurba_marseille","lat":43.29267,"lon":5.38451,"is_reserved":false,"is_disabled":false,"rental_uris":{"android":"levelo://app?vid=d33f0c64-3ea5-4609-b68f-411193e0368e","ios":"levelo://app?vid=d33f0c64-3ea5-4609-b68f-411193e0368e"},"vehicle_type_id":"4","last_reported":1728759986,"current_range_meters":38800,"station_id":"ce4bh692rcd13ifvqea0","pricing_plan_id":"cebpf4jnsgd1na2vs0mg"},{"bike_id":"9f83e5ce-da23-425f-a4a3-58fab8fd16c2","system_id":"levelo_inurba_marseille","lat":43.28924,"lon":5.38408,"is_reserved":false,"is_disabled":false,"rental_uris":{"android":"levelo://app?vid=9f83e5ce-da23-425f-a4a3-58fab8fd16c2","ios":"levelo://app?vid=9f83e5ce-da23-425f-a4a3-58fab8fd16c2"},"vehicle_type_id":"4","last_reported":1728759986,"current_range_meters":20800,"station_id":"ce4bh612rcd13ifvqe6g","pricing_plan_id":"cebpf4jnsgd1na2vs0mg"},{"bike_id":"8488197e-26c1-40d9-a760-527b9b302448","system_id":"levelo_inurba_marseille","lat":43.28614,"lon":5.35099,"is_reserved":false,"is_disabled":false,"rental_uris":{"android":"levelo://app?vid=8488197e-26c1-40d9-a760-527b9b302448","ios":"levelo://app?vid=8488197e-26c1-40d9-a760-527b9b302448"},"vehicle_type_id":"4","last_reported":1728759986,"current_range_meters":38800,"station_id":"ce4bhch2rcd13ifvqeug","pricing_plan_id":"cebpf4jnsgd1na2vs0mg"},{"bike_id":"dec436c1-d01a-4e4e-a66d-a687a7901d68","system_id":"levelo_inurba_marseille","lat":43.25108,"lon":5.40321,"is_reserved":false,"is_disabled":false,"rental_uris":{"android":"levelo://app?vid=dec436c1-d01a-4e4e-a66d-a687a7901d68","ios":"levelo://app?vid=dec436c1-d01a-4e4e-a66d-a687a7901d68"},"vehicle_type_id":"4","last_reported":1728759986,"current_range_meters":38400,"station_id":"ce4bhlh2rcd13ifvqgig","pricing_plan_id":"cebpf4jnsgd1na2vs0mg"},{"bike_id":"6e4baea9-b633-4d83-925a-8ebe02091531","system_id":"levelo_inurba_marseille","lat":43.28142,"lon":5.42631,"is_reserved":false,"is_disabled":false,"rental_uris":{"android":"levelo://app?vid=6e4baea9-b633-4d83-925a-8ebe02091531","ios":"levelo://app?vid=6e4baea9-b633-4d83-925a-8ebe02091531"},"vehicle_type_id":"4","last_reported":1728759986,"current_range_meters":16000,"station_id":"ce4bhnh2rcd13ifvqgug","pricing_plan_id":"cebpf4jnsgd1na2vs0mg"},{"bike_id":"accb871e-a6d6-4416-b0e7-cca548384eeb","system_id":"levelo_inurba_marseille","lat":43.26552,"lon":5.37294,"is_reserved":false,"is_disabled":false,"rental_uris":{"android":"levelo://app?vid=accb871e-a6d6-4416-b0e7-cca548384eeb","ios":"levelo://app?vid=accb871e-a6d6-4416-b0e7-cca548384eeb"},"vehicle_type_id":"4","last_reported":1728759986,"current_range_meters":36800,"station_id":"ce4bhg12rcd13ifvqf70","pricing_plan_id":"cebpf4jnsgd1na2vs0mg"},{"bike_id":"093877d5-25bc-4497-b091-cd7be3786e21","system_id":"levelo_inurba_marseille","lat":43.31177,"lon":5.38718,"is_reserved":false,"is_disabled":false,"rental_uris":{"android":"levelo://app?vid=093877d5-25bc-4497-b091-cd7be3786e21","ios":"levelo://app?vid=093877d5-25bc-4497-b091-cd7be3786e21"},"vehicle_type_id":"4","last_reported":1728759986,"current_range_meters":38000,"station_id":"ce4bgv12rcd13ifvqcp0","pricing_plan_id":"cebpf4jnsgd1na2vs0mg"},{"bike_id":"3007dc77-68fe-48f0-9c9f-7319b5e9fc9b","system_id":"levelo_inurba_marseille","lat":43.28277,"lon":5.3508,"is_reserved":false,"is_disabled":false,"rental_uris":{"android":"levelo://app?vid=3007dc77-68fe-48f0-9c9f-7319b5e9fc9b","ios":"levelo://app?vid=3007dc77-68fe-48f0-9c9f-7319b5e9fc9b"},"vehicle_type_id":"4","last_reported":1728759986,"current_range_meters":20400,"station_id":"ce4bhbp2rcd13ifvqerg","pricing_plan_id":"cebpf4jnsgd1na2vs0mg"},{"bike_id":"536c0bad-7e57-4170-840c-971627b71a7f","system_id":"levelo_inurba_marseille","lat":43.25862,"lon":5.39899,"is_reserved":false,"is_disabled":false,"rental_uris":{"android":"levelo://app?vid=536c0bad-7e57-4170-840c-971627b71a7f","ios":"levelo://app?vid=536c0bad-7e57-4170-840c-971627b71a7f"},"vehicle_type_id":"4","last_reported":1728759986,"current_range_meters":36800,"station_id":"ce4bhl92rcd13ifvqghg","pricing_plan_id":"cebpf4jnsgd1na2vs0mg"},{"bike_id":"a1249043-5a89-41b1-ab21-4f9342eb3947","system_id":"levelo_inurba_marseille","lat":43.29516,"lon":5.39048,"is_reserved":false,"is_disabled":false,"rental_uris":{"android":"levelo://app?vid=a1249043-5a89-41b1-ab21-4f9342eb3947","ios":"levelo://app?vid=a1249043-5a89-41b1-ab21-4f9342eb3947"},"vehicle_type_id":"4","last_reported":1728759986,"current_range_meters":33600,"station_id":"ce4bh3p2rcd13ifvqdp0","pricing_plan_id":"cebpf4jnsgd1na2vs0mg"},{"bike_id":"7ef20a5f-2856-416e-b697-a379f9c5df66","system_id":"levelo_inurba_marseille","lat":43.29955,"lon":5.385,"is_reserved":false,"is_disabled":false,"rental_uris":{"android":"levelo://app?vid=7ef20a5f-2856-416e-b697-a379f9c5df66","ios":"levelo://app?vid=7ef20a5f-2856-416e-b697-a379f9c5df66"},"vehicle_type_id":"4","last_reported":1728759986,"current_range_meters":35600,"station_id":"ce4bgj92rcd13ifvqbd0","pricing_plan_id":"cebpf4jnsgd1na2vs0mg"},{"bike_id":"3b03c534-0f08-4186-a1dd-0c7af350ccde","system_id":"levelo_inurba_marseille","lat":43.29026,"lon":5.38645,"is_reserved":false,"is_disabled":false,"rental_uris":{"android":"levelo://app?vid=3b03c534-0f08-4186-a1dd-0c7af350ccde","ios":"levelo://app?vid=3b03c534-0f08-4186-a1dd-0c7af350ccde"},"vehicle_type_id":"4","last_reported":1728759986,"current_range_meters":26800,"station_id":"ce4bh4p2rcd13ifvqe0g","pricing_plan_id":"cebpf4jnsgd1na2vs0mg"},{"bike_id":"25e59862-8a09-482d-b3a5-7138deb4afc5","system_id":"levelo_inurba_marseille","lat":43.2306,"lon":5.35493,"is_reserved":false,"is_disabled":false,"rental_uris":{"android":"levelo://app?vid=25e59862-8a09-482d-b3a5-7138deb4afc5","ios":"levelo://app?vid=25e59862-8a09-482d-b3a5-7138deb4afc5"},"vehicle_type_id":"4","last_reported":1728759986,"current_range_meters":8800,"station_id":"cpo3342slgdg3j2ifvpg","pricing_plan_id":"cebpf4jnsgd1na2vs0mg"},{"bike_id":"fb11f262-0a66-49be-9298-46884b98ece9","system_id":"levelo_inurba_marseille","lat":43.2962,"lon":5.37172,"is_reserved":false,"is_disabled":false,"rental_uris":{"android":"levelo://app?vid=fb11f262-0a66-49be-9298-46884b98ece9","ios":"levelo://app?vid=fb11f262-0a66-49be-9298-46884b98ece9"},"vehicle_type_id":"4","last_reported":1728759986,"current_range_meters":12000,"station_id":"ce4bgnh2rcd13ifvqc0g","pricing_plan_id":"cebpf4jnsgd1na2vs0mg"},{"bike_id":"9c089705-ba67-41e0-85f6-c7770a86c4bf","system_id":"levelo_inurba_marseille","lat":43.29272,"lon":5.36849,"is_reserved":false,"is_disabled":false,"rental_uris":{"android":"levelo://app?vid=9c089705-ba67-41e0-85f6-c7770a86c4bf","ios":"levelo://app?vid=9c089705-ba67-41e0-85f6-c7770a86c4bf"},"vehicle_type_id":"4","last_reported":1728759986,"current_range_meters":38800,"station_id":"ce4bhbp2rcd13ifvqesg","pricing_plan_id":"cebpf4jnsgd1na2vs0mg"},{"bike_id":"b933402b-d1ca-49a8-bbf7-fb19281d941c","system_id":"levelo_inurba_marseille","lat":43.2319,"lon":5.35558,"is_reserved":false,"is_disabled":false,"rental_uris":{"android":"levelo://app?vid=b933402b-d1ca-49a8-bbf7-fb19281d941c","ios":"levelo://app?vid=b933402b-d1ca-49a8-bbf7-fb19281d941c"},"vehicle_type_id":"4","last_reported":1728759986,"current_range_meters":19200,"station_id":"ce4bhu92rcd13ifvqi70","pricing_plan_id":"cebpf4jnsgd1na2vs0mg"},{"bike_id":"527d34ed-b334-47e4-8160-2a4f9a3edf0a","system_id":"levelo_inurba_marseille","lat":43.25496,"lon":5.37655,"is_reserved":false,"is_disabled":false,"rental_uris":{"android":"levelo://app?vid=527d34ed-b334-47e4-8160-2a4f9a3edf0a","ios":"levelo://app?vid=527d34ed-b334-47e4-8160-2a4f9a3edf0a"},"vehicle_type_id":"4","last_reported":1728759986,"current_range_meters":24400,"station_id":"ce4bhh12rcd13ifvqff0","pricing_plan_id":"cebpf4jnsgd1na2vs0mg"},{"bike_id":"1282fdea-34d4-43e0-b31c-86a3e15b6777","system_id":"levelo_inurba_marseille","lat":43.30183,"lon":5.36616,"is_reserved":false,"is_disabled":false,"rental_uris":{"android":"levelo://app?vid=1282fdea-34d4-43e0-b31c-86a3e15b6777","ios":"levelo://app?vid=1282fdea-34d4-43e0-b31c-86a3e15b6777"},"vehicle_type_id":"4","last_reported":1728759986,"current_range_meters":18800,"station_id":"ce4bgrh2rcd13ifvqc8g","pricing_plan_id":"cebpf4jnsgd1na2vs0mg"},{"bike_id":"ab752ce9-0137-4200-bcc1-ef12154969de","system_id":"levelo_inurba_marseille","lat":43.28928,"lon":5.38384,"is_reserved":false,"is_disabled":false,"rental_uris":{"android":"levelo://app?vid=ab752ce9-0137-4200-bcc1-ef12154969de","ios":"levelo://app?vid=ab752ce9-0137-4200-bcc1-ef12154969de"},"vehicle_type_id":"4","last_reported":1728759986,"current_range_meters":8800,"station_id":"ce4bh612rcd13ifvqe6g","pricing_plan_id":"cebpf4jnsgd1na2vs0mg"},{"bike_id":"11ff98e0-1a42-45c0-a33e-04851ede6452","system_id":"levelo_inurba_marseille","lat":43.29618,"lon":5.37719,"is_reserved":false,"is_disabled":false,"rental_uris":{"android":"levelo://app?vid=11ff98e0-1a42-45c0-a33e-04851ede6452","ios":"levelo://app?vid=11ff98e0-1a42-45c0-a33e-04851ede6452"},"vehicle_type_id":"4","last_reported":1728759986,"current_range_meters":38800,"station_id":"ce4bgi92rcd13ifvqb90","pricing_plan_id":"cebpf4jnsgd1na2vs0mg"},{"bike_id":"6a6a7d3a-f7dc-4b9f-8124-eb35b10dcf5b","system_id":"levelo_inurba_marseille","lat":43.31329,"lon":5.39696,"is_reserved":false,"is_disabled":false,"rental_uris":{"android":"levelo://app?vid=6a6a7d3a-f7dc-4b9f-8124-eb35b10dcf5b","ios":"levelo://app?vid=6a6a7d3a-f7dc-4b9f-8124-eb35b10dcf5b"},"vehicle_type_id":"4","last_reported":1728759986,"current_range_meters":38800,"station_id":"ce4bgvp2rcd13ifvqcu0","pricing_plan_id":"cebpf4jnsgd1na2vs0mg"},{"bike_id":"d751b74f-afbb-4075-ac46-9547555eee0f","system_id":"levelo_inurba_marseille","lat":43.32368,"lon":5.38881,"is_reserved":false,"is_disabled":false,"rental_uris":{"android":"levelo://app?vid=d751b74f-afbb-4075-ac46-9547555eee0f","ios":"levelo://app?vid=d751b74f-afbb-4075-ac46-9547555eee0f"},"vehicle_type_id":"4","last_reported":1728759986,"current_range_meters":19600,"station_id":"ce4bhqp2rcd13ifvqhog","pricing_plan_id":"cebpf4jnsgd1na2vs0mg"},{"bike_id":"91906349-a737-434d-8a23-fe1add9c9c35","system_id":"levelo_inurba_marseille","lat":43.3054,"lon":5.38428,"is_reserved":false,"is_disabled":false,"rental_uris":{"android":"levelo://app?vid=91906349-a737-434d-8a23-fe1add9c9c35","ios":"levelo://app?vid=91906349-a737-434d-8a23-fe1add9c9c35"},"vehicle_type_id":"4","last_reported":1728759986,"current_range_meters":38400,"station_id":"ce4bgg92rcd13ifvqb30","pricing_plan_id":"cebpf4jnsgd1na2vs0mg"},{"bike_id":"acbe997b-a9be-49ac-ad5e-d0e8fdd650d9","system_id":"levelo_inurba_marseille","lat":43.27834,"lon":5.39203,"is_reserved":false,"is_disabled":false,"rental_uris":{"android":"levelo://app?vid=acbe997b-a9be-49ac-ad5e-d0e8fdd650d9","ios":"levelo://app?vid=acbe997b-a9be-49ac-ad5e-d0e8fdd650d9"},"vehicle_type_id":"4","last_reported":1728759986,"current_range_meters":32400,"station_id":"ce4bhjp2rcd13ifvqga0","pricing_plan_id":"cebpf4jnsgd1na2vs0mg"},{"bike_id":"d4dd7cf9-d2df-48fc-b6ef-9e07f0daf7e4","system_id":"levelo_inurba_marseille","lat":43.2984,"lon":5.36279,"is_reserved":false,"is_disabled":false,"rental_uris":{"android":"levelo://app?vid=d4dd7cf9-d2df-48fc-b6ef-9e07f0daf7e4","ios":"levelo://app?vid=d4dd7cf9-d2df-48fc-b6ef-9e07f0daf7e4"},"vehicle_type_id":"4","last_reported":1728759986,"current_range_meters":33200,"station_id":"ce4bgpp2rcd13ifvqc3g","pricing_plan_id":"cebpf4jnsgd1na2vs0mg"},{"bike_id":"b5d71fcf-1dfb-4999-9499-f7f170ca339c","system_id":"levelo_inurba_marseille","lat":43.29846,"lon":5.36292,"is_reserved":false,"is_disabled":false,"rental_uris":{"android":"levelo://app?vid=b5d71fcf-1dfb-4999-9499-f7f170ca339c","ios":"levelo://app?vid=b5d71fcf-1dfb-4999-9499-f7f170ca339c"},"vehicle_type_id":"4","last_reported":1728759986,"current_range_meters":28400,"station_id":"ce4bgpp2rcd13ifvqc3g","pricing_plan_id":"cebpf4jnsgd1na2vs0mg"},{"bike_id":"6ff31e22-dbdf-494f-8326-d5712a233c5a","system_id":"levelo_inurba_marseille","lat":43.25824,"lon":5.39436,"is_reserved":false,"is_disabled":false,"rental_uris":{"android":"levelo://app?vid=6ff31e22-dbdf-494f-8326-d5712a233c5a","ios":"levelo://app?vid=6ff31e22-dbdf-494f-8326-d5712a233c5a"},"vehicle_type_id":"4","last_reported":1728759986,"current_range_meters":8800,"station_id":"ce4bhip2rcd13ifvqft0","pricing_plan_id":"cebpf4jnsgd1na2vs0mg"},{"bike_id":"a273589e-4f20-4eea-83b6-646104a0c8da","system_id":"levelo_inurba_marseille","lat":43.24385,"lon":5.37065,"is_reserved":false,"is_disabled":false,"rental_uris":{"android":"levelo://app?vid=a273589e-4f20-4eea-83b6-646104a0c8da","ios":"levelo://app?vid=a273589e-4f20-4eea-83b6-646104a0c8da"},"vehicle_type_id":"4","last_reported":1728759986,"current_range_meters":28800,"station_id":"ce4bhhh2rcd13ifvqfk0","pricing_plan_id":"cebpf4jnsgd1na2vs0mg"},{"bike_id":"fa62411a-1791-4ab3-a3bd-706ae41e9bcf","system_id":"levelo_inurba_marseille","lat":43.29629,"lon":5.37154,"is_reserved":false,"is_disabled":false,"rental_uris":{"android":"levelo://app?vid=fa62411a-1791-4ab3-a3bd-706ae41e9bcf","ios":"levelo://app?vid=fa62411a-1791-4ab3-a3bd-706ae41e9bcf"},"vehicle_type_id":"4","last_reported":1728759986,"current_range_meters":26800,"station_id":"ce4bgnh2rcd13ifvqc0g","pricing_plan_id":"cebpf4jnsgd1na2vs0mg"},{"bike_id":"e4f0f21e-0c3d-4d74-b01c-3addb8ce8acf","system_id":"levelo_inurba_marseille","lat":43.28341,"lon":5.38106,"is_reserved":false,"is_disabled":false,"rental_uris":{"android":"levelo://app?vid=e4f0f21e-0c3d-4d74-b01c-3addb8ce8acf","ios":"levelo://app?vid=e4f0f21e-0c3d-4d74-b01c-3addb8ce8acf"},"vehicle_type_id":"4","last_reported":1728759986,"current_range_meters":6800,"station_id":"ce4bh412rcd13ifvqdr0","pricing_plan_id":"cebpf4jnsgd1na2vs0mg"},{"bike_id":"e6336660-e5d0-4336-aab6-9e2081b4b551","system_id":"levelo_inurba_marseille","lat":43.33731,"lon":5.39189,"is_reserved":false,"is_disabled":false,"rental_uris":{"android":"levelo://app?vid=e6336660-e5d0-4336-aab6-9e2081b4b551","ios":"levelo://app?vid=e6336660-e5d0-4336-aab6-9e2081b4b551"},"vehicle_type_id":"4","last_reported":1728759986,"current_range_meters":22800,"station_id":"ce4bhr92rcd13ifvqhsg","pricing_plan_id":"cebpf4jnsgd1na2vs0mg"},{"bike_id":"0672d024-7512-458f-bdf1-a190412d36c0","system_id":"levelo_inurba_marseille","lat":43.28473,"lon":5.38414,"is_reserved":false,"is_disabled":false,"rental_uris":{"android":"levelo://app?vid=0672d024-7512-458f-bdf1-a190412d36c0","ios":"levelo://app?vid=0672d024-7512-458f-bdf1-a190412d36c0"},"vehicle_type_id":"4","last_reported":1728759986,"current_range_meters":38800,"station_id":"ce4bh512rcd13ifvqe3g","pricing_plan_id":"cebpf4jnsgd1na2vs0mg"},{"bike_id":"ab47664c-0450-4138-b005-9b8e1b8810bd","system_id":"levelo_inurba_marseille","lat":43.29583,"lon":5.367443,"is_reserved":false,"is_disabled":false,"rental_uris":{"android":"levelo://app?vid=ab47664c-0450-4138-b005-9b8e1b8810bd","ios":"levelo://app?vid=ab47664c-0450-4138-b005-9b8e1b8810bd"},"vehicle_type_id":"4","last_reported":1728759986,"current_range_meters":38800,"station_id":"ce4bgph2rcd13ifvqc2g","pricing_plan_id":"cebpf4jnsgd1na2vs0mg"},{"bike_id":"f01587ea-92d0-4f0d-a1ca-699b8a26ee17","system_id":"levelo_inurba_marseille","lat":43.28095,"lon":5.37841,"is_reserved":false,"is_disabled":false,"rental_uris":{"android":"levelo://app?vid=f01587ea-92d0-4f0d-a1ca-699b8a26ee17","ios":"levelo://app?vid=f01587ea-92d0-4f0d-a1ca-699b8a26ee17"},"vehicle_type_id":"4","last_reported":1728759986,"current_range_meters":29600,"station_id":"ce4bha12rcd13ifvqee0","pricing_plan_id":"cebpf4jnsgd1na2vs0mg"},{"bike_id":"b2e9e370-9210-49f2-a2bc-03587913b57f","system_id":"levelo_inurba_marseille","lat":43.32479,"lon":5.36566,"is_reserved":false,"is_disabled":false,"rental_uris":{"android":"levelo://app?vid=b2e9e370-9210-49f2-a2bc-03587913b57f","ios":"levelo://app?vid=b2e9e370-9210-49f2-a2bc-03587913b57f"},"vehicle_type_id":"4","last_reported":1728759986,"current_range_meters":38800,"station_id":"ce4bhs12rcd13ifvqhvg","pricing_plan_id":"cebpf4jnsgd1na2vs0mg"},{"bike_id":"a65ce638-0d80-45de-a976-f758e5d0d1da","system_id":"levelo_inurba_marseille","lat":43.29524,"lon":5.39044,"is_reserved":false,"is_disabled":false,"rental_uris":{"android":"levelo://app?vid=a65ce638-0d80-45de-a976-f758e5d0d1da","ios":"levelo://app?vid=a65ce638-0d80-45de-a976-f758e5d0d1da"},"vehicle_type_id":"4","last_reported":1728759986,"current_range_meters":7200,"station_id":"ce4bh3p2rcd13ifvqdp0","pricing_plan_id":"cebpf4jnsgd1na2vs0mg"},{"bike_id":"55582e1e-1cd8-4e96-933c-025471d1c473","system_id":"levelo_inurba_marseille","lat":43.26941,"lon":5.38928,"is_reserved":false,"is_disabled":false,"rental_uris":{"android":"levelo://app?vid=55582e1e-1cd8-4e96-933c-025471d1c473","ios":"levelo://app?vid=55582e1e-1cd8-4e96-933c-025471d1c473"},"vehicle_type_id":"4","last_reported":1728759986,"current_range_meters":9600,"station_id":"ce4bhhh2rcd13ifvqfl0","pricing_plan_id":"cebpf4jnsgd1na2vs0mg"},{"bike_id":"5214db82-e998-454a-9a4d-3d52f016fd6b","system_id":"levelo_inurba_marseille","lat":43.28074,"lon":5.39655,"is_reserved":false,"is_disabled":false,"rental_uris":{"android":"levelo://app?vid=5214db82-e998-454a-9a4d-3d52f016fd6b","ios":"levelo://app?vid=5214db82-e998-454a-9a4d-3d52f016fd6b"},"vehicle_type_id":"4","last_reported":1728759986,"current_range_meters":27200,"station_id":"ce4bho12rcd13ifvqh2g","pricing_plan_id":"cebpf4jnsgd1na2vs0mg"},{"bike_id":"959e4fa3-7477-4e8f-929d-073effc704a7","system_id":"levelo_inurba_marseille","lat":43.28646,"lon":5.36349,"is_reserved":false,"is_disabled":false,"rental_uris":{"android":"levelo://app?vid=959e4fa3-7477-4e8f-929d-073effc704a7","ios":"levelo://app?vid=959e4fa3-7477-4e8f-929d-073effc704a7"},"vehicle_type_id":"4","last_reported":1728759986,"current_range_meters":36800,"station_id":"ce4bhah2rcd13ifvqej0","pricing_plan_id":"cebpf4jnsgd1na2vs0mg"},{"bike_id":"c8e1299e-a652-4ddb-b20f-dec547d2dd26","system_id":"levelo_inurba_marseille","lat":43.30511,"lon":5.36561,"is_reserved":false,"is_disabled":false,"rental_uris":{"android":"levelo://app?vid=c8e1299e-a652-4ddb-b20f-dec547d2dd26","ios":"levelo://app?vid=c8e1299e-a652-4ddb-b20f-dec547d2dd26"},"vehicle_type_id":"4","last_reported":1728759986,"current_range_meters":38800,"station_id":"ce4bgs12rcd13ifvqcag","pricing_plan_id":"cebpf4jnsgd1na2vs0mg"},{"bike_id":"e1f9486c-3843-42a6-aacd-4c828c67520a","system_id":"levelo_inurba_marseille","lat":43.23048,"lon":5.35499,"is_reserved":false,"is_disabled":false,"rental_uris":{"android":"levelo://app?vid=e1f9486c-3843-42a6-aacd-4c828c67520a","ios":"levelo://app?vid=e1f9486c-3843-42a6-aacd-4c828c67520a"},"vehicle_type_id":"4","last_reported":1728759986,"current_range_meters":35600,"station_id":"cpo3342slgdg3j2ifvpg","pricing_plan_id":"cebpf4jnsgd1na2vs0mg"},{"bike_id":"ee051660-567f-455b-962a-2f2ee930e880","system_id":"levelo_inurba_marseille","lat":43.29785,"lon":5.38118,"is_reserved":false,"is_disabled":false,"rental_uris":{"android":"levelo://app?vid=ee051660-567f-455b-962a-2f2ee930e880","ios":"levelo://app?vid=ee051660-567f-455b-962a-2f2ee930e880"},"vehicle_type_id":"4","last_reported":1728759986,"current_range_meters":37600,"station_id":"ce4bgip2rcd13ifvqbb0","pricing_plan_id":"cebpf4jnsgd1na2vs0mg"},{"bike_id":"17f0a58b-fa96-470d-a1b0-89c2a0c2bfbe","system_id":"levelo_inurba_marseille","lat":43.23196,"lon":5.35554,"is_reserved":false,"is_disabled":false,"rental_uris":{"android":"levelo://app?vid=17f0a58b-fa96-470d-a1b0-89c2a0c2bfbe","ios":"levelo://app?vid=17f0a58b-fa96-470d-a1b0-89c2a0c2bfbe"},"vehicle_type_id":"4","last_reported":1728759986,"current_range_meters":22000,"station_id":"ce4bhu92rcd13ifvqi70","pricing_plan_id":"cebpf4jnsgd1na2vs0mg"},{"bike_id":"563bfee9-e6cb-4815-9e27-50c00cf77ee9","system_id":"levelo_inurba_marseille","lat":43.30266,"lon":5.37707,"is_reserved":false,"is_disabled":false,"rental_uris":{"android":"levelo://app?vid=563bfee9-e6cb-4815-9e27-50c00cf77ee9","ios":"levelo://app?vid=563bfee9-e6cb-4815-9e27-50c00cf77ee9"},"vehicle_type_id":"4","last_reported":1728759986,"current_range_meters":25200,"station_id":"ce4bguh2rcd13ifvqcj0","pricing_plan_id":"cebpf4jnsgd1na2vs0mg"},{"bike_id":"083d77b2-6ca0-4e0a-a085-d018d6d0008c","system_id":"levelo_inurba_marseille","lat":43.26497,"lon":5.39543,"is_reserved":false,"is_disabled":false,"rental_uris":{"android":"levelo://app?vid=083d77b2-6ca0-4e0a-a085-d018d6d0008c","ios":"levelo://app?vid=083d77b2-6ca0-4e0a-a085-d018d6d0008c"},"vehicle_type_id":"4","last_reported":1728759986,"current_range_meters":25600,"station_id":"ce4bhi12rcd13ifvqfq0","pricing_plan_id":"cebpf4jnsgd1na2vs0mg"},{"bike_id":"0bc267ec-3010-421e-ba98-64c106d64919","system_id":"levelo_inurba_marseille","lat":43.25115,"lon":5.40321,"is_reserved":false,"is_disabled":false,"rental_uris":{"android":"levelo://app?vid=0bc267ec-3010-421e-ba98-64c106d64919","ios":"levelo://app?vid=0bc267ec-3010-421e-ba98-64c106d64919"},"vehicle_type_id":"4","last_reported":1728759986,"current_range_meters":19600,"station_id":"ce4bhlh2rcd13ifvqgig","pricing_plan_id":"cebpf4jnsgd1na2vs0mg"},{"bike_id":"d1b41da7-f612-4c42-bf79-15f34b977b9f","system_id":"levelo_inurba_marseille","lat":43.295319,"lon":5.385353,"is_reserved":false,"is_disabled":false,"rental_uris":{"android":"levelo://app?vid=d1b41da7-f612-4c42-bf79-15f34b977b9f","ios":"levelo://app?vid=d1b41da7-f612-4c42-bf79-15f34b977b9f"},"vehicle_type_id":"4","last_reported":1728759986,"current_range_meters":31200,"station_id":"ce4bgih2rcd13ifvqba0","pricing_plan_id":"cebpf4jnsgd1na2vs0mg"},{"bike_id":"0383fd16-e9b8-4410-b536-493a9708d1c6","system_id":"levelo_inurba_marseille","lat":43.33018,"lon":5.39047,"is_reserved":false,"is_disabled":false,"rental_uris":{"android":"levelo://app?vid=0383fd16-e9b8-4410-b536-493a9708d1c6","ios":"levelo://app?vid=0383fd16-e9b8-4410-b536-493a9708d1c6"},"vehicle_type_id":"4","last_reported":1728759986,"current_range_meters":22000,"station_id":"ce4bhr92rcd13ifvqhrg","pricing_plan_id":"cebpf4jnsgd1na2vs0mg"},{"bike_id":"b25409bc-df4d-476a-893e-c6a5838692b2","system_id":"levelo_inurba_marseille","lat":43.23188,"lon":5.35561,"is_reserved":false,"is_disabled":false,"rental_uris":{"android":"levelo://app?vid=b25409bc-df4d-476a-893e-c6a5838692b2","ios":"levelo://app?vid=b25409bc-df4d-476a-893e-c6a5838692b2"},"vehicle_type_id":"4","last_reported":1728759986,"current_range_meters":38800,"station_id":"ce4bhu92rcd13ifvqi70","pricing_plan_id":"cebpf4jnsgd1na2vs0mg"},{"bike_id":"39b0f057-0cc9-4a3d-9ad6-10b7d47bf6bb","system_id":"levelo_inurba_marseille","lat":43.28469,"lon":5.38415,"is_reserved":false,"is_disabled":false,"rental_uris":{"android":"levelo://app?vid=39b0f057-0cc9-4a3d-9ad6-10b7d47bf6bb","ios":"levelo://app?vid=39b0f057-0cc9-4a3d-9ad6-10b7d47bf6bb"},"vehicle_type_id":"4","last_reported":1728759986,"current_range_meters":38800,"station_id":"ce4bh512rcd13ifvqe3g","pricing_plan_id":"cebpf4jnsgd1na2vs0mg"},{"bike_id":"0c0ab791-5f38-4bb5-8c56-3c1ab5a31ead","system_id":"levelo_inurba_marseille","lat":43.32555,"lon":5.38926,"is_reserved":false,"is_disabled":false,"rental_uris":{"android":"levelo://app?vid=0c0ab791-5f38-4bb5-8c56-3c1ab5a31ead","ios":"levelo://app?vid=0c0ab791-5f38-4bb5-8c56-3c1ab5a31ead"},"vehicle_type_id":"4","last_reported":1728759986,"current_range_meters":3200,"station_id":"","pricing_plan_id":"cebpf4jnsgd1na2vs0mg"},{"bike_id":"8fb2b431-bcb9-46ba-80fb-e26e84592fc5","system_id":"levelo_inurba_marseille","lat":43.23189,"lon":5.35551,"is_reserved":false,"is_disabled":false,"rental_uris":{"android":"levelo://app?vid=8fb2b431-bcb9-46ba-80fb-e26e84592fc5","ios":"levelo://app?vid=8fb2b431-bcb9-46ba-80fb-e26e84592fc5"},"vehicle_type_id":"4","last_reported":1728759986,"current_range_meters":30400,"station_id":"ce4bhu92rcd13ifvqi70","pricing_plan_id":"cebpf4jnsgd1na2vs0mg"},{"bike_id":"a3f8df2e-2fed-42f1-8b01-11375bb65951","system_id":"levelo_inurba_marseille","lat":43.2985,"lon":5.36288,"is_reserved":false,"is_disabled":false,"rental_uris":{"android":"levelo://app?vid=a3f8df2e-2fed-42f1-8b01-11375bb65951","ios":"levelo://app?vid=a3f8df2e-2fed-42f1-8b01-11375bb65951"},"vehicle_type_id":"4","last_reported":1728759986,"current_range_meters":11600,"station_id":"ce4bgpp2rcd13ifvqc3g","pricing_plan_id":"cebpf4jnsgd1na2vs0mg"},{"bike_id":"e2f25126-29b7-4581-a4fe-9e458716fb1d","system_id":"levelo_inurba_marseille","lat":43.23958,"lon":5.36631,"is_reserved":false,"is_disabled":false,"rental_uris":{"android":"levelo://app?vid=e2f25126-29b7-4581-a4fe-9e458716fb1d","ios":"levelo://app?vid=e2f25126-29b7-4581-a4fe-9e458716fb1d"},"vehicle_type_id":"4","last_reported":1728759986,"current_range_meters":27600,"station_id":"ce4bhi12rcd13ifvqfp0","pricing_plan_id":"cebpf4jnsgd1na2vs0mg"},{"bike_id":"8dc8b5c8-f938-440d-b2c2-9a921dbd5488","system_id":"levelo_inurba_marseille","lat":43.26933,"lon":5.38911,"is_reserved":false,"is_disabled":false,"rental_uris":{"android":"levelo://app?vid=8dc8b5c8-f938-440d-b2c2-9a921dbd5488","ios":"levelo://app?vid=8dc8b5c8-f938-440d-b2c2-9a921dbd5488"},"vehicle_type_id":"4","last_reported":1728759986,"current_range_meters":39200,"station_id":"ce4bhhh2rcd13ifvqfl0","pricing_plan_id":"cebpf4jnsgd1na2vs0mg"},{"bike_id":"a5f1b4f4-bc5f-484d-9b8b-f53646c11223","system_id":"levelo_inurba_marseille","lat":43.29844,"lon":5.36285,"is_reserved":false,"is_disabled":false,"rental_uris":{"android":"levelo://app?vid=a5f1b4f4-bc5f-484d-9b8b-f53646c11223","ios":"levelo://app?vid=a5f1b4f4-bc5f-484d-9b8b-f53646c11223"},"vehicle_type_id":"4","last_reported":1728759986,"current_range_meters":23200,"station_id":"ce4bgpp2rcd13ifvqc3g","pricing_plan_id":"cebpf4jnsgd1na2vs0mg"},{"bike_id":"b97486ca-56b3-49fa-8704-f384aaac891d","system_id":"levelo_inurba_marseille","lat":43.26948,"lon":5.38926,"is_reserved":false,"is_disabled":false,"rental_uris":{"android":"levelo://app?vid=b97486ca-56b3-49fa-8704-f384aaac891d","ios":"levelo://app?vid=b97486ca-56b3-49fa-8704-f384aaac891d"},"vehicle_type_id":"4","last_reported":1728759986,"current_range_meters":38800,"station_id":"ce4bhhh2rcd13ifvqfl0","pricing_plan_id":"cebpf4jnsgd1na2vs0mg"},{"bike_id":"972e1e50-2e1e-454f-8635-5ea35f00e6a7","system_id":"levelo_inurba_marseille","lat":43.30458,"lon":5.40184,"is_reserved":false,"is_disabled":false,"rental_uris":{"android":"levelo://app?vid=972e1e50-2e1e-454f-8635-5ea35f00e6a7","ios":"levelo://app?vid=972e1e50-2e1e-454f-8635-5ea35f00e6a7"},"vehicle_type_id":"4","last_reported":1728759986,"current_range_meters":36800,"station_id":"","pricing_plan_id":"cebpf4jnsgd1na2vs0mg"},{"bike_id":"efb2bcd1-c567-4d4b-8d3b-8a3d113eedad","system_id":"levelo_inurba_marseille","lat":43.29842,"lon":5.3628,"is_reserved":false,"is_disabled":false,"rental_uris":{"android":"levelo://app?vid=efb2bcd1-c567-4d4b-8d3b-8a3d113eedad","ios":"levelo://app?vid=efb2bcd1-c567-4d4b-8d3b-8a3d113eedad"},"vehicle_type_id":"4","last_reported":1728759986,"current_range_meters":14000,"station_id":"ce4bgpp2rcd13ifvqc3g","pricing_plan_id":"cebpf4jnsgd1na2vs0mg"},{"bike_id":"f505f606-56f5-4c2d-a982-5cc8a18db928","system_id":"levelo_inurba_marseille","lat":43.2952,"lon":5.39048,"is_reserved":false,"is_disabled":false,"rental_uris":{"android":"levelo://app?vid=f505f606-56f5-4c2d-a982-5cc8a18db928","ios":"levelo://app?vid=f505f606-56f5-4c2d-a982-5cc8a18db928"},"vehicle_type_id":"4","last_reported":1728759986,"current_range_meters":34000,"station_id":"ce4bh3p2rcd13ifvqdp0","pricing_plan_id":"cebpf4jnsgd1na2vs0mg"},{"bike_id":"4a3bfc68-b18c-4958-b989-ed28b3918e50","system_id":"levelo_inurba_marseille","lat":43.30644,"lon":5.401,"is_reserved":false,"is_disabled":false,"rental_uris":{"android":"levelo://app?vid=4a3bfc68-b18c-4958-b989-ed28b3918e50","ios":"levelo://app?vid=4a3bfc68-b18c-4958-b989-ed28b3918e50"},"vehicle_type_id":"4","last_reported":1728759986,"current_range_meters":8400,"station_id":"ce4bh112rcd13ifvqda0","pricing_plan_id":"cebpf4jnsgd1na2vs0mg"},{"bike_id":"8019261c-0002-4fd7-a929-313968ea2c77","system_id":"levelo_inurba_marseille","lat":43.2454,"lon":5.39524,"is_reserved":false,"is_disabled":false,"rental_uris":{"android":"levelo://app?vid=8019261c-0002-4fd7-a929-313968ea2c77","ios":"levelo://app?vid=8019261c-0002-4fd7-a929-313968ea2c77"},"vehicle_type_id":"4","last_reported":1728759986,"current_range_meters":12400,"station_id":"ce4bhlp2rcd13ifvqgjg","pricing_plan_id":"cebpf4jnsgd1na2vs0mg"},{"bike_id":"6f6aa75e-2312-4bd3-bf06-df20614f1ef1","system_id":"levelo_inurba_marseille","lat":43.272,"lon":5.39185,"is_reserved":false,"is_disabled":false,"rental_uris":{"android":"levelo://app?vid=6f6aa75e-2312-4bd3-bf06-df20614f1ef1","ios":"levelo://app?vid=6f6aa75e-2312-4bd3-bf06-df20614f1ef1"},"vehicle_type_id":"4","last_reported":1728759986,"current_range_meters":18000,"station_id":"ce4bhhp2rcd13ifvqfm0","pricing_plan_id":"cebpf4jnsgd1na2vs0mg"},{"bike_id":"e6049eb7-a913-4c30-b891-92576278de4c","system_id":"levelo_inurba_marseille","lat":43.24803,"lon":5.37451,"is_reserved":false,"is_disabled":false,"rental_uris":{"android":"levelo://app?vid=e6049eb7-a913-4c30-b891-92576278de4c","ios":"levelo://app?vid=e6049eb7-a913-4c30-b891-92576278de4c"},"vehicle_type_id":"4","last_reported":1728759986,"current_range_meters":32400,"station_id":"ce4bhgh2rcd13ifvqfb0","pricing_plan_id":"cebpf4jnsgd1na2vs0mg"},{"bike_id":"5b9033c7-8cad-414a-8d29-f05fdaafacd5","system_id":"levelo_inurba_marseille","lat":43.24664,"lon":5.38161,"is_reserved":false,"is_disabled":false,"rental_uris":{"android":"levelo://app?vid=5b9033c7-8cad-414a-8d29-f05fdaafacd5","ios":"levelo://app?vid=5b9033c7-8cad-414a-8d29-f05fdaafacd5"},"vehicle_type_id":"4","last_reported":1728759986,"current_range_meters":28400,"station_id":"ce4bhih2rcd13ifvqfr0","pricing_plan_id":"cebpf4jnsgd1na2vs0mg"},{"bike_id":"1f433530-9321-45ad-a48e-29130ac0edb4","system_id":"levelo_inurba_marseille","lat":43.27048,"lon":5.40266,"is_reserved":false,"is_disabled":false,"rental_uris":{"android":"levelo://app?vid=1f433530-9321-45ad-a48e-29130ac0edb4","ios":"levelo://app?vid=1f433530-9321-45ad-a48e-29130ac0edb4"},"vehicle_type_id":"4","last_reported":1728759986,"current_range_meters":33200,"station_id":"ce4bhk92rcd13ifvqgc0","pricing_plan_id":"cebpf4jnsgd1na2vs0mg"},{"bike_id":"be294730-4e75-4c7b-9555-a1c82de38e4b","system_id":"levelo_inurba_marseille","lat":43.29604,"lon":5.38109,"is_reserved":false,"is_disabled":false,"rental_uris":{"android":"levelo://app?vid=be294730-4e75-4c7b-9555-a1c82de38e4b","ios":"levelo://app?vid=be294730-4e75-4c7b-9555-a1c82de38e4b"},"vehicle_type_id":"4","last_reported":1728759986,"current_range_meters":22000,"station_id":"ce4bgl12rcd13ifvqbo0","pricing_plan_id":"cebpf4jnsgd1na2vs0mg"},{"bike_id":"19e0e40e-63be-4804-b3b8-2787230e9bca","system_id":"levelo_inurba_marseille","lat":43.29622,"lon":5.37164,"is_reserved":false,"is_disabled":false,"rental_uris":{"android":"levelo://app?vid=19e0e40e-63be-4804-b3b8-2787230e9bca","ios":"levelo://app?vid=19e0e40e-63be-4804-b3b8-2787230e9bca"},"vehicle_type_id":"4","last_reported":1728759986,"current_range_meters":39200,"station_id":"ce4bgnh2rcd13ifvqc0g","pricing_plan_id":"cebpf4jnsgd1na2vs0mg"},{"bike_id":"b9a64df2-122d-44d5-b6d8-c291946ea5f0","system_id":"levelo_inurba_marseille","lat":43.29231,"lon":5.36072,"is_reserved":false,"is_disabled":false,"rental_uris":{"android":"levelo://app?vid=b9a64df2-122d-44d5-b6d8-c291946ea5f0","ios":"levelo://app?vid=b9a64df2-122d-44d5-b6d8-c291946ea5f0"},"vehicle_type_id":"4","last_reported":1728759986,"current_range_meters":30000,"station_id":"ce4bhbh2rcd13ifvqeqg","pricing_plan_id":"cebpf4jnsgd1na2vs0mg"},{"bike_id":"3b2db9ff-b15e-434c-9484-230a465d9fe5","system_id":"levelo_inurba_marseille","lat":43.29843,"lon":5.36276,"is_reserved":false,"is_disabled":false,"rental_uris":{"android":"levelo://app?vid=3b2db9ff-b15e-434c-9484-230a465d9fe5","ios":"levelo://app?vid=3b2db9ff-b15e-434c-9484-230a465d9fe5"},"vehicle_type_id":"4","last_reported":1728759986,"current_range_meters":27200,"station_id":"ce4bgpp2rcd13ifvqc3g","pricing_plan_id":"cebpf4jnsgd1na2vs0mg"},{"bike_id":"a4217625-26b1-46c3-83cf-a9b3a5d673ce","system_id":"levelo_inurba_marseille","lat":43.31063,"lon":5.36875,"is_reserved":false,"is_disabled":false,"rental_uris":{"android":"levelo://app?vid=a4217625-26b1-46c3-83cf-a9b3a5d673ce","ios":"levelo://app?vid=a4217625-26b1-46c3-83cf-a9b3a5d673ce"},"vehicle_type_id":"4","last_reported":1728759986,"current_range_meters":34800,"station_id":"","pricing_plan_id":"cebpf4jnsgd1na2vs0mg"},{"bike_id":"d0bd3e91-81ba-405f-b7e3-a682fce6aab6","system_id":"levelo_inurba_marseille","lat":43.2319,"lon":5.39991,"is_reserved":false,"is_disabled":false,"rental_uris":{"android":"levelo://app?vid=d0bd3e91-81ba-405f-b7e3-a682fce6aab6","ios":"levelo://app?vid=d0bd3e91-81ba-405f-b7e3-a682fce6aab6"},"vehicle_type_id":"4","last_reported":1728759986,"current_range_meters":34000,"station_id":"ce4bhn12rcd13ifvqgqg","pricing_plan_id":"cebpf4jnsgd1na2vs0mg"},{"bike_id":"bc227ff5-da91-4dc9-a174-e0d058be27a7","system_id":"levelo_inurba_marseille","lat":43.29534,"lon":5.394,"is_reserved":false,"is_disabled":false,"rental_uris":{"android":"levelo://app?vid=bc227ff5-da91-4dc9-a174-e0d058be27a7","ios":"levelo://app?vid=bc227ff5-da91-4dc9-a174-e0d058be27a7"},"vehicle_type_id":"4","last_reported":1728759986,"current_range_meters":20800,"station_id":"ce4bh292rcd13ifvqdf0","pricing_plan_id":"cebpf4jnsgd1na2vs0mg"},{"bike_id":"e53d9dac-6d16-4334-ad56-d0d38fcf4eb7","system_id":"levelo_inurba_marseille","lat":43.27974,"lon":5.41827,"is_reserved":false,"is_disabled":false,"rental_uris":{"android":"levelo://app?vid=e53d9dac-6d16-4334-ad56-d0d38fcf4eb7","ios":"levelo://app?vid=e53d9dac-6d16-4334-ad56-d0d38fcf4eb7"},"vehicle_type_id":"4","last_reported":1728759986,"current_range_meters":26800,"station_id":"","pricing_plan_id":"cebpf4jnsgd1na2vs0mg"},{"bike_id":"36797601-66ca-4ea0-a328-6b0b4f9d95bc","system_id":"levelo_inurba_marseille","lat":43.29531,"lon":5.39039,"is_reserved":false,"is_disabled":false,"rental_uris":{"android":"levelo://app?vid=36797601-66ca-4ea0-a328-6b0b4f9d95bc","ios":"levelo://app?vid=36797601-66ca-4ea0-a328-6b0b4f9d95bc"},"vehicle_type_id":"4","last_reported":1728759986,"current_range_meters":38800,"station_id":"ce4bh3p2rcd13ifvqdp0","pricing_plan_id":"cebpf4jnsgd1na2vs0mg"},{"bike_id":"3fb0b7aa-5417-46e4-a111-4a706fec7cd6","system_id":"levelo_inurba_marseille","lat":43.26545,"lon":5.37286,"is_reserved":false,"is_disabled":false,"rental_uris":{"android":"levelo://app?vid=3fb0b7aa-5417-46e4-a111-4a706fec7cd6","ios":"levelo://app?vid=3fb0b7aa-5417-46e4-a111-4a706fec7cd6"},"vehicle_type_id":"4","last_reported":1728759986,"current_range_meters":36000,"station_id":"ce4bhg12rcd13ifvqf70","pricing_plan_id":"cebpf4jnsgd1na2vs0mg"},{"bike_id":"5ab70f1b-3f2c-4f8b-a0cc-cdba02fd83d4","system_id":"levelo_inurba_marseille","lat":43.3248,"lon":5.3656,"is_reserved":false,"is_disabled":false,"rental_uris":{"android":"levelo://app?vid=5ab70f1b-3f2c-4f8b-a0cc-cdba02fd83d4","ios":"levelo://app?vid=5ab70f1b-3f2c-4f8b-a0cc-cdba02fd83d4"},"vehicle_type_id":"4","last_reported":1728759986,"current_range_meters":36000,"station_id":"ce4bhs12rcd13ifvqhvg","pricing_plan_id":"cebpf4jnsgd1na2vs0mg"},{"bike_id":"fa99ad23-757e-4da1-a465-d0091ebbcae6","system_id":"levelo_inurba_marseille","lat":43.32475,"lon":5.36561,"is_reserved":false,"is_disabled":false,"rental_uris":{"android":"levelo://app?vid=fa99ad23-757e-4da1-a465-d0091ebbcae6","ios":"levelo://app?vid=fa99ad23-757e-4da1-a465-d0091ebbcae6"},"vehicle_type_id":"4","last_reported":1728759986,"current_range_meters":4400,"station_id":"ce4bhs12rcd13ifvqhvg","pricing_plan_id":"cebpf4jnsgd1na2vs0mg"},{"bike_id":"4ef6fcc8-e29f-4f7b-bfb6-492772c7e8d5","system_id":"levelo_inurba_marseille","lat":43.26201,"lon":5.37925,"is_reserved":false,"is_disabled":false,"rental_uris":{"android":"levelo://app?vid=4ef6fcc8-e29f-4f7b-bfb6-492772c7e8d5","ios":"levelo://app?vid=4ef6fcc8-e29f-4f7b-bfb6-492772c7e8d5"},"vehicle_type_id":"4","last_reported":1728759986,"current_range_meters":40000,"station_id":"ce4bhjp2rcd13ifvqg90","pricing_plan_id":"cebpf4jnsgd1na2vs0mg"},{"bike_id":"2c8e1432-02d3-44c6-a50c-97ad77b90c88","system_id":"levelo_inurba_marseille","lat":43.25865,"lon":5.39904,"is_reserved":false,"is_disabled":false,"rental_uris":{"android":"levelo://app?vid=2c8e1432-02d3-44c6-a50c-97ad77b90c88","ios":"levelo://app?vid=2c8e1432-02d3-44c6-a50c-97ad77b90c88"},"vehicle_type_id":"4","last_reported":1728759986,"current_range_meters":38000,"station_id":"ce4bhl92rcd13ifvqghg","pricing_plan_id":"cebpf4jnsgd1na2vs0mg"},{"bike_id":"c369a29b-6537-457f-baaf-374055fb1777","system_id":"levelo_inurba_marseille","lat":43.23151,"lon":5.43705,"is_reserved":false,"is_disabled":false,"rental_uris":{"android":"levelo://app?vid=c369a29b-6537-457f-baaf-374055fb1777","ios":"levelo://app?vid=c369a29b-6537-457f-baaf-374055fb1777"},"vehicle_type_id":"4","last_reported":1728759986,"current_range_meters":39200,"station_id":"ce4bhmp2rcd13ifvqgog","pricing_plan_id":"cebpf4jnsgd1na2vs0mg"},{"bike_id":"2c4c4fdd-4be3-40ba-ae9f-53b1d6165fc5","system_id":"levelo_inurba_marseille","lat":43.28844,"lon":5.35839,"is_reserved":false,"is_disabled":false,"rental_uris":{"android":"levelo://app?vid=2c4c4fdd-4be3-40ba-ae9f-53b1d6165fc5","ios":"levelo://app?vid=2c4c4fdd-4be3-40ba-ae9f-53b1d6165fc5"},"vehicle_type_id":"4","last_reported":1728759986,"current_range_meters":10000,"station_id":"ce4bhb12rcd13ifvqem0","pricing_plan_id":"cebpf4jnsgd1na2vs0mg"},{"bike_id":"81f35206-8ee0-4eeb-99e8-51b32f45a4a3","system_id":"levelo_inurba_marseille","lat":43.297836,"lon":5.371035,"is_reserved":false,"is_disabled":false,"rental_uris":{"android":"levelo://app?vid=81f35206-8ee0-4eeb-99e8-51b32f45a4a3","ios":"levelo://app?vid=81f35206-8ee0-4eeb-99e8-51b32f45a4a3"},"vehicle_type_id":"4","last_reported":1728759986,"current_range_meters":19200,"station_id":"ce4bh0p2rcd13ifvqd70","pricing_plan_id":"cebpf4jnsgd1na2vs0mg"},{"bike_id":"5215c02b-9ef4-43e3-a63b-5be648682d97","system_id":"levelo_inurba_marseille","lat":43.29273,"lon":5.3684,"is_reserved":false,"is_disabled":false,"rental_uris":{"android":"levelo://app?vid=5215c02b-9ef4-43e3-a63b-5be648682d97","ios":"levelo://app?vid=5215c02b-9ef4-43e3-a63b-5be648682d97"},"vehicle_type_id":"4","last_reported":1728759986,"current_range_meters":38800,"station_id":"ce4bhbp2rcd13ifvqesg","pricing_plan_id":"cebpf4jnsgd1na2vs0mg"},{"bike_id":"9420f725-150e-4e66-a917-07995beeb900","system_id":"levelo_inurba_marseille","lat":43.29726,"lon":5.37673,"is_reserved":false,"is_disabled":false,"rental_uris":{"android":"levelo://app?vid=9420f725-150e-4e66-a917-07995beeb900","ios":"levelo://app?vid=9420f725-150e-4e66-a917-07995beeb900"},"vehicle_type_id":"4","last_reported":1728759986,"current_range_meters":30400,"station_id":"ce4bgkh2rcd13ifvqbl0","pricing_plan_id":"cebpf4jnsgd1na2vs0mg"},{"bike_id":"9de4c5f9-f930-417d-af98-6aa3427f20ae","system_id":"levelo_inurba_marseille","lat":43.29838,"lon":5.36273,"is_reserved":false,"is_disabled":false,"rental_uris":{"android":"levelo://app?vid=9de4c5f9-f930-417d-af98-6aa3427f20ae","ios":"levelo://app?vid=9de4c5f9-f930-417d-af98-6aa3427f20ae"},"vehicle_type_id":"4","last_reported":1728759986,"current_range_meters":22400,"station_id":"ce4bgpp2rcd13ifvqc3g","pricing_plan_id":"cebpf4jnsgd1na2vs0mg"},{"bike_id":"9756ca90-d307-416a-8feb-0d90648d1279","system_id":"levelo_inurba_marseille","lat":43.25497,"lon":5.3765,"is_reserved":false,"is_disabled":false,"rental_uris":{"android":"levelo://app?vid=9756ca90-d307-416a-8feb-0d90648d1279","ios":"levelo://app?vid=9756ca90-d307-416a-8feb-0d90648d1279"},"vehicle_type_id":"4","last_reported":1728759986,"current_range_meters":11600,"station_id":"ce4bhh12rcd13ifvqff0","pricing_plan_id":"cebpf4jnsgd1na2vs0mg"},{"bike_id":"c1fcd2bd-0a5d-44ba-b701-8a29d2670a0f","system_id":"levelo_inurba_marseille","lat":43.289475,"lon":5.366359,"is_reserved":false,"is_disabled":false,"rental_uris":{"android":"levelo://app?vid=c1fcd2bd-0a5d-44ba-b701-8a29d2670a0f","ios":"levelo://app?vid=c1fcd2bd-0a5d-44ba-b701-8a29d2670a0f"},"vehicle_type_id":"4","last_reported":1728759986,"current_range_meters":29600,"station_id":"ce4bhap2rcd13ifvqek0","pricing_plan_id":"cebpf4jnsgd1na2vs0mg"},{"bike_id":"49316722-f5ca-469e-b328-cdeaebfb0c7f","system_id":"levelo_inurba_marseille","lat":43.2395,"lon":5.36634,"is_reserved":false,"is_disabled":false,"rental_uris":{"android":"levelo://app?vid=49316722-f5ca-469e-b328-cdeaebfb0c7f","ios":"levelo://app?vid=49316722-f5ca-469e-b328-cdeaebfb0c7f"},"vehicle_type_id":"4","last_reported":1728759986,"current_range_meters":9200,"station_id":"ce4bhi12rcd13ifvqfp0","pricing_plan_id":"cebpf4jnsgd1na2vs0mg"},{"bike_id":"8d228dc1-b970-4f1e-ace8-33882f667b40","system_id":"levelo_inurba_marseille","lat":43.309601,"lon":5.396413,"is_reserved":false,"is_disabled":false,"rental_uris":{"android":"levelo://app?vid=8d228dc1-b970-4f1e-ace8-33882f667b40","ios":"levelo://app?vid=8d228dc1-b970-4f1e-ace8-33882f667b40"},"vehicle_type_id":"4","last_reported":1728759986,"current_range_meters":8800,"station_id":"ce4bh012rcd13ifvqcv0","pricing_plan_id":"cebpf4jnsgd1na2vs0mg"},{"bike_id":"c1fe817a-0f4c-46d8-9349-103060f20382","system_id":"levelo_inurba_marseille","lat":43.24652,"lon":5.38893,"is_reserved":false,"is_disabled":false,"rental_uris":{"android":"levelo://app?vid=c1fe817a-0f4c-46d8-9349-103060f20382","ios":"levelo://app?vid=c1fe817a-0f4c-46d8-9349-103060f20382"},"vehicle_type_id":"4","last_reported":1728759986,"current_range_meters":18000,"station_id":"ce4bhhp2rcd13ifvqfm0","pricing_plan_id":"cebpf4jnsgd1na2vs0mg"},{"bike_id":"3fcfb9d7-abb2-4621-8b24-21f28ad0db79","system_id":"levelo_inurba_marseille","lat":43.26936,"lon":5.38916,"is_reserved":false,"is_disabled":false,"rental_uris":{"android":"levelo://app?vid=3fcfb9d7-abb2-4621-8b24-21f28ad0db79","ios":"levelo://app?vid=3fcfb9d7-abb2-4621-8b24-21f28ad0db79"},"vehicle_type_id":"4","last_reported":1728759986,"current_range_meters":38400,"station_id":"ce4bhhh2rcd13ifvqfl0","pricing_plan_id":"cebpf4jnsgd1na2vs0mg"},{"bike_id":"2bfba3ce-ae3a-450d-a0c2-e48bffecfa92","system_id":"levelo_inurba_marseille","lat":43.26026,"lon":5.37549,"is_reserved":false,"is_disabled":false,"rental_uris":{"android":"levelo://app?vid=2bfba3ce-ae3a-450d-a0c2-e48bffecfa92","ios":"levelo://app?vid=2bfba3ce-ae3a-450d-a0c2-e48bffecfa92"},"vehicle_type_id":"4","last_reported":1728759986,"current_range_meters":38000,"station_id":"ce4bhgh2rcd13ifvqfa0","pricing_plan_id":"cebpf4jnsgd1na2vs0mg"},{"bike_id":"c12cb0d6-db93-4418-b913-57eec8fad5ea","system_id":"levelo_inurba_marseille","lat":43.2794,"lon":5.41061,"is_reserved":false,"is_disabled":false,"rental_uris":{"android":"levelo://app?vid=c12cb0d6-db93-4418-b913-57eec8fad5ea","ios":"levelo://app?vid=c12cb0d6-db93-4418-b913-57eec8fad5ea"},"vehicle_type_id":"4","last_reported":1728759986,"current_range_meters":19600,"station_id":"ce4bhnp2rcd13ifvqh0g","pricing_plan_id":"cebpf4jnsgd1na2vs0mg"},{"bike_id":"aad69708-28ac-43e6-945e-619f5a7c6bfd","system_id":"levelo_inurba_marseille","lat":43.33781,"lon":5.37443,"is_reserved":false,"is_disabled":false,"rental_uris":{"android":"levelo://app?vid=aad69708-28ac-43e6-945e-619f5a7c6bfd","ios":"levelo://app?vid=aad69708-28ac-43e6-945e-619f5a7c6bfd"},"vehicle_type_id":"4","last_reported":1728759986,"current_range_meters":36800,"station_id":"","pricing_plan_id":"cebpf4jnsgd1na2vs0mg"},{"bike_id":"1866fced-bbd8-4a13-8ec6-5d24cb1921d1","system_id":"levelo_inurba_marseille","lat":43.29036,"lon":5.37559,"is_reserved":false,"is_disabled":false,"rental_uris":{"android":"levelo://app?vid=1866fced-bbd8-4a13-8ec6-5d24cb1921d1","ios":"levelo://app?vid=1866fced-bbd8-4a13-8ec6-5d24cb1921d1"},"vehicle_type_id":"4","last_reported":1728759986,"current_range_meters":6800,"station_id":"ce4bh692rcd13ifvqe90","pricing_plan_id":"cebpf4jnsgd1na2vs0mg"},{"bike_id":"f2a1051f-f5bf-4cc5-a063-ea254ed8b0be","system_id":"levelo_inurba_marseille","lat":43.29904,"lon":5.38142,"is_reserved":false,"is_disabled":false,"rental_uris":{"android":"levelo://app?vid=f2a1051f-f5bf-4cc5-a063-ea254ed8b0be","ios":"levelo://app?vid=f2a1051f-f5bf-4cc5-a063-ea254ed8b0be"},"vehicle_type_id":"4","last_reported":1728759986,"current_range_meters":36400,"station_id":"ce4bgj12rcd13ifvqbc0","pricing_plan_id":"cebpf4jnsgd1na2vs0mg"},{"bike_id":"f2515695-34ba-4d3c-836c-63e7485c3bf9","system_id":"levelo_inurba_marseille","lat":43.28484,"lon":5.38558,"is_reserved":false,"is_disabled":false,"rental_uris":{"android":"levelo://app?vid=f2515695-34ba-4d3c-836c-63e7485c3bf9","ios":"levelo://app?vid=f2515695-34ba-4d3c-836c-63e7485c3bf9"},"vehicle_type_id":"4","last_reported":1728759986,"current_range_meters":22800,"station_id":"ce4bh8p2rcd13ifvqeb0","pricing_plan_id":"cebpf4jnsgd1na2vs0mg"},{"bike_id":"172b623f-8756-4642-a58c-5be139f4a8a1","system_id":"levelo_inurba_marseille","lat":43.31168,"lon":5.38715,"is_reserved":false,"is_disabled":false,"rental_uris":{"android":"levelo://app?vid=172b623f-8756-4642-a58c-5be139f4a8a1","ios":"levelo://app?vid=172b623f-8756-4642-a58c-5be139f4a8a1"},"vehicle_type_id":"4","last_reported":1728759986,"current_range_meters":16400,"station_id":"ce4bgv12rcd13ifvqcp0","pricing_plan_id":"cebpf4jnsgd1na2vs0mg"},{"bike_id":"71cf7286-1207-48ea-9905-84e8b1d59926","system_id":"levelo_inurba_marseille","lat":43.23153,"lon":5.43695,"is_reserved":false,"is_disabled":false,"rental_uris":{"android":"levelo://app?vid=71cf7286-1207-48ea-9905-84e8b1d59926","ios":"levelo://app?vid=71cf7286-1207-48ea-9905-84e8b1d59926"},"vehicle_type_id":"4","last_reported":1728759986,"current_range_meters":36800,"station_id":"ce4bhmp2rcd13ifvqgog","pricing_plan_id":"cebpf4jnsgd1na2vs0mg"},{"bike_id":"1692b592-5122-4076-8bed-311c36f51fa1","system_id":"levelo_inurba_marseille","lat":43.272061,"lon":5.391805,"is_reserved":false,"is_disabled":false,"rental_uris":{"android":"levelo://app?vid=1692b592-5122-4076-8bed-311c36f51fa1","ios":"levelo://app?vid=1692b592-5122-4076-8bed-311c36f51fa1"},"vehicle_type_id":"4","last_reported":1728759986,"current_range_meters":10800,"station_id":"ce4bhhp2rcd13ifvqfm0","pricing_plan_id":"cebpf4jnsgd1na2vs0mg"},{"bike_id":"a0ede277-832f-4a31-a75a-701b6fa2dc30","system_id":"levelo_inurba_marseille","lat":43.29727,"lon":5.37686,"is_reserved":false,"is_disabled":false,"rental_uris":{"android":"levelo://app?vid=a0ede277-832f-4a31-a75a-701b6fa2dc30","ios":"levelo://app?vid=a0ede277-832f-4a31-a75a-701b6fa2dc30"},"vehicle_type_id":"4","last_reported":1728759986,"current_range_meters":38000,"station_id":"ce4bgkh2rcd13ifvqbl0","pricing_plan_id":"cebpf4jnsgd1na2vs0mg"},{"bike_id":"dbc68946-c891-4683-a222-612ae931f5b8","system_id":"levelo_inurba_marseille","lat":43.2784,"lon":5.39207,"is_reserved":false,"is_disabled":false,"rental_uris":{"android":"levelo://app?vid=dbc68946-c891-4683-a222-612ae931f5b8","ios":"levelo://app?vid=dbc68946-c891-4683-a222-612ae931f5b8"},"vehicle_type_id":"4","last_reported":1728759986,"current_range_meters":35600,"station_id":"ce4bhjp2rcd13ifvqga0","pricing_plan_id":"cebpf4jnsgd1na2vs0mg"},{"bike_id":"8509fa5d-c6d9-4cb2-b4b1-4f2065b2666e","system_id":"levelo_inurba_marseille","lat":43.28337,"lon":5.41058,"is_reserved":false,"is_disabled":false,"rental_uris":{"android":"levelo://app?vid=8509fa5d-c6d9-4cb2-b4b1-4f2065b2666e","ios":"levelo://app?vid=8509fa5d-c6d9-4cb2-b4b1-4f2065b2666e"},"vehicle_type_id":"4","last_reported":1728759986,"current_range_meters":4400,"station_id":"","pricing_plan_id":"cebpf4jnsgd1na2vs0mg"},{"bike_id":"d1822047-b0bb-483d-a419-c2f300fb3ac6","system_id":"levelo_inurba_marseille","lat":43.24065,"lon":5.37764,"is_reserved":false,"is_disabled":false,"rental_uris":{"android":"levelo://app?vid=d1822047-b0bb-483d-a419-c2f300fb3ac6","ios":"levelo://app?vid=d1822047-b0bb-483d-a419-c2f300fb3ac6"},"vehicle_type_id":"4","last_reported":1728759986,"current_range_meters":24000,"station_id":"ce4bhnp2rcd13ifvqgvg","pricing_plan_id":"cebpf4jnsgd1na2vs0mg"},{"bike_id":"c0e29e78-e844-43dc-82cf-cd7be6a3fb82","system_id":"levelo_inurba_marseille","lat":43.29868,"lon":5.38909,"is_reserved":false,"is_disabled":false,"rental_uris":{"android":"levelo://app?vid=c0e29e78-e844-43dc-82cf-cd7be6a3fb82","ios":"levelo://app?vid=c0e29e78-e844-43dc-82cf-cd7be6a3fb82"},"vehicle_type_id":"4","last_reported":1728759986,"current_range_meters":9600,"station_id":"ce4bh392rcd13ifvqdl0","pricing_plan_id":"cebpf4jnsgd1na2vs0mg"},{"bike_id":"27311a75-ebb6-43d6-9fb5-f3ba72a10e0e","system_id":"levelo_inurba_marseille","lat":43.29901,"lon":5.43661,"is_reserved":false,"is_disabled":false,"rental_uris":{"android":"levelo://app?vid=27311a75-ebb6-43d6-9fb5-f3ba72a10e0e","ios":"levelo://app?vid=27311a75-ebb6-43d6-9fb5-f3ba72a10e0e"},"vehicle_type_id":"4","last_reported":1728759986,"current_range_meters":22000,"station_id":"ce4bhpp2rcd13ifvqhfg","pricing_plan_id":"cebpf4jnsgd1na2vs0mg"},{"bike_id":"213b792f-a310-4ca4-a65e-7861bab39fa8","system_id":"levelo_inurba_marseille","lat":43.29877,"lon":5.39741,"is_reserved":false,"is_disabled":false,"rental_uris":{"android":"levelo://app?vid=213b792f-a310-4ca4-a65e-7861bab39fa8","ios":"levelo://app?vid=213b792f-a310-4ca4-a65e-7861bab39fa8"},"vehicle_type_id":"4","last_reported":1728759986,"current_range_meters":37600,"station_id":"ce4bh0h2rcd13ifvqd50","pricing_plan_id":"cebpf4jnsgd1na2vs0mg"},{"bike_id":"5fc38fb2-3ab4-4ab6-8642-0e688dc9acaf","system_id":"levelo_inurba_marseille","lat":43.29418,"lon":5.38623,"is_reserved":false,"is_disabled":false,"rental_uris":{"android":"levelo://app?vid=5fc38fb2-3ab4-4ab6-8642-0e688dc9acaf","ios":"levelo://app?vid=5fc38fb2-3ab4-4ab6-8642-0e688dc9acaf"},"vehicle_type_id":"4","last_reported":1728759986,"current_range_meters":22400,"station_id":"ce4bh2h2rcd13ifvqdh0","pricing_plan_id":"cebpf4jnsgd1na2vs0mg"},{"bike_id":"c330a42e-f71e-4f8c-b715-bb7bf817ca3a","system_id":"levelo_inurba_marseille","lat":43.28459,"lon":5.35892,"is_reserved":false,"is_disabled":false,"rental_uris":{"android":"levelo://app?vid=c330a42e-f71e-4f8c-b715-bb7bf817ca3a","ios":"levelo://app?vid=c330a42e-f71e-4f8c-b715-bb7bf817ca3a"},"vehicle_type_id":"4","last_reported":1728759986,"current_range_meters":36400,"station_id":"ce4bhah2rcd13ifvqei0","pricing_plan_id":"cebpf4jnsgd1na2vs0mg"},{"bike_id":"5ce9b128-8e40-4353-aa78-1ce7983698b7","system_id":"levelo_inurba_marseille","lat":43.26932,"lon":5.38913,"is_reserved":false,"is_disabled":false,"rental_uris":{"android":"levelo://app?vid=5ce9b128-8e40-4353-aa78-1ce7983698b7","ios":"levelo://app?vid=5ce9b128-8e40-4353-aa78-1ce7983698b7"},"vehicle_type_id":"4","last_reported":1728759986,"current_range_meters":15200,"station_id":"ce4bhhh2rcd13ifvqfl0","pricing_plan_id":"cebpf4jnsgd1na2vs0mg"},{"bike_id":"9518d42f-78c7-4378-9922-9ad61ab1675f","system_id":"levelo_inurba_marseille","lat":43.28469,"lon":5.38419,"is_reserved":false,"is_disabled":false,"rental_uris":{"android":"levelo://app?vid=9518d42f-78c7-4378-9922-9ad61ab1675f","ios":"levelo://app?vid=9518d42f-78c7-4378-9922-9ad61ab1675f"},"vehicle_type_id":"4","last_reported":1728759986,"current_range_meters":0,"station_id":"ce4bh512rcd13ifvqe3g","pricing_plan_id":"cebpf4jnsgd1na2vs0mg"},{"bike_id":"2116e2b1-7aa0-4c8c-8f70-c68b30b80a9c","system_id":"levelo_inurba_marseille","lat":43.30799,"lon":5.38147,"is_reserved":false,"is_disabled":false,"rental_uris":{"android":"levelo://app?vid=2116e2b1-7aa0-4c8c-8f70-c68b30b80a9c","ios":"levelo://app?vid=2116e2b1-7aa0-4c8c-8f70-c68b30b80a9c"},"vehicle_type_id":"4","last_reported":1728759986,"current_range_meters":24000,"station_id":"ce4bgt12rcd13ifvqcd0","pricing_plan_id":"cebpf4jnsgd1na2vs0mg"},{"bike_id":"4008c41f-a44f-459e-9583-22fe92e1dcf8","system_id":"levelo_inurba_marseille","lat":43.28696,"lon":5.3999,"is_reserved":false,"is_disabled":false,"rental_uris":{"android":"levelo://app?vid=4008c41f-a44f-459e-9583-22fe92e1dcf8","ios":"levelo://app?vid=4008c41f-a44f-459e-9583-22fe92e1dcf8"},"vehicle_type_id":"4","last_reported":1728759986,"current_range_meters":27200,"station_id":"ce4bho92rcd13ifvqh3g","pricing_plan_id":"cebpf4jnsgd1na2vs0mg"},{"bike_id":"7a86ccf0-8763-43b0-b3ca-0d5a2df7225d","system_id":"levelo_inurba_marseille","lat":43.28407,"lon":5.37506,"is_reserved":false,"is_disabled":false,"rental_uris":{"android":"levelo://app?vid=7a86ccf0-8763-43b0-b3ca-0d5a2df7225d","ios":"levelo://app?vid=7a86ccf0-8763-43b0-b3ca-0d5a2df7225d"},"vehicle_type_id":"4","last_reported":1728759986,"current_range_meters":25600,"station_id":"ce4bh412rcd13ifvqds0","pricing_plan_id":"cebpf4jnsgd1na2vs0mg"},{"bike_id":"d5c3a35d-709f-4c43-b5e7-7ce16ada8cc1","system_id":"levelo_inurba_marseille","lat":43.29837,"lon":5.36278,"is_reserved":false,"is_disabled":false,"rental_uris":{"android":"levelo://app?vid=d5c3a35d-709f-4c43-b5e7-7ce16ada8cc1","ios":"levelo://app?vid=d5c3a35d-709f-4c43-b5e7-7ce16ada8cc1"},"vehicle_type_id":"4","last_reported":1728759986,"current_range_meters":8400,"station_id":"ce4bgpp2rcd13ifvqc3g","pricing_plan_id":"cebpf4jnsgd1na2vs0mg"},