{"last_updated":1737230890,"ttl":60,"version":"2.2","data":{"bikes":[{"bike_id":"fe9584c6-d7c2-4da9-a68c-49720b62392c","system_id":"levelo_inurba_marseille","lat":43.28569,"lon":5.39494,"is_reserved":false,"is_disabled":true,"rental_uris":{"android":"levelo://app?vid=fe9584c6-d7c2-4da9-a68c-49720b62392c","ios":"levelo://app?vid=fe9584c6-d7c2-4da9-a68c-49720b62392c"},"vehicle_type_id":"4","last_reported":1737230890,"current_range_meters":400,"station_id":"ce4bh292rcd13ifvqdg0","pricing_plan_id":"cebpf4jnsgd1na2vs0mg"},{"bike_id":"957976ee-9dd6-4a75-adf2-4859853ae3c1","system_id":"levelo_inurba_marseille","lat":43.28104,"lon":5.37834,"is_reserved":false,"is_disabled":false,"rental_uris":{"android":"levelo://app?vid=957976ee-9dd6-4a75-adf2-4859853ae3c1","ios":"levelo://app?vid=957976ee-9dd6-4a75-adf2-4859853ae3c1"},"vehicle_type_id":"4","last_reported":1737230890,"current_range_meters":16000,"station_id":"ce4bha12rcd13ifvqee0","pricing_plan_id":"cebpf4jnsgd1na2vs0mg"},{"bike_id":"a2acfcf5-a2f4-4227-800b-90a2385f3572","system_id":"levelo_inurba_marseille","lat":43.29066,"lon":5.37171,"is_reserved":false,"is_disabled":false,"rental_uris":{"android":"levelo://app?vid=a2acfcf5-a2f4-4227-800b-90a2385f3572","ios":"levelo://app?vid=a2acfcf5-a2f4-4227-800b-90a2385f3572"},"vehicle_type_id":"4","last_reported":1737230890,"current_range_meters":38800,"station_id":"ce4bh5p2rcd13ifvqe4g","pricing_plan_id":"cebpf4jnsgd1na2vs0mg"},{"bike_id":"6546dee9-d38f-4171-a07d-c255cc5fb27e","system_id":"levelo_inurba_marseille","lat":43.25117,"lon":5.40325,"is_reserved":false,"is_disabled":false,"rental_uris":{"android":"levelo://app?vid=6546dee9-d38f-4171-a07d-c255cc5fb27e","ios":"levelo://app?vid=6546dee9-d38f-4171-a07d-c255cc5fb27e"},"vehicle_type_id":"4","last_reported":1737230890,"current_range_meters":28000,"station_id":"ce4bhlh2rcd13ifvqgig","pricing_plan_id":"cebpf4jnsgd1na2vs0mg"},{"bike_id":"48dc0dc0-0476-4a51-ab5e-63119005b192","system_id":"levelo_inurba_marseille","lat":43.29527,"lon":5.39032,"is_reserved":false,"is_disabled":false,"rental_uris":{"android":"levelo://app?vid=48dc0dc0-0476-4a51-ab5e-63119005b192","ios":"levelo://app?vid=48dc0dc0-0476-4a51-ab5e-63119005b192"},"vehicle_type_id":"4","last_reported":1737230890,"current_range_meters":25600,"station_id":"ce4bh3p2rcd13ifvqdp0","pricing_plan_id":"cebpf4jnsgd1na2vs0mg"},{"bike_id":"a5cfd84d-4cae-4412-b199-dcb982d64799","system_id":"levelo_inurba_marseille","lat":43.28433,"lon":5.39193,"is_reserved":false,"is_disabled":true,"rental_uris":{"android":"levelo://app?vid=a5cfd84d-4cae-4412-b199-dcb982d64799","ios":"levelo://app?vid=a5cfd84d-4cae-4412-b199-dcb982d64799"},"vehicle_type_id":"4","last_reported":1737230890,"current_range_meters":1200,"station_id":"ce4bhoh2rcd13ifvqh5g","pricing_plan_id":"cebpf4jnsgd1na2vs0mg"},{"bike_id":"c34bea88-512a-42e0-83ba-edd042e058ec","system_id":"levelo_inurba_marseille","lat":43.29079,"lon":5.38135,"is_reserved":false,"is_disabled":false,"rental_uris":{"android":"levelo://app?vid=c34bea88-512a-42e0-83ba-edd042e058ec","ios":"levelo://app?vid=c34bea88-512a-42e0-83ba-edd042e058ec"},"vehicle_type_id":"4","last_reported":1737230890,"current_range_meters":20000,"station_id":"ce4bh512rcd13ifvqe2g","pricing_plan_id":"cebpf4jnsgd1na2vs0mg"},{"bike_id":"047285ab-b4ee-4474-8e6e-f98e1ab33731","system_id":"levelo_inurba_marseille","lat":43.29973,"lon":5.38493,"is_reserved":false,"is_disabled":false,"rental_uris":{"android":"levelo://app?vid=047285ab-b4ee-4474-8e6e-f98e1ab33731","ios":"levelo://app?vid=047285ab-b4ee-4474-8e6e-f98e1ab33731"},"vehicle_type_id":"4","last_reported":1737230890,"current_range_meters":23200,"station_id":"ce4bgj92rcd13ifvqbd0","pricing_plan_id":"cebpf4jnsgd1na2vs0mg"},{"bike_id":"02ce3e8e-6ef8-48e8-8e39-50ed964e3fb8","system_id":"levelo_inurba_marseille","lat":43.29389,"lon":5.39423,"is_reserved":false,"is_disabled":true,"rental_uris":{"android":"levelo://app?vid=02ce3e8e-6ef8-48e8-8e39-50ed964e3fb8","ios":"levelo://app?vid=02ce3e8e-6ef8-48e8-8e39-50ed964e3fb8"},"vehicle_type_id":"4","last_reported":1737230890,"current_range_meters":0,"station_id":"","pricing_plan_id":"cebpf4jnsgd1na2vs0mg"},{"bike_id":"12c9b135-5b10-4666-b14c-9b21c31e1a34","system_id":"levelo_inurba_marseille","lat":43.26025,"lon":5.37559,"is_reserved":false,"is_disabled":false,"rental_uris":{"android":"levelo://app?vid=12c9b135-5b10-4666-b14c-9b21c31e1a34","ios":"levelo://app?vid=12c9b135-5b10-4666-b14c-9b21c31e1a34"},"vehicle_type_id":"4","last_reported":1737230890,"current_range_meters":37600,"station_id":"ce4bhgh2rcd13ifvqfa0","pricing_plan_id":"cebpf4jnsgd1na2vs0mg"},{"bike_id":"4fb6a51d-9d4a-4bf2-b0b9-93d4d4401950","system_id":"levelo_inurba_marseille","lat":43.32428,"lon":5.36576,"is_reserved":false,"is_disabled":false,"rental_uris":{"android":"levelo://app?vid=4fb6a51d-9d4a-4bf2-b0b9-93d4d4401950","ios":"levelo://app?vid=4fb6a51d-9d4a-4bf2-b0b9-93d4d4401950"},"vehicle_type_id":"4","last_reported":1737230890,"current_range_meters":31200,"station_id":"ce4bhs12rcd13ifvqhvg","pricing_plan_id":"cebpf4jnsgd1na2vs0mg"},{"bike_id":"4feeb2b6-52ca-46f8-a77e-f82de492ef5c","system_id":"levelo_inurba_marseille","lat":43.28705,"lon":5.3999,"is_reserved":false,"is_disabled":false,"rental_uris":{"android":"levelo://app?vid=4feeb2b6-52ca-46f8-a77e-f82de492ef5c","ios":"levelo://app?vid=4feeb2b6-52ca-46f8-a77e-f82de492ef5c"},"vehicle_type_id":"4","last_reported":1737230890,"current_range_meters":31200,"station_id":"ce4bho92rcd13ifvqh3g","pricing_plan_id":"cebpf4jnsgd1na2vs0mg"},{"bike_id":"7ee1237b-29eb-4929-908c-8cd94366fa7d","system_id":"levelo_inurba_marseille","lat":43.312262,"lon":5.3686,"is_reserved":false,"is_disabled":false,"rental_uris":{"android":"levelo://app?vid=7ee1237b-29eb-4929-908c-8cd94366fa7d","ios":"levelo://app?vid=7ee1237b-29eb-4929-908c-8cd94366fa7d"},"vehicle_type_id":"4","last_reported":1737230890,"current_range_meters":12400,"station_id":"ce4bgl92rcd13ifvqbq0","pricing_plan_id":"cebpf4jnsgd1na2vs0mg"},{"bike_id":"baf86e28-030c-4ae5-a5ef-27be44eaec19","system_id":"levelo_inurba_marseille","lat":43.250358,"lon":5.397046,"is_reserved":false,"is_disabled":false,"rental_uris":{"android":"levelo://app?vid=baf86e28-030c-4ae5-a5ef-27be44eaec19","ios":"levelo://app?vid=baf86e28-030c-4ae5-a5ef-27be44eaec19"},"vehicle_type_id":"4","last_reported":1737230890,"current_range_meters":14000,"station_id":"ce4bhm12rcd13ifvqgkg","pricing_plan_id":"cebpf4jnsgd1na2vs0mg"},{"bike_id":"3f676a9d-58c5-4227-b61d-5711c4225194","system_id":"levelo_inurba_marseille","lat":43.29296,"lon":5.3746,"is_reserved":false,"is_disabled":false,"rental_uris":{"android":"levelo://app?vid=3f676a9d-58c5-4227-b61d-5711c4225194","ios":"levelo://app?vid=3f676a9d-58c5-4227-b61d-5711c4225194"},"vehicle_type_id":"4","last_reported":1737230890,"current_range_meters":18000,"station_id":"ce4bgi12rcd13ifvqb70","pricing_plan_id":"cebpf4jnsgd1na2vs0mg"},{"bike_id":"6405abd0-9f93-43f6-b935-33e57255cfd0","system_id":"levelo_inurba_marseille","lat":43.30354,"lon":5.41882,"is_reserved":false,"is_disabled":false,"rental_uris":{"android":"levelo://app?vid=6405abd0-9f93-43f6-b935-33e57255cfd0","ios":"levelo://app?vid=6405abd0-9f93-43f6-b935-33e57255cfd0"},"vehicle_type_id":"4","last_reported":1737230890,"current_range_meters":38800,"station_id":"ce4bhop2rcd13ifvqh7g","pricing_plan_id":"cebpf4jnsgd1na2vs0mg"},{"bike_id":"778573e3-5668-46b5-8620-b750726d9fa6","system_id":"levelo_inurba_marseille","lat":43.30619,"lon":5.37215,"is_reserved":false,"is_disabled":false,"rental_uris":{"android":"levelo://app?vid=778573e3-5668-46b5-8620-b750726d9fa6","ios":"levelo://app?vid=778573e3-5668-46b5-8620-b750726d9fa6"},"vehicle_type_id":"4","last_reported":1737230890,"current_range_meters":24800,"station_id":"","pricing_plan_id":"cebpf4jnsgd1na2vs0mg"},{"bike_id":"e8c020ad-3814-497a-bdf1-eabaf49410a7","system_id":"levelo_inurba_marseille","lat":43.28271,"lon":5.35064,"is_reserved":false,"is_disabled":false,"rental_uris":{"android":"levelo://app?vid=e8c020ad-3814-497a-bdf1-eabaf49410a7","ios":"levelo://app?vid=e8c020ad-3814-497a-bdf1-eabaf49410a7"},"vehicle_type_id":"4","last_reported":1737230890,"current_range_meters":18800,"station_id":"ce4bhbp2rcd13ifvqerg","pricing_plan_id":"cebpf4jnsgd1na2vs0mg"},{"bike_id":"763ed4fc-16fd-47a0-aedf-62c028daa66f","system_id":"levelo_inurba_marseille","lat":43.36384,"lon":5.35573,"is_reserved":false,"is_disabled":false,"rental_uris":{"android":"levelo://app?vid=763ed4fc-16fd-47a0-aedf-62c028daa66f","ios":"levelo://app?vid=763ed4fc-16fd-47a0-aedf-62c028daa66f"},"vehicle_type_id":"4","last_reported":1737230890,"current_range_meters":17200,"station_id":"","pricing_plan_id":"cebpf4jnsgd1na2vs0mg"},{"bike_id":"23af0b39-e151-454d-95df-fe8caca6e2f7","system_id":"levelo_inurba_marseille","lat":43.30912,"lon":5.36806,"is_reserved":false,"is_disabled":false,"rental_uris":{"android":"levelo://app?vid=23af0b39-e151-454d-95df-fe8caca6e2f7","ios":"levelo://app?vid=23af0b39-e151-454d-95df-fe8caca6e2f7"},"vehicle_type_id":"4","last_reported":1737230890,"current_range_meters":39200,"station_id":"ce4bgn92rcd13ifvqbvg","pricing_plan_id":"cebpf4jnsgd1na2vs0mg"},{"bike_id":"1022f24d-239e-49a1-a4b8-988e34719576","system_id":"levelo_inurba_marseille","lat":43.24535,"lon":5.39534,"is_reserved":false,"is_disabled":false,"rental_uris":{"android":"levelo://app?vid=1022f24d-239e-49a1-a4b8-988e34719576","ios":"levelo://app?vid=1022f24d-239e-49a1-a4b8-988e34719576"},"vehicle_type_id":"4","last_reported":1737230890,"current_range_meters":16800,"station_id":"ce4bhlp2rcd13ifvqgjg","pricing_plan_id":"cebpf4jnsgd1na2vs0mg"},{"bike_id":"115ac15a-d3a3-4b40-a595-350d10d48153","system_id":"levelo_inurba_marseille","lat":43.29251,"lon":5.38438,"is_reserved":false,"is_disabled":false,"rental_uris":{"android":"levelo://app?vid=115ac15a-d3a3-4b40-a595-350d10d48153","ios":"levelo://app?vid=115ac15a-d3a3-4b40-a595-350d10d48153"},"vehicle_type_id":"4","last_reported":1737230890,"current_range_meters":30800,"station_id":"ce4bh692rcd13ifvqea0","pricing_plan_id":"cebpf4jnsgd1na2vs0mg"},{"bike_id":"415d90fa-e6d8-4b54-8c36-5e9472ab1fc5","system_id":"levelo_inurba_marseille","lat":43.29245,"lon":5.38449,"is_reserved":false,"is_disabled":false,"rental_uris":{"android":"levelo://app?vid=415d90fa-e6d8-4b54-8c36-5e9472ab1fc5","ios":"levelo://app?vid=415d90fa-e6d8-4b54-8c36-5e9472ab1fc5"},"vehicle_type_id":"4","last_reported":1737230890,"current_range_meters":38800,"station_id":"ce4bh692rcd13ifvqea0","pricing_plan_id":"cebpf4jnsgd1na2vs0mg"},{"bike_id":"dda29f39-a772-4e46-aa47-e50db58d3d41","system_id":"levelo_inurba_marseille","lat":43.26497,"lon":5.3954,"is_reserved":false,"is_disabled":false,"rental_uris":{"android":"levelo://app?vid=dda29f39-a772-4e46-aa47-e50db58d3d41","ios":"levelo://app?vid=dda29f39-a772-4e46-aa47-e50db58d3d41"},"vehicle_type_id":"4","last_reported":1737230890,"current_range_meters":9200,"station_id":"ce4bhi12rcd13ifvqfq0","pricing_plan_id":"cebpf4jnsgd1na2vs0mg"},{"bike_id":"f3c94274-f861-4c89-8bb1-1ebe1a531935","system_id":"levelo_inurba_marseille","lat":43.25001,"lon":5.38914,"is_reserved":false,"is_disabled":false,"rental_uris":{"android":"levelo://app?vid=f3c94274-f861-4c89-8bb1-1ebe1a531935","ios":"levelo://app?vid=f3c94274-f861-4c89-8bb1-1ebe1a531935"},"vehicle_type_id":"4","last_reported":1737230890,"current_range_meters":38800,"station_id":"ce4bhgp2rcd13ifvqfd0","pricing_plan_id":"cebpf4jnsgd1na2vs0mg"},{"bike_id":"aa30605d-bb8e-4ebe-a53f-4f99f4984625","system_id":"levelo_inurba_marseille","lat":43.29539,"lon":5.37496,"is_reserved":false,"is_disabled":false,"rental_uris":{"android":"levelo://app?vid=aa30605d-bb8e-4ebe-a53f-4f99f4984625","ios":"levelo://app?vid=aa30605d-bb8e-4ebe-a53f-4f99f4984625"},"vehicle_type_id":"4","last_reported":1737230890,"current_range_meters":10800,"station_id":"ce4bgkp2rcd13ifvqbmg","pricing_plan_id":"cebpf4jnsgd1na2vs0mg"},{"bike_id":"ea820ade-d81d-428e-82b9-7f165f7e8e75","system_id":"levelo_inurba_marseille","lat":43.32362,"lon":5.36759,"is_reserved":false,"is_disabled":false,"rental_uris":{"android":"levelo://app?vid=ea820ade-d81d-428e-82b9-7f165f7e8e75","ios":"levelo://app?vid=ea820ade-d81d-428e-82b9-7f165f7e8e75"},"vehicle_type_id":"4","last_reported":1737230890,"current_range_meters":20400,"station_id":"ce4bhsh2rcd13ifvqi2g","pricing_plan_id":"cebpf4jnsgd1na2vs0mg"},{"bike_id":"c29020e0-83ef-4b06-ac4f-c4422257f84a","system_id":"levelo_inurba_marseille","lat":43.36389,"lon":5.35643,"is_reserved":false,"is_disabled":false,"rental_uris":{"android":"levelo://app?vid=c29020e0-83ef-4b06-ac4f-c4422257f84a","ios":"levelo://app?vid=c29020e0-83ef-4b06-ac4f-c4422257f84a"},"vehicle_type_id":"4","last_reported":1737230890,"current_range_meters":22800,"station_id":"","pricing_plan_id":"cebpf4jnsgd1na2vs0mg"},{"bike_id":"5df9bdf2-6c98-4243-ab6c-10dc8147c182","system_id":"levelo_inurba_marseille","lat":43.3053,"lon":5.36709,"is_reserved":false,"is_disabled":false,"rental_uris":{"android":"levelo://app?vid=5df9bdf2-6c98-4243-ab6c-10dc8147c182","ios":"levelo://app?vid=5df9bdf2-6c98-4243-ab6c-10dc8147c182"},"vehicle_type_id":"4","last_reported":1737230890,"current_range_meters":24400,"station_id":"ce4bgrp2rcd13ifvqc9g","pricing_plan_id":"cebpf4jnsgd1na2vs0mg"},{"bike_id":"5785e1fa-eae8-411c-9410-6f9b8c3a6d28","system_id":"levelo_inurba_marseille","lat":43.23186,"lon":5.35555,"is_reserved":false,"is_disabled":false,"rental_uris":{"android":"levelo://app?vid=5785e1fa-eae8-411c-9410-6f9b8c3a6d28","ios":"levelo://app?vid=5785e1fa-eae8-411c-9410-6f9b8c3a6d28"},"vehicle_type_id":"4","last_reported":1737230890,"current_range_meters":22000,"station_id":"ce4bhu92rcd13ifvqi70","pricing_plan_id":"cebpf4jnsgd1na2vs0mg"},{"bike_id":"62ad65e1-b0fd-407e-8cf8-796c28e8952d","system_id":"levelo_inurba_marseille","lat":43.29774,"lon":5.37102,"is_reserved":false,"is_disabled":false,"rental_uris":{"android":"levelo://app?vid=62ad65e1-b0fd-407e-8cf8-796c28e8952d","ios":"levelo://app?vid=62ad65e1-b0fd-407e-8cf8-796c28e8952d"},"vehicle_type_id":"4","last_reported":1737230890,"current_range_meters":26000,"station_id":"ce4bgop2rcd13ifvqc1g","pricing_plan_id":"cebpf4jnsgd1na2vs0mg"},{"bike_id":"4d4ec566-516b-4793-a5be-68a8e0188dc4","system_id":"levelo_inurba_marseille","lat":43.33014,"lon":5.39046,"is_reserved":false,"is_disabled":false,"rental_uris":{"android":"levelo://app?vid=4d4ec566-516b-4793-a5be-68a8e0188dc4","ios":"levelo://app?vid=4d4ec566-516b-4793-a5be-68a8e0188dc4"},"vehicle_type_id":"4","last_reported":1737230890,"current_range_meters":39200,"station_id":"ce4bhr92rcd13ifvqhrg","pricing_plan_id":"cebpf4jnsgd1na2vs0mg"},{"bike_id":"b672b566-ae6e-4181-a2cb-0155be334a04","system_id":"levelo_inurba_marseille","lat":43.28856,"lon":5.36591,"is_reserved":false,"is_disabled":true,"rental_uris":{"android":"levelo://app?vid=b672b566-ae6e-4181-a2cb-0155be334a04","ios":"levelo://app?vid=b672b566-ae6e-4181-a2cb-0155be334a04"},"vehicle_type_id":"4","last_reported":1737230890,"current_range_meters":36400,"station_id":"","pricing_plan_id":"cebpf4jnsgd1na2vs0mg"},{"bike_id":"b76718c7-cd1b-4fa4-b075-c637c477644b","system_id":"levelo_inurba_marseille","lat":43.29621,"lon":5.38083,"is_reserved":false,"is_disabled":false,"rental_uris":{"android":"levelo://app?vid=b76718c7-cd1b-4fa4-b075-c637c477644b","ios":"levelo://app?vid=b76718c7-cd1b-4fa4-b075-c637c477644b"},"vehicle_type_id":"4","last_reported":1737230890,"current_range_meters":25600,"station_id":"ce4bgl12rcd13ifvqbo0","pricing_plan_id":"cebpf4jnsgd1na2vs0mg"},{"bike_id":"231f841f-a1ec-4be6-b98d-50e1fa0785de","system_id":"levelo_inurba_marseille","lat":43.29254,"lon":5.38447,"is_reserved":false,"is_disabled":false,"rental_uris":{"android":"levelo://app?vid=231f841f-a1ec-4be6-b98d-50e1fa0785de","ios":"levelo://app?vid=231f841f-a1ec-4be6-b98d-50e1fa0785de"},"vehicle_type_id":"4","last_reported":1737230890,"current_range_meters":38800,"station_id":"ce4bh692rcd13ifvqea0","pricing_plan_id":"cebpf4jnsgd1na2vs0mg"},{"bike_id":"04e7f6b2-1170-476d-8eb7-54bc6ab7d23c","system_id":"levelo_inurba_marseille","lat":43.2438,"lon":5.37062,"is_reserved":false,"is_disabled":false,"rental_uris":{"android":"levelo://app?vid=04e7f6b2-1170-476d-8eb7-54bc6ab7d23c","ios":"levelo://app?vid=04e7f6b2-1170-476d-8eb7-54bc6ab7d23c"},"vehicle_type_id":"4","last_reported":1737230890,"current_range_meters":38800,"station_id":"ce4bhhh2rcd13ifvqfk0","pricing_plan_id":"cebpf4jnsgd1na2vs0mg"},{"bike_id":"4395dfba-4e3d-4b8b-aa73-f3e693689e94","system_id":"levelo_inurba_marseille","lat":43.2466,"lon":5.38157,"is_reserved":false,"is_disabled":false,"rental_uris":{"android":"levelo://app?vid=4395dfba-4e3d-4b8b-aa73-f3e693689e94","ios":"levelo://app?vid=4395dfba-4e3d-4b8b-aa73-f3e693689e94"},"vehicle_type_id":"4","last_reported":1737230890,"current_range_meters":26800,"station_id":"ce4bhih2rcd13ifvqfr0","pricing_plan_id":"cebpf4jnsgd1na2vs0mg"},{"bike_id":"df581145-fd95-4a77-a27c-2465bbb559bf","system_id":"levelo_inurba_marseille","lat":43.24697,"lon":5.38137,"is_reserved":false,"is_disabled":false,"rental_uris":{"android":"levelo://app?vid=df581145-fd95-4a77-a27c-2465bbb559bf","ios":"levelo://app?vid=df581145-fd95-4a77-a27c-2465bbb559bf"},"vehicle_type_id":"4","last_reported":1737230890,"current_range_meters":30400,"station_id":"ce4bhih2rcd13ifvqfr0","pricing_plan_id":"cebpf4jnsgd1na2vs0mg"},{"bike_id":"d930384e-9486-438d-8a57-3cd82c9cc0e2","system_id":"levelo_inurba_marseille","lat":43.26805,"lon":5.40249,"is_reserved":false,"is_disabled":false,"rental_uris":{"android":"levelo://app?vid=d930384e-9486-438d-8a57-3cd82c9cc0e2","ios":"levelo://app?vid=d930384e-9486-438d-8a57-3cd82c9cc0e2"},"vehicle_type_id":"4","last_reported":1737230890,"current_range_meters":38000,"station_id":"ce501612rcd8frsf0b60","pricing_plan_id":"cebpf4jnsgd1na2vs0mg"},{"bike_id":"6767abdc-3c6a-42d0-9e7b-2128533c47af","system_id":"levelo_inurba_marseille","lat":43.29008,"lon":5.3813,"is_reserved":false,"is_disabled":false,"rental_uris":{"android":"levelo://app?vid=6767abdc-3c6a-42d0-9e7b-2128533c47af","ios":"levelo://app?vid=6767abdc-3c6a-42d0-9e7b-2128533c47af"},"vehicle_type_id":"4","last_reported":1737230890,"current_range_meters":38800,"station_id":"ce4bh4p2rcd13ifvqe1g","pricing_plan_id":"cebpf4jnsgd1na2vs0mg"},{"bike_id":"29da4222-a209-43f7-8f55-de7d9095b453","system_id":"levelo_inurba_marseille","lat":43.284566,"lon":5.358781,"is_reserved":false,"is_disabled":false,"rental_uris":{"android":"levelo://app?vid=29da4222-a209-43f7-8f55-de7d9095b453","ios":"levelo://app?vid=29da4222-a209-43f7-8f55-de7d9095b453"},"vehicle_type_id":"4","last_reported":1737230890,"current_range_meters":12800,"station_id":"ce4bhah2rcd13ifvqei0","pricing_plan_id":"cebpf4jnsgd1na2vs0mg"},{"bike_id":"cbe1c294-c1ce-47fb-86e4-f8f279f2cd96","system_id":"levelo_inurba_marseille","lat":43.29656,"lon":5.37287,"is_reserved":false,"is_disabled":false,"rental_uris":{"android":"levelo://app?vid=cbe1c294-c1ce-47fb-86e4-f8f279f2cd96","ios":"levelo://app?vid=cbe1c294-c1ce-47fb-86e4-f8f279f2cd96"},"vehicle_type_id":"4","last_reported":1737230890,"current_range_meters":35200,"station_id":"ce4bgk12rcd13ifvqbj0","pricing_plan_id":"cebpf4jnsgd1na2vs0mg"},{"bike_id":"b34e39b4-c875-4080-9f83-b4038f1b6d4f","system_id":"levelo_inurba_marseille","lat":43.3092,"lon":5.36844,"is_reserved":false,"is_disabled":false,"rental_uris":{"android":"levelo://app?vid=b34e39b4-c875-4080-9f83-b4038f1b6d4f","ios":"levelo://app?vid=b34e39b4-c875-4080-9f83-b4038f1b6d4f"},"vehicle_type_id":"4","last_reported":1737230890,"current_range_meters":38000,"station_id":"ce4bgn92rcd13ifvqbvg","pricing_plan_id":"cebpf4jnsgd1na2vs0mg"},{"bike_id":"65947d9a-da43-4b5f-bacb-b9ae140b5b71","system_id":"levelo_inurba_marseille","lat":43.29268,"lon":5.3845,"is_reserved":false,"is_disabled":true,"rental_uris":{"android":"levelo://app?vid=65947d9a-da43-4b5f-bacb-b9ae140b5b71","ios":"levelo://app?vid=65947d9a-da43-4b5f-bacb-b9ae140b5b71"},"vehicle_type_id":"4","last_reported":1737230890,"current_range_meters":400,"station_id":"ce4bh692rcd13ifvqea0","pricing_plan_id":"cebpf4jnsgd1na2vs0mg"},{"bike_id":"8fb8c0d0-bdd7-480b-9c30-76a39d09797d","system_id":"levelo_inurba_marseille","lat":43.29253,"lon":5.38442,"is_reserved":false,"is_disabled":false,"rental_uris":{"android":"levelo://app?vid=8fb8c0d0-bdd7-480b-9c30-76a39d09797d","ios":"levelo://app?vid=8fb8c0d0-bdd7-480b-9c30-76a39d09797d"},"vehicle_type_id":"4","last_reported":1737230890,"current_range_meters":10000,"station_id":"ce4bh692rcd13ifvqea0","pricing_plan_id":"cebpf4jnsgd1na2vs0mg"},{"bike_id":"b3450e58-71d5-4421-8c94-1c36de79069f","system_id":"levelo_inurba_marseille","lat":43.26227,"lon":5.40453,"is_reserved":false,"is_disabled":false,"rental_uris":{"android":"levelo://app?vid=b3450e58-71d5-4421-8c94-1c36de79069f","ios":"levelo://app?vid=b3450e58-71d5-4421-8c94-1c36de79069f"},"vehicle_type_id":"4","last_reported":1737230890,"current_range_meters":11200,"station_id":"","pricing_plan_id":"cebpf4jnsgd1na2vs0mg"},{"bike_id":"ce97367f-c187-4509-be08-5943f2e277b6","system_id":"levelo_inurba_marseille","lat":43.28329,"lon":5.38097,"is_reserved":false,"is_disabled":false,"rental_uris":{"android":"levelo://app?vid=ce97367f-c187-4509-be08-5943f2e277b6","ios":"levelo://app?vid=ce97367f-c187-4509-be08-5943f2e277b6"},"vehicle_type_id":"4","last_reported":1737230890,"current_range_meters":24800,"station_id":"ce4bh412rcd13ifvqdr0","pricing_plan_id":"cebpf4jnsgd1na2vs0mg"},{"bike_id":"c5a73c6f-f1c6-4a33-8aad-8024fd657b66","system_id":"levelo_inurba_marseille","lat":43.24806,"lon":5.37455,"is_reserved":false,"is_disabled":false,"rental_uris":{"android":"levelo://app?vid=c5a73c6f-f1c6-4a33-8aad-8024fd657b66","ios":"levelo://app?vid=c5a73c6f-f1c6-4a33-8aad-8024fd657b66"},"vehicle_type_id":"4","last_reported":1737230890,"current_range_meters":17600,"station_id":"ce4bhgh2rcd13ifvqfb0","pricing_plan_id":"cebpf4jnsgd1na2vs0mg"},{"bike_id":"17bff5fd-ea98-4d8e-acb3-1aa4e52ec87d","system_id":"levelo_inurba_marseille","lat":43.31717,"lon":5.40428,"is_reserved":false,"is_disabled":false,"rental_uris":{"android":"levelo://app?vid=17bff5fd-ea98-4d8e-acb3-1aa4e52ec87d","ios":"levelo://app?vid=17bff5fd-ea98-4d8e-acb3-1aa4e52ec87d"},"vehicle_type_id":"4","last_reported":1737230890,"current_range_meters":28000,"station_id":"ce4bh012rcd13ifvqd00","pricing_plan_id":"cebpf4jnsgd1na2vs0mg"},{"bike_id":"0791d99b-2523-4243-8ac3-701d210697a0","system_id":"levelo_inurba_marseille","lat":43.29624,"lon":5.37739,"is_reserved":false,"is_disabled":false,"rental_uris":{"android":"levelo://app?vid=0791d99b-2523-4243-8ac3-701d210697a0","ios":"levelo://app?vid=0791d99b-2523-4243-8ac3-701d210697a0"},"vehicle_type_id":"4","last_reported":1737230890,"current_range_meters":36800,"station_id":"ce4bgi92rcd13ifvqb90","pricing_plan_id":"cebpf4jnsgd1na2vs0mg"},{"bike_id":"06e0ceb1-9315-4f04-bab2-3144835ffdae","system_id":"levelo_inurba_marseille","lat":43.29528,"lon":5.38536,"is_reserved":false,"is_disabled":false,"rental_uris":{"android":"levelo://app?vid=06e0ceb1-9315-4f04-bab2-3144835ffdae","ios":"levelo://app?vid=06e0ceb1-9315-4f04-bab2-3144835ffdae"},"vehicle_type_id":"4","last_reported":1737230890,"current_range_meters":38400,"station_id":"ce4bgih2rcd13ifvqba0","pricing_plan_id":"cebpf4jnsgd1na2vs0mg"},{"bike_id":"b5a9404c-c4fa-41f6-ad04-1d4904b069eb","system_id":"levelo_inurba_marseille","lat":43.30414,"lon":5.41287,"is_reserved":false,"is_disabled":false,"rental_uris":{"android":"levelo://app?vid=b5a9404c-c4fa-41f6-ad04-1d4904b069eb","ios":"levelo://app?vid=b5a9404c-c4fa-41f6-ad04-1d4904b069eb"},"vehicle_type_id":"4","last_reported":1737230890,"current_range_meters":28000,"station_id":"ce4bhop2rcd13ifvqh8g","pricing_plan_id":"cebpf4jnsgd1na2vs0mg"},{"bike_id":"37903762-ec48-4a76-ba3f-bded2dd1ffa9","system_id":"levelo_inurba_marseille","lat":43.29623,"lon":5.37177,"is_reserved":false,"is_disabled":false,"rental_uris":{"android":"levelo://app?vid=37903762-ec48-4a76-ba3f-bded2dd1ffa9","ios":"levelo://app?vid=37903762-ec48-4a76-ba3f-bded2dd1ffa9"},"vehicle_type_id":"4","last_reported":1737230890,"current_range_meters":38800,"station_id":"ce4bgnh2rcd13ifvqc0g","pricing_plan_id":"cebpf4jnsgd1na2vs0mg"},{"bike_id":"5228f23d-a3eb-4553-947e-5d4262a082b9","system_id":"levelo_inurba_marseille","lat":43.29268,"lon":5.36844,"is_reserved":false,"is_disabled":false,"rental_uris":{"android":"levelo://app?vid=5228f23d-a3eb-4553-947e-5d4262a082b9","ios":"levelo://app?vid=5228f23d-a3eb-4553-947e-5d4262a082b9"},"vehicle_type_id":"4","last_reported":1737230890,"current_range_meters":37600,"station_id":"ce4bhbp2rcd13ifvqesg","pricing_plan_id":"cebpf4jnsgd1na2vs0mg"},{"bike_id":"ca8aa51d-4833-4c77-8009-59b7c07323a3","system_id":"levelo_inurba_marseille","lat":43.32354,"lon":5.36765,"is_reserved":false,"is_disabled":false,"rental_uris":{"android":"levelo://app?vid=ca8aa51d-4833-4c77-8009-59b7c07323a3","ios":"levelo://app?vid=ca8aa51d-4833-4c77-8009-59b7c07323a3"},"vehicle_type_id":"4","last_reported":1737230890,"current_range_meters":9200,"station_id":"ce4bhsh2rcd13ifvqi2g","pricing_plan_id":"cebpf4jnsgd1na2vs0mg"},{"bike_id":"831a965d-7c8c-4252-8bd2-577b336f8919","system_id":"levelo_inurba_marseille","lat":43.28187,"lon":5.42668,"is_reserved":false,"is_disabled":false,"rental_uris":{"android":"levelo://app?vid=831a965d-7c8c-4252-8bd2-577b336f8919","ios":"levelo://app?vid=831a965d-7c8c-4252-8bd2-577b336f8919"},"vehicle_type_id":"4","last_reported":1737230890,"current_range_meters":20400,"station_id":"ce4bhnh2rcd13ifvqgug","pricing_plan_id":"cebpf4jnsgd1na2vs0mg"},{"bike_id":"23c50c32-96fb-423e-8e5c-22372d2300ba","system_id":"levelo_inurba_marseille","lat":43.31686,"lon":5.40468,"is_reserved":false,"is_disabled":true,"rental_uris":{"android":"levelo://app?vid=23c50c32-96fb-423e-8e5c-22372d2300ba","ios":"levelo://app?vid=23c50c32-96fb-423e-8e5c-22372d2300ba"},"vehicle_type_id":"4","last_reported":1737230890,"current_range_meters":0,"station_id":"ce4bh012rcd13ifvqd00","pricing_plan_id":"cebpf4jnsgd1na2vs0mg"},{"bike_id":"9dc49063-283d-43eb-bbfe-31fee7e70777","system_id":"levelo_inurba_marseille","lat":43.31213,"lon":5.36835,"is_reserved":false,"is_disabled":false,"rental_uris":{"android":"levelo://app?vid=9dc49063-283d-43eb-bbfe-31fee7e70777","ios":"levelo://app?vid=9dc49063-283d-43eb-bbfe-31fee7e70777"},"vehicle_type_id":"4","last_reported":1737230890,"current_range_meters":10800,"station_id":"ce4bgl92rcd13ifvqbq0","pricing_plan_id":"cebpf4jnsgd1na2vs0mg"},{"bike_id":"57d9fa47-e597-4ea4-913f-9b45079bd718","system_id":"levelo_inurba_marseille","lat":43.33023,"lon":5.39032,"is_reserved":false,"is_disabled":false,"rental_uris":{"android":"levelo://app?vid=57d9fa47-e597-4ea4-913f-9b45079bd718","ios":"levelo://app?vid=57d9fa47-e597-4ea4-913f-9b45079bd718"},"vehicle_type_id":"4","last_reported":1737230890,"current_range_meters":10000,"station_id":"ce4bhr92rcd13ifvqhrg","pricing_plan_id":"cebpf4jnsgd1na2vs0mg"},{"bike_id":"50c70262-dbb4-4b61-88f4-99876f32b530","system_id":"levelo_inurba_marseille","lat":43.29397,"lon":5.38609,"is_reserved":false,"is_disabled":false,"rental_uris":{"android":"levelo://app?vid=50c70262-dbb4-4b61-88f4-99876f32b530","ios":"levelo://app?vid=50c70262-dbb4-4b61-88f4-99876f32b530"},"vehicle_type_id":"4","last_reported":1737230890,"current_range_meters":32400,"station_id":"ce4bh2h2rcd13ifvqdh0","pricing_plan_id":"cebpf4jnsgd1na2vs0mg"},{"bike_id":"4ec76aa8-1e80-4051-b2ea-1baaf50a61e8","system_id":"levelo_inurba_marseille","lat":43.24131,"lon":5.38098,"is_reserved":false,"is_disabled":false,"rental_uris":{"android":"levelo://app?vid=4ec76aa8-1e80-4051-b2ea-1baaf50a61e8","ios":"levelo://app?vid=4ec76aa8-1e80-4051-b2ea-1baaf50a61e8"},"vehicle_type_id":"4","last_reported":1737230890,"current_range_meters":19600,"station_id":"","pricing_plan_id":"cebpf4jnsgd1na2vs0mg"},{"bike_id":"69c94b4f-9254-4552-ba1b-c28b9f708a85","system_id":"levelo_inurba_marseille","lat":43.22928,"lon":5.35377,"is_reserved":false,"is_disabled":false,"rental_uris":{"android":"levelo://app?vid=69c94b4f-9254-4552-ba1b-c28b9f708a85","ios":"levelo://app?vid=69c94b4f-9254-4552-ba1b-c28b9f708a85"},"vehicle_type_id":"4","last_reported":1737230890,"current_range_meters":35600,"station_id":"cpo3532slgdg3j2ikp40","pricing_plan_id":"cebpf4jnsgd1na2vs0mg"},{"bike_id":"bd00f222-ce0c-4f81-a68c-0edabc3e5f6b","system_id":"levelo_inurba_marseille","lat":43.25077,"lon":5.39524,"is_reserved":false,"is_disabled":false,"rental_uris":{"android":"levelo://app?vid=bd00f222-ce0c-4f81-a68c-0edabc3e5f6b","ios":"levelo://app?vid=bd00f222-ce0c-4f81-a68c-0edabc3e5f6b"},"vehicle_type_id":"4","last_reported":1737230890,"current_range_meters":38800,"station_id":"ce4bhm12rcd13ifvqgkg","pricing_plan_id":"cebpf4jnsgd1na2vs0mg"},{"bike_id":"cb51ce38-e716-49c9-a38b-071a552bc794","system_id":"levelo_inurba_marseille","lat":43.31073,"lon":5.38344,"is_reserved":false,"is_disabled":false,"rental_uris":{"android":"levelo://app?vid=cb51ce38-e716-49c9-a38b-071a552bc794","ios":"levelo://app?vid=cb51ce38-e716-49c9-a38b-071a552bc794"},"vehicle_type_id":"4","last_reported":1737230890,"current_range_meters":17200,"station_id":"ce4bgv92rcd13ifvqcr0","pricing_plan_id":"cebpf4jnsgd1na2vs0mg"},{"bike_id":"81588def-b3d1-4412-8fb0-bc5c9e8c72ab","system_id":"levelo_inurba_marseille","lat":43.2925,"lon":5.38436,"is_reserved":false,"is_disabled":false,"rental_uris":{"android":"levelo://app?vid=81588def-b3d1-4412-8fb0-bc5c9e8c72ab","ios":"levelo://app?vid=81588def-b3d1-4412-8fb0-bc5c9e8c72ab"},"vehicle_type_id":"4","last_reported":1737230890,"current_range_meters":30400,"station_id":"ce4bh692rcd13ifvqea0","pricing_plan_id":"cebpf4jnsgd1na2vs0mg"},{"bike_id":"9e515546-a20a-41af-a455-44307a595228","system_id":"levelo_inurba_marseille","lat":43.28479,"lon":5.38558,"is_reserved":false,"is_disabled":false,"rental_uris":{"android":"levelo://app?vid=9e515546-a20a-41af-a455-44307a595228","ios":"levelo://app?vid=9e515546-a20a-41af-a455-44307a595228"},"vehicle_type_id":"4","last_reported":1737230890,"current_range_meters":19600,"station_id":"ce4bh8p2rcd13ifvqeb0","pricing_plan_id":"cebpf4jnsgd1na2vs0mg"},{"bike_id":"4104cbba-088f-4383-b2a0-261d17699731","system_id":"levelo_inurba_marseille","lat":43.23964,"lon":5.36634,"is_reserved":false,"is_disabled":false,"rental_uris":{"android":"levelo://app?vid=4104cbba-088f-4383-b2a0-261d17699731","ios":"levelo://app?vid=4104cbba-088f-4383-b2a0-261d17699731"},"vehicle_type_id":"4","last_reported":1737230890,"current_range_meters":38400,"station_id":"ce4bhi12rcd13ifvqfp0","pricing_plan_id":"cebpf4jnsgd1na2vs0mg"},{"bike_id":"0d3a1093-f878-45c1-ab1c-740aaebc268c","system_id":"levelo_inurba_marseille","lat":43.27202,"lon":5.39181,"is_reserved":false,"is_disabled":true,"rental_uris":{"android":"levelo://app?vid=0d3a1093-f878-45c1-ab1c-740aaebc268c","ios":"levelo://app?vid=0d3a1093-f878-45c1-ab1c-740aaebc268c"},"vehicle_type_id":"4","last_reported":1737230890,"current_range_meters":0,"station_id":"ce4bhhp2rcd13ifvqfm0","pricing_plan_id":"cebpf4jnsgd1na2vs0mg"},{"bike_id":"4d204c74-597b-40dc-b27a-d4d81af1e55e","system_id":"levelo_inurba_marseille","lat":43.24178,"lon":5.39727,"is_reserved":false,"is_disabled":false,"rental_uris":{"android":"levelo://app?vid=4d204c74-597b-40dc-b27a-d4d81af1e55e","ios":"levelo://app?vid=4d204c74-597b-40dc-b27a-d4d81af1e55e"},"vehicle_type_id":"4","last_reported":1737230890,"current_range_meters":28400,"station_id":"ce4bhn12rcd13ifvqgpg","pricing_plan_id":"cebpf4jnsgd1na2vs0mg"},{"bike_id":"eb076845-e466-494f-8689-32eb894258f6","system_id":"levelo_inurba_marseille","lat":43.29864,"lon":5.39734,"is_reserved":false,"is_disabled":false,"rental_uris":{"android":"levelo://app?vid=eb076845-e466-494f-8689-32eb894258f6","ios":"levelo://app?vid=eb076845-e466-494f-8689-32eb894258f6"},"vehicle_type_id":"4","last_reported":1737230890,"current_range_meters":35200,"station_id":"ce4bh0h2rcd13ifvqd50","pricing_plan_id":"cebpf4jnsgd1na2vs0mg"},{"bike_id":"881f5a56-0072-422c-a05d-eee833d8c733","system_id":"levelo_inurba_marseille","lat":43.33185,"lon":5.37855,"is_reserved":false,"is_disabled":false,"rental_uris":{"android":"levelo://app?vid=881f5a56-0072-422c-a05d-eee833d8c733","ios":"levelo://app?vid=881f5a56-0072-422c-a05d-eee833d8c733"},"vehicle_type_id":"4","last_reported":1737230890,"current_range_meters":38800,"station_id":"","pricing_plan_id":"cebpf4jnsgd1na2vs0mg"},{"bike_id":"28ef1c1e-dd89-43e8-817b-9b489831397b","system_id":"levelo_inurba_marseille","lat":43.2707,"lon":5.39604,"is_reserved":false,"is_disabled":true,"rental_uris":{"android":"levelo://app?vid=28ef1c1e-dd89-43e8-817b-9b489831397b","ios":"levelo://app?vid=28ef1c1e-dd89-43e8-817b-9b489831397b"},"vehicle_type_id":"4","last_reported":1737230890,"current_range_meters":0,"station_id":"","pricing_plan_id":"cebpf4jnsgd1na2vs0mg"},{"bike_id":"a9d9ec1b-178a-494a-a891-d10e5fd899ec","system_id":"levelo_inurba_marseille","lat":43.232,"lon":5.40009,"is_reserved":false,"is_disabled":false,"rental_uris":{"android":"levelo://app?vid=a9d9ec1b-178a-494a-a891-d10e5fd899ec","ios":"levelo://app?vid=a9d9ec1b-178a-494a-a891-d10e5fd899ec"},"vehicle_type_id":"4","last_reported":1737230890,"current_range_meters":36400,"station_id":"ce4bhn12rcd13ifvqgqg","pricing_plan_id":"cebpf4jnsgd1na2vs0mg"},{"bike_id":"49ddf245-62ff-4889-86c5-49e2da6b7871","system_id":"levelo_inurba_marseille","lat":43.30914,"lon":5.3685,"is_reserved":false,"is_disabled":false,"rental_uris":{"android":"levelo://app?vid=49ddf245-62ff-4889-86c5-49e2da6b7871","ios":"levelo://app?vid=49ddf245-62ff-4889-86c5-49e2da6b7871"},"vehicle_type_id":"4","last_reported":1737230890,"current_range_meters":38000,"station_id":"ce4bgn92rcd13ifvqbvg","pricing_plan_id":"cebpf4jnsgd1na2vs0mg"},{"bike_id":"2ad52ef0-8080-4104-a5d3-4ad6b83e9c6d","system_id":"levelo_inurba_marseille","lat":43.29524,"lon":5.3902,"is_reserved":false,"is_disabled":true,"rental_uris":{"android":"levelo://app?vid=2ad52ef0-8080-4104-a5d3-4ad6b83e9c6d","ios":"levelo://app?vid=2ad52ef0-8080-4104-a5d3-4ad6b83e9c6d"},"vehicle_type_id":"4","last_reported":1737230890,"current_range_meters":3200,"station_id":"ce4bh3p2rcd13ifvqdp0","pricing_plan_id":"cebpf4jnsgd1na2vs0mg"},{"bike_id":"c77de84a-305d-47e5-b81a-44313d3b8aa9","system_id":"levelo_inurba_marseille","lat":43.25868,"lon":5.39896,"is_reserved":false,"is_disabled":false,"rental_uris":{"android":"levelo://app?vid=c77de84a-305d-47e5-b81a-44313d3b8aa9","ios":"levelo://app?vid=c77de84a-305d-47e5-b81a-44313d3b8aa9"},"vehicle_type_id":"4","last_reported":1737230890,"current_range_meters":30400,"station_id":"ce4bhl92rcd13ifvqghg","pricing_plan_id":"cebpf4jnsgd1na2vs0mg"},{"bike_id":"357eaeda-fef2-41f2-9ad0-621ae2cc5c09","system_id":"levelo_inurba_marseille","lat":43.33753,"lon":5.37518,"is_reserved":false,"is_disabled":false,"rental_uris":{"android":"levelo://app?vid=357eaeda-fef2-41f2-9ad0-621ae2cc5c09","ios":"levelo://app?vid=357eaeda-fef2-41f2-9ad0-621ae2cc5c09"},"vehicle_type_id":"4","last_reported":1737230890,"current_range_meters":35600,"station_id":"","pricing_plan_id":"cebpf4jnsgd1na2vs0mg"},{"bike_id":"24747ef3-c3b1-4bc4-b21e-7db78697d06a","system_id":"levelo_inurba_marseille","lat":43.30105,"lon":5.39065,"is_reserved":false,"is_disabled":false,"rental_uris":{"android":"levelo://app?vid=24747ef3-c3b1-4bc4-b21e-7db78697d06a","ios":"levelo://app?vid=24747ef3-c3b1-4bc4-b21e-7db78697d06a"},"vehicle_type_id":"4","last_reported":1737230890,"current_range_meters":33200,"station_id":"ce4bh192rcd13ifvqdb0","pricing_plan_id":"cebpf4jnsgd1na2vs0mg"},{"bike_id":"1940f4ea-0667-4f39-8178-bf59d17b88e0","system_id":"levelo_inurba_marseille","lat":43.28275,"lon":5.35058,"is_reserved":false,"is_disabled":false,"rental_uris":{"android":"levelo://app?vid=1940f4ea-0667-4f39-8178-bf59d17b88e0","ios":"levelo://app?vid=1940f4ea-0667-4f39-8178-bf59d17b88e0"},"vehicle_type_id":"4","last_reported":1737230890,"current_range_meters":9600,"station_id":"ce4bhbp2rcd13ifvqerg","pricing_plan_id":"cebpf4jnsgd1na2vs0mg"},{"bike_id":"010ac9b3-3845-46fa-bb28-00cd4b807aa5","system_id":"levelo_inurba_marseille","lat":43.26058,"lon":5.39399,"is_reserved":false,"is_disabled":false,"rental_uris":{"android":"levelo://app?vid=010ac9b3-3845-46fa-bb28-00cd4b807aa5","ios":"levelo://app?vid=010ac9b3-3845-46fa-bb28-00cd4b807aa5"},"vehicle_type_id":"4","last_reported":1737230890,"current_range_meters":26000,"station_id":"ce4bhh92rcd13ifvqfj0","pricing_plan_id":"cebpf4jnsgd1na2vs0mg"},{"bike_id":"ab6a36f3-0478-4542-b2c1-73a09c381be9","system_id":"levelo_inurba_marseille","lat":43.29416,"lon":5.38634,"is_reserved":false,"is_disabled":false,"rental_uris":{"android":"levelo://app?vid=ab6a36f3-0478-4542-b2c1-73a09c381be9","ios":"levelo://app?vid=ab6a36f3-0478-4542-b2c1-73a09c381be9"},"vehicle_type_id":"4","last_reported":1737230890,"current_range_meters":27600,"station_id":"ce4bh2h2rcd13ifvqdh0","pricing_plan_id":"cebpf4jnsgd1na2vs0mg"},{"bike_id":"f6cacadb-8310-4def-b7d1-16b644ece7a7","system_id":"levelo_inurba_marseille","lat":43.31494,"lon":5.37308,"is_reserved":false,"is_disabled":false,"rental_uris":{"android":"levelo://app?vid=f6cacadb-8310-4def-b7d1-16b644ece7a7","ios":"levelo://app?vid=f6cacadb-8310-4def-b7d1-16b644ece7a7"},"vehicle_type_id":"4","last_reported":1737230890,"current_range_meters":34800,"station_id":"ce4bgt12rcd13ifvqcd0","pricing_plan_id":"cebpf4jnsgd1na2vs0mg"},{"bike_id":"9d0eae62-754b-40d5-a77a-2d7e5b7b7ddc","system_id":"levelo_inurba_marseille","lat":43.29674,"lon":5.37287,"is_reserved":false,"is_disabled":false,"rental_uris":{"android":"levelo://app?vid=9d0eae62-754b-40d5-a77a-2d7e5b7b7ddc","ios":"levelo://app?vid=9d0eae62-754b-40d5-a77a-2d7e5b7b7ddc"},"vehicle_type_id":"4","last_reported":1737230890,"current_range_meters":30400,"station_id":"ce4bgk12rcd13ifvqbj0","pricing_plan_id":"cebpf4jnsgd1na2vs0mg"},{"bike_id":"01a07bd9-36a1-4c19-a88b-7c9e3a6ee490","system_id":"levelo_inurba_marseille","lat":43.25088,"lon":5.39515,"is_reserved":false,"is_disabled":false,"rental_uris":{"android":"levelo://app?vid=01a07bd9-36a1-4c19-a88b-7c9e3a6ee490","ios":"levelo://app?vid=01a07bd9-36a1-4c19-a88b-7c9e3a6ee490"},"vehicle_type_id":"4","last_reported":1737230890,"current_range_meters":36000,"station_id":"ce4bhm12rcd13ifvqgkg","pricing_plan_id":"cebpf4jnsgd1na2vs0mg"},{"bike_id":"b0b5b450-5055-4cf9-9abc-490d41233b4e","system_id":"levelo_inurba_marseille","lat":43.28703,"lon":5.37914,"is_reserved":false,"is_disabled":false,"rental_uris":{"android":"levelo://app?vid=b0b5b450-5055-4cf9-9abc-490d41233b4e","ios":"levelo://app?vid=b0b5b450-5055-4cf9-9abc-490d41233b4e"},"vehicle_type_id":"4","last_reported":1737230890,"current_range_meters":22800,"station_id":"ce4bh9p2rcd13ifvqec0","pricing_plan_id":"cebpf4jnsgd1na2vs0mg"},{"bike_id":"24d3b331-52fa-4564-a98e-732c1dea4a32","system_id":"levelo_inurba_marseille","lat":43.27487,"lon":5.42446,"is_reserved":false,"is_disabled":true,"rental_uris":{"android":"levelo://app?vid=24d3b331-52fa-4564-a98e-732c1dea4a32","ios":"levelo://app?vid=24d3b331-52fa-4564-a98e-732c1dea4a32"},"vehicle_type_id":"4","last_reported":1737230890,"current_range_meters":0,"station_id":"ce4bhn92rcd13ifvqgrg","pricing_plan_id":"cebpf4jnsgd1na2vs0mg"},{"bike_id":"9be957d2-26d1-49a4-9f85-b06ee3432064","system_id":"levelo_inurba_marseille","lat":43.33721,"lon":5.39201,"is_reserved":false,"is_disabled":false,"rental_uris":{"android":"levelo://app?vid=9be957d2-26d1-49a4-9f85-b06ee3432064","ios":"levelo://app?vid=9be957d2-26d1-49a4-9f85-b06ee3432064"},"vehicle_type_id":"4","last_reported":1737230890,"current_range_meters":25600,"station_id":"ce4bhr92rcd13ifvqhsg","pricing_plan_id":"cebpf4jnsgd1na2vs0mg"},{"bike_id":"aa9ad96b-e095-4936-9c2b-a5aa8790106e","system_id":"levelo_inurba_marseille","lat":43.29838,"lon":5.36262,"is_reserved":false,"is_disabled":false,"rental_uris":{"android":"levelo://app?vid=aa9ad96b-e095-4936-9c2b-a5aa8790106e","ios":"levelo://app?vid=aa9ad96b-e095-4936-9c2b-a5aa8790106e"},"vehicle_type_id":"4","last_reported":1737230890,"current_range_meters":35200,"station_id":"ce4bgpp2rcd13ifvqc3g","pricing_plan_id":"cebpf4jnsgd1na2vs0mg"},{"bike_id":"524072f1-ace1-43cc-8007-f91dc732b1f7","system_id":"levelo_inurba_marseille","lat":43.25084,"lon":5.39513,"is_reserved":false,"is_disabled":false,"rental_uris":{"android":"levelo://app?vid=524072f1-ace1-43cc-8007-f91dc732b1f7","ios":"levelo://app?vid=524072f1-ace1-43cc-8007-f91dc732b1f7"},"vehicle_type_id":"4","last_reported":1737230890,"current_range_meters":34800,"station_id":"ce4bhm12rcd13ifvqgkg","pricing_plan_id":"cebpf4jnsgd1na2vs0mg"},{"bike_id":"4176cd66-1893-4442-bd75-0360ec9d6e01","system_id":"levelo_inurba_marseille","lat":43.28939,"lon":5.36391,"is_reserved":false,"is_disabled":false,"rental_uris":{"android":"levelo://app?vid=4176cd66-1893-4442-bd75-0360ec9d6e01","ios":"levelo://app?vid=4176cd66-1893-4442-bd75-0360ec9d6e01"},"vehicle_type_id":"4","last_reported":1737230890,"current_range_meters":35200,"station_id":"ce4bhc92rcd13ifvqetg","pricing_plan_id":"cebpf4jnsgd1na2vs0mg"},{"bike_id":"59829282-52a1-4f2c-9ab6-c535355001fb","system_id":"levelo_inurba_marseille","lat":43.30454,"lon":5.38883,"is_reserved":false,"is_disabled":false,"rental_uris":{"android":"levelo://app?vid=59829282-52a1-4f2c-9ab6-c535355001fb","ios":"levelo://app?vid=59829282-52a1-4f2c-9ab6-c535355001fb"},"vehicle_type_id":"4","last_reported":1737230890,"current_range_meters":6400,"station_id":"ce4bgk12rcd13ifvqbi0","pricing_plan_id":"cebpf4jnsgd1na2vs0mg"},{"bike_id":"9c41bd3d-55df-4ba6-aaa5-f915b1794e94","system_id":"levelo_inurba_marseille","lat":43.30802,"lon":5.435211,"is_reserved":false,"is_disabled":false,"rental_uris":{"android":"levelo://app?vid=9c41bd3d-55df-4ba6-aaa5-f915b1794e94","ios":"levelo://app?vid=9c41bd3d-55df-4ba6-aaa5-f915b1794e94"},"vehicle_type_id":"4","last_reported":1737230890,"current_range_meters":31200,"station_id":"ce4bhph2rcd13ifvqheg","pricing_plan_id":"cebpf4jnsgd1na2vs0mg"},{"bike_id":"4291632b-b89c-4c47-8e03-1ac2c74e4815","system_id":"levelo_inurba_marseille","lat":43.24181,"lon":5.39717,"is_reserved":false,"is_disabled":false,"rental_uris":{"android":"levelo://app?vid=4291632b-b89c-4c47-8e03-1ac2c74e4815","ios":"levelo://app?vid=4291632b-b89c-4c47-8e03-1ac2c74e4815"},"vehicle_type_id":"4","last_reported":1737230890,"current_range_meters":11600,"station_id":"ce4bhn12rcd13ifvqgpg","pricing_plan_id":"cebpf4jnsgd1na2vs0mg"},{"bike_id":"cf99162e-0fda-4f8f-baa6-b0dba53f0e01","system_id":"levelo_inurba_marseille","lat":43.29032,"lon":5.38638,"is_reserved":false,"is_disabled":false,"rental_uris":{"android":"levelo://app?vid=cf99162e-0fda-4f8f-baa6-b0dba53f0e01","ios":"levelo://app?vid=cf99162e-0fda-4f8f-baa6-b0dba53f0e01"},"vehicle_type_id":"4","last_reported":1737230890,"current_range_meters":36000,"station_id":"ce4bh4p2rcd13ifvqe0g","pricing_plan_id":"cebpf4jnsgd1na2vs0mg"},{"bike_id":"dc0068f6-403b-40ed-81e7-988f0551afbe","system_id":"levelo_inurba_marseille","lat":43.29967,"lon":5.38491,"is_reserved":false,"is_disabled":false,"rental_uris":{"android":"levelo://app?vid=dc0068f6-403b-40ed-81e7-988f0551afbe","ios":"levelo://app?vid=dc0068f6-403b-40ed-81e7-988f0551afbe"},"vehicle_type_id":"4","last_reported":1737230890,"current_range_meters":32400,"station_id":"ce4bgj92rcd13ifvqbd0","pricing_plan_id":"cebpf4jnsgd1na2vs0mg"},{"bike_id":"dfd96ebd-2cae-4ab5-8d13-f6e62258957e","system_id":"levelo_inurba_marseille","lat":43.31725,"lon":5.42395,"is_reserved":false,"is_disabled":false,"rental_uris":{"android":"levelo://app?vid=dfd96ebd-2cae-4ab5-8d13-f6e62258957e","ios":"levelo://app?vid=dfd96ebd-2cae-4ab5-8d13-f6e62258957e"},"vehicle_type_id":"4","last_reported":1737230890,"current_range_meters":38000,"station_id":"ce4bhp92rcd13ifvqhbg","pricing_plan_id":"cebpf4jnsgd1na2vs0mg"},{"bike_id":"705fda08-81e6-4eb6-a216-a2b7deca13b7","system_id":"levelo_inurba_marseille","lat":43.292732,"lon":5.384646,"is_reserved":false,"is_disabled":false,"rental_uris":{"android":"levelo://app?vid=705fda08-81e6-4eb6-a216-a2b7deca13b7","ios":"levelo://app?vid=705fda08-81e6-4eb6-a216-a2b7deca13b7"},"vehicle_type_id":"4","last_reported":1737230890,"current_range_meters":8800,"station_id":"ce4bh692rcd13ifvqea0","pricing_plan_id":"cebpf4jnsgd1na2vs0mg"},{"bike_id":"13d3fd97-e21c-4164-8b58-6e6c0cfe1ec1","system_id":"levelo_inurba_marseille","lat":43.2803,"lon":5.36947,"is_reserved":false,"is_disabled":false,"rental_uris":{"android":"levelo://app?vid=13d3fd97-e21c-4164-8b58-6e6c0cfe1ec1","ios":"levelo://app?vid=13d3fd97-e21c-4164-8b58-6e6c0cfe1ec1"},"vehicle_type_id":"4","last_reported":1737230890,"current_range_meters":38800,"station_id":"ce4bha12rcd13ifvqef0","pricing_plan_id":"cebpf4jnsgd1na2vs0mg"},{"bike_id":"fae143cc-e0b7-42e0-ac41-6327643321d0","system_id":"levelo_inurba_marseille","lat":43.25828,"lon":5.39429,"is_reserved":false,"is_disabled":false,"rental_uris":{"android":"levelo://app?vid=fae143cc-e0b7-42e0-ac41-6327643321d0","ios":"levelo://app?vid=fae143cc-e0b7-42e0-ac41-6327643321d0"},"vehicle_type_id":"4","last_reported":1737230890,"current_range_meters":30800,"station_id":"ce4bhip2rcd13ifvqft0","pricing_plan_id":"cebpf4jnsgd1na2vs0mg"},{"bike_id":"bcd96ff4-f53b-4513-aba6-d7a0a8f8f0c1","system_id":"levelo_inurba_marseille","lat":43.25803,"lon":5.39427,"is_reserved":false,"is_disabled":false,"rental_uris":{"android":"levelo://app?vid=bcd96ff4-f53b-4513-aba6-d7a0a8f8f0c1","ios":"levelo://app?vid=bcd96ff4-f53b-4513-aba6-d7a0a8f8f0c1"},"vehicle_type_id":"4","last_reported":1737230890,"current_range_meters":25600,"station_id":"ce4bhip2rcd13ifvqft0","pricing_plan_id":"cebpf4jnsgd1na2vs0mg"},{"bike_id":"6934a120-854e-46c6-8426-e359803eb595","system_id":"levelo_inurba_marseille","lat":43.29056,"lon":5.37159,"is_reserved":false,"is_disabled":false,"rental_uris":{"android":"levelo://app?vid=6934a120-854e-46c6-8426-e359803eb595","ios":"levelo://app?vid=6934a120-854e-46c6-8426-e359803eb595"},"vehicle_type_id":"4","last_reported":1737230890,"current_range_meters":36400,"station_id":"ce4bh5p2rcd13ifvqe4g","pricing_plan_id":"cebpf4jnsgd1na2vs0mg"},{"bike_id":"1e439018-c0d6-4a96-9cf0-6ec46d1fa22b","system_id":"levelo_inurba_marseille","lat":43.33027,"lon":5.39016,"is_reserved":false,"is_disabled":false,"rental_uris":{"android":"levelo://app?vid=1e439018-c0d6-4a96-9cf0-6ec46d1fa22b","ios":"levelo://app?vid=1e439018-c0d6-4a96-9cf0-6ec46d1fa22b"},"vehicle_type_id":"4","last_reported":1737230890,"current_range_meters":37600,"station_id":"ce4bhr92rcd13ifvqhrg","pricing_plan_id":"cebpf4jnsgd1na2vs0mg"},{"bike_id":"f4a4a406-b0a5-42fc-9236-32e93ac6f6b2","system_id":"levelo_inurba_marseille","lat":43.23131,"lon":5.43688,"is_reserved":false,"is_disabled":true,"rental_uris":{"android":"levelo://app?vid=f4a4a406-b0a5-42fc-9236-32e93ac6f6b2","ios":"levelo://app?vid=f4a4a406-b0a5-42fc-9236-32e93ac6f6b2"},"vehicle_type_id":"4","last_reported":1737230890,"current_range_meters":28400,"station_id":"ce4bhmp2rcd13ifvqgog","pricing_plan_id":"cebpf4jnsgd1na2vs0mg"},{"bike_id":"210ffe2d-27bf-471a-a897-ba0eb55d9e2b","system_id":"levelo_inurba_marseille","lat":43.27081,"lon":5.42236,"is_reserved":false,"is_disabled":false,"rental_uris":{"android":"levelo://app?vid=210ffe2d-27bf-471a-a897-ba0eb55d9e2b","ios":"levelo://app?vid=210ffe2d-27bf-471a-a897-ba0eb55d9e2b"},"vehicle_type_id":"4","last_reported":1737230890,"current_range_meters":32000,"station_id":"ce4bhk92rcd13ifvqgb0","pricing_plan_id":"cebpf4jnsgd1na2vs0mg"},{"bike_id":"801ee5c2-94c0-4d04-a046-f787ca2a34cf","system_id":"levelo_inurba_marseille","lat":43.29956,"lon":5.38499,"is_reserved":false,"is_disabled":false,"rental_uris":{"android":"levelo://app?vid=801ee5c2-94c0-4d04-a046-f787ca2a34cf","ios":"levelo://app?vid=801ee5c2-94c0-4d04-a046-f787ca2a34cf"},"vehicle_type_id":"4","last_reported":1737230890,"current_range_meters":24400,"station_id":"ce4bgj92rcd13ifvqbd0","pricing_plan_id":"cebpf4jnsgd1na2vs0mg"},{"bike_id":"667e3c6e-27df-48ff-9b3c-e2dde9ef7d0b","system_id":"levelo_inurba_marseille","lat":43.3054,"lon":5.36529,"is_reserved":false,"is_disabled":false,"rental_uris":{"android":"levelo://app?vid=667e3c6e-27df-48ff-9b3c-e2dde9ef7d0b","ios":"levelo://app?vid=667e3c6e-27df-48ff-9b3c-e2dde9ef7d0b"},"vehicle_type_id":"4","last_reported":1737230890,"current_range_meters":20400,"station_id":"ce4bgs12rcd13ifvqcag","pricing_plan_id":"cebpf4jnsgd1na2vs0mg"},{"bike_id":"2496029a-0b52-4169-817d-6889846b71cf","system_id":"levelo_inurba_marseille","lat":43.22932,"lon":5.35376,"is_reserved":false,"is_disabled":false,"rental_uris":{"android":"levelo://app?vid=2496029a-0b52-4169-817d-6889846b71cf","ios":"levelo://app?vid=2496029a-0b52-4169-817d-6889846b71cf"},"vehicle_type_id":"4","last_reported":1737230890,"current_range_meters":18800,"station_id":"cpo3532slgdg3j2ikp40","pricing_plan_id":"cebpf4jnsgd1na2vs0mg"},{"bike_id":"e58842d1-b457-4207-9932-2223f4bcc961","system_id":"levelo_inurba_marseille","lat":43.29272,"lon":5.38453,"is_reserved":false,"is_disabled":false,"rental_uris":{"android":"levelo://app?vid=e58842d1-b457-4207-9932-2223f4bcc961","ios":"levelo://app?vid=e58842d1-b457-4207-9932-2223f4bcc961"},"vehicle_type_id":"4","last_reported":1737230890,"current_range_meters":26800,"station_id":"ce4bh692rcd13ifvqea0","pricing_plan_id":"cebpf4jnsgd1na2vs0mg"},{"bike_id":"d3ac4a84-4f85-4a01-9c84-b517fcd9f44c","system_id":"levelo_inurba_marseille","lat":43.32286,"lon":5.3826,"is_reserved":false,"is_disabled":false,"rental_uris":{"android":"levelo://app?vid=d3ac4a84-4f85-4a01-9c84-b517fcd9f44c","ios":"levelo://app?vid=d3ac4a84-4f85-4a01-9c84-b517fcd9f44c"},"vehicle_type_id":"4","last_reported":1737230890,"current_range_meters":38000,"station_id":"ce4bhr12rcd13ifvqhqg","pricing_plan_id":"cebpf4jnsgd1na2vs0mg"},{"bike_id":"88110bcd-5232-416c-a0c9-dcc1bb5abf06","system_id":"levelo_inurba_marseille","lat":43.299034,"lon":5.381469,"is_reserved":false,"is_disabled":false,"rental_uris":{"android":"levelo://app?vid=88110bcd-5232-416c-a0c9-dcc1bb5abf06","ios":"levelo://app?vid=88110bcd-5232-416c-a0c9-dcc1bb5abf06"},"vehicle_type_id":"4","last_reported":1737230890,"current_range_meters":38800,"station_id":"ce4bgj12rcd13ifvqbc0","pricing_plan_id":"cebpf4jnsgd1na2vs0mg"},{"bike_id":"fe894921-bf20-4f14-9495-d42995bd8afe","system_id":"levelo_inurba_marseille","lat":43.30149,"lon":5.38082,"is_reserved":false,"is_disabled":false,"rental_uris":{"android":"levelo://app?vid=fe894921-bf20-4f14-9495-d42995bd8afe","ios":"levelo://app?vid=fe894921-bf20-4f14-9495-d42995bd8afe"},"vehicle_type_id":"4","last_reported":1737230890,"current_range_meters":38400,"station_id":"ce4bgjp2rcd13ifvqbh0","pricing_plan_id":"cebpf4jnsgd1na2vs0mg"},{"bike_id":"32bdf2e9-a972-4bc3-9322-c73d40f322c0","system_id":"levelo_inurba_marseille","lat":43.31324,"lon":5.39695,"is_reserved":false,"is_disabled":false,"rental_uris":{"android":"levelo://app?vid=32bdf2e9-a972-4bc3-9322-c73d40f322c0","ios":"levelo://app?vid=32bdf2e9-a972-4bc3-9322-c73d40f322c0"},"vehicle_type_id":"4","last_reported":1737230890,"current_range_meters":25200,"station_id":"ce4bgvp2rcd13ifvqcu0","pricing_plan_id":"cebpf4jnsgd1na2vs0mg"},{"bike_id":"b58dcef5-cab9-4732-933d-c18fb8a74b04","system_id":"levelo_inurba_marseille","lat":43.2315,"lon":5.43711,"is_reserved":false,"is_disabled":true,"rental_uris":{"android":"levelo://app?vid=b58dcef5-cab9-4732-933d-c18fb8a74b04","ios":"levelo://app?vid=b58dcef5-cab9-4732-933d-c18fb8a74b04"},"vehicle_type_id":"4","last_reported":1737230890,"current_range_meters":0,"station_id":"ce4bhmp2rcd13ifvqgog","pricing_plan_id":"cebpf4jnsgd1na2vs0mg"},{"bike_id":"74a68bf0-f2f0-48e4-bf8e-cb92cded0484","system_id":"levelo_inurba_marseille","lat":43.26033,"lon":5.37548,"is_reserved":false,"is_disabled":false,"rental_uris":{"android":"levelo://app?vid=74a68bf0-f2f0-48e4-bf8e-cb92cded0484","ios":"levelo://app?vid=74a68bf0-f2f0-48e4-bf8e-cb92cded0484"},"vehicle_type_id":"4","last_reported":1737230890,"current_range_meters":28800,"station_id":"ce4bhgh2rcd13ifvqfa0","pricing_plan_id":"cebpf4jnsgd1na2vs0mg"},{"bike_id":"a2db4274-ccf5-421f-87c6-f7cc5d30f362","system_id":"levelo_inurba_marseille","lat":43.31074,"lon":5.38339,"is_reserved":false,"is_disabled":false,"rental_uris":{"android":"levelo://app?vid=a2db4274-ccf5-421f-87c6-f7cc5d30f362","ios":"levelo://app?vid=a2db4274-ccf5-421f-87c6-f7cc5d30f362"},"vehicle_type_id":"4","last_reported":1737230890,"current_range_meters":30800,"station_id":"ce4bgv92rcd13ifvqcr0","pricing_plan_id":"cebpf4jnsgd1na2vs0mg"},{"bike_id":"234d1550-b7dd-465b-9578-32049a642f2b","system_id":"levelo_inurba_marseille","lat":43.29958,"lon":5.41329,"is_reserved":false,"is_disabled":false,"rental_uris":{"android":"levelo://app?vid=234d1550-b7dd-465b-9578-32049a642f2b","ios":"levelo://app?vid=234d1550-b7dd-465b-9578-32049a642f2b"},"vehicle_type_id":"4","last_reported":1737230890,"current_range_meters":37600,"station_id":"ce4bhp12rcd13ifvqh9g","pricing_plan_id":"cebpf4jnsgd1na2vs0mg"},{"bike_id":"9ae307b2-a8e9-48b6-a493-97a31aabdb0b","system_id":"levelo_inurba_marseille","lat":43.29581,"lon":5.3751,"is_reserved":false,"is_disabled":false,"rental_uris":{"android":"levelo://app?vid=9ae307b2-a8e9-48b6-a493-97a31aabdb0b","ios":"levelo://app?vid=9ae307b2-a8e9-48b6-a493-97a31aabdb0b"},"vehicle_type_id":"4","last_reported":1737230890,"current_range_meters":23200,"station_id":"ce4bgh92rcd13ifvqb50","pricing_plan_id":"cebpf4jnsgd1na2vs0mg"},{"bike_id":"adf74050-b3cd-46a0-8d63-eff21c39db05","system_id":"levelo_inurba_marseille","lat":43.29419,"lon":5.38629,"is_reserved":false,"is_disabled":false,"rental_uris":{"android":"levelo://app?vid=adf74050-b3cd-46a0-8d63-eff21c39db05","ios":"levelo://app?vid=adf74050-b3cd-46a0-8d63-eff21c39db05"},"vehicle_type_id":"4","last_reported":1737230890,"current_range_meters":36400,"station_id":"ce4bh2h2rcd13ifvqdh0","pricing_plan_id":"cebpf4jnsgd1na2vs0mg"},{"bike_id":"6513a447-0519-49ea-95b7-0162c7a38842","system_id":"levelo_inurba_marseille","lat":43.2953,"lon":5.39033,"is_reserved":false,"is_disabled":false,"rental_uris":{"android":"levelo://app?vid=6513a447-0519-49ea-95b7-0162c7a38842","ios":"levelo://app?vid=6513a447-0519-49ea-95b7-0162c7a38842"},"vehicle_type_id":"4","last_reported":1737230890,"current_range_meters":27600,"station_id":"ce4bh3p2rcd13ifvqdp0","pricing_plan_id":"cebpf4jnsgd1na2vs0mg"},{"bike_id":"85f535b2-9e16-42dc-942d-fee8b140de1f","system_id":"levelo_inurba_marseille","lat":43.24653,"lon":5.3889,"is_reserved":false,"is_disabled":false,"rental_uris":{"android":"levelo://app?vid=85f535b2-9e16-42dc-942d-fee8b140de1f","ios":"levelo://app?vid=85f535b2-9e16-42dc-942d-fee8b140de1f"},"vehicle_type_id":"4","last_reported":1737230890,"current_range_meters":11200,"station_id":"ce4bhg12rcd13ifvqf60","pricing_plan_id":"cebpf4jnsgd1na2vs0mg"},{"bike_id":"92ab380d-3485-4143-a7fc-baf461c7cec7","system_id":"levelo_inurba_marseille","lat":43.29511,"lon":5.39025,"is_reserved":false,"is_disabled":false,"rental_uris":{"android":"levelo://app?vid=92ab380d-3485-4143-a7fc-baf461c7cec7","ios":"levelo://app?vid=92ab380d-3485-4143-a7fc-baf461c7cec7"},"vehicle_type_id":"4","last_reported":1737230890,"current_range_meters":24800,"station_id":"ce4bh3p2rcd13ifvqdp0","pricing_plan_id":"cebpf4jnsgd1na2vs0mg"},{"bike_id":"87a7e0e7-8b76-42ad-8b60-55c9ab57f811","system_id":"levelo_inurba_marseille","lat":43.25116,"lon":5.4031,"is_reserved":false,"is_disabled":false,"rental_uris":{"android":"levelo://app?vid=87a7e0e7-8b76-42ad-8b60-55c9ab57f811","ios":"levelo://app?vid=87a7e0e7-8b76-42ad-8b60-55c9ab57f811"},"vehicle_type_id":"4","last_reported":1737230890,"current_range_meters":3200,"station_id":"ce4bhlh2rcd13ifvqgig","pricing_plan_id":"cebpf4jnsgd1na2vs0mg"},{"bike_id":"56b8e9bc-f750-4815-bc98-9098414d16db","system_id":"levelo_inurba_marseille","lat":43.23199,"lon":5.35546,"is_reserved":false,"is_disabled":true,"rental_uris":{"android":"levelo://app?vid=56b8e9bc-f750-4815-bc98-9098414d16db","ios":"levelo://app?vid=56b8e9bc-f750-4815-bc98-9098414d16db"},"vehicle_type_id":"4","last_reported":1737230890,"current_range_meters":0,"station_id":"ce4bhu92rcd13ifvqi70","pricing_plan_id":"cebpf4jnsgd1na2vs0mg"},{"bike_id":"0e91b70c-1e42-4d65-a90a-72cbd40954b0","system_id":"levelo_inurba_marseille","lat":43.3236,"lon":5.36753,"is_reserved":false,"is_disabled":false,"rental_uris":{"android":"levelo://app?vid=0e91b70c-1e42-4d65-a90a-72cbd40954b0","ios":"levelo://app?vid=0e91b70c-1e42-4d65-a90a-72cbd40954b0"},"vehicle_type_id":"4","last_reported":1737230890,"current_range_meters":9600,"station_id":"ce4bhsh2rcd13ifvqi2g","pricing_plan_id":"cebpf4jnsgd1na2vs0mg"},{"bike_id":"fcff8b6e-6484-4e4c-8d98-9ab325ed2e27","system_id":"levelo_inurba_marseille","lat":43.32487,"lon":5.36558,"is_reserved":false,"is_disabled":false,"rental_uris":{"android":"levelo://app?vid=fcff8b6e-6484-4e4c-8d98-9ab325ed2e27","ios":"levelo://app?vid=fcff8b6e-6484-4e4c-8d98-9ab325ed2e27"},"vehicle_type_id":"4","last_reported":1737230890,"current_range_meters":8800,"station_id":"ce4bhs12rcd13ifvqhvg","pricing_plan_id":"cebpf4jnsgd1na2vs0mg"},{"bike_id":"f82a92f3-88f0-4adc-92de-4c6bd3425679","system_id":"levelo_inurba_marseille","lat":43.294189,"lon":5.386166,"is_reserved":false,"is_disabled":false,"rental_uris":{"android":"levelo://app?vid=f82a92f3-88f0-4adc-92de-4c6bd3425679","ios":"levelo://app?vid=f82a92f3-88f0-4adc-92de-4c6bd3425679"},"vehicle_type_id":"4","last_reported":1737230890,"current_range_meters":14800,"station_id":"ce4bh2h2rcd13ifvqdh0","pricing_plan_id":"cebpf4jnsgd1na2vs0mg"},{"bike_id":"33983d48-8011-4fb2-9fb6-6a75b3864520","system_id":"levelo_inurba_marseille","lat":43.29162,"lon":5.3716,"is_reserved":false,"is_disabled":false,"rental_uris":{"android":"levelo://app?vid=33983d48-8011-4fb2-9fb6-6a75b3864520","ios":"levelo://app?vid=33983d48-8011-4fb2-9fb6-6a75b3864520"},"vehicle_type_id":"4","last_reported":1737230890,"current_range_meters":38000,"station_id":"ce4bha92rcd13ifvqeh0","pricing_plan_id":"cebpf4jnsgd1na2vs0mg"},{"bike_id":"109157e6-212e-4848-a8d7-cec99b3c5237","system_id":"levelo_inurba_marseille","lat":43.29081,"lon":5.37151,"is_reserved":false,"is_disabled":false,"rental_uris":{"android":"levelo://app?vid=109157e6-212e-4848-a8d7-cec99b3c5237","ios":"levelo://app?vid=109157e6-212e-4848-a8d7-cec99b3c5237"},"vehicle_type_id":"4","last_reported":1737230890,"current_range_meters":8800,"station_id":"ce4bh5p2rcd13ifvqe4g","pricing_plan_id":"cebpf4jnsgd1na2vs0mg"},{"bike_id":"10022c6b-6f76-44a0-9b15-35ae1ec37fb9","system_id":"levelo_inurba_marseille","lat":43.29528,"lon":5.38543,"is_reserved":false,"is_disabled":false,"rental_uris":{"android":"levelo://app?vid=10022c6b-6f76-44a0-9b15-35ae1ec37fb9","ios":"levelo://app?vid=10022c6b-6f76-44a0-9b15-35ae1ec37fb9"},"vehicle_type_id":"4","last_reported":1737230890,"current_range_meters":9600,"station_id":"ce4bgih2rcd13ifvqba0","pricing_plan_id":"cebpf4jnsgd1na2vs0mg"},{"bike_id":"7b75baff-291f-42e0-8894-70590c1713c6","system_id":"levelo_inurba_marseille","lat":43.28704,"lon":5.3998,"is_reserved":false,"is_disabled":false,"rental_uris":{"android":"levelo://app?vid=7b75baff-291f-42e0-8894-70590c1713c6","ios":"levelo://app?vid=7b75baff-291f-42e0-8894-70590c1713c6"},"vehicle_type_id":"4","last_reported":1737230890,"current_range_meters":18800,"station_id":"ce4bho92rcd13ifvqh3g","pricing_plan_id":"cebpf4jnsgd1na2vs0mg"},{"bike_id":"0966a8a8-2d5b-449d-8d62-52bfeeb2bcde","system_id":"levelo_inurba_marseille","lat":43.29719,"lon":5.3768,"is_reserved":false,"is_disabled":true,"rental_uris":{"android":"levelo://app?vid=0966a8a8-2d5b-449d-8d62-52bfeeb2bcde","ios":"levelo://app?vid=0966a8a8-2d5b-449d-8d62-52bfeeb2bcde"},"vehicle_type_id":"4","last_reported":1737230890,"current_range_meters":38800,"station_id":"ce4bgkh2rcd13ifvqbl0","pricing_plan_id":"cebpf4jnsgd1na2vs0mg"},{"bike_id":"22465212-93af-4e0b-b803-6ee82bba56d5","system_id":"levelo_inurba_marseille","lat":43.33759,"lon":5.3748,"is_reserved":false,"is_disabled":false,"rental_uris":{"android":"levelo://app?vid=22465212-93af-4e0b-b803-6ee82bba56d5","ios":"levelo://app?vid=22465212-93af-4e0b-b803-6ee82bba56d5"},"vehicle_type_id":"4","last_reported":1737230890,"current_range_meters":32000,"station_id":"","pricing_plan_id":"cebpf4jnsgd1na2vs0mg"},{"bike_id":"3e439118-96a4-4148-8881-566503a35b2f","system_id":"levelo_inurba_marseille","lat":43.30929,"lon":5.40146,"is_reserved":false,"is_disabled":false,"rental_uris":{"android":"levelo://app?vid=3e439118-96a4-4148-8881-566503a35b2f","ios":"levelo://app?vid=3e439118-96a4-4148-8881-566503a35b2f"},"vehicle_type_id":"4","last_reported":1737230890,"current_range_meters":32800,"station_id":"ce4bgvp2rcd13ifvqct0","pricing_plan_id":"cebpf4jnsgd1na2vs0mg"},{"bike_id":"5ff17846-36a7-43b8-be24-eaedb0e6b6f8","system_id":"levelo_inurba_marseille","lat":43.29538,"lon":5.38545,"is_reserved":false,"is_disabled":false,"rental_uris":{"android":"levelo://app?vid=5ff17846-36a7-43b8-be24-eaedb0e6b6f8","ios":"levelo://app?vid=5ff17846-36a7-43b8-be24-eaedb0e6b6f8"},"vehicle_type_id":"4","last_reported":1737230890,"current_range_meters":21600,"station_id":"ce4bgih2rcd13ifvqba0","pricing_plan_id":"cebpf4jnsgd1na2vs0mg"},{"bike_id":"19fb1931-f075-402c-a076-088e72accb76","system_id":"levelo_inurba_marseille","lat":43.24812,"lon":5.37454,"is_reserved":false,"is_disabled":false,"rental_uris":{"android":"levelo://app?vid=19fb1931-f075-402c-a076-088e72accb76","ios":"levelo://app?vid=19fb1931-f075-402c-a076-088e72accb76"},"vehicle_type_id":"4","last_reported":1737230890,"current_range_meters":14400,"station_id":"ce4bhgh2rcd13ifvqfb0","pricing_plan_id":"cebpf4jnsgd1na2vs0mg"},{"bike_id":"081f780a-421e-4d29-9981-68dbb84da5f6","system_id":"levelo_inurba_marseille","lat":43.31762,"lon":5.39011,"is_reserved":false,"is_disabled":false,"rental_uris":{"android":"levelo://app?vid=081f780a-421e-4d29-9981-68dbb84da5f6","ios":"levelo://app?vid=081f780a-421e-4d29-9981-68dbb84da5f6"},"vehicle_type_id":"4","last_reported":1737230890,"current_range_meters":38400,"station_id":"ce4bhqp2rcd13ifvqhng","pricing_plan_id":"cebpf4jnsgd1na2vs0mg"},{"bike_id":"86b1129b-34c7-4cb1-acb7-46aa8942c62c","system_id":"levelo_inurba_marseille","lat":43.23151,"lon":5.43715,"is_reserved":false,"is_disabled":true,"rental_uris":{"android":"levelo://app?vid=86b1129b-34c7-4cb1-acb7-46aa8942c62c","ios":"levelo://app?vid=86b1129b-34c7-4cb1-acb7-46aa8942c62c"},"vehicle_type_id":"4","last_reported":1737230890,"current_range_meters":0,"station_id":"ce4bhmp2rcd13ifvqgog","pricing_plan_id":"cebpf4jnsgd1na2vs0mg"},{"bike_id":"590f7295-8479-41c9-a1a1-d371a87a5aab","system_id":"levelo_inurba_marseille","lat":43.26225,"lon":5.37459,"is_reserved":false,"is_disabled":false,"rental_uris":{"android":"levelo://app?vid=590f7295-8479-41c9-a1a1-d371a87a5aab","ios":"levelo://app?vid=590f7295-8479-41c9-a1a1-d371a87a5aab"},"vehicle_type_id":"4","last_reported":1737230890,"current_range_meters":9200,"station_id":"ce4bhgp2rcd13ifvqfc0","pricing_plan_id":"cebpf4jnsgd1na2vs0mg"},{"bike_id":"088e1344-51d2-4895-8a85-e57bb6831a61","system_id":"levelo_inurba_marseille","lat":43.2989,"lon":5.38903,"is_reserved":false,"is_disabled":false,"rental_uris":{"android":"levelo://app?vid=088e1344-51d2-4895-8a85-e57bb6831a61","ios":"levelo://app?vid=088e1344-51d2-4895-8a85-e57bb6831a61"},"vehicle_type_id":"4","last_reported":1737230890,"current_range_meters":12800,"station_id":"ce4bh392rcd13ifvqdl0","pricing_plan_id":"cebpf4jnsgd1na2vs0mg"},{"bike_id":"0a3b5238-d1e9-4715-a08c-7107b961f7e7","system_id":"levelo_inurba_marseille","lat":43.29551,"lon":5.42271,"is_reserved":false,"is_disabled":true,"rental_uris":{"android":"levelo://app?vid=0a3b5238-d1e9-4715-a08c-7107b961f7e7","ios":"levelo://app?vid=0a3b5238-d1e9-4715-a08c-7107b961f7e7"},"vehicle_type_id":"4","last_reported":1737230890,"current_range_meters":800,"station_id":"ce4bhph2rcd13ifvqhdg","pricing_plan_id":"cebpf4jnsgd1na2vs0mg"},{"bike_id":"d9c5424c-2ffb-407d-aa3f-ecdabb59fa0b","system_id":"levelo_inurba_marseille","lat":43.29054,"lon":5.37174,"is_reserved":false,"is_disabled":false,"rental_uris":{"android":"levelo://app?vid=d9c5424c-2ffb-407d-aa3f-ecdabb59fa0b","ios":"levelo://app?vid=d9c5424c-2ffb-407d-aa3f-ecdabb59fa0b"},"vehicle_type_id":"4","last_reported":1737230890,"current_range_meters":19600,"station_id":"ce4bh5p2rcd13ifvqe4g","pricing_plan_id":"cebpf4jnsgd1na2vs0mg"},{"bike_id":"42204394-d4a6-4814-b25b-626fdb434ebb","system_id":"levelo_inurba_marseille","lat":43.29421,"lon":5.38626,"is_reserved":false,"is_disabled":false,"rental_uris":{"android":"levelo://app?vid=42204394-d4a6-4814-b25b-626fdb434ebb","ios":"levelo://app?vid=42204394-d4a6-4814-b25b-626fdb434ebb"},"vehicle_type_id":"4","last_reported":1737230890,"current_range_meters":28800,"station_id":"ce4bh2h2rcd13ifvqdh0","pricing_plan_id":"cebpf4jnsgd1na2vs0mg"},{"bike_id":"c6f874ed-7baa-4ffa-b8dc-93b47368c64c","system_id":"levelo_inurba_marseille","lat":43.27373,"lon":5.36237,"is_reserved":false,"is_disabled":false,"rental_uris":{"android":"levelo://app?vid=c6f874ed-7baa-4ffa-b8dc-93b47368c64c","ios":"levelo://app?vid=c6f874ed-7baa-4ffa-b8dc-93b47368c64c"},"vehicle_type_id":"4","last_reported":1737230890,"current_range_meters":35600,"station_id":"ce4bhbh2rcd13ifvqeo0","pricing_plan_id":"cebpf4jnsgd1na2vs0mg"},{"bike_id":"82eafdac-bd81-479d-a7b0-05db8ca76c26","system_id":"levelo_inurba_marseille","lat":43.25833,"lon":5.39419,"is_reserved":false,"is_disabled":true,"rental_uris":{"android":"levelo://app?vid=82eafdac-bd81-479d-a7b0-05db8ca76c26","ios":"levelo://app?vid=82eafdac-bd81-479d-a7b0-05db8ca76c26"},"vehicle_type_id":"4","last_reported":1737230890,"current_range_meters":0,"station_id":"ce4bhip2rcd13ifvqft0","pricing_plan_id":"cebpf4jnsgd1na2vs0mg"},{"bike_id":"69f71ef4-35ff-491f-b999-c5850f4e11bb","system_id":"levelo_inurba_marseille","lat":43.29414,"lon":5.38626,"is_reserved":false,"is_disabled":false,"rental_uris":{"android":"levelo://app?vid=69f71ef4-35ff-491f-b999-c5850f4e11bb","ios":"levelo://app?vid=69f71ef4-35ff-491f-b999-c5850f4e11bb"},"vehicle_type_id":"4","last_reported":1737230890,"current_range_meters":24800,"station_id":"ce4bh2h2rcd13ifvqdh0","pricing_plan_id":"cebpf4jnsgd1na2vs0mg"},{"bike_id":"0d51cdbb-323f-4a82-9d51-32fc344d7fab","system_id":"levelo_inurba_marseille","lat":43.2927,"lon":5.36837,"is_reserved":false,"is_disabled":false,"rental_uris":{"android":"levelo://app?vid=0d51cdbb-323f-4a82-9d51-32fc344d7fab","ios":"levelo://app?vid=0d51cdbb-323f-4a82-9d51-32fc344d7fab"},"vehicle_type_id":"4","last_reported":1737230890,"current_range_meters":6400,"station_id":"ce4bhbp2rcd13ifvqesg","pricing_plan_id":"cebpf4jnsgd1na2vs0mg"},{"bike_id":"e63dbaa0-48fa-47bb-8b50-740c4c2aabb9","system_id":"levelo_inurba_marseille","lat":43.27055,"lon":5.40257,"is_reserved":false,"is_disabled":true,"rental_uris":{"android":"levelo://app?vid=e63dbaa0-48fa-47bb-8b50-740c4c2aabb9","ios":"levelo://app?vid=e63dbaa0-48fa-47bb-8b50-740c4c2aabb9"},"vehicle_type_id":"4","last_reported":1737230890,"current_range_meters":800,"station_id":"ce4bhk92rcd13ifvqgc0","pricing_plan_id":"cebpf4jnsgd1na2vs0mg"},{"bike_id":"4d7d612d-2681-4466-9c70-437a67dc62ff","system_id":"levelo_inurba_marseille","lat":43.25115,"lon":5.40309,"is_reserved":false,"is_disabled":false,"rental_uris":{"android":"levelo://app?vid=4d7d612d-2681-4466-9c70-437a67dc62ff","ios":"levelo://app?vid=4d7d612d-2681-4466-9c70-437a67dc62ff"},"vehicle_type_id":"4","last_reported":1737230890,"current_range_meters":34000,"station_id":"ce4bhlh2rcd13ifvqgig","pricing_plan_id":"cebpf4jnsgd1na2vs0mg"},{"bike_id":"dbc86b5e-18c8-40eb-9003-4f7449bfaafa","system_id":"levelo_inurba_marseille","lat":43.276776,"lon":5.388846,"is_reserved":false,"is_disabled":false,"rental_uris":{"android":"levelo://app?vid=dbc86b5e-18c8-40eb-9003-4f7449bfaafa","ios":"levelo://app?vid=dbc86b5e-18c8-40eb-9003-4f7449bfaafa"},"vehicle_type_id":"4","last_reported":1737230890,"current_range_meters":20000,"station_id":"ce4bhi12rcd13ifvqfo0","pricing_plan_id":"cebpf4jnsgd1na2vs0mg"},{"bike_id":"f2390374-e060-4fe1-bcfa-cb2711193e58","system_id":"levelo_inurba_marseille","lat":43.2509,"lon":5.39502,"is_reserved":false,"is_disabled":false,"rental_uris":{"android":"levelo://app?vid=f2390374-e060-4fe1-bcfa-cb2711193e58","ios":"levelo://app?vid=f2390374-e060-4fe1-bcfa-cb2711193e58"},"vehicle_type_id":"4","last_reported":1737230890,"current_range_meters":9200,"station_id":"ce4bhm12rcd13ifvqgkg","pricing_plan_id":"cebpf4jnsgd1na2vs0mg"},{"bike_id":"6d012c6f-a8f9-4b63-8961-c582a9415cf2","system_id":"levelo_inurba_marseille","lat":43.29033,"lon":5.39975,"is_reserved":false,"is_disabled":false,"rental_uris":{"android":"levelo://app?vid=6d012c6f-a8f9-4b63-8961-c582a9415cf2","ios":"levelo://app?vid=6d012c6f-a8f9-4b63-8961-c582a9415cf2"},"vehicle_type_id":"4","last_reported":1737230890,"current_range_meters":12800,"station_id":"ce4bh392rcd13ifvqdm0","pricing_plan_id":"cebpf4jnsgd1na2vs0mg"},{"bike_id":"2e517ca1-ba24-431e-8266-76e6b81e615b","system_id":"levelo_inurba_marseille","lat":43.29419,"lon":5.38625,"is_reserved":false,"is_disabled":false,"rental_uris":{"android":"levelo://app?vid=2e517ca1-ba24-431e-8266-76e6b81e615b","ios":"levelo://app?vid=2e517ca1-ba24-431e-8266-76e6b81e615b"},"vehicle_type_id":"4","last_reported":1737230890,"current_range_meters":30400,"station_id":"ce4bh2h2rcd13ifvqdh0","pricing_plan_id":"cebpf4jnsgd1na2vs0mg"},{"bike_id":"500603b8-9c9f-45d0-9559-dd810ee253ec","system_id":"levelo_inurba_marseille","lat":43.29261,"lon":5.38443,"is_reserved":false,"is_disabled":false,"rental_uris":{"android":"levelo://app?vid=500603b8-9c9f-45d0-9559-dd810ee253ec","ios":"levelo://app?vid=500603b8-9c9f-45d0-9559-dd810ee253ec"},"vehicle_type_id":"4","last_reported":1737230890,"current_range_meters":27600,"station_id":"ce4bh692rcd13ifvqea0","pricing_plan_id":"cebpf4jnsgd1na2vs0mg"},{"bike_id":"d6161db6-0288-4eaf-b39b-605e25ca46ff","system_id":"levelo_inurba_marseille","lat":43.27429,"lon":5.39405,"is_reserved":false,"is_disabled":true,"rental_uris":{"android":"levelo://app?vid=d6161db6-0288-4eaf-b39b-605e25ca46ff","ios":"levelo://app?vid=d6161db6-0288-4eaf-b39b-605e25ca46ff"},"vehicle_type_id":"4","last_reported":1737230890,"current_range_meters":0,"station_id":"ce4bhdp2rcd13ifvqf20","pricing_plan_id":"cebpf4jnsgd1na2vs0mg"},{"bike_id":"c87bd272-e537-4ca8-8621-88fd6bdfad6e","system_id":"levelo_inurba_marseille","lat":43.2901,"lon":5.38127,"is_reserved":false,"is_disabled":false,"rental_uris":{"android":"levelo://app?vid=c87bd272-e537-4ca8-8621-88fd6bdfad6e","ios":"levelo://app?vid=c87bd272-e537-4ca8-8621-88fd6bdfad6e"},"vehicle_type_id":"4","last_reported":1737230890,"current_range_meters":27600,"station_id":"ce4bh4p2rcd13ifvqe1g","pricing_plan_id":"cebpf4jnsgd1na2vs0mg"},{"bike_id":"4988cc9c-727f-4393-b2ce-59711f8ea0a8","system_id":"levelo_inurba_marseille","lat":43.29417,"lon":5.38623,"is_reserved":false,"is_disabled":false,"rental_uris":{"android":"levelo://app?vid=4988cc9c-727f-4393-b2ce-59711f8ea0a8","ios":"levelo://app?vid=4988cc9c-727f-4393-b2ce-59711f8ea0a8"},"vehicle_type_id":"4","last_reported":1737230890,"current_range_meters":26800,"station_id":"ce4bh2h2rcd13ifvqdh0","pricing_plan_id":"cebpf4jnsgd1na2vs0mg"},{"bike_id":"286a3f5f-47c7-4d49-b3d9-bdbca78ddca8","system_id":"levelo_inurba_marseille","lat":43.29518,"lon":5.39029,"is_reserved":false,"is_disabled":false,"rental_uris":{"android":"levelo://app?vid=286a3f5f-47c7-4d49-b3d9-bdbca78ddca8","ios":"levelo://app?vid=286a3f5f-47c7-4d49-b3d9-bdbca78ddca8"},"vehicle_type_id":"4","last_reported":1737230890,"current_range_meters":32400,"station_id":"ce4bh3p2rcd13ifvqdp0","pricing_plan_id":"cebpf4jnsgd1na2vs0mg"},{"bike_id":"127cf673-d8af-46e5-96fa-f6b4f37f1082","system_id":"levelo_inurba_marseille","lat":43.30655,"lon":5.40085,"is_reserved":false,"is_disabled":false,"rental_uris":{"android":"levelo://app?vid=127cf673-d8af-46e5-96fa-f6b4f37f1082","ios":"levelo://app?vid=127cf673-d8af-46e5-96fa-f6b4f37f1082"},"vehicle_type_id":"4","last_reported":1737230890,"current_range_meters":38800,"station_id":"ce4bh112rcd13ifvqda0","pricing_plan_id":"cebpf4jnsgd1na2vs0mg"},{"bike_id":"2a6c8aef-7633-4410-aa65-ead7161fa29b","system_id":"levelo_inurba_marseille","lat":43.31261,"lon":5.36879,"is_reserved":false,"is_disabled":false,"rental_uris":{"android":"levelo://app?vid=2a6c8aef-7633-4410-aa65-ead7161fa29b","ios":"levelo://app?vid=2a6c8aef-7633-4410-aa65-ead7161fa29b"},"vehicle_type_id":"4","last_reported":1737230890,"current_range_meters":36800,"station_id":"ce4bgl92rcd13ifvqbq0","pricing_plan_id":"cebpf4jnsgd1na2vs0mg"},{"bike_id":"1e43f0f8-4119-4f43-9f7c-8fe98515c149","system_id":"levelo_inurba_marseille","lat":43.30882,"lon":5.372,"is_reserved":false,"is_disabled":false,"rental_uris":{"android":"levelo://app?vid=1e43f0f8-4119-4f43-9f7c-8fe98515c149","ios":"levelo://app?vid=1e43f0f8-4119-4f43-9f7c-8fe98515c149"},"vehicle_type_id":"4","last_reported":1737230890,"current_range_meters":38000,"station_id":"ce4bguh2rcd13ifvqckg","pricing_plan_id":"cebpf4jnsgd1na2vs0mg"},{"bike_id":"1d3dc000-19d5-4e10-a120-c47c29384960","system_id":"levelo_inurba_marseille","lat":43.29967,"lon":5.38496,"is_reserved":false,"is_disabled":false,"rental_uris":{"android":"levelo://app?vid=1d3dc000-19d5-4e10-a120-c47c29384960","ios":"levelo://app?vid=1d3dc000-19d5-4e10-a120-c47c29384960"},"vehicle_type_id":"4","last_reported":1737230890,"current_range_meters":28800,"station_id":"ce4bgj92rcd13ifvqbd0","pricing_plan_id":"cebpf4jnsgd1na2vs0mg"},{"bike_id":"a95248e8-7ba2-479e-9b5c-9fb4d8e98c2b","system_id":"levelo_inurba_marseille","lat":43.28097,"lon":5.42181,"is_reserved":false,"is_disabled":true,"rental_uris":{"android":"levelo://app?vid=a95248e8-7ba2-479e-9b5c-9fb4d8e98c2b","ios":"levelo://app?vid=a95248e8-7ba2-479e-9b5c-9fb4d8e98c2b"},"vehicle_type_id":"4","last_reported":1737230890,"current_range_meters":0,"station_id":"","pricing_plan_id":"cebpf4jnsgd1na2vs0mg"},{"bike_id":"246f2aa1-d855-40ee-b8e2-0e541013d632","system_id":"levelo_inurba_marseille","lat":43.27809,"lon":5.40704,"is_reserved":false,"is_disabled":true,"rental_uris":{"android":"levelo://app?vid=246f2aa1-d855-40ee-b8e2-0e541013d632","ios":"levelo://app?vid=246f2aa1-d855-40ee-b8e2-0e541013d632"},"vehicle_type_id":"4","last_reported":1737230890,"current_range_meters":0,"station_id":"ce4bhnh2rcd13ifvqgtg","pricing_plan_id":"cebpf4jnsgd1na2vs0mg"},{"bike_id":"87cefc3a-e36a-4030-9c3f-9fc87455f3e3","system_id":"levelo_inurba_marseille","lat":43.27374,"lon":5.36228,"is_reserved":false,"is_disabled":false,"rental_uris":{"android":"levelo://app?vid=87cefc3a-e36a-4030-9c3f-9fc87455f3e3","ios":"levelo://app?vid=87cefc3a-e36a-4030-9c3f-9fc87455f3e3"},"vehicle_type_id":"4","last_reported":1737230890,"current_range_meters":38800,"station_id":"ce4bhbh2rcd13ifvqeo0","pricing_plan_id":"cebpf4jnsgd1na2vs0mg"},{"bike_id":"c011cdfe-c530-4883-ad17-1d67f4a9aa6b","system_id":"levelo_inurba_marseille","lat":43.29896,"lon":5.4367,"is_reserved":false,"is_disabled":false,"rental_uris":{"android":"levelo://app?vid=c011cdfe-c530-4883-ad17-1d67f4a9aa6b","ios":"levelo://app?vid=c011cdfe-c530-4883-ad17-1d67f4a9aa6b"},"vehicle_type_id":"4","last_reported":1737230890,"current_range_meters":29600,"station_id":"ce4bhpp2rcd13ifvqhfg","pricing_plan_id":"cebpf4jnsgd1na2vs0mg"},{"bike_id":"c5fd4115-ef9b-417b-9a07-50ba619cdb53","system_id":"levelo_inurba_marseille","lat":43.3019,"lon":5.39472,"is_reserved":false,"is_disabled":false,"rental_uris":{"android":"levelo://app?vid=c5fd4115-ef9b-417b-9a07-50ba619cdb53","ios":"levelo://app?vid=c5fd4115-ef9b-417b-9a07-50ba619cdb53"},"vehicle_type_id":"4","last_reported":1737230890,"current_range_meters":36000,"station_id":"ce4bh0p2rcd13ifvqd70","pricing_plan_id":"cebpf4jnsgd1na2vs0mg"},{"bike_id":"31299844-262c-4682-99b0-615cb1ab11a2","system_id":"levelo_inurba_marseille","lat":43.27495,"lon":5.42445,"is_reserved":false,"is_disabled":false,"rental_uris":{"android":"levelo://app?vid=31299844-262c-4682-99b0-615cb1ab11a2","ios":"levelo://app?vid=31299844-262c-4682-99b0-615cb1ab11a2"},"vehicle_type_id":"4","last_reported":1737230890,"current_range_meters":33600,"station_id":"ce4bhn92rcd13ifvqgrg","pricing_plan_id":"cebpf4jnsgd1na2vs0mg"},{"bike_id":"4abb63f6-cf8d-4c9e-a79f-9848d6633504","system_id":"levelo_inurba_marseille","lat":43.26549,"lon":5.37277,"is_reserved":false,"is_disabled":false,"rental_uris":{"android":"levelo://app?vid=4abb63f6-cf8d-4c9e-a79f-9848d6633504","ios":"levelo://app?vid=4abb63f6-cf8d-4c9e-a79f-9848d6633504"},"vehicle_type_id":"4","last_reported":1737230890,"current_range_meters":27200,"station_id":"ce4bhg12rcd13ifvqf70","pricing_plan_id":"cebpf4jnsgd1na2vs0mg"},{"bike_id":"2189f33e-4cfd-4f76-9d91-913095d551c4","system_id":"levelo_inurba_marseille","lat":43.303517,"lon":5.390954,"is_reserved":false,"is_disabled":true,"rental_uris":{"android":"levelo://app?vid=2189f33e-4cfd-4f76-9d91-913095d551c4","ios":"levelo://app?vid=2189f33e-4cfd-4f76-9d91-913095d551c4"},"vehicle_type_id":"4","last_reported":1737230890,"current_range_meters":0,"station_id":"","pricing_plan_id":"cebpf4jnsgd1na2vs0mg"},{"bike_id":"775fce01-a83f-4016-882a-81308bf9971d","system_id":"levelo_inurba_marseille","lat":43.3042,"lon":5.38889,"is_reserved":false,"is_disabled":false,"rental_uris":{"android":"levelo://app?vid=775fce01-a83f-4016-882a-81308bf9971d","ios":"levelo://app?vid=775fce01-a83f-4016-882a-81308bf9971d"},"vehicle_type_id":"4","last_reported":1737230890,"current_range_meters":26000,"station_id":"ce4bgk12rcd13ifvqbi0","pricing_plan_id":"cebpf4jnsgd1na2vs0mg"},{"bike_id":"7ad09bfd-14c1-4e1b-9435-357dfa484d4b","system_id":"levelo_inurba_marseille","lat":43.28714,"lon":5.39982,"is_reserved":false,"is_disabled":false,"rental_uris":{"android":"levelo://app?vid=7ad09bfd-14c1-4e1b-9435-357dfa484d4b","ios":"levelo://app?vid=7ad09bfd-14c1-4e1b-9435-357dfa484d4b"},"vehicle_type_id":"4","last_reported":1737230890,"current_range_meters":34800,"station_id":"ce4bho92rcd13ifvqh3g","pricing_plan_id":"cebpf4jnsgd1na2vs0mg"},{"bike_id":"541b7769-8083-411e-ad4d-d20a4dfa7b91","system_id":"levelo_inurba_marseille","lat":43.31279,"lon":5.40154,"is_reserved":false,"is_disabled":false,"rental_uris":{"android":"levelo://app?vid=541b7769-8083-411e-ad4d-d20a4dfa7b91","ios":"levelo://app?vid=541b7769-8083-411e-ad4d-d20a4dfa7b91"},"vehicle_type_id":"4","last_reported":1737230890,"current_range_meters":36800,"station_id":"ce4bh092rcd13ifvqd30","pricing_plan_id":"cebpf4jnsgd1na2vs0mg"},{"bike_id":"69f9c60d-16b0-4f31-b388-1bfb286777d8","system_id":"levelo_inurba_marseille","lat":43.28263,"lon":5.35061,"is_reserved":false,"is_disabled":false,"rental_uris":{"android":"levelo://app?vid=69f9c60d-16b0-4f31-b388-1bfb286777d8","ios":"levelo://app?vid=69f9c60d-16b0-4f31-b388-1bfb286777d8"},"vehicle_type_id":"4","last_reported":1737230890,"current_range_meters":10800,"station_id":"ce4bhbp2rcd13ifvqerg","pricing_plan_id":"cebpf4jnsgd1na2vs0mg"},{"bike_id":"b6e9ed0e-09a2-494a-b501-e1a16c83cef4","system_id":"levelo_inurba_marseille","lat":43.29617,"lon":5.3771,"is_reserved":false,"is_disabled":false,"rental_uris":{"android":"levelo://app?vid=b6e9ed0e-09a2-494a-b501-e1a16c83cef4","ios":"levelo://app?vid=b6e9ed0e-09a2-494a-b501-e1a16c83cef4"},"vehicle_type_id":"4","last_reported":1737230890,"current_range_meters":32400,"station_id":"ce4bgi92rcd13ifvqb90","pricing_plan_id":"cebpf4jnsgd1na2vs0mg"},{"bike_id":"0d5bf58b-8962-4322-87c4-754920ec04ac","system_id":"levelo_inurba_marseille","lat":43.31207,"lon":5.38708,"is_reserved":false,"is_disabled":true,"rental_uris":{"android":"levelo://app?vid=0d5bf58b-8962-4322-87c4-754920ec04ac","ios":"levelo://app?vid=0d5bf58b-8962-4322-87c4-754920ec04ac"},"vehicle_type_id":"4","last_reported":1737230890,"current_range_meters":35600,"station_id":"ce4bgv12rcd13ifvqcp0","pricing_plan_id":"cebpf4jnsgd1na2vs0mg"},{"bike_id":"c92cbb9f-5a8c-4f30-b00a-221ba31b944d","system_id":"levelo_inurba_marseille","lat":43.284263,"lon":5.34981,"is_reserved":false,"is_disabled":true,"rental_uris":{"android":"levelo://app?vid=c92cbb9f-5a8c-4f30-b00a-221ba31b944d","ios":"levelo://app?vid=c92cbb9f-5a8c-4f30-b00a-221ba31b944d"},"vehicle_type_id":"4","last_reported":1737230890,"current_range_meters":35200,"station_id":"ce4bhbh2rcd13ifvqepg","pricing_plan_id":"cebpf4jnsgd1na2vs0mg"},{"bike_id":"74174039-b131-431a-8561-6b988a19a029","system_id":"levelo_inurba_marseille","lat":43.31222,"lon":5.36849,"is_reserved":false,"is_disabled":false,"rental_uris":{"android":"levelo://app?vid=74174039-b131-431a-8561-6b988a19a029","ios":"levelo://app?vid=74174039-b131-431a-8561-6b988a19a029"},"vehicle_type_id":"4","last_reported":1737230890,"current_range_meters":22800,"station_id":"ce4bgl92rcd13ifvqbq0","pricing_plan_id":"cebpf4jnsgd1na2vs0mg"},{"bike_id":"f928f9d6-2083-49a3-af2f-59474c5a2832","system_id":"levelo_inurba_marseille","lat":43.28934,"lon":5.38372,"is_reserved":false,"is_disabled":false,"rental_uris":{"android":"levelo://app?vid=f928f9d6-2083-49a3-af2f-59474c5a2832","ios":"levelo://app?vid=f928f9d6-2083-49a3-af2f-59474c5a2832"},"vehicle_type_id":"4","last_reported":1737230890,"current_range_meters":38800,"station_id":"ce4bh612rcd13ifvqe6g","pricing_plan_id":"cebpf4jnsgd1na2vs0mg"},{"bike_id":"2aa7af5c-8cdd-4fa3-b9ba-896e4268a6da","system_id":"levelo_inurba_marseille","lat":43.29535,"lon":5.38537,"is_reserved":false,"is_disabled":false,"rental_uris":{"android":"levelo://app?vid=2aa7af5c-8cdd-4fa3-b9ba-896e4268a6da","ios":"levelo://app?vid=2aa7af5c-8cdd-4fa3-b9ba-896e4268a6da"},"vehicle_type_id":"4","last_reported":1737230890,"current_range_meters":20400,"station_id":"ce4bgih2rcd13ifvqba0","pricing_plan_id":"cebpf4jnsgd1na2vs0mg"},{"bike_id":"fe90f7a6-3920-456a-9451-50d213b7000f","system_id":"levelo_inurba_marseille","lat":43.28469,"lon":5.38414,"is_reserved":false,"is_disabled":true,"rental_uris":{"android":"levelo://app?vid=fe90f7a6-3920-456a-9451-50d213b7000f","ios":"levelo://app?vid=fe90f7a6-3920-456a-9451-50d213b7000f"},"vehicle_type_id":"4","last_reported":1737230890,"current_range_meters":36000,"station_id":"ce4bh512rcd13ifvqe3g","pricing_plan_id":"cebpf4jnsgd1na2vs0mg"},{"bike_id":"c75a57a1-600f-4935-a0b3-f42bde8268df","system_id":"levelo_inurba_marseille","lat":43.29887,"lon":5.43622,"is_reserved":false,"is_disabled":false,"rental_uris":{"android":"levelo://app?vid=c75a57a1-600f-4935-a0b3-f42bde8268df","ios":"levelo://app?vid=c75a57a1-600f-4935-a0b3-f42bde8268df"},"vehicle_type_id":"4","last_reported":1737230890,"current_range_meters":14400,"station_id":"ce4bhpp2rcd13ifvqhfg","pricing_plan_id":"cebpf4jnsgd1na2vs0mg"},{"bike_id":"4eadf36c-a133-47d0-834f-7163aa503c9b","system_id":"levelo_inurba_marseille","lat":43.28473,"lon":5.38451,"is_reserved":false,"is_disabled":false,"rental_uris":{"android":"levelo://app?vid=4eadf36c-a133-47d0-834f-7163aa503c9b","ios":"levelo://app?vid=4eadf36c-a133-47d0-834f-7163aa503c9b"},"vehicle_type_id":"4","last_reported":1737230890,"current_range_meters":38800,"station_id":"ce4bh512rcd13ifvqe3g","pricing_plan_id":"cebpf4jnsgd1na2vs0mg"},{"bike_id":"a1993e4b-dda2-4a49-8512-d9258ad20858","system_id":"levelo_inurba_marseille","lat":43.299313,"lon":5.382199,"is_reserved":false,"is_disabled":false,"rental_uris":{"android":"levelo://app?vid=a1993e4b-dda2-4a49-8512-d9258ad20858","ios":"levelo://app?vid=a1993e4b-dda2-4a49-8512-d9258ad20858"},"vehicle_type_id":"4","last_reported":1737230890,"current_range_meters":30000,"station_id":"","pricing_plan_id":"cebpf4jnsgd1na2vs0mg"},{"bike_id":"8051766a-2e5c-40e6-9412-9c148f4bb588","system_id":"levelo_inurba_marseille","lat":43.29772,"lon":5.39336,"is_reserved":false,"is_disabled":false,"rental_uris":{"android":"levelo://app?vid=8051766a-2e5c-40e6-9412-9c148f4bb588","ios":"levelo://app?vid=8051766a-2e5c-40e6-9412-9c148f4bb588"},"vehicle_type_id":"4","last_reported":1737230890,"current_range_meters":30400,"station_id":"chh1huq6cuj3fo74tm60","pricing_plan_id":"cebpf4jnsgd1na2vs0mg"},{"bike_id":"62b8620f-2bad-4b99-86b6-3ecbfb1fb840","system_id":"levelo_inurba_marseille","lat":43.30133,"lon":5.3877,"is_reserved":false,"is_disabled":false,"rental_uris":{"android":"levelo://app?vid=62b8620f-2bad-4b99-86b6-3ecbfb1fb840","ios":"levelo://app?vid=62b8620f-2bad-4b99-86b6-3ecbfb1fb840"},"vehicle_type_id":"4","last_reported":1737230890,"current_range_meters":38800,"station_id":"ce4bghh2rcd13ifvqb60","pricing_plan_id":"cebpf4jnsgd1na2vs0mg"},{"bike_id":"72228094-49b3-460e-b831-c519bdace46a","system_id":"levelo_inurba_marseille","lat":43.29175,"lon":5.37139,"is_reserved":false,"is_disabled":false,"rental_uris":{"android":"levelo://app?vid=72228094-49b3-460e-b831-c519bdace46a","ios":"levelo://app?vid=72228094-49b3-460e-b831-c519bdace46a"},"vehicle_type_id":"4","last_reported":1737230890,"current_range_meters":28000,"station_id":"ce4bha92rcd13ifvqeh0","pricing_plan_id":"cebpf4jnsgd1na2vs0mg"},{"bike_id":"c061ede7-b3fd-444f-a23f-99070886db7b","system_id":"levelo_inurba_marseille","lat":43.29412,"lon":5.38628,"is_reserved":false,"is_disabled":false,"rental_uris":{"android":"levelo://app?vid=c061ede7-b3fd-444f-a23f-99070886db7b","ios":"levelo://app?vid=c061ede7-b3fd-444f-a23f-99070886db7b"},"vehicle_type_id":"4","last_reported":1737230890,"current_range_meters":20400,"station_id":"ce4bh2h2rcd13ifvqdh0","pricing_plan_id":"cebpf4jnsgd1na2vs0mg"},{"bike_id":"a9a0e60f-8e94-490a-988c-5a9cfc45d626","system_id":"levelo_inurba_marseille","lat":43.241731,"lon":5.363927,"is_reserved":false,"is_disabled":false,"rental_uris":{"android":"levelo://app?vid=a9a0e60f-8e94-490a-988c-5a9cfc45d626","ios":"levelo://app?vid=a9a0e60f-8e94-490a-988c-5a9cfc45d626"},"vehicle_type_id":"4","last_reported":1737230890,"current_range_meters":9600,"station_id":"cpo36qri1sfpv3e86is0","pricing_plan_id":"cebpf4jnsgd1na2vs0mg"},{"bike_id":"cb6ebb97-4c0f-402f-8b52-501a56fedcec","system_id":"levelo_inurba_marseille","lat":43.29531,"lon":5.38541,"is_reserved":false,"is_disabled":false,"rental_uris":{"android":"levelo://app?vid=cb6ebb97-4c0f-402f-8b52-501a56fedcec","ios":"levelo://app?vid=cb6ebb97-4c0f-402f-8b52-501a56fedcec"},"vehicle_type_id":"4","last_reported":1737230890,"current_range_meters":14800,"station_id":"ce4bgih2rcd13ifvqba0","pricing_plan_id":"cebpf4jnsgd1na2vs0mg"},{"bike_id":"5136cca2-dc79-42d5-a096-5120a2626c68","system_id":"levelo_inurba_marseille","lat":43.3093,"lon":5.40141,"is_reserved":false,"is_disabled":false,"rental_uris":{"android":"levelo://app?vid=5136cca2-dc79-42d5-a096-5120a2626c68","ios":"levelo://app?vid=5136cca2-dc79-42d5-a096-5120a2626c68"},"vehicle_type_id":"4","last_reported":1737230890,"current_range_meters":38800,"station_id":"ce4bgvp2rcd13ifvqct0","pricing_plan_id":"cebpf4jnsgd1na2vs0mg"},{"bike_id":"76dbf6ef-b4a8-4cef-8918-462b67116819","system_id":"levelo_inurba_marseille","lat":43.32282,"lon":5.38268,"is_reserved":false,"is_disabled":false,"rental_uris":{"android":"levelo://app?vid=76dbf6ef-b4a8-4cef-8918-462b67116819","ios":"levelo://app?vid=76dbf6ef-b4a8-4cef-8918-462b67116819"},"vehicle_type_id":"4","last_reported":1737230890,"current_range_meters":38800,"station_id":"ce4bhr12rcd13ifvqhqg","pricing_plan_id":"cebpf4jnsgd1na2vs0mg"},{"bike_id":"57198719-926f-40a5-bdfa-a0e2303ea3cd","system_id":"levelo_inurba_marseille","lat":43.25866,"lon":5.39918,"is_reserved":false,"is_disabled":false,"rental_uris":{"android":"levelo://app?vid=57198719-926f-40a5-bdfa-a0e2303ea3cd","ios":"levelo://app?vid=57198719-926f-40a5-bdfa-a0e2303ea3cd"},"vehicle_type_id":"4","last_reported":1737230890,"current_range_meters":38800,"station_id":"ce4bhl92rcd13ifvqghg","pricing_plan_id":"cebpf4jnsgd1na2vs0mg"},{"bike_id":"519e6aeb-4661-40b0-a9a0-273b8f0290d7","system_id":"levelo_inurba_marseille","lat":43.28491,"lon":5.38533,"is_reserved":false,"is_disabled":false,"rental_uris":{"android":"levelo://app?vid=519e6aeb-4661-40b0-a9a0-273b8f0290d7","ios":"levelo://app?vid=519e6aeb-4661-40b0-a9a0-273b8f0290d7"},"vehicle_type_id":"4","last_reported":1737230890,"current_range_meters":38800,"station_id":"ce4bh8p2rcd13ifvqeb0","pricing_plan_id":"cebpf4jnsgd1na2vs0mg"},{"bike_id":"8937c1c8-562a-495c-8124-976682d2ff2f","system_id":"levelo_inurba_marseille","lat":43.30928,"lon":5.40139,"is_reserved":false,"is_disabled":false,"rental_uris":{"android":"levelo://app?vid=8937c1c8-562a-495c-8124-976682d2ff2f","ios":"levelo://app?vid=8937c1c8-562a-495c-8124-976682d2ff2f"},"vehicle_type_id":"4","last_reported":1737230890,"current_range_meters":38400,"station_id":"ce4bgvp2rcd13ifvqct0","pricing_plan_id":"cebpf4jnsgd1na2vs0mg"},{"bike_id":"5539b369-041f-4e38-b0f8-84b8e3d28513","system_id":"levelo_inurba_marseille","lat":43.2926,"lon":5.38443,"is_reserved":false,"is_disabled":false,"rental_uris":{"android":"levelo://app?vid=5539b369-041f-4e38-b0f8-84b8e3d28513","ios":"levelo://app?vid=5539b369-041f-4e38-b0f8-84b8e3d28513"},"vehicle_type_id":"4","last_reported":1737230890,"current_range_meters":17200,"station_id":"ce4bh692rcd13ifvqea0","pricing_plan_id":"cebpf4jnsgd1na2vs0mg"},{"bike_id":"a6614ad9-36c5-4782-88c4-6856e10e703c","system_id":"levelo_inurba_marseille","lat":43.31486,"lon":5.37297,"is_reserved":false,"is_disabled":false,"rental_uris":{"android":"levelo://app?vid=a6614ad9-36c5-4782-88c4-6856e10e703c","ios":"levelo://app?vid=a6614ad9-36c5-4782-88c4-6856e10e703c"},"vehicle_type_id":"4","last_reported":1737230890,"current_range_meters":3200,"station_id":"ce4bgt12rcd13ifvqcd0","pricing_plan_id":"cebpf4jnsgd1na2vs0mg"},{"bike_id":"50267a36-8428-4ee1-ac27-ac6a771a71af","system_id":"levelo_inurba_marseille","lat":43.33697,"lon":5.35587,"is_reserved":false,"is_disabled":false,"rental_uris":{"android":"levelo://app?vid=50267a36-8428-4ee1-ac27-ac6a771a71af","ios":"levelo://app?vid=50267a36-8428-4ee1-ac27-ac6a771a71af"},"vehicle_type_id":"4","last_reported":1737230890,"current_range_meters":8400,"station_id":"","pricing_plan_id":"cebpf4jnsgd1na2vs0mg"},{"bike_id":"83acf03d-4361-4d37-a7b4-d811e40a9d18","system_id":"levelo_inurba_marseille","lat":43.2925,"lon":5.38428,"is_reserved":false,"is_disabled":false,"rental_uris":{"android":"levelo://app?vid=83acf03d-4361-4d37-a7b4-d811e40a9d18","ios":"levelo://app?vid=83acf03d-4361-4d37-a7b4-d811e40a9d18"},"vehicle_type_id":"4","last_reported":1737230890,"current_range_meters":10800,"station_id":"ce4bh692rcd13ifvqea0","pricing_plan_id":"cebpf4jnsgd1na2vs0mg"},{"bike_id":"f5863b18-13a1-4c6e-92de-5668ea912ad3","system_id":"levelo_inurba_marseille","lat":43.26218,"lon":5.40436,"is_reserved":false,"is_disabled":true,"rental_uris":{"android":"levelo://app?vid=f5863b18-13a1-4c6e-92de-5668ea912ad3","ios":"levelo://app?vid=f5863b18-13a1-4c6e-92de-5668ea912ad3"},"vehicle_type_id":"4","last_reported":1737230890,"current_range_meters":0,"station_id":"","pricing_plan_id":"cebpf4jnsgd1na2vs0mg"},{"bike_id":"17a615f6-6ac4-42da-9570-43c6086022ec","system_id":"levelo_inurba_marseille","lat":43.28967,"lon":5.37828,"is_reserved":false,"is_disabled":false,"rental_uris":{"android":"levelo://app?vid=17a615f6-6ac4-42da-9570-43c6086022ec","ios":"levelo://app?vid=17a615f6-6ac4-42da-9570-43c6086022ec"},"vehicle_type_id":"4","last_reported":1737230890,"current_range_meters":36800,"station_id":"ce4bh9p2rcd13ifvqed0","pricing_plan_id":"cebpf4jnsgd1na2vs0mg"},{"bike_id":"47b935dd-f1c3-4468-9bb1-4f34f7095ca1","system_id":"levelo_inurba_marseille","lat":43.27372,"lon":5.36248,"is_reserved":false,"is_disabled":false,"rental_uris":{"android":"levelo://app?vid=47b935dd-f1c3-4468-9bb1-4f34f7095ca1","ios":"levelo://app?vid=47b935dd-f1c3-4468-9bb1-4f34f7095ca1"},"vehicle_type_id":"4","last_reported":1737230890,"current_range_meters":38800,"station_id":"ce4bhbh2rcd13ifvqeo0","pricing_plan_id":"cebpf4jnsgd1na2vs0mg"},{"bike_id":"fc09874d-d598-4c3b-96f6-47944d7b0811","system_id":"levelo_inurba_marseille","lat":43.28268,"lon":5.35071,"is_reserved":false,"is_disabled":false,"rental_uris":{"android":"levelo://app?vid=fc09874d-d598-4c3b-96f6-47944d7b0811","ios":"levelo://app?vid=fc09874d-d598-4c3b-96f6-47944d7b0811"},"vehicle_type_id":"4","last_reported":1737230890,"current_range_meters":38800,"station_id":"ce4bhbp2rcd13ifvqerg","pricing_plan_id":"cebpf4jnsgd1na2vs0mg"},{"bike_id":"ff799074-43a9-452a-9fe7-07dd0bd1c3b5","system_id":"levelo_inurba_marseille","lat":43.26217,"lon":5.37451,"is_reserved":false,"is_disabled":false,"rental_uris":{"android":"levelo://app?vid=ff799074-43a9-452a-9fe7-07dd0bd1c3b5","ios":"levelo://app?vid=ff799074-43a9-452a-9fe7-07dd0bd1c3b5"},"vehicle_type_id":"4","last_reported":1737230890,"current_range_meters":38800,"station_id":"ce4bhgp2rcd13ifvqfc0","pricing_plan_id":"cebpf4jnsgd1na2vs0mg"},{"bike_id":"46686b70-f375-4947-b209-2f4548c2edcf","system_id":"levelo_inurba_marseille","lat":43.28886,"lon":5.3944,"is_reserved":false,"is_disabled":true,"rental_uris":{"android":"levelo://app?vid=46686b70-f375-4947-b209-2f4548c2edcf","ios":"levelo://app?vid=46686b70-f375-4947-b209-2f4548c2edcf"},"vehicle_type_id":"4","last_reported":1737230890,"current_range_meters":0,"station_id":"","pricing_plan_id":"cebpf4jnsgd1na2vs0mg"},{"bike_id":"bdd17d3a-9660-421d-84e8-ec6baf945921","system_id":"levelo_inurba_marseille","lat":43.29966,"lon":5.38488,"is_reserved":false,"is_disabled":false,"rental_uris":{"android":"levelo://app?vid=bdd17d3a-9660-421d-84e8-ec6baf945921","ios":"levelo://app?vid=bdd17d3a-9660-421d-84e8-ec6baf945921"},"vehicle_type_id":"4","last_reported":1737230890,"current_range_meters":13600,"station_id":"ce4bgj92rcd13ifvqbd0","pricing_plan_id":"cebpf4jnsgd1na2vs0mg"},{"bike_id":"1fe4decf-72ae-4afa-8cb9-4325b524c473","system_id":"levelo_inurba_marseille","lat":43.31358,"lon":5.3849,"is_reserved":false,"is_disabled":false,"rental_uris":{"android":"levelo://app?vid=1fe4decf-72ae-4afa-8cb9-4325b524c473","ios":"levelo://app?vid=1fe4decf-72ae-4afa-8cb9-4325b524c473"},"vehicle_type_id":"4","last_reported":1737230890,"current_range_meters":24800,"station_id":"ce4bgt92rcd13ifvqcf0","pricing_plan_id":"cebpf4jnsgd1na2vs0mg"},{"bike_id":"883b7c07-8fdd-4195-9f5b-e8165f694368","system_id":"levelo_inurba_marseille","lat":43.25881,"lon":5.39916,"is_reserved":false,"is_disabled":false,"rental_uris":{"android":"levelo://app?vid=883b7c07-8fdd-4195-9f5b-e8165f694368","ios":"levelo://app?vid=883b7c07-8fdd-4195-9f5b-e8165f694368"},"vehicle_type_id":"4","last_reported":1737230890,"current_range_meters":24800,"station_id":"ce4bhl92rcd13ifvqghg","pricing_plan_id":"cebpf4jnsgd1na2vs0mg"},{"bike_id":"b7097a42-efed-4ad7-b54b-9b806bc8ae9d","system_id":"levelo_inurba_marseille","lat":43.30921,"lon":5.36911,"is_reserved":false,"is_disabled":false,"rental_uris":{"android":"levelo://app?vid=b7097a42-efed-4ad7-b54b-9b806bc8ae9d","ios":"levelo://app?vid=b7097a42-efed-4ad7-b54b-9b806bc8ae9d"},"vehicle_type_id":"4","last_reported":1737230890,"current_range_meters":37600,"station_id":"","pricing_plan_id":"cebpf4jnsgd1na2vs0mg"},{"bike_id":"6b67f837-ffa7-4183-8d0b-4c34dfa7e212","system_id":"levelo_inurba_marseille","lat":43.25857,"lon":5.39912,"is_reserved":false,"is_disabled":false,"rental_uris":{"android":"levelo://app?vid=6b67f837-ffa7-4183-8d0b-4c34dfa7e212","ios":"levelo://app?vid=6b67f837-ffa7-4183-8d0b-4c34dfa7e212"},"vehicle_type_id":"4","last_reported":1737230890,"current_range_meters":38800,"station_id":"ce4bhl92rcd13ifvqghg","pricing_plan_id":"cebpf4jnsgd1na2vs0mg"},{"bike_id":"5017336f-0fcc-4983-97cb-9f7de0ce7bf7","system_id":"levelo_inurba_marseille","lat":43.29521,"lon":5.38542,"is_reserved":false,"is_disabled":false,"rental_uris":{"android":"levelo://app?vid=5017336f-0fcc-4983-97cb-9f7de0ce7bf7","ios":"levelo://app?vid=5017336f-0fcc-4983-97cb-9f7de0ce7bf7"},"vehicle_type_id":"4","last_reported":1737230890,"current_range_meters":33600,"station_id":"ce4bgih2rcd13ifvqba0","pricing_plan_id":"cebpf4jnsgd1na2vs0mg"},{"bike_id":"8b379556-cd3c-4895-8fd6-65a44c58e0f2","system_id":"levelo_inurba_marseille","lat":43.29771,"lon":5.37097,"is_reserved":false,"is_disabled":false,"rental_uris":{"android":"levelo://app?vid=8b379556-cd3c-4895-8fd6-65a44c58e0f2","ios":"levelo://app?vid=8b379556-cd3c-4895-8fd6-65a44c58e0f2"},"vehicle_type_id":"4","last_reported":1737230890,"current_range_meters":8800,"station_id":"ce4bgop2rcd13ifvqc1g","pricing_plan_id":"cebpf4jnsgd1na2vs0mg"},{"bike_id":"5deef3b2-d489-42e2-b180-fce0dc75d0c7","system_id":"levelo_inurba_marseille","lat":43.29028,"lon":5.37571,"is_reserved":false,"is_disabled":false,"rental_uris":{"android":"levelo://app?vid=5deef3b2-d489-42e2-b180-fce0dc75d0c7","ios":"levelo://app?vid=5deef3b2-d489-42e2-b180-fce0dc75d0c7"},"vehicle_type_id":"4","last_reported":1737230890,"current_range_meters":38800,"station_id":"ce4bh692rcd13ifvqe90","pricing_plan_id":"cebpf4jnsgd1na2vs0mg"},{"bike_id":"6870a9e0-7988-452a-a0a6-84e136278682","system_id":"levelo_inurba_marseille","lat":43.265494,"lon":5.37286,"is_reserved":false,"is_disabled":false,"rental_uris":{"android":"levelo://app?vid=6870a9e0-7988-452a-a0a6-84e136278682","ios":"levelo://app?vid=6870a9e0-7988-452a-a0a6-84e136278682"},"vehicle_type_id":"4","last_reported":1737230890,"current_range_meters":36400,"station_id":"ce4bhg12rcd13ifvqf70","pricing_plan_id":"cebpf4jnsgd1na2vs0mg"},{"bike_id":"03ae46b2-9a3a-42b7-b4fa-c50b53d050cc","system_id":"levelo_inurba_marseille","lat":43.31486,"lon":5.37312,"is_reserved":false,"is_disabled":false,"rental_uris":{"android":"levelo://app?vid=03ae46b2-9a3a-42b7-b4fa-c50b53d050cc","ios":"levelo://app?vid=03ae46b2-9a3a-42b7-b4fa-c50b53d050cc"},"vehicle_type_id":"4","last_reported":1737230890,"current_range_meters":38800,"station_id":"ce4bgt12rcd13ifvqcd0","pricing_plan_id":"cebpf4jnsgd1na2vs0mg"},{"bike_id":"7e7e1ecc-6b1b-4d65-a58a-87b33d4a82d0","system_id":"levelo_inurba_marseille","lat":43.26559,"lon":5.3728,"is_reserved":false,"is_disabled":false,"rental_uris":{"android":"levelo://app?vid=7e7e1ecc-6b1b-4d65-a58a-87b33d4a82d0","ios":"levelo://app?vid=7e7e1ecc-6b1b-4d65-a58a-87b33d4a82d0"},"vehicle_type_id":"4","last_reported":1737230890,"current_range_meters":3200,"station_id":"ce4bhg12rcd13ifvqf70","pricing_plan_id":"cebpf4jnsgd1na2vs0mg"},{"bike_id":"8d6893ce-9784-4f54-b1d2-57d54414c78c","system_id":"levelo_inurba_marseille","lat":43.28031,"lon":5.36962,"is_reserved":false,"is_disabled":false,"rental_uris":{"android":"levelo://app?vid=8d6893ce-9784-4f54-b1d2-57d54414c78c","ios":"levelo://app?vid=8d6893ce-9784-4f54-b1d2-57d54414c78c"},"vehicle_type_id":"4","last_reported":1737230890,"current_range_meters":38800,"station_id":"ce4bha12rcd13ifvqef0","pricing_plan_id":"cebpf4jnsgd1na2vs0mg"},{"bike_id":"6624792b-d702-496e-b6de-1ed56a851b78","system_id":"levelo_inurba_marseille","lat":43.29963,"lon":5.38496,"is_reserved":false,"is_disabled":false,"rental_uris":{"android":"levelo://app?vid=6624792b-d702-496e-b6de-1ed56a851b78","ios":"levelo://app?vid=6624792b-d702-496e-b6de-1ed56a851b78"},"vehicle_type_id":"4","last_reported":1737230890,"current_range_meters":28400,"station_id":"ce4bgj92rcd13ifvqbd0","pricing_plan_id":"cebpf4jnsgd1na2vs0mg"},{"bike_id":"a8701af7-deca-400c-9cb2-c845062564a7","system_id":"levelo_inurba_marseille","lat":43.314377,"lon":5.387715,"is_reserved":false,"is_disabled":false,"rental_uris":{"android":"levelo://app?vid=a8701af7-deca-400c-9cb2-c845062564a7","ios":"levelo://app?vid=a8701af7-deca-400c-9cb2-c845062564a7"},"vehicle_type_id":"4","last_reported":1737230890,"current_range_meters":15200,"station_id":"","pricing_plan_id":"cebpf4jnsgd1na2vs0mg"},{"bike_id":"5b540956-c85f-4118-a58b-7a0335885081","system_id":"levelo_inurba_marseille","lat":43.28351,"lon":5.381,"is_reserved":false,"is_disabled":false,"rental_uris":{"android":"levelo://app?vid=5b540956-c85f-4118-a58b-7a0335885081","ios":"levelo://app?vid=5b540956-c85f-4118-a58b-7a0335885081"},"vehicle_type_id":"4","last_reported":1737230890,"current_range_meters":38400,"station_id":"ce4bh412rcd13ifvqdr0","pricing_plan_id":"cebpf4jnsgd1na2vs0mg"},{"bike_id":"ee76e385-dc29-4ac5-8128-a5afbe69cc79","system_id":"levelo_inurba_marseille","lat":43.25073,"lon":5.39521,"is_reserved":false,"is_disabled":false,"rental_uris":{"android":"levelo://app?vid=ee76e385-dc29-4ac5-8128-a5afbe69cc79","ios":"levelo://app?vid=ee76e385-dc29-4ac5-8128-a5afbe69cc79"},