{"last_updated":1739736535,"ttl":60,"version":"2.2","data":{"bikes":[{"bike_id":"0c4f4644-af4f-484a-bf12-d927dce6cd6d","system_id":"levelo_inurba_marseille","lat":43.3154,"lon":5.38021,"is_reserved":false,"is_disabled":false,"rental_uris":{"android":"levelo://app?vid=0c4f4644-af4f-484a-bf12-d927dce6cd6d","ios":"levelo://app?vid=0c4f4644-af4f-484a-bf12-d927dce6cd6d"},"vehicle_type_id":"4","last_reported":1739736536,"current_range_meters":14000,"station_id":"ce4bhsp2rcd13ifvqi50","pricing_plan_id":"cebpf4jnsgd1na2vs0mg"},{"bike_id":"f0e15311-7300-41c1-aa38-b0373ecc7e52","system_id":"levelo_inurba_marseille","lat":43.2481,"lon":5.37455,"is_reserved":false,"is_disabled":false,"rental_uris":{"android":"levelo://app?vid=f0e15311-7300-41c1-aa38-b0373ecc7e52","ios":"levelo://app?vid=f0e15311-7300-41c1-aa38-b0373ecc7e52"},"vehicle_type_id":"4","last_reported":1739736536,"current_range_meters":34000,"station_id":"ce4bhgh2rcd13ifvqfb0","pricing_plan_id":"cebpf4jnsgd1na2vs0mg"},{"bike_id":"040bf6da-b374-40b3-b70a-0f85f37b58a3","system_id":"levelo_inurba_marseille","lat":43.29277,"lon":5.40147,"is_reserved":false,"is_disabled":true,"rental_uris":{"android":"levelo://app?vid=040bf6da-b374-40b3-b70a-0f85f37b58a3","ios":"levelo://app?vid=040bf6da-b374-40b3-b70a-0f85f37b58a3"},"vehicle_type_id":"4","last_reported":1739736536,"current_range_meters":31200,"station_id":"ce4bh312rcd13ifvqdk0","pricing_plan_id":"cebpf4jnsgd1na2vs0mg"},{"bike_id":"314ecb77-8b90-4fdb-aaf3-bbba8b437b8a","system_id":"levelo_inurba_marseille","lat":43.29087,"lon":5.38059,"is_reserved":false,"is_disabled":true,"rental_uris":{"android":"levelo://app?vid=314ecb77-8b90-4fdb-aaf3-bbba8b437b8a","ios":"levelo://app?vid=314ecb77-8b90-4fdb-aaf3-bbba8b437b8a"},"vehicle_type_id":"4","last_reported":1739736536,"current_range_meters":2000,"station_id":"","pricing_plan_id":"cebpf4jnsgd1na2vs0mg"},{"bike_id":"f661b7e0-1628-4b53-9b0f-1de5abd25562","system_id":"levelo_inurba_marseille","lat":43.30758,"lon":5.3746,"is_reserved":false,"is_disabled":false,"rental_uris":{"android":"levelo://app?vid=f661b7e0-1628-4b53-9b0f-1de5abd25562","ios":"levelo://app?vid=f661b7e0-1628-4b53-9b0f-1de5abd25562"},"vehicle_type_id":"4","last_reported":1739736536,"current_range_meters":28800,"station_id":"","pricing_plan_id":"cebpf4jnsgd1na2vs0mg"},{"bike_id":"cfc771a7-2d39-4d13-bd0a-fcb02e92a328","system_id":"levelo_inurba_marseille","lat":43.29793,"lon":5.39352,"is_reserved":false,"is_disabled":false,"rental_uris":{"android":"levelo://app?vid=cfc771a7-2d39-4d13-bd0a-fcb02e92a328","ios":"levelo://app?vid=cfc771a7-2d39-4d13-bd0a-fcb02e92a328"},"vehicle_type_id":"4","last_reported":1739736536,"current_range_meters":35600,"station_id":"chh1huq6cuj3fo74tm60","pricing_plan_id":"cebpf4jnsgd1na2vs0mg"},{"bike_id":"2ddb3d48-17a8-48b9-8aab-9c0e59556d8e","system_id":"levelo_inurba_marseille","lat":43.28931,"lon":5.38393,"is_reserved":false,"is_disabled":false,"rental_uris":{"android":"levelo://app?vid=2ddb3d48-17a8-48b9-8aab-9c0e59556d8e","ios":"levelo://app?vid=2ddb3d48-17a8-48b9-8aab-9c0e59556d8e"},"vehicle_type_id":"4","last_reported":1739736536,"current_range_meters":27600,"station_id":"ce4bh612rcd13ifvqe6g","pricing_plan_id":"cebpf4jnsgd1na2vs0mg"},{"bike_id":"2c241b29-3767-4c0d-95d1-3e00bc001aa4","system_id":"levelo_inurba_marseille","lat":43.30255,"lon":5.40045,"is_reserved":false,"is_disabled":false,"rental_uris":{"android":"levelo://app?vid=2c241b29-3767-4c0d-95d1-3e00bc001aa4","ios":"levelo://app?vid=2c241b29-3767-4c0d-95d1-3e00bc001aa4"},"vehicle_type_id":"4","last_reported":1739736536,"current_range_meters":36800,"station_id":"ce4bgvh2rcd13ifvqcs0","pricing_plan_id":"cebpf4jnsgd1na2vs0mg"},{"bike_id":"d7fba254-ba2e-4330-9138-3fb8051f9e93","system_id":"levelo_inurba_marseille","lat":43.29521,"lon":5.39044,"is_reserved":false,"is_disabled":false,"rental_uris":{"android":"levelo://app?vid=d7fba254-ba2e-4330-9138-3fb8051f9e93","ios":"levelo://app?vid=d7fba254-ba2e-4330-9138-3fb8051f9e93"},"vehicle_type_id":"4","last_reported":1739736536,"current_range_meters":19600,"station_id":"ce4bh3p2rcd13ifvqdp0","pricing_plan_id":"cebpf4jnsgd1na2vs0mg"},{"bike_id":"95d8de11-efb1-4533-9506-dd7841048b89","system_id":"levelo_inurba_marseille","lat":43.294067,"lon":5.386216,"is_reserved":false,"is_disabled":false,"rental_uris":{"android":"levelo://app?vid=95d8de11-efb1-4533-9506-dd7841048b89","ios":"levelo://app?vid=95d8de11-efb1-4533-9506-dd7841048b89"},"vehicle_type_id":"4","last_reported":1739736536,"current_range_meters":24000,"station_id":"ce4bh2h2rcd13ifvqdh0","pricing_plan_id":"cebpf4jnsgd1na2vs0mg"},{"bike_id":"e9853900-44d2-448a-b62e-02512ad9ea39","system_id":"levelo_inurba_marseille","lat":43.31177,"lon":5.38715,"is_reserved":false,"is_disabled":false,"rental_uris":{"android":"levelo://app?vid=e9853900-44d2-448a-b62e-02512ad9ea39","ios":"levelo://app?vid=e9853900-44d2-448a-b62e-02512ad9ea39"},"vehicle_type_id":"4","last_reported":1739736536,"current_range_meters":26800,"station_id":"ce4bgv12rcd13ifvqcp0","pricing_plan_id":"cebpf4jnsgd1na2vs0mg"},{"bike_id":"ff426081-3726-4b6c-aa9f-0d0db0cbc7e6","system_id":"levelo_inurba_marseille","lat":43.28033,"lon":5.36951,"is_reserved":false,"is_disabled":false,"rental_uris":{"android":"levelo://app?vid=ff426081-3726-4b6c-aa9f-0d0db0cbc7e6","ios":"levelo://app?vid=ff426081-3726-4b6c-aa9f-0d0db0cbc7e6"},"vehicle_type_id":"4","last_reported":1739736536,"current_range_meters":38800,"station_id":"ce4bha12rcd13ifvqef0","pricing_plan_id":"cebpf4jnsgd1na2vs0mg"},{"bike_id":"fb4aef54-1da1-43c4-911a-e1d1b0284115","system_id":"levelo_inurba_marseille","lat":43.28845,"lon":5.35844,"is_reserved":false,"is_disabled":false,"rental_uris":{"android":"levelo://app?vid=fb4aef54-1da1-43c4-911a-e1d1b0284115","ios":"levelo://app?vid=fb4aef54-1da1-43c4-911a-e1d1b0284115"},"vehicle_type_id":"4","last_reported":1739736536,"current_range_meters":15200,"station_id":"ce4bhb12rcd13ifvqem0","pricing_plan_id":"cebpf4jnsgd1na2vs0mg"},{"bike_id":"41cb5bd1-c30b-41de-853e-432617595685","system_id":"levelo_inurba_marseille","lat":43.29302,"lon":5.3717,"is_reserved":false,"is_disabled":false,"rental_uris":{"android":"levelo://app?vid=41cb5bd1-c30b-41de-853e-432617595685","ios":"levelo://app?vid=41cb5bd1-c30b-41de-853e-432617595685"},"vehicle_type_id":"4","last_reported":1739736536,"current_range_meters":12800,"station_id":"ce4bgh92rcd13ifvqb40","pricing_plan_id":"cebpf4jnsgd1na2vs0mg"},{"bike_id":"d474bb7f-4f32-4136-889a-a7952d42ae95","system_id":"levelo_inurba_marseille","lat":43.28682,"lon":5.38671,"is_reserved":false,"is_disabled":true,"rental_uris":{"android":"levelo://app?vid=d474bb7f-4f32-4136-889a-a7952d42ae95","ios":"levelo://app?vid=d474bb7f-4f32-4136-889a-a7952d42ae95"},"vehicle_type_id":"4","last_reported":1739736536,"current_range_meters":800,"station_id":"ce4bh492rcd13ifvqdug","pricing_plan_id":"cebpf4jnsgd1na2vs0mg"},{"bike_id":"7740f7fe-9032-4237-b1ea-18f84d0eb3bf","system_id":"levelo_inurba_marseille","lat":43.28436,"lon":5.39191,"is_reserved":false,"is_disabled":false,"rental_uris":{"android":"levelo://app?vid=7740f7fe-9032-4237-b1ea-18f84d0eb3bf","ios":"levelo://app?vid=7740f7fe-9032-4237-b1ea-18f84d0eb3bf"},"vehicle_type_id":"4","last_reported":1739736536,"current_range_meters":27600,"station_id":"ce4bhoh2rcd13ifvqh5g","pricing_plan_id":"cebpf4jnsgd1na2vs0mg"},{"bike_id":"39c21f6e-ce01-4ab3-ab42-7aab948d7134","system_id":"levelo_inurba_marseille","lat":43.29034,"lon":5.38685,"is_reserved":false,"is_disabled":false,"rental_uris":{"android":"levelo://app?vid=39c21f6e-ce01-4ab3-ab42-7aab948d7134","ios":"levelo://app?vid=39c21f6e-ce01-4ab3-ab42-7aab948d7134"},"vehicle_type_id":"4","last_reported":1739736536,"current_range_meters":36000,"station_id":"ce4bh4p2rcd13ifvqe0g","pricing_plan_id":"cebpf4jnsgd1na2vs0mg"},{"bike_id":"97337456-7de6-48f3-84a2-a2ab9afdc518","system_id":"levelo_inurba_marseille","lat":43.30177,"lon":5.3664,"is_reserved":false,"is_disabled":false,"rental_uris":{"android":"levelo://app?vid=97337456-7de6-48f3-84a2-a2ab9afdc518","ios":"levelo://app?vid=97337456-7de6-48f3-84a2-a2ab9afdc518"},"vehicle_type_id":"4","last_reported":1739736536,"current_range_meters":38000,"station_id":"ce4bgrh2rcd13ifvqc8g","pricing_plan_id":"cebpf4jnsgd1na2vs0mg"},{"bike_id":"26a17947-bae0-49a0-a0e6-dbcc7c3eae9e","system_id":"levelo_inurba_marseille","lat":43.24826,"lon":5.4184,"is_reserved":false,"is_disabled":false,"rental_uris":{"android":"levelo://app?vid=26a17947-bae0-49a0-a0e6-dbcc7c3eae9e","ios":"levelo://app?vid=26a17947-bae0-49a0-a0e6-dbcc7c3eae9e"},"vehicle_type_id":"4","last_reported":1739736536,"current_range_meters":28800,"station_id":"","pricing_plan_id":"cebpf4jnsgd1na2vs0mg"},{"bike_id":"0594397e-5b4a-4bc1-9dae-734c570709eb","system_id":"levelo_inurba_marseille","lat":43.27829,"lon":5.4068,"is_reserved":false,"is_disabled":false,"rental_uris":{"android":"levelo://app?vid=0594397e-5b4a-4bc1-9dae-734c570709eb","ios":"levelo://app?vid=0594397e-5b4a-4bc1-9dae-734c570709eb"},"vehicle_type_id":"4","last_reported":1739736536,"current_range_meters":4800,"station_id":"ce4bhnh2rcd13ifvqgtg","pricing_plan_id":"cebpf4jnsgd1na2vs0mg"},{"bike_id":"3d119f7e-598c-4ee5-af25-41604854cde7","system_id":"levelo_inurba_marseille","lat":43.29726,"lon":5.36614,"is_reserved":false,"is_disabled":false,"rental_uris":{"android":"levelo://app?vid=3d119f7e-598c-4ee5-af25-41604854cde7","ios":"levelo://app?vid=3d119f7e-598c-4ee5-af25-41604854cde7"},"vehicle_type_id":"4","last_reported":1739736536,"current_range_meters":38400,"station_id":"ce4bgn12rcd13ifvqbt0","pricing_plan_id":"cebpf4jnsgd1na2vs0mg"},{"bike_id":"5cd92100-e2ec-4c83-b811-3ee5202c5fd6","system_id":"levelo_inurba_marseille","lat":43.29202,"lon":5.39343,"is_reserved":false,"is_disabled":false,"rental_uris":{"android":"levelo://app?vid=5cd92100-e2ec-4c83-b811-3ee5202c5fd6","ios":"levelo://app?vid=5cd92100-e2ec-4c83-b811-3ee5202c5fd6"},"vehicle_type_id":"4","last_reported":1739736536,"current_range_meters":38000,"station_id":"ce4bh192rcd13ifvqdd0","pricing_plan_id":"cebpf4jnsgd1na2vs0mg"},{"bike_id":"b3327efe-e6ea-4af8-b3fe-9847845e64d2","system_id":"levelo_inurba_marseille","lat":43.29592,"lon":5.38083,"is_reserved":false,"is_disabled":false,"rental_uris":{"android":"levelo://app?vid=b3327efe-e6ea-4af8-b3fe-9847845e64d2","ios":"levelo://app?vid=b3327efe-e6ea-4af8-b3fe-9847845e64d2"},"vehicle_type_id":"4","last_reported":1739736536,"current_range_meters":38000,"station_id":"ce4bgl12rcd13ifvqbo0","pricing_plan_id":"cebpf4jnsgd1na2vs0mg"},{"bike_id":"a1daad65-43f9-4b50-8f1f-4d56d66a74f8","system_id":"levelo_inurba_marseille","lat":43.29943,"lon":5.36504,"is_reserved":false,"is_disabled":false,"rental_uris":{"android":"levelo://app?vid=a1daad65-43f9-4b50-8f1f-4d56d66a74f8","ios":"levelo://app?vid=a1daad65-43f9-4b50-8f1f-4d56d66a74f8"},"vehicle_type_id":"4","last_reported":1739736536,"current_range_meters":25600,"station_id":"ce4bgm92rcd13ifvqbr0","pricing_plan_id":"cebpf4jnsgd1na2vs0mg"},{"bike_id":"fab5bc09-3072-4253-9c2a-b7b62ab516b6","system_id":"levelo_inurba_marseille","lat":43.29794,"lon":5.39346,"is_reserved":false,"is_disabled":false,"rental_uris":{"android":"levelo://app?vid=fab5bc09-3072-4253-9c2a-b7b62ab516b6","ios":"levelo://app?vid=fab5bc09-3072-4253-9c2a-b7b62ab516b6"},"vehicle_type_id":"4","last_reported":1739736536,"current_range_meters":14400,"station_id":"chh1huq6cuj3fo74tm60","pricing_plan_id":"cebpf4jnsgd1na2vs0mg"},{"bike_id":"f7abcf74-16eb-4369-b6b8-ac0e795f9129","system_id":"levelo_inurba_marseille","lat":43.28162,"lon":5.42639,"is_reserved":false,"is_disabled":false,"rental_uris":{"android":"levelo://app?vid=f7abcf74-16eb-4369-b6b8-ac0e795f9129","ios":"levelo://app?vid=f7abcf74-16eb-4369-b6b8-ac0e795f9129"},"vehicle_type_id":"4","last_reported":1739736536,"current_range_meters":27200,"station_id":"ce4bhnh2rcd13ifvqgug","pricing_plan_id":"cebpf4jnsgd1na2vs0mg"},{"bike_id":"eae30826-b1bb-47d4-ae35-48b7c839764b","system_id":"levelo_inurba_marseille","lat":43.28855,"lon":5.35858,"is_reserved":false,"is_disabled":false,"rental_uris":{"android":"levelo://app?vid=eae30826-b1bb-47d4-ae35-48b7c839764b","ios":"levelo://app?vid=eae30826-b1bb-47d4-ae35-48b7c839764b"},"vehicle_type_id":"4","last_reported":1739736536,"current_range_meters":18800,"station_id":"ce4bhb12rcd13ifvqem0","pricing_plan_id":"cebpf4jnsgd1na2vs0mg"},{"bike_id":"9ffc487c-5243-41a7-83bb-0cda23036b98","system_id":"levelo_inurba_marseille","lat":43.27513,"lon":5.43438,"is_reserved":false,"is_disabled":true,"rental_uris":{"android":"levelo://app?vid=9ffc487c-5243-41a7-83bb-0cda23036b98","ios":"levelo://app?vid=9ffc487c-5243-41a7-83bb-0cda23036b98"},"vehicle_type_id":"4","last_reported":1739736536,"current_range_meters":0,"station_id":"","pricing_plan_id":"cebpf4jnsgd1na2vs0mg"},{"bike_id":"2821d2ff-3fc8-480e-81a3-1928b04e4a1d","system_id":"levelo_inurba_marseille","lat":43.31443,"lon":5.37405,"is_reserved":false,"is_disabled":false,"rental_uris":{"android":"levelo://app?vid=2821d2ff-3fc8-480e-81a3-1928b04e4a1d","ios":"levelo://app?vid=2821d2ff-3fc8-480e-81a3-1928b04e4a1d"},"vehicle_type_id":"4","last_reported":1739736536,"current_range_meters":4800,"station_id":"","pricing_plan_id":"cebpf4jnsgd1na2vs0mg"},{"bike_id":"543cab73-f1d3-4629-bf9b-0144dad3f0f9","system_id":"levelo_inurba_marseille","lat":43.28103,"lon":5.44262,"is_reserved":false,"is_disabled":false,"rental_uris":{"android":"levelo://app?vid=543cab73-f1d3-4629-bf9b-0144dad3f0f9","ios":"levelo://app?vid=543cab73-f1d3-4629-bf9b-0144dad3f0f9"},"vehicle_type_id":"4","last_reported":1739736536,"current_range_meters":6800,"station_id":"","pricing_plan_id":"cebpf4jnsgd1na2vs0mg"},{"bike_id":"d48b880c-5787-4eca-994b-610c9fc548ed","system_id":"levelo_inurba_marseille","lat":43.24162,"lon":5.36404,"is_reserved":false,"is_disabled":false,"rental_uris":{"android":"levelo://app?vid=d48b880c-5787-4eca-994b-610c9fc548ed","ios":"levelo://app?vid=d48b880c-5787-4eca-994b-610c9fc548ed"},"vehicle_type_id":"4","last_reported":1739736536,"current_range_meters":38800,"station_id":"cpo36qri1sfpv3e86is0","pricing_plan_id":"cebpf4jnsgd1na2vs0mg"},{"bike_id":"34c66d3d-b5aa-4bec-ab71-66b17e80e2a1","system_id":"levelo_inurba_marseille","lat":43.3229,"lon":5.38275,"is_reserved":false,"is_disabled":false,"rental_uris":{"android":"levelo://app?vid=34c66d3d-b5aa-4bec-ab71-66b17e80e2a1","ios":"levelo://app?vid=34c66d3d-b5aa-4bec-ab71-66b17e80e2a1"},"vehicle_type_id":"4","last_reported":1739736536,"current_range_meters":39200,"station_id":"ce4bhr12rcd13ifvqhqg","pricing_plan_id":"cebpf4jnsgd1na2vs0mg"},{"bike_id":"39e51d26-4a3b-4a31-83a6-d9743702959b","system_id":"levelo_inurba_marseille","lat":43.2574,"lon":5.41078,"is_reserved":false,"is_disabled":false,"rental_uris":{"android":"levelo://app?vid=39e51d26-4a3b-4a31-83a6-d9743702959b","ios":"levelo://app?vid=39e51d26-4a3b-4a31-83a6-d9743702959b"},"vehicle_type_id":"4","last_reported":1739736536,"current_range_meters":6800,"station_id":"ce4bhkp2rcd13ifvqgd0","pricing_plan_id":"cebpf4jnsgd1na2vs0mg"},{"bike_id":"940ffad1-8d03-466c-a361-1bdb8859eb0e","system_id":"levelo_inurba_marseille","lat":43.28632,"lon":5.35103,"is_reserved":false,"is_disabled":true,"rental_uris":{"android":"levelo://app?vid=940ffad1-8d03-466c-a361-1bdb8859eb0e","ios":"levelo://app?vid=940ffad1-8d03-466c-a361-1bdb8859eb0e"},"vehicle_type_id":"4","last_reported":1739736536,"current_range_meters":0,"station_id":"ce4bhch2rcd13ifvqeug","pricing_plan_id":"cebpf4jnsgd1na2vs0mg"},{"bike_id":"71ee7552-6225-4f21-8301-72c964ebec2d","system_id":"levelo_inurba_marseille","lat":43.2667,"lon":5.38251,"is_reserved":false,"is_disabled":true,"rental_uris":{"android":"levelo://app?vid=71ee7552-6225-4f21-8301-72c964ebec2d","ios":"levelo://app?vid=71ee7552-6225-4f21-8301-72c964ebec2d"},"vehicle_type_id":"4","last_reported":1739736536,"current_range_meters":2800,"station_id":"ce4bhg92rcd13ifvqf90","pricing_plan_id":"cebpf4jnsgd1na2vs0mg"},{"bike_id":"91e20a00-0a61-4c4d-ac1e-de492ad0d12a","system_id":"levelo_inurba_marseille","lat":43.2953,"lon":5.3751,"is_reserved":false,"is_disabled":true,"rental_uris":{"android":"levelo://app?vid=91e20a00-0a61-4c4d-ac1e-de492ad0d12a","ios":"levelo://app?vid=91e20a00-0a61-4c4d-ac1e-de492ad0d12a"},"vehicle_type_id":"4","last_reported":1739736536,"current_range_meters":20400,"station_id":"ce4bgkp2rcd13ifvqbmg","pricing_plan_id":"cebpf4jnsgd1na2vs0mg"},{"bike_id":"86a75285-7243-40ee-925b-d20bf72a6a49","system_id":"levelo_inurba_marseille","lat":43.29821,"lon":5.36248,"is_reserved":false,"is_disabled":false,"rental_uris":{"android":"levelo://app?vid=86a75285-7243-40ee-925b-d20bf72a6a49","ios":"levelo://app?vid=86a75285-7243-40ee-925b-d20bf72a6a49"},"vehicle_type_id":"4","last_reported":1739736536,"current_range_meters":38800,"station_id":"ce4bgpp2rcd13ifvqc3g","pricing_plan_id":"cebpf4jnsgd1na2vs0mg"},{"bike_id":"1f0657bb-7196-41de-84fc-c834bbf90b28","system_id":"levelo_inurba_marseille","lat":43.280826,"lon":5.396547,"is_reserved":false,"is_disabled":true,"rental_uris":{"android":"levelo://app?vid=1f0657bb-7196-41de-84fc-c834bbf90b28","ios":"levelo://app?vid=1f0657bb-7196-41de-84fc-c834bbf90b28"},"vehicle_type_id":"4","last_reported":1739736536,"current_range_meters":38800,"station_id":"ce4bho12rcd13ifvqh2g","pricing_plan_id":"cebpf4jnsgd1na2vs0mg"},{"bike_id":"6a8a9fc1-af4d-49a9-8679-5d56a555c641","system_id":"levelo_inurba_marseille","lat":43.27921,"lon":5.39581,"is_reserved":false,"is_disabled":false,"rental_uris":{"android":"levelo://app?vid=6a8a9fc1-af4d-49a9-8679-5d56a555c641","ios":"levelo://app?vid=6a8a9fc1-af4d-49a9-8679-5d56a555c641"},"vehicle_type_id":"4","last_reported":1739736536,"current_range_meters":12800,"station_id":"ce4bhf92rcd13ifvqf40","pricing_plan_id":"cebpf4jnsgd1na2vs0mg"},{"bike_id":"6a147fd4-f258-4898-9af6-000823cc5cf1","system_id":"levelo_inurba_marseille","lat":43.31227,"lon":5.36846,"is_reserved":false,"is_disabled":false,"rental_uris":{"android":"levelo://app?vid=6a147fd4-f258-4898-9af6-000823cc5cf1","ios":"levelo://app?vid=6a147fd4-f258-4898-9af6-000823cc5cf1"},"vehicle_type_id":"4","last_reported":1739736536,"current_range_meters":28800,"station_id":"ce4bgl92rcd13ifvqbq0","pricing_plan_id":"cebpf4jnsgd1na2vs0mg"},{"bike_id":"3ad53059-9aa4-49f8-9e6c-7fff04507d27","system_id":"levelo_inurba_marseille","lat":43.286138,"lon":5.351017,"is_reserved":false,"is_disabled":false,"rental_uris":{"android":"levelo://app?vid=3ad53059-9aa4-49f8-9e6c-7fff04507d27","ios":"levelo://app?vid=3ad53059-9aa4-49f8-9e6c-7fff04507d27"},"vehicle_type_id":"4","last_reported":1739736536,"current_range_meters":22800,"station_id":"ce4bhch2rcd13ifvqeug","pricing_plan_id":"cebpf4jnsgd1na2vs0mg"},{"bike_id":"edda1ad3-82ad-41f9-8e9c-88195b92dd49","system_id":"levelo_inurba_marseille","lat":43.31749,"lon":5.38789,"is_reserved":false,"is_disabled":false,"rental_uris":{"android":"levelo://app?vid=edda1ad3-82ad-41f9-8e9c-88195b92dd49","ios":"levelo://app?vid=edda1ad3-82ad-41f9-8e9c-88195b92dd49"},"vehicle_type_id":"4","last_reported":1739736536,"current_range_meters":12400,"station_id":"","pricing_plan_id":"cebpf4jnsgd1na2vs0mg"},{"bike_id":"ac1f4837-f920-4f11-a0f5-b75095ff3c61","system_id":"levelo_inurba_marseille","lat":43.28705,"lon":5.39979,"is_reserved":false,"is_disabled":false,"rental_uris":{"android":"levelo://app?vid=ac1f4837-f920-4f11-a0f5-b75095ff3c61","ios":"levelo://app?vid=ac1f4837-f920-4f11-a0f5-b75095ff3c61"},"vehicle_type_id":"4","last_reported":1739736536,"current_range_meters":28000,"station_id":"ce4bho92rcd13ifvqh3g","pricing_plan_id":"cebpf4jnsgd1na2vs0mg"},{"bike_id":"6c2c1d95-3302-4ba8-942d-64ecaa7dbe03","system_id":"levelo_inurba_marseille","lat":43.25494,"lon":5.37669,"is_reserved":false,"is_disabled":true,"rental_uris":{"android":"levelo://app?vid=6c2c1d95-3302-4ba8-942d-64ecaa7dbe03","ios":"levelo://app?vid=6c2c1d95-3302-4ba8-942d-64ecaa7dbe03"},"vehicle_type_id":"4","last_reported":1739736536,"current_range_meters":16400,"station_id":"ce4bhh12rcd13ifvqff0","pricing_plan_id":"cebpf4jnsgd1na2vs0mg"},{"bike_id":"eefc27d8-676a-4c5c-a366-bc84419fd441","system_id":"levelo_inurba_marseille","lat":43.24805,"lon":5.37451,"is_reserved":false,"is_disabled":false,"rental_uris":{"android":"levelo://app?vid=eefc27d8-676a-4c5c-a366-bc84419fd441","ios":"levelo://app?vid=eefc27d8-676a-4c5c-a366-bc84419fd441"},"vehicle_type_id":"4","last_reported":1739736536,"current_range_meters":33200,"station_id":"ce4bhgh2rcd13ifvqfb0","pricing_plan_id":"cebpf4jnsgd1na2vs0mg"},{"bike_id":"013f9a3f-8351-40a8-b181-cb42a92a07d4","system_id":"levelo_inurba_marseille","lat":43.29021,"lon":5.38135,"is_reserved":false,"is_disabled":false,"rental_uris":{"android":"levelo://app?vid=013f9a3f-8351-40a8-b181-cb42a92a07d4","ios":"levelo://app?vid=013f9a3f-8351-40a8-b181-cb42a92a07d4"},"vehicle_type_id":"4","last_reported":1739736536,"current_range_meters":37600,"station_id":"ce4bh4p2rcd13ifvqe1g","pricing_plan_id":"cebpf4jnsgd1na2vs0mg"},{"bike_id":"a41d4fbb-d464-4049-8f22-165c78a3a543","system_id":"levelo_inurba_marseille","lat":43.29767,"lon":5.3706,"is_reserved":false,"is_disabled":false,"rental_uris":{"android":"levelo://app?vid=a41d4fbb-d464-4049-8f22-165c78a3a543","ios":"levelo://app?vid=a41d4fbb-d464-4049-8f22-165c78a3a543"},"vehicle_type_id":"4","last_reported":1739736536,"current_range_meters":38800,"station_id":"ce4bgop2rcd13ifvqc1g","pricing_plan_id":"cebpf4jnsgd1na2vs0mg"},{"bike_id":"f92e748a-9f9b-4e54-8084-07e33515f3d5","system_id":"levelo_inurba_marseille","lat":43.27071,"lon":5.39347,"is_reserved":false,"is_disabled":true,"rental_uris":{"android":"levelo://app?vid=f92e748a-9f9b-4e54-8084-07e33515f3d5","ios":"levelo://app?vid=f92e748a-9f9b-4e54-8084-07e33515f3d5"},"vehicle_type_id":"4","last_reported":1739736536,"current_range_meters":0,"station_id":"","pricing_plan_id":"cebpf4jnsgd1na2vs0mg"},{"bike_id":"e2724f77-6977-420c-92f6-8c8e62268b2c","system_id":"levelo_inurba_marseille","lat":43.28343,"lon":5.38096,"is_reserved":false,"is_disabled":false,"rental_uris":{"android":"levelo://app?vid=e2724f77-6977-420c-92f6-8c8e62268b2c","ios":"levelo://app?vid=e2724f77-6977-420c-92f6-8c8e62268b2c"},"vehicle_type_id":"4","last_reported":1739736536,"current_range_meters":31200,"station_id":"ce4bh412rcd13ifvqdr0","pricing_plan_id":"cebpf4jnsgd1na2vs0mg"},{"bike_id":"bcecc5e4-cc7b-4177-9ff8-db3a19d83949","system_id":"levelo_inurba_marseille","lat":43.24825,"lon":5.37475,"is_reserved":false,"is_disabled":false,"rental_uris":{"android":"levelo://app?vid=bcecc5e4-cc7b-4177-9ff8-db3a19d83949","ios":"levelo://app?vid=bcecc5e4-cc7b-4177-9ff8-db3a19d83949"},"vehicle_type_id":"4","last_reported":1739736536,"current_range_meters":38000,"station_id":"ce4bhgh2rcd13ifvqfb0","pricing_plan_id":"cebpf4jnsgd1na2vs0mg"},{"bike_id":"7e3264bf-f524-4cb7-96c9-a699263ae840","system_id":"levelo_inurba_marseille","lat":43.28271,"lon":5.35083,"is_reserved":false,"is_disabled":false,"rental_uris":{"android":"levelo://app?vid=7e3264bf-f524-4cb7-96c9-a699263ae840","ios":"levelo://app?vid=7e3264bf-f524-4cb7-96c9-a699263ae840"},"vehicle_type_id":"4","last_reported":1739736536,"current_range_meters":18000,"station_id":"ce4bhbp2rcd13ifvqerg","pricing_plan_id":"cebpf4jnsgd1na2vs0mg"},{"bike_id":"47be1bb4-e20f-4038-888d-793b92888f90","system_id":"levelo_inurba_marseille","lat":43.25126,"lon":5.40326,"is_reserved":false,"is_disabled":false,"rental_uris":{"android":"levelo://app?vid=47be1bb4-e20f-4038-888d-793b92888f90","ios":"levelo://app?vid=47be1bb4-e20f-4038-888d-793b92888f90"},"vehicle_type_id":"4","last_reported":1739736536,"current_range_meters":7200,"station_id":"ce4bhlh2rcd13ifvqgig","pricing_plan_id":"cebpf4jnsgd1na2vs0mg"},{"bike_id":"c7a8eee0-b7b3-4f45-98d3-3777b365f914","system_id":"levelo_inurba_marseille","lat":43.31324,"lon":5.39694,"is_reserved":false,"is_disabled":false,"rental_uris":{"android":"levelo://app?vid=c7a8eee0-b7b3-4f45-98d3-3777b365f914","ios":"levelo://app?vid=c7a8eee0-b7b3-4f45-98d3-3777b365f914"},"vehicle_type_id":"4","last_reported":1739736536,"current_range_meters":32400,"station_id":"ce4bgvp2rcd13ifvqcu0","pricing_plan_id":"cebpf4jnsgd1na2vs0mg"},{"bike_id":"08d8b26a-b800-4e1b-a421-f16d8aaccfb4","system_id":"levelo_inurba_marseille","lat":43.25866,"lon":5.3991,"is_reserved":false,"is_disabled":false,"rental_uris":{"android":"levelo://app?vid=08d8b26a-b800-4e1b-a421-f16d8aaccfb4","ios":"levelo://app?vid=08d8b26a-b800-4e1b-a421-f16d8aaccfb4"},"vehicle_type_id":"4","last_reported":1739736536,"current_range_meters":18000,"station_id":"ce4bhl92rcd13ifvqghg","pricing_plan_id":"cebpf4jnsgd1na2vs0mg"},{"bike_id":"58efad17-13ed-4bd4-bfa7-23dfc65448b8","system_id":"levelo_inurba_marseille","lat":43.28111,"lon":5.37845,"is_reserved":false,"is_disabled":false,"rental_uris":{"android":"levelo://app?vid=58efad17-13ed-4bd4-bfa7-23dfc65448b8","ios":"levelo://app?vid=58efad17-13ed-4bd4-bfa7-23dfc65448b8"},"vehicle_type_id":"4","last_reported":1739736536,"current_range_meters":37600,"station_id":"ce4bha12rcd13ifvqee0","pricing_plan_id":"cebpf4jnsgd1na2vs0mg"},{"bike_id":"9cf8e6d9-67b8-441b-8ab4-08ef8560d2b0","system_id":"levelo_inurba_marseille","lat":43.33514,"lon":5.35585,"is_reserved":false,"is_disabled":true,"rental_uris":{"android":"levelo://app?vid=9cf8e6d9-67b8-441b-8ab4-08ef8560d2b0","ios":"levelo://app?vid=9cf8e6d9-67b8-441b-8ab4-08ef8560d2b0"},"vehicle_type_id":"4","last_reported":1739736536,"current_range_meters":0,"station_id":"","pricing_plan_id":"cebpf4jnsgd1na2vs0mg"},{"bike_id":"c04980e9-bfb0-4389-9825-bcd3b531a242","system_id":"levelo_inurba_marseille","lat":43.29375,"lon":5.37851,"is_reserved":false,"is_disabled":false,"rental_uris":{"android":"levelo://app?vid=c04980e9-bfb0-4389-9825-bcd3b531a242","ios":"levelo://app?vid=c04980e9-bfb0-4389-9825-bcd3b531a242"},"vehicle_type_id":"4","last_reported":1739736536,"current_range_meters":36000,"station_id":"ce4bgjh2rcd13ifvqbf0","pricing_plan_id":"cebpf4jnsgd1na2vs0mg"},{"bike_id":"731ca817-f595-4f2d-b5ea-108d06703dbc","system_id":"levelo_inurba_marseille","lat":43.29791,"lon":5.39331,"is_reserved":false,"is_disabled":false,"rental_uris":{"android":"levelo://app?vid=731ca817-f595-4f2d-b5ea-108d06703dbc","ios":"levelo://app?vid=731ca817-f595-4f2d-b5ea-108d06703dbc"},"vehicle_type_id":"4","last_reported":1739736536,"current_range_meters":36800,"station_id":"chh1huq6cuj3fo74tm60","pricing_plan_id":"cebpf4jnsgd1na2vs0mg"},{"bike_id":"75cd112f-7875-4900-870e-0b0ff647a7f2","system_id":"levelo_inurba_marseille","lat":43.29869,"lon":5.38905,"is_reserved":false,"is_disabled":false,"rental_uris":{"android":"levelo://app?vid=75cd112f-7875-4900-870e-0b0ff647a7f2","ios":"levelo://app?vid=75cd112f-7875-4900-870e-0b0ff647a7f2"},"vehicle_type_id":"4","last_reported":1739736536,"current_range_meters":35600,"station_id":"ce4bh392rcd13ifvqdl0","pricing_plan_id":"cebpf4jnsgd1na2vs0mg"},{"bike_id":"6c78b8dd-a446-427f-ad7f-5dabcc9c995c","system_id":"levelo_inurba_marseille","lat":43.29799,"lon":5.3934,"is_reserved":false,"is_disabled":false,"rental_uris":{"android":"levelo://app?vid=6c78b8dd-a446-427f-ad7f-5dabcc9c995c","ios":"levelo://app?vid=6c78b8dd-a446-427f-ad7f-5dabcc9c995c"},"vehicle_type_id":"4","last_reported":1739736536,"current_range_meters":38800,"station_id":"chh1huq6cuj3fo74tm60","pricing_plan_id":"cebpf4jnsgd1na2vs0mg"},{"bike_id":"674cf30b-c3f1-495b-8b3c-0494b81c9b0d","system_id":"levelo_inurba_marseille","lat":43.25499,"lon":5.37649,"is_reserved":false,"is_disabled":false,"rental_uris":{"android":"levelo://app?vid=674cf30b-c3f1-495b-8b3c-0494b81c9b0d","ios":"levelo://app?vid=674cf30b-c3f1-495b-8b3c-0494b81c9b0d"},"vehicle_type_id":"4","last_reported":1739736536,"current_range_meters":38800,"station_id":"ce4bhh12rcd13ifvqff0","pricing_plan_id":"cebpf4jnsgd1na2vs0mg"},{"bike_id":"fc6c250c-ce8d-4a79-9f04-86e2daa69ddd","system_id":"levelo_inurba_marseille","lat":43.28464,"lon":5.3588,"is_reserved":false,"is_disabled":false,"rental_uris":{"android":"levelo://app?vid=fc6c250c-ce8d-4a79-9f04-86e2daa69ddd","ios":"levelo://app?vid=fc6c250c-ce8d-4a79-9f04-86e2daa69ddd"},"vehicle_type_id":"4","last_reported":1739736536,"current_range_meters":22800,"station_id":"ce4bhah2rcd13ifvqei0","pricing_plan_id":"cebpf4jnsgd1na2vs0mg"},{"bike_id":"4bb8f935-f0d7-49f5-9dd4-3c3dcbae4c88","system_id":"levelo_inurba_marseille","lat":43.31169,"lon":5.38718,"is_reserved":false,"is_disabled":false,"rental_uris":{"android":"levelo://app?vid=4bb8f935-f0d7-49f5-9dd4-3c3dcbae4c88","ios":"levelo://app?vid=4bb8f935-f0d7-49f5-9dd4-3c3dcbae4c88"},"vehicle_type_id":"4","last_reported":1739736536,"current_range_meters":24000,"station_id":"ce4bgv12rcd13ifvqcp0","pricing_plan_id":"cebpf4jnsgd1na2vs0mg"},{"bike_id":"3e63422c-ef12-46e1-b25f-b3c80656ece8","system_id":"levelo_inurba_marseille","lat":43.33058,"lon":5.39008,"is_reserved":false,"is_disabled":false,"rental_uris":{"android":"levelo://app?vid=3e63422c-ef12-46e1-b25f-b3c80656ece8","ios":"levelo://app?vid=3e63422c-ef12-46e1-b25f-b3c80656ece8"},"vehicle_type_id":"4","last_reported":1739736536,"current_range_meters":19200,"station_id":"ce4bhr92rcd13ifvqhrg","pricing_plan_id":"cebpf4jnsgd1na2vs0mg"},{"bike_id":"699b4ead-7083-4b29-85c3-471cfd54f9e5","system_id":"levelo_inurba_marseille","lat":43.2982,"lon":5.40422,"is_reserved":false,"is_disabled":true,"rental_uris":{"android":"levelo://app?vid=699b4ead-7083-4b29-85c3-471cfd54f9e5","ios":"levelo://app?vid=699b4ead-7083-4b29-85c3-471cfd54f9e5"},"vehicle_type_id":"4","last_reported":1739736536,"current_range_meters":35200,"station_id":"ce4bh112rcd13ifvqd90","pricing_plan_id":"cebpf4jnsgd1na2vs0mg"},{"bike_id":"0287f0d7-f1be-4f59-9230-c953775628db","system_id":"levelo_inurba_marseille","lat":43.32347,"lon":5.40636,"is_reserved":false,"is_disabled":false,"rental_uris":{"android":"levelo://app?vid=0287f0d7-f1be-4f59-9230-c953775628db","ios":"levelo://app?vid=0287f0d7-f1be-4f59-9230-c953775628db"},"vehicle_type_id":"4","last_reported":1739736536,"current_range_meters":38800,"station_id":"ce4bhq92rcd13ifvqhjg","pricing_plan_id":"cebpf4jnsgd1na2vs0mg"},{"bike_id":"51ab7186-5043-4bed-baca-73708608a302","system_id":"levelo_inurba_marseille","lat":43.29584,"lon":5.37026,"is_reserved":false,"is_disabled":true,"rental_uris":{"android":"levelo://app?vid=51ab7186-5043-4bed-baca-73708608a302","ios":"levelo://app?vid=51ab7186-5043-4bed-baca-73708608a302"},"vehicle_type_id":"4","last_reported":1739736536,"current_range_meters":0,"station_id":"","pricing_plan_id":"cebpf4jnsgd1na2vs0mg"},{"bike_id":"9760b051-4e9e-4125-bdb3-bbff49eb6279","system_id":"levelo_inurba_marseille","lat":43.31631,"lon":5.40471,"is_reserved":false,"is_disabled":false,"rental_uris":{"android":"levelo://app?vid=9760b051-4e9e-4125-bdb3-bbff49eb6279","ios":"levelo://app?vid=9760b051-4e9e-4125-bdb3-bbff49eb6279"},"vehicle_type_id":"4","last_reported":1739736536,"current_range_meters":10000,"station_id":"","pricing_plan_id":"cebpf4jnsgd1na2vs0mg"},{"bike_id":"ef1d4c74-2713-453f-aa59-65551529c49d","system_id":"levelo_inurba_marseille","lat":43.23195,"lon":5.39991,"is_reserved":false,"is_disabled":false,"rental_uris":{"android":"levelo://app?vid=ef1d4c74-2713-453f-aa59-65551529c49d","ios":"levelo://app?vid=ef1d4c74-2713-453f-aa59-65551529c49d"},"vehicle_type_id":"4","last_reported":1739736536,"current_range_meters":19600,"station_id":"ce4bhn12rcd13ifvqgqg","pricing_plan_id":"cebpf4jnsgd1na2vs0mg"},{"bike_id":"c5559994-20bc-48c5-9397-a0a5bf13f2e6","system_id":"levelo_inurba_marseille","lat":43.25864,"lon":5.39907,"is_reserved":false,"is_disabled":true,"rental_uris":{"android":"levelo://app?vid=c5559994-20bc-48c5-9397-a0a5bf13f2e6","ios":"levelo://app?vid=c5559994-20bc-48c5-9397-a0a5bf13f2e6"},"vehicle_type_id":"4","last_reported":1739736536,"current_range_meters":8400,"station_id":"ce4bhl92rcd13ifvqghg","pricing_plan_id":"cebpf4jnsgd1na2vs0mg"},{"bike_id":"20aa5b23-fbe5-4790-ad90-ddc22f8f839f","system_id":"levelo_inurba_marseille","lat":43.24154,"lon":5.36415,"is_reserved":false,"is_disabled":false,"rental_uris":{"android":"levelo://app?vid=20aa5b23-fbe5-4790-ad90-ddc22f8f839f","ios":"levelo://app?vid=20aa5b23-fbe5-4790-ad90-ddc22f8f839f"},"vehicle_type_id":"4","last_reported":1739736536,"current_range_meters":27600,"station_id":"cpo36qri1sfpv3e86is0","pricing_plan_id":"cebpf4jnsgd1na2vs0mg"},{"bike_id":"e370385e-c263-461b-8088-06a780c4ca95","system_id":"levelo_inurba_marseille","lat":43.34139,"lon":5.40895,"is_reserved":false,"is_disabled":false,"rental_uris":{"android":"levelo://app?vid=e370385e-c263-461b-8088-06a780c4ca95","ios":"levelo://app?vid=e370385e-c263-461b-8088-06a780c4ca95"},"vehicle_type_id":"4","last_reported":1739736536,"current_range_meters":38800,"station_id":"ce4bhqh2rcd13ifvqhlg","pricing_plan_id":"cebpf4jnsgd1na2vs0mg"},{"bike_id":"3fb25178-0097-4c0d-aa7c-df7cf9b4f5f8","system_id":"levelo_inurba_marseille","lat":43.29203,"lon":5.39331,"is_reserved":false,"is_disabled":false,"rental_uris":{"android":"levelo://app?vid=3fb25178-0097-4c0d-aa7c-df7cf9b4f5f8","ios":"levelo://app?vid=3fb25178-0097-4c0d-aa7c-df7cf9b4f5f8"},"vehicle_type_id":"4","last_reported":1739736536,"current_range_meters":28000,"station_id":"ce4bh192rcd13ifvqdd0","pricing_plan_id":"cebpf4jnsgd1na2vs0mg"},{"bike_id":"c40e2cb9-b89c-4dbd-956b-535ef79f1d37","system_id":"levelo_inurba_marseille","lat":43.24813,"lon":5.37459,"is_reserved":false,"is_disabled":false,"rental_uris":{"android":"levelo://app?vid=c40e2cb9-b89c-4dbd-956b-535ef79f1d37","ios":"levelo://app?vid=c40e2cb9-b89c-4dbd-956b-535ef79f1d37"},"vehicle_type_id":"4","last_reported":1739736536,"current_range_meters":17600,"station_id":"ce4bhgh2rcd13ifvqfb0","pricing_plan_id":"cebpf4jnsgd1na2vs0mg"},{"bike_id":"621aa48b-6d99-46c4-b886-2c6eb903854e","system_id":"levelo_inurba_marseille","lat":43.29281,"lon":5.36831,"is_reserved":false,"is_disabled":true,"rental_uris":{"android":"levelo://app?vid=621aa48b-6d99-46c4-b886-2c6eb903854e","ios":"levelo://app?vid=621aa48b-6d99-46c4-b886-2c6eb903854e"},"vehicle_type_id":"4","last_reported":1739736536,"current_range_meters":27600,"station_id":"ce4bhbp2rcd13ifvqesg","pricing_plan_id":"cebpf4jnsgd1na2vs0mg"},{"bike_id":"6c892c07-6f7e-4303-b497-57dd12074326","system_id":"levelo_inurba_marseille","lat":43.29196,"lon":5.39318,"is_reserved":false,"is_disabled":false,"rental_uris":{"android":"levelo://app?vid=6c892c07-6f7e-4303-b497-57dd12074326","ios":"levelo://app?vid=6c892c07-6f7e-4303-b497-57dd12074326"},"vehicle_type_id":"4","last_reported":1739736536,"current_range_meters":12800,"station_id":"ce4bh192rcd13ifvqdd0","pricing_plan_id":"cebpf4jnsgd1na2vs0mg"},{"bike_id":"206f1ce2-224a-4d1d-b6e4-199f90d3a887","system_id":"levelo_inurba_marseille","lat":43.32672,"lon":5.41002,"is_reserved":false,"is_disabled":false,"rental_uris":{"android":"levelo://app?vid=206f1ce2-224a-4d1d-b6e4-199f90d3a887","ios":"levelo://app?vid=206f1ce2-224a-4d1d-b6e4-199f90d3a887"},"vehicle_type_id":"4","last_reported":1739736536,"current_range_meters":38800,"station_id":"ce4bhpp2rcd13ifvqhgg","pricing_plan_id":"cebpf4jnsgd1na2vs0mg"},{"bike_id":"c4a02628-5bda-4dbb-9bd4-64e32cc52e35","system_id":"levelo_inurba_marseille","lat":43.24806,"lon":5.37453,"is_reserved":false,"is_disabled":false,"rental_uris":{"android":"levelo://app?vid=c4a02628-5bda-4dbb-9bd4-64e32cc52e35","ios":"levelo://app?vid=c4a02628-5bda-4dbb-9bd4-64e32cc52e35"},"vehicle_type_id":"4","last_reported":1739736536,"current_range_meters":28400,"station_id":"ce4bhgh2rcd13ifvqfb0","pricing_plan_id":"cebpf4jnsgd1na2vs0mg"},{"bike_id":"4afd05b5-41e1-4012-b907-304d88773920","system_id":"levelo_inurba_marseille","lat":43.23969,"lon":5.36633,"is_reserved":false,"is_disabled":false,"rental_uris":{"android":"levelo://app?vid=4afd05b5-41e1-4012-b907-304d88773920","ios":"levelo://app?vid=4afd05b5-41e1-4012-b907-304d88773920"},"vehicle_type_id":"4","last_reported":1739736536,"current_range_meters":35600,"station_id":"ce4bhi12rcd13ifvqfp0","pricing_plan_id":"cebpf4jnsgd1na2vs0mg"},{"bike_id":"b1c5c911-6ef2-449f-8d9f-d449ab1f4067","system_id":"levelo_inurba_marseille","lat":43.28419,"lon":5.35001,"is_reserved":false,"is_disabled":false,"rental_uris":{"android":"levelo://app?vid=b1c5c911-6ef2-449f-8d9f-d449ab1f4067","ios":"levelo://app?vid=b1c5c911-6ef2-449f-8d9f-d449ab1f4067"},"vehicle_type_id":"4","last_reported":1739736536,"current_range_meters":38800,"station_id":"ce4bhbh2rcd13ifvqepg","pricing_plan_id":"cebpf4jnsgd1na2vs0mg"},{"bike_id":"af02ac68-734a-4337-a76f-2d6f15936fdf","system_id":"levelo_inurba_marseille","lat":43.31749,"lon":5.38897,"is_reserved":false,"is_disabled":false,"rental_uris":{"android":"levelo://app?vid=af02ac68-734a-4337-a76f-2d6f15936fdf","ios":"levelo://app?vid=af02ac68-734a-4337-a76f-2d6f15936fdf"},"vehicle_type_id":"4","last_reported":1739736536,"current_range_meters":3200,"station_id":"","pricing_plan_id":"cebpf4jnsgd1na2vs0mg"},{"bike_id":"aa65e4ee-faaf-4eea-b682-b92b4380af90","system_id":"levelo_inurba_marseille","lat":43.27896,"lon":5.37942,"is_reserved":false,"is_disabled":false,"rental_uris":{"android":"levelo://app?vid=aa65e4ee-faaf-4eea-b682-b92b4380af90","ios":"levelo://app?vid=aa65e4ee-faaf-4eea-b682-b92b4380af90"},"vehicle_type_id":"4","last_reported":1739736536,"current_range_meters":35200,"station_id":"ce4bhf92rcd13ifvqf50","pricing_plan_id":"cebpf4jnsgd1na2vs0mg"},{"bike_id":"952c4ced-f4d5-4dda-a664-d7808e10078a","system_id":"levelo_inurba_marseille","lat":43.282812,"lon":5.350796,"is_reserved":false,"is_disabled":false,"rental_uris":{"android":"levelo://app?vid=952c4ced-f4d5-4dda-a664-d7808e10078a","ios":"levelo://app?vid=952c4ced-f4d5-4dda-a664-d7808e10078a"},"vehicle_type_id":"4","last_reported":1739736536,"current_range_meters":24800,"station_id":"ce4bhbp2rcd13ifvqerg","pricing_plan_id":"cebpf4jnsgd1na2vs0mg"},{"bike_id":"a7f56294-b2df-44ac-a42e-87dd6bccc765","system_id":"levelo_inurba_marseille","lat":43.30898,"lon":5.36872,"is_reserved":false,"is_disabled":false,"rental_uris":{"android":"levelo://app?vid=a7f56294-b2df-44ac-a42e-87dd6bccc765","ios":"levelo://app?vid=a7f56294-b2df-44ac-a42e-87dd6bccc765"},"vehicle_type_id":"4","last_reported":1739736536,"current_range_meters":38800,"station_id":"ce4bgn92rcd13ifvqbvg","pricing_plan_id":"cebpf4jnsgd1na2vs0mg"},{"bike_id":"3ce3dae2-ed5f-43cb-bad9-b317ce2471d9","system_id":"levelo_inurba_marseille","lat":43.24827,"lon":5.37426,"is_reserved":false,"is_disabled":false,"rental_uris":{"android":"levelo://app?vid=3ce3dae2-ed5f-43cb-bad9-b317ce2471d9","ios":"levelo://app?vid=3ce3dae2-ed5f-43cb-bad9-b317ce2471d9"},"vehicle_type_id":"4","last_reported":1739736536,"current_range_meters":36400,"station_id":"ce4bhgh2rcd13ifvqfb0","pricing_plan_id":"cebpf4jnsgd1na2vs0mg"},{"bike_id":"397f7144-3e20-4f61-9149-2720265fc375","system_id":"levelo_inurba_marseille","lat":43.24073,"lon":5.37736,"is_reserved":false,"is_disabled":false,"rental_uris":{"android":"levelo://app?vid=397f7144-3e20-4f61-9149-2720265fc375","ios":"levelo://app?vid=397f7144-3e20-4f61-9149-2720265fc375"},"vehicle_type_id":"4","last_reported":1739736536,"current_range_meters":33600,"station_id":"ce4bhnp2rcd13ifvqgvg","pricing_plan_id":"cebpf4jnsgd1na2vs0mg"},{"bike_id":"79405d4e-4d60-44d8-b3ca-13127cb58ee5","system_id":"levelo_inurba_marseille","lat":43.24806,"lon":5.37454,"is_reserved":false,"is_disabled":false,"rental_uris":{"android":"levelo://app?vid=79405d4e-4d60-44d8-b3ca-13127cb58ee5","ios":"levelo://app?vid=79405d4e-4d60-44d8-b3ca-13127cb58ee5"},"vehicle_type_id":"4","last_reported":1739736536,"current_range_meters":12400,"station_id":"ce4bhgh2rcd13ifvqfb0","pricing_plan_id":"cebpf4jnsgd1na2vs0mg"},{"bike_id":"a99cac07-a040-4d05-a559-9ab29a6f7206","system_id":"levelo_inurba_marseille","lat":43.28572,"lon":5.39495,"is_reserved":false,"is_disabled":false,"rental_uris":{"android":"levelo://app?vid=a99cac07-a040-4d05-a559-9ab29a6f7206","ios":"levelo://app?vid=a99cac07-a040-4d05-a559-9ab29a6f7206"},"vehicle_type_id":"4","last_reported":1739736536,"current_range_meters":32800,"station_id":"ce4bh292rcd13ifvqdg0","pricing_plan_id":"cebpf4jnsgd1na2vs0mg"},{"bike_id":"cede1289-389f-43d9-bcd3-77c59f1eec85","system_id":"levelo_inurba_marseille","lat":43.24809,"lon":5.37461,"is_reserved":false,"is_disabled":false,"rental_uris":{"android":"levelo://app?vid=cede1289-389f-43d9-bcd3-77c59f1eec85","ios":"levelo://app?vid=cede1289-389f-43d9-bcd3-77c59f1eec85"},"vehicle_type_id":"4","last_reported":1739736536,"current_range_meters":32000,"station_id":"ce4bhgh2rcd13ifvqfb0","pricing_plan_id":"cebpf4jnsgd1na2vs0mg"},{"bike_id":"ecab2739-28b2-4e19-bf4b-bec57b9e8ed4","system_id":"levelo_inurba_marseille","lat":43.29524,"lon":5.39423,"is_reserved":false,"is_disabled":false,"rental_uris":{"android":"levelo://app?vid=ecab2739-28b2-4e19-bf4b-bec57b9e8ed4","ios":"levelo://app?vid=ecab2739-28b2-4e19-bf4b-bec57b9e8ed4"},"vehicle_type_id":"4","last_reported":1739736536,"current_range_meters":24000,"station_id":"ce4bh292rcd13ifvqdf0","pricing_plan_id":"cebpf4jnsgd1na2vs0mg"},{"bike_id":"4b9395aa-43ce-496b-a9cc-b666d2d4fc09","system_id":"levelo_inurba_marseille","lat":43.282758,"lon":5.350673,"is_reserved":false,"is_disabled":false,"rental_uris":{"android":"levelo://app?vid=4b9395aa-43ce-496b-a9cc-b666d2d4fc09","ios":"levelo://app?vid=4b9395aa-43ce-496b-a9cc-b666d2d4fc09"},"vehicle_type_id":"4","last_reported":1739736536,"current_range_meters":38800,"station_id":"ce4bhbp2rcd13ifvqerg","pricing_plan_id":"cebpf4jnsgd1na2vs0mg"},{"bike_id":"4fb3f8f8-16a1-4d1d-8fc5-a5531f141d0a","system_id":"levelo_inurba_marseille","lat":43.28699,"lon":5.38675,"is_reserved":false,"is_disabled":false,"rental_uris":{"android":"levelo://app?vid=4fb3f8f8-16a1-4d1d-8fc5-a5531f141d0a","ios":"levelo://app?vid=4fb3f8f8-16a1-4d1d-8fc5-a5531f141d0a"},"vehicle_type_id":"4","last_reported":1739736536,"current_range_meters":36000,"station_id":"ce4bh492rcd13ifvqdug","pricing_plan_id":"cebpf4jnsgd1na2vs0mg"},{"bike_id":"d43bd43e-d458-48c4-bf9d-1b0cb576be67","system_id":"levelo_inurba_marseille","lat":43.3089,"lon":5.39658,"is_reserved":false,"is_disabled":false,"rental_uris":{"android":"levelo://app?vid=d43bd43e-d458-48c4-bf9d-1b0cb576be67","ios":"levelo://app?vid=d43bd43e-d458-48c4-bf9d-1b0cb576be67"},"vehicle_type_id":"4","last_reported":1739736536,"current_range_meters":26800,"station_id":"ce4bh012rcd13ifvqcv0","pricing_plan_id":"cebpf4jnsgd1na2vs0mg"},{"bike_id":"d505ae6b-8401-49d2-a7e3-85c98bc77f1c","system_id":"levelo_inurba_marseille","lat":43.32366,"lon":5.40619,"is_reserved":false,"is_disabled":false,"rental_uris":{"android":"levelo://app?vid=d505ae6b-8401-49d2-a7e3-85c98bc77f1c","ios":"levelo://app?vid=d505ae6b-8401-49d2-a7e3-85c98bc77f1c"},"vehicle_type_id":"4","last_reported":1739736536,"current_range_meters":17600,"station_id":"ce4bhq92rcd13ifvqhjg","pricing_plan_id":"cebpf4jnsgd1na2vs0mg"},{"bike_id":"9ef51e36-6b91-4370-b608-25268899d671","system_id":"levelo_inurba_marseille","lat":43.27788,"lon":5.40715,"is_reserved":false,"is_disabled":false,"rental_uris":{"android":"levelo://app?vid=9ef51e36-6b91-4370-b608-25268899d671","ios":"levelo://app?vid=9ef51e36-6b91-4370-b608-25268899d671"},"vehicle_type_id":"4","last_reported":1739736536,"current_range_meters":20800,"station_id":"ce4bhnh2rcd13ifvqgtg","pricing_plan_id":"cebpf4jnsgd1na2vs0mg"},{"bike_id":"6408b994-ae56-4e32-95b9-cb0502299b0f","system_id":"levelo_inurba_marseille","lat":43.29551,"lon":5.42278,"is_reserved":false,"is_disabled":false,"rental_uris":{"android":"levelo://app?vid=6408b994-ae56-4e32-95b9-cb0502299b0f","ios":"levelo://app?vid=6408b994-ae56-4e32-95b9-cb0502299b0f"},"vehicle_type_id":"4","last_reported":1739736536,"current_range_meters":37600,"station_id":"ce4bhph2rcd13ifvqhdg","pricing_plan_id":"cebpf4jnsgd1na2vs0mg"},{"bike_id":"e87d3a2a-e0eb-491b-a724-860180a65cab","system_id":"levelo_inurba_marseille","lat":43.27236,"lon":5.40071,"is_reserved":false,"is_disabled":false,"rental_uris":{"android":"levelo://app?vid=e87d3a2a-e0eb-491b-a724-860180a65cab","ios":"levelo://app?vid=e87d3a2a-e0eb-491b-a724-860180a65cab"},"vehicle_type_id":"4","last_reported":1739736536,"current_range_meters":17200,"station_id":"","pricing_plan_id":"cebpf4jnsgd1na2vs0mg"},{"bike_id":"982c499f-f482-40de-b19f-0c738b7d10ae","system_id":"levelo_inurba_marseille","lat":43.248,"lon":5.37468,"is_reserved":false,"is_disabled":false,"rental_uris":{"android":"levelo://app?vid=982c499f-f482-40de-b19f-0c738b7d10ae","ios":"levelo://app?vid=982c499f-f482-40de-b19f-0c738b7d10ae"},"vehicle_type_id":"4","last_reported":1739736536,"current_range_meters":38800,"station_id":"ce4bhgh2rcd13ifvqfb0","pricing_plan_id":"cebpf4jnsgd1na2vs0mg"},{"bike_id":"98f62326-8a26-4889-8233-3fa661e57e03","system_id":"levelo_inurba_marseille","lat":43.251081,"lon":5.403154,"is_reserved":false,"is_disabled":false,"rental_uris":{"android":"levelo://app?vid=98f62326-8a26-4889-8233-3fa661e57e03","ios":"levelo://app?vid=98f62326-8a26-4889-8233-3fa661e57e03"},"vehicle_type_id":"4","last_reported":1739736536,"current_range_meters":7200,"station_id":"ce4bhlh2rcd13ifvqgig","pricing_plan_id":"cebpf4jnsgd1na2vs0mg"},{"bike_id":"7f3d31c8-066f-4b9d-b987-28a73c221cd5","system_id":"levelo_inurba_marseille","lat":43.30656,"lon":5.40086,"is_reserved":false,"is_disabled":false,"rental_uris":{"android":"levelo://app?vid=7f3d31c8-066f-4b9d-b987-28a73c221cd5","ios":"levelo://app?vid=7f3d31c8-066f-4b9d-b987-28a73c221cd5"},"vehicle_type_id":"4","last_reported":1739736536,"current_range_meters":20800,"station_id":"ce4bh112rcd13ifvqda0","pricing_plan_id":"cebpf4jnsgd1na2vs0mg"},{"bike_id":"3ad1a4ba-b201-406f-9457-4413d720826f","system_id":"levelo_inurba_marseille","lat":43.29874,"lon":5.38143,"is_reserved":false,"is_disabled":false,"rental_uris":{"android":"levelo://app?vid=3ad1a4ba-b201-406f-9457-4413d720826f","ios":"levelo://app?vid=3ad1a4ba-b201-406f-9457-4413d720826f"},"vehicle_type_id":"4","last_reported":1739736536,"current_range_meters":36800,"station_id":"ce4bgj12rcd13ifvqbc0","pricing_plan_id":"cebpf4jnsgd1na2vs0mg"},{"bike_id":"f364e7fd-b7af-4331-9c85-154b4666d931","system_id":"levelo_inurba_marseille","lat":43.28453,"lon":5.35005,"is_reserved":false,"is_disabled":true,"rental_uris":{"android":"levelo://app?vid=f364e7fd-b7af-4331-9c85-154b4666d931","ios":"levelo://app?vid=f364e7fd-b7af-4331-9c85-154b4666d931"},"vehicle_type_id":"4","last_reported":1739736536,"current_range_meters":0,"station_id":"ce4bhbh2rcd13ifvqepg","pricing_plan_id":"cebpf4jnsgd1na2vs0mg"},{"bike_id":"d41bd212-63b7-457d-8ea1-e3e91cc8b27a","system_id":"levelo_inurba_marseille","lat":43.28858,"lon":5.35842,"is_reserved":false,"is_disabled":false,"rental_uris":{"android":"levelo://app?vid=d41bd212-63b7-457d-8ea1-e3e91cc8b27a","ios":"levelo://app?vid=d41bd212-63b7-457d-8ea1-e3e91cc8b27a"},"vehicle_type_id":"4","last_reported":1739736536,"current_range_meters":30800,"station_id":"ce4bhb12rcd13ifvqem0","pricing_plan_id":"cebpf4jnsgd1na2vs0mg"},{"bike_id":"7df33989-9cd1-4583-a90f-25c190f648b5","system_id":"levelo_inurba_marseille","lat":43.29391,"lon":5.38616,"is_reserved":false,"is_disabled":false,"rental_uris":{"android":"levelo://app?vid=7df33989-9cd1-4583-a90f-25c190f648b5","ios":"levelo://app?vid=7df33989-9cd1-4583-a90f-25c190f648b5"},"vehicle_type_id":"4","last_reported":1739736536,"current_range_meters":28800,"station_id":"ce4bh2h2rcd13ifvqdh0","pricing_plan_id":"cebpf4jnsgd1na2vs0mg"},{"bike_id":"b41d3720-aa71-47a2-b4a1-87c3709f0395","system_id":"levelo_inurba_marseille","lat":43.29273,"lon":5.38442,"is_reserved":false,"is_disabled":false,"rental_uris":{"android":"levelo://app?vid=b41d3720-aa71-47a2-b4a1-87c3709f0395","ios":"levelo://app?vid=b41d3720-aa71-47a2-b4a1-87c3709f0395"},"vehicle_type_id":"4","last_reported":1739736536,"current_range_meters":25200,"station_id":"ce4bh692rcd13ifvqea0","pricing_plan_id":"cebpf4jnsgd1na2vs0mg"},{"bike_id":"68f09d21-e909-42d1-8b8b-1fe352cb5a71","system_id":"levelo_inurba_marseille","lat":43.24817,"lon":5.37453,"is_reserved":false,"is_disabled":false,"rental_uris":{"android":"levelo://app?vid=68f09d21-e909-42d1-8b8b-1fe352cb5a71","ios":"levelo://app?vid=68f09d21-e909-42d1-8b8b-1fe352cb5a71"},"vehicle_type_id":"4","last_reported":1739736536,"current_range_meters":38800,"station_id":"ce4bhgh2rcd13ifvqfb0","pricing_plan_id":"cebpf4jnsgd1na2vs0mg"},{"bike_id":"05f82d89-fa80-4f7f-95e3-de8829322c89","system_id":"levelo_inurba_marseille","lat":43.25491,"lon":5.37663,"is_reserved":false,"is_disabled":true,"rental_uris":{"android":"levelo://app?vid=05f82d89-fa80-4f7f-95e3-de8829322c89","ios":"levelo://app?vid=05f82d89-fa80-4f7f-95e3-de8829322c89"},"vehicle_type_id":"4","last_reported":1739736536,"current_range_meters":30800,"station_id":"ce4bhh12rcd13ifvqff0","pricing_plan_id":"cebpf4jnsgd1na2vs0mg"},{"bike_id":"30ea1aa1-f18a-46ba-baa0-81223557424e","system_id":"levelo_inurba_marseille","lat":43.27611,"lon":5.3611,"is_reserved":false,"is_disabled":false,"rental_uris":{"android":"levelo://app?vid=30ea1aa1-f18a-46ba-baa0-81223557424e","ios":"levelo://app?vid=30ea1aa1-f18a-46ba-baa0-81223557424e"},"vehicle_type_id":"4","last_reported":1739736536,"current_range_meters":28400,"station_id":"ce4bgj92rcd13ifvqbe0","pricing_plan_id":"cebpf4jnsgd1na2vs0mg"},{"bike_id":"23b444ef-90ed-4509-b4a2-cce013b96af6","system_id":"levelo_inurba_marseille","lat":43.28433,"lon":5.35007,"is_reserved":false,"is_disabled":false,"rental_uris":{"android":"levelo://app?vid=23b444ef-90ed-4509-b4a2-cce013b96af6","ios":"levelo://app?vid=23b444ef-90ed-4509-b4a2-cce013b96af6"},"vehicle_type_id":"4","last_reported":1739736536,"current_range_meters":27600,"station_id":"ce4bhbh2rcd13ifvqepg","pricing_plan_id":"cebpf4jnsgd1na2vs0mg"},{"bike_id":"38d6334f-19e1-4dc9-afb2-b5c941e259f5","system_id":"levelo_inurba_marseille","lat":43.29512,"lon":5.39026,"is_reserved":false,"is_disabled":false,"rental_uris":{"android":"levelo://app?vid=38d6334f-19e1-4dc9-afb2-b5c941e259f5","ios":"levelo://app?vid=38d6334f-19e1-4dc9-afb2-b5c941e259f5"},"vehicle_type_id":"4","last_reported":1739736536,"current_range_meters":30400,"station_id":"ce4bh3p2rcd13ifvqdp0","pricing_plan_id":"cebpf4jnsgd1na2vs0mg"},{"bike_id":"281b84f3-58f9-4822-a666-06aa2e562366","system_id":"levelo_inurba_marseille","lat":43.24164,"lon":5.36403,"is_reserved":false,"is_disabled":false,"rental_uris":{"android":"levelo://app?vid=281b84f3-58f9-4822-a666-06aa2e562366","ios":"levelo://app?vid=281b84f3-58f9-4822-a666-06aa2e562366"},"vehicle_type_id":"4","last_reported":1739736536,"current_range_meters":25200,"station_id":"cpo36qri1sfpv3e86is0","pricing_plan_id":"cebpf4jnsgd1na2vs0mg"},{"bike_id":"f58c78ee-fb4b-4848-9574-1fd30425a15a","system_id":"levelo_inurba_marseille","lat":43.32483,"lon":5.36569,"is_reserved":false,"is_disabled":false,"rental_uris":{"android":"levelo://app?vid=f58c78ee-fb4b-4848-9574-1fd30425a15a","ios":"levelo://app?vid=f58c78ee-fb4b-4848-9574-1fd30425a15a"},"vehicle_type_id":"4","last_reported":1739736536,"current_range_meters":29600,"station_id":"ce4bhs12rcd13ifvqhvg","pricing_plan_id":"cebpf4jnsgd1na2vs0mg"},{"bike_id":"be3395f5-02c0-4e01-849f-366b10725bdb","system_id":"levelo_inurba_marseille","lat":43.28478,"lon":5.38419,"is_reserved":false,"is_disabled":false,"rental_uris":{"android":"levelo://app?vid=be3395f5-02c0-4e01-849f-366b10725bdb","ios":"levelo://app?vid=be3395f5-02c0-4e01-849f-366b10725bdb"},"vehicle_type_id":"4","last_reported":1739736536,"current_range_meters":19200,"station_id":"ce4bh512rcd13ifvqe3g","pricing_plan_id":"cebpf4jnsgd1na2vs0mg"},{"bike_id":"1c8853b9-dcce-4731-a7fe-8cd8b808a99e","system_id":"levelo_inurba_marseille","lat":43.29876,"lon":5.38896,"is_reserved":false,"is_disabled":false,"rental_uris":{"android":"levelo://app?vid=1c8853b9-dcce-4731-a7fe-8cd8b808a99e","ios":"levelo://app?vid=1c8853b9-dcce-4731-a7fe-8cd8b808a99e"},"vehicle_type_id":"4","last_reported":1739736536,"current_range_meters":30400,"station_id":"ce4bh392rcd13ifvqdl0","pricing_plan_id":"cebpf4jnsgd1na2vs0mg"},{"bike_id":"37e4b2ea-7872-40f3-ba3f-f68d4fa76227","system_id":"levelo_inurba_marseille","lat":43.29289,"lon":5.40136,"is_reserved":false,"is_disabled":false,"rental_uris":{"android":"levelo://app?vid=37e4b2ea-7872-40f3-ba3f-f68d4fa76227","ios":"levelo://app?vid=37e4b2ea-7872-40f3-ba3f-f68d4fa76227"},"vehicle_type_id":"4","last_reported":1739736536,"current_range_meters":34000,"station_id":"ce4bh312rcd13ifvqdk0","pricing_plan_id":"cebpf4jnsgd1na2vs0mg"},{"bike_id":"9c94e0d5-f5af-426c-a846-727d2d16657b","system_id":"levelo_inurba_marseille","lat":43.2804,"lon":5.36943,"is_reserved":false,"is_disabled":false,"rental_uris":{"android":"levelo://app?vid=9c94e0d5-f5af-426c-a846-727d2d16657b","ios":"levelo://app?vid=9c94e0d5-f5af-426c-a846-727d2d16657b"},"vehicle_type_id":"4","last_reported":1739736536,"current_range_meters":38800,"station_id":"ce4bha12rcd13ifvqef0","pricing_plan_id":"cebpf4jnsgd1na2vs0mg"},{"bike_id":"090da208-a850-4283-b2b7-806973894622","system_id":"levelo_inurba_marseille","lat":43.29532,"lon":5.38548,"is_reserved":false,"is_disabled":false,"rental_uris":{"android":"levelo://app?vid=090da208-a850-4283-b2b7-806973894622","ios":"levelo://app?vid=090da208-a850-4283-b2b7-806973894622"},"vehicle_type_id":"4","last_reported":1739736536,"current_range_meters":37600,"station_id":"ce4bgih2rcd13ifvqba0","pricing_plan_id":"cebpf4jnsgd1na2vs0mg"},{"bike_id":"917b1dc0-adb2-4903-84ef-22990e0daa55","system_id":"levelo_inurba_marseille","lat":43.30409,"lon":5.41281,"is_reserved":false,"is_disabled":false,"rental_uris":{"android":"levelo://app?vid=917b1dc0-adb2-4903-84ef-22990e0daa55","ios":"levelo://app?vid=917b1dc0-adb2-4903-84ef-22990e0daa55"},"vehicle_type_id":"4","last_reported":1739736536,"current_range_meters":32000,"station_id":"ce4bhop2rcd13ifvqh8g","pricing_plan_id":"cebpf4jnsgd1na2vs0mg"},{"bike_id":"f44027ef-774c-4ac4-8d50-81d21aa2b847","system_id":"levelo_inurba_marseille","lat":43.28625,"lon":5.35094,"is_reserved":false,"is_disabled":false,"rental_uris":{"android":"levelo://app?vid=f44027ef-774c-4ac4-8d50-81d21aa2b847","ios":"levelo://app?vid=f44027ef-774c-4ac4-8d50-81d21aa2b847"},"vehicle_type_id":"4","last_reported":1739736536,"current_range_meters":38800,"station_id":"ce4bhch2rcd13ifvqeug","pricing_plan_id":"cebpf4jnsgd1na2vs0mg"},{"bike_id":"03eba1d0-92c1-4e6e-a4d0-7c546f2439c0","system_id":"levelo_inurba_marseille","lat":43.337444,"lon":5.374475,"is_reserved":false,"is_disabled":true,"rental_uris":{"android":"levelo://app?vid=03eba1d0-92c1-4e6e-a4d0-7c546f2439c0","ios":"levelo://app?vid=03eba1d0-92c1-4e6e-a4d0-7c546f2439c0"},"vehicle_type_id":"4","last_reported":1739736536,"current_range_meters":0,"station_id":"","pricing_plan_id":"cebpf4jnsgd1na2vs0mg"},{"bike_id":"7670b8ae-6f61-4d26-b077-17100b95f8ab","system_id":"levelo_inurba_marseille","lat":43.28454,"lon":5.39171,"is_reserved":false,"is_disabled":true,"rental_uris":{"android":"levelo://app?vid=7670b8ae-6f61-4d26-b077-17100b95f8ab","ios":"levelo://app?vid=7670b8ae-6f61-4d26-b077-17100b95f8ab"},"vehicle_type_id":"4","last_reported":1739736536,"current_range_meters":27600,"station_id":"ce4bhoh2rcd13ifvqh5g","pricing_plan_id":"cebpf4jnsgd1na2vs0mg"},{"bike_id":"496e0267-f4a3-4e46-98dc-aa633c403f12","system_id":"levelo_inurba_marseille","lat":43.254911,"lon":5.376463,"is_reserved":false,"is_disabled":true,"rental_uris":{"android":"levelo://app?vid=496e0267-f4a3-4e46-98dc-aa633c403f12","ios":"levelo://app?vid=496e0267-f4a3-4e46-98dc-aa633c403f12"},"vehicle_type_id":"4","last_reported":1739736536,"current_range_meters":31200,"station_id":"ce4bhh12rcd13ifvqff0","pricing_plan_id":"cebpf4jnsgd1na2vs0mg"},{"bike_id":"22d03988-cef2-4c32-901a-c2d50b43d3a9","system_id":"levelo_inurba_marseille","lat":43.29538,"lon":5.38544,"is_reserved":false,"is_disabled":true,"rental_uris":{"android":"levelo://app?vid=22d03988-cef2-4c32-901a-c2d50b43d3a9","ios":"levelo://app?vid=22d03988-cef2-4c32-901a-c2d50b43d3a9"},"vehicle_type_id":"4","last_reported":1739736536,"current_range_meters":38000,"station_id":"ce4bgih2rcd13ifvqba0","pricing_plan_id":"cebpf4jnsgd1na2vs0mg"},{"bike_id":"dc8f3a1c-f2fe-4b0d-b970-db9c4df9a40d","system_id":"levelo_inurba_marseille","lat":43.28426,"lon":5.34977,"is_reserved":false,"is_disabled":false,"rental_uris":{"android":"levelo://app?vid=dc8f3a1c-f2fe-4b0d-b970-db9c4df9a40d","ios":"levelo://app?vid=dc8f3a1c-f2fe-4b0d-b970-db9c4df9a40d"},"vehicle_type_id":"4","last_reported":1739736536,"current_range_meters":24800,"station_id":"ce4bhbh2rcd13ifvqepg","pricing_plan_id":"cebpf4jnsgd1na2vs0mg"},{"bike_id":"8c6e1647-a201-42d6-9e2c-07bf21681fa3","system_id":"levelo_inurba_marseille","lat":43.31923,"lon":5.40734,"is_reserved":false,"is_disabled":true,"rental_uris":{"android":"levelo://app?vid=8c6e1647-a201-42d6-9e2c-07bf21681fa3","ios":"levelo://app?vid=8c6e1647-a201-42d6-9e2c-07bf21681fa3"},"vehicle_type_id":"4","last_reported":1739736536,"current_range_meters":16400,"station_id":"ce4bhq12rcd13ifvqhig","pricing_plan_id":"cebpf4jnsgd1na2vs0mg"},{"bike_id":"f294a085-e191-4c66-8edd-fe79d347dea4","system_id":"levelo_inurba_marseille","lat":43.30378,"lon":5.41886,"is_reserved":false,"is_disabled":false,"rental_uris":{"android":"levelo://app?vid=f294a085-e191-4c66-8edd-fe79d347dea4","ios":"levelo://app?vid=f294a085-e191-4c66-8edd-fe79d347dea4"},"vehicle_type_id":"4","last_reported":1739736536,"current_range_meters":38000,"station_id":"ce4bhop2rcd13ifvqh7g","pricing_plan_id":"cebpf4jnsgd1na2vs0mg"},{"bike_id":"d7bb91c7-1e6c-4011-85a2-08678dbfba66","system_id":"levelo_inurba_marseille","lat":43.24396,"lon":5.37057,"is_reserved":false,"is_disabled":false,"rental_uris":{"android":"levelo://app?vid=d7bb91c7-1e6c-4011-85a2-08678dbfba66","ios":"levelo://app?vid=d7bb91c7-1e6c-4011-85a2-08678dbfba66"},"vehicle_type_id":"4","last_reported":1739736536,"current_range_meters":37600,"station_id":"ce4bhhh2rcd13ifvqfk0","pricing_plan_id":"cebpf4jnsgd1na2vs0mg"},{"bike_id":"36d3504e-5361-430c-b3be-ab96da17eb8b","system_id":"levelo_inurba_marseille","lat":43.24827,"lon":5.37459,"is_reserved":false,"is_disabled":false,"rental_uris":{"android":"levelo://app?vid=36d3504e-5361-430c-b3be-ab96da17eb8b","ios":"levelo://app?vid=36d3504e-5361-430c-b3be-ab96da17eb8b"},"vehicle_type_id":"4","last_reported":1739736536,"current_range_meters":32400,"station_id":"ce4bhgh2rcd13ifvqfb0","pricing_plan_id":"cebpf4jnsgd1na2vs0mg"},{"bike_id":"8c309f7a-cf0a-4384-a48d-901da8dcfc55","system_id":"levelo_inurba_marseille","lat":43.27958,"lon":5.3866,"is_reserved":false,"is_disabled":false,"rental_uris":{"android":"levelo://app?vid=8c309f7a-cf0a-4384-a48d-901da8dcfc55","ios":"levelo://app?vid=8c309f7a-cf0a-4384-a48d-901da8dcfc55"},"vehicle_type_id":"4","last_reported":1739736536,"current_range_meters":36000,"station_id":"ce4bhg12rcd13ifvqf80","pricing_plan_id":"cebpf4jnsgd1na2vs0mg"},{"bike_id":"1f52f3b3-3e4c-4076-9fe5-f4b3bb4b252a","system_id":"levelo_inurba_marseille","lat":43.27469,"lon":5.43499,"is_reserved":false,"is_disabled":true,"rental_uris":{"android":"levelo://app?vid=1f52f3b3-3e4c-4076-9fe5-f4b3bb4b252a","ios":"levelo://app?vid=1f52f3b3-3e4c-4076-9fe5-f4b3bb4b252a"},"vehicle_type_id":"4","last_reported":1739736536,"current_range_meters":0,"station_id":"","pricing_plan_id":"cebpf4jnsgd1na2vs0mg"},{"bike_id":"4abd2fbf-4b83-494d-a562-d039b38e8a3b","system_id":"levelo_inurba_marseille","lat":43.27818,"lon":5.40772,"is_reserved":false,"is_disabled":false,"rental_uris":{"android":"levelo://app?vid=4abd2fbf-4b83-494d-a562-d039b38e8a3b","ios":"levelo://app?vid=4abd2fbf-4b83-494d-a562-d039b38e8a3b"},"vehicle_type_id":"4","last_reported":1739736536,"current_range_meters":30800,"station_id":"ce4bhnh2rcd13ifvqgtg","pricing_plan_id":"cebpf4jnsgd1na2vs0mg"},{"bike_id":"204d0c95-d245-41ee-a560-4718b8e41e4d","system_id":"levelo_inurba_marseille","lat":43.25054,"lon":5.39521,"is_reserved":false,"is_disabled":false,"rental_uris":{"android":"levelo://app?vid=204d0c95-d245-41ee-a560-4718b8e41e4d","ios":"levelo://app?vid=204d0c95-d245-41ee-a560-4718b8e41e4d"},"vehicle_type_id":"4","last_reported":1739736536,"current_range_meters":35600,"station_id":"ce4bhm12rcd13ifvqgkg","pricing_plan_id":"cebpf4jnsgd1na2vs0mg"},{"bike_id":"8c2cb4e7-cc7a-458e-beca-ed80b12306ff","system_id":"levelo_inurba_marseille","lat":43.30155,"lon":5.3987,"is_reserved":false,"is_disabled":true,"rental_uris":{"android":"levelo://app?vid=8c2cb4e7-cc7a-458e-beca-ed80b12306ff","ios":"levelo://app?vid=8c2cb4e7-cc7a-458e-beca-ed80b12306ff"},"vehicle_type_id":"4","last_reported":1739736536,"current_range_meters":0,"station_id":"ce4bh0h2rcd13ifvqd40","pricing_plan_id":"cebpf4jnsgd1na2vs0mg"},{"bike_id":"bd1fbd17-5ecd-4c2a-9290-d1ffd1a70214","system_id":"levelo_inurba_marseille","lat":43.29555,"lon":5.42294,"is_reserved":false,"is_disabled":false,"rental_uris":{"android":"levelo://app?vid=bd1fbd17-5ecd-4c2a-9290-d1ffd1a70214","ios":"levelo://app?vid=bd1fbd17-5ecd-4c2a-9290-d1ffd1a70214"},"vehicle_type_id":"4","last_reported":1739736536,"current_range_meters":27600,"station_id":"ce4bhph2rcd13ifvqhdg","pricing_plan_id":"cebpf4jnsgd1na2vs0mg"},{"bike_id":"8c74014a-8dc1-4e6e-96d0-e4be6e75992b","system_id":"levelo_inurba_marseille","lat":43.27999,"lon":5.41664,"is_reserved":false,"is_disabled":false,"rental_uris":{"android":"levelo://app?vid=8c74014a-8dc1-4e6e-96d0-e4be6e75992b","ios":"levelo://app?vid=8c74014a-8dc1-4e6e-96d0-e4be6e75992b"},"vehicle_type_id":"4","last_reported":1739736536,"current_range_meters":28400,"station_id":"ce4bho12rcd13ifvqh1g","pricing_plan_id":"cebpf4jnsgd1na2vs0mg"},{"bike_id":"dd548764-7d84-4656-8245-ec59f80c7eb7","system_id":"levelo_inurba_marseille","lat":43.30419,"lon":5.41314,"is_reserved":false,"is_disabled":false,"rental_uris":{"android":"levelo://app?vid=dd548764-7d84-4656-8245-ec59f80c7eb7","ios":"levelo://app?vid=dd548764-7d84-4656-8245-ec59f80c7eb7"},"vehicle_type_id":"4","last_reported":1739736536,"current_range_meters":38800,"station_id":"ce4bhop2rcd13ifvqh8g","pricing_plan_id":"cebpf4jnsgd1na2vs0mg"},{"bike_id":"d2e01317-2950-420e-b1aa-8f1e4398c1e8","system_id":"levelo_inurba_marseille","lat":43.23199,"lon":5.35551,"is_reserved":false,"is_disabled":false,"rental_uris":{"android":"levelo://app?vid=d2e01317-2950-420e-b1aa-8f1e4398c1e8","ios":"levelo://app?vid=d2e01317-2950-420e-b1aa-8f1e4398c1e8"},"vehicle_type_id":"4","last_reported":1739736536,"current_range_meters":38800,"station_id":"ce4bhu92rcd13ifvqi70","pricing_plan_id":"cebpf4jnsgd1na2vs0mg"},{"bike_id":"99b60497-417a-4e6c-9e27-ce3655ce5e57","system_id":"levelo_inurba_marseille","lat":43.30675,"lon":5.40069,"is_reserved":false,"is_disabled":true,"rental_uris":{"android":"levelo://app?vid=99b60497-417a-4e6c-9e27-ce3655ce5e57","ios":"levelo://app?vid=99b60497-417a-4e6c-9e27-ce3655ce5e57"},"vehicle_type_id":"4","last_reported":1739736536,"current_range_meters":24000,"station_id":"ce4bh112rcd13ifvqda0","pricing_plan_id":"cebpf4jnsgd1na2vs0mg"},{"bike_id":"cb1c0d7d-2947-40bf-8666-7a69800fbd13","system_id":"levelo_inurba_marseille","lat":43.27947,"lon":5.4104,"is_reserved":false,"is_disabled":false,"rental_uris":{"android":"levelo://app?vid=cb1c0d7d-2947-40bf-8666-7a69800fbd13","ios":"levelo://app?vid=cb1c0d7d-2947-40bf-8666-7a69800fbd13"},"vehicle_type_id":"4","last_reported":1739736536,"current_range_meters":8000,"station_id":"ce4bhnp2rcd13ifvqh0g","pricing_plan_id":"cebpf4jnsgd1na2vs0mg"},{"bike_id":"fdbe1c87-3470-4d42-a2f8-e6c80454708a","system_id":"levelo_inurba_marseille","lat":43.23972,"lon":5.36627,"is_reserved":false,"is_disabled":false,"rental_uris":{"android":"levelo://app?vid=fdbe1c87-3470-4d42-a2f8-e6c80454708a","ios":"levelo://app?vid=fdbe1c87-3470-4d42-a2f8-e6c80454708a"},"vehicle_type_id":"4","last_reported":1739736536,"current_range_meters":8400,"station_id":"ce4bhi12rcd13ifvqfp0","pricing_plan_id":"cebpf4jnsgd1na2vs0mg"},{"bike_id":"68e091eb-0298-4cb5-b5eb-8dfc36218da6","system_id":"levelo_inurba_marseille","lat":43.23188,"lon":5.39994,"is_reserved":false,"is_disabled":false,"rental_uris":{"android":"levelo://app?vid=68e091eb-0298-4cb5-b5eb-8dfc36218da6","ios":"levelo://app?vid=68e091eb-0298-4cb5-b5eb-8dfc36218da6"},"vehicle_type_id":"4","last_reported":1739736536,"current_range_meters":38800,"station_id":"ce4bhn12rcd13ifvqgqg","pricing_plan_id":"cebpf4jnsgd1na2vs0mg"},{"bike_id":"d63b7867-53a4-4bca-be72-b856d1cbea50","system_id":"levelo_inurba_marseille","lat":43.23961,"lon":5.3662,"is_reserved":false,"is_disabled":false,"rental_uris":{"android":"levelo://app?vid=d63b7867-53a4-4bca-be72-b856d1cbea50","ios":"levelo://app?vid=d63b7867-53a4-4bca-be72-b856d1cbea50"},"vehicle_type_id":"4","last_reported":1739736536,"current_range_meters":18800,"station_id":"ce4bhi12rcd13ifvqfp0","pricing_plan_id":"cebpf4jnsgd1na2vs0mg"},{"bike_id":"d6ecd61a-2b9a-413e-8597-72b5d0bd9a29","system_id":"levelo_inurba_marseille","lat":43.29799,"lon":5.37109,"is_reserved":false,"is_disabled":false,"rental_uris":{"android":"levelo://app?vid=d6ecd61a-2b9a-413e-8597-72b5d0bd9a29","ios":"levelo://app?vid=d6ecd61a-2b9a-413e-8597-72b5d0bd9a29"},"vehicle_type_id":"4","last_reported":1739736536,"current_range_meters":16400,"station_id":"ce4bgop2rcd13ifvqc1g","pricing_plan_id":"cebpf4jnsgd1na2vs0mg"},{"bike_id":"57a5c251-6123-470e-813e-a9340a0256fe","system_id":"levelo_inurba_marseille","lat":43.2417,"lon":5.36387,"is_reserved":false,"is_disabled":false,"rental_uris":{"android":"levelo://app?vid=57a5c251-6123-470e-813e-a9340a0256fe","ios":"levelo://app?vid=57a5c251-6123-470e-813e-a9340a0256fe"},"vehicle_type_id":"4","last_reported":1739736536,"current_range_meters":38800,"station_id":"cpo36qri1sfpv3e86is0","pricing_plan_id":"cebpf4jnsgd1na2vs0mg"},{"bike_id":"ef172359-3e68-4bf2-b045-8d26f74d9415","system_id":"levelo_inurba_marseille","lat":43.29515,"lon":5.39399,"is_reserved":false,"is_disabled":false,"rental_uris":{"android":"levelo://app?vid=ef172359-3e68-4bf2-b045-8d26f74d9415","ios":"levelo://app?vid=ef172359-3e68-4bf2-b045-8d26f74d9415"},"vehicle_type_id":"4","last_reported":1739736536,"current_range_meters":38800,"station_id":"ce4bh292rcd13ifvqdf0","pricing_plan_id":"cebpf4jnsgd1na2vs0mg"},{"bike_id":"f90b8577-cac8-4dc7-b171-f065ba05786f","system_id":"levelo_inurba_marseille","lat":43.29005,"lon":5.38155,"is_reserved":false,"is_disabled":false,"rental_uris":{"android":"levelo://app?vid=f90b8577-cac8-4dc7-b171-f065ba05786f","ios":"levelo://app?vid=f90b8577-cac8-4dc7-b171-f065ba05786f"},"vehicle_type_id":"4","last_reported":1739736536,"current_range_meters":38400,"station_id":"ce4bh4p2rcd13ifvqe1g","pricing_plan_id":"cebpf4jnsgd1na2vs0mg"},{"bike_id":"21bdbb38-e271-4c3f-b995-fd6c1caff7e9","system_id":"levelo_inurba_marseille","lat":43.29291,"lon":5.40123,"is_reserved":false,"is_disabled":false,"rental_uris":{"android":"levelo://app?vid=21bdbb38-e271-4c3f-b995-fd6c1caff7e9","ios":"levelo://app?vid=21bdbb38-e271-4c3f-b995-fd6c1caff7e9"},"vehicle_type_id":"4","last_reported":1739736536,"current_range_meters":8800,"station_id":"ce4bh312rcd13ifvqdk0","pricing_plan_id":"cebpf4jnsgd1na2vs0mg"},{"bike_id":"02db7a28-fc2d-4a4a-92a0-cec040e64718","system_id":"levelo_inurba_marseille","lat":43.23961,"lon":5.36632,"is_reserved":false,"is_disabled":true,"rental_uris":{"android":"levelo://app?vid=02db7a28-fc2d-4a4a-92a0-cec040e64718","ios":"levelo://app?vid=02db7a28-fc2d-4a4a-92a0-cec040e64718"},"vehicle_type_id":"4","last_reported":1739736536,"current_range_meters":2800,"station_id":"ce4bhi12rcd13ifvqfp0","pricing_plan_id":"cebpf4jnsgd1na2vs0mg"},{"bike_id":"2186a012-eb75-46a4-883e-debc895b568e","system_id":"levelo_inurba_marseille","lat":43.31076,"lon":5.38356,"is_reserved":false,"is_disabled":false,"rental_uris":{"android":"levelo://app?vid=2186a012-eb75-46a4-883e-debc895b568e","ios":"levelo://app?vid=2186a012-eb75-46a4-883e-debc895b568e"},"vehicle_type_id":"4","last_reported":1739736536,"current_range_meters":26000,"station_id":"ce4bgv92rcd13ifvqcr0","pricing_plan_id":"cebpf4jnsgd1na2vs0mg"},{"bike_id":"6f820518-8b07-484a-8c43-5d5451e338e7","system_id":"levelo_inurba_marseille","lat":43.231995,"lon":5.355585,"is_reserved":false,"is_disabled":false,"rental_uris":{"android":"levelo://app?vid=6f820518-8b07-484a-8c43-5d5451e338e7","ios":"levelo://app?vid=6f820518-8b07-484a-8c43-5d5451e338e7"},"vehicle_type_id":"4","last_reported":1739736536,"current_range_meters":28000,"station_id":"ce4bhu92rcd13ifvqi70","pricing_plan_id":"cebpf4jnsgd1na2vs0mg"},{"bike_id":"e9df70a0-1b8c-4c51-a61c-68ff2e71de13","system_id":"levelo_inurba_marseille","lat":43.23066,"lon":5.35495,"is_reserved":false,"is_disabled":true,"rental_uris":{"android":"levelo://app?vid=e9df70a0-1b8c-4c51-a61c-68ff2e71de13","ios":"levelo://app?vid=e9df70a0-1b8c-4c51-a61c-68ff2e71de13"},"vehicle_type_id":"4","last_reported":1739736536,"current_range_meters":0,"station_id":"cpo3342slgdg3j2ifvpg","pricing_plan_id":"cebpf4jnsgd1na2vs0mg"},{"bike_id":"d8c989e8-8c9e-4e8a-92ee-32c9ebd5297b","system_id":"levelo_inurba_marseille","lat":43.2894,"lon":5.36624,"is_reserved":false,"is_disabled":false,"rental_uris":{"android":"levelo://app?vid=d8c989e8-8c9e-4e8a-92ee-32c9ebd5297b","ios":"levelo://app?vid=d8c989e8-8c9e-4e8a-92ee-32c9ebd5297b"},"vehicle_type_id":"4","last_reported":1739736536,"current_range_meters":34000,"station_id":"ce4bhap2rcd13ifvqek0","pricing_plan_id":"cebpf4jnsgd1na2vs0mg"},{"bike_id":"a3b76a23-e719-4cac-9132-63d31b15a8de","system_id":"levelo_inurba_marseille","lat":43.24164,"lon":5.36387,"is_reserved":false,"is_disabled":false,"rental_uris":{"android":"levelo://app?vid=a3b76a23-e719-4cac-9132-63d31b15a8de","ios":"levelo://app?vid=a3b76a23-e719-4cac-9132-63d31b15a8de"},"vehicle_type_id":"4","last_reported":1739736536,"current_range_meters":24400,"station_id":"cpo36qri1sfpv3e86is0","pricing_plan_id":"cebpf4jnsgd1na2vs0mg"},{"bike_id":"44e66c54-e5ab-4337-a6b2-a340bb51f116","system_id":"levelo_inurba_marseille","lat":43.30646,"lon":5.40083,"is_reserved":false,"is_disabled":false,"rental_uris":{"android":"levelo://app?vid=44e66c54-e5ab-4337-a6b2-a340bb51f116","ios":"levelo://app?vid=44e66c54-e5ab-4337-a6b2-a340bb51f116"},"vehicle_type_id":"4","last_reported":1739736536,"current_range_meters":24000,"station_id":"ce4bh112rcd13ifvqda0","pricing_plan_id":"cebpf4jnsgd1na2vs0mg"},{"bike_id":"ec90772d-f71e-4fca-a945-9124afb4acb2","system_id":"levelo_inurba_marseille","lat":43.28357,"lon":5.38134,"is_reserved":false,"is_disabled":false,"rental_uris":{"android":"levelo://app?vid=ec90772d-f71e-4fca-a945-9124afb4acb2","ios":"levelo://app?vid=ec90772d-f71e-4fca-a945-9124afb4acb2"},"vehicle_type_id":"4","last_reported":1739736536,"current_range_meters":38800,"station_id":"ce4bh412rcd13ifvqdr0","pricing_plan_id":"cebpf4jnsgd1na2vs0mg"},{"bike_id":"fe0f12a8-8d62-4d79-b629-bda6901e6297","system_id":"levelo_inurba_marseille","lat":43.26926,"lon":5.40311,"is_reserved":false,"is_disabled":true,"rental_uris":{"android":"levelo://app?vid=fe0f12a8-8d62-4d79-b629-bda6901e6297","ios":"levelo://app?vid=fe0f12a8-8d62-4d79-b629-bda6901e6297"},"vehicle_type_id":"4","last_reported":1739736536,"current_range_meters":26800,"station_id":"cjm6bp8fraef2m0cb0m0","pricing_plan_id":"cebpf4jnsgd1na2vs0mg"},{"bike_id":"992690ef-187a-4678-a4bc-e2a48d872935","system_id":"levelo_inurba_marseille","lat":43.30109,"lon":5.36683,"is_reserved":false,"is_disabled":false,"rental_uris":{"android":"levelo://app?vid=992690ef-187a-4678-a4bc-e2a48d872935","ios":"levelo://app?vid=992690ef-187a-4678-a4bc-e2a48d872935"},"vehicle_type_id":"4","last_reported":1739736536,"current_range_meters":36400,"station_id":"ce4bgrh2rcd13ifvqc8g","pricing_plan_id":"cebpf4jnsgd1na2vs0mg"},{"bike_id":"8e45c299-8b07-46a8-9f44-fc071ce5f65b","system_id":"levelo_inurba_marseille","lat":43.31888,"lon":5.40721,"is_reserved":false,"is_disabled":false,"rental_uris":{"android":"levelo://app?vid=8e45c299-8b07-46a8-9f44-fc071ce5f65b","ios":"levelo://app?vid=8e45c299-8b07-46a8-9f44-fc071ce5f65b"},"vehicle_type_id":"4","last_reported":1739736536,"current_range_meters":18800,"station_id":"ce4bhq12rcd13ifvqhig","pricing_plan_id":"cebpf4jnsgd1na2vs0mg"},{"bike_id":"69bce1c7-a56a-4d18-9a99-7b6ad5507c16","system_id":"levelo_inurba_marseille","lat":43.31137,"lon":5.38447,"is_reserved":false,"is_disabled":false,"rental_uris":{"android":"levelo://app?vid=69bce1c7-a56a-4d18-9a99-7b6ad5507c16","ios":"levelo://app?vid=69bce1c7-a56a-4d18-9a99-7b6ad5507c16"},"vehicle_type_id":"4","last_reported":1739736536,"current_range_meters":38800,"station_id":"","pricing_plan_id":"cebpf4jnsgd1na2vs0mg"},{"bike_id":"cfbe67cf-6420-4945-9471-2d464aa6fcd4","system_id":"levelo_inurba_marseille","lat":43.27819,"lon":5.39211,"is_reserved":false,"is_disabled":true,"rental_uris":{"android":"levelo://app?vid=cfbe67cf-6420-4945-9471-2d464aa6fcd4","ios":"levelo://app?vid=cfbe67cf-6420-4945-9471-2d464aa6fcd4"},"vehicle_type_id":"4","last_reported":1739736536,"current_range_meters":1600,"station_id":"ce4bhjp2rcd13ifvqga0","pricing_plan_id":"cebpf4jnsgd1na2vs0mg"},{"bike_id":"8d92cdb5-7bf0-441c-8025-8793edbaa7ed","system_id":"levelo_inurba_marseille","lat":43.24557,"lon":5.3953,"is_reserved":false,"is_disabled":false,"rental_uris":{"android":"levelo://app?vid=8d92cdb5-7bf0-441c-8025-8793edbaa7ed","ios":"levelo://app?vid=8d92cdb5-7bf0-441c-8025-8793edbaa7ed"},"vehicle_type_id":"4","last_reported":1739736536,"current_range_meters":38800,"station_id":"ce4bhlp2rcd13ifvqgjg","pricing_plan_id":"cebpf4jnsgd1na2vs0mg"},{"bike_id":"82f93201-9ddb-4e09-abcb-9f6f41679371","system_id":"levelo_inurba_marseille","lat":43.24168,"lon":5.3639,"is_reserved":false,"is_disabled":false,"rental_uris":{"android":"levelo://app?vid=82f93201-9ddb-4e09-abcb-9f6f41679371","ios":"levelo://app?vid=82f93201-9ddb-4e09-abcb-9f6f41679371"},"vehicle_type_id":"4","last_reported":1739736536,"current_range_meters":8400,"station_id":"cpo36qri1sfpv3e86is0","pricing_plan_id":"cebpf4jnsgd1na2vs0mg"},{"bike_id":"2d1a0294-4315-4a6d-9042-006493c526cd","system_id":"levelo_inurba_marseille","lat":43.29564,"lon":5.40613,"is_reserved":false,"is_disabled":true,"rental_uris":{"android":"levelo://app?vid=2d1a0294-4315-4a6d-9042-006493c526cd","ios":"levelo://app?vid=2d1a0294-4315-4a6d-9042-006493c526cd"},"vehicle_type_id":"4","last_reported":1739736536,"current_range_meters":1200,"station_id":"","pricing_plan_id":"cebpf4jnsgd1na2vs0mg"},{"bike_id":"07c9c6a0-0543-48bc-ac2e-b6a212ec0302","system_id":"levelo_inurba_marseille","lat":43.30474,"lon":5.37912,"is_reserved":false,"is_disabled":true,"rental_uris":{"android":"levelo://app?vid=07c9c6a0-0543-48bc-ac2e-b6a212ec0302","ios":"levelo://app?vid=07c9c6a0-0543-48bc-ac2e-b6a212ec0302"},"vehicle_type_id":"4","last_reported":1739736536,"current_range_meters":1200,"station_id":"ce4bgup2rcd13ifvqcn0","pricing_plan_id":"cebpf4jnsgd1na2vs0mg"},{"bike_id":"5b108bca-0347-4ab1-ba07-2f8caf2d7e27","system_id":"levelo_inurba_marseille","lat":43.29422,"lon":5.38644,"is_reserved":false,"is_disabled":false,"rental_uris":{"android":"levelo://app?vid=5b108bca-0347-4ab1-ba07-2f8caf2d7e27","ios":"levelo://app?vid=5b108bca-0347-4ab1-ba07-2f8caf2d7e27"},"vehicle_type_id":"4","last_reported":1739736536,"current_range_meters":38800,"station_id":"ce4bh2h2rcd13ifvqdh0","pricing_plan_id":"cebpf4jnsgd1na2vs0mg"},{"bike_id":"744bc4ad-424c-41fd-a810-899680f40c1a","system_id":"levelo_inurba_marseille","lat":43.2827,"lon":5.35067,"is_reserved":false,"is_disabled":false,"rental_uris":{"android":"levelo://app?vid=744bc4ad-424c-41fd-a810-899680f40c1a","ios":"levelo://app?vid=744bc4ad-424c-41fd-a810-899680f40c1a"},"vehicle_type_id":"4","last_reported":1739736536,"current_range_meters":38800,"station_id":"ce4bhbp2rcd13ifvqerg","pricing_plan_id":"cebpf4jnsgd1na2vs0mg"},{"bike_id":"df6d8aa0-2733-42df-862b-3044c73a51b9","system_id":"levelo_inurba_marseille","lat":43.28441,"lon":5.39156,"is_reserved":false,"is_disabled":false,"rental_uris":{"android":"levelo://app?vid=df6d8aa0-2733-42df-862b-3044c73a51b9","ios":"levelo://app?vid=df6d8aa0-2733-42df-862b-3044c73a51b9"},"vehicle_type_id":"4","last_reported":1739736536,"current_range_meters":27600,"station_id":"ce4bhoh2rcd13ifvqh5g","pricing_plan_id":"cebpf4jnsgd1na2vs0mg"},{"bike_id":"05f1b6c1-3e13-4c2c-a455-eaee675e1732","system_id":"levelo_inurba_marseille","lat":43.25094,"lon":5.40347,"is_reserved":false,"is_disabled":false,"rental_uris":{"android":"levelo://app?vid=05f1b6c1-3e13-4c2c-a455-eaee675e1732","ios":"levelo://app?vid=05f1b6c1-3e13-4c2c-a455-eaee675e1732"},"vehicle_type_id":"4","last_reported":1739736536,"current_range_meters":37600,"station_id":"ce4bhlh2rcd13ifvqgig","pricing_plan_id":"cebpf4jnsgd1na2vs0mg"},{"bike_id":"b68f690d-d7fb-4496-83be-f7f7476c9224","system_id":"levelo_inurba_marseille","lat":43.28555,"lon":5.39492,"is_reserved":false,"is_disabled":false,"rental_uris":{"android":"levelo://app?vid=b68f690d-d7fb-4496-83be-f7f7476c9224","ios":"levelo://app?vid=b68f690d-d7fb-4496-83be-f7f7476c9224"},"vehicle_type_id":"4","last_reported":1739736536,"current_range_meters":18000,"station_id":"ce4bh292rcd13ifvqdg0","pricing_plan_id":"cebpf4jnsgd1na2vs0mg"},{"bike_id":"433f9709-f837-4a93-865a-d58d91d25934","system_id":"levelo_inurba_marseille","lat":43.30245,"lon":5.40051,"is_reserved":false,"is_disabled":false,"rental_uris":{"android":"levelo://app?vid=433f9709-f837-4a93-865a-d58d91d25934","ios":"levelo://app?vid=433f9709-f837-4a93-865a-d58d91d25934"},"vehicle_type_id":"4","last_reported":1739736536,"current_range_meters":39200,"station_id":"ce4bgvh2rcd13ifvqcs0","pricing_plan_id":"cebpf4jnsgd1na2vs0mg"},{"bike_id":"d82cc903-5a98-40c6-89ab-a55e5319b9e3","system_id":"levelo_inurba_marseille","lat":43.29529,"lon":5.39051,"is_reserved":false,"is_disabled":false,"rental_uris":{"android":"levelo://app?vid=d82cc903-5a98-40c6-89ab-a55e5319b9e3","ios":"levelo://app?vid=d82cc903-5a98-40c6-89ab-a55e5319b9e3"},"vehicle_type_id":"4","last_reported":1739736536,"current_range_meters":32400,"station_id":"ce4bh3p2rcd13ifvqdp0","pricing_plan_id":"cebpf4jnsgd1na2vs0mg"},{"bike_id":"fab6a08e-2bef-4e35-abb5-4e7602916ea8","system_id":"levelo_inurba_marseille","lat":43.29248,"lon":5.40896,"is_reserved":false,"is_disabled":false,"rental_uris":{"android":"levelo://app?vid=fab6a08e-2bef-4e35-abb5-4e7602916ea8","ios":"levelo://app?vid=fab6a08e-2bef-4e35-abb5-4e7602916ea8"},"vehicle_type_id":"4","last_reported":1739736536,"current_range_meters":33600,"station_id":"ce4bh192rcd13ifvqdc0","pricing_plan_id":"cebpf4jnsgd1na2vs0mg"},{"bike_id":"8621d022-da1c-42eb-90b3-f13a75064284","system_id":"levelo_inurba_marseille","lat":43.30373,"lon":5.36501,"is_reserved":false,"is_disabled":false,"rental_uris":{"android":"levelo://app?vid=8621d022-da1c-42eb-90b3-f13a75064284","ios":"levelo://app?vid=8621d022-da1c-42eb-90b3-f13a75064284"},"vehicle_type_id":"4","last_reported":1739736536,"current_range_meters":38400,"station_id":"","pricing_plan_id":"cebpf4jnsgd1na2vs0mg"},{"bike_id":"da8f52c7-71b4-4511-8701-42c9a2f47ad3","system_id":"levelo_inurba_marseille","lat":43.28621,"lon":5.35109,"is_reserved":false,"is_disabled":false,"rental_uris":{"android":"levelo://app?vid=da8f52c7-71b4-4511-8701-42c9a2f47ad3","ios":"levelo://app?vid=da8f52c7-71b4-4511-8701-42c9a2f47ad3"},"vehicle_type_id":"4","last_reported":1739736536,"current_range_meters":38800,"station_id":"ce4bhch2rcd13ifvqeug","pricing_plan_id":"cebpf4jnsgd1na2vs0mg"},{"bike_id":"1c43e987-d0a7-457b-9c08-6a8d2de13d8a","system_id":"levelo_inurba_marseille","lat":43.29266,"lon":5.38432,"is_reserved":false,"is_disabled":false,"rental_uris":{"android":"levelo://app?vid=1c43e987-d0a7-457b-9c08-6a8d2de13d8a","ios":"levelo://app?vid=1c43e987-d0a7-457b-9c08-6a8d2de13d8a"},"vehicle_type_id":"4","last_reported":1739736536,"current_range_meters":16800,"station_id":"ce4bh692rcd13ifvqea0","pricing_plan_id":"cebpf4jnsgd1na2vs0mg"},{"bike_id":"66c2d9f4-633b-4a20-973c-7bd23021bb96","system_id":"levelo_inurba_marseille","lat":43.27563,"lon":5.38413,"is_reserved":false,"is_disabled":false,"rental_uris":{"android":"levelo://app?vid=66c2d9f4-633b-4a20-973c-7bd23021bb96","ios":"levelo://app?vid=66c2d9f4-633b-4a20-973c-7bd23021bb96"},"vehicle_type_id":"4","last_reported":1739736536,"current_range_meters":38000,"station_id":"ce4bhh92rcd13ifvqfi0","pricing_plan_id":"cebpf4jnsgd1na2vs0mg"},{"bike_id":"d511c3fa-d5f4-4a0f-91ee-268d02b5310f","system_id":"levelo_inurba_marseille","lat":43.28603,"lon":5.35109,"is_reserved":false,"is_disabled":true,"rental_uris":{"android":"levelo://app?vid=d511c3fa-d5f4-4a0f-91ee-268d02b5310f","ios":"levelo://app?vid=d511c3fa-d5f4-4a0f-91ee-268d02b5310f"},"vehicle_type_id":"4","last_reported":1739736536,"current_range_meters":15200,"station_id":"ce4bhch2rcd13ifvqeug","pricing_plan_id":"cebpf4jnsgd1na2vs0mg"},{"bike_id":"1688ff34-1aa5-4509-9163-944a0042ff0b","system_id":"levelo_inurba_marseille","lat":43.292,"lon":5.39322,"is_reserved":false,"is_disabled":false,"rental_uris":{"android":"levelo://app?vid=1688ff34-1aa5-4509-9163-944a0042ff0b","ios":"levelo://app?vid=1688ff34-1aa5-4509-9163-944a0042ff0b"},"vehicle_type_id":"4","last_reported":1739736536,"current_range_meters":6800,"station_id":"ce4bh192rcd13ifvqdd0","pricing_plan_id":"cebpf4jnsgd1na2vs0mg"},{"bike_id":"c18c0a61-bb87-4c75-8969-babbf5d9648a","system_id":"levelo_inurba_marseille","lat":43.29045,"lon":5.3757,"is_reserved":false,"is_disabled":false,"rental_uris":{"android":"levelo://app?vid=c18c0a61-bb87-4c75-8969-babbf5d9648a","ios":"levelo://app?vid=c18c0a61-bb87-4c75-8969-babbf5d9648a"},"vehicle_type_id":"4","last_reported":1739736536,"current_range_meters":39200,"station_id":"ce4bh692rcd13ifvqe90","pricing_plan_id":"cebpf4jnsgd1na2vs0mg"},{"bike_id":"683eff80-7d17-4798-a7d1-78bf09ddf923","system_id":"levelo_inurba_marseille","lat":43.28475,"lon":5.37674,"is_reserved":false,"is_disabled":true,"rental_uris":{"android":"levelo://app?vid=683eff80-7d17-4798-a7d1-78bf09ddf923","ios":"levelo://app?vid=683eff80-7d17-4798-a7d1-78bf09ddf923"},"vehicle_type_id":"4","last_reported":1739736536,"current_range_meters":0,"station_id":"","pricing_plan_id":"cebpf4jnsgd1na2vs0mg"},{"bike_id":"f00620ae-2110-4dbd-a2e7-cd7bf13fe429","system_id":"levelo_inurba_marseille","lat":43.23191,"lon":5.39974,"is_reserved":false,"is_disabled":true,"rental_uris":{"android":"levelo://app?vid=f00620ae-2110-4dbd-a2e7-cd7bf13fe429","ios":"levelo://app?vid=f00620ae-2110-4dbd-a2e7-cd7bf13fe429"},"vehicle_type_id":"4","last_reported":1739736536,"current_range_meters":36000,"station_id":"ce4bhn12rcd13ifvqgqg","pricing_plan_id":"cebpf4jnsgd1na2vs0mg"},{"bike_id":"05df7975-71a5-4cd7-9732-f6e0ff429d46","system_id":"levelo_inurba_marseille","lat":43.295536,"lon":5.422825,"is_reserved":false,"is_disabled":false,"rental_uris":{"android":"levelo://app?vid=05df7975-71a5-4cd7-9732-f6e0ff429d46","ios":"levelo://app?vid=05df7975-71a5-4cd7-9732-f6e0ff429d46"},"vehicle_type_id":"4","last_reported":1739736536,"current_range_meters":26000,"station_id":"ce4bhph2rcd13ifvqhdg","pricing_plan_id":"cebpf4jnsgd1na2vs0mg"},{"bike_id":"1bc314c5-16c9-4060-922a-b70a4619cf6b","system_id":"levelo_inurba_marseille","lat":43.27073,"lon":5.42273,"is_reserved":false,"is_disabled":false,"rental_uris":{"android":"levelo://app?vid=1bc314c5-16c9-4060-922a-b70a4619cf6b","ios":"levelo://app?vid=1bc314c5-16c9-4060-922a-b70a4619cf6b"},"vehicle_type_id":"4","last_reported":1739736536,"current_range_meters":24000,"station_id":"ce4bhk92rcd13ifvqgb0","pricing_plan_id":"cebpf4jnsgd1na2vs0mg"},{"bike_id":"ddf1d674-41d6-443f-b0f1-1da7df267862","system_id":"levelo_inurba_marseille","lat":43.23046,"lon":5.35509,"is_reserved":false,"is_disabled":false,"rental_uris":{"android":"levelo://app?vid=ddf1d674-41d6-443f-b0f1-1da7df267862","ios":"levelo://app?vid=ddf1d674-41d6-443f-b0f1-1da7df267862"},"vehicle_type_id":"4","last_reported":1739736536,"current_range_meters":14400,"station_id":"cpo3342slgdg3j2ifvpg","pricing_plan_id":"cebpf4jnsgd1na2vs0mg"},{"bike_id":"94729826-cfa5-4ed9-8abd-5e8e49cce84e","system_id":"levelo_inurba_marseille","lat":43.29073,"lon":5.43254,"is_reserved":false,"is_disabled":true,"rental_uris":{"android":"levelo://app?vid=94729826-cfa5-4ed9-8abd-5e8e49cce84e","ios":"levelo://app?vid=94729826-cfa5-4ed9-8abd-5e8e49cce84e"},"vehicle_type_id":"4","last_reported":1739736536,"current_range_meters":0,"station_id":"","pricing_plan_id":"cebpf4jnsgd1na2vs0mg"},{"bike_id":"59897d86-c0b3-4acb-bf89-133a9364e1f4","system_id":"levelo_inurba_marseille","lat":43.23059,"lon":5.3548,"is_reserved":false,"is_disabled":true,"rental_uris":{"android":"levelo://app?vid=59897d86-c0b3-4acb-bf89-133a9364e1f4","ios":"levelo://app?vid=59897d86-c0b3-4acb-bf89-133a9364e1f4"},"vehicle_type_id":"4","last_reported":1739736536,"current_range_meters":36400,"station_id":"cpo3342slgdg3j2ifvpg","pricing_plan_id":"cebpf4jnsgd1na2vs0mg"},{"bike_id":"8d5007a3-acf8-4102-90c2-71e938f42c1e","system_id":"levelo_inurba_marseille","lat":43.29528,"lon":5.39399,"is_reserved":false,"is_disabled":false,"rental_uris":{"android":"levelo://app?vid=8d5007a3-acf8-4102-90c2-71e938f42c1e","ios":"levelo://app?vid=8d5007a3-acf8-4102-90c2-71e938f42c1e"},"vehicle_type_id":"4","last_reported":1739736536,"current_range_meters":18000,"station_id":"ce4bh292rcd13ifvqdf0","pricing_plan_id":"cebpf4jnsgd1na2vs0mg"},{"bike_id":"33796e03-228a-4812-8d97-3974ba39d9c4","system_id":"levelo_inurba_marseille","lat":43.30316,"lon":5.36898,"is_reserved":false,"is_disabled":false,"rental_uris":{"android":"levelo://app?vid=33796e03-228a-4812-8d97-3974ba39d9c4","ios":"levelo://app?vid=33796e03-228a-4812-8d97-3974ba39d9c4"},"vehicle_type_id":"4","last_reported":1739736536,"current_range_meters":38800,"station_id":"ce4bgqh2rcd13ifvqc5g","pricing_plan_id":"cebpf4jnsgd1na2vs0mg"},{"bike_id":"65f5a522-7bea-46ad-9911-19f641546dec","system_id":"levelo_inurba_marseille","lat":43.29801,"lon":5.40403,"is_reserved":false,"is_disabled":false,"rental_uris":{"android":"levelo://app?vid=65f5a522-7bea-46ad-9911-19f641546dec","ios":"levelo://app?vid=65f5a522-7bea-46ad-9911-19f641546dec"},"vehicle_type_id":"4","last_reported":1739736536,"current_range_meters":39200,"station_id":"ce4bh112rcd13ifvqd90","pricing_plan_id":"cebpf4jnsgd1na2vs0mg"},{"bike_id":"fddf9633-377f-489e-9c7d-38f1665ca695","system_id":"levelo_inurba_marseille","lat":43.29593,"lon":5.38084,"is_reserved":false,"is_disabled":true,"rental_uris":{"android":"levelo://app?vid=fddf9633-377f-489e-9c7d-38f1665ca695","ios":"levelo://app?vid=fddf9633-377f-489e-9c7d-38f1665ca695"},"vehicle_type_id":"4","last_reported":1739736536,"current_range_meters":18800,"station_id":"ce4bgl12rcd13ifvqbo0","pricing_plan_id":"cebpf4jnsgd1na2vs0mg"},{"bike_id":"40c4421e-be80-49b9-9035-ec8bd05923a2","system_id":"levelo_inurba_marseille","lat":43.2886,"lon":5.39323,"is_reserved":false,"is_disabled":true,"rental_uris":{"android":"levelo://app?vid=40c4421e-be80-49b9-9035-ec8bd05923a2","ios":"levelo://app?vid=40c4421e-be80-49b9-9035-ec8bd05923a2"},"vehicle_type_id":"4","last_reported":1739736536,"current_range_meters":17200,"station_id":"ce4bh2p2rcd13ifvqdi0","pricing_plan_id":"cebpf4jnsgd1na2vs0mg"},{"bike_id":"4bc50c17-9aeb-4487-a054-afb81c6c63dc","system_id":"levelo_inurba_marseille","lat":43.27607,"lon":5.36116,"is_reserved":false,"is_disabled":true,"rental_uris":{"android":"levelo://app?vid=4bc50c17-9aeb-4487-a054-afb81c6c63dc","ios":"levelo://app?vid=4bc50c17-9aeb-4487-a054-afb81c6c63dc"},"vehicle_type_id":"4","last_reported":1739736536,"current_range_meters":27600,"station_id":"ce4bgj92rcd13ifvqbe0","pricing_plan_id":"cebpf4jnsgd1na2vs0mg"},{"bike_id":"c5d7a47b-1866-4381-9ad8-3e91a53e57f1","system_id":"levelo_inurba_marseille","lat":43.29037,"lon":5.38662,"is_reserved":false,"is_disabled":false,"rental_uris":{"android":"levelo://app?vid=c5d7a47b-1866-4381-9ad8-3e91a53e57f1","ios":"levelo://app?vid=c5d7a47b-1866-4381-9ad8-3e91a53e57f1"},"vehicle_type_id":"4","last_reported":1739736536,"current_range_meters":29600,"station_id":"ce4bh4p2rcd13ifvqe0g","pricing_plan_id":"cebpf4jnsgd1na2vs0mg"},{"bike_id":"2c8b8a41-5401-4b3a-be72-574e3bbf0407","system_id":"levelo_inurba_marseille","lat":43.3064,"lon":5.36607,"is_reserved":false,"is_disabled":false,"rental_uris":{"android":"levelo://app?vid=2c8b8a41-5401-4b3a-be72-574e3bbf0407","ios":"levelo://app?vid=2c8b8a41-5401-4b3a-be72-574e3bbf0407"},"vehicle_type_id":"4","last_reported":1739736536,"current_range_meters":4000,"station_id":"","pricing_plan_id":"cebpf4jnsgd1na2vs0mg"},{"bike_id":"2a3dddcf-8543-4215-8c42-84e597ef8b47","system_id":"levelo_inurba_marseille","lat":43.3079,"lon":5.37348,"is_reserved":false,"is_disabled":false,"rental_uris":{"android":"levelo://app?vid=2a3dddcf-8543-4215-8c42-84e597ef8b47","ios":"levelo://app?vid=2a3dddcf-8543-4215-8c42-84e597ef8b47"},"vehicle_type_id":"4","last_reported":1739736536,"current_range_meters":37600,"station_id":"","pricing_plan_id":"cebpf4jnsgd1na2vs0mg"},{"bike_id":"6724e70a-a600-4154-a228-f2c755dbbc45","system_id":"levelo_inurba_marseille","lat":43.28674,"lon":5.36384,"is_reserved":false,"is_disabled":false,"rental_uris":{"android":"levelo://app?vid=6724e70a-a600-4154-a228-f2c755dbbc45","ios":"levelo://app?vid=6724e70a-a600-4154-a228-f2c755dbbc45"},"vehicle_type_id":"4","last_reported":1739736536,"current_range_meters":39200,"station_id":"ce4bhah2rcd13ifvqej0","pricing_plan_id":"cebpf4jnsgd1na2vs0mg"},{"bike_id":"5e1db2e9-1fb7-4bc1-82ce-b23a1711971b","system_id":"levelo_inurba_marseille","lat":43.25587,"lon":5.38239,"is_reserved":false,"is_disabled":false,"rental_uris":{"android":"levelo://app?vid=5e1db2e9-1fb7-4bc1-82ce-b23a1711971b","ios":"levelo://app?vid=5e1db2e9-1fb7-4bc1-82ce-b23a1711971b"},"vehicle_type_id":"4","last_reported":1739736536,"current_range_meters":38800,"station_id":"ce4bhih2rcd13ifvqfs0","pricing_plan_id":"cebpf4jnsgd1na2vs0mg"},{"bike_id":"3625836a-8a03-4572-80d5-fadff11603e7","system_id":"levelo_inurba_marseille","lat":43.28036,"lon":5.36942,"is_reserved":false,"is_disabled":false,"rental_uris":{"android":"levelo://app?vid=3625836a-8a03-4572-80d5-fadff11603e7","ios":"levelo://app?vid=3625836a-8a03-4572-80d5-fadff11603e7"},"vehicle_type_id":"4","last_reported":1739736536,"current_range_meters":38800,"station_id":"ce4bha12rcd13ifvqef0","pricing_plan_id":"cebpf4jnsgd1na2vs0mg"},{"bike_id":"57a7a9be-ec54-4bec-ac06-c66705e48a1f","system_id":"levelo_inurba_marseille","lat":43.29638,"lon":5.40616,"is_reserved":false,"is_disabled":false,"rental_uris":{"android":"levelo://app?vid=57a7a9be-ec54-4bec-ac06-c66705e48a1f","ios":"levelo://app?vid=57a7a9be-ec54-4bec-ac06-c66705e48a1f"},"vehicle_type_id":"4","last_reported":1739736536,"current_range_meters":27200,"station_id":"ce4bh0h2rcd13ifvqd60","pricing_plan_id":"cebpf4jnsgd1na2vs0mg"},{"bike_id":"b7675672-ea91-4212-a3c2-1e75ea117425","system_id":"levelo_inurba_marseille","lat":43.28155,"lon":5.42655,"is_reserved":false,"is_disabled":true,"rental_uris":{"android":"levelo://app?vid=b7675672-ea91-4212-a3c2-1e75ea117425","ios":"levelo://app?vid=b7675672-ea91-4212-a3c2-1e75ea117425"},"vehicle_type_id":"4","last_reported":1739736536,"current_range_meters":0,"station_id":"ce4bhnh2rcd13ifvqgug","pricing_plan_id":"cebpf4jnsgd1na2vs0mg"},{"bike_id":"5a1e2f06-46a7-46c8-9816-066a2823428c","system_id":"levelo_inurba_marseille","lat":43.28917,"lon":5.38421,"is_reserved":false,"is_disabled":false,"rental_uris":{"android":"levelo://app?vid=5a1e2f06-46a7-46c8-9816-066a2823428c","ios":"levelo://app?vid=5a1e2f06-46a7-46c8-9816-066a2823428c"},"vehicle_type_id":"4","last_reported":1739736536,"current_range_meters":39200,"station_id":"ce4bh612rcd13ifvqe6g","pricing_plan_id":"cebpf4jnsgd1na2vs0mg"},{"bike_id":"91e27922-e676-45ea-94da-baf83d9c520d","system_id":"levelo_inurba_marseille","lat":43.28036,"lon":5.36925,"is_reserved":false,"is_disabled":true,"rental_uris":{"android":"levelo://app?vid=91e27922-e676-45ea-94da-baf83d9c520d","ios":"levelo://app?vid=91e27922-e676-45ea-94da-baf83d9c520d"},"vehicle_type_id":"4","last_reported":1739736536,"current_range_meters":32800,"station_id":"ce4bha12rcd13ifvqef0","pricing_plan_id":"cebpf4jnsgd1na2vs0mg"},{"bike_id":"ebc1452e-2fce-4549-a88a-cc8ddc6bf08b","system_id":"levelo_inurba_marseille","lat":43.30092,"lon":5.39065,"is_reserved":false,"is_disabled":false,"rental_uris":{"android":"levelo://app?vid=ebc1452e-2fce-4549-a88a-cc8ddc6bf08b","ios":"levelo://app?vid=ebc1452e-2fce-4549-a88a-cc8ddc6bf08b"},"vehicle_type_id":"4","last_reported":1739736536,"current_range_meters":30000,"station_id":"ce4bh192rcd13ifvqdb0","pricing_plan_id":"cebpf4jnsgd1na2vs0mg"},{"bike_id":"e5b10e9b-4e3f-4259-83cd-005bf98f4868","system_id":"levelo_inurba_marseille","lat":43.29967,"lon":5.37169,"is_reserved":false,"is_disabled":false,"rental_uris":{"android":"levelo://app?vid=e5b10e9b-4e3f-4259-83cd-005bf98f4868","ios":"levelo://app?vid=e5b10e9b-4e3f-4259-83cd-005bf98f4868"},"vehicle_type_id":"4","last_reported":1739736536,"current_range_meters":24400,"station_id":"ce4bgr92rcd13ifvqc7g","pricing_plan_id":"cebpf4jnsgd1na2vs0mg"},{"bike_id":"e4f088f9-e3e8-4f82-824b-eaedfe8505d4","system_id":"levelo_inurba_marseille","lat":43.26868,"lon":5.40395,"is_reserved":false,"is_disabled":true,"rental_uris":{"android":"levelo://app?vid=e4f088f9-e3e8-4f82-824b-eaedfe8505d4","ios":"levelo://app?vid=e4f088f9-e3e8-4f82-824b-eaedfe8505d4"},"vehicle_type_id":"4","last_reported":1739736536,"current_range_meters":28400,"station_id":"","pricing_plan_id":"cebpf4jnsgd1na2vs0mg"},{"bike_id":"25c06d87-f05a-433f-ad42-460938cc694b","system_id":"levelo_inurba_marseille","lat":43.28341,"lon":5.38108,"is_reserved":false,"is_disabled":false,"rental_uris":{"android":"levelo://app?vid=25c06d87-f05a-433f-ad42-460938cc694b","ios":"levelo://app?vid=25c06d87-f05a-433f-ad42-460938cc694b"},"vehicle_type_id":"4","last_reported":1739736536,"current_range_meters":38400,"station_id":"ce4bh412rcd13ifvqdr0","pricing_plan_id":"cebpf4jnsgd1na2vs0mg"},{"bike_id":"9bcc3779-160f-4f11-a908-15bc41b1ac43","system_id":"levelo_inurba_marseille","lat":43.28,"lon":5.39989,"is_reserved":false,"is_disabled":true,"rental_uris":{"android":"levelo://app?vid=9bcc3779-160f-4f11-a908-15bc41b1ac43","ios":"levelo://app?vid=9bcc3779-160f-4f11-a908-15bc41b1ac43"},"vehicle_type_id":"4","last_reported":1739736536,"current_range_meters":1600,"station_id":"ce4bho92rcd13ifvqh4g","pricing_plan_id":"cebpf4jnsgd1na2vs0mg"},{"bike_id":"3c64c24f-16f7-46ec-b068-15fe4ebda356","system_id":"levelo_inurba_marseille","lat":43.29493,"lon":5.36395,"is_reserved":false,"is_disabled":true,"rental_uris":{"android":"levelo://app?vid=3c64c24f-16f7-46ec-b068-15fe4ebda356","ios":"levelo://app?vid=3c64c24f-16f7-46ec-b068-15fe4ebda356"},"vehicle_type_id":"4","last_reported":1739736536,"current_range_meters":16400,"station_id":"","pricing_plan_id":"cebpf4jnsgd1na2vs0mg"},{"bike_id":"d5fb239f-f346-4cba-936a-cdcac2986de4","system_id":"levelo_inurba_marseille","lat":43.28394,"lon":5.38665,"is_reserved":false,"is_disabled":false,"rental_uris":{"android":"levelo://app?vid=d5fb239f-f346-4cba-936a-cdcac2986de4","ios":"levelo://app?vid=d5fb239f-f346-4cba-936a-cdcac2986de4"},"vehicle_type_id":"4","last_reported":1739736536,"current_range_meters":37600,"station_id":"ce4bh492rcd13ifvqdvg","pricing_plan_id":"cebpf4jnsgd1na2vs0mg"},{"bike_id":"3bd9f889-3048-4c63-b402-81e22073685d","system_id":"levelo_inurba_marseille","lat":43.25495,"lon":5.37649,"is_reserved":false,"is_disabled":false,"rental_uris":{"android":"levelo://app?vid=3bd9f889-3048-4c63-b402-81e22073685d","ios":"levelo://app?vid=3bd9f889-3048-4c63-b402-81e22073685d"},"vehicle_type_id":"4","last_reported":1739736536,"current_range_meters":38800,"station_id":"ce4bhh12rcd13ifvqff0","pricing_plan_id":"cebpf4jnsgd1na2vs0mg"},{"bike_id":"32c16816-bf22-45bf-bae6-15a3b36aa2ac","system_id":"levelo_inurba_marseille","lat":43.25722,"lon":5.41116,"is_reserved":false,"is_disabled":false,"rental_uris":{"android":"levelo://app?vid=32c16816-bf22-45bf-bae6-15a3b36aa2ac","ios":"levelo://app?vid=32c16816-bf22-45bf-bae6-15a3b36aa2ac"},"vehicle_type_id":"4","last_reported":1739736536,"current_range_meters":38800,"station_id":"ce4bhkp2rcd13ifvqgd0","pricing_plan_id":"cebpf4jnsgd1na2vs0mg"},{"bike_id":"0a8131f0-8aa1-442f-a102-dd6461b5c6ed","system_id":"levelo_inurba_marseille","lat":43.2417,"lon":5.39673,"is_reserved":false,"is_disabled":false,"rental_uris":{"android":"levelo://app?vid=0a8131f0-8aa1-442f-a102-dd6461b5c6ed","ios":"levelo://app?vid=0a8131f0-8aa1-442f-a102-dd6461b5c6ed"},"vehicle_type_id":"4","last_reported":1739736536,"current_range_meters":38800,"station_id":"ce4bhn12rcd13ifvqgpg","pricing_plan_id":"cebpf4jnsgd1na2vs0mg"},{"bike_id":"9dce9a6e-fd02-4876-961f-4b62fe3499ef","system_id":"levelo_inurba_marseille","lat":43.30144,"lon":5.39859,"is_reserved":false,"is_disabled":false,"rental_uris":{"android":"levelo://app?vid=9dce9a6e-fd02-4876-961f-4b62fe3499ef","ios":"levelo://app?vid=9dce9a6e-fd02-4876-961f-4b62fe3499ef"},"vehicle_type_id":"4","last_reported":1739736536,"current_range_meters":38800,"station_id":"ce4bh0h2rcd13ifvqd40","pricing_plan_id":"cebpf4jnsgd1na2vs0mg"},{"bike_id":"73bce4e6-9a0e-44ff-baeb-9bf51c390137","system_id":"levelo_inurba_marseille","lat":43.27358,"lon":5.3913,"is_reserved":false,"is_disabled":true,"rental_uris":{"android":"levelo://app?vid=73bce4e6-9a0e-44ff-baeb-9bf51c390137","ios":"levelo://app?vid=73bce4e6-9a0e-44ff-baeb-9bf51c390137"},"vehicle_type_id":"4","last_reported":1739736536,"current_range_meters":7200,"station_id":"ce4bhgp2rcd13ifvqfe0","pricing_plan_id":"cebpf4jnsgd1na2vs0mg"},{"bike_id":"453b5d03-74b1-4b80-b3f1-f8af80ba4690","system_id":"levelo_inurba_marseille","lat":43.24164,"lon":5.36416,"is_reserved":false,"is_disabled":false,"rental_uris":{"android":"levelo://app?vid=453b5d03-74b1-4b80-b3f1-f8af80ba4690","ios":"levelo://app?vid=453b5d03-74b1-4b80-b3f1-f8af80ba4690"},"vehicle_type_id":"4","last_reported":1739736536,"current_range_meters":11600,"station_id":"cpo36qri1sfpv3e86is0","pricing_plan_id":"cebpf4jnsgd1na2vs0mg"},{"bike_id":"a05779ff-184a-482c-bc5f-c499d4def9da","system_id":"levelo_inurba_marseille","lat":43.29533,"lon":5.38548,"is_reserved":false,"is_disabled":false,"rental_uris":{"android":"levelo://app?vid=a05779ff-184a-482c-bc5f-c499d4def9da","ios":"levelo://app?vid=a05779ff-184a-482c-bc5f-c499d4def9da"},"vehicle_type_id":"4","last_reported":1739736536,"current_range_meters":29600,"station_id":"ce4bgih2rcd13ifvqba0","pricing_plan_id":"cebpf4jnsgd1na2vs0mg"},{"bike_id":"f80af945-f189-49bc-88bc-584597578e22","system_id":"levelo_inurba_marseille","lat":43.3107,"lon":5.38355,"is_reserved":false,"is_disabled":false,"rental_uris":{"android":"levelo://app?vid=f80af945-f189-49bc-88bc-584597578e22","ios":"levelo://app?vid=f80af945-f189-49bc-88bc-584597578e22"},"vehicle_type_id":"4","last_reported":1739736536,"current_range_meters":38800,"station_id":"ce4bgv92rcd13ifvqcr0","pricing_plan_id":"cebpf4jnsgd1na2vs0mg"},{"bike_id":"2dea0667-1db6-4775-857f-894e60e0a4c7","system_id":"levelo_inurba_marseille","lat":43.30423,"lon":5.3968,"is_reserved":false,"is_disabled":true,"rental_uris":{"android":"levelo://app?vid=2dea0667-1db6-4775-857f-894e60e0a4c7","ios":"levelo://app?vid=2dea0667-1db6-4775-857f-894e60e0a4c7"},"vehicle_type_id":"4","last_reported":1739736536,"current_range_meters":27200,"station_id":"ce4bh092rcd13ifvqd20","pricing_plan_id":"cebpf4jnsgd1na2vs0mg"},{"bike_id":"ff2cbd59-5738-4b72-a212-196bf1e91733","system_id":"levelo_inurba_marseille","lat":43.28029,"lon":5.44125,"is_reserved":false,"is_disabled":false,"rental_uris":{"android":"levelo://app?vid=ff2cbd59-5738-4b72-a212-196bf1e91733","ios":"levelo://app?vid=ff2cbd59-5738-4b72-a212-196bf1e91733"},"vehicle_type_id":"4","last_reported":1739736536,"current_range_meters":13600,"station_id":"","pricing_plan_id":"cebpf4jnsgd1na2vs0mg"},{"bike_id":"fd658ea9-6c4f-4980-a589-01cf573acae9","system_id":"levelo_inurba_marseille","lat":43.30145,"lon":5.39882,"is_reserved":false,"is_disabled":false,"rental_uris":{"android":"levelo://app?vid=fd658ea9-6c4f-4980-a589-01cf573acae9","ios":"levelo://app?vid=fd658ea9-6c4f-4980-a589-01cf573acae9"},"vehicle_type_id":"4","last_reported":1739736536,"current_range_meters":39200,"station_id":"ce4bh0h2rcd13ifvqd40","pricing_plan_id":"cebpf4jnsgd1na2vs0mg"},