{"last_updated":1748635876,"ttl":60,"version":"2.2","data":{"bikes":[{"bike_id":"55d42eeb-6b71-4987-a0f2-3d758b10d43e","system_id":"levelo_inurba_marseille","lat":43.33771,"lon":5.37424,"is_reserved":false,"is_disabled":true,"rental_uris":{"android":"levelo://app?vid=55d42eeb-6b71-4987-a0f2-3d758b10d43e","ios":"levelo://app?vid=55d42eeb-6b71-4987-a0f2-3d758b10d43e"},"vehicle_type_id":"4","last_reported":1748635876,"current_range_meters":0,"station_id":"","pricing_plan_id":"cebpf4jnsgd1na2vs0mg"},{"bike_id":"b7fe4621-b706-42f0-9085-4811142f84e8","system_id":"levelo_inurba_marseille","lat":43.337499,"lon":5.374469,"is_reserved":false,"is_disabled":true,"rental_uris":{"android":"levelo://app?vid=b7fe4621-b706-42f0-9085-4811142f84e8","ios":"levelo://app?vid=b7fe4621-b706-42f0-9085-4811142f84e8"},"vehicle_type_id":"4","last_reported":1748635876,"current_range_meters":0,"station_id":"","pricing_plan_id":"cebpf4jnsgd1na2vs0mg"},{"bike_id":"ad402f0f-3192-410c-afac-8cf064a40c6d","system_id":"levelo_inurba_marseille","lat":43.337444,"lon":5.374475,"is_reserved":false,"is_disabled":true,"rental_uris":{"android":"levelo://app?vid=ad402f0f-3192-410c-afac-8cf064a40c6d","ios":"levelo://app?vid=ad402f0f-3192-410c-afac-8cf064a40c6d"},"vehicle_type_id":"4","last_reported":1748635876,"current_range_meters":0,"station_id":"","pricing_plan_id":"cebpf4jnsgd1na2vs0mg"},{"bike_id":"d90baf97-e6b3-4c48-bcd2-63bc44243da4","system_id":"levelo_inurba_marseille","lat":43.21627,"lon":5.34297,"is_reserved":false,"is_disabled":true,"rental_uris":{"android":"levelo://app?vid=d90baf97-e6b3-4c48-bcd2-63bc44243da4","ios":"levelo://app?vid=d90baf97-e6b3-4c48-bcd2-63bc44243da4"},"vehicle_type_id":"4","last_reported":1748635876,"current_range_meters":0,"station_id":"","pricing_plan_id":"cebpf4jnsgd1na2vs0mg"},{"bike_id":"e8d8ddad-17f0-4297-b743-7c17818146e6","system_id":"levelo_inurba_marseille","lat":43.28202,"lon":5.4297,"is_reserved":false,"is_disabled":true,"rental_uris":{"android":"levelo://app?vid=e8d8ddad-17f0-4297-b743-7c17818146e6","ios":"levelo://app?vid=e8d8ddad-17f0-4297-b743-7c17818146e6"},"vehicle_type_id":"4","last_reported":1748635876,"current_range_meters":0,"station_id":"","pricing_plan_id":"cebpf4jnsgd1na2vs0mg"},{"bike_id":"1982defd-166d-4255-89b9-40e6a677a3ca","system_id":"levelo_inurba_marseille","lat":43.30439,"lon":5.37848,"is_reserved":false,"is_disabled":true,"rental_uris":{"android":"levelo://app?vid=1982defd-166d-4255-89b9-40e6a677a3ca","ios":"levelo://app?vid=1982defd-166d-4255-89b9-40e6a677a3ca"},"vehicle_type_id":"4","last_reported":1748635876,"current_range_meters":0,"station_id":"","pricing_plan_id":"cebpf4jnsgd1na2vs0mg"},{"bike_id":"cd92f5c2-5bcc-49cf-a853-08cba9374a91","system_id":"levelo_inurba_marseille","lat":43.26567,"lon":5.40325,"is_reserved":false,"is_disabled":true,"rental_uris":{"android":"levelo://app?vid=cd92f5c2-5bcc-49cf-a853-08cba9374a91","ios":"levelo://app?vid=cd92f5c2-5bcc-49cf-a853-08cba9374a91"},"vehicle_type_id":"4","last_reported":1748635876,"current_range_meters":0,"station_id":"","pricing_plan_id":"cebpf4jnsgd1na2vs0mg"},{"bike_id":"80dc1064-d63f-4a22-ad21-d8abd70986c0","system_id":"levelo_inurba_marseille","lat":43.33811,"lon":5.37503,"is_reserved":false,"is_disabled":true,"rental_uris":{"android":"levelo://app?vid=80dc1064-d63f-4a22-ad21-d8abd70986c0","ios":"levelo://app?vid=80dc1064-d63f-4a22-ad21-d8abd70986c0"},"vehicle_type_id":"4","last_reported":1748635876,"current_range_meters":0,"station_id":"","pricing_plan_id":"cebpf4jnsgd1na2vs0mg"},{"bike_id":"fcbedf31-ab26-42ed-9a7e-5f9e97aa9a93","system_id":"levelo_inurba_marseille","lat":43.2957,"lon":5.38263,"is_reserved":false,"is_disabled":true,"rental_uris":{"android":"levelo://app?vid=fcbedf31-ab26-42ed-9a7e-5f9e97aa9a93","ios":"levelo://app?vid=fcbedf31-ab26-42ed-9a7e-5f9e97aa9a93"},"vehicle_type_id":"4","last_reported":1748635876,"current_range_meters":0,"station_id":"","pricing_plan_id":"cebpf4jnsgd1na2vs0mg"},{"bike_id":"9f604be2-4064-4fb6-a0c4-51ca266226cc","system_id":"levelo_inurba_marseille","lat":43.30916,"lon":5.37886,"is_reserved":false,"is_disabled":true,"rental_uris":{"android":"levelo://app?vid=9f604be2-4064-4fb6-a0c4-51ca266226cc","ios":"levelo://app?vid=9f604be2-4064-4fb6-a0c4-51ca266226cc"},"vehicle_type_id":"4","last_reported":1748635876,"current_range_meters":0,"station_id":"","pricing_plan_id":"cebpf4jnsgd1na2vs0mg"},{"bike_id":"c85dc39e-a5d0-40e3-ad9f-90719af3c376","system_id":"levelo_inurba_marseille","lat":43.29973,"lon":5.36916,"is_reserved":false,"is_disabled":true,"rental_uris":{"android":"levelo://app?vid=c85dc39e-a5d0-40e3-ad9f-90719af3c376","ios":"levelo://app?vid=c85dc39e-a5d0-40e3-ad9f-90719af3c376"},"vehicle_type_id":"4","last_reported":1748635876,"current_range_meters":0,"station_id":"","pricing_plan_id":"cebpf4jnsgd1na2vs0mg"},{"bike_id":"e85986f7-78ee-45ca-a51c-ad41979e478c","system_id":"levelo_inurba_marseille","lat":43.295166,"lon":5.375107,"is_reserved":false,"is_disabled":true,"rental_uris":{"android":"levelo://app?vid=e85986f7-78ee-45ca-a51c-ad41979e478c","ios":"levelo://app?vid=e85986f7-78ee-45ca-a51c-ad41979e478c"},"vehicle_type_id":"4","last_reported":1748635876,"current_range_meters":0,"station_id":"","pricing_plan_id":"cebpf4jnsgd1na2vs0mg"},{"bike_id":"74c1e076-13a8-4361-a537-f1cad05da938","system_id":"levelo_inurba_marseille","lat":43.23919,"lon":5.36246,"is_reserved":false,"is_disabled":true,"rental_uris":{"android":"levelo://app?vid=74c1e076-13a8-4361-a537-f1cad05da938","ios":"levelo://app?vid=74c1e076-13a8-4361-a537-f1cad05da938"},"vehicle_type_id":"4","last_reported":1748635876,"current_range_meters":0,"station_id":"","pricing_plan_id":"cebpf4jnsgd1na2vs0mg"},{"bike_id":"e4c29532-f07a-4102-b0ae-61730aa1af99","system_id":"levelo_inurba_marseille","lat":43.30811,"lon":5.37173,"is_reserved":false,"is_disabled":true,"rental_uris":{"android":"levelo://app?vid=e4c29532-f07a-4102-b0ae-61730aa1af99","ios":"levelo://app?vid=e4c29532-f07a-4102-b0ae-61730aa1af99"},"vehicle_type_id":"4","last_reported":1748635876,"current_range_meters":0,"station_id":"","pricing_plan_id":"cebpf4jnsgd1na2vs0mg"},{"bike_id":"1e19a269-3c3b-47ea-9e7e-577a63fca4ba","system_id":"levelo_inurba_marseille","lat":43.29933,"lon":5.36552,"is_reserved":false,"is_disabled":true,"rental_uris":{"android":"levelo://app?vid=1e19a269-3c3b-47ea-9e7e-577a63fca4ba","ios":"levelo://app?vid=1e19a269-3c3b-47ea-9e7e-577a63fca4ba"},"vehicle_type_id":"4","last_reported":1748635876,"current_range_meters":0,"station_id":"ce4bgm92rcd13ifvqbr0","pricing_plan_id":"cebpf4jnsgd1na2vs0mg"},{"bike_id":"8ed6aaa6-cc9b-4f68-a999-36063351f255","system_id":"levelo_inurba_marseille","lat":43.31358,"lon":5.38499,"is_reserved":false,"is_disabled":true,"rental_uris":{"android":"levelo://app?vid=8ed6aaa6-cc9b-4f68-a999-36063351f255","ios":"levelo://app?vid=8ed6aaa6-cc9b-4f68-a999-36063351f255"},"vehicle_type_id":"4","last_reported":1748635876,"current_range_meters":0,"station_id":"ce4bgt92rcd13ifvqcf0","pricing_plan_id":"cebpf4jnsgd1na2vs0mg"},{"bike_id":"e6bd2159-7510-4371-bb24-730467821657","system_id":"levelo_inurba_marseille","lat":43.31322,"lon":5.39691,"is_reserved":false,"is_disabled":true,"rental_uris":{"android":"levelo://app?vid=e6bd2159-7510-4371-bb24-730467821657","ios":"levelo://app?vid=e6bd2159-7510-4371-bb24-730467821657"},"vehicle_type_id":"4","last_reported":1748635876,"current_range_meters":0,"station_id":"ce4bgvp2rcd13ifvqcu0","pricing_plan_id":"cebpf4jnsgd1na2vs0mg"},{"bike_id":"f3653d6b-fb42-4af6-ab3e-1f170ba11fbe","system_id":"levelo_inurba_marseille","lat":43.29041,"lon":5.38124,"is_reserved":false,"is_disabled":true,"rental_uris":{"android":"levelo://app?vid=f3653d6b-fb42-4af6-ab3e-1f170ba11fbe","ios":"levelo://app?vid=f3653d6b-fb42-4af6-ab3e-1f170ba11fbe"},"vehicle_type_id":"4","last_reported":1748635876,"current_range_meters":0,"station_id":"ce4bh4p2rcd13ifvqe1g","pricing_plan_id":"cebpf4jnsgd1na2vs0mg"},{"bike_id":"ffb46bb4-7b71-4720-97a0-6950d453ee4b","system_id":"levelo_inurba_marseille","lat":43.2738,"lon":5.36242,"is_reserved":false,"is_disabled":true,"rental_uris":{"android":"levelo://app?vid=ffb46bb4-7b71-4720-97a0-6950d453ee4b","ios":"levelo://app?vid=ffb46bb4-7b71-4720-97a0-6950d453ee4b"},"vehicle_type_id":"4","last_reported":1748635876,"current_range_meters":0,"station_id":"ce4bhbh2rcd13ifvqeo0","pricing_plan_id":"cebpf4jnsgd1na2vs0mg"},{"bike_id":"ab9c9983-bf72-44ed-ad75-a96b382dad3c","system_id":"levelo_inurba_marseille","lat":43.21745,"lon":5.34607,"is_reserved":false,"is_disabled":true,"rental_uris":{"android":"levelo://app?vid=ab9c9983-bf72-44ed-ad75-a96b382dad3c","ios":"levelo://app?vid=ab9c9983-bf72-44ed-ad75-a96b382dad3c"},"vehicle_type_id":"4","last_reported":1748635876,"current_range_meters":0,"station_id":"st_cvj6r9ubvosntc0bgbag","pricing_plan_id":"cebpf4jnsgd1na2vs0mg"},{"bike_id":"edcb0dfe-bdaa-4cf7-84cb-f40080951379","system_id":"levelo_inurba_marseille","lat":43.217411,"lon":5.34601,"is_reserved":false,"is_disabled":true,"rental_uris":{"android":"levelo://app?vid=edcb0dfe-bdaa-4cf7-84cb-f40080951379","ios":"levelo://app?vid=edcb0dfe-bdaa-4cf7-84cb-f40080951379"},"vehicle_type_id":"4","last_reported":1748635876,"current_range_meters":0,"station_id":"st_cvj6r9ubvosntc0bgbag","pricing_plan_id":"cebpf4jnsgd1na2vs0mg"},{"bike_id":"530a7743-8ce4-4226-a94c-cb283db15c49","system_id":"levelo_inurba_marseille","lat":43.26193,"lon":5.37452,"is_reserved":false,"is_disabled":true,"rental_uris":{"android":"levelo://app?vid=530a7743-8ce4-4226-a94c-cb283db15c49","ios":"levelo://app?vid=530a7743-8ce4-4226-a94c-cb283db15c49"},"vehicle_type_id":"4","last_reported":1748635876,"current_range_meters":400,"station_id":"ce4bhgp2rcd13ifvqfc0","pricing_plan_id":"cebpf4jnsgd1na2vs0mg"},{"bike_id":"13ad326f-599c-478e-ae8e-cea384701597","system_id":"levelo_inurba_marseille","lat":43.28453,"lon":5.39199,"is_reserved":false,"is_disabled":true,"rental_uris":{"android":"levelo://app?vid=13ad326f-599c-478e-ae8e-cea384701597","ios":"levelo://app?vid=13ad326f-599c-478e-ae8e-cea384701597"},"vehicle_type_id":"4","last_reported":1748635876,"current_range_meters":400,"station_id":"ce4bhoh2rcd13ifvqh5g","pricing_plan_id":"cebpf4jnsgd1na2vs0mg"},{"bike_id":"773c1455-d022-4f8e-8c6e-cf957b22d221","system_id":"levelo_inurba_marseille","lat":43.21763,"lon":5.34586,"is_reserved":false,"is_disabled":true,"rental_uris":{"android":"levelo://app?vid=773c1455-d022-4f8e-8c6e-cf957b22d221","ios":"levelo://app?vid=773c1455-d022-4f8e-8c6e-cf957b22d221"},"vehicle_type_id":"4","last_reported":1748635876,"current_range_meters":400,"station_id":"st_cvj6r9ubvosntc0bgbag","pricing_plan_id":"cebpf4jnsgd1na2vs0mg"},{"bike_id":"24204c04-5d8c-4ac1-bc38-3e364dee5b7a","system_id":"levelo_inurba_marseille","lat":43.30246,"lon":5.41311,"is_reserved":false,"is_disabled":true,"rental_uris":{"android":"levelo://app?vid=24204c04-5d8c-4ac1-bc38-3e364dee5b7a","ios":"levelo://app?vid=24204c04-5d8c-4ac1-bc38-3e364dee5b7a"},"vehicle_type_id":"4","last_reported":1748635876,"current_range_meters":800,"station_id":"","pricing_plan_id":"cebpf4jnsgd1na2vs0mg"},{"bike_id":"db111e29-c7bc-419e-9b00-20231fbec330","system_id":"levelo_inurba_marseille","lat":43.21794,"lon":5.34603,"is_reserved":false,"is_disabled":true,"rental_uris":{"android":"levelo://app?vid=db111e29-c7bc-419e-9b00-20231fbec330","ios":"levelo://app?vid=db111e29-c7bc-419e-9b00-20231fbec330"},"vehicle_type_id":"4","last_reported":1748635876,"current_range_meters":800,"station_id":"","pricing_plan_id":"cebpf4jnsgd1na2vs0mg"},{"bike_id":"897cca03-43cc-40ed-b3d6-58175ab7a86d","system_id":"levelo_inurba_marseille","lat":43.29566,"lon":5.37875,"is_reserved":false,"is_disabled":true,"rental_uris":{"android":"levelo://app?vid=897cca03-43cc-40ed-b3d6-58175ab7a86d","ios":"levelo://app?vid=897cca03-43cc-40ed-b3d6-58175ab7a86d"},"vehicle_type_id":"4","last_reported":1748635876,"current_range_meters":800,"station_id":"","pricing_plan_id":"cebpf4jnsgd1na2vs0mg"},{"bike_id":"d69ad301-b98a-43f5-b5de-5def2fdb09a7","system_id":"levelo_inurba_marseille","lat":43.25106,"lon":5.40324,"is_reserved":false,"is_disabled":true,"rental_uris":{"android":"levelo://app?vid=d69ad301-b98a-43f5-b5de-5def2fdb09a7","ios":"levelo://app?vid=d69ad301-b98a-43f5-b5de-5def2fdb09a7"},"vehicle_type_id":"4","last_reported":1748635876,"current_range_meters":800,"station_id":"ce4bhlh2rcd13ifvqgig","pricing_plan_id":"cebpf4jnsgd1na2vs0mg"},{"bike_id":"7e513d4a-db16-48fe-83b7-b1611a670271","system_id":"levelo_inurba_marseille","lat":43.26807,"lon":5.4027,"is_reserved":false,"is_disabled":true,"rental_uris":{"android":"levelo://app?vid=7e513d4a-db16-48fe-83b7-b1611a670271","ios":"levelo://app?vid=7e513d4a-db16-48fe-83b7-b1611a670271"},"vehicle_type_id":"4","last_reported":1748635876,"current_range_meters":800,"station_id":"ce501612rcd8frsf0b60","pricing_plan_id":"cebpf4jnsgd1na2vs0mg"},{"bike_id":"77b3212c-675f-488c-8283-9ffab2c56d49","system_id":"levelo_inurba_marseille","lat":43.22934,"lon":5.35377,"is_reserved":false,"is_disabled":true,"rental_uris":{"android":"levelo://app?vid=77b3212c-675f-488c-8283-9ffab2c56d49","ios":"levelo://app?vid=77b3212c-675f-488c-8283-9ffab2c56d49"},"vehicle_type_id":"4","last_reported":1748635876,"current_range_meters":800,"station_id":"cpo3532slgdg3j2ikp40","pricing_plan_id":"cebpf4jnsgd1na2vs0mg"},{"bike_id":"8b5d33f8-a3c5-47ae-a1ac-c1c145627af5","system_id":"levelo_inurba_marseille","lat":43.22923,"lon":5.35363,"is_reserved":false,"is_disabled":true,"rental_uris":{"android":"levelo://app?vid=8b5d33f8-a3c5-47ae-a1ac-c1c145627af5","ios":"levelo://app?vid=8b5d33f8-a3c5-47ae-a1ac-c1c145627af5"},"vehicle_type_id":"4","last_reported":1748635876,"current_range_meters":800,"station_id":"cpo3532slgdg3j2ikp40","pricing_plan_id":"cebpf4jnsgd1na2vs0mg"},{"bike_id":"77e04ab8-b44f-40dc-908e-e5838eb58075","system_id":"levelo_inurba_marseille","lat":43.235593,"lon":5.3603,"is_reserved":false,"is_disabled":true,"rental_uris":{"android":"levelo://app?vid=77e04ab8-b44f-40dc-908e-e5838eb58075","ios":"levelo://app?vid=77e04ab8-b44f-40dc-908e-e5838eb58075"},"vehicle_type_id":"4","last_reported":1748635876,"current_range_meters":1200,"station_id":"","pricing_plan_id":"cebpf4jnsgd1na2vs0mg"},{"bike_id":"6c8629e8-256d-4b1d-bde3-ccfdaf2099c2","system_id":"levelo_inurba_marseille","lat":43.29921,"lon":5.37478,"is_reserved":false,"is_disabled":true,"rental_uris":{"android":"levelo://app?vid=6c8629e8-256d-4b1d-bde3-ccfdaf2099c2","ios":"levelo://app?vid=6c8629e8-256d-4b1d-bde3-ccfdaf2099c2"},"vehicle_type_id":"4","last_reported":1748635876,"current_range_meters":1200,"station_id":"ce4bgjh2rcd13ifvqbg0","pricing_plan_id":"cebpf4jnsgd1na2vs0mg"},{"bike_id":"e3bc115a-ecfd-4d95-8871-9be00e9a066a","system_id":"levelo_inurba_marseille","lat":43.25012,"lon":5.38926,"is_reserved":false,"is_disabled":true,"rental_uris":{"android":"levelo://app?vid=e3bc115a-ecfd-4d95-8871-9be00e9a066a","ios":"levelo://app?vid=e3bc115a-ecfd-4d95-8871-9be00e9a066a"},"vehicle_type_id":"4","last_reported":1748635876,"current_range_meters":1200,"station_id":"ce4bhgp2rcd13ifvqfd0","pricing_plan_id":"cebpf4jnsgd1na2vs0mg"},{"bike_id":"d9973f9d-953a-453b-994f-c84e36b48551","system_id":"levelo_inurba_marseille","lat":43.25123,"lon":5.40331,"is_reserved":false,"is_disabled":true,"rental_uris":{"android":"levelo://app?vid=d9973f9d-953a-453b-994f-c84e36b48551","ios":"levelo://app?vid=d9973f9d-953a-453b-994f-c84e36b48551"},"vehicle_type_id":"4","last_reported":1748635876,"current_range_meters":1200,"station_id":"ce4bhlh2rcd13ifvqgig","pricing_plan_id":"cebpf4jnsgd1na2vs0mg"},{"bike_id":"9d2d75de-6f79-4c98-a794-66bda20110b0","system_id":"levelo_inurba_marseille","lat":43.230608,"lon":5.354958,"is_reserved":false,"is_disabled":true,"rental_uris":{"android":"levelo://app?vid=9d2d75de-6f79-4c98-a794-66bda20110b0","ios":"levelo://app?vid=9d2d75de-6f79-4c98-a794-66bda20110b0"},"vehicle_type_id":"4","last_reported":1748635876,"current_range_meters":1200,"station_id":"cpo3342slgdg3j2ifvpg","pricing_plan_id":"cebpf4jnsgd1na2vs0mg"},{"bike_id":"5278b434-6c84-40e9-b526-dac962bdf780","system_id":"levelo_inurba_marseille","lat":43.234964,"lon":5.360241,"is_reserved":false,"is_disabled":true,"rental_uris":{"android":"levelo://app?vid=5278b434-6c84-40e9-b526-dac962bdf780","ios":"levelo://app?vid=5278b434-6c84-40e9-b526-dac962bdf780"},"vehicle_type_id":"4","last_reported":1748635876,"current_range_meters":1600,"station_id":"","pricing_plan_id":"cebpf4jnsgd1na2vs0mg"},{"bike_id":"e3f4a748-d432-4598-9895-6507bad78d39","system_id":"levelo_inurba_marseille","lat":43.33613,"lon":5.43284,"is_reserved":false,"is_disabled":true,"rental_uris":{"android":"levelo://app?vid=e3f4a748-d432-4598-9895-6507bad78d39","ios":"levelo://app?vid=e3f4a748-d432-4598-9895-6507bad78d39"},"vehicle_type_id":"4","last_reported":1748635876,"current_range_meters":1600,"station_id":"","pricing_plan_id":"cebpf4jnsgd1na2vs0mg"},{"bike_id":"40a912ab-67dd-4166-9c9d-6a93fe699630","system_id":"levelo_inurba_marseille","lat":43.28738,"lon":5.38607,"is_reserved":false,"is_disabled":true,"rental_uris":{"android":"levelo://app?vid=40a912ab-67dd-4166-9c9d-6a93fe699630","ios":"levelo://app?vid=40a912ab-67dd-4166-9c9d-6a93fe699630"},"vehicle_type_id":"4","last_reported":1748635876,"current_range_meters":1600,"station_id":"","pricing_plan_id":"cebpf4jnsgd1na2vs0mg"},{"bike_id":"c0051c12-4ed5-4d1b-a919-0bc93495d4fd","system_id":"levelo_inurba_marseille","lat":43.31216,"lon":5.36837,"is_reserved":false,"is_disabled":true,"rental_uris":{"android":"levelo://app?vid=c0051c12-4ed5-4d1b-a919-0bc93495d4fd","ios":"levelo://app?vid=c0051c12-4ed5-4d1b-a919-0bc93495d4fd"},"vehicle_type_id":"4","last_reported":1748635876,"current_range_meters":1600,"station_id":"ce4bgl92rcd13ifvqbq0","pricing_plan_id":"cebpf4jnsgd1na2vs0mg"},{"bike_id":"c3ebae26-4479-4594-bc55-06360613ab8e","system_id":"levelo_inurba_marseille","lat":43.30933,"lon":5.40142,"is_reserved":false,"is_disabled":true,"rental_uris":{"android":"levelo://app?vid=c3ebae26-4479-4594-bc55-06360613ab8e","ios":"levelo://app?vid=c3ebae26-4479-4594-bc55-06360613ab8e"},"vehicle_type_id":"4","last_reported":1748635876,"current_range_meters":1600,"station_id":"ce4bgvp2rcd13ifvqct0","pricing_plan_id":"cebpf4jnsgd1na2vs0mg"},{"bike_id":"a526fb51-b30e-4eb2-80a4-8bf795579625","system_id":"levelo_inurba_marseille","lat":43.259391,"lon":5.416503,"is_reserved":false,"is_disabled":false,"rental_uris":{"android":"levelo://app?vid=a526fb51-b30e-4eb2-80a4-8bf795579625","ios":"levelo://app?vid=a526fb51-b30e-4eb2-80a4-8bf795579625"},"vehicle_type_id":"4","last_reported":1748635876,"current_range_meters":2000,"station_id":"","pricing_plan_id":"cebpf4jnsgd1na2vs0mg"},{"bike_id":"660518f4-1847-4b36-8410-9858e20e272f","system_id":"levelo_inurba_marseille","lat":43.2679,"lon":5.38946,"is_reserved":false,"is_disabled":true,"rental_uris":{"android":"levelo://app?vid=660518f4-1847-4b36-8410-9858e20e272f","ios":"levelo://app?vid=660518f4-1847-4b36-8410-9858e20e272f"},"vehicle_type_id":"4","last_reported":1748635876,"current_range_meters":2000,"station_id":"","pricing_plan_id":"cebpf4jnsgd1na2vs0mg"},{"bike_id":"f91b1928-b963-450d-b080-53d2a029e076","system_id":"levelo_inurba_marseille","lat":43.28414,"lon":5.37507,"is_reserved":false,"is_disabled":true,"rental_uris":{"android":"levelo://app?vid=f91b1928-b963-450d-b080-53d2a029e076","ios":"levelo://app?vid=f91b1928-b963-450d-b080-53d2a029e076"},"vehicle_type_id":"4","last_reported":1748635876,"current_range_meters":2000,"station_id":"ce4bh412rcd13ifvqds0","pricing_plan_id":"cebpf4jnsgd1na2vs0mg"},{"bike_id":"adf6b7d0-861d-445c-ad64-85846e7d5218","system_id":"levelo_inurba_marseille","lat":43.26553,"lon":5.37286,"is_reserved":false,"is_disabled":true,"rental_uris":{"android":"levelo://app?vid=adf6b7d0-861d-445c-ad64-85846e7d5218","ios":"levelo://app?vid=adf6b7d0-861d-445c-ad64-85846e7d5218"},"vehicle_type_id":"4","last_reported":1748635876,"current_range_meters":2000,"station_id":"ce4bhg12rcd13ifvqf70","pricing_plan_id":"cebpf4jnsgd1na2vs0mg"},{"bike_id":"c8371029-f848-406b-9e41-37b50a8274ab","system_id":"levelo_inurba_marseille","lat":43.231494,"lon":5.437186,"is_reserved":false,"is_disabled":true,"rental_uris":{"android":"levelo://app?vid=c8371029-f848-406b-9e41-37b50a8274ab","ios":"levelo://app?vid=c8371029-f848-406b-9e41-37b50a8274ab"},"vehicle_type_id":"4","last_reported":1748635876,"current_range_meters":2000,"station_id":"ce4bhmp2rcd13ifvqgog","pricing_plan_id":"cebpf4jnsgd1na2vs0mg"},{"bike_id":"fb63577b-8561-452a-8738-d31ba4cd374b","system_id":"levelo_inurba_marseille","lat":43.3073,"lon":5.42451,"is_reserved":false,"is_disabled":true,"rental_uris":{"android":"levelo://app?vid=fb63577b-8561-452a-8738-d31ba4cd374b","ios":"levelo://app?vid=fb63577b-8561-452a-8738-d31ba4cd374b"},"vehicle_type_id":"4","last_reported":1748635876,"current_range_meters":2000,"station_id":"st_cvj6ca6bvosntc0bfgr0","pricing_plan_id":"cebpf4jnsgd1na2vs0mg"},{"bike_id":"bd3f8a4b-9b1c-4cd4-a5bd-c1ec00b76dd1","system_id":"levelo_inurba_marseille","lat":43.29573,"lon":5.37523,"is_reserved":false,"is_disabled":false,"rental_uris":{"android":"levelo://app?vid=bd3f8a4b-9b1c-4cd4-a5bd-c1ec00b76dd1","ios":"levelo://app?vid=bd3f8a4b-9b1c-4cd4-a5bd-c1ec00b76dd1"},"vehicle_type_id":"4","last_reported":1748635876,"current_range_meters":2800,"station_id":"ce4bgh92rcd13ifvqb50","pricing_plan_id":"cebpf4jnsgd1na2vs0mg"},{"bike_id":"921eecef-b369-42b2-98fc-cc2764f42a78","system_id":"levelo_inurba_marseille","lat":43.28079,"lon":5.39664,"is_reserved":false,"is_disabled":false,"rental_uris":{"android":"levelo://app?vid=921eecef-b369-42b2-98fc-cc2764f42a78","ios":"levelo://app?vid=921eecef-b369-42b2-98fc-cc2764f42a78"},"vehicle_type_id":"4","last_reported":1748635876,"current_range_meters":2800,"station_id":"ce4bho12rcd13ifvqh2g","pricing_plan_id":"cebpf4jnsgd1na2vs0mg"},{"bike_id":"d4d44586-29f6-48c5-b39d-b23bfd54427c","system_id":"levelo_inurba_marseille","lat":43.22515,"lon":5.34772,"is_reserved":false,"is_disabled":false,"rental_uris":{"android":"levelo://app?vid=d4d44586-29f6-48c5-b39d-b23bfd54427c","ios":"levelo://app?vid=d4d44586-29f6-48c5-b39d-b23bfd54427c"},"vehicle_type_id":"4","last_reported":1748635876,"current_range_meters":2800,"station_id":"st_cvj5dfep6f1abm77gieg","pricing_plan_id":"cebpf4jnsgd1na2vs0mg"},{"bike_id":"391b84f7-909a-4809-ad28-cb52ffd8c9cb","system_id":"levelo_inurba_marseille","lat":43.30538,"lon":5.38423,"is_reserved":false,"is_disabled":false,"rental_uris":{"android":"levelo://app?vid=391b84f7-909a-4809-ad28-cb52ffd8c9cb","ios":"levelo://app?vid=391b84f7-909a-4809-ad28-cb52ffd8c9cb"},"vehicle_type_id":"4","last_reported":1748635876,"current_range_meters":3200,"station_id":"ce4bgg92rcd13ifvqb30","pricing_plan_id":"cebpf4jnsgd1na2vs0mg"},{"bike_id":"f40c8280-d07e-4919-8b37-de0f23cf1265","system_id":"levelo_inurba_marseille","lat":43.31057,"lon":5.38357,"is_reserved":false,"is_disabled":false,"rental_uris":{"android":"levelo://app?vid=f40c8280-d07e-4919-8b37-de0f23cf1265","ios":"levelo://app?vid=f40c8280-d07e-4919-8b37-de0f23cf1265"},"vehicle_type_id":"4","last_reported":1748635876,"current_range_meters":3600,"station_id":"ce4bgv92rcd13ifvqcr0","pricing_plan_id":"cebpf4jnsgd1na2vs0mg"},{"bike_id":"7ae04d72-978f-4eb2-b066-845451a622d0","system_id":"levelo_inurba_marseille","lat":43.286675,"lon":5.38659,"is_reserved":false,"is_disabled":false,"rental_uris":{"android":"levelo://app?vid=7ae04d72-978f-4eb2-b066-845451a622d0","ios":"levelo://app?vid=7ae04d72-978f-4eb2-b066-845451a622d0"},"vehicle_type_id":"4","last_reported":1748635876,"current_range_meters":3600,"station_id":"ce4bh492rcd13ifvqdug","pricing_plan_id":"cebpf4jnsgd1na2vs0mg"},{"bike_id":"8f8db83b-93a4-4fb2-b181-50b98bfbfc20","system_id":"levelo_inurba_marseille","lat":43.27918,"lon":5.3958,"is_reserved":false,"is_disabled":false,"rental_uris":{"android":"levelo://app?vid=8f8db83b-93a4-4fb2-b181-50b98bfbfc20","ios":"levelo://app?vid=8f8db83b-93a4-4fb2-b181-50b98bfbfc20"},"vehicle_type_id":"4","last_reported":1748635876,"current_range_meters":3600,"station_id":"ce4bhf92rcd13ifvqf40","pricing_plan_id":"cebpf4jnsgd1na2vs0mg"},{"bike_id":"d5ed9254-7034-4ebf-884d-329c15a7f583","system_id":"levelo_inurba_marseille","lat":43.31719,"lon":5.42394,"is_reserved":false,"is_disabled":false,"rental_uris":{"android":"levelo://app?vid=d5ed9254-7034-4ebf-884d-329c15a7f583","ios":"levelo://app?vid=d5ed9254-7034-4ebf-884d-329c15a7f583"},"vehicle_type_id":"4","last_reported":1748635876,"current_range_meters":3600,"station_id":"ce4bhp92rcd13ifvqhbg","pricing_plan_id":"cebpf4jnsgd1na2vs0mg"},{"bike_id":"93222ebe-437b-49ba-b05e-139fa3159770","system_id":"levelo_inurba_marseille","lat":43.228891,"lon":5.353533,"is_reserved":false,"is_disabled":false,"rental_uris":{"android":"levelo://app?vid=93222ebe-437b-49ba-b05e-139fa3159770","ios":"levelo://app?vid=93222ebe-437b-49ba-b05e-139fa3159770"},"vehicle_type_id":"4","last_reported":1748635876,"current_range_meters":3600,"station_id":"cpo3532slgdg3j2ikp40","pricing_plan_id":"cebpf4jnsgd1na2vs0mg"},{"bike_id":"697d924a-ea53-411b-88e3-ed7542c4178d","system_id":"levelo_inurba_marseille","lat":43.337793,"lon":5.374829,"is_reserved":false,"is_disabled":false,"rental_uris":{"android":"levelo://app?vid=697d924a-ea53-411b-88e3-ed7542c4178d","ios":"levelo://app?vid=697d924a-ea53-411b-88e3-ed7542c4178d"},"vehicle_type_id":"4","last_reported":1748635876,"current_range_meters":4000,"station_id":"","pricing_plan_id":"cebpf4jnsgd1na2vs0mg"},{"bike_id":"eb6f7b70-b554-4f0b-9071-c468db80e368","system_id":"levelo_inurba_marseille","lat":43.23993,"lon":5.36284,"is_reserved":false,"is_disabled":false,"rental_uris":{"android":"levelo://app?vid=eb6f7b70-b554-4f0b-9071-c468db80e368","ios":"levelo://app?vid=eb6f7b70-b554-4f0b-9071-c468db80e368"},"vehicle_type_id":"4","last_reported":1748635876,"current_range_meters":4000,"station_id":"","pricing_plan_id":"cebpf4jnsgd1na2vs0mg"},{"bike_id":"064150a7-b94c-4745-b90a-fe954eb8f2f0","system_id":"levelo_inurba_marseille","lat":43.29245,"lon":5.3846,"is_reserved":false,"is_disabled":false,"rental_uris":{"android":"levelo://app?vid=064150a7-b94c-4745-b90a-fe954eb8f2f0","ios":"levelo://app?vid=064150a7-b94c-4745-b90a-fe954eb8f2f0"},"vehicle_type_id":"4","last_reported":1748635876,"current_range_meters":4000,"station_id":"ce4bh692rcd13ifvqea0","pricing_plan_id":"cebpf4jnsgd1na2vs0mg"},{"bike_id":"304adea0-567f-4ef7-812c-b9bffa240b79","system_id":"levelo_inurba_marseille","lat":43.28927,"lon":5.38394,"is_reserved":false,"is_disabled":false,"rental_uris":{"android":"levelo://app?vid=304adea0-567f-4ef7-812c-b9bffa240b79","ios":"levelo://app?vid=304adea0-567f-4ef7-812c-b9bffa240b79"},"vehicle_type_id":"4","last_reported":1748635876,"current_range_meters":4400,"station_id":"ce4bh612rcd13ifvqe6g","pricing_plan_id":"cebpf4jnsgd1na2vs0mg"},{"bike_id":"f99e5dab-8e9e-48c9-8155-c89298889cf4","system_id":"levelo_inurba_marseille","lat":43.27209,"lon":5.39174,"is_reserved":false,"is_disabled":false,"rental_uris":{"android":"levelo://app?vid=f99e5dab-8e9e-48c9-8155-c89298889cf4","ios":"levelo://app?vid=f99e5dab-8e9e-48c9-8155-c89298889cf4"},"vehicle_type_id":"4","last_reported":1748635876,"current_range_meters":4400,"station_id":"ce4bhhp2rcd13ifvqfm0","pricing_plan_id":"cebpf4jnsgd1na2vs0mg"},{"bike_id":"fca5f651-1a5a-4966-a0ab-16e45ecd2a2f","system_id":"levelo_inurba_marseille","lat":43.23196,"lon":5.35551,"is_reserved":false,"is_disabled":false,"rental_uris":{"android":"levelo://app?vid=fca5f651-1a5a-4966-a0ab-16e45ecd2a2f","ios":"levelo://app?vid=fca5f651-1a5a-4966-a0ab-16e45ecd2a2f"},"vehicle_type_id":"4","last_reported":1748635876,"current_range_meters":4400,"station_id":"ce4bhu92rcd13ifvqi70","pricing_plan_id":"cebpf4jnsgd1na2vs0mg"},{"bike_id":"13a9dcc8-08ca-4b66-9a0f-d79768815109","system_id":"levelo_inurba_marseille","lat":43.31691,"lon":5.404722,"is_reserved":false,"is_disabled":false,"rental_uris":{"android":"levelo://app?vid=13a9dcc8-08ca-4b66-9a0f-d79768815109","ios":"levelo://app?vid=13a9dcc8-08ca-4b66-9a0f-d79768815109"},"vehicle_type_id":"4","last_reported":1748635876,"current_range_meters":4800,"station_id":"ce4bh012rcd13ifvqd00","pricing_plan_id":"cebpf4jnsgd1na2vs0mg"},{"bike_id":"31a97ada-18b3-4b2a-9a2f-bcece883e946","system_id":"levelo_inurba_marseille","lat":43.28858,"lon":5.39299,"is_reserved":false,"is_disabled":false,"rental_uris":{"android":"levelo://app?vid=31a97ada-18b3-4b2a-9a2f-bcece883e946","ios":"levelo://app?vid=31a97ada-18b3-4b2a-9a2f-bcece883e946"},"vehicle_type_id":"4","last_reported":1748635876,"current_range_meters":4800,"station_id":"ce4bh2p2rcd13ifvqdi0","pricing_plan_id":"cebpf4jnsgd1na2vs0mg"},{"bike_id":"299bc464-0062-40b9-b8fd-94e53cb49a69","system_id":"levelo_inurba_marseille","lat":43.29641,"lon":5.36229,"is_reserved":false,"is_disabled":false,"rental_uris":{"android":"levelo://app?vid=299bc464-0062-40b9-b8fd-94e53cb49a69","ios":"levelo://app?vid=299bc464-0062-40b9-b8fd-94e53cb49a69"},"vehicle_type_id":"4","last_reported":1748635876,"current_range_meters":5600,"station_id":"","pricing_plan_id":"cebpf4jnsgd1na2vs0mg"},{"bike_id":"24e7e4b6-9bcc-4cbc-87eb-24f733575ba9","system_id":"levelo_inurba_marseille","lat":43.293119,"lon":5.371525,"is_reserved":false,"is_disabled":false,"rental_uris":{"android":"levelo://app?vid=24e7e4b6-9bcc-4cbc-87eb-24f733575ba9","ios":"levelo://app?vid=24e7e4b6-9bcc-4cbc-87eb-24f733575ba9"},"vehicle_type_id":"4","last_reported":1748635876,"current_range_meters":5600,"station_id":"ce4bgh92rcd13ifvqb40","pricing_plan_id":"cebpf4jnsgd1na2vs0mg"},{"bike_id":"0ce63c5b-6ddd-4ee1-a7ac-1db15c7d4dfb","system_id":"levelo_inurba_marseille","lat":43.295376,"lon":5.374953,"is_reserved":false,"is_disabled":false,"rental_uris":{"android":"levelo://app?vid=0ce63c5b-6ddd-4ee1-a7ac-1db15c7d4dfb","ios":"levelo://app?vid=0ce63c5b-6ddd-4ee1-a7ac-1db15c7d4dfb"},"vehicle_type_id":"4","last_reported":1748635876,"current_range_meters":5600,"station_id":"ce4bgkp2rcd13ifvqbmg","pricing_plan_id":"cebpf4jnsgd1na2vs0mg"},{"bike_id":"612e4263-bf97-4c22-ab25-c7c91559fe5e","system_id":"levelo_inurba_marseille","lat":43.30258,"lon":5.40076,"is_reserved":false,"is_disabled":false,"rental_uris":{"android":"levelo://app?vid=612e4263-bf97-4c22-ab25-c7c91559fe5e","ios":"levelo://app?vid=612e4263-bf97-4c22-ab25-c7c91559fe5e"},"vehicle_type_id":"4","last_reported":1748635876,"current_range_meters":5600,"station_id":"ce4bgvh2rcd13ifvqcs0","pricing_plan_id":"cebpf4jnsgd1na2vs0mg"},{"bike_id":"6932971a-fcf0-41c2-9b5a-8a6868479da6","system_id":"levelo_inurba_marseille","lat":43.30326,"lon":5.40433,"is_reserved":false,"is_disabled":false,"rental_uris":{"android":"levelo://app?vid=6932971a-fcf0-41c2-9b5a-8a6868479da6","ios":"levelo://app?vid=6932971a-fcf0-41c2-9b5a-8a6868479da6"},"vehicle_type_id":"4","last_reported":1748635876,"current_range_meters":5600,"station_id":"ce4bh012rcd13ifvqd10","pricing_plan_id":"cebpf4jnsgd1na2vs0mg"},{"bike_id":"c2e2f59d-e895-4646-b4ee-a488740beab2","system_id":"levelo_inurba_marseille","lat":43.275664,"lon":5.384333,"is_reserved":false,"is_disabled":false,"rental_uris":{"android":"levelo://app?vid=c2e2f59d-e895-4646-b4ee-a488740beab2","ios":"levelo://app?vid=c2e2f59d-e895-4646-b4ee-a488740beab2"},"vehicle_type_id":"4","last_reported":1748635876,"current_range_meters":5600,"station_id":"ce4bhh92rcd13ifvqfi0","pricing_plan_id":"cebpf4jnsgd1na2vs0mg"},{"bike_id":"d6a10717-f459-4fd7-a950-cb4ec4044f72","system_id":"levelo_inurba_marseille","lat":43.248454,"lon":5.403812,"is_reserved":false,"is_disabled":false,"rental_uris":{"android":"levelo://app?vid=d6a10717-f459-4fd7-a950-cb4ec4044f72","ios":"levelo://app?vid=d6a10717-f459-4fd7-a950-cb4ec4044f72"},"vehicle_type_id":"4","last_reported":1748635876,"current_range_meters":6000,"station_id":"","pricing_plan_id":"cebpf4jnsgd1na2vs0mg"},{"bike_id":"61f89bc7-b25a-42a7-82bf-fa98e2b9a655","system_id":"levelo_inurba_marseille","lat":43.29257,"lon":5.38442,"is_reserved":false,"is_disabled":false,"rental_uris":{"android":"levelo://app?vid=61f89bc7-b25a-42a7-82bf-fa98e2b9a655","ios":"levelo://app?vid=61f89bc7-b25a-42a7-82bf-fa98e2b9a655"},"vehicle_type_id":"4","last_reported":1748635876,"current_range_meters":6000,"station_id":"ce4bh692rcd13ifvqea0","pricing_plan_id":"cebpf4jnsgd1na2vs0mg"},{"bike_id":"2dd7bb0e-15f2-427c-a43c-af76c78e1958","system_id":"levelo_inurba_marseille","lat":43.22924,"lon":5.35376,"is_reserved":false,"is_disabled":false,"rental_uris":{"android":"levelo://app?vid=2dd7bb0e-15f2-427c-a43c-af76c78e1958","ios":"levelo://app?vid=2dd7bb0e-15f2-427c-a43c-af76c78e1958"},"vehicle_type_id":"4","last_reported":1748635876,"current_range_meters":6000,"station_id":"cpo3532slgdg3j2ikp40","pricing_plan_id":"cebpf4jnsgd1na2vs0mg"},{"bike_id":"36240f0a-66a2-43ec-8330-1f3a9d08cc7e","system_id":"levelo_inurba_marseille","lat":43.23907,"lon":5.3626,"is_reserved":false,"is_disabled":false,"rental_uris":{"android":"levelo://app?vid=36240f0a-66a2-43ec-8330-1f3a9d08cc7e","ios":"levelo://app?vid=36240f0a-66a2-43ec-8330-1f3a9d08cc7e"},"vehicle_type_id":"4","last_reported":1748635876,"current_range_meters":6400,"station_id":"","pricing_plan_id":"cebpf4jnsgd1na2vs0mg"},{"bike_id":"ca47216b-bcac-48d4-b908-be13c18135cd","system_id":"levelo_inurba_marseille","lat":43.29279,"lon":5.40116,"is_reserved":false,"is_disabled":false,"rental_uris":{"android":"levelo://app?vid=ca47216b-bcac-48d4-b908-be13c18135cd","ios":"levelo://app?vid=ca47216b-bcac-48d4-b908-be13c18135cd"},"vehicle_type_id":"4","last_reported":1748635876,"current_range_meters":6400,"station_id":"ce4bh312rcd13ifvqdk0","pricing_plan_id":"cebpf4jnsgd1na2vs0mg"},{"bike_id":"50973768-65a0-43df-9502-e24e0c205461","system_id":"levelo_inurba_marseille","lat":43.29886,"lon":5.38899,"is_reserved":false,"is_disabled":false,"rental_uris":{"android":"levelo://app?vid=50973768-65a0-43df-9502-e24e0c205461","ios":"levelo://app?vid=50973768-65a0-43df-9502-e24e0c205461"},"vehicle_type_id":"4","last_reported":1748635876,"current_range_meters":6400,"station_id":"ce4bh392rcd13ifvqdl0","pricing_plan_id":"cebpf4jnsgd1na2vs0mg"},{"bike_id":"b52a3df2-025a-4bfd-8da0-c020402ea3cc","system_id":"levelo_inurba_marseille","lat":43.26589,"lon":5.39006,"is_reserved":false,"is_disabled":false,"rental_uris":{"android":"levelo://app?vid=b52a3df2-025a-4bfd-8da0-c020402ea3cc","ios":"levelo://app?vid=b52a3df2-025a-4bfd-8da0-c020402ea3cc"},"vehicle_type_id":"4","last_reported":1748635876,"current_range_meters":6400,"station_id":"ce4bhe12rcd13ifvqf30","pricing_plan_id":"cebpf4jnsgd1na2vs0mg"},{"bike_id":"bbb2d7fa-4fea-45cc-92c7-b1f8fb614697","system_id":"levelo_inurba_marseille","lat":43.26567,"lon":5.3729,"is_reserved":false,"is_disabled":false,"rental_uris":{"android":"levelo://app?vid=bbb2d7fa-4fea-45cc-92c7-b1f8fb614697","ios":"levelo://app?vid=bbb2d7fa-4fea-45cc-92c7-b1f8fb614697"},"vehicle_type_id":"4","last_reported":1748635876,"current_range_meters":6400,"station_id":"ce4bhg12rcd13ifvqf70","pricing_plan_id":"cebpf4jnsgd1na2vs0mg"},{"bike_id":"e5670e4c-e1e7-4981-ac90-1a67eaa30eec","system_id":"levelo_inurba_marseille","lat":43.23179,"lon":5.39986,"is_reserved":false,"is_disabled":false,"rental_uris":{"android":"levelo://app?vid=e5670e4c-e1e7-4981-ac90-1a67eaa30eec","ios":"levelo://app?vid=e5670e4c-e1e7-4981-ac90-1a67eaa30eec"},"vehicle_type_id":"4","last_reported":1748635876,"current_range_meters":6400,"station_id":"ce4bhn12rcd13ifvqgqg","pricing_plan_id":"cebpf4jnsgd1na2vs0mg"},{"bike_id":"ecda7547-7c2a-4ad3-b2f5-7919d5881801","system_id":"levelo_inurba_marseille","lat":43.29844,"lon":5.36286,"is_reserved":false,"is_disabled":false,"rental_uris":{"android":"levelo://app?vid=ecda7547-7c2a-4ad3-b2f5-7919d5881801","ios":"levelo://app?vid=ecda7547-7c2a-4ad3-b2f5-7919d5881801"},"vehicle_type_id":"4","last_reported":1748635876,"current_range_meters":6800,"station_id":"ce4bgpp2rcd13ifvqc3g","pricing_plan_id":"cebpf4jnsgd1na2vs0mg"},{"bike_id":"ecd6543b-ada0-4d41-ac40-4e999efffbbe","system_id":"levelo_inurba_marseille","lat":43.3019,"lon":5.3663,"is_reserved":false,"is_disabled":false,"rental_uris":{"android":"levelo://app?vid=ecd6543b-ada0-4d41-ac40-4e999efffbbe","ios":"levelo://app?vid=ecd6543b-ada0-4d41-ac40-4e999efffbbe"},"vehicle_type_id":"4","last_reported":1748635876,"current_range_meters":6800,"station_id":"ce4bgrh2rcd13ifvqc8g","pricing_plan_id":"cebpf4jnsgd1na2vs0mg"},{"bike_id":"f5ac6b20-b039-4c96-83d6-cc4617e0fc0a","system_id":"levelo_inurba_marseille","lat":43.26227,"lon":5.37434,"is_reserved":false,"is_disabled":false,"rental_uris":{"android":"levelo://app?vid=f5ac6b20-b039-4c96-83d6-cc4617e0fc0a","ios":"levelo://app?vid=f5ac6b20-b039-4c96-83d6-cc4617e0fc0a"},"vehicle_type_id":"4","last_reported":1748635876,"current_range_meters":6800,"station_id":"ce4bhgp2rcd13ifvqfc0","pricing_plan_id":"cebpf4jnsgd1na2vs0mg"},{"bike_id":"a69c5064-55ac-40fa-a02e-700ee3dac888","system_id":"levelo_inurba_marseille","lat":43.26562,"lon":5.40317,"is_reserved":false,"is_disabled":false,"rental_uris":{"android":"levelo://app?vid=a69c5064-55ac-40fa-a02e-700ee3dac888","ios":"levelo://app?vid=a69c5064-55ac-40fa-a02e-700ee3dac888"},"vehicle_type_id":"4","last_reported":1748635876,"current_range_meters":7200,"station_id":"","pricing_plan_id":"cebpf4jnsgd1na2vs0mg"},{"bike_id":"00f77637-c960-45d0-b516-a2f6a0285858","system_id":"levelo_inurba_marseille","lat":43.29763,"lon":5.38529,"is_reserved":false,"is_disabled":false,"rental_uris":{"android":"levelo://app?vid=00f77637-c960-45d0-b516-a2f6a0285858","ios":"levelo://app?vid=00f77637-c960-45d0-b516-a2f6a0285858"},"vehicle_type_id":"4","last_reported":1748635876,"current_range_meters":7200,"station_id":"","pricing_plan_id":"cebpf4jnsgd1na2vs0mg"},{"bike_id":"bce90611-1635-4cb0-aa56-40197e056648","system_id":"levelo_inurba_marseille","lat":43.29566,"lon":5.37528,"is_reserved":false,"is_disabled":false,"rental_uris":{"android":"levelo://app?vid=bce90611-1635-4cb0-aa56-40197e056648","ios":"levelo://app?vid=bce90611-1635-4cb0-aa56-40197e056648"},"vehicle_type_id":"4","last_reported":1748635876,"current_range_meters":7200,"station_id":"ce4bgh92rcd13ifvqb50","pricing_plan_id":"cebpf4jnsgd1na2vs0mg"},{"bike_id":"15053d73-806d-434c-924a-c125dafc6af8","system_id":"levelo_inurba_marseille","lat":43.2962,"lon":5.37152,"is_reserved":false,"is_disabled":false,"rental_uris":{"android":"levelo://app?vid=15053d73-806d-434c-924a-c125dafc6af8","ios":"levelo://app?vid=15053d73-806d-434c-924a-c125dafc6af8"},"vehicle_type_id":"4","last_reported":1748635876,"current_range_meters":7200,"station_id":"ce4bgnh2rcd13ifvqc0g","pricing_plan_id":"cebpf4jnsgd1na2vs0mg"},{"bike_id":"c6913ce4-1fae-488a-854a-93017013dd0b","system_id":"levelo_inurba_marseille","lat":43.29962,"lon":5.37157,"is_reserved":false,"is_disabled":false,"rental_uris":{"android":"levelo://app?vid=c6913ce4-1fae-488a-854a-93017013dd0b","ios":"levelo://app?vid=c6913ce4-1fae-488a-854a-93017013dd0b"},"vehicle_type_id":"4","last_reported":1748635876,"current_range_meters":7200,"station_id":"ce4bgr92rcd13ifvqc7g","pricing_plan_id":"cebpf4jnsgd1na2vs0mg"},{"bike_id":"1bbaeaa3-9f3b-4868-adf2-8c852aa62854","system_id":"levelo_inurba_marseille","lat":43.30544,"lon":5.3656,"is_reserved":false,"is_disabled":false,"rental_uris":{"android":"levelo://app?vid=1bbaeaa3-9f3b-4868-adf2-8c852aa62854","ios":"levelo://app?vid=1bbaeaa3-9f3b-4868-adf2-8c852aa62854"},"vehicle_type_id":"4","last_reported":1748635876,"current_range_meters":7200,"station_id":"ce4bgs12rcd13ifvqcag","pricing_plan_id":"cebpf4jnsgd1na2vs0mg"},{"bike_id":"dc618c04-c46c-4610-bc87-e06fa237da8b","system_id":"levelo_inurba_marseille","lat":43.28705,"lon":5.37369,"is_reserved":false,"is_disabled":false,"rental_uris":{"android":"levelo://app?vid=dc618c04-c46c-4610-bc87-e06fa237da8b","ios":"levelo://app?vid=dc618c04-c46c-4610-bc87-e06fa237da8b"},"vehicle_type_id":"4","last_reported":1748635876,"current_range_meters":7200,"station_id":"ce4bh3p2rcd13ifvqdq0","pricing_plan_id":"cebpf4jnsgd1na2vs0mg"},{"bike_id":"2f1dc57c-e2bf-49f9-ba1c-bd76e54cd601","system_id":"levelo_inurba_marseille","lat":43.2869,"lon":5.36353,"is_reserved":false,"is_disabled":false,"rental_uris":{"android":"levelo://app?vid=2f1dc57c-e2bf-49f9-ba1c-bd76e54cd601","ios":"levelo://app?vid=2f1dc57c-e2bf-49f9-ba1c-bd76e54cd601"},"vehicle_type_id":"4","last_reported":1748635876,"current_range_meters":7200,"station_id":"ce4bhah2rcd13ifvqej0","pricing_plan_id":"cebpf4jnsgd1na2vs0mg"},{"bike_id":"0ee8a1e5-15ae-4643-ba93-64e6b91c92f2","system_id":"levelo_inurba_marseille","lat":43.265558,"lon":5.372883,"is_reserved":false,"is_disabled":false,"rental_uris":{"android":"levelo://app?vid=0ee8a1e5-15ae-4643-ba93-64e6b91c92f2","ios":"levelo://app?vid=0ee8a1e5-15ae-4643-ba93-64e6b91c92f2"},"vehicle_type_id":"4","last_reported":1748635876,"current_range_meters":7200,"station_id":"ce4bhg12rcd13ifvqf70","pricing_plan_id":"cebpf4jnsgd1na2vs0mg"},{"bike_id":"407e5a45-16ab-470f-bd11-310fec85bedc","system_id":"levelo_inurba_marseille","lat":43.26551,"lon":5.372907,"is_reserved":false,"is_disabled":false,"rental_uris":{"android":"levelo://app?vid=407e5a45-16ab-470f-bd11-310fec85bedc","ios":"levelo://app?vid=407e5a45-16ab-470f-bd11-310fec85bedc"},"vehicle_type_id":"4","last_reported":1748635876,"current_range_meters":7200,"station_id":"ce4bhg12rcd13ifvqf70","pricing_plan_id":"cebpf4jnsgd1na2vs0mg"},{"bike_id":"161ccf12-51e5-431e-acaa-3166efd5d61c","system_id":"levelo_inurba_marseille","lat":43.28156,"lon":5.42644,"is_reserved":false,"is_disabled":false,"rental_uris":{"android":"levelo://app?vid=161ccf12-51e5-431e-acaa-3166efd5d61c","ios":"levelo://app?vid=161ccf12-51e5-431e-acaa-3166efd5d61c"},"vehicle_type_id":"4","last_reported":1748635876,"current_range_meters":7200,"station_id":"ce4bhnh2rcd13ifvqgug","pricing_plan_id":"cebpf4jnsgd1na2vs0mg"},{"bike_id":"a426f99b-d34a-41bf-bbda-59f7dfd6939b","system_id":"levelo_inurba_marseille","lat":43.255796,"lon":5.382262,"is_reserved":false,"is_disabled":false,"rental_uris":{"android":"levelo://app?vid=a426f99b-d34a-41bf-bbda-59f7dfd6939b","ios":"levelo://app?vid=a426f99b-d34a-41bf-bbda-59f7dfd6939b"},"vehicle_type_id":"4","last_reported":1748635876,"current_range_meters":7200,"station_id":"ce501612rcd8frsf0b60","pricing_plan_id":"cebpf4jnsgd1na2vs0mg"},{"bike_id":"da5921cd-e75b-4ce7-b109-06c28f720590","system_id":"levelo_inurba_marseille","lat":43.28751,"lon":5.36169,"is_reserved":false,"is_disabled":false,"rental_uris":{"android":"levelo://app?vid=da5921cd-e75b-4ce7-b109-06c28f720590","ios":"levelo://app?vid=da5921cd-e75b-4ce7-b109-06c28f720590"},"vehicle_type_id":"4","last_reported":1748635876,"current_range_meters":8000,"station_id":"","pricing_plan_id":"cebpf4jnsgd1na2vs0mg"},{"bike_id":"297d0117-4377-48ab-a3cb-9a0114ec7e82","system_id":"levelo_inurba_marseille","lat":43.29438,"lon":5.39752,"is_reserved":false,"is_disabled":false,"rental_uris":{"android":"levelo://app?vid=297d0117-4377-48ab-a3cb-9a0114ec7e82","ios":"levelo://app?vid=297d0117-4377-48ab-a3cb-9a0114ec7e82"},"vehicle_type_id":"4","last_reported":1748635876,"current_range_meters":8000,"station_id":"ce4bh3h2rcd13ifvqdo0","pricing_plan_id":"cebpf4jnsgd1na2vs0mg"},{"bike_id":"bf4f7dad-14c7-4381-a37f-e89b322d348c","system_id":"levelo_inurba_marseille","lat":43.29046,"lon":5.37161,"is_reserved":false,"is_disabled":false,"rental_uris":{"android":"levelo://app?vid=bf4f7dad-14c7-4381-a37f-e89b322d348c","ios":"levelo://app?vid=bf4f7dad-14c7-4381-a37f-e89b322d348c"},"vehicle_type_id":"4","last_reported":1748635876,"current_range_meters":8000,"station_id":"ce4bh5p2rcd13ifvqe4g","pricing_plan_id":"cebpf4jnsgd1na2vs0mg"},{"bike_id":"544abdfa-b4d6-4c3e-8a04-4e2476db1de5","system_id":"levelo_inurba_marseille","lat":43.29877,"lon":5.36867,"is_reserved":false,"is_disabled":false,"rental_uris":{"android":"levelo://app?vid=544abdfa-b4d6-4c3e-8a04-4e2476db1de5","ios":"levelo://app?vid=544abdfa-b4d6-4c3e-8a04-4e2476db1de5"},"vehicle_type_id":"4","last_reported":1748635876,"current_range_meters":8400,"station_id":"","pricing_plan_id":"cebpf4jnsgd1na2vs0mg"},{"bike_id":"5f752a1e-ce26-466c-bd2f-cdb9072766a1","system_id":"levelo_inurba_marseille","lat":43.33458,"lon":5.39685,"is_reserved":false,"is_disabled":false,"rental_uris":{"android":"levelo://app?vid=5f752a1e-ce26-466c-bd2f-cdb9072766a1","ios":"levelo://app?vid=5f752a1e-ce26-466c-bd2f-cdb9072766a1"},"vehicle_type_id":"4","last_reported":1748635876,"current_range_meters":8400,"station_id":"","pricing_plan_id":"cebpf4jnsgd1na2vs0mg"},{"bike_id":"a31656a4-5217-4c2d-91ea-e636b7cf9b1f","system_id":"levelo_inurba_marseille","lat":43.28564,"lon":5.38401,"is_reserved":false,"is_disabled":false,"rental_uris":{"android":"levelo://app?vid=a31656a4-5217-4c2d-91ea-e636b7cf9b1f","ios":"levelo://app?vid=a31656a4-5217-4c2d-91ea-e636b7cf9b1f"},"vehicle_type_id":"4","last_reported":1748635876,"current_range_meters":8400,"station_id":"","pricing_plan_id":"cebpf4jnsgd1na2vs0mg"},{"bike_id":"83a65fef-4fc5-4295-b12f-82183d187ee0","system_id":"levelo_inurba_marseille","lat":43.27246,"lon":5.36272,"is_reserved":false,"is_disabled":false,"rental_uris":{"android":"levelo://app?vid=83a65fef-4fc5-4295-b12f-82183d187ee0","ios":"levelo://app?vid=83a65fef-4fc5-4295-b12f-82183d187ee0"},"vehicle_type_id":"4","last_reported":1748635876,"current_range_meters":8400,"station_id":"","pricing_plan_id":"cebpf4jnsgd1na2vs0mg"},{"bike_id":"4d5e15ff-3c85-4278-ba4e-454d3cd14444","system_id":"levelo_inurba_marseille","lat":43.26211,"lon":5.37444,"is_reserved":false,"is_disabled":false,"rental_uris":{"android":"levelo://app?vid=4d5e15ff-3c85-4278-ba4e-454d3cd14444","ios":"levelo://app?vid=4d5e15ff-3c85-4278-ba4e-454d3cd14444"},"vehicle_type_id":"4","last_reported":1748635876,"current_range_meters":8400,"station_id":"ce4bhgp2rcd13ifvqfc0","pricing_plan_id":"cebpf4jnsgd1na2vs0mg"},{"bike_id":"df905850-832f-4688-ae1b-bff7e29b2c14","system_id":"levelo_inurba_marseille","lat":43.28443,"lon":5.39205,"is_reserved":false,"is_disabled":false,"rental_uris":{"android":"levelo://app?vid=df905850-832f-4688-ae1b-bff7e29b2c14","ios":"levelo://app?vid=df905850-832f-4688-ae1b-bff7e29b2c14"},"vehicle_type_id":"4","last_reported":1748635876,"current_range_meters":8400,"station_id":"ce4bhoh2rcd13ifvqh5g","pricing_plan_id":"cebpf4jnsgd1na2vs0mg"},{"bike_id":"b22e3ea6-6d8c-418e-8f4f-41f0cab38774","system_id":"levelo_inurba_marseille","lat":43.29593,"lon":5.38099,"is_reserved":false,"is_disabled":false,"rental_uris":{"android":"levelo://app?vid=b22e3ea6-6d8c-418e-8f4f-41f0cab38774","ios":"levelo://app?vid=b22e3ea6-6d8c-418e-8f4f-41f0cab38774"},"vehicle_type_id":"4","last_reported":1748635876,"current_range_meters":8800,"station_id":"ce4bgl12rcd13ifvqbo0","pricing_plan_id":"cebpf4jnsgd1na2vs0mg"},{"bike_id":"744ed250-ec4f-42e6-999d-8181904ad337","system_id":"levelo_inurba_marseille","lat":43.307663,"lon":5.381375,"is_reserved":false,"is_disabled":false,"rental_uris":{"android":"levelo://app?vid=744ed250-ec4f-42e6-999d-8181904ad337","ios":"levelo://app?vid=744ed250-ec4f-42e6-999d-8181904ad337"},"vehicle_type_id":"4","last_reported":1748635876,"current_range_meters":8800,"station_id":"ce4bgt12rcd13ifvqce0","pricing_plan_id":"cebpf4jnsgd1na2vs0mg"},{"bike_id":"72c677fb-b93c-407b-9548-285d9ac52e07","system_id":"levelo_inurba_marseille","lat":43.30878,"lon":5.39665,"is_reserved":false,"is_disabled":false,"rental_uris":{"android":"levelo://app?vid=72c677fb-b93c-407b-9548-285d9ac52e07","ios":"levelo://app?vid=72c677fb-b93c-407b-9548-285d9ac52e07"},"vehicle_type_id":"4","last_reported":1748635876,"current_range_meters":8800,"station_id":"ce4bh012rcd13ifvqcv0","pricing_plan_id":"cebpf4jnsgd1na2vs0mg"},{"bike_id":"d03fe5d5-078f-49be-a6f0-17b00132e6cc","system_id":"levelo_inurba_marseille","lat":43.30602,"lon":5.39357,"is_reserved":false,"is_disabled":false,"rental_uris":{"android":"levelo://app?vid=d03fe5d5-078f-49be-a6f0-17b00132e6cc","ios":"levelo://app?vid=d03fe5d5-078f-49be-a6f0-17b00132e6cc"},"vehicle_type_id":"4","last_reported":1748635876,"current_range_meters":8800,"station_id":"ce4bh0p2rcd13ifvqd80","pricing_plan_id":"cebpf4jnsgd1na2vs0mg"},{"bike_id":"fbf62787-a3c6-4f23-83c5-9f8471a73f2d","system_id":"levelo_inurba_marseille","lat":43.26561,"lon":5.37215,"is_reserved":false,"is_disabled":false,"rental_uris":{"android":"levelo://app?vid=fbf62787-a3c6-4f23-83c5-9f8471a73f2d","ios":"levelo://app?vid=fbf62787-a3c6-4f23-83c5-9f8471a73f2d"},"vehicle_type_id":"4","last_reported":1748635876,"current_range_meters":9200,"station_id":"","pricing_plan_id":"cebpf4jnsgd1na2vs0mg"},{"bike_id":"845d484d-c9a1-4569-b825-1a324b828b4d","system_id":"levelo_inurba_marseille","lat":43.309588,"lon":5.390182,"is_reserved":false,"is_disabled":false,"rental_uris":{"android":"levelo://app?vid=845d484d-c9a1-4569-b825-1a324b828b4d","ios":"levelo://app?vid=845d484d-c9a1-4569-b825-1a324b828b4d"},"vehicle_type_id":"4","last_reported":1748635876,"current_range_meters":9200,"station_id":"ce4bgup2rcd13ifvqco0","pricing_plan_id":"cebpf4jnsgd1na2vs0mg"},{"bike_id":"64b2ae76-7836-40e2-ae3a-6b302f2af50f","system_id":"levelo_inurba_marseille","lat":43.294128,"lon":5.386328,"is_reserved":false,"is_disabled":false,"rental_uris":{"android":"levelo://app?vid=64b2ae76-7836-40e2-ae3a-6b302f2af50f","ios":"levelo://app?vid=64b2ae76-7836-40e2-ae3a-6b302f2af50f"},"vehicle_type_id":"4","last_reported":1748635876,"current_range_meters":9200,"station_id":"ce4bh2h2rcd13ifvqdh0","pricing_plan_id":"cebpf4jnsgd1na2vs0mg"},{"bike_id":"6eb7122a-aa2a-4943-a679-13fd96c7ef53","system_id":"levelo_inurba_marseille","lat":43.28713,"lon":5.3739,"is_reserved":false,"is_disabled":false,"rental_uris":{"android":"levelo://app?vid=6eb7122a-aa2a-4943-a679-13fd96c7ef53","ios":"levelo://app?vid=6eb7122a-aa2a-4943-a679-13fd96c7ef53"},"vehicle_type_id":"4","last_reported":1748635876,"current_range_meters":9200,"station_id":"ce4bh3p2rcd13ifvqdq0","pricing_plan_id":"cebpf4jnsgd1na2vs0mg"},{"bike_id":"fe0e0aab-c84d-4e36-a4c6-6bf7f57a8f05","system_id":"levelo_inurba_marseille","lat":43.26558,"lon":5.37283,"is_reserved":false,"is_disabled":false,"rental_uris":{"android":"levelo://app?vid=fe0e0aab-c84d-4e36-a4c6-6bf7f57a8f05","ios":"levelo://app?vid=fe0e0aab-c84d-4e36-a4c6-6bf7f57a8f05"},"vehicle_type_id":"4","last_reported":1748635876,"current_range_meters":9200,"station_id":"ce4bhg12rcd13ifvqf70","pricing_plan_id":"cebpf4jnsgd1na2vs0mg"},{"bike_id":"2980241b-7c75-415a-9c1e-05f7e32dad3c","system_id":"levelo_inurba_marseille","lat":43.26496,"lon":5.39539,"is_reserved":false,"is_disabled":false,"rental_uris":{"android":"levelo://app?vid=2980241b-7c75-415a-9c1e-05f7e32dad3c","ios":"levelo://app?vid=2980241b-7c75-415a-9c1e-05f7e32dad3c"},"vehicle_type_id":"4","last_reported":1748635876,"current_range_meters":9200,"station_id":"ce4bhi12rcd13ifvqfq0","pricing_plan_id":"cebpf4jnsgd1na2vs0mg"},{"bike_id":"5d153e79-4d05-41a2-8153-575a0e715524","system_id":"levelo_inurba_marseille","lat":43.28696,"lon":5.39978,"is_reserved":false,"is_disabled":false,"rental_uris":{"android":"levelo://app?vid=5d153e79-4d05-41a2-8153-575a0e715524","ios":"levelo://app?vid=5d153e79-4d05-41a2-8153-575a0e715524"},"vehicle_type_id":"4","last_reported":1748635876,"current_range_meters":9200,"station_id":"ce4bho92rcd13ifvqh3g","pricing_plan_id":"cebpf4jnsgd1na2vs0mg"},{"bike_id":"fc3b894a-16cc-4191-b44a-9b76bcfa90d7","system_id":"levelo_inurba_marseille","lat":43.27998,"lon":5.40007,"is_reserved":false,"is_disabled":false,"rental_uris":{"android":"levelo://app?vid=fc3b894a-16cc-4191-b44a-9b76bcfa90d7","ios":"levelo://app?vid=fc3b894a-16cc-4191-b44a-9b76bcfa90d7"},"vehicle_type_id":"4","last_reported":1748635876,"current_range_meters":9200,"station_id":"ce4bho92rcd13ifvqh4g","pricing_plan_id":"cebpf4jnsgd1na2vs0mg"},{"bike_id":"a807c8dd-75ce-4f49-b322-50ddd08ec8d0","system_id":"levelo_inurba_marseille","lat":43.347581,"lon":5.373161,"is_reserved":false,"is_disabled":false,"rental_uris":{"android":"levelo://app?vid=a807c8dd-75ce-4f49-b322-50ddd08ec8d0","ios":"levelo://app?vid=a807c8dd-75ce-4f49-b322-50ddd08ec8d0"},"vehicle_type_id":"4","last_reported":1748635876,"current_range_meters":9600,"station_id":"","pricing_plan_id":"cebpf4jnsgd1na2vs0mg"},{"bike_id":"3d36103b-c043-47dc-a225-42e79dcf6cf6","system_id":"levelo_inurba_marseille","lat":43.32329,"lon":5.38309,"is_reserved":false,"is_disabled":false,"rental_uris":{"android":"levelo://app?vid=3d36103b-c043-47dc-a225-42e79dcf6cf6","ios":"levelo://app?vid=3d36103b-c043-47dc-a225-42e79dcf6cf6"},"vehicle_type_id":"4","last_reported":1748635876,"current_range_meters":9600,"station_id":"","pricing_plan_id":"cebpf4jnsgd1na2vs0mg"},{"bike_id":"5421e512-5bdc-4273-bea1-019bcdb2cc75","system_id":"levelo_inurba_marseille","lat":43.31164,"lon":5.38724,"is_reserved":false,"is_disabled":false,"rental_uris":{"android":"levelo://app?vid=5421e512-5bdc-4273-bea1-019bcdb2cc75","ios":"levelo://app?vid=5421e512-5bdc-4273-bea1-019bcdb2cc75"},"vehicle_type_id":"4","last_reported":1748635876,"current_range_meters":9600,"station_id":"ce4bgv12rcd13ifvqcp0","pricing_plan_id":"cebpf4jnsgd1na2vs0mg"},{"bike_id":"ed7f23af-5048-41fb-8207-7bda26f92fb1","system_id":"levelo_inurba_marseille","lat":43.29191,"lon":5.39326,"is_reserved":false,"is_disabled":false,"rental_uris":{"android":"levelo://app?vid=ed7f23af-5048-41fb-8207-7bda26f92fb1","ios":"levelo://app?vid=ed7f23af-5048-41fb-8207-7bda26f92fb1"},"vehicle_type_id":"4","last_reported":1748635876,"current_range_meters":9600,"station_id":"ce4bh192rcd13ifvqdd0","pricing_plan_id":"cebpf4jnsgd1na2vs0mg"},{"bike_id":"0280afc4-d6c7-45d5-9976-1c2b5d2fedd2","system_id":"levelo_inurba_marseille","lat":43.25115,"lon":5.40329,"is_reserved":false,"is_disabled":false,"rental_uris":{"android":"levelo://app?vid=0280afc4-d6c7-45d5-9976-1c2b5d2fedd2","ios":"levelo://app?vid=0280afc4-d6c7-45d5-9976-1c2b5d2fedd2"},"vehicle_type_id":"4","last_reported":1748635876,"current_range_meters":9600,"station_id":"ce4bhlh2rcd13ifvqgig","pricing_plan_id":"cebpf4jnsgd1na2vs0mg"},{"bike_id":"10506cb7-ecd1-4b9a-8a8d-ad241d961b8c","system_id":"levelo_inurba_marseille","lat":43.2319,"lon":5.35551,"is_reserved":false,"is_disabled":false,"rental_uris":{"android":"levelo://app?vid=10506cb7-ecd1-4b9a-8a8d-ad241d961b8c","ios":"levelo://app?vid=10506cb7-ecd1-4b9a-8a8d-ad241d961b8c"},"vehicle_type_id":"4","last_reported":1748635876,"current_range_meters":9600,"station_id":"ce4bhu92rcd13ifvqi70","pricing_plan_id":"cebpf4jnsgd1na2vs0mg"},{"bike_id":"8345fba8-f53d-4169-9265-3aeb7405da51","system_id":"levelo_inurba_marseille","lat":43.29787,"lon":5.37933,"is_reserved":false,"is_disabled":false,"rental_uris":{"android":"levelo://app?vid=8345fba8-f53d-4169-9265-3aeb7405da51","ios":"levelo://app?vid=8345fba8-f53d-4169-9265-3aeb7405da51"},"vehicle_type_id":"4","last_reported":1748635876,"current_range_meters":10000,"station_id":"","pricing_plan_id":"cebpf4jnsgd1na2vs0mg"},{"bike_id":"f7d1559b-dd11-4456-a5f9-c58fea311296","system_id":"levelo_inurba_marseille","lat":43.29969,"lon":5.38501,"is_reserved":false,"is_disabled":false,"rental_uris":{"android":"levelo://app?vid=f7d1559b-dd11-4456-a5f9-c58fea311296","ios":"levelo://app?vid=f7d1559b-dd11-4456-a5f9-c58fea311296"},"vehicle_type_id":"4","last_reported":1748635876,"current_range_meters":10000,"station_id":"ce4bgj92rcd13ifvqbd0","pricing_plan_id":"cebpf4jnsgd1na2vs0mg"},{"bike_id":"a98dd3d2-0acc-4590-9849-2f993834e5b9","system_id":"levelo_inurba_marseille","lat":43.29363,"lon":5.37857,"is_reserved":false,"is_disabled":false,"rental_uris":{"android":"levelo://app?vid=a98dd3d2-0acc-4590-9849-2f993834e5b9","ios":"levelo://app?vid=a98dd3d2-0acc-4590-9849-2f993834e5b9"},"vehicle_type_id":"4","last_reported":1748635876,"current_range_meters":10000,"station_id":"ce4bgjh2rcd13ifvqbf0","pricing_plan_id":"cebpf4jnsgd1na2vs0mg"},{"bike_id":"b3a32501-78bb-44b4-8a57-58df2387bd73","system_id":"levelo_inurba_marseille","lat":43.29946,"lon":5.38084,"is_reserved":false,"is_disabled":false,"rental_uris":{"android":"levelo://app?vid=b3a32501-78bb-44b4-8a57-58df2387bd73","ios":"levelo://app?vid=b3a32501-78bb-44b4-8a57-58df2387bd73"},"vehicle_type_id":"4","last_reported":1748635876,"current_range_meters":10000,"station_id":"ce4bgjp2rcd13ifvqbh0","pricing_plan_id":"cebpf4jnsgd1na2vs0mg"},{"bike_id":"98b543aa-4667-44c6-a100-4736538f7dec","system_id":"levelo_inurba_marseille","lat":43.29975,"lon":5.37169,"is_reserved":false,"is_disabled":false,"rental_uris":{"android":"levelo://app?vid=98b543aa-4667-44c6-a100-4736538f7dec","ios":"levelo://app?vid=98b543aa-4667-44c6-a100-4736538f7dec"},"vehicle_type_id":"4","last_reported":1748635876,"current_range_meters":10000,"station_id":"ce4bgr92rcd13ifvqc7g","pricing_plan_id":"cebpf4jnsgd1na2vs0mg"},{"bike_id":"b9986bcd-d935-43b4-9761-6db0c42f4dd8","system_id":"levelo_inurba_marseille","lat":43.31689,"lon":5.40452,"is_reserved":false,"is_disabled":false,"rental_uris":{"android":"levelo://app?vid=b9986bcd-d935-43b4-9761-6db0c42f4dd8","ios":"levelo://app?vid=b9986bcd-d935-43b4-9761-6db0c42f4dd8"},"vehicle_type_id":"4","last_reported":1748635876,"current_range_meters":10000,"station_id":"ce4bh012rcd13ifvqd00","pricing_plan_id":"cebpf4jnsgd1na2vs0mg"},{"bike_id":"36b350ee-18f6-460b-b374-c5b26dcc85cb","system_id":"levelo_inurba_marseille","lat":43.29422,"lon":5.38625,"is_reserved":false,"is_disabled":false,"rental_uris":{"android":"levelo://app?vid=36b350ee-18f6-460b-b374-c5b26dcc85cb","ios":"levelo://app?vid=36b350ee-18f6-460b-b374-c5b26dcc85cb"},"vehicle_type_id":"4","last_reported":1748635876,"current_range_meters":10000,"station_id":"ce4bh2h2rcd13ifvqdh0","pricing_plan_id":"cebpf4jnsgd1na2vs0mg"},{"bike_id":"e75c54e2-a90c-4106-8c64-de85d7c75322","system_id":"levelo_inurba_marseille","lat":43.26216,"lon":5.37423,"is_reserved":false,"is_disabled":false,"rental_uris":{"android":"levelo://app?vid=e75c54e2-a90c-4106-8c64-de85d7c75322","ios":"levelo://app?vid=e75c54e2-a90c-4106-8c64-de85d7c75322"},"vehicle_type_id":"4","last_reported":1748635876,"current_range_meters":10000,"station_id":"ce4bhgp2rcd13ifvqfc0","pricing_plan_id":"cebpf4jnsgd1na2vs0mg"},{"bike_id":"11d5a3c3-b5c3-45ee-9c59-63e06770cf8b","system_id":"levelo_inurba_marseille","lat":43.25118,"lon":5.40336,"is_reserved":false,"is_disabled":false,"rental_uris":{"android":"levelo://app?vid=11d5a3c3-b5c3-45ee-9c59-63e06770cf8b","ios":"levelo://app?vid=11d5a3c3-b5c3-45ee-9c59-63e06770cf8b"},"vehicle_type_id":"4","last_reported":1748635876,"current_range_meters":10000,"station_id":"ce4bhlh2rcd13ifvqgig","pricing_plan_id":"cebpf4jnsgd1na2vs0mg"},{"bike_id":"c3e2ea28-a647-440b-9188-6eb08ccc3e5e","system_id":"levelo_inurba_marseille","lat":43.33608,"lon":5.41035,"is_reserved":false,"is_disabled":false,"rental_uris":{"android":"levelo://app?vid=c3e2ea28-a647-440b-9188-6eb08ccc3e5e","ios":"levelo://app?vid=c3e2ea28-a647-440b-9188-6eb08ccc3e5e"},"vehicle_type_id":"4","last_reported":1748635876,"current_range_meters":10000,"station_id":"ce4bhqh2rcd13ifvqhmg","pricing_plan_id":"cebpf4jnsgd1na2vs0mg"},{"bike_id":"7243d7c8-02f5-4392-89cf-8c360e846d55","system_id":"levelo_inurba_marseille","lat":43.25281,"lon":5.37831,"is_reserved":false,"is_disabled":false,"rental_uris":{"android":"levelo://app?vid=7243d7c8-02f5-4392-89cf-8c360e846d55","ios":"levelo://app?vid=7243d7c8-02f5-4392-89cf-8c360e846d55"},"vehicle_type_id":"4","last_reported":1748635876,"current_range_meters":10800,"station_id":"","pricing_plan_id":"cebpf4jnsgd1na2vs0mg"},{"bike_id":"ef581f4c-67e6-4fec-a59f-aa7c8e6c7dec","system_id":"levelo_inurba_marseille","lat":43.295345,"lon":5.385367,"is_reserved":false,"is_disabled":false,"rental_uris":{"android":"levelo://app?vid=ef581f4c-67e6-4fec-a59f-aa7c8e6c7dec","ios":"levelo://app?vid=ef581f4c-67e6-4fec-a59f-aa7c8e6c7dec"},"vehicle_type_id":"4","last_reported":1748635876,"current_range_meters":10800,"station_id":"ce4bgih2rcd13ifvqba0","pricing_plan_id":"cebpf4jnsgd1na2vs0mg"},{"bike_id":"9ea089fd-18ee-4007-99d6-fb7e768c7bd8","system_id":"levelo_inurba_marseille","lat":43.29973,"lon":5.37171,"is_reserved":false,"is_disabled":false,"rental_uris":{"android":"levelo://app?vid=9ea089fd-18ee-4007-99d6-fb7e768c7bd8","ios":"levelo://app?vid=9ea089fd-18ee-4007-99d6-fb7e768c7bd8"},"vehicle_type_id":"4","last_reported":1748635876,"current_range_meters":10800,"station_id":"ce4bgr92rcd13ifvqc7g","pricing_plan_id":"cebpf4jnsgd1na2vs0mg"},{"bike_id":"4700cb3b-9174-4bfe-af41-d64777fb6158","system_id":"levelo_inurba_marseille","lat":43.30185,"lon":5.36607,"is_reserved":false,"is_disabled":false,"rental_uris":{"android":"levelo://app?vid=4700cb3b-9174-4bfe-af41-d64777fb6158","ios":"levelo://app?vid=4700cb3b-9174-4bfe-af41-d64777fb6158"},"vehicle_type_id":"4","last_reported":1748635876,"current_range_meters":10800,"station_id":"ce4bgrh2rcd13ifvqc8g","pricing_plan_id":"cebpf4jnsgd1na2vs0mg"},{"bike_id":"446a7cf0-4cd9-4b22-a885-83cbef7be172","system_id":"levelo_inurba_marseille","lat":43.3133,"lon":5.3969,"is_reserved":false,"is_disabled":false,"rental_uris":{"android":"levelo://app?vid=446a7cf0-4cd9-4b22-a885-83cbef7be172","ios":"levelo://app?vid=446a7cf0-4cd9-4b22-a885-83cbef7be172"},"vehicle_type_id":"4","last_reported":1748635876,"current_range_meters":10800,"station_id":"ce4bgvp2rcd13ifvqcu0","pricing_plan_id":"cebpf4jnsgd1na2vs0mg"},{"bike_id":"beed8677-1b40-44d8-a5ab-067c188f3de6","system_id":"levelo_inurba_marseille","lat":43.29629,"lon":5.40597,"is_reserved":false,"is_disabled":false,"rental_uris":{"android":"levelo://app?vid=beed8677-1b40-44d8-a5ab-067c188f3de6","ios":"levelo://app?vid=beed8677-1b40-44d8-a5ab-067c188f3de6"},"vehicle_type_id":"4","last_reported":1748635876,"current_range_meters":10800,"station_id":"ce4bh0h2rcd13ifvqd60","pricing_plan_id":"cebpf4jnsgd1na2vs0mg"},{"bike_id":"be8dcf54-93bb-483e-8b17-f8e92b01aa60","system_id":"levelo_inurba_marseille","lat":43.29417,"lon":5.38621,"is_reserved":false,"is_disabled":false,"rental_uris":{"android":"levelo://app?vid=be8dcf54-93bb-483e-8b17-f8e92b01aa60","ios":"levelo://app?vid=be8dcf54-93bb-483e-8b17-f8e92b01aa60"},"vehicle_type_id":"4","last_reported":1748635876,"current_range_meters":10800,"station_id":"ce4bh2h2rcd13ifvqdh0","pricing_plan_id":"cebpf4jnsgd1na2vs0mg"},{"bike_id":"1c2fb9f8-9f78-4688-913d-a85227063193","system_id":"levelo_inurba_marseille","lat":43.29518,"lon":5.39038,"is_reserved":false,"is_disabled":false,"rental_uris":{"android":"levelo://app?vid=1c2fb9f8-9f78-4688-913d-a85227063193","ios":"levelo://app?vid=1c2fb9f8-9f78-4688-913d-a85227063193"},"vehicle_type_id":"4","last_reported":1748635876,"current_range_meters":10800,"station_id":"ce4bh3p2rcd13ifvqdp0","pricing_plan_id":"cebpf4jnsgd1na2vs0mg"},{"bike_id":"60859eac-99a2-4321-b4cc-68d623f442aa","system_id":"levelo_inurba_marseille","lat":43.29034,"lon":5.37577,"is_reserved":false,"is_disabled":false,"rental_uris":{"android":"levelo://app?vid=60859eac-99a2-4321-b4cc-68d623f442aa","ios":"levelo://app?vid=60859eac-99a2-4321-b4cc-68d623f442aa"},"vehicle_type_id":"4","last_reported":1748635876,"current_range_meters":10800,"station_id":"ce4bh692rcd13ifvqe90","pricing_plan_id":"cebpf4jnsgd1na2vs0mg"},{"bike_id":"c5955212-23b9-47a9-8fed-0e2d976ea049","system_id":"levelo_inurba_marseille","lat":43.26556,"lon":5.372802,"is_reserved":false,"is_disabled":false,"rental_uris":{"android":"levelo://app?vid=c5955212-23b9-47a9-8fed-0e2d976ea049","ios":"levelo://app?vid=c5955212-23b9-47a9-8fed-0e2d976ea049"},"vehicle_type_id":"4","last_reported":1748635876,"current_range_meters":10800,"station_id":"ce4bhg12rcd13ifvqf70","pricing_plan_id":"cebpf4jnsgd1na2vs0mg"},{"bike_id":"28c287d5-b791-4849-8e56-dc235b4bfb52","system_id":"levelo_inurba_marseille","lat":43.24082,"lon":5.37799,"is_reserved":false,"is_disabled":false,"rental_uris":{"android":"levelo://app?vid=28c287d5-b791-4849-8e56-dc235b4bfb52","ios":"levelo://app?vid=28c287d5-b791-4849-8e56-dc235b4bfb52"},"vehicle_type_id":"4","last_reported":1748635876,"current_range_meters":10800,"station_id":"ce4bhnp2rcd13ifvqgvg","pricing_plan_id":"cebpf4jnsgd1na2vs0mg"},{"bike_id":"03a76ee6-1b19-441a-9a91-9a19bd875d4f","system_id":"levelo_inurba_marseille","lat":43.29806,"lon":5.38098,"is_reserved":false,"is_disabled":false,"rental_uris":{"android":"levelo://app?vid=03a76ee6-1b19-441a-9a91-9a19bd875d4f","ios":"levelo://app?vid=03a76ee6-1b19-441a-9a91-9a19bd875d4f"},"vehicle_type_id":"4","last_reported":1748635876,"current_range_meters":11200,"station_id":"ce4bgip2rcd13ifvqbb0","pricing_plan_id":"cebpf4jnsgd1na2vs0mg"},{"bike_id":"6cab2d10-7f2c-4dac-ba3d-4f103803cc6a","system_id":"levelo_inurba_marseille","lat":43.28952,"lon":5.38395,"is_reserved":false,"is_disabled":false,"rental_uris":{"android":"levelo://app?vid=6cab2d10-7f2c-4dac-ba3d-4f103803cc6a","ios":"levelo://app?vid=6cab2d10-7f2c-4dac-ba3d-4f103803cc6a"},"vehicle_type_id":"4","last_reported":1748635876,"current_range_meters":11200,"station_id":"ce4bh612rcd13ifvqe6g","pricing_plan_id":"cebpf4jnsgd1na2vs0mg"},{"bike_id":"e39fb636-c848-4b11-b04e-e552837a94cb","system_id":"levelo_inurba_marseille","lat":43.29276,"lon":5.38419,"is_reserved":false,"is_disabled":false,"rental_uris":{"android":"levelo://app?vid=e39fb636-c848-4b11-b04e-e552837a94cb","ios":"levelo://app?vid=e39fb636-c848-4b11-b04e-e552837a94cb"},"vehicle_type_id":"4","last_reported":1748635876,"current_range_meters":11200,"station_id":"ce4bh692rcd13ifvqea0","pricing_plan_id":"cebpf4jnsgd1na2vs0mg"},{"bike_id":"224bd8e6-5aa6-43c3-9b35-d938c57a99b5","system_id":"levelo_inurba_marseille","lat":43.26572,"lon":5.37274,"is_reserved":false,"is_disabled":false,"rental_uris":{"android":"levelo://app?vid=224bd8e6-5aa6-43c3-9b35-d938c57a99b5","ios":"levelo://app?vid=224bd8e6-5aa6-43c3-9b35-d938c57a99b5"},"vehicle_type_id":"4","last_reported":1748635876,"current_range_meters":11200,"station_id":"ce4bhg12rcd13ifvqf70","pricing_plan_id":"cebpf4jnsgd1na2vs0mg"},{"bike_id":"f27bc043-bfe4-429c-bd56-af9a2d36b56e","system_id":"levelo_inurba_marseille","lat":43.27569,"lon":5.38441,"is_reserved":false,"is_disabled":false,"rental_uris":{"android":"levelo://app?vid=f27bc043-bfe4-429c-bd56-af9a2d36b56e","ios":"levelo://app?vid=f27bc043-bfe4-429c-bd56-af9a2d36b56e"},"vehicle_type_id":"4","last_reported":1748635876,"current_range_meters":11200,"station_id":"ce4bhh92rcd13ifvqfi0","pricing_plan_id":"cebpf4jnsgd1na2vs0mg"},{"bike_id":"d42b65af-38ed-48b1-9f62-d79f47c848dd","system_id":"levelo_inurba_marseille","lat":43.24073,"lon":5.37763,"is_reserved":false,"is_disabled":false,"rental_uris":{"android":"levelo://app?vid=d42b65af-38ed-48b1-9f62-d79f47c848dd","ios":"levelo://app?vid=d42b65af-38ed-48b1-9f62-d79f47c848dd"},"vehicle_type_id":"4","last_reported":1748635876,"current_range_meters":11200,"station_id":"ce4bhnp2rcd13ifvqgvg","pricing_plan_id":"cebpf4jnsgd1na2vs0mg"},{"bike_id":"f10dc4d6-c8c6-42ab-85d3-8db645894596","system_id":"levelo_inurba_marseille","lat":43.27941,"lon":5.41036,"is_reserved":false,"is_disabled":false,"rental_uris":{"android":"levelo://app?vid=f10dc4d6-c8c6-42ab-85d3-8db645894596","ios":"levelo://app?vid=f10dc4d6-c8c6-42ab-85d3-8db645894596"},"vehicle_type_id":"4","last_reported":1748635876,"current_range_meters":11200,"station_id":"ce4bhnp2rcd13ifvqh0g","pricing_plan_id":"cebpf4jnsgd1na2vs0mg"},{"bike_id":"9ee87dbe-3990-4764-9a6b-2020fac42886","system_id":"levelo_inurba_marseille","lat":43.321207,"lon":5.3677,"is_reserved":false,"is_disabled":false,"rental_uris":{"android":"levelo://app?vid=9ee87dbe-3990-4764-9a6b-2020fac42886","ios":"levelo://app?vid=9ee87dbe-3990-4764-9a6b-2020fac42886"},"vehicle_type_id":"4","last_reported":1748635876,"current_range_meters":11200,"station_id":"ce4bhrh2rcd13ifvqhug","pricing_plan_id":"cebpf4jnsgd1na2vs0mg"},{"bike_id":"d16f5222-3d1e-4d65-a992-1bc93f719178","system_id":"levelo_inurba_marseille","lat":43.303233,"lon":5.365827,"is_reserved":false,"is_disabled":false,"rental_uris":{"android":"levelo://app?vid=d16f5222-3d1e-4d65-a992-1bc93f719178","ios":"levelo://app?vid=d16f5222-3d1e-4d65-a992-1bc93f719178"},"vehicle_type_id":"4","last_reported":1748635876,"current_range_meters":11600,"station_id":"","pricing_plan_id":"cebpf4jnsgd1na2vs0mg"},{"bike_id":"93b50bfc-4de4-45e7-89ef-33c7ca6ed47a","system_id":"levelo_inurba_marseille","lat":43.29281,"lon":5.37433,"is_reserved":false,"is_disabled":false,"rental_uris":{"android":"levelo://app?vid=93b50bfc-4de4-45e7-89ef-33c7ca6ed47a","ios":"levelo://app?vid=93b50bfc-4de4-45e7-89ef-33c7ca6ed47a"},"vehicle_type_id":"4","last_reported":1748635876,"current_range_meters":11600,"station_id":"ce4bgi12rcd13ifvqb70","pricing_plan_id":"cebpf4jnsgd1na2vs0mg"},{"bike_id":"31bcbb93-a820-4754-b55f-1b969a195009","system_id":"levelo_inurba_marseille","lat":43.29531,"lon":5.38541,"is_reserved":false,"is_disabled":false,"rental_uris":{"android":"levelo://app?vid=31bcbb93-a820-4754-b55f-1b969a195009","ios":"levelo://app?vid=31bcbb93-a820-4754-b55f-1b969a195009"},"vehicle_type_id":"4","last_reported":1748635876,"current_range_meters":11600,"station_id":"ce4bgih2rcd13ifvqba0","pricing_plan_id":"cebpf4jnsgd1na2vs0mg"},{"bike_id":"036af8fe-93a3-4ca7-9ce2-db9b5b0dfbd1","system_id":"levelo_inurba_marseille","lat":43.31183,"lon":5.38724,"is_reserved":false,"is_disabled":false,"rental_uris":{"android":"levelo://app?vid=036af8fe-93a3-4ca7-9ce2-db9b5b0dfbd1","ios":"levelo://app?vid=036af8fe-93a3-4ca7-9ce2-db9b5b0dfbd1"},"vehicle_type_id":"4","last_reported":1748635876,"current_range_meters":11600,"station_id":"ce4bgv12rcd13ifvqcp0","pricing_plan_id":"cebpf4jnsgd1na2vs0mg"},{"bike_id":"64a3d9b3-30f8-4a8c-b831-0d99a9fae7a2","system_id":"levelo_inurba_marseille","lat":43.31695,"lon":5.404816,"is_reserved":false,"is_disabled":false,"rental_uris":{"android":"levelo://app?vid=64a3d9b3-30f8-4a8c-b831-0d99a9fae7a2","ios":"levelo://app?vid=64a3d9b3-30f8-4a8c-b831-0d99a9fae7a2"},"vehicle_type_id":"4","last_reported":1748635876,"current_range_meters":11600,"station_id":"ce4bh012rcd13ifvqd00","pricing_plan_id":"cebpf4jnsgd1na2vs0mg"},{"bike_id":"bd5cf1e0-d248-412f-86d1-8531bf494438","system_id":"levelo_inurba_marseille","lat":43.295708,"lon":5.399727,"is_reserved":false,"is_disabled":false,"rental_uris":{"android":"levelo://app?vid=bd5cf1e0-d248-412f-86d1-8531bf494438","ios":"levelo://app?vid=bd5cf1e0-d248-412f-86d1-8531bf494438"},"vehicle_type_id":"4","last_reported":1748635876,"current_range_meters":11600,"station_id":"ce4bh312rcd13ifvqdj0","pricing_plan_id":"cebpf4jnsgd1na2vs0mg"},{"bike_id":"bac667cf-137e-4ea7-b037-7ebd6a2ad77c","system_id":"levelo_inurba_marseille","lat":43.282544,"lon":5.350958,"is_reserved":false,"is_disabled":false,"rental_uris":{"android":"levelo://app?vid=bac667cf-137e-4ea7-b037-7ebd6a2ad77c","ios":"levelo://app?vid=bac667cf-137e-4ea7-b037-7ebd6a2ad77c"},"vehicle_type_id":"4","last_reported":1748635876,"current_range_meters":11600,"station_id":"ce4bhbp2rcd13ifvqerg","pricing_plan_id":"cebpf4jnsgd1na2vs0mg"},{"bike_id":"fdd6b96f-e129-464a-98ed-9975b5d46575","system_id":"levelo_inurba_marseille","lat":43.26486,"lon":5.39548,"is_reserved":false,"is_disabled":false,"rental_uris":{"android":"levelo://app?vid=fdd6b96f-e129-464a-98ed-9975b5d46575","ios":"levelo://app?vid=fdd6b96f-e129-464a-98ed-9975b5d46575"},"vehicle_type_id":"4","last_reported":1748635876,"current_range_meters":11600,"station_id":"ce4bhi12rcd13ifvqfq0","pricing_plan_id":"cebpf4jnsgd1na2vs0mg"},{"bike_id":"f4c2fc6c-bfde-4b06-814d-19db2259199c","system_id":"levelo_inurba_marseille","lat":43.28,"lon":5.40019,"is_reserved":false,"is_disabled":false,"rental_uris":{"android":"levelo://app?vid=f4c2fc6c-bfde-4b06-814d-19db2259199c","ios":"levelo://app?vid=f4c2fc6c-bfde-4b06-814d-19db2259199c"},"vehicle_type_id":"4","last_reported":1748635876,"current_range_meters":11600,"station_id":"ce4bho92rcd13ifvqh4g","pricing_plan_id":"cebpf4jnsgd1na2vs0mg"},{"bike_id":"93ae5175-0134-4dc5-965f-d75524d83337","system_id":"levelo_inurba_marseille","lat":43.29252,"lon":5.38447,"is_reserved":false,"is_disabled":false,"rental_uris":{"android":"levelo://app?vid=93ae5175-0134-4dc5-965f-d75524d83337","ios":"levelo://app?vid=93ae5175-0134-4dc5-965f-d75524d83337"},"vehicle_type_id":"4","last_reported":1748635876,"current_range_meters":12000,"station_id":"ce4bh692rcd13ifvqea0","pricing_plan_id":"cebpf4jnsgd1na2vs0mg"},{"bike_id":"8588c8cd-2f4b-429a-923c-fc0a25cd8d5a","system_id":"levelo_inurba_marseille","lat":43.28153,"lon":5.42642,"is_reserved":false,"is_disabled":false,"rental_uris":{"android":"levelo://app?vid=8588c8cd-2f4b-429a-923c-fc0a25cd8d5a","ios":"levelo://app?vid=8588c8cd-2f4b-429a-923c-fc0a25cd8d5a"},"vehicle_type_id":"4","last_reported":1748635876,"current_range_meters":12000,"station_id":"ce4bhnh2rcd13ifvqgug","pricing_plan_id":"cebpf4jnsgd1na2vs0mg"},{"bike_id":"dd34afa2-f665-4263-85a8-7de7dbd3a196","system_id":"levelo_inurba_marseille","lat":43.27605,"lon":5.39685,"is_reserved":false,"is_disabled":false,"rental_uris":{"android":"levelo://app?vid=dd34afa2-f665-4263-85a8-7de7dbd3a196","ios":"levelo://app?vid=dd34afa2-f665-4263-85a8-7de7dbd3a196"},"vehicle_type_id":"4","last_reported":1748635876,"current_range_meters":12400,"station_id":"","pricing_plan_id":"cebpf4jnsgd1na2vs0mg"},{"bike_id":"56c77a5f-e4f9-4faf-9444-d8e929345c1e","system_id":"levelo_inurba_marseille","lat":43.29321,"lon":5.37188,"is_reserved":false,"is_disabled":false,"rental_uris":{"android":"levelo://app?vid=56c77a5f-e4f9-4faf-9444-d8e929345c1e","ios":"levelo://app?vid=56c77a5f-e4f9-4faf-9444-d8e929345c1e"},"vehicle_type_id":"4","last_reported":1748635876,"current_range_meters":12400,"station_id":"ce4bgh92rcd13ifvqb40","pricing_plan_id":"cebpf4jnsgd1na2vs0mg"},{"bike_id":"7322276a-0795-4cd4-9248-5c6b383798c3","system_id":"levelo_inurba_marseille","lat":43.2931,"lon":5.37182,"is_reserved":false,"is_disabled":false,"rental_uris":{"android":"levelo://app?vid=7322276a-0795-4cd4-9248-5c6b383798c3","ios":"levelo://app?vid=7322276a-0795-4cd4-9248-5c6b383798c3"},"vehicle_type_id":"4","last_reported":1748635876,"current_range_meters":12400,"station_id":"ce4bgh92rcd13ifvqb40","pricing_plan_id":"cebpf4jnsgd1na2vs0mg"},{"bike_id":"5ee4a669-e255-4b3b-959c-49499bdcdda7","system_id":"levelo_inurba_marseille","lat":43.3033,"lon":5.4043,"is_reserved":false,"is_disabled":false,"rental_uris":{"android":"levelo://app?vid=5ee4a669-e255-4b3b-959c-49499bdcdda7","ios":"levelo://app?vid=5ee4a669-e255-4b3b-959c-49499bdcdda7"},"vehicle_type_id":"4","last_reported":1748635876,"current_range_meters":12400,"station_id":"ce4bh012rcd13ifvqd10","pricing_plan_id":"cebpf4jnsgd1na2vs0mg"},{"bike_id":"b18036e4-cdbb-441f-a4f1-99c9cdbece34","system_id":"levelo_inurba_marseille","lat":43.295021,"lon":5.390831,"is_reserved":false,"is_disabled":false,"rental_uris":{"android":"levelo://app?vid=b18036e4-cdbb-441f-a4f1-99c9cdbece34","ios":"levelo://app?vid=b18036e4-cdbb-441f-a4f1-99c9cdbece34"},"vehicle_type_id":"4","last_reported":1748635876,"current_range_meters":12400,"station_id":"ce4bh3p2rcd13ifvqdp0","pricing_plan_id":"cebpf4jnsgd1na2vs0mg"},{"bike_id":"e7f62276-ddf8-41a9-8c04-845a41232497","system_id":"levelo_inurba_marseille","lat":43.29252,"lon":5.38441,"is_reserved":false,"is_disabled":false,"rental_uris":{"android":"levelo://app?vid=e7f62276-ddf8-41a9-8c04-845a41232497","ios":"levelo://app?vid=e7f62276-ddf8-41a9-8c04-845a41232497"},"vehicle_type_id":"4","last_reported":1748635876,"current_range_meters":12400,"station_id":"ce4bh692rcd13ifvqea0","pricing_plan_id":"cebpf4jnsgd1na2vs0mg"},{"bike_id":"baa9ae91-cf2b-4902-bc78-4d8c41a40b35","system_id":"levelo_inurba_marseille","lat":43.26575,"lon":5.39023,"is_reserved":false,"is_disabled":false,"rental_uris":{"android":"levelo://app?vid=baa9ae91-cf2b-4902-bc78-4d8c41a40b35","ios":"levelo://app?vid=baa9ae91-cf2b-4902-bc78-4d8c41a40b35"},"vehicle_type_id":"4","last_reported":1748635876,"current_range_meters":12400,"station_id":"ce4bhe12rcd13ifvqf30","pricing_plan_id":"cebpf4jnsgd1na2vs0mg"},{"bike_id":"237bedd6-639b-4da9-86cd-2a73d690c6f7","system_id":"levelo_inurba_marseille","lat":43.26026,"lon":5.37537,"is_reserved":false,"is_disabled":false,"rental_uris":{"android":"levelo://app?vid=237bedd6-639b-4da9-86cd-2a73d690c6f7","ios":"levelo://app?vid=237bedd6-639b-4da9-86cd-2a73d690c6f7"},"vehicle_type_id":"4","last_reported":1748635876,"current_range_meters":12400,"station_id":"ce4bhgh2rcd13ifvqfa0","pricing_plan_id":"cebpf4jnsgd1na2vs0mg"},{"bike_id":"990df701-79a7-41ec-b963-3693dc590a87","system_id":"levelo_inurba_marseille","lat":43.30184,"lon":5.37886,"is_reserved":false,"is_disabled":false,"rental_uris":{"android":"levelo://app?vid=990df701-79a7-41ec-b963-3693dc590a87","ios":"levelo://app?vid=990df701-79a7-41ec-b963-3693dc590a87"},"vehicle_type_id":"4","last_reported":1748635876,"current_range_meters":12800,"station_id":"","pricing_plan_id":"cebpf4jnsgd1na2vs0mg"},{"bike_id":"ac9ff71a-26dc-48af-8147-dd3608b755d2","system_id":"levelo_inurba_marseille","lat":43.29287,"lon":5.3747,"is_reserved":false,"is_disabled":false,"rental_uris":{"android":"levelo://app?vid=ac9ff71a-26dc-48af-8147-dd3608b755d2","ios":"levelo://app?vid=ac9ff71a-26dc-48af-8147-dd3608b755d2"},"vehicle_type_id":"4","last_reported":1748635876,"current_range_meters":12800,"station_id":"ce4bgi12rcd13ifvqb70","pricing_plan_id":"cebpf4jnsgd1na2vs0mg"},{"bike_id":"27a52cdb-9ef9-46c1-8498-9d9de0eb4bce","system_id":"levelo_inurba_marseille","lat":43.29415,"lon":5.38626,"is_reserved":false,"is_disabled":false,"rental_uris":{"android":"levelo://app?vid=27a52cdb-9ef9-46c1-8498-9d9de0eb4bce","ios":"levelo://app?vid=27a52cdb-9ef9-46c1-8498-9d9de0eb4bce"},"vehicle_type_id":"4","last_reported":1748635876,"current_range_meters":12800,"station_id":"ce4bh2h2rcd13ifvqdh0","pricing_plan_id":"cebpf4jnsgd1na2vs0mg"},{"bike_id":"d87283bc-335e-4f1f-9492-4498125299e9","system_id":"levelo_inurba_marseille","lat":43.29424,"lon":5.38629,"is_reserved":false,"is_disabled":false,"rental_uris":{"android":"levelo://app?vid=d87283bc-335e-4f1f-9492-4498125299e9","ios":"levelo://app?vid=d87283bc-335e-4f1f-9492-4498125299e9"},"vehicle_type_id":"4","last_reported":1748635876,"current_range_meters":12800,"station_id":"ce4bh2h2rcd13ifvqdh0","pricing_plan_id":"cebpf4jnsgd1na2vs0mg"},{"bike_id":"01872048-e2d2-4ed1-96ea-0e2c105d7dce","system_id":"levelo_inurba_marseille","lat":43.28362,"lon":5.381,"is_reserved":false,"is_disabled":false,"rental_uris":{"android":"levelo://app?vid=01872048-e2d2-4ed1-96ea-0e2c105d7dce","ios":"levelo://app?vid=01872048-e2d2-4ed1-96ea-0e2c105d7dce"},"vehicle_type_id":"4","last_reported":1748635876,"current_range_meters":12800,"station_id":"ce4bh412rcd13ifvqdr0","pricing_plan_id":"cebpf4jnsgd1na2vs0mg"},{"bike_id":"dae0e31c-fb23-4e60-a4a4-a88ff7af261f","system_id":"levelo_inurba_marseille","lat":43.29248,"lon":5.3844,"is_reserved":false,"is_disabled":false,"rental_uris":{"android":"levelo://app?vid=dae0e31c-fb23-4e60-a4a4-a88ff7af261f","ios":"levelo://app?vid=dae0e31c-fb23-4e60-a4a4-a88ff7af261f"},"vehicle_type_id":"4","last_reported":1748635876,"current_range_meters":12800,"station_id":"ce4bh692rcd13ifvqea0","pricing_plan_id":"cebpf4jnsgd1na2vs0mg"},{"bike_id":"472e026e-3124-4d00-8455-c82e1d86dfb5","system_id":"levelo_inurba_marseille","lat":43.29268,"lon":5.36851,"is_reserved":false,"is_disabled":false,"rental_uris":{"android":"levelo://app?vid=472e026e-3124-4d00-8455-c82e1d86dfb5","ios":"levelo://app?vid=472e026e-3124-4d00-8455-c82e1d86dfb5"},"vehicle_type_id":"4","last_reported":1748635876,"current_range_meters":12800,"station_id":"ce4bhbp2rcd13ifvqesg","pricing_plan_id":"cebpf4jnsgd1na2vs0mg"},{"bike_id":"d6d1ada7-d095-4848-a9c7-71d520f6d868","system_id":"levelo_inurba_marseille","lat":43.299666,"lon":5.384894,"is_reserved":false,"is_disabled":false,"rental_uris":{"android":"levelo://app?vid=d6d1ada7-d095-4848-a9c7-71d520f6d868","ios":"levelo://app?vid=d6d1ada7-d095-4848-a9c7-71d520f6d868"},"vehicle_type_id":"4","last_reported":1748635876,"current_range_meters":13600,"station_id":"","pricing_plan_id":"cebpf4jnsgd1na2vs0mg"},{"bike_id":"262099b7-cd93-48f7-a6af-c54dcab84046","system_id":"levelo_inurba_marseille","lat":43.29203,"lon":5.39326,"is_reserved":false,"is_disabled":false,"rental_uris":{"android":"levelo://app?vid=262099b7-cd93-48f7-a6af-c54dcab84046","ios":"levelo://app?vid=262099b7-cd93-48f7-a6af-c54dcab84046"},"vehicle_type_id":"4","last_reported":1748635876,"current_range_meters":13600,"station_id":"ce4bh192rcd13ifvqdd0","pricing_plan_id":"cebpf4jnsgd1na2vs0mg"},{"bike_id":"41ddfa9a-ab1a-4379-9a7a-f21fa9bedc25","system_id":"levelo_inurba_marseille","lat":43.29427,"lon":5.38628,"is_reserved":false,"is_disabled":false,"rental_uris":{"android":"levelo://app?vid=41ddfa9a-ab1a-4379-9a7a-f21fa9bedc25","ios":"levelo://app?vid=41ddfa9a-ab1a-4379-9a7a-f21fa9bedc25"},"vehicle_type_id":"4","last_reported":1748635876,"current_range_meters":13600,"station_id":"ce4bh2h2rcd13ifvqdh0","pricing_plan_id":"cebpf4jnsgd1na2vs0mg"},{"bike_id":"5a2b3bfd-0cb6-4eb5-a76e-b73f8a3977d6","system_id":"levelo_inurba_marseille","lat":43.26502,"lon":5.39537,"is_reserved":false,"is_disabled":false,"rental_uris":{"android":"levelo://app?vid=5a2b3bfd-0cb6-4eb5-a76e-b73f8a3977d6","ios":"levelo://app?vid=5a2b3bfd-0cb6-4eb5-a76e-b73f8a3977d6"},"vehicle_type_id":"4","last_reported":1748635876,"current_range_meters":13600,"station_id":"ce4bhi12rcd13ifvqfq0","pricing_plan_id":"cebpf4jnsgd1na2vs0mg"},{"bike_id":"83796080-654a-4bb4-9752-e06442896fdb","system_id":"levelo_inurba_marseille","lat":43.24665,"lon":5.38165,"is_reserved":false,"is_disabled":false,"rental_uris":{"android":"levelo://app?vid=83796080-654a-4bb4-9752-e06442896fdb","ios":"levelo://app?vid=83796080-654a-4bb4-9752-e06442896fdb"},"vehicle_type_id":"4","last_reported":1748635876,"current_range_meters":13600,"station_id":"ce4bhih2rcd13ifvqfr0","pricing_plan_id":"cebpf4jnsgd1na2vs0mg"},{"bike_id":"ab09bd2c-f01a-4435-bb20-0251b5e4b9e3","system_id":"levelo_inurba_marseille","lat":43.261713,"lon":5.374389,"is_reserved":false,"is_disabled":false,"rental_uris":{"android":"levelo://app?vid=ab09bd2c-f01a-4435-bb20-0251b5e4b9e3","ios":"levelo://app?vid=ab09bd2c-f01a-4435-bb20-0251b5e4b9e3"},"vehicle_type_id":"4","last_reported":1748635876,"current_range_meters":14000,"station_id":"","pricing_plan_id":"cebpf4jnsgd1na2vs0mg"},{"bike_id":"c3f3e5a9-f7d9-4cbd-9f9c-dba000b2302f","system_id":"levelo_inurba_marseille","lat":43.29316,"lon":5.37453,"is_reserved":false,"is_disabled":false,"rental_uris":{"android":"levelo://app?vid=c3f3e5a9-f7d9-4cbd-9f9c-dba000b2302f","ios":"levelo://app?vid=c3f3e5a9-f7d9-4cbd-9f9c-dba000b2302f"},"vehicle_type_id":"4","last_reported":1748635876,"current_range_meters":14000,"station_id":"ce4bgi12rcd13ifvqb70","pricing_plan_id":"cebpf4jnsgd1na2vs0mg"},{"bike_id":"02cf17fc-bc5e-4de6-99ef-ea15f81561e9","system_id":"levelo_inurba_marseille","lat":43.29867,"lon":5.39726,"is_reserved":false,"is_disabled":false,"rental_uris":{"android":"levelo://app?vid=02cf17fc-bc5e-4de6-99ef-ea15f81561e9","ios":"levelo://app?vid=02cf17fc-bc5e-4de6-99ef-ea15f81561e9"},"vehicle_type_id":"4","last_reported":1748635876,"current_range_meters":14000,"station_id":"ce4bh0h2rcd13ifvqd50","pricing_plan_id":"cebpf4jnsgd1na2vs0mg"},{"bike_id":"50ccef43-1903-48d0-b39a-ab051baaed01","system_id":"levelo_inurba_marseille","lat":43.29418,"lon":5.38634,"is_reserved":false,"is_disabled":false,"rental_uris":{"android":"levelo://app?vid=50ccef43-1903-48d0-b39a-ab051baaed01","ios":"levelo://app?vid=50ccef43-1903-48d0-b39a-ab051baaed01"},"vehicle_type_id":"4","last_reported":1748635876,"current_range_meters":14000,"station_id":"ce4bh2h2rcd13ifvqdh0","pricing_plan_id":"cebpf4jnsgd1na2vs0mg"},{"bike_id":"fd73a619-5a34-4b37-af3f-6713aaa9e6c1","system_id":"levelo_inurba_marseille","lat":43.29419,"lon":5.38626,"is_reserved":false,"is_disabled":false,"rental_uris":{"android":"levelo://app?vid=fd73a619-5a34-4b37-af3f-6713aaa9e6c1","ios":"levelo://app?vid=fd73a619-5a34-4b37-af3f-6713aaa9e6c1"},"vehicle_type_id":"4","last_reported":1748635876,"current_range_meters":14000,"station_id":"ce4bh2h2rcd13ifvqdh0","pricing_plan_id":"cebpf4jnsgd1na2vs0mg"},{"bike_id":"96554521-a156-468a-8f37-c6a7a91d4984","system_id":"levelo_inurba_marseille","lat":43.29261,"lon":5.38448,"is_reserved":false,"is_disabled":false,"rental_uris":{"android":"levelo://app?vid=96554521-a156-468a-8f37-c6a7a91d4984","ios":"levelo://app?vid=96554521-a156-468a-8f37-c6a7a91d4984"},"vehicle_type_id":"4","last_reported":1748635876,"current_range_meters":14000,"station_id":"ce4bh692rcd13ifvqea0","pricing_plan_id":"cebpf4jnsgd1na2vs0mg"},{"bike_id":"2a3add63-cdc8-4a0f-809f-891d10fcb43b","system_id":"levelo_inurba_marseille","lat":43.28918,"lon":5.36652,"is_reserved":false,"is_disabled":false,"rental_uris":{"android":"levelo://app?vid=2a3add63-cdc8-4a0f-809f-891d10fcb43b","ios":"levelo://app?vid=2a3add63-cdc8-4a0f-809f-891d10fcb43b"},"vehicle_type_id":"4","last_reported":1748635876,"current_range_meters":14000,"station_id":"ce4bhap2rcd13ifvqek0","pricing_plan_id":"cebpf4jnsgd1na2vs0mg"},{"bike_id":"6d4a6026-abb0-4440-b58a-431b7699b16d","system_id":"levelo_inurba_marseille","lat":43.27917,"lon":5.39577,"is_reserved":false,"is_disabled":false,"rental_uris":{"android":"levelo://app?vid=6d4a6026-abb0-4440-b58a-431b7699b16d","ios":"levelo://app?vid=6d4a6026-abb0-4440-b58a-431b7699b16d"},"vehicle_type_id":"4","last_reported":1748635876,"current_range_meters":14000,"station_id":"ce4bhf92rcd13ifvqf40","pricing_plan_id":"cebpf4jnsgd1na2vs0mg"},{"bike_id":"b375f6c4-dc79-4540-a52f-a4066376571e","system_id":"levelo_inurba_marseille","lat":43.269531,"lon":5.386282,"is_reserved":false,"is_disabled":false,"rental_uris":{"android":"levelo://app?vid=b375f6c4-dc79-4540-a52f-a4066376571e","ios":"levelo://app?vid=b375f6c4-dc79-4540-a52f-a4066376571e"},"vehicle_type_id":"4","last_reported":1748635876,"current_range_meters":14000,"station_id":"ce4bhh92rcd13ifvqfh0","pricing_plan_id":"cebpf4jnsgd1na2vs0mg"},{"bike_id":"71930e17-fe3c-443f-b621-4d725e50390f","system_id":"levelo_inurba_marseille","lat":43.33727,"lon":5.39192,"is_reserved":false,"is_disabled":false,"rental_uris":{"android":"levelo://app?vid=71930e17-fe3c-443f-b621-4d725e50390f","ios":"levelo://app?vid=71930e17-fe3c-443f-b621-4d725e50390f"},"vehicle_type_id":"4","last_reported":1748635876,"current_range_meters":14000,"station_id":"ce4bhr92rcd13ifvqhsg","pricing_plan_id":"cebpf4jnsgd1na2vs0mg"},{"bike_id":"e93b8090-e75f-468e-b865-70f8cfb4498e","system_id":"levelo_inurba_marseille","lat":43.23193,"lon":5.35557,"is_reserved":false,"is_disabled":false,"rental_uris":{"android":"levelo://app?vid=e93b8090-e75f-468e-b865-70f8cfb4498e","ios":"levelo://app?vid=e93b8090-e75f-468e-b865-70f8cfb4498e"},"vehicle_type_id":"4","last_reported":1748635876,"current_range_meters":14000,"station_id":"ce4bhu92rcd13ifvqi70","pricing_plan_id":"cebpf4jnsgd1na2vs0mg"},{"bike_id":"dcac3f7e-ac89-4f51-9065-db434d572e88","system_id":"levelo_inurba_marseille","lat":43.29529,"lon":5.3855,"is_reserved":false,"is_disabled":false,"rental_uris":{"android":"levelo://app?vid=dcac3f7e-ac89-4f51-9065-db434d572e88","ios":"levelo://app?vid=dcac3f7e-ac89-4f51-9065-db434d572e88"},"vehicle_type_id":"4","last_reported":1748635876,"current_range_meters":14400,"station_id":"ce4bgih2rcd13ifvqba0","pricing_plan_id":"cebpf4jnsgd1na2vs0mg"},{"bike_id":"0f980c5c-24a2-41e6-ad8e-664628425d49","system_id":"levelo_inurba_marseille","lat":43.3117,"lon":5.38709,"is_reserved":false,"is_disabled":false,"rental_uris":{"android":"levelo://app?vid=0f980c5c-24a2-41e6-ad8e-664628425d49","ios":"levelo://app?vid=0f980c5c-24a2-41e6-ad8e-664628425d49"},"vehicle_type_id":"4","last_reported":1748635876,"current_range_meters":14400,"station_id":"ce4bgv12rcd13ifvqcp0","pricing_plan_id":"cebpf4jnsgd1na2vs0mg"},{"bike_id":"58c0f359-97d0-4a5e-a159-fe13cbd8e7b6","system_id":"levelo_inurba_marseille","lat":43.31065,"lon":5.3835,"is_reserved":false,"is_disabled":false,"rental_uris":{"android":"levelo://app?vid=58c0f359-97d0-4a5e-a159-fe13cbd8e7b6","ios":"levelo://app?vid=58c0f359-97d0-4a5e-a159-fe13cbd8e7b6"},"vehicle_type_id":"4","last_reported":1748635876,"current_range_meters":14400,"station_id":"ce4bgv92rcd13ifvqcr0","pricing_plan_id":"cebpf4jnsgd1na2vs0mg"},{"bike_id":"dcccd63e-c10b-4424-a64b-109794cb2916","system_id":"levelo_inurba_marseille","lat":43.29409,"lon":5.38627,"is_reserved":false,"is_disabled":false,"rental_uris":{"android":"levelo://app?vid=dcccd63e-c10b-4424-a64b-109794cb2916","ios":"levelo://app?vid=dcccd63e-c10b-4424-a64b-109794cb2916"},"vehicle_type_id":"4","last_reported":1748635876,"current_range_meters":14400,"station_id":"ce4bh2h2rcd13ifvqdh0","pricing_plan_id":"cebpf4jnsgd1na2vs0mg"},{"bike_id":"5ca251bb-3aed-48af-ab33-7384e026a0e3","system_id":"levelo_inurba_marseille","lat":43.29265,"lon":5.38438,"is_reserved":false,"is_disabled":false,"rental_uris":{"android":"levelo://app?vid=5ca251bb-3aed-48af-ab33-7384e026a0e3","ios":"levelo://app?vid=5ca251bb-3aed-48af-ab33-7384e026a0e3"},"vehicle_type_id":"4","last_reported":1748635876,"current_range_meters":14400,"station_id":"ce4bh692rcd13ifvqea0","pricing_plan_id":"cebpf4jnsgd1na2vs0mg"},{"bike_id":"916841b9-18f1-4647-94dc-6ae7ac33d79d","system_id":"levelo_inurba_marseille","lat":43.30302,"lon":5.3921,"is_reserved":false,"is_disabled":false,"rental_uris":{"android":"levelo://app?vid=916841b9-18f1-4647-94dc-6ae7ac33d79d","ios":"levelo://app?vid=916841b9-18f1-4647-94dc-6ae7ac33d79d"},"vehicle_type_id":"4","last_reported":1748635876,"current_range_meters":14800,"station_id":"ce4bgkh2rcd13ifvqbk0","pricing_plan_id":"cebpf4jnsgd1na2vs0mg"},{"bike_id":"78bfa5a4-620b-4941-a0fa-d39dc95bf145","system_id":"levelo_inurba_marseille","lat":43.295446,"lon":5.375048,"is_reserved":false,"is_disabled":false,"rental_uris":{"android":"levelo://app?vid=78bfa5a4-620b-4941-a0fa-d39dc95bf145","ios":"levelo://app?vid=78bfa5a4-620b-4941-a0fa-d39dc95bf145"},"vehicle_type_id":"4","last_reported":1748635876,"current_range_meters":14800,"station_id":"ce4bgkp2rcd13ifvqbmg","pricing_plan_id":"cebpf4jnsgd1na2vs0mg"},{"bike_id":"bbf25ded-718e-41f5-8ebc-a2000cac04a7","system_id":"levelo_inurba_marseille","lat":43.30777,"lon":5.38133,"is_reserved":false,"is_disabled":false,"rental_uris":{"android":"levelo://app?vid=bbf25ded-718e-41f5-8ebc-a2000cac04a7","ios":"levelo://app?vid=bbf25ded-718e-41f5-8ebc-a2000cac04a7"},"vehicle_type_id":"4","last_reported":1748635876,"current_range_meters":15200,"station_id":"ce4bgt12rcd13ifvqce0","pricing_plan_id":"cebpf4jnsgd1na2vs0mg"},{"bike_id":"71ee1e16-01f1-4c75-ad6f-69a658950c80","system_id":"levelo_inurba_marseille","lat":43.30885,"lon":5.39657,"is_reserved":false,"is_disabled":false,"rental_uris":{"android":"levelo://app?vid=71ee1e16-01f1-4c75-ad6f-69a658950c80","ios":"levelo://app?vid=71ee1e16-01f1-4c75-ad6f-69a658950c80"},"vehicle_type_id":"4","last_reported":1748635876,"current_range_meters":15200,"station_id":"ce4bh012rcd13ifvqcv0","pricing_plan_id":"cebpf4jnsgd1na2vs0mg"},{"bike_id":"2c69a887-3734-4b17-b5fc-69406cf56411","system_id":"levelo_inurba_marseille","lat":43.29876,"lon":5.39738,"is_reserved":false,"is_disabled":false,"rental_uris":{"android":"levelo://app?vid=2c69a887-3734-4b17-b5fc-69406cf56411","ios":"levelo://app?vid=2c69a887-3734-4b17-b5fc-69406cf56411"},"vehicle_type_id":"4","last_reported":1748635876,"current_range_meters":15200,"station_id":"ce4bh0h2rcd13ifvqd50","pricing_plan_id":"cebpf4jnsgd1na2vs0mg"},{"bike_id":"495d3d4f-fe36-4133-8b6c-942fc4d537bf","system_id":"levelo_inurba_marseille","lat":43.2956,"lon":5.38241,"is_reserved":false,"is_disabled":false,"rental_uris":{"android":"levelo://app?vid=495d3d4f-fe36-4133-8b6c-942fc4d537bf","ios":"levelo://app?vid=495d3d4f-fe36-4133-8b6c-942fc4d537bf"},"vehicle_type_id":"4","last_reported":1748635876,"current_range_meters":16000,"station_id":"","pricing_plan_id":"cebpf4jnsgd1na2vs0mg"},{"bike_id":"64b28574-7822-4cef-adfa-c4ed487c7358","system_id":"levelo_inurba_marseille","lat":43.29948,"lon":5.36519,"is_reserved":false,"is_disabled":false,"rental_uris":{"android":"levelo://app?vid=64b28574-7822-4cef-adfa-c4ed487c7358","ios":"levelo://app?vid=64b28574-7822-4cef-adfa-c4ed487c7358"},"vehicle_type_id":"4","last_reported":1748635876,"current_range_meters":16000,"station_id":"ce4bgm92rcd13ifvqbr0","pricing_plan_id":"cebpf4jnsgd1na2vs0mg"},{"bike_id":"8dbdc5e1-39a1-4080-8142-c23ebe1e7e18","system_id":"levelo_inurba_marseille","lat":43.30189,"lon":5.366155,"is_reserved":false,"is_disabled":false,"rental_uris":{"android":"levelo://app?vid=8dbdc5e1-39a1-4080-8142-c23ebe1e7e18","ios":"levelo://app?vid=8dbdc5e1-39a1-4080-8142-c23ebe1e7e18"},"vehicle_type_id":"4","last_reported":1748635876,"current_range_meters":16000,"station_id":"ce4bgrh2rcd13ifvqc8g","pricing_plan_id":"cebpf4jnsgd1na2vs0mg"},{"bike_id":"c3156a68-e856-4b03-a031-0f27e467b5b3","system_id":"levelo_inurba_marseille","lat":43.3137,"lon":5.385003,"is_reserved":false,"is_disabled":false,"rental_uris":{"android":"levelo://app?vid=c3156a68-e856-4b03-a031-0f27e467b5b3","ios":"levelo://app?vid=c3156a68-e856-4b03-a031-0f27e467b5b3"},"vehicle_type_id":"4","last_reported":1748635876,"current_range_meters":16000,"station_id":"ce4bgt92rcd13ifvqcf0","pricing_plan_id":"cebpf4jnsgd1na2vs0mg"},{"bike_id":"25323262-7305-4ef9-9539-04799178d07a","system_id":"levelo_inurba_marseille","lat":43.30647,"lon":5.4007,"is_reserved":false,"is_disabled":false,"rental_uris":{"android":"levelo://app?vid=25323262-7305-4ef9-9539-04799178d07a","ios":"levelo://app?vid=25323262-7305-4ef9-9539-04799178d07a"},"vehicle_type_id":"4","last_reported":1748635876,"current_range_meters":16000,"station_id":"ce4bh112rcd13ifvqda0","pricing_plan_id":"cebpf4jnsgd1na2vs0mg"},{"bike_id":"32bb4844-a2cc-4929-83b7-3123c1d34dc6","system_id":"levelo_inurba_marseille","lat":43.28418,"lon":5.3752,"is_reserved":false,"is_disabled":false,"rental_uris":{"android":"levelo://app?vid=32bb4844-a2cc-4929-83b7-3123c1d34dc6","ios":"levelo://app?vid=32bb4844-a2cc-4929-83b7-3123c1d34dc6"},"vehicle_type_id":"4","last_reported":1748635876,"current_range_meters":16000,"station_id":"ce4bh412rcd13ifvqds0","pricing_plan_id":"cebpf4jnsgd1na2vs0mg"},{"bike_id":"8e00d4cb-f949-4780-9474-5d368da4f419","system_id":"levelo_inurba_marseille","lat":43.29027,"lon":5.38629,"is_reserved":false,"is_disabled":false,"rental_uris":{"android":"levelo://app?vid=8e00d4cb-f949-4780-9474-5d368da4f419","ios":"levelo://app?vid=8e00d4cb-f949-4780-9474-5d368da4f419"},"vehicle_type_id":"4","last_reported":1748635876,"current_range_meters":16000,"station_id":"ce4bh4p2rcd13ifvqe0g","pricing_plan_id":"cebpf4jnsgd1na2vs0mg"},{"bike_id":"67614841-9f24-4f1f-81f7-acf09b9bb6b8","system_id":"levelo_inurba_marseille","lat":43.25716,"lon":5.41111,"is_reserved":false,"is_disabled":false,"rental_uris":{"android":"levelo://app?vid=67614841-9f24-4f1f-81f7-acf09b9bb6b8","ios":"levelo://app?vid=67614841-9f24-4f1f-81f7-acf09b9bb6b8"},"vehicle_type_id":"4","last_reported":1748635876,"current_range_meters":16000,"station_id":"ce4bhkp2rcd13ifvqgd0","pricing_plan_id":"cebpf4jnsgd1na2vs0mg"},{"bike_id":"b15c9528-f47a-4235-9293-ec8fcd2e5e20","system_id":"levelo_inurba_marseille","lat":43.2808,"lon":5.39648,"is_reserved":false,"is_disabled":false,"rental_uris":{"android":"levelo://app?vid=b15c9528-f47a-4235-9293-ec8fcd2e5e20","ios":"levelo://app?vid=b15c9528-f47a-4235-9293-ec8fcd2e5e20"},"vehicle_type_id":"4","last_reported":1748635876,"current_range_meters":16000,"station_id":"ce4bho12rcd13ifvqh2g","pricing_plan_id":"cebpf4jnsgd1na2vs0mg"},{"bike_id":"5cba0f45-88b8-4943-9064-7be3ecb48427","system_id":"levelo_inurba_marseille","lat":43.303084,"lon":5.369034,"is_reserved":false,"is_disabled":false,"rental_uris":{"android":"levelo://app?vid=5cba0f45-88b8-4943-9064-7be3ecb48427","ios":"levelo://app?vid=5cba0f45-88b8-4943-9064-7be3ecb48427"},"vehicle_type_id":"4","last_reported":1748635876,"current_range_meters":16400,"station_id":"ce4bgqh2rcd13ifvqc5g","pricing_plan_id":"cebpf4jnsgd1na2vs0mg"},{"bike_id":"b39b16dc-f183-4cb5-86c3-5371fdcfe54c","system_id":"levelo_inurba_marseille","lat":43.31068,"lon":5.38348,"is_reserved":false,"is_disabled":false,"rental_uris":{"android":"levelo://app?vid=b39b16dc-f183-4cb5-86c3-5371fdcfe54c","ios":"levelo://app?vid=b39b16dc-f183-4cb5-86c3-5371fdcfe54c"},"vehicle_type_id":"4","last_reported":1748635876,"current_range_meters":16400,"station_id":"ce4bgv92rcd13ifvqcr0","pricing_plan_id":"cebpf4jnsgd1na2vs0mg"},{"bike_id":"ac267530-8117-43f3-afa6-e29a9c29b8bf","system_id":"levelo_inurba_marseille","lat":43.30917,"lon":5.39656,"is_reserved":false,"is_disabled":false,"rental_uris":{"android":"levelo://app?vid=ac267530-8117-43f3-afa6-e29a9c29b8bf","ios":"levelo://app?vid=ac267530-8117-43f3-afa6-e29a9c29b8bf"},"vehicle_type_id":"4","last_reported":1748635876,"current_range_meters":16400,"station_id":"ce4bh012rcd13ifvqcv0","pricing_plan_id":"cebpf4jnsgd1na2vs0mg"},{"bike_id":"3906482a-ab64-48b3-8932-46035853ca31","system_id":"levelo_inurba_marseille","lat":43.29025,"lon":5.38637,"is_reserved":false,"is_disabled":false,"rental_uris":{"android":"levelo://app?vid=3906482a-ab64-48b3-8932-46035853ca31","ios":"levelo://app?vid=3906482a-ab64-48b3-8932-46035853ca31"},"vehicle_type_id":"4","last_reported":1748635876,"current_range_meters":16400,"station_id":"ce4bh4p2rcd13ifvqe0g","pricing_plan_id":"cebpf4jnsgd1na2vs0mg"},{"bike_id":"8ef9ecb7-2239-46e8-8f82-19ec6bfc3bbd","system_id":"levelo_inurba_marseille","lat":43.29027,"lon":5.3813,"is_reserved":false,"is_disabled":false,"rental_uris":{"android":"levelo://app?vid=8ef9ecb7-2239-46e8-8f82-19ec6bfc3bbd","ios":"levelo://app?vid=8ef9ecb7-2239-46e8-8f82-19ec6bfc3bbd"},"vehicle_type_id":"4","last_reported":1748635876,"current_range_meters":16400,"station_id":"ce4bh4p2rcd13ifvqe1g","pricing_plan_id":"cebpf4jnsgd1na2vs0mg"},{"bike_id":"f84072f6-0d4b-4710-aa00-b30e361df5ed","system_id":"levelo_inurba_marseille","lat":43.290352,"lon":5.375561,"is_reserved":false,"is_disabled":false,"rental_uris":{"android":"levelo://app?vid=f84072f6-0d4b-4710-aa00-b30e361df5ed","ios":"levelo://app?vid=f84072f6-0d4b-4710-aa00-b30e361df5ed"},"vehicle_type_id":"4","last_reported":1748635876,"current_range_meters":16400,"station_id":"ce4bh692rcd13ifvqe90","pricing_plan_id":"cebpf4jnsgd1na2vs0mg"},{"bike_id":"cfdb39f4-02d6-4743-91e2-3145b68ddf94","system_id":"levelo_inurba_marseille","lat":43.26182,"lon":5.37439,"is_reserved":false,"is_disabled":false,"rental_uris":{"android":"levelo://app?vid=cfdb39f4-02d6-4743-91e2-3145b68ddf94","ios":"levelo://app?vid=cfdb39f4-02d6-4743-91e2-3145b68ddf94"},"vehicle_type_id":"4","last_reported":1748635876,"current_range_meters":16400,"station_id":"ce4bhgp2rcd13ifvqfc0","pricing_plan_id":"cebpf4jnsgd1na2vs0mg"},{"bike_id":"98c649e0-2bae-46eb-9e4d-669548a5301f","system_id":"levelo_inurba_marseille","lat":43.25114,"lon":5.4032,"is_reserved":false,"is_disabled":false,"rental_uris":{"android":"levelo://app?vid=98c649e0-2bae-46eb-9e4d-669548a5301f","ios":"levelo://app?vid=98c649e0-2bae-46eb-9e4d-669548a5301f"},"vehicle_type_id":"4","last_reported":1748635876,"current_range_meters":16400,"station_id":"ce4bhlh2rcd13ifvqgig","pricing_plan_id":"cebpf4jnsgd1na2vs0mg"},{"bike_id":"6b9bcff0-171d-4c1a-b5be-6f1982ded5c1","system_id":"levelo_inurba_marseille","lat":43.29552,"lon":5.422857,"is_reserved":false,"is_disabled":false,"rental_uris":{"android":"levelo://app?vid=6b9bcff0-171d-4c1a-b5be-6f1982ded5c1","ios":"levelo://app?vid=6b9bcff0-171d-4c1a-b5be-6f1982ded5c1"},"vehicle_type_id":"4","last_reported":1748635876,"current_range_meters":16400,"station_id":"ce4bhph2rcd13ifvqhdg","pricing_plan_id":"cebpf4jnsgd1na2vs0mg"},{"bike_id":"a1afee0d-636a-4145-8e38-9b2384426a66","system_id":"levelo_inurba_marseille","lat":43.32293,"lon":5.38278,"is_reserved":false,"is_disabled":false,"rental_uris":{"android":"levelo://app?vid=a1afee0d-636a-4145-8e38-9b2384426a66","ios":"levelo://app?vid=a1afee0d-636a-4145-8e38-9b2384426a66"},"vehicle_type_id":"4","last_reported":1748635876,"current_range_meters":16400,"station_id":"ce4bhr12rcd13ifvqhqg","pricing_plan_id":"cebpf4jnsgd1na2vs0mg"},