{"last_updated":1774982789,"ttl":60,"version":"2.2","data":{"bikes":[{"bike_id":"c0eec902-074b-4a18-af47-ff048b653a5e","system_id":"levelo_inurba_marseille","lat":43.28479,"lon":5.48389,"is_reserved":false,"is_disabled":false,"rental_uris":{"android":"levelo://app?vid=c0eec902-074b-4a18-af47-ff048b653a5e","ios":"levelo://app?vid=c0eec902-074b-4a18-af47-ff048b653a5e"},"vehicle_type_id":"4","last_reported":1774982790,"current_range_meters":2800,"station_id":"","pricing_plan_id":"cebpf4jnsgd1na2vs0mg"},{"bike_id":"a1c60e7d-675b-42ec-b64d-6cbe8b2b71be","system_id":"levelo_inurba_marseille","lat":43.24653,"lon":5.38928,"is_reserved":false,"is_disabled":false,"rental_uris":{"android":"levelo://app?vid=a1c60e7d-675b-42ec-b64d-6cbe8b2b71be","ios":"levelo://app?vid=a1c60e7d-675b-42ec-b64d-6cbe8b2b71be"},"vehicle_type_id":"4","last_reported":1774982790,"current_range_meters":2800,"station_id":"ce4bhg12rcd13ifvqf60","pricing_plan_id":"cebpf4jnsgd1na2vs0mg"},{"bike_id":"802ebf0e-d6f3-45c3-b626-5c3ce5f846f7","system_id":"levelo_inurba_marseille","lat":43.31155,"lon":5.38737,"is_reserved":false,"is_disabled":false,"rental_uris":{"android":"levelo://app?vid=802ebf0e-d6f3-45c3-b626-5c3ce5f846f7","ios":"levelo://app?vid=802ebf0e-d6f3-45c3-b626-5c3ce5f846f7"},"vehicle_type_id":"4","last_reported":1774982790,"current_range_meters":2800,"station_id":"ce4bgv12rcd13ifvqcp0","pricing_plan_id":"cebpf4jnsgd1na2vs0mg"},{"bike_id":"b7c5873e-aa22-4c77-858a-6519ee42a1d4","system_id":"levelo_inurba_marseille","lat":43.28939,"lon":5.36639,"is_reserved":false,"is_disabled":false,"rental_uris":{"android":"levelo://app?vid=b7c5873e-aa22-4c77-858a-6519ee42a1d4","ios":"levelo://app?vid=b7c5873e-aa22-4c77-858a-6519ee42a1d4"},"vehicle_type_id":"4","last_reported":1774982790,"current_range_meters":2800,"station_id":"ce4bhap2rcd13ifvqek0","pricing_plan_id":"cebpf4jnsgd1na2vs0mg"},{"bike_id":"6b5d9b37-35fb-4067-b3d8-82865c9fcc9a","system_id":"levelo_inurba_marseille","lat":43.30562,"lon":5.36535,"is_reserved":false,"is_disabled":false,"rental_uris":{"android":"levelo://app?vid=6b5d9b37-35fb-4067-b3d8-82865c9fcc9a","ios":"levelo://app?vid=6b5d9b37-35fb-4067-b3d8-82865c9fcc9a"},"vehicle_type_id":"4","last_reported":1774982790,"current_range_meters":2800,"station_id":"ce4bgs12rcd13ifvqcag","pricing_plan_id":"cebpf4jnsgd1na2vs0mg"},{"bike_id":"51c77f5c-e411-4ff3-929b-a889e22a453e","system_id":"levelo_inurba_marseille","lat":43.26956,"lon":5.38631,"is_reserved":false,"is_disabled":false,"rental_uris":{"android":"levelo://app?vid=51c77f5c-e411-4ff3-929b-a889e22a453e","ios":"levelo://app?vid=51c77f5c-e411-4ff3-929b-a889e22a453e"},"vehicle_type_id":"4","last_reported":1774982790,"current_range_meters":2800,"station_id":"ce4bhh92rcd13ifvqfh0","pricing_plan_id":"cebpf4jnsgd1na2vs0mg"},{"bike_id":"4081b197-96c6-4b93-8eb6-d5074f1159ae","system_id":"levelo_inurba_marseille","lat":43.2437,"lon":5.37073,"is_reserved":false,"is_disabled":false,"rental_uris":{"android":"levelo://app?vid=4081b197-96c6-4b93-8eb6-d5074f1159ae","ios":"levelo://app?vid=4081b197-96c6-4b93-8eb6-d5074f1159ae"},"vehicle_type_id":"4","last_reported":1774982790,"current_range_meters":2800,"station_id":"ce4bhhh2rcd13ifvqfk0","pricing_plan_id":"cebpf4jnsgd1na2vs0mg"},{"bike_id":"2927f07c-b234-4097-94c4-3cfcf9c927ca","system_id":"levelo_inurba_marseille","lat":43.23791,"lon":5.36633,"is_reserved":false,"is_disabled":false,"rental_uris":{"android":"levelo://app?vid=2927f07c-b234-4097-94c4-3cfcf9c927ca","ios":"levelo://app?vid=2927f07c-b234-4097-94c4-3cfcf9c927ca"},"vehicle_type_id":"4","last_reported":1774982790,"current_range_meters":2800,"station_id":"st_d3nk18o9ro0c73en2l3g","pricing_plan_id":"cebpf4jnsgd1na2vs0mg"},{"bike_id":"035bd15e-0ff6-4ec2-9be8-67c77c82c2df","system_id":"levelo_inurba_marseille","lat":43.2418,"lon":5.39733,"is_reserved":false,"is_disabled":false,"rental_uris":{"android":"levelo://app?vid=035bd15e-0ff6-4ec2-9be8-67c77c82c2df","ios":"levelo://app?vid=035bd15e-0ff6-4ec2-9be8-67c77c82c2df"},"vehicle_type_id":"4","last_reported":1774982790,"current_range_meters":2800,"station_id":"ce4bhn12rcd13ifvqgpg","pricing_plan_id":"cebpf4jnsgd1na2vs0mg"},{"bike_id":"60535554-f646-4a1d-b465-c1c23373de37","system_id":"levelo_inurba_marseille","lat":43.28032,"lon":5.42165,"is_reserved":false,"is_disabled":false,"rental_uris":{"android":"levelo://app?vid=60535554-f646-4a1d-b465-c1c23373de37","ios":"levelo://app?vid=60535554-f646-4a1d-b465-c1c23373de37"},"vehicle_type_id":"4","last_reported":1774982790,"current_range_meters":3200,"station_id":"","pricing_plan_id":"cebpf4jnsgd1na2vs0mg"},{"bike_id":"1491241c-8c3e-4a9b-b8e6-e3edf27f84cb","system_id":"levelo_inurba_marseille","lat":43.29599,"lon":5.38101,"is_reserved":false,"is_disabled":false,"rental_uris":{"android":"levelo://app?vid=1491241c-8c3e-4a9b-b8e6-e3edf27f84cb","ios":"levelo://app?vid=1491241c-8c3e-4a9b-b8e6-e3edf27f84cb"},"vehicle_type_id":"4","last_reported":1774982790,"current_range_meters":3200,"station_id":"ce4bgl12rcd13ifvqbo0","pricing_plan_id":"cebpf4jnsgd1na2vs0mg"},{"bike_id":"8cf4421d-02a3-49be-a472-e5edfc88d890","system_id":"levelo_inurba_marseille","lat":43.24694,"lon":5.38173,"is_reserved":false,"is_disabled":false,"rental_uris":{"android":"levelo://app?vid=8cf4421d-02a3-49be-a472-e5edfc88d890","ios":"levelo://app?vid=8cf4421d-02a3-49be-a472-e5edfc88d890"},"vehicle_type_id":"4","last_reported":1774982790,"current_range_meters":3200,"station_id":"ce4bhih2rcd13ifvqfr0","pricing_plan_id":"cebpf4jnsgd1na2vs0mg"},{"bike_id":"fd90adeb-db2d-4e65-bfd6-723a336eb566","system_id":"levelo_inurba_marseille","lat":43.25567,"lon":5.38257,"is_reserved":false,"is_disabled":false,"rental_uris":{"android":"levelo://app?vid=fd90adeb-db2d-4e65-bfd6-723a336eb566","ios":"levelo://app?vid=fd90adeb-db2d-4e65-bfd6-723a336eb566"},"vehicle_type_id":"4","last_reported":1774982790,"current_range_meters":3200,"station_id":"ce4bhih2rcd13ifvqfs0","pricing_plan_id":"cebpf4jnsgd1na2vs0mg"},{"bike_id":"3ac0129c-9c97-4af6-b6ad-c66c14a5c227","system_id":"levelo_inurba_marseille","lat":43.28485,"lon":5.48389,"is_reserved":false,"is_disabled":false,"rental_uris":{"android":"levelo://app?vid=3ac0129c-9c97-4af6-b6ad-c66c14a5c227","ios":"levelo://app?vid=3ac0129c-9c97-4af6-b6ad-c66c14a5c227"},"vehicle_type_id":"4","last_reported":1774982790,"current_range_meters":3200,"station_id":"","pricing_plan_id":"cebpf4jnsgd1na2vs0mg"},{"bike_id":"a37406ca-1e3a-4efd-8f2e-73eb62df1e35","system_id":"levelo_inurba_marseille","lat":43.297079,"lon":5.376955,"is_reserved":false,"is_disabled":false,"rental_uris":{"android":"levelo://app?vid=a37406ca-1e3a-4efd-8f2e-73eb62df1e35","ios":"levelo://app?vid=a37406ca-1e3a-4efd-8f2e-73eb62df1e35"},"vehicle_type_id":"4","last_reported":1774982790,"current_range_meters":3200,"station_id":"ce4bgkh2rcd13ifvqbl0","pricing_plan_id":"cebpf4jnsgd1na2vs0mg"},{"bike_id":"4d667ae4-b547-4cca-991c-1e232d16e2e1","system_id":"levelo_inurba_marseille","lat":43.24166,"lon":5.36415,"is_reserved":false,"is_disabled":false,"rental_uris":{"android":"levelo://app?vid=4d667ae4-b547-4cca-991c-1e232d16e2e1","ios":"levelo://app?vid=4d667ae4-b547-4cca-991c-1e232d16e2e1"},"vehicle_type_id":"4","last_reported":1774982790,"current_range_meters":3600,"station_id":"cpo36qri1sfpv3e86is0","pricing_plan_id":"cebpf4jnsgd1na2vs0mg"},{"bike_id":"7cefc45d-38f5-45cf-a99c-dfb4be1018fe","system_id":"levelo_inurba_marseille","lat":43.24492,"lon":5.42585,"is_reserved":false,"is_disabled":false,"rental_uris":{"android":"levelo://app?vid=7cefc45d-38f5-45cf-a99c-dfb4be1018fe","ios":"levelo://app?vid=7cefc45d-38f5-45cf-a99c-dfb4be1018fe"},"vehicle_type_id":"4","last_reported":1774982790,"current_range_meters":3600,"station_id":"st_d4a3vfp97mjs738cd8kg","pricing_plan_id":"cebpf4jnsgd1na2vs0mg"},{"bike_id":"693d357b-8769-457b-8350-604c7ee8ccc3","system_id":"levelo_inurba_marseille","lat":43.26169,"lon":5.40378,"is_reserved":false,"is_disabled":true,"rental_uris":{"android":"levelo://app?vid=693d357b-8769-457b-8350-604c7ee8ccc3","ios":"levelo://app?vid=693d357b-8769-457b-8350-604c7ee8ccc3"},"vehicle_type_id":"4","last_reported":1774982790,"current_range_meters":3600,"station_id":"ce4bhmh2rcd13ifvqgmg","pricing_plan_id":"cebpf4jnsgd1na2vs0mg"},{"bike_id":"fe2c2d4e-ad0a-4ad1-b727-7e9a7d4ef824","system_id":"levelo_inurba_marseille","lat":43.28484,"lon":5.48406,"is_reserved":false,"is_disabled":false,"rental_uris":{"android":"levelo://app?vid=fe2c2d4e-ad0a-4ad1-b727-7e9a7d4ef824","ios":"levelo://app?vid=fe2c2d4e-ad0a-4ad1-b727-7e9a7d4ef824"},"vehicle_type_id":"4","last_reported":1774982790,"current_range_meters":3600,"station_id":"","pricing_plan_id":"cebpf4jnsgd1na2vs0mg"},{"bike_id":"fa2139d7-56b5-4664-870b-94753042ac1d","system_id":"levelo_inurba_marseille","lat":43.21194,"lon":5.35077,"is_reserved":false,"is_disabled":false,"rental_uris":{"android":"levelo://app?vid=fa2139d7-56b5-4664-870b-94753042ac1d","ios":"levelo://app?vid=fa2139d7-56b5-4664-870b-94753042ac1d"},"vehicle_type_id":"4","last_reported":1774982790,"current_range_meters":3600,"station_id":"st_cvj6sg6p6f1abm77japg","pricing_plan_id":"cebpf4jnsgd1na2vs0mg"},{"bike_id":"8d26c30b-3847-405c-8066-75bf15658130","system_id":"levelo_inurba_marseille","lat":43.29841,"lon":5.36462,"is_reserved":false,"is_disabled":false,"rental_uris":{"android":"levelo://app?vid=8d26c30b-3847-405c-8066-75bf15658130","ios":"levelo://app?vid=8d26c30b-3847-405c-8066-75bf15658130"},"vehicle_type_id":"4","last_reported":1774982790,"current_range_meters":3600,"station_id":"","pricing_plan_id":"cebpf4jnsgd1na2vs0mg"},{"bike_id":"bc7fd122-9e18-4104-a193-a96aeb3fb366","system_id":"levelo_inurba_marseille","lat":43.31763,"lon":5.39017,"is_reserved":false,"is_disabled":false,"rental_uris":{"android":"levelo://app?vid=bc7fd122-9e18-4104-a193-a96aeb3fb366","ios":"levelo://app?vid=bc7fd122-9e18-4104-a193-a96aeb3fb366"},"vehicle_type_id":"4","last_reported":1774982790,"current_range_meters":3600,"station_id":"ce4bhqp2rcd13ifvqhng","pricing_plan_id":"cebpf4jnsgd1na2vs0mg"},{"bike_id":"86e75f3c-23b3-46c4-9204-578544ad8e9a","system_id":"levelo_inurba_marseille","lat":43.23354,"lon":5.41229,"is_reserved":false,"is_disabled":false,"rental_uris":{"android":"levelo://app?vid=86e75f3c-23b3-46c4-9204-578544ad8e9a","ios":"levelo://app?vid=86e75f3c-23b3-46c4-9204-578544ad8e9a"},"vehicle_type_id":"4","last_reported":1774982790,"current_range_meters":3600,"station_id":"st_d75pvndhf9lc73cqq3eg","pricing_plan_id":"cebpf4jnsgd1na2vs0mg"},{"bike_id":"03ec0070-1d93-4ac5-87d3-21d47edad7cd","system_id":"levelo_inurba_marseille","lat":43.23816,"lon":5.3662,"is_reserved":false,"is_disabled":false,"rental_uris":{"android":"levelo://app?vid=03ec0070-1d93-4ac5-87d3-21d47edad7cd","ios":"levelo://app?vid=03ec0070-1d93-4ac5-87d3-21d47edad7cd"},"vehicle_type_id":"4","last_reported":1774982790,"current_range_meters":4000,"station_id":"st_d3nk18o9ro0c73en2l3g","pricing_plan_id":"cebpf4jnsgd1na2vs0mg"},{"bike_id":"77c07084-f7b2-4905-ae01-08844f4e22b3","system_id":"levelo_inurba_marseille","lat":43.23892,"lon":5.3746,"is_reserved":false,"is_disabled":false,"rental_uris":{"android":"levelo://app?vid=77c07084-f7b2-4905-ae01-08844f4e22b3","ios":"levelo://app?vid=77c07084-f7b2-4905-ae01-08844f4e22b3"},"vehicle_type_id":"4","last_reported":1774982790,"current_range_meters":4000,"station_id":"st_d6sm7csbq4hs73f8fpjg","pricing_plan_id":"cebpf4jnsgd1na2vs0mg"},{"bike_id":"6e893f61-7864-48b6-a8ce-145ec9846be5","system_id":"levelo_inurba_marseille","lat":43.24464,"lon":5.42536,"is_reserved":false,"is_disabled":false,"rental_uris":{"android":"levelo://app?vid=6e893f61-7864-48b6-a8ce-145ec9846be5","ios":"levelo://app?vid=6e893f61-7864-48b6-a8ce-145ec9846be5"},"vehicle_type_id":"4","last_reported":1774982790,"current_range_meters":4000,"station_id":"st_d4a3vfp97mjs738cd8kg","pricing_plan_id":"cebpf4jnsgd1na2vs0mg"},{"bike_id":"0c6e6798-e036-48b5-8f51-31ac48e32018","system_id":"levelo_inurba_marseille","lat":43.31215,"lon":5.36893,"is_reserved":false,"is_disabled":false,"rental_uris":{"android":"levelo://app?vid=0c6e6798-e036-48b5-8f51-31ac48e32018","ios":"levelo://app?vid=0c6e6798-e036-48b5-8f51-31ac48e32018"},"vehicle_type_id":"4","last_reported":1774982790,"current_range_meters":4000,"station_id":"ce4bgl92rcd13ifvqbq0","pricing_plan_id":"cebpf4jnsgd1na2vs0mg"},{"bike_id":"8db720bd-c013-47bc-b3e6-6235b86947e2","system_id":"levelo_inurba_marseille","lat":43.22548,"lon":5.41677,"is_reserved":false,"is_disabled":false,"rental_uris":{"android":"levelo://app?vid=8db720bd-c013-47bc-b3e6-6235b86947e2","ios":"levelo://app?vid=8db720bd-c013-47bc-b3e6-6235b86947e2"},"vehicle_type_id":"4","last_reported":1774982790,"current_range_meters":4000,"station_id":"st_d2o4gvlbi1j2169b742g","pricing_plan_id":"cebpf4jnsgd1na2vs0mg"},{"bike_id":"8289ea9c-9f3c-47cc-ae82-8027b0a738ac","system_id":"levelo_inurba_marseille","lat":43.31927,"lon":5.36734,"is_reserved":false,"is_disabled":false,"rental_uris":{"android":"levelo://app?vid=8289ea9c-9f3c-47cc-ae82-8027b0a738ac","ios":"levelo://app?vid=8289ea9c-9f3c-47cc-ae82-8027b0a738ac"},"vehicle_type_id":"4","last_reported":1774982790,"current_range_meters":4000,"station_id":"","pricing_plan_id":"cebpf4jnsgd1na2vs0mg"},{"bike_id":"4809bf2f-3f03-4f8c-b187-08c79e8dd974","system_id":"levelo_inurba_marseille","lat":43.26606,"lon":5.39111,"is_reserved":false,"is_disabled":false,"rental_uris":{"android":"levelo://app?vid=4809bf2f-3f03-4f8c-b187-08c79e8dd974","ios":"levelo://app?vid=4809bf2f-3f03-4f8c-b187-08c79e8dd974"},"vehicle_type_id":"4","last_reported":1774982790,"current_range_meters":4000,"station_id":"","pricing_plan_id":"cebpf4jnsgd1na2vs0mg"},{"bike_id":"cb88b7c0-158f-47d6-b62a-c3ee88f004a1","system_id":"levelo_inurba_marseille","lat":43.24463,"lon":5.42546,"is_reserved":false,"is_disabled":false,"rental_uris":{"android":"levelo://app?vid=cb88b7c0-158f-47d6-b62a-c3ee88f004a1","ios":"levelo://app?vid=cb88b7c0-158f-47d6-b62a-c3ee88f004a1"},"vehicle_type_id":"4","last_reported":1774982790,"current_range_meters":4000,"station_id":"st_d4a3vfp97mjs738cd8kg","pricing_plan_id":"cebpf4jnsgd1na2vs0mg"},{"bike_id":"7e5ed04b-e669-438a-b648-5b6d4494919a","system_id":"levelo_inurba_marseille","lat":43.2534,"lon":5.42154,"is_reserved":false,"is_disabled":false,"rental_uris":{"android":"levelo://app?vid=7e5ed04b-e669-438a-b648-5b6d4494919a","ios":"levelo://app?vid=7e5ed04b-e669-438a-b648-5b6d4494919a"},"vehicle_type_id":"4","last_reported":1774982790,"current_range_meters":4000,"station_id":"st_d2m65c5bi1j21697t3ng","pricing_plan_id":"cebpf4jnsgd1na2vs0mg"},{"bike_id":"eb1f72ea-801a-420a-8b1c-489ce9c73062","system_id":"levelo_inurba_marseille","lat":43.2534,"lon":5.42194,"is_reserved":false,"is_disabled":false,"rental_uris":{"android":"levelo://app?vid=eb1f72ea-801a-420a-8b1c-489ce9c73062","ios":"levelo://app?vid=eb1f72ea-801a-420a-8b1c-489ce9c73062"},"vehicle_type_id":"4","last_reported":1774982790,"current_range_meters":4000,"station_id":"st_d2m65c5bi1j21697t3ng","pricing_plan_id":"cebpf4jnsgd1na2vs0mg"},{"bike_id":"c6ed78e3-3c94-4dd1-b429-a5d8d26a2a1e","system_id":"levelo_inurba_marseille","lat":43.28907,"lon":5.36388,"is_reserved":false,"is_disabled":false,"rental_uris":{"android":"levelo://app?vid=c6ed78e3-3c94-4dd1-b429-a5d8d26a2a1e","ios":"levelo://app?vid=c6ed78e3-3c94-4dd1-b429-a5d8d26a2a1e"},"vehicle_type_id":"4","last_reported":1774982790,"current_range_meters":4400,"station_id":"ce4bhc92rcd13ifvqetg","pricing_plan_id":"cebpf4jnsgd1na2vs0mg"},{"bike_id":"10844d4f-8a2d-46cd-986e-ccf4b3a1143c","system_id":"levelo_inurba_marseille","lat":43.26568,"lon":5.39018,"is_reserved":false,"is_disabled":false,"rental_uris":{"android":"levelo://app?vid=10844d4f-8a2d-46cd-986e-ccf4b3a1143c","ios":"levelo://app?vid=10844d4f-8a2d-46cd-986e-ccf4b3a1143c"},"vehicle_type_id":"4","last_reported":1774982790,"current_range_meters":4400,"station_id":"ce4bhe12rcd13ifvqf30","pricing_plan_id":"cebpf4jnsgd1na2vs0mg"},{"bike_id":"5cd8e3dd-bbf4-4969-9a00-4d81eff7e674","system_id":"levelo_inurba_marseille","lat":43.24154,"lon":5.36383,"is_reserved":false,"is_disabled":false,"rental_uris":{"android":"levelo://app?vid=5cd8e3dd-bbf4-4969-9a00-4d81eff7e674","ios":"levelo://app?vid=5cd8e3dd-bbf4-4969-9a00-4d81eff7e674"},"vehicle_type_id":"4","last_reported":1774982790,"current_range_meters":4400,"station_id":"cpo36qri1sfpv3e86is0","pricing_plan_id":"cebpf4jnsgd1na2vs0mg"},{"bike_id":"cb1709ac-6129-4781-b7ce-4b0441532f28","system_id":"levelo_inurba_marseille","lat":43.23782,"lon":5.36627,"is_reserved":false,"is_disabled":false,"rental_uris":{"android":"levelo://app?vid=cb1709ac-6129-4781-b7ce-4b0441532f28","ios":"levelo://app?vid=cb1709ac-6129-4781-b7ce-4b0441532f28"},"vehicle_type_id":"4","last_reported":1774982790,"current_range_meters":4400,"station_id":"st_d3nk18o9ro0c73en2l3g","pricing_plan_id":"cebpf4jnsgd1na2vs0mg"},{"bike_id":"6a07290c-4d96-493c-bece-412d5cabc671","system_id":"levelo_inurba_marseille","lat":43.28618,"lon":5.35105,"is_reserved":false,"is_disabled":false,"rental_uris":{"android":"levelo://app?vid=6a07290c-4d96-493c-bece-412d5cabc671","ios":"levelo://app?vid=6a07290c-4d96-493c-bece-412d5cabc671"},"vehicle_type_id":"4","last_reported":1774982790,"current_range_meters":4400,"station_id":"ce4bhch2rcd13ifvqeug","pricing_plan_id":"cebpf4jnsgd1na2vs0mg"},{"bike_id":"46908cee-d39c-4432-9f8a-bab93c874af1","system_id":"levelo_inurba_marseille","lat":43.24668,"lon":5.38164,"is_reserved":false,"is_disabled":false,"rental_uris":{"android":"levelo://app?vid=46908cee-d39c-4432-9f8a-bab93c874af1","ios":"levelo://app?vid=46908cee-d39c-4432-9f8a-bab93c874af1"},"vehicle_type_id":"4","last_reported":1774982790,"current_range_meters":4400,"station_id":"ce4bhih2rcd13ifvqfr0","pricing_plan_id":"cebpf4jnsgd1na2vs0mg"},{"bike_id":"e2418595-7f4b-45d8-aa70-ed3c1c37c061","system_id":"levelo_inurba_marseille","lat":43.27819,"lon":5.40701,"is_reserved":false,"is_disabled":false,"rental_uris":{"android":"levelo://app?vid=e2418595-7f4b-45d8-aa70-ed3c1c37c061","ios":"levelo://app?vid=e2418595-7f4b-45d8-aa70-ed3c1c37c061"},"vehicle_type_id":"4","last_reported":1774982790,"current_range_meters":4400,"station_id":"ce4bhnh2rcd13ifvqgtg","pricing_plan_id":"cebpf4jnsgd1na2vs0mg"},{"bike_id":"3ec9244a-c2f3-4c95-bd2f-33d6915d1d30","system_id":"levelo_inurba_marseille","lat":43.25121,"lon":5.40343,"is_reserved":false,"is_disabled":false,"rental_uris":{"android":"levelo://app?vid=3ec9244a-c2f3-4c95-bd2f-33d6915d1d30","ios":"levelo://app?vid=3ec9244a-c2f3-4c95-bd2f-33d6915d1d30"},"vehicle_type_id":"4","last_reported":1774982790,"current_range_meters":4400,"station_id":"ce4bhlh2rcd13ifvqgig","pricing_plan_id":"cebpf4jnsgd1na2vs0mg"},{"bike_id":"6cb80350-a12f-414d-8a45-edb4d9decdf0","system_id":"levelo_inurba_marseille","lat":43.28527,"lon":5.44112,"is_reserved":false,"is_disabled":false,"rental_uris":{"android":"levelo://app?vid=6cb80350-a12f-414d-8a45-edb4d9decdf0","ios":"levelo://app?vid=6cb80350-a12f-414d-8a45-edb4d9decdf0"},"vehicle_type_id":"4","last_reported":1774982790,"current_range_meters":4400,"station_id":"st_d3j3df2ikq2c7380ej80","pricing_plan_id":"cebpf4jnsgd1na2vs0mg"},{"bike_id":"372b8b50-b0a7-4341-a976-61dda51c6bb2","system_id":"levelo_inurba_marseille","lat":43.26192,"lon":5.37451,"is_reserved":false,"is_disabled":false,"rental_uris":{"android":"levelo://app?vid=372b8b50-b0a7-4341-a976-61dda51c6bb2","ios":"levelo://app?vid=372b8b50-b0a7-4341-a976-61dda51c6bb2"},"vehicle_type_id":"4","last_reported":1774982790,"current_range_meters":4400,"station_id":"ce4bhgp2rcd13ifvqfc0","pricing_plan_id":"cebpf4jnsgd1na2vs0mg"},{"bike_id":"72d9b7c8-bad1-4689-9b0f-2502537cdda9","system_id":"levelo_inurba_marseille","lat":43.25536,"lon":5.37582,"is_reserved":false,"is_disabled":false,"rental_uris":{"android":"levelo://app?vid=72d9b7c8-bad1-4689-9b0f-2502537cdda9","ios":"levelo://app?vid=72d9b7c8-bad1-4689-9b0f-2502537cdda9"},"vehicle_type_id":"4","last_reported":1774982790,"current_range_meters":4400,"station_id":"","pricing_plan_id":"cebpf4jnsgd1na2vs0mg"},{"bike_id":"e75d5ab0-201a-49aa-aee4-ccc6a30f5664","system_id":"levelo_inurba_marseille","lat":43.29527,"lon":5.38674,"is_reserved":false,"is_disabled":false,"rental_uris":{"android":"levelo://app?vid=e75d5ab0-201a-49aa-aee4-ccc6a30f5664","ios":"levelo://app?vid=e75d5ab0-201a-49aa-aee4-ccc6a30f5664"},"vehicle_type_id":"4","last_reported":1774982790,"current_range_meters":4400,"station_id":"","pricing_plan_id":"cebpf4jnsgd1na2vs0mg"},{"bike_id":"227cc43c-6fb3-476a-abb2-74c924061fb2","system_id":"levelo_inurba_marseille","lat":43.22549,"lon":5.41634,"is_reserved":false,"is_disabled":false,"rental_uris":{"android":"levelo://app?vid=227cc43c-6fb3-476a-abb2-74c924061fb2","ios":"levelo://app?vid=227cc43c-6fb3-476a-abb2-74c924061fb2"},"vehicle_type_id":"4","last_reported":1774982790,"current_range_meters":4400,"station_id":"st_d2o4gvlbi1j2169b742g","pricing_plan_id":"cebpf4jnsgd1na2vs0mg"},{"bike_id":"f54bfc49-c52e-433a-9661-97eeb8e5a586","system_id":"levelo_inurba_marseille","lat":43.238,"lon":5.36686,"is_reserved":false,"is_disabled":false,"rental_uris":{"android":"levelo://app?vid=f54bfc49-c52e-433a-9661-97eeb8e5a586","ios":"levelo://app?vid=f54bfc49-c52e-433a-9661-97eeb8e5a586"},"vehicle_type_id":"4","last_reported":1774982790,"current_range_meters":4400,"station_id":"st_d3nk18o9ro0c73en2l3g","pricing_plan_id":"cebpf4jnsgd1na2vs0mg"},{"bike_id":"8b4108a6-c7e2-4043-b547-cb1e59a8963a","system_id":"levelo_inurba_marseille","lat":43.24329,"lon":5.40862,"is_reserved":false,"is_disabled":false,"rental_uris":{"android":"levelo://app?vid=8b4108a6-c7e2-4043-b547-cb1e59a8963a","ios":"levelo://app?vid=8b4108a6-c7e2-4043-b547-cb1e59a8963a"},"vehicle_type_id":"4","last_reported":1774982790,"current_range_meters":4400,"station_id":"","pricing_plan_id":"cebpf4jnsgd1na2vs0mg"},{"bike_id":"4977f95e-718a-4120-8926-2364059fe1a3","system_id":"levelo_inurba_marseille","lat":43.27268,"lon":5.40225,"is_reserved":false,"is_disabled":false,"rental_uris":{"android":"levelo://app?vid=4977f95e-718a-4120-8926-2364059fe1a3","ios":"levelo://app?vid=4977f95e-718a-4120-8926-2364059fe1a3"},"vehicle_type_id":"4","last_reported":1774982790,"current_range_meters":4800,"station_id":"","pricing_plan_id":"cebpf4jnsgd1na2vs0mg"},{"bike_id":"f6b886d7-e687-4b55-a89e-81d14f976fb5","system_id":"levelo_inurba_marseille","lat":43.3046,"lon":5.37903,"is_reserved":false,"is_disabled":false,"rental_uris":{"android":"levelo://app?vid=f6b886d7-e687-4b55-a89e-81d14f976fb5","ios":"levelo://app?vid=f6b886d7-e687-4b55-a89e-81d14f976fb5"},"vehicle_type_id":"4","last_reported":1774982790,"current_range_meters":4800,"station_id":"ce4bgup2rcd13ifvqcn0","pricing_plan_id":"cebpf4jnsgd1na2vs0mg"},{"bike_id":"41df885a-25a0-4c50-b884-d0b249d2a67f","system_id":"levelo_inurba_marseille","lat":43.26482,"lon":5.3952,"is_reserved":false,"is_disabled":false,"rental_uris":{"android":"levelo://app?vid=41df885a-25a0-4c50-b884-d0b249d2a67f","ios":"levelo://app?vid=41df885a-25a0-4c50-b884-d0b249d2a67f"},"vehicle_type_id":"4","last_reported":1774982790,"current_range_meters":4800,"station_id":"ce4bhi12rcd13ifvqfq0","pricing_plan_id":"cebpf4jnsgd1na2vs0mg"},{"bike_id":"f2ac8faa-b8e8-4025-bb6d-4e45873c4422","system_id":"levelo_inurba_marseille","lat":43.23151,"lon":5.43724,"is_reserved":false,"is_disabled":false,"rental_uris":{"android":"levelo://app?vid=f2ac8faa-b8e8-4025-bb6d-4e45873c4422","ios":"levelo://app?vid=f2ac8faa-b8e8-4025-bb6d-4e45873c4422"},"vehicle_type_id":"4","last_reported":1774982790,"current_range_meters":4800,"station_id":"ce4bhmp2rcd13ifvqgog","pricing_plan_id":"cebpf4jnsgd1na2vs0mg"},{"bike_id":"59afedb9-e555-44c6-aa2c-538e94b18fca","system_id":"levelo_inurba_marseille","lat":43.26557,"lon":5.37285,"is_reserved":false,"is_disabled":false,"rental_uris":{"android":"levelo://app?vid=59afedb9-e555-44c6-aa2c-538e94b18fca","ios":"levelo://app?vid=59afedb9-e555-44c6-aa2c-538e94b18fca"},"vehicle_type_id":"4","last_reported":1774982790,"current_range_meters":4800,"station_id":"ce4bhg12rcd13ifvqf70","pricing_plan_id":"cebpf4jnsgd1na2vs0mg"},{"bike_id":"15b7ddad-a924-49a0-8b43-b64c5c3893a5","system_id":"levelo_inurba_marseille","lat":43.28145,"lon":5.42665,"is_reserved":false,"is_disabled":false,"rental_uris":{"android":"levelo://app?vid=15b7ddad-a924-49a0-8b43-b64c5c3893a5","ios":"levelo://app?vid=15b7ddad-a924-49a0-8b43-b64c5c3893a5"},"vehicle_type_id":"4","last_reported":1774982790,"current_range_meters":4800,"station_id":"ce4bhnh2rcd13ifvqgug","pricing_plan_id":"cebpf4jnsgd1na2vs0mg"},{"bike_id":"34e5e96c-68fe-4408-9ab0-fa9cd7e8a6c0","system_id":"levelo_inurba_marseille","lat":43.29893,"lon":5.40947,"is_reserved":false,"is_disabled":false,"rental_uris":{"android":"levelo://app?vid=34e5e96c-68fe-4408-9ab0-fa9cd7e8a6c0","ios":"levelo://app?vid=34e5e96c-68fe-4408-9ab0-fa9cd7e8a6c0"},"vehicle_type_id":"4","last_reported":1774982790,"current_range_meters":4800,"station_id":"","pricing_plan_id":"cebpf4jnsgd1na2vs0mg"},{"bike_id":"086d63b3-14b3-4b23-b0f3-74a4d3949726","system_id":"levelo_inurba_marseille","lat":43.29048,"lon":5.35898,"is_reserved":false,"is_disabled":false,"rental_uris":{"android":"levelo://app?vid=086d63b3-14b3-4b23-b0f3-74a4d3949726","ios":"levelo://app?vid=086d63b3-14b3-4b23-b0f3-74a4d3949726"},"vehicle_type_id":"4","last_reported":1774982790,"current_range_meters":4800,"station_id":"ce4bha92rcd13ifvqeg0","pricing_plan_id":"cebpf4jnsgd1na2vs0mg"},{"bike_id":"6123981a-0c16-4602-932e-ff2ee89ff291","system_id":"levelo_inurba_marseille","lat":43.28356,"lon":5.38629,"is_reserved":false,"is_disabled":false,"rental_uris":{"android":"levelo://app?vid=6123981a-0c16-4602-932e-ff2ee89ff291","ios":"levelo://app?vid=6123981a-0c16-4602-932e-ff2ee89ff291"},"vehicle_type_id":"4","last_reported":1774982790,"current_range_meters":4800,"station_id":"ce4bh492rcd13ifvqdvg","pricing_plan_id":"cebpf4jnsgd1na2vs0mg"},{"bike_id":"ff61129e-63f6-4626-b5f1-6db146bd046c","system_id":"levelo_inurba_marseille","lat":43.32511,"lon":5.38318,"is_reserved":false,"is_disabled":false,"rental_uris":{"android":"levelo://app?vid=ff61129e-63f6-4626-b5f1-6db146bd046c","ios":"levelo://app?vid=ff61129e-63f6-4626-b5f1-6db146bd046c"},"vehicle_type_id":"4","last_reported":1774982790,"current_range_meters":4800,"station_id":"st_d4asgbiv49dc73anf9m0","pricing_plan_id":"cebpf4jnsgd1na2vs0mg"},{"bike_id":"e61a3b02-8828-47a8-8796-a0480c283119","system_id":"levelo_inurba_marseille","lat":43.22919,"lon":5.35415,"is_reserved":false,"is_disabled":false,"rental_uris":{"android":"levelo://app?vid=e61a3b02-8828-47a8-8796-a0480c283119","ios":"levelo://app?vid=e61a3b02-8828-47a8-8796-a0480c283119"},"vehicle_type_id":"4","last_reported":1774982790,"current_range_meters":4800,"station_id":"cpo3532slgdg3j2ikp40","pricing_plan_id":"cebpf4jnsgd1na2vs0mg"},{"bike_id":"afa6cc87-6cbb-4ee9-8163-e8158def5823","system_id":"levelo_inurba_marseille","lat":43.3248,"lon":5.36563,"is_reserved":false,"is_disabled":false,"rental_uris":{"android":"levelo://app?vid=afa6cc87-6cbb-4ee9-8163-e8158def5823","ios":"levelo://app?vid=afa6cc87-6cbb-4ee9-8163-e8158def5823"},"vehicle_type_id":"4","last_reported":1774982790,"current_range_meters":4800,"station_id":"ce4bhs12rcd13ifvqhvg","pricing_plan_id":"cebpf4jnsgd1na2vs0mg"},{"bike_id":"145da0be-3016-4be6-8263-0e24c3e5d1fa","system_id":"levelo_inurba_marseille","lat":43.23962,"lon":5.36629,"is_reserved":false,"is_disabled":false,"rental_uris":{"android":"levelo://app?vid=145da0be-3016-4be6-8263-0e24c3e5d1fa","ios":"levelo://app?vid=145da0be-3016-4be6-8263-0e24c3e5d1fa"},"vehicle_type_id":"4","last_reported":1774982790,"current_range_meters":4800,"station_id":"ce4bhi12rcd13ifvqfp0","pricing_plan_id":"cebpf4jnsgd1na2vs0mg"},{"bike_id":"a2df5bbc-915e-4be4-8861-be4d46ce41c0","system_id":"levelo_inurba_marseille","lat":43.2848,"lon":5.48397,"is_reserved":false,"is_disabled":false,"rental_uris":{"android":"levelo://app?vid=a2df5bbc-915e-4be4-8861-be4d46ce41c0","ios":"levelo://app?vid=a2df5bbc-915e-4be4-8861-be4d46ce41c0"},"vehicle_type_id":"4","last_reported":1774982790,"current_range_meters":5600,"station_id":"","pricing_plan_id":"cebpf4jnsgd1na2vs0mg"},{"bike_id":"34dcee68-d006-45ee-9b84-5d8a65527207","system_id":"levelo_inurba_marseille","lat":43.29916,"lon":5.37473,"is_reserved":false,"is_disabled":false,"rental_uris":{"android":"levelo://app?vid=34dcee68-d006-45ee-9b84-5d8a65527207","ios":"levelo://app?vid=34dcee68-d006-45ee-9b84-5d8a65527207"},"vehicle_type_id":"4","last_reported":1774982790,"current_range_meters":5600,"station_id":"ce4bgjh2rcd13ifvqbg0","pricing_plan_id":"cebpf4jnsgd1na2vs0mg"},{"bike_id":"9b3ac350-7107-4177-bd69-acef9422df15","system_id":"levelo_inurba_marseille","lat":43.2844,"lon":5.39194,"is_reserved":false,"is_disabled":false,"rental_uris":{"android":"levelo://app?vid=9b3ac350-7107-4177-bd69-acef9422df15","ios":"levelo://app?vid=9b3ac350-7107-4177-bd69-acef9422df15"},"vehicle_type_id":"4","last_reported":1774982790,"current_range_meters":5600,"station_id":"ce4bhoh2rcd13ifvqh5g","pricing_plan_id":"cebpf4jnsgd1na2vs0mg"},{"bike_id":"eac6a123-5f69-4eb4-aa4b-cdeaecf10b56","system_id":"levelo_inurba_marseille","lat":43.30561,"lon":5.36534,"is_reserved":false,"is_disabled":false,"rental_uris":{"android":"levelo://app?vid=eac6a123-5f69-4eb4-aa4b-cdeaecf10b56","ios":"levelo://app?vid=eac6a123-5f69-4eb4-aa4b-cdeaecf10b56"},"vehicle_type_id":"4","last_reported":1774982790,"current_range_meters":5600,"station_id":"ce4bgs12rcd13ifvqcag","pricing_plan_id":"cebpf4jnsgd1na2vs0mg"},{"bike_id":"36c4435a-33c4-468e-9d41-4f8af8452ba9","system_id":"levelo_inurba_marseille","lat":43.29532,"lon":5.39015,"is_reserved":false,"is_disabled":false,"rental_uris":{"android":"levelo://app?vid=36c4435a-33c4-468e-9d41-4f8af8452ba9","ios":"levelo://app?vid=36c4435a-33c4-468e-9d41-4f8af8452ba9"},"vehicle_type_id":"4","last_reported":1774982790,"current_range_meters":5600,"station_id":"ce4bh3p2rcd13ifvqdp0","pricing_plan_id":"cebpf4jnsgd1na2vs0mg"},{"bike_id":"1aa18052-e7e0-4185-b467-3a7da5c3e7aa","system_id":"levelo_inurba_marseille","lat":43.29765,"lon":5.37064,"is_reserved":false,"is_disabled":false,"rental_uris":{"android":"levelo://app?vid=1aa18052-e7e0-4185-b467-3a7da5c3e7aa","ios":"levelo://app?vid=1aa18052-e7e0-4185-b467-3a7da5c3e7aa"},"vehicle_type_id":"4","last_reported":1774982790,"current_range_meters":5600,"station_id":"ce4bgop2rcd13ifvqc1g","pricing_plan_id":"cebpf4jnsgd1na2vs0mg"},{"bike_id":"a4c711ce-c48e-4767-b86f-5d87dcdcc4b7","system_id":"levelo_inurba_marseille","lat":43.21755,"lon":5.34617,"is_reserved":false,"is_disabled":false,"rental_uris":{"android":"levelo://app?vid=a4c711ce-c48e-4767-b86f-5d87dcdcc4b7","ios":"levelo://app?vid=a4c711ce-c48e-4767-b86f-5d87dcdcc4b7"},"vehicle_type_id":"4","last_reported":1774982790,"current_range_meters":5600,"station_id":"st_cvj6r9ubvosntc0bgbag","pricing_plan_id":"cebpf4jnsgd1na2vs0mg"},{"bike_id":"5ae1cde3-c020-448f-8cff-83f80611c531","system_id":"levelo_inurba_marseille","lat":43.24461,"lon":5.42547,"is_reserved":false,"is_disabled":false,"rental_uris":{"android":"levelo://app?vid=5ae1cde3-c020-448f-8cff-83f80611c531","ios":"levelo://app?vid=5ae1cde3-c020-448f-8cff-83f80611c531"},"vehicle_type_id":"4","last_reported":1774982790,"current_range_meters":5600,"station_id":"st_d4a3vfp97mjs738cd8kg","pricing_plan_id":"cebpf4jnsgd1na2vs0mg"},{"bike_id":"7807e959-548b-4573-9349-6f8ad219a4a5","system_id":"levelo_inurba_marseille","lat":43.24152,"lon":5.36414,"is_reserved":false,"is_disabled":false,"rental_uris":{"android":"levelo://app?vid=7807e959-548b-4573-9349-6f8ad219a4a5","ios":"levelo://app?vid=7807e959-548b-4573-9349-6f8ad219a4a5"},"vehicle_type_id":"4","last_reported":1774982790,"current_range_meters":5600,"station_id":"cpo36qri1sfpv3e86is0","pricing_plan_id":"cebpf4jnsgd1na2vs0mg"},{"bike_id":"5a4f7890-8175-4ab9-90f4-cdf2ff790e4c","system_id":"levelo_inurba_marseille","lat":43.30219,"lon":5.39461,"is_reserved":false,"is_disabled":false,"rental_uris":{"android":"levelo://app?vid=5a4f7890-8175-4ab9-90f4-cdf2ff790e4c","ios":"levelo://app?vid=5a4f7890-8175-4ab9-90f4-cdf2ff790e4c"},"vehicle_type_id":"4","last_reported":1774982790,"current_range_meters":5600,"station_id":"ce4bh0p2rcd13ifvqd70","pricing_plan_id":"cebpf4jnsgd1na2vs0mg"},{"bike_id":"b2ad8f77-b72f-425d-ae56-6f3d07fd7d34","system_id":"levelo_inurba_marseille","lat":43.33154,"lon":5.37675,"is_reserved":false,"is_disabled":false,"rental_uris":{"android":"levelo://app?vid=b2ad8f77-b72f-425d-ae56-6f3d07fd7d34","ios":"levelo://app?vid=b2ad8f77-b72f-425d-ae56-6f3d07fd7d34"},"vehicle_type_id":"4","last_reported":1774982790,"current_range_meters":5600,"station_id":"st_d46cu089ee8s73dldbu0","pricing_plan_id":"cebpf4jnsgd1na2vs0mg"},{"bike_id":"bb9c9ce8-7ad8-4c58-9c75-429d43a3d175","system_id":"levelo_inurba_marseille","lat":43.24039,"lon":5.36255,"is_reserved":false,"is_disabled":false,"rental_uris":{"android":"levelo://app?vid=bb9c9ce8-7ad8-4c58-9c75-429d43a3d175","ios":"levelo://app?vid=bb9c9ce8-7ad8-4c58-9c75-429d43a3d175"},"vehicle_type_id":"4","last_reported":1774982790,"current_range_meters":5600,"station_id":"","pricing_plan_id":"cebpf4jnsgd1na2vs0mg"},{"bike_id":"8224fee4-1d52-4b11-b16a-70c5a6603dd7","system_id":"levelo_inurba_marseille","lat":43.28469,"lon":5.48411,"is_reserved":false,"is_disabled":false,"rental_uris":{"android":"levelo://app?vid=8224fee4-1d52-4b11-b16a-70c5a6603dd7","ios":"levelo://app?vid=8224fee4-1d52-4b11-b16a-70c5a6603dd7"},"vehicle_type_id":"4","last_reported":1774982790,"current_range_meters":5600,"station_id":"","pricing_plan_id":"cebpf4jnsgd1na2vs0mg"},{"bike_id":"e74b23ce-1b4f-4ade-a0ed-7f0aba996b94","system_id":"levelo_inurba_marseille","lat":43.24686,"lon":5.38174,"is_reserved":false,"is_disabled":false,"rental_uris":{"android":"levelo://app?vid=e74b23ce-1b4f-4ade-a0ed-7f0aba996b94","ios":"levelo://app?vid=e74b23ce-1b4f-4ade-a0ed-7f0aba996b94"},"vehicle_type_id":"4","last_reported":1774982790,"current_range_meters":5600,"station_id":"ce4bhih2rcd13ifvqfr0","pricing_plan_id":"cebpf4jnsgd1na2vs0mg"},{"bike_id":"b542c304-293a-45f1-a562-d7fc7dbf754a","system_id":"levelo_inurba_marseille","lat":43.29482,"lon":5.43303,"is_reserved":false,"is_disabled":false,"rental_uris":{"android":"levelo://app?vid=b542c304-293a-45f1-a562-d7fc7dbf754a","ios":"levelo://app?vid=b542c304-293a-45f1-a562-d7fc7dbf754a"},"vehicle_type_id":"4","last_reported":1774982790,"current_range_meters":6000,"station_id":"st_d3j5ugp08ojc73fj9d10","pricing_plan_id":"cebpf4jnsgd1na2vs0mg"},{"bike_id":"bcc288dd-6942-4899-95ee-d43aed6e21bd","system_id":"levelo_inurba_marseille","lat":43.31369,"lon":5.3678,"is_reserved":false,"is_disabled":false,"rental_uris":{"android":"levelo://app?vid=bcc288dd-6942-4899-95ee-d43aed6e21bd","ios":"levelo://app?vid=bcc288dd-6942-4899-95ee-d43aed6e21bd"},"vehicle_type_id":"4","last_reported":1774982790,"current_range_meters":6000,"station_id":"","pricing_plan_id":"cebpf4jnsgd1na2vs0mg"},{"bike_id":"48529b6b-9879-4de3-b292-e59df15e7b99","system_id":"levelo_inurba_marseille","lat":43.29547,"lon":5.39034,"is_reserved":false,"is_disabled":false,"rental_uris":{"android":"levelo://app?vid=48529b6b-9879-4de3-b292-e59df15e7b99","ios":"levelo://app?vid=48529b6b-9879-4de3-b292-e59df15e7b99"},"vehicle_type_id":"4","last_reported":1774982790,"current_range_meters":6000,"station_id":"ce4bh3p2rcd13ifvqdp0","pricing_plan_id":"cebpf4jnsgd1na2vs0mg"},{"bike_id":"e72f4c7b-240a-4bc5-b383-6a5f011f272e","system_id":"levelo_inurba_marseille","lat":43.23199,"lon":5.35576,"is_reserved":false,"is_disabled":false,"rental_uris":{"android":"levelo://app?vid=e72f4c7b-240a-4bc5-b383-6a5f011f272e","ios":"levelo://app?vid=e72f4c7b-240a-4bc5-b383-6a5f011f272e"},"vehicle_type_id":"4","last_reported":1774982790,"current_range_meters":6000,"station_id":"ce4bhu92rcd13ifvqi70","pricing_plan_id":"cebpf4jnsgd1na2vs0mg"},{"bike_id":"516dc13e-98d2-4db1-9953-88b33774944d","system_id":"levelo_inurba_marseille","lat":43.29531,"lon":5.38663,"is_reserved":false,"is_disabled":false,"rental_uris":{"android":"levelo://app?vid=516dc13e-98d2-4db1-9953-88b33774944d","ios":"levelo://app?vid=516dc13e-98d2-4db1-9953-88b33774944d"},"vehicle_type_id":"4","last_reported":1774982790,"current_range_meters":6000,"station_id":"","pricing_plan_id":"cebpf4jnsgd1na2vs0mg"},{"bike_id":"2947bf9a-227c-4113-8325-e6274f45691d","system_id":"levelo_inurba_marseille","lat":43.28927,"lon":5.38394,"is_reserved":false,"is_disabled":false,"rental_uris":{"android":"levelo://app?vid=2947bf9a-227c-4113-8325-e6274f45691d","ios":"levelo://app?vid=2947bf9a-227c-4113-8325-e6274f45691d"},"vehicle_type_id":"4","last_reported":1774982790,"current_range_meters":6000,"station_id":"ce4bh612rcd13ifvqe6g","pricing_plan_id":"cebpf4jnsgd1na2vs0mg"},{"bike_id":"d1f470b5-ec70-4f5c-be71-a8b4bc61cdae","system_id":"levelo_inurba_marseille","lat":43.31886,"lon":5.4074,"is_reserved":false,"is_disabled":false,"rental_uris":{"android":"levelo://app?vid=d1f470b5-ec70-4f5c-be71-a8b4bc61cdae","ios":"levelo://app?vid=d1f470b5-ec70-4f5c-be71-a8b4bc61cdae"},"vehicle_type_id":"4","last_reported":1774982790,"current_range_meters":6000,"station_id":"ce4bhq12rcd13ifvqhig","pricing_plan_id":"cebpf4jnsgd1na2vs0mg"},{"bike_id":"9af9ca56-e1bb-4af8-8932-823cc73acc00","system_id":"levelo_inurba_marseille","lat":43.30129,"lon":5.37415,"is_reserved":false,"is_disabled":false,"rental_uris":{"android":"levelo://app?vid=9af9ca56-e1bb-4af8-8932-823cc73acc00","ios":"levelo://app?vid=9af9ca56-e1bb-4af8-8932-823cc73acc00"},"vehicle_type_id":"4","last_reported":1774982790,"current_range_meters":6000,"station_id":"ce4bgs92rcd13ifvqcc0","pricing_plan_id":"cebpf4jnsgd1na2vs0mg"},{"bike_id":"cf039980-8909-4a03-aa52-b426c9efd4e8","system_id":"levelo_inurba_marseille","lat":43.21776,"lon":5.34594,"is_reserved":false,"is_disabled":false,"rental_uris":{"android":"levelo://app?vid=cf039980-8909-4a03-aa52-b426c9efd4e8","ios":"levelo://app?vid=cf039980-8909-4a03-aa52-b426c9efd4e8"},"vehicle_type_id":"4","last_reported":1774982790,"current_range_meters":6000,"station_id":"st_cvj6r9ubvosntc0bgbag","pricing_plan_id":"cebpf4jnsgd1na2vs0mg"},{"bike_id":"59c65e25-757b-4611-ab19-cc02e6ee8d57","system_id":"levelo_inurba_marseille","lat":43.21732,"lon":5.34616,"is_reserved":false,"is_disabled":false,"rental_uris":{"android":"levelo://app?vid=59c65e25-757b-4611-ab19-cc02e6ee8d57","ios":"levelo://app?vid=59c65e25-757b-4611-ab19-cc02e6ee8d57"},"vehicle_type_id":"4","last_reported":1774982790,"current_range_meters":6000,"station_id":"st_cvj6r9ubvosntc0bgbag","pricing_plan_id":"cebpf4jnsgd1na2vs0mg"},{"bike_id":"b20caa3d-63fe-4854-8cb5-6448b6dda1f9","system_id":"levelo_inurba_marseille","lat":43.25338,"lon":5.42177,"is_reserved":false,"is_disabled":false,"rental_uris":{"android":"levelo://app?vid=b20caa3d-63fe-4854-8cb5-6448b6dda1f9","ios":"levelo://app?vid=b20caa3d-63fe-4854-8cb5-6448b6dda1f9"},"vehicle_type_id":"4","last_reported":1774982790,"current_range_meters":6000,"station_id":"st_d2m65c5bi1j21697t3ng","pricing_plan_id":"cebpf4jnsgd1na2vs0mg"},{"bike_id":"01ed3874-6f0d-4b26-908e-a9c1d20ed9f9","system_id":"levelo_inurba_marseille","lat":43.29068,"lon":5.3717,"is_reserved":false,"is_disabled":false,"rental_uris":{"android":"levelo://app?vid=01ed3874-6f0d-4b26-908e-a9c1d20ed9f9","ios":"levelo://app?vid=01ed3874-6f0d-4b26-908e-a9c1d20ed9f9"},"vehicle_type_id":"4","last_reported":1774982790,"current_range_meters":6000,"station_id":"ce4bh5p2rcd13ifvqe4g","pricing_plan_id":"cebpf4jnsgd1na2vs0mg"},{"bike_id":"cfa0e8a6-8463-4e12-86ba-31c2e338fa5f","system_id":"levelo_inurba_marseille","lat":43.28475,"lon":5.40201,"is_reserved":false,"is_disabled":false,"rental_uris":{"android":"levelo://app?vid=cfa0e8a6-8463-4e12-86ba-31c2e338fa5f","ios":"levelo://app?vid=cfa0e8a6-8463-4e12-86ba-31c2e338fa5f"},"vehicle_type_id":"4","last_reported":1774982790,"current_range_meters":6000,"station_id":"","pricing_plan_id":"cebpf4jnsgd1na2vs0mg"},{"bike_id":"54c78df1-1953-4fa4-9fb9-14f24d4d74ba","system_id":"levelo_inurba_marseille","lat":43.29525,"lon":5.39405,"is_reserved":false,"is_disabled":false,"rental_uris":{"android":"levelo://app?vid=54c78df1-1953-4fa4-9fb9-14f24d4d74ba","ios":"levelo://app?vid=54c78df1-1953-4fa4-9fb9-14f24d4d74ba"},"vehicle_type_id":"4","last_reported":1774982790,"current_range_meters":6000,"station_id":"ce4bh292rcd13ifvqdf0","pricing_plan_id":"cebpf4jnsgd1na2vs0mg"},{"bike_id":"b3466ecc-4c48-4c4d-94a7-8d6040baea0c","system_id":"levelo_inurba_marseille","lat":43.22565,"lon":5.4163,"is_reserved":false,"is_disabled":false,"rental_uris":{"android":"levelo://app?vid=b3466ecc-4c48-4c4d-94a7-8d6040baea0c","ios":"levelo://app?vid=b3466ecc-4c48-4c4d-94a7-8d6040baea0c"},"vehicle_type_id":"4","last_reported":1774982790,"current_range_meters":6400,"station_id":"st_d2o4gvlbi1j2169b742g","pricing_plan_id":"cebpf4jnsgd1na2vs0mg"},{"bike_id":"3af2314f-0c87-4a50-add2-7e597ea34773","system_id":"levelo_inurba_marseille","lat":43.24822,"lon":5.37431,"is_reserved":false,"is_disabled":false,"rental_uris":{"android":"levelo://app?vid=3af2314f-0c87-4a50-add2-7e597ea34773","ios":"levelo://app?vid=3af2314f-0c87-4a50-add2-7e597ea34773"},"vehicle_type_id":"4","last_reported":1774982790,"current_range_meters":6400,"station_id":"ce4bhgh2rcd13ifvqfb0","pricing_plan_id":"cebpf4jnsgd1na2vs0mg"},{"bike_id":"f5a303b4-19b6-4e82-aa4f-cd822fbe2e26","system_id":"levelo_inurba_marseille","lat":43.25564,"lon":5.38273,"is_reserved":false,"is_disabled":false,"rental_uris":{"android":"levelo://app?vid=f5a303b4-19b6-4e82-aa4f-cd822fbe2e26","ios":"levelo://app?vid=f5a303b4-19b6-4e82-aa4f-cd822fbe2e26"},"vehicle_type_id":"4","last_reported":1774982790,"current_range_meters":6400,"station_id":"ce4bhih2rcd13ifvqfs0","pricing_plan_id":"cebpf4jnsgd1na2vs0mg"},{"bike_id":"aff3ff3f-6b67-4330-8619-cb367673fc13","system_id":"levelo_inurba_marseille","lat":43.24373,"lon":5.37043,"is_reserved":false,"is_disabled":false,"rental_uris":{"android":"levelo://app?vid=aff3ff3f-6b67-4330-8619-cb367673fc13","ios":"levelo://app?vid=aff3ff3f-6b67-4330-8619-cb367673fc13"},"vehicle_type_id":"4","last_reported":1774982790,"current_range_meters":6400,"station_id":"ce4bhhh2rcd13ifvqfk0","pricing_plan_id":"cebpf4jnsgd1na2vs0mg"},{"bike_id":"815d7912-e35e-4708-88e8-d76cd012d1ba","system_id":"levelo_inurba_marseille","lat":43.25329,"lon":5.42178,"is_reserved":false,"is_disabled":false,"rental_uris":{"android":"levelo://app?vid=815d7912-e35e-4708-88e8-d76cd012d1ba","ios":"levelo://app?vid=815d7912-e35e-4708-88e8-d76cd012d1ba"},"vehicle_type_id":"4","last_reported":1774982790,"current_range_meters":6400,"station_id":"st_d2m65c5bi1j21697t3ng","pricing_plan_id":"cebpf4jnsgd1na2vs0mg"},{"bike_id":"7f22feed-d092-43e1-8b7c-390e4c948e82","system_id":"levelo_inurba_marseille","lat":43.28703,"lon":5.37381,"is_reserved":false,"is_disabled":false,"rental_uris":{"android":"levelo://app?vid=7f22feed-d092-43e1-8b7c-390e4c948e82","ios":"levelo://app?vid=7f22feed-d092-43e1-8b7c-390e4c948e82"},"vehicle_type_id":"4","last_reported":1774982790,"current_range_meters":6400,"station_id":"ce4bh3p2rcd13ifvqdq0","pricing_plan_id":"cebpf4jnsgd1na2vs0mg"},{"bike_id":"f9f4d58a-2305-4399-97ab-91809c2434f8","system_id":"levelo_inurba_marseille","lat":43.28409,"lon":5.37533,"is_reserved":false,"is_disabled":false,"rental_uris":{"android":"levelo://app?vid=f9f4d58a-2305-4399-97ab-91809c2434f8","ios":"levelo://app?vid=f9f4d58a-2305-4399-97ab-91809c2434f8"},"vehicle_type_id":"4","last_reported":1774982790,"current_range_meters":6400,"station_id":"ce4bh412rcd13ifvqds0","pricing_plan_id":"cebpf4jnsgd1na2vs0mg"},{"bike_id":"aa0cc8df-20ab-4e27-aef8-77b280cc543b","system_id":"levelo_inurba_marseille","lat":43.25053,"lon":5.37523,"is_reserved":false,"is_disabled":false,"rental_uris":{"android":"levelo://app?vid=aa0cc8df-20ab-4e27-aef8-77b280cc543b","ios":"levelo://app?vid=aa0cc8df-20ab-4e27-aef8-77b280cc543b"},"vehicle_type_id":"4","last_reported":1774982790,"current_range_meters":6400,"station_id":"","pricing_plan_id":"cebpf4jnsgd1na2vs0mg"},{"bike_id":"0b9bd603-c492-4ca6-8741-19e545661081","system_id":"levelo_inurba_marseille","lat":43.24161,"lon":5.36395,"is_reserved":false,"is_disabled":false,"rental_uris":{"android":"levelo://app?vid=0b9bd603-c492-4ca6-8741-19e545661081","ios":"levelo://app?vid=0b9bd603-c492-4ca6-8741-19e545661081"},"vehicle_type_id":"4","last_reported":1774982790,"current_range_meters":6400,"station_id":"cpo36qri1sfpv3e86is0","pricing_plan_id":"cebpf4jnsgd1na2vs0mg"},{"bike_id":"ea1967d6-c988-4410-823b-ea0c02e666d2","system_id":"levelo_inurba_marseille","lat":43.24807,"lon":5.37451,"is_reserved":false,"is_disabled":false,"rental_uris":{"android":"levelo://app?vid=ea1967d6-c988-4410-823b-ea0c02e666d2","ios":"levelo://app?vid=ea1967d6-c988-4410-823b-ea0c02e666d2"},"vehicle_type_id":"4","last_reported":1774982790,"current_range_meters":6400,"station_id":"ce4bhgh2rcd13ifvqfb0","pricing_plan_id":"cebpf4jnsgd1na2vs0mg"},{"bike_id":"b2d72fd8-9618-48b7-8f8f-0078908bfacf","system_id":"levelo_inurba_marseille","lat":43.30137,"lon":5.43108,"is_reserved":false,"is_disabled":false,"rental_uris":{"android":"levelo://app?vid=b2d72fd8-9618-48b7-8f8f-0078908bfacf","ios":"levelo://app?vid=b2d72fd8-9618-48b7-8f8f-0078908bfacf"},"vehicle_type_id":"4","last_reported":1774982790,"current_range_meters":6400,"station_id":"st_d3js3co5814s73ftftug","pricing_plan_id":"cebpf4jnsgd1na2vs0mg"},{"bike_id":"b69b7ee0-eb68-4e40-9110-6ed5a17a58dc","system_id":"levelo_inurba_marseille","lat":43.2844,"lon":5.35019,"is_reserved":false,"is_disabled":false,"rental_uris":{"android":"levelo://app?vid=b69b7ee0-eb68-4e40-9110-6ed5a17a58dc","ios":"levelo://app?vid=b69b7ee0-eb68-4e40-9110-6ed5a17a58dc"},"vehicle_type_id":"4","last_reported":1774982790,"current_range_meters":6400,"station_id":"ce4bhbh2rcd13ifvqepg","pricing_plan_id":"cebpf4jnsgd1na2vs0mg"},{"bike_id":"958ae1aa-92b5-4902-b66f-aee23fd43f5b","system_id":"levelo_inurba_marseille","lat":43.26193,"lon":5.37503,"is_reserved":false,"is_disabled":false,"rental_uris":{"android":"levelo://app?vid=958ae1aa-92b5-4902-b66f-aee23fd43f5b","ios":"levelo://app?vid=958ae1aa-92b5-4902-b66f-aee23fd43f5b"},"vehicle_type_id":"4","last_reported":1774982790,"current_range_meters":6400,"station_id":"ce4bhgp2rcd13ifvqfc0","pricing_plan_id":"cebpf4jnsgd1na2vs0mg"},{"bike_id":"13d22dc9-0131-46f0-8317-f2e5493c7945","system_id":"levelo_inurba_marseille","lat":43.25579,"lon":5.38221,"is_reserved":false,"is_disabled":false,"rental_uris":{"android":"levelo://app?vid=13d22dc9-0131-46f0-8317-f2e5493c7945","ios":"levelo://app?vid=13d22dc9-0131-46f0-8317-f2e5493c7945"},"vehicle_type_id":"4","last_reported":1774982790,"current_range_meters":6400,"station_id":"ce4bhih2rcd13ifvqfs0","pricing_plan_id":"cebpf4jnsgd1na2vs0mg"},{"bike_id":"d803e2d9-9376-4f1f-85b0-c6f8e1eae86c","system_id":"levelo_inurba_marseille","lat":43.29908,"lon":5.43682,"is_reserved":false,"is_disabled":false,"rental_uris":{"android":"levelo://app?vid=d803e2d9-9376-4f1f-85b0-c6f8e1eae86c","ios":"levelo://app?vid=d803e2d9-9376-4f1f-85b0-c6f8e1eae86c"},"vehicle_type_id":"4","last_reported":1774982790,"current_range_meters":6400,"station_id":"ce4bhpp2rcd13ifvqhfg","pricing_plan_id":"cebpf4jnsgd1na2vs0mg"},{"bike_id":"40a3d699-00b0-40cb-a534-b02739fd97fd","system_id":"levelo_inurba_marseille","lat":43.26569,"lon":5.39053,"is_reserved":false,"is_disabled":false,"rental_uris":{"android":"levelo://app?vid=40a3d699-00b0-40cb-a534-b02739fd97fd","ios":"levelo://app?vid=40a3d699-00b0-40cb-a534-b02739fd97fd"},"vehicle_type_id":"4","last_reported":1774982790,"current_range_meters":6400,"station_id":"ce4bhe12rcd13ifvqf30","pricing_plan_id":"cebpf4jnsgd1na2vs0mg"},{"bike_id":"a8b39c3f-343a-4b6f-851e-43a9c053fe11","system_id":"levelo_inurba_marseille","lat":43.28724,"lon":5.37935,"is_reserved":false,"is_disabled":false,"rental_uris":{"android":"levelo://app?vid=a8b39c3f-343a-4b6f-851e-43a9c053fe11","ios":"levelo://app?vid=a8b39c3f-343a-4b6f-851e-43a9c053fe11"},"vehicle_type_id":"4","last_reported":1774982790,"current_range_meters":6400,"station_id":"ce4bh9p2rcd13ifvqec0","pricing_plan_id":"cebpf4jnsgd1na2vs0mg"},{"bike_id":"fa800947-18e4-441a-8dc6-87738c916f02","system_id":"levelo_inurba_marseille","lat":43.23189,"lon":5.40001,"is_reserved":false,"is_disabled":false,"rental_uris":{"android":"levelo://app?vid=fa800947-18e4-441a-8dc6-87738c916f02","ios":"levelo://app?vid=fa800947-18e4-441a-8dc6-87738c916f02"},"vehicle_type_id":"4","last_reported":1774982790,"current_range_meters":6400,"station_id":"ce4bhn12rcd13ifvqgqg","pricing_plan_id":"cebpf4jnsgd1na2vs0mg"},{"bike_id":"99357e4e-0fd2-4bed-b022-406a548cc7c5","system_id":"levelo_inurba_marseille","lat":43.23992,"lon":5.36615,"is_reserved":false,"is_disabled":false,"rental_uris":{"android":"levelo://app?vid=99357e4e-0fd2-4bed-b022-406a548cc7c5","ios":"levelo://app?vid=99357e4e-0fd2-4bed-b022-406a548cc7c5"},"vehicle_type_id":"4","last_reported":1774982790,"current_range_meters":6400,"station_id":"ce4bhi12rcd13ifvqfp0","pricing_plan_id":"cebpf4jnsgd1na2vs0mg"},{"bike_id":"750807a6-4dc2-459c-99ab-2f2079c0197b","system_id":"levelo_inurba_marseille","lat":43.29044,"lon":5.38653,"is_reserved":false,"is_disabled":false,"rental_uris":{"android":"levelo://app?vid=750807a6-4dc2-459c-99ab-2f2079c0197b","ios":"levelo://app?vid=750807a6-4dc2-459c-99ab-2f2079c0197b"},"vehicle_type_id":"4","last_reported":1774982790,"current_range_meters":6800,"station_id":"ce4bh4p2rcd13ifvqe0g","pricing_plan_id":"cebpf4jnsgd1na2vs0mg"},{"bike_id":"816d1509-b6a4-4401-86a1-6ea0eb371364","system_id":"levelo_inurba_marseille","lat":43.2377,"lon":5.36599,"is_reserved":false,"is_disabled":false,"rental_uris":{"android":"levelo://app?vid=816d1509-b6a4-4401-86a1-6ea0eb371364","ios":"levelo://app?vid=816d1509-b6a4-4401-86a1-6ea0eb371364"},"vehicle_type_id":"4","last_reported":1774982790,"current_range_meters":6800,"station_id":"st_d3nk18o9ro0c73en2l3g","pricing_plan_id":"cebpf4jnsgd1na2vs0mg"},{"bike_id":"405bedfb-9935-4390-a8a3-f9ddcf9a97e8","system_id":"levelo_inurba_marseille","lat":43.2254,"lon":5.34833,"is_reserved":false,"is_disabled":false,"rental_uris":{"android":"levelo://app?vid=405bedfb-9935-4390-a8a3-f9ddcf9a97e8","ios":"levelo://app?vid=405bedfb-9935-4390-a8a3-f9ddcf9a97e8"},"vehicle_type_id":"4","last_reported":1774982790,"current_range_meters":6800,"station_id":"","pricing_plan_id":"cebpf4jnsgd1na2vs0mg"},{"bike_id":"540e08a8-3c1b-41fd-9344-04335c7837ef","system_id":"levelo_inurba_marseille","lat":43.30814,"lon":5.40027,"is_reserved":false,"is_disabled":false,"rental_uris":{"android":"levelo://app?vid=540e08a8-3c1b-41fd-9344-04335c7837ef","ios":"levelo://app?vid=540e08a8-3c1b-41fd-9344-04335c7837ef"},"vehicle_type_id":"4","last_reported":1774982790,"current_range_meters":6800,"station_id":"","pricing_plan_id":"cebpf4jnsgd1na2vs0mg"},{"bike_id":"ba94dc01-239a-45b3-ab74-97fee97d11ad","system_id":"levelo_inurba_marseille","lat":43.29232,"lon":5.36035,"is_reserved":false,"is_disabled":false,"rental_uris":{"android":"levelo://app?vid=ba94dc01-239a-45b3-ab74-97fee97d11ad","ios":"levelo://app?vid=ba94dc01-239a-45b3-ab74-97fee97d11ad"},"vehicle_type_id":"4","last_reported":1774982790,"current_range_meters":6800,"station_id":"ce4bhbh2rcd13ifvqeqg","pricing_plan_id":"cebpf4jnsgd1na2vs0mg"},{"bike_id":"fc230a14-954a-4d36-be5c-8f8498288ae5","system_id":"levelo_inurba_marseille","lat":43.28273,"lon":5.35081,"is_reserved":false,"is_disabled":false,"rental_uris":{"android":"levelo://app?vid=fc230a14-954a-4d36-be5c-8f8498288ae5","ios":"levelo://app?vid=fc230a14-954a-4d36-be5c-8f8498288ae5"},"vehicle_type_id":"4","last_reported":1774982790,"current_range_meters":6800,"station_id":"ce4bhbp2rcd13ifvqerg","pricing_plan_id":"cebpf4jnsgd1na2vs0mg"},{"bike_id":"9c1440ce-c955-43db-9800-7794805da744","system_id":"levelo_inurba_marseille","lat":43.23965,"lon":5.36649,"is_reserved":false,"is_disabled":false,"rental_uris":{"android":"levelo://app?vid=9c1440ce-c955-43db-9800-7794805da744","ios":"levelo://app?vid=9c1440ce-c955-43db-9800-7794805da744"},"vehicle_type_id":"4","last_reported":1774982790,"current_range_meters":6800,"station_id":"ce4bhi12rcd13ifvqfp0","pricing_plan_id":"cebpf4jnsgd1na2vs0mg"},{"bike_id":"9e8c35a2-3d4d-48a8-87e2-0775e9d3d581","system_id":"levelo_inurba_marseille","lat":43.27478,"lon":5.40818,"is_reserved":false,"is_disabled":false,"rental_uris":{"android":"levelo://app?vid=9e8c35a2-3d4d-48a8-87e2-0775e9d3d581","ios":"levelo://app?vid=9e8c35a2-3d4d-48a8-87e2-0775e9d3d581"},"vehicle_type_id":"4","last_reported":1774982790,"current_range_meters":6800,"station_id":"","pricing_plan_id":"cebpf4jnsgd1na2vs0mg"},{"bike_id":"ba7deb35-b669-454e-ad2d-32596ffa8222","system_id":"levelo_inurba_marseille","lat":43.21753,"lon":5.34611,"is_reserved":false,"is_disabled":false,"rental_uris":{"android":"levelo://app?vid=ba7deb35-b669-454e-ad2d-32596ffa8222","ios":"levelo://app?vid=ba7deb35-b669-454e-ad2d-32596ffa8222"},"vehicle_type_id":"4","last_reported":1774982790,"current_range_meters":6800,"station_id":"st_cvj6r9ubvosntc0bgbag","pricing_plan_id":"cebpf4jnsgd1na2vs0mg"},{"bike_id":"792d7249-89f9-4f4b-bdcd-35ee2f559f92","system_id":"levelo_inurba_marseille","lat":43.30548,"lon":5.3673,"is_reserved":false,"is_disabled":false,"rental_uris":{"android":"levelo://app?vid=792d7249-89f9-4f4b-bdcd-35ee2f559f92","ios":"levelo://app?vid=792d7249-89f9-4f4b-bdcd-35ee2f559f92"},"vehicle_type_id":"4","last_reported":1774982790,"current_range_meters":6800,"station_id":"ce4bgrp2rcd13ifvqc9g","pricing_plan_id":"cebpf4jnsgd1na2vs0mg"},{"bike_id":"79129c40-9bd0-4de6-981a-faea7f55c070","system_id":"levelo_inurba_marseille","lat":43.24637,"lon":5.38899,"is_reserved":false,"is_disabled":false,"rental_uris":{"android":"levelo://app?vid=79129c40-9bd0-4de6-981a-faea7f55c070","ios":"levelo://app?vid=79129c40-9bd0-4de6-981a-faea7f55c070"},"vehicle_type_id":"4","last_reported":1774982790,"current_range_meters":6800,"station_id":"ce4bhg12rcd13ifvqf60","pricing_plan_id":"cebpf4jnsgd1na2vs0mg"},{"bike_id":"370e4e08-6d82-4b38-8b87-e7eadfcbd0ed","system_id":"levelo_inurba_marseille","lat":43.24178,"lon":5.39719,"is_reserved":false,"is_disabled":false,"rental_uris":{"android":"levelo://app?vid=370e4e08-6d82-4b38-8b87-e7eadfcbd0ed","ios":"levelo://app?vid=370e4e08-6d82-4b38-8b87-e7eadfcbd0ed"},"vehicle_type_id":"4","last_reported":1774982790,"current_range_meters":6800,"station_id":"ce4bhn12rcd13ifvqgpg","pricing_plan_id":"cebpf4jnsgd1na2vs0mg"},{"bike_id":"10f05ed2-5813-4d4b-a9c2-f44482f892e6","system_id":"levelo_inurba_marseille","lat":43.31475,"lon":5.3693,"is_reserved":false,"is_disabled":false,"rental_uris":{"android":"levelo://app?vid=10f05ed2-5813-4d4b-a9c2-f44482f892e6","ios":"levelo://app?vid=10f05ed2-5813-4d4b-a9c2-f44482f892e6"},"vehicle_type_id":"4","last_reported":1774982790,"current_range_meters":6800,"station_id":"","pricing_plan_id":"cebpf4jnsgd1na2vs0mg"},{"bike_id":"5b1f6293-9dec-4624-aec4-5ff8594802a7","system_id":"levelo_inurba_marseille","lat":43.29524,"lon":5.39403,"is_reserved":false,"is_disabled":false,"rental_uris":{"android":"levelo://app?vid=5b1f6293-9dec-4624-aec4-5ff8594802a7","ios":"levelo://app?vid=5b1f6293-9dec-4624-aec4-5ff8594802a7"},"vehicle_type_id":"4","last_reported":1774982790,"current_range_meters":6800,"station_id":"ce4bh292rcd13ifvqdf0","pricing_plan_id":"cebpf4jnsgd1na2vs0mg"},{"bike_id":"5594fef1-50b5-4719-8406-506999474c85","system_id":"levelo_inurba_marseille","lat":43.23055,"lon":5.35489,"is_reserved":false,"is_disabled":false,"rental_uris":{"android":"levelo://app?vid=5594fef1-50b5-4719-8406-506999474c85","ios":"levelo://app?vid=5594fef1-50b5-4719-8406-506999474c85"},"vehicle_type_id":"4","last_reported":1774982790,"current_range_meters":6800,"station_id":"cpo3342slgdg3j2ifvpg","pricing_plan_id":"cebpf4jnsgd1na2vs0mg"},{"bike_id":"9793cf18-cbfb-4e25-9697-75a016b78c27","system_id":"levelo_inurba_marseille","lat":43.28392,"lon":5.38462,"is_reserved":false,"is_disabled":false,"rental_uris":{"android":"levelo://app?vid=9793cf18-cbfb-4e25-9697-75a016b78c27","ios":"levelo://app?vid=9793cf18-cbfb-4e25-9697-75a016b78c27"},"vehicle_type_id":"4","last_reported":1774982790,"current_range_meters":6800,"station_id":"","pricing_plan_id":"cebpf4jnsgd1na2vs0mg"},{"bike_id":"68ef153f-a709-4c80-9ef2-238d9f86b776","system_id":"levelo_inurba_marseille","lat":43.2826,"lon":5.35107,"is_reserved":false,"is_disabled":false,"rental_uris":{"android":"levelo://app?vid=68ef153f-a709-4c80-9ef2-238d9f86b776","ios":"levelo://app?vid=68ef153f-a709-4c80-9ef2-238d9f86b776"},"vehicle_type_id":"4","last_reported":1774982790,"current_range_meters":6800,"station_id":"ce4bhbp2rcd13ifvqerg","pricing_plan_id":"cebpf4jnsgd1na2vs0mg"},{"bike_id":"829c5c52-e00f-4e24-b4b1-46ec3043d526","system_id":"levelo_inurba_marseille","lat":43.29868,"lon":5.42107,"is_reserved":false,"is_disabled":false,"rental_uris":{"android":"levelo://app?vid=829c5c52-e00f-4e24-b4b1-46ec3043d526","ios":"levelo://app?vid=829c5c52-e00f-4e24-b4b1-46ec3043d526"},"vehicle_type_id":"4","last_reported":1774982790,"current_range_meters":6800,"station_id":"st_d6tc004otcvc738tfe70","pricing_plan_id":"cebpf4jnsgd1na2vs0mg"},{"bike_id":"aa00c915-6f80-4e5a-b976-2cd809d8b778","system_id":"levelo_inurba_marseille","lat":43.31761,"lon":5.39021,"is_reserved":false,"is_disabled":false,"rental_uris":{"android":"levelo://app?vid=aa00c915-6f80-4e5a-b976-2cd809d8b778","ios":"levelo://app?vid=aa00c915-6f80-4e5a-b976-2cd809d8b778"},"vehicle_type_id":"4","last_reported":1774982790,"current_range_meters":6800,"station_id":"ce4bhqp2rcd13ifvqhng","pricing_plan_id":"cebpf4jnsgd1na2vs0mg"},{"bike_id":"4a6249ac-a91a-40d4-9c5f-44f15f7aff3d","system_id":"levelo_inurba_marseille","lat":43.3301,"lon":5.39013,"is_reserved":false,"is_disabled":false,"rental_uris":{"android":"levelo://app?vid=4a6249ac-a91a-40d4-9c5f-44f15f7aff3d","ios":"levelo://app?vid=4a6249ac-a91a-40d4-9c5f-44f15f7aff3d"},"vehicle_type_id":"4","last_reported":1774982790,"current_range_meters":6800,"station_id":"ce4bhr92rcd13ifvqhrg","pricing_plan_id":"cebpf4jnsgd1na2vs0mg"},{"bike_id":"5495f268-dddd-494d-8b35-779cb208c3e0","system_id":"levelo_inurba_marseille","lat":43.26567,"lon":5.39089,"is_reserved":false,"is_disabled":false,"rental_uris":{"android":"levelo://app?vid=5495f268-dddd-494d-8b35-779cb208c3e0","ios":"levelo://app?vid=5495f268-dddd-494d-8b35-779cb208c3e0"},"vehicle_type_id":"4","last_reported":1774982790,"current_range_meters":6800,"station_id":"","pricing_plan_id":"cebpf4jnsgd1na2vs0mg"},{"bike_id":"6dc5d66f-d912-4d01-beb9-0a9a1fb52007","system_id":"levelo_inurba_marseille","lat":43.25591,"lon":5.38313,"is_reserved":false,"is_disabled":false,"rental_uris":{"android":"levelo://app?vid=6dc5d66f-d912-4d01-beb9-0a9a1fb52007","ios":"levelo://app?vid=6dc5d66f-d912-4d01-beb9-0a9a1fb52007"},"vehicle_type_id":"4","last_reported":1774982790,"current_range_meters":7200,"station_id":"ce4bhih2rcd13ifvqfs0","pricing_plan_id":"cebpf4jnsgd1na2vs0mg"},{"bike_id":"3681bea9-2900-445c-b2d4-06ae4cedc9b9","system_id":"levelo_inurba_marseille","lat":43.29611,"lon":5.38116,"is_reserved":false,"is_disabled":true,"rental_uris":{"android":"levelo://app?vid=3681bea9-2900-445c-b2d4-06ae4cedc9b9","ios":"levelo://app?vid=3681bea9-2900-445c-b2d4-06ae4cedc9b9"},"vehicle_type_id":"4","last_reported":1774982790,"current_range_meters":7200,"station_id":"ce4bgl12rcd13ifvqbo0","pricing_plan_id":"cebpf4jnsgd1na2vs0mg"},{"bike_id":"8429f855-c4a0-4803-9ce7-0d1fb93dbfe8","system_id":"levelo_inurba_marseille","lat":43.28555,"lon":5.48336,"is_reserved":false,"is_disabled":false,"rental_uris":{"android":"levelo://app?vid=8429f855-c4a0-4803-9ce7-0d1fb93dbfe8","ios":"levelo://app?vid=8429f855-c4a0-4803-9ce7-0d1fb93dbfe8"},"vehicle_type_id":"4","last_reported":1774982790,"current_range_meters":7200,"station_id":"","pricing_plan_id":"cebpf4jnsgd1na2vs0mg"},{"bike_id":"4b2c0f5b-a0a4-4b39-8ba4-08240979d821","system_id":"levelo_inurba_marseille","lat":43.2418,"lon":5.39727,"is_reserved":false,"is_disabled":false,"rental_uris":{"android":"levelo://app?vid=4b2c0f5b-a0a4-4b39-8ba4-08240979d821","ios":"levelo://app?vid=4b2c0f5b-a0a4-4b39-8ba4-08240979d821"},"vehicle_type_id":"4","last_reported":1774982790,"current_range_meters":7200,"station_id":"ce4bhn12rcd13ifvqgpg","pricing_plan_id":"cebpf4jnsgd1na2vs0mg"},{"bike_id":"ace2b5ee-1355-40d7-ba59-bba7c913ea22","system_id":"levelo_inurba_marseille","lat":43.337444,"lon":5.374475,"is_reserved":false,"is_disabled":true,"rental_uris":{"android":"levelo://app?vid=ace2b5ee-1355-40d7-ba59-bba7c913ea22","ios":"levelo://app?vid=ace2b5ee-1355-40d7-ba59-bba7c913ea22"},"vehicle_type_id":"4","last_reported":1774982790,"current_range_meters":7200,"station_id":"","pricing_plan_id":"cebpf4jnsgd1na2vs0mg"},{"bike_id":"50dd00c6-7947-4820-a4c0-c8a42548efd2","system_id":"levelo_inurba_marseille","lat":43.28699,"lon":5.36179,"is_reserved":false,"is_disabled":false,"rental_uris":{"android":"levelo://app?vid=50dd00c6-7947-4820-a4c0-c8a42548efd2","ios":"levelo://app?vid=50dd00c6-7947-4820-a4c0-c8a42548efd2"},"vehicle_type_id":"4","last_reported":1774982790,"current_range_meters":7200,"station_id":"","pricing_plan_id":"cebpf4jnsgd1na2vs0mg"},{"bike_id":"3a922081-a991-4b97-906e-7f7dba00403a","system_id":"levelo_inurba_marseille","lat":43.32351,"lon":5.36729,"is_reserved":false,"is_disabled":false,"rental_uris":{"android":"levelo://app?vid=3a922081-a991-4b97-906e-7f7dba00403a","ios":"levelo://app?vid=3a922081-a991-4b97-906e-7f7dba00403a"},"vehicle_type_id":"4","last_reported":1774982790,"current_range_meters":7200,"station_id":"ce4bhsh2rcd13ifvqi2g","pricing_plan_id":"cebpf4jnsgd1na2vs0mg"},{"bike_id":"813d80fc-0c1b-49ef-8fe3-98be2424f96b","system_id":"levelo_inurba_marseille","lat":43.29251,"lon":5.3844,"is_reserved":false,"is_disabled":false,"rental_uris":{"android":"levelo://app?vid=813d80fc-0c1b-49ef-8fe3-98be2424f96b","ios":"levelo://app?vid=813d80fc-0c1b-49ef-8fe3-98be2424f96b"},"vehicle_type_id":"4","last_reported":1774982790,"current_range_meters":7200,"station_id":"ce4bh692rcd13ifvqea0","pricing_plan_id":"cebpf4jnsgd1na2vs0mg"},{"bike_id":"aac1d201-4604-4928-a1e8-3a9c499870e7","system_id":"levelo_inurba_marseille","lat":43.24683,"lon":5.38997,"is_reserved":false,"is_disabled":false,"rental_uris":{"android":"levelo://app?vid=aac1d201-4604-4928-a1e8-3a9c499870e7","ios":"levelo://app?vid=aac1d201-4604-4928-a1e8-3a9c499870e7"},"vehicle_type_id":"4","last_reported":1774982790,"current_range_meters":7200,"station_id":"","pricing_plan_id":"cebpf4jnsgd1na2vs0mg"},{"bike_id":"09f8d5ce-d24a-4f67-9a3a-b4e290508e30","system_id":"levelo_inurba_marseille","lat":43.287197,"lon":5.379379,"is_reserved":false,"is_disabled":false,"rental_uris":{"android":"levelo://app?vid=09f8d5ce-d24a-4f67-9a3a-b4e290508e30","ios":"levelo://app?vid=09f8d5ce-d24a-4f67-9a3a-b4e290508e30"},"vehicle_type_id":"4","last_reported":1774982790,"current_range_meters":7200,"station_id":"ce4bh9p2rcd13ifvqec0","pricing_plan_id":"cebpf4jnsgd1na2vs0mg"},{"bike_id":"602c7046-3fa2-412f-acea-a5dda9264272","system_id":"levelo_inurba_marseille","lat":43.21211,"lon":5.3509,"is_reserved":false,"is_disabled":false,"rental_uris":{"android":"levelo://app?vid=602c7046-3fa2-412f-acea-a5dda9264272","ios":"levelo://app?vid=602c7046-3fa2-412f-acea-a5dda9264272"},"vehicle_type_id":"4","last_reported":1774982790,"current_range_meters":7200,"station_id":"st_cvj6sg6p6f1abm77japg","pricing_plan_id":"cebpf4jnsgd1na2vs0mg"},{"bike_id":"f1c7cedb-7ca6-425d-bb6e-eba3f64564e5","system_id":"levelo_inurba_marseille","lat":43.24162,"lon":5.39716,"is_reserved":false,"is_disabled":false,"rental_uris":{"android":"levelo://app?vid=f1c7cedb-7ca6-425d-bb6e-eba3f64564e5","ios":"levelo://app?vid=f1c7cedb-7ca6-425d-bb6e-eba3f64564e5"},"vehicle_type_id":"4","last_reported":1774982790,"current_range_meters":7200,"station_id":"ce4bhn12rcd13ifvqgpg","pricing_plan_id":"cebpf4jnsgd1na2vs0mg"},{"bike_id":"21f87c15-edb4-477e-8bf4-58f311519b25","system_id":"levelo_inurba_marseille","lat":43.2838,"lon":5.34994,"is_reserved":false,"is_disabled":false,"rental_uris":{"android":"levelo://app?vid=21f87c15-edb4-477e-8bf4-58f311519b25","ios":"levelo://app?vid=21f87c15-edb4-477e-8bf4-58f311519b25"},"vehicle_type_id":"4","last_reported":1774982790,"current_range_meters":7200,"station_id":"ce4bhbh2rcd13ifvqepg","pricing_plan_id":"cebpf4jnsgd1na2vs0mg"},{"bike_id":"f7bbf21b-7fe3-455e-a252-fedccc4d0121","system_id":"levelo_inurba_marseille","lat":43.26547,"lon":5.37297,"is_reserved":false,"is_disabled":false,"rental_uris":{"android":"levelo://app?vid=f7bbf21b-7fe3-455e-a252-fedccc4d0121","ios":"levelo://app?vid=f7bbf21b-7fe3-455e-a252-fedccc4d0121"},"vehicle_type_id":"4","last_reported":1774982790,"current_range_meters":7200,"station_id":"ce4bhg12rcd13ifvqf70","pricing_plan_id":"cebpf4jnsgd1na2vs0mg"},{"bike_id":"16e274d7-7305-4b38-a146-4da91ab01fb2","system_id":"levelo_inurba_marseille","lat":43.21185,"lon":5.35081,"is_reserved":false,"is_disabled":false,"rental_uris":{"android":"levelo://app?vid=16e274d7-7305-4b38-a146-4da91ab01fb2","ios":"levelo://app?vid=16e274d7-7305-4b38-a146-4da91ab01fb2"},"vehicle_type_id":"4","last_reported":1774982790,"current_range_meters":7200,"station_id":"st_cvj6sg6p6f1abm77japg","pricing_plan_id":"cebpf4jnsgd1na2vs0mg"},{"bike_id":"0f20fa83-5694-4393-a47b-7caf9e918801","system_id":"levelo_inurba_marseille","lat":43.29158,"lon":5.42621,"is_reserved":false,"is_disabled":false,"rental_uris":{"android":"levelo://app?vid=0f20fa83-5694-4393-a47b-7caf9e918801","ios":"levelo://app?vid=0f20fa83-5694-4393-a47b-7caf9e918801"},"vehicle_type_id":"4","last_reported":1774982790,"current_range_meters":7200,"station_id":"","pricing_plan_id":"cebpf4jnsgd1na2vs0mg"},{"bike_id":"ad3dbea0-7082-49b4-9d8f-3003a92f1eba","system_id":"levelo_inurba_marseille","lat":43.28695,"lon":5.3737,"is_reserved":false,"is_disabled":false,"rental_uris":{"android":"levelo://app?vid=ad3dbea0-7082-49b4-9d8f-3003a92f1eba","ios":"levelo://app?vid=ad3dbea0-7082-49b4-9d8f-3003a92f1eba"},"vehicle_type_id":"4","last_reported":1774982790,"current_range_meters":7200,"station_id":"ce4bh3p2rcd13ifvqdq0","pricing_plan_id":"cebpf4jnsgd1na2vs0mg"},{"bike_id":"e98dd6e8-d317-43af-87b8-7784a84112b8","system_id":"levelo_inurba_marseille","lat":43.2397,"lon":5.36667,"is_reserved":false,"is_disabled":false,"rental_uris":{"android":"levelo://app?vid=e98dd6e8-d317-43af-87b8-7784a84112b8","ios":"levelo://app?vid=e98dd6e8-d317-43af-87b8-7784a84112b8"},"vehicle_type_id":"4","last_reported":1774982790,"current_range_meters":7200,"station_id":"ce4bhi12rcd13ifvqfp0","pricing_plan_id":"cebpf4jnsgd1na2vs0mg"},{"bike_id":"8b972516-364d-4c36-a2f6-f81da10bf5ee","system_id":"levelo_inurba_marseille","lat":43.3013,"lon":5.43108,"is_reserved":false,"is_disabled":false,"rental_uris":{"android":"levelo://app?vid=8b972516-364d-4c36-a2f6-f81da10bf5ee","ios":"levelo://app?vid=8b972516-364d-4c36-a2f6-f81da10bf5ee"},"vehicle_type_id":"4","last_reported":1774982790,"current_range_meters":7200,"station_id":"st_d3js3co5814s73ftftug","pricing_plan_id":"cebpf4jnsgd1na2vs0mg"},{"bike_id":"f22c22bb-d0d4-4a8d-acda-652e5d8a84e2","system_id":"levelo_inurba_marseille","lat":43.30142,"lon":5.37402,"is_reserved":false,"is_disabled":false,"rental_uris":{"android":"levelo://app?vid=f22c22bb-d0d4-4a8d-acda-652e5d8a84e2","ios":"levelo://app?vid=f22c22bb-d0d4-4a8d-acda-652e5d8a84e2"},"vehicle_type_id":"4","last_reported":1774982790,"current_range_meters":7200,"station_id":"ce4bgs92rcd13ifvqcc0","pricing_plan_id":"cebpf4jnsgd1na2vs0mg"},{"bike_id":"812692de-c770-4848-a459-505c4920721f","system_id":"levelo_inurba_marseille","lat":43.24668,"lon":5.38157,"is_reserved":false,"is_disabled":false,"rental_uris":{"android":"levelo://app?vid=812692de-c770-4848-a459-505c4920721f","ios":"levelo://app?vid=812692de-c770-4848-a459-505c4920721f"},"vehicle_type_id":"4","last_reported":1774982790,"current_range_meters":7200,"station_id":"ce4bhih2rcd13ifvqfr0","pricing_plan_id":"cebpf4jnsgd1na2vs0mg"},{"bike_id":"affcc587-ced3-47e8-93e5-fb1a1f214ed4","system_id":"levelo_inurba_marseille","lat":43.2657,"lon":5.39005,"is_reserved":false,"is_disabled":false,"rental_uris":{"android":"levelo://app?vid=affcc587-ced3-47e8-93e5-fb1a1f214ed4","ios":"levelo://app?vid=affcc587-ced3-47e8-93e5-fb1a1f214ed4"},"vehicle_type_id":"4","last_reported":1774982790,"current_range_meters":7200,"station_id":"ce4bhe12rcd13ifvqf30","pricing_plan_id":"cebpf4jnsgd1na2vs0mg"},{"bike_id":"36255a2d-0b69-4b75-b299-a29f6aebde45","system_id":"levelo_inurba_marseille","lat":43.30877,"lon":5.39653,"is_reserved":false,"is_disabled":false,"rental_uris":{"android":"levelo://app?vid=36255a2d-0b69-4b75-b299-a29f6aebde45","ios":"levelo://app?vid=36255a2d-0b69-4b75-b299-a29f6aebde45"},"vehicle_type_id":"4","last_reported":1774982790,"current_range_meters":7200,"station_id":"ce4bh012rcd13ifvqcv0","pricing_plan_id":"cebpf4jnsgd1na2vs0mg"},{"bike_id":"9da6f0a0-254f-4937-8243-355fe7b156df","system_id":"levelo_inurba_marseille","lat":43.28532,"lon":5.44106,"is_reserved":false,"is_disabled":false,"rental_uris":{"android":"levelo://app?vid=9da6f0a0-254f-4937-8243-355fe7b156df","ios":"levelo://app?vid=9da6f0a0-254f-4937-8243-355fe7b156df"},"vehicle_type_id":"4","last_reported":1774982790,"current_range_meters":7200,"station_id":"st_d3j3df2ikq2c7380ej80","pricing_plan_id":"cebpf4jnsgd1na2vs0mg"},{"bike_id":"63c1bf31-df02-435e-8ebe-279c98f06fd2","system_id":"levelo_inurba_marseille","lat":43.30141,"lon":5.38783,"is_reserved":false,"is_disabled":false,"rental_uris":{"android":"levelo://app?vid=63c1bf31-df02-435e-8ebe-279c98f06fd2","ios":"levelo://app?vid=63c1bf31-df02-435e-8ebe-279c98f06fd2"},"vehicle_type_id":"4","last_reported":1774982790,"current_range_meters":7200,"station_id":"ce4bghh2rcd13ifvqb60","pricing_plan_id":"cebpf4jnsgd1na2vs0mg"},{"bike_id":"9c6a90bb-d0d8-4c7a-826e-4ee948af4432","system_id":"levelo_inurba_marseille","lat":43.28408,"lon":5.37519,"is_reserved":false,"is_disabled":false,"rental_uris":{"android":"levelo://app?vid=9c6a90bb-d0d8-4c7a-826e-4ee948af4432","ios":"levelo://app?vid=9c6a90bb-d0d8-4c7a-826e-4ee948af4432"},"vehicle_type_id":"4","last_reported":1774982790,"current_range_meters":7200,"station_id":"ce4bh412rcd13ifvqds0","pricing_plan_id":"cebpf4jnsgd1na2vs0mg"},{"bike_id":"15eb4f4d-a16a-450e-aa13-dca03e151336","system_id":"levelo_inurba_marseille","lat":43.25581,"lon":5.38244,"is_reserved":false,"is_disabled":false,"rental_uris":{"android":"levelo://app?vid=15eb4f4d-a16a-450e-aa13-dca03e151336","ios":"levelo://app?vid=15eb4f4d-a16a-450e-aa13-dca03e151336"},"vehicle_type_id":"4","last_reported":1774982790,"current_range_meters":7200,"station_id":"ce4bhih2rcd13ifvqfs0","pricing_plan_id":"cebpf4jnsgd1na2vs0mg"},{"bike_id":"0ebcc71a-1070-45ee-8791-56ad76c8f07f","system_id":"levelo_inurba_marseille","lat":43.26366,"lon":5.41071,"is_reserved":false,"is_disabled":false,"rental_uris":{"android":"levelo://app?vid=0ebcc71a-1070-45ee-8791-56ad76c8f07f","ios":"levelo://app?vid=0ebcc71a-1070-45ee-8791-56ad76c8f07f"},"vehicle_type_id":"4","last_reported":1774982790,"current_range_meters":7200,"station_id":"st_d4e5ca6na9uc73bfl5fg","pricing_plan_id":"cebpf4jnsgd1na2vs0mg"},{"bike_id":"43e4bb96-0cd3-4e42-baf5-dd0ee842f69a","system_id":"levelo_inurba_marseille","lat":43.238,"lon":5.36645,"is_reserved":false,"is_disabled":false,"rental_uris":{"android":"levelo://app?vid=43e4bb96-0cd3-4e42-baf5-dd0ee842f69a","ios":"levelo://app?vid=43e4bb96-0cd3-4e42-baf5-dd0ee842f69a"},"vehicle_type_id":"4","last_reported":1774982790,"current_range_meters":7200,"station_id":"st_d3nk18o9ro0c73en2l3g","pricing_plan_id":"cebpf4jnsgd1na2vs0mg"},{"bike_id":"5d254b7a-fbcf-4d76-b549-cc1ca7dce146","system_id":"levelo_inurba_marseille","lat":43.29532,"lon":5.39382,"is_reserved":false,"is_disabled":false,"rental_uris":{"android":"levelo://app?vid=5d254b7a-fbcf-4d76-b549-cc1ca7dce146","ios":"levelo://app?vid=5d254b7a-fbcf-4d76-b549-cc1ca7dce146"},"vehicle_type_id":"4","last_reported":1774982790,"current_range_meters":7200,"station_id":"ce4bh292rcd13ifvqdf0","pricing_plan_id":"cebpf4jnsgd1na2vs0mg"},{"bike_id":"a1bf7261-a61b-4f05-91c7-57334f30f4b1","system_id":"levelo_inurba_marseille","lat":43.24789,"lon":5.37443,"is_reserved":false,"is_disabled":false,"rental_uris":{"android":"levelo://app?vid=a1bf7261-a61b-4f05-91c7-57334f30f4b1","ios":"levelo://app?vid=a1bf7261-a61b-4f05-91c7-57334f30f4b1"},"vehicle_type_id":"4","last_reported":1774982790,"current_range_meters":7200,"station_id":"ce4bhgh2rcd13ifvqfb0","pricing_plan_id":"cebpf4jnsgd1na2vs0mg"},{"bike_id":"6ec1889d-c43d-42d7-9ebb-6d09626d1897","system_id":"levelo_inurba_marseille","lat":43.24654,"lon":5.38906,"is_reserved":false,"is_disabled":false,"rental_uris":{"android":"levelo://app?vid=6ec1889d-c43d-42d7-9ebb-6d09626d1897","ios":"levelo://app?vid=6ec1889d-c43d-42d7-9ebb-6d09626d1897"},"vehicle_type_id":"4","last_reported":1774982790,"current_range_meters":8000,"station_id":"ce4bhg12rcd13ifvqf60","pricing_plan_id":"cebpf4jnsgd1na2vs0mg"},{"bike_id":"dfb946ce-fedb-4e12-8519-cb8fb15a5c14","system_id":"levelo_inurba_marseille","lat":43.24171,"lon":5.36404,"is_reserved":false,"is_disabled":false,"rental_uris":{"android":"levelo://app?vid=dfb946ce-fedb-4e12-8519-cb8fb15a5c14","ios":"levelo://app?vid=dfb946ce-fedb-4e12-8519-cb8fb15a5c14"},"vehicle_type_id":"4","last_reported":1774982790,"current_range_meters":8000,"station_id":"cpo36qri1sfpv3e86is0","pricing_plan_id":"cebpf4jnsgd1na2vs0mg"},{"bike_id":"c2b55ec9-feb1-4b9a-8184-cc9c430ec761","system_id":"levelo_inurba_marseille","lat":43.27886,"lon":5.37994,"is_reserved":false,"is_disabled":false,"rental_uris":{"android":"levelo://app?vid=c2b55ec9-feb1-4b9a-8184-cc9c430ec761","ios":"levelo://app?vid=c2b55ec9-feb1-4b9a-8184-cc9c430ec761"},"vehicle_type_id":"4","last_reported":1774982790,"current_range_meters":8000,"station_id":"ce4bhf92rcd13ifvqf50","pricing_plan_id":"cebpf4jnsgd1na2vs0mg"},{"bike_id":"e5a7a53a-b267-4440-9c9f-66f6b2ca226b","system_id":"levelo_inurba_marseille","lat":43.29602,"lon":5.37193,"is_reserved":false,"is_disabled":false,"rental_uris":{"android":"levelo://app?vid=e5a7a53a-b267-4440-9c9f-66f6b2ca226b","ios":"levelo://app?vid=e5a7a53a-b267-4440-9c9f-66f6b2ca226b"},"vehicle_type_id":"4","last_reported":1774982790,"current_range_meters":8000,"station_id":"ce4bgnh2rcd13ifvqc0g","pricing_plan_id":"cebpf4jnsgd1na2vs0mg"},{"bike_id":"d90b30f7-db03-414a-88e2-268b512c6ce2","system_id":"levelo_inurba_marseille","lat":43.25018,"lon":5.38957,"is_reserved":false,"is_disabled":false,"rental_uris":{"android":"levelo://app?vid=d90b30f7-db03-414a-88e2-268b512c6ce2","ios":"levelo://app?vid=d90b30f7-db03-414a-88e2-268b512c6ce2"},"vehicle_type_id":"4","last_reported":1774982790,"current_range_meters":8000,"station_id":"ce4bhgp2rcd13ifvqfd0","pricing_plan_id":"cebpf4jnsgd1na2vs0mg"},{"bike_id":"24809054-a7ec-4edc-87e1-0fe9b671a822","system_id":"levelo_inurba_marseille","lat":43.29886,"lon":5.43667,"is_reserved":false,"is_disabled":false,"rental_uris":{"android":"levelo://app?vid=24809054-a7ec-4edc-87e1-0fe9b671a822","ios":"levelo://app?vid=24809054-a7ec-4edc-87e1-0fe9b671a822"},"vehicle_type_id":"4","last_reported":1774982790,"current_range_meters":8000,"station_id":"ce4bhpp2rcd13ifvqhfg","pricing_plan_id":"cebpf4jnsgd1na2vs0mg"},{"bike_id":"cd3f7983-771a-48e3-ae61-07f33a3e916d","system_id":"levelo_inurba_marseille","lat":43.29948,"lon":5.38159,"is_reserved":false,"is_disabled":false,"rental_uris":{"android":"levelo://app?vid=cd3f7983-771a-48e3-ae61-07f33a3e916d","ios":"levelo://app?vid=cd3f7983-771a-48e3-ae61-07f33a3e916d"},"vehicle_type_id":"4","last_reported":1774982790,"current_range_meters":8000,"station_id":"ce4bgj12rcd13ifvqbc0","pricing_plan_id":"cebpf4jnsgd1na2vs0mg"},{"bike_id":"dd0c2c54-978e-49b8-89a3-9926153b6f8e","system_id":"levelo_inurba_marseille","lat":43.29899,"lon":5.43658,"is_reserved":false,"is_disabled":false,"rental_uris":{"android":"levelo://app?vid=dd0c2c54-978e-49b8-89a3-9926153b6f8e","ios":"levelo://app?vid=dd0c2c54-978e-49b8-89a3-9926153b6f8e"},"vehicle_type_id":"4","last_reported":1774982790,"current_range_meters":8000,"station_id":"ce4bhpp2rcd13ifvqhfg","pricing_plan_id":"cebpf4jnsgd1na2vs0mg"},{"bike_id":"bbe47512-0bee-4235-aaf4-5e9f39a93bf0","system_id":"levelo_inurba_marseille","lat":43.28409,"lon":5.34995,"is_reserved":false,"is_disabled":false,"rental_uris":{"android":"levelo://app?vid=bbe47512-0bee-4235-aaf4-5e9f39a93bf0","ios":"levelo://app?vid=bbe47512-0bee-4235-aaf4-5e9f39a93bf0"},"vehicle_type_id":"4","last_reported":1774982790,"current_range_meters":8000,"station_id":"ce4bhbh2rcd13ifvqepg","pricing_plan_id":"cebpf4jnsgd1na2vs0mg"},{"bike_id":"d77db315-de3c-4329-91e5-8fad56009aaf","system_id":"levelo_inurba_marseille","lat":43.29029,"lon":5.38647,"is_reserved":false,"is_disabled":false,"rental_uris":{"android":"levelo://app?vid=d77db315-de3c-4329-91e5-8fad56009aaf","ios":"levelo://app?vid=d77db315-de3c-4329-91e5-8fad56009aaf"},"vehicle_type_id":"4","last_reported":1774982790,"current_range_meters":8000,"station_id":"ce4bh4p2rcd13ifvqe0g","pricing_plan_id":"cebpf4jnsgd1na2vs0mg"},{"bike_id":"b1e9f130-d8ae-4858-bc10-b368a2ad0d85","system_id":"levelo_inurba_marseille","lat":43.28497,"lon":5.48424,"is_reserved":false,"is_disabled":false,"rental_uris":{"android":"levelo://app?vid=b1e9f130-d8ae-4858-bc10-b368a2ad0d85","ios":"levelo://app?vid=b1e9f130-d8ae-4858-bc10-b368a2ad0d85"},"vehicle_type_id":"4","last_reported":1774982790,"current_range_meters":8000,"station_id":"","pricing_plan_id":"cebpf4jnsgd1na2vs0mg"},{"bike_id":"fae0b53f-00f1-45b9-a1ad-74d490e431a9","system_id":"levelo_inurba_marseille","lat":43.225307,"lon":5.348402,"is_reserved":false,"is_disabled":false,"rental_uris":{"android":"levelo://app?vid=fae0b53f-00f1-45b9-a1ad-74d490e431a9","ios":"levelo://app?vid=fae0b53f-00f1-45b9-a1ad-74d490e431a9"},"vehicle_type_id":"4","last_reported":1774982790,"current_range_meters":8000,"station_id":"st_cvj5dfep6f1abm77gieg","pricing_plan_id":"cebpf4jnsgd1na2vs0mg"},{"bike_id":"99989140-ecdd-42c6-8e05-6943687e674d","system_id":"levelo_inurba_marseille","lat":43.30129,"lon":5.39008,"is_reserved":false,"is_disabled":false,"rental_uris":{"android":"levelo://app?vid=99989140-ecdd-42c6-8e05-6943687e674d","ios":"levelo://app?vid=99989140-ecdd-42c6-8e05-6943687e674d"},"vehicle_type_id":"4","last_reported":1774982790,"current_range_meters":8000,"station_id":"","pricing_plan_id":"cebpf4jnsgd1na2vs0mg"},{"bike_id":"f298ad0d-e2ee-4f1d-8fce-5d3171ed6f96","system_id":"levelo_inurba_marseille","lat":43.29598,"lon":5.38114,"is_reserved":false,"is_disabled":false,"rental_uris":{"android":"levelo://app?vid=f298ad0d-e2ee-4f1d-8fce-5d3171ed6f96","ios":"levelo://app?vid=f298ad0d-e2ee-4f1d-8fce-5d3171ed6f96"},"vehicle_type_id":"4","last_reported":1774982790,"current_range_meters":8000,"station_id":"ce4bgl12rcd13ifvqbo0","pricing_plan_id":"cebpf4jnsgd1na2vs0mg"},{"bike_id":"5f4ae7a4-fe3e-4884-a1ad-c936ba64ec14","system_id":"levelo_inurba_marseille","lat":43.27377,"lon":5.36264,"is_reserved":false,"is_disabled":false,"rental_uris":{"android":"levelo://app?vid=5f4ae7a4-fe3e-4884-a1ad-c936ba64ec14","ios":"levelo://app?vid=5f4ae7a4-fe3e-4884-a1ad-c936ba64ec14"},"vehicle_type_id":"4","last_reported":1774982790,"current_range_meters":8000,"station_id":"ce4bhbh2rcd13ifvqeo0","pricing_plan_id":"cebpf4jnsgd1na2vs0mg"},{"bike_id":"b53f224e-5c2b-47b3-a19b-0c6884245c31","system_id":"levelo_inurba_marseille","lat":43.23964,"lon":5.36648,"is_reserved":false,"is_disabled":false,"rental_uris":{"android":"levelo://app?vid=b53f224e-5c2b-47b3-a19b-0c6884245c31","ios":"levelo://app?vid=b53f224e-5c2b-47b3-a19b-0c6884245c31"},"vehicle_type_id":"4","last_reported":1774982790,"current_range_meters":8000,"station_id":"ce4bhi12rcd13ifvqfp0","pricing_plan_id":"cebpf4jnsgd1na2vs0mg"},{"bike_id":"aa363bcf-731a-43c6-a6f8-7c62b12a1925","system_id":"levelo_inurba_marseille","lat":43.28441,"lon":5.34938,"is_reserved":false,"is_disabled":false,"rental_uris":{"android":"levelo://app?vid=aa363bcf-731a-43c6-a6f8-7c62b12a1925","ios":"levelo://app?vid=aa363bcf-731a-43c6-a6f8-7c62b12a1925"},"vehicle_type_id":"4","last_reported":1774982790,"current_range_meters":8000,"station_id":"ce4bhbh2rcd13ifvqepg","pricing_plan_id":"cebpf4jnsgd1na2vs0mg"},{"bike_id":"a5b21948-fcb5-4ade-bce3-37cd3c403d4c","system_id":"levelo_inurba_marseille","lat":43.23065,"lon":5.35488,"is_reserved":false,"is_disabled":false,"rental_uris":{"android":"levelo://app?vid=a5b21948-fcb5-4ade-bce3-37cd3c403d4c","ios":"levelo://app?vid=a5b21948-fcb5-4ade-bce3-37cd3c403d4c"},"vehicle_type_id":"4","last_reported":1774982790,"current_range_meters":8000,"station_id":"cpo3342slgdg3j2ifvpg","pricing_plan_id":"cebpf4jnsgd1na2vs0mg"},{"bike_id":"c7c38a25-bfa6-4136-8c21-45bf24724f33","system_id":"levelo_inurba_marseille","lat":43.31342,"lon":5.39716,"is_reserved":false,"is_disabled":false,"rental_uris":{"android":"levelo://app?vid=c7c38a25-bfa6-4136-8c21-45bf24724f33","ios":"levelo://app?vid=c7c38a25-bfa6-4136-8c21-45bf24724f33"},"vehicle_type_id":"4","last_reported":1774982790,"current_range_meters":8000,"station_id":"ce4bgvp2rcd13ifvqcu0","pricing_plan_id":"cebpf4jnsgd1na2vs0mg"},{"bike_id":"0342865b-6a12-4899-87a1-001395eb7ed1","system_id":"levelo_inurba_marseille","lat":43.25508,"lon":5.37658,"is_reserved":false,"is_disabled":false,"rental_uris":{"android":"levelo://app?vid=0342865b-6a12-4899-87a1-001395eb7ed1","ios":"levelo://app?vid=0342865b-6a12-4899-87a1-001395eb7ed1"},"vehicle_type_id":"4","last_reported":1774982790,"current_range_meters":8000,"station_id":"ce4bhh12rcd13ifvqff0","pricing_plan_id":"cebpf4jnsgd1na2vs0mg"},{"bike_id":"82ef25fe-ced1-4b2f-9f5f-f3e9366b70f0","system_id":"levelo_inurba_marseille","lat":43.28473,"lon":5.48395,"is_reserved":false,"is_disabled":false,"rental_uris":{"android":"levelo://app?vid=82ef25fe-ced1-4b2f-9f5f-f3e9366b70f0","ios":"levelo://app?vid=82ef25fe-ced1-4b2f-9f5f-f3e9366b70f0"},"vehicle_type_id":"4","last_reported":1774982790,"current_range_meters":8000,"station_id":"st_d3svhcjqgbts73a3dn0g","pricing_plan_id":"cebpf4jnsgd1na2vs0mg"},{"bike_id":"f21b37b0-99ac-48f1-b4f7-25177be73ed8","system_id":"levelo_inurba_marseille","lat":43.2318,"lon":5.39987,"is_reserved":false,"is_disabled":false,"rental_uris":{"android":"levelo://app?vid=f21b37b0-99ac-48f1-b4f7-25177be73ed8","ios":"levelo://app?vid=f21b37b0-99ac-48f1-b4f7-25177be73ed8"},"vehicle_type_id":"4","last_reported":1774982790,"current_range_meters":8000,"station_id":"ce4bhn12rcd13ifvqgqg","pricing_plan_id":"cebpf4jnsgd1na2vs0mg"},{"bike_id":"fbb75834-f22e-4b0c-a13f-b3782403aa38","system_id":"levelo_inurba_marseille","lat":43.23966,"lon":5.36622,"is_reserved":false,"is_disabled":false,"rental_uris":{"android":"levelo://app?vid=fbb75834-f22e-4b0c-a13f-b3782403aa38","ios":"levelo://app?vid=fbb75834-f22e-4b0c-a13f-b3782403aa38"},"vehicle_type_id":"4","last_reported":1774982790,"current_range_meters":8000,"station_id":"ce4bhi12rcd13ifvqfp0","pricing_plan_id":"cebpf4jnsgd1na2vs0mg"},{"bike_id":"48e99d23-61ef-4493-837f-d5e9698a5ecf","system_id":"levelo_inurba_marseille","lat":43.27627,"lon":5.36109,"is_reserved":false,"is_disabled":false,"rental_uris":{"android":"levelo://app?vid=48e99d23-61ef-4493-837f-d5e9698a5ecf","ios":"levelo://app?vid=48e99d23-61ef-4493-837f-d5e9698a5ecf"},"vehicle_type_id":"4","last_reported":1774982790,"current_range_meters":8000,"station_id":"ce4bgj92rcd13ifvqbe0","pricing_plan_id":"cebpf4jnsgd1na2vs0mg"},{"bike_id":"f2a7e3a5-cac5-4b5c-9077-f8604e7b1b43","system_id":"levelo_inurba_marseille","lat":43.2914,"lon":5.42689,"is_reserved":false,"is_disabled":false,"rental_uris":{"android":"levelo://app?vid=f2a7e3a5-cac5-4b5c-9077-f8604e7b1b43","ios":"levelo://app?vid=f2a7e3a5-cac5-4b5c-9077-f8604e7b1b43"},"vehicle_type_id":"4","last_reported":1774982790,"current_range_meters":8000,"station_id":"","pricing_plan_id":"cebpf4jnsgd1na2vs0mg"},{"bike_id":"08e71c86-43a8-4902-86cf-de3f77db33e6","system_id":"levelo_inurba_marseille","lat":43.29691,"lon":5.44437,"is_reserved":false,"is_disabled":false,"rental_uris":{"android":"levelo://app?vid=08e71c86-43a8-4902-86cf-de3f77db33e6","ios":"levelo://app?vid=08e71c86-43a8-4902-86cf-de3f77db33e6"},"vehicle_type_id":"4","last_reported":1774982790,"current_range_meters":8000,"station_id":"","pricing_plan_id":"cebpf4jnsgd1na2vs0mg"},{"bike_id":"72d4fd59-c18b-4ed1-8cb1-65b3a7e7baaa","system_id":"levelo_inurba_marseille","lat":43.28609,"lon":5.37066,"is_reserved":false,"is_disabled":false,"rental_uris":{"android":"levelo://app?vid=72d4fd59-c18b-4ed1-8cb1-65b3a7e7baaa","ios":"levelo://app?vid=72d4fd59-c18b-4ed1-8cb1-65b3a7e7baaa"},"vehicle_type_id":"4","last_reported":1774982790,"current_range_meters":8000,"station_id":"ce4bht12rcd13ifvqi60","pricing_plan_id":"cebpf4jnsgd1na2vs0mg"},{"bike_id":"75aef917-784f-4ed0-aabc-58ee674a27cf","system_id":"levelo_inurba_marseille","lat":43.28622,"lon":5.35111,"is_reserved":false,"is_disabled":false,"rental_uris":{"android":"levelo://app?vid=75aef917-784f-4ed0-aabc-58ee674a27cf","ios":"levelo://app?vid=75aef917-784f-4ed0-aabc-58ee674a27cf"},"vehicle_type_id":"4","last_reported":1774982790,"current_range_meters":8000,"station_id":"ce4bhch2rcd13ifvqeug","pricing_plan_id":"cebpf4jnsgd1na2vs0mg"},{"bike_id":"3c7de47c-3a94-458e-bdb1-8077a5e8d0cc","system_id":"levelo_inurba_marseille","lat":43.28425,"lon":5.34993,"is_reserved":false,"is_disabled":false,"rental_uris":{"android":"levelo://app?vid=3c7de47c-3a94-458e-bdb1-8077a5e8d0cc","ios":"levelo://app?vid=3c7de47c-3a94-458e-bdb1-8077a5e8d0cc"},"vehicle_type_id":"4","last_reported":1774982790,"current_range_meters":8000,"station_id":"ce4bhbh2rcd13ifvqepg","pricing_plan_id":"cebpf4jnsgd1na2vs0mg"},{"bike_id":"54b32ec7-ddfd-41e6-ae23-087da91e8924","system_id":"levelo_inurba_marseille","lat":43.29898,"lon":5.43682,"is_reserved":false,"is_disabled":false,"rental_uris":{"android":"levelo://app?vid=54b32ec7-ddfd-41e6-ae23-087da91e8924","ios":"levelo://app?vid=54b32ec7-ddfd-41e6-ae23-087da91e8924"},"vehicle_type_id":"4","last_reported":1774982790,"current_range_meters":8400,"station_id":"ce4bhpp2rcd13ifvqhfg","pricing_plan_id":"cebpf4jnsgd1na2vs0mg"},{"bike_id":"e458a106-03bd-43e1-805a-4e2ea0bec4ed","system_id":"levelo_inurba_marseille","lat":43.31863,"lon":5.38408,"is_reserved":false,"is_disabled":false,"rental_uris":{"android":"levelo://app?vid=e458a106-03bd-43e1-805a-4e2ea0bec4ed","ios":"levelo://app?vid=e458a106-03bd-43e1-805a-4e2ea0bec4ed"},"vehicle_type_id":"4","last_reported":1774982790,"current_range_meters":8400,"station_id":"","pricing_plan_id":"cebpf4jnsgd1na2vs0mg"},{"bike_id":"97911566-b39d-4772-9786-37508c49e45f","system_id":"levelo_inurba_marseille","lat":43.22561,"lon":5.41625,"is_reserved":false,"is_disabled":false,"rental_uris":{"android":"levelo://app?vid=97911566-b39d-4772-9786-37508c49e45f","ios":"levelo://app?vid=97911566-b39d-4772-9786-37508c49e45f"},"vehicle_type_id":"4","last_reported":1774982790,"current_range_meters":8400,"station_id":"st_d2o4gvlbi1j2169b742g","pricing_plan_id":"cebpf4jnsgd1na2vs0mg"},{"bike_id":"1130d409-34d2-42ba-a5d5-ed99d6325005","system_id":"levelo_inurba_marseille","lat":43.2174,"lon":5.34615,"is_reserved":false,"is_disabled":false,"rental_uris":{"android":"levelo://app?vid=1130d409-34d2-42ba-a5d5-ed99d6325005","ios":"levelo://app?vid=1130d409-34d2-42ba-a5d5-ed99d6325005"},"vehicle_type_id":"4","last_reported":1774982790,"current_range_meters":8400,"station_id":"st_cvj6r9ubvosntc0bgbag","pricing_plan_id":"cebpf4jnsgd1na2vs0mg"},{"bike_id":"9c014c21-0814-46e2-9079-4ed86b4000e6","system_id":"levelo_inurba_marseille","lat":43.23787,"lon":5.36642,"is_reserved":false,"is_disabled":false,"rental_uris":{"android":"levelo://app?vid=9c014c21-0814-46e2-9079-4ed86b4000e6","ios":"levelo://app?vid=9c014c21-0814-46e2-9079-4ed86b4000e6"},"vehicle_type_id":"4","last_reported":1774982790,"current_range_meters":8400,"station_id":"st_d3nk18o9ro0c73en2l3g","pricing_plan_id":"cebpf4jnsgd1na2vs0mg"},{"bike_id":"d41d5ff3-651c-4e70-8a12-e8a105b53c64","system_id":"levelo_inurba_marseille","lat":43.31548,"lon":5.44563,"is_reserved":false,"is_disabled":false,"rental_uris":{"android":"levelo://app?vid=d41d5ff3-651c-4e70-8a12-e8a105b53c64","ios":"levelo://app?vid=d41d5ff3-651c-4e70-8a12-e8a105b53c64"},"vehicle_type_id":"4","last_reported":1774982790,"current_range_meters":8400,"station_id":"","pricing_plan_id":"cebpf4jnsgd1na2vs0mg"},{"bike_id":"67f59828-71ae-45a6-96ce-d8b147997bc0","system_id":"levelo_inurba_marseille","lat":43.25577,"lon":5.3823,"is_reserved":false,"is_disabled":false,"rental_uris":{"android":"levelo://app?vid=67f59828-71ae-45a6-96ce-d8b147997bc0","ios":"levelo://app?vid=67f59828-71ae-45a6-96ce-d8b147997bc0"},"vehicle_type_id":"4","last_reported":1774982790,"current_range_meters":8400,"station_id":"ce4bhih2rcd13ifvqfs0","pricing_plan_id":"cebpf4jnsgd1na2vs0mg"},{"bike_id":"3bfb64b8-22fe-4091-a3b5-da4c8299aeec","system_id":"levelo_inurba_marseille","lat":43.27142,"lon":5.39182,"is_reserved":false,"is_disabled":false,"rental_uris":{"android":"levelo://app?vid=3bfb64b8-22fe-4091-a3b5-da4c8299aeec","ios":"levelo://app?vid=3bfb64b8-22fe-4091-a3b5-da4c8299aeec"},"vehicle_type_id":"4","last_reported":1774982790,"current_range_meters":8400,"station_id":"","pricing_plan_id":"cebpf4jnsgd1na2vs0mg"},{"bike_id":"2472a388-2ba6-406a-93b5-09de3d970e91","system_id":"levelo_inurba_marseille","lat":43.24395,"lon":5.37054,"is_reserved":false,"is_disabled":false,"rental_uris":{"android":"levelo://app?vid=2472a388-2ba6-406a-93b5-09de3d970e91","ios":"levelo://app?vid=2472a388-2ba6-406a-93b5-09de3d970e91"},"vehicle_type_id":"4","last_reported":1774982790,"current_range_meters":8400,"station_id":"ce4bhhh2rcd13ifvqfk0","pricing_plan_id":"cebpf4jnsgd1na2vs0mg"},{"bike_id":"0f182db9-a1f9-46fd-9199-275e74a125d7","system_id":"levelo_inurba_marseille","lat":43.24173,"lon":5.36392,"is_reserved":false,"is_disabled":false,"rental_uris":{"android":"levelo://app?vid=0f182db9-a1f9-46fd-9199-275e74a125d7","ios":"levelo://app?vid=0f182db9-a1f9-46fd-9199-275e74a125d7"},"vehicle_type_id":"4","last_reported":1774982790,"current_range_meters":8400,"station_id":"cpo36qri1sfpv3e86is0","pricing_plan_id":"cebpf4jnsgd1na2vs0mg"},{"bike_id":"90db7762-e466-487a-83df-f64f12541822","system_id":"levelo_inurba_marseille","lat":43.29288,"lon":5.37462,"is_reserved":false,"is_disabled":false,"rental_uris":{"android":"levelo://app?vid=90db7762-e466-487a-83df-f64f12541822","ios":"levelo://app?vid=90db7762-e466-487a-83df-f64f12541822"},"vehicle_type_id":"4","last_reported":1774982790,"current_range_meters":8400,"station_id":"ce4bgi12rcd13ifvqb70","pricing_plan_id":"cebpf4jnsgd1na2vs0mg"},{"bike_id":"1b957733-84d6-4d17-8f2b-ecfa19890447","system_id":"levelo_inurba_marseille","lat":43.33569,"lon":5.37323,"is_reserved":false,"is_disabled":false,"rental_uris":{"android":"levelo://app?vid=1b957733-84d6-4d17-8f2b-ecfa19890447","ios":"levelo://app?vid=1b957733-84d6-4d17-8f2b-ecfa19890447"},"vehicle_type_id":"4","last_reported":1774982790,"current_range_meters":8400,"station_id":"","pricing_plan_id":"cebpf4jnsgd1na2vs0mg"},{"bike_id":"662aca47-7110-4efb-bfa2-d453ff60e38f","system_id":"levelo_inurba_marseille","lat":43.28413,"lon":5.34994,"is_reserved":false,"is_disabled":false,"rental_uris":{"android":"levelo://app?vid=662aca47-7110-4efb-bfa2-d453ff60e38f","ios":"levelo://app?vid=662aca47-7110-4efb-bfa2-d453ff60e38f"},"vehicle_type_id":"4","last_reported":1774982790,"current_range_meters":8400,"station_id":"ce4bhbh2rcd13ifvqepg","pricing_plan_id":"cebpf4jnsgd1na2vs0mg"},{"bike_id":"b1d02504-2c4f-47d1-9d0a-aa3599012e9a","system_id":"levelo_inurba_marseille","lat":43.26817,"lon":5.40241,"is_reserved":false,"is_disabled":false,"rental_uris":{"android":"levelo://app?vid=b1d02504-2c4f-47d1-9d0a-aa3599012e9a","ios":"levelo://app?vid=b1d02504-2c4f-47d1-9d0a-aa3599012e9a"},"vehicle_type_id":"4","last_reported":1774982790,"current_range_meters":8400,"station_id":"ce501612rcd8frsf0b60","pricing_plan_id":"cebpf4jnsgd1na2vs0mg"},{"bike_id":"72509681-52aa-4782-9de0-820bb878387d","system_id":"levelo_inurba_marseille","lat":43.22557,"lon":5.41629,"is_reserved":false,"is_disabled":false,"rental_uris":{"android":"levelo://app?vid=72509681-52aa-4782-9de0-820bb878387d","ios":"levelo://app?vid=72509681-52aa-4782-9de0-820bb878387d"},"vehicle_type_id":"4","last_reported":1774982790,"current_range_meters":8400,"station_id":"st_d2o4gvlbi1j2169b742g","pricing_plan_id":"cebpf4jnsgd1na2vs0mg"},{"bike_id":"bb0d11db-19ae-4f1c-8146-45d8cf0530f7","system_id":"levelo_inurba_marseille","lat":43.337444,"lon":5.374475,"is_reserved":false,"is_disabled":true,"rental_uris":{"android":"levelo://app?vid=bb0d11db-19ae-4f1c-8146-45d8cf0530f7","ios":"levelo://app?vid=bb0d11db-19ae-4f1c-8146-45d8cf0530f7"},"vehicle_type_id":"4","last_reported":1774982790,"current_range_meters":8400,"station_id":"","pricing_plan_id":"cebpf4jnsgd1na2vs0mg"},{"bike_id":"2143be35-497d-4c7b-9f85-3e781cd61463","system_id":"levelo_inurba_marseille","lat":43.29903,"lon":5.43676,"is_reserved":false,"is_disabled":false,"rental_uris":{"android":"levelo://app?vid=2143be35-497d-4c7b-9f85-3e781cd61463","ios":"levelo://app?vid=2143be35-497d-4c7b-9f85-3e781cd61463"},"vehicle_type_id":"4","last_reported":1774982790,"current_range_meters":8400,"station_id":"ce4bhpp2rcd13ifvqhfg","pricing_plan_id":"cebpf4jnsgd1na2vs0mg"},{"bike_id":"47eaf68a-588c-412f-abcc-b3347bd031c5","system_id":"levelo_inurba_marseille","lat":43.30799,"lon":5.38163,"is_reserved":false,"is_disabled":false,"rental_uris":{"android":"levelo://app?vid=47eaf68a-588c-412f-abcc-b3347bd031c5","ios":"levelo://app?vid=47eaf68a-588c-412f-abcc-b3347bd031c5"},"vehicle_type_id":"4","last_reported":1774982790,"current_range_meters":8400,"station_id":"ce4bgt12rcd13ifvqce0","pricing_plan_id":"cebpf4jnsgd1na2vs0mg"},{"bike_id":"722011ab-b00b-4179-a02f-19a862b4273e","system_id":"levelo_inurba_marseille","lat":43.29256,"lon":5.38456,"is_reserved":false,"is_disabled":false,"rental_uris":{"android":"levelo://app?vid=722011ab-b00b-4179-a02f-19a862b4273e","ios":"levelo://app?vid=722011ab-b00b-4179-a02f-19a862b4273e"},"vehicle_type_id":"4","last_reported":1774982790,"current_range_meters":8400,"station_id":"ce4bh692rcd13ifvqea0","pricing_plan_id":"cebpf4jnsgd1na2vs0mg"},{"bike_id":"f068e422-1257-4526-b048-d3bf8f18fddf","system_id":"levelo_inurba_marseille","lat":43.28711,"lon":5.37934,"is_reserved":false,"is_disabled":false,"rental_uris":{"android":"levelo://app?vid=f068e422-1257-4526-b048-d3bf8f18fddf","ios":"levelo://app?vid=f068e422-1257-4526-b048-d3bf8f18fddf"},"vehicle_type_id":"4","last_reported":1774982790,"current_range_meters":8400,"station_id":"ce4bh9p2rcd13ifvqec0","pricing_plan_id":"cebpf4jnsgd1na2vs0mg"},{"bike_id":"8fc970ee-a484-45a1-8680-8f7f28a23ddf","system_id":"levelo_inurba_marseille","lat":43.21763,"lon":5.34617,"is_reserved":false,"is_disabled":false,"rental_uris":{"android":"levelo://app?vid=8fc970ee-a484-45a1-8680-8f7f28a23ddf","ios":"levelo://app?vid=8fc970ee-a484-45a1-8680-8f7f28a23ddf"},"vehicle_type_id":"4","last_reported":1774982790,"current_range_meters":8400,"station_id":"st_cvj6r9ubvosntc0bgbag","pricing_plan_id":"cebpf4jnsgd1na2vs0mg"},{"bike_id":"eb168392-a120-432c-95f8-0710fc1ccfde","system_id":"levelo_inurba_marseille","lat":43.23201,"lon":5.35559,"is_reserved":false,"is_disabled":false,"rental_uris":{"android":"levelo://app?vid=eb168392-a120-432c-95f8-0710fc1ccfde","ios":"levelo://app?vid=eb168392-a120-432c-95f8-0710fc1ccfde"},"vehicle_type_id":"4","last_reported":1774982790,"current_range_meters":8400,"station_id":"ce4bhu92rcd13ifvqi70","pricing_plan_id":"cebpf4jnsgd1na2vs0mg"},{"bike_id":"0494349d-f595-4ba0-8472-b0727a4b937a","system_id":"levelo_inurba_marseille","lat":43.29628,"lon":5.40595,"is_reserved":false,"is_disabled":false,"rental_uris":{"android":"levelo://app?vid=0494349d-f595-4ba0-8472-b0727a4b937a","ios":"levelo://app?vid=0494349d-f595-4ba0-8472-b0727a4b937a"},"vehicle_type_id":"4","last_reported":1774982790,"current_range_meters":8400,"station_id":"ce4bh0h2rcd13ifvqd60","pricing_plan_id":"cebpf4jnsgd1na2vs0mg"},{"bike_id":"a20f850c-d4ca-4157-bd3f-18fda064d36f","system_id":"levelo_inurba_marseille","lat":43.29529,"lon":5.38657,"is_reserved":false,"is_disabled":false,"rental_uris":{"android":"levelo://app?vid=a20f850c-d4ca-4157-bd3f-18fda064d36f","ios":"levelo://app?vid=a20f850c-d4ca-4157-bd3f-18fda064d36f"},"vehicle_type_id":"4","last_reported":1774982790,"current_range_meters":8800,"station_id":"","pricing_plan_id":"cebpf4jnsgd1na2vs0mg"},{"bike_id":"140d59d9-5fe1-4f30-b8f2-8350c1b6a55b","system_id":"levelo_inurba_marseille","lat":43.28401,"lon":5.3502,"is_reserved":false,"is_disabled":false,"rental_uris":{"android":"levelo://app?vid=140d59d9-5fe1-4f30-b8f2-8350c1b6a55b","ios":"levelo://app?vid=140d59d9-5fe1-4f30-b8f2-8350c1b6a55b"},"vehicle_type_id":"4","last_reported":1774982790,"current_range_meters":8800,"station_id":"ce4bhbh2rcd13ifvqepg","pricing_plan_id":"cebpf4jnsgd1na2vs0mg"},{"bike_id":"435393ff-9e8e-4fa2-82a4-6ce12bbccbed","system_id":"levelo_inurba_marseille","lat":43.2848,"lon":5.48405,"is_reserved":false,"is_disabled":false,"rental_uris":{"android":"levelo://app?vid=435393ff-9e8e-4fa2-82a4-6ce12bbccbed","ios":"levelo://app?vid=435393ff-9e8e-4fa2-82a4-6ce12bbccbed"},"vehicle_type_id":"4","last_reported":1774982790,"current_range_meters":8800,"station_id":"st_d3svhcjqgbts73a3dn0g","pricing_plan_id":"cebpf4jnsgd1na2vs0mg"},{"bike_id":"4be67f15-2ea4-4587-9095-2736842c9f0e","system_id":"levelo_inurba_marseille","lat":43.24812,"lon":5.3746,"is_reserved":false,"is_disabled":false,"rental_uris":{"android":"levelo://app?vid=4be67f15-2ea4-4587-9095-2736842c9f0e","ios":"levelo://app?vid=4be67f15-2ea4-4587-9095-2736842c9f0e"},"vehicle_type_id":"4","last_reported":1774982790,"current_range_meters":8800,"station_id":"ce4bhgh2rcd13ifvqfb0","pricing_plan_id":"cebpf4jnsgd1na2vs0mg"},{"bike_id":"1fd14647-60cf-49f0-a971-843beb62395e","system_id":"levelo_inurba_marseille","lat":43.28516,"lon":5.44085,"is_reserved":false,"is_disabled":false,"rental_uris":{"android":"levelo://app?vid=1fd14647-60cf-49f0-a971-843beb62395e","ios":"levelo://app?vid=1fd14647-60cf-49f0-a971-843beb62395e"},"vehicle_type_id":"4","last_reported":1774982790,"current_range_meters":8800,"station_id":"st_d3j3df2ikq2c7380ej80","pricing_plan_id":"cebpf4jnsgd1na2vs0mg"},{"bike_id":"f72c056e-6f2a-472b-af06-e0de2f64cbf8","system_id":"levelo_inurba_marseille","lat":43.31357,"lon":5.36686,"is_reserved":false,"is_disabled":false,"rental_uris":{"android":"levelo://app?vid=f72c056e-6f2a-472b-af06-e0de2f64cbf8","ios":"levelo://app?vid=f72c056e-6f2a-472b-af06-e0de2f64cbf8"},"vehicle_type_id":"4","last_reported":1774982790,"current_range_meters":8800,"station_id":"ce4bgr92rcd13ifvqc6g","pricing_plan_id":"cebpf4jnsgd1na2vs0mg"},{"bike_id":"10143625-4f1f-4b98-a23a-f0e119d830ff","system_id":"levelo_inurba_marseille","lat":43.24861,"lon":5.37454,"is_reserved":false,"is_disabled":false,"rental_uris":{"android":"levelo://app?vid=10143625-4f1f-4b98-a23a-f0e119d830ff","ios":"levelo://app?vid=10143625-4f1f-4b98-a23a-f0e119d830ff"},"vehicle_type_id":"4","last_reported":1774982790,"current_range_meters":8800,"station_id":"","pricing_plan_id":"cebpf4jnsgd1na2vs0mg"},{"bike_id":"ac750519-69a1-4eac-846f-31128d535c20","system_id":"levelo_inurba_marseille","lat":43.24418,"lon":5.37031,"is_reserved":false,"is_disabled":false,"rental_uris":{"android":"levelo://app?vid=ac750519-69a1-4eac-846f-31128d535c20","ios":"levelo://app?vid=ac750519-69a1-4eac-846f-31128d535c20"},"vehicle_type_id":"4","last_reported":1774982790,"current_range_meters":8800,"station_id":"ce4bhhh2rcd13ifvqfk0","pricing_plan_id":"cebpf4jnsgd1na2vs0mg"},{"bike_id":"160b1608-02df-4513-8750-4ec5ce8b87b8","system_id":"levelo_inurba_marseille","lat":43.28421,"lon":5.35,"is_reserved":false,"is_disabled":false,"rental_uris":{"android":"levelo://app?vid=160b1608-02df-4513-8750-4ec5ce8b87b8","ios":"levelo://app?vid=160b1608-02df-4513-8750-4ec5ce8b87b8"},